[{"lat":"37.701326236","long":"126.93985803","imageIndex":5,"items":[{"name":"꾀꼬리민박","tel":"031-855-1010","addr":"경기도 양주시 장흥면 삼상리 84번지","indutype":"숙박업 - 여관/기타숙박업","category":"hotel"},{"name":"꾀꼬리산장","tel":"031-855-1010","addr":"경기도 양주시 장흥면 삼상리 84번지","indutype":"숙박업 - 여관/기타숙박업","category":"hotel"}]},{"lat":"37.699019218","long":"126.93882813","imageIndex":5,"items":[{"name":"라임하우스","tel":"070-8828-7895","addr":"경기도 양주시 장흥면 삼상리 146-2번지","indutype":"숙박업 - 여관/기타숙박업","category":"hotel"}]},{"lat":"37.700297887","long":"126.93755705","imageIndex":5,"items":[{"name":"솔내음한옥펜션","tel":"031-855-2634","addr":"경기도 양주시 장흥면 삼상리 118-2번지 1층","indutype":"숙박업 - 여관/기타숙박업","category":"hotel"}]},{"lat":"37.703437392","long":"126.94554874","imageIndex":5,"items":[{"name":"억순네민박","tel":"031-878-6006","addr":"경기도 양주시 장흥면 삼상리 18","indutype":"숙박업 - 여관/기타숙박업","category":"hotel"}]},{"lat":"37.692933378","long":"126.93128224","imageIndex":5,"items":[{"name":"연꽃펜션","tel":"031-887-5293","addr":"경기도 양주시 장흥면 삼상리 225-2번지","indutype":"숙박업 - 여관/기타숙박업","category":"hotel"}]},{"lat":"37.709540238","long":"126.95288138","imageIndex":5,"items":[{"name":"우석팜스테이","tel":"031-855-1374","addr":"경기도 양주시 장흥면 삼상리 5-10번지","indutype":"숙박업 - 여관/기타숙박업","category":"hotel"}]},{"lat":"37.702570917","long":"126.94244238","imageIndex":5,"items":[{"name":"일영나들이","tel":"031-873-7383","addr":"경기도 양주시 장흥면 삼상리 101번지","indutype":"숙박업 - 여관/기타숙박업","category":"hotel"}]},{"lat":"37.701186329","long":"126.93150109","imageIndex":5,"items":[{"name":"일영마당뜰펜션","tel":"02-1111-1111","addr":"경기도 양주시 장흥면 삼상리 373-7번지 1층","indutype":"숙박업 - 여관/기타숙박업","category":"hotel"}]},{"lat":"37.699541417","long":"126.93817002","imageIndex":5,"items":[{"name":"일영펜션","tel":"070-4419-8292","addr":"경기도 양주시 장흥면 삼상리 144-6번지","indutype":"숙박업 - 여관/기타숙박업","category":"hotel"}]},{"lat":"37.692465063","long":"126.93158882","imageIndex":5,"items":[{"name":"임자방","tel":"031-366-5110","addr":"경기도 양주시 장흥면 삼상리 205번지","indutype":"숙박업 - 여관/기타숙박업","category":"hotel"}]},{"lat":"37.695240593","long":"126.93252724","imageIndex":5,"items":[{"name":"전원농장","tel":"031-855-2221","addr":"경기도 양주시 장흥면 삼상리 232-4번지","indutype":"숙박업 - 여관/기타숙박업","category":"hotel"}]},{"lat":"37.702877127","long":"126.94221534","imageIndex":5,"items":[{"name":"하늘정원펜션","tel":"031-904-2055","addr":"경기도 양주시 장흥면 삼상리 106-5번지","indutype":"숙박업 - 여관/기타숙박업","category":"hotel"}]},{"lat":"37.697046172","long":"126.93894322","imageIndex":5,"items":[{"name":"하얀집팬션","tel":"031-855-5243","addr":"경기도 양주시 장흥면 삼상리 70-1","indutype":"숙박업 - 여관/기타숙박업","category":"hotel"}]},{"lat":"37.698099678","long":"126.93780843","imageIndex":5,"items":[{"name":"한지붕","tel":"031-855-5949","addr":"경기도 양주시 장흥면 삼상리 169-12번지","indutype":"숙박업 - 여관/기타숙박업","category":"hotel"}]}]