[{"lat":"37.810760625","long":"127.1096172","imageIndex":0,"items":[{"name":"B&A모터스","tel":"031-846-4100","addr":"경기도 양주시 삼숭동 96-35번지","indutype":"자동차정비 유지 - 자동차부품","category":"car"}]},{"lat":"37.799732698","long":"127.08790319","imageIndex":0,"items":[{"name":"JJ모터스","tel":"031-841-7878","addr":"경기도 양주시 삼숭동 621번지","indutype":"자동차정비 유지 - 자동차정비","category":"car"}]},{"lat":"37.807951921","long":"127.09637253","imageIndex":0,"items":[{"name":"네바퀴타이어","tel":"031-844-0111","addr":"경기도 양주시 삼숭동 560번지","indutype":"자동차정비 유지 - 자동차시트·타이어","category":"car"}]},{"lat":"37.80911843","long":"127.10214274","imageIndex":0,"items":[{"name":"문모터스","tel":"031-111-1111","addr":"경기도 양주시 삼숭동 474-2번지","indutype":"자동차정비 유지 - 자동차부품","category":"car"}]},{"lat":"37.797010127","long":"127.10164967","imageIndex":0,"items":[{"name":"보스카오디오","tel":"031-858-5254","addr":"경기도 양주시 삼숭동 267-9번지","indutype":"자동차정비 유지 - 자동차부품","category":"car"}]},{"lat":"37.808566595","long":"127.10478787","imageIndex":0,"items":[{"name":"쌍용자동차북양주정비센터(주)","tel":"031-844-5582","addr":"경기도 양주시 삼숭동 139번지","indutype":"자동차정비 유지 - 자동차정비","category":"car"}]},{"lat":"37.809328021","long":"127.10972869","imageIndex":0,"items":[{"name":"액션모터스","tel":"070-8845-1178","addr":"경기도 양주시 삼숭동 97번지 나동","indutype":"자동차정비 유지 - 자동차정비","category":"car"}]},{"lat":"37.808809584","long":"127.10509481","imageIndex":0,"items":[{"name":"양주 중고차","tel":"031-856-2227","addr":"경기도 양주시 삼숭동 141-1번지","indutype":"자동차판매 - 중고자동차판매","category":"car"}]},{"lat":"37.805843971","long":"127.09604057","imageIndex":0,"items":[{"name":"우성자동차공업사(주)","tel":"031-821-8580","addr":"경기도 양주시 삼숭동 565-4번지","indutype":"자동차정비 유지 - 자동차정비","category":"car"}]},{"lat":"37.798504884","long":"127.10261676","imageIndex":0,"items":[{"name":"우진세차장","tel":"031-861-8833","addr":"경기도 양주시 삼숭동 331번지","indutype":"자동차정비 유지 - 세차장","category":"car"}]},{"lat":"37.806727602","long":"127.09514461","imageIndex":0,"items":[{"name":"웅카모터스","tel":"031-841-5023","addr":"경기도 양주시 삼숭동 563-3번지","indutype":"자동차정비 유지 - 자동차정비","category":"car"}]},{"lat":"37.808674057","long":"127.1055375","imageIndex":0,"items":[{"name":"워시베이","tel":"031-848-2273","addr":"경기도 양주시 삼숭동 141-2번지","indutype":"자동차정비 유지 - 세차장","category":"car"}]},{"lat":"37.810058719","long":"127.10869636","imageIndex":0,"items":[{"name":"워시엠셀프세차","tel":"031-843-1482","addr":"경기도 양주시 삼숭동 98-12번지","indutype":"자동차정비 유지 - 세차장","category":"car"}]},{"lat":"37.812648165","long":"127.10445279","imageIndex":0,"items":[{"name":"유워시","tel":"031-821-0988","addr":"경기도 양주시 삼숭동 28-2번지","indutype":"자동차정비 유지 - 세차장","category":"car"}]},{"lat":"37.795226234","long":"127.10167","imageIndex":0,"items":[{"name":"자이자동차세상","tel":"031-859-9244","addr":"경기도 양주시 삼숭동 226번지","indutype":"자동차정비 유지 - 자동차정비","category":"car"}]},{"lat":"37.799478423","long":"127.10200494","imageIndex":0,"items":[{"name":"정우카센타","tel":"031-844-7272","addr":"경기도 양주시 삼숭동 328-1번지","indutype":"자동차정비 유지 - 자동차정비","category":"car"}]},{"lat":"37.796893563","long":"127.10097963","imageIndex":0,"items":[{"name":"정카센타","tel":"031-841-9939","addr":"경기도 양주시 삼숭동 259-2번지","indutype":"자동차정비 유지 - 자동차정비","category":"car"}]},{"lat":"37.811368972","long":"127.1042807","imageIndex":0,"items":[{"name":"카페이스","tel":"","addr":"경기도 양주시 삼숭동 126-2번지 1층 101호","indutype":"자동차정비 유지 - 세차장","category":"car"}]},{"lat":"37.807340547","long":"127.09475928","imageIndex":0,"items":[{"name":"퀵밧데리(북부점)","tel":"","addr":"경기도 양주시 삼숭동 557-9번지","indutype":"자동차정비 유지 - 자동차부품","category":"car"}]},{"lat":"37.804067245","long":"127.09836612","imageIndex":0,"items":[{"name":"한미자동차공업사","tel":"031-856-1067","addr":"경기도 양주시 삼숭동 373-7번지","indutype":"자동차정비 유지 - 자동차정비","category":"car"}]},{"lat":"37.807196977","long":"127.09400964","imageIndex":0,"items":[{"name":"현대차유리","tel":"031-544-6282","addr":"경기도 양주시 삼숭동 558-2번지","indutype":"자동차정비 유지 - 카인테리어","category":"car"}]}]