[{"lat":"37.956024553","long":"127.31742473","imageIndex":5,"items":[{"name":"MoTEL XO","tel":"031-532-9608","addr":"경기도 포천시 일동면 기산리 85-56번지","indutype":"숙박업 - 여관/기타숙박업","category":"hotel"}]},{"lat":"37.937553316","long":"127.34722933","imageIndex":5,"items":[{"name":"계절이야기펜션","tel":"031-531-9559","addr":"경기도 포천시 일동면 기산리 1-17번지","indutype":"숙박업 - 여관/기타숙박업","category":"hotel"}]},{"lat":"37.956933436","long":"127.31781547","imageIndex":5,"items":[{"name":"금수모텔","tel":"533-6632","addr":"경기도 포천시 일동면 기산리 83-99번지","indutype":"숙박업 - 모텔","category":"hotel"},{"name":"금수모텔","tel":"031-533-6632","addr":"경기도 포천시 일동면 기산리 83-99번지 포천","indutype":"숙박업 - 여관/기타숙박업","category":"hotel"}]},{"lat":"37.941883721","long":"127.34517908","imageIndex":5,"items":[{"name":"돌체비타","tel":"070-7705-8189","addr":"경기도 포천시 일동면 기산리 2-14","indutype":"숙박업 - 여관/기타숙박업","category":"hotel"}]},{"lat":"37.939410521","long":"127.34056044","imageIndex":5,"items":[{"name":"라비앤로즈","tel":"031-531-8020","addr":"경기도 포천시 일동면 기산리 13-21번지","indutype":"숙박업 - 여관/기타숙박업","category":"hotel"}]},{"lat":"37.940685333","long":"127.35137341","imageIndex":5,"items":[{"name":"별이아름다운팬션","tel":"031-532-3456","addr":"경기도 포천시 일동면 기산리 1-41번지","indutype":"숙박업 - 여관/기타숙박업","category":"hotel"}]},{"lat":"37.941935522","long":"127.3459529","imageIndex":5,"items":[{"name":"샤이나펜션","tel":"031-533-2222","addr":"경기도 포천시 일동면 기산리 2-23번지 나동","indutype":"숙박업 - 여관/기타숙박업","category":"hotel"}]},{"lat":"37.95687865","long":"127.31808832","imageIndex":5,"items":[{"name":"세종여관","tel":"031-532-3895","addr":"경기도 포천시 일동면 기산리 83-97번지 1층","indutype":"숙박업 - 여관/기타숙박업","category":"hotel"}]},{"lat":"37.936606861","long":"127.34739555","imageIndex":5,"items":[{"name":"수림팬션","tel":"031-535-8769","addr":"경기도 포천시 일동면 기산리 1-24번지","indutype":"숙박업 - 여관/기타숙박업","category":"hotel"}]},{"lat":"37.948629679","long":"127.31339981","imageIndex":5,"items":[{"name":"쉴모텔","tel":"031-536-7877","addr":"경기도 포천시 일동면 기산리 329-1번지","indutype":"숙박업 - 여관/기타숙박업","category":"hotel"},{"name":"쉴모텔","tel":"536-7877","addr":"경기도 포천시 일동면 기산리 329-1번지","indutype":"숙박업 - 모텔","category":"hotel"}]},{"lat":"37.958295452","long":"127.31720684","imageIndex":5,"items":[{"name":"썸모텔","tel":"031-533-9977","addr":"경기도 포천시 일동면 기산리 91-69번지","indutype":"숙박업 - 여관/기타숙박업","category":"hotel"}]},{"lat":"37.943107016","long":"127.35500251","imageIndex":5,"items":[{"name":"아꼬떼","tel":"","addr":"경기도 포천시 일동면 기산리 1-166번지","indutype":"숙박업 - 여관/기타숙박업","category":"hotel"}]},{"lat":"37.956936416","long":"127.3167004","imageIndex":5,"items":[{"name":"애성장","tel":"031-532-1135","addr":"경기도 포천시 일동면 기산리 90-122번지","indutype":"숙박업 - 여관/기타숙박업","category":"hotel"}]},{"lat":"37.956295038","long":"127.31734623","imageIndex":5,"items":[{"name":"에이모텔","tel":"031-532-2984","addr":"경기도 포천시 일동면 기산리 90-161번지 2층","indutype":"숙박업 - 여관/기타숙박업","category":"hotel"}]},{"lat":"37.955829752","long":"127.31614953","imageIndex":5,"items":[{"name":"일동장","tel":"031-532-3828","addr":"경기도 포천시 일동면 기산리 96-102번지","indutype":"숙박업 - 여관/기타숙박업","category":"hotel"}]},{"lat":"37.956824961","long":"127.31795155","imageIndex":5,"items":[{"name":"잇츠MOTEL","tel":"031-534-3003","addr":"경기도 포천시 일동면 기산리 83-100번지","indutype":"숙박업 - 여관/기타숙박업","category":"hotel"},{"name":"잇츠모텔","tel":"534-3003","addr":"경기도 포천시 일동면 기산리 83-100번지","indutype":"숙박업 - 모텔","category":"hotel"}]},{"lat":"37.942218312","long":"127.35392891","imageIndex":5,"items":[{"name":"자연과 사람들","tel":"031-535-3599","addr":"경기도 포천시 일동면 기산리 1-46번지 나동","indutype":"숙박업 - 여관/기타숙박업","category":"hotel"}]},{"lat":"37.936660183","long":"127.34764605","imageIndex":5,"items":[{"name":"조이토마토","tel":"031-531-1414","addr":"경기도 포천시 일동면 기산리 1-23번지","indutype":"숙박업 - 여관/기타숙박업","category":"hotel"},{"name":"프로포즈","tel":"031-531-1414","addr":"경기도 포천시 일동면 기산리 1-23번지","indutype":"숙박업 - 여관/기타숙박업","category":"hotel"}]},{"lat":"37.95716231","long":"127.31645103","imageIndex":5,"items":[{"name":"중앙장여관","tel":"031-532-3521","addr":"경기도 포천시 일동면 기산리 90-89번지","indutype":"숙박업 - 여관/기타숙박업","category":"hotel"}]},{"lat":"37.957215849","long":"127.31664469","imageIndex":5,"items":[{"name":"창신여관","tel":"031-532-3958","addr":"경기도 포천시 일동면 기산리 90-101번지","indutype":"숙박업 - 여관/기타숙박업","category":"hotel"}]},{"lat":"37.936026609","long":"127.34864411","imageIndex":5,"items":[{"name":"춘화원 청계펜션","tel":"031-534-2576","addr":"경기도 포천시 일동면 기산리 1-145번지","indutype":"숙박업 - 여관/기타숙박업","category":"hotel"}]},{"lat":"37.957602997","long":"127.31673737","imageIndex":5,"items":[{"name":"태화장","tel":"031-535-4352","addr":"경기도 포천시 일동면 기산리 91-132번지","indutype":"숙박업 - 여관/기타숙박업","category":"hotel"}]},{"lat":"37.937936093","long":"127.33948439","imageIndex":5,"items":[{"name":"테라스가아름다운집","tel":"031-534-5454","addr":"경기도 포천시 일동면 기산리 23-15","indutype":"숙박업 - 여관/기타숙박업","category":"hotel"}]},{"lat":"37.939851967","long":"127.34056246","imageIndex":5,"items":[{"name":"하늘과 바람의 호수","tel":"031-536-1221","addr":"경기도 포천시 일동면 기산리 14번지","indutype":"숙박업 - 여관/기타숙박업","category":"hotel"}]},{"lat":"37.940574383","long":"127.30690439","imageIndex":5,"items":[{"name":"하늘짚펜션","tel":"031-534-7474","addr":"경기도 포천시 일동면 기산리 695","indutype":"숙박업 - 여관/기타숙박업","category":"hotel"}]},{"lat":"37.940269139","long":"127.34584277","imageIndex":5,"items":[{"name":"하늘풍경","tel":"031-536-2300","addr":"경기도 포천시 일동면 기산리 1-12번지","indutype":"숙박업 - 여관/기타숙박업","category":"hotel"}]},{"lat":"37.941519377","long":"127.34961406","imageIndex":5,"items":[{"name":"햇살마루실우펜션","tel":"031-532-7878","addr":"경기도 포천시 일동면 기산리 1-44번지 외1필지","indutype":"숙박업 - 여관/기타숙박업","category":"hotel"}]},{"lat":"37.956240315","long":"127.31759632","imageIndex":5,"items":[{"name":"호성모텔","tel":"031-532-3826","addr":"경기도 포천시 일동면 기산리 85-29번지","indutype":"숙박업 - 여관/기타숙박업","category":"hotel"}]},{"lat":"37.936325613","long":"127.34806538","imageIndex":5,"items":[{"name":"휴가펜션","tel":"031-531-1414","addr":"경기도 포천시 일동면 기산리 1-81","indutype":"숙박업 - 여관/기타숙박업","category":"hotel"}]},{"lat":"37.957107588","long":"127.31670112","imageIndex":5,"items":[{"name":"힐링모텔","tel":"031-532-4352","addr":"경기도 포천시 일동면 기산리 90-116번지","indutype":"숙박업 - 여관/기타숙박업","category":"hotel"}]}]