[{"lat":"37.203884961","long":"126.94176096","imageIndex":4,"items":[{"name":"(주)명장시대","tel":"031-297-4423","addr":"경기도 화성시 봉담읍 왕림리 4-3번지 1,2층","indutype":"일반휴게음식 - 서양음식","category":"restaurant"}]},{"lat":"37.203578222","long":"126.94101776","imageIndex":4,"items":[{"name":"(주)정도","tel":"031-298-3535","addr":"경기도 화성시 봉담읍 왕림리 4-12번지","indutype":"일반휴게음식 - 일반한식","category":"restaurant"}]},{"lat":"37.19474702","long":"126.93909897","imageIndex":4,"items":[{"name":"(주)제임스라떼","tel":"031-245-6367","addr":"경기도 화성시 봉담읍 왕림리 283번지 현봉빌딩 3층 305호","indutype":"일반휴게음식 - 일반한식","category":"restaurant"},{"name":"러브레터","tel":"031-296-9290","addr":"경기도 화성시 봉담읍 왕림리 283번지 1층","indutype":"일반휴게음식 - 스넥","category":"restaurant"},{"name":"삼봉토종순대국","tel":"031-297-7383","addr":"경기도 화성시 봉담읍 왕림리 283번지","indutype":"일반휴게음식 - 일반한식","category":"restaurant"},{"name":"푸짐한밥상","tel":"031-227-0465","addr":"경기도 화성시 봉담읍 왕림리 283번지","indutype":"일반휴게음식 - 일반한식","category":"restaurant"},{"name":"해성각","tel":"031-298-1153","addr":"경기도 화성시 봉담읍 왕림리 283번지","indutype":"일반휴게음식 - 중국식","category":"restaurant"}]},{"lat":"37.199576831","long":"126.93954546","imageIndex":4,"items":[{"name":"가마골 쌈 밥","tel":"031-293-7078","addr":"경기도 화성시 봉담읍 왕림리 94-4번지","indutype":"일반휴게음식 - 일반한식","category":"restaurant"}]},{"lat":"37.203605842","long":"126.94215544","imageIndex":4,"items":[{"name":"가야밀면&수제돈까스","tel":"","addr":"경기도 화성시 봉담읍 왕림리 4-7번지 지하동1층","indutype":"일반휴게음식 - 일반한식","category":"restaurant"}]},{"lat":"37.194522104","long":"126.93974116","imageIndex":4,"items":[{"name":"갓등이영양탕","tel":"031-227-9332","addr":"경기도 화성시 봉담읍 왕림리 291번지","indutype":"일반휴게음식 - 일반한식","category":"restaurant"}]},{"lat":"37.193827899","long":"126.93898711","imageIndex":4,"items":[{"name":"강원도메밀막국수","tel":"031-297-5525","addr":"경기도 화성시 봉담읍 왕림리 404-19번지","indutype":"일반휴게음식 - 일반한식","category":"restaurant"}]},{"lat":"37.192631325","long":"126.94243454","imageIndex":4,"items":[{"name":"고향식당","tel":"031-227-6232","addr":"경기도 화성시 봉담읍 왕림리 356-33번지","indutype":"일반휴게음식 - 일반한식","category":"restaurant"}]},{"lat":"37.194494","long":"126.93775888","imageIndex":4,"items":[{"name":"김밥푸드카페","tel":"031-291-1022","addr":"경기도 화성시 봉담읍 왕림리 419번지 1층 일부","indutype":"일반휴게음식 - 일반한식","category":"restaurant"}]},{"lat":"37.20285833","long":"126.94284316","imageIndex":4,"items":[{"name":"끌림","tel":"031-227-5119","addr":"경기도 화성시 봉담읍 왕림리 10번지 1층","indutype":"일반휴게음식 - 서양음식","category":"restaurant"}]},{"lat":"37.18666547","long":"126.94056982","imageIndex":4,"items":[{"name":"덕림대가","tel":"031-227-1592","addr":"경기도 화성시 봉담읍 왕림리 593번지","indutype":"일반휴게음식 - 일반한식","category":"restaurant"}]},{"lat":"37.195053759","long":"126.93981955","imageIndex":4,"items":[{"name":"동양가구앤갤러리퍼니쳐","tel":"031-297-8610","addr":"경기도 화성시 봉담읍 왕림리 294-8번지","indutype":"일반휴게음식 - 일반한식","category":"restaurant"}]},{"lat":"37.193358628","long":"126.93764722","imageIndex":4,"items":[{"name":"동해막국수","tel":"031-227-0595","addr":"경기도 화성시 봉담읍 왕림리 415-1번지","indutype":"일반휴게음식 - 일반한식","category":"restaurant"}]},{"lat":"37.200046467","long":"126.94162889","imageIndex":4,"items":[{"name":"먹깨비 봉담","tel":"02-1234-1234","addr":"경기도 화성시 봉담읍 왕림리 22번지 2동","indutype":"일반휴게음식 - 스넥","category":"restaurant"}]},{"lat":"37.201187562","long":"126.93568054","imageIndex":4,"items":[{"name":"밤골가든","tel":"031-227-7980","addr":"경기도 화성시 봉담읍 왕림리 91-15번지","indutype":"일반휴게음식 - 일반한식","category":"restaurant"}]},{"lat":"37.190051274","long":"126.9366815","imageIndex":4,"items":[{"name":"여시밥상","tel":"031-235-1816","addr":"경기도 화성시 봉담읍 왕림리 497번지 1층","indutype":"일반휴게음식 - 일반한식","category":"restaurant"}]},{"lat":"37.195909136","long":"126.93868125","imageIndex":4,"items":[{"name":"오대짬뽕","tel":"031-227-1255","addr":"경기도 화성시 봉담읍 왕림리 286-1번지","indutype":"일반휴게음식 - 중국식","category":"restaurant"}]},{"lat":"37.194602267","long":"126.93801784","imageIndex":4,"items":[{"name":"왕림가마솥순대국","tel":"031-298-0564","addr":"경기도 화성시 봉담읍 왕림리 277번지","indutype":"일반휴게음식 - 일식·회집","category":"restaurant"}]},{"lat":"37.194269408","long":"126.93898674","imageIndex":4,"items":[{"name":"우리한식부페","tel":"031-227-3390","addr":"경기도 화성시 봉담읍 왕림리 405-1번지 1층","indutype":"일반휴게음식 - 일반한식","category":"restaurant"},{"name":"처갓집양념치킨","tel":"031-298-6531","addr":"경기도 화성시 봉담읍 왕림리 405-1","indutype":"일반휴게음식 - 주점","category":"restaurant"}]},{"lat":"37.187888385","long":"126.93598514","imageIndex":4,"items":[{"name":"은혜구내식당","tel":"031-298-0014","addr":"경기도 화성시 봉담읍 왕림리 612-9번지","indutype":"일반휴게음식 - 위탁급식업","category":"restaurant"}]},{"lat":"37.191719075","long":"126.93826808","imageIndex":4,"items":[{"name":"창광뷔페식당","tel":"031-298-0014","addr":"경기도 화성시 봉담읍 왕림리 436","indutype":"일반휴게음식 - 일반한식","category":"restaurant"}]},{"lat":"37.202523948","long":"126.94090597","imageIndex":4,"items":[{"name":"투썸플레이스 봉담L패션타운점","tel":"031-222-0007","addr":"경기도 화성시 봉담읍 왕림리 15-14번지 2층","indutype":"일반휴게음식 - 서양음식","category":"restaurant"}]}]