[{"lat":"37.10734182","long":"127.07319548","imageIndex":17,"items":[{"name":"GS25 진위서로점","tel":"031-665-6231","addr":"경기도 평택시 진위면 견산리 440-2번지","indutype":"소매업 - 편의점","category":"other"},{"name":"GS25진위서로점","tel":"","addr":"경기도 평택시 진위면 견산리 440-2번지","indutype":"유통업 영리 - 편 의 점","category":"other"}]},{"lat":"37.108092013","long":"127.06916858","imageIndex":17,"items":[{"name":"GS25평택견산리점","tel":"","addr":"경기도 평택시 진위면 견산리 507-19번지","indutype":"유통업 영리 - 편 의 점","category":"other"},{"name":"성진종합상사","tel":"031-662-6597","addr":"경기도 평택시 진위면 견산리 507-19번지","indutype":"유통업 영리 - 기타유통업","category":"other"}]},{"lat":"37.108788684","long":"127.06383651","imageIndex":17,"items":[{"name":"GS25평택진위점","tel":"","addr":"경기도 평택시 진위면 견산리 520-2번지","indutype":"유통업 영리 - 편 의 점","category":"other"}]},{"lat":"37.107007432","long":"127.07486019","imageIndex":17,"items":[{"name":"경진에어컨","tel":"070-8966-6992","addr":"경기도 평택시 진위면 견산리 345-1번지","indutype":"용역 서비스 - 기타용역서비스","category":"other"}]},{"lat":"37.107206145","long":"127.07406162","imageIndex":17,"items":[{"name":"광진철물","tel":"031-662-5367","addr":"경기도 평택시 진위면 견산리 425-3번지","indutype":"건축자재 - 목재·석재·철물","category":"other"}]},{"lat":"37.108643779","long":"127.06525394","imageIndex":17,"items":[{"name":"농민마트 정육","tel":"031-662-1822","addr":"경기도 평택시 진위면 견산리 517-4번지","indutype":"소매업 - 정육","category":"other"}]},{"lat":"37.102282907","long":"127.06416878","imageIndex":17,"items":[{"name":"대한가설산업","tel":"031-611-6004","addr":"경기도 평택시 진위면 견산리 573번지","indutype":"건축자재 - 기타건축자재","category":"other"}]},{"lat":"37.107621279","long":"127.07297074","imageIndex":17,"items":[{"name":"똘똘이문구","tel":"031-6644-4012","addr":"경기도 평택시 진위면 견산리 402-1","indutype":"서적문구 - 문구용품","category":"other"},{"name":"용진정육점","tel":"031-666-5292","addr":"경기도 평택시 진위면 견산리 402-1번지","indutype":"소매업 - 정육","category":"other"}]},{"lat":"37.107866813","long":"127.06905588","imageIndex":17,"items":[{"name":"라이빅","tel":"031-662-5954","addr":"경기도 평택시 진위면 견산리 506-2번지","indutype":"농업 - 비료,사료,종자","category":"other"},{"name":"진위유리","tel":"031-668-7631","addr":"경기도 평택시 진위면 견산리 506-2번지 상가 1층 10/1호","indutype":"건축자재 - 유리","category":"other"}]},{"lat":"37.104175235","long":"127.06394531","imageIndex":17,"items":[{"name":"럭셔리전자담배","tel":"031-611-6160","addr":"경기도 평택시 진위면 견산리 554-6번지 1층","indutype":"기타 - 기타 전문점","category":"other"},{"name":"인성농자재","tel":"031-668-1231","addr":"경기도 평택시 진위면 견산리 554-6번지 남경빌딩 105호","indutype":"농업 - 비료,사료,종자","category":"other"}]},{"lat":"37.105535286","long":"127.08030374","imageIndex":17,"items":[{"name":"샘물유통","tel":"031-304-6644","addr":"경기도 평택시 진위면 견산리 33-1","indutype":"유통업 영리 - 기타유통업","category":"other"}]},{"lat":"37.108534344","long":"127.06769517","imageIndex":17,"items":[{"name":"서울상회","tel":"031-664-3334","addr":"경기도 평택시 진위면 견산리 511-2번지","indutype":"소매업 - 과일","category":"other"}]},{"lat":"37.107702686","long":"127.07244205","imageIndex":17,"items":[{"name":"씨유진위견산리점","tel":"031-375-5268","addr":"경기도 평택시 진위면 견산리 400번지","indutype":"유통업 영리 - 편 의 점","category":"other"}]},{"lat":"37.108344938","long":"127.06803252","imageIndex":17,"items":[{"name":"엠제이피싱(가까운낚시)","tel":"031-666-2733","addr":"경기도 평택시 진위면 견산리 510-2번지 외3필지,2층","indutype":"레져용품 - 스포츠·레져용품","category":"other"}]},{"lat":"37.108480684","long":"127.0669526","imageIndex":17,"items":[{"name":"오케이카써모","tel":"031-611-6310","addr":"경기도 평택시 진위면 견산리 489-1번지","indutype":"수리서비스 - 기타수리서비스","category":"other"}]},{"lat":"37.105344423","long":"127.08277852","imageIndex":17,"items":[{"name":"오피스디포 송탄점","tel":"031-647-3459","addr":"경기도 평택시 진위면 견산리 75-1번지 1-5호","indutype":"사무통신 - 기타 사무용품","category":"other"}]},{"lat":"37.104867662","long":"127.08158554","imageIndex":17,"items":[{"name":"이노볼트","tel":"031-611-1797","addr":"경기도 평택시 진위면 견산리 40-1번지 1층 2호","indutype":"기타 - 기계공구","category":"other"},{"name":"효성소방","tel":"031-664-1196","addr":"경기도 평택시 진위면 견산리 40-1번지 1층","indutype":"용역 서비스 - 기타용역서비스","category":"other"}]},{"lat":"37.108760684","long":"127.0656928","imageIndex":17,"items":[{"name":"일조컨테이너","tel":"031-666-4546","addr":"경기도 평택시 진위면 견산리 517-6번지 외3필지","indutype":"용역 서비스 - 보관및 창고업","category":"other"}]},{"lat":"37.106819805","long":"127.07218249","imageIndex":17,"items":[{"name":"제이에스공조","tel":"","addr":"경기도 평택시 진위면 견산리 441-38번지 서울아트빌라 7동 101호","indutype":"용역 서비스 - 기타용역서비스","category":"other"}]},{"lat":"37.10770365","long":"127.07077702","imageIndex":17,"items":[{"name":"제이원텍","tel":"031-668-7895","addr":"경기도 평택시 진위면 견산리 387-4번지","indutype":"기타 - 기계공구","category":"other"}]},{"lat":"37.107314621","long":"127.07347671","imageIndex":17,"items":[{"name":"지우","tel":"031-662-9772","addr":"경기도 평택시 진위면 견산리 426-2번지 101호","indutype":"전기제품 - 기타전기제품","category":"other"}]},{"lat":"37.107838374","long":"127.07153091","imageIndex":17,"items":[{"name":"진위공업사","tel":"031-611-2118","addr":"경기도 평택시 진위면 견산리 381-3번지","indutype":"건축자재 - 보일러·펌프·샷시","category":"other"},{"name":"퍼플하우스 주식회사","tel":"031-111-1111","addr":"경기도 평택시 진위면 견산리 381-3번지","indutype":"용역 서비스 - 종합용역","category":"other"}]},{"lat":"37.104004317","long":"127.06339394","imageIndex":17,"items":[{"name":"콜핑오산접","tel":"031-611-6999","addr":"경기도 평택시 진위면 견산리 547-4번지 1층","indutype":"레져용품 - 스포츠·레져용품","category":"other"}]},{"lat":"37.105733684","long":"127.06466656","imageIndex":17,"items":[{"name":"파미유퍼니처","tel":"031-666-4626","addr":"경기도 평택시 진위면 견산리 527-2번지 1층","indutype":"가구 - 일반가구","category":"other"}]},{"lat":"37.108814478","long":"127.06619911","imageIndex":17,"items":[{"name":"하북철물건재","tel":"031-668-5514","addr":"경기도 평택시 진위면 견산리 515-2번지","indutype":"건축자재 - 기타건축자재","category":"other"}]},{"lat":"37.104398537","long":"127.08245128","imageIndex":17,"items":[{"name":"행복공인중개사사무소","tel":"031-667-7577","addr":"경기도 평택시 진위면 견산리 67-3번지","indutype":"서비스업 - 부동산","category":"other"}]},{"lat":"37.107087245","long":"127.07694154","imageIndex":17,"items":[{"name":"황토화원","tel":"031-662-7767","addr":"경기도 평택시 진위면 견산리 352","indutype":"문화.취미 - 화원","category":"other"}]}]