[{"lat":"37.65266249","long":"127.14240037","imageIndex":8,"items":[{"name":"(주) 에일린바이오","tel":"031-111-1111","addr":"경기도 남양주시 퇴계원읍 퇴계원리 278-2번지 3층","indutype":"약국 - 제약회사","category":"medical"}]},{"lat":"37.655165278","long":"127.1440029","imageIndex":8,"items":[{"name":"21세기조훈의원","tel":"031-574-7139","addr":"경기도 남양주시 퇴계원읍 퇴계원리 90번지 도심빌딩 1-4층","indutype":"의원 - 의원","category":"medical"},{"name":"남양주클라인치과의원","tel":"031-571-0690","addr":"경기도 남양주시 퇴계원읍 퇴계원리 90번지 도심빌딩 2층","indutype":"의원 - 치과의원","category":"medical"},{"name":"우리내과의원","tel":"031-572-8275","addr":"경기도 남양주시 퇴계원읍 퇴계원리 90번지","indutype":"의원 - 의원","category":"medical"}]},{"lat":"37.647856636","long":"127.14548479","imageIndex":8,"items":[{"name":"경희맑음한의원","tel":"031-528-1941","addr":"경기도 남양주시 퇴계원읍 퇴계원리 211-1번지 성심빌딩 3층","indutype":"의원 - 한의원","category":"medical"},{"name":"한사랑의원","tel":"031-572-8335","addr":"경기도 남양주시 퇴계원읍 퇴계원리 211-1번지","indutype":"의원 - 의원","category":"medical"}]},{"lat":"37.649970424","long":"127.14084292","imageIndex":8,"items":[{"name":"경희튼튼한의원","tel":"031-529-0017","addr":"경기도 남양주시 퇴계원읍 퇴계원리 290-14번지 2층","indutype":"의원 - 한의원","category":"medical"}]},{"lat":"37.649276161","long":"127.14128356","imageIndex":8,"items":[{"name":"굿모닝약국","tel":"031-572-7749","addr":"경기도 남양주시 퇴계원읍 퇴계원리 295-3번지 1층","indutype":"약국 - 약국","category":"medical"},{"name":"연세재활의학과의원","tel":"031-571-1775","addr":"경기도 남양주시 퇴계원읍 퇴계원리 295-3번지 보성빌딩 2층","indutype":"의원 - 의원","category":"medical"},{"name":"참소아청소년과의원","tel":"031-572-5535","addr":"경기도 남양주시 퇴계원읍 퇴계원리 295-3번지 보성빌딩 2층","indutype":"의원 - 의원","category":"medical"}]},{"lat":"37.651554341","long":"127.1423643","imageIndex":8,"items":[{"name":"동의보감한의원","tel":"031-527-1025","addr":"경기도 남양주시 퇴계원읍 퇴계원리 280-5번지 중앙빌딩 2층","indutype":"의원 - 한의원","category":"medical"}]},{"lat":"37.651356877","long":"127.14172936","imageIndex":8,"items":[{"name":"믿음치과의원","tel":"031-571-4770","addr":"경기도 남양주시 퇴계원읍 퇴계원리 281-1번지 왕수상가 3층","indutype":"의원 - 치과의원","category":"medical"},{"name":"세민약국","tel":"031-571-6734","addr":"경기도 남양주시 퇴계원읍 퇴계원리 281-1번지","indutype":"약국 - 약국","category":"medical"},{"name":"퇴계원중앙의원","tel":"031-571-8042","addr":"경기도 남양주시 퇴계원읍 퇴계원리 281-1","indutype":"의원 - 의원","category":"medical"}]},{"lat":"37.652832855","long":"127.14309194","imageIndex":8,"items":[{"name":"박노훈한의원","tel":"031-571-7177","addr":"경기도 남양주시 퇴계원읍 퇴계원리 268-9번지 1층","indutype":"의원 - 한의원","category":"medical"}]},{"lat":"37.650833915","long":"127.14206833","imageIndex":8,"items":[{"name":"밝은김안과","tel":"031-575-1399","addr":"경기도 남양주시 퇴계원읍 퇴계원리 255-24 신한빌딩 5층","indutype":"의원 - 의원","category":"medical"},{"name":"비젼약국","tel":"031-574-1008","addr":"경기도 남양주시 퇴계원읍 퇴계원리 255-24","indutype":"약국 - 약국","category":"medical"}]},{"lat":"37.651139883","long":"127.14237486","imageIndex":8,"items":[{"name":"백치과의원","tel":"031-037-9055","addr":"경기도 남양주시 퇴계원읍 퇴계원리 255-1번지","indutype":"의원 - 치과의원","category":"medical"},{"name":"양치과의원","tel":"031-574-2275","addr":"경기도 남양주시 퇴계원읍 퇴계원리 255-1번지 다모아빌딩 301호","indutype":"의원 - 치과의원","category":"medical"},{"name":"이주영의원","tel":"031-527-6223","addr":"경기도 남양주시 퇴계원읍 퇴계원리 255-1번지 다모아빌딩 4층 402호","indutype":"의원 - 의원","category":"medical"},{"name":"주내과의원","tel":"031-527-2700","addr":"경기도 남양주시 퇴계원읍 퇴계원리 255-1번지 다모아빌딩 305,404호","indutype":"의원 - 의원","category":"medical"},{"name":"효성한의원","tel":"031-572-6611","addr":"경기도 남양주시 퇴계원읍 퇴계원리 255-1번지","indutype":"의원 - 한의원","category":"medical"}]},{"lat":"37.647973529","long":"127.14567764","imageIndex":8,"items":[{"name":"성심약국","tel":"031-572-8101","addr":"경기도 남양주시 퇴계원읍 퇴계원리 208-12번지","indutype":"약국 - 약국","category":"medical"}]},{"lat":"37.648690891","long":"127.14097653","imageIndex":8,"items":[{"name":"세란연합의원","tel":"031-571-2003","addr":"경기도 남양주시 퇴계원읍 퇴계원리 218-20번지","indutype":"의원 - 의원","category":"medical"}]},{"lat":"37.652526728","long":"127.14292138","imageIndex":8,"items":[{"name":"소중한약국","tel":"031-571-7233","addr":"경기도 남양주시 퇴계원읍 퇴계원리 268-11","indutype":"약국 - 약국","category":"medical"}]},{"lat":"37.649808475","long":"127.14064998","imageIndex":8,"items":[{"name":"수비뇨기과의원","tel":"031-527-2345","addr":"경기도 남양주시 퇴계원읍 퇴계원리 290-9번지 송백타운 306호","indutype":"의원 - 의원","category":"medical"},{"name":"준치과","tel":"","addr":"경기도 남양주시 퇴계원읍 퇴계원리 290-9번지 301호 송백타운 (준치과)","indutype":"의원 - 치과의원","category":"medical"}]},{"lat":"37.65658062","long":"127.1433143","imageIndex":8,"items":[{"name":"염광의원","tel":"031-572-2222","addr":"경기도 남양주시 퇴계원읍 퇴계원리 82-11번지 양주쉐르빌","indutype":"의원 - 의원","category":"medical"}]},{"lat":"37.647829182","long":"127.145836","imageIndex":8,"items":[{"name":"우리치과","tel":"031-571-9571","addr":"경기도 남양주시 퇴계원읍 퇴계원리 208-13번지","indutype":"의원 - 치과의원","category":"medical"}]},{"lat":"37.648384747","long":"127.14081732","imageIndex":8,"items":[{"name":"정안약국","tel":"031-571-9574","addr":"경기도 남양주시 퇴계원읍 퇴계원리 218-133번지 101,102호","indutype":"약국 - 약국","category":"medical"}]},{"lat":"37.650419697","long":"127.14187492","imageIndex":8,"items":[{"name":"참사랑약국","tel":"031-528-5767","addr":"경기도 남양주시 퇴계원읍 퇴계원리 293-8번지","indutype":"의원 - 치과의원","category":"medical"}]},{"lat":"37.646834817","long":"127.14104108","imageIndex":8,"items":[{"name":"최형수치과의원","tel":"031-571-1305","addr":"경기도 남양주시 퇴계원읍 퇴계원리 314-17번지","indutype":"의원 - 치과의원","category":"medical"},{"name":"한강동물약품","tel":"031-571-4858","addr":"경기도 남양주시 퇴계원읍 퇴계원리 314-17번지","indutype":"기타의료기관 - 동물병원","category":"medical"}]},{"lat":"37.650857568","long":"127.14490128","imageIndex":8,"items":[{"name":"퇴계원서울요양병원","tel":"031-529-8188","addr":"경기도 남양주시 퇴계원읍 퇴계원리 249-4번지","indutype":"병원 - 병원","category":"medical"}]}]