[{"lat":"37.251439021","long":"127.21973513","imageIndex":4,"items":[{"name":"(주)신대양","tel":"031-322-8004","addr":"경기도 용인시 처인구 고림동 580-1번지 1층","indutype":"일반휴게음식 - 일반한식","category":"restaurant"},{"name":"통큰갈비(용인고림점)","tel":"031-333-7841","addr":"경기도 용인시 처인구 고림동 580-1번지 1층","indutype":"일반휴게음식 - 일반한식","category":"restaurant"}]},{"lat":"37.251412712","long":"127.21934055","imageIndex":4,"items":[{"name":"감자탕형제들","tel":"031-333-3253","addr":"경기도 용인시 처인구 고림동 820-106번지 외 1필지 (1층 101호-104호)","indutype":"일반휴게음식 - 일반한식","category":"restaurant"},{"name":"대나무숯불직화구이","tel":"031-323-4549","addr":"경기도 용인시 처인구 고림동 820-106번지","indutype":"일반휴게음식 - 일반한식","category":"restaurant"},{"name":"돈가네","tel":"031-335-7222","addr":"경기도 용인시 처인구 고림동 820-106번지 부강프라자 114호","indutype":"일반휴게음식 - 일반한식","category":"restaurant"},{"name":"돔베생선구이전문점","tel":"031-333-7761","addr":"경기도 용인시 처인구 고림동 820-106번지 외1필지 부강프라자 2층","indutype":"일반휴게음식 - 일반한식","category":"restaurant"},{"name":"찌개방","tel":"031-323-4064","addr":"경기도 용인시 처인구 고림동 820-106번지 부강프라자","indutype":"일반휴게음식 - 일반한식","category":"restaurant"},{"name":"홍복수산","tel":"031-332-9985","addr":"경기도 용인시 처인구 고림동 820-106번지 외1필지 1층","indutype":"일반휴게음식 - 일반한식","category":"restaurant"}]},{"lat":"37.256601988","long":"127.22456319","imageIndex":4,"items":[{"name":"강고집 장어와소","tel":"031-321-9293","addr":"경기도 용인시 처인구 고림동 458-2번지 임원빌딩 1층","indutype":"일반휴게음식 - 일반한식","category":"restaurant"}]},{"lat":"37.255214231","long":"127.21979103","imageIndex":4,"items":[{"name":"건강식당메밀숲","tel":"031-336-6908","addr":"경기도 용인시 처인구 고림동 961번지","indutype":"일반휴게음식 - 일반한식","category":"restaurant"}]},{"lat":"37.241996358","long":"127.2146816","imageIndex":4,"items":[{"name":"고기꾸기","tel":"031-333-0292","addr":"경기도 용인시 처인구 고림동 1005번지 고림지구양우내안애에듀파크 상가동 201,202호","indutype":"일반휴게음식 - 일반한식","category":"restaurant"},{"name":"처가집양념치킨 고림점","tel":"031-322-9980","addr":"경기도 용인시 처인구 고림동 1005번지 고림지구양우내안애에듀파크 1층 103호","indutype":"일반휴게음식 - 스넥","category":"restaurant"}]},{"lat":"37.251989389","long":"127.23364586","imageIndex":4,"items":[{"name":"고림208","tel":"031-3158-1072","addr":"경기도 용인시 처인구 고림동 208-2번지 1층","indutype":"일반휴게음식 - 일반한식","category":"restaurant"}]},{"lat":"37.25154848","long":"127.23334019","imageIndex":4,"items":[{"name":"고향면가","tel":"031-336-0514","addr":"경기도 용인시 처인구 고림동 211-3번지","indutype":"일반휴게음식 - 스넥","category":"restaurant"}]},{"lat":"37.250469438","long":"127.22270799","imageIndex":4,"items":[{"name":"그집","tel":"031-338-8383","addr":"경기도 용인시 처인구 고림동 592-17번지","indutype":"일반휴게음식 - 일반한식","category":"restaurant"},{"name":"더(The)짬뽕","tel":"031-322-0255","addr":"경기도 용인시 처인구 고림동 592-17번지 1층 일부","indutype":"일반휴게음식 - 중국식","category":"restaurant"},{"name":"왕뚜껑삼겹살","tel":"031-339-3123","addr":"경기도 용인시 처인구 고림동 592-17번지","indutype":"일반휴게음식 - 일반한식","category":"restaurant"},{"name":"정담식당","tel":"031-321-8415","addr":"경기도 용인시 처인구 고림동 592-17번지","indutype":"일반휴게음식 - 일반한식","category":"restaurant"}]},{"lat":"37.240526938","long":"127.21509447","imageIndex":4,"items":[{"name":"김가네","tel":"031-332-5999","addr":"경기도 용인시 처인구 고림동 736-58번지 1층 일부","indutype":"일반휴게음식 - 스넥","category":"restaurant"},{"name":"카페빔","tel":"","addr":"경기도 용인시 처인구 고림동 736-58번지","indutype":"일반휴게음식 - 서양음식","category":"restaurant"}]},{"lat":"37.249859376","long":"127.23084409","imageIndex":4,"items":[{"name":"김떡순에반하다","tel":"031-332-8982","addr":"경기도 용인시 처인구 고림동 220번지 1층","indutype":"일반휴게음식 - 스넥","category":"restaurant"},{"name":"이주원통닭","tel":"031-000-0000","addr":"경기도 용인시 처인구 고림동 220번지","indutype":"일반휴게음식 - 스넥","category":"restaurant"}]},{"lat":"37.264100565","long":"127.22348037","imageIndex":4,"items":[{"name":"까치골 오리돌구이","tel":"031-332-0876","addr":"경기도 용인시 처인구 고림동 503-16번지 1층","indutype":"일반휴게음식 - 일반한식","category":"restaurant"}]},{"lat":"37.249799634","long":"127.22434038","imageIndex":4,"items":[{"name":"꿀순이네닭발","tel":"031-333-5005","addr":"경기도 용인시 처인구 고림동 360-2번지 삼미빌딩","indutype":"일반휴게음식 - 일반한식","category":"restaurant"},{"name":"육회한녀석들","tel":"031-338-6432","addr":"경기도 용인시 처인구 고림동 360-2번지 삼미빌딩","indutype":"일반휴게음식 - 일반한식","category":"restaurant"},{"name":"해적포차2","tel":"031-322-8522","addr":"경기도 용인시 처인구 고림동 360-2번지","indutype":"일반휴게음식 - 일반한식","category":"restaurant"}]},{"lat":"37.245968713","long":"127.21534642","imageIndex":4,"items":[{"name":"남원추어탕","tel":"031-336-0557","addr":"경기도 용인시 처인구 고림동 696-11번지 1층","indutype":"일반휴게음식 - 일반한식","category":"restaurant"},{"name":"베이징","tel":"031-333-4551","addr":"경기도 용인시 처인구 고림동 696-11번지","indutype":"일반휴게음식 - 중국식","category":"restaurant"},{"name":"정가네","tel":"031-334-5988","addr":"경기도 용인시 처인구 고림동 696-11번지","indutype":"일반휴게음식 - 일반한식","category":"restaurant"}]},{"lat":"37.249102969","long":"127.22587122","imageIndex":4,"items":[{"name":"다밀","tel":"031-321-8892","addr":"경기도 용인시 처인구 고림동 343-1번지 가동 1층","indutype":"일반휴게음식 - 일반한식","category":"restaurant"}]},{"lat":"37.239076426","long":"127.21501152","imageIndex":4,"items":[{"name":"단대감자탕","tel":"031-339-8700","addr":"경기도 용인시 처인구 고림동 792-8번지 1층","indutype":"일반휴게음식 - 일반한식","category":"restaurant"},{"name":"호프(HOPF)하우스","tel":"031-332-6311","addr":"경기도 용인시 처인구 고림동 792-8번지 3호","indutype":"일반휴게음식 - 주점","category":"restaurant"}]},{"lat":"37.249271221","long":"127.22262561","imageIndex":4,"items":[{"name":"닭장수후라이드고림점","tel":"031-322-1800","addr":"경기도 용인시 처인구 고림동 599-4번지 102,103호","indutype":"일반휴게음식 - 일반한식","category":"restaurant"},{"name":"이디야커피 용인고림점","tel":"031-336-9339","addr":"경기도 용인시 처인구 고림동 599-4번지 1층 108호,109호","indutype":"일반휴게음식 - 서양음식","category":"restaurant"},{"name":"큰집","tel":"031-323-2651","addr":"경기도 용인시 처인구 고림동 599-4번지","indutype":"일반휴게음식 - 일반한식","category":"restaurant"}]},{"lat":"37.240021514","long":"127.21556639","imageIndex":4,"items":[{"name":"닭짱닭강정","tel":"070-5022-2720","addr":"경기도 용인시 처인구 고림동 736-10번지","indutype":"일반휴게음식 - 일반한식","category":"restaurant"},{"name":"아빠치킨엄마떡볶이","tel":"031-337-0128","addr":"경기도 용인시 처인구 고림동 736-10번지","indutype":"일반휴게음식 - 일반한식","category":"restaurant"}]},{"lat":"37.239852257","long":"127.21448401","imageIndex":4,"items":[{"name":"또순이네","tel":"031-333-0864","addr":"경기도 용인시 처인구 고림동 785번지","indutype":"일반휴게음식 - 일반한식","category":"restaurant"}]},{"lat":"37.23788291","long":"127.21731843","imageIndex":4,"items":[{"name":"뚱이네뒷고기","tel":"031-335-9332","addr":"경기도 용인시 처인구 고림동 772-6번지","indutype":"일반휴게음식 - 스넥","category":"restaurant"}]},{"lat":"37.249963313","long":"127.2235406","imageIndex":4,"items":[{"name":"르꼬르뷔제","tel":"031-332-0107","addr":"경기도 용인시 처인구 고림동 362-6번지 외2필지 2층","indutype":"일반휴게음식 - 일반한식","category":"restaurant"},{"name":"큰집추어탕","tel":"031-321-1388","addr":"경기도 용인시 처인구 고림동 362-6번지 1층","indutype":"일반휴게음식 - 일반한식","category":"restaurant"}]},{"lat":"37.248163327","long":"127.22723225","imageIndex":4,"items":[{"name":"마노아","tel":"070-2451-2345","addr":"경기도 용인시 처인구 고림동 264-3번지 이-튼프라자 218호","indutype":"일반휴게음식 - 서양음식","category":"restaurant"},{"name":"배꼽시계","tel":"031-339-2329","addr":"경기도 용인시 처인구 고림동 264-3번지 이튼프라자 112,113호","indutype":"일반휴게음식 - 일반한식","category":"restaurant"},{"name":"션숯불구이","tel":"031-323-0893","addr":"경기도 용인시 처인구 고림동 264-3번지 이튼프라자 103호","indutype":"일반휴게음식 - 일반한식","category":"restaurant"},{"name":"션하게마시자","tel":"031-321-8002","addr":"경기도 용인시 처인구 고림동 264-3번지 이튼프라자 104호","indutype":"일반휴게음식 - 일반한식","category":"restaurant"}]},{"lat":"37.248659506","long":"127.22209409","imageIndex":4,"items":[{"name":"만포식당","tel":"031-339-0639","addr":"경기도 용인시 처인구 고림동 604-1번지","indutype":"일반휴게음식 - 일반한식","category":"restaurant"}]},{"lat":"37.239742034","long":"127.21565576","imageIndex":4,"items":[{"name":"맛깔식당","tel":"031-322-9292","addr":"경기도 용인시 처인구 고림동 781-35번지 1층","indutype":"일반휴게음식 - 일반한식","category":"restaurant"}]},{"lat":"37.242911577","long":"127.21681424","imageIndex":4,"items":[{"name":"매:일","tel":"031-335-0633","addr":"경기도 용인시 처인구 고림동 759-8번지 1층","indutype":"일반휴게음식 - 서양음식","category":"restaurant"}]},{"lat":"37.248387043","long":"127.22804443","imageIndex":4,"items":[{"name":"머꼬","tel":"031-336-6931","addr":"경기도 용인시 처인구 고림동 264-5번지 1층 일부","indutype":"일반휴게음식 - 일반한식","category":"restaurant"}]},{"lat":"37.259075306","long":"127.22214682","imageIndex":4,"items":[{"name":"멸치퐁당칼국수","tel":"070-7018-5392","addr":"경기도 용인시 처인구 고림동 539-2번지","indutype":"일반휴게음식 - 일반한식","category":"restaurant"},{"name":"카페마을","tel":"031-321-6530","addr":"경기도 용인시 처인구 고림동 539-2번지 1층","indutype":"일반휴게음식 - 서양음식","category":"restaurant"}]},{"lat":"37.248939637","long":"127.22647938","imageIndex":4,"items":[{"name":"명태본가","tel":"031-323-1723","addr":"경기도 용인시 처인구 고림동 342번지 고림빌딩 1층 점포2칸","indutype":"일반휴게음식 - 일반한식","category":"restaurant"},{"name":"진구네김치찌개","tel":"031-323-3367","addr":"경기도 용인시 처인구 고림동 342번지 고림빌딩 1층","indutype":"일반휴게음식 - 일반한식","category":"restaurant"}]},{"lat":"37.251297182","long":"127.21846104","imageIndex":4,"items":[{"name":"미가","tel":"031-336-3767","addr":"경기도 용인시 처인구 고림동 985번지","indutype":"일반휴게음식 - 일반한식","category":"restaurant"}]},{"lat":"37.25593536","long":"127.21962402","imageIndex":4,"items":[{"name":"박가네고깃간","tel":"031-322-6242","addr":"경기도 용인시 처인구 고림동 958-1번지","indutype":"일반휴게음식 - 일반한식","category":"restaurant"}]},{"lat":"37.236415031","long":"127.21687477","imageIndex":4,"items":[{"name":"방울이호프","tel":"031-334-6213","addr":"경기도 용인시 처인구 고림동 797-29번지","indutype":"일반휴게음식 - 일반한식","category":"restaurant"}]},{"lat":"37.248132675","long":"127.22436932","imageIndex":4,"items":[{"name":"백반식도시락","tel":"031-333-3066","addr":"경기도 용인시 처인구 고림동 348-5번지","indutype":"일반휴게음식 - 일반한식","category":"restaurant"}]},{"lat":"37.265827471","long":"127.22512009","imageIndex":4,"items":[{"name":"변강쇠","tel":"031-339-7837","addr":"경기도 용인시 처인구 고림동 820-131번지","indutype":"일반휴게음식 - 일반한식","category":"restaurant"},{"name":"어울림호프","tel":"031-335-8667","addr":"경기도 용인시 처인구 고림동 820-131번지","indutype":"일반휴게음식 - 주점","category":"restaurant"}]},{"lat":"37.236577663","long":"127.2166273","imageIndex":4,"items":[{"name":"별난닭갈비추어탕","tel":"031-336-1550","addr":"경기도 용인시 처인구 고림동 797-37번지","indutype":"일반휴게음식 - 일반한식","category":"restaurant"}]},{"lat":"37.266044921","long":"127.22447813","imageIndex":4,"items":[{"name":"보평에이스참숯바베큐","tel":"031-339-9233","addr":"경기도 용인시 처인구 고림동 488-18번지","indutype":"일반휴게음식 - 주점","category":"restaurant"}]},{"lat":"37.266107","long":"127.22500818","imageIndex":4,"items":[{"name":"브루852(Brew852)","tel":"","addr":"경기도 용인시 처인구 고림동 820-142번지 그랜드맨션 1층 101호","indutype":"일반휴게음식 - 서양음식","category":"restaurant"}]},{"lat":"37.255719073","long":"127.21964594","imageIndex":4,"items":[{"name":"사천성최고야","tel":"031-336-9252","addr":"경기도 용인시 처인구 고림동 958번지","indutype":"일반휴게음식 - 중국식","category":"restaurant"}]},{"lat":"37.251824476","long":"127.23039915","imageIndex":4,"items":[{"name":"산에 언덕에","tel":"02-1111-1111","addr":"경기도 용인시 처인구 고림동 186-81번지 가동 1층","indutype":"일반휴게음식 - 일반한식","category":"restaurant"},{"name":"산에언덕에II","tel":"031-335-7856","addr":"경기도 용인시 처인구 고림동 186-81","indutype":"일반휴게음식 - 일반한식","category":"restaurant"}]},{"lat":"37.263579104","long":"127.22287009","imageIndex":4,"items":[{"name":"삼다제주흑돈","tel":"013-334-4775","addr":"경기도 용인시 처인구 고림동 505-7번지","indutype":"일반휴게음식 - 일반한식","category":"restaurant"}]},{"lat":"37.245554039","long":"127.21545796","imageIndex":4,"items":[{"name":"삼성자동차학원구내식당","tel":"031-321-6017","addr":"경기도 용인시 처인구 고림동 697-9번지","indutype":"일반휴게음식 - 일반한식","category":"restaurant"}]},{"lat":"37.239608032","long":"127.21501301","imageIndex":4,"items":[{"name":"순희찬방&한식부페","tel":"031-335-0991","addr":"경기도 용인시 처인구 고림동 784-3번지 101호","indutype":"일반휴게음식 - 일반한식","category":"restaurant"}]},{"lat":"37.249436984","long":"127.22553407","imageIndex":4,"items":[{"name":"신통치킨 신통한피자","tel":"031-321-8292","addr":"경기도 용인시 처인구 고림동 369-2번지 1층","indutype":"일반휴게음식 - 스넥","category":"restaurant"}]},{"lat":"37.238913635","long":"127.21534915","imageIndex":4,"items":[{"name":"아리랑옹심이메밀칼국수","tel":"031-332-1231","addr":"경기도 용인시 처인구 고림동 792-1번지","indutype":"일반휴게음식 - 일반한식","category":"restaurant"}]},{"lat":"37.251386689","long":"127.21878817","imageIndex":4,"items":[{"name":"역시 민물장어","tel":"031-322-0592","addr":"경기도 용인시 처인구 고림동 984번지 1층","indutype":"일반휴게음식 - 일반한식","category":"restaurant"}]},{"lat":"37.260605037","long":"127.22323345","imageIndex":4,"items":[{"name":"운향샤브샤브","tel":"031-322-9888","addr":"경기도 용인시 처인구 고림동 479번지 1층","indutype":"일반휴게음식 - 일반한식","category":"restaurant"}]},{"lat":"37.254691389","long":"127.2199248","imageIndex":4,"items":[{"name":"원주복추어탕","tel":"031-322-2020","addr":"경기도 용인시 처인구 고림동 964번지","indutype":"일반휴게음식 - 일반한식","category":"restaurant"},{"name":"카페리버/준플라워케이크카페","tel":"031-321-0603","addr":"경기도 용인시 처인구 고림동 964번지","indutype":"일반휴게음식 - 서양음식","category":"restaurant"}]},{"lat":"37.237441713","long":"127.21714813","imageIndex":4,"items":[{"name":"웰니스치킨피자","tel":"031-336-3669","addr":"경기도 용인시 처인구 고림동 796-1번지","indutype":"일반휴게음식 - 서양음식","category":"restaurant"}]},{"lat":"37.245995774","long":"127.22029434","imageIndex":4,"items":[{"name":"유.커피 (U.COFFEE)","tel":"031-111-1111","addr":"경기도 용인시 처인구 고림동 665-1번지 2층","indutype":"일반휴게음식 - 서양음식","category":"restaurant"}]},{"lat":"37.248824663","long":"127.2204828","imageIndex":4,"items":[{"name":"재재당(      )","tel":"031-8097-3838","addr":"경기도 용인시 처인구 고림동 1014번지 양우내안애에듀퍼스트 상가동 1층 3호","indutype":"일반휴게음식 - 서양음식","category":"restaurant"}]},{"lat":"37.255796437","long":"127.23584428","imageIndex":4,"items":[{"name":"젬터","tel":"031-323-0622","addr":"경기도 용인시 처인구 고림동 112번지","indutype":"일반휴게음식 - 일반한식","category":"restaurant"}]},{"lat":"37.252077728","long":"127.22514733","imageIndex":4,"items":[{"name":"철이네분식","tel":"031-339-3251","addr":"경기도 용인시 처인구 고림동 393-1번지 외2필지","indutype":"일반휴게음식 - 스넥","category":"restaurant"}]},{"lat":"37.239913977","long":"127.21523926","imageIndex":4,"items":[{"name":"청궁","tel":"031-338-1444","addr":"경기도 용인시 처인구 고림동 783번지","indutype":"일반휴게음식 - 중국식","category":"restaurant"}]},{"lat":"37.249690625","long":"127.22481346","imageIndex":4,"items":[{"name":"커피에반하다용인고림점","tel":"031-335-1102","addr":"경기도 용인시 처인구 고림동 360-3번지","indutype":"일반휴게음식 - 서양음식","category":"restaurant"}]},{"lat":"37.246554017","long":"127.22051008","imageIndex":4,"items":[{"name":"케이원부대찌개","tel":"031-334-2581","addr":"경기도 용인시 처인구 고림동 659-1번지 1층","indutype":"일반휴게음식 - 일반한식","category":"restaurant"}]},{"lat":"37.238216596","long":"127.21715033","imageIndex":4,"items":[{"name":"풍경포차","tel":"031-338-9297","addr":"경기도 용인시 처인구 고림동 795-2번지 대영빌딩","indutype":"일반휴게음식 - 일반한식","category":"restaurant"}]},{"lat":"37.248854954","long":"127.22837268","imageIndex":4,"items":[{"name":"피에트(Fillette)","tel":"031-338-2076","addr":"경기도 용인시 처인구 고림동 384-7번지 1층","indutype":"일반휴게음식 - 서양음식","category":"restaurant"}]},{"lat":"37.236216845","long":"127.21685167","imageIndex":4,"items":[{"name":"한가닭","tel":"031-000-0000","addr":"경기도 용인시 처인구 고림동 797-28번지","indutype":"일반휴게음식 - 일반한식","category":"restaurant"}]},{"lat":"37.251017358","long":"127.2330906","imageIndex":4,"items":[{"name":"행복반점","tel":"031-332-8071","addr":"경기도 용인시 처인구 고림동 212-6번지 1층","indutype":"일반휴게음식 - 중국식","category":"restaurant"},{"name":"훌랄라치킨","tel":"031-321-9954","addr":"경기도 용인시 처인구 고림동 212-6번지","indutype":"일반휴게음식 - 주점","category":"restaurant"}]},{"lat":"37.249518585","long":"127.2252638","imageIndex":4,"items":[{"name":"행복식당","tel":"031-338-0203","addr":"경기도 용인시 처인구 고림동 369-4번지","indutype":"일반휴게음식 - 일반한식","category":"restaurant"}]},{"lat":"37.266217569","long":"127.22370075","imageIndex":4,"items":[{"name":"혜원","tel":"031-333-3288","addr":"경기도 용인시 처인구 고림동 820-105번지","indutype":"일반휴게음식 - 일식·회집","category":"restaurant"}]},{"lat":"37.254961738","long":"127.21990303","imageIndex":4,"items":[{"name":"홍익돈까스처인점","tel":"031-332-1223","addr":"경기도 용인시 처인구 고림동 962번지 가동 1층","indutype":"일반휴게음식 - 일반한식","category":"restaurant"}]},{"lat":"37.239219296","long":"127.21573318","imageIndex":4,"items":[{"name":"효자순대","tel":"031-333-0002","addr":"경기도 용인시 처인구 고림동 794-61번지 1층","indutype":"일반휴게음식 - 일반한식","category":"restaurant"}]}]