[{"lat":"37.427777524","long":"127.00131154","imageIndex":17,"items":[{"name":"(사)경기무형문화재총연합회","tel":"02-507-5825","addr":"경기도 과천시 문원동 89-12번지 (경기소리전수관 ,문원동)","indutype":"용역 서비스 - 기타용역서비스","category":"other"}]},{"lat":"37.429111007","long":"127.00466706","imageIndex":17,"items":[{"name":"(주)그린투어컨설팅","tel":"02-503-0579","addr":"경기도 과천시 문원동 15-143번지 2층","indutype":"회원제형태 - 기타4","category":"other"}]},{"lat":"37.42399318","long":"127.00853064","imageIndex":17,"items":[{"name":"LS테크","tel":"02-504-6490","addr":"경기도 과천시 문원동 115-112번지 1층","indutype":"서적문구 - 완구점","category":"other"}]},{"lat":"37.423803972","long":"127.00847414","imageIndex":17,"items":[{"name":"PAYOKA","tel":"070-8688-9833","addr":"경기도 과천시 문원동 115-97번지","indutype":"회원제형태 - 기타4","category":"other"}]},{"lat":"37.43271462","long":"126.99297302","imageIndex":17,"items":[{"name":"과천골정육점","tel":"02-3418-1195","addr":"경기도 과천시 문원동 485-4번지 1층","indutype":"소매업 - 정육점","category":"other"}]},{"lat":"37.427245524","long":"126.99295115","imageIndex":17,"items":[{"name":"과천농협문원지점","tel":"02-502-0836","addr":"경기도 과천시 문원동 115번지 새마을회관 1동","indutype":"도소매 -","category":"other"}]},{"lat":"37.424831136","long":"127.0080788","imageIndex":17,"items":[{"name":"과천농협문원지점","tel":"02-502-0836","addr":"경기도 과천시 문원동 115-1","indutype":"유통업 비영리 - 농,축협 직영매장","category":"other"}]},{"lat":"37.424777023","long":"127.00916335","imageIndex":17,"items":[{"name":"과천문원단지우편취급소","tel":"02-503-4132","addr":"경기도 과천시 문원동 115-82번지","indutype":"용역 서비스 - 공공요금대행서비스/소","category":"other"}]},{"lat":"37.428777645","long":"127.00197811","imageIndex":17,"items":[{"name":"과천시장애인복지관","tel":"02-2185-8004","addr":"경기도 과천시 문원동 31-3번지","indutype":"기타의료기관 - 기타의료기관 및 기타","category":"other"},{"name":"과천시장애인복지관","tel":"02-2185-8000","addr":"경기도 과천시 문원동 31-3번지","indutype":"기타의료기관 - 기타의료기관 및 기타","category":"other"},{"name":"과천시장애인복지관","tel":"02-2185-8000","addr":"경기도 과천시 문원동 31-3번지","indutype":"기타의료기관 - 기타의료기관 및 기타","category":"other"}]},{"lat":"37.429858048","long":"126.9890868","imageIndex":17,"items":[{"name":"꿈IN인테리어","tel":"02-503-2007","addr":"경기도 과천시 문원동 115-91번지","indutype":"서비스 - 인테리어","category":"other"}]},{"lat":"37.461939718","long":"127.03285768","imageIndex":17,"items":[{"name":"나래공인중개사사무소","tel":"02-502-4949","addr":"경기도 과천시 문원동 115-113","indutype":"부동산업 - 부동산중개업","category":"other"}]},{"lat":"37.424272449","long":"127.00936667","imageIndex":17,"items":[{"name":"나래패션","tel":"02-507-4926","addr":"경기도 과천시 문원동 115-154번지","indutype":"의류 - 기타의류","category":"other"}]},{"lat":"37.424353377","long":"126.99392311","imageIndex":17,"items":[{"name":"나래패션","tel":"02-507-4926","addr":"경기도 과천시 문원동 115-154번지","indutype":"소매업 - 의류","category":"other"}]},{"lat":"37.417081573","long":"126.98728174","imageIndex":17,"items":[{"name":"대평농원","tel":"031-503-6333","addr":"경기도 과천시 문원동 865-2.865-4","indutype":"문화.취미 - 화원","category":"other"},{"name":"신세계조경농원","tel":"031-503-6333","addr":"경기도 과천시 문원동 865-2","indutype":"문화.취미 - 화원","category":"other"}]},{"lat":"37.424245484","long":"127.00805617","imageIndex":17,"items":[{"name":"대현금속","tel":"02-502-7568","addr":"경기도 과천시 문원동 143번지","indutype":"건축자재 - 기타건축자재","category":"other"},{"name":"씨유과천여울점","tel":"02-502-5222","addr":"경기도 과천시 문원동 143번지 1층","indutype":"유통업 영리 - 편 의 점","category":"other"}]},{"lat":"37.429354291","long":"127.00264469","imageIndex":17,"items":[{"name":"더박스(THE BOX)","tel":"02-504-1438","addr":"경기도 과천시 문원동 15-95번지 지하층1층","indutype":"레져용품 - 스포츠·레져용품","category":"other"}]},{"lat":"37.428525364","long":"127.0037745","imageIndex":17,"items":[{"name":"라이프단열시스템","tel":"02-502-6817","addr":"경기도 과천시 문원동 15-107번지 202호","indutype":"용역 서비스 - 기타용역서비스","category":"other"}]},{"lat":"37.429246159","long":"127.00458798","imageIndex":17,"items":[{"name":"마음&소리 상담연구소","tel":"070-7640-5154","addr":"경기도 과천시 문원동 15-142번지 스위트하우스 102호","indutype":"용역 서비스 - 사무서비스","category":"other"}]},{"lat":"37.430165194","long":"127.00241873","imageIndex":17,"items":[{"name":"문원동문화교육센터","tel":"02-503-0251","addr":"경기도 과천시 문원동 15-11번지","indutype":"회원제형태 - 레져업소","category":"other"}]},{"lat":"37.426578609","long":"126.99108711","imageIndex":17,"items":[{"name":"문원방앗간","tel":"02-502-3360","addr":"경기도 과천시 문원동 115-155번지","indutype":"제조업 - 방앗간","category":"other"},{"name":"천생","tel":"02-3679-5449","addr":"경기도 과천시 문원동 115-160번지 지1층","indutype":"도소매 - 농산물","category":"other"}]},{"lat":"37.453600244","long":"127.00091544","imageIndex":17,"items":[{"name":"문원정육점","tel":"02-503-9695","addr":"경기도 과천시 문원동 115-154번지","indutype":"소매업 - 식육","category":"other"}]},{"lat":"37.420695557","long":"126.99855526","imageIndex":17,"items":[{"name":"바디앤케이(Body&k)","tel":"02-3679-1275","addr":"경기도 과천시 문원동 319-2번지 1층","indutype":"회원제형태 - 레져업소","category":"other"}]},{"lat":"37.424083184","long":"127.01028174","imageIndex":17,"items":[{"name":"바이오뱅크넷닷컴","tel":"02-502-6625","addr":"경기도 과천시 문원동 115-209번지","indutype":"사무통신 - 통신기기","category":"other"}]},{"lat":"37.424551916","long":"127.00058858","imageIndex":17,"items":[{"name":"봉구원예자재","tel":"02-3679-2234","addr":"경기도 과천시 문원동 212번지","indutype":"문화.취미 - 화원","category":"other"}]},{"lat":"37.447797006","long":"127.0167256","imageIndex":17,"items":[{"name":"부흥공인중개사사무소","tel":"02-503-0089","addr":"경기도 과천시 문원동 15-76","indutype":"부동산업 - 공인중개사","category":"other"}]},{"lat":"37.447797614","long":"126.99599968","imageIndex":17,"items":[{"name":"부흥정육점식당","tel":"02-504-2050","addr":"경기도 과천시 문원동 115-305번지","indutype":"소매업 - 식육","category":"other"}]},{"lat":"37.424272573","long":"126.99933457","imageIndex":17,"items":[{"name":"성우시스템","tel":"02-338-3077","addr":"경기도 과천시 문원동 228-6번지","indutype":"광학제품 - 기타광학제품","category":"other"},{"name":"주식회사성우시스템","tel":"02-338-3077","addr":"경기도 과천시 문원동 228-6번지","indutype":"광학제품 - 사진관","category":"other"}]},{"lat":"37.429471418","long":"127.00388749","imageIndex":17,"items":[{"name":"세명전력","tel":"070-8848-1002","addr":"경기도 과천시 문원동 15-75번지 준영빌딩 B01호","indutype":"용역 서비스 - 기타용역서비스","category":"other"}]},{"lat":"37.425777268","long":"127.00583064","imageIndex":17,"items":[{"name":"숲속나라어린이집","tel":"02-3679-1119","addr":"경기도 과천시 문원동 180번지","indutype":"기타 - 비영리/비대상","category":"other"}]},{"lat":"37.429552507","long":"127.00405697","imageIndex":17,"items":[{"name":"신영","tel":"02-504-2255","addr":"경기도 과천시 문원동 15-68번지 지하1층","indutype":"용역 서비스 - 기타용역서비스","category":"other"}]},{"lat":"37.428912799","long":"127.00327739","imageIndex":17,"items":[{"name":"씨유과천문원공원점","tel":"02-507-5831","addr":"경기도 과천시 문원동 15-98번지","indutype":"유통업 영리 - 편 의 점","category":"other"}]},{"lat":"37.42427252","long":"127.007898","imageIndex":17,"items":[{"name":"아이티트리","tel":"02-000-0000","addr":"경기도 과천시 문원동 143-4번지 리더스빌 B동 202호","indutype":"사무통신 - 통신기기","category":"other"}]},{"lat":"37.417857467","long":"127.00350326","imageIndex":17,"items":[{"name":"야야산","tel":"02-504-1101","addr":"경기도 과천시 문원동 350-2번지","indutype":"농업 - 농기계","category":"other"}]},{"lat":"37.416965165","long":"126.99436454","imageIndex":17,"items":[{"name":"에덴화원","tel":"031-385-8253","addr":"경기도 과천시 문원동 540-8가-3","indutype":"문화.취미 - 화원","category":"other"}]},{"lat":"37.422911927","long":"127.00944563","imageIndex":17,"items":[{"name":"에스비인터내셔널(SB International)","tel":"02-503-3068","addr":"경기도 과천시 문원동 115-309번지","indutype":"회원제형태 - 기타4","category":"other"}]},{"lat":"37.412775565","long":"126.99552847","imageIndex":17,"items":[{"name":"영진물물","tel":"","addr":"경기도 과천시 문원동 933-1번지","indutype":"수리서비스 - 가정용품수리","category":"other"}]},{"lat":"37.4292732","long":"127.00350335","imageIndex":17,"items":[{"name":"오토 파트너","tel":"","addr":"경기도 과천시 문원동 15-83번지","indutype":"여행 - 렌터카","category":"other"}]},{"lat":"37.429408334","long":"127.00494952","imageIndex":17,"items":[{"name":"우나텔레콤","tel":"02-868-0040","addr":"경기도 과천시 문원동 15-156번지","indutype":"사무통신 - 통신기기","category":"other"}]},{"lat":"37.429444392","long":"127.00285936","imageIndex":17,"items":[{"name":"우체통 프로젝트","tel":"","addr":"경기도 과천시 문원동 15-88번지 Utopia Castle 3층 301호","indutype":"신변잡화 - 기타잡화","category":"other"}]},{"lat":"37.423605724","long":"127.00902769","imageIndex":17,"items":[{"name":"율진기업","tel":"02-504-8808","addr":"경기도 과천시 문원동 115-127번지 지층","indutype":"건축자재 - 인테리어전문","category":"other"}]},{"lat":"37.423218266","long":"127.00950214","imageIndex":17,"items":[{"name":"인앤아웃/비씨","tel":"02-507-4324","addr":"경기도 과천시 문원동 115-305번지 1층","indutype":"별도관리 - 자체물품대금","category":"other"}]},{"lat":"37.42919211","long":"127.00327739","imageIndex":17,"items":[{"name":"임은희플라워","tel":"02-504-0258","addr":"경기도 과천시 문원동 15-84번지 파크빌 201호","indutype":"문화.취미 - 화원","category":"other"}]},{"lat":"37.418469867","long":"126.99466938","imageIndex":17,"items":[{"name":"자연의벗","tel":"02-502-1196","addr":"경기도 과천시 문원동 475-4","indutype":"문화.취미 - 화원","category":"other"}]},{"lat":"37.423722762","long":"127.01060932","imageIndex":17,"items":[{"name":"제이드림","tel":"02-507-4432","addr":"경기도 과천시 문원동 115-230번지","indutype":"신변잡화 - 기타잡화","category":"other"}]},{"lat":"37.412334133","long":"126.9965903","imageIndex":17,"items":[{"name":"제일마차제작소","tel":"070-8861-7171","addr":"경기도 과천시 문원동 937-1번지","indutype":"레져용품 - 스포츠·레져용품","category":"other"}]},{"lat":"37.411361113","long":"126.99802491","imageIndex":17,"items":[{"name":"진양하이테크","tel":"02-502-1093","addr":"경기도 과천시 문원동 945번지","indutype":"서적문구 - 과학기자재","category":"other"}]},{"lat":"37.450635942","long":"127.00038435","imageIndex":17,"items":[{"name":"참진공인중개사사무소","tel":"02-502-4030","addr":"경기도 과천시 문원동 15-75번지 B01호 지하1층","indutype":"부동산업 - 부동산중개","category":"other"}]},{"lat":"37.426749933","long":"126.9924993","imageIndex":17,"items":[{"name":"크린토피아","tel":"02-502-1545","addr":"경기도 과천시 문원동 115-94번지 1층","indutype":"서비스 - 세탁물공급","category":"other"}]},{"lat":"37.424083289","long":"127.00836118","imageIndex":17,"items":[{"name":"크린토피아","tel":"02-502-1545","addr":"경기도 과천시 문원동 115-94번지","indutype":"수리서비스 - 세탁소","category":"other"}]},{"lat":"37.416631771","long":"126.99405958","imageIndex":17,"items":[{"name":"큰돌카페식물원","tel":"02-502-1037","addr":"경기도 과천시 문원동 539-1","indutype":"문화.취미 - 화원","category":"other"}]},{"lat":"37.423686817","long":"127.00897121","imageIndex":17,"items":[{"name":"테니지","tel":"","addr":"경기도 과천시 문원동 115-128번지","indutype":"신변잡화 - 가방","category":"other"}]},{"lat":"37.429525482","long":"127.00253171","imageIndex":17,"items":[{"name":"투데이미디어","tel":"02-502-3635","addr":"경기도 과천시 문원동 15-6번지","indutype":"용역 서비스 - 종합용역","category":"other"}]},{"lat":"37.429138041","long":"127.00436201","imageIndex":17,"items":[{"name":"풍년건설(주)","tel":"02-504-8204","addr":"경기도 과천시 문원동 15-137번지 지층 101호","indutype":"용역 서비스 - 기타용역서비스","category":"other"},{"name":"풍년산업","tel":"02-504-8204","addr":"경기도 과천시 문원동 15-137번지 지하 2호","indutype":"용역 서비스 - 기타용역서비스","category":"other"}]},{"lat":"37.430219255","long":"127.00302883","imageIndex":17,"items":[{"name":"하예나","tel":"02-2679-6605","addr":"경기도 과천시 문원동 15-31번지 갤러리 House 301호","indutype":"의류 - 내의판매","category":"other"}]},{"lat":"37.42263258","long":"127.01005565","imageIndex":17,"items":[{"name":"현대도서","tel":"02-507-0977","addr":"경기도 과천시 문원동 115-282번지","indutype":"서적문구 - 일반서적","category":"other"}]},{"lat":"37.429444391","long":"127.00236224","imageIndex":17,"items":[{"name":"현대세탁","tel":"031-502-9867","addr":"경기도 과천시 문원동 15-5번지 1층","indutype":"수리서비스 - 세탁소","category":"other"}]}]