[{"lat":"37.277435426","long":"127.44554257","imageIndex":5,"items":[{"name":"(주)조이","tel":"031-635-5501","addr":"경기도 이천시 중리동 215-4번지","indutype":"숙박업 - 여관/기타숙박업","category":"hotel"},{"name":"베네","tel":"","addr":"경기도 이천시 중리동 215-4번지","indutype":"숙박업 - 여관/기타숙박업","category":"hotel"}]},{"lat":"37.27569128","long":"127.44932078","imageIndex":5,"items":[{"name":"꿈에궁전","tel":"031-635-4826","addr":"경기도 이천시 중리동 468-8번지","indutype":"숙박업 - 여관/기타숙박업","category":"hotel"}]},{"lat":"37.277299517","long":"127.44574473","imageIndex":5,"items":[{"name":"리베라","tel":"031-637-4352","addr":"경기도 이천시 중리동 215-6번지","indutype":"숙박업 - 여관/기타숙박업","category":"hotel"}]},{"lat":"37.279358641","long":"127.44446009","imageIndex":5,"items":[{"name":"명동타운","tel":"031-634-3800","addr":"경기도 이천시 중리동 201-3","indutype":"숙박업 - 여관/기타숙박업","category":"hotel"}]},{"lat":"37.276685099","long":"127.44860503","imageIndex":5,"items":[{"name":"목화모텔","tel":"031-633-9511","addr":"경기도 이천시 중리동 463-6번지","indutype":"숙박업 - 여관/기타숙박업","category":"hotel"}]},{"lat":"37.276741577","long":"127.44796268","imageIndex":5,"items":[{"name":"미소모텔","tel":"031-635-4941","addr":"경기도 이천시 중리동 463-8번지","indutype":"숙박업 - 여관/기타숙박업","category":"hotel"}]},{"lat":"37.276664991","long":"127.44192999","imageIndex":5,"items":[{"name":"비취여관","tel":"031-634-8313","addr":"경기도 이천시 중리동 452-17번지","indutype":"숙박업 - 여관/기타숙박업","category":"hotel"}]},{"lat":"37.275275468","long":"127.44487597","imageIndex":5,"items":[{"name":"산호파크","tel":"031-633-7900","addr":"경기도 이천시 중리동 457-6번지","indutype":"숙박업 - 여관/기타숙박업","category":"hotel"}]},{"lat":"37.278687007","long":"127.44335117","imageIndex":5,"items":[{"name":"샤트렌모텔","tel":"031-635-0723","addr":"경기도 이천시 중리동 190번지 ,190-1,2","indutype":"숙박업 - 여관/기타숙박업","category":"hotel"}]},{"lat":"37.27774126","long":"127.44567966","imageIndex":5,"items":[{"name":"샵모텔","tel":"031-638-3556","addr":"경기도 이천시 중리동 214-8번지","indutype":"숙박업 - 여관/기타숙박업","category":"hotel"}]},{"lat":"37.276437524","long":"127.44735203","imageIndex":5,"items":[{"name":"서울장 여관","tel":"031-636-3190","addr":"경기도 이천시 중리동 224-2번지","indutype":"숙박업 - 여관/기타숙박업","category":"hotel"}]},{"lat":"37.275768158","long":"127.44804715","imageIndex":5,"items":[{"name":"설봉산업","tel":"031-638-5252","addr":"경기도 이천시 중리동 465-3번지","indutype":"숙박업 - 여관/기타숙박업","category":"hotel"}]},{"lat":"37.276496065","long":"127.4461572","imageIndex":5,"items":[{"name":"애니 모텔","tel":"031-635-2219","addr":"경기도 이천시 중리동 228번지","indutype":"숙박업 - 여관/기타숙박업","category":"hotel"}]},{"lat":"37.27668616","long":"127.44832316","imageIndex":5,"items":[{"name":"에이세븐 (A7)","tel":"031-635-7388","addr":"경기도 이천시 중리동 463-13번지","indutype":"숙박업 - 여관/기타숙박업","category":"hotel"}]},{"lat":"37.276687093","long":"127.44807511","imageIndex":5,"items":[{"name":"오아시스","tel":"031-632-4111","addr":"경기도 이천시 중리동 463-7번지","indutype":"숙박업 - 여관/기타숙박업","category":"hotel"}]},{"lat":"37.276686669","long":"127.44818786","imageIndex":5,"items":[{"name":"이브모텔","tel":"031-635-6181","addr":"경기도 이천시 중리동 463-12번지","indutype":"숙박업 - 여관/기타숙박업","category":"hotel"}]},{"lat":"37.277409829","long":"127.44515906","imageIndex":5,"items":[{"name":"이지모텔","tel":"031-631-2072","addr":"경기도 이천시 중리동 215-1번지","indutype":"숙박업 - 여관/기타숙박업","category":"hotel"}]},{"lat":"37.277748682","long":"127.43882427","imageIndex":5,"items":[{"name":"장미여관","tel":"031-635-2452","addr":"경기도 이천시 중리동 234번지","indutype":"숙박업 - 여관/기타숙박업","category":"hotel"}]},{"lat":"37.276297245","long":"127.4487155","imageIndex":5,"items":[{"name":"첼로","tel":"031-632-6161","addr":"경기도 이천시 중리동 464-4번지","indutype":"숙박업 - 여관/기타숙박업","category":"hotel"},{"name":"첼로","tel":"031-632-6161","addr":"경기도 이천시 중리동 464-4번지","indutype":"숙박업 - 여관/기타숙박업","category":"hotel"}]},{"lat":"37.276325633","long":"127.44835486","imageIndex":5,"items":[{"name":"프라하","tel":"031-633-7720","addr":"경기도 이천시 중리동 464-2번지","indutype":"숙박업 - 여관/기타숙박업","category":"hotel"}]},{"lat":"37.275244814","long":"127.44584544","imageIndex":5,"items":[{"name":"호텔글로리아","tel":"031-633-2470","addr":"경기도 이천시 중리동 461번지","indutype":"숙박업 - 여관/기타숙박업","category":"hotel"}]},{"lat":"37.276245391","long":"127.44812888","imageIndex":5,"items":[{"name":"힐파크","tel":"031-636-9318","addr":"경기도 이천시 중리동 464-1번지","indutype":"숙박업 - 여관/기타숙박업","category":"hotel"}]}]