[{"lat":"37.157923142","long":"127.0790062","imageIndex":8,"items":[{"name":"바른이치과의원","tel":"031-377-2275","addr":"경기도 오산시 부산동 778-7번지","indutype":"의원 - 치과의원","category":"medical"}]},{"lat":"37.157031143","long":"127.07894902","imageIndex":8,"items":[{"name":"수제한의원","tel":"031-376-9102","addr":"경기도 오산시 부산동 778-8번지 씨월드프라자 2층","indutype":"의원 - 한의원","category":"medical"},{"name":"한솔약국","tel":"031-377-8676","addr":"경기도 오산시 부산동 778-8번지 씨월드프라자 101 ,102호","indutype":"약국 - 약국","category":"medical"}]},{"lat":"37.154283736","long":"127.07771925","imageIndex":8,"items":[{"name":"스마일치과의원","tel":"031-372-1739","addr":"경기도 오산시 부산동 779-6번지 운암주공3단지상가,가동201호,202호","indutype":"의원 - 치과의원","category":"medical"},{"name":"하이팜약국","tel":"031-373-7522","addr":"경기도 오산시 부산동 779-6번지 운암3단지 상가 104호","indutype":"약국 - 약국","category":"medical"}]},{"lat":"37.150805807","long":"127.09069467","imageIndex":8,"items":[{"name":"시티약국","tel":"031-375-0289","addr":"경기도 오산시 부산동 690번지 106 ,107","indutype":"약국 - 약국","category":"medical"},{"name":"오산본플란트 치과의원","tel":"031-376-1275","addr":"경기도 오산시 부산동 690번지 자이프라자 307,308호","indutype":"의원 - 치과의원","category":"medical"},{"name":"현소아청소년과의원","tel":"031-372-7276","addr":"경기도 오산시 부산동 690번지 자이프라자 3층 301호","indutype":"의원 - 의원","category":"medical"}]}]