[{"lat":"37.25260111","long":"127.08372274","imageIndex":4,"items":[{"name":"(주)아워홈 노블카운티용인점","tel":"031-111-1111","addr":"경기도 용인시 기흥구 하갈동 471-3번지","indutype":"일반휴게음식 - 위탁급식업","category":"restaurant"},{"name":"코페아커피 기흥점","tel":"031-202-5444","addr":"경기도 용인시 기흥구 하갈동 471-3번지 B3층","indutype":"일반휴게음식 - 서양음식","category":"restaurant"}]},{"lat":"37.241406217","long":"127.08949232","imageIndex":4,"items":[{"name":"가마골","tel":"031-206-0052","addr":"경기도 용인시 기흥구 하갈동 16-1","indutype":"일반휴게음식 - 일반한식","category":"restaurant"}]},{"lat":"37.254098721","long":"127.10463379","imageIndex":4,"items":[{"name":"감미옥","tel":"031-285-9999","addr":"경기도 용인시 기흥구 하갈동 143-4번지","indutype":"일반휴게음식 - 일반한식","category":"restaurant"}]},{"lat":"37.250128347","long":"127.08929942","imageIndex":4,"items":[{"name":"경희식당","tel":"031-202-8414","addr":"경기도 용인시 기흥구 하갈동 460-2번지 2층 일부","indutype":"일반휴게음식 - 일반한식","category":"restaurant"}]},{"lat":"37.249543538","long":"127.09982611","imageIndex":4,"items":[{"name":"라비다하우스","tel":"031-283-7676","addr":"경기도 용인시 기흥구 하갈동 87번지 3층","indutype":"일반휴게음식 - 일반한식","category":"restaurant"}]},{"lat":"37.261625312","long":"127.08954929","imageIndex":4,"items":[{"name":"라페스타/(주)엘에스씨","tel":"031-203-6758","addr":"경기도 용인시 기흥구 하갈동 327번지","indutype":"일반휴게음식 - 일반한식","category":"restaurant"}]},{"lat":"37.255245341","long":"127.10190748","imageIndex":4,"items":[{"name":"롯데식당","tel":"031-269-5948","addr":"경기도 용인시 기흥구 하갈동 177번지","indutype":"일반휴게음식 - 위탁급식업","category":"restaurant"}]},{"lat":"37.255507653","long":"127.08909139","imageIndex":4,"items":[{"name":"루비어스나잇","tel":"031-0000-0000","addr":"경기도 용인시 기흥구 하갈동 631번지 청명호수마을신안인스빌1단지 상가동 202호","indutype":"일반휴게음식 - 서양음식","category":"restaurant"}]},{"lat":"37.249183864","long":"127.08707791","imageIndex":4,"items":[{"name":"리틀파머스","tel":"031-202-2718","addr":"경기도 용인시 기흥구 하갈동 453-9번지 1층 102호","indutype":"일반휴게음식 - 서양음식","category":"restaurant"}]},{"lat":"37.261906643","long":"127.09863573","imageIndex":4,"items":[{"name":"마포소금구이","tel":"031-281-9200","addr":"경기도 용인시 기흥구 하갈동 279-23번지 1층 일부","indutype":"일반휴게음식 - 일반한식","category":"restaurant"}]},{"lat":"37.254855605","long":"127.10461226","imageIndex":4,"items":[{"name":"소양강","tel":"031-8-0330","addr":"경기도 용인시 기흥구 하갈동 171번지","indutype":"일반휴게음식 - 일반한식","category":"restaurant"}]},{"lat":"37.249743849","long":"127.09724524","imageIndex":4,"items":[{"name":"씨제이프레시웨이(주)투썸여수디아크점","tel":"02-2149-6245","addr":"경기도 용인시 기흥구 하갈동 110-1번지","indutype":"일반휴게음식 - 서양음식","category":"restaurant"}]},{"lat":"37.251938713","long":"127.10172281","imageIndex":4,"items":[{"name":"엘림카페","tel":"070-4366-5917","addr":"경기도 용인시 기흥구 하갈동 156-67번지 1층","indutype":"일반휴게음식 - 서양음식","category":"restaurant"}]},{"lat":"37.246938248","long":"127.10141197","imageIndex":4,"items":[{"name":"이야기","tel":"","addr":"경기도 용인시 기흥구 하갈동 79-50번지","indutype":"일반휴게음식 - 서양음식","category":"restaurant"}]},{"lat":"37.254298929","long":"127.09091607","imageIndex":4,"items":[{"name":"쟈스민","tel":"031-6280-0037","addr":"경기도 용인시 기흥구 하갈동 403-3번지 1층","indutype":"일반휴게음식 - 일반한식","category":"restaurant"}]},{"lat":"37.252992066","long":"127.09141051","imageIndex":4,"items":[{"name":"저수지집","tel":"031-283-3150","addr":"경기도 용인시 기흥구 하갈동 407-12번지","indutype":"일반휴게음식 - 일반한식","category":"restaurant"}]},{"lat":"37.249939434","long":"127.08888217","imageIndex":4,"items":[{"name":"착한낙지","tel":"031-202-0998","addr":"경기도 용인시 기흥구 하갈동 456-4번지","indutype":"일반휴게음식 - 일반한식","category":"restaurant"}]},{"lat":"37.262184737","long":"127.0884677","imageIndex":4,"items":[{"name":"청명산민물장어","tel":"031-202-2399","addr":"경기도 용인시 기흥구 하갈동 322-8번지 1층","indutype":"일반휴게음식 - 일반한식","category":"restaurant"}]},{"lat":"37.261768721","long":"127.0905753","imageIndex":4,"items":[{"name":"카페정원","tel":"031-283-4941","addr":"경기도 용인시 기흥구 하갈동 329-4번지","indutype":"일반휴게음식 - 서양음식","category":"restaurant"}]},{"lat":"37.262157901","long":"127.08819712","imageIndex":4,"items":[{"name":"타짜오리하우스","tel":"031-206-7750","addr":"경기도 용인시 기흥구 하갈동 323-6번지","indutype":"일반휴게음식 - 일반한식","category":"restaurant"}]},{"lat":"37.265185394","long":"127.09985743","imageIndex":4,"items":[{"name":"할매순대국","tel":"031-274-8100","addr":"경기도 용인시 기흥구 하갈동 296-3번지 프라임스포츠아카데미 나동 1층","indutype":"일반휴게음식 - 일반한식","category":"restaurant"}]},{"lat":"37.255519298","long":"127.09744407","imageIndex":4,"items":[{"name":"황토","tel":"031-284-5252","addr":"경기도 용인시 기흥구 하갈동 232-3번지 1층","indutype":"일반휴게음식 - 일반한식","category":"restaurant"}]},{"lat":"37.249741387","long":"127.08863397","imageIndex":4,"items":[{"name":"흑돼지연탄구이","tel":"031-205-9293","addr":"경기도 용인시 기흥구 하갈동 455-3번지 1층","indutype":"일반휴게음식 - 일반한식","category":"restaurant"}]}]