[{"lat":"37.860691855","long":"126.83522218","imageIndex":17,"items":[{"name":"(주)다위","tel":"031-957-2820","addr":"경기도 파주시 문산읍 이천리 275-1번지","indutype":"기타 - 기계공구","category":"other"}]},{"lat":"37.865138213","long":"126.82614336","imageIndex":17,"items":[{"name":"HHA FP","tel":"070-8875-9194","addr":"경기도 파주시 문산읍 이천리 438-1번지","indutype":"용역 서비스 - 종합용역","category":"other"}]},{"lat":"37.864630292","long":"126.82389444","imageIndex":17,"items":[{"name":"MS공조","tel":"","addr":"경기도 파주시 문산읍 이천리 443-4번지","indutype":"전기제품 - 냉열기기","category":"other"}]},{"lat":"37.862240968","long":"126.82867306","imageIndex":17,"items":[{"name":"더블루","tel":"031-952-7064","addr":"경기도 파주시 문산읍 이천리 445-18번지","indutype":"수리서비스 - 세탁소","category":"other"}]},{"lat":"37.859968374","long":"126.83331474","imageIndex":17,"items":[{"name":"동양설비","tel":"031-952-3313","addr":"경기도 파주시 문산읍 이천리 259-6번지","indutype":"용역 서비스 - 기타용역서비스","category":"other"},{"name":"동양이엔지(ENG)","tel":"031-953-4845","addr":"경기도 파주시 문산읍 이천리 259-6번지","indutype":"용역 서비스 - 기타용역서비스","category":"other"}]},{"lat":"37.859859771","long":"126.83297409","imageIndex":17,"items":[{"name":"세븐일레븐문산이천점","tel":"031-1577-0711","addr":"경기도 파주시 문산읍 이천리 259-3번지","indutype":"유통업 영리 - 편 의 점","category":"other"},{"name":"예일유통","tel":"031-952-5530","addr":"경기도 파주시 문산읍 이천리 259-3번지","indutype":"신변잡화 - 기타잡화","category":"other"}]},{"lat":"37.861996266","long":"126.82769635","imageIndex":17,"items":[{"name":"세일 주식회사","tel":"031-953-9951","addr":"경기도 파주시 문산읍 이천리 445-14번지","indutype":"건축자재 - 보일러·펌프·샷시","category":"other"}]},{"lat":"37.863524575","long":"126.8378977","imageIndex":17,"items":[{"name":"신혜동금속","tel":"","addr":"경기도 파주시 문산읍 이천리 228-8번지","indutype":"기타 - 기계공구","category":"other"}]},{"lat":"37.860161354","long":"126.82972341","imageIndex":17,"items":[{"name":"에스케이(SK) 종합설비,전기","tel":"070-7767-4535","addr":"경기도 파주시 문산읍 이천리 447-10번지","indutype":"용역 서비스 - 기타용역서비스","category":"other"}]},{"lat":"37.87035371","long":"126.81394746","imageIndex":17,"items":[{"name":"오춘방","tel":"031-963-7756","addr":"경기도 파주시 문산읍 이천리 596 1/1","indutype":"건축자재 - 인테리어전문","category":"other"}]},{"lat":"37.876664447","long":"126.84094861","imageIndex":17,"items":[{"name":"준 건축인테리어","tel":"031-953-4877","addr":"경기도 파주시 문산읍 이천리 129번지","indutype":"용역 서비스 - 기타용역서비스","category":"other"}]},{"lat":"37.862024996","long":"126.82884403","imageIndex":17,"items":[{"name":"파주목공방","tel":"","addr":"경기도 파주시 문산읍 이천리 445-19번지","indutype":"가구 - 일반가구","category":"other"}]},{"lat":"37.86755421","long":"126.81545475","imageIndex":0,"items":[{"name":"경동자동차공업사","tel":"031-958-7249","addr":"경기도 파주시 문산읍 이천리 626-3번지","indutype":"자동차정비 유지 - 자동차정비","category":"car"}]},{"lat":"37.8667186","long":"126.82267338","imageIndex":4,"items":[{"name":"고양식당","tel":"031-952-3501","addr":"경기도 파주시 문산읍 이천리 516번지","indutype":"일반휴게음식 - 일반한식","category":"restaurant"}]},{"lat":"37.86118568","long":"126.82786872","imageIndex":4,"items":[{"name":"매일식당","tel":"031-953-5566","addr":"경기도 파주시 문산읍 이천리 451-4번지","indutype":"일반휴게음식 - 일반한식","category":"restaurant"}]},{"lat":"37.865995759","long":"126.8213114","imageIndex":4,"items":[{"name":"바비큐보스","tel":"031-954-8084","addr":"경기도 파주시 문산읍 이천리 497-5번지","indutype":"일반휴게음식 - 일반한식","category":"restaurant"}]},{"lat":"37.862713644","long":"126.82544458","imageIndex":4,"items":[{"name":"수타손짜장","tel":"031-953-6805","addr":"경기도 파주시 문산읍 이천리 443-55번지 외2필지 1층","indutype":"일반휴게음식 - 중국식","category":"restaurant"}]},{"lat":"37.86246348","long":"126.82684294","imageIndex":4,"items":[{"name":"숯불상회","tel":"031-953-0812","addr":"경기도 파주시 문산읍 이천리 441-22번지","indutype":"일반휴게음식 - 일반한식","category":"restaurant"}]},{"lat":"37.865109096","long":"126.82475698","imageIndex":4,"items":[{"name":"약수촌가든","tel":"031-953-0062","addr":"경기도 파주시 문산읍 이천리 490-4번지","indutype":"일반휴게음식 - 일반한식","category":"restaurant"}]},{"lat":"37.86147191","long":"126.82648166","imageIndex":4,"items":[{"name":"하늘보리밥","tel":"031-954-5358","addr":"경기도 파주시 문산읍 이천리 443-95번지","indutype":"일반휴게음식 - 일반한식","category":"restaurant"}]},{"lat":"37.861770661","long":"126.82744688","imageIndex":4,"items":[{"name":"희래어촌","tel":"031-952-0594","addr":"경기도 파주시 문산읍 이천리 445번지","indutype":"일반휴게음식 - 일반한식","category":"restaurant"}]},{"lat":"37.860054143","long":"126.83033729","imageIndex":9,"items":[{"name":"무지개주유소","tel":"031-953-8937","addr":"경기도 파주시 문산읍 이천리 447-2번지","indutype":"연료판매점 - 주유소","category":"oil"}]},{"lat":"37.860135759","long":"126.83070074","imageIndex":9,"items":[{"name":"통일특구주유소","tel":"031-000-0000","addr":"경기도 파주시 문산읍 이천리 447-5번지","indutype":"연료판매점 - 현대정유(오일뱅크)","category":"oil"}]},{"lat":"37.874775256","long":"126.84297587","imageIndex":7,"items":[{"name":"문산농장","tel":"031-953-6239","addr":"경기도 파주시 문산읍 이천리 41","indutype":"음료식품 - 농·축·수산품","category":"food"}]},{"lat":"37.876325292","long":"126.83677801","imageIndex":7,"items":[{"name":"지내울영농조합법인","tel":"031-953-3533","addr":"경기도 파주시 문산읍 이천리 154-2번지","indutype":"음료식품 - 미곡상","category":"food"}]},{"lat":"37.861770661","long":"126.82744688","imageIndex":7,"items":[{"name":"미소레25문산로드점","tel":"031-953-9565","addr":"경기도 파주시 문산읍 이천리 445","indutype":"유통업 영리 - 슈퍼마켓","category":"mart"}]},{"lat":"37.860991097","long":"126.83658515","imageIndex":16,"items":[{"name":"파양초등학교병설유치원[아이행복]","tel":"031-954-2494","addr":"경기도 파주시 문산읍 이천리 249-1번지","indutype":"학원 - 유치원","category":"study"}]}]