[{"lat":"37.282295002","long":"127.15957525","imageIndex":16,"items":[{"name":"(주)유니화이","tel":"031-548-0750","addr":"경기도 용인시 기흥구 동백동 598-1번지 지우프라자","indutype":"학원 - 독서실","category":"study"},{"name":"아이디아학원","tel":"031-282-2572","addr":"경기도 용인시 기흥구 동백동 598-1번지 지우프라자 5층 3호","indutype":"학원 - 보습학원","category":"study"},{"name":"에이플러스스카이학원","tel":"031-281-0582","addr":"경기도 용인시 기흥구 동백동 598-1번지 지우프라자 5층 일부","indutype":"학원 - 보습학원","category":"study"},{"name":"최상인비전학원/(주)최상인비전","tel":"031-274-8838","addr":"경기도 용인시 기흥구 동백동 598-1번지 지우프라자 7층","indutype":"학원 - 보습학원","category":"study"}]},{"lat":"37.281934638","long":"127.15954068","imageIndex":16,"items":[{"name":"(주)유캔영어학원","tel":"031-285-0081","addr":"경기도 용인시 기흥구 동백동 598-8번지 경안빌딩 701호","indutype":"회원제형태 - 학원","category":"study"},{"name":"예인음악학원","tel":"031-693-8411","addr":"경기도 용인시 기흥구 동백동 598-8번지 경안빌딩 3층 302호","indutype":"학원 - 예·체능계학원","category":"study"},{"name":"이투스수학동백학원","tel":"031-282-3567","addr":"경기도 용인시 기흥구 동백동 598-8번지 경안빌딩 402호","indutype":"학원 - 보습학원","category":"study"},{"name":"허브미술학원","tel":"031-282-2040","addr":"경기도 용인시 기흥구 동백동 598-8번지 경안빌딩302호일부","indutype":"학원 - 예·체능계학원","category":"study"},{"name":"힘찬 경희대 태권도장","tel":"031-285-8111","addr":"경기도 용인시 기흥구 동백동 598-8번지 경안빌딩 601호","indutype":"학원 - 예·체능계학원","category":"study"}]},{"lat":"37.281681828","long":"127.15993481","imageIndex":16,"items":[{"name":"11월의 아침학원","tel":"031-281-4112","addr":"경기도 용인시 기흥구 동백동 598-6번지 두빈빌딩 6층","indutype":"학원 - 보습학원","category":"study"},{"name":"동백정철어학원","tel":"031-693-9905","addr":"경기도 용인시 기흥구 동백동 598-6번지 두빈빌딩 501호","indutype":"학원 - 외국어학원","category":"study"},{"name":"용인백현씨앤씨미술학원","tel":"031-274-5647","addr":"경기도 용인시 기흥구 동백동 598-6번지 두빈빌딩 202호","indutype":"학원 - 예·체능계학원","category":"study"},{"name":"이정영어수학전문학원","tel":"031-284-1090","addr":"경기도 용인시 기흥구 동백동 598-6번지 두빈빌딩 301호","indutype":"학원 - 보습학원","category":"study"},{"name":"프라임에듀학원","tel":"070-4201-5557","addr":"경기도 용인시 기흥구 동백동 598-6번지 두빈빌딩 6층 601호","indutype":"학원 - 보습학원","category":"study"}]},{"lat":"37.283041459","long":"127.16062549","imageIndex":16,"items":[{"name":"CAE영어교습소","tel":"","addr":"경기도 용인시 기흥구 동백동 599번지 모아미래도 상가 202호","indutype":"학원 - 외국어학원","category":"study"}]},{"lat":"37.286846527","long":"127.15154432","imageIndex":16,"items":[{"name":"JHK영어교습소","tel":"031-4152-0505","addr":"경기도 용인시 기흥구 동백동 572번지","indutype":"학원 - 외국어학원","category":"study"},{"name":"포르테피아노교습소","tel":"031-893-5566","addr":"경기도 용인시 기흥구 동백동 572번지 호수마을자연앤데시앙 상가동 102호","indutype":"학원 - 예·체능계학원","category":"study"},{"name":"한양대 참 태권도장","tel":"031-274-9977","addr":"경기도 용인시 기흥구 동백동 572번지 호수마을자연앤데시앙 상가동 203호,204ㅀ","indutype":"학원 - 예·체능계학원","category":"study"}]},{"lat":"37.281906755","long":"127.16018336","imageIndex":16,"items":[{"name":"가리온학원","tel":"031-274-7331","addr":"경기도 용인시 기흥구 동백동 598-4번지 유타운 5층 503호","indutype":"학원 - 보습학원","category":"study"},{"name":"강의하는아이들학원","tel":"031-275-7757","addr":"경기도 용인시 기흥구 동백동 598-4번지 유타운 701호","indutype":"학원 - 보습학원","category":"study"},{"name":"동백김샘학원","tel":"031-275-0666","addr":"경기도 용인시 기흥구 동백동 598-4번지 유타운 상가 8층","indutype":"학원 - 보습학원","category":"study"},{"name":"동백키즈바둑교습소","tel":"031-281-8844","addr":"경기도 용인시 기흥구 동백동 598-4번지 유타운 502호","indutype":"학원 - 기타 교육기관","category":"study"},{"name":"비전수학학원","tel":"031-282-9517","addr":"경기도 용인시 기흥구 동백동 598-4번지 유타운 상가 602호","indutype":"학원 - 보습학원","category":"study"},{"name":"에이원영어입시학원/주식회사더에이원","tel":"031-283-3525","addr":"경기도 용인시 기흥구 동백동 598-4번지 유타운 303호","indutype":"학원 - 외국어학원","category":"study"},{"name":"에이치티실용음악학원","tel":"070-4214-3576","addr":"경기도 용인시 기흥구 동백동 598-4번지 백현마을유타운 상가 601호","indutype":"학원 - 예·체능계학원","category":"study"},{"name":"용인대동백최고태권도","tel":"031-274-1190","addr":"경기도 용인시 기흥구 동백동 598-4번지 유타운 201호 상가","indutype":"학원 - 예·체능계학원","category":"study"},{"name":"일등공신학원","tel":"031-284-1011","addr":"경기도 용인시 기흥구 동백동 598-4번지 유타운 302호 상가","indutype":"회원제형태 - 학원","category":"study"},{"name":"파피루스국어논술학원","tel":"031-287-8765","addr":"경기도 용인시 기흥구 동백동 598-4번지 유타운 302호","indutype":"회원제형태 - 학원","category":"study"},{"name":"포아이플러스학원","tel":"031-286-0141","addr":"경기도 용인시 기흥구 동백동 598-4번지 백현마을유타운상가 401,402호","indutype":"학원 - 보습학원","category":"study"},{"name":"플로리쉬 키즈 스튜디오(Flourish Kids Stu","tel":"02-111-1111","addr":"경기도 용인시 기흥구 동백동 598-4번지 백현마을 동백유타운 상가동 2층 202호","indutype":"학원 - 외국어학원","category":"study"}]},{"lat":"37.281790205","long":"127.15974335","imageIndex":16,"items":[{"name":"가우디 미술학원","tel":"031-693-8811","addr":"경기도 용인시 기흥구 동백동 598-7번지 401-1, 2호","indutype":"학원 - 예·체능계학원","category":"study"},{"name":"동백줄리어드음악학원","tel":"031-693-7090","addr":"경기도 용인시 기흥구 동백동 598-7번지 5층","indutype":"학원 - 예·체능계학원","category":"study"},{"name":"베스티안수학학원","tel":"031-526-2012","addr":"경기도 용인시 기흥구 동백동 598-7번지 6층","indutype":"학원 - 보습학원","category":"study"},{"name":"스폴어학원","tel":"031-693-9494","addr":"경기도 용인시 기흥구 동백동 3101-6여강빌딩701,702호","indutype":"회원제형태 - 학원","category":"study"},{"name":"토즈스터디센터 동백독서실","tel":"031-281-3377","addr":"경기도 용인시 기흥구 동백동 598-7번지 2층 201-1호","indutype":"학원 - 독서실","category":"study"}]},{"lat":"37.285240527","long":"127.15326648","imageIndex":16,"items":[{"name":"감성음악학원","tel":"031-285-7311","addr":"경기도 용인시 기흥구 동백동 605-2번지 1층","indutype":"학원 - 예·체능계학원","category":"study"},{"name":"에버그린미술교습소","tel":"031-282-6678","addr":"경기도 용인시 기흥구 동백동 605-2번지 1층","indutype":"학원 - 예·체능계학원","category":"study"}]},{"lat":"37.279402339","long":"127.15290532","imageIndex":16,"items":[{"name":"개인과외","tel":"","addr":"경기도 용인시 기흥구 동백동 632-5번지 석정빌","indutype":"학원 - 기타 교육기관","category":"study"}]},{"lat":"37.282960498","long":"127.16715426","imageIndex":16,"items":[{"name":"개인과외","tel":"","addr":"경기도 용인시 기흥구 동백동 584번지 백현마을주공9단지아파트","indutype":"학원 - 기타 교육기관","category":"study"}]},{"lat":"37.280158497","long":"127.15345933","imageIndex":16,"items":[{"name":"개인과외","tel":"","addr":"경기도 용인시 기흥구 동백동 628-7번지 302호","indutype":"학원 - 기타 교육기관","category":"study"}]},{"lat":"37.281600227","long":"127.16031803","imageIndex":16,"items":[{"name":"경희대 익스트림 마샬아츠","tel":"","addr":"경기도 용인시 기흥구 동백동 598-5번지 중앙프라자 208호","indutype":"학원 - 예·체능계학원","category":"study"},{"name":"더블유공터영어동백센터학원","tel":"031-287-4777","addr":"경기도 용인시 기흥구 동백동 598-5번지 중앙프라자 3층 303호","indutype":"학원 - 외국어학원","category":"study"},{"name":"동백잉글루영어학원","tel":"031-284-6279","addr":"경기도 용인시 기흥구 동백동 598-5번지 중앙프라자 209호","indutype":"학원 - 외국어학원","category":"study"},{"name":"막강영수전문학원","tel":"070-0591-0774","addr":"경기도 용인시 기흥구 동백동 598-5번지 중앙프라자 306호","indutype":"학원 - 보습학원","category":"study"},{"name":"백현아트스토리미술학원","tel":"031-693-6678","addr":"경기도 용인시 기흥구 동백동 598-5번지 중앙프라자 307호","indutype":"학원 - 예·체능계학원","category":"study"},{"name":"사임당독서실","tel":"","addr":"경기도 용인시 기흥구 동백동 598-5번지 중앙프라자 3층 301호","indutype":"학원 - 독서실","category":"study"},{"name":"앙상블음악학원","tel":"031-274-8088","addr":"경기도 용인시 기흥구 동백동 598-5번지 중앙프라자 3층 305호","indutype":"학원 - 예·체능계학원","category":"study"},{"name":"용인대특전합기도","tel":"031-275-2822","addr":"경기도 용인시 기흥구 동백동 598-5번지 중앙프라자 308호","indutype":"학원 - 예·체능계학원","category":"study"},{"name":"필즈수학학원","tel":"070-8879-3437","addr":"경기도 용인시 기흥구 동백동 598-5번지 중앙프라자 207호","indutype":"학원 - 보습학원","category":"study"}]},{"lat":"37.281901545","long":"127.15729667","imageIndex":16,"items":[{"name":"경희대 태풍 태권도","tel":"031-693-6789","addr":"경기도 용인시 기흥구 동백동 656번지 상가동 201호,202호","indutype":"학원 - 예·체능계학원","category":"study"}]},{"lat":"37.27974068","long":"127.14893692","imageIndex":16,"items":[{"name":"경희블랙타이거즈태권도","tel":"031-693-6290","addr":"경기도 용인시 기흥구 동백동 683번지 로얄듀크 상가 202호","indutype":"학원 - 예·체능계학원","category":"study"},{"name":"삼성영어동백어정영어교습소","tel":"031-287-7755","addr":"경기도 용인시 기흥구 동백동 683번지 동원마을동원로얄듀크 2층 202호","indutype":"학원 - 외국어학원","category":"study"},{"name":"창의사고력수학교습소","tel":"","addr":"경기도 용인시 기흥구 동백동 683번지 동원마을동원로얄듀크 상가동B층 101호","indutype":"학원 - 보습학원","category":"study"}]},{"lat":"37.28210311","long":"127.15471485","imageIndex":16,"items":[{"name":"그레이스음악학원","tel":"031-693-5050","addr":"경기도 용인시 기흥구 동백동 654번지 호수마을동보노빌리티아파트 상가동 301호","indutype":"학원 - 예·체능계학원","category":"study"}]},{"lat":"37.281747678","long":"127.15782633","imageIndex":16,"items":[{"name":"그림숲미술","tel":"070-8821-1791","addr":"경기도 용인시 기흥구 동백동 656번지 호수마을서해그랑블 1103동 702호","indutype":"회원제형태 - 학원","category":"study"}]},{"lat":"37.282042208","long":"127.15995812","imageIndex":16,"items":[{"name":"그림아트스튜디오 용인동백미술학원","tel":"031-286-8700","addr":"경기도 용인시 기흥구 동백동 598-3번지 백현프라자 501호","indutype":"학원 - 예·체능계학원","category":"study"},{"name":"김진철수학전문학원","tel":"031-283-2026","addr":"경기도 용인시 기흥구 동백동 598-3번지 백현프라자 603호","indutype":"학원 - 보습학원","category":"study"},{"name":"동백에스셈학원","tel":"031-286-2668","addr":"경기도 용인시 기흥구 동백동 598-3번지 동백백현프라자 2층 202호","indutype":"학원 - 보습학원","category":"study"},{"name":"리드앤톡영어학원","tel":"031-285-0535","addr":"경기도 용인시 기흥구 동백동 598-3번지 백현프라자 303호","indutype":"학원 - 외국어학원","category":"study"},{"name":"백현해법영어학원","tel":"031-274-5929","addr":"경기도 용인시 기흥구 동백동 598-3번지 백현프라자 602호","indutype":"학원 - 보습학원","category":"study"},{"name":"브레인트러스트사이언스학원","tel":"031-282-3515","addr":"경기도 용인시 기흥구 동백동 598-3번지 동백백현프라자 6층 602호","indutype":"학원 - 보습학원","category":"study"},{"name":"에듀스카이영수학원","tel":"02-1234-4567","addr":"경기도 용인시 기흥구 동백동 598-3번지 백현프라자 503호","indutype":"학원 - 보습학원","category":"study"},{"name":"연세열린음악학원","tel":"031-693-8539","addr":"경기도 용인시 기흥구 동백동 598-3번지","indutype":"학원 - 예·체능계학원","category":"study"},{"name":"유투엠수학학원","tel":"031-8005-5577","addr":"경기도 용인시 기흥구 동백동 598-3번지 백현프라자 801동 802호","indutype":"회원제형태 - 학원","category":"study"},{"name":"인재숲학원","tel":"031-285-5381","addr":"경기도 용인시 기흥구 동백동 598-3번지 백현프라자 701호","indutype":"학원 - 보습학원","category":"study"},{"name":"자이언트에듀학원","tel":"031-287-8291","addr":"경기도 용인시 기흥구 동백동 598-3번지 백현프라자 401호","indutype":"학원 - 보습학원","category":"study"},{"name":"주식회사 메이크531학원","tel":"031-283-2755","addr":"경기도 용인시 기흥구 동백동 598-3번지 백현프라자 603호","indutype":"학원 - 보습학원","category":"study"},{"name":"창의수학영어학원","tel":"031-285-4007","addr":"경기도 용인시 기흥구 동백동 598-3번지 동백 백현프라자 4층 3호","indutype":"학원 - 보습학원","category":"study"},{"name":"하이그레이드통문장영어학원","tel":"031-287-0597","addr":"경기도 용인시 기흥구 동백동 593-8 동백백현프라자 502호","indutype":"학원 - 보습학원","category":"study"}]},{"lat":"37.281212264","long":"127.15379971","imageIndex":16,"items":[{"name":"꿈꾸는 팩토수학","tel":"","addr":"경기도 용인시 기흥구 동백동 626-5번지 202호","indutype":"학원 - 기타 교육기관","category":"study"}]},{"lat":"37.285925291","long":"127.15327912","imageIndex":16,"items":[{"name":"노리아이","tel":"070-4655-9674","addr":"경기도 용인시 기흥구 동백동 574번지 호수마을월드메르디앙 1606동 1203호","indutype":"학원 - 예·체능계학원","category":"study"}]},{"lat":"37.287290836","long":"127.15640553","imageIndex":16,"items":[{"name":"다니엘어학원","tel":"031-281-9182","addr":"경기도 용인시 기흥구 동백동 367-6번지 2층","indutype":"회원제형태 - 학원","category":"study"}]},{"lat":"37.281875441","long":"127.16337442","imageIndex":16,"items":[{"name":"더샵음악교습소","tel":"031-693-2088","addr":"경기도 용인시 기흥구 동백동 593번지 백현마을모아미래도 상가동 202호","indutype":"학원 - 예·체능계학원","category":"study"},{"name":"용인대백현태권도","tel":"031-693-2333","addr":"경기도 용인시 기흥구 동백동 593번지 모아미래도 상가동 3층","indutype":"학원 - 예·체능계학원","category":"study"}]},{"lat":"37.280350926","long":"127.15091137","imageIndex":16,"items":[{"name":"도토리나무음악교습소","tel":"031-289-9567","addr":"경기도 용인시 기흥구 동백동 689번지 해든마을동문굿모닝힐 203호","indutype":"학원 - 예·체능계학원","category":"study"},{"name":"스케치북아트교습소","tel":"031-289-9122","addr":"경기도 용인시 기흥구 동백동 689번지 해든마을동문굿모닝힐아파트 상가동 102호","indutype":"학원 - 예·체능계학원","category":"study"},{"name":"연세이지수학교습소","tel":"031-289-9100","addr":"경기도 용인시 기흥구 동백동 689번지 동문굿모닝힐 상가동 202호","indutype":"학원 - 보습학원","category":"study"}]},{"lat":"37.28207","long":"127.15938309","imageIndex":16,"items":[{"name":"동백검도관","tel":"031-693-6007","addr":"경기도 용인시 기흥구 동백동 3101-8신동백빌딩6층2","indutype":"학원 - 예·체능계학원","category":"study"},{"name":"동백한우리독서논술학원","tel":"031-693-6454","addr":"경기도 용인시 기흥구 동백동 3101-8신동백빌딩701","indutype":"학원 - 기타 교육기관","category":"study"}]},{"lat":"37.282159595","long":"127.15976667","imageIndex":16,"items":[{"name":"동백뉴스터디학원","tel":"031-282-0670","addr":"경기도 용인시 기흥구 동백동 598-2번지 동백프라자 6층 601-1호","indutype":"학원 - 보습학원","category":"study"},{"name":"동백어썸팩토리독서실","tel":"031-693-6836","addr":"경기도 용인시 기흥구 동백동 598-2번지 동백프라자","indutype":"학원 - 독서실","category":"study"},{"name":"동백학원","tel":"070-8810-2919","addr":"경기도 용인시 기흥구 동백동 598-2번지 동백프라자 602호","indutype":"학원 - 보습학원","category":"study"},{"name":"소년공방미술교습소","tel":"070-7793-0079","addr":"경기도 용인시 기흥구 동백동 598-2번지 동백프라자 1층 106호","indutype":"학원 - 예·체능계학원","category":"study"},{"name":"아트샘미술교습소","tel":"031-693-9633","addr":"경기도 용인시 기흥구 동백동 598-2번지 동백프라자 601호","indutype":"학원 - 예·체능계학원","category":"study"},{"name":"지에스(GS)에듀학원","tel":"031-287-6004","addr":"경기도 용인시 기흥구 동백동 598-2번지 동백프라자 7층","indutype":"학원 - 보습학원","category":"study"},{"name":"지혜의샘학원","tel":"031-274-3090","addr":"경기도 용인시 기흥구 동백동 598-2번지 동백프라자 302","indutype":"학원 - 보습학원","category":"study"}]},{"lat":"37.280347784","long":"127.15340333","imageIndex":16,"items":[{"name":"동백멘토플러스학원","tel":"031-693-6481","addr":"경기도 용인시 기흥구 동백동 628-11번지","indutype":"학원 - 보습학원","category":"study"}]},{"lat":"37.281464398","long":"127.16082517","imageIndex":16,"items":[{"name":"동백바둑","tel":"031-693-7337","addr":"경기도 용인시 기흥구 동백동 597-1번지 미래프라자 503호","indutype":"학원 - 기타 교육기관","category":"study"},{"name":"동백수학전문매쓰로드학원","tel":"031-274-6788","addr":"경기도 용인시 기흥구 동백동 597-1번지 미래도프라자 5층 502호","indutype":"학원 - 보습학원","category":"study"},{"name":"동백예일음악학원","tel":"031-287-5437","addr":"경기도 용인시 기흥구 동백동 597-1번지 미래도프라자 605,606호","indutype":"학원 - 예·체능계학원","category":"study"},{"name":"동백이보영의토킹클럽어학원","tel":"031-274-9311","addr":"경기도 용인시 기흥구 동백동 597-1번지 미래도프라자 604호","indutype":"학원 - 외국어학원","category":"study"},{"name":"미래도독서실","tel":"031-352-6996","addr":"경기도 용인시 기흥구 동백동 597-1미래도프라자601.602.603호","indutype":"학원 - 독서실","category":"study"},{"name":"생각n논리 동백점 논술교습소","tel":"070-7545-8300","addr":"경기도 용인시 기흥구 동백동 597-1번지 미래도프라자 206호","indutype":"회원제형태 - 학원","category":"study"},{"name":"시너지영어학원","tel":"031-274-0582","addr":"경기도 용인시 기흥구 동백동 597-1번지 미래도프라자 501호","indutype":"학원 - 외국어학원","category":"study"},{"name":"이레보습학원","tel":"031-274-7371","addr":"경기도 용인시 기흥구 동백동 597-1번지 미래도프라자 502호","indutype":"회원제형태 - 학원","category":"study"},{"name":"이챕터스영어학원","tel":"031-281-3637","addr":"경기도 용인시 기흥구 동백동 597-1번지 미래도프라자 401호","indutype":"회원제형태 - 학원","category":"study"},{"name":"주식회사 탑클래스교육","tel":"031-693-8111","addr":"경기도 용인시 기흥구 동백동 597-1번지 미래도프라자 504동 506호","indutype":"학원 - 보습학원","category":"study"},{"name":"파란고래미술학원","tel":"031-693-7740","addr":"경기도 용인시 기흥구 동백동 597-1번지 미래도프라자 3동 301호","indutype":"학원 - 예·체능계학원","category":"study"}]},{"lat":"37.280987224","long":"127.15363012","imageIndex":16,"items":[{"name":"동백자연미술학원","tel":"031-693-9392","addr":"경기도 용인시 기흥구 동백동 625-8번지 1층","indutype":"학원 - 예·체능계학원","category":"study"}]},{"lat":"37.279846902","long":"127.15047063","imageIndex":16,"items":[{"name":"라온 키즈 아카데미","tel":"","addr":"경기도 용인시 기흥구 동백동 689번지 해든마을동문굿모닝힐","indutype":"학원 - 기타 교육기관","category":"study"}]},{"lat":"37.284157457","long":"127.1547077","imageIndex":16,"items":[{"name":"매쓰루동백수학교습소","tel":"031-285-6123","addr":"경기도 용인시 기흥구 동백동 604번지 호수마을계룡리슈빌 상가 204호","indutype":"회원제형태 - 학원","category":"study"}]},{"lat":"37.285267801","long":"127.15307483","imageIndex":16,"items":[{"name":"뮤엠영어 계룡리슈빌점 영어교습소","tel":"","addr":"경기도 용인시 기흥구 동백동 605-1번지 1층","indutype":"학원 - 외국어학원","category":"study"}]},{"lat":"37.284525074","long":"127.16291771","imageIndex":16,"items":[{"name":"바오밥나무ART","tel":"","addr":"경기도 용인시 기흥구 동백동 581번지 백현마을주공7단지아파트","indutype":"학원 - 예·체능계학원","category":"study"}]},{"lat":"37.277766433","long":"127.14974494","imageIndex":16,"items":[{"name":"벅스피아노교습소","tel":"031-282-2741","addr":"경기도 용인시 기흥구 동백동 481-1번지 (주)대풍목재.합판할인매장 218동 107호","indutype":"학원 - 예·체능계학원","category":"study"}]},{"lat":"37.281240383","long":"127.14565851","imageIndex":16,"items":[{"name":"비엔나음악교습소","tel":"031-679-8979","addr":"경기도 용인시 기흥구 동백동 653번지 상록롯데캐슬 상가동 201호","indutype":"학원 - 예·체능계학원","category":"study"}]},{"lat":"37.286545313","long":"127.15459973","imageIndex":16,"items":[{"name":"삼성영어동막영어교습소","tel":"031-287-3405","addr":"경기도 용인시 기흥구 동백동 575번지 상가동 1층 101-2호","indutype":"학원 - 외국어학원","category":"study"}]},{"lat":"37.283519586","long":"127.16018671","imageIndex":16,"items":[{"name":"서울공부방","tel":"031-693-8666","addr":"경기도 용인시 기흥구 동백동 599번지 백현마을모아미래도1단지아파트","indutype":"회원제형태 - 학원","category":"study"}]},{"lat":"37.284907178","long":"127.15324326","imageIndex":16,"items":[{"name":"수학노트수학교습소","tel":"031-274-6001","addr":"경기도 용인시 기흥구 동백동 606-3번지 1층","indutype":"학원 - 보습학원","category":"study"}]},{"lat":"37.283735561","long":"127.15346646","imageIndex":16,"items":[{"name":"수학의나래수학교습소","tel":"","addr":"경기도 용인시 기흥구 동백동 614-3번지 1층 102호","indutype":"학원 - 보습학원","category":"study"}]},{"lat":"37.28288069","long":"127.15259648","imageIndex":16,"items":[{"name":"수학전문매쓰업학원","tel":"031-285-8324","addr":"경기도 용인시 기흥구 동백동 618-4번지 1층","indutype":"학원 - 보습학원","category":"study"}]},{"lat":"37.279348106","long":"127.15304052","imageIndex":16,"items":[{"name":"아틱스튜디오","tel":"031-8005-5477","addr":"경기도 용인시 기흥구 동백동 632-4번지 1층","indutype":"학원 - 컴퓨터학원","category":"study"}]},{"lat":"37.279151943","long":"127.15140515","imageIndex":16,"items":[{"name":"용인대화랑태권도","tel":"031-8005-5502","addr":"경기도 용인시 기흥구 동백동 476-1번지 3층","indutype":"학원 - 예·체능계학원","category":"study"}]},{"lat":"37.281907755","long":"127.15245924","imageIndex":16,"items":[{"name":"우리아이창작미술학원","tel":"031-285-6224","addr":"경기도 용인시 기흥구 동백동 622-1번지 1층","indutype":"학원 - 예·체능계학원","category":"study"}]},{"lat":"37.283513445","long":"127.16474233","imageIndex":16,"items":[{"name":"윤선생우리집앞영어백현휴먼시아영어교습소","tel":"031-284-0582","addr":"경기도 용인시 기흥구 동백동 583번지 백현마을휴먼시아 상가동 102호","indutype":"학원 - 외국어학원","category":"study"}]},{"lat":"37.280373289","long":"127.15459862","imageIndex":16,"items":[{"name":"은샘개인과외","tel":"031-000-0000","addr":"경기도 용인시 기흥구 동백동 627-5번지","indutype":"학원 - 기타 교육기관","category":"study"}]},{"lat":"37.281106872","long":"127.15864816","imageIndex":16,"items":[{"name":"이도훈영어과외","tel":"031-285-0013","addr":"경기도 용인시 기흥구 동백동 661번지 백현마을코아루아파트","indutype":"회원제형태 - 학원","category":"study"}]},{"lat":"37.28376295","long":"127.1531846","imageIndex":16,"items":[{"name":"이티씨영어학원","tel":"031-287-8748","addr":"경기도 용인시 기흥구 동백동 613-4번지 1층","indutype":"학원 - 보습학원","category":"study"}]},{"lat":"37.282689322","long":"127.16117729","imageIndex":16,"items":[{"name":"제디씨 앤드 룸바 칼리엔테 피트니스","tel":"","addr":"경기도 용인시 기흥구 동백동 599번지 백현마을모아미래도1단지아파트","indutype":"학원 - 예·체능계학원","category":"study"}]},{"lat":"37.282375567","long":"127.16662301","imageIndex":16,"items":[{"name":"제이슨영어교습소","tel":"031-286-0557","addr":"경기도 용인시 기흥구 동백동 584 백현마을9단지상가2층","indutype":"회원제형태 - 학원","category":"study"}]},{"lat":"37.283710247","long":"127.16578018","imageIndex":16,"items":[{"name":"조잉글리시","tel":"031-0000-0000","addr":"경기도 용인시 기흥구 동백동 583번지 백현마을휴먼시아","indutype":"학원 - 기타 교육기관","category":"study"}]},{"lat":"37.286044645","long":"127.15152019","imageIndex":16,"items":[{"name":"좋은 아이들","tel":"","addr":"경기도 용인시 기흥구 동백동 572번지 호수마을자연앤데시앙 1701동 503호","indutype":"학원 - 기타 교육기관","category":"study"}]},{"lat":"37.28087966","long":"127.15319015","imageIndex":16,"items":[{"name":"좋은친구들 유아체육&오르프","tel":"070-7531-0588","addr":"경기도 용인시 기흥구 동백동 625-5번지 B02호","indutype":"학원 - 기타 교육기관","category":"study"}]},{"lat":"37.281466463","long":"127.15926908","imageIndex":16,"items":[{"name":"코아루수학","tel":"","addr":"경기도 용인시 기흥구 동백동 661번지 백현마을코아루아파트","indutype":"학원 - 기타 교육기관","category":"study"}]},{"lat":"37.286547154","long":"127.15315631","imageIndex":16,"items":[{"name":"플립러닝수학교습소","tel":"031-286-6001","addr":"경기도 용인시 기흥구 동백동 574번지 호수마을월드메르디앙 상가동 105호","indutype":"학원 - 보습학원","category":"study"}]},{"lat":"37.281981205","long":"127.15839061","imageIndex":16,"items":[{"name":"하버스카이 영어","tel":"","addr":"경기도 용인시 기흥구 동백동 656번지 호수마을서해그랑블 1102동 101호","indutype":"학원 - 기타 교육기관","category":"study"}]},{"lat":"37.283294804","long":"127.15287921","imageIndex":16,"items":[{"name":"한국체대 캡틴 태권도","tel":"031-8005-7004","addr":"경기도 용인시 기흥구 동백동 615-8번지 1층","indutype":"학원 - 예·체능계학원","category":"study"},{"name":"한국체대 캡틴 태권도장","tel":"031-8005-7004","addr":"경기도 용인시 기흥구 동백동 615-8번지","indutype":"학원 - 예·체능계학원","category":"study"}]},{"lat":"37.284268935","long":"127.15206924","imageIndex":16,"items":[{"name":"해람학원","tel":"031-281-0807","addr":"경기도 용인시 기흥구 동백동 610-13번지 1층","indutype":"학원 - 보습학원","category":"study"}]},{"lat":"37.286185351","long":"127.15424943","imageIndex":16,"items":[{"name":"해법수학","tel":"031-000-0000","addr":"경기도 용인시 기흥구 동백동 575번지 호수마을휴먼시아 1502동 306호","indutype":"학원 - 기타 교육기관","category":"study"}]}]