[{"lat":"36.976964488","long":"126.92848827","imageIndex":17,"items":[{"name":"(재)종이문화재단경기평택종이문화교육원","tel":"","addr":"경기도 평택시 안중읍 송담리 851번지 힐스테이트송담 104동 204호","indutype":"문화.취미 - 문화취미기타","category":"other"},{"name":"고기쟁이","tel":"031-616-6288","addr":"경기도 평택시 안중읍 송담리 851번지 힐스테이트 상가 102호","indutype":"소매업 - 정육","category":"other"},{"name":"꽃집지니","tel":"","addr":"경기도 평택시 안중읍 송담리 851번지 힐스테이트송담 제근린생할시설동 1층 108호","indutype":"문화.취미 - 화원","category":"other"},{"name":"꽃집지니","tel":"031-682-5564","addr":"경기도 평택시 안중읍 송담리 851번지 힐스테이트 상가","indutype":"소매업 - 화훼","category":"other"},{"name":"우리홈테크","tel":"031-684-7750","addr":"경기도 평택시 안중읍 송담리 851번지 힐스테이트송담 109동 1701호","indutype":"전기제품 - 가전제품","category":"other"}]},{"lat":"36.981217725","long":"126.92876492","imageIndex":17,"items":[{"name":"GS25송담중앙점","tel":"","addr":"경기도 평택시 안중읍 송담리 831-9번지","indutype":"유통업 영리 - 편 의 점","category":"other"}]},{"lat":"36.977025176","long":"126.92477077","imageIndex":17,"items":[{"name":"S&K학원","tel":"","addr":"경기도 평택시 안중읍 송담리 855-6번지 4층 일부","indutype":"서비스업 - 교육","category":"other"}]},{"lat":"36.977629853","long":"126.92624142","imageIndex":17,"items":[{"name":"가로수","tel":"","addr":"경기도 평택시 안중읍 송담리 849-12번지","indutype":"의류 - 정장","category":"other"}]},{"lat":"36.979549814","long":"126.92729524","imageIndex":17,"items":[{"name":"가온광고","tel":"031-681-1201","addr":"경기도 평택시 안중읍 송담리 843-9번지 1층 102호","indutype":"건축자재 - 인테리어전문","category":"other"}]},{"lat":"36.977963503","long":"126.92663417","imageIndex":17,"items":[{"name":"다니옷장","tel":"031-647-6411","addr":"경기도 평택시 안중읍 송담리 847-5번지 102호","indutype":"의류 - 정장","category":"other"}]},{"lat":"36.980023149","long":"126.93521289","imageIndex":17,"items":[{"name":"도배나라샵","tel":"031-684-6166","addr":"경기도 평택시 안중읍 송담리 310번지 3층","indutype":"직물 - 카페트,커튼,천막,지물","category":"other"},{"name":"디자인창고","tel":"031-681-2369","addr":"경기도 평택시 안중읍 송담리 310번지 지하","indutype":"가구 - 일반가구","category":"other"}]},{"lat":"36.981379988","long":"126.92887708","imageIndex":17,"items":[{"name":"라온인테리어","tel":"031-682-2307","addr":"경기도 평택시 안중읍 송담리 831-7번지 1층 101호","indutype":"건축자재 - 인테리어전문","category":"other"}]},{"lat":"36.977187306","long":"126.9398201","imageIndex":17,"items":[{"name":"멍뭉이 쌀롱","tel":"031-663-6625","addr":"경기도 평택시 안중읍 송담리 105-4번지 101호","indutype":"문화.취미 - 애완동물","category":"other"}]},{"lat":"36.98119132","long":"126.92977579","imageIndex":17,"items":[{"name":"바이오포토","tel":"031-683-8250","addr":"경기도 평택시 안중읍 송담리 829-6번지 103호","indutype":"서비스업 - 사진관","category":"other"},{"name":"쇼룸","tel":"","addr":"경기도 평택시 안중읍 송담리 829-6번지 102호","indutype":"의류 - 정장","category":"other"},{"name":"쇼룸","tel":"031-682-9230","addr":"경기도 평택시 안중읍 송담리 829-6번지 102호","indutype":"소매업 - 의류","category":"other"},{"name":"오늘도 향기롭다","tel":"","addr":"경기도 평택시 안중읍 송담리 829-6번지 2층 2호","indutype":"문화.취미 - 문화취미기타","category":"other"}]},{"lat":"36.975495408","long":"126.92796186","imageIndex":17,"items":[{"name":"백마크리닝 안중1호점","tel":"031-000-0000","addr":"경기도 평택시 안중읍 송담리 852번지 지엔하임2차 상가동 1층 105호 (송담,0번지","indutype":"수리서비스 - 세탁소","category":"other"}]},{"lat":"36.978406764","long":"126.92938536","imageIndex":17,"items":[{"name":"빛나는작업실","tel":"02-4678-1675","addr":"경기도 평택시 안중읍 송담리 850번지 송담지엔하임1차 107동 13층 01호","indutype":"문화.취미 - 문화취미기타","category":"other"}]},{"lat":"36.978297552","long":"126.92765587","imageIndex":17,"items":[{"name":"서민반찬","tel":"","addr":"경기도 평택시 안중읍 송담리 848-2번지","indutype":"소매업 - 반찬","category":"other"}]},{"lat":"36.981047314","long":"126.93004548","imageIndex":17,"items":[{"name":"서연이네예쁜옷","tel":"070-8824-8183","addr":"경기도 평택시 안중읍 송담리 828-10번지 101호","indutype":"소매업 - 의류","category":"other"}]},{"lat":"36.981714162","long":"126.9301347","imageIndex":17,"items":[{"name":"세븐일레븐평택송담로점","tel":"031-1577-0711","addr":"경기도 평택시 안중읍 송담리 829-2번지 1층 101호","indutype":"유통업 영리 - 편 의 점","category":"other"}]},{"lat":"36.977882515","long":"126.92680272","imageIndex":17,"items":[{"name":"솔89'S","tel":"","addr":"경기도 평택시 안중읍 송담리 847-4번지 1층 102호","indutype":"가구 - 기타가구","category":"other"}]},{"lat":"36.979217071","long":"126.92832884","imageIndex":17,"items":[{"name":"송담모바일","tel":"031-686-6338","addr":"경기도 평택시 안중읍 송담리 841-2번지","indutype":"소매업 - 전자기기","category":"other"},{"name":"송담모바일","tel":"","addr":"경기도 평택시 안중읍 송담리 841-2번지 101호","indutype":"사무통신 - 통신기기","category":"other"}]},{"lat":"36.980442054","long":"126.92757514","imageIndex":17,"items":[{"name":"스튜디오봄날","tel":"031-681-5727","addr":"경기도 평택시 안중읍 송담리 833-4번지 SKY-IN빌딩 201호","indutype":"광학제품 - 사진관","category":"other"}]},{"lat":"36.980965948","long":"126.92960753","imageIndex":17,"items":[{"name":"시그너스","tel":"031-684-1330","addr":"경기도 평택시 안중읍 송담리 829-8번지","indutype":"의류 - 정장","category":"other"},{"name":"시그너스","tel":"031-682-8461","addr":"경기도 평택시 안중읍 송담리 829-8번지","indutype":"소매업 - 의류","category":"other"}]},{"lat":"36.979604461","long":"126.92821615","imageIndex":17,"items":[{"name":"오늘도, 마카롱","tel":"031-681-1972","addr":"경기도 평택시 안중읍 송담리 840-7번지","indutype":"소매업 - 디저트","category":"other"}]},{"lat":"36.979942257","long":"126.93557237","imageIndex":17,"items":[{"name":"이마트24 안중서해로점","tel":"","addr":"경기도 평택시 안중읍 송담리 355-4번지","indutype":"유통업 영리 - 편 의 점","category":"other"},{"name":"이마트24 안중서해로점","tel":"","addr":"경기도 평택시 안중읍 송담리 355-4번지","indutype":"유통업 영리 - 편 의 점","category":"other"}]},{"lat":"36.981019922","long":"126.92946147","imageIndex":17,"items":[{"name":"이솝플라워","tel":"","addr":"경기도 평택시 안중읍 송담리 829-11번지 씨엘 101호","indutype":"문화.취미 - 화원","category":"other"}]},{"lat":"36.982245553","long":"126.92974108","imageIndex":17,"items":[{"name":"재성전기조명","tel":"031-683-3092","addr":"경기도 평택시 안중읍 송담리 826-1번지 1층","indutype":"전기제품 - 기타전기제품","category":"other"}]},{"lat":"36.97690777","long":"126.93943848","imageIndex":17,"items":[{"name":"중앙종합상사","tel":"031-686-8889","addr":"경기도 평택시 안중읍 송담리 96-3번지 101호","indutype":"기타 - 기계공구","category":"other"}]},{"lat":"36.977522122","long":"126.92685923","imageIndex":17,"items":[{"name":"찐빵공방","tel":"031-686-7336","addr":"경기도 평택시 안중읍 송담리 849-6번지 1층 1호(태양은가득히)","indutype":"소매업 - 공예품","category":"other"}]},{"lat":"36.977989853","long":"126.92557842","imageIndex":17,"items":[{"name":"총각네텔레콤(안중점)","tel":"031-684-7664","addr":"경기도 평택시 안중읍 송담리 845-11번지 1층 102, 103호","indutype":"소매업 - 휴대폰","category":"other"},{"name":"총각텔레콤 (안중점)","tel":"031-691-2080","addr":"경기도 평택시 안중읍 송담리 845-11번지 1층 102,103호","indutype":"사무통신 - 통신기기","category":"other"}]},{"lat":"36.978189373","long":"126.92757736","imageIndex":17,"items":[{"name":"크린위드","tel":"031-681-8529","addr":"경기도 평택시 안중읍 송담리 848-3번지 103호","indutype":"수리서비스 - 세탁소","category":"other"}]},{"lat":"36.978495895","long":"126.92782414","imageIndex":17,"items":[{"name":"크린토피아코인워시 평택안중송담점","tel":"","addr":"경기도 평택시 안중읍 송담리 841-7번지","indutype":"서비스업 - 세탁","category":"other"},{"name":"크린토피아코인워시평택안중송담점","tel":"031-684-0407","addr":"경기도 평택시 안중읍 송담리 841-7번지 1층 103호","indutype":"수리서비스 - 세탁소","category":"other"}]},{"lat":"36.979937475","long":"126.92760933","imageIndex":17,"items":[{"name":"파리바게뜨 안중송담점","tel":"031-681-5436","addr":"경기도 평택시 안중읍 송담리 840-1번지","indutype":"제조업 - 제빵, 제과","category":"other"}]},{"lat":"36.975992007","long":"126.92957861","imageIndex":17,"items":[{"name":"프리미엄아울렛","tel":"031-111-1111","addr":"경기도 평택시 안중읍 송담리 641-10번지","indutype":"신변잡화 - 기타잡화","category":"other"}]},{"lat":"36.978406764","long":"126.92938536","imageIndex":7,"items":[{"name":"(주)자규김치","tel":"031-000-0000","addr":"경기도 평택시 안중읍 송담리 850번지 송담지엔하임1차 103동 1603호","indutype":"음료식품 - 기타음료식품","category":"food"},{"name":"야채과일세상","tel":"031-000-0000","addr":"경기도 평택시 안중읍 송담리 850번지 송담지엔하임1차 제상가동 120호","indutype":"음료식품 - 농·축·수산품","category":"food"}]},{"lat":"36.977441147","long":"126.92705024","imageIndex":7,"items":[{"name":"고기쟁이 정육점","tel":"031-686-6338","addr":"경기도 평택시 안중읍 송담리 849-7번지 101호","indutype":"음료식품 - 정육점","category":"food"}]},{"lat":"36.980298428","long":"126.9284401","imageIndex":7,"items":[{"name":"구르메","tel":"","addr":"경기도 평택시 안중읍 송담리 835-6번지 101호","indutype":"음료식품 - 제과점","category":"food"}]},{"lat":"36.981489059","long":"126.93040447","imageIndex":7,"items":[{"name":"농업회사법인(주)경기로컬푸드(지점)","tel":"031-658-2011","addr":"경기도 평택시 안중읍 송담리 828-1번지","indutype":"음료식품 - 농·축·수산품","category":"food"}]},{"lat":"36.979297535","long":"126.92732918","imageIndex":7,"items":[{"name":"달콤케이크플라워","tel":"031-111-1111","addr":"경기도 평택시 안중읍 송담리 843-4번지 101호","indutype":"음료식품 - 제과점","category":"food"}]},{"lat":"36.976385812","long":"126.92537789","imageIndex":7,"items":[{"name":"뚜레쥬르 안중하나로마트점","tel":"031-682-4405","addr":"경기도 평택시 안중읍 송담리 857-1번지 1층 안중농협종합시설","indutype":"음료식품 - 제과점","category":"food"}]},{"lat":"36.979469456","long":"126.92846337","imageIndex":7,"items":[{"name":"뚜레쥬르안중송담점","tel":"031-682-4404","addr":"경기도 평택시 안중읍 송담리 840-6번지","indutype":"음료식품 - 제과점","category":"food"}]},{"lat":"36.977989853","long":"126.92557842","imageIndex":7,"items":[{"name":"맘가득찬","tel":"031-683-3138","addr":"경기도 평택시 안중읍 송담리 845-11번지 103호","indutype":"음료식품 - 기타음료식품","category":"food"}]},{"lat":"36.980190559","long":"126.92885577","imageIndex":7,"items":[{"name":"아이지바이오","tel":"031-681-1972","addr":"경기도 평택시 안중읍 송담리 836-8번지 1층 101호","indutype":"건강식품 - 기타건강식품","category":"food"},{"name":"자작나무(아이지 바이오)","tel":"031-684-7778","addr":"경기도 평택시 안중읍 송담리 836-8번지 101호","indutype":"소매업 - 건강기능식품","category":"food"}]},{"lat":"36.979937475","long":"126.92760933","imageIndex":7,"items":[{"name":"안중송담 파리바게뜨","tel":"031-681-5549","addr":"경기도 평택시 안중읍 송담리 840-1번지 102호","indutype":"음료식품 - 제과점","category":"food"}]},{"lat":"36.979604461","long":"126.92821615","imageIndex":7,"items":[{"name":"오늘도,마카롱","tel":"","addr":"경기도 평택시 안중읍 송담리 840-7번지 B동 102호","indutype":"음료식품 - 제과점","category":"food"}]},{"lat":"36.980661833","long":"126.9333479","imageIndex":7,"items":[{"name":"육달","tel":"031-656-4749","addr":"경기도 평택시 안중읍 송담리 276번지 1동 106호","indutype":"음료식품 - 정육점","category":"food"}]},{"lat":"36.976964488","long":"126.92848827","imageIndex":13,"items":[{"name":"369콜대리운전","tel":"031-681-6966","addr":"경기도 평택시 안중읍 송담리 851번지 힐스테이트송담 104동 502호","indutype":"보건위생 - 기타대인서비스","category":"beauty"},{"name":"송담네일아트","tel":"031-684-8696","addr":"경기도 평택시 안중읍 송담리 851번지 힐스테이트 상가동 202호","indutype":"보건위생 - 피부미용실","category":"beauty"},{"name":"어반헤어살롱","tel":"031-681-4125","addr":"경기도 평택시 안중읍 송담리 851번지 힐스테이트송담 상가동 1층 107호","indutype":"보건위생 - 미용원","category":"beauty"}]},{"lat":"36.979441778","long":"126.92744135","imageIndex":13,"items":[{"name":"거꾸로가는시간","tel":"","addr":"경기도 평택시 안중읍 송담리 843-3번지 1층","indutype":"보건위생 - 피부미용실","category":"beauty"}]},{"lat":"36.980190559","long":"126.92885577","imageIndex":13,"items":[{"name":"내일또,네일","tel":"","addr":"경기도 평택시 안중읍 송담리 836-8번지 1층 102호 (수피아)","indutype":"보건위생 - 피부미용실","category":"beauty"}]},{"lat":"36.979469456","long":"126.92846337","imageIndex":13,"items":[{"name":"네일, 그리다","tel":"031-684-0597","addr":"경기도 평택시 안중읍 송담리 840-6번지 1층 104호","indutype":"보건위생 - 피부미용실","category":"beauty"}]},{"lat":"36.975495408","long":"126.92796186","imageIndex":13,"items":[{"name":"데일리헤어(Daily hair)","tel":"","addr":"경기도 평택시 안중읍 송담리 852번지 송담지엔하임2차 202동 1502호","indutype":"보건위생 - 미용재료","category":"beauty"}]},{"lat":"36.980442054","long":"126.92757514","imageIndex":13,"items":[{"name":"마담공작소","tel":"031-684-0744","addr":"경기도 평택시 안중읍 송담리 833-4번지 SKY-IN빌딩 3층 302호","indutype":"보건위생 - 화장품","category":"beauty"},{"name":"쉼 바디&풋","tel":"031-683-8885","addr":"경기도 평택시 안중읍 송담리 833-4번지 SKY-IN빌딩 3층 1호","indutype":"보건위생 - 피부미용실","category":"beauty"}]},{"lat":"36.977991052","long":"126.92744278","imageIndex":13,"items":[{"name":"맨 스타일","tel":"031-686-5578","addr":"경기도 평택시 안중읍 송담리 848-5번지 1층","indutype":"서비스업 - 이미용","category":"beauty"},{"name":"맨 스타일","tel":"031-000-0000","addr":"경기도 평택시 안중읍 송담리 848-5번지","indutype":"보건위생 - 미용원","category":"beauty"}]},{"lat":"36.977025176","long":"126.92477077","imageIndex":13,"items":[{"name":"미에뉴헤어","tel":"031-681-2040","addr":"경기도 평택시 안중읍 송담리 855-6번지 202호","indutype":"보건위생 - 미용원","category":"beauty"}]},{"lat":"36.977441147","long":"126.92705024","imageIndex":13,"items":[{"name":"박샘헤어","tel":"031-686-7707","addr":"경기도 평택시 안중읍 송담리 849-7번지 1층","indutype":"보건위생 - 미용원","category":"beauty"}]},{"lat":"36.978406764","long":"126.92938536","imageIndex":13,"items":[{"name":"블루네일","tel":"","addr":"경기도 평택시 안중읍 송담리 850번지 송담지엔하임1차 상가동 1층 107호","indutype":"보건위생 - 피부미용실","category":"beauty"},{"name":"서앤영뷰티","tel":"070-4922-1261","addr":"경기도 평택시 안중읍 송담리 850번지 송담지엔하임1차","indutype":"보건위생 - 피부미용실","category":"beauty"},{"name":"피터헤어","tel":"031-683-5610","addr":"경기도 평택시 안중읍 송담리 850번지 송담지엔하임1차 206호","indutype":"보건위생 - 미용원","category":"beauty"}]},{"lat":"36.977882515","long":"126.92680272","imageIndex":13,"items":[{"name":"빛날네일","tel":"031-000-0000","addr":"경기도 평택시 안중읍 송담리 847-4번지 101호","indutype":"보건위생 - 피부미용실","category":"beauty"}]},{"lat":"36.978495895","long":"126.92782414","imageIndex":13,"items":[{"name":"아쉬레헤어라운지","tel":"031-684-2205","addr":"경기도 평택시 안중읍 송담리 841-7번지 104호","indutype":"보건위생 - 미용원","category":"beauty"}]},{"lat":"36.979324796","long":"126.92768855","imageIndex":13,"items":[{"name":"오로라네일","tel":"031-684-5510","addr":"경기도 평택시 안중읍 송담리 842-12번지 101호","indutype":"보건위생 - 피부미용실","category":"beauty"}]},{"lat":"36.980379868","long":"126.92899036","imageIndex":13,"items":[{"name":"오즈의마법사","tel":"031-681-3684","addr":"경기도 평택시 안중읍 송담리 836-9번지 1층 101호","indutype":"보건위생 - 화장품","category":"beauty"}]},{"lat":"36.98119132","long":"126.92977579","imageIndex":13,"items":[{"name":"케어셀라","tel":"031-682-3939","addr":"경기도 평택시 안중읍 송담리 829-6번지","indutype":"보건위생 - 이용원","category":"beauty"}]},{"lat":"36.977719873","long":"126.92610655","imageIndex":13,"items":[{"name":"케이리움헤어살롱","tel":"","addr":"경기도 평택시 안중읍 송담리 849-13번지","indutype":"보건위생 - 미용원","category":"beauty"},{"name":"케이리움헤어살롱","tel":"031-684-8866","addr":"경기도 평택시 안중읍 송담리 849-13번지","indutype":"서비스업 - 이미용","category":"beauty"}]},{"lat":"36.979217071","long":"126.92832884","imageIndex":13,"items":[{"name":"헤어엘","tel":"","addr":"경기도 평택시 안중읍 송담리 841-2번지","indutype":"서비스업 - 미용","category":"beauty"},{"name":"혜어엘안중점","tel":"031-223-5214","addr":"경기도 평택시 안중읍 송담리 841-2번지","indutype":"보건위생 - 미용원","category":"beauty"}]},{"lat":"36.977025176","long":"126.92477077","imageIndex":4,"items":[{"name":"G&cafe","tel":"031-686-6644","addr":"경기도 평택시 안중읍 송담리 855-6번지 1층 일부","indutype":"음식점 - 카페","category":"restaurant"},{"name":"메콩타이","tel":"031-684-0825","addr":"경기도 평택시 안중읍 송담리 855-6번지 테헤란빌딩 3층","indutype":"일반휴게음식 - 서양음식","category":"restaurant"},{"name":"엠비어","tel":"031-686-5214","addr":"경기도 평택시 안중읍 송담리 855-6번지 201호","indutype":"일반휴게음식 - 주점","category":"restaurant"},{"name":"지앤씨 (G&C)","tel":"031-683-7989","addr":"경기도 평택시 안중읍 송담리 855-6번지 1층","indutype":"일반휴게음식 - 서양음식","category":"restaurant"}]},{"lat":"36.977939054","long":"126.93076723","imageIndex":4,"items":[{"name":"WID363캔들공방카페/(주)에누","tel":"","addr":"경기도 평택시 안중읍 송담리 645-9번지 1층","indutype":"일반휴게음식 - 서양음식","category":"restaurant"}]},{"lat":"36.979135464","long":"126.92752027","imageIndex":4,"items":[{"name":"교집합","tel":"031-681-5497","addr":"경기도 평택시 안중읍 송담리 842-10번지","indutype":"일반휴게음식 - 일반한식","category":"restaurant"}]},{"lat":"36.98119132","long":"126.92977579","imageIndex":4,"items":[{"name":"까로치아","tel":"031-682-2132","addr":"경기도 평택시 안중읍 송담리 829-6번지","indutype":"일반휴게음식 - 서양음식","category":"restaurant"},{"name":"까로치아 (CAROCIA)","tel":"031-682-2123","addr":"경기도 평택시 안중읍 송담리 829-6번지 1층","indutype":"일반휴게음식 - 서양음식","category":"restaurant"},{"name":"까로치아 안중점","tel":"031-665-2760","addr":"경기도 평택시 안중읍 송담리 829-6번지","indutype":"음식점 - 카페","category":"restaurant"}]},{"lat":"36.977989853","long":"126.92557842","imageIndex":4,"items":[{"name":"꼬지사케안중점","tel":"031-681-6181","addr":"경기도 평택시 안중읍 송담리 845-11번지 101호","indutype":"일반휴게음식 - 일반한식","category":"restaurant"},{"name":"신포돈까스","tel":"031-681-7551","addr":"경기도 평택시 안중읍 송담리 845-11번지","indutype":"음식점 - 양식","category":"restaurant"},{"name":"신포돈까스","tel":"031-582-9622","addr":"경기도 평택시 안중읍 송담리 845-11번지","indutype":"일반휴게음식 - 서양음식","category":"restaurant"},{"name":"통닭싸롱옛날통닭","tel":"031-683-7495","addr":"경기도 평택시 안중읍 송담리 845-11번지 1층","indutype":"일반휴게음식 - 스넥","category":"restaurant"}]},{"lat":"36.977740715","long":"126.93059895","imageIndex":4,"items":[{"name":"동네술집","tel":"031-111-1111","addr":"경기도 평택시 안중읍 송담리 645번지 1층","indutype":"일반휴게음식 - 주점","category":"restaurant"}]},{"lat":"36.976469714","long":"126.92980276","imageIndex":4,"items":[{"name":"둘마니치킨","tel":"031-684-2291","addr":"경기도 평택시 안중읍 송담리 641-2번지 101호","indutype":"일반휴게음식 - 스넥","category":"restaurant"}]},{"lat":"36.979270058","long":"126.92663287","imageIndex":4,"items":[{"name":"땅땅치킨(송담점)","tel":"","addr":"경기도 평택시 안중읍 송담리 844-8번지 1동 102호","indutype":"음식점 - 치킨","category":"restaurant"},{"name":"땅땅치킨(송담점)","tel":"031-1111-1111","addr":"경기도 평택시 안중읍 송담리 844-8번지 1동 102호","indutype":"일반휴게음식 - 스넥","category":"restaurant"},{"name":"송담대구왕뿔찜","tel":"031-651-2448","addr":"경기도 평택시 안중읍 송담리 844-8번지 1층","indutype":"일반휴게음식 - 일반한식","category":"restaurant"},{"name":"스시노백쉐프","tel":"031-681-5805","addr":"경기도 평택시 안중읍 송담리 844-8번지 1층","indutype":"일반휴게음식 - 일반한식","category":"restaurant"}]},{"lat":"36.978603351","long":"126.92676831","imageIndex":4,"items":[{"name":"라로즈","tel":"031-683-2627","addr":"경기도 평택시 안중읍 송담리 846-3번지 1층 101호","indutype":"일반휴게음식 - 서양음식","category":"restaurant"}]},{"lat":"36.980659819","long":"126.92998969","imageIndex":4,"items":[{"name":"라운드 우드커피","tel":"","addr":"경기도 평택시 안중읍 송담리 828-7번지 1층 102호","indutype":"일반휴게음식 - 서양음식","category":"restaurant"}]},{"lat":"36.976325812","long":"126.9302409","imageIndex":4,"items":[{"name":"마포최대포","tel":"031-681-9245","addr":"경기도 평택시 안중읍 송담리 640-1번지","indutype":"음식점 - 한식","category":"restaurant"}]},{"lat":"36.980661833","long":"126.9333479","imageIndex":4,"items":[{"name":"미소를굽는사람들","tel":"031-656-4749","addr":"경기도 평택시 안중읍 송담리 276번지 1층 105호","indutype":"일반휴게음식 - 일반한식","category":"restaurant"}]},{"lat":"36.978406764","long":"126.92938536","imageIndex":4,"items":[{"name":"미쓰리족발","tel":"031-684-8997","addr":"경기도 평택시 안중읍 송담리 850번지 송담지엔하임1차 상가동 109호","indutype":"일반휴게음식 - 일반한식","category":"restaurant"},{"name":"속초장터본닭강정","tel":"031-681-9772","addr":"경기도 평택시 안중읍 송담리 850번지 송담지엔하임1차 상가동 1층 114호","indutype":"음식점 - 치킨","category":"restaurant"},{"name":"속초장터본닭강정","tel":"031-682-9230","addr":"경기도 평택시 안중읍 송담리 850번지 송담지엔하임1차 상가동 1층 114호","indutype":"일반휴게음식 - 스넥","category":"restaurant"},{"name":"죠스 떡볶이","tel":"031-681-1063","addr":"경기도 평택시 안중읍 송담리 850번지 지엔하임 상가동 106호","indutype":"음식점 - 분식","category":"restaurant"},{"name":"죠스떡볶이평택안중점","tel":"031-1111-1111","addr":"경기도 평택시 안중읍 송담리 850번지 송담지엔하임1차 상가동 106호","indutype":"일반휴게음식 - 스넥","category":"restaurant"}]},{"lat":"36.977629853","long":"126.92624142","imageIndex":4,"items":[{"name":"빌리엔젤 평택안중점","tel":"031-682-3864","addr":"경기도 평택시 안중읍 송담리 849-12번지 1층","indutype":"음식점 - 카페","category":"restaurant"},{"name":"빌리엔젤 평택안중점","tel":"031-681-3888","addr":"경기도 평택시 안중읍 송담리 849-12번지 1층","indutype":"일반휴게음식 - 서양음식","category":"restaurant"}]},{"lat":"36.980073019","long":"126.92821569","imageIndex":4,"items":[{"name":"빠네뚜(안중점)","tel":"031-668-0668","addr":"경기도 평택시 안중읍 송담리 837-3번지","indutype":"일반휴게음식 - 서양음식","category":"restaurant"}]},{"lat":"36.980546863","long":"126.93715547","imageIndex":4,"items":[{"name":"선미네간장게장","tel":"031-681-6388","addr":"경기도 평택시 안중읍 송담리 171-2번지","indutype":"음식점 - 한식","category":"restaurant"},{"name":"선미네간장게장","tel":"031-681-9490","addr":"경기도 평택시 안중읍 송담리 171-2번지 세현빌","indutype":"일반휴게음식 - 일반한식","category":"restaurant"}]},{"lat":"36.976575344","long":"126.92584939","imageIndex":4,"items":[{"name":"송담왕십리해장국","tel":"02-682-5835","addr":"경기도 평택시 안중읍 송담리 854-12번지","indutype":"일반휴게음식 - 일반한식","category":"restaurant"}]},{"lat":"36.975495408","long":"126.92796186","imageIndex":4,"items":[{"name":"송담포차","tel":"","addr":"경기도 평택시 안중읍 송담리 852번지 송담지엔하임2차 상가동 104호","indutype":"일반휴게음식 - 주점","category":"restaurant"}]},{"lat":"36.981520021","long":"126.93715464","imageIndex":4,"items":[{"name":"송담한끼","tel":"031-681-8554","addr":"경기도 평택시 안중읍 송담리 186번지","indutype":"일반휴게음식 - 일반한식","category":"restaurant"},{"name":"훌랄라참숯바베큐송담점","tel":"031-681-9986","addr":"경기도 평택시 안중읍 송담리 186번지","indutype":"일반휴게음식 - 스넥","category":"restaurant"}]},{"lat":"36.979549814","long":"126.92729524","imageIndex":4,"items":[{"name":"시계탑","tel":"031-212-4482","addr":"경기도 평택시 안중읍 송담리 843-9번지 1층","indutype":"일반휴게음식 - 서양음식","category":"restaurant"}]},{"lat":"36.9783268","long":"126.93123857","imageIndex":4,"items":[{"name":"어느배관사의꿈","tel":"070-4649-1101","addr":"경기도 평택시 안중읍 송담리 646번지 105호","indutype":"일반휴게음식 - 일반한식","category":"restaurant"},{"name":"어느배관사의밥스토리 송담점","tel":"031-681-7876","addr":"경기도 평택시 안중읍 송담리 646번지 카리스빌딩 103호","indutype":"일반휴게음식 - 일반한식","category":"restaurant"}]},{"lat":"36.976964488","long":"126.92848827","imageIndex":4,"items":[{"name":"엘리팝 평택안중점","tel":"031-684-0310","addr":"경기도 평택시 안중읍 송담리 851번지 힐스테이트 상가동 205,206호","indutype":"일반휴게음식 - 주점","category":"restaurant"},{"name":"태화분식","tel":"031-684-0407","addr":"경기도 평택시 안중읍 송담리 851번지 힐스테이트 상가 109호","indutype":"음식점 - 분식","category":"restaurant"},{"name":"태화분식","tel":"031-681-4473","addr":"경기도 평택시 안중읍 송담리 851번지 힐스테이트송담 109호","indutype":"일반휴게음식 - 스넥","category":"restaurant"}]},{"lat":"36.978711537","long":"126.92685805","imageIndex":4,"items":[{"name":"엣지846","tel":"031-684-1108","addr":"경기도 평택시 안중읍 송담리 846-2번지 1층","indutype":"음식점 - 휴게음식","category":"restaurant"},{"name":"엣지846","tel":"","addr":"경기도 평택시 안중읍 송담리 846-2번지 1층","indutype":"일반휴게음식 - 서양음식","category":"restaurant"}]},{"lat":"36.981938463","long":"126.92857328","imageIndex":4,"items":[{"name":"오고싶은 집","tel":"031-684-5090","addr":"경기도 평택시 안중읍 송담리 832-6번지 103호","indutype":"일반휴게음식 - 일반한식","category":"restaurant"}]},{"lat":"36.978576884","long":"126.9276556","imageIndex":4,"items":[{"name":"오렌티오커피숍","tel":"031-681-1089","addr":"경기도 평택시 안중읍 송담리 841-8번지 1층","indutype":"일반휴게음식 - 서양음식","category":"restaurant"}]},{"lat":"36.977963503","long":"126.92663417","imageIndex":4,"items":[{"name":"위치커피송담점","tel":"","addr":"경기도 평택시 안중읍 송담리 847-5번지 101호","indutype":"일반휴게음식 - 서양음식","category":"restaurant"}]},{"lat":"36.980934293","long":"126.93709898","imageIndex":4,"items":[{"name":"유쉐프","tel":"031-681-8892","addr":"경기도 평택시 안중읍 송담리 170-2번지 신창아파트 상가 102호","indutype":"음식점 - 일반","category":"restaurant"}]},{"lat":"36.978189373","long":"126.92757736","imageIndex":4,"items":[{"name":"이디야안중점","tel":"031-482-5599","addr":"경기도 평택시 안중읍 송담리 848-3번지","indutype":"일반휴게음식 - 서양음식","category":"restaurant"}]},{"lat":"36.98157788","long":"126.92832654","imageIndex":4,"items":[{"name":"자매한식뷔페","tel":"031-683-3799","addr":"경기도 평택시 안중읍 송담리 832-9번지","indutype":"일반휴게음식 - 일반한식","category":"restaurant"}]},{"lat":"36.982133164","long":"126.93790663","imageIndex":4,"items":[{"name":"처가집","tel":"031-681-9967","addr":"경기도 평택시 안중읍 송담리 206번지","indutype":"일반휴게음식 - 일반한식","category":"restaurant"}]},{"lat":"36.980442054","long":"126.92757514","imageIndex":4,"items":[{"name":"청년다방 안중점","tel":"031-683-9998","addr":"경기도 평택시 안중읍 송담리 833-4번지 101,102호","indutype":"일반휴게음식 - 일반한식","category":"restaurant"},{"name":"파스쿠찌평택안중점","tel":"031-684-0133","addr":"경기도 평택시 안중읍 송담리 833-4번지 1층","indutype":"일반휴게음식 - 서양음식","category":"restaurant"}]},{"lat":"36.981881285","long":"126.93868183","imageIndex":4,"items":[{"name":"청학동냉면","tel":"031-681-9889","addr":"경기도 평택시 안중읍 송담리 204-2번지","indutype":"일반휴게음식 - 일반한식","category":"restaurant"}]},{"lat":"36.977441147","long":"126.92705024","imageIndex":4,"items":[{"name":"카페 송담리","tel":"031-684-3772","addr":"경기도 평택시 안중읍 송담리 849-7번지","indutype":"음식점 - 커피","category":"restaurant"},{"name":"카페송담리","tel":"","addr":"경기도 평택시 안중읍 송담리 849-7번지","indutype":"일반휴게음식 - 서양음식","category":"restaurant"}]},{"lat":"36.978774504","long":"126.92668952","imageIndex":4,"items":[{"name":"카페 헤이미쉬","tel":"","addr":"경기도 평택시 안중읍 송담리 846-1번지","indutype":"음식점 - 카페","category":"restaurant"},{"name":"카페헤이미쉬","tel":"","addr":"경기도 평택시 안중읍 송담리 846-1번지","indutype":"일반휴게음식 - 서양음식","category":"restaurant"}]},{"lat":"36.978351495","long":"126.92746489","imageIndex":4,"items":[{"name":"카페노을","tel":"031-111-1111","addr":"경기도 평택시 안중읍 송담리 848-1번지","indutype":"일반휴게음식 - 서양음식","category":"restaurant"},{"name":"카페노을","tel":"031-682-7767","addr":"경기도 평택시 안중읍 송담리 848-1번지","indutype":"음식점 - 카페","category":"restaurant"}]},{"lat":"36.980271042","long":"126.92787856","imageIndex":4,"items":[{"name":"카페애요 뮤직라움","tel":"","addr":"경기도 평택시 안중읍 송담리 837-1번지 101호","indutype":"일반휴게음식 - 서양음식","category":"restaurant"}]},{"lat":"36.981939533","long":"126.93030296","imageIndex":4,"items":[{"name":"카페티버즈","tel":"","addr":"경기도 평택시 안중읍 송담리 826-4번지 104호","indutype":"일반휴게음식 - 서양음식","category":"restaurant"}]},{"lat":"36.980023149","long":"126.93521289","imageIndex":4,"items":[{"name":"커피창고","tel":"031-681-2369","addr":"경기도 평택시 안중읍 송담리 310번지 103호","indutype":"일반휴게음식 - 서양음식","category":"restaurant"}]},{"lat":"36.97716144","long":"126.92646651","imageIndex":4,"items":[{"name":"케이키","tel":"","addr":"경기도 평택시 안중읍 송담리 853-6번지 2층","indutype":"일반휴게음식 - 서양음식","category":"restaurant"}]},{"lat":"36.978495895","long":"126.92782414","imageIndex":4,"items":[{"name":"패밀리꼬마김밥송담점","tel":"031-682-2227","addr":"경기도 평택시 안중읍 송담리 841-7번지 102호","indutype":"일반휴게음식 - 스넥","category":"restaurant"}]},{"lat":"36.982520502","long":"126.93768167","imageIndex":4,"items":[{"name":"푸릴리","tel":"","addr":"경기도 평택시 안중읍 송담리 216번지 1층","indutype":"음식점 - 한식","category":"restaurant"},{"name":"푸릴리","tel":"031-681-6817","addr":"경기도 평택시 안중읍 송담리 216번지 1층","indutype":"일반휴게음식 - 일반한식","category":"restaurant"}]},{"lat":"36.977163933","long":"126.93044227","imageIndex":4,"items":[{"name":"한식대가 서서갈비","tel":"031-684-9582","addr":"경기도 평택시 안중읍 송담리 642번지","indutype":"음식점 - 한식","category":"restaurant"},{"name":"한식명가 서서갈비","tel":"031-684-5055","addr":"경기도 평택시 안중읍 송담리 642번지","indutype":"일반휴게음식 - 일반한식","category":"restaurant"}]},{"lat":"36.976631991","long":"126.92993738","imageIndex":4,"items":[{"name":"현카페","tel":"","addr":"경기도 평택시 안중읍 송담리 641-16번지 102호","indutype":"일반휴게음식 - 서양음식","category":"restaurant"}]},{"lat":"36.977025176","long":"126.92477077","imageIndex":16,"items":[{"name":"S&K학원","tel":"031-683-7989","addr":"경기도 평택시 안중읍 송담리 855-6번지 테헤란빌딩 4층 401호 402호","indutype":"학원 - 보습학원","category":"study"}]},{"lat":"36.978406764","long":"126.92938536","imageIndex":16,"items":[{"name":"라라 Dance","tel":"","addr":"경기도 평택시 안중읍 송담리 850번지 송담지엔하임1차 상가동 2층 213,214호","indutype":"학원 - 예·체능계학원","category":"study"},{"name":"송담이화미술개인과외교습","tel":"","addr":"경기도 평택시 안중읍 송담리 850번지 지엔하임 103동 203호","indutype":"학원 - 기타 교육기관","category":"study"},{"name":"위플수학","tel":"","addr":"경기도 평택시 안중읍 송담리 850번지 지엔하임 103동 104호","indutype":"학원 - 기타 교육기관","category":"study"},{"name":"지엔키즈어린이집[아이행복]","tel":"031-686-7946","addr":"경기도 평택시 안중읍 송담리 850번지 지엔하임1차 1층 관리동","indutype":"학원 - 유아원","category":"study"},{"name":"지엔하임공부방","tel":"031-682-0509","addr":"경기도 평택시 안중읍 송담리 850번지 지엔하임 107동 104호","indutype":"학원 - 기타 교육기관","category":"study"},{"name":"펀앤뮤직음악교습소","tel":"","addr":"경기도 평택시 안중읍 송담리 850번지 송담지엔하임1차 상가동 207호 전부","indutype":"학원 - 예·체능계학원","category":"study"},{"name":"해맑음학원","tel":"","addr":"경기도 평택시 안중읍 송담리 850번지 송담지엔하임1차 상가동 210호","indutype":"학원 - 보습학원","category":"study"},{"name":"황룡태권도","tel":"031-682-8338","addr":"경기도 평택시 안중읍 송담리 850번지 송담지엔하임1차 상가동 2층 212호","indutype":"학원 - 예·체능계학원","category":"study"}]},{"lat":"36.978519956","long":"126.93807817","imageIndex":16,"items":[{"name":"맑은샘어린이집[아이행복]","tel":"031-684-7440","addr":"경기도 평택시 안중읍 송담리 152-9번지","indutype":"학원 - 유아원","category":"study"}]},{"lat":"36.976964488","long":"126.92848827","imageIndex":16,"items":[{"name":"뮤엠영어송담1NEST","tel":"","addr":"경기도 평택시 안중읍 송담리 851번지 힐스테이트송담 105동 702호","indutype":"학원 - 기타 교육기관","category":"study"},{"name":"비상 잉글리시아이","tel":"","addr":"경기도 평택시 안중읍 송담리 851번지 힐스테이트송담 104동 303호","indutype":"학원 - 기타 교육기관","category":"study"},{"name":"송담 한국태권도","tel":"031-686-7732","addr":"경기도 평택시 안중읍 송담리 851번지 힐스테이트 송담 201호","indutype":"학원 - 예·체능계학원","category":"study"},{"name":"퍼펙트잉글리쉬송담영어교습소","tel":"031-684-3179","addr":"경기도 평택시 안중읍 송담리 851번지 힐스테이트송담 203호 상가","indutype":"학원 - 외국어학원","category":"study"},{"name":"힐스공부방","tel":"031-681-5507","addr":"경기도 평택시 안중읍 송담리 851번지 힐스테이트송담 102동 102호","indutype":"학원 - 보습학원","category":"study"},{"name":"힐스아이어린이집[아이행복]","tel":"031-681-8811","addr":"경기도 평택시 안중읍 송담리 851번지 힐스테이트송담 104동 1층","indutype":"학원 - 유아원","category":"study"}]},{"lat":"36.976575344","long":"126.92584939","imageIndex":13,"items":[{"name":"가이드짐","tel":"031-681-1987","addr":"경기도 평택시 안중읍 송담리 854-12번지 301호","indutype":"레저업소 - 헬스클럽","category":"leisure"}]},{"lat":"36.978406764","long":"126.92938536","imageIndex":13,"items":[{"name":"아키스튜디오 (AKI STUDIO)","tel":"","addr":"경기도 평택시 안중읍 송담리 850번지 송담지엔하임1차 상가 211호","indutype":"레저업소 - 헬스클럽","category":"leisure"}]},{"lat":"36.9783268","long":"126.93123857","imageIndex":13,"items":[{"name":"팡팡키즈카페","tel":"031-684-7876","addr":"경기도 평택시 안중읍 송담리 646번지 카리스빌딩 2,3층","indutype":"레저업소 - 기타레져업소","category":"leisure"},{"name":"프리미엄키즈카페 프린스앤프린세스/(주)비","tel":"031-684-7876","addr":"경기도 평택시 안중읍 송담리 646번지 카리스빌딩 103호","indutype":"레저업소 - 기타레져업소","category":"leisure"}]},{"lat":"36.980271042","long":"126.92787856","imageIndex":0,"items":[{"name":"명자동차용품","tel":"031-681-3030","addr":"경기도 평택시 안중읍 송담리 837-1번지 104호","indutype":"자동차정비 유지 - 자동차부품","category":"car"}]},{"lat":"36.980211865","long":"126.93432545","imageIndex":0,"items":[{"name":"안중 스팀보이 세차장","tel":"031-683-0055","addr":"경기도 평택시 안중읍 송담리 300-2번지","indutype":"자동차정비 유지 - 세차장","category":"car"}]},{"lat":"36.97716144","long":"126.92646651","imageIndex":8,"items":[{"name":"송담M플란트 치과의원","tel":"031-8029-9793","addr":"경기도 평택시 안중읍 송담리 853-6번지 이수빌딩 203호","indutype":"의원 - 치과의원","category":"medical"},{"name":"송담성모내과의원","tel":"031-000-0000","addr":"경기도 평택시 안중읍 송담리 853-6번지 이수빌딩 3층,4층","indutype":"의원 - 의원","category":"medical"},{"name":"송담성모내과의원","tel":"031-681-8000","addr":"경기도 평택시 안중읍 송담리 853-6번지 이수빌딩 3층,4층","indutype":"의원 - 의원","category":"medical"},{"name":"송담성모내과의원","tel":"031-681-8000","addr":"경기도 평택시 안중읍 송담리 853-6번지 3층,4층","indutype":"의원 - 의원","category":"medical"},{"name":"송담온누리약국","tel":"031-686-7750","addr":"경기도 평택시 안중읍 송담리 853-6번지 이수빌딩 201호","indutype":"약국 - 약국","category":"medical"}]},{"lat":"36.978406764","long":"126.92938536","imageIndex":7,"items":[{"name":"송담할인마트","tel":"031-681-4840","addr":"경기도 평택시 안중읍 송담리 850번지 송담지엔하임1차 단지내상가 103","indutype":"소매업 - 슈퍼","category":"mart"},{"name":"송담할인마트","tel":"031-682-1994","addr":"경기도 평택시 안중읍 송담리 850번지 송담지엔하임A단지 상가 1층","indutype":"유통업 영리 - 슈퍼마켓","category":"mart"}]},{"lat":"36.980934293","long":"126.93709898","imageIndex":7,"items":[{"name":"신창공판장","tel":"031-681-5968","addr":"경기도 평택시 안중읍 송담리 170-2번지 신창아파트 상가 103호","indutype":"소매업 - 슈퍼","category":"mart"},{"name":"신창공판장","tel":"031-683-7747","addr":"경기도 평택시 안중읍 송담리 170-2번지 신창아파트 상가 1층 103호","indutype":"유통업 영리 - 슈퍼마켓","category":"mart"}]},{"lat":"36.980546863","long":"126.93715547","imageIndex":7,"items":[{"name":"아름다운마트","tel":"031-681-4922","addr":"경기도 평택시 안중읍 송담리 171-2번지 세현빌","indutype":"유통업 영리 - 슈퍼마켓","category":"mart"}]},{"lat":"36.976385812","long":"126.92537789","imageIndex":7,"items":[{"name":"하나로마트(안중농협 송담지점)","tel":"031-682-8765","addr":"경기도 평택시 안중읍 송담리 857-1번지","indutype":"소매업 - 슈퍼","category":"mart"}]}]