[{"lat":"37.39139135","long":"127.2851707","imageIndex":0,"items":[{"name":"(주)1급성운자동차정비사업소","tel":"031-767-0777","addr":"경기도 광주시 초월읍 대쌍령리 341-7번지","indutype":"자동차정비 유지 - 자동차정비","category":"car"},{"name":"1급성운자동차","tel":"031-767-0777","addr":"경기도 광주시 초월읍 대쌍령리 341-7번지","indutype":"자동차정비 유지 - 자동차정비","category":"car"}]},{"lat":"37.38973151","long":"127.2860001","imageIndex":0,"items":[{"name":"경기중고지게차","tel":"031-769-3999","addr":"경기도 광주시 초월읍 대쌍령리 335-2번지","indutype":"자동차판매 - 기타운송","category":"car"}]},{"lat":"37.39192106","long":"127.2821689","imageIndex":0,"items":[{"name":"남촌카쎈타","tel":"031-766-3370","addr":"경기도 광주시 초월읍 대쌍령리 378-6번지","indutype":"자동차정비 유지 - 자동차정비","category":"car"}]},{"lat":"37.38683871","long":"127.2973036","imageIndex":0,"items":[{"name":"대호마후라","tel":"031-767-5614","addr":"경기도 광주시 초월읍 대쌍령리 91-4번지","indutype":"자동차정비 유지 - 자동차부품","category":"car"}]},{"lat":"37.38994561","long":"127.286893","imageIndex":0,"items":[{"name":"디크로닉","tel":"031-761-7912","addr":"경기도 광주시 초월읍 대쌍령리 178-1번지","indutype":"자동차정비 유지 - 자동차부품","category":"car"}]},{"lat":"37.39117564","long":"127.2849441","imageIndex":0,"items":[{"name":"로드카","tel":"031-798-0852","addr":"경기도 광주시 초월읍 대쌍령리 346-11","indutype":"자동차정비 유지 - 자동차부품","category":"car"}]},{"lat":"37.38442711","long":"127.2996653","imageIndex":0,"items":[{"name":"애니카랜드초월점","tel":"031-766-5485","addr":"경기도 광주시 초월읍 대쌍령리 11","indutype":"자동차정비 유지 - 자동차정비","category":"car"}]},{"lat":"37.39084278","long":"127.2809227","imageIndex":0,"items":[{"name":"우진휠","tel":"070-4154-8643","addr":"경기도 광주시 초월읍 대쌍령리 362-6","indutype":"자동차정비 유지 - 자동차시트·타이어","category":"car"}]},{"lat":"37.38561321","long":"127.290027","imageIndex":0,"items":[{"name":"초월카센터","tel":"031-766-9335","addr":"경기도 광주시 초월읍 대쌍령리 235-17번지","indutype":"자동차정비 유지 - 자동차부품","category":"car"}]},{"lat":"37.38586525","long":"127.2938107","imageIndex":0,"items":[{"name":"특수렉카굿데이","tel":"031-765-0049","addr":"경기도 광주시 초월읍 대쌍령리 61-1번지 1층","indutype":"자동차정비 유지 - 견인서비스","category":"car"}]},{"lat":"37.38711834","long":"127.2935332","imageIndex":0,"items":[{"name":"희진카센타","tel":"031-765-8619","addr":"경기도 광주시 초월읍 대쌍령리 105번지","indutype":"자동차정비 유지 - 자동차정비","category":"car"}]},{"lat":"37.3907242","long":"127.2853376","imageIndex":17,"items":[{"name":"(주)아우내종합상사","tel":"031-768-2058","addr":"경기도 광주시 초월읍 대쌍령리 346-1번지 1,2층","indutype":"유통업 영리 - 기타유통업","category":"other"},{"name":"제일사무용가구","tel":"031-768-8085","addr":"경기도 광주시 초월읍 대쌍령리 346-1번지","indutype":"가구 - 일반가구","category":"other"}]},{"lat":"37.39100754","long":"127.2836448","imageIndex":17,"items":[{"name":"(주)오비티","tel":"031-699-1112","addr":"경기도 광주시 초월읍 대쌍령리 345-8번지","indutype":"용역 서비스 - 소프트웨어","category":"other"}]},{"lat":"37.39339166","long":"127.2813387","imageIndex":17,"items":[{"name":"(주)피앤제이테크","tel":"031-768-3931","addr":"경기도 광주시 초월읍 대쌍령리 382-1번지","indutype":"용역 서비스 - 기타용역서비스","category":"other"},{"name":"엠씨비 mall","tel":"031-765-8119","addr":"경기도 광주시 초월읍 대쌍령리 382-1번지 대신빌딩 1층","indutype":"의류 - 정장","category":"other"}]},{"lat":"37.38714182","long":"127.2875825","imageIndex":17,"items":[{"name":"GS25광주경충점","tel":"","addr":"경기도 광주시 초월읍 대쌍령리 184-4번지","indutype":"유통업 영리 - 상품권전문판매","category":"other"},{"name":"GS25광주경충점","tel":"","addr":"경기도 광주시 초월읍 대쌍령리 184-4번지","indutype":"유통업 영리 - 편 의 점","category":"other"}]},{"lat":"37.38667409","long":"127.2872533","imageIndex":17,"items":[{"name":"GS25광주초월본점","tel":"","addr":"경기도 광주시 초월읍 대쌍령리 189-1번지 2층","indutype":"유통업 영리 - 편 의 점","category":"other"},{"name":"GS25광주초월본점","tel":"","addr":"경기도 광주시 초월읍 대쌍령리 189-1번지 2층","indutype":"유통업 영리 - 상품권전문판매","category":"other"}]},{"lat":"37.38959256","long":"127.2875805","imageIndex":17,"items":[{"name":"GS25초월대쌍령점","tel":"","addr":"경기도 광주시 초월읍 대쌍령리 339-5번지","indutype":"유통업 영리 - 편 의 점","category":"other"},{"name":"GS25초월대쌍령점","tel":"","addr":"경기도 광주시 초월읍 대쌍령리 339-5번지","indutype":"유통업 영리 - 상품권전문판매","category":"other"}]},{"lat":"37.38555767","long":"127.2906365","imageIndex":17,"items":[{"name":"GS25초월우림점","tel":"","addr":"경기도 광주시 초월읍 대쌍령리 218-3번지","indutype":"유통업 영리 - 편 의 점","category":"other"},{"name":"GS25초월우림점","tel":"","addr":"경기도 광주시 초월읍 대쌍령리 218-3번지","indutype":"유통업 영리 - 상품권전문판매","category":"other"}]},{"lat":"37.38475874","long":"127.289414","imageIndex":17,"items":[{"name":"JEEP곤지암상설점","tel":"031-797-1912","addr":"경기도 광주시 초월읍 대쌍령리 208-28번지","indutype":"의류 - 스포츠의류","category":"other"},{"name":"에스티코 곤지암상설점","tel":"031-797-1912","addr":"경기도 광주시 초월읍 대쌍령리 208-28번지","indutype":"레져용품 - 스포츠·레져용품","category":"other"}]},{"lat":"37.38378267","long":"127.2906411","imageIndex":17,"items":[{"name":"JMK","tel":"031-767-1742","addr":"경기도 광주시 초월읍 대쌍령리 269번지","indutype":"의류 - 스포츠의류","category":"other"},{"name":"JMK","tel":"031-767-1742","addr":"경기도 광주시 초월읍 대쌍령리 269번지","indutype":"의류 - 스포츠의류","category":"other"}]},{"lat":"37.39158689","long":"127.2900272","imageIndex":17,"items":[{"name":"KJ볼링프로샵","tel":"031-762-9890","addr":"경기도 광주시 초월읍 대쌍령리 155-1번지 2층","indutype":"레져용품 - 스포츠·레져용품","category":"other"}]},{"lat":"37.38472953","long":"127.2865798","imageIndex":17,"items":[{"name":"MA CHANCE-마샹스","tel":"070-8031-4038","addr":"경기도 광주시 초월읍 대쌍령리 317-2번지 웅진빌라","indutype":"가구 - 일반가구","category":"other"}]},{"lat":"37.38406401","long":"127.2860691","imageIndex":17,"items":[{"name":"MJ KOREA","tel":"070-8972-9783","addr":"경기도 광주시 초월읍 대쌍령리 297-2번지 초원빌리지","indutype":"레져용품 - 스포츠·레져용품","category":"other"}]},{"lat":"37.38369866","long":"127.2918376","imageIndex":17,"items":[{"name":"OK공조","tel":"02-000-0000","addr":"경기도 광주시 초월읍 대쌍령리 263-3번지","indutype":"전기제품 - 냉열기기","category":"other"}]},{"lat":"37.38569832","long":"127.2883675","imageIndex":17,"items":[{"name":"YG FURNITURE [양지]","tel":"031-763-3731","addr":"경기도 광주시 초월읍 대쌍령리 211-6번지","indutype":"회원제형태 - 기타4","category":"other"}]},{"lat":"37.38542562","long":"127.2930524","imageIndex":17,"items":[{"name":"ttplay","tel":"031-764-3959","addr":"경기도 광주시 초월읍 대쌍령리 60-6번지 1동","indutype":"레져용품 - 스포츠·레져용품","category":"other"}]},{"lat":"37.38775233","long":"127.2921919","imageIndex":17,"items":[{"name":"가나테크","tel":"031-798-7944","addr":"경기도 광주시 초월읍 대쌍령리 248-12번지","indutype":"건축자재 - 조명기구","category":"other"}]},{"lat":"37.38661783","long":"127.2881677","imageIndex":17,"items":[{"name":"건축사사무소예건","tel":"031-765-5244","addr":"경기도 광주시 초월읍 대쌍령리 196-18번지","indutype":"용역 서비스 - 법률회계서비스(개인)","category":"other"},{"name":"희망통신","tel":"031-766-8800","addr":"경기도 광주시 초월읍 대쌍령리 196-18번지","indutype":"사무통신 - 통신기기","category":"other"}]},{"lat":"37.39150422","long":"127.2831724","imageIndex":17,"items":[{"name":"경기물산","tel":"031-763-0604","addr":"경기도 광주시 초월읍 대쌍령리 366-4번지 외2필지","indutype":"건축자재 - 기타건축자재","category":"other"},{"name":"대중무늬목","tel":"031-762-0189","addr":"경기도 광주시 초월읍 대쌍령리 366-4","indutype":"건축자재 - 목재·석재·철물","category":"other"}]},{"lat":"37.38495446","long":"127.2904423","imageIndex":17,"items":[{"name":"경기스틸하우스","tel":"031-765-9001","addr":"경기도 광주시 초월읍 대쌍령리 216-2번지","indutype":"기타 - 기계공구","category":"other"}]},{"lat":"37.38650826","long":"127.2924694","imageIndex":17,"items":[{"name":"경기신용공인중개사사무소","tel":"031-765-1888","addr":"경기도 광주시 초월읍 대쌍령리 103-1번지","indutype":"용역 서비스 - 부동산 중개·임대","category":"other"},{"name":"크린토피아 대쌍령리점","tel":"031-769-6649","addr":"경기도 광주시 초월읍 대쌍령리 103-1번지 1층","indutype":"수리서비스 - 세탁소","category":"other"}]},{"lat":"37.38722546","long":"127.2939401","imageIndex":17,"items":[{"name":"경동천막기업","tel":"031-768-9929","addr":"경기도 광주시 초월읍 대쌍령리 105-3번지 104호","indutype":"직물 - 카페트,커튼,천막,지물","category":"other"}]},{"lat":"37.39222396","long":"127.2911137","imageIndex":17,"items":[{"name":"골드필","tel":"031-761-6381","addr":"경기도 광주시 초월읍 대쌍령리 148-2","indutype":"직물 - 기타직물","category":"other"}]},{"lat":"37.39000145","long":"127.2785257","imageIndex":17,"items":[{"name":"광동레이저금속","tel":"031-798-2893","addr":"경기도 광주시 초월읍 대쌍령리 365-18번지","indutype":"기타 - 기계공구","category":"other"},{"name":"주식회사 광동레이저","tel":"031-798-2893","addr":"경기도 광주시 초월읍 대쌍령리 365-18번지","indutype":"기타 - 기계공구","category":"other"}]},{"lat":"37.38436758","long":"127.2909482","imageIndex":17,"items":[{"name":"광주민속품","tel":"031-762-2419","addr":"경기도 광주시 초월읍 대쌍령리 265번지","indutype":"문화.취미 - 민예·공예품","category":"other"},{"name":"은혜창고","tel":"031-1811-8644","addr":"경기도 광주시 초월읍 대쌍령리 265번지 4층","indutype":"건축자재 - 기타건축자재","category":"other"}]},{"lat":"37.38667492","long":"127.2979466","imageIndex":17,"items":[{"name":"금성계전","tel":"031-767-8987","addr":"경기도 광주시 초월읍 대쌍령리 91-3번지 동원빌딩 4호","indutype":"전기제품 - 기타전기제품","category":"other"},{"name":"금성계전","tel":"031-762-0370","addr":"경기도 광주시 초월읍 대쌍령리 91-3번지 동원빌딩 4호","indutype":"전기제품 - 기타전기제품","category":"other"},{"name":"세븐일레븐경기광주무들점","tel":"","addr":"경기도 광주시 초월읍 대쌍령리 91-3번지","indutype":"유통업 영리 - 편 의 점","category":"other"}]},{"lat":"37.38985431","long":"127.2947859","imageIndex":17,"items":[{"name":"누리아트퀸","tel":"070-2699-0807","addr":"경기도 광주시 초월읍 대쌍령리 124-4번지 신일드림빌아파트","indutype":"의류 - 내의판매","category":"other"},{"name":"시온전자","tel":"031-797-8377","addr":"경기도 광주시 초월읍 대쌍령리 124-4번지 신일드림빌아파트","indutype":"회원제형태 - 기타4","category":"other"},{"name":"케이아이티","tel":"031-765-1944","addr":"경기도 광주시 초월읍 대쌍령리 124-4번지 신일드림빌아파트","indutype":"사무통신 - 사무용 OA기기","category":"other"}]},{"lat":"37.38934936","long":"127.294942","imageIndex":17,"items":[{"name":"뉴로펩 인터내셔널 (neuropep internationa","tel":"031-767-8805","addr":"경기도 광주시 초월읍 대쌍령리 124-4번지 신일드림빌아파트","indutype":"서적문구 - 과학기자재","category":"other"},{"name":"상은트레이딩(driller)","tel":"","addr":"경기도 광주시 초월읍 대쌍령리 124-4번지 신일드림빌아파트","indutype":"레져용품 - 스포츠·레져용품","category":"other"}]},{"lat":"37.3857912","long":"127.2946121","imageIndex":17,"items":[{"name":"다영","tel":"031-1566-6913","addr":"경기도 광주시 초월읍 대쌍령리 61-1번지 우림푸른마을아파트","indutype":"회원제형태 - 기타4","category":"other"}]},{"lat":"37.38698111","long":"127.2869722","imageIndex":17,"items":[{"name":"닥터랜드공인중개사사무소","tel":"031-765-5588","addr":"경기도 광주시 초월읍 대쌍령리 187-1번지","indutype":"용역 서비스 - 부동산 중개·임대","category":"other"}]},{"lat":"37.3816727","long":"127.2838132","imageIndex":17,"items":[{"name":"닥터컴퓨터수리","tel":"","addr":"경기도 광주시 초월읍 대쌍령리 301-35번지 초월솔내음 102동 101호","indutype":"수리서비스 - 사무·통신기기수리","category":"other"}]},{"lat":"37.38517103","long":"127.2903076","imageIndex":17,"items":[{"name":"대경테크","tel":"031-761-8963","addr":"경기도 광주시 초월읍 대쌍령리 214-3번지","indutype":"주방용구 - 주방용구","category":"other"}]},{"lat":"37.38850407","long":"127.286865","imageIndex":17,"items":[{"name":"대교무늬목","tel":"031-765-4712","addr":"경기도 광주시 초월읍 대쌍령리 181-21번지","indutype":"건축자재 - 기타건축자재","category":"other"}]},{"lat":"37.38584362","long":"127.2916087","imageIndex":17,"items":[{"name":"대명종합상사","tel":"031-766-5455","addr":"경기도 광주시 초월읍 대쌍령리 221번지","indutype":"건축자재 - 목재·석재·철물","category":"other"}]},{"lat":"37.38439096","long":"127.2849864","imageIndex":17,"items":[{"name":"대성산업","tel":"031-765-0850","addr":"경기도 광주시 초월읍 대쌍령리 314-1번지 산내마을 라동 503호","indutype":"주방용구 - 주방용구","category":"other"}]},{"lat":"37.38991878","long":"127.283031","imageIndex":17,"items":[{"name":"도원요","tel":"031-762-8802","addr":"경기도 광주시 초월읍 대쌍령리 산89-4번지","indutype":"문화.취미 - 민예·공예품","category":"other"}]},{"lat":"37.38284053","long":"127.2927263","imageIndex":17,"items":[{"name":"동양사무용가구","tel":"031-765-2755","addr":"경기도 광주시 초월읍 대쌍령리 274-7번지","indutype":"가구 - 기타가구","category":"other"},{"name":"좋은책서점","tel":"031-762-1217","addr":"경기도 광주시 초월읍 대쌍령리 274-7번지 2층","indutype":"서적문구 - 일반서적","category":"other"}]},{"lat":"37.38219767","long":"127.2828103","imageIndex":17,"items":[{"name":"디센트(D:scent)","tel":"","addr":"경기도 광주시 초월읍 대쌍령리 303-69번지 럭키아트힐 204동 102호","indutype":"신변잡화 - 기타잡화","category":"other"}]},{"lat":"37.3913079","long":"127.2898906","imageIndex":17,"items":[{"name":"디자인 팩토리","tel":"031-000-0000","addr":"경기도 광주시 초월읍 대쌍령리 155-19번지","indutype":"건축자재 - 인테리어전문","category":"other"}]},{"lat":"37.38786376","long":"127.287111","imageIndex":17,"items":[{"name":"디자인미","tel":"031-764-0877","addr":"경기도 광주시 초월읍 대쌍령리 181-13번지 2층","indutype":"건축자재 - 인테리어전문","category":"other"},{"name":"토탈상사광주","tel":"031-741-9801","addr":"경기도 광주시 초월읍 대쌍령리 181-13번지 1층","indutype":"건축자재 - 기타건축자재","category":"other"}]},{"lat":"37.38684302","long":"127.2881912","imageIndex":17,"items":[{"name":"디자인팍스(DESIGNPARKS)","tel":"070-7526-0824","addr":"경기도 광주시 초월읍 대쌍령리 193-2번지 혜림쉐르빌 305호","indutype":"건축자재 - 조명기구","category":"other"}]},{"lat":"37.38892616","long":"127.2836709","imageIndex":17,"items":[{"name":"디자인해피","tel":"031-769-4399","addr":"경기도 광주시 초월읍 대쌍령리 352-7번지","indutype":"가구 - 일반가구","category":"other"}]},{"lat":"37.38895356","long":"127.2946808","imageIndex":17,"items":[{"name":"라온제나","tel":"","addr":"경기도 광주시 초월읍 대쌍령리 124-4번지 신일드림빌아파트","indutype":"신변잡화 - 기타잡화","category":"other"},{"name":"지에이치 라이팅","tel":"070-4123-3106","addr":"경기도 광주시 초월읍 대쌍령리 124-4번지 신일드림빌아파트","indutype":"건축자재 - 조명기구","category":"other"}]},{"lat":"37.38625224","long":"127.2939928","imageIndex":17,"items":[{"name":"리인","tel":"031-797-5073","addr":"경기도 광주시 초월읍 대쌍령리 61-1번지 우림푸른마을아파트","indutype":"가구 - 일반가구","category":"other"}]},{"lat":"37.39022906","long":"127.2889154","imageIndex":17,"items":[{"name":"마리공방","tel":"","addr":"경기도 광주시 초월읍 대쌍령리 151-1번지","indutype":"문화.취미 - 문화취미기타","category":"other"},{"name":"이마트24 광주대쌍령점","tel":"","addr":"경기도 광주시 초월읍 대쌍령리 151-1번지","indutype":"유통업 영리 - 편 의 점","category":"other"},{"name":"이마트24 광주대쌍령점","tel":"","addr":"경기도 광주시 초월읍 대쌍령리 151-1번지 1층","indutype":"유통업 영리 - 편 의 점","category":"other"}]},{"lat":"37.38509272","long":"127.2928592","imageIndex":17,"items":[{"name":"메닉스","tel":"031-766-3121","addr":"경기도 광주시 초월읍 대쌍령리 258-2번지","indutype":"건축자재 - 건축용 요업제품","category":"other"}]},{"lat":"37.38425294","long":"127.2899202","imageIndex":17,"items":[{"name":"몬스터펫샵 경기광주점","tel":"","addr":"경기도 광주시 초월읍 대쌍령리 267-3번지","indutype":"문화.취미 - 애완동물","category":"other"}]},{"lat":"37.38261641","long":"127.288559","imageIndex":17,"items":[{"name":"미도요","tel":"031-766-6655","addr":"경기도 광주시 초월읍 대쌍령리 288-1번지","indutype":"문화.취미 - 골동품점","category":"other"},{"name":"오름도예","tel":"031-797-4069","addr":"경기도 광주시 초월읍 대쌍령리 288-1번지","indutype":"문화.취미 - 민예·공예품","category":"other"}]},{"lat":"37.38373023","long":"127.2899747","imageIndex":17,"items":[{"name":"미아톱목공기계산업","tel":"02-989-8502","addr":"경기도 광주시 초월읍 대쌍령리 270-1","indutype":"기타 - 기계공구","category":"other"},{"name":"워터플러스","tel":"031-766-1248","addr":"경기도 광주시 초월읍 대쌍령리 270-1번지","indutype":"주방용구 - 정수기","category":"other"}]},{"lat":"37.38967348","long":"127.2838883","imageIndex":17,"items":[{"name":"베베드봉봉","tel":"031-768-8872","addr":"경기도 광주시 초월읍 대쌍령리 348번지","indutype":"광학제품 - 사진관","category":"other"},{"name":"주식회사 스튜디오100","tel":"031-765-8872","addr":"경기도 광주시 초월읍 대쌍령리 348번지 1층","indutype":"광학제품 - 사진관","category":"other"}]},{"lat":"37.39398051","long":"127.2799744","imageIndex":17,"items":[{"name":"봉주르봉구","tel":"031-765-8308","addr":"경기도 광주시 초월읍 대쌍령리 396-13번지 2층","indutype":"문화.취미 - 애완동물","category":"other"}]},{"lat":"37.39106096","long":"127.283916","imageIndex":17,"items":[{"name":"부성볼트","tel":"031-767-1761","addr":"경기도 광주시 초월읍 대쌍령리 345-13번지","indutype":"건축자재 - 기타건축자재","category":"other"},{"name":"태영엘이디조명","tel":"031-798-0472","addr":"경기도 광주시 초월읍 대쌍령리 345-13번지 1층","indutype":"건축자재 - 조명기구","category":"other"}]},{"lat":"37.38653513","long":"127.2888336","imageIndex":17,"items":[{"name":"삼성유골함","tel":"031-764-7772","addr":"경기도 광주시 초월읍 대쌍령리 227-15번지","indutype":"용역 서비스 - 가례서비스업","category":"other"}]},{"lat":"37.38651074","long":"127.2987476","imageIndex":17,"items":[{"name":"상원공구","tel":"031-765-5958","addr":"경기도 광주시 초월읍 대쌍령리 1번지","indutype":"기타 - 기계공구","category":"other"}]},{"lat":"37.3900648","long":"127.2860353","imageIndex":17,"items":[{"name":"세븐미디어","tel":"031-768-8881","addr":"경기도 광주시 초월읍 대쌍령리 339-34번지","indutype":"서적문구 - 출판 및 인쇄물","category":"other"}]},{"lat":"37.39214617","long":"127.2822262","imageIndex":17,"items":[{"name":"세븐일레븐경기광주남촌점","tel":"","addr":"경기도 광주시 초월읍 대쌍령리 365-6번지","indutype":"유통업 영리 - 편 의 점","category":"other"}]},{"lat":"37.3841189","long":"127.2857193","imageIndex":17,"items":[{"name":"세탁하는날","tel":"031-763-8939","addr":"경기도 광주시 초월읍 대쌍령리 297-3번지 1층 101호","indutype":"수리서비스 - 세탁소","category":"other"}]},{"lat":"37.39153331","long":"127.282303","imageIndex":17,"items":[{"name":"승연벤딩산업","tel":"031-767-5505","addr":"경기도 광주시 초월읍 대쌍령리 367-6번지","indutype":"건축자재 - 조명기구","category":"other"}]},{"lat":"37.38395232","long":"127.2949437","imageIndex":17,"items":[{"name":"승화분체도장","tel":"031-769-5560","addr":"경기도 광주시 초월읍 대쌍령리 38-1번지 RK동","indutype":"기타 - 기계공구","category":"other"}]},{"lat":"37.38664617","long":"127.2986352","imageIndex":17,"items":[{"name":"신용모타","tel":"031-766-4150","addr":"경기도 광주시 초월읍 대쌍령리 1-1","indutype":"수리서비스 - 기타수리서비스","category":"other"}]},{"lat":"37.38442711","long":"127.2996653","imageIndex":17,"items":[{"name":"쌍용정밀","tel":"031-767-1470","addr":"경기도 광주시 초월읍 대쌍령리 11번지","indutype":"기타 - 기계공구","category":"other"},{"name":"이길산업전기","tel":"031-761-8566","addr":"경기도 광주시 초월읍 대쌍령리 11","indutype":"전기제품 - 기타전기제품","category":"other"}]},{"lat":"37.3865093","long":"127.2883367","imageIndex":17,"items":[{"name":"씨유광주초월점","tel":"080-080-3663","addr":"경기도 광주시 초월읍 대쌍령리 196-17번지 1층","indutype":"유통업 영리 - 편 의 점","category":"other"}]},{"lat":"37.38603571","long":"127.2866976","imageIndex":17,"items":[{"name":"씨유광주초월중앙점","tel":"02-1577-8007","addr":"경기도 광주시 초월읍 대쌍령리 321-1번지 1층","indutype":"유통업 영리 - 편 의 점","category":"other"}]},{"lat":"37.38289834","long":"127.2911909","imageIndex":17,"items":[{"name":"아다바트","tel":"031-8017-1247","addr":"경기도 광주시 초월읍 대쌍령리 272-2번지","indutype":"레져용품 - 스포츠·레져용품","category":"other"}]},{"lat":"37.38984062","long":"127.2893317","imageIndex":17,"items":[{"name":"아성","tel":"031-763-6390","addr":"경기도 광주시 초월읍 대쌍령리 168-6","indutype":"기타 - 기계공구","category":"other"}]},{"lat":"37.38411763","long":"127.28625","imageIndex":17,"items":[{"name":"아키룸","tel":"070-8257-0524","addr":"경기도 광주시 초월읍 대쌍령리 297-1번지 나동","indutype":"의류 - 아동의류","category":"other"},{"name":"지니","tel":"070-4236-3729","addr":"경기도 광주시 초월읍 대쌍령리 297-1번지","indutype":"유통업 영리 - 기타유통업","category":"other"}]},{"lat":"37.38522602","long":"127.2899239","imageIndex":17,"items":[{"name":"어울림광고","tel":"031-768-3370","addr":"경기도 광주시 초월읍 대쌍령리 214-6","indutype":"건축자재 - 인테리어전문","category":"other"}]},{"lat":"37.39053444","long":"127.2893118","imageIndex":17,"items":[{"name":"에어바운스매니아","tel":"031-766-9322","addr":"경기도 광주시 초월읍 대쌍령리 153-8","indutype":"신변잡화 - 기타잡화","category":"other"}]},{"lat":"37.39273051","long":"127.2827817","imageIndex":17,"items":[{"name":"에이원사무용가구","tel":"031-762-4956","addr":"경기도 광주시 초월읍 대쌍령리 377-2번지","indutype":"가구 - 기타가구","category":"other"}]},{"lat":"37.38561321","long":"127.290027","imageIndex":17,"items":[{"name":"예지상사","tel":"031-769-0974","addr":"경기도 광주시 초월읍 대쌍령리 235-17번지","indutype":"건축자재 - 페인트","category":"other"}]},{"lat":"37.39167536","long":"127.2831956","imageIndex":17,"items":[{"name":"오케이(ok)공구상사","tel":"031-766-0985","addr":"경기도 광주시 초월읍 대쌍령리 366-10번지","indutype":"기타 - 기계공구","category":"other"},{"name":"한독사료","tel":"031-764-4549","addr":"경기도 광주시 초월읍 대쌍령리 366-10","indutype":"문화.취미 - 애완동물","category":"other"}]},{"lat":"37.38248143","long":"127.2921943","imageIndex":17,"items":[{"name":"우정가구","tel":"031-768-3213","addr":"경기도 광주시 초월읍 대쌍령리 274-22번지","indutype":"가구 - 일반가구","category":"other"}]},{"lat":"37.38970215","long":"127.2869711","imageIndex":17,"items":[{"name":"원일철강","tel":"031-748-3570","addr":"경기도 광주시 초월읍 대쌍령리 178-11번지","indutype":"건축자재 - 기타건축자재","category":"other"}]},{"lat":"37.38997729","long":"127.2849509","imageIndex":17,"items":[{"name":"유로물류산업","tel":"031-637-7614","addr":"경기도 광주시 초월읍 대쌍령리 349-5번지 2층","indutype":"기타 - 기계공구","category":"other"}]},{"lat":"37.38864717","long":"127.2873059","imageIndex":17,"items":[{"name":"율성산업","tel":"031-762-2907","addr":"경기도 광주시 초월읍 대쌍령리 179번지","indutype":"건축자재 - 목재·석재·철물","category":"other"}]},{"lat":"37.38378355","long":"127.2902797","imageIndex":17,"items":[{"name":"이랜드키즈덤 곤지암점","tel":"031-765-8423","addr":"경기도 광주시 초월읍 대쌍령리 269-3번지","indutype":"의류 - 정장","category":"other"}]},{"lat":"37.38289462","long":"127.2999754","imageIndex":17,"items":[{"name":"이마트24 광주무들로점","tel":"","addr":"경기도 광주시 초월읍 대쌍령리 19번지","indutype":"유통업 영리 - 편 의 점","category":"other"},{"name":"이마트24 광주무들로점","tel":"031-1111-1111","addr":"경기도 광주시 초월읍 대쌍령리 19번지","indutype":"유통업 영리 - 편 의 점","category":"other"}]},{"lat":"37.39153061","long":"127.2834435","imageIndex":17,"items":[{"name":"일월비철금속","tel":"031-766-6065","addr":"경기도 광주시 초월읍 대쌍령리 366-12번지 366-14,366-12,366-13번지 3필지","indutype":"건축자재 - 목재·석재·철물","category":"other"}]},{"lat":"37.38028767","long":"127.2710834","imageIndex":17,"items":[{"name":"재단법인닻문화재단","tel":"070-4193-2581","addr":"경기도 광주시 초월읍 대쌍령리 447-32번지","indutype":"문화.취미 - 티켓","category":"other"}]},{"lat":"37.38419759","long":"127.2867245","imageIndex":17,"items":[{"name":"제이골프 피팅카","tel":"","addr":"경기도 광주시 초월읍 대쌍령리 295-4번지 미래안홈 401호","indutype":"수리서비스 - 레져용품수리","category":"other"}]},{"lat":"37.39250427","long":"127.2831987","imageIndex":17,"items":[{"name":"제이디","tel":"031-768-5463","addr":"경기도 광주시 초월읍 대쌍령리 377-1번지 2층","indutype":"가구 - 일반가구","category":"other"}]},{"lat":"37.38523262","long":"127.2909176","imageIndex":17,"items":[{"name":"제일테크","tel":"031-769-5263","addr":"경기도 광주시 초월읍 대쌍령리 217-6번지","indutype":"기타 - 기계공구","category":"other"}]},{"lat":"37.38897353","long":"127.2864715","imageIndex":17,"items":[{"name":"조영웰텍","tel":"031-769-7295","addr":"경기도 광주시 초월읍 대쌍령리 333-4번지","indutype":"기타 - 기계공구","category":"other"}]},{"lat":"37.38409259","long":"127.2928666","imageIndex":17,"items":[{"name":"주식회사 씨엘","tel":"031-763-1537","addr":"경기도 광주시 초월읍 대쌍령리 57-1번지","indutype":"건축자재 - 기타건축자재","category":"other"}]},{"lat":"37.39184238","long":"127.2849466","imageIndex":17,"items":[{"name":"주식회사 제이에스엔알(JS&R)","tel":"070-4211-7823","addr":"경기도 광주시 초월읍 대쌍령리 342-2","indutype":"신변잡화 - 기타잡화","category":"other"}]},{"lat":"37.38245473","long":"127.2920587","imageIndex":17,"items":[{"name":"주식회사 제이제이디자인","tel":"031-768-1199","addr":"경기도 광주시 초월읍 대쌍령리 273-3번지 1층","indutype":"건축자재 - 인테리어전문","category":"other"}]},{"lat":"37.38652972","long":"127.2983638","imageIndex":17,"items":[{"name":"주식회사안전공간","tel":"031-766-9110","addr":"경기도 광주시 초월읍 대쌍령리 91번지 104호","indutype":"기타 - 기계공구","category":"other"}]},{"lat":"37.39334188","long":"127.2833373","imageIndex":17,"items":[{"name":"주투","tel":"054-636-4411","addr":"경기도 광주시 초월읍 대쌍령리 373-10번지","indutype":"의류 - 정장","category":"other"}]},{"lat":"37.39148066","long":"127.2854985","imageIndex":17,"items":[{"name":"주현냉동","tel":"031-766-7711","addr":"경기도 광주시 초월읍 대쌍령리 341-3번지","indutype":"유통업 영리 - 기타유통업","category":"other"}]},{"lat":"37.38711622","long":"127.2943914","imageIndex":17,"items":[{"name":"지에스철강금속 주식회사","tel":"031-765-8259","addr":"경기도 광주시 초월읍 대쌍령리 97번지","indutype":"건축자재 - 기타건축자재","category":"other"}]},{"lat":"37.38559115","long":"127.2879719","imageIndex":17,"items":[{"name":"초월우체국","tel":"031-766-2201","addr":"경기도 광주시 초월읍 대쌍령리 203번지","indutype":"용역 서비스 - 공공요금대행서비스/소","category":"other"}]},{"lat":"37.38511468","long":"127.2875297","imageIndex":17,"items":[{"name":"칵테일렙타일","tel":"031-000-0000","addr":"경기도 광주시 초월읍 대쌍령리 205-23번지 삼성세르빌 205호","indutype":"문화.취미 - 애완동물","category":"other"}]},{"lat":"37.38803119","long":"127.2886699","imageIndex":17,"items":[{"name":"캐치온 시큐리티","tel":"070-3562-8905","addr":"경기도 광주시 초월읍 대쌍령리 232-2번지 포시즌 101호","indutype":"용역 서비스 - 기타용역서비스","category":"other"}]},{"lat":"37.38672622","long":"127.2880552","imageIndex":17,"items":[{"name":"케이(K)인테리어","tel":"031-797-1811","addr":"경기도 광주시 초월읍 대쌍령리 195번지 대쌍빌딩 4층","indutype":"가구 - 기타가구","category":"other"}]},{"lat":"37.38367758","long":"127.2856499","imageIndex":17,"items":[{"name":"클라썸제이(clawsome J)","tel":"","addr":"경기도 광주시 초월읍 대쌍령리 298-5번지 청우리치빌","indutype":"의류 - 정장","category":"other"}]},{"lat":"37.38472716","long":"127.2985825","imageIndex":17,"items":[{"name":"태극엔지니어링","tel":"031-798-7727","addr":"경기도 광주시 초월읍 대쌍령리 9-1","indutype":"용역 서비스 - 기타용역서비스","category":"other"}]},{"lat":"37.38297604","long":"127.2925801","imageIndex":17,"items":[{"name":"태성이스트쇼파가구","tel":"031-797-2805","addr":"경기도 광주시 초월읍 대쌍령리 274-6","indutype":"가구 - 일반가구","category":"other"},{"name":"플러스","tel":"031-767-8726","addr":"경기도 광주시 초월읍 대쌍령리 274-6번지","indutype":"회원제형태 - 레져업소","category":"other"}]},{"lat":"37.3912283","long":"127.2855315","imageIndex":17,"items":[{"name":"파란우드","tel":"031-798-1400","addr":"경기도 광주시 초월읍 대쌍령리 341-11","indutype":"건축자재 - 기타건축자재","category":"other"}]},{"lat":"37.38620416","long":"127.2878387","imageIndex":17,"items":[{"name":"하늘교육","tel":"070-8883-7518","addr":"경기도 광주시 초월읍 대쌍령리 199-1번지 3층","indutype":"회원제형태 - 서적","category":"other"},{"name":"항진공업사","tel":"031-765-5339","addr":"경기도 광주시 초월읍 대쌍령리 199-1 제1호","indutype":"건축자재 - 기타건축자재","category":"other"}]},{"lat":"37.3912868","long":"127.2836684","imageIndex":17,"items":[{"name":"한샘리하우스다솔디자인 대리점","tel":"031-766-7201","addr":"경기도 광주시 초월읍 대쌍령리 345-11번지","indutype":"건축자재 - 인테리어전문","category":"other"}]},{"lat":"37.38683871","long":"127.2973036","imageIndex":17,"items":[{"name":"헬스서포터,워터스","tel":"031-769-6490","addr":"경기도 광주시 초월읍 대쌍령리 91-4","indutype":"주방용구 - 정수기","category":"other"}]},{"lat":"37.38739456","long":"127.2873915","imageIndex":17,"items":[{"name":"현대볼트","tel":"031-768-6144","addr":"경기도 광주시 초월읍 대쌍령리 185-1번지","indutype":"기타 - 기계공구","category":"other"}]},{"lat":"37.38362381","long":"127.2855255","imageIndex":17,"items":[{"name":"홈매니저(Home manager)","tel":"","addr":"경기도 광주시 초월읍 대쌍령리 298-21번지 청우리치빌","indutype":"건축자재 - 인테리어전문","category":"other"}]},{"lat":"37.38267104","long":"127.2845622","imageIndex":17,"items":[{"name":"힐더홈컴퍼니","tel":"","addr":"경기도 광주시 초월읍 대쌍령리 301-17번지 b01,b02호 (명성빌)","indutype":"용역 서비스 - 종합용역","category":"other"}]},{"lat":"37.38984295","long":"127.2846116","imageIndex":4,"items":[{"name":"(주)해누리","tel":"031-798-5563","addr":"경기도 광주시 초월읍 대쌍령리 349-3번지","indutype":"일반휴게음식 - 일반한식","category":"restaurant"}]},{"lat":"37.39158689","long":"127.2900272","imageIndex":4,"items":[{"name":"KJ펍","tel":"031-762-9890","addr":"경기도 광주시 초월읍 대쌍령리 155-1번지","indutype":"일반휴게음식 - 일반한식","category":"restaurant"}]},{"lat":"37.39309111","long":"127.2788645","imageIndex":4,"items":[{"name":"Puddle House(퍼들하우스)/주식회사 대기개","tel":"031-766-0757","addr":"경기도 광주시 초월읍 대쌍령리 403-3외 3필지","indutype":"일반휴게음식 - 일반한식","category":"restaurant"}]},{"lat":"37.38883825","long":"127.2865275","imageIndex":4,"items":[{"name":"갯마을손칼국수","tel":"031-766-3222","addr":"경기도 광주시 초월읍 대쌍령리 333-12번지","indutype":"일반휴게음식 - 일반한식","category":"restaurant"}]},{"lat":"37.38620416","long":"127.2878387","imageIndex":4,"items":[{"name":"굴다리","tel":"031-766-8270","addr":"경기도 광주시 초월읍 대쌍령리 199-1번지 1층","indutype":"일반휴게음식 - 일반한식","category":"restaurant"}]},{"lat":"37.38837035","long":"127.2900037","imageIndex":4,"items":[{"name":"까슐","tel":"031-767-3040","addr":"경기도 광주시 초월읍 대쌍령리 170-4번지","indutype":"일반휴게음식 - 서양음식","category":"restaurant"},{"name":"장가네닭발","tel":"031-1111-1111","addr":"경기도 광주시 초월읍 대쌍령리 170-4번지 G동 1층","indutype":"일반휴게음식 - 일반한식","category":"restaurant"}]},{"lat":"37.39364487","long":"127.2809444","imageIndex":4,"items":[{"name":"꽃돼지옛날김치찌개","tel":"031-762-3412","addr":"경기도 광주시 초월읍 대쌍령리 396-7번지","indutype":"일반휴게음식 - 일반한식","category":"restaurant"}]},{"lat":"37.39144672","long":"127.2846176","imageIndex":4,"items":[{"name":"낙원한식뷔페","tel":"031-761-5055","addr":"경기도 광주시 초월읍 대쌍령리 343-6번지","indutype":"일반휴게음식 - 일반한식","category":"restaurant"},{"name":"다온","tel":"031-761-2972","addr":"경기도 광주시 초월읍 대쌍령리 343-6번지","indutype":"일반휴게음식 - 일반한식","category":"restaurant"}]},{"lat":"37.38620208","long":"127.2886968","imageIndex":4,"items":[{"name":"대쌍포차","tel":"031-767-9533","addr":"경기도 광주시 초월읍 대쌍령리 196-29번지","indutype":"일반휴게음식 - 주점","category":"restaurant"},{"name":"싱하형토스트","tel":"031-768-5234","addr":"경기도 광주시 초월읍 대쌍령리 196-29번지 가동 1층","indutype":"일반휴게음식 - 스넥","category":"restaurant"},{"name":"아삽분식","tel":"031-761-3532","addr":"경기도 광주시 초월읍 대쌍령리 196-29번지 나동","indutype":"일반휴게음식 - 일반한식","category":"restaurant"},{"name":"초월야채곱창","tel":"031-000-0000","addr":"경기도 광주시 초월읍 대쌍령리 196-29번지","indutype":"일반휴게음식 - 일반한식","category":"restaurant"},{"name":"투다리(초월점)","tel":"031-767-0706","addr":"경기도 광주시 초월읍 대쌍령리 196-29번지","indutype":"일반휴게음식 - 일반한식","category":"restaurant"}]},{"lat":"37.38959256","long":"127.2875805","imageIndex":4,"items":[{"name":"데일리커피","tel":"070-4119-1334","addr":"경기도 광주시 초월읍 대쌍령리 339-5번지","indutype":"일반휴게음식 - 서양음식","category":"restaurant"},{"name":"봉구스밥버거(초월점)","tel":"031-765-6696","addr":"경기도 광주시 초월읍 대쌍령리 339-5번지","indutype":"일반휴게음식 - 일반한식","category":"restaurant"},{"name":"위드치킨","tel":"031-768-5656","addr":"경기도 광주시 초월읍 대쌍령리 339-5번지 1층","indutype":"일반휴게음식 - 스넥","category":"restaurant"},{"name":"화돈 막창곱창","tel":"031-768-6603","addr":"경기도 광주시 초월읍 대쌍령리 339-5번지","indutype":"일반휴게음식 - 일반한식","category":"restaurant"}]},{"lat":"37.39003452","long":"127.2873902","imageIndex":4,"items":[{"name":"또바기부대찌개","tel":"031-763-2296","addr":"경기도 광주시 초월읍 대쌍령리 339-10번지","indutype":"일반휴게음식 - 일반한식","category":"restaurant"}]},{"lat":"37.39398051","long":"127.2799744","imageIndex":4,"items":[{"name":"레드그릴(RED GRILL)","tel":"031-798-7404","addr":"경기도 광주시 초월읍 대쌍령리 396-13번지","indutype":"일반휴게음식 - 서양음식","category":"restaurant"}]},{"lat":"37.38722546","long":"127.2939401","imageIndex":4,"items":[{"name":"마미한식부페","tel":"031-767-5575","addr":"경기도 광주시 초월읍 대쌍령리 105-3번지","indutype":"일반휴게음식 - 일반한식","category":"restaurant"}]},{"lat":"37.38692504","long":"127.2878075","imageIndex":4,"items":[{"name":"맹가네","tel":"031-766-7796","addr":"경기도 광주시 초월읍 대쌍령리 191-6번지","indutype":"일반휴게음식 - 스넥","category":"restaurant"}]},{"lat":"37.39209166","long":"127.282418","imageIndex":4,"items":[{"name":"명사순대초월점","tel":"031-761-5774","addr":"경기도 광주시 초월읍 대쌍령리 378-4번지 1층","indutype":"일반휴게음식 - 일반한식","category":"restaurant"}]},{"lat":"37.38911769","long":"127.2864721","imageIndex":4,"items":[{"name":"밀토랑바지락칼국수","tel":"031-766-4363","addr":"경기도 광주시 초월읍 대쌍령리 333-3번지","indutype":"일반휴게음식 - 일반한식","category":"restaurant"}]},{"lat":"37.38711834","long":"127.2935332","imageIndex":4,"items":[{"name":"바다마을","tel":"031-767-5758","addr":"경기도 광주시 초월읍 대쌍령리 105번지 1층","indutype":"일반휴게음식 - 일식·회집","category":"restaurant"},{"name":"해바라기생막창","tel":"031-797-0656","addr":"경기도 광주시 초월읍 대쌍령리 105번지 1층","indutype":"일반휴게음식 - 일반한식","category":"restaurant"}]},{"lat":"37.3937541","long":"127.2804705","imageIndex":4,"items":[{"name":"바램","tel":"031-797-5130","addr":"경기도 광주시 초월읍 대쌍령리 396-17번지 1층","indutype":"일반휴게음식 - 일반한식","category":"restaurant"}]},{"lat":"37.38667148","long":"127.2883373","imageIndex":4,"items":[{"name":"박가네생삼겹살","tel":"031-766-4320","addr":"경기도 광주시 초월읍 대쌍령리 194-3번지","indutype":"일반휴게음식 - 일반한식","category":"restaurant"}]},{"lat":"37.39225082","long":"127.2836946","imageIndex":4,"items":[{"name":"방자네남원추어탕","tel":"031-766-5233","addr":"경기도 광주시 초월읍 대쌍령리 368-1번지 1층","indutype":"일반휴게음식 - 일반한식","category":"restaurant"}]},{"lat":"37.38214775","long":"127.2771985","imageIndex":4,"items":[{"name":"소담갤러리","tel":"031-768-8810","addr":"경기도 광주시 초월읍 대쌍령리 432-65번지","indutype":"일반휴게음식 - 일반한식","category":"restaurant"}]},{"lat":"37.38695152","long":"127.2880335","imageIndex":4,"items":[{"name":"소한마리","tel":"031-762-2248","addr":"경기도 광주시 초월읍 대쌍령리 192-3번지 정인아트빌 102호","indutype":"일반휴게음식 - 일반한식","category":"restaurant"},{"name":"찌개마을","tel":"031-764-7077","addr":"경기도 광주시 초월읍 대쌍령리 192-3번지","indutype":"일반휴게음식 - 일반한식","category":"restaurant"}]},{"lat":"37.38623072","long":"127.2990288","imageIndex":4,"items":[{"name":"신안산낙지","tel":"031-766-1900","addr":"경기도 광주시 초월읍 대쌍령리 2","indutype":"일반휴게음식 - 일반한식","category":"restaurant"}]},{"lat":"37.39164398","long":"127.2850249","imageIndex":4,"items":[{"name":"쌍령해장국","tel":"031-766-7823","addr":"경기도 광주시 초월읍 대쌍령리 342-3번지","indutype":"일반휴게음식 - 일반한식","category":"restaurant"}]},{"lat":"37.38739456","long":"127.2873915","imageIndex":4,"items":[{"name":"쌍용각","tel":"031-765-8586","addr":"경기도 광주시 초월읍 대쌍령리 185-1번지","indutype":"일반휴게음식 - 중국식","category":"restaurant"},{"name":"초밥전문점스시안","tel":"","addr":"경기도 광주시 초월읍 대쌍령리 185-1번지 2층","indutype":"일반휴게음식 - 일식·회집","category":"restaurant"}]},{"lat":"37.38555767","long":"127.2906365","imageIndex":4,"items":[{"name":"엠엘엠지 커피(MLMG COFFEE)","tel":"031-764-7837","addr":"경기도 광주시 초월읍 대쌍령리 218-3번지 1층","indutype":"일반휴게음식 - 서양음식","category":"restaurant"},{"name":"호식이두마리치킨","tel":"031-766-1661","addr":"경기도 광주시 초월읍 대쌍령리 218-3번지 102호","indutype":"일반휴게음식 - 주점","category":"restaurant"}]},{"lat":"37.3863387","long":"127.2918026","imageIndex":4,"items":[{"name":"오드리 수제돈가스","tel":"031-762-0239","addr":"경기도 광주시 초월읍 대쌍령리 254-2번지 1층","indutype":"일반휴게음식 - 스넥","category":"restaurant"}]},{"lat":"37.38409016","long":"127.290168","imageIndex":4,"items":[{"name":"원당뼈해장국","tel":"031-763-2432","addr":"경기도 광주시 초월읍 대쌍령리 268-2번지","indutype":"일반휴게음식 - 일반한식","category":"restaurant"},{"name":"지승카페","tel":"031-111-1111","addr":"경기도 광주시 초월읍 대쌍령리 268-2번지 2층","indutype":"일반휴게음식 - 서양음식","category":"restaurant"}]},{"lat":"37.38831499","long":"127.2868078","imageIndex":4,"items":[{"name":"육대장","tel":"031-762-6695","addr":"경기도 광주시 초월읍 대쌍령리 181-33번지","indutype":"일반휴게음식 - 일반한식","category":"restaurant"}]},{"lat":"37.39069791","long":"127.2887817","imageIndex":4,"items":[{"name":"이너프투","tel":"031-768-3231","addr":"경기도 광주시 초월읍 대쌍령리 152-1번지","indutype":"일반휴게음식 - 서양음식","category":"restaurant"}]},{"lat":"37.38983616","long":"127.2874459","imageIndex":4,"items":[{"name":"장강","tel":"031-763-1552","addr":"경기도 광주시 초월읍 대쌍령리 339-15번지","indutype":"일반휴게음식 - 중국식","category":"restaurant"}]},{"lat":"37.38997729","long":"127.2849509","imageIndex":4,"items":[{"name":"지리산화돌농장","tel":"031-765-3400","addr":"경기도 광주시 초월읍 대쌍령리 349-5번지 1층","indutype":"일반휴게음식 - 일반한식","category":"restaurant"}]},{"lat":"37.38586525","long":"127.2938107","imageIndex":4,"items":[{"name":"진진분식","tel":"031-768-9721","addr":"경기도 광주시 초월읍 대쌍령리 61-1번지 상가동 105호,106호","indutype":"일반휴게음식 - 스넥","category":"restaurant"}]},{"lat":"37.38369689","long":"127.285108","imageIndex":4,"items":[{"name":"카페2019","tel":"","addr":"경기도 광주시 초월읍 대쌍령리 298-4번지 청우리치빌 B01호","indutype":"일반휴게음식 - 서양음식","category":"restaurant"}]},{"lat":"37.38973151","long":"127.2860001","imageIndex":4,"items":[{"name":"푸릴리 초월점","tel":"031-769-9235","addr":"경기도 광주시 초월읍 대쌍령리 335-2번지 2층","indutype":"일반휴게음식 - 일반한식","category":"restaurant"}]},{"lat":"37.38492633","long":"127.2908938","imageIndex":4,"items":[{"name":"하모니","tel":"031-765-5412","addr":"경기도 광주시 초월읍 대쌍령리 216-3","indutype":"일반휴게음식 - 서양음식","category":"restaurant"}]},{"lat":"37.39097702","long":"127.2851127","imageIndex":4,"items":[{"name":"한우촌정육식당","tel":"031-766-5624","addr":"경기도 광주시 초월읍 대쌍령리 346-8번지 가동","indutype":"일반휴게음식 - 일반한식","category":"restaurant"}]},{"lat":"37.38545007","long":"127.2904216","imageIndex":4,"items":[{"name":"해피맘","tel":"031-767-6014","addr":"경기도 광주시 초월읍 대쌍령리 217-4","indutype":"일반휴게음식 - 스넥","category":"restaurant"}]},{"lat":"37.38667409","long":"127.2872533","imageIndex":4,"items":[{"name":"해피트리","tel":"000-000-0000","addr":"경기도 광주시 초월읍 대쌍령리 189-1번지 3층","indutype":"일반휴게음식 - 서양음식","category":"restaurant"}]},{"lat":"37.38714182","long":"127.2875825","imageIndex":4,"items":[{"name":"행복포차","tel":"031-798-8082","addr":"경기도 광주시 초월읍 대쌍령리 184-4번지","indutype":"일반휴게음식 - 일반한식","category":"restaurant"}]},{"lat":"37.39206067","long":"127.2840891","imageIndex":4,"items":[{"name":"호야분식","tel":"031-797-6969","addr":"경기도 광주시 초월읍 대쌍령리 342-1번지 2층","indutype":"일반휴게음식 - 스넥","category":"restaurant"}]},{"lat":"37.3865093","long":"127.2883367","imageIndex":13,"items":[{"name":"E-헤어","tel":"031-763-7441","addr":"경기도 광주시 초월읍 대쌍령리 196-17번지","indutype":"보건위생 - 미용원","category":"beauty"}]},{"lat":"37.38369689","long":"127.285108","imageIndex":13,"items":[{"name":"김미녀헤어샵","tel":"031-769-1408","addr":"경기도 광주시 초월읍 대쌍령리 298-4번지 청우리치빌 G동 1층 비02호","indutype":"보건위생 - 미용원","category":"beauty"}]},{"lat":"37.38739456","long":"127.2873915","imageIndex":13,"items":[{"name":"마음소리미술심리치유센터","tel":"031-794-3926","addr":"경기도 광주시 초월읍 대쌍령리 185-1번지 3층","indutype":"보건위생 - 기타대인서비스","category":"beauty"},{"name":"스킨그레이스","tel":"031-1599-9181","addr":"경기도 광주시 초월읍 대쌍령리 185-1번지 2층","indutype":"보건위생 - 피부미용실","category":"beauty"}]},{"lat":"37.38650826","long":"127.2924694","imageIndex":13,"items":[{"name":"머리사랑","tel":"031-767-3442","addr":"경기도 광주시 초월읍 대쌍령리 103-1번지 1층 2호","indutype":"보건위생 - 미용원","category":"beauty"}]},{"lat":"37.38723023","long":"127.288283","imageIndex":13,"items":[{"name":"모아뷰티","tel":"031-762-3701","addr":"경기도 광주시 초월읍 대쌍령리 226-1번지 1층 104호","indutype":"보건위생 - 화장품","category":"beauty"}]},{"lat":"37.38837035","long":"127.2900037","imageIndex":13,"items":[{"name":"뷰티&힐링","tel":"031-766-8645","addr":"경기도 광주시 초월읍 대쌍령리 170-4번지 2층","indutype":"보건위생 - 피부미용실","category":"beauty"},{"name":"퀸뷰티","tel":"","addr":"경기도 광주시 초월읍 대쌍령리 170-4번지 G동 1층","indutype":"보건위생 - 화장품","category":"beauty"},{"name":"휴발관리","tel":"031-762-6696","addr":"경기도 광주시 초월읍 대쌍령리 170-4번지 2층 202호","indutype":"보건위생 - 피부미용실","category":"beauty"}]},{"lat":"37.38620416","long":"127.2878387","imageIndex":13,"items":[{"name":"비다몰","tel":"031-769-7088","addr":"경기도 광주시 초월읍 대쌍령리 199-1번지 1층 104호","indutype":"보건위생 - 미용재료","category":"beauty"},{"name":"비다미아헤어삽","tel":"031-769-7088","addr":"경기도 광주시 초월읍 대쌍령리 199-1번지 104호","indutype":"보건위생 - 미용원","category":"beauty"}]},{"lat":"37.39250427","long":"127.2831987","imageIndex":13,"items":[{"name":"수","tel":"031-767-7675","addr":"경기도 광주시 초월읍 대쌍령리 377-1번지 2층","indutype":"보건위생 - 기타대인서비스","category":"beauty"}]},{"lat":"37.38620208","long":"127.2886968","imageIndex":13,"items":[{"name":"안경마을","tel":"031-762-1216","addr":"경기도 광주시 초월읍 대쌍령리 196-29","indutype":"보건위생 - 안경","category":"beauty"},{"name":"이솔헤어카페","tel":"031-764-8837","addr":"경기도 광주시 초월읍 대쌍령리 196-29번지 1층","indutype":"보건위생 - 미용원","category":"beauty"}]},{"lat":"37.39225082","long":"127.2836946","imageIndex":13,"items":[{"name":"우리아로마","tel":"070-4922-1261","addr":"경기도 광주시 초월읍 대쌍령리 368-1번지","indutype":"보건위생 - 화장품","category":"beauty"}]},{"lat":"37.38425294","long":"127.2899202","imageIndex":13,"items":[{"name":"윤주","tel":"031-764-7747","addr":"경기도 광주시 초월읍 대쌍령리 267-3번지 2층","indutype":"보건위생 - 미용재료","category":"beauty"}]},{"lat":"37.3865888","long":"127.2926956","imageIndex":13,"items":[{"name":"이지(EG)헤어샵(#)","tel":"02-000-0000","addr":"경기도 광주시 초월읍 대쌍령리 103-8번지 1층","indutype":"보건위생 - 미용원","category":"beauty"}]},{"lat":"37.38409016","long":"127.290168","imageIndex":13,"items":[{"name":"지승헤어","tel":"031-798-6711","addr":"경기도 광주시 초월읍 대쌍령리 268-2번지 2층","indutype":"보건위생 - 미용원","category":"beauty"}]},{"lat":"37.38584362","long":"127.2916087","imageIndex":13,"items":[{"name":"한수정헤어필","tel":"031-767-7131","addr":"경기도 광주시 초월읍 대쌍령리 221번지","indutype":"보건위생 - 미용원","category":"beauty"}]},{"lat":"37.3916447","long":"127.28472","imageIndex":13,"items":[{"name":"헤어아트","tel":"031-730-8906","addr":"경기도 광주시 초월읍 대쌍령리 342-6번지 103호","indutype":"보건위생 - 미용원","category":"beauty"}]},{"lat":"37.38672622","long":"127.2880552","imageIndex":13,"items":[{"name":"힐링헤어샵","tel":"031-762-5522","addr":"경기도 광주시 초월읍 대쌍령리 195번지 대쌍빌딩","indutype":"보건위생 - 미용원","category":"beauty"}]},{"lat":"37.39158689","long":"127.2900272","imageIndex":13,"items":[{"name":"KJ볼링장","tel":"031-762-9890","addr":"경기도 광주시 초월읍 대쌍령리 155-1번지","indutype":"레저업소 - 볼 링 장","category":"leisure"}]},{"lat":"37.3916447","long":"127.28472","imageIndex":13,"items":[{"name":"Q노래연습장","tel":"031-766-8779","addr":"경기도 광주시 초월읍 대쌍령리 342-6번지 1층","indutype":"레저업소 - 노 래 방","category":"leisure"}]},{"lat":"37.38378355","long":"127.2902797","imageIndex":13,"items":[{"name":"SG골프 초월점","tel":"031-763-3393","addr":"경기도 광주시 초월읍 대쌍령리 269-3번지","indutype":"레저업소 - 골프연습장","category":"leisure"}]},{"lat":"37.39144672","long":"127.2846176","imageIndex":13,"items":[{"name":"둥이 노래연습장","tel":"031-768-7031","addr":"경기도 광주시 초월읍 대쌍령리 343-6번지","indutype":"레저업소 - 노 래 방","category":"leisure"}]},{"lat":"37.39022906","long":"127.2889154","imageIndex":13,"items":[{"name":"석테니스아카데미","tel":"031-111-1111","addr":"경기도 광주시 초월읍 대쌍령리 151-1번지 태건빌딩 2층","indutype":"레저업소 - 테니스장","category":"leisure"}]},{"lat":"37.38620208","long":"127.2886968","imageIndex":13,"items":[{"name":"아띠 PC cafe","tel":"070-5232-2148","addr":"경기도 광주시 초월읍 대쌍령리 196-29번지 2층","indutype":"레저업소 - 기타레져업소","category":"leisure"},{"name":"예스당구클럽","tel":"031-769-3949","addr":"경기도 광주시 초월읍 대쌍령리 196-29번지 4층","indutype":"레저업소 - 당 구 장","category":"leisure"},{"name":"유화","tel":"031-765-7089","addr":"경기도 광주시 초월읍 대쌍령리 196-29번지 3층","indutype":"레저업소 - 헬스클럽","category":"leisure"}]},{"lat":"37.38711834","long":"127.2935332","imageIndex":13,"items":[{"name":"야노래방","tel":"070-7722-3587","addr":"경기도 광주시 초월읍 대쌍령리 105번지","indutype":"레저업소 - 노 래 방","category":"leisure"},{"name":"헐크당구장","tel":"031-797-0711","addr":"경기도 광주시 초월읍 대쌍령리 105번지 2층","indutype":"레저업소 - 당 구 장","category":"leisure"}]},{"lat":"37.3865093","long":"127.2883367","imageIndex":13,"items":[{"name":"젠틀맨노래연습장","tel":"031-768-7723","addr":"경기도 광주시 초월읍 대쌍령리 196-17번지 3층","indutype":"레저업소 - 노 래 방","category":"leisure"}]},{"lat":"37.38475874","long":"127.289414","imageIndex":13,"items":[{"name":"주식회사 라이즈짐","tel":"031-797-4888","addr":"경기도 광주시 초월읍 대쌍령리 208-28번지 2층","indutype":"레저업소 - 헬스클럽","category":"leisure"}]},{"lat":"37.38411763","long":"127.28625","imageIndex":13,"items":[{"name":"주식회사 언바운드 ( UNBOUND Inc. )","tel":"031-769-2236","addr":"경기도 광주시 초월읍 대쌍령리 297-1번지","indutype":"레저업소 - 기타레져업소","category":"leisure"}]},{"lat":"37.38378267","long":"127.2906411","imageIndex":13,"items":[{"name":"키즈팡팡","tel":"031-761-5505","addr":"경기도 광주시 초월읍 대쌍령리 269번지","indutype":"레저업소 - 기타레져업소","category":"leisure"}]},{"lat":"37.38584362","long":"127.2916087","imageIndex":13,"items":[{"name":"킹당구장","tel":"","addr":"경기도 광주시 초월읍 대쌍령리 221번지 2층 킹당구장","indutype":"레저업소 - 당 구 장","category":"leisure"}]},{"lat":"37.38711425","long":"127.2878083","imageIndex":16,"items":[{"name":"감동학원","tel":"031-797-1503","addr":"경기도 광주시 초월읍 대쌍령리 192번지 4층","indutype":"학원 - 보습학원","category":"study"}]},{"lat":"37.3882572","long":"127.2957282","imageIndex":16,"items":[{"name":"나도체험학습","tel":"031-798-2282","addr":"경기도 광주시 초월읍 대쌍령리 111-9번지 103-2호","indutype":"학원 - 기타 교육기관","category":"study"}]},{"lat":"37.38776035","long":"127.2888947","imageIndex":16,"items":[{"name":"다른영어","tel":"","addr":"경기도 광주시 초월읍 대쌍령리 232-1번지 탑스틸 4층 2호","indutype":"학원 - 기타 교육기관","category":"study"}]},{"lat":"37.38625224","long":"127.2939928","imageIndex":16,"items":[{"name":"수학마당","tel":"","addr":"경기도 광주시 초월읍 대쌍령리 61-1번지 우림푸른마을아파트","indutype":"학원 - 기타 교육기관","category":"study"}]},{"lat":"37.38803522","long":"127.2869987","imageIndex":16,"items":[{"name":"우리보습학원","tel":"02-0000-0000","addr":"경기도 광주시 초월읍 대쌍령리 181-12번지 4층","indutype":"학원 - 보습학원","category":"study"}]},{"lat":"37.38253324","long":"127.2894168","imageIndex":16,"items":[{"name":"한국출산보육협회경기광주초월교육원","tel":"02-000-0000","addr":"경기도 광주시 초월읍 대쌍령리 286-1번지 2층","indutype":"학원 - 기능학원","category":"study"}]},{"lat":"37.38000495","long":"127.272584","imageIndex":16,"items":[{"name":"헬스엔푸드 (HnF)","tel":"031-263-2169","addr":"경기도 광주시 초월읍 대쌍령리 445-58번지","indutype":"학원 - 기타 교육기관","category":"study"}]},{"lat":"37.38584362","long":"127.2916087","imageIndex":7,"items":[{"name":"광주오복떡방앗간","tel":"031-767-6685","addr":"경기도 광주시 초월읍 대쌍령리 221","indutype":"음료식품 - 제과점","category":"food"}]},{"lat":"37.38322498","long":"127.290255","imageIndex":7,"items":[{"name":"농업회사법인 세븐데이 주식회사","tel":"070-4145-0003","addr":"경기도 광주시 초월읍 대쌍령리 271-2번지","indutype":"음료식품 - 미곡상","category":"food"}]},{"lat":"37.38419759","long":"127.2867245","imageIndex":7,"items":[{"name":"미르과일","tel":"","addr":"경기도 광주시 초월읍 대쌍령리 295-4번지 203호","indutype":"음료식품 - 농·축·수산품","category":"food"}]},{"lat":"37.38369689","long":"127.285108","imageIndex":7,"items":[{"name":"빵사가게","tel":"","addr":"경기도 광주시 초월읍 대쌍령리 298-4번지 청우리치빌 B01호","indutype":"음료식품 - 제과점","category":"food"}]},{"lat":"37.38934936","long":"127.294942","imageIndex":7,"items":[{"name":"예신에프아이","tel":"070-7317-1967","addr":"경기도 광주시 초월읍 대쌍령리 124-4번지 신일드림빌아파트","indutype":"음료식품 - 기타음료식품","category":"food"}]},{"lat":"37.38631282","long":"127.2876133","imageIndex":7,"items":[{"name":"월드정육점","tel":"031-766-0682","addr":"경기도 광주시 초월읍 대쌍령리 196-12","indutype":"음료식품 - 정육점","category":"food"}]},{"lat":"37.39138979","long":"127.2820314","imageIndex":7,"items":[{"name":"주식회사휴먼리테일","tel":"031-766-9035","addr":"경기도 광주시 초월읍 대쌍령리 362-1 ,362-7","indutype":"음료식품 - 기타음료식품","category":"food"}]},{"lat":"37.38633713","long":"127.2924462","imageIndex":7,"items":[{"name":"진로마트","tel":"031-763-5048","addr":"경기도 광주시 초월읍 대쌍령리 254번지","indutype":"음료식품 - 정육점","category":"food"}]},{"lat":"37.3860668","long":"127.2924564","imageIndex":7,"items":[{"name":"처가농산","tel":"","addr":"경기도 광주시 초월읍 대쌍령리 61-1번지 우림푸른마을아파트","indutype":"음료식품 - 농·축·수산품","category":"food"}]},{"lat":"37.38620416","long":"127.2878387","imageIndex":7,"items":[{"name":"초월즉석두부","tel":"","addr":"경기도 광주시 초월읍 대쌍령리 199-1번지 1층","indutype":"음료식품 - 기타음료식품","category":"food"}]},{"lat":"37.38878118","long":"127.2951657","imageIndex":7,"items":[{"name":"칠보석푸드","tel":"02-462-6789","addr":"경기도 광주시 초월읍 대쌍령리 111번지 제이하우스 C동 102호","indutype":"음료식품 - 농·축·수산품","category":"food"}]},{"lat":"37.3865888","long":"127.2926956","imageIndex":7,"items":[{"name":"테라","tel":"070-8765-8682","addr":"경기도 광주시 초월읍 대쌍령리 103-8번지 1층","indutype":"음료식품 - 제과점","category":"food"}]},{"lat":"37.39097702","long":"127.2851127","imageIndex":7,"items":[{"name":"한우촌정육도매센터 주식회사","tel":"031-766-5624","addr":"경기도 광주시 초월읍 대쌍령리 346-8번지","indutype":"음료식품 - 정육점","category":"food"}]},{"lat":"37.38672649","long":"127.2879423","imageIndex":7,"items":[{"name":"대웅상회","tel":"031-766-2834","addr":"경기도 광주시 초월읍 대쌍령리 196-16","indutype":"유통업 영리 - 슈퍼마켓","category":"mart"}]},{"lat":"37.3916447","long":"127.28472","imageIndex":7,"items":[{"name":"쏠마트","tel":"031-761-5145","addr":"경기도 광주시 초월읍 대쌍령리 342-6번지 1층 103호","indutype":"유통업 영리 - 슈퍼마켓","category":"mart"}]},{"lat":"37.3841189","long":"127.2857193","imageIndex":7,"items":[{"name":"위마트","tel":"031-761-1792","addr":"경기도 광주시 초월읍 대쌍령리 297-3번지","indutype":"유통업 영리 - 슈퍼마켓","category":"mart"}]},{"lat":"37.38631282","long":"127.2876133","imageIndex":7,"items":[{"name":"초월할인마트","tel":"031-766-8252","addr":"경기도 광주시 초월읍 대쌍령리 196-12번지","indutype":"유통업 영리 - 슈퍼마켓","category":"mart"}]},{"lat":"37.38962065","long":"127.2833686","imageIndex":5,"items":[{"name":"산장모텔","tel":"031-766-3104","addr":"경기도 광주시 초월읍 대쌍령리 352-1번지","indutype":"숙박업 - 여관/기타숙박업","category":"hotel"}]},{"lat":"37.39164004","long":"127.2828906","imageIndex":5,"items":[{"name":"케이호텔","tel":"031-765-5441","addr":"경기도 광주시 초월읍 대쌍령리 366-2번지","indutype":"숙박업 - 여관/기타숙박업","category":"hotel"}]},{"lat":"37.38711425","long":"127.2878083","imageIndex":8,"items":[{"name":"서울하나의원","tel":"031-767-6830","addr":"경기도 광주시 초월읍 대쌍령리 192번지","indutype":"의원 - 의원","category":"medical"}]},{"lat":"37.38672622","long":"127.2880552","imageIndex":8,"items":[{"name":"스마트치과의원","tel":"031-767-5587","addr":"경기도 광주시 초월읍 대쌍령리 195번지 대쌍빌딩 3층","indutype":"의원 - 치과의원","category":"medical"},{"name":"유종길내과의원","tel":"031-765-6700","addr":"경기도 광주시 초월읍 대쌍령리 195번지 대쌍빌딩 2층","indutype":"의원 - 의원","category":"medical"}]},{"lat":"37.38739456","long":"127.2873915","imageIndex":8,"items":[{"name":"이솝동물병원","tel":"031-768-8820","addr":"경기도 광주시 초월읍 대쌍령리 185-1번지","indutype":"기타의료기관 - 동물병원","category":"medical"}]},{"lat":"37.38661783","long":"127.2881677","imageIndex":8,"items":[{"name":"진 한의원","tel":"031-767-9931","addr":"경기도 광주시 초월읍 대쌍령리 196-18번지 2층","indutype":"의원 - 한의원","category":"medical"}]},{"lat":"37.38620208","long":"127.2886968","imageIndex":8,"items":[{"name":"초월치과의원","tel":"031-766-7528","addr":"경기도 광주시 초월읍 대쌍령리 196-29번지","indutype":"의원 - 치과의원","category":"medical"}]},{"lat":"37.38714182","long":"127.2875825","imageIndex":8,"items":[{"name":"한솔약국","tel":"031-766-6822","addr":"경기도 광주시 초월읍 대쌍령리 184-4번지 102호","indutype":"약국 - 약국","category":"medical"}]},{"lat":"37.38651074","long":"127.2987476","imageIndex":9,"items":[{"name":"수암석유","tel":"031-762-0410","addr":"경기도 광주시 초월읍 대쌍령리 1번지","indutype":"연료판매점 - 유류판매","category":"oil"}]}]