[{"lat":"37.241857973","long":"127.58425969","imageIndex":9,"items":[{"name":"가남주유소","tel":"031-884-1941","addr":"경기도 여주시 가남읍 본두리 513-5번지","indutype":"연료판매점 - SK주유소","category":"oil"}]},{"lat":"37.239394405","long":"127.57017631","imageIndex":9,"items":[{"name":"주)고신통상여주주유소","tel":"031-881-6132","addr":"경기도 여주시 가남읍 본두리 677-2번지 여주휴게소","indutype":"연료판매점 - 기타연료","category":"oil"}]},{"lat":"37.237723661","long":"127.58398001","imageIndex":17,"items":[{"name":"경기시스템에어컨","tel":"","addr":"경기도 여주시 가남읍 본두리 446번지","indutype":"용역 서비스 - 기타용역서비스","category":"other"}]},{"lat":"37.240478283","long":"127.59359172","imageIndex":17,"items":[{"name":"씨유여주KCC점","tel":"031-898-6658","addr":"경기도 여주시 가남읍 본두리 1-3번지 금강아파트 상1층","indutype":"유통업 영리 - 편 의 점","category":"other"}]},{"lat":"37.233338439","long":"127.57228326","imageIndex":17,"items":[{"name":"천우 푸드기계","tel":"070-8729-8949","addr":"경기도 여주시 가남읍 본두리 775-6번지","indutype":"주방용구 - 주방용구","category":"other"}]},{"lat":"37.24369385","long":"127.58836489","imageIndex":17,"items":[{"name":"현대타일","tel":"031-886-5245","addr":"경기도 여주시 가남읍 본두리 35-1번지","indutype":"건축자재 - 건축용 요업제품","category":"other"}]},{"lat":"37.239052838","long":"127.57933589","imageIndex":4,"items":[{"name":"고삼묵집","tel":"031-882-6336","addr":"경기도 여주시 가남읍 본두리 614-1번지","indutype":"일반휴게음식 - 일반한식","category":"restaurant"}]},{"lat":"37.239750826","long":"127.58400685","imageIndex":4,"items":[{"name":"그늘집","tel":"031-884-8085","addr":"경기도 여주시 가남읍 본두리 426-2번지","indutype":"일반휴게음식 - 일반한식","category":"restaurant"}]},{"lat":"37.241857973","long":"127.58425969","imageIndex":4,"items":[{"name":"배불뚜기","tel":"031-883-6950","addr":"경기도 여주시 가남읍 본두리 513-5번지","indutype":"일반휴게음식 - 일반한식","category":"restaurant"}]},{"lat":"37.241089068","long":"127.58119966","imageIndex":4,"items":[{"name":"전주본가","tel":"031-881-1575","addr":"경기도 여주시 가남읍 본두리 599-1번지","indutype":"일반휴게음식 - 일반한식","category":"restaurant"}]},{"lat":"37.24158563","long":"127.58283759","imageIndex":4,"items":[{"name":"진명불고기","tel":"031-881-5295","addr":"경기도 여주시 가남읍 본두리 516-2번지","indutype":"일반휴게음식 - 일반한식","category":"restaurant"},{"name":"진명오리촌","tel":"031-881-5295","addr":"경기도 여주시 가남읍 본두리 516-2번지","indutype":"일반휴게음식 - 일반한식","category":"restaurant"}]},{"lat":"37.244056026","long":"127.58800704","imageIndex":4,"items":[{"name":"해우촌","tel":"031-883-8255","addr":"경기도 여주시 가남읍 본두리 35번지 외1필지","indutype":"일반휴게음식 - 일반한식","category":"restaurant"}]},{"lat":"37.244056026","long":"127.58800704","imageIndex":7,"items":[{"name":"금강해우촌","tel":"031-882-8267","addr":"경기도 여주시 가남읍 본두리 35번지","indutype":"음료식품 - 농·축·수산품","category":"food"}]},{"lat":"37.230170217","long":"127.57345387","imageIndex":7,"items":[{"name":"두성상회","tel":"031-882-3776","addr":"경기도 여주시 가남읍 본두리 784-2번지","indutype":"음료식품 - 농·축·수산품","category":"food"}]},{"lat":"37.230033983","long":"127.5736782","imageIndex":7,"items":[{"name":"본두3리경로당","tel":"031-882-3065","addr":"경기도 여주시 가남읍 본두리 811-1번지","indutype":"음료식품 - 기타음료식품","category":"food"}]},{"lat":"37.235559586","long":"127.57506087","imageIndex":7,"items":[{"name":"케이카페엔베이커리","tel":"","addr":"경기도 여주시 가남읍 본두리 713-1번지 1층","indutype":"음료식품 - 제과점","category":"food"}]},{"lat":"37.238222608","long":"127.58144822","imageIndex":16,"items":[{"name":"본석 어린이집[아이행복]","tel":"031-883-2291","addr":"경기도 여주시 가남읍 본두리 413-46번지","indutype":"학원 - 유아원","category":"study"},{"name":"본석어린이집[아이행복]","tel":"031-883-2291","addr":"경기도 여주시 가남읍 본두리 413-46번지","indutype":"학원 - 유아원","category":"study"}]},{"lat":"37.238055052","long":"127.58070316","imageIndex":0,"items":[{"name":"세일공업사","tel":"031-884-8657","addr":"경기도 여주시 가남읍 본두리 618-4번지","indutype":"자동차정비 유지 - 자동차정비","category":"car"}]}]