[{"lat":"37.87069405","long":"127.15600546","imageIndex":16,"items":[{"name":"(주)대진상생교육센터","tel":"031-852-6201","addr":"경기도 포천시 선단동 산11-1번지 대진대학교 305호 산학협력실습관","indutype":"학원 - 기타 교육기관","category":"study"}]},{"lat":"37.856032822","long":"127.15130496","imageIndex":16,"items":[{"name":"동심어린이집","tel":"031-541-8887","addr":"경기도 포천시 선단동 857-1번지","indutype":"학원 - 유아원","category":"study"},{"name":"동심어린이집[아이행복]","tel":"031-541-8887","addr":"경기도 포천시 선단동 857-1번지","indutype":"학원 - 유아원","category":"study"},{"name":"동심유치원[아이행복]","tel":"031-541-8886","addr":"경기도 포천시 선단동 857-1번지","indutype":"학원 - 유치원","category":"study"}]},{"lat":"37.858447256","long":"127.15136661","imageIndex":16,"items":[{"name":"뽀로로어린이집[아이행복]","tel":"031-543-2027","addr":"경기도 포천시 선단동 838-2번지 백두산빌라 101동 103호","indutype":"학원 - 유아원","category":"study"}]},{"lat":"37.859777476","long":"127.1538579","imageIndex":16,"items":[{"name":"사랑나무어린이집[아이행복]","tel":"070-4107-8780","addr":"경기도 포천시 선단동 785-3번지","indutype":"학원 - 유아원","category":"study"}]},{"lat":"37.858974601","long":"127.16150383","imageIndex":16,"items":[{"name":"서일유치원[아이행복]","tel":"031-533-0670","addr":"경기도 포천시 선단동 356-6","indutype":"학원 - 유치원","category":"study"}]},{"lat":"37.853671314","long":"127.1590836","imageIndex":16,"items":[{"name":"선단꿈나무어린이집[아이행복]","tel":"031-544-2552","addr":"경기도 포천시 선단동 629번지","indutype":"학원 - 유아원","category":"study"}]},{"lat":"37.859532937","long":"127.15485739","imageIndex":16,"items":[{"name":"선단왕수학학원","tel":"031-543-1016","addr":"경기도 포천시 선단동 760-7번지","indutype":"학원 - 보습학원","category":"study"},{"name":"선단왕수학학원","tel":"031-543-1016","addr":"경기도 포천시 선단동 760-7번지 2층","indutype":"학원 - 보습학원","category":"study"},{"name":"선단한국태권도장","tel":"031-542-6861","addr":"경기도 포천시 선단동 760-7번지","indutype":"학원 - 예·체능계학원","category":"study"},{"name":"선단한국태권도장","tel":"031-542-6861","addr":"경기도 포천시 선단동 760-7번지","indutype":"학원 - 예·체능계학원","category":"study"}]},{"lat":"37.861586319","long":"127.15544116","imageIndex":16,"items":[{"name":"선단초등학교","tel":"031-542-0439","addr":"경기도 포천시 선단동 765-1번지 선단초등학교","indutype":"학원 - 초중고교육기관","category":"study"},{"name":"선단초등학교병설유치원[아이행복]","tel":"031-542-0438","addr":"경기도 포천시 선단동 765-1번지 선단초등학교","indutype":"학원 - 유치원","category":"study"}]},{"lat":"37.854529585","long":"127.15727874","imageIndex":16,"items":[{"name":"소피아유치원","tel":"031-542-6700","addr":"경기도 포천시 선단동 607번지","indutype":"학원 - 유치원","category":"study"},{"name":"소피아유치원[아이행복]","tel":"031-542-6700","addr":"경기도 포천시 선단동 607번지","indutype":"학원 - 유치원","category":"study"}]},{"lat":"37.850868024","long":"127.16672442","imageIndex":16,"items":[{"name":"아이뜰어린이집[아이행복]","tel":"031-544-5402","addr":"경기도 포천시 선단동 37-1번지","indutype":"학원 - 유아원","category":"study"}]},{"lat":"37.859560493","long":"127.15444836","imageIndex":16,"items":[{"name":"예일음악학원","tel":"031-542-7602","addr":"경기도 포천시 선단동 762-11번지","indutype":"학원 - 예·체능계학원","category":"study"},{"name":"예일음악학원","tel":"541-0202","addr":"경기도 포천시 선단동 762-11번지","indutype":"교육서비스 - 학원","category":"study"},{"name":"예일학원","tel":"031-542-7602","addr":"경기도 포천시 선단동 762-11번지","indutype":"학원 - 보습학원","category":"study"},{"name":"예일학원","tel":"542-7602","addr":"경기도 포천시 선단동 762-11번지","indutype":"교육서비스 - 학원","category":"study"}]},{"lat":"37.851061882","long":"127.16333892","imageIndex":16,"items":[{"name":"천지태권도전문체육관","tel":"031-544-4552","addr":"경기도 포천시 선단동 498-1번지","indutype":"회원제형태 - 학원","category":"study"},{"name":"한올보습음악학원","tel":"031-542-2083","addr":"경기도 포천시 선단동 498-1번지 3층","indutype":"학원 - 예·체능계학원","category":"study"}]},{"lat":"37.850947667","long":"127.16119122","imageIndex":16,"items":[{"name":"쿠킹아트","tel":"031-882-1700","addr":"경기도 포천시 선단동 541번지 월드S클래스 207동 201호","indutype":"학원 - 기타 교육기관","category":"study"}]},{"lat":"37.860192865","long":"127.15310875","imageIndex":16,"items":[{"name":"평안어린이집[아이행복]","tel":"031-536-0079","addr":"경기도 포천시 선단동 784번지","indutype":"학원 - 유아원","category":"study"}]},{"lat":"37.858311485","long":"127.15186633","imageIndex":16,"items":[{"name":"하엘어린이집[아이행복]","tel":"031-8080-0111","addr":"경기도 포천시 선단동 838-2번지 백두산빌라 103동 102호","indutype":"학원 - 유아원","category":"study"}]}]