[{"lat":"37.4240846","long":"127.3774909","imageIndex":4,"items":[{"name":"강원식당","tel":"031-762-5508","addr":"경기도 광주시 퇴촌면 우산리 388-24","indutype":"일반휴게음식 - 일반한식","category":"restaurant"}]},{"lat":"37.43878215","long":"127.3532475","imageIndex":4,"items":[{"name":"개여울찻집","tel":"031-769-1278","addr":"경기도 광주시 퇴촌면 우산리 38-1","indutype":"일반휴게음식 - 칵테일바","category":"restaurant"}]},{"lat":"37.43611521","long":"127.3592688","imageIndex":4,"items":[{"name":"고목","tel":"031-769-4539","addr":"경기도 광주시 퇴촌면 우산리 63-2번지","indutype":"일반휴게음식 - 일반한식","category":"restaurant"}]},{"lat":"37.42636774","long":"127.3705994","imageIndex":4,"items":[{"name":"다향","tel":"031-762-7756","addr":"경기도 광주시 퇴촌면 우산리 372번지","indutype":"일반휴게음식 - 일반한식","category":"restaurant"}]},{"lat":"37.43333216","long":"127.3648598","imageIndex":4,"items":[{"name":"산촌초목","tel":"070-8159-3210","addr":"경기도 광주시 퇴촌면 우산리 235-6번지","indutype":"일반휴게음식 - 일반한식","category":"restaurant"}]},{"lat":"37.4389756","long":"127.354853","imageIndex":4,"items":[{"name":"샤인밸리","tel":"031-762-3371","addr":"경기도 광주시 퇴촌면 우산리 33번지","indutype":"일반휴게음식 - 일반한식","category":"restaurant"}]},{"lat":"37.42736013","long":"127.3701862","imageIndex":4,"items":[{"name":"소나무집","tel":"031-797-0542","addr":"경기도 광주시 퇴촌면 우산리 361번지 2층","indutype":"일반휴게음식 - 일반한식","category":"restaurant"}]},{"lat":"37.43700504","long":"127.3569906","imageIndex":4,"items":[{"name":"숲속에우산정원","tel":"031-769-3360","addr":"경기도 광주시 퇴촌면 우산리 57-4","indutype":"일반휴게음식 - 일반한식","category":"restaurant"}]},{"lat":"37.43133233","long":"127.3676635","imageIndex":4,"items":[{"name":"신토불이","tel":"031-762-9649","addr":"경기도 광주시 퇴촌면 우산리 331번지","indutype":"일반휴게음식 - 일반한식","category":"restaurant"}]},{"lat":"37.4355304","long":"127.3559893","imageIndex":4,"items":[{"name":"온누리식당","tel":"031-765-1562","addr":"경기도 광주시 퇴촌면 우산리 50번지 나동 1층","indutype":"일반휴게음식 - 일반한식","category":"restaurant"}]},{"lat":"37.4304734","long":"127.368631","imageIndex":4,"items":[{"name":"천진암가는길","tel":"031-769-0229","addr":"경기도 광주시 퇴촌면 우산리 333-4번지","indutype":"일반휴게음식 - 서양음식","category":"restaurant"}]},{"lat":"37.43433453","long":"127.3611586","imageIndex":4,"items":[{"name":"천진암돌쇠","tel":"031-764-0988","addr":"경기도 광주시 퇴촌면 우산리 271번지 1층","indutype":"일반휴게음식 - 일반한식","category":"restaurant"}]},{"lat":"37.43886565","long":"127.3524344","imageIndex":4,"items":[{"name":"토마토하우스","tel":"031-797-3236","addr":"경기도 광주시 퇴촌면 우산리 645번지","indutype":"일반휴게음식 - 일반한식","category":"restaurant"}]},{"lat":"37.43178234","long":"127.3678238","imageIndex":4,"items":[{"name":"한덕수순두부","tel":"031-762-3309","addr":"경기도 광주시 퇴촌면 우산리 205-5번지","indutype":"일반휴게음식 - 일반한식","category":"restaurant"}]},{"lat":"37.43735984","long":"127.355851","imageIndex":4,"items":[{"name":"해독건강밥상 산이내린 곤드레꽃밥","tel":"031-767-5550","addr":"경기도 광주시 퇴촌면 우산리 46-2번지 1층","indutype":"일반휴게음식 - 일반한식","category":"restaurant"}]},{"lat":"37.43191961","long":"127.3671353","imageIndex":4,"items":[{"name":"해오름","tel":"","addr":"경기도 광주시 퇴촌면 우산리 204-1번지","indutype":"일반휴게음식 - 일반한식","category":"restaurant"}]}]