[{"lat":"37.251969723","long":"127.21017833","imageIndex":4,"items":[{"name":"(주)포시즌","tel":"031-338-5292","addr":"경기도 용인시 처인구 유방동 107번지","indutype":"일반휴게음식 - 일반한식","category":"restaurant"},{"name":"(주)포시즌","tel":"031-321-4588","addr":"경기도 용인시 처인구 유방동 107번지","indutype":"일반휴게음식 - 중국식","category":"restaurant"},{"name":"은행골","tel":"031-2-3069","addr":"경기도 용인시 처인구 유방동 107번지","indutype":"일반휴게음식 - 일반한식","category":"restaurant"}]},{"lat":"37.264601799","long":"127.21545511","imageIndex":4,"items":[{"name":"고가네분식","tel":"031-338-3988","addr":"경기도 용인시 처인구 유방동 1007-20인정레포츠센타1층121,122호","indutype":"일반휴게음식 - 스넥","category":"restaurant"},{"name":"늘푸른생고기집","tel":"031-000-0000","addr":"경기도 용인시 처인구 유방동 1007-20번지 인정레포츠센타 118호","indutype":"일반휴게음식 - 일반한식","category":"restaurant"},{"name":"딩글(둔전점)","tel":"","addr":"경기도 용인시 처인구 유방동 1007-20번지 인정레포츠센타 2층 212호","indutype":"일반휴게음식 - 서양음식","category":"restaurant"},{"name":"또와숯오리숯불갈비","tel":"031-336-0677","addr":"경기도 용인시 처인구 유방동 1007-20번지 인정레포츠센터 123호","indutype":"일반휴게음식 - 일반한식","category":"restaurant"},{"name":"맥코리아호프통닭","tel":"031-336-4322","addr":"경기도 용인시 처인구 유방동 1007-20번지 인정레포츠상가 202호","indutype":"일반휴게음식 - 일반한식","category":"restaurant"},{"name":"인정매점","tel":"031-332-0022","addr":"경기도 용인시 처인구 유방동 1007-20번지 인정레포츠센타 501호","indutype":"일반휴게음식 - 서양음식","category":"restaurant"},{"name":"인정식당","tel":"031-336-9971","addr":"경기도 용인시 처인구 유방동 1007-20번지 인정 상가 215호","indutype":"일반휴게음식 - 스넥","category":"restaurant"},{"name":"카파커피","tel":"031-321-7970","addr":"경기도 용인시 처인구 유방동 1007-20번지 인정레포츠센터 123호","indutype":"일반휴게음식 - 서양음식","category":"restaurant"},{"name":"투다리","tel":"","addr":"경기도 용인시 처인구 유방동 1007-20번지 인정레포츠센타 203호","indutype":"일반휴게음식 - 일반한식","category":"restaurant"},{"name":"페리카나 둔전점","tel":"031-336-9258","addr":"경기도 용인시 처인구 유방동 1007-20번지 인정레포츠센터 117호","indutype":"일반휴게음식 - 스넥","category":"restaurant"}]},{"lat":"37.25988348","long":"127.21373966","imageIndex":4,"items":[{"name":"고향의맛","tel":"031-338-8343","addr":"경기도 용인시 처인구 유방동 306-8번지","indutype":"일반휴게음식 - 일반한식","category":"restaurant"}]},{"lat":"37.259217063","long":"127.21354617","imageIndex":4,"items":[{"name":"고향정육점식당","tel":"031-335-2828","addr":"경기도 용인시 처인구 유방동 307-9번지 우미빌딩","indutype":"일반휴게음식 - 일반한식","category":"restaurant"},{"name":"또봉이유림점","tel":"031-336-5727","addr":"경기도 용인시 처인구 유방동 307-9번지 우미빌딩 1층","indutype":"일반휴게음식 - 스넥","category":"restaurant"},{"name":"선영이네맛집","tel":"031-333-4653","addr":"경기도 용인시 처인구 유방동 307-9번지 우미빌딩","indutype":"일반휴게음식 - 일반한식","category":"restaurant"}]},{"lat":"37.260405391","long":"127.2141244","imageIndex":4,"items":[{"name":"골목길","tel":"031-338-4738","addr":"경기도 용인시 처인구 유방동 248-5번지","indutype":"일반휴게음식 - 일반한식","category":"restaurant"},{"name":"맛다린식당","tel":"031-335-9866","addr":"경기도 용인시 처인구 유방동 248-5번지 헤몬교회 1층 4호","indutype":"일반휴게음식 - 일반한식","category":"restaurant"}]},{"lat":"37.253185056","long":"127.21585136","imageIndex":4,"items":[{"name":"구좌리얼크니손칼국수","tel":"031-321-6882","addr":"경기도 용인시 처인구 유방동 393-2번지","indutype":"일반휴게음식 - 일반한식","category":"restaurant"},{"name":"먹자토종순대국","tel":"031-338-0677","addr":"경기도 용인시 처인구 유방동 393-2번지","indutype":"일반휴게음식 - 일반한식","category":"restaurant"},{"name":"코다리밥상","tel":"031-335-1288","addr":"경기도 용인시 처인구 유방동 393-2번지","indutype":"일반휴게음식 - 일반한식","category":"restaurant"}]},{"lat":"37.263273186","long":"127.19127017","imageIndex":4,"items":[{"name":"기분좋은식탁","tel":"070-7500-5757","addr":"경기도 용인시 처인구 유방동 759번지 2층","indutype":"일반휴게음식 - 서양음식","category":"restaurant"},{"name":"더컨테이너카페","tel":"070-7500-5757","addr":"경기도 용인시 처인구 유방동 759번지 1층","indutype":"일반휴게음식 - 서양음식","category":"restaurant"}]},{"lat":"37.257857698","long":"127.21287731","imageIndex":4,"items":[{"name":"김밥나라","tel":"031-336-0172","addr":"경기도 용인시 처인구 유방동 328-2번지 비앤비프라자 105호","indutype":"일반휴게음식 - 일반한식","category":"restaurant"},{"name":"데일리루시2호점","tel":"031-338-8844","addr":"경기도 용인시 처인구 유방동 328-2번지 유림해피랜드 110호","indutype":"일반휴게음식 - 서양음식","category":"restaurant"},{"name":"명동주점","tel":"031-000-0000","addr":"경기도 용인시 처인구 유방동 328-2번지 비앤비프라자 115호","indutype":"일반휴게음식 - 주점","category":"restaurant"},{"name":"송정각","tel":"031-336-6366","addr":"경기도 용인시 처인구 유방동 328-2번지 비앤비프라자 109호","indutype":"일반휴게음식 - 중국식","category":"restaurant"},{"name":"예은이네부대찌개","tel":"031-336-7324","addr":"경기도 용인시 처인구 유방동 328-2번지 유림해피랜드 1층 113호","indutype":"일반휴게음식 - 일반한식","category":"restaurant"},{"name":"오늘은 막창","tel":"","addr":"경기도 용인시 처인구 유방동 328-2번지 유림해피랜드 1층 118호","indutype":"일반휴게음식 - 일반한식","category":"restaurant"},{"name":"이북식평양만두집","tel":"031-335-5669","addr":"경기도 용인시 처인구 유방동 328-2번지 B&B프라자 117호","indutype":"일반휴게음식 - 일반한식","category":"restaurant"},{"name":"인생극장","tel":"031-332-2929","addr":"경기도 용인시 처인구 유방동 328-2번지 외5필지 비앤비프라자 1층 117호","indutype":"일반휴게음식 - 일반한식","category":"restaurant"},{"name":"풍성식당","tel":"070-7018-5392","addr":"경기도 용인시 처인구 유방동 328-2번지 비앤비프라자 104호","indutype":"일반휴게음식 - 일반한식","category":"restaurant"}]},{"lat":"37.260127699","long":"127.21321052","imageIndex":4,"items":[{"name":"꿀꿀이뒷고기","tel":"031-321-7367","addr":"경기도 용인시 처인구 유방동 245-1번지 설화빌라 104호","indutype":"일반휴게음식 - 일반한식","category":"restaurant"},{"name":"비에이치씨(BHC)유림점","tel":"","addr":"경기도 용인시 처인구 유방동 245-1번지 설화빌라 101호","indutype":"일반휴게음식 - 스넥","category":"restaurant"}]},{"lat":"37.261571705","long":"127.19595552","imageIndex":4,"items":[{"name":"내린천민물매운탕","tel":"031-338-1088","addr":"경기도 용인시 처인구 유방동 641번지 1층","indutype":"일반휴게음식 - 일반한식","category":"restaurant"}]},{"lat":"37.260907546","long":"127.19435306","imageIndex":4,"items":[{"name":"다유산방","tel":"","addr":"경기도 용인시 처인구 유방동 786-1번지 1층","indutype":"일반휴게음식 - 서양음식","category":"restaurant"}]},{"lat":"37.258910133","long":"127.21387222","imageIndex":4,"items":[{"name":"대구뽈찜","tel":"031-321-5439","addr":"경기도 용인시 처인구 유방동 312-3번지","indutype":"일반휴게음식 - 일반한식","category":"restaurant"},{"name":"배달삼겹갈통삼유림점","tel":"031-339-4304","addr":"경기도 용인시 처인구 유방동 312-3번지 한솔지물포 1층 101호","indutype":"일반휴게음식 - 일반한식","category":"restaurant"}]},{"lat":"37.259129879","long":"127.2014278","imageIndex":4,"items":[{"name":"대덕식당","tel":"031-333-1668","addr":"경기도 용인시 처인구 유방동 85-16번지 103호","indutype":"일반휴게음식 - 일반한식","category":"restaurant"}]},{"lat":"37.258937906","long":"127.21345521","imageIndex":4,"items":[{"name":"대포항수산","tel":"031-334-9207","addr":"경기도 용인시 처인구 유방동 311-1번지 미래센스빌","indutype":"일반휴게음식 - 일식·회집","category":"restaurant"},{"name":"두리아숯불바베큐","tel":"031-321-5950","addr":"경기도 용인시 처인구 유방동 311-1번지 미래센스빌 101,102호","indutype":"일반휴게음식 - 스넥","category":"restaurant"},{"name":"유림동역","tel":"","addr":"경기도 용인시 처인구 유방동 311-1번지 미래센스빌 1층 103호","indutype":"일반휴게음식 - 주점","category":"restaurant"},{"name":"잠시쉬어가는그곳","tel":"031-321-9423","addr":"경기도 용인시 처인구 유방동 311-1번지 미래센스빌 104호","indutype":"일반휴게음식 - 일식·회집","category":"restaurant"}]},{"lat":"37.268491601","long":"127.19034742","imageIndex":4,"items":[{"name":"더카페제이콥(The Cafe Jacob)","tel":"000-0000-0000","addr":"경기도 용인시 처인구 유방동 688-40번지","indutype":"일반휴게음식 - 서양음식","category":"restaurant"}]},{"lat":"37.258937505","long":"127.21368066","imageIndex":4,"items":[{"name":"돼지짜글이","tel":"031-323-5459","addr":"경기도 용인시 처인구 유방동 311-8번지 미래센스빌 102호","indutype":"일반휴게음식 - 일반한식","category":"restaurant"}]},{"lat":"37.258353261","long":"127.21287868","imageIndex":4,"items":[{"name":"럭키분식","tel":"031-321-0585","addr":"경기도 용인시 처인구 유방동 310-8번지","indutype":"일반휴게음식 - 스넥","category":"restaurant"}]},{"lat":"37.259938544","long":"127.21317618","imageIndex":4,"items":[{"name":"민속부치미","tel":"031-333-0159","addr":"경기도 용인시 처인구 유방동 308-1번지","indutype":"일반휴게음식 - 스넥","category":"restaurant"},{"name":"별밤","tel":"031-328-5995","addr":"경기도 용인시 처인구 유방동 308-1번지","indutype":"일반휴게음식 - 스넥","category":"restaurant"},{"name":"스시현","tel":"031-663-0447","addr":"경기도 용인시 처인구 유방동 308-1번지 한일빌딩 1층 101호","indutype":"일반휴게음식 - 일식·회집","category":"restaurant"},{"name":"아리랑호프","tel":"031-339-1369","addr":"경기도 용인시 처인구 유방동 308-1번지 외1필지 1층","indutype":"일반휴게음식 - 일반한식","category":"restaurant"}]},{"lat":"37.254161714","long":"127.21387025","imageIndex":4,"items":[{"name":"밀토랑바지락칼국수","tel":"031-332-4363","addr":"경기도 용인시 처인구 유방동 468-15번지 1층","indutype":"일반휴게음식 - 일반한식","category":"restaurant"},{"name":"원조양평해장국 용인점","tel":"031-336-6647","addr":"경기도 용인시 처인구 유방동 468-15번지 1층 일부","indutype":"일반휴게음식 - 일반한식","category":"restaurant"}]},{"lat":"37.258075181","long":"127.21217902","imageIndex":4,"items":[{"name":"백지카페","tel":"031-338-7623","addr":"경기도 용인시 처인구 유방동 346-3번지 B-2호","indutype":"일반휴게음식 - 주점","category":"restaurant"},{"name":"이지","tel":"031-335-8604","addr":"경기도 용인시 처인구 유방동 346-3번지","indutype":"일반휴게음식 - 스넥","category":"restaurant"},{"name":"토박이감자탕","tel":"031-321-3326","addr":"경기도 용인시 처인구 유방동 346-3번지","indutype":"일반휴게음식 - 일반한식","category":"restaurant"}]},{"lat":"37.246740381","long":"127.20692927","imageIndex":4,"items":[{"name":"본가장수촌","tel":"031-321-0200","addr":"경기도 용인시 처인구 유방동 550-1번지 1층","indutype":"일반휴게음식 - 일반한식","category":"restaurant"}]},{"lat":"37.258740662","long":"127.2129023","imageIndex":4,"items":[{"name":"봉이치킨","tel":"031-322-9289","addr":"경기도 용인시 처인구 유방동 310-10번지","indutype":"일반휴게음식 - 스넥","category":"restaurant"}]},{"lat":"37.245576889","long":"127.20760238","imageIndex":4,"items":[{"name":"산들사랑","tel":"031-323-1717","addr":"경기도 용인시 처인구 유방동 548-3번지","indutype":"일반휴게음식 - 일반한식","category":"restaurant"}]},{"lat":"37.263133314","long":"127.19421214","imageIndex":4,"items":[{"name":"소금","tel":"031-337-3303","addr":"경기도 용인시 처인구 유방동 740-3번지 1층","indutype":"일반휴게음식 - 일반한식","category":"restaurant"}]},{"lat":"37.262075076","long":"127.17940787","imageIndex":4,"items":[{"name":"소나무골","tel":"031-339-7890","addr":"경기도 용인시 처인구 유방동 954번지","indutype":"일반휴게음식 - 일반한식","category":"restaurant"}]},{"lat":"37.242939841","long":"127.21106649","imageIndex":4,"items":[{"name":"송가네해장국","tel":"031-333-6004","addr":"경기도 용인시 처인구 유방동 536-7번지 지하1층","indutype":"일반휴게음식 - 일반한식","category":"restaurant"}]},{"lat":"37.259524213","long":"127.21309612","imageIndex":4,"items":[{"name":"수누리(유림정)","tel":"031-337-3010","addr":"경기도 용인시 처인구 유방동 308-2번지","indutype":"일반휴게음식 - 일반한식","category":"restaurant"}]},{"lat":"37.247164543","long":"127.21170928","imageIndex":4,"items":[{"name":"숙아채콩나물국밥","tel":"031-322-9900","addr":"경기도 용인시 처인구 유방동 509-1번지","indutype":"일반휴게음식 - 일반한식","category":"restaurant"}]},{"lat":"37.266487185","long":"127.18724216","imageIndex":4,"items":[{"name":"신토불이용인점","tel":"031-321-5252","addr":"경기도 용인시 처인구 유방동 935번지","indutype":"일반휴게음식 - 일반한식","category":"restaurant"}]},{"lat":"37.259741737","long":"127.21237526","imageIndex":4,"items":[{"name":"어부가활어직판장","tel":"031-336-7500","addr":"경기도 용인시 처인구 유방동 342-5번지 1층","indutype":"일반휴게음식 - 일식·회집","category":"restaurant"}]},{"lat":"37.253324844","long":"127.21325924","imageIndex":4,"items":[{"name":"영카페","tel":"031-338-0101","addr":"경기도 용인시 처인구 유방동 468-17번지 2층","indutype":"일반휴게음식 - 일반한식","category":"restaurant"}]},{"lat":"37.252912349","long":"127.21718066","imageIndex":4,"items":[{"name":"예던쭈꾸미","tel":"031-321-2722","addr":"경기도 용인시 처인구 유방동 390-1번지 외 1필지","indutype":"일반휴게음식 - 일반한식","category":"restaurant"},{"name":"우리집도시락","tel":"031-321-7535","addr":"경기도 용인시 처인구 유방동 390-1번지 외1필지","indutype":"일반휴게음식 - 일반한식","category":"restaurant"}]},{"lat":"37.245467961","long":"127.21320359","imageIndex":4,"items":[{"name":"이디야용인고진역점","tel":"070-7705-8688","addr":"경기도 용인시 처인구 유방동 519-1번지 2층 일부","indutype":"일반휴게음식 - 서양음식","category":"restaurant"},{"name":"페이지웨딩&파티/주식회사 청학","tel":"02-2647-9611","addr":"경기도 용인시 처인구 유방동 519-1번지","indutype":"일반휴게음식 - 일반한식","category":"restaurant"}]},{"lat":"37.259938043","long":"127.213458","imageIndex":4,"items":[{"name":"이삭떡볶이","tel":"031-332-0349","addr":"경기도 용인시 처인구 유방동 307-1번지","indutype":"일반휴게음식 - 스넥","category":"restaurant"}]},{"lat":"37.258774336","long":"127.21423257","imageIndex":4,"items":[{"name":"전설의곱창 주희네점","tel":"031-328-7527","addr":"경기도 용인시 처인구 유방동 313-1번지 리치하임 101동 101호","indutype":"일반휴게음식 - 일반한식","category":"restaurant"}]},{"lat":"37.257822835","long":"127.21221214","imageIndex":4,"items":[{"name":"주인이예쁜집","tel":"031-111-1111","addr":"경기도 용인시 처인구 유방동 346-4번지","indutype":"일반휴게음식 - 주점","category":"restaurant"}]},{"lat":"37.258766651","long":"127.21348855","imageIndex":4,"items":[{"name":"참새방앗간","tel":"031-335-0667","addr":"경기도 용인시 처인구 유방동 311-10미래센스빌101.102","indutype":"일반휴게음식 - 일반한식","category":"restaurant"}]},{"lat":"37.260190289","long":"127.21348124","imageIndex":4,"items":[{"name":"최고봉(유림점)","tel":"031-334-5812","addr":"경기도 용인시 처인구 유방동 246-8번지","indutype":"일반휴게음식 - 일반한식","category":"restaurant"}]},{"lat":"37.260243206","long":"127.21412394","imageIndex":4,"items":[{"name":"치킨플러스유림점","tel":"031-335-7595","addr":"경기도 용인시 처인구 유방동 248-6번지 1층","indutype":"일반휴게음식 - 일반한식","category":"restaurant"}]},{"lat":"37.261522495","long":"127.19295676","imageIndex":4,"items":[{"name":"카페(CAFE)1984","tel":"","addr":"경기도 용인시 처인구 유방동 776-2번지","indutype":"일반휴게음식 - 서양음식","category":"restaurant"}]},{"lat":"37.258938887","long":"127.21290285","imageIndex":4,"items":[{"name":"카페아띠코(CAFFE'ATTICO)","tel":"031-338-5991","addr":"경기도 용인시 처인구 유방동 310-5번지","indutype":"일반휴게음식 - 서양음식","category":"restaurant"}]},{"lat":"37.261132135","long":"127.18912297","imageIndex":4,"items":[{"name":"콤마","tel":"031-526-2208","addr":"경기도 용인시 처인구 유방동 875-6번지 1층","indutype":"일반휴게음식 - 서양음식","category":"restaurant"}]},{"lat":"37.260135485","long":"127.21389819","imageIndex":4,"items":[{"name":"팔도감자탕","tel":"031-336-5220","addr":"경기도 용인시 처인구 유방동 246-3번지 1층","indutype":"일반휴게음식 - 일반한식","category":"restaurant"}]},{"lat":"37.260848869","long":"127.18587567","imageIndex":4,"items":[{"name":"팔오이카페크레페(852cafe crepe)","tel":"070-7746-8522","addr":"경기도 용인시 처인구 유방동 852-2번지","indutype":"일반휴게음식 - 일반한식","category":"restaurant"}]},{"lat":"37.258273407","long":"127.21217956","imageIndex":4,"items":[{"name":"펀비어킹(용인 유림점)","tel":"031-335-8358","addr":"경기도 용인시 처인구 유방동 346번지 고려타워 101호","indutype":"일반휴게음식 - 주점","category":"restaurant"}]},{"lat":"37.25855813","long":"127.21420942","imageIndex":4,"items":[{"name":"피자나라치킨공주","tel":"031-336-9225","addr":"경기도 용인시 처인구 유방동 313-2번지 영빈파크빌라 가동 103호","indutype":"일반휴게음식 - 서양음식","category":"restaurant"}]},{"lat":"37.259189591","long":"127.21379409","imageIndex":4,"items":[{"name":"호롱불닭발","tel":"031-336-9291","addr":"경기도 용인시 처인구 유방동 306-5","indutype":"일반휴게음식 - 스넥","category":"restaurant"}]},{"lat":"37.244324238","long":"127.21287357","imageIndex":4,"items":[{"name":"힘찬남자장어","tel":"031-333-5841","addr":"경기도 용인시 처인구 유방동 529-28번지 1층","indutype":"일반휴게음식 - 일반한식","category":"restaurant"}]}]