[{"lat":"37.308273506","long":"127.6399404","imageIndex":13,"items":[{"name":"(루나헤어) LUNA HAIR","tel":"031-885-8058","addr":"경기도 여주시 현암동 179-7번지 112호","indutype":"보건위생 - 미용원","category":"beauty"},{"name":"샵투모로우(# Tomor row)","tel":"","addr":"경기도 여주시 현암동 179-7번지 1층 111호","indutype":"보건위생 - 피부미용실","category":"beauty"}]},{"lat":"37.312886178","long":"127.63835492","imageIndex":13,"items":[{"name":"24시간 온열해독","tel":"031-884-5860","addr":"경기도 여주시 현암동 164-22번지 라이프타운 101동 202호","indutype":"보건위생 - 의료용품","category":"beauty"},{"name":"Lovely헤어","tel":"031-884-3848","addr":"경기도 여주시 현암동 164-22번지 라이프타운 101동 101호","indutype":"보건위생 - 미용원","category":"beauty"},{"name":"탐헤어","tel":"031-884-3848","addr":"경기도 여주시 현암동 164-22번지 라이프타운 1층","indutype":"보건위생 - 미용원","category":"beauty"}]},{"lat":"37.307831862","long":"127.64163992","imageIndex":13,"items":[{"name":"The공감&모모래쉬 Hair","tel":"031-123-4567","addr":"경기도 여주시 현암동 190-6번지 201호","indutype":"보건위생 - 미용원","category":"beauty"},{"name":"피오나손톱방","tel":"031-881-0988","addr":"경기도 여주시 현암동 190-6번지 105호","indutype":"보건위생 - 피부미용실","category":"beauty"}]},{"lat":"37.313051966","long":"127.63936029","imageIndex":13,"items":[{"name":"까끄리뽀끄리","tel":"031-881-3230","addr":"경기도 여주시 현암동 684번지 e편한세상 여주","indutype":"보건위생 - 미용원","category":"beauty"},{"name":"아모레 카운셀러","tel":"031-882-1176","addr":"경기도 여주시 현암동 684번지 e편한세상 여주 102동 402호","indutype":"보건위생 - 화장품","category":"beauty"},{"name":"올가뷰티","tel":"031-634-3722","addr":"경기도 여주시 현암동 684번지 e편한세상 여주 105호","indutype":"보건위생 - 피부미용실","category":"beauty"},{"name":"탑스탈코스메틱","tel":"","addr":"경기도 여주시 현암동 684번지 e편한세상 여주 103동 405호","indutype":"보건위생 - 화장품","category":"beauty"}]},{"lat":"37.311409321","long":"127.63652636","imageIndex":13,"items":[{"name":"꽃님이네일","tel":"031-881-0327","addr":"경기도 여주시 현암동 301-15번지","indutype":"보건위생 - 피부미용실","category":"beauty"}]},{"lat":"37.307052135","long":"127.63919692","imageIndex":13,"items":[{"name":"네일&뷰티","tel":"","addr":"경기도 여주시 현암동 187-28번지 2층","indutype":"보건위생 - 피부미용실","category":"beauty"}]},{"lat":"37.312161976","long":"127.63224612","imageIndex":13,"items":[{"name":"도담도담산후도우미(여주이천점)","tel":"","addr":"경기도 여주시 현암동 668-6번지 2층 222호","indutype":"보건위생 - 기타대인서비스","category":"beauty"},{"name":"셀트리온스킨큐어여주지원","tel":"","addr":"경기도 여주시 현암동 668-6번지 2층 206호","indutype":"보건위생 - 화장품","category":"beauty"}]},{"lat":"37.309187427","long":"127.63921491","imageIndex":13,"items":[{"name":"모아미용실","tel":"031-886-3688","addr":"경기도 여주시 현암동 177-21번지 삼진 상가 14호","indutype":"보건위생 - 미용원","category":"beauty"}]},{"lat":"37.307297429","long":"127.64216554","imageIndex":13,"items":[{"name":"봄뷰티헤어샵","tel":"031-885-7753","addr":"경기도 여주시 현암동 192-11번지","indutype":"보건위생 - 미용원","category":"beauty"}]},{"lat":"37.322657973","long":"127.63744438","imageIndex":13,"items":[{"name":"산신암","tel":"031-885-4608","addr":"경기도 여주시 현암동 398번지","indutype":"보건위생 - 기타대인서비스","category":"beauty"}]},{"lat":"37.31105403","long":"127.64060683","imageIndex":13,"items":[{"name":"슈브","tel":"031-882-0309","addr":"경기도 여주시 현암동 152-7번지 103호","indutype":"보건위생 - 미용원","category":"beauty"}]},{"lat":"37.306830562","long":"127.64018766","imageIndex":13,"items":[{"name":"안경매니져","tel":"031-885-1001","addr":"경기도 여주시 현암동 193-18번지","indutype":"보건위생 - 안경","category":"beauty"}]},{"lat":"37.309162183","long":"127.64055702","imageIndex":13,"items":[{"name":"예리한네일","tel":"","addr":"경기도 여주시 현암동 191-59번지 1층","indutype":"보건위생 - 피부미용실","category":"beauty"}]},{"lat":"37.30771638","long":"127.64133439","imageIndex":13,"items":[{"name":"예쁘다 헤어샵","tel":"031-885-8388","addr":"경기도 여주시 현암동 189-16번지 1층 101호","indutype":"보건위생 - 미용원","category":"beauty"}]},{"lat":"37.30894072","long":"127.64152522","imageIndex":13,"items":[{"name":"예인헤어샵","tel":"031-886-5402","addr":"경기도 여주시 현암동 191-20번지","indutype":"보건위생 - 미용원","category":"beauty"}]},{"lat":"37.308045597","long":"127.6421042","imageIndex":13,"items":[{"name":"은헤어아트","tel":"031-885-1259","addr":"경기도 여주시 현암동 191-32번지","indutype":"보건위생 - 미용원","category":"beauty"}]},{"lat":"37.308358071","long":"127.642637","imageIndex":13,"items":[{"name":"컬러하우스","tel":"031-885-0072","addr":"경기도 여주시 현암동 191-12번지","indutype":"보건위생 - 미용원","category":"beauty"}]},{"lat":"37.308246672","long":"127.64157575","imageIndex":13,"items":[{"name":"한미머리방","tel":"031-886-5128","addr":"경기도 여주시 현암동 190-3번지","indutype":"보건위생 - 미용원","category":"beauty"}]},{"lat":"37.306795556","long":"127.63999561","imageIndex":13,"items":[{"name":"헤어코밍","tel":"031-884-3567","addr":"경기도 여주시 현암동 187-13번지","indutype":"보건위생 - 미용원","category":"beauty"}]}]