[{"lat":"37.368667781","long":"126.81032457","imageIndex":4,"items":[{"name":"BHC 능곡점","tel":"031-435-9992","addr":"경기도 시흥시 능곡동 745번지","indutype":"음식점업 - 일반음식점","category":"restaurant"},{"name":"마라천향","tel":"031-842-6001","addr":"경기도 시흥시 능곡동 745번지 한일프라자 201호","indutype":"음식점업 - 중식","category":"restaurant"},{"name":"스완커피","tel":"031-318-7823","addr":"경기도 시흥시 능곡동 745번지 한일프라자 102호","indutype":"음식점업 - 커피,음료,디저트","category":"restaurant"},{"name":"신떡능곡점","tel":"031-317-8998","addr":"경기도 시흥시 능곡동 745번지 한일프라자 103호","indutype":"음식점업 - 음식","category":"restaurant"},{"name":"커피에반하다","tel":"070-8810-4164","addr":"경기도 시흥시 능곡동 745번지 한일프라자 106호","indutype":"음식점업 - 커피숍","category":"restaurant"},{"name":"피자스쿨시흥능곡점","tel":"031-404-5444","addr":"경기도 시흥시 능곡동 745번지 한일프라자 1층","indutype":"음식점업 - 피자전문점","category":"restaurant"}]},{"lat":"37.368607363","long":"126.81196163","imageIndex":4,"items":[{"name":"갈비야","tel":"031-317-9289","addr":"경기도 시흥시 능곡동 748번지","indutype":"음식점업 - 일반음식점,갈비 외","category":"restaurant"},{"name":"봉구비어","tel":"","addr":"경기도 시흥시 능곡동 748번지","indutype":"음식점업 - 일반음식점","category":"restaurant"},{"name":"제메이양꼬치","tel":"031-404-5678","addr":"경기도 시흥시 능곡동 748번지","indutype":"음식점업 - 기타음식점","category":"restaurant"},{"name":"착한곱","tel":"","addr":"경기도 시흥시 능곡동 748번지 영프라자 106호","indutype":"음식점업 - 한식","category":"restaurant"}]},{"lat":"37.36797622","long":"126.8116923","imageIndex":4,"items":[{"name":"감탄 능곡점","tel":"031-435-4356","addr":"경기도 시흥시 능곡동 756번지 미래도프라자 102호","indutype":"음식점업 - 분식","category":"restaurant"},{"name":"명량핫도그","tel":"031-317-2794","addr":"경기도 시흥시 능곡동 756번지 미래도프라자 101호","indutype":"음식점업 - 휴게음식점","category":"restaurant"}]},{"lat":"37.362441871","long":"126.81599582","imageIndex":4,"items":[{"name":"강릉교동짬뽕","tel":"","addr":"경기도 시흥시 능곡동 831번지 103호","indutype":"음식점업 - 한식","category":"restaurant"}]},{"lat":"37.369003771","long":"126.81193805","imageIndex":4,"items":[{"name":"개경순대국","tel":"031-318-7545","addr":"경기도 시흥시 능곡동 737번지 동도프라자 102호","indutype":"음식점업 - 한식","category":"restaurant"},{"name":"소왔쏘","tel":"031-314-9282","addr":"경기도 시흥시 능곡동 737번지 1층 114~6호","indutype":"음식점업 - 한식","category":"restaurant"},{"name":"엘에이(LA)북창동순두부 시흥능곡점","tel":"031-318-6606","addr":"경기도 시흥시 능곡동 737번지 109,110호","indutype":"음식점업 - 한식","category":"restaurant"},{"name":"은경이네닭발앤치킨","tel":"031-312-0092","addr":"경기도 시흥시 능곡동 737번지 108호","indutype":"음식점업 - 기타음식","category":"restaurant"},{"name":"한솥도시락능곡점","tel":"031-313-8585","addr":"경기도 시흥시 능곡동 737번지","indutype":"음식점업 - 한식","category":"restaurant"}]},{"lat":"37.368692563","long":"126.81452403","imageIndex":4,"items":[{"name":"경복궁 삼계탕","tel":"031-311-0011","addr":"경기도 시흥시 능곡동 619번지","indutype":"음식점업 - 한식","category":"restaurant"},{"name":"카페 619(CAFE619)","tel":"031-311-0619","addr":"경기도 시흥시 능곡동 619번지 2층 일부호","indutype":"음식점업 - 커피전문점","category":"restaurant"}]},{"lat":"37.368947552","long":"126.81060608","imageIndex":4,"items":[{"name":"고릴라호프광장","tel":"031-311-0883","addr":"경기도 시흥시 능곡동 741번지","indutype":"음식점업 - 일반음식점","category":"restaurant"},{"name":"마미바베큐","tel":"031-317-7272","addr":"경기도 시흥시 능곡동 741번지 태영프라자 1층 116호","indutype":"음식점업 - 치킨","category":"restaurant"},{"name":"빨간코다리갑오징어","tel":"031-404-7757","addr":"경기도 시흥시 능곡동 741번지","indutype":"음식점업 - 한식","category":"restaurant"},{"name":"육감만족 능곡점","tel":"031-313-9212","addr":"경기도 시흥시 능곡동 741번지","indutype":"음식점업 - 한식","category":"restaurant"},{"name":"프링(freeing)","tel":"070-8844-5978","addr":"경기도 시흥시 능곡동 741번지 태영프라자 1층 109호","indutype":"음식점업 - 카페","category":"restaurant"},{"name":"후루룩즉석떡볶이 능곡11호점","tel":"031-314-3330","addr":"경기도 시흥시 능곡동 741번지 태영프라자 1층 104호","indutype":"음식점업 - 즉석떡볶이","category":"restaurant"},{"name":"훌랄라바베큐치킨 능곡점","tel":"031-404-7792","addr":"경기도 시흥시 능곡동 741번지","indutype":"음식점업 - 기타음식점","category":"restaurant"}]},{"lat":"37.370028046","long":"126.81016304","imageIndex":4,"items":[{"name":"공주밤빵 왕자커피","tel":"031-318-1118","addr":"경기도 시흥시 능곡동 516번지 대성빌딩 1층 101호","indutype":"음식점업 - 베이커리","category":"restaurant"}]},{"lat":"37.370224903","long":"126.80932713","imageIndex":4,"items":[{"name":"곽만근갈비탕 시흥점","tel":"031-435-4500","addr":"경기도 시흥시 능곡동 510번지","indutype":"음식점업 - 한식","category":"restaurant"}]},{"lat":"37.368363325","long":"126.81148812","imageIndex":4,"items":[{"name":"구노포차","tel":"031-311-1540","addr":"경기도 시흥시 능곡동 751번지","indutype":"음식점업 - 일반음식점","category":"restaurant"},{"name":"더맛쪽갈비","tel":"031-317-8590","addr":"경기도 시흥시 능곡동 751번지","indutype":"음식점업 - 한식","category":"restaurant"},{"name":"매콤이포차","tel":"","addr":"경기도 시흥시 능곡동 751번지 성광프라자 108호","indutype":"음식점업 - 주점","category":"restaurant"}]},{"lat":"37.368806531","long":"126.81254816","imageIndex":4,"items":[{"name":"국수나무시흥능곡점","tel":"031-315-9959","addr":"경기도 시흥시 능곡동 758번지 현대프라자 106호","indutype":"음식점업 - 음식점","category":"restaurant"},{"name":"명륜진사갈비능곡점","tel":"031-311-3443","addr":"경기도 시흥시 능곡동 758번지 207,208호","indutype":"음식점업 - 한식","category":"restaurant"},{"name":"프렌즈슬라임카페","tel":"031-311-7919","addr":"경기도 시흥시 능곡동 758번지 현대프라자 6층 601호","indutype":"음식점업 - 음식점","category":"restaurant"},{"name":"한방전주콩나물국밥 능곡장현점","tel":"","addr":"경기도 시흥시 능곡동 758번지 현대프라자 1층 112~3호","indutype":"음식점업 - 한식","category":"restaurant"}]},{"lat":"37.368551219","long":"126.81067483","imageIndex":4,"items":[{"name":"궁전차이나","tel":"031-404-8867","addr":"경기도 시흥시 능곡동 744번지 월드프라자 201호","indutype":"음식점업 - 중식","category":"restaurant"},{"name":"대생이생고기집","tel":"031-435-2655","addr":"경기도 시흥시 능곡동 744번지 2층","indutype":"음식점업 - 음식","category":"restaurant"},{"name":"봉구스밥버거","tel":"031-317-3119","addr":"경기도 시흥시 능곡동 744번지","indutype":"음식점업 - 일반음식점","category":"restaurant"},{"name":"율담회관","tel":"","addr":"경기도 시흥시 능곡동 744번지 월드프라자 103호","indutype":"음식점업 - 한식","category":"restaurant"},{"name":"카페글렌 능곡점","tel":"031-317-3373","addr":"경기도 시흥시 능곡동 744번지","indutype":"음식점업 - 휴게음식점","category":"restaurant"},{"name":"해우","tel":"031-317-4470","addr":"경기도 시흥시 능곡동 744번지 월드프라자 101,102호","indutype":"음식점업 - 한식","category":"restaurant"}]},{"lat":"37.36949599","long":"126.80988218","imageIndex":4,"items":[{"name":"김밥천국","tel":"031-317-7955","addr":"경기도 시흥시 능곡동 719번지 능곡타운 107호","indutype":"음식점업 - 휴게음식점","category":"restaurant"},{"name":"김정옥쌈밥","tel":"031-315-7196","addr":"경기도 시흥시 능곡동 719번지 능곡타운 201호","indutype":"음식점업 - 한식","category":"restaurant"},{"name":"명태마당","tel":"031-431-7667","addr":"경기도 시흥시 능곡동 719번지 능곡타운 204호","indutype":"음식점업 - 한식","category":"restaurant"}]},{"lat":"37.371001722","long":"126.81052181","imageIndex":4,"items":[{"name":"더착한커피","tel":"","addr":"경기도 시흥시 능곡동 540번지","indutype":"음식점업 - 카페","category":"restaurant"}]},{"lat":"37.364193349","long":"126.81254853","imageIndex":4,"items":[{"name":"도시어부","tel":"031-318-8228","addr":"경기도 시흥시 능곡동 800번지 상가동 102호","indutype":"음식점업 - 기타음식","category":"restaurant"}]},{"lat":"37.370081646","long":"126.80988068","imageIndex":4,"items":[{"name":"동춘옥","tel":"031-318-1988","addr":"경기도 시흥시 능곡동 514번지","indutype":"음식점업 - 한식","category":"restaurant"}]},{"lat":"37.36588522","long":"126.81693553","imageIndex":4,"items":[{"name":"뜨레피아","tel":"031-410-0451","addr":"경기도 시흥시 능곡동 712번지 신일해피트리 상가 101호","indutype":"음식점업 - 카페","category":"restaurant"}]},{"lat":"37.366500694","long":"126.81301682","imageIndex":4,"items":[{"name":"만나꼬마김밥","tel":"031-318-1155","addr":"경기도 시흥시 능곡동 787번지 휴먼시아 상가동 101호","indutype":"음식점업 - 분식,커피","category":"restaurant"},{"name":"성미네분식앤포차","tel":"","addr":"경기도 시흥시 능곡동 787번지 휴먼시아 상가동 201호","indutype":"음식점업 - 음식점","category":"restaurant"}]},{"lat":"37.364747381","long":"126.80971372","imageIndex":4,"items":[{"name":"맘스터치능곡점","tel":"031-317-9251","addr":"경기도 시흥시 능곡동 782번지 신안 상가 101호","indutype":"음식점업 - 기타음식","category":"restaurant"}]},{"lat":"37.369307956","long":"126.81060516","imageIndex":4,"items":[{"name":"메가엠지씨커피 시흥능곡역점","tel":"","addr":"경기도 시흥시 능곡동 733번지 능곡프라자 1층 103호","indutype":"음식점업 - 카페","category":"restaurant"},{"name":"빈스트리커피","tel":"","addr":"경기도 시흥시 능곡동 733번지","indutype":"음식점업 - 커피등 식음료","category":"restaurant"}]},{"lat":"37.368696935","long":"126.81163403","imageIndex":4,"items":[{"name":"문서방네 꼼장어","tel":"031-435-5679","addr":"경기도 시흥시 능곡동 747번지 광장프라자 109호","indutype":"음식점업 - 한식","category":"restaurant"},{"name":"밥상","tel":"031-311-3313","addr":"경기도 시흥시 능곡동 747번지","indutype":"음식점업 - 한식","category":"restaurant"},{"name":"장현능곡비비큐점","tel":"031-317-1515","addr":"경기도 시흥시 능곡동 747번지","indutype":"음식점업 - 기타음식점","category":"restaurant"},{"name":"퀘마 능곡점","tel":"031-312-7224","addr":"경기도 시흥시 능곡동 747번지 광장프라자 201호","indutype":"음식점업 - 기타음식점","category":"restaurant"},{"name":"펀 비어킹","tel":"031-404-6240","addr":"경기도 시흥시 능곡동 747번지 광장프라자 2층 202호","indutype":"음식점업 - 호프","category":"restaurant"}]},{"lat":"37.369144653","long":"126.80991694","imageIndex":4,"items":[{"name":"물꼬기나라","tel":"031-318-6288","addr":"경기도 시흥시 능곡동 728번지","indutype":"음식점업 - 음식","category":"restaurant"},{"name":"토부리병천순대감자탕능곡점","tel":"031-404-2388","addr":"경기도 시흥시 능곡동 728번지 건아빌딩 2층 202호","indutype":"음식점업 - 한식","category":"restaurant"}]},{"lat":"37.368307377","long":"126.81032549","imageIndex":4,"items":[{"name":"블럭제빵소 시흥능곡점","tel":"031-317-3660","addr":"경기도 시흥시 능곡동 752번지 효창프라자 1층 104호","indutype":"음식점업 - 제과,제빵","category":"restaurant"},{"name":"프랑세즈제과점","tel":"031-317-4934","addr":"경기도 시흥시 능곡동 752번지 효창프라자 1층","indutype":"음식점업 - 제과점","category":"restaurant"},{"name":"피자마루 능곡점","tel":"031-435-1089","addr":"경기도 시흥시 능곡동 752번지 효창프라자 1층 103호","indutype":"음식점업 - 기타음식,피자","category":"restaurant"}]},{"lat":"37.368191054","long":"126.8108225","imageIndex":4,"items":[{"name":"서창서서갈비","tel":"031-404-5005","addr":"경기도 시흥시 능곡동 753번지 2층","indutype":"음식점업 - 한식","category":"restaurant"},{"name":"쿡1015","tel":"031-313-1015","addr":"경기도 시흥시 능곡동 753번지 신성프라자 101호","indutype":"음식점업 - 한식","category":"restaurant"}]},{"lat":"37.369137845","long":"126.81127165","imageIndex":4,"items":[{"name":"소담촌능곡점","tel":"031-317-3377","addr":"경기도 시흥시 능곡동 735번지","indutype":"음식점업 - 한식","category":"restaurant"}]},{"lat":"37.370388945","long":"126.81046693","imageIndex":4,"items":[{"name":"신전떡볶이","tel":"031-317-6669","addr":"경기도 시흥시 능곡동 544번지 102호","indutype":"음식점업 - 분식","category":"restaurant"},{"name":"카페하루","tel":"031-404-4185","addr":"경기도 시흥시 능곡동 544번지 103호","indutype":"음식점업 - 카페","category":"restaurant"}]},{"lat":"37.366307129","long":"126.81594108","imageIndex":4,"items":[{"name":"온기","tel":"","addr":"경기도 시흥시 능곡동 710번지 어울림센터 1동","indutype":"음식점업 - 비알콜 음료점업","category":"restaurant"}]},{"lat":"37.368273772","long":"126.81182701","imageIndex":4,"items":[{"name":"육대장능곡점","tel":"031-312-5213","addr":"경기도 시흥시 능곡동 750번지 1층 105~7호","indutype":"음식점업 - 한식","category":"restaurant"},{"name":"진미감자탕","tel":"","addr":"경기도 시흥시 능곡동 750번지","indutype":"음식점업 - 한식","category":"restaurant"},{"name":"태영생막창 능곡점","tel":"031-435-9295","addr":"경기도 시흥시 능곡동 750번지 103-4호","indutype":"음식점업 - 막창","category":"restaurant"},{"name":"하나비","tel":"","addr":"경기도 시흥시 능곡동 750번지 다우빌딩 110호","indutype":"음식점업 - 한식","category":"restaurant"}]},{"lat":"37.370531246","long":"126.80932635","imageIndex":4,"items":[{"name":"준베이커리","tel":"","addr":"경기도 시흥시 능곡동 508번지 1층 일부호","indutype":"음식점업 - 베이커리카페","category":"restaurant"}]},{"lat":"37.370441828","long":"126.80974428","imageIndex":4,"items":[{"name":"진실식당","tel":"031-317-6494","addr":"경기도 시흥시 능곡동 523번지","indutype":"음식점업 - 한식","category":"restaurant"}]},{"lat":"37.368056763","long":"126.81135343","imageIndex":4,"items":[{"name":"짜이라이","tel":"031-404-1149","addr":"경기도 시흥시 능곡동 755번지","indutype":"음식점업 - 중식","category":"restaurant"}]},{"lat":"37.370613056","long":"126.80976642","imageIndex":4,"items":[{"name":"최고집칼국수","tel":"031-404-8882","addr":"경기도 시흥시 능곡동 522번지","indutype":"음식점업 - 한식","category":"restaurant"}]},{"lat":"37.370198094","long":"126.80946267","imageIndex":4,"items":[{"name":"카페블라썸","tel":"031-404-3456","addr":"경기도 시흥시 능곡동 511번지 102호","indutype":"음식점업 - 커피, 꽃차","category":"restaurant"}]},{"lat":"37.370745619","long":"126.81373993","imageIndex":4,"items":[{"name":"피자나라치킨공주 시흥능곡점","tel":"031-404-5892","addr":"경기도 시흥시 능곡동 563-1번지 1층","indutype":"음식점업 - 일반음식점","category":"restaurant"},{"name":"하늘자전거","tel":"031-312-2874","addr":"경기도 시흥시 능곡동 563-1번지 101호","indutype":"음식점업 - 기타음식점","category":"restaurant"}]},{"lat":"37.370997955","long":"126.81377317","imageIndex":4,"items":[{"name":"황소화로육가","tel":"031-310-8592","addr":"경기도 시흥시 능곡동 563번지","indutype":"음식점업 - 한식","category":"restaurant"}]}]