[{"lat":"37.258520566","long":"127.01727709","imageIndex":4,"items":[{"name":"1인자감자탕","tel":"031-233-8806","addr":"경기도 수원시 권선구 세류동 862번지 웰빙프라자 104호,105호","indutype":"일반휴게음식 - 일반한식","category":"restaurant"},{"name":"고오기세류점","tel":"031-898-9285","addr":"경기도 수원시 권선구 세류동 862번지 102호 101호 ,102호","indutype":"일반휴게음식 - 일반한식","category":"restaurant"},{"name":"뚱보집 세류점","tel":"031-233-0979","addr":"경기도 수원시 권선구 세류동 862번지 웰빙프라자 112호","indutype":"일반휴게음식 - 일반한식","category":"restaurant"},{"name":"매우리","tel":"031-224-2546","addr":"경기도 수원시 권선구 세류동 862번지 웰빙프라자 108호","indutype":"일반휴게음식 - 주점","category":"restaurant"},{"name":"백다방 수원권선웰빙점","tel":"070-8830-9194","addr":"경기도 수원시 권선구 세류동 862번지 웰빙프라자 1층 111호","indutype":"일반휴게음식 - 서양음식","category":"restaurant"},{"name":"비어카페펀비어킹","tel":"031-631-1420","addr":"경기도 수원시 권선구 세류동 862번지 웰빙프라자 109호~110호","indutype":"일반휴게음식 - 일반한식","category":"restaurant"},{"name":"빠지GO","tel":"031-235-0985","addr":"경기도 수원시 권선구 세류동 862번지 웰빙프라자 103호","indutype":"일반휴게음식 - 주점","category":"restaurant"},{"name":"아모르7080","tel":"031-226-8202","addr":"경기도 수원시 권선구 세류동 862번지 웰빙프라자 203호","indutype":"일반휴게음식 - 일반한식","category":"restaurant"}]},{"lat":"37.244320528","long":"127.01536968","imageIndex":4,"items":[{"name":"1인자감자탕","tel":"031-238-3350","addr":"경기도 수원시 권선구 세류동 1158-25번지 1층","indutype":"일반휴게음식 - 일반한식","category":"restaurant"},{"name":"대박고기집","tel":"031-221-3310","addr":"경기도 수원시 권선구 세류동 1158-25번지 영주빌딩 1층","indutype":"일반휴게음식 - 일반한식","category":"restaurant"}]},{"lat":"37.25973763","long":"127.00978092","imageIndex":4,"items":[{"name":"59피자 세류점","tel":"031-235-5955","addr":"경기도 수원시 권선구 세류동 1255번지 권선어울림 상가 137호","indutype":"일반휴게음식 - 스넥","category":"restaurant"},{"name":"박군치킨(세류3동점)","tel":"031-255-5400","addr":"경기도 수원시 권선구 세류동 1255번지 수원권선 어울림 141호,142호","indutype":"일반휴게음식 - 스넥","category":"restaurant"},{"name":"손칼국수","tel":"031-235-0225","addr":"경기도 수원시 권선구 세류동 1255번지 수원권선어울림 136호","indutype":"일반휴게음식 - 스넥","category":"restaurant"},{"name":"이분식","tel":"031-221-0598","addr":"경기도 수원시 권선구 세류동 1255번지 수원권선어울림 143호","indutype":"일반휴게음식 - 스넥","category":"restaurant"}]},{"lat":"37.263179631","long":"127.00850735","imageIndex":4,"items":[{"name":"60계","tel":"031-898-6625","addr":"경기도 수원시 권선구 세류동 229-53번지 1층","indutype":"일반휴게음식 - 스넥","category":"restaurant"}]},{"lat":"37.262765236","long":"127.00647814","imageIndex":4,"items":[{"name":"7번가피자수원중앙점","tel":"031-237-7774","addr":"경기도 수원시 권선구 세류동 1270번지 LH수원센트럴타운2단지 102호","indutype":"일반휴게음식 - 서양음식","category":"restaurant"}]},{"lat":"37.254880165","long":"127.01911374","imageIndex":4,"items":[{"name":"A 코스","tel":"031-225-2033","addr":"경기도 수원시 권선구 세류동 1096-5번지","indutype":"일반휴게음식 - 일반한식","category":"restaurant"}]},{"lat":"37.244050198","long":"127.01556123","imageIndex":4,"items":[{"name":"BBQ치킨앤비어","tel":"031-221-3310","addr":"경기도 수원시 권선구 세류동 1159-5번지","indutype":"일반휴게음식 - 스넥","category":"restaurant"},{"name":"세류동솥뚜껑삼겹살","tel":"031-222-4815","addr":"경기도 수원시 권선구 세류동 1159-5번지 1층","indutype":"일반휴게음식 - 일반한식","category":"restaurant"}]},{"lat":"37.259151909","long":"127.01061504","imageIndex":4,"items":[{"name":"BHC세류점","tel":"031-235-9988","addr":"경기도 수원시 권선구 세류동 473-1번지","indutype":"일반휴게음식 - 스넥","category":"restaurant"}]},{"lat":"37.259151991","long":"127.0092285","imageIndex":4,"items":[{"name":"Mr.s.문","tel":"031-236-1058","addr":"경기도 수원시 권선구 세류동 360번지","indutype":"일반휴게음식 - 주점","category":"restaurant"},{"name":"복돼지","tel":"031-223-9171","addr":"경기도 수원시 권선구 세류동 360번지 1층 102호","indutype":"일반휴게음식 - 일반한식","category":"restaurant"},{"name":"제너머옛날불닭발","tel":"031-237-3534","addr":"경기도 수원시 권선구 세류동 360번지 1층 103호","indutype":"일반휴게음식 - 일반한식","category":"restaurant"}]},{"lat":"37.255132464","long":"127.01903489","imageIndex":4,"items":[{"name":"가능골식당","tel":"031-233-6654","addr":"경기도 수원시 권선구 세류동 1082-9번지","indutype":"일반휴게음식 - 일반한식","category":"restaurant"}]},{"lat":"37.256682249","long":"127.01894504","imageIndex":4,"items":[{"name":"가리비칼국수","tel":"031-222-7898","addr":"경기도 수원시 권선구 세류동 1075-10번지","indutype":"일반휴게음식 - 일반한식","category":"restaurant"},{"name":"궁전라이브","tel":"031-233-5338","addr":"경기도 수원시 권선구 세류동 1075-10번지 대영빌딩 2층","indutype":"일반휴게음식 - 일반한식","category":"restaurant"}]},{"lat":"37.261484773","long":"127.01869805","imageIndex":4,"items":[{"name":"가보닭","tel":"031-238-3275","addr":"경기도 수원시 권선구 세류동 832-42번지","indutype":"일반휴게음식 - 일반한식","category":"restaurant"},{"name":"가보삼계탕","tel":"031-238-3275","addr":"경기도 수원시 권선구 세류동 832-42번지","indutype":"일반휴게음식 - 일반한식","category":"restaurant"}]},{"lat":"37.249826066","long":"127.01292471","imageIndex":4,"items":[{"name":"가시버시","tel":"031-223-9295","addr":"경기도 수원시 권선구 세류동 975-13번지 1층","indutype":"일반휴게음식 - 일반한식","category":"restaurant"}]},{"lat":"37.260125231","long":"127.00606092","imageIndex":4,"items":[{"name":"가정식백빵","tel":"031-232-0623","addr":"경기도 수원시 권선구 세류동 1280번지 LH수원센트럴타운3단지 상가동 105호","indutype":"일반휴게음식 - 서양음식","category":"restaurant"}]},{"lat":"37.250213071","long":"127.01719661","imageIndex":4,"items":[{"name":"각시주먹밥","tel":"031-238-1333","addr":"경기도 수원시 권선구 세류동 1129번지","indutype":"일반휴게음식 - 일반한식","category":"restaurant"}]},{"lat":"37.253627911","long":"127.01774958","imageIndex":4,"items":[{"name":"간이역","tel":"031-221-2651","addr":"경기도 수원시 권선구 세류동 1105-15번지 1층","indutype":"일반휴게음식 - 일반한식","category":"restaurant"},{"name":"꾼","tel":"031-225-2165","addr":"경기도 수원시 권선구 세류동 1105-15번지 1층","indutype":"일반휴게음식 - 일반한식","category":"restaurant"}]},{"lat":"37.248798883","long":"127.01300347","imageIndex":4,"items":[{"name":"간이역","tel":"031-237-1730","addr":"경기도 수원시 권선구 세류동 1141-5번지","indutype":"일반휴게음식 - 일반한식","category":"restaurant"},{"name":"엄마닭","tel":"031-235-8283","addr":"경기도 수원시 권선구 세류동 1141-5번지","indutype":"일반휴게음식 - 주점","category":"restaurant"}]},{"lat":"37.252519754","long":"127.01683635","imageIndex":4,"items":[{"name":"강원도메밀전","tel":"031-224-3323","addr":"경기도 수원시 권선구 세류동 1116-12번지 1층","indutype":"일반휴게음식 - 일반한식","category":"restaurant"},{"name":"소문난동네맛집","tel":"031-236-1937","addr":"경기도 수원시 권선구 세류동 1116-12번지 1층","indutype":"일반휴게음식 - 일반한식","category":"restaurant"}]},{"lat":"37.260512348","long":"127.01222721","imageIndex":4,"items":[{"name":"거문도해물촌","tel":"031-237-6088","addr":"경기도 수원시 권선구 세류동 477번지","indutype":"일반휴게음식 - 일반한식","category":"restaurant"}]},{"lat":"37.260656412","long":"127.01342216","imageIndex":4,"items":[{"name":"건영반점","tel":"031-234-5084","addr":"경기도 수원시 권선구 세류동 164-3번지","indutype":"일반휴게음식 - 중국식","category":"restaurant"}]},{"lat":"37.258349867","long":"127.01233967","imageIndex":4,"items":[{"name":"경일분식","tel":"031-238-3172","addr":"경기도 수원시 권선구 세류동 526번지 경일아파트","indutype":"일반휴게음식 - 스넥","category":"restaurant"},{"name":"주점포차","tel":"031-225-4585","addr":"경기도 수원시 권선구 세류동 526번지 경일아파트 1층 103호","indutype":"일반휴게음식 - 일반한식","category":"restaurant"}]},{"lat":"37.259656363","long":"127.01230601","imageIndex":4,"items":[{"name":"고고호프","tel":"031-1111-1111","addr":"경기도 수원시 권선구 세류동 478-2번지 1층","indutype":"일반휴게음식 - 주점","category":"restaurant"},{"name":"고기장터","tel":"031-226-2133","addr":"경기도 수원시 권선구 세류동 478-2번지","indutype":"일반휴게음식 - 일반한식","category":"restaurant"},{"name":"김밥플러스","tel":"031-232-5914","addr":"경기도 수원시 권선구 세류동 478-2번지","indutype":"일반휴게음식 - 일반한식","category":"restaurant"},{"name":"수원골감자탕","tel":"","addr":"경기도 수원시 권선구 세류동 478-2번지","indutype":"일반휴게음식 - 일반한식","category":"restaurant"}]},{"lat":"37.249240283","long":"127.01417574","imageIndex":4,"items":[{"name":"고기본가","tel":"031-234-1012","addr":"경기도 수원시 권선구 세류동 1140-7번지 1층","indutype":"일반휴게음식 - 일반한식","category":"restaurant"},{"name":"진배기바지락칼국수","tel":"031-308-1610","addr":"경기도 수원시 권선구 세류동 1140-7번지 1층","indutype":"일반휴게음식 - 일반한식","category":"restaurant"}]},{"lat":"37.256989375","long":"127.01150534","imageIndex":4,"items":[{"name":"고기뿐이고","tel":"031-227-5542","addr":"경기도 수원시 권선구 세류동 531-2번지 1층","indutype":"일반휴게음식 - 일반한식","category":"restaurant"},{"name":"대지식당","tel":"031-234-9936","addr":"경기도 수원시 권선구 세류동 531-2번지","indutype":"일반휴게음식 - 일반한식","category":"restaurant"}]},{"lat":"37.255763522","long":"127.01634097","imageIndex":4,"items":[{"name":"고돌이막창","tel":"","addr":"경기도 수원시 권선구 세류동 1090번지 1층","indutype":"일반휴게음식 - 일반한식","category":"restaurant"},{"name":"미가양꼬치","tel":"031-233-5909","addr":"경기도 수원시 권선구 세류동 1090번지","indutype":"일반휴게음식 - 중국식","category":"restaurant"},{"name":"한달심야포차","tel":"070-8616-7814","addr":"경기도 수원시 권선구 세류동 1090번지","indutype":"일반휴게음식 - 주점","category":"restaurant"}]},{"lat":"37.254348873","long":"127.01661125","imageIndex":4,"items":[{"name":"고스트세류점","tel":"070-7487-2558","addr":"경기도 수원시 권선구 세류동 1092-25번지","indutype":"일반휴게음식 - 서양음식","category":"restaurant"}]},{"lat":"37.256015479","long":"127.01900126","imageIndex":4,"items":[{"name":"고향마을","tel":"031-236-7477","addr":"경기도 수원시 권선구 세류동 1083-13번지","indutype":"일반휴게음식 - 주점","category":"restaurant"}]},{"lat":"37.257069889","long":"127.01742335","imageIndex":4,"items":[{"name":"골뱅이엔해물닭발찜","tel":"031-238-1665","addr":"경기도 수원시 권선구 세류동 1075-2번지","indutype":"일반휴게음식 - 일반한식","category":"restaurant"}]},{"lat":"37.244852158","long":"127.01516689","imageIndex":4,"items":[{"name":"공주식당","tel":"031-239-5989","addr":"경기도 수원시 권선구 세류동 1158-51 제101호,102호","indutype":"일반휴게음식 - 일반한식","category":"restaurant"}]},{"lat":"37.25426827","long":"127.01139231","imageIndex":4,"items":[{"name":"구땡","tel":"031-224-6652","addr":"경기도 수원시 권선구 세류동 1028-5번지","indutype":"일반휴게음식 - 일반한식","category":"restaurant"}]},{"lat":"37.260269034","long":"127.01266682","imageIndex":4,"items":[{"name":"구이구이","tel":"031-000-0000","addr":"경기도 수원시 권선구 세류동 477-14번지 102호","indutype":"일반휴게음식 - 일반한식","category":"restaurant"}]},{"lat":"37.25365498","long":"127.01744524","imageIndex":4,"items":[{"name":"구이식당","tel":"031-234-0625","addr":"경기도 수원시 권선구 세류동 1107-16번지 1층","indutype":"일반휴게음식 - 일반한식","category":"restaurant"},{"name":"땡기네","tel":"031-234-0829","addr":"경기도 수원시 권선구 세류동 1107-16번지","indutype":"일반휴게음식 - 주점","category":"restaurant"},{"name":"선녀와나뭇꾼","tel":"031-236-3437","addr":"경기도 수원시 권선구 세류동 1107-16번지","indutype":"일반휴게음식 - 일반한식","category":"restaurant"}]},{"lat":"37.263269763","long":"127.00786478","imageIndex":4,"items":[{"name":"국수집","tel":"031-221-9488","addr":"경기도 수원시 권선구 세류동 227-8번지 1층","indutype":"일반휴게음식 - 일반한식","category":"restaurant"}]},{"lat":"37.261431258","long":"127.01386191","imageIndex":4,"items":[{"name":"국시촌","tel":"031-223-5214","addr":"경기도 수원시 권선구 세류동 149-3번지","indutype":"일반휴게음식 - 일반한식","category":"restaurant"}]},{"lat":"37.259818845","long":"127.00719946","imageIndex":4,"items":[{"name":"군산막걸리","tel":"031-226-7654","addr":"경기도 수원시 권선구 세류동 261-2","indutype":"일반휴게음식 - 칵테일바","category":"restaurant"}]},{"lat":"37.257826798","long":"127.01706278","imageIndex":4,"items":[{"name":"굿타임스","tel":"031-234-6867","addr":"경기도 수원시 권선구 세류동 881-17번지 지하1층","indutype":"일반휴게음식 - 서양음식","category":"restaurant"}]},{"lat":"37.248546237","long":"127.01656511","imageIndex":4,"items":[{"name":"글로벌 숙영 거기서 푸드","tel":"031-223-9991","addr":"경기도 수원시 권선구 세류동 1149번지","indutype":"일반휴게음식 - 일반한식","category":"restaurant"}]},{"lat":"37.258845562","long":"127.01055865","imageIndex":4,"items":[{"name":"금밭식당","tel":"031-223-5495","addr":"경기도 수원시 권선구 세류동 470-1번지","indutype":"일반휴게음식 - 일반한식","category":"restaurant"}]},{"lat":"37.262404878","long":"127.00338927","imageIndex":4,"items":[{"name":"금풍식당","tel":"031-233-8059","addr":"경기도 수원시 권선구 세류동 195번지","indutype":"일반휴게음식 - 일반한식","category":"restaurant"},{"name":"양평단고기","tel":"031-221-6503","addr":"경기도 수원시 권선구 세류동 195번지","indutype":"일반휴게음식 - 일반한식","category":"restaurant"}]},{"lat":"37.254375992","long":"127.01583349","imageIndex":4,"items":[{"name":"길모퉁이","tel":"031-237-3246","addr":"경기도 수원시 권선구 세류동 1111-21번지 1층","indutype":"일반휴게음식 - 일반한식","category":"restaurant"},{"name":"지니호프","tel":"031-239-6659","addr":"경기도 수원시 권선구 세류동 1111-21번지","indutype":"일반휴게음식 - 주점","category":"restaurant"},{"name":"한씨포차","tel":"031-238-3971","addr":"경기도 수원시 권선구 세류동 1111-21번지","indutype":"일반휴게음식 - 일반한식","category":"restaurant"}]},{"lat":"37.259016726","long":"127.01103212","imageIndex":4,"items":[{"name":"길손식당","tel":"031-239-1787","addr":"경기도 수원시 권선구 세류동 473-5번지 1층","indutype":"일반휴게음식 - 일반한식","category":"restaurant"}]},{"lat":"37.263125389","long":"127.01150604","imageIndex":4,"items":[{"name":"길수산","tel":"031-234-1434","addr":"경기도 수원시 권선구 세류동 320-5번지","indutype":"일반휴게음식 - 일식·회집","category":"restaurant"}]},{"lat":"37.256214054","long":"127.01619451","imageIndex":4,"items":[{"name":"길호프","tel":"031-226-4644","addr":"경기도 수원시 권선구 세류동 876-12번지","indutype":"일반휴게음식 - 주점","category":"restaurant"}]},{"lat":"37.252105038","long":"127.01875245","imageIndex":4,"items":[{"name":"김밥천국","tel":"031-235-3431","addr":"경기도 수원시 권선구 세류동 1102-4번지","indutype":"일반휴게음식 - 스넥","category":"restaurant"}]},{"lat":"37.243770945","long":"127.01491877","imageIndex":4,"items":[{"name":"김밥천국","tel":"031-237-8982","addr":"경기도 수원시 권선구 세류동 1159-2번지 우측끝","indutype":"일반휴게음식 - 스넥","category":"restaurant"},{"name":"전주식당","tel":"031-224-6424","addr":"경기도 수원시 권선구 세류동 1159-2번지","indutype":"일반휴게음식 - 일반한식","category":"restaurant"}]},{"lat":"37.245014347","long":"127.01514438","imageIndex":4,"items":[{"name":"까치호프포차","tel":"051-531-1236","addr":"경기도 수원시 권선구 세류동 1158-11번지 101호일부, 102,103호","indutype":"일반휴게음식 - 주점","category":"restaurant"}]},{"lat":"37.255124096","long":"127.01330866","imageIndex":4,"items":[{"name":"꼬마김밥","tel":"031-235-9224","addr":"경기도 수원시 권선구 세류동 1021-52번지 1층","indutype":"일반휴게음식 - 일반한식","category":"restaurant"}]},{"lat":"37.24951965","long":"127.01366857","imageIndex":4,"items":[{"name":"꿀꿀이생고기","tel":"031-238-9987","addr":"경기도 수원시 권선구 세류동 1136-13번지 1층","indutype":"일반휴게음식 - 일반한식","category":"restaurant"}]},{"lat":"37.26193633","long":"127.00469695","imageIndex":4,"items":[{"name":"꿀벌스낵","tel":"031-000-0000","addr":"경기도 수원시 권선구 세류동 189-7번지 1층","indutype":"일반휴게음식 - 일반한식","category":"restaurant"}]},{"lat":"37.255655405","long":"127.01628459","imageIndex":4,"items":[{"name":"나무비어","tel":"031-221-6603","addr":"경기도 수원시 권선구 세류동 1090-1번지 1층","indutype":"일반휴게음식 - 주점","category":"restaurant"}]},{"lat":"37.244960333","long":"127.01467101","imageIndex":4,"items":[{"name":"나주오리","tel":"031-224-0379","addr":"경기도 수원시 권선구 세류동 1146-8번지 1층","indutype":"일반휴게음식 - 일반한식","category":"restaurant"},{"name":"우리목살","tel":"031-237-1184","addr":"경기도 수원시 권선구 세류동 1146-8번지","indutype":"일반휴게음식 - 일반한식","category":"restaurant"},{"name":"전라남도식당","tel":"031-221-7871","addr":"경기도 수원시 권선구 세류동 1146-8번지 1층","indutype":"일반휴게음식 - 일반한식","category":"restaurant"},{"name":"진미식당","tel":"031-234-1110","addr":"경기도 수원시 권선구 세류동 1146-8번지","indutype":"일반휴게음식 - 일반한식","category":"restaurant"},{"name":"행복식당","tel":"031-239-2239","addr":"경기도 수원시 권선구 세류동 1146-8번지","indutype":"일반휴게음식 - 일반한식","category":"restaurant"}]},{"lat":"37.244014191","long":"127.01523438","imageIndex":4,"items":[{"name":"낙원장수마을","tel":"031-236-6344","addr":"경기도 수원시 권선구 세류동 1159-4번지 가동 101호","indutype":"일반휴게음식 - 일반한식","category":"restaurant"},{"name":"웰빙구니구니세류점","tel":"031-234-4688","addr":"경기도 수원시 권선구 세류동 1159-4번지 가동 103호","indutype":"일반휴게음식 - 주점","category":"restaurant"},{"name":"일번지옛날통닭","tel":"","addr":"경기도 수원시 권선구 세류동 1159-4번지 낙원맨션 가동 105호","indutype":"일반휴게음식 - 스넥","category":"restaurant"}]},{"lat":"37.258908492","long":"127.01250883","imageIndex":4,"items":[{"name":"남도식당","tel":"031-222-7346","addr":"경기도 수원시 권선구 세류동 524-5번지 102호","indutype":"일반휴게음식 - 일반한식","category":"restaurant"},{"name":"맥주가술술","tel":"031-225-1990","addr":"경기도 수원시 권선구 세류동 524-5번지","indutype":"일반휴게음식 - 주점","category":"restaurant"}]},{"lat":"37.25173613","long":"127.01427755","imageIndex":4,"items":[{"name":"남예찬그첫번째이야기","tel":"031-238-5297","addr":"경기도 수원시 권선구 세류동 1126번지 1층 101호","indutype":"일반휴게음식 - 일반한식","category":"restaurant"},{"name":"오삼공일(5301)%","tel":"031-225-0306","addr":"경기도 수원시 권선구 세류동 1126번지 1층","indutype":"일반휴게음식 - 서양음식","category":"restaurant"}]},{"lat":"37.255240468","long":"127.01989159","imageIndex":4,"items":[{"name":"남원골추어탕","tel":"031-233-7784","addr":"경기도 수원시 권선구 세류동 1081-12번지","indutype":"일반휴게음식 - 일반한식","category":"restaurant"}]},{"lat":"37.25204194","long":"127.01894406","imageIndex":4,"items":[{"name":"남해멸치국수","tel":"031-237-9903","addr":"경기도 수원시 권선구 세류동 1102-5번지 1층","indutype":"일반휴게음식 - 일반한식","category":"restaurant"},{"name":"바다횟집","tel":"031-265-1116","addr":"경기도 수원시 권선구 세류동 1102-5번지 1층","indutype":"일반휴게음식 - 일반한식","category":"restaurant"},{"name":"이가네밥상","tel":"031-222-2854","addr":"경기도 수원시 권선구 세류동 1102-5번지","indutype":"일반휴게음식 - 일반한식","category":"restaurant"}]},{"lat":"37.261765072","long":"127.00712065","imageIndex":4,"items":[{"name":"낭만수레","tel":"031-223-0709","addr":"경기도 수원시 권선구 세류동 1277-2번지 센트럴프라자 1층 106호","indutype":"일반휴게음식 - 주점","category":"restaurant"},{"name":"오븐마루세류점","tel":"031-224-6466","addr":"경기도 수원시 권선구 세류동 1277-2번지 102호","indutype":"일반휴게음식 - 스넥","category":"restaurant"},{"name":"욜로32(YoLo32)","tel":"031-224-0004","addr":"경기도 수원시 권선구 세류동 1277-2번지 107호","indutype":"일반휴게음식 - 서양음식","category":"restaurant"},{"name":"착한보쌈","tel":"031-224-3007","addr":"경기도 수원시 권선구 세류동 1277-2번지 센트럴프라자 205호","indutype":"일반휴게음식 - 일반한식","category":"restaurant"},{"name":"초밥집","tel":"070-4802-9592","addr":"경기도 수원시 권선구 세류동 1277-2번지 센트럴프라자 108호","indutype":"일반휴게음식 - 일식·회집","category":"restaurant"},{"name":"컵오브커피세류1동점","tel":"031-222-7642","addr":"경기도 수원시 권선구 세류동 1277-2번지 103호","indutype":"일반휴게음식 - 서양음식","category":"restaurant"}]},{"lat":"37.253961271","long":"127.01791872","imageIndex":4,"items":[{"name":"낭만전집","tel":"031-238-5510","addr":"경기도 수원시 권선구 세류동 1095-9번지","indutype":"일반휴게음식 - 주점","category":"restaurant"},{"name":"서가식당양꼬치","tel":"031-236-9788","addr":"경기도 수원시 권선구 세류동 1095-9번지 1층","indutype":"일반휴게음식 - 일반한식","category":"restaurant"}]},{"lat":"37.249132019","long":"127.01556208","imageIndex":4,"items":[{"name":"네네치킨","tel":"031-226-4482","addr":"경기도 수원시 권선구 세류동 1131-42번지 1층","indutype":"일반휴게음식 - 일반한식","category":"restaurant"}]},{"lat":"37.266044676","long":"127.0121377","imageIndex":4,"items":[{"name":"네네치킨 매교세류점","tel":"031-898-5993","addr":"경기도 수원시 권선구 세류동 97-113번지","indutype":"일반휴게음식 - 스넥","category":"restaurant"}]},{"lat":"37.255294706","long":"127.01861786","imageIndex":4,"items":[{"name":"놀부 세류점(삼겹본능&흥부찜닭&공수간)","tel":"031-221-6768","addr":"경기도 수원시 권선구 세류동 1083-4번지 선진빌딩 1층 102호","indutype":"일반휴게음식 - 일반한식","category":"restaurant"},{"name":"쿤타킨테","tel":"031-238-9599","addr":"경기도 수원시 권선구 세류동 1083-4번지","indutype":"일반휴게음식 - 일반한식","category":"restaurant"}]},{"lat":"37.25979155","long":"127.01188894","imageIndex":4,"items":[{"name":"누나네 식당","tel":"","addr":"경기도 수원시 권선구 세류동 478-9번지","indutype":"일반휴게음식 - 일반한식","category":"restaurant"},{"name":"옥이네","tel":"031-232-1889","addr":"경기도 수원시 권선구 세류동 478-9번지 1층","indutype":"일반휴게음식 - 일반한식","category":"restaurant"},{"name":"피자와치킨의러브레터세류점","tel":"031-233-4050","addr":"경기도 수원시 권선구 세류동 478-9번지 1층","indutype":"일반휴게음식 - 일반한식","category":"restaurant"}]},{"lat":"37.250321605","long":"127.01325165","imageIndex":4,"items":[{"name":"다경막창","tel":"","addr":"경기도 수원시 권선구 세류동 974-8번지 1층 좌측상가","indutype":"일반휴게음식 - 일반한식","category":"restaurant"},{"name":"시골마당","tel":"031-235-2836","addr":"경기도 수원시 권선구 세류동 974-8번지 외1필지","indutype":"일반휴게음식 - 일반한식","category":"restaurant"}]},{"lat":"37.254547243","long":"127.015315","imageIndex":4,"items":[{"name":"다온에프디","tel":"031-868-2712","addr":"경기도 수원시 권선구 세류동 1012-23번지","indutype":"일반휴게음식 - 스넥","category":"restaurant"}]},{"lat":"37.256601965","long":"127.01103186","imageIndex":4,"items":[{"name":"다이닝키친","tel":"031-224-4010","addr":"경기도 수원시 권선구 세류동 460-8번지","indutype":"일반휴게음식 - 주점","category":"restaurant"}]},{"lat":"37.251987948","long":"127.01842555","imageIndex":4,"items":[{"name":"달달","tel":"02-0000-0000","addr":"경기도 수원시 권선구 세류동 1119-19번지","indutype":"일반휴게음식 - 일반한식","category":"restaurant"}]},{"lat":"37.248961133","long":"127.01222578","imageIndex":4,"items":[{"name":"달려라소돼지","tel":"031-224-7484","addr":"경기도 수원시 권선구 세류동 587-3","indutype":"일반휴게음식 - 일반한식","category":"restaurant"}]},{"lat":"37.249213424","long":"127.01220327","imageIndex":4,"items":[{"name":"달빛마차","tel":"031-235-5494","addr":"경기도 수원시 권선구 세류동 587번지 1층","indutype":"일반휴게음식 - 일반한식","category":"restaurant"}]},{"lat":"37.25724183","long":"127.00877745","imageIndex":4,"items":[{"name":"달향","tel":"","addr":"경기도 수원시 권선구 세류동 449-11번지 1층","indutype":"일반휴게음식 - 일반한식","category":"restaurant"}]},{"lat":"37.257547628","long":"127.01575512","imageIndex":4,"items":[{"name":"닭강정에 빠지다","tel":"031-234-6126","addr":"경기도 수원시 권선구 세류동 870-22번지 1층","indutype":"일반휴게음식 - 일반한식","category":"restaurant"}]},{"lat":"37.254908027","long":"127.01103168","imageIndex":4,"items":[{"name":"대관령집","tel":"031-226-7791","addr":"경기도 수원시 권선구 세류동 544-4번지","indutype":"일반휴게음식 - 일반한식","category":"restaurant"},{"name":"복돼지생고기전문점","tel":"031-235-0127","addr":"경기도 수원시 권선구 세류동 544-4번지","indutype":"일반휴게음식 - 일반한식","category":"restaurant"}]},{"lat":"37.255763438","long":"127.01706239","imageIndex":4,"items":[{"name":"대교보신장","tel":"","addr":"경기도 수원시 권선구 세류동 1088-11번지 1층","indutype":"일반휴게음식 - 일반한식","category":"restaurant"}]},{"lat":"37.259124212","long":"127.01763793","imageIndex":4,"items":[{"name":"대구막창","tel":"031-234-2577","addr":"경기도 수원시 권선구 세류동 854-12번지 1층","indutype":"일반휴게음식 - 일반한식","category":"restaurant"},{"name":"더(THE)맛쪽갈비(세류점)","tel":"070-8112-8592","addr":"경기도 수원시 권선구 세류동 854-12번지 1층","indutype":"일반휴게음식 - 일반한식","category":"restaurant"},{"name":"시간속으로","tel":"031-232-9272","addr":"경기도 수원시 권선구 세류동 854-12번지","indutype":"일반휴게음식 - 주점","category":"restaurant"},{"name":"이주원통닭","tel":"","addr":"경기도 수원시 권선구 세류동 854-12번지 1층","indutype":"일반휴게음식 - 주점","category":"restaurant"},{"name":"청춘열차","tel":"031-235-2663","addr":"경기도 수원시 권선구 세류동 854-12번지","indutype":"일반휴게음식 - 칵테일바","category":"restaurant"},{"name":"통영아나고","tel":"031-232-2049","addr":"경기도 수원시 권선구 세류동 854-12번지","indutype":"일반휴게음식 - 일반한식","category":"restaurant"}]},{"lat":"37.254763512","long":"127.01511214","imageIndex":4,"items":[{"name":"대정승숯불갈비","tel":"031-238-6994","addr":"경기도 수원시 권선구 세류동 1012-15번지","indutype":"일반휴게음식 - 일반한식","category":"restaurant"}]},{"lat":"37.253709288","long":"127.01528105","imageIndex":4,"items":[{"name":"대풍숯불갈비","tel":"031-225-5266","addr":"경기도 수원시 권선구 세류동 1111-4번지","indutype":"일반휴게음식 - 일반한식","category":"restaurant"}]},{"lat":"37.253655511","long":"127.01217","imageIndex":4,"items":[{"name":"더공감(The 공감)","tel":"031-8031-9999","addr":"경기도 수원시 권선구 세류동 1001-1번지 1층","indutype":"일반휴게음식 - 일반한식","category":"restaurant"}]},{"lat":"37.260575366","long":"127.01289232","imageIndex":4,"items":[{"name":"데이트라인","tel":"031-236-0098","addr":"경기도 수원시 권선구 세류동 172-13번지","indutype":"일반휴게음식 - 스넥","category":"restaurant"},{"name":"장수마을시골순대국","tel":"031-222-0433","addr":"경기도 수원시 권선구 세류동 172-13번지","indutype":"일반휴게음식 - 일반한식","category":"restaurant"},{"name":"주거니받거니","tel":"031-224-8702","addr":"경기도 수원시 권선구 세류동 172-13번지","indutype":"일반휴게음식 - 일반한식","category":"restaurant"}]},{"lat":"37.244077215","long":"127.01569648","imageIndex":4,"items":[{"name":"도시어장","tel":"031-221-1070","addr":"경기도 수원시 권선구 세류동 1159-6번지 1층","indutype":"일반휴게음식 - 일반한식","category":"restaurant"},{"name":"석산커피하우스","tel":"031-223-5214","addr":"경기도 수원시 권선구 세류동 1159-6번지 지층","indutype":"일반휴게음식 - 서양음식","category":"restaurant"}]},{"lat":"37.248735862","long":"127.01239482","imageIndex":4,"items":[{"name":"도토리마을","tel":"031-233-5000","addr":"경기도 수원시 권선구 세류동 590-11번지","indutype":"일반휴게음식 - 일반한식","category":"restaurant"}]},{"lat":"37.249907157","long":"127.01294726","imageIndex":4,"items":[{"name":"독도회집","tel":"031-233-9763","addr":"경기도 수원시 권선구 세류동 975-6번지","indutype":"일반휴게음식 - 일반한식","category":"restaurant"}]},{"lat":"37.2542407","long":"127.01702829","imageIndex":4,"items":[{"name":"돈가스마니아","tel":"","addr":"경기도 수원시 권선구 세류동 1093-8번지 1층","indutype":"일반휴게음식 - 서양음식","category":"restaurant"}]},{"lat":"37.249627798","long":"127.01339808","imageIndex":4,"items":[{"name":"돈나와라뚝딱","tel":"031-222-3128","addr":"경기도 수원시 권선구 세류동 1139-8번지 1층.세류동","indutype":"일반휴게음식 - 일반한식","category":"restaurant"},{"name":"훌랄라바베큐치킨","tel":"031-231-0092","addr":"경기도 수원시 권선구 세류동 1139-8번지","indutype":"일반휴게음식 - 주점","category":"restaurant"}]},{"lat":"37.259845568","long":"127.01245258","imageIndex":4,"items":[{"name":"돈땡기는날","tel":"031-213-2173","addr":"경기도 수원시 권선구 세류동 478-1번지","indutype":"일반휴게음식 - 일반한식","category":"restaurant"},{"name":"홍두깨손칼국수","tel":"","addr":"경기도 수원시 권선구 세류동 478-1번지 1층","indutype":"일반휴게음식 - 일반한식","category":"restaurant"}]},{"lat":"37.254294966","long":"127.01520224","imageIndex":4,"items":[{"name":"돈시장","tel":"031-246-4664","addr":"경기도 수원시 권선구 세류동 1010-8번지","indutype":"일반휴게음식 - 일반한식","category":"restaurant"},{"name":"오공비어","tel":"031-221-5058","addr":"경기도 수원시 권선구 세류동 1010-8번지 1층","indutype":"일반휴게음식 - 일반한식","category":"restaurant"},{"name":"청하양꼬치","tel":"031-257-4711","addr":"경기도 수원시 권선구 세류동 1010-8번지 1층","indutype":"일반휴게음식 - 일반한식","category":"restaurant"}]},{"lat":"37.256961718","long":"127.01780659","imageIndex":4,"items":[{"name":"동근이숯불두마리치킨","tel":"031-236-9252","addr":"경기도 수원시 권선구 세류동 1075-4번지 1층","indutype":"일반휴게음식 - 스넥","category":"restaurant"}]},{"lat":"37.253348901","long":"127.01503301","imageIndex":4,"items":[{"name":"동북음식점","tel":"031-222-5198","addr":"경기도 수원시 권선구 세류동 1111-6번지 1층","indutype":"일반휴게음식 - 일반한식","category":"restaurant"}]},{"lat":"37.253799138","long":"127.01750163","imageIndex":4,"items":[{"name":"동지족발앤보쌈","tel":"031-224-0270","addr":"경기도 수원시 권선구 세류동 1107-17번지 1층","indutype":"일반휴게음식 - 일반한식","category":"restaurant"}]},{"lat":"37.261070906","long":"127.01319675","imageIndex":4,"items":[{"name":"동태랑김치랑","tel":"031-222-2200","addr":"경기도 수원시 권선구 세류동 168-2번지 1층","indutype":"일반휴게음식 - 일반한식","category":"restaurant"}]},{"lat":"37.252601117","long":"127.0143115","imageIndex":4,"items":[{"name":"동해동태탕","tel":"031-224-5541","addr":"경기도 수원시 권선구 세류동 987-33번지 1층","indutype":"일반휴게음식 - 일반한식","category":"restaurant"},{"name":"라이코스","tel":"031-238-2072","addr":"경기도 수원시 권선구 세류동 987-33번지","indutype":"일반휴게음식 - 주점","category":"restaurant"}]},{"lat":"37.253934216","long":"127.01811034","imageIndex":4,"items":[{"name":"동혜치킨","tel":"031-225-8945","addr":"경기도 수원시 권선구 세류동 1095-10번지","indutype":"일반휴게음식 - 스넥","category":"restaurant"},{"name":"오!닭꼬치","tel":"031-226-1322","addr":"경기도 수원시 권선구 세류동 1095-10번지 1층","indutype":"일반휴게음식 - 일반한식","category":"restaurant"},{"name":"이모네보신탕","tel":"031-239-8073","addr":"경기도 수원시 권선구 세류동 1095-10번지 1층","indutype":"일반휴게음식 - 일반한식","category":"restaurant"},{"name":"장어네","tel":"031-222-2788","addr":"경기도 수원시 권선구 세류동 1095-10번지","indutype":"일반휴게음식 - 일반한식","category":"restaurant"},{"name":"황소숯불꼼장어구이","tel":"031-237-3523","addr":"경기도 수원시 권선구 세류동 1095-10번지","indutype":"일반휴게음식 - 일반한식","category":"restaurant"}]},{"lat":"37.254321957","long":"127.01558549","imageIndex":4,"items":[{"name":"돼지야놀자","tel":"031-225-6616","addr":"경기도 수원시 권선구 세류동 1111-1번지 1층 1호","indutype":"일반휴게음식 - 일반한식","category":"restaurant"}]},{"lat":"37.254042516","long":"127.01666755","imageIndex":4,"items":[{"name":"둘리분식","tel":"031-224-5754","addr":"경기도 수원시 권선구 세류동 1109-27,28","indutype":"일반휴게음식 - 스넥","category":"restaurant"}]},{"lat":"37.259268838","long":"127.01328669","imageIndex":4,"items":[{"name":"딜리버리킹수원점(조선닭볶음탕)","tel":"031-221-7789","addr":"경기도 수원시 권선구 세류동 513-9번지 1층","indutype":"일반휴게음식 - 일반한식","category":"restaurant"}]},{"lat":"37.258817874","long":"127.01753642","imageIndex":4,"items":[{"name":"땅땅치킨세류점","tel":"031-226-8292","addr":"경기도 수원시 권선구 세류동 854-10번지 1층","indutype":"일반휴게음식 - 스넥","category":"restaurant"}]},{"lat":"37.256294824","long":"127.01880969","imageIndex":4,"items":[{"name":"또봉이통닭(세류2호점)","tel":"031-223-8084","addr":"경기도 수원시 권선구 세류동 1084-11번지","indutype":"일반휴게음식 - 일반한식","category":"restaurant"},{"name":"윤영네 옛날불고기","tel":"031-8787-7765","addr":"경기도 수원시 권선구 세류동 1084-11번지 1층","indutype":"일반휴게음식 - 일반한식","category":"restaurant"}]},{"lat":"37.250042276","long":"127.01336432","imageIndex":4,"items":[{"name":"또봉이통닭세류점","tel":"031-222-8235","addr":"경기도 수원시 권선구 세류동 1139-23번지","indutype":"일반휴게음식 - 스넥","category":"restaurant"},{"name":"번개포차","tel":"031-226-5340","addr":"경기도 수원시 권선구 세류동 1139-23번지","indutype":"일반휴게음식 - 주점","category":"restaurant"}]},{"lat":"37.256159342","long":"127.02108666","imageIndex":4,"items":[{"name":"또와유","tel":"031-238-9295","addr":"경기도 수원시 권선구 세류동 1077-3번지 동신빌딩 101호","indutype":"일반휴게음식 - 일반한식","category":"restaurant"},{"name":"백제령","tel":"031-233-2480","addr":"경기도 수원시 권선구 세류동 1077-3번지","indutype":"일반휴게음식 - 일반한식","category":"restaurant"}]},{"lat":"37.256268071","long":"127.01658905","imageIndex":4,"items":[{"name":"뚜껑따러와호프","tel":"031-235-4674","addr":"경기도 수원시 권선구 세류동 1089-4번지","indutype":"일반휴게음식 - 일반한식","category":"restaurant"}]},{"lat":"37.253736028","long":"127.01780596","imageIndex":4,"items":[{"name":"뚱이네","tel":"","addr":"경기도 수원시 권선구 세류동 1105번지 1층","indutype":"일반휴게음식 - 스넥","category":"restaurant"}]},{"lat":"37.261737595","long":"127.01400851","imageIndex":4,"items":[{"name":"뚱이네삼겹살","tel":"031-238-7755","addr":"경기도 수원시 권선구 세류동 150-10번지 1층","indutype":"일반휴게음식 - 일반한식","category":"restaurant"}]},{"lat":"37.255763106","long":"127.01960991","imageIndex":4,"items":[{"name":"뜨락","tel":"031-294-0660","addr":"경기도 수원시 권선구 세류동 1082-14번지","indutype":"일반휴게음식 - 일반한식","category":"restaurant"}]},{"lat":"37.250960869","long":"127.01767015","imageIndex":4,"items":[{"name":"뜰7","tel":"031-226-4521","addr":"경기도 수원시 권선구 세류동 1119-13번지","indutype":"일반휴게음식 - 일반한식","category":"restaurant"}]},{"lat":"37.24968188","long":"127.01317266","imageIndex":4,"items":[{"name":"락캔롤","tel":"031-898-5208","addr":"경기도 수원시 권선구 세류동 1139-22번지","indutype":"일반휴게음식 - 주점","category":"restaurant"}]},{"lat":"37.263071451","long":"127.00958958","imageIndex":4,"items":[{"name":"랑랑가본점","tel":"031-309-9292","addr":"경기도 수원시 권선구 세류동 90-9번지 1층 3호","indutype":"일반휴게음식 - 일반한식","category":"restaurant"}]},{"lat":"37.260214383","long":"127.01822433","imageIndex":4,"items":[{"name":"레드썬라이브","tel":"031-225-7077","addr":"경기도 수원시 권선구 세류동 845번지 웅희빌딩","indutype":"일반휴게음식 - 주점","category":"restaurant"},{"name":"스시사랑","tel":"031-222-7409","addr":"경기도 수원시 권선구 세류동 845번지 웅희빌딩 1층","indutype":"일반휴게음식 - 일식·회집","category":"restaurant"},{"name":"피자스쿨","tel":"031-223-0755","addr":"경기도 수원시 권선구 세류동 845번지","indutype":"일반휴게음식 - 서양음식","category":"restaurant"}]},{"lat":"37.250438381","long":"127.01675707","imageIndex":4,"items":[{"name":"로뎀나무아래서","tel":"031-224-4668","addr":"경기도 수원시 권선구 세류동 1128번지","indutype":"일반휴게음식 - 일반한식","category":"restaurant"},{"name":"석정","tel":"031-223-5214","addr":"경기도 수원시 권선구 세류동 1128번지 1층","indutype":"일반휴게음식 - 일반한식","category":"restaurant"}]},{"lat":"37.259935623","long":"127.01302751","imageIndex":4,"items":[{"name":"마중 cafe","tel":"031-222-0660","addr":"경기도 수원시 권선구 세류동 497-16번지 1층","indutype":"일반휴게음식 - 서양음식","category":"restaurant"}]},{"lat":"37.256321633","long":"127.02038782","imageIndex":4,"items":[{"name":"막줄래장어구이","tel":"031-234-1148","addr":"경기도 수원시 권선구 세류동 1077번지","indutype":"일반휴게음식 - 일반한식","category":"restaurant"}]},{"lat":"37.254493086","long":"127.01619421","imageIndex":4,"items":[{"name":"만나라스낵","tel":"070-4634-2030","addr":"경기도 수원시 권선구 세류동 1091-9번지","indutype":"일반휴게음식 - 스넥","category":"restaurant"}]},{"lat":"37.255881107","long":"127.01150521","imageIndex":4,"items":[{"name":"만리향","tel":"031-236-3848","addr":"경기도 수원시 권선구 세류동 537번지","indutype":"일반휴게음식 - 중국식","category":"restaurant"},{"name":"희망초이스(2호점)","tel":"031-238-0805","addr":"경기도 수원시 권선구 세류동 537번지","indutype":"일반휴게음식 - 일반한식","category":"restaurant"}]},{"lat":"37.265738341","long":"127.01194601","imageIndex":4,"items":[{"name":"만빈원","tel":"031-232-2836","addr":"경기도 수원시 권선구 세류동 97-5번지 1층","indutype":"일반휴게음식 - 중국식","category":"restaurant"}]},{"lat":"37.252096462","long":"127.01508917","imageIndex":4,"items":[{"name":"만수복민물장어구이","tel":"070-8918-7229","addr":"경기도 수원시 권선구 세류동 1125-27번지","indutype":"일반휴게음식 - 일반한식","category":"restaurant"}]},{"lat":"37.261097501","long":"127.01736776","imageIndex":4,"items":[{"name":"맘스터치 세류점","tel":"031-222-9759","addr":"경기도 수원시 권선구 세류동 840번지 상가동 102,103호","indutype":"일반휴게음식 - 서양음식","category":"restaurant"}]},{"lat":"37.254880083","long":"127.01969989","imageIndex":4,"items":[{"name":"맛골참숯갈비","tel":"031-239-2881","addr":"경기도 수원시 권선구 세류동 1081-22번지 102호","indutype":"일반휴게음식 - 일반한식","category":"restaurant"}]},{"lat":"37.252069137","long":"127.01767037","imageIndex":4,"items":[{"name":"맛나당","tel":"031-235-8987","addr":"경기도 수원시 권선구 세류동 1118-23번지 1층 6호","indutype":"일반휴게음식 - 일반한식","category":"restaurant"}]},{"lat":"37.258043092","long":"127.01666828","imageIndex":4,"items":[{"name":"매력덩어리","tel":"031-223-5214","addr":"경기도 수원시 권선구 세류동 872-24번지 1층","indutype":"일반휴게음식 - 일반한식","category":"restaurant"}]},{"lat":"37.241464208","long":"127.01580874","imageIndex":4,"items":[{"name":"매울만두하지","tel":"031-222-0015","addr":"경기도 수원시 권선구 세류동 1178-23번지 1층","indutype":"일반휴게음식 - 스넥","category":"restaurant"}]},{"lat":"37.249186099","long":"127.01539302","imageIndex":4,"items":[{"name":"먹고파","tel":"031-223-5214","addr":"경기도 수원시 권선구 세류동 1131-84번지 1층","indutype":"일반휴게음식 - 일반한식","category":"restaurant"}]},{"lat":"37.249348513","long":"127.01300355","imageIndex":4,"items":[{"name":"먹쇠갈비","tel":"031-234-5876","addr":"경기도 수원시 권선구 세류동 1141-14번지","indutype":"일반휴게음식 - 일반한식","category":"restaurant"}]},{"lat":"37.253546731","long":"127.01842587","imageIndex":4,"items":[{"name":"먹술","tel":"031-271-4119","addr":"경기도 수원시 권선구 세류동 1104-18번지 1층","indutype":"일반휴게음식 - 일반한식","category":"restaurant"},{"name":"멕시카나","tel":"031-239-0939","addr":"경기도 수원시 권선구 세류동 1104-18번지","indutype":"일반휴게음식 - 주점","category":"restaurant"},{"name":"홍단하우스","tel":"031-405-4404","addr":"경기도 수원시 권선구 세류동 1104-18번지","indutype":"일반휴게음식 - 일반한식","category":"restaurant"}]},{"lat":"37.252375532","long":"127.01730973","imageIndex":4,"items":[{"name":"면발땡기는날","tel":"031-235-4147","addr":"경기도 수원시 권선구 세류동 1117-14번지","indutype":"일반휴게음식 - 중국식","category":"restaurant"}]},{"lat":"37.256655488","long":"127.01681457","imageIndex":4,"items":[{"name":"명가참치","tel":"031-225-3786","addr":"경기도 수원시 권선구 세류동 1089-1번지","indutype":"일반휴게음식 - 일식·회집","category":"restaurant"}]},{"lat":"37.256213664","long":"127.01930566","imageIndex":4,"items":[{"name":"명품한돈","tel":"031-223-5242","addr":"경기도 수원시 권선구 세류동 1083-10번지","indutype":"일반휴게음식 - 일반한식","category":"restaurant"}]},{"lat":"37.248988114","long":"127.01283443","imageIndex":4,"items":[{"name":"모이세국수","tel":"031-224-9994","addr":"경기도 수원시 권선구 세류동 1141-3번지","indutype":"일반휴게음식 - 일반한식","category":"restaurant"},{"name":"세류옻닭","tel":"031-234-2979","addr":"경기도 수원시 권선구 세류동 1141-3 ,4","indutype":"일반휴게음식 - 일반한식","category":"restaurant"}]},{"lat":"37.254069388","long":"127.0179751","imageIndex":4,"items":[{"name":"모화정","tel":"","addr":"경기도 수원시 권선구 세류동 1095-8번지 1층","indutype":"일반휴게음식 - 일반한식","category":"restaurant"}]},{"lat":"37.254907594","long":"127.01588994","imageIndex":4,"items":[{"name":"무궁화생고기(무한삼겹)","tel":"031-221-0357","addr":"경기도 수원시 권선구 세류동 1090-24번지","indutype":"일반휴게음식 - 일반한식","category":"restaurant"},{"name":"오구피자","tel":"031-222-3659","addr":"경기도 수원시 권선구 세류동 1090-24번지","indutype":"일반휴게음식 - 서양음식","category":"restaurant"}]},{"lat":"37.250988126","long":"127.01573146","imageIndex":4,"items":[{"name":"문스갈비(수원점)","tel":"031-221-5148","addr":"경기도 수원시 권선구 세류동 1127번지 청림씨에스 101호","indutype":"일반휴게음식 - 일반한식","category":"restaurant"}]},{"lat":"37.257547496","long":"127.01691618","imageIndex":4,"items":[{"name":"뮤직스타","tel":"031-225-4528","addr":"경기도 수원시 권선구 세류동 881-8번지","indutype":"일반휴게음식 - 일반한식","category":"restaurant"}]},{"lat":"37.256159636","long":"127.01905765","imageIndex":4,"items":[{"name":"미 퐁드르","tel":"","addr":"경기도 수원시 권선구 세류동 1083-11번지 1층 하우스타 101호","indutype":"일반휴게음식 - 서양음식","category":"restaurant"}]},{"lat":"37.252736266","long":"127.01436788","imageIndex":4,"items":[{"name":"미각양꼬치","tel":"031-221-8858","addr":"경기도 수원시 권선구 세류동 1005-14번지 1층","indutype":"일반휴게음식 - 일반한식","category":"restaurant"}]},{"lat":"37.25609735","long":"127.0115616","imageIndex":4,"items":[{"name":"미니분식","tel":"031-234-9569","addr":"경기도 수원시 권선구 세류동 533-1번지 1층","indutype":"일반휴게음식 - 스넥","category":"restaurant"}]},{"lat":"37.244320496","long":"127.01567398","imageIndex":4,"items":[{"name":"미락해물&아구찜","tel":"031-235-4477","addr":"경기도 수원시 권선구 세류동 1158-16번지","indutype":"일반휴게음식 - 일반한식","category":"restaurant"}]},{"lat":"37.253186664","long":"127.01552894","imageIndex":4,"items":[{"name":"미미옛날통닭","tel":"031-236-8292","addr":"경기도 수원시 권선구 세류동 1110-5번지 1층","indutype":"일반휴게음식 - 스넥","category":"restaurant"}]},{"lat":"37.2530426","long":"127.014537","imageIndex":4,"items":[{"name":"미미향","tel":"031-232-5592","addr":"경기도 수원시 권선구 세류동 1005-19번지 1층","indutype":"일반휴게음식 - 중국식","category":"restaurant"}]},{"lat":"37.254853231","long":"127.01839232","imageIndex":4,"items":[{"name":"미스터아구왕","tel":"031-235-5050","addr":"경기도 수원시 권선구 세류동 1095-1번지","indutype":"일반휴게음식 - 일반한식","category":"restaurant"}]},{"lat":"37.259457567","long":"127.0178409","imageIndex":4,"items":[{"name":"미치GO무한돼지","tel":"03-111-1111","addr":"경기도 수원시 권선구 세류동 854-1번지 창원빌딩","indutype":"일반휴게음식 - 일반한식","category":"restaurant"},{"name":"역전할머니맥주","tel":"031-111-1111","addr":"경기도 수원시 권선구 세류동 854-1번지 창원빌딩","indutype":"일반휴게음식 - 주점","category":"restaurant"},{"name":"요리코","tel":"031-232-3732","addr":"경기도 수원시 권선구 세류동 854-1번지 1층","indutype":"일반휴게음식 - 일반한식","category":"restaurant"},{"name":"잭아저씨 족발&보쌈","tel":"031-222-5382","addr":"경기도 수원시 권선구 세류동 854-1번지 창원빌딩","indutype":"일반휴게음식 - 일반한식","category":"restaurant"}]},{"lat":"37.24837498","long":"127.01708355","imageIndex":4,"items":[{"name":"미코푸드","tel":"031-223-5214","addr":"경기도 수원시 권선구 세류동 1150-14번지","indutype":"일반휴게음식 - 서양음식","category":"restaurant"}]},{"lat":"37.25673712","long":"127.01103187","imageIndex":4,"items":[{"name":"민들레식당","tel":"031-222-7291","addr":"경기도 수원시 권선구 세류동 460-7번지 1층","indutype":"일반휴게음식 - 일반한식","category":"restaurant"}]},{"lat":"37.254546802","long":"127.01897841","imageIndex":4,"items":[{"name":"민들레식당","tel":"031-233-8341","addr":"경기도 수원시 권선구 세류동 1096-10번지","indutype":"일반휴게음식 - 일반한식","category":"restaurant"}]},{"lat":"37.256321716","long":"127.01981293","imageIndex":4,"items":[{"name":"바우네나주곰탕(세류점)","tel":"031-233-8939","addr":"경기도 수원시 권선구 세류동 1076-3번지 1층 102호","indutype":"일반휴게음식 - 일반한식","category":"restaurant"}]},{"lat":"37.263179626","long":"127.00862008","imageIndex":4,"items":[{"name":"반겨주는복돼지","tel":"031-236-9948","addr":"경기도 수원시 권선구 세류동 229-52번지 1층","indutype":"일반휴게음식 - 일반한식","category":"restaurant"}]},{"lat":"37.258737544","long":"127.00869865","imageIndex":4,"items":[{"name":"배달삼겹돼지되지 세류점","tel":"031-222-8599","addr":"경기도 수원시 권선구 세류동 443-23번지 101호","indutype":"일반휴게음식 - 일반한식","category":"restaurant"}]},{"lat":"37.260241911","long":"127.01372646","imageIndex":4,"items":[{"name":"배달의쌀국수 수원권선점","tel":"031-267-0422","addr":"경기도 수원시 권선구 세류동 162-8번지 102호","indutype":"일반휴게음식 - 일반한식","category":"restaurant"}]},{"lat":"37.250438714","long":"127.01353345","imageIndex":4,"items":[{"name":"백암토종순대","tel":"031-233-0447","addr":"경기도 수원시 권선구 세류동 1139번지","indutype":"일반휴게음식 - 일반한식","category":"restaurant"}]},{"lat":"37.2604042","long":"127.01253156","imageIndex":4,"items":[{"name":"버드네 분식","tel":"031-238-8944","addr":"경기도 수원시 권선구 세류동 477-16번지 1층","indutype":"일반휴게음식 - 스넥","category":"restaurant"}]},{"lat":"37.260683539","long":"127.01228359","imageIndex":4,"items":[{"name":"버드하이","tel":"031-234-2467","addr":"경기도 수원시 권선구 세류동 495-15번지","indutype":"일반휴게음식 - 일반한식","category":"restaurant"}]},{"lat":"37.258989781","long":"127.00966812","imageIndex":4,"items":[{"name":"벚꽃길","tel":"031-1111-1111","addr":"경기도 수원시 권선구 세류동 360-2번지 1층","indutype":"일반휴게음식 - 서양음식","category":"restaurant"}]},{"lat":"37.25360082","long":"127.01822299","imageIndex":4,"items":[{"name":"별난깡통집","tel":"031-238-0789","addr":"경기도 수원시 권선구 세류동 1104-3번지","indutype":"일반휴게음식 - 일반한식","category":"restaurant"}]},{"lat":"37.255709195","long":"127.01850522","imageIndex":4,"items":[{"name":"별난포차&호프","tel":"","addr":"경기도 수원시 권선구 세류동 1084-9번지 NS빌딩 1층","indutype":"일반휴게음식 - 주점","category":"restaurant"},{"name":"수원맛고을","tel":"031-239-0108","addr":"경기도 수원시 권선구 세류동 1084-9번지 1층","indutype":"일반휴게음식 - 일반한식","category":"restaurant"},{"name":"케이제이엠(KJM)푸드","tel":"","addr":"경기도 수원시 권선구 세류동 1084-9번지 NS빌딩","indutype":"일반휴게음식 - 일반한식","category":"restaurant"}]},{"lat":"37.254988199","long":"127.01975627","imageIndex":4,"items":[{"name":"별미닭갈비","tel":"031-236-9494","addr":"경기도 수원시 권선구 세류동 1081-21번지","indutype":"일반휴게음식 - 일반한식","category":"restaurant"}]},{"lat":"37.263125543","long":"127.00903719","imageIndex":4,"items":[{"name":"별미순대국","tel":"031-221-6007","addr":"경기도 수원시 권선구 세류동 229-69번지","indutype":"일반휴게음식 - 일반한식","category":"restaurant"}]},{"lat":"37.251735611","long":"127.01878619","imageIndex":4,"items":[{"name":"별밤","tel":"031-271-4119","addr":"경기도 수원시 권선구 세류동 1120-13번지 대영빌딩 B01호","indutype":"일반휴게음식 - 일반한식","category":"restaurant"},{"name":"황소숯불꼼장어","tel":"031-238-0877","addr":"경기도 수원시 권선구 세류동 1120-13번지","indutype":"일반휴게음식 - 일반한식","category":"restaurant"}]},{"lat":"37.253132209","long":"127.01878648","imageIndex":4,"items":[{"name":"보금성","tel":"031-233-1441","addr":"경기도 수원시 권선구 세류동 1103-2번지 1층","indutype":"일반휴게음식 - 중국식","category":"restaurant"}]},{"lat":"37.253493095","long":"127.01475124","imageIndex":4,"items":[{"name":"보라회집","tel":"031-233-4024","addr":"경기도 수원시 권선구 세류동 1007-21번지","indutype":"일반휴게음식 - 일반한식","category":"restaurant"}]},{"lat":"37.257015884","long":"127.0169499","imageIndex":4,"items":[{"name":"본죽세류점","tel":"031-231-1881","addr":"경기도 수원시 권선구 세류동 1075-26번지","indutype":"일반휴게음식 - 일반한식","category":"restaurant"}]},{"lat":"37.25516027","long":"127.01167421","imageIndex":4,"items":[{"name":"봉덕이흙돼지유황생오리","tel":"031-225-5298","addr":"경기도 수원시 권선구 세류동 537-25번지","indutype":"일반휴게음식 - 일반한식","category":"restaurant"},{"name":"비어앤락","tel":"031-808-4617","addr":"경기도 수원시 권선구 세류동 537-25번지","indutype":"일반휴게음식 - 일반한식","category":"restaurant"}]},{"lat":"37.245077373","long":"127.01558394","imageIndex":4,"items":[{"name":"부마부마호프","tel":"","addr":"경기도 수원시 권선구 세류동 1158-43번지","indutype":"일반휴게음식 - 주점","category":"restaurant"},{"name":"호남식당","tel":"031-234-7404","addr":"경기도 수원시 권선구 세류동 1158-43번지","indutype":"일반휴게음식 - 일반한식","category":"restaurant"}]},{"lat":"37.257520484","long":"127.01675836","imageIndex":4,"items":[{"name":"부어치킨","tel":"031-890-2003","addr":"경기도 수원시 권선구 세류동 873-6번지 1층","indutype":"일반휴게음식 - 스넥","category":"restaurant"}]},{"lat":"37.255348808","long":"127.01831352","imageIndex":4,"items":[{"name":"북경","tel":"031-237-4430","addr":"경기도 수원시 권선구 세류동 1084-6번지 1층","indutype":"일반휴게음식 - 중국식","category":"restaurant"},{"name":"진짜가마솥진짜통닭","tel":"031-223-5214","addr":"경기도 수원시 권선구 세류동 1084-6번지","indutype":"일반휴게음식 - 일반한식","category":"restaurant"}]},{"lat":"37.255159866","long":"127.01603652","imageIndex":4,"items":[{"name":"불양이모네","tel":"031-232-0402","addr":"경기도 수원시 권선구 세류동 1090-5번지 1층 102호","indutype":"일반휴게음식 - 주점","category":"restaurant"}]},{"lat":"37.249267342","long":"127.01387142","imageIndex":4,"items":[{"name":"불타는깡통","tel":"031-232-2962","addr":"경기도 수원시 권선구 세류동 1140-5번지","indutype":"일반휴게음식 - 일반한식","category":"restaurant"}]},{"lat":"37.25073606","long":"127.01347713","imageIndex":4,"items":[{"name":"불판생돼지전문점","tel":"031-231-9293","addr":"경기도 수원시 권선구 세류동 978-1번지","indutype":"일반휴게음식 - 일반한식","category":"restaurant"},{"name":"요리수리포차","tel":"031-222-8253","addr":"경기도 수원시 권선구 세류동 978-1번지","indutype":"일반휴게음식 - 일반한식","category":"restaurant"}]},{"lat":"37.252880228","long":"127.01630664","imageIndex":4,"items":[{"name":"붙뜰네순대국","tel":"031-224-4858","addr":"경기도 수원시 권선구 세류동 1108-25번지 1층","indutype":"일반휴게음식 - 일반한식","category":"restaurant"}]},{"lat":"37.244599694","long":"127.016756","imageIndex":4,"items":[{"name":"비너스7080","tel":"031-246-4664","addr":"경기도 수원시 권선구 세류동 1155-7번지 지하","indutype":"일반휴게음식 - 주점","category":"restaurant"}]},{"lat":"37.259295958","long":"127.01222706","imageIndex":4,"items":[{"name":"비비큐참숯바베큐","tel":"031-222-5992","addr":"경기도 수원시 권선구 세류동 476-12번지","indutype":"일반휴게음식 - 일반한식","category":"restaurant"},{"name":"앤드(And)","tel":"031-8092-9219","addr":"경기도 수원시 권선구 세류동 476-12번지","indutype":"일반휴게음식 - 일반한식","category":"restaurant"}]},{"lat":"37.264845988","long":"127.01558726","imageIndex":4,"items":[{"name":"비어스","tel":"031-267-0401","addr":"경기도 수원시 권선구 세류동 134-1번지","indutype":"일반휴게음식 - 주점","category":"restaurant"}]},{"lat":"37.252547328","long":"127.01100888","imageIndex":4,"items":[{"name":"비어카페","tel":"","addr":"경기도 수원시 권선구 세류동 566-5번지 1층","indutype":"일반휴게음식 - 서양음식","category":"restaurant"}]},{"lat":"37.245158557","long":"127.01469358","imageIndex":4,"items":[{"name":"비행장왕대포","tel":"070-2418-3161","addr":"경기도 수원시 권선구 세류동 1146-22번지","indutype":"일반휴게음식 - 주점","category":"restaurant"}]},{"lat":"37.256123731","long":"127.01803187","imageIndex":4,"items":[{"name":"빈(vin)푸드","tel":"031-238-0604","addr":"경기도 수원시 권선구 세류동 1085-3번지 101호","indutype":"일반휴게음식 - 일반한식","category":"restaurant"}]},{"lat":"37.254600783","long":"127.01956456","imageIndex":4,"items":[{"name":"빈병포자카야","tel":"031-233-5209","addr":"경기도 수원시 권선구 세류동 1098-22번지","indutype":"일반휴게음식 - 일반한식","category":"restaurant"}]},{"lat":"37.256854318","long":"127.01002865","imageIndex":4,"items":[{"name":"빈앤빈(Bean n Bean)","tel":"031-232-7178","addr":"경기도 수원시 권선구 세류동 461-17번지 1층","indutype":"일반휴게음식 - 서양음식","category":"restaurant"}]},{"lat":"37.253826416","long":"127.01533743","imageIndex":4,"items":[{"name":"뼈추리","tel":"031-221-1199","addr":"경기도 수원시 권선구 세류동 1111-3번지 1층","indutype":"일반휴게음식 - 일반한식","category":"restaurant"},{"name":"지브라포차","tel":"031-232-5892","addr":"경기도 수원시 권선구 세류동 1111-3번지","indutype":"일반휴게음식 - 주점","category":"restaurant"}]},{"lat":"37.253826827","long":"127.01047924","imageIndex":4,"items":[{"name":"사거리한식부페","tel":"031-223-5900","addr":"경기도 수원시 권선구 세류동 544-31번지 1층","indutype":"일반휴게음식 - 일반한식","category":"restaurant"}]},{"lat":"37.254069682","long":"127.01545019","imageIndex":4,"items":[{"name":"생태마을","tel":"031-225-5858","addr":"경기도 수원시 권선구 세류동 1111-25번지","indutype":"일반휴게음식 - 일반한식","category":"restaurant"}]},{"lat":"37.256547413","long":"127.01639747","imageIndex":4,"items":[{"name":"서현네 대구왕뽈찜","tel":"031-304-5695","addr":"경기도 수원시 권선구 세류동 876-9번지 1층","indutype":"일반휴게음식 - 일반한식","category":"restaurant"}]},{"lat":"37.255825986","long":"127.0209175","imageIndex":4,"items":[{"name":"석봉토스트세류점","tel":"031-238-6455","addr":"경기도 수원시 권선구 세류동 1080-16번지","indutype":"일반휴게음식 - 일반한식","category":"restaurant"}]},{"lat":"37.263630023","long":"127.01067187","imageIndex":4,"items":[{"name":"성아네밥상","tel":"031-238-9229","addr":"경기도 수원시 권선구 세류동 91-11번지 201호","indutype":"일반휴게음식 - 일반한식","category":"restaurant"}]},{"lat":"37.252907717","long":"127.0113358","imageIndex":4,"items":[{"name":"세류가마솥보신탕","tel":"031-237-2789","addr":"경기도 수원시 권선구 세류동 994-8번지","indutype":"일반휴게음식 - 일반한식","category":"restaurant"}]},{"lat":"37.256988896","long":"127.01658918","imageIndex":4,"items":[{"name":"세류명가","tel":"031-236-9992","addr":"경기도 수원시 권선구 세류동 874-9번지 1층","indutype":"일반휴게음식 - 일반한식","category":"restaurant"},{"name":"커피나무","tel":"031-223-9577","addr":"경기도 수원시 권선구 세류동 874-9번지","indutype":"일반휴게음식 - 서양음식","category":"restaurant"}]},{"lat":"37.256493313","long":"127.01672436","imageIndex":4,"items":[{"name":"세류이모네(식당)","tel":"031-267-2027","addr":"경기도 수원시 권선구 세류동 1089-22번지 1층","indutype":"일반휴게음식 - 일반한식","category":"restaurant"}]},{"lat":"37.259458152","long":"127.01211435","imageIndex":4,"items":[{"name":"세류족발","tel":"031-221-5546","addr":"경기도 수원시 권선구 세류동 476-8번지 1층","indutype":"일반휴게음식 - 일반한식","category":"restaurant"}]},{"lat":"37.260431418","long":"127.00987116","imageIndex":4,"items":[{"name":"세류회수산","tel":"031-235-0099","addr":"경기도 수원시 권선구 세류동 349-3번지 1층","indutype":"일반휴게음식 - 일반한식","category":"restaurant"}]},{"lat":"37.250069328","long":"127.01311636","imageIndex":4,"items":[{"name":"소가네","tel":"031-237-2728","addr":"경기도 수원시 권선구 세류동 975-5번지 101호","indutype":"일반휴게음식 - 일반한식","category":"restaurant"}]},{"lat":"37.264350999","long":"127.0078423","imageIndex":4,"items":[{"name":"소울57","tel":"070-4667-6646","addr":"경기도 수원시 권선구 세류동 230-58번지 1층 201호","indutype":"일반휴게음식 - 일반한식","category":"restaurant"}]},{"lat":"37.254240787","long":"127.01628434","imageIndex":4,"items":[{"name":"소주선","tel":"031-111-1111","addr":"경기도 수원시 권선구 세류동 1110-16번지 1층","indutype":"일반휴게음식 - 스넥","category":"restaurant"}]},{"lat":"37.24946564","long":"127.01308246","imageIndex":4,"items":[{"name":"소풍가는날","tel":"031-233-3256","addr":"경기도 수원시 권선구 세류동 1141번지","indutype":"일반휴게음식 - 스넥","category":"restaurant"}]},{"lat":"37.255790594","long":"127.01598027","imageIndex":4,"items":[{"name":"속초애명태간장조림","tel":"031-255-1105","addr":"경기도 수원시 권선구 세류동 879-31번지 1층","indutype":"일반휴게음식 - 일반한식","category":"restaurant"}]},{"lat":"37.259070904","long":"127.00911577","imageIndex":4,"items":[{"name":"송원동태전문점","tel":"031-236-2339","addr":"경기도 수원시 권선구 세류동 360-11번지 1층","indutype":"일반휴게음식 - 일반한식","category":"restaurant"}]},{"lat":"37.249879614","long":"127.0178052","imageIndex":4,"items":[{"name":"송탄참작부대찌게","tel":"031-237-4455","addr":"경기도 수원시 권선구 세류동 1129-4번지","indutype":"일반휴게음식 - 일반한식","category":"restaurant"}]},{"lat":"37.248573591","long":"127.01339793","imageIndex":4,"items":[{"name":"송할머니옻닭집","tel":"031-239-3684","addr":"경기도 수원시 권선구 세류동 1141-10번지","indutype":"일반휴게음식 - 일반한식","category":"restaurant"}]},{"lat":"37.256709547","long":"127.01683712","imageIndex":4,"items":[{"name":"송호 참치 전문점","tel":"031-232-0037","addr":"경기도 수원시 권선구 세류동 1089-18번지","indutype":"일반휴게음식 - 일식·회집","category":"restaurant"}]},{"lat":"37.255376102","long":"127.016138","imageIndex":4,"items":[{"name":"수경수제만두","tel":"031-221-6944","addr":"경기도 수원시 권선구 세류동 1090-22번지","indutype":"일반휴게음식 - 주점","category":"restaurant"}]},{"lat":"37.264179807","long":"127.0077521","imageIndex":4,"items":[{"name":"수원센트럴점 이디야커피","tel":"031-224-7290","addr":"경기도 수원시 권선구 세류동 230-62번지 1층","indutype":"일반휴게음식 - 서양음식","category":"restaurant"},{"name":"치킨마루수원센트럴타운점","tel":"031-1111-1111","addr":"경기도 수원시 권선구 세류동 230-62번지 1층","indutype":"일반휴게음식 - 스넥","category":"restaurant"}]},{"lat":"37.255627875","long":"127.02013967","imageIndex":4,"items":[{"name":"수원짜글이네","tel":"031-221-4548","addr":"경기도 수원시 권선구 세류동 1081-8번지 1층","indutype":"일반휴게음식 - 일반한식","category":"restaurant"},{"name":"옥당골생선구이","tel":"031-7566-7222","addr":"경기도 수원시 권선구 세류동 1081-8번지","indutype":"일반휴게음식 - 일반한식","category":"restaurant"},{"name":"해피투게더","tel":"031-222-2036","addr":"경기도 수원시 권선구 세류동 1081-8번지","indutype":"일반휴게음식 - 주점","category":"restaurant"}]},{"lat":"37.258818522","long":"127.01069392","imageIndex":4,"items":[{"name":"수제손돈까스","tel":"031-232-2325","addr":"경기도 수원시 권선구 세류동 470-2번지 1층","indutype":"일반휴게음식 - 일반한식","category":"restaurant"}]},{"lat":"37.259242125","long":"127.00861978","imageIndex":4,"items":[{"name":"순대국","tel":"031-223-7723","addr":"경기도 수원시 권선구 세류동 444-16번지","indutype":"일반휴게음식 - 일반한식","category":"restaurant"}]},{"lat":"37.249880165","long":"127.01247386","imageIndex":4,"items":[{"name":"순이네손맛","tel":"031-225-1399","addr":"경기도 수원시 권선구 세류동 976-19번지","indutype":"일반휴게음식 - 일반한식","category":"restaurant"}]},{"lat":"37.253654913","long":"127.01797502","imageIndex":4,"items":[{"name":"순이네술상밥상","tel":"031-221-2836","addr":"경기도 수원시 권선구 세류동 1105-14번지 1층","indutype":"일반휴게음식 - 일반한식","category":"restaurant"},{"name":"썸비어(some beer)","tel":"031-267-0290","addr":"경기도 수원시 권선구 세류동 1105-14번지 1층","indutype":"일반휴게음식 - 주점","category":"restaurant"},{"name":"야촌","tel":"031-223-5931","addr":"경기도 수원시 권선구 세류동 1105-14번지","indutype":"일반휴게음식 - 일반한식","category":"restaurant"}]},{"lat":"37.259602601","long":"127.00708672","imageIndex":4,"items":[{"name":"술zari","tel":"031-225-7819","addr":"경기도 수원시 권선구 세류동 255-2번지","indutype":"일반휴게음식 - 주점","category":"restaurant"},{"name":"최씨고집 삼계탕","tel":"031-237-7727","addr":"경기도 수원시 권선구 세류동 255-2번지 1층","indutype":"일반휴게음식 - 일반한식","category":"restaurant"}]},{"lat":"37.258791592","long":"127.00898047","imageIndex":4,"items":[{"name":"술마시는하마","tel":"031-236-1781","addr":"경기도 수원시 권선구 세류동 360-5번지 1층","indutype":"일반휴게음식 - 주점","category":"restaurant"}]},{"lat":"37.2505195","long":"127.01653165","imageIndex":4,"items":[{"name":"술술풀리네","tel":"070-5118-2236","addr":"경기도 수원시 권선구 세류동 1127-2번지 1층","indutype":"일반휴게음식 - 일반한식","category":"restaurant"},{"name":"진순대곰탕","tel":"031-223-7775","addr":"경기도 수원시 권선구 세류동 1127-2번지 1층","indutype":"일반휴게음식 - 일반한식","category":"restaurant"}]},{"lat":"37.256763817","long":"127.01494338","imageIndex":4,"items":[{"name":"쉼표(수원시니어클럽)","tel":"031-202-1435","addr":"경기도 수원시 권선구 세류동 503-2번지","indutype":"일반휴게음식 - 서양음식","category":"restaurant"}]},{"lat":"37.243987164","long":"127.01520056","imageIndex":4,"items":[{"name":"슈발리에","tel":"031-236-8730","addr":"경기도 수원시 권선구 세류동 1159-4번지 낙원맨숀","indutype":"일반휴게음식 - 일반한식","category":"restaurant"}]},{"lat":"37.263684341","long":"127.00275797","imageIndex":4,"items":[{"name":"스레이서레스토랑","tel":"","addr":"경기도 수원시 권선구 세류동 179번지 세지빌딩 지하","indutype":"일반휴게음식 - 서양음식","category":"restaurant"}]},{"lat":"37.254430074","long":"127.01564187","imageIndex":4,"items":[{"name":"스마일꽈배기","tel":"","addr":"경기도 수원시 권선구 세류동 1111번지 1층","indutype":"일반휴게음식 - 서양음식","category":"restaurant"},{"name":"착한손칼국수","tel":"031-234-0930","addr":"경기도 수원시 권선구 세류동 1111번지","indutype":"일반휴게음식 - 일반한식","category":"restaurant"}]},{"lat":"37.256070023","long":"127.01494327","imageIndex":4,"items":[{"name":"스타쿠킹","tel":"031-222-0305","addr":"경기도 수원시 권선구 세류동 1015-4번지 103호","indutype":"일반휴게음식 - 일반한식","category":"restaurant"}]},{"lat":"37.255160327","long":"127.01086262","imageIndex":4,"items":[{"name":"승애포차","tel":"031-224-4800","addr":"경기도 수원시 권선구 세류동 459-15번지","indutype":"일반휴게음식 - 일반한식","category":"restaurant"},{"name":"한라산생고기와감자탕","tel":"031-221-5244","addr":"경기도 수원시 권선구 세류동 459-15번지","indutype":"일반휴게음식 - 일반한식","category":"restaurant"}]},{"lat":"37.25645695","long":"127.01924935","imageIndex":4,"items":[{"name":"시골집","tel":"031-237-3651","addr":"경기도 수원시 권선구 세류동 1076-4번지 1층","indutype":"일반휴게음식 - 일반한식","category":"restaurant"},{"name":"피자브라더스(권선점)","tel":"031-234-1989","addr":"경기도 수원시 권선구 세류동 1076-4번지 1층","indutype":"일반휴게음식 - 서양음식","category":"restaurant"}]},{"lat":"37.245158498","long":"127.01527965","imageIndex":4,"items":[{"name":"시골집","tel":"031-235-5929","addr":"경기도 수원시 권선구 세류동 1158-32번지 1층","indutype":"일반휴게음식 - 일반한식","category":"restaurant"},{"name":"왕십리곱창","tel":"031-232-2243","addr":"경기도 수원시 권선구 세류동 1158-32번지","indutype":"일반휴게음식 - 일반한식","category":"restaurant"},{"name":"이모네밥집","tel":"031-223-3637","addr":"경기도 수원시 권선구 세류동 1158-32번지","indutype":"일반휴게음식 - 스넥","category":"restaurant"}]},{"lat":"37.266017637","long":"127.01225043","imageIndex":4,"items":[{"name":"시골집","tel":"031-224-3765","addr":"경기도 수원시 권선구 세류동 97-114번지 1층","indutype":"일반휴게음식 - 일반한식","category":"restaurant"}]},{"lat":"37.253294354","long":"127.01909086","imageIndex":4,"items":[{"name":"시드투커피 서정이점","tel":"031-233-3807","addr":"경기도 수원시 권선구 세류동 1103-19번지 101호","indutype":"일반휴게음식 - 서양음식","category":"restaurant"}]},{"lat":"37.255267983","long":"127.0160929","imageIndex":4,"items":[{"name":"시에프바베큐치킨(CF바베큐치킨)","tel":"031-232-0033","addr":"경기도 수원시 권선구 세류동 1090-4번지 1층","indutype":"일반휴게음식 - 스넥","category":"restaurant"},{"name":"투다리","tel":"","addr":"경기도 수원시 권선구 세류동 1090-4번지 1층","indutype":"일반휴게음식 - 일반한식","category":"restaurant"}]},{"lat":"37.259881027","long":"127.01803262","imageIndex":4,"items":[{"name":"신전떡볶이 수원지사","tel":"031-222-4482","addr":"경기도 수원시 권선구 세류동 845-4번지 승주빌딩","indutype":"일반휴게음식 - 일반한식","category":"restaurant"},{"name":"중국관","tel":"031-232-3733","addr":"경기도 수원시 권선구 세류동 845-4번지","indutype":"일반휴게음식 - 중국식","category":"restaurant"},{"name":"하림멕시칸양념통닭","tel":"031-237-7795","addr":"경기도 수원시 권선구 세류동 845-4번지","indutype":"일반휴게음식 - 서양음식","category":"restaurant"}]},{"lat":"37.255880959","long":"127.01334258","imageIndex":4,"items":[{"name":"신흥통닭","tel":"031-231-8944","addr":"경기도 수원시 권선구 세류동 1018-107번지","indutype":"일반휴게음식 - 서양음식","category":"restaurant"}]},{"lat":"37.252186392","long":"127.01666721","imageIndex":4,"items":[{"name":"쌍용각","tel":"031-224-5109","addr":"경기도 수원시 권선구 세류동 1116-9번지","indutype":"일반휴게음식 - 중국식","category":"restaurant"}]},{"lat":"37.264540215","long":"127.00784231","imageIndex":4,"items":[{"name":"썬더치킨 세류점","tel":"","addr":"경기도 수원시 권선구 세류동 230-26번지","indutype":"일반휴게음식 - 스넥","category":"restaurant"}]},{"lat":"37.255240622","long":"127.01878693","imageIndex":4,"items":[{"name":"아리랑꼬치구이","tel":"031-223-6988","addr":"경기도 수원시 권선구 세류동 1083-5번지 1층","indutype":"일반휴게음식 - 중국식","category":"restaurant"}]},{"lat":"37.258908761","long":"127.00825903","imageIndex":4,"items":[{"name":"아우라지","tel":"031-232-4926","addr":"경기도 수원시 권선구 세류동 444-11번지","indutype":"일반휴게음식 - 일반한식","category":"restaurant"}]},{"lat":"37.257015806","long":"127.01759243","imageIndex":4,"items":[{"name":"아트김밥","tel":"031-225-7084","addr":"경기도 수원시 권선구 세류동 1075-3번지 1층","indutype":"일반휴게음식 - 일반한식","category":"restaurant"}]},{"lat":"37.249600827","long":"127.01269925","imageIndex":4,"items":[{"name":"아하육해공그집","tel":"031-233-4883","addr":"경기도 수원시 권선구 세류동 975-11번지 1층","indutype":"일반휴게음식 - 일반한식","category":"restaurant"},{"name":"하이트피아","tel":"031-239-4757","addr":"경기도 수원시 권선구 세류동 975-11번지","indutype":"일반휴게음식 - 주점","category":"restaurant"}]},{"lat":"37.262683938","long":"127.01072814","imageIndex":4,"items":[{"name":"얌얌푸드","tel":"031-239-0365","addr":"경기도 수원시 권선구 세류동 324-5번지 1층","indutype":"일반휴게음식 - 일반한식","category":"restaurant"},{"name":"투다리세류점","tel":"031-111-1111","addr":"경기도 수원시 권선구 세류동 324-5번지","indutype":"일반휴게음식 - 일반한식","category":"restaurant"}]},{"lat":"37.258214218","long":"127.01725448","imageIndex":4,"items":[{"name":"양치는아저씨1929 세류점","tel":"031-247-3231","addr":"경기도 수원시 권선구 세류동 862-4번지 1층","indutype":"일반휴게음식 - 일반한식","category":"restaurant"}]},{"lat":"37.262296535","long":"127.01011935","imageIndex":4,"items":[{"name":"양평해장국","tel":"031-221-4614","addr":"경기도 수원시 권선구 세류동 345-1번지","indutype":"일반휴게음식 - 일반한식","category":"restaurant"}]},{"lat":"37.244293513","long":"127.01522316","imageIndex":4,"items":[{"name":"어촌마을","tel":"","addr":"경기도 수원시 권선구 세류동 1158-24번지 1층","indutype":"일반휴게음식 - 일식·회집","category":"restaurant"}]},{"lat":"37.254790466","long":"127.01583356","imageIndex":4,"items":[{"name":"언니네물갈비","tel":"031-237-1281","addr":"경기도 수원시 권선구 세류동 1090-7번지 101호","indutype":"일반휴게음식 - 일반한식","category":"restaurant"}]},{"lat":"37.248627359","long":"127.01630589","imageIndex":4,"items":[{"name":"엄마김밥","tel":"031-235-7832","addr":"경기도 수원시 권선구 세류동 1149-9번지","indutype":"일반휴게음식 - 스넥","category":"restaurant"}]},{"lat":"37.259431048","long":"127.01300489","imageIndex":4,"items":[{"name":"엄마손분식","tel":"031-232-0893","addr":"경기도 수원시 권선구 세류동 513번지 1층","indutype":"일반휴게음식 - 스넥","category":"restaurant"}]},{"lat":"37.258764334","long":"127.01241863","imageIndex":4,"items":[{"name":"에덴호프","tel":"031-221-8158","addr":"경기도 수원시 권선구 세류동 524-25번지","indutype":"일반휴게음식 - 주점","category":"restaurant"},{"name":"페리카나치킨","tel":"031-233-9621","addr":"경기도 수원시 권선구 세류동 524-25번지","indutype":"일반휴게음식 - 서양음식","category":"restaurant"}]},{"lat":"37.254601681","long":"127.01097528","imageIndex":4,"items":[{"name":"에드가(edgar)까페","tel":"031-221-8887","addr":"경기도 수원시 권선구 세류동 544-8번지 1층","indutype":"일반휴게음식 - 서양음식","category":"restaurant"}]},{"lat":"37.25385322","long":"127.01733256","imageIndex":4,"items":[{"name":"엔조이락","tel":"031-223-5931","addr":"경기도 수원시 권선구 세류동 1107번지 1층","indutype":"일반휴게음식 - 주점","category":"restaurant"}]},{"lat":"37.26276529","long":"127.00317508","imageIndex":4,"items":[{"name":"여보카페","tel":"031-5894-3346","addr":"경기도 수원시 권선구 세류동 186-1번지 지하1층","indutype":"일반휴게음식 - 서양음식","category":"restaurant"}]},{"lat":"37.258241799","long":"127.01161821","imageIndex":4,"items":[{"name":"영동갈비","tel":"031-232-3018","addr":"경기도 수원시 권선구 세류동 467-13번지","indutype":"일반휴게음식 - 일반한식","category":"restaurant"}]},{"lat":"37.253907927","long":"127.01036653","imageIndex":4,"items":[{"name":"영동식당","tel":"031-235-8962","addr":"경기도 수원시 권선구 세류동 543-4번지","indutype":"일반휴게음식 - 일반한식","category":"restaurant"}]},{"lat":"37.254908071","long":"127.01036663","imageIndex":4,"items":[{"name":"영화루","tel":"031-232-7414","addr":"경기도 수원시 권선구 세류동 540-6번지 1층","indutype":"일반휴게음식 - 중국식","category":"restaurant"}]},{"lat":"37.255187347","long":"127.01103171","imageIndex":4,"items":[{"name":"영화양꼬치","tel":"","addr":"경기도 수원시 권선구 세류동 459-16번지 1층","indutype":"일반휴게음식 - 일반한식","category":"restaurant"}]},{"lat":"37.258935765","long":"127.0088114","imageIndex":4,"items":[{"name":"예찬","tel":"031-302-0994","addr":"경기도 수원시 권선구 세류동 443-21번지","indutype":"일반휴게음식 - 일반한식","category":"restaurant"}]},{"lat":"37.252492598","long":"127.01786207","imageIndex":4,"items":[{"name":"옛날설렁탕","tel":"031-238-2939","addr":"경기도 수원시 권선구 세류동 1104-16번지","indutype":"일반휴게음식 - 일반한식","category":"restaurant"}]},{"lat":"37.244825159","long":"127.01486258","imageIndex":4,"items":[{"name":"옛날에","tel":"031-239-6972","addr":"경기도 수원시 권선구 세류동 1146-30번지","indutype":"일반휴게음식 - 일반한식","category":"restaurant"}]},{"lat":"37.244104233","long":"127.01580919","imageIndex":4,"items":[{"name":"오늘","tel":"031-232-8398","addr":"경기도 수원시 권선구 세류동 1159-7번지","indutype":"일반휴게음식 - 서양음식","category":"restaurant"}]},{"lat":"37.26335096","long":"127.00281433","imageIndex":4,"items":[{"name":"오성식당","tel":"031-224-2720","addr":"경기도 수원시 권선구 세류동 181번지","indutype":"일반휴게음식 - 중국식","category":"restaurant"}]},{"lat":"37.262017411","long":"127.0053057","imageIndex":4,"items":[{"name":"옥이네 제주흑돼지","tel":"031-236-6655","addr":"경기도 수원시 권선구 세류동 252-9번지","indutype":"일반휴게음식 - 일반한식","category":"restaurant"}]},{"lat":"37.254654923","long":"127.01900097","imageIndex":4,"items":[{"name":"올라와","tel":"031-223-9159","addr":"경기도 수원시 권선구 세류동 1096-3번지 2층","indutype":"일반휴게음식 - 일반한식","category":"restaurant"}]},{"lat":"37.253042539","long":"127.01514568","imageIndex":4,"items":[{"name":"와우막창","tel":"031-222-3376","addr":"경기도 수원시 권선구 세류동 1112-7번지 1층","indutype":"일반휴게음식 - 일반한식","category":"restaurant"},{"name":"좋은고기","tel":"031-233-7727","addr":"경기도 수원시 권선구 세류동 1112-7번지 1층","indutype":"일반휴게음식 - 일반한식","category":"restaurant"},{"name":"주당클럽","tel":"031-232-0512","addr":"경기도 수원시 권선구 세류동 1112-7번지 1층","indutype":"일반휴게음식 - 주점","category":"restaurant"}]},{"lat":"37.258097091","long":"127.0171981","imageIndex":4,"items":[{"name":"와플트리","tel":"031-234-6408","addr":"경기도 수원시 권선구 세류동 862-5번지 1층","indutype":"일반휴게음식 - 서양음식","category":"restaurant"}]},{"lat":"37.25262811","long":"127.01469474","imageIndex":4,"items":[{"name":"왕빈자삼파전","tel":"031-233-8772","addr":"경기도 수원시 권선구 세류동 1112-2번지 1층","indutype":"일반휴게음식 - 일반한식","category":"restaurant"},{"name":"자주와포차","tel":"031-239-7090","addr":"경기도 수원시 권선구 세류동 1112-2번지 1층","indutype":"일반휴게음식 - 일반한식","category":"restaurant"}]},{"lat":"37.25182659","long":"127.00961112","imageIndex":4,"items":[{"name":"왕초네","tel":"031-239-6954","addr":"경기도 수원시 권선구 세류동 571-4번지 1층","indutype":"일반휴게음식 - 일반한식","category":"restaurant"}]},{"lat":"37.254042483","long":"127.01694935","imageIndex":4,"items":[{"name":"우람치킨","tel":"031-239-0005","addr":"경기도 수원시 권선구 세류동 1108번지","indutype":"일반휴게음식 - 주점","category":"restaurant"}]},{"lat":"37.254709435","long":"127.01525867","imageIndex":4,"items":[{"name":"우리동네 솥뚜껑 생 삼겹살","tel":"031-0000-0000","addr":"경기도 수원시 권선구 세류동 1012-21번지 1층","indutype":"일반휴게음식 - 일반한식","category":"restaurant"}]},{"lat":"37.252681929","long":"127.01692655","imageIndex":4,"items":[{"name":"우솔촌","tel":"031-235-8826","addr":"경기도 수원시 권선구 세류동 1107-25번지 1층","indutype":"일반휴게음식 - 일반한식","category":"restaurant"}]},{"lat":"37.263936535","long":"127.00761681","imageIndex":4,"items":[{"name":"우아만두","tel":"031-232-7988","addr":"경기도 수원시 권선구 세류동 230-41번지 1동 101호","indutype":"일반휴게음식 - 일반한식","category":"restaurant"}]},{"lat":"37.253429602","long":"127.01839203","imageIndex":4,"items":[{"name":"우장군","tel":"031-223-5214","addr":"경기도 수원시 권선구 세류동 1104-19번지 동원빌딩","indutype":"일반휴게음식 - 일반한식","category":"restaurant"}]},{"lat":"37.254908177","long":"127.00845037","imageIndex":4,"items":[{"name":"우정분식","tel":"031-221-1917","addr":"경기도 수원시 권선구 세류동 440-8번지","indutype":"일반휴게음식 - 스넥","category":"restaurant"}]},{"lat":"37.254240612","long":"127.0177497","imageIndex":4,"items":[{"name":"울랄라포차","tel":"031-221-1242","addr":"경기도 수원시 권선구 세류동 1094-11번지 이레주택그린하우스 1층","indutype":"일반휴게음식 - 일반한식","category":"restaurant"}]},{"lat":"37.255096311","long":"127.0198352","imageIndex":4,"items":[{"name":"울랄라포차3호점","tel":"031-236-8833","addr":"경기도 수원시 권선구 세류동 1081-13번지 대주빌딩 102호","indutype":"일반휴게음식 - 주점","category":"restaurant"}]},{"lat":"37.253213227","long":"127.01933882","imageIndex":4,"items":[{"name":"원두막","tel":"031-226-1256","addr":"경기도 수원시 권선구 세류동 1102번지","indutype":"일반휴게음식 - 일반한식","category":"restaurant"}]},{"lat":"37.254132637","long":"127.01650976","imageIndex":4,"items":[{"name":"원시다자","tel":"070-8246-5173","addr":"경기도 수원시 권선구 세류동 1109번지","indutype":"일반휴게음식 - 일반한식","category":"restaurant"}]},{"lat":"37.261124921","long":"127.01372659","imageIndex":4,"items":[{"name":"원식당","tel":"031-221-2920","addr":"경기도 수원시 권선구 세류동 167-17번지","indutype":"일반휴게음식 - 일반한식","category":"restaurant"}]},{"lat":"37.25573647","long":"127.01653259","imageIndex":4,"items":[{"name":"유로포차","tel":"","addr":"경기도 수원시 권선구 세류동 1090-21번지 1층","indutype":"일반휴게음식 - 일반한식","category":"restaurant"}]},{"lat":"37.243960173","long":"127.01480609","imageIndex":4,"items":[{"name":"육콩","tel":"031-224-6080","addr":"경기도 수원시 권선구 세류동 1159번지 1층","indutype":"일반휴게음식 - 일반한식","category":"restaurant"}]},{"lat":"37.263540154","long":"127.00514792","imageIndex":4,"items":[{"name":"윤하우스포차","tel":"031-237-6153","addr":"경기도 수원시 권선구 세류동 244-43번지 1층","indutype":"일반휴게음식 - 일반한식","category":"restaurant"}]},{"lat":"37.261602519","long":"127.01314046","imageIndex":4,"items":[{"name":"율이네식당","tel":"070-7539-0017","addr":"경기도 수원시 권선구 세류동 173-5번지","indutype":"일반휴게음식 - 일반한식","category":"restaurant"}]},{"lat":"37.254907963","long":"127.01192217","imageIndex":4,"items":[{"name":"은마호프","tel":"031-232-7375","addr":"경기도 수원시 권선구 세류동 1024-4번지","indutype":"일반휴게음식 - 주점","category":"restaurant"}]},{"lat":"37.250933821","long":"127.0178054","imageIndex":4,"items":[{"name":"이서방왕족발","tel":"031-233-5515","addr":"경기도 수원시 권선구 세류동 1119-29번지","indutype":"일반휴게음식 - 일반한식","category":"restaurant"}]},{"lat":"37.252763256","long":"127.01478494","imageIndex":4,"items":[{"name":"이조해장국","tel":"031-232-6653","addr":"경기도 수원시 권선구 세류동 1112-1번지","indutype":"일반휴게음식 - 일반한식","category":"restaurant"}]},{"lat":"37.259151743","long":"127.01283577","imageIndex":4,"items":[{"name":"이천집","tel":"031-233-1740","addr":"경기도 수원시 권선구 세류동 524번지","indutype":"일반휴게음식 - 일반한식","category":"restaurant"},{"name":"집밥에 한잔","tel":"","addr":"경기도 수원시 권선구 세류동 524번지","indutype":"일반휴게음식 - 일반한식","category":"restaurant"}]},{"lat":"37.250492793","long":"127.01334184","imageIndex":4,"items":[{"name":"일번지식당","tel":"031-238-9455","addr":"경기도 수원시 권선구 세류동 974-3번지","indutype":"일반휴게음식 - 일반한식","category":"restaurant"}]},{"lat":"37.263575675","long":"127.01422297","imageIndex":4,"items":[{"name":"일식 한식 전문점 필(feel)","tel":"031-222-9962","addr":"경기도 수원시 권선구 세류동 129-1번지 1층","indutype":"일반휴게음식 - 일반한식","category":"restaurant"}]},{"lat":"37.25413279","long":"127.01511204","imageIndex":4,"items":[{"name":"일인자감자탕","tel":"031-233-8806","addr":"경기도 수원시 권선구 세류동 1010-7번지 1층","indutype":"일반휴게음식 - 일반한식","category":"restaurant"}]},{"lat":"37.251853724","long":"127.00744698","imageIndex":4,"items":[{"name":"일조원","tel":"031-222-0897","addr":"경기도 수원시 권선구 세류동 659-1","indutype":"일반휴게음식 - 중국식","category":"restaurant"}]},{"lat":"37.262458841","long":"127.00775199","imageIndex":4,"items":[{"name":"일흥해물탕아구찜","tel":"031-221-4406","addr":"경기도 수원시 권선구 세류동 224-7번지","indutype":"일반휴게음식 - 일반한식","category":"restaurant"}]},{"lat":"37.260629464","long":"127.01245268","imageIndex":4,"items":[{"name":"임가네김치찌개","tel":"031-234-4449","addr":"경기도 수원시 권선구 세류동 495-10번지 1층","indutype":"일반휴게음식 - 일반한식","category":"restaurant"},{"name":"진미통닭","tel":"031-224-7577","addr":"경기도 수원시 권선구 세류동 495-10번지","indutype":"일반휴게음식 - 스넥","category":"restaurant"}]},{"lat":"37.249240396","long":"127.01292463","imageIndex":4,"items":[{"name":"임봉학왕가리호프","tel":"031-8003-4800","addr":"경기도 수원시 권선구 세류동 1141-1번지","indutype":"일반휴게음식 - 일반한식","category":"restaurant"}]},{"lat":"37.25646587","long":"127.01989187","imageIndex":4,"items":[{"name":"자연샘","tel":"031-225-5211","addr":"경기도 수원시 권선구 세류동 1076-2 외1필지 평화빌딩1층","indutype":"일반휴게음식 - 일반한식","category":"restaurant"}]},{"lat":"37.253348443","long":"127.01888798","imageIndex":4,"items":[{"name":"작은무대7080","tel":"031-221-7309","addr":"경기도 수원시 권선구 세류동 1103번지 지하","indutype":"일반휴게음식 - 주점","category":"restaurant"}]},{"lat":"37.253628201","long":"127.01522468","imageIndex":4,"items":[{"name":"작은식당","tel":"031-222-2804","addr":"경기도 수원시 권선구 세류동 1111-5번지 1층","indutype":"일반휴게음식 - 일반한식","category":"restaurant"}]},{"lat":"37.260016754","long":"127.01256533","imageIndex":4,"items":[{"name":"장박사감자탕","tel":"031-237-8001","addr":"경기도 수원시 권선구 세류동 477-5번지","indutype":"일반휴게음식 - 일반한식","category":"restaurant"}]},{"lat":"37.258431013","long":"127.01164078","imageIndex":4,"items":[{"name":"장수촌","tel":"031-212-2113","addr":"경기도 수원시 권선구 세류동 467-15번지","indutype":"일반휴게음식 - 일반한식","category":"restaurant"}]},{"lat":"37.244518656","long":"127.01628262","imageIndex":4,"items":[{"name":"장어일번지","tel":"031-223-5214","addr":"경기도 수원시 권선구 세류동 1157번지 새수원리빙타운 101호","indutype":"일반휴게음식 - 일반한식","category":"restaurant"}]},{"lat":"37.264098076","long":"127.01611698","imageIndex":4,"items":[{"name":"장원가든","tel":"031-225-5072","addr":"경기도 수원시 권선구 세류동 140-19번지","indutype":"일반휴게음식 - 일반한식","category":"restaurant"}]},{"lat":"37.255881076","long":"127.01192229","imageIndex":4,"items":[{"name":"장인국수","tel":"031-222-5433","addr":"경기도 수원시 권선구 세류동 537-14번지 1층","indutype":"일반휴게음식 - 일반한식","category":"restaurant"}]},{"lat":"37.251825707","long":"127.01884257","imageIndex":4,"items":[{"name":"장터즉석치킨","tel":"031-265-1116","addr":"경기도 수원시 권선구 세류동 1120-11번지","indutype":"일반휴게음식 - 스넥","category":"restaurant"}]},{"lat":"37.247906873","long":"127.0128681","imageIndex":4,"items":[{"name":"장터치킨","tel":"031-267-2022","addr":"경기도 수원시 권선구 세류동 1142-7번지 1층","indutype":"일반휴게음식 - 스넥","category":"restaurant"}]},{"lat":"37.255015711","long":"127.01594632","imageIndex":4,"items":[{"name":"쟌비어스","tel":"031-222-4775","addr":"경기도 수원시 권선구 세류동 1090-6번지 101호","indutype":"일반휴게음식 - 주점","category":"restaurant"}]},{"lat":"37.258629232","long":"127.01175353","imageIndex":4,"items":[{"name":"전이랑국수랑","tel":"031-1111-1111","addr":"경기도 수원시 권선구 세류동 467-20번지 1층","indutype":"일반휴게음식 - 일반한식","category":"restaurant"}]},{"lat":"37.249294476","long":"127.01269922","imageIndex":4,"items":[{"name":"정가네김밥","tel":"031-235-2234","addr":"경기도 수원시 권선구 세류동 968-4번지 1층","indutype":"일반휴게음식 - 스넥","category":"restaurant"}]},{"lat":"37.257575057","long":"127.01133632","imageIndex":4,"items":[{"name":"정성할매순대국","tel":"031-232-6555","addr":"경기도 수원시 권선구 세류동 466-3번지","indutype":"일반휴게음식 - 일반한식","category":"restaurant"}]},{"lat":"37.263098672","long":"127.00294961","imageIndex":4,"items":[{"name":"정종마라탕","tel":"031-222-7106","addr":"경기도 수원시 권선구 세류동 181-5번지 1층","indutype":"일반휴게음식 - 중국식","category":"restaurant"}]},{"lat":"37.260962787","long":"127.01314037","imageIndex":4,"items":[{"name":"조은나래","tel":"031-225-1969","addr":"경기도 수원시 권선구 세류동 169-2번지 1층","indutype":"일반휴게음식 - 주점","category":"restaurant"}]},{"lat":"37.260179156","long":"127.00939768","imageIndex":4,"items":[{"name":"종로식당","tel":"031-235-1057","addr":"경기도 수원시 권선구 세류동 352-8번지","indutype":"일반휴게음식 - 일반한식","category":"restaurant"},{"name":"좋다좋아생고기","tel":"031-239-0092","addr":"경기도 수원시 권선구 세류동 352-8번지","indutype":"일반휴게음식 - 일반한식","category":"restaurant"}]},{"lat":"37.254430115","long":"127.01525862","imageIndex":4,"items":[{"name":"좋은사람들","tel":"031-223-0242","addr":"경기도 수원시 권선구 세류동 1010-6번지","indutype":"일반휴게음식 - 일반한식","category":"restaurant"}]},{"lat":"37.249402432","long":"127.01455898","imageIndex":4,"items":[{"name":"좋은친구들","tel":"031-223-4002","addr":"경기도 수원시 권선구 세류동 1132-29번지","indutype":"일반휴게음식 - 일반한식","category":"restaurant"}]},{"lat":"37.249708935","long":"127.01289088","imageIndex":4,"items":[{"name":"주촌","tel":"031-226-5410","addr":"경기도 수원시 권선구 세류동 975-9번지 1층","indutype":"일반휴게음식 - 일반한식","category":"restaurant"}]},{"lat":"37.244572885","long":"127.01470476","imageIndex":4,"items":[{"name":"줄리아페페","tel":"031-000-3988","addr":"경기도 수원시 권선구 세류동 1146-32번지 1층","indutype":"일반휴게음식 - 일반한식","category":"restaurant"}]},{"lat":"37.249492743","long":"127.01220331","imageIndex":4,"items":[{"name":"지승식당","tel":"031-237-0729","addr":"경기도 수원시 권선구 세류동 586-11번지","indutype":"일반휴게음식 - 일반한식","category":"restaurant"}]},{"lat":"37.259818606","long":"127.01156203","imageIndex":4,"items":[{"name":"진미통닭","tel":"031-224-2580","addr":"경기도 수원시 권선구 세류동 479-13번지 1층","indutype":"일반휴게음식 - 스넥","category":"restaurant"}]},{"lat":"37.264431044","long":"127.01939763","imageIndex":4,"items":[{"name":"진이네식당","tel":"031-221-0987","addr":"경기도 수원시 권선구 세류동 823-35번지 1층","indutype":"일반휴게음식 - 일반한식","category":"restaurant"}]},{"lat":"37.253519794","long":"127.0176932","imageIndex":4,"items":[{"name":"차칸곱창","tel":"031-233-5583","addr":"경기도 수원시 권선구 세류동 1105-16번지 1층","indutype":"일반휴게음식 - 일반한식","category":"restaurant"},{"name":"포비네 포차","tel":"","addr":"경기도 수원시 권선구 세류동 1105-16번지 1층","indutype":"일반휴게음식 - 일반한식","category":"restaurant"}]},{"lat":"37.25768314","long":"127.01188868","imageIndex":4,"items":[{"name":"참새포차","tel":"031-222-7382","addr":"경기도 수원시 권선구 세류동 526-6번지","indutype":"일반휴게음식 - 주점","category":"restaurant"}]},{"lat":"37.26617987","long":"127.01161913","imageIndex":4,"items":[{"name":"천년만년","tel":"","addr":"경기도 수원시 권선구 세류동 1258-2번지 탑메디칼프라자 109호","indutype":"일반휴게음식 - 일반한식","category":"restaurant"}]},{"lat":"37.262710064","long":"127.01949871","imageIndex":4,"items":[{"name":"천하돼지김치찌개","tel":"031-234-3996","addr":"경기도 수원시 권선구 세류동 817-23번지 1층","indutype":"일반휴게음식 - 일반한식","category":"restaurant"}]},{"lat":"37.245347801","long":"127.01442311","imageIndex":4,"items":[{"name":"천호커피숍","tel":"031-2025-1170","addr":"경기도 수원시 권선구 세류동 1146-3","indutype":"일반휴게음식 - 서양음식","category":"restaurant"}]},{"lat":"37.262963337","long":"127.00942047","imageIndex":4,"items":[{"name":"청안한방오리","tel":"031-241-5295","addr":"경기도 수원시 권선구 세류동 191-6번지 1층","indutype":"일반휴게음식 - 일반한식","category":"restaurant"}]},{"lat":"37.252186093","long":"127.01903426","imageIndex":4,"items":[{"name":"청정","tel":"031-239-3247","addr":"경기도 수원시 권선구 세류동 1102-6번지","indutype":"일반휴게음식 - 일식·회집","category":"restaurant"}]},{"lat":"37.253934534","long":"127.01539381","imageIndex":4,"items":[{"name":"춘천중앙막국수","tel":"031-225-3534","addr":"경기도 수원시 권선구 세류동 1111-2번지","indutype":"일반휴게음식 - 일반한식","category":"restaurant"}]},{"lat":"37.253294873","long":"127.01469485","imageIndex":4,"items":[{"name":"춘천진닭갈비","tel":"031-234-4563","addr":"경기도 수원시 권선구 세류동 1007-24번지 1층","indutype":"일반휴게음식 - 일반한식","category":"restaurant"}]},{"lat":"37.254962098","long":"127.01089642","imageIndex":4,"items":[{"name":"치킨봉이야기","tel":"031-225-6456","addr":"경기도 수원시 권선구 세류동 544-10번지","indutype":"일반휴게음식 - 주점","category":"restaurant"}]},{"lat":"37.255402892","long":"127.01814445","imageIndex":4,"items":[{"name":"카롱시스터","tel":"070-7500-1618","addr":"경기도 수원시 권선구 세류동 1084-5번지","indutype":"일반휴게음식 - 서양음식","category":"restaurant"},{"name":"해남식당","tel":"031-221-4920","addr":"경기도 수원시 권선구 세류동 1084-5번지 1층","indutype":"일반휴게음식 - 일반한식","category":"restaurant"}]},{"lat":"37.258818634","long":"127.00875502","imageIndex":4,"items":[{"name":"카페나루","tel":"031-236-3077","addr":"경기도 수원시 권선구 세류동 443-22번지","indutype":"일반휴게음식 - 서양음식","category":"restaurant"}]},{"lat":"37.261765078","long":"127.00695156","imageIndex":4,"items":[{"name":"카페라띠오 세류점","tel":"031-233-3536","addr":"경기도 수원시 권선구 세류동 1277-1번지 센트럴프라자타운 B동 1층 101호","indutype":"일반휴게음식 - 서양음식","category":"restaurant"}]},{"lat":"37.260098226","long":"127.00488854","imageIndex":4,"items":[{"name":"커피베이","tel":"031-221-2166","addr":"경기도 수원시 권선구 세류동 218번지","indutype":"일반휴게음식 - 서양음식","category":"restaurant"}]},{"lat":"37.249402598","long":"127.01272177","imageIndex":4,"items":[{"name":"커피볶는집","tel":"070-8616-2223","addr":"경기도 수원시 권선구 세류동 968-1번지 1층","indutype":"일반휴게음식 - 서양음식","category":"restaurant"}]},{"lat":"37.251520123","long":"127.01142582","imageIndex":4,"items":[{"name":"커피오브커피스","tel":"","addr":"경기도 수원시 권선구 세류동 580-22번지 1층","indutype":"일반휴게음식 - 서양음식","category":"restaurant"}]},{"lat":"37.253961895","long":"127.01173043","imageIndex":4,"items":[{"name":"커피체리","tel":"031-221-5746","addr":"경기도 수원시 권선구 세류동 1029-3번지 103호","indutype":"일반휴게음식 - 서양음식","category":"restaurant"}]},{"lat":"37.256097358","long":"127.01144888","imageIndex":4,"items":[{"name":"커피하우스","tel":"031-233-1365","addr":"경기도 수원시 권선구 세류동 533번지 1층","indutype":"일반휴게음식 - 서양음식","category":"restaurant"}]},{"lat":"37.26079173","long":"127.01139304","imageIndex":4,"items":[{"name":"코너482","tel":"070-4649-1101","addr":"경기도 수원시 권선구 세류동 482번지","indutype":"일반휴게음식 - 서양음식","category":"restaurant"}]},{"lat":"37.248960843","long":"127.01537044","imageIndex":4,"items":[{"name":"코랜드","tel":"031-225-0045","addr":"경기도 수원시 권선구 세류동 1148-63번지 1층","indutype":"일반휴게음식 - 스넥","category":"restaurant"}]},{"lat":"37.255547767","long":"127.01091902","imageIndex":4,"items":[{"name":"코리안바베큐","tel":"031-238-0926","addr":"경기도 수원시 권선구 세류동 459-8번지 1층","indutype":"일반휴게음식 - 일반한식","category":"restaurant"}]},{"lat":"37.25601518","long":"127.02106408","imageIndex":4,"items":[{"name":"코히고항","tel":"070-8947-4490","addr":"경기도 수원시 권선구 세류동 1077-4번지","indutype":"일반휴게음식 - 일반한식","category":"restaurant"}]},{"lat":"37.25401525","long":"127.01856123","imageIndex":4,"items":[{"name":"큰맘할매순대국 세류점","tel":"031-238-9348","addr":"경기도 수원시 권선구 세류동 1097번지 신수원종합시장 10-1,10-2,11호","indutype":"일반휴게음식 - 일반한식","category":"restaurant"},{"name":"티바세류점","tel":"031-893-9213","addr":"경기도 수원시 권선구 세류동 1097번지 신수원 종합시장 1층 12호","indutype":"일반휴게음식 - 일반한식","category":"restaurant"}]},{"lat":"37.251574403","long":"127.00748078","imageIndex":4,"items":[{"name":"태능식당","tel":"031-267-0104","addr":"경기도 수원시 권선구 세류동 650번지","indutype":"일반휴게음식 - 일반한식","category":"restaurant"}]},{"lat":"37.249961185","long":"127.01334177","imageIndex":4,"items":[{"name":"태영생막창 (세류점)","tel":"031-236-8336","addr":"경기도 수원시 권선구 세류동 1139-24번지 1층","indutype":"일반휴게음식 - 일반한식","category":"restaurant"}]},{"lat":"37.251906822","long":"127.01867351","imageIndex":4,"items":[{"name":"터미널주물럭갈비식당","tel":"031-223-3361","addr":"경기도 수원시 권선구 세류동 1120번지","indutype":"일반휴게음식 - 일반한식","category":"restaurant"}]},{"lat":"37.254655317","long":"127.01577717","imageIndex":4,"items":[{"name":"테리우스","tel":"031-222-7738","addr":"경기도 수원시 권선구 세류동 1090-8번지","indutype":"일반휴게음식 - 주점","category":"restaurant"}]},{"lat":"37.252934369","long":"127.01558526","imageIndex":4,"items":[{"name":"토마토","tel":"031-235-6019","addr":"경기도 수원시 권선구 세류동 1113-11번지","indutype":"일반휴게음식 - 주점","category":"restaurant"}]},{"lat":"37.252375471","long":"127.01780569","imageIndex":4,"items":[{"name":"토박이","tel":"031-239-5784","addr":"경기도 수원시 권선구 세류동 1104-17번지","indutype":"일반휴게음식 - 일반한식","category":"restaurant"}]},{"lat":"37.253547114","long":"127.0151683","imageIndex":4,"items":[{"name":"토암골옛날막창","tel":"031-226-8799","addr":"경기도 수원시 권선구 세류동 1111-22번지 1층","indutype":"일반휴게음식 - 일반한식","category":"restaurant"}]},{"lat":"37.25957495","long":"127.01572165","imageIndex":4,"items":[{"name":"파전나라","tel":"031-234-5658","addr":"경기도 수원시 권선구 세류동 850-9번지 1층","indutype":"일반휴게음식 - 일반한식","category":"restaurant"}]},{"lat":"37.256096475","long":"127.01970016","imageIndex":4,"items":[{"name":"팔색조","tel":"031-222-4166","addr":"경기도 수원시 권선구 세류동 1082-17번지","indutype":"일반휴게음식 - 주점","category":"restaurant"}]},{"lat":"37.257457928","long":"127.0112574","imageIndex":4,"items":[{"name":"펀비어킹","tel":"031-221-9222","addr":"경기도 수원시 권선구 세류동 466-13번지","indutype":"일반휴게음식 - 일반한식","category":"restaurant"}]},{"lat":"37.252988503","long":"127.01489769","imageIndex":4,"items":[{"name":"포차의신","tel":"031-233-2816","addr":"경기도 수원시 권선구 세류동 1112-8번지","indutype":"일반휴게음식 - 일반한식","category":"restaurant"}]},{"lat":"37.255187317","long":"127.01144878","imageIndex":4,"items":[{"name":"푸딩","tel":"031-236-6244","addr":"경기도 수원시 권선구 세류동 537-19번지 신아빌딩 1층","indutype":"일반휴게음식 - 일반한식","category":"restaurant"}]},{"lat":"37.253429982","long":"127.01514574","imageIndex":4,"items":[{"name":"푸짐한순대국","tel":"02-233-6977","addr":"경기도 수원시 권선구 세류동 1111-23번지","indutype":"일반휴게음식 - 일반한식","category":"restaurant"}]},{"lat":"37.254880961","long":"127.01152765","imageIndex":4,"items":[{"name":"프리미엄옛날통닭","tel":"031-235-5599","addr":"경기도 수원시 권선구 세류동 1023-4번지 101호","indutype":"일반휴게음식 - 스넥","category":"restaurant"}]},{"lat":"37.250069466","long":"127.0113693","imageIndex":4,"items":[{"name":"피자나라치킨공주","tel":"031-898-6388","addr":"경기도 수원시 권선구 세류동 584-1번지 102호","indutype":"일반휴게음식 - 서양음식","category":"restaurant"}]},{"lat":"37.250627377","long":"127.01852672","imageIndex":4,"items":[{"name":"피자헛수원버스터미널점","tel":"031-235-8172","addr":"경기도 수원시 권선구 세류동 1121-4번지 리치타워 1층 101호","indutype":"일반휴게음식 - 서양음식","category":"restaurant"}]},{"lat":"37.252907748","long":"127.0108962","imageIndex":4,"items":[{"name":"필디스모먼트","tel":"031-111-1111","addr":"경기도 수원시 권선구 세류동 565-16번지 좋은집좋은방 101호","indutype":"일반휴게음식 - 서양음식","category":"restaurant"}]},{"lat":"37.255907407","long":"127.01861798","imageIndex":4,"items":[{"name":"핑크","tel":"031-898-8650","addr":"경기도 수원시 권선구 세류동 1084-10번지","indutype":"일반휴게음식 - 주점","category":"restaurant"}]},{"lat":"37.255042222","long":"127.02002681","imageIndex":4,"items":[{"name":"하루","tel":"02-859-1192","addr":"경기도 수원시 권선구 세류동 1081-15번지 1층","indutype":"일반휴게음식 - 일반한식","category":"restaurant"}]},{"lat":"37.260295994","long":"127.01350102","imageIndex":4,"items":[{"name":"하린통닭","tel":"070-8226-8432","addr":"경기도 수원시 권선구 세류동 162-16번지 1층","indutype":"일반휴게음식 - 스넥","category":"restaurant"}]},{"lat":"37.263485862","long":"127.01061549","imageIndex":4,"items":[{"name":"하오차이나","tel":"031-225-3994","addr":"경기도 수원시 권선구 세류동 91-5번지 201호","indutype":"일반휴게음식 - 중국식","category":"restaurant"},{"name":"호프.소주.OK","tel":"031-241-9214","addr":"경기도 수원시 권선구 세류동 91-5번지 1층","indutype":"일반휴게음식 - 일반한식","category":"restaurant"}]},{"lat":"37.259215086","long":"127.0087776","imageIndex":4,"items":[{"name":"한계령감자탕","tel":"031-226-5954","addr":"경기도 수원시 권선구 세류동 443-27번지","indutype":"일반휴게음식 - 일반한식","category":"restaurant"}]},{"lat":"37.244797878","long":"127.01711669","imageIndex":4,"items":[{"name":"한국맥도날드 (유) 수원세류DT점","tel":"070-7209-0688","addr":"경기도 수원시 권선구 세류동 1155-8번지 ,1~3층","indutype":"일반휴게음식 - 서양음식","category":"restaurant"}]},{"lat":"37.248654713","long":"127.01305981","imageIndex":4,"items":[{"name":"한금각","tel":"031-223-5685","addr":"경기도 수원시 권선구 세류동 1141-7번지 2층","indutype":"일반휴게음식 - 일반한식","category":"restaurant"}]},{"lat":"37.264071143","long":"127.01520383","imageIndex":4,"items":[{"name":"할매순대국","tel":"070-8875-3334","addr":"경기도 수원시 권선구 세류동 134-4번지 1층","indutype":"일반휴게음식 - 일반한식","category":"restaurant"}]},{"lat":"37.252042699","long":"127.01173021","imageIndex":4,"items":[{"name":"할매순대국 수원세류점","tel":"031-213-0413","addr":"경기도 수원시 권선구 세류동 993-18번지 1층","indutype":"일반휴게음식 - 일반한식","category":"restaurant"}]},{"lat":"37.258016588","long":"127.0109531","imageIndex":4,"items":[{"name":"해드림","tel":"031-236-3372","addr":"경기도 수원시 권선구 세류동 467-34번지 상진맨션","indutype":"일반휴게음식 - 일반한식","category":"restaurant"}]},{"lat":"37.263233826","long":"127.0028707","imageIndex":4,"items":[{"name":"해란강","tel":"031-254-6814","addr":"경기도 수원시 권선구 세류동 181-1번지","indutype":"일반휴게음식 - 일반한식","category":"restaurant"}]},{"lat":"37.252294509","long":"127.01672359","imageIndex":4,"items":[{"name":"해피데이","tel":"031-235-1420","addr":"경기도 수원시 권선구 세류동 1116-10번지 103호","indutype":"일반휴게음식 - 스넥","category":"restaurant"}]},{"lat":"37.259791843","long":"127.00628636","imageIndex":4,"items":[{"name":"행복한분식","tel":"","addr":"경기도 수원시 권선구 세류동 253-8번지 1층","indutype":"일반휴게음식 - 일반한식","category":"restaurant"}]},{"lat":"37.252520148","long":"127.01294761","imageIndex":4,"items":[{"name":"행복한아구찜 권선점","tel":"031-983-5413","addr":"경기도 수원시 권선구 세류동 980-47번지 1층","indutype":"일반휴게음식 - 일반한식","category":"restaurant"}]},{"lat":"37.255907722","long":"127.01603665","imageIndex":4,"items":[{"name":"향원횟집","tel":"02-234-4747","addr":"경기도 수원시 권선구 세류동 879-30번지 1층","indutype":"일반휴게음식 - 일반한식","category":"restaurant"}]},{"lat":"37.25604302","long":"127.01467273","imageIndex":4,"items":[{"name":"형제통닭","tel":"031-239-8045","addr":"경기도 수원시 권선구 세류동 1018-29번지 1층","indutype":"일반휴게음식 - 스넥","category":"restaurant"}]},{"lat":"37.250240145","long":"127.01683593","imageIndex":4,"items":[{"name":"홀리커피(HOLY COFFEE)","tel":"070-4193-4677","addr":"경기도 수원시 권선구 세류동 1128-2번지","indutype":"일반휴게음식 - 서양음식","category":"restaurant"}]},{"lat":"37.259070526","long":"127.01422229","imageIndex":4,"items":[{"name":"홍대불닭발","tel":"031-221-7677","addr":"경기도 수원시 권선구 세류동 517번지","indutype":"일반휴게음식 - 일반한식","category":"restaurant"}]},{"lat":"37.255322678","long":"127.00784171","imageIndex":4,"items":[{"name":"홍스푸드","tel":"031-221-1457","addr":"경기도 수원시 권선구 세류동 439-1번지 1층","indutype":"일반휴게음식 - 일반한식","category":"restaurant"}]},{"lat":"37.253123927","long":"127.01184305","imageIndex":4,"items":[{"name":"화염양코치","tel":"070-4245-2981","addr":"경기도 수원시 권선구 세류동 1001-6번지 1층","indutype":"일반휴게음식 - 중국식","category":"restaurant"}]},{"lat":"37.257322281","long":"127.01655542","imageIndex":4,"items":[{"name":"화짬뽕","tel":"031-274-5246","addr":"경기도 수원시 권선구 세류동 874-6번지","indutype":"일반휴게음식 - 중국식","category":"restaurant"}]},{"lat":"37.246879253","long":"127.01719598","imageIndex":4,"items":[{"name":"화홍추어탕","tel":"031-235-8252","addr":"경기도 수원시 권선구 세류동 1151-10번지 1층","indutype":"일반휴게음식 - 일반한식","category":"restaurant"}]},{"lat":"37.244987278","long":"127.01550503","imageIndex":4,"items":[{"name":"황골사람들","tel":"031-239-7012","addr":"경기도 수원시 권선구 세류동 1158-37번지","indutype":"일반휴게음식 - 일반한식","category":"restaurant"}]},{"lat":"37.244825186","long":"127.01459209","imageIndex":4,"items":[{"name":"황부자 종가집","tel":"031-222-1210","addr":"경기도 수원시 권선구 세류동 1146-29번지 1층","indutype":"일반휴게음식 - 일반한식","category":"restaurant"}]},{"lat":"37.253906893","long":"127.02022945","imageIndex":4,"items":[{"name":"후아닝 짬뽕","tel":"031-222-3722","addr":"경기도 수원시 권선구 세류동 1100-5번지 성림빌딩 1층","indutype":"일반휴게음식 - 중국식","category":"restaurant"}]},{"lat":"37.252186164","long":"127.01850449","imageIndex":4,"items":[{"name":"후커피","tel":"070-4116-7424","addr":"경기도 수원시 권선구 세류동 1103-29번지","indutype":"일반휴게음식 - 서양음식","category":"restaurant"}]},{"lat":"37.244185431","long":"127.01480613","imageIndex":4,"items":[{"name":"희망초이스","tel":"031-222-1523","addr":"경기도 수원시 권선구 세류동 1146-12번지 3호","indutype":"일반휴게음식 - 스넥","category":"restaurant"}]}]