[{"lat":"37.13589148","long":"127.08063852","imageIndex":17,"items":[{"name":"(주)한반도렌트카","tel":"031-374-1400","addr":"경기도 오산시 고현동 17-4번지","indutype":"여행 - 렌터카","category":"other"}]},{"lat":"37.134143001","long":"127.08131198","imageIndex":17,"items":[{"name":"GS25오산고현점","tel":"","addr":"경기도 오산시 고현동 43번지 101호","indutype":"유통업 영리 - 편 의 점","category":"other"},{"name":"나루예2호점","tel":"031-652-2733","addr":"경기도 오산시 고현동 43번지 204호","indutype":"레져용품 - 스포츠·레져용품","category":"other"}]},{"lat":"37.135141716","long":"127.08347383","imageIndex":17,"items":[{"name":"GS25오산빌리지점","tel":"","addr":"경기도 오산시 고현동 35번지 상가동 101호","indutype":"유통업 영리 - 편 의 점","category":"other"}]},{"lat":"37.134586235","long":"127.07866771","imageIndex":17,"items":[{"name":"광성하이리빙프라자","tel":"031-374-0300","addr":"경기도 오산시 고현동 1-2번지","indutype":"가구 - 일반가구","category":"other"}]},{"lat":"37.13106541","long":"127.08855617","imageIndex":17,"items":[{"name":"대명종합상사","tel":"031-665-0981","addr":"경기도 오산시 고현동 147,148-1","indutype":"기타 - 기계공구","category":"other"}]},{"lat":"37.135782453","long":"127.08200019","imageIndex":17,"items":[{"name":"데이지주야간보호센터","tel":"031-668-2888","addr":"경기도 오산시 고현동 23-26번지 주광프라자 4층 402호","indutype":"기타의료기관 - 기타의료기관 및 기타","category":"other"},{"name":"메리블라썸 (merry blossom)","tel":"","addr":"경기도 오산시 고현동 23-26번지 102호","indutype":"문화.취미 - 화원","category":"other"},{"name":"위니아대우24크린샵오산고현점","tel":"031-1522-0092","addr":"경기도 오산시 고현동 23-26번지 106호","indutype":"수리서비스 - 세탁소","category":"other"}]},{"lat":"37.130731236","long":"127.08963614","imageIndex":17,"items":[{"name":"동화상사","tel":"031-668-7791","addr":"경기도 오산시 고현동 181-3번지","indutype":"유통업 영리 - 기타유통업","category":"other"}]},{"lat":"37.133413928","long":"127.08012956","imageIndex":17,"items":[{"name":"디6코리아하우스프레스(D6 KOREA HOUSE PRE","tel":"031-297-1009","addr":"경기도 오산시 고현동 270번지 오산고현아이파크 103동 204호","indutype":"서적문구 - 출판 및 인쇄물","category":"other"}]},{"lat":"37.134231542","long":"127.08364168","imageIndex":17,"items":[{"name":"디자인씽크","tel":"031-663-4116","addr":"경기도 오산시 고현동 55-1번지","indutype":"주방용구 - 주방용구","category":"other"}]},{"lat":"37.134144829","long":"127.07849845","imageIndex":17,"items":[{"name":"맞춤블라인드","tel":"031-373-8249","addr":"경기도 오산시 고현동 7-4번지","indutype":"직물 - 카페트,커튼,천막,지물","category":"other"}]},{"lat":"37.133801525","long":"127.07990487","imageIndex":17,"items":[{"name":"미스터 장 토탈홈케어","tel":"","addr":"경기도 오산시 고현동 270번지 오산고현아이파크 109동 302호","indutype":"건축자재 - 인테리어전문","category":"other"}]},{"lat":"37.135395017","long":"127.08197728","imageIndex":17,"items":[{"name":"방울이네 펫살롱","tel":"","addr":"경기도 오산시 고현동 25번지 정환빌딩 1층","indutype":"문화.취미 - 애완동물","category":"other"},{"name":"케이씨에스","tel":"031-611-7242","addr":"경기도 오산시 고현동 25번지 정환빌딩 101호","indutype":"사무통신 - 컴퓨터","category":"other"}]},{"lat":"37.135557781","long":"127.08111087","imageIndex":17,"items":[{"name":"벨마망","tel":"031-663-0447","addr":"경기도 오산시 고현동 21번지 103호","indutype":"의류 - 아동의류","category":"other"}]},{"lat":"37.13492586","long":"127.08288838","imageIndex":17,"items":[{"name":"비즈쿨연구소","tel":"031-668-3399","addr":"경기도 오산시 고현동 37번지 오산빌리지 상가 2층","indutype":"사무통신 - 컴퓨터","category":"other"},{"name":"신용세탁소","tel":"031-667-0197","addr":"경기도 오산시 고현동 37","indutype":"수리서비스 - 세탁소","category":"other"}]},{"lat":"37.135224192","long":"127.08141439","imageIndex":17,"items":[{"name":"삼성전자판매(주)오산점","tel":"031-663-0464","addr":"경기도 오산시 고현동 22-1, 5","indutype":"전기제품 - 가전제품","category":"other"}]},{"lat":"37.13575503","long":"127.08258539","imageIndex":17,"items":[{"name":"씨엘 플라워&캔들","tel":"031-297-0019","addr":"경기도 오산시 고현동 29-6번지 성한주택 8동 1층 102호","indutype":"신변잡화 - 기타잡화","category":"other"}]},{"lat":"37.133168136","long":"127.08388814","imageIndex":17,"items":[{"name":"씨유오산고현점","tel":"031-663-7387","addr":"경기도 오산시 고현동 50-5번지 1층","indutype":"유통업 영리 - 편 의 점","category":"other"},{"name":"영선화원","tel":"031-664-0363","addr":"경기도 오산시 고현동 50-5번지","indutype":"문화.취미 - 화원","category":"other"}]},{"lat":"37.131173957","long":"127.0879711","imageIndex":17,"items":[{"name":"씨유오산디지털파크점","tel":"080-080-3663","addr":"경기도 오산시 고현동 140번지 펠리시티 101호","indutype":"유통업 영리 - 편 의 점","category":"other"}]},{"lat":"37.135530876","long":"127.08091951","imageIndex":17,"items":[{"name":"엠케이스포츠","tel":"031-321-1393","addr":"경기도 오산시 고현동 17-11번지","indutype":"레져용품 - 스포츠·레져용품","category":"other"}]},{"lat":"37.133864047","long":"127.08074899","imageIndex":17,"items":[{"name":"웰니스 스포츠","tel":"031-376-6662","addr":"경기도 오산시 고현동 270번지 오산고현아이파크내스포츠클럽","indutype":"회원제형태 - 레져업소","category":"other"}]},{"lat":"37.133640642","long":"127.07786773","imageIndex":17,"items":[{"name":"위드미오산청호점","tel":"02-6916-1500","addr":"경기도 오산시 고현동 3번지 미래프라자 103호","indutype":"유통업 영리 - 편 의 점","category":"other"},{"name":"힐링하기 좋은날","tel":"031-374-9078","addr":"경기도 오산시 고현동 3번지 미래프라자 202호","indutype":"신변잡화 - 기타잡화","category":"other"}]},{"lat":"37.135863208","long":"127.08250672","imageIndex":17,"items":[{"name":"이리온","tel":"","addr":"경기도 오산시 고현동 29-7번지","indutype":"문화.취미 - 애완동물","category":"other"}]},{"lat":"37.132808397","long":"127.08288616","imageIndex":17,"items":[{"name":"주식회사 하누리","tel":"055-260-3734","addr":"경기도 오산시 고현동 16번지 LG전자기숙사 1층","indutype":"전기제품 - 기타전기제품","category":"other"}]},{"lat":"37.135727344","long":"127.08355324","imageIndex":17,"items":[{"name":"주식회사경기전기종합관리공사","tel":"031-374-8339","addr":"경기도 오산시 고현동 32-1번지","indutype":"용역 서비스 - 기타용역서비스","category":"other"}]},{"lat":"37.130668965","long":"127.08853321","imageIndex":17,"items":[{"name":"청호상사","tel":"031-611-0330","addr":"경기도 오산시 고현동 174번지 1층 내측","indutype":"건축자재 - 페인트","category":"other"}]},{"lat":"37.133189067","long":"127.07951036","imageIndex":17,"items":[{"name":"탑교재&탑켐","tel":"070-7627-7398","addr":"경기도 오산시 고현동 270번지 오산고현아이파크 104동 402호","indutype":"서적문구 - 기타서적문구","category":"other"}]},{"lat":"37.134700202","long":"127.08347337","imageIndex":17,"items":[{"name":"티나(TINA)","tel":"031-111-1111","addr":"경기도 오산시 고현동 36-1번지 한도베스트빌 103동 201호","indutype":"신변잡화 - 액세서리","category":"other"}]},{"lat":"37.135528543","long":"127.08438584","imageIndex":17,"items":[{"name":"푸른교육사","tel":"031-378-2857","addr":"경기도 오산시 고현동 68-1번지 1층","indutype":"서적문구 - 일반서적","category":"other"}]},{"lat":"37.131642519","long":"127.08794912","imageIndex":17,"items":[{"name":"화이브테크","tel":"031-611-1992","addr":"경기도 오산시 고현동 131번지","indutype":"기타 - 기타 전문점","category":"other"}]}]