[{"lat":"37.072298526","long":"127.42777252","imageIndex":17,"items":[{"name":"(주)대풍","tel":"031-676-8100","addr":"경기도 안성시 죽산면 장원리 1050번지","indutype":"건축자재 - 목재·석재·철물","category":"other"}]},{"lat":"37.067378154","long":"127.42794747","imageIndex":17,"items":[{"name":"(주)에이치디씨","tel":"031-675-9967","addr":"경기도 안성시 죽산면 장원리 1389-1번지 외1필지 (주)에이치디씨","indutype":"문화.취미 - 애완동물","category":"other"}]},{"lat":"37.065823748","long":"127.41907857","imageIndex":17,"items":[{"name":"GS25두원공대안성점","tel":"","addr":"경기도 안성시 죽산면 장원리 871번지 두원공과대학교 본관 지하","indutype":"유통업 영리 - 편 의 점","category":"other"},{"name":"그라찌에 편의점","tel":"031-399-1976","addr":"경기도 안성시 죽산면 장원리 871번지","indutype":"유통업 영리 - 편 의 점","category":"other"},{"name":"두원공대구내서점(안성점)","tel":"","addr":"경기도 안성시 죽산면 장원리 871번지 두원공과대학교","indutype":"서적문구 - 일반서적","category":"other"}]},{"lat":"37.074521504","long":"127.43597145","imageIndex":17,"items":[{"name":"씨스페이스동안성프라자","tel":"031-676-0766","addr":"경기도 안성시 죽산면 장원리 223-4번지","indutype":"유통업 영리 - 편 의 점","category":"other"}]},{"lat":"37.0635199","long":"127.42083123","imageIndex":17,"items":[{"name":"씨유안성장원점","tel":"031-676-8647","addr":"경기도 안성시 죽산면 장원리 870-7번지","indutype":"유통업 영리 - 편 의 점","category":"other"}]},{"lat":"37.064099689","long":"127.41994616","imageIndex":17,"items":[{"name":"이마트24 안성두원공대점","tel":"031-000-0000","addr":"경기도 안성시 죽산면 장원리 870-36번지","indutype":"유통업 영리 - 편 의 점","category":"other"}]},{"lat":"37.070771732","long":"127.43388111","imageIndex":17,"items":[{"name":"정보가설(주)","tel":"031-676-5992","addr":"경기도 안성시 죽산면 장원리 295번지","indutype":"건축자재 - 기타건축자재","category":"other"}]},{"lat":"37.070856536","long":"127.42533563","imageIndex":17,"items":[{"name":"주식회사 와이케이","tel":"061-392-6462","addr":"경기도 안성시 죽산면 장원리 654번지","indutype":"기타 - 기계공구","category":"other"}]}]