[{"lat":"37.489863069","long":"127.50889196","imageIndex":13,"items":[{"name":"다정미용실","tel":"031-772-3257","addr":"경기도 양평군 양평읍 창대리 634번지","indutype":"보건위생 - 미용원","category":"beauty"}]},{"lat":"37.483168903","long":"127.50036721","imageIndex":13,"items":[{"name":"딜라잇헤어","tel":"031-771-8068","addr":"경기도 양평군 양평읍 창대리 694-3번지","indutype":"보건위생 - 미용원","category":"beauty"}]},{"lat":"37.487946093","long":"127.50203838","imageIndex":13,"items":[{"name":"오휘컨설턴트","tel":"031-771-5251","addr":"경기도 양평군 양평읍 창대리 649-2번지 4층","indutype":"보건위생 - 화장품","category":"beauty"},{"name":"오휘컨설턴트","tel":"031-771-5251","addr":"경기도 양평군 양평읍 창대리 649-2번지 4층","indutype":"보건위생 - 화장품","category":"beauty"},{"name":"오휘컨설턴트","tel":"031-771-5251","addr":"경기도 양평군 양평읍 창대리 649-2번지 4층","indutype":"보건위생 - 화장품","category":"beauty"},{"name":"오휘컨설턴트","tel":"031-771-5251","addr":"경기도 양평군 양평읍 창대리 649-2번지 4층","indutype":"보건위생 - 화장품","category":"beauty"},{"name":"오휘컨설턴트","tel":"031-771-5251","addr":"경기도 양평군 양평읍 창대리 649-2번지 대경빌딩 4층","indutype":"보건위생 - 화장품","category":"beauty"},{"name":"오휘컨설턴트","tel":"031-771-5251","addr":"경기도 양평군 양평읍 창대리 649-2번지 4층","indutype":"보건위생 - 화장품","category":"beauty"}]},{"lat":"37.48997283","long":"127.50850826","imageIndex":13,"items":[{"name":"우리들의료기","tel":"031-774-3632","addr":"경기도 양평군 양평읍 창대리 635번지 1층","indutype":"보건위생 - 의료용품","category":"beauty"}]}]