[{"lat":"37.307480088","long":"126.84732084","imageIndex":13,"items":[{"name":"(주)에버그린유나이티드","tel":"070-4797-1203","addr":"경기도 안산시 상록구 이동 694-1번지 2층","indutype":"레저업소 - 기타레져업소","category":"leisure"},{"name":"궁전노래연습장","tel":"031-418-0668","addr":"경기도 안산시 상록구 이동 694-1번지 1","indutype":"레저업소 - 노 래 방","category":"leisure"}]},{"lat":"37.308754649","long":"126.85048791","imageIndex":13,"items":[{"name":"1번가DVD","tel":"031-408-2030","addr":"경기도 안산시 상록구 이동 715-7번지 진성프라자 6층 1호","indutype":"레저업소 - 기타레져업소","category":"leisure"},{"name":"뱅뱅노래연습장","tel":"070-4221-9600","addr":"경기도 안산시 상록구 이동 715-7번지 진성프라자 206호","indutype":"레저업소 - 노 래 방","category":"leisure"}]},{"lat":"37.308033732","long":"126.85041041","imageIndex":13,"items":[{"name":"21세기스크린골프","tel":"031-408-4650","addr":"경기도 안산시 상록구 이동 715-4번지 센터프라자 510호","indutype":"레저업소 - 스크린골프","category":"leisure"},{"name":"MS노래연습장","tel":"","addr":"경기도 안산시 상록구 이동 715-4번지 306,307호","indutype":"레저업소 - 노 래 방","category":"leisure"},{"name":"너구리노래연습장","tel":"031-417-4093","addr":"경기도 안산시 상록구 이동 715-4번지 센타프라자 509호","indutype":"레저업소 - 노 래 방","category":"leisure"},{"name":"너구리노래연습장","tel":"031-417-4093","addr":"경기도 안산시 상록구 이동 715-4번지 센타프라자 509호","indutype":"레저업소 - 노 래 방","category":"leisure"},{"name":"너구리노래연습장","tel":"031-407-8988","addr":"경기도 안산시 상록구 이동 715-4번지 센타프라자 509호 센터프라자","indutype":"레저업소 - 노 래 방","category":"leisure"},{"name":"뉴캐슬PC존","tel":"070-4341-0810","addr":"경기도 안산시 상록구 이동 715-4번지 4층 403호~406호","indutype":"레저업소 - 기타레져업소","category":"leisure"},{"name":"독도노래연습장","tel":"031-417-6205","addr":"경기도 안산시 상록구 이동 715-4번지 센타프라자 지하 1호","indutype":"레저업소 - 노 래 방","category":"leisure"},{"name":"스타노래연습장","tel":"031-417-5967","addr":"경기도 안산시 상록구 이동 715-4번지 센타프라자 201호","indutype":"레저업소 - 노 래 방","category":"leisure"},{"name":"스타노래연습장","tel":"031-417-5967","addr":"경기도 안산시 상록구 이동 715-4번지 센타프라자 201호","indutype":"레저업소 - 노 래 방","category":"leisure"},{"name":"킹당구장","tel":"031-111-1111","addr":"경기도 안산시 상록구 이동 715-4번지 센타프라자 204호","indutype":"레저업소 - 당 구 장","category":"leisure"},{"name":"팡팡노래연습장","tel":"031-501-1237","addr":"경기도 안산시 상록구 이동 715-4번지 센타프라자 305호","indutype":"레저업소 - 노 래 방","category":"leisure"}]},{"lat":"37.308728864","long":"126.85145805","imageIndex":13,"items":[{"name":"3POP PC방","tel":"070-4198-2302","addr":"경기도 안산시 상록구 이동 715-1번지 205 ,206,207,208호","indutype":"레저업소 - 기타레져업소","category":"leisure"},{"name":"에스 (S)노래연습장","tel":"031-409-4935","addr":"경기도 안산시 상록구 이동 715-1번지 세종타운 202호","indutype":"레저업소 - 노 래 방","category":"leisure"},{"name":"코마네치필라테스","tel":"031-409-8864","addr":"경기도 안산시 상록구 이동 715-1번지 세종타운 506호","indutype":"레저업소 - 헬스클럽","category":"leisure"}]},{"lat":"37.310893517","long":"126.86048932","imageIndex":13,"items":[{"name":"99당구","tel":"031-000-0000","addr":"경기도 안산시 상록구 이동 538-8번지 3층","indutype":"레저업소 - 당 구 장","category":"leisure"},{"name":"시대노래연습장","tel":"","addr":"경기도 안산시 상록구 이동 538-8번지 2층","indutype":"레저업소 - 노 래 방","category":"leisure"}]},{"lat":"37.307789947","long":"126.8500161","imageIndex":13,"items":[{"name":"J당구클럽","tel":"031-405-4404","addr":"경기도 안산시 상록구 이동 714번지 신화프라자 401,402호","indutype":"레저업소 - 당 구 장","category":"leisure"},{"name":"바디살롱 PT center","tel":"070-4247-0409","addr":"경기도 안산시 상록구 이동 714번지 신화프라자 504호,505호","indutype":"레저업소 - 헬스클럽","category":"leisure"},{"name":"에이스노래연습장","tel":"031-493-7864","addr":"경기도 안산시 상록구 이동 714번지 신화프라자 4층 405호","indutype":"레저업소 - 노 래 방","category":"leisure"},{"name":"점프노래연습장","tel":"031-408-2252","addr":"경기도 안산시 상록구 이동 714번지 신화프라자 3층 305-1호","indutype":"레저업소 - 노 래 방","category":"leisure"}]},{"lat":"37.307538839","long":"126.85093028","imageIndex":13,"items":[{"name":"KBS노래연습장","tel":"031-419-7622","addr":"경기도 안산시 상록구 이동 716-8번지 코로스프라자 304호","indutype":"레저업소 - 노 래 방","category":"leisure"},{"name":"갤럭시당구클럽","tel":"070-7862-1515","addr":"경기도 안산시 상록구 이동 716-8번지 코로스프라자 303호","indutype":"레저업소 - 당 구 장","category":"leisure"},{"name":"어울림 노래연습장","tel":"031-419-8286","addr":"경기도 안산시 상록구 이동 716-8번지 코로스프라자 2층 204호","indutype":"레저업소 - 노 래 방","category":"leisure"},{"name":"어울림노래연습장","tel":"033-765-0019","addr":"경기도 안산시 상록구 이동 716-8번지 코로스프라자 204호","indutype":"레저업소 - 노 래 방","category":"leisure"}]},{"lat":"37.306983427","long":"126.84648715","imageIndex":13,"items":[{"name":"MBC당구장","tel":"","addr":"경기도 안산시 상록구 이동 692-3번지 201호","indutype":"레저업소 - 당 구 장","category":"leisure"},{"name":"엠비씨 (MBC)노래연습장","tel":"031-409-7705","addr":"경기도 안산시 상록구 이동 692-3번지 301호","indutype":"레저업소 - 노 래 방","category":"leisure"}]},{"lat":"37.308339715","long":"126.85012779","imageIndex":13,"items":[{"name":"O.K 노래연습장","tel":"031-406-6252","addr":"경기도 안산시 상록구 이동 715-5번지 대성프라자 201호","indutype":"레저업소 - 노 래 방","category":"leisure"},{"name":"나이스당구클럽","tel":"070-3949-9093","addr":"경기도 안산시 상록구 이동 715-5번지 대성프라자 401호","indutype":"레저업소 - 당 구 장","category":"leisure"}]},{"lat":"37.308926206","long":"126.85076957","imageIndex":13,"items":[{"name":"궁노래연습장","tel":"031-406-0250","addr":"경기도 안산시 상록구 이동 715-8번지 조강프라자 202-1호","indutype":"레저업소 - 노 래 방","category":"leisure"},{"name":"스카이노래연습장","tel":"031-416-3399","addr":"경기도 안산시 상록구 이동 715-8번지 조강프라자 201호","indutype":"레저업소 - 노 래 방","category":"leisure"},{"name":"스카이노래연습장","tel":"070-4211-8870","addr":"경기도 안산시 상록구 이동 715-8번지 조강프라자 201호","indutype":"레저업소 - 노 래 방","category":"leisure"},{"name":"아이엠코인 노래연습장","tel":"","addr":"경기도 안산시 상록구 이동 715-8번지 조강프라자 301호","indutype":"레저업소 - 노 래 방","category":"leisure"}]},{"lat":"37.306843585","long":"126.84979242","imageIndex":13,"items":[{"name":"다인당구클럽","tel":"","addr":"경기도 안산시 상록구 이동 717-3번지 에이스프라자 202호,203호","indutype":"레저업소 - 당 구 장","category":"leisure"}]},{"lat":"37.309060501","long":"126.85010377","imageIndex":13,"items":[{"name":"돌핀노래연습장","tel":"031-000-0000","addr":"경기도 안산시 상록구 이동 710-15번지","indutype":"레저업소 - 노 래 방","category":"leisure"}]},{"lat":"37.30625836","long":"126.850132","imageIndex":13,"items":[{"name":"두꺼비골프클럽","tel":"031-415-7857","addr":"경기도 안산시 상록구 이동 718-3번지 월드프라자 3층","indutype":"레저업소 - 골프연습장","category":"leisure"}]},{"lat":"37.308566363","long":"126.85121022","imageIndex":13,"items":[{"name":"드랍더비트 코인노래연습장","tel":"031-000-0000","addr":"경기도 안산시 상록구 이동 715-2번지 한남빌딩 301호","indutype":"레저업소 - 노 래 방","category":"leisure"},{"name":"허리우드 당구클럽","tel":"031-405-4404","addr":"경기도 안산시 상록구 이동 715-2번지 한남빌딩 203호","indutype":"레저업소 - 당 구 장","category":"leisure"},{"name":"허리우드 당구클럽","tel":"031-405-4404","addr":"경기도 안산시 상록구 이동 715-2번지 한남빌딩 203호","indutype":"레저업소 - 당 구 장","category":"leisure"}]},{"lat":"37.308566893","long":"126.85884682","imageIndex":13,"items":[{"name":"득락노래연습장","tel":"031-416-2047","addr":"경기도 안산시 상록구 이동 596번지 지하","indutype":"레저업소 - 노 래 방","category":"leisure"}]},{"lat":"37.308367791","long":"126.8509399","imageIndex":13,"items":[{"name":"럭셔리노래연습장","tel":"031-408-0177","addr":"경기도 안산시 상록구 이동 715-3번지 강우프라자 203호","indutype":"레저업소 - 노 래 방","category":"leisure"},{"name":"럭셔리노래연습장","tel":"031-408-0177","addr":"경기도 안산시 상록구 이동 715-3번지 강우프라자 203호","indutype":"레저업소 - 노 래 방","category":"leisure"},{"name":"로데오당구장","tel":"031-415-2114","addr":"경기도 안산시 상록구 이동 715-3번지 강우프라자 406호,407호","indutype":"레저업소 - 당 구 장","category":"leisure"},{"name":"축제노래연습장","tel":"031-502-1159","addr":"경기도 안산시 상록구 이동 715-3번지 강우프라자 305호","indutype":"레저업소 - 노 래 방","category":"leisure"}]},{"lat":"37.307006133","long":"126.85007409","imageIndex":13,"items":[{"name":"리얼야구존 한대역점","tel":"031-407-9959","addr":"경기도 안산시 상록구 이동 717-2번지 한양프라자 201,202,203호","indutype":"레저업소 - 기타레져업소","category":"leisure"},{"name":"킹노래연습장","tel":"","addr":"경기도 안산시 상록구 이동 717-2번지 한양프라자 2층 204,205호","indutype":"레저업소 - 노 래 방","category":"leisure"}]},{"lat":"37.309899632","long":"126.85821258","imageIndex":13,"items":[{"name":"매칭찬스 조기바바 경기서남지사","tel":"070-8623-1213","addr":"경기도 안산시 상록구 이동 527-11번지 지하1층","indutype":"레저업소 - 노 래 방","category":"leisure"},{"name":"히트노래연습장","tel":"031-486-1070","addr":"경기도 안산시 상록구 이동 527-11번지","indutype":"레저업소 - 노 래 방","category":"leisure"}]},{"lat":"37.307202998","long":"126.84902466","imageIndex":13,"items":[{"name":"명월관PC","tel":"031-407-1007","addr":"경기도 안산시 상록구 이동 714-3번지 데코스포텔 124호","indutype":"레저업소 - 기타레져업소","category":"leisure"},{"name":"주식회사 뷰","tel":"031-1577-9560","addr":"경기도 안산시 상록구 이동 714-3번지 201-208,135호","indutype":"레저업소 - 볼 링 장","category":"leisure"}]},{"lat":"37.312419503","long":"126.84870946","imageIndex":13,"items":[{"name":"미스틱요가앤명상스쿨","tel":"031-000-0000","addr":"경기도 안산시 상록구 이동 656-3번지 2층 201호","indutype":"레저업소 - 헬스클럽","category":"leisure"}]},{"lat":"37.306122886","long":"126.84988412","imageIndex":13,"items":[{"name":"바디타임즈","tel":"031-408-9625","addr":"경기도 안산시 상록구 이동 718-4번지 503호","indutype":"레저업소 - 헬스클럽","category":"leisure"},{"name":"해피누리","tel":"031-416-6554","addr":"경기도 안산시 상록구 이동 718-4번지 301, 302호","indutype":"레저업소 - 기타레져업소","category":"leisure"}]},{"lat":"37.308369593","long":"126.8523499","imageIndex":13,"items":[{"name":"보니따필라테스 안산한대앞역점 평생교육원","tel":"031-407-1926","addr":"경기도 안산시 상록구 이동 716-12번지 캠퍼스타운 201호","indutype":"레저업소 - 헬스클럽","category":"leisure"},{"name":"스포드림 피트니스","tel":"031-438-6677","addr":"경기도 안산시 상록구 이동 716-12번지 캠퍼스타운 6층 607,608,609호","indutype":"레저업소 - 헬스클럽","category":"leisure"},{"name":"스포드림휘트니스","tel":"031-438-6677","addr":"경기도 안산시 상록구 이동 716-12번지 캠퍼스타운 606호","indutype":"레저업소 - 헬스클럽","category":"leisure"},{"name":"피씨태그(PC TAG)한대역점","tel":"","addr":"경기도 안산시 상록구 이동 716-12번지 305,306,307호","indutype":"레저업소 - 기타레져업소","category":"leisure"},{"name":"히트노래연습장","tel":"031-406-0020","addr":"경기도 안산시 상록구 이동 716-12번지 캠퍼스타운 308,309호","indutype":"레저업소 - 노 래 방","category":"leisure"}]},{"lat":"37.309170453","long":"126.85874414","imageIndex":13,"items":[{"name":"본당구장","tel":"031-408-3949","addr":"경기도 안산시 상록구 이동 594번지 세진빌딩 5층","indutype":"레저업소 - 당 구 장","category":"leisure"},{"name":"이네이쳐","tel":"031-501-1227","addr":"경기도 안산시 상록구 이동 594번지 4층 이동,세진빌딩 전체","indutype":"레저업소 - 기타레져업소","category":"leisure"}]},{"lat":"37.311281429","long":"126.8608834","imageIndex":13,"items":[{"name":"뷰노래연습장","tel":"031-407-5744","addr":"경기도 안산시 상록구 이동 539-9번지 2층","indutype":"레저업소 - 노 래 방","category":"leisure"}]},{"lat":"37.307836826","long":"126.85143728","imageIndex":13,"items":[{"name":"살빠짐PT","tel":"031-408-4822","addr":"경기도 안산시 상록구 이동 716-9번지 한대프라자 201호","indutype":"레저업소 - 헬스클럽","category":"leisure"}]},{"lat":"37.306400797","long":"126.8488007","imageIndex":13,"items":[{"name":"새천년노래연습장","tel":"031-406-6954","addr":"경기도 안산시 상록구 이동 720번지 신도프라자 B01호","indutype":"레저업소 - 노 래 방","category":"leisure"},{"name":"새천년노래연습장","tel":"031-406-6954","addr":"경기도 안산시 상록구 이동 720번지 신도프라자 B01호","indutype":"레저업소 - 노 래 방","category":"leisure"},{"name":"오감트리","tel":"031-406-0711","addr":"경기도 안산시 상록구 이동 720번지 신도프라자 4층 401~403호","indutype":"레저업소 - 기타레져업소","category":"leisure"},{"name":"포시즌스크린골프","tel":"031-418-0753","addr":"경기도 안산시 상록구 이동 720번지 신도프라자 302동 304호","indutype":"레저업소 - 스크린골프","category":"leisure"}]},{"lat":"37.309260191","long":"126.85124266","imageIndex":13,"items":[{"name":"세븐당구장","tel":"031-418-5355","addr":"경기도 안산시 상록구 이동 715-10번지 아트프라자 402호","indutype":"레저업소 - 당 구 장","category":"leisure"},{"name":"애플노래연습장","tel":"031-416-3539","addr":"경기도 안산시 상록구 이동 715-10번지 아트프라자 3층 302호","indutype":"레저업소 - 노 래 방","category":"leisure"}]},{"lat":"37.310649942","long":"126.86024161","imageIndex":13,"items":[{"name":"스타당구장","tel":"031-000-0000","addr":"경기도 안산시 상록구 이동 538-6번지","indutype":"레저업소 - 당 구 장","category":"leisure"}]},{"lat":"37.307288157","long":"126.85943581","imageIndex":13,"items":[{"name":"스토리PC방","tel":"","addr":"경기도 안산시 상록구 이동 601-13번지 2층","indutype":"레저업소 - 기타레져업소","category":"leisure"}]},{"lat":"37.306976287","long":"126.84790842","imageIndex":13,"items":[{"name":"스토리PC카페","tel":"070-6912-2052","addr":"경기도 안산시 상록구 이동 712-2번지 제스트3 203호","indutype":"레저업소 - 기타레져업소","category":"leisure"}]},{"lat":"37.308340384","long":"126.85782077","imageIndex":13,"items":[{"name":"아이비스피씨(PC) 안산이동점","tel":"","addr":"경기도 안산시 상록구 이동 593-5번지 4층","indutype":"레저업소 - 기타레져업소","category":"leisure"}]},{"lat":"37.307594357","long":"126.85206944","imageIndex":13,"items":[{"name":"아이센스리그PC방 안산한양대점","tel":"","addr":"경기도 안산시 상록구 이동 716-3번지 숭실프라자 6층 603호","indutype":"레저업소 - 기타레져업소","category":"leisure"}]},{"lat":"37.307647551","long":"126.85860041","imageIndex":13,"items":[{"name":"애플노래연습장","tel":"0331-408-7135","addr":"경기도 안산시 상록구 이동 592-4번지 B01호","indutype":"레저업소 - 노 래 방","category":"leisure"}]},{"lat":"37.307926564","long":"126.85835172","imageIndex":13,"items":[{"name":"올레노래연습장","tel":"031-406-5949","addr":"경기도 안산시 상록구 이동 592-2번지","indutype":"레저업소 - 노 래 방","category":"leisure"},{"name":"올레노래연습장","tel":"031-406-5949","addr":"경기도 안산시 상록구 이동 592-2번지 지층","indutype":"레저업소 - 노 래 방","category":"leisure"}]},{"lat":"37.307258957","long":"126.85049093","imageIndex":13,"items":[{"name":"이네이처PC","tel":"070-8220-0199","addr":"경기도 안산시 상록구 이동 717번지 로진메디칼 301-304호","indutype":"레저업소 - 기타레져업소","category":"leisure"}]},{"lat":"37.308197939","long":"126.85198928","imageIndex":13,"items":[{"name":"점핑 챔피언","tel":"031-407-6663","addr":"경기도 안산시 상록구 이동 716-11번지 덕성프라자 306~308호","indutype":"레저업소 - 기타레져업소","category":"leisure"}]},{"lat":"37.305978387","long":"126.84962498","imageIndex":13,"items":[{"name":"점핑하이","tel":"031-408-7235","addr":"경기도 안산시 상록구 이동 718-5번지 금강프라자 301,302호","indutype":"레저업소 - 헬스클럽","category":"leisure"},{"name":"찜노래연습장","tel":"031-407-7432","addr":"경기도 안산시 상록구 이동 718-5 제2층204호~205호","indutype":"레저업소 - 노 래 방","category":"leisure"},{"name":"찜노래연습장","tel":"031-407-1219","addr":"경기도 안산시 상록구 이동 718-5번지 금강프라자","indutype":"레저업소 - 노 래 방","category":"leisure"},{"name":"찜노래연습장","tel":"031-407-1219","addr":"경기도 안산시 상록구 이동 718-5번지 204,205호","indutype":"레저업소 - 노 래 방","category":"leisure"}]},{"lat":"37.310424415","long":"126.86001643","imageIndex":13,"items":[{"name":"짱구노래연습장","tel":"031-418-5353","addr":"경기도 안산시 상록구 이동 612번지","indutype":"레저업소 - 노 래 방","category":"leisure"}]},{"lat":"37.309396037","long":"126.85901444","imageIndex":13,"items":[{"name":"챠밍노래연습장","tel":"031-415-1016","addr":"경기도 안산시 상록구 이동 612-14번지 지하","indutype":"레저업소 - 노 래 방","category":"leisure"}]},{"lat":"37.310423747","long":"126.85946369","imageIndex":13,"items":[{"name":"칸노래연습장","tel":"031-501-7588","addr":"경기도 안산시 상록구 이동 529-2번지 장현빌딩 4층","indutype":"레저업소 - 노 래 방","category":"leisure"}]},{"lat":"37.314115325","long":"126.84334757","imageIndex":13,"items":[{"name":"크로스핏 웨스트","tel":"","addr":"경기도 안산시 상록구 이동 623-2번지 지하 101호","indutype":"레저업소 - 헬스클럽","category":"leisure"}]},{"lat":"37.308954522","long":"126.85177344","imageIndex":13,"items":[{"name":"킴스요가앤(&)필라테스","tel":"031-407-9077","addr":"경기도 안산시 상록구 이동 715번지 엔타운 301,302호","indutype":"레저업소 - 헬스클럽","category":"leisure"},{"name":"토마토노래연습실","tel":"031-417-5131","addr":"경기도 안산시 상록구 이동 715번지 엔타운 201호, 306호","indutype":"레저업소 - 노 래 방","category":"leisure"}]},{"lat":"37.308260079","long":"126.85846388","imageIndex":13,"items":[{"name":"탑당구클럽","tel":"070-7622-2142","addr":"경기도 안산시 상록구 이동 597-9번지 201호","indutype":"레저업소 - 당 구 장","category":"leisure"}]},{"lat":"37.307422818","long":"126.85179907","imageIndex":13,"items":[{"name":"탑당구클럽","tel":"031-507-7750","addr":"경기도 안산시 상록구 이동 716-4번지 고잔프라자 202호 201호,202호","indutype":"레저업소 - 당 구 장","category":"leisure"},{"name":"헌터PC 한대앞역점","tel":"070-6229-2204","addr":"경기도 안산시 상록구 이동 716-4번지 고잔프라자 2층 203,204호","indutype":"레저업소 - 기타레져업소","category":"leisure"}]},{"lat":"37.310234259","long":"126.85923845","imageIndex":13,"items":[{"name":"태양노래연습장","tel":"031-406-6234","addr":"경기도 안산시 상록구 이동 529-4번지 지하층","indutype":"레저업소 - 노 래 방","category":"leisure"}]},{"lat":"37.309837344","long":"126.85885567","imageIndex":13,"items":[{"name":"테소로PC방","tel":"","addr":"경기도 안산시 상록구 이동 529-8번지 3층","indutype":"레저업소 - 기타레져업소","category":"leisure"}]},{"lat":"37.310892809","long":"126.85990274","imageIndex":13,"items":[{"name":"토끼노래연습장","tel":"031-409-5777","addr":"경기도 안산시 상록구 이동 537-13번지 3층","indutype":"레저업소 - 노 래 방","category":"leisure"}]},{"lat":"37.303706576","long":"126.86318735","imageIndex":13,"items":[{"name":"하와이노래연습장","tel":"031-407-1125","addr":"경기도 안산시 상록구 이동 570-9번지","indutype":"레저업소 - 노 래 방","category":"leisure"}]},{"lat":"37.309594439","long":"126.8591607","imageIndex":13,"items":[{"name":"홍콩노래연습장","tel":"031-501-0563","addr":"경기도 안산시 상록구 이동 612-16번지 지하1층","indutype":"레저업소 - 노 래 방","category":"leisure"},{"name":"홍콩노래연습장","tel":"031-501-0563","addr":"경기도 안산시 상록구 이동 612-16번지 B01호","indutype":"레저업소 - 노 래 방","category":"leisure"}]}]