[{"lat":"37.774502595","long":"126.76435177","imageIndex":16,"items":[{"name":"9사단에버나인 어린이집[아이행복]","tel":"031-946-8274","addr":"경기도 파주시 야동동 141번지 에버나인","indutype":"학원 - 유아원","category":"study"}]},{"lat":"37.773897708","long":"126.75076733","imageIndex":16,"items":[{"name":"권혜성음악전문학원","tel":"031-946-9918","addr":"경기도 파주시 야동동 587번지 대방아파트","indutype":"학원 - 예·체능계학원","category":"study"},{"name":"대방선애어린이집[아이행복]","tel":"031-947-9877","addr":"경기도 파주시 야동동 587번지 대방아파트","indutype":"학원 - 유아원","category":"study"}]},{"lat":"37.77347324","long":"126.7632314","imageIndex":16,"items":[{"name":"금잔디유치원[아이행복]","tel":"031-348-1324","addr":"경기도 파주시 야동동 133","indutype":"학원 - 유치원","category":"study"}]},{"lat":"37.774452358","long":"126.75314904","imageIndex":16,"items":[{"name":"꿈나래어린이집","tel":"031-944-5533","addr":"경기도 파주시 야동동 629번지","indutype":"학원 - 유치원","category":"study"},{"name":"꿈나래어린이집[아이행복]","tel":"031-944-5533","addr":"경기도 파주시 야동동 629번지","indutype":"학원 - 유아원","category":"study"},{"name":"한국생태문화평생교육원","tel":"031-944-6672","addr":"경기도 파주시 야동동 629번지","indutype":"학원 - 기타 교육기관","category":"study"}]},{"lat":"37.774385187","long":"126.75121969","imageIndex":16,"items":[{"name":"꿈땅어린이집[아이행복]","tel":"031-939-8644","addr":"경기도 파주시 야동동 587번지 대방아파트","indutype":"학원 - 유아원","category":"study"}]},{"lat":"37.773529461","long":"126.75130205","imageIndex":16,"items":[{"name":"대방선애아이어린이집[아이행복]","tel":"031-947-9872","addr":"경기도 파주시 야동동 587번지 대방아파트","indutype":"학원 - 유아원","category":"study"},{"name":"하엘어린이집[아이행복]","tel":"031-948-1420","addr":"경기도 파주시 야동동 587번지 대방아파트","indutype":"학원 - 유아원","category":"study"}]},{"lat":"37.774014101","long":"126.75042642","imageIndex":16,"items":[{"name":"송창헌의 중고등 영어수학교실","tel":"031-945-1244","addr":"경기도 파주시 야동동 587번지 대방아파트","indutype":"회원제형태 - 학원","category":"study"}]},{"lat":"37.779228538","long":"126.75799128","imageIndex":16,"items":[{"name":"주립음악보습학원","tel":"031-912-0105","addr":"경기도 파주시 야동동 297-5번지","indutype":"학원 - 예·체능계학원","category":"study"}]}]