[{"lat":"37.164416946","long":"127.00866891","imageIndex":17,"items":[{"name":"광림제재소","tel":"031-374-2078","addr":"경기도 화성시 정남면 고지리 162-4번지","indutype":"건축자재 - 목재·석재·철물","category":"other"}]},{"lat":"37.164417086","long":"127.00330981","imageIndex":17,"items":[{"name":"대상수지","tel":"031-8077-9288","addr":"경기도 화성시 정남면 고지리 200-3번지 A동","indutype":"기타 - 기계공구","category":"other"},{"name":"대한포크리프트","tel":"031-203-1146","addr":"경기도 화성시 정남면 고지리 200-3번지","indutype":"용역 서비스 - 기타용역서비스","category":"other"}]},{"lat":"37.163641934","long":"127.01065035","imageIndex":17,"items":[{"name":"대한이앤지","tel":"031-354-4464","addr":"경기도 화성시 정남면 고지리 121-3번지 A동","indutype":"기타 - 기타 전문점","category":"other"},{"name":"에스디피엔티","tel":"031-354-2840","addr":"경기도 화성시 정남면 고지리 121-3번지","indutype":"유통업 영리 - 기타유통업","category":"other"}]},{"lat":"37.164056524","long":"127.00875895","imageIndex":17,"items":[{"name":"미니스톱정남고지점","tel":"031-1577-9621","addr":"경기도 화성시 정남면 고지리 158-1번지","indutype":"유통업 영리 - 편 의 점","category":"other"},{"name":"유진텍","tel":"031-354-3592","addr":"경기도 화성시 정남면 고지리 158-1번지 1동 103호","indutype":"기타 - 기계공구","category":"other"}]},{"lat":"37.166579584","long":"127.00142958","imageIndex":17,"items":[{"name":"비엔씨아이텍","tel":"031-377-7077","addr":"경기도 화성시 정남면 고지리 201-1번지","indutype":"전기제품 - 기타전기제품","category":"other"}]},{"lat":"37.163525027","long":"127.00533633","imageIndex":17,"items":[{"name":"씨피중앙방역","tel":"031-352-7060","addr":"경기도 화성시 정남면 고지리 182번지 B동 1층(1필지)","indutype":"농업 - 농기계","category":"other"}]},{"lat":"37.162335077","long":"127.01478201","imageIndex":17,"items":[{"name":"중부종합상사","tel":"031-375-2241","addr":"경기도 화성시 정남면 고지리 30-1","indutype":"직물 - 카페트,커튼,천막,지물","category":"other"}]},{"lat":"37.162893749","long":"127.01453442","imageIndex":17,"items":[{"name":"케미산업","tel":"031-354-7255","addr":"경기도 화성시 정남면 고지리 22-2번지","indutype":"건축자재 - 기타건축자재","category":"other"},{"name":"케미산업","tel":"031-354-5355","addr":"경기도 화성시 정남면 고지리 22-2번지","indutype":"건축자재 - 기타건축자재","category":"other"}]},{"lat":"37.164777497","long":"127.00419925","imageIndex":17,"items":[{"name":"케이제이철강","tel":"031-353-9461","addr":"경기도 화성시 정남면 고지리 192-6번지","indutype":"건축자재 - 기타건축자재","category":"other"}]},{"lat":"37.163001917","long":"127.01409535","imageIndex":17,"items":[{"name":"하나특장","tel":"031-352-6525","addr":"경기도 화성시 정남면 고지리 22-3번지 드림하이텍, 하나특장 C동","indutype":"기타 - 기계공구","category":"other"}]}]