[{"lat":"37.426885033","long":"126.99194569","imageIndex":4,"items":[{"name":"(주)현에프앤비","tel":"02-3679-7399","addr":"경기도 과천시 별양동 1-17번지 과천타워 지하1층 11호","indutype":"일반휴게음식 - 일반한식","category":"restaurant"},{"name":"고향바지락칼국수","tel":"02-507-6700","addr":"경기도 과천시 별양동 1-17번지 과천타워 105호","indutype":"일반휴게음식 - 일반한식","category":"restaurant"},{"name":"과천사골순대국","tel":"02-502-5900","addr":"경기도 과천시 별양동 1-17번지 과천타워 105호","indutype":"일반휴게음식 - 일반한식","category":"restaurant"},{"name":"김명자굴국밥전문점","tel":"02-503-2200","addr":"경기도 과천시 별양동 1-17번지 과천타워 지하1층 9","indutype":"일반휴게음식 - 일반한식","category":"restaurant"},{"name":"놀부부대찌개","tel":"02-507-0701","addr":"경기도 과천시 별양동 1-17번지 과천타워 203호","indutype":"일반휴게음식 - 일반한식","category":"restaurant"},{"name":"닐리과천","tel":"02-507-7999","addr":"경기도 과천시 별양동 1-17번지 과천타워 2층 206호","indutype":"일반휴게음식 - 스넥","category":"restaurant"},{"name":"들향기팥칼국수","tel":"02-502-2881","addr":"경기도 과천시 별양동 1-17번지 과천타워 지하 4호","indutype":"일반휴게음식 - 스넥","category":"restaurant"},{"name":"또래오래","tel":"02-3678-9292","addr":"경기도 과천시 별양동 15번지","indutype":"음식점업 - 치킨","category":"restaurant"},{"name":"문원마을","tel":"02-504-4500","addr":"경기도 과천시 별양동 1-17번지 과천타워 지히1층 12호","indutype":"일반휴게음식 - 일반한식","category":"restaurant"},{"name":"백채김치찌개","tel":"031-503-6331","addr":"경기도 과천시 별양동 1-17번지 과천타워 1층 104호","indutype":"일반휴게음식 - 일반한식","category":"restaurant"},{"name":"본사골칼국수","tel":"02-504-3204","addr":"경기도 과천시 별양동 1-17번지 과천타워","indutype":"일반휴게음식 - 일반한식","category":"restaurant"},{"name":"불닭발동대문엽기떡볶이(과천점)","tel":"02-3678-8592","addr":"경기도 과천시 별양동 1-11번지 벽산 상가 205호","indutype":"음식점업 - 한식","category":"restaurant"},{"name":"산고을","tel":"02-503-8201","addr":"경기도 과천시 별양동 1-17번지 과천타워 201호","indutype":"일반휴게음식 - 일반한식","category":"restaurant"},{"name":"세운촌","tel":"02-503-8943","addr":"경기도 과천시 별양동 1-17과천타워지하15","indutype":"일반휴게음식 - 일반한식","category":"restaurant"},{"name":"세운촌","tel":"02-503-8943","addr":"경기도 과천시 별양동 1-17번지 과천타워 지하1층 15호","indutype":"일반휴게음식 - 일반한식","category":"restaurant"},{"name":"양지","tel":"02-504-5800","addr":"경기도 과천시 별양동 1-17번지 과천타워 지층3호","indutype":"일반휴게음식 - 일반한식","category":"restaurant"},{"name":"영농조합법인문원1통마을","tel":"02-504-4500","addr":"경기도 과천시 별양동 1-17번지 과천타워 지하1층 12호","indutype":"일반휴게음식 - 일반한식","category":"restaurant"},{"name":"온천골","tel":"02-502-5285","addr":"경기도 과천시 별양동 1-17번지 과천타워 108호","indutype":"일반휴게음식 - 일반한식","category":"restaurant"},{"name":"원할머니보쌈","tel":"02-504-0194","addr":"경기도 과천시 별양동 1-17번지 과천타워 204호","indutype":"일반휴게음식 - 일반한식","category":"restaurant"},{"name":"은지순대","tel":"02-502-1512","addr":"경기도 과천시 별양동 1-17번지 과천타워 1층 103호","indutype":"일반휴게음식 - 일반한식","category":"restaurant"},{"name":"인성참치","tel":"02-503-0235","addr":"경기도 과천시 별양동 1-17번지 과천타워 208호","indutype":"일반휴게음식 - 일반한식","category":"restaurant"},{"name":"일조","tel":"02-504-5656","addr":"경기도 과천시 별양동 1-17번지 과천타워 210호","indutype":"일반휴게음식 - 일식·회집","category":"restaurant"},{"name":"청도수산","tel":"02-503-1616","addr":"경기도 과천시 별양동 1-17번지 과천타워 G동 1층 10호","indutype":"일반휴게음식 - 일반한식","category":"restaurant"},{"name":"커피케빈","tel":"","addr":"경기도 과천시 별양동 1-17번지 과천타워 101호","indutype":"일반휴게음식 - 서양음식","category":"restaurant"},{"name":"타미하우스 과천점","tel":"02-3418-9788","addr":"경기도 과천시 별양동 1-17번지 과천타워 지층","indutype":"일반휴게음식 - 스넥","category":"restaurant"},{"name":"포메인-과천점","tel":"02-502-0118","addr":"경기도 과천시 별양동 1-17번지 과천타워 205호","indutype":"일반휴게음식 - 일반한식","category":"restaurant"},{"name":"홍어와탁주","tel":"02-502-7944","addr":"경기도 과천시 별양동 1-17번지 과천타워 지하5층","indutype":"일반휴게음식 - 일반한식","category":"restaurant"}]},{"lat":"37.426749933","long":"126.9924993","imageIndex":4,"items":[{"name":"2&3","tel":"02-507-6941","addr":"경기도 과천시 별양동 1-16번지 교보생명","indutype":"음식점업 - 휴게음식","category":"restaurant"},{"name":"BHC치킨(과천점)","tel":"02-507-5008","addr":"경기도 과천시 별양동 17번지 레미안슈르 상가 1층 1003호","indutype":"음식점업 - 치킨","category":"restaurant"},{"name":"고장난기억","tel":"02-503-1024","addr":"경기도 과천시 별양동 1-11번지 벽산상가2층206,208호","indutype":"음식점업 - 간이음식점","category":"restaurant"},{"name":"과천 해신탕","tel":"02-507-3600","addr":"경기도 과천시 별양동 1-3번지 제일상가 203호","indutype":"음식점업 - 한식","category":"restaurant"},{"name":"과천초밥","tel":"02-504-0555","addr":"경기도 과천시 별양동 1-18번지 새서울프라자 지하1층 9호","indutype":"일반휴게음식 - 일반한식","category":"restaurant"},{"name":"닐리과천","tel":"02-507-7999","addr":"경기도 과천시 별양동 1-17번지 과천타워 2층 206호","indutype":"음식점업 - 간이음식","category":"restaurant"},{"name":"두레박민속주점","tel":"02-507-2680","addr":"경기도 과천시 별양동 1-18번지 새서율쇼핑 4층 12호","indutype":"일반휴게음식 - 칵테일바","category":"restaurant"},{"name":"마라마라","tel":"02-2635-1113","addr":"경기도 과천시 별양동 1-18번지 새서울프라자 지층 19,20,23,24호","indutype":"일반휴게음식 - 중국식","category":"restaurant"},{"name":"마라마라","tel":"","addr":"경기도 과천시 별양동 1-18번지 새서울프라자 지층 19,20,23,24호","indutype":"음식점업 - 중식","category":"restaurant"},{"name":"명가 순대국","tel":"","addr":"경기도 과천시 별양동 1-10번지 렉스타운 3층 304호","indutype":"음식점업 - 한식","category":"restaurant"},{"name":"박승범제면소","tel":"02-504-1294","addr":"경기도 과천시 별양동 1-18번지 지하층 47호,52호","indutype":"일반휴게음식 - 스넥","category":"restaurant"},{"name":"밥먹자국밥집","tel":"02-507-5980","addr":"경기도 과천시 별양동 1-18번지 새서울프라자 지하1층 26호.28호.30호","indutype":"일반휴게음식 - 일반한식","category":"restaurant"},{"name":"봉구스밥버거(과천중앙점)","tel":"02-503-5004","addr":"경기도 과천시 별양동 1-4번지 상아빌딩 102호","indutype":"음식점업 - 프랜차이즈음식점","category":"restaurant"},{"name":"새서울수입","tel":"02-502-8733","addr":"경기도 과천시 별양동 1-18번지 새서울프라자 지하1층 13호","indutype":"소매업 - 기타음식료품및일용잡화","category":"restaurant"},{"name":"새서울순두부","tel":"02-503-1740","addr":"경기도 과천시 별양동 1-18번지 지하 5-1호","indutype":"일반휴게음식 - 일반한식","category":"restaurant"},{"name":"순희집","tel":"02-503-1684","addr":"경기도 과천시 별양동 1-18번지 새서울쇼핑 지하층 6호","indutype":"일반휴게음식 - 일반한식","category":"restaurant"},{"name":"오매김밥","tel":"02-507-6133","addr":"경기도 과천시 별양동 1-18번지 새서울프라자 지층 44,48호","indutype":"일반휴게음식 - 스넥","category":"restaurant"},{"name":"오후(AfterNoon)","tel":"","addr":"경기도 과천시 별양동 1-18번지 새서울쇼핑 1층 12호","indutype":"음식점업 - 커피","category":"restaurant"},{"name":"원죽","tel":"02-504-5525","addr":"경기도 과천시 별양동 1-18 새서울쇼핑지하10-12","indutype":"일반휴게음식 - 일반한식","category":"restaurant"},{"name":"이바로","tel":"02-502-1120","addr":"경기도 과천시 별양동 1-18번지 새서울쇼핑 지하층 44,48호","indutype":"일반휴게음식 - 일반한식","category":"restaurant"},{"name":"장그미","tel":"02-502-5333","addr":"경기도 과천시 별양동 1-18번지 지하1층 3,4호","indutype":"일반휴게음식 - 서양음식","category":"restaurant"},{"name":"청년떡볶이(과천중앙점)","tel":"02-504-8282","addr":"경기도 과천시 별양동 1-3번지 제일상가 107호","indutype":"음식점업 - 일반음식","category":"restaurant"},{"name":"청도수산","tel":"02-503-1616","addr":"경기도 과천시 별양동 1-17번지 과천타워 지하1층 10호","indutype":"음식점업 - 한식","category":"restaurant"},{"name":"초코비니카페","tel":"02-507-7766","addr":"경기도 과천시 별양동 1-13번지 제일상가1층 113, 114호","indutype":"음식점업 - 커피간식한방차","category":"restaurant"},{"name":"최가네무교동낚지","tel":"02-3679-9666","addr":"경기도 과천시 별양동 1-18번지 새서울쇼핑 5층","indutype":"일반휴게음식 - 일반한식","category":"restaurant"},{"name":"커피가게","tel":"070-8822-5538","addr":"경기도 과천시 별양동 1-18번지 새서울프라자 1층 12호","indutype":"일반휴게음식 - 서양음식","category":"restaurant"},{"name":"쿠모(KUMO)","tel":"02-3678-9545","addr":"경기도 과천시 별양동 1-19번지 이마트 6층","indutype":"음식점업 - 한식","category":"restaurant"},{"name":"황가네 분식","tel":"02-507-1331","addr":"경기도 과천시 별양동 1-18번지 새서울프라자 지하 50호","indutype":"일반휴게음식 - 스넥","category":"restaurant"}]},{"lat":"37.427083213","long":"126.99150505","imageIndex":4,"items":[{"name":"2&3","tel":"02-507-6941","addr":"경기도 과천시 별양동 1-16번지 교보생명","indutype":"일반휴게음식 - 서양음식","category":"restaurant"}]},{"lat":"37.428245444","long":"126.99086089","imageIndex":4,"items":[{"name":"25시해장국","tel":"02-503-5889","addr":"경기도 과천시 별양동 1-11번지 벽산 상가 108호","indutype":"음식점업 - 한식","category":"restaurant"},{"name":"해원복집","tel":"02-504-1626","addr":"경기도 과천시 별양동 1-15번지 에스트로쇼핑 지하층","indutype":"음식점업 - 한식","category":"restaurant"}]},{"lat":"37.427939294","long":"126.99291716","imageIndex":4,"items":[{"name":"25시해장국","tel":"02-503-5889","addr":"경기도 과천시 별양동 1-11번지 벽산 상가 108호","indutype":"일반휴게음식 - 일반한식","category":"restaurant"},{"name":"www.n호프.com","tel":"02-507-3690","addr":"경기도 과천시 별양동 1-11번지 벽산상가 117,120,121호","indutype":"일반휴게음식 - 주점","category":"restaurant"},{"name":"가마로강정(과천점)","tel":"02-504-7292","addr":"경기도 과천시 별양동 1-5번지 신라상가 104호","indutype":"음식점업 - 닭강정","category":"restaurant"},{"name":"고장난기억","tel":"02-503-1024","addr":"경기도 과천시 별양동 1-11번지 벽산상가2층206,208호","indutype":"일반휴게음식 - 일반한식","category":"restaurant"},{"name":"과천한우곱창","tel":"02-507-7711","addr":"경기도 과천시 별양동 1-11번지 벽산 상가 201호","indutype":"일반휴게음식 - 일반한식","category":"restaurant"},{"name":"구름공방","tel":"02-3678-9608","addr":"경기도 과천시 별양동 1-11번지 벽산상가 308호","indutype":"일반휴게음식 - 일반한식","category":"restaurant"},{"name":"대흥식당","tel":"02-504-1002","addr":"경기도 과천시 별양동 1-11번지 벽산상가 지하1층 13, 15호","indutype":"일반휴게음식 - 일반한식","category":"restaurant"},{"name":"더돈카페","tel":"02-502-9648","addr":"경기도 과천시 별양동 1-11번지 2층 209-1호","indutype":"일반휴게음식 - 서양음식","category":"restaurant"},{"name":"라폰타나(LA FONTANA)","tel":"02-502-9448","addr":"경기도 과천시 별양동 1-11 벽산상가 1층 1,2","indutype":"일반휴게음식 - 일반한식","category":"restaurant"},{"name":"무교동서린낙지","tel":"02-504-2124","addr":"경기도 과천시 별양동 1-14번지 과천오피스텔 B06호","indutype":"음식점업 - 한식","category":"restaurant"},{"name":"바르다김선생과천정부청사역점","tel":"02-504-6555","addr":"경기도 과천시 별양동 1-11번지 벽산 상가 113,115,116호","indutype":"일반휴게음식 - 일반한식","category":"restaurant"},{"name":"바른국수 둥이네","tel":"","addr":"경기도 과천시 별양동 1-11번지 벽산상가 지층 B14호","indutype":"일반휴게음식 - 일반한식","category":"restaurant"},{"name":"베리굿생태한마리","tel":"02-504-2778","addr":"경기도 과천시 별양동 1-11번지 벽산빌딩 301호","indutype":"일반휴게음식 - 일반한식","category":"restaurant"},{"name":"보그보그","tel":"02-507-3559","addr":"경기도 과천시 별양동 1-11번지 벽산 상가 217호","indutype":"일반휴게음식 - 일반한식","category":"restaurant"},{"name":"보배네","tel":"02-503-5587","addr":"경기도 과천시 별양동 1-11번지 벽산상가지하 11호","indutype":"일반휴게음식 - 일반한식","category":"restaurant"},{"name":"불닭발동대문엽기떡볶이과천점","tel":"02-3678-8592","addr":"경기도 과천시 별양동 1-11번지 벽산 상가 205호","indutype":"일반휴게음식 - 일반한식","category":"restaurant"},{"name":"소금과설탕(Sel et Sucre)","tel":"02-3418-0309","addr":"경기도 과천시 별양동 1-11 벽산상가103호~104호","indutype":"일반휴게음식 - 서양음식","category":"restaurant"},{"name":"역전우동0410과천별양점","tel":"02-503-2119","addr":"경기도 과천시 별양동 1-11번지 109호 , 벽산상가109호~110호","indutype":"일반휴게음식 - 일반한식","category":"restaurant"},{"name":"오븐에빠진닭","tel":"02-504-5892","addr":"경기도 과천시 별양동 1-11번지 벽산상가 2층 202호","indutype":"일반휴게음식 - 스넥","category":"restaurant"},{"name":"진짬뽕","tel":"02-503-3900","addr":"경기도 과천시 별양동 1-11번지 2층 207,208,215호","indutype":"일반휴게음식 - 중국식","category":"restaurant"},{"name":"풍경","tel":"02-504-1127","addr":"경기도 과천시 별양동 1-11번지 벽산 상가 204호","indutype":"일반휴게음식 - 일반한식","category":"restaurant"},{"name":"하나네집","tel":"02-507-6603","addr":"경기도 과천시 별양동 1-11번지 벽산빌딩 지하층 12호","indutype":"일반휴게음식 - 일반한식","category":"restaurant"},{"name":"항아리수제비","tel":"02-504-4894","addr":"경기도 과천시 별양동 1-11번지 벽산 상가 지하층 8호","indutype":"일반휴게음식 - 일반한식","category":"restaurant"}]},{"lat":"37.427245524","long":"126.99295115","imageIndex":4,"items":[{"name":"B.B.과천점","tel":"02-502-3640","addr":"경기도 과천시 별양동 1-13번지 제일상가 2층 204호","indutype":"일반휴게음식 - 스넥","category":"restaurant"},{"name":"BBQ 과천점","tel":"02-502-3640","addr":"경기도 과천시 별양동 1-13번지 제일상가2층 204호","indutype":"음식점업 - 치킨","category":"restaurant"},{"name":"김밥천국","tel":"02-507-1009","addr":"경기도 과천시 별양동 1-13번지 제일쇼핑 1층 120-123호","indutype":"일반휴게음식 - 스넥","category":"restaurant"},{"name":"라떼에 반하다","tel":"02-3418-2588","addr":"경기도 과천시 별양동 1-5번지 신라 상가 105호","indutype":"음식점업 - 커피","category":"restaurant"},{"name":"라떼킹","tel":"02-502-8267","addr":"경기도 과천시 별양동 1-15번지 113~116호","indutype":"음식점업 - 카페","category":"restaurant"},{"name":"별주막","tel":"02-504-7016","addr":"경기도 과천시 별양동 1-5번지 신라상가 B104 ,105호","indutype":"음식점업 - 한식","category":"restaurant"},{"name":"양희방왕족발","tel":"02-504-2419","addr":"경기도 과천시 별양동 1-13번지 제일쇼핑 지하층 104호","indutype":"일반휴게음식 - 일반한식","category":"restaurant"},{"name":"오케바리","tel":"02-502-9115","addr":"경기도 과천시 별양동 1-5번지 신라상가 106호","indutype":"음식점업 - 간이음식점","category":"restaurant"},{"name":"올래맛집","tel":"031-502-0470","addr":"경기도 과천시 별양동 1-13번지 제일쇼핑 지하 106호","indutype":"일반휴게음식 - 일반한식","category":"restaurant"},{"name":"옳은식당","tel":"02-3418-5051","addr":"경기도 과천시 별양동 1-13번지 제일쇼핑 G동 1층 121호","indutype":"일반휴게음식 - 일반한식","category":"restaurant"},{"name":"용대리황태마을","tel":"031-111-1111","addr":"경기도 과천시 별양동 1-13번지 지하1층 107,109,110호","indutype":"일반휴게음식 - 일반한식","category":"restaurant"},{"name":"정라진곰치국","tel":"02-503-3268","addr":"경기도 과천시 별양동 1-13번지 제일쇼핑 지하 116,117호","indutype":"일반휴게음식 - 일반한식","category":"restaurant"},{"name":"제일진미스넥","tel":"02-503-5034","addr":"경기도 과천시 별양동 1-13번지 제일쇼핑 지하 1층 13호","indutype":"일반휴게음식 - 스넥","category":"restaurant"},{"name":"초코비니카페","tel":"02-507-7766","addr":"경기도 과천시 별양동 1-13번지 제일쇼핑상가 1층 113-114호","indutype":"일반휴게음식 - 서양음식","category":"restaurant"},{"name":"크레마(CREMA)","tel":"02-507-0821","addr":"경기도 과천시 별양동 1-4번지 상아빌딩 108호","indutype":"음식점업 - 브런치카페","category":"restaurant"},{"name":"피자마루","tel":"02-3679-1082","addr":"경기도 과천시 별양동 1-13,제일쇼핑106~108호","indutype":"일반휴게음식 - 서양음식","category":"restaurant"},{"name":"항아리수제비","tel":"","addr":"경기도 과천시 별양동 1-11번지 벽산 상가 지하 8호","indutype":"음식점업 - 분식","category":"restaurant"}]},{"lat":"37.4246598010","long":"126.9950867092","imageIndex":4,"items":[{"name":"BHC치킨과천점","tel":"02-507-5008","addr":"경기도 과천시 별양동 17번지 레미안슈르 상가 1층 1002호","indutype":"일반휴게음식 - 스넥","category":"restaurant"}]},{"lat":"37.428074857","long":"127.0043055","imageIndex":4,"items":[{"name":"N호프","tel":"02-507-3690","addr":"경기도 과천시 별양동 1-11번지 벽산 상가 117, 120, 121호","indutype":"음식점업 - 호프","category":"restaurant"}]},{"lat":"37.426858304","long":"126.99592252","imageIndex":4,"items":[{"name":"ROAD TO HANA","tel":"02-1111-1111","addr":"경기도 과천시 별양동 19-3번지","indutype":"일반휴게음식 - 서양음식","category":"restaurant"}]},{"lat":"37.428470935","long":"126.99350459","imageIndex":4,"items":[{"name":"㈜한국생활안전연구소카페","tel":"02-507-2028","addr":"경기도 과천시 별양동 19-3번지 1층","indutype":"도소매 - 휴게음식","category":"restaurant"},{"name":"공차 과천별양점","tel":"02-504-8809","addr":"경기도 과천시 별양동 1-4번지 상아빌딩 1층","indutype":"일반휴게음식 - 서양음식","category":"restaurant"},{"name":"다온정","tel":"02-507-3773","addr":"경기도 과천시 별양동 1-19상가건물6층2","indutype":"일반휴게음식 - 일반한식","category":"restaurant"},{"name":"봉구스밥버거 과천중앙점","tel":"02-503-5004","addr":"경기도 과천시 별양동 1-4번지 상아빌딩 102호","indutype":"일반휴게음식 - 일반한식","category":"restaurant"},{"name":"스마일찹쌀꽈배기","tel":"02-502-1131","addr":"경기도 과천시 별양동 1-4번지 상아빌딩 111호","indutype":"일반휴게음식 - 스넥","category":"restaurant"},{"name":"크레마","tel":"031-223-5214","addr":"경기도 과천시 별양동 1-4번지 상아빌딩 108호","indutype":"일반휴게음식 - 서양음식","category":"restaurant"},{"name":"풍성루","tel":"02-502-8847","addr":"경기도 과천시 별양동 1-4번지 상아빌딩 2층 204호","indutype":"일반휴게음식 - 중국식","category":"restaurant"}]},{"lat":"37.428326791","long":"126.99371927","imageIndex":4,"items":[{"name":"가마로강정 과천점","tel":"02-504-7292","addr":"경기도 과천시 별양동 1-5번지 신라상가 104호","indutype":"일반휴게음식 - 일반한식","category":"restaurant"},{"name":"대가","tel":"02-503-8373","addr":"경기도 과천시 별양동 1-5번지 신라상가 205호","indutype":"일반휴게음식 - 일반한식","category":"restaurant"},{"name":"라떼에 반하다","tel":"02-3418-2588","addr":"경기도 과천시 별양동 1-5번지 신라상가 105호","indutype":"일반휴게음식 - 서양음식","category":"restaurant"},{"name":"양희방왕족발","tel":"02-504-2419","addr":"경기도 과천시 별양동 1-13번지 제일쇼핑 지하층 104호","indutype":"음식점업 - 한식","category":"restaurant"},{"name":"오즈앤오즈","tel":"02-503-8349","addr":"경기도 과천시 별양동 1-5번지 신라상가 2층 201호","indutype":"일반휴게음식 - 서양음식","category":"restaurant"},{"name":"오케바리","tel":"02-502-9115","addr":"경기도 과천시 별양동 1-5 신라상가 106~109호","indutype":"일반휴게음식 - 일반한식","category":"restaurant"},{"name":"원할머니보쌈","tel":"02-504-0194","addr":"경기도 과천시 별양동 1-17번지 과천타워 204호","indutype":"음식점업 - 한식","category":"restaurant"},{"name":"주식회사정지앤마루/바오밥나무","tel":"02-502-8760","addr":"경기도 과천시 별양동 1-5번지 신라 상가 202호","indutype":"일반휴게음식 - 일반한식","category":"restaurant"}]},{"lat":"37.424218245","long":"126.99417167","imageIndex":4,"items":[{"name":"갤러리 카페 시선","tel":"02-503-6885","addr":"경기도 과천시 별양동 14번지 지하 B1호","indutype":"일반휴게음식 - 서양음식","category":"restaurant"},{"name":"과천상점가상인회협동조합현장식당","tel":"02-503-0338","addr":"경기도 과천시 별양동 14번지 지하 비3호","indutype":"일반휴게음식 - 일반한식","category":"restaurant"},{"name":"오즈앤오즈","tel":"02-503-8349","addr":"경기도 과천시 별양동 1-5번지 신라상가 2층 201호","indutype":"음식점업 - 카페","category":"restaurant"}]},{"lat":"37.445075052","long":"127.0231664","imageIndex":4,"items":[{"name":"갤러리 카페 시선","tel":"02-503-6885","addr":"경기도 과천시 별양동 17번지 래미안슈르 지하층 B1호","indutype":"음식점업 - 휴게음식","category":"restaurant"}]},{"lat":"37.428191537","long":"126.99247651","imageIndex":4,"items":[{"name":"고려호프","tel":"02-502-0041","addr":"경기도 과천시 별양동 1-10번지 렉스타운 지하 101호","indutype":"일반휴게음식 - 일반한식","category":"restaurant"},{"name":"곰스넥","tel":"02-504-5922","addr":"경기도 과천시 별양동 1-18번지 새서울프라자 지하 51호","indutype":"음식점업 - 간이음식점","category":"restaurant"},{"name":"국수나무과천점","tel":"02-507-8984","addr":"경기도 과천시 별양동 1-10번지 렉스타운 101호","indutype":"일반휴게음식 - 스넥","category":"restaurant"},{"name":"그램그램과천점","tel":"02-3679-8888","addr":"경기도 과천시 별양동 1-10번지 렉스타운 309호","indutype":"일반휴게음식 - 일반한식","category":"restaurant"},{"name":"남도연","tel":"02-504-3627","addr":"경기도 과천시 별양동 1-10번지 2층 204호,205호","indutype":"일반휴게음식 - 일반한식","category":"restaurant"},{"name":"메콩타이 과천점","tel":"02-504-5515","addr":"경기도 과천시 별양동 1-10번지 렉스타운 3층 301,302호","indutype":"일반휴게음식 - 서양음식","category":"restaurant"},{"name":"명가순대국","tel":"02-502-0333","addr":"경기도 과천시 별양동 1-10번지 렉스타운 3층 304호","indutype":"일반휴게음식 - 일반한식","category":"restaurant"},{"name":"미친닭발","tel":"02-503-3880","addr":"경기도 과천시 별양동 1-10번지 렉스타운 306호","indutype":"일반휴게음식 - 일반한식","category":"restaurant"},{"name":"빨간떡볶이샵","tel":"","addr":"경기도 과천시 별양동 1-10번지 렉스타운 203호","indutype":"일반휴게음식 - 스넥","category":"restaurant"},{"name":"빽다방과천렉스타운점","tel":"02-3418-7787","addr":"경기도 과천시 별양동 1-10번지 렉스타운 102호","indutype":"일반휴게음식 - 서양음식","category":"restaurant"},{"name":"애리의 밥집술집","tel":"02-502-2707","addr":"경기도 과천시 별양동 1-10번지 렉스타운 302호 303호","indutype":"일반휴게음식 - 일반한식","category":"restaurant"},{"name":"죠스떡볶이과천중앙점","tel":"02-503-5452","addr":"경기도 과천시 별양동 1-10번지 렉스타운 109호","indutype":"일반휴게음식 - 일반한식","category":"restaurant"},{"name":"진정한고깃집","tel":"02-502-2701","addr":"경기도 과천시 별양동 1-10번지 렉스타운 209호","indutype":"일반휴게음식 - 일반한식","category":"restaurant"},{"name":"진짬뽕","tel":"02-503-3900","addr":"경기도 과천시 별양동 1-11번지 벽산상가 207,208,215호","indutype":"음식점업 - 중식","category":"restaurant"},{"name":"택이네조개전골","tel":"02-504-5722","addr":"경기도 과천시 별양동 1-10번지 렉스타운 2층 201호","indutype":"일반휴게음식 - 일반한식","category":"restaurant"},{"name":"포메인(과천점)","tel":"02-502-0118","addr":"경기도 과천시 별양동 1-17번지 과천타워 205호","indutype":"음식점업 - 쌀국수","category":"restaurant"},{"name":"풍성루","tel":"02-502-8847","addr":"경기도 과천시 별양동 1-4번지 상아빌딩 2층 204호","indutype":"음식점업 - 중식","category":"restaurant"}]},{"lat":"37.449662816","long":"126.99877961","imageIndex":4,"items":[{"name":"고려호프치킨","tel":"02-502-0041","addr":"경기도 과천시 별양동 1-10번지 렉스타운 지하 101호","indutype":"음식점업 - 일반음식점","category":"restaurant"}]},{"lat":"37.428606056","long":"126.99314303","imageIndex":4,"items":[{"name":"고봉민김밥인 과천청사역점","tel":"02-507-6369","addr":"경기도 과천시 별양동 1-3번지 제일상가 1층 104호","indutype":"일반휴게음식 - 일반한식","category":"restaurant"},{"name":"과천 해신탕","tel":"02-507-3600","addr":"경기도 과천시 별양동 1-3번지 제일상가 203호","indutype":"일반휴게음식 - 일반한식","category":"restaurant"},{"name":"스토리지","tel":"02-502-0086","addr":"경기도 과천시 별양동 1-3번지 제일상가 2층 202호","indutype":"일반휴게음식 - 일반한식","category":"restaurant"},{"name":"신전떡볶이","tel":"02-507-2002","addr":"경기도 과천시 별양동 1-3번지 제일상가 1층 3호","indutype":"일반휴게음식 - 스넥","category":"restaurant"},{"name":"장그미","tel":"02-502-5333","addr":"경기도 과천시 별양동 1-18번지 새서울쇼핑 지하1층 3,4호","indutype":"음식점업 - 돈까스, 우동","category":"restaurant"},{"name":"좋은세상","tel":"02-503-1545","addr":"경기도 과천시 별양동 1-3번지 제일상가 111호","indutype":"일반휴게음식 - 스넥","category":"restaurant"},{"name":"청년떡볶이 과천중앙점","tel":"02-504-8282","addr":"경기도 과천시 별양동 1-3번지 제일상가빌딩 107호","indutype":"일반휴게음식 - 일반한식","category":"restaurant"},{"name":"카페오랑쥬","tel":"031-302-8929","addr":"경기도 과천시 별양동 1-3번지 제일상가 102호","indutype":"일반휴게음식 - 서양음식","category":"restaurant"},{"name":"킹콩드립","tel":"02-502-7628","addr":"경기도 과천시 별양동 1-3번지 별양 제3층 5호,6호 3층","indutype":"일반휴게음식 - 서양음식","category":"restaurant"},{"name":"희래등","tel":"02-507-1116","addr":"경기도 과천시 별양동 1-3번지 제일상가 2층 201동","indutype":"일반휴게음식 - 중국식","category":"restaurant"}]},{"lat":"37.463687528","long":"127.03335573","imageIndex":4,"items":[{"name":"고봉민김밥인(과천청사역점)","tel":"02-507-6369","addr":"경기도 과천시 별양동 1-3번지 제일상가 1층 104호","indutype":"음식점업 - 김밥전문점","category":"restaurant"}]},{"lat":"37.429047367","long":"126.99114321","imageIndex":4,"items":[{"name":"공차 과천별양점","tel":"02-504-8809","addr":"경기도 과천시 별양동 1-4번지 상아빌딩 1층 103호","indutype":"음식점업 - 휴게음식","category":"restaurant"},{"name":"대흥식당","tel":"02-504-1002","addr":"경기도 과천시 별양동 1-11번지 벽산상가지하1층 13, 15호","indutype":"음식점업 - 한식","category":"restaurant"},{"name":"타미하우스(과천점)","tel":"02-3418-9788","addr":"경기도 과천시 별양동 1-17번지 과천타워 지층 16호","indutype":"음식점업 - 커피","category":"restaurant"}]},{"lat":"37.428083503","long":"126.99350464","imageIndex":4,"items":[{"name":"과천닭발포차","tel":"02-504-2002","addr":"경기도 과천시 별양동 1-7번지 백두빌딩 106호","indutype":"일반휴게음식 - 일반한식","category":"restaurant"},{"name":"깐부치킨과천청사점","tel":"02-503-6469","addr":"경기도 과천시 별양동 1-7번지 백두빌딩 1층 105호","indutype":"일반휴게음식 - 스넥","category":"restaurant"},{"name":"마루","tel":"031-111-1111","addr":"경기도 과천시 별양동 1-7번지 백두빌딩 지층 4호","indutype":"일반휴게음식 - 서양음식","category":"restaurant"},{"name":"봉구비어 별양점","tel":"","addr":"경기도 과천시 별양동 1-7번지 백두빌딩 1층 107호","indutype":"일반휴게음식 - 일반한식","category":"restaurant"},{"name":"자매순대국","tel":"02-503-0770","addr":"경기도 과천시 별양동 1-7번지 백두빌딩 1층 102호 백두성가","indutype":"일반휴게음식 - 일반한식","category":"restaurant"},{"name":"토니치킨","tel":"02-503-4880","addr":"경기도 과천시 별양동 1-7번지 백두 상가 1층","indutype":"일반휴게음식 - 칵테일바","category":"restaurant"}]},{"lat":"37.43271462","long":"126.99297302","imageIndex":4,"items":[{"name":"과천닭발포차","tel":"02-504-2002","addr":"경기도 과천시 별양동 1-7번지 백두빌딩 106호","indutype":"음식점업 - 기타","category":"restaurant"},{"name":"세운촌","tel":"02-503-8943","addr":"경기도 과천시 별양동 1-17번지 과천타워 지하1층 15호","indutype":"음식점업 - 한식","category":"restaurant"}]},{"lat":"37.432832014","long":"126.99689365","imageIndex":4,"items":[{"name":"과천도립도서관 구내식당","tel":"070-7556-3641","addr":"경기도 과천시 별양동 2번지 경기도립과천도서관","indutype":"일반휴게음식 - 일반한식","category":"restaurant"},{"name":"지정환임실치즈피자","tel":"02-502-8246","addr":"경기도 과천시 별양동 6번지 주공아파트 107호","indutype":"음식점업 - 피자","category":"restaurant"}]},{"lat":"37.458210465","long":"127.02913767","imageIndex":4,"items":[{"name":"과천사골순대국","tel":"02-502-5900","addr":"경기도 과천시 별양동 1-17번지 과천타워 105호","indutype":"음식점업 - 한식","category":"restaurant"}]},{"lat":"37.435463037","long":"126.99916456","imageIndex":4,"items":[{"name":"과천초밥","tel":"02-504-0555","addr":"경기도 과천시 별양동 1-18번지 새서울쇼핑 지하1층 9호","indutype":"음식점업 - 한식","category":"restaurant"}]},{"lat":"37.427633081","long":"126.9945667","imageIndex":4,"items":[{"name":"구름공방","tel":"02-3678-9608","addr":"경기도 과천시 별양동 1-11번지 벽산 상가 308호","indutype":"음식점업 - 일반음식","category":"restaurant"}]},{"lat":"37.435273762","long":"127.0082829","imageIndex":4,"items":[{"name":"국수나무과천점","tel":"02-507-8984","addr":"경기도 과천시 별양동 1-10번지 렉스타운 101호","indutype":"음식점업 - 간이음식점","category":"restaurant"}]},{"lat":"37.433470865","long":"126.98741392","imageIndex":4,"items":[{"name":"국수랑수제비랑","tel":"02-504-1404","addr":"경기도 과천시 별양동 1-18번지 새서울쇼핑 지하1층 5호","indutype":"음식점업 - 일반음식","category":"restaurant"}]},{"lat":"37.427686932","long":"126.99200206","imageIndex":4,"items":[{"name":"국초밥기꾸","tel":"02-502-1718","addr":"경기도 과천시 별양동 1-15번지 그레이스호텔 510호","indutype":"일반휴게음식 - 일식·회집","category":"restaurant"},{"name":"낙지마당","tel":"02-3679-4092","addr":"경기도 과천시 별양동 1-15번지 그레이스호텔지하 1층 5-9, 11-15, 18-19호","indutype":"일반휴게음식 - 일반한식","category":"restaurant"},{"name":"라떼킹","tel":"02-502-8267","addr":"경기도 과천시 별양동 1-15번지 (113~116호)","indutype":"일반휴게음식 - 서양음식","category":"restaurant"},{"name":"마리웨일","tel":"02-504-1773","addr":"경기도 과천시 별양동 7-1번지 1층 104호","indutype":"음식점업 - 디저트카페","category":"restaurant"},{"name":"무교동낙지","tel":"02-507-1133","addr":"경기도 과천시 별양동 1-18번지 새서울쇼핑 5층","indutype":"음식점업 - 한식","category":"restaurant"},{"name":"블루이쉬브루커피","tel":"070-4230-1516","addr":"경기도 과천시 별양동 1-15번지 그레이스호텔 1층 107호","indutype":"일반휴게음식 - 서양음식","category":"restaurant"},{"name":"유천칡냉면","tel":"02-503-3955","addr":"경기도 과천시 별양동 1-15번지 에스트로쇼핑222,224,225,227,229,235,238호","indutype":"일반휴게음식 - 일반한식","category":"restaurant"},{"name":"이디야커피과천중앙점","tel":"02-504-1006","addr":"경기도 과천시 별양동 1-15번지 109호 112호","indutype":"일반휴게음식 - 서양음식","category":"restaurant"},{"name":"진스넥","tel":"02-504-5263","addr":"경기도 과천시 별양동 1-15번지 에스트로쇼핑 B동 2호","indutype":"일반휴게음식 - 일반한식","category":"restaurant"},{"name":"진아일랜드푸드앵글치킨","tel":"02-507-5715","addr":"경기도 과천시 별양동 1-15번지 그레이스호텔 지1층 27호 ,30,31,32,40,41,42호","indutype":"일반휴게음식 - 일반한식","category":"restaurant"},{"name":"진아일랜드푸드앵글치킨","tel":"02-507-5715","addr":"경기도 과천시 별양동 1-15번지 그레이스호텔 지1층 27,30,31,32,40,41,42호","indutype":"일반휴게음식 - 일반한식","category":"restaurant"},{"name":"청도일식","tel":"02-503-1616","addr":"경기도 과천시 별양동 1-15번지 그레이스호텔 7동 702호","indutype":"일반휴게음식 - 일식·회집","category":"restaurant"},{"name":"토니치킨","tel":"02-503-4880","addr":"경기도 과천시 별양동 1-7번지 백두 상가 109호","indutype":"음식점업 - 간이음식점","category":"restaurant"},{"name":"해원복집","tel":"02-504-1640","addr":"경기도 과천시 별양동 1-15번지 에스트로쇼핑 지하층","indutype":"일반휴게음식 - 일반한식","category":"restaurant"}]},{"lat":"37.460354323","long":"127.03138768","imageIndex":4,"items":[{"name":"그램그램과천점","tel":"02-3679-8888","addr":"경기도 과천시 별양동 1-10번지 렉스타운 309호","indutype":"음식점업 - 한식","category":"restaurant"}]},{"lat":"37.446525617","long":"127.02343801","imageIndex":4,"items":[{"name":"기찬숯불김밥(과천점)","tel":"02-504-5043","addr":"경기도 과천시 별양동 1-8번지 골든타워 103호","indutype":"음식점업 - 한식","category":"restaurant"}]},{"lat":"37.428218636","long":"126.99327866","imageIndex":4,"items":[{"name":"기찬숯불김밥과천점","tel":"02-504-5043","addr":"경기도 과천시 별양동 1-8번지 골든타워 103호","indutype":"일반휴게음식 - 일반한식","category":"restaurant"},{"name":"오븐마루과천청사점","tel":"02-3679-5092","addr":"경기도 과천시 별양동 1-8번지 2층 201,202호","indutype":"일반휴게음식 - 스넥","category":"restaurant"},{"name":"욜로 (YOLO)","tel":"02-504-8430","addr":"경기도 과천시 별양동 1-8번지 골든타워 1층 102호","indutype":"일반휴게음식 - 서양음식","category":"restaurant"}]},{"lat":"37.453023617","long":"127.00211344","imageIndex":4,"items":[{"name":"김명자굴국밥전문점","tel":"02-507-2200","addr":"경기도 과천시 별양동 1-17번지 과천타워 지하1층 9","indutype":"음식점업 - 한식","category":"restaurant"}]},{"lat":"37.459354971","long":"127.02805302","imageIndex":4,"items":[{"name":"김밥천국","tel":"02-507-6009","addr":"경기도 과천시 별양동 1-13번지 제일쇼핑 1층 120-123호","indutype":"음식점업 - 기타","category":"restaurant"},{"name":"다온정","tel":"02-507-3773","addr":"경기도 과천시 별양동 1-19, 상가건물6층2","indutype":"음식점업 - 한식","category":"restaurant"},{"name":"죠스떡볶이(과천중앙점)","tel":"02-503-5452","addr":"경기도 과천시 별양동 1-10번지 렉스타운 109호","indutype":"음식점업 - 간이음식점","category":"restaurant"},{"name":"풍경","tel":"02-504-1127","addr":"경기도 과천시 별양동 1-11번지 벽산 상가 204호","indutype":"음식점업 - 한식","category":"restaurant"}]},{"lat":"37.420578027","long":"126.99225162","imageIndex":4,"items":[{"name":"깐부치킨(과천청사점)","tel":"02-503-6469","addr":"경기도 과천시 별양동 1-7번지 백두빌딩 1층 105호","indutype":"음식점업 - 간이음식점","category":"restaurant"},{"name":"문원마을","tel":"02-504-4500","addr":"경기도 과천시 별양동 1-17번지 과천타워 지하1층 102호","indutype":"음식점업 - 한식","category":"restaurant"},{"name":"바다정원","tel":"02-503-8892","addr":"경기도 과천시 별양동 1-15번지 그레이스호텔 512~515호","indutype":"음식점업 - 한식","category":"restaurant"},{"name":"오매김밥","tel":"02-507-6133","addr":"경기도 과천시 별양동 1-18번지 새서울프라자 지층 44,48호","indutype":"음식점업 - 분식","category":"restaurant"},{"name":"커피민","tel":"02-502-1288","addr":"경기도 과천시 별양동 1-14번지 과천오피스텔 지하1층 1호","indutype":"음식점업 - 기타","category":"restaurant"},{"name":"프롬더어스","tel":"02-502-0507","addr":"경기도 과천시 별양동 1-6번지 101호","indutype":"음식점업 - 카페","category":"restaurant"},{"name":"하나로식당","tel":"02-502-6338","addr":"경기도 과천시 별양동 15번지 나래 유치원상가 지하층","indutype":"음식점업 - 한식","category":"restaurant"},{"name":"하늘아래 카페","tel":"","addr":"경기도 과천시 별양동 1-19번지 이마트 8층","indutype":"음식점업 - 카페","category":"restaurant"}]},{"lat":"37.437136962","long":"127.02463318","imageIndex":4,"items":[{"name":"낙지마당","tel":"02-3679-4092","addr":"경기도 과천시 별양동 상가상가로 2, 지하1층 1호 (별양동,과천타워)","indutype":"음식점업 - 한식","category":"restaurant"},{"name":"놀부부대찌개","tel":"02-507-0701","addr":"경기도 과천시 별양동 1-17번지 과천타워 203호","indutype":"음식점업 - 한식","category":"restaurant"}]},{"lat":"37.45094","long":"127.02625327","imageIndex":4,"items":[{"name":"남도연","tel":"02-504-3627","addr":"경기도 과천시 별양동 1-10번지 2층 204호,205호","indutype":"음식점업 - 한식","category":"restaurant"}]},{"lat":"37.427470731","long":"126.99244271","imageIndex":4,"items":[{"name":"네네치킨","tel":"02-503-7070","addr":"경기도 과천시 별양동 7번지 삼호상가 1층 101~1호","indutype":"음식점업 - 치킨","category":"restaurant"},{"name":"마산해물찜","tel":"02-502-7615","addr":"경기도 과천시 별양동 1-14번지 과천오피스텔 지하 1층 1호","indutype":"일반휴게음식 - 일반한식","category":"restaurant"},{"name":"무교동서린낙지","tel":"02-504-2124","addr":"경기도 과천시 별양동 1-14과천오피스텔지하1층","indutype":"일반휴게음식 - 일반한식","category":"restaurant"},{"name":"베리굿생태한마리","tel":"02-504-2778","addr":"경기도 과천시 별양동 1-11번지 벽산빌딩 301호","indutype":"음식점업 - 한식","category":"restaurant"},{"name":"소원","tel":"02-504-2124","addr":"경기도 과천시 별양동 1-14번지 과천오피스텔 지하층","indutype":"일반휴게음식 - 일반한식","category":"restaurant"},{"name":"순남시래기 (과천점)","tel":"02-502-3737","addr":"경기도 과천시 별양동 1-14번지 과천오피스텔 G동 1층 3호","indutype":"일반휴게음식 - 일반한식","category":"restaurant"},{"name":"육대장","tel":"070-8866-1737","addr":"경기도 과천시 별양동 1-14번지 과천오피스텔 B02호","indutype":"일반휴게음식 - 일반한식","category":"restaurant"},{"name":"카코이돈부리과천점","tel":"02-3418-0530","addr":"경기도 과천시 별양동 1-14번지 과천오피스텔 지하1층 5호","indutype":"일반휴게음식 - 일식·회집","category":"restaurant"},{"name":"커피민(coffee min)","tel":"02-502-1288","addr":"경기도 과천시 별양동 1-14번지 과천오피스텔 지하1층 1호","indutype":"일반휴게음식 - 일반한식","category":"restaurant"},{"name":"한짬뽕","tel":"02-503-3900","addr":"경기도 과천시 별양동 1-14번지 과천오피스텔 지하1층 7호","indutype":"일반휴게음식 - 중국식","category":"restaurant"}]},{"lat":"37.426470739","long":"126.99394545","imageIndex":4,"items":[{"name":"네네치킨","tel":"02-503-7070","addr":"경기도 과천시 별양동 7번지 삼호상가 1층 101-1호","indutype":"일반휴게음식 - 스넥","category":"restaurant"},{"name":"산고을","tel":"02-503-8201","addr":"경기도 과천시 별양동 1-17번지 과천타워 201호","indutype":"음식점업 - 한식","category":"restaurant"},{"name":"새서울순두부","tel":"02-503-1740","addr":"경기도 과천시 별양동 1-18번지 새서울쇼핑 지하 5-1호","indutype":"음식점업 - 한식","category":"restaurant"},{"name":"신전떡볶이","tel":"02-507-1002","addr":"경기도 과천시 별양동 1-3번지 제일상가 1층 3호","indutype":"음식점업 - 분식","category":"restaurant"}]},{"lat":"37.436652288","long":"126.99731142","imageIndex":4,"items":[{"name":"다인도시락","tel":"02-503-4949","addr":"경기도 과천시 별양동 15번지 유치원상가 지하층 4호","indutype":"음식점업 - 한식","category":"restaurant"}]},{"lat":"37.423911882","long":"126.99388927","imageIndex":4,"items":[{"name":"다인도시락","tel":"02-503-4949","addr":"경기도 과천시 별양동 15번지 유치원상가 지하층 4호","indutype":"일반휴게음식 - 일반한식","category":"restaurant"},{"name":"마루","tel":"","addr":"경기도 과천시 별양동 1-7번지 백두빌딩 지층 4호","indutype":"음식점업 - 북카페","category":"restaurant"},{"name":"푸드딜라이트 과천점","tel":"031-0000-0000","addr":"경기도 과천시 별양동 15번지 동화나라유치원 1층 5호","indutype":"일반휴게음식 - 일반한식","category":"restaurant"},{"name":"하나로식당","tel":"02-502-6333","addr":"경기도 과천시 별양동 15번지 나래 유치원상가 지하층","indutype":"일반휴게음식 - 일반한식","category":"restaurant"}]},{"lat":"37.453906581","long":"127.00077981","imageIndex":4,"items":[{"name":"다흰왕만두","tel":"02-502-5570","addr":"경기도 과천시 별양동 1-11번지 벽산상가 111호","indutype":"음식점업 - 분식","category":"restaurant"}]},{"lat":"37.435580198","long":"127.00032836","imageIndex":4,"items":[{"name":"대가","tel":"02-503-8373","addr":"경기도 과천시 별양동 1-5번지 신라 상가 205호","indutype":"음식점업 - 한식","category":"restaurant"}]},{"lat":"37.426911065","long":"126.98402593","imageIndex":4,"items":[{"name":"더돈카페","tel":"02-502-9648","addr":"경기도 과천시 별양동 1-11번지 2층 209-1호","indutype":"음식점업 - 한식","category":"restaurant"}]},{"lat":"37.434021393","long":"126.99807994","imageIndex":4,"items":[{"name":"도드람한마당","tel":"02-507-5522","addr":"경기도 과천시 별양동 1-20번지 유니온빌딩 지하1층 5호","indutype":"음식점업 - 한식","category":"restaurant"},{"name":"용대리황태마을","tel":"02-3678-8989","addr":"경기도 과천시 별양동 1-13번지 제일쇼핑 지하1층 107, 109, 110호","indutype":"음식점업 - 한식","category":"restaurant"},{"name":"희래등","tel":"02-507-1113","addr":"경기도 과천시 별양동 1-3번지 제일상가 201호","indutype":"음식점업 - 중식","category":"restaurant"}]},{"lat":"37.426578609","long":"126.99108711","imageIndex":4,"items":[{"name":"도드람한마당","tel":"02-507-5522","addr":"경기도 과천시 별양동 1-20번지 유니온빌딩 지하1층 3호","indutype":"일반휴게음식 - 일반한식","category":"restaurant"},{"name":"이색도시","tel":"02-504-1800","addr":"경기도 과천시 별양동 1-20번지 유니온빌딩 지하층","indutype":"일반휴게음식 - 일반한식","category":"restaurant"},{"name":"제주고씨네김치찌개","tel":"02-504-9233","addr":"경기도 과천시 별양동 1-20번지 유니온빌딩 지하1층 1호","indutype":"일반휴게음식 - 일반한식","category":"restaurant"},{"name":"하누랑도니랑","tel":"02-3679-8292","addr":"경기도 과천시 별양동 1-20번지 유니온빌딩 지하 3호","indutype":"일반휴게음식 - 일반한식","category":"restaurant"}]},{"lat":"37.433498472","long":"126.99272435","imageIndex":4,"items":[{"name":"동키치킨","tel":"02-502-7484~5","addr":"경기도 과천시 별양동 13번지 병원상가 102호","indutype":"음식점업 - 기타음식점어","category":"restaurant"}]},{"lat":"37.424353377","long":"126.99392311","imageIndex":4,"items":[{"name":"동키치킨","tel":"02-502-7485","addr":"경기도 과천시 별양동 13번지 병원 상가 102호","indutype":"일반휴게음식 - 스넥","category":"restaurant"},{"name":"우리집","tel":"02-502-5030","addr":"경기도 과천시 별양동 13번지 3단지병원 108호","indutype":"일반휴게음식 - 일반한식","category":"restaurant"}]},{"lat":"37.41610735","long":"126.98025572","imageIndex":4,"items":[{"name":"돼지소굴","tel":"02-3418-8731","addr":"경기도 과천시 별양동 1-11번지 벽산상가지하 11호","indutype":"음식점업 - 한식","category":"restaurant"}]},{"lat":"37.424272449","long":"127.00936667","imageIndex":4,"items":[{"name":"두레박민속주점","tel":"02-507-2680","addr":"경기도 과천시 별양동 1-18번지 새서울쇼핑 4층 12호","indutype":"음식점업 - 간이주점","category":"restaurant"}]},{"lat":"37.436129717","long":"126.99753744","imageIndex":4,"items":[{"name":"뚜레쥬르(과천중앙점)","tel":"02-503-0495","addr":"경기도 과천시 별양동 1-17번지 과천타워 107호","indutype":"음식점업 - 제과","category":"restaurant"}]},{"lat":"37.451185575","long":"127.00197784","imageIndex":4,"items":[{"name":"라폰타나","tel":"02-502-9448","addr":"경기도 과천시 별양동 1-11 벽산상가 1층 1,2","indutype":"음식점업 - 간이음식점","category":"restaurant"}]},{"lat":"37.425803854","long":"126.99222829","imageIndex":4,"items":[{"name":"마리웨일","tel":"02-504-1773","addr":"경기도 과천시 별양동 7-1번지 1층 104호","indutype":"일반휴게음식 - 서양음식","category":"restaurant"},{"name":"본죽과천점","tel":"02-507-6288","addr":"경기도 과천시 별양동 7-1번지 105호","indutype":"일반휴게음식 - 일반한식","category":"restaurant"},{"name":"콩지&팥지","tel":"031-504-5224","addr":"경기도 과천시 별양동 7-1번지 104호","indutype":"일반휴게음식 - 일반한식","category":"restaurant"},{"name":"크리스마스자몽","tel":"070-8115-1224","addr":"경기도 과천시 별양동 7-1번지 105호","indutype":"일반휴게음식 - 서양음식","category":"restaurant"}]},{"lat":"37.412334133","long":"126.9965903","imageIndex":4,"items":[{"name":"마산해물찜","tel":"02-502-7615","addr":"경기도 과천시 별양동 1-14번지 과천오피스텔 지하1층 6-2호","indutype":"음식점업 - 한식","category":"restaurant"}]},{"lat":"37.432326698","long":"126.98825025","imageIndex":4,"items":[{"name":"미친닭발","tel":"02-503-3880","addr":"경기도 과천시 별양동 1-10번지 렉스타운 306호","indutype":"음식점업 - 일반음식점","category":"restaurant"}]},{"lat":"37.422055902","long":"127.01060915","imageIndex":4,"items":[{"name":"바르다김선생(과천정부청사역점)","tel":"02-504-6555","addr":"경기도 과천시 별양동 1-11번지 벽산상가113, 115, 116호","indutype":"음식점업 - 일반음식","category":"restaurant"}]},{"lat":"37.462579407","long":"127.03293706","imageIndex":4,"items":[{"name":"바른국수 둥이네","tel":"02-3679-1253","addr":"경기도 과천시 별양동 1-11번지 벽산상가 지층 B14호","indutype":"음식점업 - 한식","category":"restaurant"}]},{"lat":"37.439328299","long":"127.00771821","imageIndex":4,"items":[{"name":"바오밥나무","tel":"02-502-8760","addr":"경기도 과천시 별양동 1-5번지 신라 상가 2층 202호","indutype":"음식점업 - 한식","category":"restaurant"}]},{"lat":"37.462876659","long":"127.03324237","imageIndex":4,"items":[{"name":"박승범제면소","tel":"02-504-1294","addr":"경기도 과천시 별양동 1-18번지 지하층 47호,52호","indutype":"음식점업 - 분식, 국수","category":"restaurant"}]},{"lat":"37.448410227","long":"127.01086048","imageIndex":4,"items":[{"name":"밥먹자국밥집","tel":"02-507-5980","addr":"경기도 과천시 별양동 1-18번지 새서울프라자 지하1층 26, 28, 30호","indutype":"음식점업 - 한식","category":"restaurant"}]},{"lat":"37.429047731","long":"126.99569635","imageIndex":4,"items":[{"name":"백채(과천청사점)","tel":"02-504-4084","addr":"경기도 과천시 별양동 1-17번지 과천타워 1층 104호","indutype":"음식점업 - 한식","category":"restaurant"},{"name":"카오야","tel":"070-5029-4008","addr":"경기도 과천시 별양동 6번지 제지하A호 제2호(5단지복합상가)","indutype":"일반휴게음식 - 일반한식","category":"restaurant"}]},{"lat":"37.433191924","long":"126.99055503","imageIndex":4,"items":[{"name":"베스킨라빈스","tel":"02-507-3243","addr":"경기도 과천시 별양동 1-4번지 상아빌딩 104동 105호","indutype":"음식점업 - 아이스크림","category":"restaurant"}]},{"lat":"37.427911942","long":"126.98964076","imageIndex":4,"items":[{"name":"본사골칼국수","tel":"02-504-3204","addr":"경기도 과천시 별양동 1-17번지 과천타워 지하1층 14호","indutype":"음식점업 - 한식","category":"restaurant"}]},{"lat":"37.429246159","long":"127.00458798","imageIndex":4,"items":[{"name":"본죽과천점","tel":"02-507-6288","addr":"경기도 과천시 별양동 7-1번지 105호","indutype":"음식점업 - 한식","category":"restaurant"}]},{"lat":"37.425353203","long":"126.99069188","imageIndex":4,"items":[{"name":"봉구비어","tel":"","addr":"경기도 과천시 별양동 1-7번지 백두빌딩 1층 107호","indutype":"음식점업 - 일반음식점","category":"restaurant"}]},{"lat":"37.424659801","long":"126.99508671","imageIndex":4,"items":[{"name":"블랑즈리식빵라이프","tel":"031-000-0000","addr":"경기도 과천시 별양동 17번지 래미안슈르 상가동 1001호","indutype":"일반휴게음식 - 서양음식","category":"restaurant"}]},{"lat":"37.424110313","long":"127.00849675","imageIndex":4,"items":[{"name":"빨간떡볶이샵","tel":"070-4085-2777","addr":"경기도 과천시 별양동 1-10번지 렉스타운 203호","indutype":"음식점업 - 떡볶이","category":"restaurant"}]},{"lat":"37.429552507","long":"127.00405697","imageIndex":4,"items":[{"name":"빽다방과천렉스타운점","tel":"02-3418-7787","addr":"경기도 과천시 별양동 1-10번지 렉스타운 102호","indutype":"음식점업 - 휴게음식","category":"restaurant"}]},{"lat":"37.461021571","long":"127.02919517","imageIndex":4,"items":[{"name":"소선방","tel":"02-503-0888","addr":"경기도 과천시 별양동 1-17번지 과천타워 G동 1층 4호","indutype":"음식점업 - 한식, 김치","category":"restaurant"}]},{"lat":"37.456240004","long":"127.00952765","imageIndex":4,"items":[{"name":"순남시래기(과천점)","tel":"02-502-3737","addr":"경기도 과천시 별양동 1-14번지 과천오피스텔 G동 1층 3호","indutype":"음식점업 - 한식","category":"restaurant"}]},{"lat":"37.447716034","long":"126.99011191","imageIndex":4,"items":[{"name":"순희집","tel":"02-503-1684","addr":"경기도 과천시 별양동 1-18번지 새서울쇼핑 지하 6호","indutype":"음식점업 - 한식","category":"restaurant"}]},{"lat":"37.46063338","long":"127.03241635","imageIndex":4,"items":[{"name":"스마일찹쌀꽈배기","tel":"02-502-1131","addr":"경기도 과천시 별양동 1-4번지 상아빌딩 111호","indutype":"음식점업 - 휴게음식점","category":"restaurant"}]},{"lat":"37.458849929","long":"127.03022295","imageIndex":4,"items":[{"name":"스토리지","tel":"02-502-0086","addr":"경기도 과천시 별양동 1-3번지 제일상가 2층 202호","indutype":"음식점업 - 한식","category":"restaurant"}]},{"lat":"37.418496421","long":"126.98947297","imageIndex":4,"items":[{"name":"애리의 밥집술집","tel":"02-502-2707","addr":"경기도 과천시 별양동 1-10번지 렉스타운 302호 303호","indutype":"음식점업 - 한식","category":"restaurant"},{"name":"커피케빈","tel":"02-3262-3168","addr":"경기도 과천시 별양동 1-17번지 과천타워 101호","indutype":"음식점업 - 커피","category":"restaurant"}]},{"lat":"37.426218277","long":"126.99181022","imageIndex":4,"items":[{"name":"앤티앤스 과천점/(주) 재원푸드","tel":"02-587-0955","addr":"경기도 과천시 별양동 1-19번지 이마트과천점 1층","indutype":"일반휴게음식 - 서양음식","category":"restaurant"},{"name":"쿠모(KUMO)","tel":"02-3678-9545","addr":"경기도 과천시 별양동 1-19번지 뉴코아 6층","indutype":"일반휴게음식 - 일반한식","category":"restaurant"},{"name":"하늘아래 카페","tel":"031-385-0061","addr":"경기도 과천시 별양동 1-19번지 뉴코아백화점 8층 일부층","indutype":"일반휴게음식 - 서양음식","category":"restaurant"}]},{"lat":"37.460489946","long":"127.02935322","imageIndex":4,"items":[{"name":"양지","tel":"02-504-1933","addr":"경기도 과천시 별양동 1-17번지 과천타워 지층3호","indutype":"음식점업 - 한식","category":"restaurant"}]},{"lat":"37.447797006","long":"127.0167256","imageIndex":4,"items":[{"name":"오븐마루(과천청사점)","tel":"02-3679-8092","addr":"경기도 과천시 별양동 1-8번지 골든타워 2층 201호, 202호","indutype":"음식점업 - 치킨","category":"restaurant"},{"name":"진정한고깃집","tel":"02-502-2701","addr":"경기도 과천시 별양동 1-10번지 렉스타운 209호","indutype":"음식점업 - 고깃집","category":"restaurant"}]},{"lat":"37.453552644","long":"127.02751989","imageIndex":4,"items":[{"name":"오븐에빠진닭","tel":"02-504-5892","addr":"경기도 과천시 별양동 1-11번지 벽산상가 2층 202호","indutype":"음식점업 - 기타","category":"restaurant"}]},{"lat":"37.450996158","long":"126.99582987","imageIndex":4,"items":[{"name":"온천골","tel":"02-502-5285","addr":"경기도 과천시 별양동 1-17번지 과천타워 108호","indutype":"음식점업 - 한식","category":"restaurant"}]},{"lat":"37.43774258","long":"126.99933394","imageIndex":4,"items":[{"name":"올래맛집","tel":"02-502-0470","addr":"경기도 과천시 별양동 1-13번지 제일쇼핑 지하 106호","indutype":"음식점업 - 한식","category":"restaurant"}]},{"lat":"37.428714046","long":"126.99166297","imageIndex":4,"items":[{"name":"옳은식당","tel":"02-3418-5051","addr":"경기도 과천시 별양동 1-13번지 B121호","indutype":"음식점업 - 한식","category":"restaurant"}]},{"lat":"37.44885045","long":"127.0219469","imageIndex":4,"items":[{"name":"욜로(YOLO)","tel":"02-504-8430","addr":"경기도 과천시 별양동 1-8번지 골든타워 1층 102호","indutype":"음식점업 - 일반음식","category":"restaurant"}]},{"lat":"37.449635537","long":"126.99419132","imageIndex":4,"items":[{"name":"원죽","tel":"02-504-5525","addr":"경기도 과천시 별양동 1-18번지 새서울쇼핑 지하10-12","indutype":"음식점업 - 한식","category":"restaurant"}]},{"lat":"37.451969449","long":"127.00299497","imageIndex":4,"items":[{"name":"육대장","tel":"02-3679-1737","addr":"경기도 과천시 별양동 1-14번지 과천오피스텔 B02호","indutype":"음식점업 - 한식","category":"restaurant"}]},{"lat":"37.427966388","long":"126.99369672","imageIndex":4,"items":[{"name":"은지순대","tel":"02-502-1512","addr":"경기도 과천시 별양동 1-17번지 과천타워 1층 103호","indutype":"음식점업 - 한식","category":"restaurant"},{"name":"프롬더어스(FROM THE EARTH)","tel":"02-502-0507","addr":"경기도 과천시 별양동 1-6번지 101호","indutype":"일반휴게음식 - 서양음식","category":"restaurant"}]},{"lat":"37.45530127","long":"127.02397161","imageIndex":4,"items":[{"name":"이바로","tel":"","addr":"경기도 과천시 별양동 1-13번지 제일쇼핑 지하1층 112호","indutype":"음식점업 - 분식","category":"restaurant"}]},{"lat":"37.4267768895","long":"126.9916971560","imageIndex":4,"items":[{"name":"인성참치","tel":"02-503-0235","addr":"경기도 과천시 별양동 1-17번지 과천타워 208호","indutype":"음식점업 - 한식","category":"restaurant"}]},{"lat":"37.446381663","long":"127.0222175","imageIndex":4,"items":[{"name":"일조","tel":"02-504-5655","addr":"경기도 과천시 별양동 1-17번지 과천타워 210호","indutype":"음식점업 - 일식","category":"restaurant"}]},{"lat":"37.414576403","long":"126.98467289","imageIndex":4,"items":[{"name":"자매순대국","tel":"02-503-0770","addr":"경기도 과천시 별양동 1-7번지 백두상가 1층 102호 백두성가","indutype":"음식점업 - 순대국","category":"restaurant"}]},{"lat":"37.415693514","long":"126.98380282","imageIndex":4,"items":[{"name":"정라진곰치국","tel":"02-503-3269","addr":"경기도 과천시 별양동 1-13번지 제일쇼핑 지하 116,117호","indutype":"음식점업 - 한식","category":"restaurant"}]},{"lat":"37.454239962","long":"127.00144661","imageIndex":4,"items":[{"name":"제일진미식당","tel":"02-503-5034","addr":"경기도 과천시 별양동 1-13번지 제일쇼핑 지하1층 13호","indutype":"음식점업 - 분식","category":"restaurant"}]},{"lat":"37.428299546","long":"126.9912789","imageIndex":4,"items":[{"name":"좋은세상","tel":"02-503-1545","addr":"경기도 과천시 별양동 1-3번지 제일상가 111호","indutype":"음식점업 - 기타주점","category":"restaurant"}]},{"lat":"37.428353953","long":"126.99561733","imageIndex":4,"items":[{"name":"카코이돈부리(과천점)","tel":"02-3418-0530","addr":"경기도 과천시 별양동 1-14번지 과천오피스텔 지하1층 5호","indutype":"음식점업 - 일식","category":"restaurant"}]},{"lat":"37.444662306","long":"127.00049756","imageIndex":4,"items":[{"name":"콩지&팥지","tel":"02-504-5224","addr":"경기도 과천시 별양동 7-1번지 1층 104호","indutype":"음식점업 - 휴게음식","category":"restaurant"}]},{"lat":"37.452885568","long":"127.0290793","imageIndex":4,"items":[{"name":"크리스마스자몽","tel":"070-8115-1224","addr":"경기도 과천시 별양동 7-1번지 105호","indutype":"음식점업 - 휴게음식","category":"restaurant"}]},{"lat":"37.45321283","long":"127.00263332","imageIndex":4,"items":[{"name":"킹콩드립","tel":"","addr":"경기도 과천시 별양동 1-3번지 별양 제3층 5호,6호 3층","indutype":"음식점업 - 카페","category":"restaurant"}]},{"lat":"37.42699233","long":"126.98515569","imageIndex":4,"items":[{"name":"택이네조개전골","tel":"02-504-5722","addr":"경기도 과천시 별양동 1-10번지 렉스타운 2층 201호","indutype":"음식점업 - 한식","category":"restaurant"}]},{"lat":"37.454995475","long":"127.02066003","imageIndex":4,"items":[{"name":"파리바게뜨(과천새서울쇼핑점)","tel":"02-503-6669","addr":"경기도 과천시 별양동 1-18, 새서울쇼핑1층14호~17호","indutype":"음식점업 - 제과점","category":"restaurant"}]},{"lat":"37.46338106","long":"127.03385295","imageIndex":4,"items":[{"name":"푸드딜라이트 과천점","tel":"02-504-3787","addr":"경기도 과천시 별양동 15번지 동화나라유치원 1층 5호","indutype":"음식점업 - 일반음식점","category":"restaurant"}]},{"lat":"37.456516379","long":"127.03005256","imageIndex":4,"items":[{"name":"피자마루(과천점)","tel":"02-3679-1082~3","addr":"경기도 과천시 별양동 1-13번지 제일쇼핑 108호","indutype":"음식점업 - 피자","category":"restaurant"}]},{"lat":"37.426993461","long":"126.99602419","imageIndex":4,"items":[{"name":"피자클릭","tel":"02-503-6661","addr":"경기도 과천시 별양동 19-4번지","indutype":"일반휴게음식 - 서양음식","category":"restaurant"}]},{"lat":"37.423632619","long":"126.99455584","imageIndex":4,"items":[{"name":"하나네집","tel":"02-507-6603","addr":"경기도 과천시 별양동 1-11번지 벽산빌딩 지하층 12호","indutype":"음식점업 - 한식","category":"restaurant"}]},{"lat":"37.4279392943","long":"126.9929171619","imageIndex":4,"items":[{"name":"행복한밥상춘(春)","tel":"02-504-3353","addr":"경기도 과천시 별양동 1-11번지 벽산 상가 지하 9호","indutype":"음식점업 - 한식","category":"restaurant"}]},{"lat":"37.452273112","long":"127.02805064","imageIndex":4,"items":[{"name":"헬로로지","tel":"02-3418-8142","addr":"경기도 과천시 별양동 1-18번지 새서울프라자 1층 22호","indutype":"음식점업 - 꽃차","category":"restaurant"}]},{"lat":"37.451636067","long":"127.00122063","imageIndex":4,"items":[{"name":"현장식당","tel":"02-503-0338","addr":"경기도 과천시 별양동 14번지 지하층 비3호","indutype":"음식점업 - 일반음식","category":"restaurant"}]},{"lat":"37.461939718","long":"127.03285768","imageIndex":4,"items":[{"name":"홍어와 탁주","tel":"02-502-7944","addr":"경기도 과천시 별양동 1-17번지 과천타워 지하5","indutype":"음식점업 - 간이음식점","category":"restaurant"}]},{"lat":"37.428831122","long":"126.99110935","imageIndex":4,"items":[{"name":"황가네분식","tel":"02-507-1331","addr":"경기도 과천시 별양동 1-18번지 새서울쇼핑지하 50","indutype":"음식점업 - 분식","category":"restaurant"}]}]