[{"lat":"37.824314942","long":"127.51572129","imageIndex":13,"items":[{"name":"7000헤어","tel":"031-111-1111","addr":"경기도 가평군 가평읍 대곡리 169-1번지 1층","indutype":"보건위생 - 미용원","category":"beauty"}]},{"lat":"37.824875481","long":"127.51527084","imageIndex":13,"items":[{"name":"L마켓","tel":"031-582-5544","addr":"경기도 가평군 가평읍 대곡리 168-16번지","indutype":"보건위생 - 화장품","category":"beauty"}]},{"lat":"37.825984486","long":"127.51507406","imageIndex":13,"items":[{"name":"가위손","tel":"031-582-6794","addr":"경기도 가평군 가평읍 대곡리 232-5","indutype":"보건위생 - 미용원","category":"beauty"}]},{"lat":"37.825675284","long":"127.51366351","imageIndex":13,"items":[{"name":"끌림","tel":"031-581-2080","addr":"경기도 가평군 가평읍 대곡리 240-9번지 1동 1층 2호","indutype":"보건위생 - 미용원","category":"beauty"}]},{"lat":"37.826154849","long":"127.50690864","imageIndex":13,"items":[{"name":"뉴새마을 사우나","tel":"","addr":"경기도 가평군 가평읍 대곡리 381-4","indutype":"보건위생 - 사우나","category":"beauty"}]},{"lat":"37.826733917","long":"127.5084346","imageIndex":13,"items":[{"name":"뉴새마을사우나","tel":"031-581-7763","addr":"경기도 가평군 가평읍 대곡리 318-4번지","indutype":"보건위생 - 사우나","category":"beauty"}]},{"lat":"37.824259283","long":"127.51401721","imageIndex":13,"items":[{"name":"다나","tel":"031-581-8685","addr":"경기도 가평군 가평읍 대곡리 173-8","indutype":"보건위생 - 화장품","category":"beauty"}]},{"lat":"37.828290646","long":"127.51096683","imageIndex":13,"items":[{"name":"다중지능코칭센터","tel":"031-581-6767","addr":"경기도 가평군 가평읍 대곡리 282-5번지","indutype":"보건위생 - 기타대인서비스","category":"beauty"}]},{"lat":"37.823845211","long":"127.51393484","imageIndex":13,"items":[{"name":"라헬미용실","tel":"031-582-0518","addr":"경기도 가평군 가평읍 대곡리 173-19","indutype":"보건위생 - 미용원","category":"beauty"}]},{"lat":"37.82495239","long":"127.51415828","imageIndex":13,"items":[{"name":"보그","tel":"070-8119-5074","addr":"경기도 가평군 가평읍 대곡리 230-3","indutype":"보건위생 - 화장품","category":"beauty"}]},{"lat":"37.824711314","long":"127.51365687","imageIndex":13,"items":[{"name":"봄헤어","tel":"031-581-6290","addr":"경기도 가평군 가평읍 대곡리 164-8번지","indutype":"보건위생 - 미용원","category":"beauty"}]},{"lat":"37.827126761","long":"127.5113564","imageIndex":13,"items":[{"name":"브로 (Bro)","tel":"031-000-0000","addr":"경기도 가평군 가평읍 대곡리 276-7번지 1층 우측","indutype":"보건위생 - 미용원","category":"beauty"}]},{"lat":"37.825709547","long":"127.51407264","imageIndex":13,"items":[{"name":"빠리보청기","tel":"031-582-5530","addr":"경기도 가평군 가평읍 대곡리 239-4번지","indutype":"보건위생 - 의료용품","category":"beauty"},{"name":"빠리안경원","tel":"031-582-2690","addr":"경기도 가평군 가평읍 대곡리 239-4번지","indutype":"보건위생 - 안경","category":"beauty"},{"name":"빠리안경원","tel":"031-582-2690","addr":"경기도 가평군 가평읍 대곡리 239-4번지","indutype":"보건위생 - 안경","category":"beauty"}]},{"lat":"37.825259192","long":"127.51404682","imageIndex":13,"items":[{"name":"신데렐라헤어","tel":"031-581-1897","addr":"경기도 가평군 가평읍 대곡리 230-23번지 신데렐라 헤어","indutype":"보건위생 - 미용원","category":"beauty"}]},{"lat":"37.825790382","long":"127.51412999","imageIndex":13,"items":[{"name":"아리따움가평점","tel":"031-582-2077","addr":"경기도 가평군 가평읍 대곡리 239-5","indutype":"보건위생 - 화장품","category":"beauty"}]},{"lat":"37.831953365","long":"127.51191204","imageIndex":13,"items":[{"name":"아모레가평특약점","tel":"031-581-7979","addr":"경기도 가평군 가평읍 대곡리 244-5번지 거북빌라","indutype":"보건위생 - 화장품","category":"beauty"}]},{"lat":"37.826320978","long":"127.51227089","imageIndex":13,"items":[{"name":"아모레카운셀러","tel":"031-581-7979","addr":"경기도 가평군 가평읍 대곡리 244-5","indutype":"보건위생 - 화장품","category":"beauty"},{"name":"아모레카운셀러","tel":"031-581-7979","addr":"경기도 가평군 가평읍 대곡리 244-5","indutype":"보건위생 - 화장품","category":"beauty"},{"name":"아모레카운셀러","tel":"031-581-7979","addr":"경기도 가평군 가평읍 대곡리 244-5","indutype":"보건위생 - 화장품","category":"beauty"},{"name":"아모레카운셀러","tel":"031-581-7979","addr":"경기도 가평군 가평읍 대곡리 244-5번지","indutype":"보건위생 - 화장품","category":"beauty"},{"name":"아모레카운셀러","tel":"031-581-7979","addr":"경기도 가평군 가평읍 대곡리 244-5","indutype":"보건위생 - 화장품","category":"beauty"},{"name":"아모레카운셀러","tel":"031-581-7979","addr":"경기도 가평군 가평읍 대곡리 244-5번지 거북빌라 202호","indutype":"보건위생 - 화장품","category":"beauty"}]},{"lat":"37.825512776","long":"127.5137419","imageIndex":13,"items":[{"name":"여왕미용실","tel":"031-582-1426","addr":"경기도 가평군 가평읍 대곡리 240-10번지 여왕미용실","indutype":"보건위생 - 미용원","category":"beauty"}]},{"lat":"37.828264697","long":"127.51071676","imageIndex":13,"items":[{"name":"예쁜헤어#","tel":"","addr":"경기도 가평군 가평읍 대곡리 282-7번지 1층","indutype":"보건위생 - 미용원","category":"beauty"}]},{"lat":"37.828709518","long":"127.50993606","imageIndex":13,"items":[{"name":"옻안타는천연염색","tel":"031-581-6325","addr":"경기도 가평군 가평읍 대곡리 285번지 1층","indutype":"보건위생 - 미용원","category":"beauty"}]},{"lat":"37.824873477","long":"127.51365798","imageIndex":13,"items":[{"name":"유앤아이","tel":"031-581-8876","addr":"경기도 가평군 가평읍 대곡리 164-10번지","indutype":"보건위생 - 미용원","category":"beauty"}]},{"lat":"37.825708115","long":"127.51232347","imageIndex":13,"items":[{"name":"이찌방","tel":"031-582-9966","addr":"경기도 가평군 가평읍 대곡리 249-1번지 A동 2층","indutype":"보건위생 - 화장품","category":"beauty"}]},{"lat":"37.828037902","long":"127.51107868","imageIndex":13,"items":[{"name":"준헤어","tel":"00-000-0000","addr":"경기도 가평군 가평읍 대곡리 277-1번지","indutype":"보건위생 - 미용원","category":"beauty"}]},{"lat":"37.82651426","long":"127.51340805","imageIndex":13,"items":[{"name":"헤어 블링블링","tel":"031-582-9022","addr":"경기도 가평군 가평읍 대곡리 236-2번지","indutype":"보건위생 - 미용원","category":"beauty"}]},{"lat":"37.826535814","long":"127.50841053","imageIndex":13,"items":[{"name":"힐링찜질방","tel":"031-581-7763","addr":"경기도 가평군 가평읍 대곡리 318-7번지","indutype":"보건위생 - 사우나","category":"beauty"}]}]