[{"lat":"37.726870232","long":"126.85231225","imageIndex":8,"items":[{"name":"(주)삼광메디팜","tel":"031-963-7362","addr":"경기도 고양시 덕양구 내유동 601-8번지","indutype":"약국 - 제약회사","category":"medical"}]},{"lat":"37.726646953","long":"126.84689067","imageIndex":8,"items":[{"name":"내유가정의학과의원","tel":"031-964-5033","addr":"경기도 고양시 덕양구 내유동","indutype":"의원 - 의원","category":"medical"},{"name":"내유원약국","tel":"031-963-2263","addr":"경기도 고양시 덕양구 내유동","indutype":"약국 - 약국","category":"medical"}]},{"lat":"37.725399221","long":"126.84359248","imageIndex":8,"items":[{"name":"내유녹십자약국","tel":"031-963-3188","addr":"경기도 고양시 덕양구 내유동 676-49번지","indutype":"약국 - 약국","category":"medical"},{"name":"청담우리의원","tel":"031-963-6444","addr":"경기도 고양시 덕양구 내유동 676-49번지","indutype":"의원 - 의원","category":"medical"}]},{"lat":"37.726095501","long":"126.84548528","imageIndex":8,"items":[{"name":"내유동우리약국","tel":"031-962-2830","addr":"경기도 고양시 덕양구 내유동 646-11번지","indutype":"약국 - 약국","category":"medical"},{"name":"미래내과의원","tel":"031-964-2015","addr":"경기도 고양시 덕양구 내유동 646-11번지","indutype":"의원 - 의원","category":"medical"}]},{"lat":"37.726013368","long":"126.84470278","imageIndex":8,"items":[{"name":"내유한의원","tel":"031-811-8275","addr":"경기도 고양시 덕양구 내유동 675-5번지","indutype":"의원 - 한의원","category":"medical"}]},{"lat":"37.725400231","long":"126.84434111","imageIndex":8,"items":[{"name":"덕진약국","tel":"031-962-8702","addr":"경기도 고양시 덕양구 내유동 646-22번지","indutype":"약국 - 약국","category":"medical"}]},{"lat":"37.725039131","long":"126.84380877","imageIndex":8,"items":[{"name":"박재범한의원","tel":"031-969-1275","addr":"경기도 고양시 덕양구 내유동 544-5번지","indutype":"의원 - 한의원","category":"medical"}]},{"lat":"37.714931358","long":"126.85139508","imageIndex":8,"items":[{"name":"펫앤유 24시 동물병원","tel":"031-962-8274","addr":"경기도 고양시 덕양구 내유동 431-9번지","indutype":"기타의료기관 - 동물병원","category":"medical"}]},{"lat":"37.725289908","long":"126.84270796","imageIndex":8,"items":[{"name":"편한치과","tel":"031-962-2875","addr":"경기도 고양시 덕양구 내유동 307-12번지","indutype":"의원 - 치과의원","category":"medical"}]}]