[{"lat":"37.204488385","long":"126.72650626","imageIndex":4,"items":[{"name":"곰다래식당","tel":"031-357-0222","addr":"경기도 화성시 송산면 육일리 398번지","indutype":"일반휴게음식 - 일반한식","category":"restaurant"}]},{"lat":"37.207021901","long":"126.71955784","imageIndex":4,"items":[{"name":"대일식당","tel":"031-357-2267","addr":"경기도 화성시 송산면 육일리 76-26번지","indutype":"일반휴게음식 - 위탁급식업","category":"restaurant"}]},{"lat":"37.208518783","long":"126.72384426","imageIndex":4,"items":[{"name":"동해막국수","tel":"02-1111-1111","addr":"경기도 화성시 송산면 육일리 142번지 좌측점포","indutype":"일반휴게음식 - 일반한식","category":"restaurant"}]},{"lat":"37.198659677","long":"126.72309209","imageIndex":4,"items":[{"name":"디마인","tel":"031-356-5910","addr":"경기도 화성시 송산면 육일리 640-2번지","indutype":"일반휴게음식 - 서양음식","category":"restaurant"}]},{"lat":"37.198358046","long":"126.72509813","imageIndex":4,"items":[{"name":"러브레터","tel":"031-366-9289","addr":"경기도 화성시 송산면 육일리 726번지 코스코 상가 1층 104호","indutype":"일반휴게음식 - 서양음식","category":"restaurant"}]},{"lat":"37.207351851","long":"126.72189972","imageIndex":4,"items":[{"name":"산노을","tel":"","addr":"경기도 화성시 송산면 육일리 158-2번지","indutype":"일반휴게음식 - 일반한식","category":"restaurant"}]},{"lat":"37.206492754","long":"126.72825626","imageIndex":4,"items":[{"name":"송산나루","tel":"031-356-4651","addr":"경기도 화성시 송산면 육일리 312-2번지","indutype":"일반휴게음식 - 일반한식","category":"restaurant"}]},{"lat":"37.197461645","long":"126.71944715","imageIndex":4,"items":[{"name":"시골집","tel":"031-355-0812","addr":"경기도 화성시 송산면 육일리 577-4번지 1층","indutype":"일반휴게음식 - 일반한식","category":"restaurant"}]},{"lat":"37.205797158","long":"126.72748152","imageIndex":4,"items":[{"name":"이디야 화성송산육일리점","tel":"031-357-2243","addr":"경기도 화성시 송산면 육일리 370-1번지 1층","indutype":"일반휴게음식 - 서양음식","category":"restaurant"},{"name":"하늘채","tel":"031-357-0055","addr":"경기도 화성시 송산면 육일리 370-1번지","indutype":"일반휴게음식 - 일반한식","category":"restaurant"}]},{"lat":"37.207934414","long":"126.72439839","imageIndex":4,"items":[{"name":"축복식당","tel":"031-355-3232","addr":"경기도 화성시 송산면 육일리 145-5번지","indutype":"일반휴게음식 - 일반한식","category":"restaurant"}]},{"lat":"37.203155362","long":"126.72672514","imageIndex":4,"items":[{"name":"푸짐한식당","tel":"031-355-2240","addr":"경기도 화성시 송산면 육일리 388-1번지","indutype":"일반휴게음식 - 일반한식","category":"restaurant"}]},{"lat":"37.205436406","long":"126.72733639","imageIndex":4,"items":[{"name":"항동한식부페","tel":"031-357-9975","addr":"경기도 화성시 송산면 육일리 372-3번지 1층","indutype":"일반휴게음식 - 일반한식","category":"restaurant"}]}]