[{"lat":"37.795952433","long":"127.1058378","imageIndex":8,"items":[{"name":"고창걸이비인후과의원","tel":"031-848-3075","addr":"경기도 양주시 삼숭동 685-1번지 GS양주프라자 2313호","indutype":"의원 - 의원","category":"medical"},{"name":"늘봄약국","tel":"031-856-7384","addr":"경기도 양주시 삼숭동 685-1번지 양주자이프라자 2층 2215호","indutype":"약국 - 약국","category":"medical"},{"name":"늘푸른가정의학과","tel":"031-843-8279","addr":"경기도 양주시 삼숭동 685-1번지 양주프라자제1상가 2207동 2208호","indutype":"의원 - 의원","category":"medical"},{"name":"민소아청소년과의원","tel":"031-856-1175","addr":"경기도 양주시 삼숭동 685-1번지 양주자이프라자1상가 2105호","indutype":"의원 - 의원","category":"medical"},{"name":"민제한의원","tel":"031-841-7582","addr":"경기도 양주시 삼숭동 685-1GS양주프라자3층2301.2314","indutype":"의원 - 한의원","category":"medical"},{"name":"서울좋은치과","tel":"031-846-2842","addr":"경기도 양주시 삼숭동 685-1번지 양주자이프라자 2304호","indutype":"의원 - 치과의원","category":"medical"},{"name":"성모예일내과","tel":"031-821-7311","addr":"경기도 양주시 삼숭동 685-1번지 GS양주프라자 2305호","indutype":"의원 - 의원","category":"medical"},{"name":"우리약국","tel":"031-848-6755","addr":"경기도 양주시 삼숭동 685-1번지 양주자이프라자 3층 2313호","indutype":"약국 - 약국","category":"medical"},{"name":"자이프라자약국","tel":"031-842-0328","addr":"경기도 양주시 삼숭동 685-1번지 양주자이프라자 1층 2127호","indutype":"약국 - 약국","category":"medical"},{"name":"참사랑약국","tel":"031-821-0142","addr":"경기도 양주시 삼숭동 685-1번지 자이프라자 2층 2218호","indutype":"약국 - 약국","category":"medical"},{"name":"태양약국","tel":"031-859-8569","addr":"경기도 양주시 삼숭동 685-1번지 양주자이프라자상가 2306호","indutype":"약국 - 약국","category":"medical"}]},{"lat":"37.80239839","long":"127.08942779","imageIndex":8,"items":[{"name":"농업회사법인제이비솔루션주식회사","tel":"031-821-1626","addr":"경기도 양주시 삼숭동 647-2번지","indutype":"기타의료기관 - 동물병원","category":"medical"}]},{"lat":"37.7967279","long":"127.10508952","imageIndex":8,"items":[{"name":"묘향산한의원","tel":"031-841-8930","addr":"경기도 양주시 삼숭동 683-2번지 양주프라자2 3311호","indutype":"의원 - 한의원","category":"medical"},{"name":"서울소아과의원","tel":"031-841-3395","addr":"경기도 양주시 삼숭동 683-2번지","indutype":"의원 - 의원","category":"medical"},{"name":"서울수치과","tel":"031-848-2828","addr":"경기도 양주시 삼숭동 683-2번지 GS양주프라자2상가 3동 3312호","indutype":"의원 - 치과의원","category":"medical"},{"name":"한누리약국","tel":"031-848-7752","addr":"경기도 양주시 삼숭동 683-2번지 양주프라자2","indutype":"약국 - 약국","category":"medical"}]},{"lat":"37.797424094","long":"127.10220657","imageIndex":8,"items":[{"name":"온아치과의원","tel":"031-844-2877","addr":"경기도 양주시 삼숭동 270번지 201-202호","indutype":"의원 - 치과의원","category":"medical"}]},{"lat":"37.805974817","long":"127.08987481","imageIndex":8,"items":[{"name":"제일조은치과의원","tel":"031-821-0028","addr":"경기도 양주시 삼숭동 653-10번지","indutype":"의원 - 치과의원","category":"medical"}]},{"lat":"37.795816684","long":"127.10653019","imageIndex":8,"items":[{"name":"튼튼e","tel":"031-821-2875","addr":"경기도 양주시 삼숭동 202-35양주프라자5201.5207","indutype":"의원 - 치과의원","category":"medical"}]}]