[{"lat":"37.654489007","long":"126.82179366","imageIndex":8,"items":[{"name":"(주)에이치앤팜","tel":"02-2212-9393","addr":"경기도 고양시 덕양구 주교동 981-1번지","indutype":"약국 - 제약회사","category":"medical"}]},{"lat":"37.656690205","long":"126.83593128","imageIndex":8,"items":[{"name":"고운맘약국","tel":"031-968-1206","addr":"경기도 고양시 덕양구 주교동 614-1번지","indutype":"약국 - 약국","category":"medical"}]},{"lat":"37.656518781","long":"126.83576168","imageIndex":8,"items":[{"name":"김치과의원","tel":"031-963-1280","addr":"경기도 고양시 덕양구 주교동 614-2번지","indutype":"의원 - 치과의원","category":"medical"},{"name":"무지개약국","tel":"031-963-3357","addr":"경기도 고양시 덕양구 주교동 614-2번지","indutype":"약국 - 약국","category":"medical"},{"name":"최병문피부과의원","tel":"031-965-5800","addr":"경기도 고양시 덕양구 주교동 614-2번지","indutype":"의원 - 의원","category":"medical"}]},{"lat":"37.657266502","long":"126.83570334","imageIndex":8,"items":[{"name":"다원메딕스","tel":"","addr":"경기도 고양시 덕양구 주교동 616-3번지","indutype":"약국 - 제약회사","category":"medical"}]},{"lat":"37.658774747","long":"126.83828384","imageIndex":8,"items":[{"name":"봄소아청소년과의원","tel":"031-967-9696","addr":"경기도 고양시 덕양구 주교동 621-4번지","indutype":"의원 - 의원","category":"medical"},{"name":"행복드림약국","tel":"031-967-2700","addr":"경기도 고양시 덕양구 주교동 621-4번지","indutype":"약국 - 약국","category":"medical"}]},{"lat":"37.658710808","long":"126.8313483","imageIndex":8,"items":[{"name":"생생푸드","tel":"031-966-1999","addr":"경기도 고양시 덕양구 주교동 595-8번지","indutype":"약국 - 한약방","category":"medical"}]},{"lat":"37.657357736","long":"126.83650775","imageIndex":8,"items":[{"name":"석정한의원","tel":"031-962-9885","addr":"경기도 고양시 덕양구 주교동 615번지 대동피렌체","indutype":"의원 - 한의원","category":"medical"}]},{"lat":"37.66307276","long":"126.83856902","imageIndex":8,"items":[{"name":"성보의원","tel":"031-966-7535","addr":"경기도 고양시 덕양구 주교동 555-4번지","indutype":"의원 - 의원","category":"medical"},{"name":"원당효소촌한의원","tel":"031-966-7510","addr":"경기도 고양시 덕양구 주교동 555-4번지","indutype":"의원 - 한의원","category":"medical"},{"name":"유한약국","tel":"031-963-7185","addr":"경기도 고양시 덕양구 주교동 555-4번지","indutype":"약국 - 약국","category":"medical"}]},{"lat":"37.657268571","long":"126.83087565","imageIndex":8,"items":[{"name":"수생약국","tel":"031-966-0920","addr":"경기도 고양시 덕양구 주교동 603-18번지","indutype":"약국 - 약국","category":"medical"}]},{"lat":"37.656906581","long":"126.83603279","imageIndex":8,"items":[{"name":"스타필의원","tel":"031-965-2255","addr":"경기도 고양시 덕양구 주교동 615-6번지","indutype":"의원 - 의원","category":"medical"},{"name":"우리산부인과의원","tel":"031-963-5275","addr":"경기도 고양시 덕양구 주교동 615-6번지","indutype":"의원 - 의원","category":"medical"},{"name":"중앙내과의원","tel":"031-964-7588","addr":"경기도 고양시 덕양구 주교동 615-6번지","indutype":"의원 - 의원","category":"medical"}]},{"lat":"37.662631398","long":"126.83864933","imageIndex":8,"items":[{"name":"온누리청심약국","tel":"031-962-0362","addr":"경기도 고양시 덕양구 주교동 568-1번지","indutype":"약국 - 약국","category":"medical"},{"name":"한사랑가정의학과의원","tel":"031-969-6961","addr":"경기도 고양시 덕양구 주교동 568-1번지","indutype":"의원 - 의원","category":"medical"},{"name":"한사랑가정의학과의원","tel":"031-969-6961","addr":"경기도 고양시 덕양구 주교동 568-1번지","indutype":"의원 - 의원","category":"medical"}]},{"lat":"37.663243437","long":"126.83820597","imageIndex":8,"items":[{"name":"우리약국","tel":"031-962-7144","addr":"경기도 고양시 덕양구 주교동 556-5번지","indutype":"약국 - 약국","category":"medical"}]},{"lat":"37.655327167","long":"126.83412116","imageIndex":8,"items":[{"name":"우리원당한의원","tel":"031-966-0819","addr":"경기도 고양시 덕양구 주교동 609-7번지","indutype":"의원 - 한의원","category":"medical"}]},{"lat":"37.663044718","long":"126.83784374","imageIndex":8,"items":[{"name":"우일치과","tel":"031-965-7649","addr":"경기도 고양시 덕양구 주교동 567번지","indutype":"의원 - 치과의원","category":"medical"}]},{"lat":"37.656716752","long":"126.83559125","imageIndex":8,"items":[{"name":"원당미성한의원","tel":"031-966-7533","addr":"경기도 고양시 덕양구 주교동 614번지","indutype":"의원 - 한의원","category":"medical"}]},{"lat":"37.657601667","long":"126.83698318","imageIndex":8,"items":[{"name":"원당시장약국","tel":"031-968-5969","addr":"경기도 고양시 덕양구 주교동 620-5번지 세창아파트","indutype":"약국 - 약국","category":"medical"}]},{"lat":"37.657939902","long":"126.83406992","imageIndex":8,"items":[{"name":"푸른치과의원","tel":"031-966-2804","addr":"경기도 고양시 덕양구 주교동 599-11번지","indutype":"의원 - 치과의원","category":"medical"}]},{"lat":"37.658856118","long":"126.83848765","imageIndex":8,"items":[{"name":"해오름동물병원","tel":"031-818-6543","addr":"경기도 고양시 덕양구 주교동 621-3번지","indutype":"기타의료기관 - 동물병원","category":"medical"}]}]