[{"lat":"37.160718844","long":"126.97226005","imageIndex":13,"items":[{"name":"VIP당구장","tel":"031-1111-1111","addr":"경기도 화성시 정남면 신리 260번지 301호","indutype":"레저업소 - 당 구 장","category":"leisure"},{"name":"에스지 골프","tel":"031-353-7958","addr":"경기도 화성시 정남면 신리 260번지","indutype":"레저업소 - 스크린골프","category":"leisure"}]},{"lat":"37.16374865","long":"126.98303323","imageIndex":13,"items":[{"name":"블루노래연습장","tel":"","addr":"경기도 화성시 정남면 신리 108-5번지 지하1층","indutype":"레저업소 - 노 래 방","category":"leisure"}]},{"lat":"37.163415292","long":"126.98320219","imageIndex":13,"items":[{"name":"센스노래연습장","tel":"031-366-2780","addr":"경기도 화성시 정남면 신리 111-5번지 2층","indutype":"레저업소 - 노 래 방","category":"leisure"}]},{"lat":"37.162469063","long":"126.98242561","imageIndex":13,"items":[{"name":"열무PC방","tel":"031-353-0786","addr":"경기도 화성시 정남면 신리 111-23번지 지하1층","indutype":"레저업소 - 기타레져업소","category":"leisure"}]},{"lat":"37.163054842","long":"126.98301089","imageIndex":13,"items":[{"name":"오렌지노래연습장","tel":"031-352-7519","addr":"경기도 화성시 정남면 신리 111-27번지","indutype":"레저업소 - 노 래 방","category":"leisure"}]},{"lat":"37.161638288","long":"126.97375702","imageIndex":13,"items":[{"name":"지에스스크린골프","tel":"031-8059-3355","addr":"경기도 화성시 정남면 신리 259-9번지","indutype":"레저업소 - 스크린골프","category":"leisure"}]},{"lat":"37.161333614","long":"126.98167162","imageIndex":13,"items":[{"name":"태마노래연습장","tel":"031-366-6546","addr":"경기도 화성시 정남면 신리 114-4번지 1층","indutype":"레저업소 - 노 래 방","category":"leisure"},{"name":"황제노래연습장","tel":"031-366-6546","addr":"경기도 화성시 정남면 신리 114-4번지 1층","indutype":"레저업소 - 노 래 방","category":"leisure"}]},{"lat":"37.167830434","long":"126.98334741","imageIndex":13,"items":[{"name":"팡팡 노래연습장","tel":"031-223-9159","addr":"경기도 화성시 정남면 신리 25-3번지 2층","indutype":"레저업소 - 노 래 방","category":"leisure"}]},{"lat":"37.163973823","long":"126.98251527","imageIndex":13,"items":[{"name":"프린스 당구장","tel":"031-271-4119","addr":"경기도 화성시 정남면 신리 109번지 4층","indutype":"레저업소 - 당 구 장","category":"leisure"}]}]