[{"lat":"37.636833187","long":"127.15631738","imageIndex":17,"items":[{"name":"(주) 에코펌","tel":"031-528-7520","addr":"경기도 남양주시 진건읍 진관리 985-4번지","indutype":"가구 - 일반가구","category":"other"},{"name":"(주)코아미","tel":"031-567-9409","addr":"경기도 남양주시 진건읍 진관리 985-4번지 2층 201호","indutype":"신변잡화 - 기념품점","category":"other"},{"name":"대일탁자","tel":"031-574-1757","addr":"경기도 남양주시 진건읍 진관리 985-4번지","indutype":"가구 - 일반가구","category":"other"},{"name":"주식회사 코아미코리아","tel":"031-567-9409","addr":"경기도 남양주시 진건읍 진관리 985-4번지","indutype":"신변잡화 - 기념품점","category":"other"}]},{"lat":"37.658778891","long":"127.17094788","imageIndex":17,"items":[{"name":"(주) 유성냉기","tel":"031-571-7890","addr":"경기도 남양주시 진건읍 진관리 131-9번지 2층","indutype":"전기제품 - 냉열기기","category":"other"},{"name":"닥트공사혜성","tel":"031-553-8823","addr":"경기도 남양주시 진건읍 진관리 131-9번지","indutype":"전기제품 - 기타전기제품","category":"other"},{"name":"육일냉동","tel":"031-572-5550","addr":"경기도 남양주시 진건읍 진관리 131-9번지 외1필지","indutype":"전기제품 - 냉열기기","category":"other"},{"name":"종합냉동산업","tel":"02-0000-0000","addr":"경기도 남양주시 진건읍 진관리 131-9번지 2층","indutype":"용역 서비스 - 기타용역서비스","category":"other"}]},{"lat":"37.649525319","long":"127.16495536","imageIndex":17,"items":[{"name":"(주)게리시코리아","tel":"031-573-9966","addr":"경기도 남양주시 진건읍 진관리 464-5번지","indutype":"유통업 영리 - 기타유통업","category":"other"}]},{"lat":"37.65577424","long":"127.16770005","imageIndex":17,"items":[{"name":"(주)베스트시스템퍼니처","tel":"031-592-7078","addr":"경기도 남양주시 진건읍 진관리 200-1번지","indutype":"가구 - 일반가구","category":"other"}]},{"lat":"37.642718549","long":"127.15475456","imageIndex":17,"items":[{"name":"(주)삼화인터내셔날","tel":"031-573-2206","addr":"경기도 남양주시 진건읍 진관리 748-10번지","indutype":"건축자재 - 조명기구","category":"other"}]},{"lat":"37.652001408","long":"127.1525071","imageIndex":17,"items":[{"name":"(주)신화헬스빌닷컴","tel":"02-913-8686","addr":"경기도 남양주시 진건읍 진관리 956-1번지 1층","indutype":"기타 - 기타 전문점","category":"other"}]},{"lat":"37.639086596","long":"127.16237214","imageIndex":17,"items":[{"name":"(주)싱싱냉기","tel":"031-527-0010","addr":"경기도 남양주시 진건읍 진관리 303-5번지","indutype":"전기제품 - 냉열기기","category":"other"}]},{"lat":"37.64014316","long":"127.15367297","imageIndex":17,"items":[{"name":"(주)아이앤지","tel":"070-7554-1008","addr":"경기도 남양주시 진건읍 진관리 906-1번지 (외1필지(906-9))","indutype":"레져용품 - 스포츠·레져용품","category":"other"},{"name":"(주)아이앤지","tel":"070-7554-1008","addr":"경기도 남양주시 진건읍 진관리 906-1번지 외1필지 906-9","indutype":"레져용품 - 스포츠·레져용품","category":"other"},{"name":"(주)아이앤지","tel":"070-7554-1008","addr":"경기도 남양주시 진건읍 진관리 906-1번지 외1필지 906-9","indutype":"레져용품 - 스포츠·레져용품","category":"other"},{"name":"(주)아이앤지","tel":"070-7554-1008","addr":"경기도 남양주시 진건읍 진관리 906-1번지","indutype":"레져용품 - 스포츠·레져용품","category":"other"}]},{"lat":"37.658084293","long":"127.16512129","imageIndex":17,"items":[{"name":"(주)아쿠아가든","tel":"031-574-8440","addr":"경기도 남양주시 진건읍 진관리 168-2번지","indutype":"문화.취미 - 수족관","category":"other"},{"name":"아쿠아유주","tel":"","addr":"경기도 남양주시 진건읍 진관리 168-2번지 1층","indutype":"문화.취미 - 수족관","category":"other"},{"name":"유로솔라에너지(EURO SOLAR ENERGY)","tel":"031-1644-5032","addr":"경기도 남양주시 진건읍 진관리 168-2번지","indutype":"건축자재 - 조명기구","category":"other"},{"name":"태릉난농원","tel":"031-528-5401","addr":"경기도 남양주시 진건읍 진관리 168-2","indutype":"문화.취미 - 화원","category":"other"}]},{"lat":"37.652722475","long":"127.17228272","imageIndex":17,"items":[{"name":"(주)유일컴퍼니 몬스터펫샵","tel":"070-8881-4286","addr":"경기도 남양주시 진건읍 진관리 85-5번지","indutype":"문화.취미 - 애완동물","category":"other"},{"name":"몬스터 펫샵 진건점","tel":"","addr":"경기도 남양주시 진건읍 진관리 85-5번지 1동","indutype":"문화.취미 - 애완동물","category":"other"},{"name":"세븐일레븐남양주진관점","tel":"031-1577-0711","addr":"경기도 남양주시 진건읍 진관리 85-5번지 2동","indutype":"유통업 영리 - 편 의 점","category":"other"},{"name":"장보는강아지와고양이진건점","tel":"070-8881-4286","addr":"경기도 남양주시 진건읍 진관리 85-5번지","indutype":"문화.취미 - 애완동물","category":"other"}]},{"lat":"37.654857993","long":"127.15906286","imageIndex":17,"items":[{"name":"(주)제이앤에스 트레이딩","tel":"070-4047-0797","addr":"경기도 남양주시 진건읍 진관리 562-4번지","indutype":"의류 - 정장","category":"other"}]},{"lat":"37.640858682","long":"127.16444934","imageIndex":17,"items":[{"name":"(주)카사운드인캠핑","tel":"032-000-0000","addr":"경기도 남양주시 진건읍 진관리 360번지","indutype":"레져용품 - 스포츠·레져용품","category":"other"},{"name":"카사운드인캠핑","tel":"02-911-2292","addr":"경기도 남양주시 진건읍 진관리 360번지","indutype":"레져용품 - 스포츠·레져용품","category":"other"}]},{"lat":"37.636527005","long":"127.15620345","imageIndex":17,"items":[{"name":"(주)케이에스에이프로젝트","tel":"031-574-2811","addr":"경기도 남양주시 진건읍 진관리 985-5번지","indutype":"가구 - 일반가구","category":"other"}]},{"lat":"37.638276395","long":"127.15504009","imageIndex":17,"items":[{"name":"(주)트렌드하이테크","tel":"02-1588-6193","addr":"경기도 남양주시 진건읍 진관리 981-3번지 2층","indutype":"기타 - 기계공구","category":"other"},{"name":"트렌드 하이테크","tel":"02-1111-1111","addr":"경기도 남양주시 진건읍 진관리 981-3번지","indutype":"기타 - 기계공구","category":"other"}]},{"lat":"37.64955376","long":"127.16392427","imageIndex":17,"items":[{"name":"(주)티아트","tel":"","addr":"경기도 남양주시 진건읍 진관리 465-2번지","indutype":"건축자재 - 인테리어전문","category":"other"}]},{"lat":"37.656610979","long":"127.16852917","imageIndex":17,"items":[{"name":"(주)티에이사운드","tel":"031-595-2645","addr":"경기도 남양주시 진건읍 진관리 149-5번지","indutype":"전기제품 - 가전제품","category":"other"}]},{"lat":"37.654803234","long":"127.17261608","imageIndex":17,"items":[{"name":"(주)희승물산","tel":"031-528-8995","addr":"경기도 남양주시 진건읍 진관리 101-27 쏠쇼핑타운24-1","indutype":"레져용품 - 스포츠·레져용품","category":"other"}]},{"lat":"37.640392131","long":"127.15623406","imageIndex":17,"items":[{"name":"BEX","tel":"031-529-8119","addr":"경기도 남양주시 진건읍 진관리 818-5번지","indutype":"유통업 영리 - 기타유통업","category":"other"}]},{"lat":"37.6411976","long":"127.16033723","imageIndex":17,"items":[{"name":"BKC용접기","tel":"031-529-5856","addr":"경기도 남양주시 진건읍 진관리 329-1번지","indutype":"기타 - 기계공구","category":"other"}]},{"lat":"37.654335886","long":"127.17181044","imageIndex":17,"items":[{"name":"HJ커머스","tel":"031-591-3485","addr":"경기도 남양주시 진건읍 진관리 97-1번지 4동 2호","indutype":"신변잡화 - 기타잡화","category":"other"},{"name":"SOL쇼핑타운","tel":"031-573-3119","addr":"경기도 남양주시 진건읍 진관리 97-1번지 외8필지","indutype":"레져용품 - 스포츠·레져용품","category":"other"},{"name":"SOL쇼핑타운","tel":"031-573-3154","addr":"경기도 남양주시 진건읍 진관리 97-1번지 외8필지","indutype":"의류 - 정장","category":"other"},{"name":"SOL쇼핑타운/PUMA","tel":"031-573-6112","addr":"경기도 남양주시 진건읍 진관리 97-1번지 외8필지","indutype":"레져용품 - 스포츠·레져용품","category":"other"},{"name":"SOL쇼핑타운/꼬망스","tel":"031-573-6112","addr":"경기도 남양주시 진건읍 진관리 97-1번지 외8필지","indutype":"의류 - 아동의류","category":"other"},{"name":"SOL쇼핑타운/로또스포츠","tel":"031-573-3109","addr":"경기도 남양주시 진건읍 진관리 97-1번지 외8필지","indutype":"의류 - 정장","category":"other"},{"name":"SOL쇼핑타운/송지호골프","tel":"031-573-3109","addr":"경기도 남양주시 진건읍 진관리 97-1번지 외8필지","indutype":"레져용품 - 스포츠·레져용품","category":"other"}]},{"lat":"37.640746556","long":"127.16075549","imageIndex":17,"items":[{"name":"JG유통","tel":"031-475-9852","addr":"경기도 남양주시 진건읍 진관리 326번지","indutype":"문화.취미 - 애완동물","category":"other"}]},{"lat":"37.63855652","long":"127.1612607","imageIndex":17,"items":[{"name":"Joy라이팅","tel":"02-2245-1053","addr":"경기도 남양주시 진건읍 진관리 314-4번지","indutype":"건축자재 - 조명기구","category":"other"}]},{"lat":"37.65558006","long":"127.1647872","imageIndex":17,"items":[{"name":"LK전기조명","tel":"031-000-0000","addr":"경기도 남양주시 진건읍 진관리 189-8번지","indutype":"건축자재 - 조명기구","category":"other"}]},{"lat":"37.657749215","long":"127.16636716","imageIndex":17,"items":[{"name":"M.K 씨스템","tel":"031-575-0160","addr":"경기도 남양주시 진건읍 진관리 172-2번지","indutype":"용역 서비스 - 기타용역서비스","category":"other"}]},{"lat":"37.654551842","long":"127.17200357","imageIndex":17,"items":[{"name":"SOL쇼핑타운/영원무역","tel":"031-573-3163","addr":"경기도 남양주시 진건읍 진관리 101-5","indutype":"레져용품 - 스포츠·레져용품","category":"other"},{"name":"더 로그 (The log)","tel":"070-7543-0629","addr":"경기도 남양주시 진건읍 진관리 101-5번지","indutype":"가구 - 일반가구","category":"other"},{"name":"신세계광고","tel":"031-528-6786","addr":"경기도 남양주시 진건읍 진관리 101-5번지 3동 3호","indutype":"서적문구 - 출판 및 인쇄물","category":"other"}]},{"lat":"37.655334852","long":"127.1725833","imageIndex":17,"items":[{"name":"TNGT남양주점","tel":"031-529-7337","addr":"경기도 남양주시 진건읍 진관리 102-4번지","indutype":"레져용품 - 스포츠·레져용품","category":"other"}]},{"lat":"37.637920327","long":"127.15165179","imageIndex":17,"items":[{"name":"가경창호","tel":"031-562-2733","addr":"경기도 남양주시 진건읍 진관리 903-2번지","indutype":"건축자재 - 기타건축자재","category":"other"}]},{"lat":"37.656966592","long":"127.17189573","imageIndex":17,"items":[{"name":"가야철물건재","tel":"031-528-6506","addr":"경기도 남양주시 진건읍 진관리 112-7번지 나동","indutype":"건축자재 - 목재·석재·철물","category":"other"},{"name":"화신철강","tel":"031-572-6667","addr":"경기도 남양주시 진건읍 진관리 112-7번지","indutype":"건축자재 - 기타건축자재","category":"other"}]},{"lat":"37.639830997","long":"127.15817032","imageIndex":17,"items":[{"name":"강원상회","tel":"031-791-4143","addr":"경기도 남양주시 진건읍 진관리 807-3번지","indutype":"직물 - 옷감·직물","category":"other"}]},{"lat":"37.639616244","long":"127.16378952","imageIndex":17,"items":[{"name":"경기지업사","tel":"","addr":"경기도 남양주시 진건읍 진관리 297-3번지","indutype":"유통업 영리 - 기타유통업","category":"other"}]},{"lat":"37.654892285","long":"127.17334155","imageIndex":17,"items":[{"name":"광성샷다","tel":"031-574-3455","addr":"경기도 남양주시 진건읍 진관리 99번지","indutype":"건축자재 - 보일러·펌프·샷시","category":"other"}]},{"lat":"37.655387353","long":"127.15383977","imageIndex":17,"items":[{"name":"구리태광비닐","tel":"031-572-8867","addr":"경기도 남양주시 진건읍 진관리 966-115번지","indutype":"농업 - 농기계","category":"other"}]},{"lat":"37.650161834","long":"127.15376121","imageIndex":17,"items":[{"name":"그린농자재","tel":"031-575-9819","addr":"경기도 남양주시 진건읍 진관리 665-4번지","indutype":"농업 - 농기계","category":"other"}]},{"lat":"37.656828844","long":"127.1673624","imageIndex":17,"items":[{"name":"그린자판기","tel":"031-569-2007","addr":"경기도 남양주시 진건읍 진관리 177-2번지","indutype":"기타 - 기계공구","category":"other"}]},{"lat":"37.642609289","long":"127.16244766","imageIndex":17,"items":[{"name":"글라스 빌리지(glass village)","tel":"","addr":"경기도 남양주시 진건읍 진관리 387-8번지 102호","indutype":"건축자재 - 유리","category":"other"}]},{"lat":"37.651752104","long":"127.15719795","imageIndex":17,"items":[{"name":"금성냉동산업","tel":"031-527-8940","addr":"경기도 남양주시 진건읍 진관리 628번지 1층","indutype":"수리서비스 - 가정용품수리","category":"other"},{"name":"진관물류","tel":"031-572-4343","addr":"경기도 남양주시 진건읍 진관리 628번지","indutype":"신변잡화 - 기타잡화","category":"other"}]},{"lat":"37.642751782","long":"127.15691873","imageIndex":17,"items":[{"name":"꿈이있는마루","tel":"","addr":"경기도 남양주시 진건읍 진관리 756-2번지","indutype":"건축자재 - 기타건축자재","category":"other"},{"name":"이레낚시","tel":"031-575-0744","addr":"경기도 남양주시 진건읍 진관리 756-2번지","indutype":"레져용품 - 스포츠·레져용품","category":"other"},{"name":"하남파렛트","tel":"031-793-5999","addr":"경기도 남양주시 진건읍 진관리 756-2번지","indutype":"건축자재 - 목재·석재·철물","category":"other"}]},{"lat":"37.637776528","long":"127.15136827","imageIndex":17,"items":[{"name":"나드","tel":"031-551-5111","addr":"경기도 남양주시 진건읍 진관리 903-13번지","indutype":"가구 - 일반가구","category":"other"}]},{"lat":"37.658578815","long":"127.1722507","imageIndex":17,"items":[{"name":"남양인테리어","tel":"031-575-7714","addr":"경기도 남양주시 진건읍 진관리 132-7번지","indutype":"건축자재 - 인테리어전문","category":"other"},{"name":"대명테이프","tel":"","addr":"경기도 남양주시 진건읍 진관리 132-7번지 4호","indutype":"신변잡화 - 기타잡화","category":"other"}]},{"lat":"37.654442407","long":"127.17292123","imageIndex":17,"items":[{"name":"남양주 진건점","tel":"031-528-4407","addr":"경기도 남양주시 진건읍 진관리 99-4번지","indutype":"의류 - 스포츠의류","category":"other"}]},{"lat":"37.65466357","long":"127.15617274","imageIndex":17,"items":[{"name":"다가","tel":"031-527-3332","addr":"경기도 남양주시 진건읍 진관리 609-25번지","indutype":"문화.취미 - 수족관","category":"other"}]},{"lat":"37.65105489","long":"127.17283419","imageIndex":17,"items":[{"name":"다니(Dani)","tel":"070-8868-8387","addr":"경기도 남양주시 진건읍 진관리 74번지","indutype":"의류 - 정장","category":"other"}]},{"lat":"37.65638604","long":"127.16831335","imageIndex":17,"items":[{"name":"대동지공","tel":"031-573-3098","addr":"경기도 남양주시 진건읍 진관리 149-4번지","indutype":"유통업 영리 - 기타유통업","category":"other"}]},{"lat":"37.650913403","long":"127.15780812","imageIndex":17,"items":[{"name":"대상문구","tel":"031-573-2997","addr":"경기도 남양주시 진건읍 진관리 676-13","indutype":"서적문구 - 문구용품","category":"other"}]},{"lat":"37.649806211","long":"127.17650274","imageIndex":17,"items":[{"name":"대성물산","tel":"031-563-7882","addr":"경기도 남양주시 진건읍 진관리 6-4번지","indutype":"신변잡화 - 기타잡화","category":"other"}]},{"lat":"37.650807014","long":"127.16325841","imageIndex":17,"items":[{"name":"대성석재","tel":"031-568-8282","addr":"경기도 남양주시 진건읍 진관리 475-4","indutype":"건축자재 - 목재·석재·철물","category":"other"}]},{"lat":"37.651387048","long":"127.15384301","imageIndex":17,"items":[{"name":"대성에프엔쉬","tel":"031-529-9111","addr":"경기도 남양주시 진건읍 진관리 662-2","indutype":"기타 - 기계공구","category":"other"}]},{"lat":"37.649417977","long":"127.15766904","imageIndex":17,"items":[{"name":"대한기계","tel":"031-574-4315","addr":"경기도 남양주시 진건읍 진관리 694-3번지","indutype":"기타 - 기계공구","category":"other"}]},{"lat":"37.6516972","long":"127.15784374","imageIndex":17,"items":[{"name":"대한유통","tel":"031-529-3394","addr":"경기도 남양주시 진건읍 진관리 628-1번지","indutype":"주방용구 - 주방용식기","category":"other"}]},{"lat":"37.641140552","long":"127.15575973","imageIndex":17,"items":[{"name":"덕송이불.수예","tel":"031-575-6489","addr":"경기도 남양주시 진건읍 진관리 835-13번지 302호","indutype":"직물 - 침구·수예점","category":"other"}]},{"lat":"37.658696963","long":"127.171537","imageIndex":17,"items":[{"name":"도앤도","tel":"031-574-9040","addr":"경기도 남양주시 진건읍 진관리 134-5번지 1호","indutype":"주방용구 - 주방용구","category":"other"}]},{"lat":"37.644275686","long":"127.15594744","imageIndex":17,"items":[{"name":"독트인터내셔널","tel":"","addr":"경기도 남양주시 진건읍 진관리 768-3번지 B-2","indutype":"주방용구 - 주방용구","category":"other"},{"name":"주식회사 지티에스정보통신","tel":"02-2282-0175","addr":"경기도 남양주시 진건읍 진관리 768-3번지 1층","indutype":"용역 서비스 - 기타용역서비스","category":"other"}]},{"lat":"37.644054747","long":"127.15259313","imageIndex":17,"items":[{"name":"동명냉동시스템","tel":"031-571-1342","addr":"경기도 남양주시 진건읍 진관리 926-23번지","indutype":"용역 서비스 - 기타용역서비스","category":"other"}]},{"lat":"37.635941051","long":"127.1564515","imageIndex":17,"items":[{"name":"동원금속","tel":"031-529-0587","addr":"경기도 남양주시 진건읍 진관리 987-1번지","indutype":"건축자재 - 기타건축자재","category":"other"}]},{"lat":"37.655608669","long":"127.17011347","imageIndex":17,"items":[{"name":"두레산업","tel":"031-527-2483","addr":"경기도 남양주시 진건읍 진관리 153-5번지","indutype":"유통업 영리 - 기타유통업","category":"other"}]},{"lat":"37.653137797","long":"127.17167174","imageIndex":17,"items":[{"name":"두원특장냉동","tel":"031-575-7071","addr":"경기도 남양주시 진건읍 진관리 87번지","indutype":"수리서비스 - 기타수리서비스","category":"other"}]},{"lat":"37.642030741","long":"127.15712119","imageIndex":17,"items":[{"name":"디피에스","tel":"031-529-0644","addr":"경기도 남양주시 진건읍 진관리 827-7번지 가동","indutype":"사무통신 - 컴퓨터","category":"other"}]},{"lat":"37.652806783","long":"127.15678085","imageIndex":17,"items":[{"name":"라온씽크","tel":"031-575-6508","addr":"경기도 남양주시 진건읍 진관리 679-2번지 1","indutype":"주방용구 - 주방용구","category":"other"}]},{"lat":"37.657169371","long":"127.16867773","imageIndex":17,"items":[{"name":"렌탈매니저","tel":"","addr":"경기도 남양주시 진건읍 진관리 148-6번지","indutype":"신변잡화 - 기타잡화","category":"other"}]},{"lat":"37.653718481","long":"127.15545688","imageIndex":17,"items":[{"name":"로그인진관점","tel":"","addr":"경기도 남양주시 진건읍 진관리 605-20번지 1층","indutype":"유통업 영리 - 편 의 점","category":"other"}]},{"lat":"37.651107301","long":"127.16106071","imageIndex":17,"items":[{"name":"로얄훈련학교","tel":"031-572-2166","addr":"경기도 남양주시 진건읍 진관리 483번지","indutype":"문화.취미 - 애완동물","category":"other"}]},{"lat":"37.654245384","long":"127.17209354","imageIndex":17,"items":[{"name":"로크카트린","tel":"070-7799-9655","addr":"경기도 남양주시 진건읍 진관리 97-14번지","indutype":"레져용품 - 스포츠·레져용품","category":"other"},{"name":"서현산업","tel":"031-575-7604","addr":"경기도 남양주시 진건읍 진관리 97-14번지","indutype":"의류 - 기타의류","category":"other"}]},{"lat":"37.652469695","long":"127.15267802","imageIndex":17,"items":[{"name":"매일상사","tel":"031-527-4381","addr":"경기도 남양주시 진건읍 진관리 604-12","indutype":"주방용구 - 주방용구","category":"other"}]},{"lat":"37.65683232","long":"127.15814906","imageIndex":17,"items":[{"name":"매직크린","tel":"031-559-7161","addr":"경기도 남양주시 진건읍 진관리 530-1","indutype":"주방용구 - 주방용구","category":"other"}]},{"lat":"37.640254273","long":"127.15830717","imageIndex":17,"items":[{"name":"명문전기","tel":"031-574-9916","addr":"경기도 남양주시 진건읍 진관리 807-2","indutype":"기타 - 기계공구","category":"other"}]},{"lat":"37.640303514","long":"127.16192155","imageIndex":17,"items":[{"name":"명진M&J","tel":"070-8031-4038","addr":"경기도 남양주시 진건읍 진관리 310번지","indutype":"의류 - 정장","category":"other"}]},{"lat":"37.654529219","long":"127.15556053","imageIndex":17,"items":[{"name":"모비딕무역","tel":"","addr":"경기도 남양주시 진건읍 진관리 609-18번지","indutype":"문화.취미 - 수족관","category":"other"},{"name":"베네코","tel":"031-572-8787","addr":"경기도 남양주시 진건읍 진관리 609-18번지 1동","indutype":"건축자재 - 인테리어전문","category":"other"}]},{"lat":"37.650472188","long":"127.16433419","imageIndex":17,"items":[{"name":"미니마트","tel":"031-572-0123","addr":"경기도 남양주시 진건읍 진관리 469-6번지","indutype":"유통업 영리 - 편 의 점","category":"other"}]},{"lat":"37.639252643","long":"127.15253818","imageIndex":17,"items":[{"name":"미래 지게차","tel":"031-527-1144","addr":"경기도 남양주시 진건읍 진관리 907-28번지","indutype":"기타 - 기계공구","category":"other"}]},{"lat":"37.63692095","long":"127.15109466","imageIndex":17,"items":[{"name":"미래공조","tel":"031-529-1505","addr":"경기도 남양주시 진건읍 진관리 883-11번지","indutype":"전기제품 - 가전제품","category":"other"}]},{"lat":"37.642054079","long":"127.15991982","imageIndex":17,"items":[{"name":"미래종탑","tel":"02-3421-1854","addr":"경기도 남양주시 진건읍 진관리 333번지","indutype":"기타 - 기타 전문점","category":"other"}]},{"lat":"37.639558201","long":"127.16006185","imageIndex":17,"items":[{"name":"미르자전거","tel":"070-4243-5075","addr":"경기도 남양주시 진건읍 진관리 318-4","indutype":"레져용품 - 스포츠·레져용품","category":"other"}]},{"lat":"37.639503735","long":"127.16036764","imageIndex":17,"items":[{"name":"믿음스포츠","tel":"070-8683-9059","addr":"경기도 남양주시 진건읍 진관리 318-3번지 1층","indutype":"레져용품 - 스포츠·레져용품","category":"other"}]},{"lat":"37.642554071","long":"127.15653309","imageIndex":17,"items":[{"name":"빛나금속","tel":"031-529-8801","addr":"경기도 남양주시 진건읍 진관리 756","indutype":"건축자재 - 기타건축자재","category":"other"}]},{"lat":"37.653445164","long":"127.15777938","imageIndex":17,"items":[{"name":"사이언스팀 주식회사(SCIENCEAM Co.Ltd.)","tel":"031-1644-4588","addr":"경기도 남양주시 진건읍 진관리 640-20번지","indutype":"용역 서비스 - 종합용역","category":"other"}]},{"lat":"37.640942183","long":"127.16919684","imageIndex":17,"items":[{"name":"산골농장","tel":"031-572-5982","addr":"경기도 남양주시 진건읍 진관리 290","indutype":"문화.취미 - 애완동물","category":"other"}]},{"lat":"37.638885768","long":"127.15756788","imageIndex":17,"items":[{"name":"상상수족관","tel":"031-572-3675","addr":"경기도 남양주시 진건읍 진관리 811번지 주2동","indutype":"문화.취미 - 수족관","category":"other"}]},{"lat":"37.65410967","long":"127.15251133","imageIndex":17,"items":[{"name":"성일산업","tel":"031-572-8706","addr":"경기도 남양주시 진건읍 진관리 966-40번지","indutype":"주방용구 - 주방용구","category":"other"}]},{"lat":"37.650446663","long":"127.17598297","imageIndex":17,"items":[{"name":"세븐일레븐사능역카페점","tel":"031-1577-0711","addr":"경기도 남양주시 진건읍 진관리 78-7번지","indutype":"유통업 영리 - 편 의 점","category":"other"}]},{"lat":"37.646526036","long":"127.1575384","imageIndex":17,"items":[{"name":"소소리","tel":"031-527-5477","addr":"경기도 남양주시 진건읍 진관리 714-5번지 1층 전체","indutype":"건축자재 - 기타건축자재","category":"other"}]},{"lat":"37.638996912","long":"127.16206605","imageIndex":17,"items":[{"name":"수천산업","tel":"031-529-4747","addr":"경기도 남양주시 진건읍 진관리 303-6,7","indutype":"용역 서비스 - 보관및 창고업","category":"other"},{"name":"에버크린 주방기기","tel":"031-567-5088","addr":"경기도 남양주시 진건읍 진관리 303-6번지","indutype":"주방용구 - 주방용구","category":"other"}]},{"lat":"37.639475732","long":"127.15422678","imageIndex":17,"items":[{"name":"스마트케어","tel":"031-000-0000","addr":"경기도 남양주시 진건읍 진관리 841-4번지 101호","indutype":"레져용품 - 스포츠·레져용품","category":"other"}]},{"lat":"37.650495556","long":"127.17334283","imageIndex":17,"items":[{"name":"스테빌","tel":"02-517-3500","addr":"경기도 남양주시 진건읍 진관리 51번지 가동 2층","indutype":"가구 - 기타가구","category":"other"}]},{"lat":"37.658669202","long":"127.16564387","imageIndex":17,"items":[{"name":"스트롱짐","tel":"031-562-1332","addr":"경기도 남양주시 진건읍 진관리 167-1번지","indutype":"레져용품 - 스포츠·레져용품","category":"other"}]},{"lat":"37.654857927","long":"127.17217425","imageIndex":17,"items":[{"name":"시몬스침대.원겔러리","tel":"031-572-7060","addr":"경기도 남양주시 진건읍 진관리 101-18번지 1동 1호","indutype":"가구 - 일반가구","category":"other"}]},{"lat":"37.659300458","long":"127.15853952","imageIndex":17,"items":[{"name":"신내조경","tel":"031-528-7247","addr":"경기도 남양주시 진건읍 진관리 514-1","indutype":"건축자재 - 인테리어전문","category":"other"}]},{"lat":"37.658221485","long":"127.15687135","imageIndex":17,"items":[{"name":"신도시상사","tel":"031-571-3341","addr":"경기도 남양주시 진건읍 진관리 517번지","indutype":"건축자재 - 기타건축자재","category":"other"}]},{"lat":"37.657220577","long":"127.17069505","imageIndex":17,"items":[{"name":"씨앤바스","tel":"031-527-6664","addr":"경기도 남양주시 진건읍 진관리 94번지","indutype":"건축자재 - 기타건축자재","category":"other"}]},{"lat":"37.638191844","long":"127.1577024","imageIndex":17,"items":[{"name":"아이교육","tel":"02-471-6963","addr":"경기도 남양주시 진건읍 진관리 855-1번지","indutype":"서적문구 - 일반서적","category":"other"},{"name":"이룸교육","tel":"031-574-0118","addr":"경기도 남양주시 진건읍 진관리 855-1번지","indutype":"서적문구 - 일반서적","category":"other"}]},{"lat":"37.644717966","long":"127.16214624","imageIndex":17,"items":[{"name":"아이닷옴","tel":"031-554-1933","addr":"경기도 남양주시 진건읍 진관리 411-1번지","indutype":"서적문구 - 기타서적문구","category":"other"}]},{"lat":"37.646333042","long":"127.15350418","imageIndex":17,"items":[{"name":"아제리스하우스(AGERESS house)","tel":"02-495-7234","addr":"경기도 남양주시 진건읍 진관리 942-1번지","indutype":"직물 - 침구·수예점","category":"other"}]},{"lat":"37.658218719","long":"127.16564289","imageIndex":17,"items":[{"name":"아쿠아가든 팩토리","tel":"","addr":"경기도 남양주시 진건읍 진관리 168-1번지","indutype":"건축자재 - 목재·석재·철물","category":"other"}]},{"lat":"37.65013534","long":"127.15334189","imageIndex":17,"items":[{"name":"아티스킨","tel":"070-7781-3382","addr":"경기도 남양주시 진건읍 진관리 949-5번지","indutype":"신변잡화 - 기타잡화","category":"other"}]},{"lat":"37.650807242","long":"127.15631213","imageIndex":17,"items":[{"name":"애니독스쿨","tel":"031-572-2166","addr":"경기도 남양주시 진건읍 진관리 653-3번지","indutype":"문화.취미 - 애완동물","category":"other"}]},{"lat":"37.657109786","long":"127.17256467","imageIndex":17,"items":[{"name":"야생화박물관송원","tel":"031-527-8932","addr":"경기도 남양주시 진건읍 진관리 112-6 외","indutype":"문화.취미 - 화원","category":"other"}]},{"lat":"37.65297301","long":"127.15364224","imageIndex":17,"items":[{"name":"에코지트랙(주)","tel":"070-4187-5350","addr":"경기도 남양주시 진건읍 진관리 963-6","indutype":"서적문구 - 문구용품","category":"other"}]},{"lat":"37.650497045","long":"127.1592577","imageIndex":17,"items":[{"name":"엘림종합상사","tel":"031-575-4230","addr":"경기도 남양주시 진건읍 진관리 479-53번지 (53,54,58)","indutype":"건축자재 - 기타건축자재","category":"other"}]},{"lat":"37.655302999","long":"127.16964816","imageIndex":17,"items":[{"name":"엠엠그린푸드","tel":"031-528-5888","addr":"경기도 남양주시 진건읍 진관리 154-8번지","indutype":"주방용구 - 주방용구","category":"other"}]},{"lat":"37.641055401","long":"127.16553746","imageIndex":17,"items":[{"name":"연희플라워","tel":"031-572-9192","addr":"경기도 남양주시 진건읍 진관리 286-16번지","indutype":"문화.취미 - 화원","category":"other"}]},{"lat":"37.658606535","long":"127.15867406","imageIndex":17,"items":[{"name":"예원유통","tel":"031-572-5982","addr":"경기도 남양주시 진건읍 진관리 526번지 1층","indutype":"기타 - 기계공구","category":"other"}]},{"lat":"37.644139843","long":"127.1632554","imageIndex":17,"items":[{"name":"오빠(OPA)짱","tel":"","addr":"경기도 남양주시 진건읍 진관리 418-1번지 지층","indutype":"의류 - 정장","category":"other"}]},{"lat":"37.654389544","long":"127.1520586","imageIndex":17,"items":[{"name":"왕왕상사","tel":"031-528-5335","addr":"경기도 남양주시 진건읍 진관리 967-23","indutype":"농업 - 비료,사료,종자","category":"other"}]},{"lat":"37.639392219","long":"127.16289397","imageIndex":17,"items":[{"name":"용만이","tel":"070-8945-3313","addr":"경기도 남양주시 진건읍 진관리 303-3번지","indutype":"유통업 영리 - 기타유통업","category":"other"}]},{"lat":"37.650279569","long":"127.17317237","imageIndex":17,"items":[{"name":"우일레이저","tel":"031-569-8671","addr":"경기도 남양주시 진건읍 진관리 53-4","indutype":"용역 서비스 - 기타용역서비스","category":"other"}]},{"lat":"37.650467568","long":"127.15422642","imageIndex":17,"items":[{"name":"웰크린인테리어","tel":"031-571-0296","addr":"경기도 남양주시 진건읍 진관리 665-2","indutype":"건축자재 - 인테리어전문","category":"other"}]},{"lat":"37.646698328","long":"127.16345353","imageIndex":17,"items":[{"name":"유신골재건재","tel":"031-527-7648","addr":"경기도 남양주시 진건읍 진관리 453-1번지 446-2, 446-4, 444-2번지","indutype":"건축자재 - 기타건축자재","category":"other"},{"name":"유신골재건재 (주)","tel":"031-527-7648","addr":"경기도 남양주시 진건읍 진관리 453-1번지","indutype":"건축자재 - 기타건축자재","category":"other"}]},{"lat":"37.641946805","long":"127.15928509","imageIndex":17,"items":[{"name":"은성ENG","tel":"031-574-2334","addr":"경기도 남양주시 진건읍 진관리 799","indutype":"건축자재 - 기타건축자재","category":"other"}]},{"lat":"37.65419118","long":"127.1721954","imageIndex":17,"items":[{"name":"이라이팅","tel":"031-575-3540","addr":"경기도 남양주시 진건읍 진관리 97-15번지","indutype":"건축자재 - 조명기구","category":"other"}]},{"lat":"37.643085094","long":"127.16370635","imageIndex":17,"items":[{"name":"이례다육","tel":"02-908-9784","addr":"경기도 남양주시 진건읍 진관리 378-4번지","indutype":"문화.취미 - 화원","category":"other"}]},{"lat":"37.654416358","long":"127.15222864","imageIndex":17,"items":[{"name":"이알산업(E.R산업)","tel":"031-571-8512","addr":"경기도 남양주시 진건읍 진관리 967-1번지 (1층창고)","indutype":"건축자재 - 기타건축자재","category":"other"}]},{"lat":"37.647051062","long":"127.1556472","imageIndex":17,"items":[{"name":"이지텍스","tel":"031-524-9977","addr":"경기도 남양주시 진건읍 진관리 726-3번지 주 1동","indutype":"직물 - 카페트,커튼,천막,지물","category":"other"}]},{"lat":"37.647639661","long":"127.15333685","imageIndex":17,"items":[{"name":"전국자전거협동조합","tel":"070-7729-1314","addr":"경기도 남양주시 진건읍 진관리 947-13번지","indutype":"레져용품 - 스포츠·레져용품","category":"other"},{"name":"전국자전거협동조합","tel":"070-7729-1314","addr":"경기도 남양주시 진건읍 진관리 947-13번지","indutype":"레져용품 - 스포츠·레져용품","category":"other"},{"name":"전국자전거협동조합","tel":"070-7729-1314","addr":"경기도 남양주시 진건읍 진관리 947-13번지","indutype":"레져용품 - 스포츠·레져용품","category":"other"}]},{"lat":"37.657580252","long":"127.17119449","imageIndex":17,"items":[{"name":"정진기획","tel":"031-572-5894","addr":"경기도 남양주시 진건읍 진관리 144-7번지","indutype":"의류 - 정장","category":"other"}]},{"lat":"37.656857212","long":"127.1663992","imageIndex":17,"items":[{"name":"제일프라자","tel":"031-575-5536","addr":"경기도 남양주시 진건읍 진관리 174-1번지","indutype":"광학제품 - 카메라","category":"other"}]},{"lat":"37.651720279","long":"127.17375358","imageIndex":17,"items":[{"name":"주식회사 구성","tel":"031-527-5494","addr":"경기도 남양주시 진건읍 진관리 76-6번지","indutype":"건축자재 - 기타건축자재","category":"other"}]},{"lat":"37.640999901","long":"127.15995159","imageIndex":17,"items":[{"name":"주식회사 믿음","tel":"070-7767-2151","addr":"경기도 남양주시 진건읍 진관리 328-2번지","indutype":"건축자재 - 기타건축자재","category":"other"}]},{"lat":"37.641114752","long":"127.15480794","imageIndex":17,"items":[{"name":"주식회사 벨워모","tel":"031-575-6200","addr":"경기도 남양주시 진건읍 진관리 835-1,835-7","indutype":"의류 - 정장","category":"other"}]},{"lat":"37.656526245","long":"127.15795577","imageIndex":17,"items":[{"name":"주식회사 코호즈","tel":"070-4680-7328","addr":"경기도 남양주시 진건읍 진관리 581-7번지","indutype":"레져용품 - 스포츠·레져용품","category":"other"}]},{"lat":"37.655744729","long":"127.15617496","imageIndex":17,"items":[{"name":"주식회사 포이보스","tel":"070-8248-4344","addr":"경기도 남양주시 진건읍 진관리 579번지","indutype":"주방용구 - 주방용구","category":"other"}]},{"lat":"37.650641269","long":"127.16586432","imageIndex":17,"items":[{"name":"중고개미주방","tel":"031-528-8487","addr":"경기도 남양주시 진건읍 진관리 230-1번지","indutype":"주방용구 - 주방용구","category":"other"}]},{"lat":"37.639415277","long":"127.15217595","imageIndex":17,"items":[{"name":"지7편의점 (G7)","tel":"031-575-7810","addr":"경기도 남양주시 진건읍 진관리 912-1번지 1층","indutype":"유통업 영리 - 편 의 점","category":"other"}]},{"lat":"37.651305112","long":"127.17425122","imageIndex":17,"items":[{"name":"진현레이져","tel":"031-557-1155","addr":"경기도 남양주시 진건읍 진관리 75번지","indutype":"건축자재 - 기타건축자재","category":"other"}]},{"lat":"37.642194008","long":"127.15628308","imageIndex":17,"items":[{"name":"청계냉동","tel":"031-573-2554","addr":"경기도 남양주시 진건읍 진관리 754번지","indutype":"전기제품 - 냉열기기","category":"other"}]},{"lat":"37.635946647","long":"127.1520897","imageIndex":17,"items":[{"name":"청량합판","tel":"031-571-2815","addr":"경기도 남양주시 진건읍 진관리 886-1번지","indutype":"건축자재 - 목재·석재·철물","category":"other"}]},{"lat":"37.636308262","long":"127.1511161","imageIndex":17,"items":[{"name":"케이디엠(KDM)","tel":"031-577-9330","addr":"경기도 남양주시 진건읍 진관리 881-20번지 나동","indutype":"유통업 영리 - 기타유통업","category":"other"}]},{"lat":"37.648610449","long":"127.1684774","imageIndex":17,"items":[{"name":"케이에스 (KS)","tel":"031-514-2369","addr":"경기도 남양주시 진건읍 진관리 252-2번지","indutype":"서적문구 - 문구용품","category":"other"}]},{"lat":"37.649447408","long":"127.16914782","imageIndex":17,"items":[{"name":"크로바상사","tel":"070-4140-9611","addr":"경기도 남양주시 진건읍 진관리 251-1","indutype":"레져용품 - 스포츠·레져용품","category":"other"},{"name":"키키보(KIKIBO)","tel":"","addr":"경기도 남양주시 진건읍 진관리 251-1번지 1층","indutype":"의류 - 정장","category":"other"}]},{"lat":"37.651497448","long":"127.1590105","imageIndex":17,"items":[{"name":"크리스탈유통","tel":"031-576-3113","addr":"경기도 남양주시 진건읍 진관리 688-1번지","indutype":"유통업 영리 - 기타유통업","category":"other"}]},{"lat":"37.64446902","long":"127.15272993","imageIndex":17,"items":[{"name":"태양비앤테크","tel":"031-527-2513","addr":"경기도 남양주시 진건읍 진관리 926-17번지","indutype":"용역 서비스 - 기타용역서비스","category":"other"}]},{"lat":"37.656053749","long":"127.15409043","imageIndex":17,"items":[{"name":"태영농자재","tel":"031-572-9180","addr":"경기도 남양주시 진건읍 진관리 966-8번지","indutype":"농업 - 기타농업관련","category":"other"}]},{"lat":"37.656438915","long":"127.15583642","imageIndex":17,"items":[{"name":"퇴계원농자재","tel":"031-571-9040","addr":"경기도 남양주시 진건읍 진관리 537번지 1층","indutype":"농업 - 기타농업관련","category":"other"}]},{"lat":"37.641581203","long":"127.15639512","imageIndex":17,"items":[{"name":"티 휘트니스","tel":"031-527-6056","addr":"경기도 남양주시 진건읍 진관리 828-1번지","indutype":"레져용품 - 스포츠·레져용품","category":"other"}]},{"lat":"37.654166964","long":"127.17022356","imageIndex":17,"items":[{"name":"패밀리 몰","tel":"031-529-9960","addr":"경기도 남양주시 진건읍 진관리 185-1번지 1동","indutype":"전기제품 - 가전제품","category":"other"}]},{"lat":"37.646031127","long":"127.15706147","imageIndex":17,"items":[{"name":"퍼스트레이디가구","tel":"031-542-4071","addr":"경기도 남양주시 진건읍 진관리 716번지","indutype":"가구 - 일반가구","category":"other"}]},{"lat":"37.653525131","long":"127.17172928","imageIndex":17,"items":[{"name":"펫엔씨","tel":"031-574-2232","addr":"경기도 남양주시 진건읍 진관리 86번지","indutype":"문화.취미 - 애완동물","category":"other"}]},{"lat":"37.649749948","long":"127.15872355","imageIndex":17,"items":[{"name":"퓨리나 강북대리점","tel":"031-529-0150","addr":"경기도 남양주시 진건읍 진관리 479-14번지 B동","indutype":"문화.취미 - 애완동물","category":"other"},{"name":"퓨리나동북대리점","tel":"031-529-0150","addr":"경기도 남양주시 진건읍 진관리 479-14번지","indutype":"농업 - 비료,사료,종자","category":"other"}]},{"lat":"37.654272624","long":"127.17194628","imageIndex":17,"items":[{"name":"피엘컴퍼니","tel":"031-575-3337","addr":"경기도 남양주시 진건읍 진관리 97-13번지 5동 1호","indutype":"기타 - 기타 전문점","category":"other"}]},{"lat":"37.637641881","long":"127.15798449","imageIndex":17,"items":[{"name":"하늘고기","tel":"031-572-2860","addr":"경기도 남양주시 진건읍 진관리 984-3","indutype":"문화.취미 - 수족관","category":"other"}]},{"lat":"37.649801861","long":"127.17330725","imageIndex":17,"items":[{"name":"한국철강","tel":"031-528-9779","addr":"경기도 남양주시 진건읍 진관리 50-3번지","indutype":"전기제품 - 가전제품","category":"other"}]},{"lat":"37.658551346","long":"127.17255662","imageIndex":17,"items":[{"name":"한영상사","tel":"031-527-3292","addr":"경기도 남양주시 진건읍 진관리 133-1번지 지용빌라 13동 101호","indutype":"유통업 영리 - 기타유통업","category":"other"}]},{"lat":"37.638584513","long":"127.15364716","imageIndex":17,"items":[{"name":"합도일렉트로닉시스템","tel":"02-2265-5015","addr":"경기도 남양주시 진건읍 진관리 981번지","indutype":"기타 - 기계공구","category":"other"}]},{"lat":"37.658634006","long":"127.16503182","imageIndex":17,"items":[{"name":"헬스만나","tel":"031-000-0000","addr":"경기도 남양주시 진건읍 진관리 167-3번지","indutype":"레져용품 - 스포츠·레져용품","category":"other"}]},{"lat":"37.649168008","long":"127.16269965","imageIndex":17,"items":[{"name":"형제애경","tel":"031-528-5559","addr":"경기도 남양주시 진건읍 진관리 435-5번지","indutype":"기타 - 기타 전문점","category":"other"}]},{"lat":"37.654640587","long":"127.17294435","imageIndex":17,"items":[{"name":"형지 아울렛 진건점","tel":"031-573-0735","addr":"경기도 남양주시 진건읍 진관리 99-7번지","indutype":"의류 - 스포츠의류","category":"other"}]},{"lat":"37.649083705","long":"127.16505639","imageIndex":17,"items":[{"name":"호운","tel":"031-529-1161","addr":"경기도 남양주시 진건읍 진관리 242번지","indutype":"유통업 영리 - 기타유통업","category":"other"}]},{"lat":"37.654030707","long":"127.17100517","imageIndex":17,"items":[{"name":"홈닥터","tel":"","addr":"경기도 남양주시 진건읍 진관리 93-9번지","indutype":"건축자재 - 인테리어전문","category":"other"}]},{"lat":"37.649638387","long":"127.15445137","imageIndex":7,"items":[{"name":"(주)펭귄에프앤씨유통","tel":"031-573-3223","addr":"경기도 남양주시 진건읍 진관리 667번지","indutype":"음료식품 - 기타음료식품","category":"food"}]},{"lat":"37.639418186","long":"127.16367579","imageIndex":7,"items":[{"name":"I.B유통","tel":"031-511-5091","addr":"경기도 남양주시 진건읍 진관리 298-3","indutype":"음료식품 - 농·축·수산품","category":"food"}]},{"lat":"37.641080626","long":"127.16684048","imageIndex":7,"items":[{"name":"까치농원","tel":"02-423-1985","addr":"경기도 남양주시 진건읍 진관리 286-2번지","indutype":"음료식품 - 농·축·수산품","category":"food"},{"name":"동일종합유통","tel":"031-885-8888","addr":"경기도 남양주시 진건읍 진관리 286-2번지","indutype":"음료식품 - 농·축·수산품","category":"food"},{"name":"예소민","tel":"070-4231-8969","addr":"경기도 남양주시 진건읍 진관리 286-2번지","indutype":"음료식품 - 농·축·수산품","category":"food"},{"name":"하나유통","tel":"031-527-6611","addr":"경기도 남양주시 진건읍 진관리 286-2번지","indutype":"음료식품 - 기타음료식품","category":"food"}]},{"lat":"37.644054531","long":"127.15276309","imageIndex":7,"items":[{"name":"농어촌한우슈퍼","tel":"031-571-1342","addr":"경기도 남양주시 진건읍 진관리 926-34번지","indutype":"음료식품 - 기타음료식품","category":"food"}]},{"lat":"37.643725244","long":"127.16336782","imageIndex":7,"items":[{"name":"농업회사법인 에이치씨에프 주식회사","tel":"031-572-6090","addr":"경기도 남양주시 진건읍 진관리 379-6번지 가동 3층","indutype":"음료식품 - 농·축·수산품","category":"food"}]},{"lat":"37.649890294","long":"127.15473516","imageIndex":7,"items":[{"name":"누렁소정육점","tel":"031-572-6226","addr":"경기도 남양주시 진건읍 진관리 669-4번지","indutype":"음료식품 - 정육점","category":"food"}]},{"lat":"37.653219774","long":"127.15789223","imageIndex":7,"items":[{"name":"다누리유통","tel":"031-601-6542","addr":"경기도 남양주시 진건읍 진관리 639-6번지","indutype":"음료식품 - 농·축·수산품","category":"food"},{"name":"주식회사해림에프앤씨","tel":"031-528-6076","addr":"경기도 남양주시 진건읍 진관리 639-6번지","indutype":"음료식품 - 농·축·수산품","category":"food"}]},{"lat":"37.638996912","long":"127.16206605","imageIndex":7,"items":[{"name":"란 푸드","tel":"","addr":"경기도 남양주시 진건읍 진관리 303-6번지","indutype":"음료식품 - 기타음료식품","category":"food"}]},{"lat":"37.638637059","long":"127.16166874","imageIndex":7,"items":[{"name":"먹골농원","tel":"031-571-8875","addr":"경기도 남양주시 진건읍 진관리 314번지","indutype":"음료식품 - 농·축·수산품","category":"food"}]},{"lat":"37.641226653","long":"127.15183967","imageIndex":7,"items":[{"name":"명진물산","tel":"031-571-2405","addr":"경기도 남양주시 진건읍 진관리 914-16번지","indutype":"음료식품 - 농·축·수산품","category":"food"}]},{"lat":"37.648610449","long":"127.1684774","imageIndex":7,"items":[{"name":"복누리","tel":"031-527-8822","addr":"경기도 남양주시 진건읍 진관리 252-2번지","indutype":"음료식품 - 농·축·수산품","category":"food"}]},{"lat":"37.651973255","long":"127.15339092","imageIndex":7,"items":[{"name":"신나라유통","tel":"031-553-4384","addr":"경기도 남양주시 진건읍 진관리 960번지 1동전체","indutype":"음료식품 - 기타음료식품","category":"food"}]},{"lat":"37.639888279","long":"127.15570051","imageIndex":7,"items":[{"name":"신안유통","tel":"070-4222-4646","addr":"경기도 남양주시 진건읍 진관리 817-2번지","indutype":"음료식품 - 기타음료식품","category":"food"}]},{"lat":"37.637337729","long":"127.15631842","imageIndex":7,"items":[{"name":"엠에이에스인터내셔날 주식회사","tel":"070-4618-2967","addr":"경기도 남양주시 진건읍 진관리 985-1번지 2층","indutype":"음료식품 - 기타음료식품","category":"food"}]},{"lat":"37.653134255","long":"127.15436781","imageIndex":7,"items":[{"name":"옹심이농산","tel":"031-575-3276","addr":"경기도 남양주시 진건읍 진관리 605-17번지","indutype":"음료식품 - 농·축·수산품","category":"food"}]},{"lat":"37.639554885","long":"127.16253176","imageIndex":7,"items":[{"name":"유경","tel":"070-8639-1153","addr":"경기도 남양주시 진건읍 진관리 303-8번지","indutype":"회원제형태 - 건강식품","category":"food"}]},{"lat":"37.644726225","long":"127.16270146","imageIndex":7,"items":[{"name":"인성농원","tel":"031-571-1141","addr":"경기도 남양주시 진건읍 진관리 414-4번지","indutype":"음료식품 - 농·축·수산품","category":"food"}]},{"lat":"37.654083458","long":"127.15186534","imageIndex":7,"items":[{"name":"일우커피","tel":"031-572-8858","addr":"경기도 남양주시 진건읍 진관리 967-4번지","indutype":"음료식품 - 기타음료식품","category":"food"}]},{"lat":"37.641418767","long":"127.16336286","imageIndex":7,"items":[{"name":"정금푸드","tel":"031-573-5245","addr":"경기도 남양주시 진건읍 진관리 367-2","indutype":"음료식품 - 기타음료식품","category":"food"}]},{"lat":"37.644054747","long":"127.15259313","imageIndex":7,"items":[{"name":"제주메밀촌","tel":"031-558-0435","addr":"경기도 남양주시 진건읍 진관리 926-23번지","indutype":"음료식품 - 기타음료식품","category":"food"}]},{"lat":"37.657029711","long":"127.16544764","imageIndex":7,"items":[{"name":"주식회사 농업회사법인 한울","tel":"031-572-1697","addr":"경기도 남양주시 진건읍 진관리 170-5번지","indutype":"음료식품 - 농·축·수산품","category":"food"}]},{"lat":"37.657057582","long":"127.16483574","imageIndex":7,"items":[{"name":"주식회사 메인피디","tel":"031-0000-0000","addr":"경기도 남양주시 진건읍 진관리 170-6번지","indutype":"음료식품 - 기타음료식품","category":"food"}]},{"lat":"37.636308262","long":"127.1511161","imageIndex":7,"items":[{"name":"주식회사 비엔티","tel":"031-577-9330","addr":"경기도 남양주시 진건읍 진관리 881-20번지 나동","indutype":"음료식품 - 기타음료식품","category":"food"}]},{"lat":"37.638276395","long":"127.15504009","imageIndex":7,"items":[{"name":"주식회사 새길에프씨","tel":"031-528-4792","addr":"경기도 남양주시 진건읍 진관리 981-3번지 303호","indutype":"음료식품 - 농·축·수산품","category":"food"}]},{"lat":"37.650472188","long":"127.16433419","imageIndex":7,"items":[{"name":"주식회사 오름","tel":"031-000-0000","addr":"경기도 남양주시 진건읍 진관리 469-6번지 외2필지","indutype":"음료식품 - 기타음료식품","category":"food"}]},{"lat":"37.654996825","long":"127.15625275","imageIndex":7,"items":[{"name":"주식회사 팜디엠에스","tel":"031-575-0541","addr":"경기도 남양주시 진건읍 진관리 609-20번지","indutype":"음료식품 - 기타음료식품","category":"food"}]},{"lat":"37.640722178","long":"127.15876134","imageIndex":7,"items":[{"name":"타미원에프앤비","tel":"031-575-3707","addr":"경기도 남양주시 진건읍 진관리 806-2번지 1층","indutype":"음료식품 - 기타음료식품","category":"food"}]},{"lat":"37.655302999","long":"127.16964816","imageIndex":7,"items":[{"name":"파인","tel":"","addr":"경기도 남양주시 진건읍 진관리 154-8번지","indutype":"음료식품 - 기타음료식품","category":"food"}]},{"lat":"37.655279527","long":"127.15361291","imageIndex":7,"items":[{"name":"하이","tel":"070-7755-0684","addr":"경기도 남양주시 진건읍 진관리 966-13번지 가동 1층","indutype":"음료식품 - 농·축·수산품","category":"food"}]},{"lat":"37.642357981","long":"127.16173331","imageIndex":7,"items":[{"name":"함밭","tel":"031-572-1013","addr":"경기도 남양주시 진건읍 진관리 390","indutype":"음료식품 - 기타음료식품","category":"food"}]},{"lat":"37.638860411","long":"127.15628756","imageIndex":7,"items":[{"name":"현성유통","tel":"02-1577-0000","addr":"경기도 남양주시 진건읍 진관리 816번지 가동","indutype":"음료식품 - 기타음료식품","category":"food"}]},{"lat":"37.651583117","long":"127.15550917","imageIndex":7,"items":[{"name":"휴먼에프앤비","tel":"031-771-1103","addr":"경기도 남양주시 진건읍 진관리 650-2번지","indutype":"음료식품 - 기타음료식품","category":"food"}]},{"lat":"37.65313408","long":"127.1545038","imageIndex":4,"items":[{"name":"감자옹심이","tel":"031-575-3276","addr":"경기도 남양주시 진건읍 진관리 605-16","indutype":"일반휴게음식 - 일반한식","category":"restaurant"}]},{"lat":"37.649890294","long":"127.15473516","imageIndex":4,"items":[{"name":"누렁소가든","tel":"031-528-1192","addr":"경기도 남양주시 진건읍 진관리 669-4번지","indutype":"일반휴게음식 - 일반한식","category":"restaurant"},{"name":"누렁소가든","tel":"031-572-6226","addr":"경기도 남양주시 진건읍 진관리 669-4번지","indutype":"일반휴게음식 - 일반한식","category":"restaurant"}]},{"lat":"37.650332857","long":"127.17370507","imageIndex":4,"items":[{"name":"먹골냉면","tel":"031-528-4495","addr":"경기도 남양주시 진건읍 진관리 47-23번지","indutype":"일반휴게음식 - 일반한식","category":"restaurant"}]},{"lat":"37.639415277","long":"127.15217595","imageIndex":4,"items":[{"name":"밥먹고가요","tel":"031-575-7810","addr":"경기도 남양주시 진건읍 진관리 912-1번지","indutype":"일반휴게음식 - 일반한식","category":"restaurant"}]},{"lat":"37.642222988","long":"127.16161972","imageIndex":4,"items":[{"name":"본진관철이네집","tel":"031-572-1013","addr":"경기도 남양주시 진건읍 진관리 390-4번지 1층","indutype":"일반휴게음식 - 일반한식","category":"restaurant"}]},{"lat":"37.650832019","long":"127.15803458","imageIndex":4,"items":[{"name":"삼문식당","tel":"031-573-6874","addr":"경기도 남양주시 진건읍 진관리 676-4번지 가","indutype":"일반휴게음식 - 일반한식","category":"restaurant"}]},{"lat":"37.655280223","long":"127.1729798","imageIndex":4,"items":[{"name":"아라한","tel":"031-573-5742","addr":"경기도 남양주시 진건읍 진관리 100-11번지","indutype":"일반휴게음식 - 일반한식","category":"restaurant"}]},{"lat":"37.651109584","long":"127.17239238","imageIndex":4,"items":[{"name":"약초에빠진촌닭","tel":"031-529-3453","addr":"경기도 남양주시 진건읍 진관리 66-7번지","indutype":"일반휴게음식 - 일반한식","category":"restaurant"}]},{"lat":"37.658803845","long":"127.17239853","imageIndex":4,"items":[{"name":"양주골화로구이","tel":"031-574-1918","addr":"경기도 남양주시 진건읍 진관리 132번지","indutype":"일반휴게음식 - 일반한식","category":"restaurant"}]},{"lat":"37.641055401","long":"127.16553746","imageIndex":4,"items":[{"name":"어당","tel":"031-529-5033","addr":"경기도 남양주시 진건읍 진관리 286-16","indutype":"일반휴게음식 - 일반한식","category":"restaurant"}]},{"lat":"37.642779751","long":"127.16298055","imageIndex":4,"items":[{"name":"언니네","tel":"031-575-9289","addr":"경기도 남양주시 진건읍 진관리 387-1번지 1층","indutype":"일반휴게음식 - 일반한식","category":"restaurant"},{"name":"언니네","tel":"031-575-9289","addr":"경기도 남양주시 진건읍 진관리 387-1번지 1층","indutype":"일반휴게음식 - 일반한식","category":"restaurant"}]},{"lat":"37.637337729","long":"127.15631842","imageIndex":4,"items":[{"name":"이룸한식뷔페","tel":"031-528-3088","addr":"경기도 남양주시 진건읍 진관리 985-1","indutype":"일반휴게음식 - 일반한식","category":"restaurant"}]},{"lat":"37.64277586","long":"127.15220533","imageIndex":4,"items":[{"name":"직영구이점","tel":"031-529-4346","addr":"경기도 남양주시 진건읍 진관리 931-3번지 2층","indutype":"일반휴게음식 - 일반한식","category":"restaurant"}]},{"lat":"37.653889635","long":"127.15547989","imageIndex":4,"items":[{"name":"진관부페","tel":"031-571-1193","addr":"경기도 남양주시 진건읍 진관리 605-6번지","indutype":"일반휴게음식 - 일반한식","category":"restaurant"}]},{"lat":"37.642642753","long":"127.1643399","imageIndex":4,"items":[{"name":"천수","tel":"031-572-2095","addr":"경기도 남양주시 진건읍 진관리 375-3번지","indutype":"일반휴게음식 - 일반한식","category":"restaurant"}]},{"lat":"37.639558872","long":"127.1526181","imageIndex":4,"items":[{"name":"팔도한상본점(빛솜푸드)","tel":"031-573-8761","addr":"경기도 남양주시 진건읍 진관리 907-5번지","indutype":"일반휴게음식 - 일반한식","category":"restaurant"}]},{"lat":"37.654028354","long":"127.17264832","imageIndex":4,"items":[{"name":"하우스","tel":"031-527-6665","addr":"경기도 남양주시 진건읍 진관리 97-4","indutype":"일반휴게음식 - 서양음식","category":"restaurant"}]},{"lat":"37.644973173","long":"127.15303688","imageIndex":4,"items":[{"name":"한우마을","tel":"031-571-6678","addr":"경기도 남양주시 진건읍 진관리 925-15","indutype":"일반휴게음식 - 일반한식","category":"restaurant"}]},{"lat":"37.64305583","long":"127.16533787","imageIndex":16,"items":[{"name":"남양주서머힐어린이집[아이행복]","tel":"","addr":"경기도 남양주시 진건읍 진관리 375-8번지 서머힐어린이집","indutype":"학원 - 유아원","category":"study"}]},{"lat":"37.658080503","long":"127.17417613","imageIndex":0,"items":[{"name":"대웅그린카","tel":"031-573-0966","addr":"경기도 남양주시 진건읍 진관리 125-2번지","indutype":"자동차정비 유지 - 자동차정비","category":"car"}]},{"lat":"37.654190447","long":"127.17270535","imageIndex":0,"items":[{"name":"대웅자동차정비센터","tel":"070-4104-8140","addr":"경기도 남양주시 진건읍 진관리 98번지","indutype":"자동차정비 유지 - 자동차정비","category":"car"}]},{"lat":"37.642832112","long":"127.16422701","imageIndex":0,"items":[{"name":"도농서비스","tel":"031-574-9885","addr":"경기도 남양주시 진건읍 진관리 374-1번지","indutype":"자동차정비 유지 - 자동차정비","category":"car"}]},{"lat":"37.658085985","long":"127.15714306","imageIndex":0,"items":[{"name":"두산지게차","tel":"","addr":"경기도 남양주시 진건읍 진관리 518번지 1층","indutype":"자동차판매 - 기타운송","category":"car"}]},{"lat":"37.648830587","long":"127.15900491","imageIndex":0,"items":[{"name":"디에스케이상사 (DSK)","tel":"031-529-2210","addr":"경기도 남양주시 진건읍 진관리 695-3번지 102호","indutype":"자동차정비 유지 - 자동차부품","category":"car"}]},{"lat":"37.65041827","long":"127.16423208","imageIndex":0,"items":[{"name":"레드라인","tel":"031-527-3721","addr":"경기도 남양주시 진건읍 진관리 469-1","indutype":"자동차정비 유지 - 자동차부품","category":"car"}]},{"lat":"37.657192514","long":"127.17142027","imageIndex":0,"items":[{"name":"몬스타브로","tel":"070-572-4242","addr":"경기도 남양주시 진건읍 진관리 116번지","indutype":"자동차정비 유지 - 자동차부품","category":"car"},{"name":"진관상사","tel":"031-571-8756","addr":"경기도 남양주시 진건읍 진관리 116번지","indutype":"자동차정비 유지 - 자동차시트·타이어","category":"car"}]},{"lat":"37.637335708","long":"127.15084623","imageIndex":0,"items":[{"name":"부원상사","tel":"031-529-8799","addr":"경기도 남양주시 진건읍 진관리 883-31","indutype":"자동차정비 유지 - 자동차부품","category":"car"}]},{"lat":"37.655612417","long":"127.17378516","imageIndex":0,"items":[{"name":"삼목스프링","tel":"031-323-4412","addr":"경기도 남양주시 진건읍 진관리 107-1번지","indutype":"자동차정비 유지 - 자동차부품","category":"car"}]},{"lat":"37.654834061","long":"127.15670571","imageIndex":0,"items":[{"name":"상현상사","tel":"031-528-5186","addr":"경기도 남양주시 진건읍 진관리 613-1번지","indutype":"자동차정비 유지 - 윤활유 전문 판매","category":"car"},{"name":"세양윤활유","tel":"02-2245-5295","addr":"경기도 남양주시 진건읍 진관리 613-1번지","indutype":"자동차정비 유지 - 윤활유 전문 판매","category":"car"}]},{"lat":"37.650308942","long":"127.16511571","imageIndex":0,"items":[{"name":"성진카센타","tel":"031-571-4525","addr":"경기도 남양주시 진건읍 진관리 230-3","indutype":"자동차정비 유지 - 자동차정비","category":"car"}]},{"lat":"37.641420102","long":"127.15556769","imageIndex":0,"items":[{"name":"시원미디어","tel":"070-8415-5214","addr":"경기도 남양주시 진건읍 진관리 834-5번지","indutype":"자동차정비 유지 - 자동차부품","category":"car"}]},{"lat":"37.654334454","long":"127.17280766","imageIndex":0,"items":[{"name":"아레스","tel":"031-511-8560","addr":"경기도 남양주시 진건읍 진관리 99-6번지","indutype":"자동차정비 유지 - 카인테리어","category":"car"}]},{"lat":"37.653221183","long":"127.1568157","imageIndex":0,"items":[{"name":"연합윤활유","tel":"031-575-5104","addr":"경기도 남양주시 진건읍 진관리 640-13번지","indutype":"자동차정비 유지 - 윤활유 전문 판매","category":"car"}]},{"lat":"37.650495556","long":"127.17334283","imageIndex":0,"items":[{"name":"와우오토클럽(남양주오토스테이션)","tel":"031-574-4340","addr":"경기도 남양주시 진건읍 진관리 51번지 가동","indutype":"자동차정비 유지 - 카인테리어","category":"car"}]},{"lat":"37.64333515","long":"127.15864217","imageIndex":0,"items":[{"name":"왕성상사","tel":"031-571-4822","addr":"경기도 남양주시 진건읍 진관리 790-1번지","indutype":"자동차정비 유지 - 자동차부품","category":"car"}]},{"lat":"37.652164508","long":"127.15875126","imageIndex":0,"items":[{"name":"이온모터스","tel":"031-527-4596","addr":"경기도 남양주시 진건읍 진관리 637-1번지","indutype":"자동차판매 - 이륜차판매","category":"car"}]},{"lat":"37.656606795","long":"127.15836391","imageIndex":0,"items":[{"name":"제이케이브로테크","tel":"070-7420-1007","addr":"경기도 남양주시 진건읍 진관리 581번지 1동","indutype":"자동차정비 유지 - 카인테리어","category":"car"}]},{"lat":"37.650495195","long":"127.17359213","imageIndex":0,"items":[{"name":"제일자동차공업사","tel":"031-574-4856","addr":"경기도 남양주시 진건읍 진관리 47-1번지","indutype":"자동차정비 유지 - 자동차정비","category":"car"}]},{"lat":"37.637364301","long":"127.15666969","imageIndex":0,"items":[{"name":"주식회사 진관프라자","tel":"031-551-8533","addr":"경기도 남양주시 진건읍 진관리 985-2","indutype":"자동차정비 유지 - 주차장","category":"car"}]},{"lat":"37.656474438","long":"127.15623313","imageIndex":0,"items":[{"name":"진관상사","tel":"031-573-3229","addr":"경기도 남양주시 진건읍 진관리 580번지","indutype":"자동차정비 유지 - 자동차부품","category":"car"}]},{"lat":"37.649447408","long":"127.16914782","imageIndex":0,"items":[{"name":"카배터리 24시","tel":"031-1111-1111","addr":"경기도 남양주시 진건읍 진관리 251-1번지","indutype":"자동차정비 유지 - 자동차부품","category":"car"}]},{"lat":"37.638584513","long":"127.15364716","imageIndex":0,"items":[{"name":"큐브ELC","tel":"070-7014-0488","addr":"경기도 남양주시 진건읍 진관리 981번지 2동 1층","indutype":"자동차정비 유지 - 자동차부품","category":"car"}]},{"lat":"37.659030255","long":"127.17158308","imageIndex":0,"items":[{"name":"타이어MAN","tel":"032-579-5044","addr":"경기도 남양주시 진건읍 진관리 131-5번지 1층","indutype":"자동차정비 유지 - 자동차시트·타이어","category":"car"}]},{"lat":"37.651553521","long":"127.15748083","imageIndex":0,"items":[{"name":"황제상사","tel":"031-575-5903","addr":"경기도 남양주시 진건읍 진관리 628-8번지","indutype":"자동차정비 유지 - 자동차시트·타이어","category":"car"}]},{"lat":"37.644915091","long":"127.16295114","imageIndex":0,"items":[{"name":"힐링타이어","tel":"070-7286-1061","addr":"경기도 남양주시 진건읍 진관리 414-14번지","indutype":"자동차정비 유지 - 자동차시트·타이어","category":"car"}]},{"lat":"37.655003022","long":"127.16509192","imageIndex":13,"items":[{"name":"방방나라","tel":"031-000-0000","addr":"경기도 남양주시 진건읍 진관리 191번지 1동 일부","indutype":"레저업소 - 기타레져업소","category":"leisure"}]},{"lat":"37.643113232","long":"127.16289062","imageIndex":7,"items":[{"name":"진관2리공판장","tel":"","addr":"경기도 남양주시 진건읍 진관리 381-4번지","indutype":"유통업 영리 - 슈퍼마켓","category":"mart"}]}]