[{"lat":"37.30314754","long":"126.81138281","imageIndex":8,"items":[{"name":"(주)남강약품","tel":"031-362-6561","addr":"경기도 안산시 단원구 초지동 742-3번지 다인프라자 307,308호","indutype":"약국 - 제약회사","category":"medical"}]},{"lat":"37.303199935","long":"126.81035626","imageIndex":8,"items":[{"name":"(주)메디크로스","tel":"031-485-8595","addr":"경기도 안산시 단원구 초지동 742-1번지 키즈타운1차 406호","indutype":"약국 - 약국","category":"medical"}]},{"lat":"37.30015009","long":"126.81321757","imageIndex":8,"items":[{"name":"(주)응원","tel":"031-403-4355","addr":"경기도 안산시 단원구 초지동 745-2번지 동의성병원&제이씨팜빌딩 402호","indutype":"약국 - 제약회사","category":"medical"},{"name":"(주)제이씨팜","tel":"031-8040-5500","addr":"경기도 안산시 단원구 초지동 745-2번지 동의성병원&제이씨팜빌딩 302호","indutype":"약국 - 제약회사","category":"medical"},{"name":"(주)제이씨팜","tel":"031-8040-5500","addr":"경기도 안산시 단원구 초지동 745-2번지 제이씨팜빌딩 505호","indutype":"약국 - 제약회사","category":"medical"},{"name":"(주)제이씨헬스케어","tel":"031-8040-5500","addr":"경기도 안산시 단원구 초지동 745-2번지 제이씨팜빌딩 505호","indutype":"약국 - 제약회사","category":"medical"},{"name":"단원병원","tel":"031-8040-6600","addr":"경기도 안산시 단원구 초지동 745-2번지","indutype":"병원 - 종합병원","category":"medical"},{"name":"단원병원","tel":"031-8040-6600","addr":"경기도 안산시 단원구 초지동 745-2번지","indutype":"병원 - 종합병원","category":"medical"},{"name":"동의성 단원병원","tel":"031-8040-6600","addr":"경기도 안산시 단원구 초지동 745-2번지","indutype":"병원 - 병원","category":"medical"},{"name":"안산동우성약국","tel":"031-8040-5858","addr":"경기도 안산시 단원구 초지동 745-2번지 104호 (주)제이씨팜빌딩","indutype":"약국 - 약국","category":"medical"},{"name":"한솔약국","tel":"031-8040-5800","addr":"경기도 안산시 단원구 초지동 745-2번지 제이씨팜빌딩 110호","indutype":"약국 - 약국","category":"medical"},{"name":"행복한비뇨기과의원","tel":"031-8040-5851","addr":"경기도 안산시 단원구 초지동 745-2번지 동의성병원&제이씨팜빌딩 205호","indutype":"의원 - 의원","category":"medical"},{"name":"화이트치과의원","tel":"031-8040-5880","addr":"경기도 안산시 단원구 초지동 745-2번지 JC빌딩 205호","indutype":"의원 - 치과의원","category":"medical"}]},{"lat":"37.301259467","long":"126.79255173","imageIndex":8,"items":[{"name":"(주)테라젠이텍스","tel":"031-495-3399","addr":"경기도 안산시 단원구 초지동 649-1번지","indutype":"약국 - 제약회사","category":"medical"}]},{"lat":"37.301673299","long":"126.81351828","imageIndex":8,"items":[{"name":"24시 아프리카동물병원","tel":"031-486-7533","addr":"경기도 안산시 단원구 초지동 742-9번지","indutype":"기타의료기관 - 동물병원","category":"medical"},{"name":"맘편한산부인과","tel":"031-475-3582","addr":"경기도 안산시 단원구 초지동 742-9번지 메가쇼핑1차 405호","indutype":"의원 - 의원","category":"medical"},{"name":"웰빙명인치과의원","tel":"031-439-7528","addr":"경기도 안산시 단원구 초지동 742-9번지 메가쇼핑타운1 402호","indutype":"의원 - 치과의원","category":"medical"}]},{"lat":"37.30147909","long":"126.81604526","imageIndex":8,"items":[{"name":"e-좋은치과의원","tel":"031-475-2875","addr":"경기도 안산시 단원구 초지동 741번지 행복한마을주 상가동 301호","indutype":"의원 - 치과의원","category":"medical"}]},{"lat":"37.308119097","long":"126.81571299","imageIndex":8,"items":[{"name":"갑산한의원","tel":"031-726-4335","addr":"경기도 안산시 단원구 초지동 732번지 로얄프라자 2층","indutype":"의원 - 한의원","category":"medical"}]},{"lat":"37.3081190965","long":"126.8157129934","imageIndex":8,"items":[{"name":"갑산한의원","tel":"031-439-8275","addr":"경기도 안산시 단원구 초지동 732번지","indutype":"보건업 및 사회복지서비스업 - 한의원","category":"medical"}]},{"lat":"37.324782307","long":"126.80665698","imageIndex":8,"items":[{"name":"경희매일아침한의원","tel":"031-413-0930","addr":"경기도 안산시 단원구 초지동 608번지 202, 203호","indutype":"의원 - 한의원","category":"medical"}]},{"lat":"37.307838941","long":"126.81518353","imageIndex":8,"items":[{"name":"고잔우리들소아과의원","tel":"031-411-5005","addr":"경기도 안산시 단원구 초지동 735-1,2번지세종프라자3층305호","indutype":"의원 - 의원","category":"medical"},{"name":"도원한의원","tel":"031-483-5075","addr":"경기도 안산시 단원구 초지동 735-1번지 세종프라자 204호","indutype":"의원 - 한의원","category":"medical"},{"name":"세종정형외과의원","tel":"031-439-7500","addr":"경기도 안산시 단원구 초지동 735-1번지 세종메디칼프라자 307동 308호","indutype":"의원 - 의원","category":"medical"},{"name":"양은수내과의원","tel":"031-401-8517","addr":"경기도 안산시 단원구 초지동 735-1번지 세종프라자 302호","indutype":"의원 - 의원","category":"medical"},{"name":"정이비인후과의원","tel":"031-401-8085","addr":"경기도 안산시 단원구 초지동 735-1번지 세종프라자 303호","indutype":"의원 - 의원","category":"medical"},{"name":"초지라성약국","tel":"031-439-6724","addr":"경기도 안산시 단원구 초지동 735-1번지 세종프라자 109호~111호","indutype":"약국 - 약국","category":"medical"}]},{"lat":"37.302364637","long":"126.81199386","imageIndex":8,"items":[{"name":"고잔제일소아과이비인후과의원","tel":"031-401-5990","addr":"경기도 안산시 단원구 초지동 743-4번지 태영타운 202호","indutype":"의원 - 의원","category":"medical"},{"name":"다정한온누리약국","tel":"031-402-4232","addr":"경기도 안산시 단원구 초지동 743-4번지 태영타운 203호","indutype":"약국 - 약국","category":"medical"},{"name":"라라약국","tel":"031-480-1708","addr":"경기도 안산시 단원구 초지동 743-4번지 외1필지 태영타운 3층 311호","indutype":"약국 - 약국","category":"medical"},{"name":"새그린약국","tel":"031-485-2315","addr":"경기도 안산시 단원구 초지동 743-4번지 태영타운 309호 일부","indutype":"약국 - 약국","category":"medical"},{"name":"실버홈효도나라","tel":"031-401-1001","addr":"경기도 안산시 단원구 초지동 743-4번지 태영타운 502호","indutype":"병원 - 병원","category":"medical"},{"name":"아너스요양병원","tel":"031-403-0909","addr":"경기도 안산시 단원구 초지동 743-4번지 외1필지301-307호,312호","indutype":"병원 - 병원","category":"medical"},{"name":"안산우리병원","tel":"031-483-1119","addr":"경기도 안산시 단원구 초지동 743-4, 101~105.135.137.140~144.203.209~219.312호","indutype":"병원 - 병원","category":"medical"},{"name":"예플러스이비인후과의원","tel":"031-405-6780","addr":"경기도 안산시 단원구 초지동 743-4번지 태영타운 308호 ,309호일부,314호","indutype":"의원 - 의원","category":"medical"},{"name":"온새미로의료소비자생활협동조합초지한의원","tel":"031-405-1065","addr":"경기도 안산시 단원구 초지동 743-4번지 태영타운 412 ,413,414호","indutype":"의원 - 한의원","category":"medical"},{"name":"진솔약국","tel":"031-484-0607","addr":"경기도 안산시 단원구 초지동 743-1태영타운204호","indutype":"약국 - 약국","category":"medical"}]},{"lat":"37.306811602","long":"126.81507329","imageIndex":8,"items":[{"name":"김종진정형외과의원","tel":"031-401-7560","addr":"경기도 안산시 단원구 초지동 735-4 304,311,312,313호","indutype":"의원 - 의원","category":"medical"},{"name":"늘푸른한의원","tel":"031-413-1075","addr":"경기도 안산시 단원구 초지동 735-4번지 태영프라자 305호","indutype":"의원 - 한의원","category":"medical"},{"name":"우리가족치과","tel":"031-475-2080","addr":"경기도 안산시 단원구 초지동 735-4번지 태영프라자 307호","indutype":"의원 - 치과의원","category":"medical"},{"name":"조은맘산부인과","tel":"031-439-8888","addr":"경기도 안산시 단원구 초지동 735-4번지 태영프라자 501호","indutype":"의원 - 의원","category":"medical"}]},{"lat":"37.3068116019","long":"126.8150732861","imageIndex":8,"items":[{"name":"늘푸른한의원","tel":"031-413-1075","addr":"경기도 안산시 단원구 초지동 735-4번지","indutype":"보건업 및 사회복지서비스업 - 한의원","category":"medical"}]},{"lat":"37.3023646374","long":"126.8119938643","imageIndex":8,"items":[{"name":"다정한온누리약국","tel":"031-402-4232","addr":"경기도 안산시 단원구 초지동 743-4번지","indutype":"보건업 및 사회복지서비스업 - 약국","category":"medical"},{"name":"라라약국","tel":"031-480-1708","addr":"경기도 안산시 단원구 초지동 743-4번지","indutype":"도매 및 소매업 - 약국","category":"medical"}]},{"lat":"37.306479689","long":"126.81599905","imageIndex":8,"items":[{"name":"닥터K동물병원","tel":"031-401-0275","addr":"경기도 안산시 단원구 초지동 734-6번지 110,111호","indutype":"기타의료기관 - 동물병원","category":"medical"}]},{"lat":"37.3003109327","long":"126.8123825344","imageIndex":8,"items":[{"name":"단원상생약국","tel":"031-402-8259","addr":"경기도 안산시 단원구 초지동 744-5번지","indutype":"도매 및 소매업 - 약국","category":"medical"}]},{"lat":"37.300310933","long":"126.81238253","imageIndex":8,"items":[{"name":"단원상생약국","tel":"031-402-8259","addr":"경기도 안산시 단원구 초지동 744-5번지 뉴스파월드타워 114, 115호","indutype":"약국 - 약국","category":"medical"},{"name":"안산신우병원","tel":"031-484-6500","addr":"경기도 안산시 단원구 초지동 744-5번지 뉴스파월드타워 501호","indutype":"병원 - 병원","category":"medical"}]},{"lat":"37.307118002","long":"126.81510636","imageIndex":8,"items":[{"name":"대건약국","tel":"031-414-4151","addr":"경기도 안산시 단원구 초지동 735-3번지 한솔프라자 106호","indutype":"약국 - 약국","category":"medical"},{"name":"목인한의원","tel":"031-411-0882","addr":"경기도 안산시 단원구 초지동 735-3번지 한솔프라자 306호","indutype":"의원 - 한의원","category":"medical"},{"name":"이지강치과의원","tel":"031-405-7515","addr":"경기도 안산시 단원구 초지동 735-3번지 한솔프라자 302호","indutype":"의원 - 치과의원","category":"medical"}]},{"lat":"37.304344525","long":"126.81616225","imageIndex":8,"items":[{"name":"대영약국","tel":"031-405-7574","addr":"경기도 안산시 단원구 초지동 740-2번지 한남스포랜드 103호","indutype":"약국 - 약국","category":"medical"},{"name":"사랑샘의원","tel":"031-402-7533","addr":"경기도 안산시 단원구 초지동 740-2번지 한남스포랜드 203호","indutype":"의원 - 의원","category":"medical"},{"name":"사랑샘한의원","tel":"031-411-8275","addr":"경기도 안산시 단원구 초지동 740-2번지 한남스포랜드 204호","indutype":"의원 - 한의원","category":"medical"},{"name":"예원치과","tel":"031-439-2875","addr":"경기도 안산시 단원구 초지동 740-2번지","indutype":"의원 - 치과의원","category":"medical"}]},{"lat":"37.308697243","long":"126.81665909","imageIndex":8,"items":[{"name":"메디프라자약국","tel":"031-403-5104","addr":"경기도 안산시 단원구 초지동 729-2번지 메디프라자 1층 112호","indutype":"약국 - 약국","category":"medical"},{"name":"바른한의원","tel":"031-484-1275","addr":"경기도 안산시 단원구 초지동 729-2번지 메디프라자 203호","indutype":"의원 - 한의원","category":"medical"},{"name":"한국동물병원","tel":"031-411-5050","addr":"경기도 안산시 단원구 초지동 729-2번지 메디프라자 109호","indutype":"기타의료기관 - 동물병원","category":"medical"}]},{"lat":"37.3067598232","long":"126.8165172270","imageIndex":8,"items":[{"name":"명인한의원","tel":"031-480-0035","addr":"경기도 안산시 단원구 초지동 733-5번지","indutype":"보건업 및 사회복지서비스업 - 한의원","category":"medical"}]},{"lat":"37.306759823","long":"126.81651723","imageIndex":8,"items":[{"name":"명인한의원","tel":"031-480-0035","addr":"경기도 안산시 단원구 초지동 733-5번지 한남타운 2 , 3층","indutype":"의원 - 한의원","category":"medical"}]},{"lat":"37.308705738","long":"126.81633194","imageIndex":8,"items":[{"name":"미래치과의원","tel":"031-475-2804","addr":"경기도 안산시 단원구 초지동 729-1번지 신명프라자 204호","indutype":"병원 - 치과병원","category":"medical"}]},{"lat":"37.326003488","long":"126.80413777","imageIndex":8,"items":[{"name":"미소인치과의원","tel":"031-405-2275","addr":"경기도 안산시 단원구 초지동 796번지 두산위브상가 2층211,212,213,214호","indutype":"의원 - 치과의원","category":"medical"}]},{"lat":"37.3086972426","long":"126.8166590863","imageIndex":8,"items":[{"name":"바른한의원","tel":"031-484-1275","addr":"경기도 안산시 단원구 초지동 729-2번지","indutype":"보건업 및 사회복지서비스업 - 한의원","category":"medical"}]},{"lat":"37.301788785","long":"126.8124916","imageIndex":8,"items":[{"name":"별약국","tel":"031-414-3181","addr":"경기도 안산시 단원구 초지동 743-6번지 초지동,제일프라자, 1층 111호","indutype":"약국 - 약국","category":"medical"},{"name":"심일정신건강의학과의원","tel":"031-411-8110","addr":"경기도 안산시 단원구 초지동 743-6번지 제일프라자 3층 303호","indutype":"의원 - 의원","category":"medical"},{"name":"안산미앤미치과의원","tel":"031-401-5061","addr":"경기도 안산시 단원구 초지동 743-6번지 제일프라자 201호,202호","indutype":"의원 - 치과의원","category":"medical"},{"name":"참조은내과의원","tel":"031-439-7275","addr":"경기도 안산시 단원구 초지동 743-6번지 제일프라자 305호","indutype":"의원 - 의원","category":"medical"}]},{"lat":"37.3043445254","long":"126.8161622459","imageIndex":8,"items":[{"name":"사랑샘의원","tel":"031-402-7533","addr":"경기도 안산시 단원구 초지동 740-2번지","indutype":"보건업 및 사회복지서비스업 - 한의원","category":"medical"}]},{"lat":"37.326141564","long":"126.80588622","imageIndex":8,"items":[{"name":"사회복지법인안산제일복지재단부설안산제일","tel":"031-482-7002","addr":"경기도 안산시 단원구 초지동 604-3번지","indutype":"의원 - 의원","category":"medical"}]},{"lat":"37.308731878","long":"126.81576787","imageIndex":8,"items":[{"name":"서울김안과의원","tel":"031-483-7581","addr":"경기도 안산시 단원구 초지동 729번지 21세기타워 303호","indutype":"의원 - 의원","category":"medical"}]},{"lat":"37.309037438","long":"126.81527079","imageIndex":8,"items":[{"name":"서울원치과","tel":"031-485-7522","addr":"경기도 안산시 단원구 초지동 726-4 미강프라자 303호~304호","indutype":"의원 - 치과의원","category":"medical"}]},{"lat":"37.308758087","long":"126.81524893","imageIndex":8,"items":[{"name":"세계로온누리약국","tel":"031-439-3060","addr":"경기도 안산시 단원구 초지동 726-5번지 주공프라자 110호","indutype":"약국 - 약국","category":"medical"},{"name":"연세박내과","tel":"031-405-8844","addr":"경기도 안산시 단원구 초지동 726-5번지 주공프라자 3층 303호","indutype":"의원 - 의원","category":"medical"}]},{"lat":"37.306922007","long":"126.81651683","imageIndex":8,"items":[{"name":"수약국","tel":"031-403-0705","addr":"경기도 안산시 단원구 초지동 733-4번지 서안빌딩 지하1층 101호","indutype":"약국 - 약국","category":"medical"},{"name":"안산윤내과","tel":"031-487-8072","addr":"경기도 안산시 단원구 초지동 733-4번지 2층","indutype":"의원 - 의원","category":"medical"},{"name":"안산윤내과","tel":"031-487-8072","addr":"경기도 안산시 단원구 초지동 733-4번지 2층","indutype":"의원 - 의원","category":"medical"}]},{"lat":"37.3001500897","long":"126.8132175709","imageIndex":8,"items":[{"name":"안산동우성약국","tel":"031-8040-5858","addr":"경기도 안산시 단원구 초지동 745-2번지","indutype":"도매 및 소매업 - 약국","category":"medical"}]},{"lat":"37.3260034879","long":"126.8041377682","imageIndex":8,"items":[{"name":"안산시민약국","tel":"031-475-8822","addr":"경기도 안산시 단원구 초지동 796번지 두산위브아파트","indutype":"도매 및 소매업 - 약국","category":"medical"}]},{"lat":"37.301033178","long":"126.81327175","imageIndex":8,"items":[{"name":"안산효요양병원","tel":"031-414-7233","addr":"경기도 안산시 단원구 초지동 745번지 서해프라자 5층","indutype":"병원 - 병원","category":"medical"},{"name":"우리요양병원","tel":"031-413-5757","addr":"경기도 안산시 단원구 초지동 745번지 서해프라자 203,204,301,302,304,306호","indutype":"병원 - 병원","category":"medical"}]},{"lat":"37.303226102","long":"126.80982607","imageIndex":8,"items":[{"name":"의료법인효송의료재단서안산노인전문병원","tel":"031-485-3377","addr":"경기도 안산시 단원구 초지동 742번지","indutype":"병원 - 병원","category":"medical"}]},{"lat":"37.313670663","long":"126.81652273","imageIndex":8,"items":[{"name":"주식회사새롬메디칼","tel":"031-415-9657","addr":"경기도 안산시 단원구 초지동 715-4번지","indutype":"약국 - 제약회사","category":"medical"}]},{"lat":"37.303121311","long":"126.81187916","imageIndex":8,"items":[{"name":"청암약국","tel":"031-480-4876","addr":"경기도 안산시 단원구 초지동 이마트고잔점1층","indutype":"약국 - 약국","category":"medical"}]},{"lat":"37.308092957","long":"126.81627706","imageIndex":8,"items":[{"name":"큰사랑약국","tel":"031-410-3767","addr":"경기도 안산시 단원구 초지동 732-1번지 아트프라자 1층 115호","indutype":"약국 - 약국","category":"medical"}]},{"lat":"37.307732372","long":"126.81616515","imageIndex":8,"items":[{"name":"풍림메디의원","tel":"031-410-0110","addr":"경기도 안산시 단원구 초지동 734지하1층","indutype":"의원 - 의원","category":"medical"}]}]