[{"lat":"37.716240917","long":"126.97194208","imageIndex":17,"items":[{"name":"GS25송추삼거리점","tel":"","addr":"경기도 양주시 장흥면 교현리 125-26번지 1층","indutype":"유통업 영리 - 편 의 점","category":"other"}]},{"lat":"37.696966421","long":"126.96227822","imageIndex":17,"items":[{"name":"Petitshop(쁘띠샵)","tel":"031-826-4351","addr":"경기도 양주시 장흥면 교현리 288-1번지","indutype":"신변잡화 - 기타잡화","category":"other"}]},{"lat":"37.704212801","long":"126.97085846","imageIndex":17,"items":[{"name":"경제개발산업 (주)","tel":"031-855-9050","addr":"경기도 양주시 장흥면 교현리 237-1번지","indutype":"건축자재 - 기타건축자재","category":"other"}]},{"lat":"37.69749199","long":"126.97224468","imageIndex":17,"items":[{"name":"다솜갤러리","tel":"031-829-1178","addr":"경기도 양주시 장흥면 교현리 산 47-2","indutype":"문화.취미 - 화랑","category":"other"}]},{"lat":"37.716213674","long":"126.97113684","imageIndex":17,"items":[{"name":"다운문구유통","tel":"031-826-4229","addr":"경기도 양주시 장흥면 교현리 123-4번지 1층 일부","indutype":"서적문구 - 문구용품","category":"other"}]},{"lat":"37.700464412","long":"126.96946536","imageIndex":17,"items":[{"name":"리치보그","tel":"02-383-8848","addr":"경기도 양주시 장흥면 교현리 272번지","indutype":"주방용구 - 주방용식기","category":"other"}]},{"lat":"37.716294791","long":"126.97125022","imageIndex":17,"items":[{"name":"백운상사","tel":"031-826-7629","addr":"경기도 양주시 장흥면 교현리 123-1번지 1층","indutype":"건축자재 - 인테리어전문","category":"other"},{"name":"백운상사","tel":"031-826-7629","addr":"경기도 양주시 장흥면 교현리 123-1번지","indutype":"건축자재 - 목재·석재·철물","category":"other"},{"name":"서부철물","tel":"031-879-2340","addr":"경기도 양주시 장흥면 교현리 123-1번지 지하","indutype":"건축자재 - 목재·석재·철물","category":"other"}]},{"lat":"37.713186485","long":"126.97127422","imageIndex":17,"items":[{"name":"서진판넬","tel":"031-873-3900","addr":"경기도 양주시 장흥면 교현리 152-21","indutype":"건축자재 - 기타건축자재","category":"other"}]},{"lat":"37.714375752","long":"126.97127372","imageIndex":17,"items":[{"name":"송추원예","tel":"031-879-0308","addr":"경기도 양주시 장흥면 교현리 151-1번지","indutype":"문화.취미 - 화원","category":"other"}]},{"lat":"37.692516779","long":"126.96565937","imageIndex":17,"items":[{"name":"씨유양주교현리점","tel":"031-829-9965","addr":"경기도 양주시 장흥면 교현리 407-3번지","indutype":"유통업 영리 - 편 의 점","category":"other"}]},{"lat":"37.694543527","long":"126.96435445","imageIndex":17,"items":[{"name":"원애견훈련학교","tel":"031-826-8071","addr":"경기도 양주시 장흥면 교현리 418-15번지","indutype":"문화.취미 - 애완동물","category":"other"}]},{"lat":"37.71498807","long":"126.97004859","imageIndex":17,"items":[{"name":"지노스포츠","tel":"070-5088-4189","addr":"경기도 양주시 장흥면 교현리 142-2번지","indutype":"의류 - 스포츠의류","category":"other"}]},{"lat":"37.713708545","long":"126.96947075","imageIndex":17,"items":[{"name":"청솔조경건설","tel":"031-826-5399","addr":"경기도 양주시 장흥면 교현리 141번지","indutype":"건축자재 - 인테리어전문","category":"other"}]},{"lat":"37.697986639","long":"126.96902426","imageIndex":17,"items":[{"name":"형재분재조경","tel":"031-963-4594","addr":"경기도 양주시 장흥면 교현리 332-1,325-1","indutype":"문화.취미 - 화원","category":"other"}]}]