[{"lat":"37.3031999354","long":"126.8103562619","imageIndex":5,"items":[{"name":"35왕소금구이","tel":"031-405-6755","addr":"경기도 안산시 단원구 초지동 742-1번지","indutype":"숙박 및 음식점업 - 한식,호프","category":"hotel"},{"name":"청국장이랑갈비찜","tel":"031-402-9276","addr":"경기도 안산시 단원구 초지동 742-1번지","indutype":"숙박 및 음식점업 - 한식","category":"hotel"}]},{"lat":"37.3001500897","long":"126.8132175709","imageIndex":5,"items":[{"name":"3삼해장국수","tel":"031-8040-5867","addr":"경기도 안산시 단원구 초지동 745-2번지","indutype":"숙박 및 음식점업 - 일반음식","category":"hotel"},{"name":"현죽","tel":"031-8040-5566","addr":"경기도 안산시 단원구 초지동 745-2번지","indutype":"숙박 및 음식점업 - 한식","category":"hotel"},{"name":"홍익돈까스","tel":"031-405-6112","addr":"경기도 안산시 단원구 초지동 745-2번지","indutype":"숙박 및 음식점업 - 일반음식","category":"hotel"}]},{"lat":"37.3071180017","long":"126.8151063636","imageIndex":5,"items":[{"name":"59쌀피자","tel":"070-8860-5982","addr":"경기도 안산시 단원구 초지동 735-3번지","indutype":"숙박 및 음식점업 - 기타음식(피자)","category":"hotel"},{"name":"고향집시골밥상","tel":"031-411-0502","addr":"경기도 안산시 단원구 초지동 735-3번지","indutype":"숙박 및 음식점업 - 한식","category":"hotel"},{"name":"시골통돼지생삼겹살","tel":"031-439-3392","addr":"경기도 안산시 단원구 초지동 735-3번지","indutype":"숙박 및 음식점업 - 한식점업","category":"hotel"}]},{"lat":"37.3074798258","long":"126.8103791902","imageIndex":5,"items":[{"name":"BHC 초지점","tel":"031-402-5999","addr":"경기도 안산시 단원구 초지동 737번지","indutype":"숙박 및 음식점업 - 치킨","category":"hotel"},{"name":"반찬투정","tel":"031-481-9285","addr":"경기도 안산시 단원구 초지동 737번지","indutype":"숙박 및 음식점업 - 기타음식","category":"hotel"},{"name":"비에이치씨(BHC) 초지점","tel":"031-402-5999","addr":"경기도 안산시 단원구 초지동 737번지","indutype":"숙박 및 음식점업 - 치킨","category":"hotel"}]},{"lat":"37.3101751423","long":"126.8168020852","imageIndex":5,"items":[{"name":"BHC고잔점","tel":"031-413-4999","addr":"경기도 안산시 단원구 초지동 728번지","indutype":"숙박 및 음식점업 - 치킨","category":"hotel"},{"name":"커피플러스","tel":"","addr":"경기도 안산시 단원구 초지동 728번지","indutype":"숙박 및 음식점업 - 휴게음식","category":"hotel"}]},{"lat":"37.3086972426","long":"126.8166590863","imageIndex":5,"items":[{"name":"가마로강정","tel":"031-502-1356","addr":"경기도 안산시 단원구 초지동 729-2번지","indutype":"숙박 및 음식점업 - 일반음식점","category":"hotel"},{"name":"광한루 남원추어탕","tel":"031-483-0390","addr":"경기도 안산시 단원구 초지동 729-2번지","indutype":"숙박 및 음식점업 - 한식","category":"hotel"},{"name":"미소해물찰칼국수","tel":"031-406-7721","addr":"경기도 안산시 단원구 초지동 729-2번지","indutype":"숙박 및 음식점업 - 임대,간이음식","category":"hotel"},{"name":"미소해물찰칼국수","tel":"031-406-7721","addr":"경기도 안산시 단원구 초지동 729-2번지","indutype":"숙박 및 음식점업 - 일반음식","category":"hotel"},{"name":"쏘자핫도그앤커피","tel":"031-402-5553","addr":"경기도 안산시 단원구 초지동 729-2번지","indutype":"숙박 및 음식점업 - 음식","category":"hotel"},{"name":"영구스피자","tel":"031-484-0982","addr":"경기도 안산시 단원구 초지동 729-2번지","indutype":"숙박 및 음식점업 - 피자","category":"hotel"},{"name":"이삭토스트 초지점","tel":"031-401-2385","addr":"경기도 안산시 단원구 초지동 729-2번지","indutype":"숙박 및 음식점업 - 분식","category":"hotel"},{"name":"한성부대찌개","tel":"031-403-5010","addr":"경기도 안산시 단원구 초지동 729-2번지","indutype":"숙박 및 음식점업 - 한식","category":"hotel"}]},{"lat":"37.3090660558","long":"126.8162746524","imageIndex":5,"items":[{"name":"가반한정식","tel":"","addr":"경기도 안산시 단원구 초지동 727-6번지","indutype":"숙박 및 음식점업 - 일반음식","category":"hotel"}]},{"lat":"37.3142251808","long":"126.8196574511","imageIndex":5,"items":[{"name":"가야족발","tel":"031-410-4264","addr":"경기도 안산시 단원구 초지동 709-3번지","indutype":"숙박 및 음식점업 - 한식 음식점","category":"hotel"}]},{"lat":"37.3087057376","long":"126.8163319433","imageIndex":5,"items":[{"name":"감탄떡볶이 초지점","tel":"031-405-7766","addr":"경기도 안산시 단원구 초지동 729-1번지","indutype":"숙박 및 음식점업 - 분식","category":"hotel"},{"name":"본죽","tel":"031-403-8088","addr":"경기도 안산시 단원구 초지동 729-1번지","indutype":"숙박 및 음식점업 - 죽전문점","category":"hotel"},{"name":"크레마","tel":"031-410-7702","addr":"경기도 안산시 단원구 초지동 729-1번지","indutype":"숙박 및 음식점업 - 커피점","category":"hotel"},{"name":"피자마루","tel":"031-405-1082","addr":"경기도 안산시 단원구 초지동 729-1번지","indutype":"숙박 및 음식점업 - 피자","category":"hotel"}]},{"lat":"37.3010331785","long":"126.8132717480","imageIndex":5,"items":[{"name":"강남동태탕찜","tel":"031-502-9333","addr":"경기도 안산시 단원구 초지동 745번지","indutype":"숙박 및 음식점업 - 한식","category":"hotel"},{"name":"맘스부페","tel":"","addr":"경기도 안산시 단원구 초지동 745번지","indutype":"숙박 및 음식점업 - 한식","category":"hotel"},{"name":"카페마실","tel":"031-414-1102","addr":"경기도 안산시 단원구 초지동 745번지","indutype":"숙박 및 음식점업 - 일반음식점,생과","category":"hotel"},{"name":"포냐향","tel":"031-439-5021","addr":"경기도 안산시 단원구 초지동 745번지","indutype":"숙박 및 음식점업 - 일반음식점,생과","category":"hotel"}]},{"lat":"37.3260034879","long":"126.8041377682","imageIndex":5,"items":[{"name":"강남식당","tel":"","addr":"경기도 안산시 단원구 초지동 796번지 두산위브아파트","indutype":"숙박 및 음식점업 - 한식","category":"hotel"}]},{"lat":"37.3100023661","long":"126.8157985672","imageIndex":5,"items":[{"name":"강릉집","tel":"031-483-5089","addr":"경기도 안산시 단원구 초지동 727-12번지","indutype":"숙박 및 음식점업 - 한식","category":"hotel"},{"name":"마님쌈밥고기전문","tel":"070-8113-4434","addr":"경기도 안산시 단원구 초지동 727-12번지","indutype":"숙박 및 음식점업 - 한식","category":"hotel"}]},{"lat":"37.3072007175","long":"126.8161326241","imageIndex":5,"items":[{"name":"개성집","tel":"031-414-7101","addr":"경기도 안산시 단원구 초지동 734-4번지","indutype":"숙박 및 음식점업 - 식육","category":"hotel"}]},{"lat":"37.3248976003","long":"126.8055509921","imageIndex":5,"items":[{"name":"고기마을","tel":"031-401-7085","addr":"경기도 안산시 단원구 초지동 604-4번지","indutype":"숙박 및 음식점업 - 한식,식잡","category":"hotel"}]},{"lat":"37.3068116019","long":"126.8150732861","imageIndex":5,"items":[{"name":"고향잔치국수","tel":"031-401-0565","addr":"경기도 안산시 단원구 초지동 735-4번지","indutype":"숙박 및 음식점업 - 한식점업","category":"hotel"},{"name":"공릉동닭한마리","tel":"031-482-3997","addr":"경기도 안산시 단원구 초지동 735-4번지","indutype":"숙박 및 음식점업 - 한식","category":"hotel"},{"name":"수철이네 왕새우튀김 초지점","tel":"031-411-9447","addr":"경기도 안산시 단원구 초지동 735-4번지","indutype":"숙박 및 음식점업 - 기타음식","category":"hotel"},{"name":"싸리재손만두","tel":"031-410-3161","addr":"경기도 안산시 단원구 초지동 735-4번지","indutype":"숙박 및 음식점업 - 분식","category":"hotel"},{"name":"어전참치","tel":"031-413-3743","addr":"경기도 안산시 단원구 초지동 735-4번지","indutype":"숙박 및 음식점업 - 음식","category":"hotel"},{"name":"호치킨하우스","tel":"031-414-5727","addr":"경기도 안산시 단원구 초지동 735-4번지","indutype":"숙박 및 음식점업 - 기타음식","category":"hotel"},{"name":"홍천감자탕","tel":"031-410-8116","addr":"경기도 안산시 단원구 초지동 735-4번지","indutype":"숙박 및 음식점업 - 음식","category":"hotel"}]},{"lat":"37.3253743657","long":"126.8050871603","imageIndex":5,"items":[{"name":"광주식당","tel":"031-405-9666","addr":"경기도 안산시 단원구 초지동 604-4번지","indutype":"숙박 및 음식점업 - 한식","category":"hotel"},{"name":"성도식당","tel":"031-485-9056","addr":"경기도 안산시 단원구 초지동 604-4번지","indutype":"숙박 및 음식점업 - 한식","category":"hotel"},{"name":"시민식당","tel":"031-410-8550","addr":"경기도 안산시 단원구 초지동 604-4번지","indutype":"숙박 및 음식점업 - 한식점업","category":"hotel"},{"name":"전라도식당","tel":"","addr":"경기도 안산시 단원구 초지동 604-4번지","indutype":"숙박 및 음식점업 - 한식점업","category":"hotel"}]},{"lat":"37.3251127129","long":"126.8048734782","imageIndex":5,"items":[{"name":"광주홍탁","tel":"031-405-6288","addr":"경기도 안산시 단원구 초지동 604-4번지","indutype":"숙박 및 음식점업 - 음식점업","category":"hotel"}]},{"lat":"37.3080664414","long":"126.8166042421","imageIndex":5,"items":[{"name":"국수나무 초지점","tel":"031-481-9939","addr":"경기도 안산시 단원구 초지동 732-2번지","indutype":"숙박 및 음식점업 - 분식","category":"hotel"},{"name":"명량핫도그 초지점","tel":"031-405-9593","addr":"경기도 안산시 단원구 초지동 732-2번지","indutype":"숙박 및 음식점업 - 핫도그","category":"hotel"},{"name":"별망시래기","tel":"031-414-3352","addr":"경기도 안산시 단원구 초지동 732-2번지","indutype":"숙박 및 음식점업 - 한식","category":"hotel"},{"name":"전통한방다전","tel":"031-317-1991","addr":"경기도 안산시 단원구 초지동 732-2번지","indutype":"숙박 및 음식점업 - 기타음식","category":"hotel"},{"name":"커피노커스","tel":"031-4269-0825","addr":"경기도 안산시 단원구 초지동 732-2번지","indutype":"숙박 및 음식점업 - 한식,후렌차이즈","category":"hotel"},{"name":"커피노커스","tel":"031-414-7707","addr":"경기도 안산시 단원구 초지동 732-2번지","indutype":"숙박 및 음식점업 - 휴게음식","category":"hotel"},{"name":"커피에 반하다(안산초지점)","tel":"031-439-3474","addr":"경기도 안산시 단원구 초지동 732-2번지","indutype":"숙박 및 음식점업 - 커피숍","category":"hotel"}]},{"lat":"37.3016732991","long":"126.8135182796","imageIndex":5,"items":[{"name":"굽네치킨","tel":"031-484-9244","addr":"경기도 안산시 단원구 초지동 742-9번지","indutype":"숙박 및 음식점업 - 치킨","category":"hotel"},{"name":"달아몽커피","tel":"031-402-1517","addr":"경기도 안산시 단원구 초지동 742-9번지","indutype":"숙박 및 음식점업 - 커피","category":"hotel"},{"name":"청정한돈","tel":"031-413-9253","addr":"경기도 안산시 단원구 초지동 742-9번지","indutype":"숙박 및 음식점업 - 한식","category":"hotel"}]},{"lat":"37.3251592706","long":"126.8057759584","imageIndex":5,"items":[{"name":"권가네횟집","tel":"031-413-3715","addr":"경기도 안산시 단원구 초지동 604-4번지","indutype":"숙박 및 음식점업 - 한식점업","category":"hotel"}]},{"lat":"37.3064796894","long":"126.8159990503","imageIndex":5,"items":[{"name":"김명자낙지마당","tel":"031-483-5567","addr":"경기도 안산시 단원구 초지동 734-6번지","indutype":"숙박 및 음식점업 - 한식","category":"hotel"},{"name":"두드림치킨 초지점","tel":"031-411-2212","addr":"경기도 안산시 단원구 초지동 734-6번지","indutype":"숙박 및 음식점업 - 치킨","category":"hotel"},{"name":"이방갈비","tel":"031-402-3266","addr":"경기도 안산시 단원구 초지동 734-6번지","indutype":"숙박 및 음식점업 - 한식","category":"hotel"},{"name":"펀비어킹 초지점","tel":"031-410-0903","addr":"경기도 안산시 단원구 초지동 734-6번지","indutype":"숙박 및 음식점업 - 호프","category":"hotel"}]},{"lat":"37.3031737111","long":"126.8108526155","imageIndex":5,"items":[{"name":"김밥천국","tel":"031-483-0082","addr":"경기도 안산시 단원구 초지동 742-2번지","indutype":"숙박 및 음식점업 - 일반음식점","category":"hotel"},{"name":"브링웰피자","tel":"031-414-4199","addr":"경기도 안산시 단원구 초지동 742-2번지","indutype":"숙박 및 음식점업 - 피자,치킨","category":"hotel"},{"name":"한수정이바돔감자탕","tel":"","addr":"경기도 안산시 단원구 초지동 742-2번지","indutype":"숙박 및 음식점업 - 한식","category":"hotel"}]},{"lat":"37.3096772499","long":"126.8153256036","imageIndex":5,"items":[{"name":"김영희강남동태찜","tel":"031-480-3140","addr":"경기도 안산시 단원구 초지동 726-2번지","indutype":"숙박 및 음식점업 - 한식점업","category":"hotel"},{"name":"또와김밥","tel":"031-439-6046","addr":"경기도 안산시 단원구 초지동 726-2번지","indutype":"숙박 및 음식점업 - 분식","category":"hotel"},{"name":"요거프레소 초지신도시점","tel":"031-411-2396","addr":"경기도 안산시 단원구 초지동 726-2번지","indutype":"숙박 및 음식점업 - 휴게음식점","category":"hotel"},{"name":"일번지찌개백반","tel":"","addr":"경기도 안산시 단원구 초지동 726-2번지","indutype":"숙박 및 음식점업 - 한식점업","category":"hotel"}]},{"lat":"37.3255729094","long":"126.8052784440","imageIndex":5,"items":[{"name":"김포식당","tel":"031-482-9327","addr":"경기도 안산시 단원구 초지동 604-4번지","indutype":"숙박 및 음식점업 - 일반음식점","category":"hotel"},{"name":"동반자호프","tel":"","addr":"경기도 안산시 단원구 초지동 604-4번지","indutype":"숙박 및 음식점업 - 호프","category":"hotel"},{"name":"샘물식당","tel":"031-402-1815","addr":"경기도 안산시 단원구 초지동 604-4번지","indutype":"숙박 및 음식점업 - 분식","category":"hotel"},{"name":"안산집","tel":"031-410-0264","addr":"경기도 안산시 단원구 초지동 604-4번지","indutype":"숙박 및 음식점업 - 한식","category":"hotel"},{"name":"행운식당","tel":"031-405-0374","addr":"경기도 안산시 단원구 초지동 604-4번지","indutype":"숙박 및 음식점업 - 한식","category":"hotel"}]},{"lat":"37.3080929566","long":"126.8162770572","imageIndex":5,"items":[{"name":"꼬꼬앤비어","tel":"031-411-8885","addr":"경기도 안산시 단원구 초지동 732-1번지","indutype":"숙박 및 음식점업 - 호프","category":"hotel"},{"name":"더착한커피(안산점)","tel":"031-414-3672","addr":"경기도 안산시 단원구 초지동 732-1번지","indutype":"숙박 및 음식점업 - 커피숍,커피,서","category":"hotel"},{"name":"서울깍두기","tel":"031-483-3347","addr":"경기도 안산시 단원구 초지동 732-1번지","indutype":"숙박 및 음식점업 - 한식","category":"hotel"},{"name":"양평해장국","tel":"031-402-8777","addr":"경기도 안산시 단원구 초지동 732-1번지","indutype":"숙박 및 음식점업 - 한식","category":"hotel"},{"name":"이바돔감자탕초지점","tel":"031-414-3363","addr":"경기도 안산시 단원구 초지동 732-1번지","indutype":"숙박 및 음식점업 - 한식","category":"hotel"},{"name":"커피랑","tel":"031-486-2116","addr":"경기도 안산시 단원구 초지동 732-1번지","indutype":"숙박 및 음식점업 - 휴게음식점","category":"hotel"}]},{"lat":"37.3017887849","long":"126.8124915974","imageIndex":5,"items":[{"name":"낙지한마리수제비","tel":"031-413-8890","addr":"경기도 안산시 단원구 초지동 743-6번지","indutype":"숙박 및 음식점업 - 한식","category":"hotel"},{"name":"바다양푼이동태탕","tel":"031-353-8266","addr":"경기도 안산시 단원구 초지동 743-6번지","indutype":"숙박 및 음식점업 - 한식","category":"hotel"},{"name":"생태동태","tel":"031-487-2555","addr":"경기도 안산시 단원구 초지동 743-6번지","indutype":"숙박 및 음식점업 - 일반음식점,생과","category":"hotel"},{"name":"속초가명태조림","tel":"031-503-8255","addr":"경기도 안산시 단원구 초지동 743-6번지","indutype":"숙박 및 음식점업 - 한식","category":"hotel"},{"name":"일산칼국수","tel":"031-402-9987","addr":"경기도 안산시 단원구 초지동 743-6번지","indutype":"숙박 및 음식점업 - 분식","category":"hotel"},{"name":"전주시골순대국","tel":"031-403-1804","addr":"경기도 안산시 단원구 초지동 743-6번지","indutype":"숙박 및 음식점업 - 한식","category":"hotel"}]},{"lat":"37.3131965504","long":"126.8187123650","imageIndex":5,"items":[{"name":"남도직판매장","tel":"031-415-2622","addr":"경기도 안산시 단원구 초지동 720-4번지","indutype":"숙박 및 음식점업 - 한식점업","category":"hotel"}]},{"lat":"37.3010928521","long":"126.8111624373","imageIndex":5,"items":[{"name":"남해해물칼국수","tel":"031-484-3363","addr":"경기도 안산시 단원구 초지동 744-2번지","indutype":"숙박 및 음식점업 - 한식","category":"hotel"}]},{"lat":"37.3102269600","long":"126.8153806396","imageIndex":5,"items":[{"name":"네네치킨","tel":"031-487-4486","addr":"경기도 안산시 단원구 초지동 726번지","indutype":"숙박 및 음식점업 - 치킨","category":"hotel"},{"name":"열린생갈비","tel":"031-401-9202","addr":"경기도 안산시 단원구 초지동 726번지","indutype":"숙박 및 음식점업 - 한식","category":"hotel"},{"name":"조박사부대찌개","tel":"031-413-1718","addr":"경기도 안산시 단원구 초지동 726번지","indutype":"숙박 및 음식점업 - 한식","category":"hotel"}]},{"lat":"37.3252585325","long":"126.8058659595","imageIndex":5,"items":[{"name":"느티나무","tel":"031-485-0934","addr":"경기도 안산시 단원구 초지동 604-4번지","indutype":"숙박 및 음식점업 - 한식","category":"hotel"},{"name":"왕족발","tel":"","addr":"경기도 안산시 단원구 초지동 604-4번지","indutype":"숙박 및 음식점업 - 한식","category":"hotel"},{"name":"육각수","tel":"031-405-3837","addr":"경기도 안산시 단원구 초지동 604-4번지","indutype":"숙박 및 음식점업 - 한식점업","category":"hotel"},{"name":"토종마을","tel":"031-483-9282","addr":"경기도 안산시 단원구 초지동 604-4번지","indutype":"숙박 및 음식점업 - 식육","category":"hotel"},{"name":"함흥냉면","tel":"031-411-4310","addr":"경기도 안산시 단원구 초지동 604-4번지","indutype":"숙박 및 음식점업 - 한식","category":"hotel"}]},{"lat":"37.3148106322","long":"126.8195206584","imageIndex":5,"items":[{"name":"달보드레수정","tel":"031-414-0321","addr":"경기도 안산시 단원구 초지동 700-9번지","indutype":"숙박 및 음식점업 - 카페,디저트,전","category":"hotel"}]},{"lat":"37.3067598232","long":"126.8165172270","imageIndex":5,"items":[{"name":"달콤한 닭강정","tel":"031-402-0380","addr":"경기도 안산시 단원구 초지동 733-5번지","indutype":"숙박 및 음식점업 - 한식 음식점업","category":"hotel"}]},{"lat":"37.3144766610","long":"126.8191379177","imageIndex":5,"items":[{"name":"대박","tel":"031-402-8900","addr":"경기도 안산시 단원구 초지동 701-11번지","indutype":"숙박 및 음식점업 - 한식 음식점업","category":"hotel"}]},{"lat":"37.3246900845","long":"126.8053822978","imageIndex":5,"items":[{"name":"대장금국수","tel":"","addr":"경기도 안산시 단원구 초지동 604-4번지","indutype":"숙박 및 음식점업 - 한식","category":"hotel"}]},{"lat":"37.3090374380","long":"126.8152707922","imageIndex":5,"items":[{"name":"더진국 초지점","tel":"031-411-4295","addr":"경기도 안산시 단원구 초지동 726-4번지","indutype":"숙박 및 음식점업 - 일반(한식업)","category":"hotel"},{"name":"밥풀(Full)초지점","tel":"031-405-9870","addr":"경기도 안산시 단원구 초지동 726-4번지","indutype":"숙박 및 음식점업 - 휴게음식점","category":"hotel"},{"name":"좋은날 김밥","tel":"031-411-9901","addr":"경기도 안산시 단원구 초지동 726-4번지","indutype":"숙박 및 음식점업 - 한식","category":"hotel"},{"name":"헬로하노이","tel":"031-480-0422","addr":"경기도 안산시 단원구 초지동 726-4번지","indutype":"숙박 및 음식점업 - 음식","category":"hotel"}]},{"lat":"37.2995101493","long":"126.8130838334","imageIndex":5,"items":[{"name":"더커피","tel":"031-402-1856","addr":"경기도 안산시 단원구 초지동 745-3번지","indutype":"숙박 및 음식점업 - 비알콜음료","category":"hotel"}]},{"lat":"37.3064248793","long":"126.8155254372","imageIndex":5,"items":[{"name":"돈통마늘보쌈","tel":"031-413-5382","addr":"경기도 안산시 단원구 초지동 734-7번지","indutype":"숙박 및 음식점업 - 한식","category":"hotel"},{"name":"소가네","tel":"031-483-9295","addr":"경기도 안산시 단원구 초지동 734-7번지","indutype":"숙박 및 음식점업 - 음식","category":"hotel"}]},{"lat":"37.3250863991","long":"126.8053022830","imageIndex":5,"items":[{"name":"동물농장식당","tel":"031-480-7844","addr":"경기도 안산시 단원구 초지동 604-4번지 안산시민시장","indutype":"숙박 및 음식점업 - 한식","category":"hotel"},{"name":"명인짬뽕","tel":"031-405-1441","addr":"경기도 안산시 단원구 초지동 604-4번지","indutype":"숙박 및 음식점업 - 중식","category":"hotel"},{"name":"병천황토방순대","tel":"031-402-4350","addr":"경기도 안산시 단원구 초지동 604-4번지","indutype":"숙박 및 음식점업 - 한식","category":"hotel"},{"name":"시민시장 호남식당","tel":"031-401-1791","addr":"경기도 안산시 단원구 초지동 604-4번지","indutype":"숙박 및 음식점업 - 한식","category":"hotel"},{"name":"시민옛날칼국수","tel":"031-410-7967","addr":"경기도 안산시 단원구 초지동 604-4번지 안산시민시장","indutype":"숙박 및 음식점업 - 한식","category":"hotel"},{"name":"싱싱치킨호프","tel":"031-483-0969","addr":"경기도 안산시 단원구 초지동 604-4번지 안산시민시장","indutype":"숙박 및 음식점업 - 호프,치킨","category":"hotel"},{"name":"엄마손칼국수","tel":"","addr":"경기도 안산시 단원구 초지동 604-4번지 안산시민시장","indutype":"숙박 및 음식점업 - 일반음식점","category":"hotel"},{"name":"여수식당","tel":"031-483-6811","addr":"경기도 안산시 단원구 초지동 604-4번지 안산시민시장","indutype":"숙박 및 음식점업 - 한식","category":"hotel"},{"name":"영광생고기","tel":"031-403-8961","addr":"경기도 안산시 단원구 초지동 604-4번지 안산시민시장","indutype":"숙박 및 음식점업 - 일반음식","category":"hotel"},{"name":"옛날냉면","tel":"031-475-9163","addr":"경기도 안산시 단원구 초지동 604-4번지","indutype":"숙박 및 음식점업 - 일반음식점","category":"hotel"},{"name":"완도수산회","tel":"031-414-8295","addr":"경기도 안산시 단원구 초지동 604-4번지","indutype":"숙박 및 음식점업 - 횟집","category":"hotel"},{"name":"원조동태찜","tel":"031-480-7395","addr":"경기도 안산시 단원구 초지동 604-4번지 안산시민시장","indutype":"숙박 및 음식점업 - 한식","category":"hotel"},{"name":"충남식당","tel":"031-484-1559","addr":"경기도 안산시 단원구 초지동 604-4번지","indutype":"숙박 및 음식점업 - 일반음식점","category":"hotel"},{"name":"충청식당","tel":"","addr":"경기도 안산시 단원구 초지동 604-4번지 안산시민시장","indutype":"숙박 및 음식점업 - 한식","category":"hotel"},{"name":"칠갑산생고기","tel":"031-402-6158","addr":"경기도 안산시 단원구 초지동 604-4번지","indutype":"숙박 및 음식점업 - 한식","category":"hotel"},{"name":"풍천장어","tel":"031-405-3331","addr":"경기도 안산시 단원구 초지동 604-4번지","indutype":"숙박 및 음식점업 - 횟집","category":"hotel"},{"name":"한우정","tel":"031-410-3659","addr":"경기도 안산시 단원구 초지동 604-4번지 안산시민시장","indutype":"숙박 및 음식점업 - 일반음식","category":"hotel"}]},{"lat":"37.3023646374","long":"126.8119938643","imageIndex":5,"items":[{"name":"디저트카페언니네","tel":"031-482-8004","addr":"경기도 안산시 단원구 초지동 743-4번지","indutype":"숙박 및 음식점업 - 다과,음료","category":"hotel"},{"name":"사랑담은냉면","tel":"031-484-0991","addr":"경기도 안산시 단원구 초지동 743-4번지","indutype":"숙박 및 음식점업 - 일반음식","category":"hotel"},{"name":"원짬뽕연구소","tel":"031-401-9500","addr":"경기도 안산시 단원구 초지동 743-4번지","indutype":"숙박 및 음식점업 - 중식","category":"hotel"},{"name":"이모네김밥","tel":"031-401-9720","addr":"경기도 안산시 단원구 초지동 743-4번지","indutype":"숙박 및 음식점업 - 한식","category":"hotel"},{"name":"토담생삼겹","tel":"","addr":"경기도 안산시 단원구 초지동 743-4번지","indutype":"숙박 및 음식점업 - 한식","category":"hotel"},{"name":"혜미네뷔페","tel":"","addr":"경기도 안산시 단원구 초지동 743-4번지","indutype":"숙박 및 음식점업 - 한식","category":"hotel"}]},{"lat":"37.3132841837","long":"126.8171328452","imageIndex":5,"items":[{"name":"또래오래","tel":"0504-3142-1654","addr":"경기도 안산시 단원구 초지동 721-1번지","indutype":"숙박 및 음식점업 - 치킨","category":"hotel"}]},{"lat":"37.3091194045","long":"126.8158233152","imageIndex":5,"items":[{"name":"또머꼬","tel":"031-405-3413","addr":"경기도 안산시 단원구 초지동 727-7번지","indutype":"숙박 및 음식점업 - 호프","category":"hotel"},{"name":"미미초밥","tel":"031-401-1802","addr":"경기도 안산시 단원구 초지동 727-7번지","indutype":"숙박 및 음식점업 - 한식및일식","category":"hotel"},{"name":"복차장산꼼장어","tel":"031-403-8886","addr":"경기도 안산시 단원구 초지동 727-7번지","indutype":"숙박 및 음식점업 - 한식","category":"hotel"},{"name":"흥부전놀부전","tel":"031-402-1802","addr":"경기도 안산시 단원구 초지동 727-7번지","indutype":"숙박 및 음식점업 - 한식","category":"hotel"}]},{"lat":"37.3087580868","long":"126.8152489262","imageIndex":5,"items":[{"name":"마당","tel":"031-413-7333","addr":"경기도 안산시 단원구 초지동 726-5번지","indutype":"숙박 및 음식점업 - 해산물","category":"hotel"},{"name":"시소후르츠","tel":"031-405-9979","addr":"경기도 안산시 단원구 초지동 726-5번지","indutype":"숙박 및 음식점업 - 휴게음식","category":"hotel"},{"name":"토마토김밥","tel":"031-405-9064","addr":"경기도 안산시 단원구 초지동 726-5번지","indutype":"숙박 및 음식점업 - 분식","category":"hotel"}]},{"lat":"37.2946793196","long":"126.7910475274","imageIndex":5,"items":[{"name":"만가두부","tel":"031-406-1034","addr":"경기도 안산시 단원구 초지동 673-1번지","indutype":"숙박 및 음식점업 - 한식점업","category":"hotel"},{"name":"육마니 옛날전통육개장","tel":"031-494-2266","addr":"경기도 안산시 단원구 초지동 673-1번지","indutype":"숙박 및 음식점업 - 일반음식점","category":"hotel"}]},{"lat":"37.3081190965","long":"126.8157129934","imageIndex":5,"items":[{"name":"맘스터치 초지점","tel":"050-7461-9400","addr":"경기도 안산시 단원구 초지동 732번지","indutype":"숙박 및 음식점업 - 일반음식","category":"hotel"},{"name":"프렌드유베이커리","tel":"031-411-7396","addr":"경기도 안산시 단원구 초지동 732번지","indutype":"숙박 및 음식점업 - 제과점","category":"hotel"}]},{"lat":"37.3070376073","long":"126.8155464766","imageIndex":5,"items":[{"name":"맛있는 포차","tel":"031-485-0544","addr":"경기도 안산시 단원구 초지동 734-11번지","indutype":"숙박 및 음식점업 - 기타음식","category":"hotel"},{"name":"황금돼지","tel":"031-485-5235","addr":"경기도 안산시 단원구 초지동 734-11번지","indutype":"숙박 및 음식점업 - 한식","category":"hotel"}]},{"lat":"37.3133109485","long":"126.8169635679","imageIndex":5,"items":[{"name":"매콤코다리조림","tel":"031-482-8886","addr":"경기도 안산시 단원구 초지동 721번지","indutype":"숙박 및 음식점업 - 한식","category":"hotel"}]},{"lat":"37.3152585067","long":"126.8178274127","imageIndex":5,"items":[{"name":"머슴식당양푼생갈비","tel":"","addr":"경기도 안산시 단원구 초지동 694-5번지","indutype":"숙박 및 음식점업 - 한식","category":"hotel"}]},{"lat":"37.3148980470","long":"126.8177944533","imageIndex":5,"items":[{"name":"목동포차","tel":"","addr":"경기도 안산시 단원구 초지동 698-5번지","indutype":"숙박 및 음식점업 - 기타음식","category":"hotel"}]},{"lat":"37.3068401323","long":"126.8160207179","imageIndex":5,"items":[{"name":"목장이야기 정육식당","tel":"031-410-0988","addr":"경기도 안산시 단원구 초지동 734-5번지","indutype":"숙박 및 음식점업 - 음식업","category":"hotel"},{"name":"봄날어시장","tel":"031-475-3372","addr":"경기도 안산시 단원구 초지동 734-5번지","indutype":"숙박 및 음식점업 - 일식","category":"hotel"},{"name":"알레즈(ALLEZ) 앤 알레","tel":"","addr":"경기도 안산시 단원구 초지동 734-5번지","indutype":"숙박 및 음식점업 - 기타음식","category":"hotel"},{"name":"택이네조개전골","tel":"031-402-3392","addr":"경기도 안산시 단원구 초지동 734-5번지","indutype":"숙박 및 음식점업 - 한식","category":"hotel"}]},{"lat":"37.3074252235","long":"126.8156583138","imageIndex":5,"items":[{"name":"못난감자","tel":"031-439-0756","addr":"경기도 안산시 단원구 초지동 734-13번지","indutype":"숙박 및 음식점업 - 치킨","category":"hotel"},{"name":"옛날통닭","tel":"","addr":"경기도 안산시 단원구 초지동 734-13번지","indutype":"숙박 및 음식점업 - 치킨","category":"hotel"}]},{"lat":"37.3155309734","long":"126.8192143192","imageIndex":5,"items":[{"name":"미가카페","tel":"031-402-1505","addr":"경기도 안산시 단원구 초지동 690번지","indutype":"숙박 및 음식점업 - 커피전문점","category":"hotel"}]},{"lat":"37.3069220065","long":"126.8165168268","imageIndex":5,"items":[{"name":"미술관","tel":"031-401-6054","addr":"경기도 안산시 단원구 초지동 733-4번지","indutype":"숙박 및 음식점업 - 한식","category":"hotel"}]},{"lat":"37.3078389413","long":"126.8151835304","imageIndex":5,"items":[{"name":"배부장찌개초지점","tel":"031-405-8001","addr":"경기도 안산시 단원구 초지동 735-1번지","indutype":"숙박 및 음식점업 - 한식점업","category":"hotel"},{"name":"죽이야기","tel":"031-410-6288","addr":"경기도 안산시 단원구 초지동 735-1번지","indutype":"숙박 및 음식점업 - 한식","category":"hotel"},{"name":"참나무 숫불바베큐","tel":"031-414-9092","addr":"경기도 안산시 단원구 초지동 735-1번지","indutype":"숙박 및 음식점업 - 한식","category":"hotel"},{"name":"커피스토커","tel":"031-414-3766","addr":"경기도 안산시 단원구 초지동 735-1번지","indutype":"숙박 및 음식점업 - 카페","category":"hotel"},{"name":"쿡1015","tel":"031-401-1055","addr":"경기도 안산시 단원구 초지동 735-1번지","indutype":"숙박 및 음식점업 - 기타음식","category":"hotel"},{"name":"태극김밥","tel":"031-403-5559","addr":"경기도 안산시 단원구 초지동 735-1번지","indutype":"숙박 및 음식점업 - 한식","category":"hotel"}]},{"lat":"37.3055917349","long":"126.8128880760","imageIndex":5,"items":[{"name":"별망치킨","tel":"031-405-2744","addr":"경기도 안산시 단원구 초지동 739번지 그린빌주공16단지아파트","indutype":"숙박 및 음식점업 - 기타음식","category":"hotel"}]},{"lat":"37.3274474902","long":"126.8055556069","imageIndex":5,"items":[{"name":"블러썸103","tel":"","addr":"경기도 안산시 단원구 초지동 801번지 롯데캐슬더퍼스트","indutype":"숙박 및 음식점업 - 카페","category":"hotel"},{"name":"치킨더홈","tel":"031-405-9978","addr":"경기도 안산시 단원구 초지동 801번지 롯데캐슬더퍼스트","indutype":"숙박 및 음식점업 - 치킨","category":"hotel"}]},{"lat":"37.3087318778","long":"126.8157678748","imageIndex":5,"items":[{"name":"빠리바게트초지점","tel":"031-487-4300","addr":"경기도 안산시 단원구 초지동 729번지","indutype":"숙박 및 음식점업 - 제과점,임대","category":"hotel"},{"name":"죠스떡볶이안산초지점","tel":"031-401-6311","addr":"경기도 안산시 단원구 초지동 729번지","indutype":"숙박 및 음식점업 - 휴게음식점","category":"hotel"},{"name":"토마토도시락","tel":"031-413-1330","addr":"경기도 안산시 단원구 초지동 729번지","indutype":"숙박 및 음식점업 - 한식","category":"hotel"},{"name":"푸른건강원","tel":"031-410-8747","addr":"경기도 안산시 단원구 초지동 729번지","indutype":"숙박 및 음식점업 - 특수음식점","category":"hotel"},{"name":"필링마카롱(feeling macaron)","tel":"","addr":"경기도 안산시 단원구 초지동 729번지","indutype":"숙박 및 음식점업 - 디저트","category":"hotel"},{"name":"홍춘천치즈닭갈비","tel":"031-410-7779","addr":"경기도 안산시 단원구 초지동 729번지","indutype":"숙박 및 음식점업 - 한식","category":"hotel"}]},{"lat":"37.3016726307","long":"126.8131009574","imageIndex":5,"items":[{"name":"사리원손만두","tel":"031-439-4219","addr":"경기도 안산시 단원구 초지동 742-10번지","indutype":"숙박 및 음식점업 - 일반음식","category":"hotel"},{"name":"요거프레소 초지점","tel":"031-410-7707","addr":"경기도 안산시 단원구 초지동 742-10번지","indutype":"숙박 및 음식점업 - 기타 음식점업","category":"hotel"}]},{"lat":"37.3093086182","long":"126.8158228464","imageIndex":5,"items":[{"name":"소백산","tel":"031-486-8292","addr":"경기도 안산시 단원구 초지동 727-8번지","indutype":"숙박 및 음식점업 - 한식","category":"hotel"},{"name":"슈아라슈미니","tel":"031-503-8640","addr":"경기도 안산시 단원구 초지동 727-8번지","indutype":"숙박 및 음식점업 - 휴게음식점","category":"hotel"},{"name":"지리산칡냉면&감자탕","tel":"031-475-7787","addr":"경기도 안산시 단원구 초지동 727-8번지","indutype":"숙박 및 음식점업 - 한식","category":"hotel"},{"name":"컨츄리꼬꼬","tel":"031-482-1656","addr":"경기도 안산시 단원구 초지동 727-8번지","indutype":"숙박 및 음식점업 - 한식","category":"hotel"},{"name":"태후사랑","tel":"","addr":"경기도 안산시 단원구 초지동 727-8번지","indutype":"숙박 및 음식점업 - 한식점업","category":"hotel"},{"name":"행복돈가스","tel":"031-410-5002","addr":"경기도 안산시 단원구 초지동 727-8번지","indutype":"숙박 및 음식점업 - 분식","category":"hotel"}]},{"lat":"37.3010037352","long":"126.8117717253","imageIndex":5,"items":[{"name":"송탄나여사부대찌개","tel":"031-403-2325","addr":"경기도 안산시 단원구 초지동 744-3번지","indutype":"숙박 및 음식점업 - 한식","category":"hotel"},{"name":"시골순대감자탕","tel":"031-402-2364","addr":"경기도 안산시 단원구 초지동 744-3번지","indutype":"숙박 및 음식점업 - 한식","category":"hotel"}]},{"lat":"37.3024259207","long":"126.8108883542","imageIndex":5,"items":[{"name":"송탄참작부대찌개","tel":"","addr":"경기도 안산시 단원구 초지동 743-2번지","indutype":"숙박 및 음식점업 - 일반음식","category":"hotel"},{"name":"왕십리순대국","tel":"031-402-3206","addr":"경기도 안산시 단원구 초지동 743-2번지","indutype":"숙박 및 음식점업 - 한식","category":"hotel"},{"name":"카페에단","tel":"","addr":"경기도 안산시 단원구 초지동 743-2번지","indutype":"숙박 및 음식점업 - 휴게음식점","category":"hotel"}]},{"lat":"37.3254826383","long":"126.8051771372","imageIndex":5,"items":[{"name":"술천지식당","tel":"031-402-4799","addr":"경기도 안산시 단원구 초지동 604-4번지","indutype":"숙박 및 음식점업 - 한식","category":"hotel"},{"name":"우정식당","tel":"031-402-7471","addr":"경기도 안산시 단원구 초지동 604-4번지","indutype":"숙박 및 음식점업 - 한식","category":"hotel"},{"name":"전주식당","tel":"031-492-0100","addr":"경기도 안산시 단원구 초지동 604-4번지","indutype":"숙박 및 음식점업 - 한식","category":"hotel"}]},{"lat":"37.3138434334","long":"126.8175262987","imageIndex":5,"items":[{"name":"신궁화부","tel":"031-403-5005","addr":"경기도 안산시 단원구 초지동 713-6번지","indutype":"숙박 및 음식점업 - 중식","category":"hotel"}]},{"lat":"37.3116179609","long":"126.8063866210","imageIndex":5,"items":[{"name":"신안산대학교 산학협력단","tel":"031-490-8925","addr":"경기도 안산시 단원구 초지동 671번지","indutype":"숙박 및 음식점업 - 산학협력단,학술","category":"hotel"},{"name":"신안산대학교 학생식당","tel":"031-490-6000","addr":"경기도 안산시 단원구 초지동 671번지","indutype":"숙박 및 음식점업 - 구내식당","category":"hotel"},{"name":"신안산대학교(교직원식당)","tel":"031-490-6000","addr":"경기도 안산시 단원구 초지동 671번지","indutype":"숙박 및 음식점업 - 구내식당","category":"hotel"}]},{"lat":"37.3014790903","long":"126.8160452610","imageIndex":5,"items":[{"name":"알랑치킨","tel":"031-414-1492","addr":"경기도 안산시 단원구 초지동 741번지 행복한마을아파트","indutype":"숙박 및 음식점업 - 치킨","category":"hotel"}]},{"lat":"37.3132579842","long":"126.8176631051","imageIndex":5,"items":[{"name":"어부린","tel":"031-414-7775","addr":"경기도 안산시 단원구 초지동 721-4번지","indutype":"숙박 및 음식점업 - 한식","category":"hotel"}]},{"lat":"37.3076697804","long":"126.8164698616","imageIndex":5,"items":[{"name":"엉클짱왕해물찜","tel":"031-486-9388","addr":"경기도 안산시 단원구 초지동 733번지","indutype":"숙박 및 음식점업 - 한식","category":"hotel"}]},{"lat":"37.3043445254","long":"126.8161622459","imageIndex":5,"items":[{"name":"오렌지분식","tel":"031-402-5320","addr":"경기도 안산시 단원구 초지동 740-2번지","indutype":"숙박 및 음식점업 - 분식","category":"hotel"},{"name":"오렌지분식","tel":"031-402-5320","addr":"경기도 안산시 단원구 초지동 740-2번지","indutype":"숙박 및 음식점업 - 분식","category":"hotel"},{"name":"카페산책","tel":"070-8943-4302","addr":"경기도 안산시 단원구 초지동 740-2번지","indutype":"숙박 및 음식점업 - 휴게음식업","category":"hotel"}]},{"lat":"37.3133106116","long":"126.8167492343","imageIndex":5,"items":[{"name":"오박사숯불갈비","tel":"031-494-0533","addr":"경기도 안산시 단원구 초지동 722-7번지","indutype":"숙박 및 음식점업 - 한식","category":"hotel"}]},{"lat":"37.3145852979","long":"126.8137453585","imageIndex":5,"items":[{"name":"요강섬","tel":"031-411-0365","addr":"경기도 안산시 단원구 초지동 681-17번지","indutype":"숙박 및 음식점업 - 한식","category":"hotel"}]},{"lat":"37.3093168071","long":"126.8153039386","imageIndex":5,"items":[{"name":"우리쌍화탕","tel":"","addr":"경기도 안산시 단원구 초지동 726-3번지","indutype":"숙박 및 음식점업 - 기타 음식점업","category":"hotel"},{"name":"카페 엔퍼센트","tel":"","addr":"경기도 안산시 단원구 초지동 726-3번지","indutype":"숙박 및 음식점업 - 휴게음식업","category":"hotel"},{"name":"커피스토커","tel":"031-485-6599","addr":"경기도 안산시 단원구 초지동 726-3번지","indutype":"숙박 및 음식점업 - 기타음식","category":"hotel"}]},{"lat":"37.3024520351","long":"126.8103243310","imageIndex":5,"items":[{"name":"우사미","tel":"031-405-5857","addr":"경기도 안산시 단원구 초지동 743-1번지","indutype":"숙박 및 음식점업 - 한식점업","category":"hotel"}]},{"lat":"37.3005916432","long":"126.8132502987","imageIndex":5,"items":[{"name":"월수금","tel":"031-410-0563","addr":"경기도 안산시 단원구 초지동 745-1번지","indutype":"숙박 및 음식점업 - 일반음식점","category":"hotel"}]},{"lat":"37.3255065829","long":"126.8143272491","imageIndex":5,"items":[{"name":"이도령남원추어탕","tel":"031-401-4611","addr":"경기도 안산시 단원구 초지동 667번지","indutype":"숙박 및 음식점업 - 한식","category":"hotel"}]},{"lat":"37.3208945142","long":"126.8150495309","imageIndex":5,"items":[{"name":"이음카페(안산시정신건강복지센터)","tel":"","addr":"경기도 안산시 단원구 초지동 666-8번지","indutype":"숙박 및 음식점업 - 휴게음식","category":"hotel"},{"name":"티움","tel":"","addr":"경기도 안산시 단원구 초지동 666-8번지","indutype":"숙박 및 음식점업 - 음료","category":"hotel"}]},{"lat":"37.3032261024","long":"126.8098260703","imageIndex":5,"items":[{"name":"장수남원추어탕","tel":"031-486-5333","addr":"경기도 안산시 단원구 초지동 742번지","indutype":"숙박 및 음식점업 - 한식","category":"hotel"}]},{"lat":"37.3075611781","long":"126.8161655723","imageIndex":5,"items":[{"name":"장어세상","tel":"031-402-5355","addr":"경기도 안산시 단원구 초지동 734-1번지","indutype":"숙박 및 음식점업 - 한식","category":"hotel"}]},{"lat":"37.3143648370","long":"126.8167691969","imageIndex":5,"items":[{"name":"쭉삼이네","tel":"031-485-1650","addr":"경기도 안산시 단원구 초지동 706-5번지","indutype":"숙박 및 음식점업 - 한식","category":"hotel"}]},{"lat":"37.3003109327","long":"126.8123825344","imageIndex":5,"items":[{"name":"참고기나라","tel":"031-482-8292","addr":"경기도 안산시 단원구 초지동 744-5번지","indutype":"숙박 및 음식점업 - 한식","category":"hotel"},{"name":"참이맛감자탕","tel":"031-402-8252","addr":"경기도 안산시 단원구 초지동 744-5번지","indutype":"숙박 및 음식점업 - 한식","category":"hotel"}]},{"lat":"37.3031475395","long":"126.8113828065","imageIndex":5,"items":[{"name":"청궁중화요리","tel":"031-411-3379","addr":"경기도 안산시 단원구 초지동 742-3번지","indutype":"숙박 및 음식점업 - 중식","category":"hotel"}]},{"lat":"37.3098672135","long":"126.8157989021","imageIndex":5,"items":[{"name":"청양신양푼이동태탕","tel":"031-413-4266","addr":"경기도 안산시 단원구 초지동 727-11번지","indutype":"숙박 및 음식점업 - 한식","category":"hotel"}]},{"lat":"37.3134480617","long":"126.8182153971","imageIndex":5,"items":[{"name":"초지 설악추어탕","tel":"031-405-0065","addr":"경기도 안산시 단원구 초지동 717-8번지","indutype":"숙박 및 음식점업 - 한식","category":"hotel"}]},{"lat":"37.3141186742","long":"126.8149423010","imageIndex":5,"items":[{"name":"최진희낙지마당","tel":"031-413-8465","addr":"경기도 안산시 단원구 초지동 682-7번지","indutype":"숙박 및 음식점업 - 한식","category":"hotel"}]},{"lat":"37.3132318176","long":"126.8182159260","imageIndex":5,"items":[{"name":"카페좋아해","tel":"031-405-4404","addr":"경기도 안산시 단원구 초지동 720-1번지","indutype":"숙박 및 음식점업 - 카페,액세서리","category":"hotel"}]},{"lat":"37.3132847498","long":"126.8174938281","imageIndex":5,"items":[{"name":"커피스토리","tel":"031-413-8004","addr":"경기도 안산시 단원구 초지동 721-3번지","indutype":"숙박 및 음식점업 - 커피전문점","category":"hotel"}]},{"lat":"37.3063723499","long":"126.8164956238","imageIndex":5,"items":[{"name":"파리바게트 안산풍림점","tel":"031-411-8203","addr":"경기도 안산시 단원구 초지동 733-7번지","indutype":"숙박 및 음식점업 - 제과점","category":"hotel"}]}]