[{"lat":"37.054625663","long":"126.92565814","imageIndex":0,"items":[{"name":"(주)지피씨씨코리아","tel":"031-684-9489","addr":"경기도 평택시 청북읍 고렴리 234-42번지","indutype":"자동차판매 - 이륜차판매","category":"car"}]},{"lat":"37.065403688","long":"126.91466187","imageIndex":0,"items":[{"name":"(주)청윤","tel":"031-282-2111","addr":"경기도 평택시 청북읍 고렴리 728-20번지","indutype":"자동차정비 유지 - 자동차정비","category":"car"}]},{"lat":"37.061344349","long":"126.92085042","imageIndex":0,"items":[{"name":"IC오일","tel":"031-335-8417","addr":"경기도 평택시 청북읍 고렴리 477-2번지","indutype":"자동차정비 유지 - 자동차부품","category":"car"}]},{"lat":"37.057759422","long":"126.92274308","imageIndex":0,"items":[{"name":"뉴)경동","tel":"031-684-4646","addr":"경기도 평택시 청북읍 고렴리 825-6번지 외5필지 2층","indutype":"자동차판매 - 중고자동차판매","category":"car"}]},{"lat":"37.059371547","long":"126.92160583","imageIndex":0,"items":[{"name":"모토리즘 유한회사","tel":"031-683-1761","addr":"경기도 평택시 청북읍 고렴리 466-2번지","indutype":"자동차정비 유지 - 자동차부품","category":"car"},{"name":"시온모터스","tel":"031-684-3550","addr":"경기도 평택시 청북읍 고렴리 466-2번지","indutype":"자동차정비 유지 - 자동차정비","category":"car"}]},{"lat":"37.052257992","long":"126.92898818","imageIndex":0,"items":[{"name":"서해전동지게차","tel":"","addr":"경기도 평택시 청북읍 고렴리 113-1번지 1층 101호","indutype":"자동차판매 - 기타운송","category":"car"},{"name":"서해지게차","tel":"","addr":"경기도 평택시 청북읍 고렴리 113-1번지","indutype":"자동차판매 - 기타운송","category":"car"}]},{"lat":"37.055896487","long":"126.92616277","imageIndex":0,"items":[{"name":"세한엔지니어링","tel":"031-684-8119","addr":"경기도 평택시 청북읍 고렴리 234-20번지","indutype":"자동차판매 - 기타운송","category":"car"}]},{"lat":"37.062757179","long":"126.91824039","imageIndex":0,"items":[{"name":"신나라타이어주식회사","tel":"031-681-1030","addr":"경기도 평택시 청북읍 고렴리 660-3번지 외2필지","indutype":"자동차정비 유지 - 자동차시트·타이어","category":"car"}]},{"lat":"37.063625767","long":"126.91093102","imageIndex":0,"items":[{"name":"와이즈파츠","tel":"031-307-0009","addr":"경기도 평택시 청북읍 고렴리 735-17번지 2동 1층(사무)","indutype":"자동차정비 유지 - 자동차부품","category":"car"}]},{"lat":"37.063037471","long":"126.91960056","imageIndex":0,"items":[{"name":"원일모터스","tel":"031-684-1551","addr":"경기도 평택시 청북읍 고렴리 632","indutype":"자동차정비 유지 - 자동차정비","category":"car"}]},{"lat":"37.063369084","long":"126.9171041","imageIndex":0,"items":[{"name":"유니켐루브","tel":"031-683-5182","addr":"경기도 평택시 청북읍 고렴리 661번지","indutype":"자동차정비 유지 - 윤활유 전문 판매","category":"car"}]},{"lat":"37.064062533","long":"126.91659735","imageIndex":0,"items":[{"name":"은혜카센타","tel":"","addr":"경기도 평택시 청북읍 고렴리 685-10번지","indutype":"자동차정비 유지 - 자동차시트·타이어","category":"car"}]},{"lat":"37.057014243","long":"126.92684745","imageIndex":0,"items":[{"name":"현대상사","tel":"031-298-6060","addr":"경기도 평택시 청북읍 고렴리 957번지","indutype":"자동차정비 유지 - 자동차부품","category":"car"}]}]