[{"lat":"37.294344005","long":"126.97961557","imageIndex":0,"items":[{"name":"금광상사","tel":"031-292-0661","addr":"경기도 수원시 장안구 천천동 339-31번지","indutype":"자동차정비 유지 - 자동차부품","category":"car"}]},{"lat":"37.303236798","long":"126.97806757","imageIndex":0,"items":[{"name":"네비세상","tel":"031-271-4108","addr":"경기도 수원시 장안구 천천동 476-3번지 지하1층및1층","indutype":"자동차정비 유지 - 자동차부품","category":"car"}]},{"lat":"37.302424914","long":"126.97383816","imageIndex":0,"items":[{"name":"대박세차장","tel":"031-268-0054","addr":"경기도 수원시 장안구 천천동 559번지 1층","indutype":"자동차정비 유지 - 세차장","category":"car"},{"name":"자동차 외형복원 전문점","tel":"","addr":"경기도 수원시 장안구 천천동 559번지","indutype":"자동차정비 유지 - 자동차정비","category":"car"}]},{"lat":"37.300209793","long":"126.9802341","imageIndex":0,"items":[{"name":"대상카자동차서비스센터","tel":"031-269-1397","addr":"경기도 수원시 장안구 천천동 502-8번지","indutype":"자동차정비 유지 - 자동차정비","category":"car"}]},{"lat":"37.303237112","long":"126.97961283","imageIndex":0,"items":[{"name":"반석카서비스","tel":"031-269-9622","addr":"경기도 수원시 장안구 천천동 478-2번지 1층 전부","indutype":"자동차정비 유지 - 자동차정비","category":"car"}]},{"lat":"37.30339824","long":"126.97475141","imageIndex":0,"items":[{"name":"버블세차","tel":"031-269-0059","addr":"경기도 수원시 장안구 천천동 549-15번지","indutype":"자동차정비 유지 - 세차장","category":"car"},{"name":"버블세차","tel":"031-269-0059","addr":"경기도 수원시 장안구 천천동 549-15번지","indutype":"자동차정비 유지 - 세차장","category":"car"},{"name":"버블세차","tel":"031-269-0059","addr":"경기도 수원시 장안구 천천동 549-15번지","indutype":"자동차정비 유지 - 세차장","category":"car"},{"name":"버블셀프세차장","tel":"070-8885-4396","addr":"경기도 수원시 장안구 천천동 549-15번지","indutype":"자동차정비 유지 - 세차장","category":"car"}]},{"lat":"37.294398122","long":"126.9798975","imageIndex":0,"items":[{"name":"보고상사","tel":"031-437-3115","addr":"경기도 수원시 장안구 천천동 339-16번지","indutype":"자동차정비 유지 - 자동차부품","category":"car"}]},{"lat":"37.299479839","long":"126.97959143","imageIndex":0,"items":[{"name":"샘내카경정비","tel":"031-269-4561","addr":"경기도 수원시 장안구 천천동 506-13번지","indutype":"자동차정비 유지 - 자동차정비","category":"car"}]},{"lat":"37.295182539","long":"126.98278445","imageIndex":0,"items":[{"name":"세화주차타워","tel":"011-***-****","addr":"경기도 수원시 장안구 천천동 528-1 세화프라자3층,4층,5층,6층","indutype":"자동차정비 유지 - 주차장","category":"car"}]},{"lat":"37.303011381","long":"126.97731194","imageIndex":0,"items":[{"name":"수레바퀴","tel":"031-268-6865","addr":"경기도 수원시 장안구 천천동 475-10번지 1층","indutype":"자동차정비 유지 - 자동차시트·타이어","category":"car"}]},{"lat":"37.295119292","long":"126.98178072","imageIndex":0,"items":[{"name":"스피드메이트천천점","tel":"031-269-5881","addr":"경기도 수원시 장안구 천천동 521번지","indutype":"자동차정비 유지 - 자동차정비","category":"car"}]},{"lat":"37.288676253","long":"126.97811746","imageIndex":0,"items":[{"name":"신우자동차공업사","tel":"031-295-1684","addr":"경기도 수원시 장안구 천천동 367번지","indutype":"자동차정비 유지 - 자동차정비","category":"car"}]},{"lat":"37.300569529","long":"126.97695184","imageIndex":0,"items":[{"name":"아프니카","tel":"031-268-4911","addr":"경기도 수원시 장안구 천천동 571-8번지 1층","indutype":"자동차정비 유지 - 자동차정비","category":"car"},{"name":"천일셀프세차장","tel":"031-247-7222","addr":"경기도 수원시 장안구 천천동 571-8번지","indutype":"자동차정비 유지 - 세차장","category":"car"}]},{"lat":"37.300065527","long":"126.97970404","imageIndex":0,"items":[{"name":"에이스오토바이","tel":"031-243-1677","addr":"경기도 수원시 장안구 천천동 502-4번지 1층","indutype":"자동차판매 - 이륜차판매","category":"car"}]},{"lat":"37.303344989","long":"126.97839464","imageIndex":0,"items":[{"name":"오렌지카서비스","tel":"031-269-0302","addr":"경기도 수원시 장안구 천천동 476-6번지","indutype":"자동차정비 유지 - 자동차정비","category":"car"}]},{"lat":"37.302957094","long":"126.97628554","imageIndex":0,"items":[{"name":"워시&메모리 (wash & memory)","tel":"","addr":"경기도 수원시 장안구 천천동 475-2번지 1층","indutype":"자동차정비 유지 - 세차장","category":"car"}]},{"lat":"37.303318189","long":"126.97953385","imageIndex":0,"items":[{"name":"이레자동차공업사","tel":"031-257-0990","addr":"경기도 수원시 장안구 천천동 478-1번지","indutype":"자동차정비 유지 - 자동차정비","category":"car"}]},{"lat":"37.289207656","long":"126.97717001","imageIndex":0,"items":[{"name":"존슨썬팅","tel":"031-244-4243","addr":"경기도 수원시 장안구 천천동 363-2번지","indutype":"회원제형태 - 자동차서비스","category":"car"},{"name":"현대덴트칼라","tel":"031-238-7798","addr":"경기도 수원시 장안구 천천동 363-2번지 경량철골건물","indutype":"자동차정비 유지 - 카인테리어","category":"car"}]},{"lat":"37.303147021","long":"126.97966926","imageIndex":0,"items":[{"name":"지포","tel":"031-268-9495","addr":"경기도 수원시 장안구 천천동 478-3번지 1층","indutype":"자동차정비 유지 - 자동차부품","category":"car"}]},{"lat":"37.302867763","long":"126.97997388","imageIndex":0,"items":[{"name":"천천점기아오토큐","tel":"031-269-5555","addr":"경기도 수원시 장안구 천천동 478-6번지","indutype":"자동차정비 유지 - 자동차정비","category":"car"}]},{"lat":"37.288793456","long":"126.97845574","imageIndex":0,"items":[{"name":"천천점현대자동차","tel":"031-292-8297","addr":"경기도 수원시 장안구 천천동 367-2,3","indutype":"자동차정비 유지 - 자동차정비","category":"car"}]},{"lat":"37.298812983","long":"126.97909538","imageIndex":0,"items":[{"name":"출장광택","tel":"031-696-7650","addr":"경기도 수원시 장안구 천천동 509-3번지 3층","indutype":"자동차정비 유지 - 카인테리어","category":"car"}]},{"lat":"37.302930211","long":"126.97695103","imageIndex":0,"items":[{"name":"카라이프","tel":"031-268-2265","addr":"경기도 수원시 장안구 천천동 475-7번지","indutype":"자동차정비 유지 - 자동차부품","category":"car"}]},{"lat":"37.300678413","long":"126.98069639","imageIndex":0,"items":[{"name":"카메이크업","tel":"031-244-3886","addr":"경기도 수원시 장안구 천천동 481-2번지","indutype":"자동차정비 유지 - 카인테리어","category":"car"}]},{"lat":"37.300985318","long":"126.98389952","imageIndex":0,"items":[{"name":"카프러스장안점","tel":"031-257-6622","addr":"경기도 수원시 장안구 천천동 515번지 1층","indutype":"자동차정비 유지 - 자동차부품","category":"car"},{"name":"한국타이어하이테크점","tel":"031-268-1436","addr":"경기도 수원시 장안구 천천동 515번지 B동건물일부","indutype":"자동차정비 유지 - 자동차시트·타이어","category":"car"}]},{"lat":"37.303065951","long":"126.97978207","imageIndex":0,"items":[{"name":"케이포(K4)","tel":"031-268-4982","addr":"경기도 수원시 장안구 천천동 478-4번지 1층상가","indutype":"자동차정비 유지 - 자동차정비","category":"car"},{"name":"티엔씨 수원천천점","tel":"031-268-4982","addr":"경기도 수원시 장안구 천천동 478-4번지","indutype":"자동차정비 유지 - 카인테리어","category":"car"}]},{"lat":"37.293343033","long":"126.97570249","imageIndex":0,"items":[{"name":"터보인사이드","tel":"031-297-5121","addr":"경기도 수원시 장안구 천천동 300번지 성균관대학교 산학협력센터 85508호","indutype":"자동차정비 유지 - 자동차부품","category":"car"}]},{"lat":"37.303173672","long":"126.97780817","imageIndex":0,"items":[{"name":"한국지엠장안바로서비스","tel":"031-271-3939","addr":"경기도 수원시 장안구 천천동 476-1번지","indutype":"자동차정비 유지 - 자동차정비","category":"car"}]},{"lat":"37.303038436","long":"126.97742472","imageIndex":0,"items":[{"name":"한라오토프라자","tel":"031-244-9689","addr":"경기도 수원시 장안구 천천동 475-11번지 1층","indutype":"자동차정비 유지 - 자동차정비","category":"car"}]},{"lat":"37.303037852","long":"126.97484177","imageIndex":0,"items":[{"name":"현대그린카서비스","tel":"031-271-3783","addr":"경기도 수원시 장안구 천천동 550-3번지","indutype":"자동차정비 유지 - 자동차정비","category":"car"}]}]