[{"lat":"37.280150407","long":"126.9694266","imageIndex":7,"items":[{"name":"(주)맥컴퍼니","tel":"031-253-5820","addr":"경기도 수원시 권선구 구운동 931-4번지 상진빌딩 601호","indutype":"건강식품 - 기타건강식품","category":"food"}]},{"lat":"37.282483451","long":"126.96731692","imageIndex":7,"items":[{"name":"(주)인정연 던킨도너츠","tel":"031-293-8802","addr":"경기도 수원시 권선구 구운동 218-1번지 농협하나로클럽","indutype":"음료식품 - 제과점","category":"food"},{"name":"배스킨라빈스","tel":"031-295-7737","addr":"경기도 수원시 권선구 구운동 218-1번지","indutype":"음료식품 - 제과점","category":"food"}]},{"lat":"37.284591886","long":"126.96742869","imageIndex":7,"items":[{"name":"(주)지에프(Global Food)","tel":"031-291-6633","addr":"경기도 수원시 권선구 구운동 234-4번지","indutype":"음료식품 - 농·축·수산품","category":"food"}]},{"lat":"37.279322128","long":"126.97187379","imageIndex":7,"items":[{"name":"EDP 탑동점","tel":"031-000-0000","addr":"경기도 수원시 권선구 구운동 943-6번지 103호","indutype":"음료식품 - 기타음료식품","category":"food"}]},{"lat":"37.276962104","long":"126.97453574","imageIndex":7,"items":[{"name":"강원산야초건강원","tel":"031-294-2228","addr":"경기도 수원시 권선구 구운동 518-3번지 1층","indutype":"건강식품 - 기타건강식품","category":"food"}]},{"lat":"37.280347881","long":"126.96686689","imageIndex":7,"items":[{"name":"군들농장","tel":"031-5358-2526","addr":"경기도 수원시 권선구 구운동 319-2번지","indutype":"음료식품 - 농·축·수산품","category":"food"}]},{"lat":"37.276845025","long":"126.97476129","imageIndex":7,"items":[{"name":"굿맘에프앤비","tel":"031-291-1490","addr":"경기도 수원시 권선구 구운동 518-5번지 102호","indutype":"음료식품 - 기타음료식품","category":"food"},{"name":"낙원떡집","tel":"031-293-2117","addr":"경기도 수원시 권선구 구운동 518-5번지 1층","indutype":"음료식품 - 제과점","category":"food"}]},{"lat":"37.276068946","long":"126.97011619","imageIndex":7,"items":[{"name":"기찬FS","tel":"031-294-1882","addr":"경기도 수원시 권선구 구운동 302-1번지 광명타운계단쪽상가 나동 102호","indutype":"음료식품 - 기타음료식품","category":"food"}]},{"lat":"37.275457082","long":"126.97328477","imageIndex":7,"items":[{"name":"김만두","tel":"031-294-1882","addr":"경기도 수원시 권선구 구운동 531-4번지 1층","indutype":"음료식품 - 기타음료식품","category":"food"}]},{"lat":"37.274870994","long":"126.97165012","imageIndex":7,"items":[{"name":"농산물직판장","tel":"031-292-9300","addr":"경기도 수원시 권선구 구운동 139-170번지","indutype":"음료식품 - 농·축·수산품","category":"food"}]},{"lat":"37.2760154","long":"126.972033","imageIndex":7,"items":[{"name":"누룽지에 반하다","tel":"","addr":"경기도 수원시 권선구 구운동 535-9번지 1층 102호","indutype":"음료식품 - 기타음료식품","category":"food"}]},{"lat":"37.279925497","long":"126.97067831","imageIndex":7,"items":[{"name":"누리유통","tel":"031-297-8224","addr":"경기도 수원시 권선구 구운동 935-9번지 동화펠리스 101호","indutype":"음료식품 - 기타음료식품","category":"food"}]},{"lat":"37.276682912","long":"126.97506579","imageIndex":7,"items":[{"name":"늘폼유통","tel":"031-227-1715","addr":"경기도 수원시 권선구 구운동 512번지","indutype":"음료식품 - 기타음료식품","category":"food"}]},{"lat":"37.276709348","long":"126.97264158","imageIndex":7,"items":[{"name":"담뱃잎가게","tel":"","addr":"경기도 수원시 권선구 구운동 522-4번지 1층","indutype":"음료식품 - 기타음료식품","category":"food"}]},{"lat":"37.283287259","long":"126.97430784","imageIndex":7,"items":[{"name":"대박집","tel":"031-292-4828","addr":"경기도 수원시 권선구 구운동 911-2번지","indutype":"음료식품 - 농·축·수산품","category":"food"}]},{"lat":"37.282349119","long":"126.97016985","imageIndex":7,"items":[{"name":"던킨도너츠서수원이마트점","tel":"031-297-8802","addr":"경기도 수원시 권선구 구운동 925번지 이마트 1층","indutype":"음료식품 - 제과점","category":"food"}]},{"lat":"37.278322439","long":"126.97364446","imageIndex":7,"items":[{"name":"동인유통","tel":"070-4649-1101","addr":"경기도 수원시 권선구 구운동 492-1번지 1층","indutype":"음료식품 - 미곡상","category":"food"}]},{"lat":"37.284429932","long":"126.96820684","imageIndex":7,"items":[{"name":"두배로축산물직판장","tel":"031-292-9289","addr":"경기도 수원시 권선구 구운동 219-5번지","indutype":"음료식품 - 정육점","category":"food"}]},{"lat":"37.277016695","long":"126.97683589","imageIndex":7,"items":[{"name":"로즐리케이크 Roselycake","tel":"","addr":"경기도 수원시 권선구 구운동 504-12번지","indutype":"음료식품 - 제과점","category":"food"}]},{"lat":"37.27701649","long":"126.97592259","imageIndex":7,"items":[{"name":"롯데칠성음료 금곡점","tel":"031-546-0556","addr":"경기도 수원시 권선구 구운동 497-15번지 1층","indutype":"음료식품 - 기타음료식품","category":"food"}]},{"lat":"37.280231638","long":"126.9699227","imageIndex":7,"items":[{"name":"명품","tel":"070-1111-1111","addr":"경기도 수원시 권선구 구운동 932-1번지 대영빌 101호","indutype":"음료식품 - 정육점","category":"food"}]},{"lat":"37.283206234","long":"126.97458978","imageIndex":7,"items":[{"name":"목우촌웰빙마을","tel":"031-292-9245","addr":"경기도 수원시 권선구 구운동 911-8번지","indutype":"음료식품 - 정육점","category":"food"}]},{"lat":"37.275573624","long":"126.97100714","imageIndex":7,"items":[{"name":"바하마브리즈 경기점","tel":"031-000-0000","addr":"경기도 수원시 권선구 구운동 538-7번지","indutype":"음료식품 - 기타음료식품","category":"food"}]},{"lat":"37.276176978","long":"126.96978916","imageIndex":7,"items":[{"name":"비와이제이 커뮤니케이션","tel":"031-548-2072","addr":"경기도 수원시 권선구 구운동 297번지 뉴환희빌 401호","indutype":"건강식품 - 홍삼제품","category":"food"}]},{"lat":"37.284675014","long":"126.97504029","imageIndex":7,"items":[{"name":"서울떡집","tel":"031-298-6001","addr":"경기도 수원시 권선구 구운동 890번지 엘디코오롱 상가 107호","indutype":"음료식품 - 제과점","category":"food"}]},{"lat":"37.276402785","long":"126.97181861","imageIndex":7,"items":[{"name":"서울우유","tel":"031-294-3433","addr":"경기도 수원시 권선구 구운동 536-7번지","indutype":"음료식품 - 기타음료식품","category":"food"},{"name":"서울우유 수원남부가정고객센터","tel":"031-235-4065","addr":"경기도 수원시 권선구 구운동 536-7번지","indutype":"음료식품 - 기타음료식품","category":"food"}]},{"lat":"37.27929541","long":"126.97309158","imageIndex":7,"items":[{"name":"소소한달콤함","tel":"031-000-0000","addr":"경기도 수원시 권선구 구운동 488-6번지 1층 1호","indutype":"음료식품 - 기타음료식품","category":"food"}]},{"lat":"37.282872958","long":"126.97502968","imageIndex":7,"items":[{"name":"스타K 점핑다이어트","tel":"","addr":"경기도 수원시 권선구 구운동 912-2번지 3층","indutype":"건강식품 - 기타건강식품","category":"food"}]},{"lat":"37.277178657","long":"126.9758436","imageIndex":7,"items":[{"name":"신세계키즈푸드","tel":"070-4319-2914","addr":"경기도 수원시 권선구 구운동 498-7번지 상가 1층","indutype":"음료식품 - 기타음료식품","category":"food"}]},{"lat":"37.285402522","long":"126.96648108","imageIndex":7,"items":[{"name":"싱싱포도원","tel":"070-7077-8147","addr":"경기도 수원시 권선구 구운동 838번지","indutype":"음료식품 - 농·축·수산품","category":"food"}]},{"lat":"37.28015128","long":"126.97267403","imageIndex":7,"items":[{"name":"쌍둥이(국가대표)","tel":"031-291-8187","addr":"경기도 수원시 권선구 구운동 471-7번지","indutype":"음료식품 - 정육점","category":"food"}]},{"lat":"37.279925763","long":"126.97167058","imageIndex":7,"items":[{"name":"아란유통","tel":"000-0000-0000","addr":"경기도 수원시 권선구 구운동 943-1번지","indutype":"음료식품 - 기타음료식품","category":"food"},{"name":"아란유통","tel":"031-278-7244","addr":"경기도 수원시 권선구 구운동 943-1번지 102호","indutype":"음료식품 - 기타음료식품","category":"food"}]},{"lat":"37.278709833","long":"126.97345263","imageIndex":7,"items":[{"name":"아르미","tel":"070-8210-9352","addr":"경기도 수원시 권선구 구운동 491-1번지","indutype":"건강식품 - 기타건강식품","category":"food"}]},{"lat":"37.27465457","long":"126.97098498","imageIndex":7,"items":[{"name":"아이스빠","tel":"031-293-5084","addr":"경기도 수원시 권선구 구운동 541-2번지 1층","indutype":"음료식품 - 기타음료식품","category":"food"}]},{"lat":"37.277871864","long":"126.97339658","imageIndex":7,"items":[{"name":"아이스빠","tel":"","addr":"경기도 수원시 권선구 구운동 493-16번지 103호","indutype":"음료식품 - 기타음료식품","category":"food"}]},{"lat":"37.282899853","long":"126.97445458","imageIndex":7,"items":[{"name":"어촌마을","tel":"031-227-8859","addr":"경기도 수원시 권선구 구운동 913-1번지","indutype":"음료식품 - 기타음료식품","category":"food"}]},{"lat":"37.275817232","long":"126.97225858","imageIndex":7,"items":[{"name":"영우유통","tel":"070-4245-2981","addr":"경기도 수원시 권선구 구운동 532번지","indutype":"음료식품 - 농·축·수산품","category":"food"}]},{"lat":"37.274708435","long":"126.97026336","imageIndex":7,"items":[{"name":"오대산농산","tel":"031-643-1090","addr":"경기도 수원시 권선구 구운동 309-3번지 1층","indutype":"음료식품 - 기타음료식품","category":"food"}]},{"lat":"37.275764151","long":"126.97631767","imageIndex":7,"items":[{"name":"오오점핑","tel":"070-8780-2150","addr":"경기도 수원시 권선구 구운동 139-151번지 2층","indutype":"건강식품 - 기타건강식품","category":"food"}]},{"lat":"37.276565757","long":"126.97497563","imageIndex":7,"items":[{"name":"온누리폐백","tel":"070-7801-4413","addr":"경기도 수원시 권선구 구운동 512-15번지","indutype":"음료식품 - 기타음료식품","category":"food"}]},{"lat":"37.279259863","long":"126.97512122","imageIndex":7,"items":[{"name":"우리농산물","tel":"031-111-1111","addr":"경기도 수원시 권선구 구운동 480-5번지","indutype":"음료식품 - 농·축·수산품","category":"food"}]},{"lat":"37.27640354","long":"126.97484038","imageIndex":7,"items":[{"name":"우리유통","tel":"031-8025-2978","addr":"경기도 수원시 권선구 구운동 514-12번지","indutype":"음료식품 - 기타음료식품","category":"food"}]},{"lat":"37.283988097","long":"126.96709068","imageIndex":7,"items":[{"name":"우주정육점","tel":"031-233-7945","addr":"경기도 수원시 권선구 구운동 235-1번지 B동","indutype":"음료식품 - 정육점","category":"food"}]},{"lat":"37.275627241","long":"126.96939477","imageIndex":7,"items":[{"name":"인컴퍼니","tel":"031-227-2602","addr":"경기도 수원시 권선구 구운동 971번지 오페리하우스 1406호","indutype":"음료식품 - 기타음료식품","category":"food"}]},{"lat":"37.282872762","long":"126.97420651","imageIndex":7,"items":[{"name":"일월건강원","tel":"031-297-2958","addr":"경기도 수원시 권선구 구운동 914-2번지","indutype":"건강식품 - 기타건강식품","category":"food"}]},{"lat":"37.275988708","long":"126.97336348","imageIndex":7,"items":[{"name":"자연떡집방앗간","tel":"031-111-1111","addr":"경기도 수원시 권선구 구운동 525-2번지 1층","indutype":"음료식품 - 제과점","category":"food"}]},{"lat":"37.276926477","long":"126.97631726","imageIndex":7,"items":[{"name":"장수부건강원","tel":"031-297-8788","addr":"경기도 수원시 권선구 구운동 497-6번지 1층","indutype":"건강식품 - 기타건강식품","category":"food"}]},{"lat":"37.27907021","long":"126.97331718","imageIndex":7,"items":[{"name":"장안대리점","tel":"031-238-3588","addr":"경기도 수원시 권선구 구운동 490번지","indutype":"음료식품 - 기타음료식품","category":"food"}]},{"lat":"37.277898692","long":"126.97259601","imageIndex":7,"items":[{"name":"전통식품곳간","tel":"031-294-1782","addr":"경기도 수원시 권선구 구운동 947-10번지 1층 101호","indutype":"음료식품 - 기타음료식품","category":"food"}]},{"lat":"37.281818072","long":"126.97225615","imageIndex":7,"items":[{"name":"정관장홍삼(구운점)","tel":"031-292-2304","addr":"경기도 수원시 권선구 구운동 921-4번지 민승빌딩 101호","indutype":"건강식품 - 홍삼제품","category":"food"},{"name":"정관장홍삼(구운점)","tel":"031-292-2304","addr":"경기도 수원시 권선구 구운동 921-4번지 민승빌딩 101호","indutype":"건강식품 - 홍삼제품","category":"food"}]},{"lat":"37.282016649","long":"126.97364303","imageIndex":7,"items":[{"name":"주식회사 보카프","tel":"031-298-2535","addr":"경기도 수원시 권선구 구운동 919-6번지 2층","indutype":"음료식품 - 기타음료식품","category":"food"}]},{"lat":"37.279294978","long":"126.97142277","imageIndex":7,"items":[{"name":"주식회사신토불이","tel":"031-292-2364","addr":"경기도 수원시 권선구 구운동 944-7번지 404호","indutype":"음료식품 - 농·축·수산품","category":"food"}]},{"lat":"37.276899203","long":"126.97525739","imageIndex":7,"items":[{"name":"치악산건강원","tel":"031-293-4546","addr":"경기도 수원시 권선구 구운동 497-14번지 1층","indutype":"건강식품 - 기타건강식품","category":"food"}]},{"lat":"37.277403413","long":"126.97373502","imageIndex":7,"items":[{"name":"코리아타바코","tel":"02-1111-1111","addr":"경기도 수원시 권선구 구운동 519-3번지","indutype":"음료식품 - 기타음료식품","category":"food"}]},{"lat":"37.280655381","long":"126.97086969","imageIndex":7,"items":[{"name":"토석한우","tel":"031-5323-8815","addr":"경기도 수원시 권선구 구운동 934-3번지","indutype":"음료식품 - 정육점","category":"food"}]},{"lat":"37.276989433","long":"126.97580985","imageIndex":7,"items":[{"name":"튜나 스토어","tel":"031-306-4067","addr":"경기도 수원시 권선구 구운동 497-3번지 1층","indutype":"음료식품 - 농·축·수산품","category":"food"}]},{"lat":"37.28331433","long":"126.97447698","imageIndex":7,"items":[{"name":"파리바게뜨(일월점)","tel":"031-227-2367","addr":"경기도 수원시 권선구 구운동 911-3번지 1층","indutype":"음료식품 - 제과점","category":"food"}]},{"lat":"37.275349096","long":"126.97383729","imageIndex":7,"items":[{"name":"파리바게트탑동삼성점","tel":"031-294-0003","addr":"경기도 수원시 권선구 구운동 529-2번지","indutype":"음료식품 - 제과점","category":"food"}]},{"lat":"37.275763488","long":"126.97351015","imageIndex":7,"items":[{"name":"풍성","tel":"031-296-4810","addr":"경기도 수원시 권선구 구운동 526-8번지 1층","indutype":"음료식품 - 정육점","category":"food"}]},{"lat":"37.277844748","long":"126.97305832","imageIndex":7,"items":[{"name":"하나로수산","tel":"031-243-3026","addr":"경기도 수원시 권선구 구운동 947-8번지","indutype":"음료식품 - 농·축·수산품","category":"food"}]},{"lat":"37.283016622","long":"126.97297735","imageIndex":7,"items":[{"name":"한진육가공","tel":"031-291-5775","addr":"경기도 수원시 권선구 구운동 908-2번지","indutype":"음료식품 - 정육점","category":"food"}]},{"lat":"37.283124906","long":"126.97362005","imageIndex":7,"items":[{"name":"해랑","tel":"031-291-5402","addr":"경기도 수원시 권선구 구운동 907-11번지","indutype":"음료식품 - 농·축·수산품","category":"food"}]},{"lat":"37.277898238","long":"126.97087086","imageIndex":7,"items":[{"name":"호매실장애인보호작업장","tel":"031-893-2192","addr":"경기도 수원시 권선구 구운동 953-8번지 유정빌딩 1층 102호","indutype":"음료식품 - 제과점","category":"food"}]},{"lat":"37.277349514","long":"126.97440029","imageIndex":7,"items":[{"name":"황소정육점","tel":"031-298-2015","addr":"경기도 수원시 권선구 구운동 496-6번지","indutype":"음료식품 - 정육점","category":"food"}]},{"lat":"37.27773702","long":"126.97467076","imageIndex":7,"items":[{"name":"황칠건강원","tel":"031-293-1563","addr":"경기도 수원시 권선구 구운동 495-9번지","indutype":"건강식품 - 기타건강식품","category":"food"}]}]