[{"lat":"37.685336341","long":"126.7201178","imageIndex":8,"items":[{"name":"가좌동물병원","tel":"031-922-5797","addr":"경기도 고양시 일산서구 가좌동 308-1번지","indutype":"기타의료기관 - 동물병원","category":"medical"}]},{"lat":"37.69095943","long":"126.72057263","imageIndex":8,"items":[{"name":"가좌엘리트치과의원","tel":"031-925-1117","addr":"경기도 고양시 일산서구 가좌동","indutype":"의원 - 치과의원","category":"medical"},{"name":"독일키즈의원","tel":"031-753-0509","addr":"경기도 고양시 일산서구 가좌동 1087번지","indutype":"의원 - 의원","category":"medical"}]},{"lat":"37.684927909","long":"126.72263611","imageIndex":8,"items":[{"name":"가좌요요치과의원","tel":"031-918-2875","addr":"경기도 고양시 일산서구 가좌동 344-6번지","indutype":"의원 - 치과의원","category":"medical"}]},{"lat":"37.687261685","long":"126.71898811","imageIndex":8,"items":[{"name":"가좌우리의원","tel":"031-921-3215","addr":"경기도 고양시 일산서구 가좌동 405-6번지","indutype":"의원 - 의원","category":"medical"},{"name":"밝은온누리약국","tel":"031-925-7505","addr":"경기도 고양시 일산서구 가좌동 405-6번지","indutype":"약국 - 약국","category":"medical"}]},{"lat":"37.687044609","long":"126.71863749","imageIndex":8,"items":[{"name":"드림이비인후과의원","tel":"031-923-2277","addr":"경기도 고양시 일산서구 가좌동 400-2번지","indutype":"의원 - 의원","category":"medical"}]},{"lat":"37.687072976","long":"126.7191929","imageIndex":8,"items":[{"name":"벳케어동물병원","tel":"031-921-0117","addr":"경기도 고양시 일산서구 가좌동 390-8번지","indutype":"기타의료기관 - 동물병원","category":"medical"}]},{"lat":"37.685651103","long":"126.71987853","imageIndex":8,"items":[{"name":"우림한의원","tel":"031-922-8733","addr":"경기도 고양시 일산서구 가좌동 392-22번지","indutype":"의원 - 한의원","category":"medical"}]},{"lat":"37.687378426","long":"126.71882895","imageIndex":8,"items":[{"name":"조은의원","tel":"031-922-9985","addr":"경기도 고양시 일산서구 가좌동 405-10번지","indutype":"의원 - 의원","category":"medical"}]}]