[{"lat":"37.955214913","long":"127.19011058","imageIndex":4,"items":[{"name":"맛고을","tel":"031-533-4832","addr":"경기도 포천시 신북면 삼성당리 517번지","indutype":"일반휴게음식 - 일반한식","category":"restaurant"}]},{"lat":"37.963264113","long":"127.19324898","imageIndex":4,"items":[{"name":"수향중화요리","tel":"532-3457","addr":"경기도 포천시 신북면 삼성당리 470-3번지","indutype":"음식 - 중식","category":"restaurant"},{"name":"수향중화요리","tel":"031-532-9282","addr":"경기도 포천시 신북면 삼성당리 470-3번지 1층","indutype":"일반휴게음식 - 중국식","category":"restaurant"},{"name":"엄마 밥 한식부페","tel":"031-533-4000","addr":"경기도 포천시 신북면 삼성당리 470-3번지","indutype":"일반휴게음식 - 일반한식","category":"restaurant"}]},{"lat":"37.949099191","long":"127.18913937","imageIndex":4,"items":[{"name":"온수골추어탕","tel":"531-8610","addr":"경기도 포천시 신북면 삼성당리 604-11번지","indutype":"음식 - 한식","category":"restaurant"},{"name":"온수골추어탕순대국","tel":"031-531-8610","addr":"경기도 포천시 신북면 삼성당리 604-11번지 1층","indutype":"일반휴게음식 - 일반한식","category":"restaurant"}]},{"lat":"37.963355069","long":"127.19271438","imageIndex":4,"items":[{"name":"청심가마솥","tel":"031-534-2830","addr":"경기도 포천시 신북면 삼성당리 473-10번지","indutype":"일반휴게음식 - 일반한식","category":"restaurant"},{"name":"청심가마솥","tel":"534-2830","addr":"경기도 포천시 신북면 삼성당리 473-10번지","indutype":"음식 - 한식","category":"restaurant"}]},{"lat":"37.948738391","long":"127.18941151","imageIndex":4,"items":[{"name":"한옥","tel":"533-8836","addr":"경기도 포천시 신북면 삼성당리 604-5번지","indutype":"음식 - 한식","category":"restaurant"}]}]