[{"lat":"37.653799213","long":"126.77706767","imageIndex":13,"items":[{"name":"(주)에스바디워크필라테스(마두점)","tel":"031-902-0709","addr":"경기도 고양시 일산동구 마두동 798-1번지","indutype":"레저업소 - 헬스클럽","category":"leisure"},{"name":"이지핏 스튜디오","tel":"031-916-1405","addr":"경기도 고양시 일산동구 마두동 798-1번지","indutype":"레저업소 - 헬스클럽","category":"leisure"}]},{"lat":"37.651802295","long":"126.77876215","imageIndex":13,"items":[{"name":"Best baseball 마두센터","tel":"031-908-1476","addr":"경기도 고양시 일산동구 마두동 802번지","indutype":"레저업소 - 기타레져업소","category":"leisure"},{"name":"아이두사고력","tel":"031-908-3330","addr":"경기도 고양시 일산동구 마두동 802번지","indutype":"레저업소 - 기타레져업소","category":"leisure"},{"name":"엠케이볼링센타","tel":"00-1666-0913","addr":"경기도 고양시 일산동구 마두동 802번지","indutype":"레저업소 - 볼 링 장","category":"leisure"},{"name":"퀸즈필라테스","tel":"031-903-1002","addr":"경기도 고양시 일산동구 마두동 802번지","indutype":"레저업소 - 헬스클럽","category":"leisure"}]},{"lat":"37.657045168","long":"126.78803909","imageIndex":13,"items":[{"name":"Body rock","tel":"031-907-4377","addr":"경기도 고양시 일산동구 마두동 751번지","indutype":"레저업소 - 헬스클럽","category":"leisure"}]},{"lat":"37.65377331","long":"126.77765702","imageIndex":13,"items":[{"name":"MBC 당구클럽","tel":"031-905-3541","addr":"경기도 고양시 일산동구 마두동 799-2번지","indutype":"레저업소 - 당 구 장","category":"leisure"},{"name":"하늘노래연습장","tel":"031-903-0021","addr":"경기도 고양시 일산동구 마두동","indutype":"레저업소 - 노 래 방","category":"leisure"}]},{"lat":"37.654739582","long":"126.78362617","imageIndex":13,"items":[{"name":"R steam코딩영재교육센터","tel":"070-4120-7228","addr":"경기도 고양시 일산동구 마두동 759번지","indutype":"레저업소 - 기타레져업소","category":"leisure"},{"name":"백마특공무술","tel":"031-903-3932","addr":"경기도 고양시 일산동구 마두동","indutype":"레저업소 - 헬스클럽","category":"leisure"},{"name":"킴스골프","tel":"031-903-1003","addr":"경기도 고양시 일산동구 마두동 759번지","indutype":"레저업소 - 골프연습장","category":"leisure"}]},{"lat":"37.654544618","long":"126.79032406","imageIndex":13,"items":[{"name":"The fit 한 초선#","tel":"","addr":"경기도 고양시 일산동구 마두동 730번지","indutype":"레저업소 - 헬스클럽","category":"leisure"},{"name":"아이센스리그PC방","tel":"070-8993-0934","addr":"경기도 고양시 일산동구 마두동 730번지","indutype":"레저업소 - 기타레져업소","category":"leisure"}]},{"lat":"37.655155102","long":"126.7891211","imageIndex":13,"items":[{"name":"Zen PC방 마두점","tel":"031-906-1392","addr":"경기도 고양시 일산동구 마두동 737번지","indutype":"레저업소 - 기타레져업소","category":"leisure"},{"name":"밀레니엄노래연습장","tel":"031-903-1988","addr":"경기도 고양시 일산동구 마두동 737번지","indutype":"레저업소 - 노 래 방","category":"leisure"}]},{"lat":"37.655912772","long":"126.78959489","imageIndex":13,"items":[{"name":"고양시 마두청소년수련관","tel":"031-995-9528","addr":"경기도 고양시 일산동구 마두동 726번지","indutype":"레저업소 - 기타레져업소","category":"leisure"},{"name":"고양시 마두청소년수련관","tel":"031-995-9528","addr":"경기도 고양시 일산동구 마두동 726번지","indutype":"레저업소 - 기타레져업소","category":"leisure"}]},{"lat":"37.65101835","long":"126.77870785","imageIndex":13,"items":[{"name":"골프존 아카데미(마두점)","tel":"031-908-0872","addr":"경기도 고양시 일산동구 마두동 805-1번지","indutype":"레저업소 - 골프연습장","category":"leisure"},{"name":"나이스 실내테니스장","tel":"031-906-6666","addr":"경기도 고양시 일산동구 마두동 805-1번지","indutype":"레저업소 - 테니스장","category":"leisure"},{"name":"마두당구장","tel":"","addr":"경기도 고양시 일산동구 마두동 805-1번지","indutype":"레저업소 - 당 구 장","category":"leisure"},{"name":"샴푸노래방","tel":"031-901-7660","addr":"경기도 고양시 일산동구 마두동 805-1번지","indutype":"레저업소 - 노 래 방","category":"leisure"},{"name":"와우 PC방","tel":"070-4005-0418","addr":"경기도 고양시 일산동구 마두동 805-1번지","indutype":"레저업소 - 기타레져업소","category":"leisure"},{"name":"흥날터 노래연습장","tel":"031-904-2078","addr":"경기도 고양시 일산동구 마두동 805-1번지","indutype":"레저업소 - 노 래 방","category":"leisure"}]},{"lat":"37.654799764","long":"126.78694633","imageIndex":13,"items":[{"name":"권민경 잭니클라우스 골프아카데미","tel":"02-456-1214","addr":"경기도 고양시 일산동구 마두동 739번지 백마마을2단지아파트","indutype":"레저업소 - 골프연습장","category":"leisure"}]},{"lat":"37.654438267","long":"126.77673711","imageIndex":13,"items":[{"name":"노블스포렉스","tel":"031-900-5550","addr":"경기도 고양시 일산동구 마두동 797-2번지","indutype":"레저업소 - 수 영 장","category":"leisure"}]},{"lat":"37.654409575","long":"126.79038111","imageIndex":13,"items":[{"name":"대박낚시터","tel":"070-4208-8422","addr":"경기도 고양시 일산동구 마두동 730-1번지","indutype":"레저업소 - 기타레져업소","category":"leisure"}]},{"lat":"37.662828209","long":"126.78739908","imageIndex":13,"items":[{"name":"라비다 줌바피트니스","tel":"031-814-5486","addr":"경기도 고양시 일산동구 마두동 882-7번지","indutype":"레저업소 - 헬스클럽","category":"leisure"}]},{"lat":"37.664660562","long":"126.78434502","imageIndex":13,"items":[{"name":"라임 당구장","tel":"031-111-1111","addr":"경기도 고양시 일산동구 마두동 857번지","indutype":"레저업소 - 당 구 장","category":"leisure"}]},{"lat":"37.651103913","long":"126.78107591","imageIndex":13,"items":[{"name":"머슬앤핏","tel":"031-966-1211","addr":"경기도 고양시 일산동구 마두동 789번지","indutype":"레저업소 - 헬스클럽","category":"leisure"}]},{"lat":"37.653160288","long":"126.77746623","imageIndex":13,"items":[{"name":"바디홀릭 기구필라테스 마두역점","tel":"","addr":"경기도 고양시 일산동구 마두동 798-5번지","indutype":"레저업소 - 헬스클럽","category":"leisure"},{"name":"월드노래연습장","tel":"031-901-7775","addr":"경기도 고양시 일산동구 마두동 798-5번지","indutype":"레저업소 - 노 래 방","category":"leisure"}]},{"lat":"37.6560185","long":"126.79328895","imageIndex":13,"items":[{"name":"백마골프클리닉","tel":"031-902-0959","addr":"경기도 고양시 일산동구 마두동 734번지","indutype":"레저업소 - 골프연습장","category":"leisure"}]},{"lat":"37.657127635","long":"126.78879813","imageIndex":13,"items":[{"name":"백마복싱체육관","tel":"031-904-5778","addr":"경기도 고양시 일산동구 마두동 723-3번지","indutype":"레저업소 - 헬스클럽","category":"leisure"}]},{"lat":"37.664516618","long":"126.78445878","imageIndex":13,"items":[{"name":"빛나리노래연습장","tel":"031-903-0068","addr":"경기도 고양시 일산동구 마두동 857-1번지","indutype":"레저업소 - 노 래 방","category":"leisure"}]},{"lat":"37.653794601","long":"126.78418422","imageIndex":13,"items":[{"name":"세븐짐","tel":"031-906-7030","addr":"경기도 고양시 일산동구 마두동 781-1번지","indutype":"레저업소 - 헬스클럽","category":"leisure"},{"name":"클럽골프존","tel":"031-906-7030","addr":"경기도 고양시 일산동구 마두동 781-1번지","indutype":"레저업소 - 골프연습장","category":"leisure"}]},{"lat":"37.657855187","long":"126.78757211","imageIndex":13,"items":[{"name":"쇼타임PC방 마두점","tel":"02-2222-2222","addr":"경기도 고양시 일산동구 마두동 753-2번지","indutype":"레저업소 - 기타레져업소","category":"leisure"}]},{"lat":"37.666155968","long":"126.78423863","imageIndex":13,"items":[{"name":"스타 노래연습장","tel":"","addr":"경기도 고양시 일산동구 마두동 845-5번지","indutype":"레저업소 - 노 래 방","category":"leisure"}]},{"lat":"37.651298337","long":"126.77906962","imageIndex":13,"items":[{"name":"아리오조 노래연습장","tel":"031-906-7601","addr":"경기도 고양시 일산동구 마두동 803번지","indutype":"레저업소 - 노 래 방","category":"leisure"}]},{"lat":"37.65673915","long":"126.78820996","imageIndex":13,"items":[{"name":"엄지PC방","tel":"031-906-1392","addr":"경기도 고양시 일산동구 마두동 751-2번지","indutype":"레저업소 - 기타레져업소","category":"leisure"}]},{"lat":"37.654265564","long":"126.79046084","imageIndex":13,"items":[{"name":"에이플러스당구장","tel":"031-904-7552","addr":"경기도 고양시 일산동구 마두동 730-2번지","indutype":"레저업소 - 당 구 장","category":"leisure"}]},{"lat":"37.654300151","long":"126.78965616","imageIndex":13,"items":[{"name":"에이플러스짐","tel":"031-906-9679","addr":"경기도 고양시 일산동구 마두동 736번지","indutype":"레저업소 - 헬스클럽","category":"leisure"},{"name":"엘리나 필라테스","tel":"031-901-2299","addr":"경기도 고양시 일산동구 마두동 736번지","indutype":"레저업소 - 헬스클럽","category":"leisure"}]},{"lat":"37.657325259","long":"126.79348926","imageIndex":13,"items":[{"name":"에이플러스짐","tel":"031-906-9682","addr":"경기도 고양시 일산동구 마두동 745번지","indutype":"레저업소 - 헬스클럽","category":"leisure"}]},{"lat":"37.651657409","long":"126.77837731","imageIndex":13,"items":[{"name":"올레스크린골프","tel":"031-904-1230","addr":"경기도 고양시 일산동구 마두동 802-1번지","indutype":"레저업소 - 스크린골프","category":"leisure"}]},{"lat":"37.66074566","long":"126.78667978","imageIndex":13,"items":[{"name":"인디고PC방 마두점","tel":"","addr":"경기도 고양시 일산동구 마두동 908-3번지","indutype":"레저업소 - 기타레져업소","category":"leisure"}]},{"lat":"37.656992635","long":"126.78887785","imageIndex":13,"items":[{"name":"인디야핫요가","tel":"031-932-9330","addr":"경기도 고양시 일산동구 마두동 723-4번지","indutype":"레저업소 - 헬스클럽","category":"leisure"}]},{"lat":"37.661709502","long":"126.78657499","imageIndex":13,"items":[{"name":"일산SK클라이밍","tel":"031-906-8986","addr":"경기도 고양시 일산동구 마두동 903-2번지","indutype":"레저업소 - 기타레져업소","category":"leisure"}]},{"lat":"37.655632016","long":"126.78879109","imageIndex":13,"items":[{"name":"제이엘(J.L)필라테스","tel":"031-932-1903","addr":"경기도 고양시 일산동구 마두동 738번지","indutype":"레저업소 - 헬스클럽","category":"leisure"}]},{"lat":"37.653466225","long":"126.77726133","imageIndex":13,"items":[{"name":"커브스 마두클럽","tel":"031-907-3090","addr":"경기도 고양시 일산동구 마두동 798-3번지","indutype":"레저업소 - 헬스클럽","category":"leisure"},{"name":"코리아비제이제이일산(KOREA BJJ)","tel":"031-111-1111","addr":"경기도 고양시 일산동구 마두동 798-3번지","indutype":"레저업소 - 헬스클럽","category":"leisure"}]},{"lat":"37.653739344","long":"126.78353846","imageIndex":13,"items":[{"name":"케이투 노래연습장","tel":"031-901-2317","addr":"경기도 고양시 일산동구 마두동 785번지","indutype":"레저업소 - 노 래 방","category":"leisure"},{"name":"플러스당구장","tel":"031-901-6826","addr":"경기도 고양시 일산동구 마두동 785번지","indutype":"레저업소 - 당 구 장","category":"leisure"}]},{"lat":"37.654133262","long":"126.77742929","imageIndex":13,"items":[{"name":"크라토스 짐","tel":"031-907-2009","addr":"경기도 고양시 일산동구 마두동 799번지","indutype":"레저업소 - 헬스클럽","category":"leisure"}]},{"lat":"37.658405684","long":"126.78806917","imageIndex":13,"items":[{"name":"탑당구클럽","tel":"070-4208-3949","addr":"경기도 고양시 일산동구 마두동 721번지","indutype":"레저업소 - 당 구 장","category":"leisure"}]},{"lat":"37.661159603","long":"126.78640659","imageIndex":13,"items":[{"name":"팡팡 노래연습장","tel":"031-903-9543","addr":"경기도 고양시 일산동구 마두동 908번지","indutype":"레저업소 - 노 래 방","category":"leisure"}]},{"lat":"37.651019404","long":"126.7792631","imageIndex":13,"items":[{"name":"팡팡 노래연습장","tel":"","addr":"경기도 고양시 일산동구 마두동 804번지","indutype":"레저업소 - 노 래 방","category":"leisure"}]},{"lat":"37.654714143","long":"126.78940567","imageIndex":13,"items":[{"name":"프리존PC","tel":"","addr":"경기도 고양시 일산동구 마두동 737-3번지","indutype":"레저업소 - 기타레져업소","category":"leisure"}]},{"lat":"37.657243132","long":"126.78790253","imageIndex":13,"items":[{"name":"피크바이짐 일산마두점","tel":"031-4998-0370","addr":"경기도 고양시 일산동구 마두동 752번지","indutype":"레저업소 - 헬스클럽","category":"leisure"}]},{"lat":"37.652603204","long":"126.77826114","imageIndex":13,"items":[{"name":"헬로방방마두역점","tel":"031-901-7942","addr":"경기도 고양시 일산동구 마두동 801번지","indutype":"레저업소 - 기타레져업소","category":"leisure"}]}]