[{"lat":"37.038542248","long":"127.1314451","imageIndex":17,"items":[{"name":"(주) 백봉중기산업","tel":"031-653-8981","addr":"경기도 안성시 원곡면 외가천리 114-4번지","indutype":"기타 - 기계공구","category":"other"},{"name":"루마건물윈도우필름","tel":"031-787-9373","addr":"경기도 안성시 원곡면 외가천리 114-4번지","indutype":"건축자재 - 기타건축자재","category":"other"}]},{"lat":"37.03546033","long":"127.14735509","imageIndex":17,"items":[{"name":"(주)다산중공업/원격지","tel":"031-618-0053","addr":"경기도 안성시 원곡면 외가천리 21번지","indutype":"기타 - 기타 전문점","category":"other"}]},{"lat":"37.037047117","long":"127.13085812","imageIndex":17,"items":[{"name":"(주)제이에스건설","tel":"031-691-0830","addr":"경기도 안성시 원곡면 외가천리 228-12","indutype":"회원제형태 - 레져업소","category":"other"},{"name":"세븐일레븐안성원곡오투점","tel":"031-1577-0711","addr":"경기도 안성시 원곡면 외가천리 228-12번지 원곡제일오투그란데 101호","indutype":"유통업 영리 - 편 의 점","category":"other"},{"name":"유니유니","tel":"","addr":"경기도 안성시 원곡면 외가천리 228-12번지 원곡제일오투그란데 309동 12층 2호","indutype":"의류 - 아동의류","category":"other"}]},{"lat":"37.041074474","long":"127.13122457","imageIndex":17,"items":[{"name":"GS25안성원곡본점","tel":"02-2006-2485","addr":"경기도 안성시 원곡면 외가천리 193-1번지","indutype":"유통업 영리 - 편 의 점","category":"other"},{"name":"가람인쇄","tel":"031-653-2870","addr":"경기도 안성시 원곡면 외가천리 193-1번지","indutype":"서적문구 - 출판 및 인쇄물","category":"other"},{"name":"아로마스퀘어","tel":"031-647-0953","addr":"경기도 안성시 원곡면 외가천리 193-1번지 1층 101호","indutype":"신변잡화 - 기타잡화","category":"other"}]},{"lat":"37.036988431","long":"127.12672178","imageIndex":17,"items":[{"name":"GS25원곡외가천점","tel":"","addr":"경기도 안성시 원곡면 외가천리 303-14번지","indutype":"유통업 영리 - 편 의 점","category":"other"}]},{"lat":"37.037130175","long":"127.12902617","imageIndex":17,"items":[{"name":"GS25원곡중앙점","tel":"","addr":"경기도 안성시 원곡면 외가천리 231-4번지","indutype":"유통업 영리 - 편 의 점","category":"other"}]},{"lat":"37.037214247","long":"127.12619388","imageIndex":17,"items":[{"name":"JB케미칼","tel":"031-655-7004","addr":"경기도 안성시 원곡면 외가천리 303-6번지 나동 5호","indutype":"건축자재 - 페인트","category":"other"}]},{"lat":"37.034239757","long":"127.12713318","imageIndex":17,"items":[{"name":"고드름모빌","tel":"031-654-3559","addr":"경기도 안성시 원곡면 외가천리 249-1번지 103호","indutype":"전기제품 - 기타전기제품","category":"other"}]},{"lat":"37.036132305","long":"127.12683279","imageIndex":17,"items":[{"name":"공인중개사 노영석사무소","tel":"031-653-1875","addr":"경기도 안성시 원곡면 외가천리 256-5번지 101호","indutype":"용역 서비스 - 부동산 중개·임대","category":"other"}]},{"lat":"37.038236458","long":"127.13091631","imageIndex":17,"items":[{"name":"광역가설","tel":"031-654-4932","addr":"경기도 안성시 원곡면 외가천리 114-18번지","indutype":"건축자재 - 기타건축자재","category":"other"}]},{"lat":"37.038435466","long":"127.13019729","imageIndex":17,"items":[{"name":"광역가설자원(주)","tel":"031-654-4922","addr":"경기도 안성시 원곡면 외가천리 225번지","indutype":"건축자재 - 기타건축자재","category":"other"}]},{"lat":"37.038463865","long":"127.12891598","imageIndex":17,"items":[{"name":"끌리네","tel":"031-653-6062","addr":"경기도 안성시 원곡면 외가천리 223-10번지","indutype":"의류 - 정장","category":"other"}]},{"lat":"37.040876623","long":"127.13896882","imageIndex":17,"items":[{"name":"대원상사","tel":"031-692-6060","addr":"경기도 안성시 원곡면 외가천리 145-9","indutype":"건축자재 - 목재·석재·철물","category":"other"}]},{"lat":"37.036014932","long":"127.12705739","imageIndex":17,"items":[{"name":"동서가구송탄점","tel":"031-656-6773","addr":"경기도 안성시 원곡면 외가천리 256-3번지","indutype":"가구 - 일반가구","category":"other"}]},{"lat":"37.041127121","long":"127.13252854","imageIndex":17,"items":[{"name":"디유엔지니어링","tel":"031-657-3671","addr":"경기도 안성시 원곡면 외가천리 189번지","indutype":"용역 서비스 - 기타용역서비스","category":"other"}]},{"lat":"37.035268524","long":"127.12564","imageIndex":17,"items":[{"name":"명진칼라강판","tel":"031-651-8550","addr":"경기도 안성시 원곡면 외가천리 318-13번지","indutype":"건축자재 - 기타건축자재","category":"other"}]},{"lat":"37.040490788","long":"127.1293577","imageIndex":17,"items":[{"name":"미니스톱안성원곡점","tel":"031-1577-9621","addr":"경기도 안성시 원곡면 외가천리 200-2번지","indutype":"유통업 영리 - 편 의 점","category":"other"},{"name":"우딘도어몰딩","tel":"031-655-1547","addr":"경기도 안성시 원곡면 외가천리 200-2번지","indutype":"건축자재 - 기타건축자재","category":"other"}]},{"lat":"37.039740575","long":"127.13152581","imageIndex":17,"items":[{"name":"미성철강주식회사","tel":"031-618-3816","addr":"경기도 안성시 원곡면 외가천리 210-6번지 외3필지(217-2,210-7,217-3)","indutype":"건축자재 - 기타건축자재","category":"other"}]},{"lat":"37.039021577","long":"127.12980486","imageIndex":17,"items":[{"name":"서안성농업협동조합원곡지점","tel":"031-656-4275","addr":"경기도 안성시 원곡면 외가천리 221-5번지","indutype":"농업 - 농기계","category":"other"},{"name":"서안성농협하나로마트","tel":"031-655-8950","addr":"경기도 안성시 원곡면 외가천리 221-5번지","indutype":"유통업 비영리 - 농,축협 직영매장","category":"other"},{"name":"서안성농협협동조합원곡지점(경제사업장)","tel":"031-656-4275","addr":"경기도 안성시 원곡면 외가천리 221-5번지","indutype":"농업 - 비료,사료,종자","category":"other"}]},{"lat":"37.041737177","long":"127.13494627","imageIndex":17,"items":[{"name":"세븐일레븐안성원곡본점","tel":"031-1577-0711","addr":"경기도 안성시 원곡면 외가천리 161-3번지","indutype":"유통업 영리 - 편 의 점","category":"other"}]},{"lat":"37.034986848","long":"127.12788744","imageIndex":17,"items":[{"name":"세븐일레븐안성원곡삼거리점","tel":"031-1577-0711","addr":"경기도 안성시 원곡면 외가천리 252-1번지 2동 1층 101호(세윤상가)","indutype":"유통업 영리 - 편 의 점","category":"other"}]},{"lat":"37.038878914","long":"127.12838838","imageIndex":17,"items":[{"name":"세븐일레븐안성원곡센터점","tel":"031-1577-0711","addr":"경기도 안성시 원곡면 외가천리 265-12번지 1층","indutype":"유통업 영리 - 편 의 점","category":"other"},{"name":"태영장식","tel":"031-654-3339","addr":"경기도 안성시 원곡면 외가천리 265-12번지 1층 2호","indutype":"건축자재 - 인테리어전문","category":"other"}]},{"lat":"37.040849658","long":"127.13080829","imageIndex":17,"items":[{"name":"세븐일레븐안성원곡타운점","tel":"031-1577-0711","addr":"경기도 안성시 원곡면 외가천리 196-3번지 1층","indutype":"유통업 영리 - 편 의 점","category":"other"}]},{"lat":"37.03537737","long":"127.12494332","imageIndex":17,"items":[{"name":"신성발전기","tel":"031-657-9077","addr":"경기도 안성시 원곡면 외가천리 318-6번지","indutype":"전기제품 - 기타전기제품","category":"other"}]},{"lat":"37.039181648","long":"127.13177214","imageIndex":17,"items":[{"name":"신성시스템","tel":"031-653-3486","addr":"경기도 안성시 원곡면 외가천리 215번지 1층","indutype":"용역 서비스 - 기타용역서비스","category":"other"}]},{"lat":"37.042402542","long":"127.13621761","imageIndex":17,"items":[{"name":"용성종합주방","tel":"031-691-1052","addr":"경기도 안성시 원곡면 외가천리 146-31번지","indutype":"신변잡화 - 기타잡화","category":"other"}]},{"lat":"37.041487545","long":"127.13252915","imageIndex":17,"items":[{"name":"우리상사","tel":"031-668-5477","addr":"경기도 안성시 원곡면 외가천리 189-9번지 1층","indutype":"건축자재 - 페인트","category":"other"}]},{"lat":"37.03857167","long":"127.12921963","imageIndex":17,"items":[{"name":"원곡우체국","tel":"031-653-1300","addr":"경기도 안성시 원곡면 외가천리 224-5번지","indutype":"용역 서비스 - 공공요금대행서비스/소","category":"other"}]},{"lat":"37.041765628","long":"127.13366491","imageIndex":17,"items":[{"name":"이건설공구","tel":"031-656-2094","addr":"경기도 안성시 원곡면 외가천리 162-2번지","indutype":"기타 - 기계공구","category":"other"},{"name":"이공구","tel":"031-656-2094","addr":"경기도 안성시 원곡면 외가천리 162-2번지 1층","indutype":"기타 - 기계공구","category":"other"}]},{"lat":"37.042350273","long":"127.13461012","imageIndex":17,"items":[{"name":"자연수목농원","tel":"031-656-9538","addr":"경기도 안성시 원곡면 외가천리 146-23","indutype":"문화.취미 - 화원","category":"other"}]},{"lat":"37.03679213","long":"127.12485567","imageIndex":17,"items":[{"name":"제일공방","tel":"031-651-1008","addr":"경기도 안성시 원곡면 외가천리 307-9번지","indutype":"문화.취미 - 문화취미기타","category":"other"}]},{"lat":"37.034992583","long":"127.14669108","imageIndex":17,"items":[{"name":"주식회사 명보에너지","tel":"02-1599-0689","addr":"경기도 안성시 원곡면 외가천리 12-1번지 B동 2층","indutype":"건축자재 - 보일러·펌프·샷시","category":"other"}]},{"lat":"37.038825052","long":"127.12819721","imageIndex":17,"items":[{"name":"주식회사 티엘디앤씨","tel":"031-692-0018","addr":"경기도 안성시 원곡면 외가천리 265-3번지 101호","indutype":"건축자재 - 부동산 분양","category":"other"},{"name":"토바기공인중개사사무소","tel":"031-652-0116","addr":"경기도 안성시 원곡면 외가천리 265-3번지 102호","indutype":"용역 서비스 - 부동산 중개·임대","category":"other"}]},{"lat":"37.039353872","long":"127.13082827","imageIndex":17,"items":[{"name":"주신산업","tel":"070-7531-9004","addr":"경기도 안성시 원곡면 외가천리 221-3","indutype":"유통업 영리 - 기타유통업","category":"other"}]},{"lat":"37.039654526","long":"127.12772649","imageIndex":17,"items":[{"name":"중고나라","tel":"031-611-3103","addr":"경기도 안성시 원곡면 외가천리 275-4번지","indutype":"가구 - 일반가구","category":"other"}]},{"lat":"37.040347359","long":"127.12866056","imageIndex":17,"items":[{"name":"참씽크가구","tel":"031-655-9487","addr":"경기도 안성시 원곡면 외가천리 201-3번지","indutype":"가구 - 일반가구","category":"other"}]},{"lat":"37.041658045","long":"127.13317015","imageIndex":17,"items":[{"name":"충남철물포장","tel":"031-692-1408","addr":"경기도 안성시 원곡면 외가천리 176-2번지","indutype":"건축자재 - 기타건축자재","category":"other"}]},{"lat":"37.037688594","long":"127.12925189","imageIndex":17,"items":[{"name":"크린토피아 안성 원곡점","tel":"031-618-7288","addr":"경기도 안성시 원곡면 외가천리 230-1번지","indutype":"수리서비스 - 세탁소","category":"other"}]},{"lat":"37.036049365","long":"127.12858604","imageIndex":17,"items":[{"name":"평택방화문","tel":"031-657-2882","addr":"경기도 안성시 원곡면 외가천리 257-1번지","indutype":"건축자재 - 기타건축자재","category":"other"}]},{"lat":"37.038626081","long":"127.12889376","imageIndex":17,"items":[{"name":"평택안성영호클린","tel":"031-654-5304","addr":"경기도 안성시 원곡면 외가천리 223-6번지","indutype":"용역 서비스 - 종합용역","category":"other"}]},{"lat":"37.04237678","long":"127.13508227","imageIndex":17,"items":[{"name":"풍림농기계유통","tel":"070-7529-8843","addr":"경기도 안성시 원곡면 외가천리 146-5번지","indutype":"농업 - 농기계","category":"other"}]},{"lat":"37.039240133","long":"127.12763589","imageIndex":17,"items":[{"name":"한솔라이프주식회사","tel":"031-658-0616","addr":"경기도 안성시 원곡면 외가천리 281-1번지 5층 502호","indutype":"주방용구 - 주방용구","category":"other"}]}]