[{"lat":"37.33817883","long":"127.2000897","imageIndex":7,"items":[{"name":"(주)루비노 광주지점","tel":"031-760-9008","addr":"경기도 광주시 오포읍 문형리 661-1번지","indutype":"음료식품 - 주류 판매점","category":"food"}]},{"lat":"37.34861983","long":"127.2064598","imageIndex":7,"items":[{"name":"(주)바다보물","tel":"02-587-3599","addr":"경기도 광주시 오포읍 문형리 213-2번지","indutype":"음료식품 - 농·축·수산품","category":"food"}]},{"lat":"37.34851046","long":"127.2071818","imageIndex":7,"items":[{"name":"H.W seafood (에이치떠블유씨푸드)","tel":"031-1111-1111","addr":"경기도 광주시 오포읍 문형리 181-5번지 1호동 A/2호동a","indutype":"음료식품 - 농·축·수산품","category":"food"},{"name":"주식회사 해원","tel":"031-762-4448","addr":"경기도 광주시 오포읍 문형리 181-5번지","indutype":"음료식품 - 농·축·수산품","category":"food"}]},{"lat":"37.34603467","long":"127.211204","imageIndex":7,"items":[{"name":"OK축산","tel":"031-766-5591","addr":"경기도 광주시 오포읍 문형리 236-15번지","indutype":"음료식품 - 정육점","category":"food"},{"name":"오케이마트 수산코너","tel":"031-766-6686","addr":"경기도 광주시 오포읍 문형리 236-15번지","indutype":"음료식품 - 농·축·수산품","category":"food"}]},{"lat":"37.35409024","long":"127.2004022","imageIndex":7,"items":[{"name":"대흥농장","tel":"031-761-9993","addr":"경기도 광주시 오포읍 문형리 35-11번지","indutype":"음료식품 - 농·축·수산품","category":"food"}]},{"lat":"37.35276128","long":"127.2030624","imageIndex":7,"items":[{"name":"모닝채","tel":"070-4178-9181","addr":"경기도 광주시 오포읍 문형리 127번지","indutype":"음료식품 - 농·축·수산품","category":"food"},{"name":"브레스오브라이프","tel":"02-1522-2334","addr":"경기도 광주시 오포읍 문형리 127번지 4동 1층","indutype":"음료식품 - 기타음료식품","category":"food"}]},{"lat":"37.3481167","long":"127.2108148","imageIndex":7,"items":[{"name":"문형방아간","tel":"031-765-9377","addr":"경기도 광주시 오포읍 문형리 204-7","indutype":"음료식품 - 제과점","category":"food"}]},{"lat":"37.34431897","long":"127.197544","imageIndex":7,"items":[{"name":"미래농산","tel":"031-765-2905","addr":"경기도 광주시 오포읍 문형리 705-27","indutype":"음료식품 - 기타음료식품","category":"food"}]},{"lat":"37.35034057","long":"127.1958214","imageIndex":7,"items":[{"name":"민유통","tel":"070-4155-7476","addr":"경기도 광주시 오포읍 문형리 739-8","indutype":"음료식품 - 기타음료식품","category":"food"}]},{"lat":"37.34292341","long":"127.207618","imageIndex":7,"items":[{"name":"분당홈쇼핑","tel":"","addr":"경기도 광주시 오포읍 문형리 533-3번지 샘마을 106동 201호","indutype":"음료식품 - 농·축·수산품","category":"food"}]},{"lat":"37.34272897","long":"127.2106194","imageIndex":7,"items":[{"name":"안성정육점","tel":"031-797-1554","addr":"경기도 광주시 오포읍 문형리 463-6번지","indutype":"음료식품 - 정육점","category":"food"}]},{"lat":"37.34858922","long":"127.2136489","imageIndex":7,"items":[{"name":"엄마소반","tel":"031-797-9212","addr":"경기도 광주시 오포읍 문형리 271-1번지","indutype":"음료식품 - 기타음료식품","category":"food"}]},{"lat":"37.34109049","long":"127.2149257","imageIndex":7,"items":[{"name":"이든커피로스터스","tel":"031-768-5424","addr":"경기도 광주시 오포읍 문형리 390-3번지","indutype":"음료식품 - 기타음료식품","category":"food"}]},{"lat":"37.34184661","long":"127.1997043","imageIndex":7,"items":[{"name":"정 식품","tel":"031-322-2025","addr":"경기도 광주시 오포읍 문형리 681-1번지","indutype":"음료식품 - 기타음료식품","category":"food"}]},{"lat":"37.34664302","long":"127.2136547","imageIndex":7,"items":[{"name":"좋은이웃","tel":"031-705-5707","addr":"경기도 광주시 오포읍 문형리 246-4번지 정성빌라트","indutype":"음료식품 - 농·축·수산품","category":"food"}]},{"lat":"37.35250434","long":"127.2109849","imageIndex":7,"items":[{"name":"주식회사 우리바다살림","tel":"031-769-1980","addr":"경기도 광주시 오포읍 문형리 262-36번지","indutype":"음료식품 - 기타음료식품","category":"food"}]},{"lat":"37.34148593","long":"127.1998726","imageIndex":7,"items":[{"name":"주식회사 지에프씨(GFC Co.,Ltd)","tel":"03-111-1111","addr":"경기도 광주시 오포읍 문형리 680-1번지 상가 1층","indutype":"음료식품 - 기타음료식품","category":"food"}]},{"lat":"37.3438111","long":"127.2151816","imageIndex":7,"items":[{"name":"주식회사건우로직스","tel":"031-764-3270","addr":"경기도 광주시 오포읍 문형리 385-4번지 1층","indutype":"음료식품 - 기타음료식품","category":"food"}]},{"lat":"37.35578485","long":"127.2053165","imageIndex":7,"items":[{"name":"쥬모","tel":"031-266-7278","addr":"경기도 광주시 오포읍 문형리 104-7번지","indutype":"음료식품 - 기타음료식품","category":"food"}]},{"lat":"37.34595443","long":"127.2157858","imageIndex":7,"items":[{"name":"청휘와커피공장","tel":"050-6703-1179","addr":"경기도 광주시 오포읍 문형리 375-2번지 1층 101호","indutype":"음료식품 - 기타음료식품","category":"food"}]},{"lat":"37.34495114","long":"127.2125102","imageIndex":7,"items":[{"name":"파리바게뜨(문형점)","tel":"031-766-4652","addr":"경기도 광주시 오포읍 문형리 240-1번지","indutype":"음료식품 - 제과점","category":"food"}]},{"lat":"37.3518978","long":"127.2021797","imageIndex":7,"items":[{"name":"프리미엄홈서비스","tel":"031-768-6848","addr":"경기도 광주시 오포읍 문형리 158-1번지","indutype":"음료식품 - 기타음료식품","category":"food"}]},{"lat":"37.34478754","long":"127.213311","imageIndex":7,"items":[{"name":"하나건강원","tel":"031-766-4497","addr":"경기도 광주시 오포읍 문형리 243-4번지","indutype":"건강식품 - 기타건강식품","category":"food"}]},{"lat":"37.34059681","long":"127.2138748","imageIndex":7,"items":[{"name":"하솜","tel":"031-322-7776","addr":"경기도 광주시 오포읍 문형리 392-3번지 가동 1층","indutype":"음료식품 - 기타음료식품","category":"food"}]},{"lat":"37.35044912","long":"127.1955621","imageIndex":7,"items":[{"name":"행복푸드","tel":"031-768-1878","addr":"경기도 광주시 오포읍 문형리 739-3번지","indutype":"음료식품 - 기타음료식품","category":"food"}]}]