[{"lat":"37.27309918","long":"126.95442299","imageIndex":16,"items":[{"name":"(주)호매실리틀팍스어학원","tel":"031-227-8256","addr":"경기도 수원시 권선구 금곡동 1124번지 701,702호","indutype":"학원 - 외국어학원","category":"study"},{"name":"키플스포츠클럽","tel":"031-298-2838","addr":"경기도 수원시 권선구 금곡동 1124번지 광일프라자 8층 801,802호","indutype":"학원 - 예·체능계학원","category":"study"}]},{"lat":"37.272426542","long":"126.94172814","imageIndex":16,"items":[{"name":"가온무용학원","tel":"031-296-7688","addr":"경기도 수원시 권선구 금곡동 1086-1번지 센트럴프라자 B동 501,502호","indutype":"학원 - 예·체능계학원","category":"study"},{"name":"리드앤톡영어독서회화전문학원","tel":"031-292-0577","addr":"경기도 수원시 권선구 금곡동 1086-1번지 센트럴프라자 B 304호","indutype":"학원 - 외국어학원","category":"study"},{"name":"봄수학학원","tel":"031-291-5566","addr":"경기도 수원시 권선구 금곡동 1086-1번지 303호","indutype":"학원 - 보습학원","category":"study"},{"name":"비버영어전문학원","tel":"031-278-8209","addr":"경기도 수원시 권선구 금곡동 1086-1번지 403호","indutype":"학원 - 외국어학원","category":"study"},{"name":"음악이야기학원","tel":"","addr":"경기도 수원시 권선구 금곡동 1086-1번지 B동 401호","indutype":"학원 - 예·체능계학원","category":"study"},{"name":"카이수학학원","tel":"031-293-1031","addr":"경기도 수원시 권선구 금곡동 1086-1번지 4층 402호 센트럴프라자B","indutype":"학원 - 보습학원","category":"study"},{"name":"형설스카이학원","tel":"031-291-0335","addr":"경기도 수원시 권선구 금곡동 1086-1번지 센트럴프라자 3층 303호","indutype":"학원 - 보습학원","category":"study"}]},{"lat":"37.275316047","long":"126.93653926","imageIndex":16,"items":[{"name":"가온초등학교","tel":"031-297-2782","addr":"경기도 수원시 권선구 금곡동 1079번지 수원가온초등학교","indutype":"학원 - 초중고교육기관","category":"study"}]},{"lat":"37.27545448","long":"126.9426728","imageIndex":16,"items":[{"name":"가온해어린이집[아이행복]","tel":"031-298-9791","addr":"경기도 수원시 권선구 금곡동 1076번지 가온마을3단지","indutype":"학원 - 유아원","category":"study"},{"name":"가온햇살어린이집[아이행복]","tel":"031-302-3853","addr":"경기도 수원시 권선구 금곡동 1076번지 가온마을3단지 304동 104호","indutype":"학원 - 유아원","category":"study"},{"name":"호호어린이집[아이행복]","tel":"031-291-5051","addr":"경기도 수원시 권선구 금곡동 1076번지 가온마을3단지 304동 103호","indutype":"학원 - 유아원","category":"study"}]},{"lat":"37.279180189","long":"126.95220906","imageIndex":16,"items":[{"name":"강한친구 강한검도","tel":"031-293-6555","addr":"경기도 수원시 권선구 금곡동 63-2 601호~602호","indutype":"학원 - 예·체능계학원","category":"study"}]},{"lat":"37.270919203","long":"126.93684752","imageIndex":16,"items":[{"name":"개인과외","tel":"070-8031-4038","addr":"경기도 수원시 권선구 금곡동 530번지 금곡엘지빌리지 213동 1702호","indutype":"학원 - 기타 교육기관","category":"study"}]},{"lat":"37.273318261","long":"126.9411524","imageIndex":16,"items":[{"name":"경희대점프태권도장","tel":"031-296-6665","addr":"경기도 수원시 권선구 금곡동 1082-1번지 센타프라자 603,604호","indutype":"학원 - 예·체능계학원","category":"study"},{"name":"금곡연세학원","tel":"070-5031-0327","addr":"경기도 수원시 권선구 금곡동 1082-1번지 501호","indutype":"학원 - 보습학원","category":"study"},{"name":"놀작마이아트창의미술교습소","tel":"070-7405-0533","addr":"경기도 수원시 권선구 금곡동 1082-1번지 센타프라자 405호","indutype":"학원 - 예·체능계학원","category":"study"},{"name":"두드림독서실","tel":"031-295-0875","addr":"경기도 수원시 권선구 금곡동 1082-1번지 4층 401호,402호","indutype":"학원 - 독서실","category":"study"},{"name":"서수원아동발달센터","tel":"031-227-0707","addr":"경기도 수원시 권선구 금곡동 1082-1번지 호매실지구준주거1-2BL센타프라자 403호","indutype":"학원 - 기타 교육기관","category":"study"},{"name":"아발론랭콘 잉글리쉬 호매실어학원","tel":"031-295-8787","addr":"경기도 수원시 권선구 금곡동 1082-1번지 센터프라자 502,503호 일부","indutype":"학원 - 외국어학원","category":"study"},{"name":"종로엠스쿨호매실학원","tel":"031-296-0991","addr":"경기도 수원시 권선구 금곡동 1082-1번지 503호 502호, 503호","indutype":"학원 - 보습학원","category":"study"},{"name":"지일이삼공에스라이팅학원","tel":"031-293-2828","addr":"경기도 수원시 권선구 금곡동 1082-1번지 504호","indutype":"학원 - 보습학원","category":"study"}]},{"lat":"37.270071326","long":"126.95345534","imageIndex":16,"items":[{"name":"고려승리태권도","tel":"031-278-0013","addr":"경기도 수원시 권선구 금곡동 245-3번지","indutype":"학원 - 예·체능계학원","category":"study"},{"name":"이십오센티미터영어수학초등전문학원","tel":"031-293-5829","addr":"경기도 수원시 권선구 금곡동 245-3번지 2층","indutype":"학원 - 보습학원","category":"study"}]},{"lat":"37.273814782","long":"126.94301235","imageIndex":16,"items":[{"name":"골든킥 태권도 인성교육관","tel":"031-298-7688","addr":"경기도 수원시 권선구 금곡동 1085-4번지 유동타워 6층 601호","indutype":"학원 - 예·체능계학원","category":"study"},{"name":"더함스피치학원","tel":"031-298-9095","addr":"경기도 수원시 권선구 금곡동 1085-4번지 3층 304호","indutype":"학원 - 보습학원","category":"study"},{"name":"문성학원","tel":"031-291-2341","addr":"경기도 수원시 권선구 금곡동 1085-4번지 유동타워 501,502호","indutype":"학원 - 보습학원","category":"study"},{"name":"시퀀트영어수학전문학원","tel":"031-226-1251","addr":"경기도 수원시 권선구 금곡동 1085-4번지 유통타워 3층 306호","indutype":"학원 - 보습학원","category":"study"},{"name":"올가교육학원","tel":"031-269-5069","addr":"경기도 수원시 권선구 금곡동 1085-4번지 유동타워 301호","indutype":"학원 - 보습학원","category":"study"},{"name":"채움영수학원","tel":"031-297-7520","addr":"경기도 수원시 권선구 금곡동 1085-4번지 유동타워 6층 603호","indutype":"학원 - 보습학원","category":"study"},{"name":"호매실이룸학원","tel":"031-548-2333","addr":"경기도 수원시 권선구 금곡동 1085-4번지 유동타워 503호~504호","indutype":"회원제형태 - 학원","category":"study"}]},{"lat":"37.268900045","long":"126.9535914","imageIndex":16,"items":[{"name":"공부하는이유영수학원","tel":"031-295-8155","addr":"경기도 수원시 권선구 금곡동 245-66번지 2층 202호","indutype":"학원 - 보습학원","category":"study"},{"name":"밀알몬테소리어린이집[아이행복]","tel":"031-294-1818","addr":"경기도 수원시 권선구 금곡동 245-66번지","indutype":"학원 - 유아원","category":"study"},{"name":"피아노포르테음악학원","tel":"031-295-8155","addr":"경기도 수원시 권선구 금곡동 245-66번지 2층 201호","indutype":"학원 - 예·체능계학원","category":"study"}]},{"lat":"37.26982061","long":"126.93804356","imageIndex":16,"items":[{"name":"국가대표태권도영웅도장","tel":"031-292-9765","addr":"경기도 수원시 권선구 금곡동 756-5번지 3층","indutype":"학원 - 예·체능계학원","category":"study"}]},{"lat":"37.271795997","long":"126.94206689","imageIndex":16,"items":[{"name":"국가대표태성태권도장","tel":"031-294-5111","addr":"경기도 수원시 권선구 금곡동 1087번지 2층","indutype":"학원 - 예·체능계학원","category":"study"}]},{"lat":"37.269676098","long":"126.93741232","imageIndex":16,"items":[{"name":"굿맘그린어린이집[아이행복]","tel":"031-227-1247","addr":"경기도 수원시 권선구 금곡동 648번지 금곡엘지빌리지 103동 102호","indutype":"학원 - 유아원","category":"study"}]},{"lat":"37.278316004","long":"126.95411521","imageIndex":16,"items":[{"name":"금곡줄리어드음악학원","tel":"031-294-9443","addr":"경기도 수원시 권선구 금곡동 77-8번지 금곡프라자 4층 402호","indutype":"학원 - 예·체능계학원","category":"study"},{"name":"이엔에프차수학학원","tel":"031-295-0188","addr":"경기도 수원시 권선구 금곡동 77-8번지 3층 301호","indutype":"학원 - 보습학원","category":"study"}]},{"lat":"37.279648968","long":"126.95278381","imageIndex":16,"items":[{"name":"금곡초등학교","tel":"031-291-4076","addr":"경기도 수원시 권선구 금곡동 1004번지 금곡초등학교","indutype":"학원 - 초중고교육기관","category":"study"},{"name":"금곡초등학교병설유치원[아이행복]","tel":"031-291-4079","addr":"경기도 수원시 권선구 금곡동 1004번지 금곡초등학교","indutype":"학원 - 유치원","category":"study"}]},{"lat":"37.272793107","long":"126.93642872","imageIndex":16,"items":[{"name":"금곡킹스키즈유치원[아이행복]","tel":"031-293-4242","addr":"경기도 수원시 권선구 금곡동 530","indutype":"학원 - 유치원","category":"study"},{"name":"신애어린이집[아이행복]","tel":"031-292-3473","addr":"경기도 수원시 권선구 금곡동 530 LG빌리지 관리동1층","indutype":"학원 - 유아원","category":"study"},{"name":"칠보산어린이집[아이행복]","tel":"031-890-7533","addr":"경기도 수원시 권선구 금곡동 530번지 금곡엘지아파트","indutype":"학원 - 유아원","category":"study"},{"name":"화홍경희체육관","tel":"031-297-1997","addr":"경기도 수원시 권선구 금곡동 530LG빌리지주상가402호","indutype":"학원 - 예·체능계학원","category":"study"}]},{"lat":"37.269512442","long":"126.95286945","imageIndex":16,"items":[{"name":"금호유치원","tel":"031-294-0671","addr":"경기도 수원시 권선구 금곡동 262-10번지 신미주아파트","indutype":"학원 - 유치원","category":"study"}]},{"lat":"37.27306686","long":"126.94287765","imageIndex":16,"items":[{"name":"기탄사고력센터다온학원","tel":"031-293-1178","addr":"경기도 수원시 권선구 금곡동 1088-2번지 리치빌딩 3층 303호","indutype":"학원 - 보습학원","category":"study"},{"name":"아이작로봇영재과학학원","tel":"031-227-9629","addr":"경기도 수원시 권선구 금곡동 1088-2번지 리치빌딩 3층 308호","indutype":"학원 - 컴퓨터학원","category":"study"},{"name":"하늘을나는그림책 호매실점학원","tel":"031-294-7789","addr":"경기도 수원시 권선구 금곡동 1088-2번지 리치빌딩 301호","indutype":"학원 - 보습학원","category":"study"},{"name":"호매실점크림실용음악학원","tel":"","addr":"경기도 수원시 권선구 금곡동 1088-2번지 리치빌딩 401호,402호","indutype":"학원 - 예·체능계학원","category":"study"}]},{"lat":"37.268793709","long":"126.9385405","imageIndex":16,"items":[{"name":"길수학전문학원","tel":"031-295-6181","addr":"경기도 수원시 권선구 금곡동 778-12번지 3층","indutype":"학원 - 보습학원","category":"study"}]},{"lat":"37.273958734","long":"126.94259507","imageIndex":16,"items":[{"name":"김영현음악학원","tel":"031-292-8580","addr":"경기도 수원시 권선구 금곡동 1085-3번지 4층 404,405호","indutype":"학원 - 예·체능계학원","category":"study"},{"name":"이보영의토킹클럽호매실어학원","tel":"031-292-0533","addr":"경기도 수원시 권선구 금곡동 1085-3번지 507호 508호","indutype":"회원제형태 - 학원","category":"study"},{"name":"토즈스터디센터금곡독서실","tel":"031-294-2719","addr":"경기도 수원시 권선구 금곡동 1085-3번지 307호 ,402,403호","indutype":"학원 - 독서실","category":"study"}]},{"lat":"37.273180388","long":"126.95470481","imageIndex":16,"items":[{"name":"넘버원색소폰학원","tel":"031-1600-9916","addr":"경기도 수원시 권선구 금곡동 1124-1번지 5층 506호","indutype":"학원 - 예·체능계학원","category":"study"},{"name":"유사사유도관","tel":"031-227-0644","addr":"경기도 수원시 권선구 금곡동 1124-1번지 5층 504,505호","indutype":"학원 - 예·체능계학원","category":"study"}]},{"lat":"37.275152209","long":"126.93365298","imageIndex":16,"items":[{"name":"노을빛피아노교습소","tel":"031-297-9424","addr":"경기도 수원시 권선구 금곡동 520번지 금곡엘지아파트 2층","indutype":"학원 - 예·체능계학원","category":"study"}]},{"lat":"37.273378169","long":"126.9536223","imageIndex":16,"items":[{"name":"뉴쇼팽음악학원","tel":"031-227-4708","addr":"경기도 수원시 권선구 금곡동 1118-6번지 거성프라자 6층 603호","indutype":"학원 - 예·체능계학원","category":"study"},{"name":"청담클루빌영어학원","tel":"031-227-4707","addr":"경기도 수원시 권선구 금곡동 1118-6번지 거성빌딩 605호","indutype":"학원 - 보습학원","category":"study"},{"name":"파렛트미술학원","tel":"031-227-4709","addr":"경기도 수원시 권선구 금곡동 1118-6번지 거성빌딩 604호","indutype":"학원 - 예·체능계학원","category":"study"},{"name":"호림합기도장","tel":"031-296-9441","addr":"경기도 수원시 권선구 금곡동 1118-6번지 거성빌딩 5층 505호","indutype":"학원 - 예·체능계학원","category":"study"},{"name":"호매실앨리스영어학원","tel":"031-298-5277","addr":"경기도 수원시 권선구 금곡동 1118-6번지 거성빌딩 3층 305호","indutype":"학원 - 보습학원","category":"study"}]},{"lat":"37.27420746","long":"126.93596521","imageIndex":16,"items":[{"name":"다솜어린이집[아이행복]","tel":"031-297-5666","addr":"경기도 수원시 권선구 금곡동 530번지 LG빌리지 303동 103호","indutype":"학원 - 유아원","category":"study"}]},{"lat":"37.273210483","long":"126.94181771","imageIndex":16,"items":[{"name":"더 봄봄","tel":"031-270-4043","addr":"경기도 수원시 권선구 금곡동 1085번지 비즈웍스 5층 11호","indutype":"학원 - 기타 교육기관","category":"study"},{"name":"미술의숲미술학원","tel":"031-663-0447","addr":"경기도 수원시 권선구 금곡동 1085번지 5층 508,509호","indutype":"학원 - 예·체능계학원","category":"study"},{"name":"벨트 잉글리시 영어교습소","tel":"031-000-0000","addr":"경기도 수원시 권선구 금곡동 1085번지 비즈웍스 319호","indutype":"학원 - 외국어학원","category":"study"},{"name":"스터디어클락학원","tel":"031-227-5645","addr":"경기도 수원시 권선구 금곡동 1085번지 305호,306호,307호","indutype":"학원 - 보습학원","category":"study"},{"name":"오칸타빌레음악학원","tel":"031-298-0733","addr":"경기도 수원시 권선구 금곡동 1085번지 비즈웍스 526호~528호","indutype":"학원 - 예·체능계학원","category":"study"},{"name":"지니사이언스 서수원센터","tel":"031-296-0975","addr":"경기도 수원시 권선구 금곡동 1085번지 비즈웍스 512호,513호,514호","indutype":"학원 - 보습학원","category":"study"},{"name":"초코누리","tel":"","addr":"경기도 수원시 권선구 금곡동 1085번지 비즈웍스 5층 525호","indutype":"학원 - 기능학원","category":"study"},{"name":"해법베이징중국어학원","tel":"031-297-6677","addr":"경기도 수원시 권선구 금곡동 1085번지 5층 501호 521호","indutype":"학원 - 보습학원","category":"study"}]},{"lat":"37.272738995","long":"126.93633857","imageIndex":16,"items":[{"name":"둥지어린이집[아이행복]","tel":"031-297-9402","addr":"경기도 수원시 권선구 금곡동 530번지 금곡엘지빌리지 208동 104호","indutype":"학원 - 유아원","category":"study"},{"name":"숲에노닐다어린이집[아이행복]","tel":"070-8114-7943","addr":"경기도 수원시 권선구 금곡동 530번지 금곡엘지빌리지 208동 102호","indutype":"학원 - 유아원","category":"study"},{"name":"플레이팩토","tel":"031-000-0000","addr":"경기도 수원시 권선구 금곡동 530번지 금곡엘지빌리지 208동 103호","indutype":"학원 - 기타 교육기관","category":"study"}]},{"lat":"37.269317009","long":"126.93984786","imageIndex":16,"items":[{"name":"들꽃향기어린이집[아이행복]","tel":"031-278-1280","addr":"경기도 수원시 권선구 금곡동 1100번지 칠보마을6단지 603동 102호","indutype":"학원 - 유아원","category":"study"},{"name":"아기숲어린이집[아이행복]","tel":"031-298-7249","addr":"경기도 수원시 권선구 금곡동 1100번지 칠보마을6단지 610동 102호","indutype":"학원 - 유아원","category":"study"},{"name":"호매실도담어린이집[아이행복]","tel":"031-278-2606","addr":"경기도 수원시 권선구 금곡동 1100번지 칠보마을6단지 관리동","indutype":"학원 - 유아원","category":"study"}]},{"lat":"37.272345151","long":"126.9411532","imageIndex":16,"items":[{"name":"디앤실용음악학원","tel":"031-227-9913","addr":"경기도 수원시 권선구 금곡동 1083-1번지 405호","indutype":"학원 - 예·체능계학원","category":"study"},{"name":"아이캔영어수학전문학원","tel":"031-295-0095","addr":"경기도 수원시 권선구 금곡동 1083-1번지 호매실프라자 502호","indutype":"학원 - 보습학원","category":"study"},{"name":"올리브학원","tel":"","addr":"경기도 수원시 권선구 금곡동 1083-1번지 503호,505호","indutype":"학원 - 보습학원","category":"study"},{"name":"프라임영수학원","tel":"031-111-1111","addr":"경기도 수원시 권선구 금곡동 1083-1번지 501호","indutype":"학원 - 보습학원","category":"study"},{"name":"화랑합기도특공무술종합무술도장","tel":"031-279-7128","addr":"경기도 수원시 권선구 금곡동 1083-1번지 호매실프라자 4층 404호","indutype":"학원 - 예·체능계학원","category":"study"}]},{"lat":"37.273288635","long":"126.95500916","imageIndex":16,"items":[{"name":"레브실용음악학원","tel":"031-291-1191","addr":"경기도 수원시 권선구 금곡동 1124-2번지 CM타워 503호 502호,503호","indutype":"학원 - 예·체능계학원","category":"study"},{"name":"유니팝금곡센터미술학원","tel":"031-297-7008","addr":"경기도 수원시 권선구 금곡동 1124-2번지 501호","indutype":"학원 - 예·체능계학원","category":"study"}]},{"lat":"37.272090884","long":"126.93746661","imageIndex":16,"items":[{"name":"레인보우어린이집[아이행복]","tel":"031-308-2014","addr":"경기도 수원시 권선구 금곡동 530번지 금곡엘지빌리지 204동 104호","indutype":"학원 - 유아원","category":"study"}]},{"lat":"37.27548934","long":"126.9403952","imageIndex":16,"items":[{"name":"로뎀나무미술교습소","tel":"031-663-0447","addr":"경기도 수원시 권선구 금곡동 1077번지 수원모아미래도센트럴타운2단지 상가동 109호","indutype":"학원 - 예·체능계학원","category":"study"},{"name":"루멘수학교습소","tel":"","addr":"경기도 수원시 권선구 금곡동 1077번지 모아미래도2단지 상가 112호","indutype":"학원 - 보습학원","category":"study"},{"name":"모아가온점뮤엠영어교습소","tel":"031-293-6660","addr":"경기도 수원시 권선구 금곡동 1077번지 모아미래도 상가 108호","indutype":"학원 - 외국어학원","category":"study"},{"name":"뮤직하임음악학원","tel":"031-227-7995","addr":"경기도 수원시 권선구 금곡동 1077번지 수원모아미래도센트럴타운2단지 104,105호","indutype":"학원 - 예·체능계학원","category":"study"},{"name":"숨쉬는영어교습소","tel":"031-000-0000","addr":"경기도 수원시 권선구 금곡동 1077번지 수원모아미래도센트럴타운2단지 상가동 1층 106호","indutype":"학원 - 외국어학원","category":"study"},{"name":"시립모아2어린이집[아이행복]","tel":"031-293-4611","addr":"경기도 수원시 권선구 금곡동 1077번지 수원모아미래도센트럴타운2단지 관리동","indutype":"학원 - 유아원","category":"study"}]},{"lat":"37.272735463","long":"126.94692554","imageIndex":16,"items":[{"name":"리즈음악학원","tel":"031-295-0959","addr":"경기도 수원시 권선구 금곡동 1095번지 수원호매실휴먼시아8단지 상가동 2층 205호,206호","indutype":"학원 - 예·체능계학원","category":"study"},{"name":"리즈음악학원","tel":"031-295-0959","addr":"경기도 수원시 권선구 금곡동 1095번지 상가동 2층 205,206호","indutype":"학원 - 예·체능계학원","category":"study"},{"name":"용인대천하태권도장","tel":"031-298-8850","addr":"경기도 수원시 권선구 금곡동 1095번지 수원호매실휴먼시아8단지 상가동 201,202호","indutype":"학원 - 예·체능계학원","category":"study"}]},{"lat":"37.273786836","long":"126.94123095","imageIndex":16,"items":[{"name":"리폼드영어","tel":"031-292-2820","addr":"경기도 수원시 권선구 금곡동 1082번지 2층 204호","indutype":"학원 - 외국어학원","category":"study"},{"name":"용인대천성태권도","tel":"031-296-1399","addr":"경기도 수원시 권선구 금곡동 1082번지 6층 603호","indutype":"학원 - 예·체능계학원","category":"study"},{"name":"호매실씨앤씨미술학원","tel":"031-298-5012","addr":"경기도 수원시 권선구 금곡동 1082번지 칠보프라자 504~506호","indutype":"학원 - 예·체능계학원","category":"study"}]},{"lat":"37.273373221","long":"126.94289996","imageIndex":16,"items":[{"name":"마니마니학원","tel":"031-297-1681","addr":"경기도 수원시 권선구 금곡동 1088-1번지 일담타워 3층 308호","indutype":"학원 - 보습학원","category":"study"},{"name":"에이블독서실","tel":"031-295-6700","addr":"경기도 수원시 권선구 금곡동 1088-1번지 일담타워 3층 306호,307호","indutype":"학원 - 독서실","category":"study"},{"name":"풀앤풀미술음악학원","tel":"031-548-1707","addr":"경기도 수원시 권선구 금곡동 1088-1번지 207,208","indutype":"학원 - 예·체능계학원","category":"study"}]},{"lat":"37.272011842","long":"126.94128877","imageIndex":16,"items":[{"name":"명성학원","tel":"031-898-7900","addr":"경기도 수원시 권선구 금곡동 1083-2번지 6층 604호","indutype":"학원 - 보습학원","category":"study"},{"name":"오선음악학원","tel":"031-293-9344","addr":"경기도 수원시 권선구 금곡동 605-2 주공프라자 501","indutype":"학원 - 예·체능계학원","category":"study"},{"name":"토모미술교습소","tel":"070-7753-5050","addr":"경기도 수원시 권선구 금곡동 1083-2번지 603호","indutype":"학원 - 예·체능계학원","category":"study"}]},{"lat":"37.27458552","long":"126.93531092","imageIndex":16,"items":[{"name":"물댄동산어린이집[아이행복]","tel":"031-892-2055","addr":"경기도 수원시 권선구 금곡동 530번지 LG빌리지 305동 104호","indutype":"학원 - 유아원","category":"study"}]},{"lat":"37.275542165","long":"126.93809503","imageIndex":16,"items":[{"name":"미르수학교습소","tel":"","addr":"경기도 수원시 권선구 금곡동 1078번지 수원모아미래도센트럴타운1단지 상가동 B112호","indutype":"학원 - 보습학원","category":"study"},{"name":"비상잉글리시아이호매실가온영어교습소","tel":"031-304-4337","addr":"경기도 수원시 권선구 금곡동 1078번지 수원모아미래도센트럴타운1단지 상가동 B113호","indutype":"학원 - 외국어학원","category":"study"},{"name":"시립모아1어린이집[아이행복]","tel":"031-227-4330","addr":"경기도 수원시 권선구 금곡동 1078번지 수원모아미래도센트럴타운1단지 관리동","indutype":"학원 - 유아원","category":"study"},{"name":"심앤강음악학원","tel":"031-297-7748","addr":"경기도 수원시 권선구 금곡동 1078번지 수원모아미래도센트럴타운1단지 상가동 B108,109호","indutype":"학원 - 예·체능계학원","category":"study"}]},{"lat":"37.272705533","long":"126.94109653","imageIndex":16,"items":[{"name":"바른식문화개발원(수원지사)","tel":"031-301-4428","addr":"경기도 수원시 권선구 금곡동 1083번지 604호","indutype":"학원 - 기타 교육기관","category":"study"},{"name":"아코영어교습소","tel":"031-292-2356","addr":"경기도 수원시 권선구 금곡동 1083번지 금곡동,폴리프라자 501호","indutype":"회원제형태 - 학원","category":"study"},{"name":"이해법수학칠보점교습소","tel":"070-7628-4375","addr":"경기도 수원시 권선구 금곡동 1083번지 폴리프라자 504호","indutype":"학원 - 보습학원","category":"study"},{"name":"팍스우드영어교습소","tel":"031-292-0579","addr":"경기도 수원시 권선구 금곡동 1083번지 폴리프라자 6층 602호","indutype":"학원 - 외국어학원","category":"study"},{"name":"폴리아수학학원","tel":"031-291-1581","addr":"경기도 수원시 권선구 금곡동 1083번지 폴리프라자 603호","indutype":"학원 - 보습학원","category":"study"}]},{"lat":"37.274072226","long":"126.95426452","imageIndex":16,"items":[{"name":"백신영수학원","tel":"031-291-1212","addr":"경기도 수원시 권선구 금곡동 1117번지 호매실우성메디피아2 3층 305호","indutype":"학원 - 보습학원","category":"study"}]},{"lat":"37.272317299","long":"126.93959732","imageIndex":16,"items":[{"name":"사랑해어린이집[아이행복]","tel":"031-234-6652","addr":"경기도 수원시 권선구 금곡동 1081번지 수원호매실휴먼시아5단지 524동 102호","indutype":"학원 - 유아원","category":"study"},{"name":"선아어린이집[아이행복]","tel":"031-294-8996","addr":"경기도 수원시 권선구 금곡동 1081번지 수원호매실휴먼시아5단지 524동 103호","indutype":"학원 - 유아원","category":"study"},{"name":"아라어린이집[아이행복]","tel":"031-890-2015","addr":"경기도 수원시 권선구 금곡동 1081번지 수원호매실휴먼시아 525동 103호","indutype":"학원 - 유아원","category":"study"},{"name":"아이누리교육","tel":"031-227-1270","addr":"경기도 수원시 권선구 금곡동 1081번지 수원호매실휴먼시아5단지 503동 901호","indutype":"학원 - 기타 교육기관","category":"study"},{"name":"제이알(JR)공부방","tel":"031-000-0000","addr":"경기도 수원시 권선구 금곡동 1081번지 수원호매실휴먼시아5단지아파트 517동 103호","indutype":"학원 - 기타 교육기관","category":"study"}]},{"lat":"37.275405474","long":"126.93534402","imageIndex":16,"items":[{"name":"상촌중학교","tel":"031-294-3483","addr":"경기도 수원시 권선구 금곡동 497-1번지 상촌중학교","indutype":"학원 - 초중고교육기관","category":"study"}]},{"lat":"37.272792508","long":"126.9353689","imageIndex":16,"items":[{"name":"상촌초등학교","tel":"","addr":"경기도 수원시 권선구 금곡동 699번지 상촌초등학교","indutype":"학원 - 초중고교육기관","category":"study"},{"name":"상촌초등학교병설유치원[아이행복]","tel":"031-292-8422","addr":"경기도 수원시 권선구 금곡동 699번지 상촌초등학교","indutype":"학원 - 유치원","category":"study"}]},{"lat":"37.274233842","long":"126.95290015","imageIndex":16,"items":[{"name":"샘앤클래스호매실학원","tel":"031-206-1131","addr":"경기도 수원시 권선구 금곡동 1113-4번지 해피라움 513호","indutype":"학원 - 보습학원","category":"study"},{"name":"수원검도관","tel":"031-295-2953","addr":"경기도 수원시 권선구 금곡동 1113-4번지 해피라움 705호,706호","indutype":"학원 - 예·체능계학원","category":"study"}]},{"lat":"37.273293029","long":"126.94470399","imageIndex":16,"items":[{"name":"수원중촌초등학교","tel":"031-292-6568","addr":"경기도 수원시 권선구 금곡동 1093번지 칠보중학교","indutype":"학원 - 초중고교육기관","category":"study"},{"name":"수원중촌초등학교병설유치원[아이행복]","tel":"070-4601-4770","addr":"경기도 수원시 권선구 금곡동 1093번지","indutype":"학원 - 유치원","category":"study"},{"name":"칠보중학교","tel":"031-291-3482","addr":"경기도 수원시 권선구 금곡동 1093번지 칠보중학교","indutype":"학원 - 초중고교육기관","category":"study"}]},{"lat":"37.274879014","long":"126.94506357","imageIndex":16,"items":[{"name":"수원칠보고등학교","tel":"031-8007-5862","addr":"경기도 수원시 권선구 금곡동 1073번지 칠보고등학교","indutype":"학원 - 초중고교육기관","category":"study"},{"name":"수원칠보고등학교_수업료","tel":"031-8007-5862","addr":"경기도 수원시 권선구 금곡동 1073번지 칠보고등학교","indutype":"학원 - 초중고교육기관","category":"study"}]},{"lat":"37.277068822","long":"126.94570459","imageIndex":16,"items":[{"name":"시립금호어린이집[아이행복]","tel":"031-298-0555","addr":"경기도 수원시 권선구 금곡동 1068번지","indutype":"학원 - 유아원","category":"study"}]},{"lat":"37.274564692","long":"126.94722861","imageIndex":16,"items":[{"name":"시립수원가온어린이집[아이행복]","tel":"031-292-3116","addr":"경기도 수원시 권선구 금곡동 1072번지 수원호매실휴먼시아4단지","indutype":"학원 - 유아원","category":"study"}]},{"lat":"37.2704849","long":"126.95134676","imageIndex":16,"items":[{"name":"안심어린이집[아이행복]","tel":"031-429-5748","addr":"경기도 수원시 권선구 금곡동 1147번지 호반베르디움더센트럴 207동 104호","indutype":"학원 - 유아원","category":"study"},{"name":"예뜰아트미술교습소","tel":"070-8792-1983","addr":"경기도 수원시 권선구 금곡동 1147번지 호반베르디움더센트럴 단지내상가 310동 208호","indutype":"학원 - 예·체능계학원","category":"study"},{"name":"올바른식습관교육센터","tel":"070-4038-4922","addr":"경기도 수원시 권선구 금곡동 1147번지 호반베르디움더센트럴 206동 2204호","indutype":"학원 - 기타 교육기관","category":"study"},{"name":"용인대누리태권도","tel":"031-294-7754","addr":"경기도 수원시 권선구 금곡동 1147번지 호반베르디움더센트럴 상가동 2층","indutype":"학원 - 예·체능계학원","category":"study"},{"name":"정윤정 개인과외교습","tel":"","addr":"경기도 수원시 권선구 금곡동 1147번지 호반베르디움더센트럴 201동 2203호","indutype":"학원 - 기타 교육기관","category":"study"},{"name":"킴스컬리지영어학원","tel":"","addr":"경기도 수원시 권선구 금곡동 1147번지 호반베르디움더센트럴 310동 209호","indutype":"학원 - 외국어학원","category":"study"},{"name":"호반센트럴어린이집[아이행복]","tel":"031-294-2226","addr":"경기도 수원시 권선구 금곡동 1147번지 호반베르디움더센트럴 관리동","indutype":"학원 - 유아원","category":"study"},{"name":"호반예원음악학원","tel":"031-294-7730","addr":"경기도 수원시 권선구 금곡동 1147번지 상가 310동 204호,205호","indutype":"학원 - 예·체능계학원","category":"study"}]},{"lat":"37.269009604","long":"126.93789769","imageIndex":16,"items":[{"name":"엘키즈어학원","tel":"031-293-5757","addr":"경기도 수원시 권선구 금곡동 778-3번지 2층","indutype":"학원 - 외국어학원","category":"study"}]},{"lat":"37.274557853","long":"126.934206","imageIndex":16,"items":[{"name":"예닮어린이집[아이행복]","tel":"031-297-7230","addr":"경기도 수원시 권선구 금곡동 520번지 LG빌리지 411동 102호","indutype":"학원 - 유아원","category":"study"}]},{"lat":"37.272705849","long":"126.94170537","imageIndex":16,"items":[{"name":"오상철수학학원","tel":"031-292-5370","addr":"경기도 수원시 권선구 금곡동 1086번지 센트럴프라자에이 301호","indutype":"학원 - 보습학원","category":"study"},{"name":"플랜에이독서실","tel":"031-278-5053","addr":"경기도 수원시 권선구 금곡동 1086번지 5층","indutype":"학원 - 독서실","category":"study"}]},{"lat":"37.271489374","long":"126.94153723","imageIndex":16,"items":[{"name":"용인대SKY태권도장","tel":"031-291-7775","addr":"경기도 수원시 권선구 금곡동 1084번지 5층","indutype":"학원 - 예·체능계학원","category":"study"}]},{"lat":"37.277955879","long":"126.95481452","imageIndex":16,"items":[{"name":"용인대드림합기도태권도","tel":"031-8061-7008","addr":"경기도 수원시 권선구 금곡동 77-14번지 4층","indutype":"학원 - 예·체능계학원","category":"study"}]},{"lat":"37.273684862","long":"126.95445644","imageIndex":16,"items":[{"name":"용인대청룡라온제나태권도장","tel":"031-294-2453","addr":"경기도 수원시 권선구 금곡동 1117-5번지 6층 601,602호","indutype":"학원 - 예·체능계학원","category":"study"}]},{"lat":"37.274017323","long":"126.95225762","imageIndex":16,"items":[{"name":"자라다남아미술교습소","tel":"031-558-7081","addr":"경기도 수원시 권선구 금곡동 1113-5번지 208호","indutype":"학원 - 예·체능계학원","category":"study"}]},{"lat":"37.268846839","long":"126.93684933","imageIndex":16,"items":[{"name":"잼잼어린이집[아이행복]","tel":"031-227-0305","addr":"경기도 수원시 권선구 금곡동 648번지 금곡엘지빌리지 101동 101호","indutype":"학원 - 유아원","category":"study"}]},{"lat":"37.268955132","long":"126.95611677","imageIndex":16,"items":[{"name":"정연주무용학원","tel":"031-298-4649","addr":"경기도 수원시 권선구 금곡동 242-34번지 3층","indutype":"학원 - 예·체능계학원","category":"study"}]},{"lat":"37.271594983","long":"126.95570926","imageIndex":16,"items":[{"name":"제이관스마트리어학원","tel":"","addr":"경기도 수원시 권선구 금곡동 250-10번지 302호","indutype":"학원 - 외국어학원","category":"study"},{"name":"제이비축구레슨아카데미","tel":"","addr":"경기도 수원시 권선구 금곡동 250-10번지 202호","indutype":"학원 - 예·체능계학원","category":"study"}]},{"lat":"37.269711167","long":"126.95406439","imageIndex":16,"items":[{"name":"주식회사 굿컴퍼니","tel":"031-291-2171","addr":"경기도 수원시 권선구 금곡동 245-73번지 4층","indutype":"학원 - 기타 교육기관","category":"study"}]},{"lat":"37.272685543","long":"126.93743227","imageIndex":16,"items":[{"name":"친구어린이집[아이행복]","tel":"031-227-8665","addr":"경기도 수원시 권선구 금곡동 530번지 LG빌리지 206동 103호","indutype":"학원 - 유아원","category":"study"}]},{"lat":"37.269405372","long":"126.95542877","imageIndex":16,"items":[{"name":"칠보초등학교","tel":"031-291-1302","addr":"경기도 수원시 권선구 금곡동 245-2번지 칠보초등학교","indutype":"학원 - 초중고교육기관","category":"study"},{"name":"칠보초등학교_수업료","tel":"031-291-1302","addr":"경기도 수원시 권선구 금곡동 245-2번지 칠보초등학교","indutype":"학원 - 초중고교육기관","category":"study"}]},{"lat":"37.269208108","long":"126.93840486","imageIndex":16,"items":[{"name":"클랑음악학원","tel":"031-292-8346","addr":"경기도 수원시 권선구 금곡동 757-13번지 2층","indutype":"학원 - 예·체능계학원","category":"study"}]},{"lat":"37.278099015","long":"126.95234509","imageIndex":16,"items":[{"name":"하이즈먼어린이집[아이행복]","tel":"031-295-4244","addr":"경기도 수원시 권선구 금곡동 66-3번지","indutype":"학원 - 유아원","category":"study"}]},{"lat":"37.27921683","long":"126.95362977","imageIndex":16,"items":[{"name":"행복아이어린이집[아이행복]","tel":"031-294-0281","addr":"경기도 수원시 권선구 금곡동 66번지 강남아파트 103동 105호","indutype":"학원 - 유아원","category":"study"}]},{"lat":"37.271486081","long":"126.95379265","imageIndex":16,"items":[{"name":"호반 라온어린이집[아이행복]","tel":"031-294-1579","addr":"경기도 수원시 권선구 금곡동 1146번지 호반베르디움TheFirst","indutype":"학원 - 유아원","category":"study"}]},{"lat":"37.276540289","long":"126.93450863","imageIndex":16,"items":[{"name":"호크마히밀킨더작은선교사육성교육관","tel":"031-294-9284","addr":"경기도 수원시 권선구 금곡동 498-1번지","indutype":"학원 - 기타 교육기관","category":"study"}]}]