[{"lat":"37.05367267","long":"126.76017365","imageIndex":7,"items":[{"name":"(신)우정수산","tel":"031-358-6420","addr":"경기도 화성시 우정읍 매향리 76-10번지","indutype":"음료식품 - 농·축·수산품","category":"food"},{"name":"데이파크","tel":"031-351-9290","addr":"경기도 화성시 우정읍 매향리 76-10","indutype":"음료식품 - 기타음료식품","category":"food"}]},{"lat":"37.03723142","long":"126.76617183","imageIndex":7,"items":[{"name":"궁평항노란차","tel":"031-351-0495","addr":"경기도 화성시 우정읍 매향리 754번지","indutype":"음료식품 - 농·축·수산품","category":"food"}]},{"lat":"37.053680022","long":"126.75936418","imageIndex":7,"items":[{"name":"데이파크","tel":"031-351-9290","addr":"경기도 화성시 우정읍 매향리 76-5","indutype":"음료식품 - 기타음료식품","category":"food"}]},{"lat":"37.039010681","long":"126.75070001","imageIndex":7,"items":[{"name":"동네방네","tel":"031-351-7460","addr":"경기도 화성시 우정읍 매향리 905-11번지","indutype":"음료식품 - 농·축·수산품","category":"food"},{"name":"영희네 수산물","tel":"031-351-3767","addr":"경기도 화성시 우정읍 매향리 905-11번지","indutype":"음료식품 - 농·축·수산품","category":"food"}]},{"lat":"37.056623802","long":"126.7669548","imageIndex":7,"items":[{"name":"동민호","tel":"031-358-0131","addr":"경기도 화성시 우정읍 매향리 43-3번지","indutype":"음료식품 - 농·축·수산품","category":"food"}]},{"lat":"37.054259531","long":"126.75637188","imageIndex":7,"items":[{"name":"매향베이스볼파크","tel":"031-271-4119","addr":"경기도 화성시 우정읍 매향리 73-16","indutype":"음료식품 - 기타음료식품","category":"food"}]},{"lat":"37.036815763","long":"126.74820081","imageIndex":7,"items":[{"name":"목포수산","tel":"031-351-6822","addr":"경기도 화성시 우정읍 매향리 950-16","indutype":"음료식품 - 농·축·수산품","category":"food"}]},{"lat":"37.052318799","long":"126.77258913","imageIndex":7,"items":[{"name":"새우파는 남자","tel":"031-111-1111","addr":"경기도 화성시 우정읍 매향리 478-6번지","indutype":"음료식품 - 농·축·수산품","category":"food"}]},{"lat":"37.035958988","long":"126.747844","imageIndex":7,"items":[{"name":"서해수산","tel":"031-358-2686","addr":"경기도 화성시 우정읍 매향리 945-3번지","indutype":"음료식품 - 농·축·수산품","category":"food"}]},{"lat":"37.049315493","long":"126.76659521","imageIndex":7,"items":[{"name":"시원푸드","tel":"031-1899-5688","addr":"경기도 화성시 우정읍 매향리 627-4번지","indutype":"음료식품 - 정육점","category":"food"}]},{"lat":"37.048368602","long":"126.7662047","imageIndex":7,"items":[{"name":"영민수산","tel":"031-5106-6323","addr":"경기도 화성시 우정읍 매향리 산63-12번지","indutype":"음료식품 - 농·축·수산품","category":"food"}]},{"lat":"37.035876442","long":"126.7471699","imageIndex":7,"items":[{"name":"은성수산","tel":"031-358-7123","addr":"경기도 화성시 우정읍 매향리 944-3,945-16","indutype":"음료식품 - 농·축·수산품","category":"food"}]},{"lat":"37.055560957","long":"126.75825641","imageIndex":7,"items":[{"name":"친구수산","tel":"031-358-9888","addr":"경기도 화성시 우정읍 매향리 67-17번지 에이동 1,2호","indutype":"음료식품 - 농·축·수산품","category":"food"}]},{"lat":"37.046926941","long":"126.77078435","imageIndex":7,"items":[{"name":"해오름조암농장","tel":"031-3779-1718","addr":"경기도 화성시 우정읍 매향리 504-1번지","indutype":"음료식품 - 농·축·수산품","category":"food"}]}]