[{"lat":"37.081545396","long":"127.42466392","imageIndex":7,"items":[{"name":"경기마을교육공동체 사회적협동조합 죽산중","tel":"070-4141-1001","addr":"경기도 안성시 죽산면 죽산리 318번지 1층 죽산중학교","indutype":"음료식품 - 기타음료식품","category":"food"}]},{"lat":"37.076272123","long":"127.42272298","imageIndex":7,"items":[{"name":"고소한하루","tel":"","addr":"경기도 안성시 죽산면 죽산리 441-8번지 2동 1층","indutype":"음료식품 - 제과점","category":"food"}]},{"lat":"37.073986773","long":"127.41922438","imageIndex":7,"items":[{"name":"농산물직거래장터","tel":"031-691-1316","addr":"경기도 안성시 죽산면 죽산리 556번지","indutype":"음료식품 - 농·축·수산품","category":"food"}]},{"lat":"37.075575509","long":"127.42604777","imageIndex":7,"items":[{"name":"대송축산","tel":"031-676-0338","addr":"경기도 안성시 죽산면 죽산리 105-9번지","indutype":"음료식품 - 정육점","category":"food"}]},{"lat":"37.07607007","long":"127.42380143","imageIndex":7,"items":[{"name":"대왕정육식당","tel":"031-676-6272","addr":"경기도 안성시 죽산면 죽산리 474-1번지","indutype":"음료식품 - 정육점","category":"food"}]},{"lat":"37.075711226","long":"127.42589109","imageIndex":7,"items":[{"name":"민속떡방아간","tel":"031-675-7096","addr":"경기도 안성시 죽산면 죽산리 105-5번지","indutype":"음료식품 - 제과점","category":"food"}]},{"lat":"37.075576056","long":"127.42336013","imageIndex":7,"items":[{"name":"삼거리닭집","tel":"031-676-6641","addr":"경기도 안성시 죽산면 죽산리 437-2번지 109호","indutype":"음료식품 - 기타음료식품","category":"food"}]},{"lat":"37.073855171","long":"127.42077549","imageIndex":7,"items":[{"name":"새열린목장 수제요거트 치즈","tel":"031-676-2082","addr":"경기도 안성시 죽산면 죽산리 514-15번지 1층 103호","indutype":"음료식품 - 기타음료식품","category":"food"}]},{"lat":"37.077409614","long":"127.42969031","imageIndex":7,"items":[{"name":"서울우유죽산대리점","tel":"070-3658-1158","addr":"경기도 안성시 죽산면 죽산리 141-7","indutype":"음료식품 - 기타음료식품","category":"food"}]},{"lat":"37.071494099","long":"127.41829993","imageIndex":7,"items":[{"name":"소들목장정육점","tel":"031-671-4117","addr":"경기도 안성시 죽산면 죽산리 528-1번지 1층","indutype":"음료식품 - 정육점","category":"food"}]},{"lat":"37.076384071","long":"127.42671575","imageIndex":7,"items":[{"name":"송가네푸줏간","tel":"031-675-1878","addr":"경기도 안성시 죽산면 죽산리 119-5번지","indutype":"음료식품 - 정육점","category":"food"}]},{"lat":"37.075661766","long":"127.42205614","imageIndex":7,"items":[{"name":"용진제분소","tel":"031-675-2494","addr":"경기도 안성시 죽산면 죽산리 427-4","indutype":"음료식품 - 제과점","category":"food"}]},{"lat":"37.075292385","long":"127.4245843","imageIndex":7,"items":[{"name":"자이언트바바 죽산점","tel":"031-676-3203","addr":"경기도 안성시 죽산면 죽산리 497-2번지","indutype":"음료식품 - 기타음료식품","category":"food"}]},{"lat":"37.077215858","long":"127.42339167","imageIndex":7,"items":[{"name":"캣타바코 죽산점","tel":"031-672-7644","addr":"경기도 안성시 죽산면 죽산리 466-3번지","indutype":"음료식품 - 농·축·수산품","category":"food"}]},{"lat":"37.074766481","long":"127.42297332","imageIndex":7,"items":[{"name":"케이-아시아푸드","tel":"","addr":"경기도 안성시 죽산면 죽산리 434-1번지","indutype":"음료식품 - 기타음료식품","category":"food"}]},{"lat":"37.074158588","long":"127.4216093","imageIndex":7,"items":[{"name":"행복건강원","tel":"031-676-7782","addr":"경기도 안성시 죽산면 죽산리 514-8번지 1층","indutype":"건강식품 - 기타건강식품","category":"food"}]}]