[{"lat":"37.426217","long":"127.0712442","imageIndex":17,"items":[{"name":"고향집(화로구이)","tel":"031-752-0368","addr":"경기도 성남시 수정구 상적동 272-2번지","indutype":"","category":"other"}]},{"lat":"37.4309144","long":"127.0806601","imageIndex":17,"items":[{"name":"대왕회관","tel":"031-723-7710","addr":"경기도 성남시 수정구 상적동 139-2번지","indutype":"","category":"other"}]},{"lat":"37.4282991","long":"127.0698226","imageIndex":17,"items":[{"name":"매봉산장","tel":"031-723-7027","addr":"경기도 성남시 수정구 상적동 324번지","indutype":"","category":"other"}]},{"lat":"37.4347151","long":"127.0829916","imageIndex":17,"items":[{"name":"물소리","tel":"031-723-8805","addr":"경기도 성남시 수정구 상적동 14번지","indutype":"","category":"other"}]},{"lat":"37.4276316","long":"127.0712455","imageIndex":17,"items":[{"name":"부뚜막청국장","tel":"031-723-5668","addr":"경기도 성남시 수정구 상적동 276-6번지","indutype":"","category":"other"}]},{"lat":"37.4257494","long":"127.0695831","imageIndex":17,"items":[{"name":"산천가든","tel":"031-723-8679","addr":"경기도 성남시 수정구 상적동 285-1번지","indutype":"","category":"other"}]},{"lat":"37.4265497","long":"127.0723291","imageIndex":17,"items":[{"name":"소가등심주물럭","tel":"031-723-7616","addr":"경기도 성남시 수정구 상적동 248-5번지","indutype":"","category":"other"}]},{"lat":"37.4278842","long":"127.0706583","imageIndex":17,"items":[{"name":"열두화덕","tel":"031-759-7777","addr":"경기도 성남시 수정구 상적동 295-9번지","indutype":"","category":"other"}]},{"lat":"37.4298031","long":"127.0710441","imageIndex":17,"items":[{"name":"옛골산장","tel":"031-723-6562","addr":"경기도 성남시 수정구 상적동 215-1번지","indutype":"","category":"other"}]},{"lat":"37.4337507","long":"127.0834651","imageIndex":17,"items":[{"name":"저수지민물장어집","tel":"031-723-5643","addr":"경기도 성남시 수정구 상적동 96-1번지","indutype":"","category":"other"}]},{"lat":"37.4299384","long":"127.0707392","imageIndex":17,"items":[{"name":"주식회사 조앤이푸드 청계산지점","tel":"031-753-0592","addr":"경기도 성남시 수정구 상적동 310-3번지","indutype":"","category":"other"}]},{"lat":"37.4254716","long":"127.0668601","imageIndex":17,"items":[{"name":"주식회사 풍천가","tel":"031-757-8422","addr":"경기도 성남시 수정구 상적동 404번지","indutype":"","category":"other"}]},{"lat":"37.430334","long":"127.0722987","imageIndex":17,"items":[{"name":"주식회사 풍천가 고등점","tel":"","addr":"경기도 성남시 수정구 상적동 171번지","indutype":"","category":"other"}]},{"lat":"37.4249943","long":"127.0664417","imageIndex":17,"items":[{"name":"청계냇가집","tel":"031-723-8994","addr":"경기도 성남시 수정구 상적동 405-3번지","indutype":"","category":"other"}]},{"lat":"37.4306677","long":"127.0717454","imageIndex":17,"items":[{"name":"청계산감자탕","tel":"031-723-5701","addr":"경기도 성남시 수정구 상적동 211-1번지","indutype":"","category":"other"}]},{"lat":"37.4350207","long":"127.0841331","imageIndex":17,"items":[{"name":"청계산손두부","tel":"031-723-9156","addr":"경기도 성남시 수정구 상적동 9번지","indutype":"","category":"other"}]},{"lat":"37.4307483","long":"127.0725477","imageIndex":17,"items":[{"name":"풍천가","tel":"031-721-6252","addr":"경기도 성남시 수정구 상적동 173-1번지","indutype":"","category":"other"}]}]