[{"lat":"37.20700354","long":"127.54495973","imageIndex":13,"items":[{"name":"(더) The 예뻐졌다","tel":"070-7531-4199","addr":"경기도 여주시 가남읍 태평리 768-8번지 101호","indutype":"보건위생 - 피부미용실","category":"beauty"}]},{"lat":"37.203258222","long":"127.54431341","imageIndex":13,"items":[{"name":"21C대리운전","tel":"031-881-3395","addr":"경기도 여주시 가남읍 태평리 162-8번지","indutype":"보건위생 - 기타대인서비스","category":"beauty"}]},{"lat":"37.202615913","long":"127.54684326","imageIndex":13,"items":[{"name":"Y nail 와이네일","tel":"","addr":"경기도 여주시 가남읍 태평리 110-7번지 1층","indutype":"보건위생 - 피부미용실","category":"beauty"},{"name":"가나안안경","tel":"031-884-5817","addr":"경기도 여주시 가남읍 태평리 110-7번지","indutype":"보건위생 - 안경","category":"beauty"},{"name":"샤넬&커트클럽","tel":"031-882-0766","addr":"경기도 여주시 가남읍 태평리 110-7번지","indutype":"보건위생 - 미용원","category":"beauty"}]},{"lat":"37.203004015","long":"127.54669961","imageIndex":13,"items":[{"name":"꽃미용실","tel":"031-883-1023","addr":"경기도 여주시 가남읍 태평리 178-15번지","indutype":"보건위생 - 미용원","category":"beauty"}]},{"lat":"37.204032102","long":"127.54453296","imageIndex":13,"items":[{"name":"네이처컬렉션 여주가남점","tel":"031-882-0660","addr":"경기도 여주시 가남읍 태평리 174-4번지","indutype":"보건위생 - 화장품","category":"beauty"}]},{"lat":"37.203669126","long":"127.54509358","imageIndex":13,"items":[{"name":"다빈헤어","tel":"031-882-2688","addr":"경기도 여주시 가남읍 태평리 174-11번지","indutype":"보건위생 - 미용원","category":"beauty"}]},{"lat":"37.200645377","long":"127.54428349","imageIndex":13,"items":[{"name":"동명광역대리","tel":"031-882-1245","addr":"경기도 여주시 가남읍 태평리 112번지","indutype":"보건위생 - 기타대인서비스","category":"beauty"}]},{"lat":"37.202949438","long":"127.54681186","imageIndex":13,"items":[{"name":"몰리헤어샵","tel":"031-883-4939","addr":"경기도 여주시 가남읍 태평리 178-17번지","indutype":"보건위생 - 미용원","category":"beauty"}]},{"lat":"37.203809374","long":"127.54397942","imageIndex":13,"items":[{"name":"미래헤어뷰티","tel":"031-881-3187","addr":"경기도 여주시 가남읍 태평리 164-3번지","indutype":"보건위생 - 미용원","category":"beauty"}]},{"lat":"37.203198441","long":"127.54556332","imageIndex":13,"items":[{"name":"미인","tel":"070-8959-7661","addr":"경기도 여주시 가남읍 태평리 141-16번지","indutype":"보건위생 - 화장품","category":"beauty"}]},{"lat":"37.202702338","long":"127.54764363","imageIndex":13,"items":[{"name":"복대리운전","tel":"031-884-5567","addr":"경기도 여주시 가남읍 태평리 107-20번지","indutype":"보건위생 - 기타대인서비스","category":"beauty"}]},{"lat":"37.206008119","long":"127.54392753","imageIndex":13,"items":[{"name":"서울앤골프(Seoul &Golf)","tel":"031-881-0585","addr":"경기도 여주시 가남읍 태평리 781번지","indutype":"보건위생 - 기타대인서비스","category":"beauty"}]},{"lat":"37.203113013","long":"127.5465089","imageIndex":13,"items":[{"name":"선희미용실","tel":"031-882-2883","addr":"경기도 여주시 가남읍 태평리 178-18번지","indutype":"보건위생 - 미용원","category":"beauty"}]},{"lat":"37.2034253112","long":"127.5471757300","imageIndex":13,"items":[{"name":"센스머리방","tel":"031-881-0375","addr":"경기도 여주시 가남읍 태평리 103-2번지","indutype":"보건위생 - 미용원","category":"beauty"}]},{"lat":"37.203841322","long":"127.54684079","imageIndex":13,"items":[{"name":"수연헤어클럽","tel":"031-882-6955","addr":"경기도 여주시 가남읍 태평리 101-1번지","indutype":"보건위생 - 미용원","category":"beauty"}]},{"lat":"37.202758314","long":"127.54722726","imageIndex":13,"items":[{"name":"스킨헤어","tel":"031-882-3631","addr":"경기도 여주시 가남읍 태평리 107-9번지","indutype":"보건위생 - 미용원","category":"beauty"}]},{"lat":"37.206950329","long":"127.54869926","imageIndex":13,"items":[{"name":"열린안경","tel":"031-882-6419","addr":"경기도 여주시 가남읍 태평리 174-11번지","indutype":"보건위생 - 안경","category":"beauty"}]},{"lat":"37.203591214","long":"127.54636589","imageIndex":13,"items":[{"name":"영숙미용실","tel":"031-884-6240","addr":"경기도 여주시 가남읍 태평리 178-9번지","indutype":"보건위생 - 미용원","category":"beauty"}]},{"lat":"37.199201765","long":"127.54075892","imageIndex":13,"items":[{"name":"옥쌤 네일아트","tel":"","addr":"경기도 여주시 가남읍 태평리 476번지 1층 2호","indutype":"보건위생 - 피부미용실","category":"beauty"}]},{"lat":"37.204225957","long":"127.54745182","imageIndex":13,"items":[{"name":"이랑","tel":"031-882-9048","addr":"경기도 여주시 가남읍 태평리 100-2번지 1층","indutype":"보건위생 - 피부미용실","category":"beauty"}]},{"lat":"37.202806519","long":"127.54654049","imageIndex":13,"items":[{"name":"이뻐지자뷰티","tel":"031-885-0501","addr":"경기도 여주시 가남읍 태평리 141-5번지 2층","indutype":"보건위생 - 화장품","category":"beauty"}]},{"lat":"37.202891947","long":"127.54559491","imageIndex":13,"items":[{"name":"조이헤어클럽","tel":"031-881-1873","addr":"경기도 여주시 가남읍 태평리 141-59번지","indutype":"보건위생 - 미용원","category":"beauty"}]},{"lat":"37.203313403","long":"127.54603724","imageIndex":13,"items":[{"name":"케라헤어비스","tel":"031-884-7975","addr":"경기도 여주시 가남읍 태평리 178-35번지","indutype":"보건위생 - 미용원","category":"beauty"}]},{"lat":"37.203535626","long":"127.54473217","imageIndex":13,"items":[{"name":"태평목욕탕","tel":"031-883-8875","addr":"경기도 여주시 가남읍 태평리 163-4번지","indutype":"보건위생 - 사우나","category":"beauty"}]},{"lat":"37.203448294","long":"127.54609453","imageIndex":13,"items":[{"name":"헤드스파컴퍼니","tel":"031-884-7716","addr":"경기도 여주시 가남읍 태평리 178-10번지","indutype":"보건위생 - 미용재료","category":"beauty"}]},{"lat":"37.203337384","long":"127.546702","imageIndex":13,"items":[{"name":"헤어스토리","tel":"031-884-9165","addr":"경기도 여주시 가남읍 태평리 178-6번지","indutype":"보건위생 - 미용원","category":"beauty"}]},{"lat":"37.207197333","long":"127.54395855","imageIndex":13,"items":[{"name":"헤어와이","tel":"031-886-0301","addr":"경기도 여주시 가남읍 태평리 203-75번지 지층 101호","indutype":"보건위생 - 미용원","category":"beauty"}]},{"lat":"37.202005767","long":"127.54628694","imageIndex":13,"items":[{"name":"희망대리운전","tel":"031-882-4119","addr":"경기도 여주시 가남읍 태평리 141-30번지","indutype":"보건위생 - 기타대인서비스","category":"beauty"}]}]