[{"lat":"37.862639332","long":"127.06945211","imageIndex":4,"items":[{"name":"3190부대","tel":"03-111-1111","addr":"경기도 양주시 봉양동 537-1번지 사서함 118동 1층 34호","indutype":"일반휴게음식 - 일반한식","category":"restaurant"},{"name":"툇마루","tel":"031-859-3353","addr":"경기도 양주시 봉양동 537-1번지 1층","indutype":"일반휴게음식 - 일반한식","category":"restaurant"}]},{"lat":"37.857389237","long":"127.08031059","imageIndex":4,"items":[{"name":"3190부대","tel":"070-4176-9931","addr":"경기도 양주시 봉양동 211-2번지 사서함118동 1층 34호","indutype":"일반휴게음식 - 서양음식","category":"restaurant"}]},{"lat":"37.859808125","long":"127.05619967","imageIndex":4,"items":[{"name":"담은 한식뷔페","tel":"031-862-0300","addr":"경기도 양주시 봉양동 939-12번지 정호타운 1층","indutype":"일반휴게음식 - 일반한식","category":"restaurant"}]},{"lat":"37.854580973","long":"127.07614889","imageIndex":4,"items":[{"name":"두꺼비식당","tel":"031-858-4239","addr":"경기도 양주시 봉양동 409-7번지","indutype":"일반휴게음식 - 일반한식","category":"restaurant"}]},{"lat":"37.85563552","long":"127.0754227","imageIndex":4,"items":[{"name":"배양리 두루치기","tel":"031-862-2272","addr":"경기도 양주시 봉양동 409-12번지","indutype":"일반휴게음식 - 일반한식","category":"restaurant"}]},{"lat":"37.86527306","long":"127.06393139","imageIndex":4,"items":[{"name":"봉양마차","tel":"031-858-8851","addr":"경기도 양주시 봉양동 755-4번지","indutype":"일반휴게음식 - 일반한식","category":"restaurant"}]},{"lat":"37.860080498","long":"127.06975663","imageIndex":4,"items":[{"name":"부흥식당","tel":"031-858-8843","addr":"경기도 양주시 봉양동 544-13번지","indutype":"일반휴게음식 - 일반한식","category":"restaurant"}]},{"lat":"37.860692752","long":"127.07042764","imageIndex":4,"items":[{"name":"북경","tel":"031-862-6228","addr":"경기도 양주시 봉양동 529-1번지","indutype":"일반휴게음식 - 중국식","category":"restaurant"}]},{"lat":"37.868806647","long":"127.06011569","imageIndex":4,"items":[{"name":"시래기국밥","tel":"031-876-9472","addr":"경기도 양주시 봉양동 802-7번지","indutype":"일반휴게음식 - 일반한식","category":"restaurant"}]},{"lat":"37.854643448","long":"127.07709206","imageIndex":4,"items":[{"name":"신세계비빔국수","tel":"031-858-4664","addr":"경기도 양주시 봉양동 367-4번지","indutype":"일반휴게음식 - 일반한식","category":"restaurant"}]},{"lat":"37.857001074","long":"127.06653809","imageIndex":4,"items":[{"name":"옛골쌈밥","tel":"031-858-1484","addr":"경기도 양주시 봉양동 702-1번지 1층","indutype":"일반휴게음식 - 일반한식","category":"restaurant"}]},{"lat":"37.856473594","long":"127.075094","imageIndex":4,"items":[{"name":"욱이네한정식","tel":"031-858-9333","addr":"경기도 양주시 봉양동 572-8번지 11","indutype":"일반휴게음식 - 일반한식","category":"restaurant"}]},{"lat":"37.85894725","long":"127.08123265","imageIndex":4,"items":[{"name":"참하누","tel":"","addr":"경기도 양주시 봉양동 154-1번지 1층","indutype":"일반휴게음식 - 일반한식","category":"restaurant"}]},{"lat":"37.850505069","long":"127.08181455","imageIndex":4,"items":[{"name":"청수정","tel":"031-862-4920","addr":"경기도 양주시 봉양동 292-5번지","indutype":"일반휴게음식 - 일반한식","category":"restaurant"}]},{"lat":"37.86497404","long":"127.06714725","imageIndex":4,"items":[{"name":"초원갈비","tel":"031-858-9876","addr":"경기도 양주시 봉양동 776-1","indutype":"일반휴게음식 - 일반한식","category":"restaurant"}]},{"lat":"37.8692752","long":"127.05997967","imageIndex":4,"items":[{"name":"통큰","tel":"031-866-6009","addr":"경기도 양주시 봉양동 801-10번지 1층 일부","indutype":"일반휴게음식 - 중국식","category":"restaurant"}]},{"lat":"37.854418299","long":"127.07695548","imageIndex":4,"items":[{"name":"하나로치킨","tel":"031-858-7196","addr":"경기도 양주시 봉양동 367-6번지","indutype":"일반휴게음식 - 스넥","category":"restaurant"}]}]