[{"lat":"37.285092332","long":"127.0129745","imageIndex":13,"items":[{"name":"네일(Nail)스토리","tel":"031-224-3565","addr":"경기도 수원시 팔달구 신풍동 45-3번지 지하층","indutype":"보건위생 - 피부미용실","category":"beauty"}]},{"lat":"37.284705048","long":"127.01092212","imageIndex":13,"items":[{"name":"대길케어","tel":"031-252-9337","addr":"경기도 수원시 팔달구 신풍동 115번지","indutype":"보건위생 - 의료용품","category":"beauty"}]},{"lat":"37.28443458","long":"127.01300824","imageIndex":13,"items":[{"name":"머리하는날","tel":"031-255-1236","addr":"경기도 수원시 팔달구 신풍동 141번지","indutype":"보건위생 - 미용원","category":"beauty"},{"name":"힐링피부","tel":"031-242-9995","addr":"경기도 수원시 팔달구 신풍동 141번지 1층","indutype":"보건위생 - 피부미용실","category":"beauty"}]},{"lat":"37.284064904","long":"127.01564687","imageIndex":13,"items":[{"name":"메리트치과기공소","tel":"031-892-6800","addr":"경기도 수원시 팔달구 신풍동 201번지 5층 501호","indutype":"보건위생 - 의료용품","category":"beauty"}]},{"lat":"37.283650405","long":"127.01589488","imageIndex":13,"items":[{"name":"수원의지센타","tel":"031-258-8233","addr":"경기도 수원시 팔달구 신풍동 211번지 서원빌딩 2층","indutype":"보건위생 - 의료용품","category":"beauty"}]},{"lat":"37.284929988","long":"127.01469979","imageIndex":13,"items":[{"name":"신안대중탕","tel":"","addr":"경기도 수원시 팔달구 신풍동 158-1번지","indutype":"보건위생 - 사우나","category":"beauty"}]},{"lat":"37.285182401","long":"127.01336919","imageIndex":13,"items":[{"name":"참빗","tel":"031-256-3065","addr":"경기도 수원시 팔달구 신풍동 41번지","indutype":"보건위생 - 미용원","category":"beauty"}]},{"lat":"37.284732106","long":"127.01050489","imageIndex":13,"items":[{"name":"투세븐마켓(TWO7MATKET)","tel":"031-248-4181","addr":"경기도 수원시 팔달구 신풍동 116-3번지","indutype":"보건위생 - 화장품","category":"beauty"}]},{"lat":"37.285290445","long":"127.01422623","imageIndex":13,"items":[{"name":"한일헤어갤러리","tel":"031-244-0892","addr":"경기도 수원시 팔달구 신풍동 26-2번지","indutype":"보건위생 - 미용원","category":"beauty"}]},{"lat":"37.285488605","long":"127.01489158","imageIndex":13,"items":[{"name":"헤어디오미용실","tel":"031-245-7535","addr":"경기도 수원시 팔달구 신풍동 19-1번지 금강빌딩 101호","indutype":"보건위생 - 미용원","category":"beauty"}]}]