[{"lat":"37.889186482","long":"127.05867635","imageIndex":17,"items":[{"name":"& tem(앤템)","tel":"031-865-3746","addr":"경기도 동두천시 지행동 354번지 지행역동원베네스트아파트 지층 203호","indutype":"의류 - 정장","category":"other"}]},{"lat":"37.892356111","long":"127.06206656","imageIndex":17,"items":[{"name":"(주)이레피앤알","tel":"031-861-8252","addr":"경기도 동두천시 지행동 322-1번지","indutype":"용역 서비스 - 종합용역","category":"other"},{"name":"드림미디어(DreamMedia)","tel":"031-857-4368","addr":"경기도 동두천시 지행동 322-1번지 2호","indutype":"사무통신 - 컴퓨터","category":"other"}]},{"lat":"37.892575937","long":"127.05440432","imageIndex":17,"items":[{"name":"(주)피자헛동두천","tel":"031-861-7300","addr":"경기도 동두천시 지행동 695-3번지 동현프라자빌딩 2층","indutype":"유통업 영리 - 인터넷 Mall","category":"other"}]},{"lat":"37.891972436","long":"127.05411968","imageIndex":17,"items":[{"name":"0.5프로","tel":"031-865-7881","addr":"경기도 동두천시 지행동 721-1번지 시티타워 501호","indutype":"의류 - 정장","category":"other"},{"name":"봄나라요양원","tel":"031-866-7727","addr":"경기도 동두천시 지행동 721-1번지 시티타워 7층","indutype":"기타의료기관 - 기타의료기관 및 기타","category":"other"}]},{"lat":"37.893080523","long":"127.05425688","imageIndex":17,"items":[{"name":"AID 곰돌이포토(동두천점)","tel":"031-857-3588","addr":"경기도 동두천시 지행동 694-4번지 202호","indutype":"광학제품 - 사진관","category":"other"},{"name":"스튜디오드블랑","tel":"031-863-3451","addr":"경기도 동두천시 지행동 694-4번지 104호","indutype":"의류 - 정장","category":"other"},{"name":"어썸","tel":"070-7435-3993","addr":"경기도 동두천시 지행동 694-4번지 104호","indutype":"의류 - 정장","category":"other"}]},{"lat":"37.891638897","long":"127.05456282","imageIndex":17,"items":[{"name":"COME ON(컴온)","tel":"070-4138-1181","addr":"경기도 동두천시 지행동 721-3번지 중앙프라자 1층 113호","indutype":"의류 - 정장","category":"other"},{"name":"씨유동두천지행중앙점","tel":"031-857-5156","addr":"경기도 동두천시 지행동 721-3번지 중앙프라자 1층 104호","indutype":"유통업 영리 - 편 의 점","category":"other"},{"name":"코너스툴","tel":"031-868-5030","addr":"경기도 동두천시 지행동 721-3번지 중앙프라자 403호","indutype":"서적문구 - 일반서적","category":"other"},{"name":"클레오파트라","tel":"031-857-1334","addr":"경기도 동두천시 지행동 721-3번지 중앙프라자 8층 802호","indutype":"회원제형태 - 기타4","category":"other"}]},{"lat":"37.893464468","long":"127.06164681","imageIndex":17,"items":[{"name":"GS25 동두천휴먼빌","tel":"","addr":"경기도 동두천시 지행동 308번지 지행역휴먼빌아파트 101,102호","indutype":"유통업 영리 - 편 의 점","category":"other"}]},{"lat":"37.892555759","long":"127.05912226","imageIndex":17,"items":[{"name":"GS25동두천법원점","tel":"","addr":"경기도 동두천시 지행동 289-1번지","indutype":"유통업 영리 - 편 의 점","category":"other"}]},{"lat":"37.897047638","long":"127.04681276","imageIndex":17,"items":[{"name":"GS25동두천점","tel":"","addr":"경기도 동두천시 지행동 665번지","indutype":"유통업 영리 - 편 의 점","category":"other"}]},{"lat":"37.891999963","long":"127.05296012","imageIndex":17,"items":[{"name":"GS25동두천지행점","tel":"","addr":"경기도 동두천시 지행동 718-3번지 송내프라자 103호","indutype":"유통업 영리 - 편 의 점","category":"other"},{"name":"폰꾸미기","tel":"031-866-0003","addr":"경기도 동두천시 지행동 718-3번지 송내프라자 107호","indutype":"신변잡화 - 액세서리","category":"other"}]},{"lat":"37.891297095","long":"127.05328932","imageIndex":17,"items":[{"name":"GS25동두천현대점","tel":"","addr":"경기도 동두천시 지행동 719-3번지 현대프라자 104호","indutype":"유통업 영리 - 편 의 점","category":"other"},{"name":"베이비42","tel":"031-857-7643","addr":"경기도 동두천시 지행동 719-3 현대프라자 801호~802호","indutype":"광학제품 - 사진관","category":"other"},{"name":"은평대리점동두천점","tel":"031-865-3010","addr":"경기도 동두천시 지행동 719-3번지 현대프라자 106호","indutype":"사무통신 - 통신기기","category":"other"}]},{"lat":"37.891963584","long":"127.05375589","imageIndex":17,"items":[{"name":"GS25동두천효원점","tel":"","addr":"경기도 동두천시 지행동 721번지 효원월드타워 103호","indutype":"유통업 영리 - 편 의 점","category":"other"},{"name":"못된고양이","tel":"02-3789-7901","addr":"경기도 동두천시 지행동 721번지 효원월드타워 102호","indutype":"신변잡화 - 액세서리","category":"other"},{"name":"스타휘트니스","tel":"031-861-9696","addr":"경기도 동두천시 지행동 721번지 효원월드타워 403호","indutype":"회원제형태 - 레져업소","category":"other"}]},{"lat":"37.889269722","long":"127.05392455","imageIndex":17,"items":[{"name":"GS25송내2단지점","tel":"","addr":"경기도 동두천시 지행동 722-8번지 송내주공아파트 상가동 103호","indutype":"유통업 영리 - 편 의 점","category":"other"}]},{"lat":"37.888219121","long":"127.06537132","imageIndex":17,"items":[{"name":"GS25에코휴먼빌점","tel":"","addr":"경기도 동두천시 지행동 201-1번지 1층 좌측2칸","indutype":"유통업 영리 - 편 의 점","category":"other"}]},{"lat":"37.888078216","long":"127.0589256","imageIndex":17,"items":[{"name":"GS25지행아이다빌점","tel":"","addr":"경기도 동두천시 지행동 358번지","indutype":"유통업 영리 - 편 의 점","category":"other"}]},{"lat":"37.891520917","long":"127.056484","imageIndex":17,"items":[{"name":"GS25지행역점","tel":"","addr":"경기도 동두천시 지행동 735번지","indutype":"유통업 영리 - 편 의 점","category":"other"}]},{"lat":"37.891305119","long":"127.05554027","imageIndex":17,"items":[{"name":"N.B휘트니스클럽","tel":"031-858-6223","addr":"경기도 동두천시 지행동 424-1번지 지행역사 1층","indutype":"회원제형태 - 레져업소","category":"other"}]},{"lat":"37.892276789","long":"127.05845131","imageIndex":17,"items":[{"name":"YOON퍼피살롱","tel":"031-858-2253","addr":"경기도 동두천시 지행동 285-1번지","indutype":"문화.취미 - 애완동물","category":"other"},{"name":"세븐일레븐동두천법원점","tel":"031-1577-0711","addr":"경기도 동두천시 지행동 285-1번지 1층","indutype":"유통업 영리 - 편 의 점","category":"other"},{"name":"스타일텔레콤","tel":"031-866-5650","addr":"경기도 동두천시 지행동 285-1번지","indutype":"사무통신 - 통신기기","category":"other"}]},{"lat":"37.891519205","long":"127.0601219","imageIndex":17,"items":[{"name":"ZAIB TRADING","tel":"070-8762-5973","addr":"경기도 동두천시 지행동 334-20번지","indutype":"신변잡화 - 액세서리","category":"other"}]},{"lat":"37.89313533","long":"127.05250614","imageIndex":17,"items":[{"name":"거산세무법인(제2지점)","tel":"070-7723-9825","addr":"경기도 동두천시 지행동 693번지 이담프라자빌딩 6층 601호","indutype":"용역 서비스 - 법률회계서비스(법인)","category":"other"},{"name":"공인회계사유기봉사무","tel":"031-864-2360","addr":"경기도 동두천시 지행동 693번지 이담프라자빌딩 401호","indutype":"용역 서비스 - 법률회계서비스(개인)","category":"other"}]},{"lat":"37.894606079","long":"127.04690226","imageIndex":17,"items":[{"name":"경기북부HP서비스센터","tel":"02-2448-1722","addr":"경기도 동두천시 지행동 678번지 모던빌","indutype":"사무통신 - 컴퓨터","category":"other"}]},{"lat":"37.892721272","long":"127.05161911","imageIndex":17,"items":[{"name":"골든복싱","tel":"031-868-8979","addr":"경기도 동두천시 지행동 691-5번지","indutype":"회원제형태 - 레져업소","category":"other"},{"name":"다인","tel":"","addr":"경기도 동두천시 지행동 691-5번지 후면 영스포렉스 109호","indutype":"의류 - 정장","category":"other"},{"name":"마샬","tel":"031-866-3426","addr":"경기도 동두천시 지행동 691-5번지 영스포렉스 112호","indutype":"신변잡화 - 액세서리","category":"other"},{"name":"아빠올때 아이스크림사와","tel":"","addr":"경기도 동두천시 지행동 691-5번지 영스포렉스 109호","indutype":"유통업 영리 - 편 의 점","category":"other"},{"name":"애견세계","tel":"031-864-5029","addr":"경기도 동두천시 지행동 691-5번지 영스포렉스 111호","indutype":"문화.취미 - 애완동물","category":"other"},{"name":"영스포츠타운","tel":"031-859-9090","addr":"경기도 동두천시 지행동 691-5번지 영스포츠타운 6층","indutype":"회원제형태 - 레져업소","category":"other"},{"name":"오드온 (ODD ON)","tel":"","addr":"경기도 동두천시 지행동 691-5번지 영스포렉스 109호","indutype":"의류 - 정장","category":"other"},{"name":"이오시아","tel":"031-866-4963","addr":"경기도 동두천시 지행동 691-5번지 영스포렉스 111호","indutype":"의류 - 정장","category":"other"},{"name":"처음처럼","tel":"031-866-3426","addr":"경기도 동두천시 지행동 691-5번지 영스포렉스 107호","indutype":"신변잡화 - 액세서리","category":"other"},{"name":"파티","tel":"031-864-8388","addr":"경기도 동두천시 지행동 691-5번지 연스포렉스 112호","indutype":"의류 - 정장","category":"other"}]},{"lat":"37.895493341","long":"127.05797623","imageIndex":17,"items":[{"name":"공감티엔디","tel":"031-862-7755","addr":"경기도 동두천시 지행동 275-17번지","indutype":"건축자재 - 인테리어전문","category":"other"}]},{"lat":"37.890107515","long":"127.05409566","imageIndex":17,"items":[{"name":"굿라이트","tel":"031-864-4777","addr":"경기도 동두천시 지행동 722-3번지 동두천싸이언스타워 503호","indutype":"건축자재 - 조명기구","category":"other"},{"name":"두드림패션사업협동조합","tel":"070-8827-2397","addr":"경기도 동두천시 지행동 722-3번지 동두천싸이언스타워","indutype":"의류 - 정장","category":"other"},{"name":"상록수","tel":"031-963-6666","addr":"경기도 동두천시 지행동 722-3번지 동두천싸이언스타워 102호","indutype":"의류 - 내의판매","category":"other"},{"name":"에스에이컴퍼니(SA COMPANY)","tel":"031-866-1903","addr":"경기도 동두천시 지행동 722-3번지 동두천싸이언스타워 902호","indutype":"의류 - 정장","category":"other"},{"name":"엑시언","tel":"031-861-0526","addr":"경기도 동두천시 지행동 722-3번지 봉제지식산업센터 207동 206호 경기섬유","indutype":"의류 - 정장","category":"other"},{"name":"한마음케어","tel":"031-861-2191","addr":"경기도 동두천시 지행동 722-3번지 싸이언스타워 303호","indutype":"신변잡화 - 기타잡화","category":"other"},{"name":"호원무역","tel":"031-861-1909","addr":"경기도 동두천시 지행동 722-3번지 동두천싸이언스타워 903호","indutype":"의류 - 정장","category":"other"}]},{"lat":"37.888636275","long":"127.06000598","imageIndex":17,"items":[{"name":"굿샵 행복점","tel":"031-858-6833","addr":"경기도 동두천시 지행동 351-30번지 1층","indutype":"유통업 영리 - 편 의 점","category":"other"}]},{"lat":"37.889339479","long":"127.0590175","imageIndex":17,"items":[{"name":"그린몬스터","tel":"070-8862-6088","addr":"경기도 동두천시 지행동 354번지 동원베네스트 108동 301호","indutype":"회원제형태 - 기타4","category":"other"}]},{"lat":"37.892576036","long":"127.05417695","imageIndex":17,"items":[{"name":"금시당","tel":"031-862-7837","addr":"경기도 동두천시 지행동 695-2번지 연빌딩 104호","indutype":"신변잡화 - 귀금속","category":"other"},{"name":"도토리4","tel":"031-858-9142","addr":"경기도 동두천시 지행동 695-2번지 연빌딩 103호","indutype":"의류 - 정장","category":"other"},{"name":"반남박씨집의도사공파전곡종중","tel":"031-859-5828","addr":"경기도 동두천시 지행동 695-2 연빌딩2층201호,3층301호","indutype":"용역 서비스 - 부동산 중개·임대","category":"other"},{"name":"우리서점 송내","tel":"031-862-2929","addr":"경기도 동두천시 지행동 695-2번지 연빌딩 201호","indutype":"서적문구 - 일반서적","category":"other"},{"name":"우일칼라","tel":"031-868-4747","addr":"경기도 동두천시 지행동 695-2번지","indutype":"광학제품 - 사진관","category":"other"}]},{"lat":"37.894131759","long":"127.06043088","imageIndex":17,"items":[{"name":"꼬꼬곰 스튜디오","tel":"","addr":"경기도 동두천시 지행동 302번지 노조국민주택 2동 2층 205호","indutype":"서적문구 - 완구점","category":"other"}]},{"lat":"37.887347842","long":"127.06020961","imageIndex":17,"items":[{"name":"꼬마엔젤/아이맘","tel":"031-000-0000","addr":"경기도 동두천시 지행동 404-6번지 대림목화하이츠빌라 가동 103호","indutype":"회원제형태 - 기타4","category":"other"}]},{"lat":"37.892972217","long":"127.05470018","imageIndex":17,"items":[{"name":"꽃물들임","tel":"031-862-6111","addr":"경기도 동두천시 지행동 695-5번지 내행프라자 109호","indutype":"회원제형태 - 기타4","category":"other"},{"name":"다솜요양원","tel":"031-857-7329","addr":"경기도 동두천시 지행동 695-5번지 내행프라자 501호 502","indutype":"기타의료기관 - 기타의료기관 및 기타","category":"other"},{"name":"세무법인 나우","tel":"031-862-3675","addr":"경기도 동두천시 지행동 695-5번지 내행프라자 804호","indutype":"용역 서비스 - 법률회계서비스(법인)","category":"other"},{"name":"세무사임유민사무소","tel":"031-862-3675","addr":"경기도 동두천시 지행동 695-5번지 매행프라자 8층 804호","indutype":"용역 서비스 - 법률회계서비스(개인)","category":"other"},{"name":"쇼다운","tel":"070-7538-8449","addr":"경기도 동두천시 지행동 695-5번지 내행프라자 103,104호","indutype":"의류 - 정장","category":"other"},{"name":"웃도리","tel":"02-1111-1111","addr":"경기도 동두천시 지행동 695-5번지 내행프라자 205호","indutype":"의류 - 정장","category":"other"},{"name":"전우의집","tel":"031-863-3232","addr":"경기도 동두천시 지행동 695-5번지 내행프라자 107호","indutype":"신변잡화 - 기타잡화","category":"other"},{"name":"힐하우스","tel":"070-8259-1085","addr":"경기도 동두천시 지행동 695-5번지 내행프라자 106호","indutype":"신변잡화 - 신발","category":"other"}]},{"lat":"37.887858034","long":"127.06670105","imageIndex":17,"items":[{"name":"내셔널에이전시(National agency)","tel":"031-535-0825","addr":"경기도 동두천시 지행동 196번지 동두천에코휴먼빌2차 107동 1101호","indutype":"용역 서비스 - 사무서비스","category":"other"},{"name":"닥터 케이 (K)홈클린","tel":"","addr":"경기도 동두천시 지행동 196번지 동두천에코휴먼빌2차 103동 902호","indutype":"용역 서비스 - 종합용역","category":"other"}]},{"lat":"37.894884766","long":"127.04848271","imageIndex":17,"items":[{"name":"노랑뚱땡이","tel":"031-858-6888","addr":"경기도 동두천시 지행동 684-4번지 103호","indutype":"의류 - 아동의류","category":"other"}]},{"lat":"37.891972252","long":"127.05454032","imageIndex":17,"items":[{"name":"놀이터","tel":"031-857-4238","addr":"경기도 동두천시 지행동 721-2번지 지행역프라자 118호","indutype":"의류 - 정장","category":"other"},{"name":"늘사랑노인전문요양원","tel":"031-872-1234","addr":"경기도 동두천시 지행동 721-2번지 지행역프라자 402호","indutype":"기타의료기관 - 기타의료기관 및 기타","category":"other"},{"name":"대광사","tel":"031-862-8857","addr":"경기도 동두천시 지행동 721-2번지 지행역프라자 115호","indutype":"서적문구 - 문구용품","category":"other"},{"name":"동두천 컨벤션 웨딩","tel":"031-862-2500","addr":"경기도 동두천시 지행동 721-2번지 지행역프라자 6,7층","indutype":"용역 서비스 - 혼례서비스","category":"other"},{"name":"동두천알파문구","tel":"031-858-1377","addr":"경기도 동두천시 지행동 721-2번지 지행역프라자 2층 202호~203호","indutype":"서적문구 - 문구용품","category":"other"},{"name":"보디가드 동두천점","tel":"031-857-9903","addr":"경기도 동두천시 지행동 721-2번지 지행역프라자 1층 107호","indutype":"의류 - 내의판매","category":"other"},{"name":"우리친구슬라임","tel":"031-111-1111","addr":"경기도 동두천시 지행동 721-2번지 지행역프라자 209호","indutype":"서적문구 - 완구점","category":"other"},{"name":"운동가짐","tel":"031-867-2347","addr":"경기도 동두천시 지행동 721-2번지 지행역프라자 401호","indutype":"레져용품 - 스포츠·레져용품","category":"other"},{"name":"하나쥬얼리","tel":"031-864-5889","addr":"경기도 동두천시 지행동 721-2번지 지행역프라자 1층 120호","indutype":"신변잡화 - 귀금속","category":"other"}]},{"lat":"37.893691935","long":"127.0569858","imageIndex":17,"items":[{"name":"다솜기획","tel":"031-866-0477","addr":"경기도 동두천시 지행동 729-3번지","indutype":"용역 서비스 - 종합용역","category":"other"}]},{"lat":"37.895358212","long":"127.05795339","imageIndex":17,"items":[{"name":"대명테크","tel":"031-858-9292","addr":"경기도 동두천시 지행동 275-18번지 1층 103호","indutype":"전기제품 - 기타전기제품","category":"other"},{"name":"맘's 노리터","tel":"","addr":"경기도 동두천시 지행동 275-18번지","indutype":"의류 - 정장","category":"other"}]},{"lat":"37.891825494","long":"127.06017897","imageIndex":17,"items":[{"name":"대성유리창호","tel":"031-865-2541","addr":"경기도 동두천시 지행동 332-26번지 미라클하우스 B동 101호","indutype":"회원제형태 - 기타4","category":"other"}]},{"lat":"37.891913778","long":"127.06378285","imageIndex":17,"items":[{"name":"대영조명","tel":"031-858-9701","addr":"경기도 동두천시 지행동 258번지","indutype":"건축자재 - 조명기구","category":"other"},{"name":"외고서점","tel":"031-838-6111","addr":"경기도 동두천시 지행동 258번지","indutype":"서적문구 - 일반서적","category":"other"},{"name":"외고서점","tel":"031-838-6111","addr":"경기도 동두천시 지행동 258번지","indutype":"서적문구 - 일반서적","category":"other"}]},{"lat":"37.891999813","long":"127.05331254","imageIndex":17,"items":[{"name":"대풍당","tel":"031-865-2705","addr":"경기도 동두천시 지행동 718-4번지","indutype":"신변잡화 - 귀금속","category":"other"},{"name":"베이비솜스튜디오","tel":"031-868-0300","addr":"경기도 동두천시 지행동 718-4번지 6층 601호,602호","indutype":"광학제품 - 사진관","category":"other"},{"name":"블랙빈","tel":"031-866-1205","addr":"경기도 동두천시 지행동 718-4번지 스타월드 403호","indutype":"의류 - 정장","category":"other"},{"name":"애플24신시가지점","tel":"031-858-0043","addr":"경기도 동두천시 지행동 718-4번지 스타월드빌딩 107호","indutype":"유통업 영리 - 편 의 점","category":"other"},{"name":"이마트24 동두천지행점","tel":"031-1111-1111","addr":"경기도 동두천시 지행동 718-4번지 스타월드빌딩 102호","indutype":"유통업 영리 - 편 의 점","category":"other"},{"name":"지행텔레콤","tel":"031-859-8010","addr":"경기도 동두천시 지행동 718-4번지 스타월드 113호","indutype":"사무통신 - 통신기기","category":"other"}]},{"lat":"37.897137595","long":"127.04717663","imageIndex":17,"items":[{"name":"대한사료","tel":"031-868-7558","addr":"경기도 동두천시 지행동 665-2번지","indutype":"농업 - 비료,사료,종자","category":"other"}]},{"lat":"37.892693893","long":"127.05246037","imageIndex":17,"items":[{"name":"댑 코리아(지행점)","tel":"031-866-0050","addr":"경기도 동두천시 지행동 693-2번지","indutype":"의류 - 내의판매","category":"other"},{"name":"삼십팔점오(38.5)","tel":"070-7420-4891","addr":"경기도 동두천시 지행동 693-2번지 생연프라자 303호","indutype":"문화.취미 - 애완동물","category":"other"},{"name":"주식회사케이티에프정안","tel":"031-846-5018","addr":"경기도 동두천시 지행동 693-2번지 생연프라자 110호","indutype":"사무통신 - 통신기기","category":"other"},{"name":"중앙정보통신","tel":"031-862-0051","addr":"경기도 동두천시 지행동 693-2번지 생연프라자 104호","indutype":"사무통신 - 통신기기","category":"other"},{"name":"허밍(humming)","tel":"070-4241-8585","addr":"경기도 동두천시 지행동 693-2번지 생연프라자 101호","indutype":"의류 - 정장","category":"other"}]},{"lat":"37.895245625","long":"127.04720961","imageIndex":17,"items":[{"name":"돈까로스편의점","tel":"031-861-5005","addr":"경기도 동두천시 지행동 677-7번지","indutype":"유통업 영리 - 편 의 점","category":"other"}]},{"lat":"37.892944229","long":"127.05683746","imageIndex":17,"items":[{"name":"동두천 전자담배","tel":"031-861-5703","addr":"경기도 동두천시 지행동 730-2번지 죽산빌딩 1층","indutype":"기타 - 기타 전문점","category":"other"},{"name":"런텔레콤","tel":"031-863-3010","addr":"경기도 동두천시 지행동 730-2번지 죽산빌딩 104호","indutype":"사무통신 - 통신기기","category":"other"}]},{"lat":"37.888853938","long":"127.05695953","imageIndex":17,"items":[{"name":"동원공인중개사사무소","tel":"031-866-1710","addr":"경기도 동두천시 지행동 475-1번지 영종상가 103호","indutype":"용역 서비스 - 부동산 중개·임대","category":"other"}]},{"lat":"37.891693872","long":"127.05242559","imageIndex":17,"items":[{"name":"두손공인중개사","tel":"031-857-6301","addr":"경기도 동두천시 지행동 718-1번지 두손이리옴프라자","indutype":"용역 서비스 - 부동산 중개·임대","category":"other"},{"name":"물 (MOOL)","tel":"070-4042-9368","addr":"경기도 동두천시 지행동 718-1번지 두손프라자 103호","indutype":"의류 - 정장","category":"other"},{"name":"요기니요가","tel":"031-865-2953","addr":"경기도 동두천시 지행동 718-1번지 두손프라자 602호","indutype":"회원제형태 - 레져업소","category":"other"},{"name":"지행종합격투기","tel":"031-532-4045","addr":"경기도 동두천시 지행동 718-1번지 두손프라자 602호","indutype":"회원제형태 - 레져업소","category":"other"},{"name":"체이스컬트 동두천점","tel":"031-859-3884","addr":"경기도 동두천시 지행동 718-1번지 두손이리옴프라자 107호","indutype":"의류 - 스포츠의류","category":"other"}]},{"lat":"37.894714003","long":"127.04740256","imageIndex":17,"items":[{"name":"라라(lala)디퓨저","tel":"031-000-0000","addr":"경기도 동두천시 지행동 678-3번지 204호","indutype":"신변잡화 - 기타잡화","category":"other"}]},{"lat":"37.892603398","long":"127.0534039","imageIndex":17,"items":[{"name":"라라코스트 동두천점","tel":"031-858-8382","addr":"경기도 동두천시 지행동 693-6번지 3층","indutype":"주방용구 - 주방용구","category":"other"},{"name":"토즈멤버십라운지동두천지행센타","tel":"031-861-0917","addr":"경기도 동두천시 지행동 693-6번지 크라운732 4층 401호","indutype":"용역 서비스 - 사무서비스","category":"other"}]},{"lat":"37.895046925","long":"127.04850555","imageIndex":17,"items":[{"name":"라울","tel":"031-866-0979","addr":"경기도 동두천시 지행동 684-3번지 101호","indutype":"의류 - 정장","category":"other"}]},{"lat":"37.897110252","long":"127.04800657","imageIndex":17,"items":[{"name":"런드리위드카페","tel":"","addr":"경기도 동두천시 지행동 666-1번지 상가 102호 101호,102호","indutype":"수리서비스 - 세탁소","category":"other"}]},{"lat":"37.887385433","long":"127.05692435","imageIndex":17,"items":[{"name":"로켓트보일러북부판매(주)","tel":"031-862-9000","addr":"경기도 동두천시 지행동 406-11번지","indutype":"건축자재 - 보일러·펌프·샷시","category":"other"},{"name":"한북인쇄교재","tel":"031-852-6125","addr":"경기도 동두천시 지행동 406-11번지 2층","indutype":"서적문구 - 출판 및 인쇄물","category":"other"}]},{"lat":"37.889915842","long":"127.05950677","imageIndex":17,"items":[{"name":"루스틱","tel":"031-000-0000","addr":"경기도 동두천시 지행동 350-12번지 101호","indutype":"신변잡화 - 기타잡화","category":"other"},{"name":"진성공조","tel":"070-4130-9416","addr":"경기도 동두천시 지행동 350-12번지","indutype":"전기제품 - 냉열기기","category":"other"}]},{"lat":"37.89254751","long":"127.05750792","imageIndex":17,"items":[{"name":"리안텔레콤","tel":"031-822-9858","addr":"경기도 동두천시 지행동 531-1번지 3호","indutype":"사무통신 - 통신기기","category":"other"},{"name":"온모바일","tel":"031-822-9858","addr":"경기도 동두천시 지행동 531-1번지 1층","indutype":"신변잡화 - 기타잡화","category":"other"}]},{"lat":"37.894749627","long":"127.04848263","imageIndex":17,"items":[{"name":"마레","tel":"031-866-3412","addr":"경기도 동두천시 지행동 684-5번지","indutype":"의류 - 정장","category":"other"},{"name":"클린세탁","tel":"031-859-5688","addr":"경기도 동두천시 지행동 684-5번지","indutype":"수리서비스 - 세탁소","category":"other"}]},{"lat":"37.893304561","long":"127.05692867","imageIndex":17,"items":[{"name":"마리코코","tel":"031-867-1683","addr":"경기도 동두천시 지행동 730번지","indutype":"의류 - 정장","category":"other"},{"name":"명성OA","tel":"031-855-1120","addr":"경기도 동두천시 지행동 730번지","indutype":"사무통신 - 기타 사무용품","category":"other"}]},{"lat":"37.894160073","long":"127.05773649","imageIndex":17,"items":[{"name":"만수무강 한복 전문점","tel":"031-858-8959","addr":"경기도 동두천시 지행동 282-17번지 세도상가 201,202호","indutype":"의류 - 맞춤복점","category":"other"},{"name":"씨유동두천현대점","tel":"031-861-2993","addr":"경기도 동두천시 지행동 282-17번지 세도 상가 101호","indutype":"유통업 영리 - 편 의 점","category":"other"}]},{"lat":"37.893331817","long":"127.05642847","imageIndex":17,"items":[{"name":"매력이네 수입창고","tel":"031-864-4455","addr":"경기도 동두천시 지행동 731번지 1층 102호","indutype":"의류 - 정장","category":"other"}]},{"lat":"37.895191074","long":"127.04850564","imageIndex":17,"items":[{"name":"멍#","tel":"031-865-7585","addr":"경기도 동두천시 지행동 684-2번지 다솜빌 102호","indutype":"문화.취미 - 애완동물","category":"other"}]},{"lat":"37.892576228","long":"127.05373357","imageIndex":17,"items":[{"name":"메디칼요양원","tel":"031-858-1188","addr":"경기도 동두천시 지행동 695번지 M클리닉센터 8 ,9,10","indutype":"기타의료기관 - 기타의료기관 및 기타","category":"other"}]},{"lat":"37.895497549","long":"127.04809654","imageIndex":17,"items":[{"name":"명성건축","tel":"031-874-5004","addr":"경기도 동두천시 지행동 681-4번지","indutype":"용역 서비스 - 기타용역서비스","category":"other"}]},{"lat":"37.892576135","long":"127.05394957","imageIndex":17,"items":[{"name":"명진종합관리","tel":"031-857-5678","addr":"경기도 동두천시 지행동 695-1번지 한승빌딩 901호","indutype":"용역 서비스 - 종합용역","category":"other"},{"name":"본스PC수리","tel":"070-8816-1183","addr":"경기도 동두천시 지행동 695-1번지 한승빌딩 501호","indutype":"수리서비스 - 사무·통신기기수리","category":"other"},{"name":"카네이션요양원","tel":"031-858-3633","addr":"경기도 동두천시 지행동 695-1번지 한승빌딩","indutype":"기타의료기관 - 기타의료기관 및 기타","category":"other"}]},{"lat":"37.889996964","long":"127.05942726","imageIndex":17,"items":[{"name":"무자크","tel":"031-866-0058","addr":"경기도 동두천시 지행동 350-11번지 111-1호","indutype":"의류 - 스포츠의류","category":"other"}]},{"lat":"37.892781074","long":"127.05895191","imageIndex":17,"items":[{"name":"문지기열쇠","tel":"031-862-1333","addr":"경기도 동두천시 지행동 290-5번지 삼익빌라 나동 102호","indutype":"수리서비스 - 기타수리서비스","category":"other"}]},{"lat":"37.890518008","long":"127.06246298","imageIndex":17,"items":[{"name":"민 인테리어","tel":"","addr":"경기도 동두천시 지행동 374-7번지 한울빌라 가동 301호","indutype":"건축자재 - 인테리어전문","category":"other"}]},{"lat":"37.892800091","long":"127.05681462","imageIndex":17,"items":[{"name":"법무사김원태사무소","tel":"031-878-0400","addr":"경기도 동두천시 지행동 730-3번지 외1필지 201호","indutype":"용역 서비스 - 법률회계서비스(개인)","category":"other"},{"name":"양키캔들(동두천점)","tel":"031-858-4879","addr":"경기도 동두천시 지행동 730-3번지 104호","indutype":"신변잡화 - 기타잡화","category":"other"},{"name":"에스핏(SFIT)동두천지행점","tel":"031-857-0088","addr":"경기도 동두천시 지행동 730-3번지 107호","indutype":"의류 - 스포츠의류","category":"other"}]},{"lat":"37.889913791","long":"127.06362205","imageIndex":17,"items":[{"name":"베베옷방","tel":"031-859-4258","addr":"경기도 동두천시 지행동 172번지 지행 동양엔파트 상가 1층 105","indutype":"의류 - 정장","category":"other"},{"name":"씨유동두천동양앤파트점","tel":"031-866-5356","addr":"경기도 동두천시 지행동 172번지 단지 상가 102호","indutype":"유통업 영리 - 편 의 점","category":"other"},{"name":"알프스세탁","tel":"031-868-8830","addr":"경기도 동두천시 지행동 172번지 동양엔파트근린생활시설 1층 109호","indutype":"수리서비스 - 세탁소","category":"other"},{"name":"온테크","tel":"070-7522-9500","addr":"경기도 동두천시 지행동 172번지 지행동동양엔파트 107동 903호","indutype":"회원제형태 - 기타1","category":"other"},{"name":"온테크","tel":"070-7522-9500","addr":"경기도 동두천시 지행동 172번지 동양엔파트 107동 903호","indutype":"사무통신 - 통신기기","category":"other"}]},{"lat":"37.89330749","long":"127.05011883","imageIndex":17,"items":[{"name":"베스트","tel":"070-7580-5152","addr":"경기도 동두천시 지행동 691-3번지 현진에버빌 107동 1102호","indutype":"의류 - 내의판매","category":"other"}]},{"lat":"37.890520575","long":"127.05715401","imageIndex":17,"items":[{"name":"보령석재","tel":"031-862-3700","addr":"경기도 동두천시 지행동 351-2번지","indutype":"기타 - 기타 전문점","category":"other"}]},{"lat":"37.891387555","long":"127.05242539","imageIndex":17,"items":[{"name":"비비드스템프","tel":"070-7579-8657","addr":"경기도 동두천시 지행동 718번지 메인프라자 101호","indutype":"사무통신 - 기타 사무용품","category":"other"},{"name":"비비드키즈","tel":"070-7579-8657","addr":"경기도 동두천시 지행동 718번지 메인프라자 101호","indutype":"의류 - 아동의류","category":"other"},{"name":"솔드아웃(SOLD OUT)","tel":"070-4176-9931","addr":"경기도 동두천시 지행동 718번지 메인프라자 1층 108호","indutype":"의류 - 정장","category":"other"},{"name":"좋은친구들문구","tel":"031-857-0882","addr":"경기도 동두천시 지행동 718번지 메인프라자 107호","indutype":"서적문구 - 문구용품","category":"other"},{"name":"포토라인","tel":"031-862-3993","addr":"경기도 동두천시 지행동 699메인프라자106","indutype":"광학제품 - 사진관","category":"other"},{"name":"폼나리","tel":"031-859-6166","addr":"경기도 동두천시 지행동 718번지 메인프라자 102호","indutype":"의류 - 정장","category":"other"},{"name":"핏앤핏마켓","tel":"02-1111-1111","addr":"경기도 동두천시 지행동 718번지 메인프라자 101호","indutype":"의류 - 정장","category":"other"},{"name":"홈스테리어","tel":"031-865-8341","addr":"경기도 동두천시 지행동 699메인프라자202호","indutype":"직물 - 침구·수예점","category":"other"}]},{"lat":"37.891493801","long":"127.05667725","imageIndex":17,"items":[{"name":"빨간지붕/(주)에이치앤컴퍼니 동두천지점","tel":"02-1111-1111","addr":"경기도 동두천시 지행동 735-1번지","indutype":"의류 - 스포츠의류","category":"other"}]},{"lat":"37.892000141","long":"127.05253948","imageIndex":17,"items":[{"name":"사랑모아","tel":"031-868-3275","addr":"경기도 동두천시 지행동 718-2번지 성지에스앤비타워601~602호 601호","indutype":"기타의료기관 - 기타의료기관 및 기타","category":"other"},{"name":"서울보청기","tel":"031-858-9761","addr":"경기도 동두천시 지행동 718-2번지 성지에스앤비타워 402호","indutype":"기타의료기관 - 기타의료기관 및 기타","category":"other"},{"name":"서울피부비만클리닉","tel":"031-858-9760","addr":"경기도 동두천시 지행동 718-2.401호~402호","indutype":"회원제형태 - 기타4","category":"other"},{"name":"세영세무회계사무소","tel":"031-863-4255","addr":"경기도 동두천시 지행동 718-2번지 성지에스앤비타워 3층 307호","indutype":"용역 서비스 - 법률회계서비스(개인)","category":"other"},{"name":"슈슈","tel":"031-858-8049","addr":"경기도 동두천시 지행동 718-2번지 성지에스앤비타워 108호","indutype":"신변잡화 - 신발","category":"other"},{"name":"슈슈","tel":"031-858-8049","addr":"경기도 동두천시 지행동 718-2번지 성지에스앤비타워 108호","indutype":"신변잡화 - 신발","category":"other"},{"name":"연희공방","tel":"031-862-7159","addr":"경기도 동두천시 지행동 718-2번지 성지타워 703호","indutype":"문화.취미 - 문화취미기타","category":"other"},{"name":"창고형할인매장","tel":"070-7013-8874","addr":"경기도 동두천시 지행동 718-2번지 성지에스앤비타워 109호","indutype":"의류 - 정장","category":"other"},{"name":"타임유 스터디카페 동두천지행점","tel":"","addr":"경기도 동두천시 지행동 718-2번지 성지에스앤비타워 504호","indutype":"용역 서비스 - 사무서비스","category":"other"},{"name":"프롬.비 (FROM.B)","tel":"031-867-0622","addr":"경기도 동두천시 지행동 718-2번지 성지에스앤비타워 1층 112호","indutype":"의류 - 아동의류","category":"other"}]},{"lat":"37.893730928","long":"127.0501191","imageIndex":17,"items":[{"name":"선물나라","tel":"031-825-3222","addr":"경기도 동두천시 지행동 691-3번지 현진에버빌 105동 501호","indutype":"회원제형태 - 기타4","category":"other"}]},{"lat":"37.894908094","long":"127.0572027","imageIndex":17,"items":[{"name":"세나(SENA)","tel":"070-4808-0519","addr":"경기도 동두천시 지행동 728-2번지 OK하우스 105호","indutype":"의류 - 정장","category":"other"}]},{"lat":"37.893693316","long":"127.0538935","imageIndex":17,"items":[{"name":"세븐일레븐동두천부영점","tel":"","addr":"경기도 동두천시 지행동 692-6번지 부영아파트 상가 106호","indutype":"유통업 영리 - 편 의 점","category":"other"}]},{"lat":"37.893520774","long":"127.05695157","imageIndex":17,"items":[{"name":"세븐일레븐동두천지행평화점","tel":"031-868-4161","addr":"경기도 동두천시 지행동 729-4번지 제이앤제이빌딩 104호","indutype":"유통업 영리 - 편 의 점","category":"other"},{"name":"앤 (Ann)","tel":"031-858-3824","addr":"경기도 동두천시 지행동 729-4번지 제이앤제이빌딩 101호","indutype":"의류 - 정장","category":"other"},{"name":"케빈사진관","tel":"031-866-3131","addr":"경기도 동두천시 지행동 729-4번지 제이앤제이 401호","indutype":"광학제품 - 사진관","category":"other"}]},{"lat":"37.88755561","long":"127.05906162","imageIndex":17,"items":[{"name":"세븐일레븐지행원룸점","tel":"031-1577-0711","addr":"경기도 동두천시 지행동 406-63번지","indutype":"유통업 영리 - 편 의 점","category":"other"}]},{"lat":"37.893026934","long":"127.05317682","imageIndex":17,"items":[{"name":"스웩샵(SWAG #)","tel":"031-863-9283","addr":"경기도 동두천시 지행동 694번지 예일복합타워 112호","indutype":"신변잡화 - 액세서리","category":"other"}]},{"lat":"37.895082571","long":"127.04950604","imageIndex":17,"items":[{"name":"신천문구","tel":"031-859-0449","addr":"경기도 동두천시 지행동 691 부영3단지단지내상가1층103호","indutype":"서적문구 - 문구용품","category":"other"}]},{"lat":"37.893522731","long":"127.0525064","imageIndex":17,"items":[{"name":"씨유동두천지행우체국점","tel":"031-866-7263","addr":"경기도 동두천시 지행동 692-7번지 동두천지행동우체국 1층","indutype":"유통업 영리 - 편 의 점","category":"other"}]},{"lat":"37.888773212","long":"127.05617508","imageIndex":17,"items":[{"name":"아이포토기획","tel":"031-865-1185","addr":"경기도 동두천시 지행동 737-5번지 301호","indutype":"광학제품 - 사진관","category":"other"}]},{"lat":"37.893357393","long":"127.05953215","imageIndex":17,"items":[{"name":"엘지냉난방설치점","tel":"031-865-9405","addr":"경기도 동두천시 지행동 296번지 동현주택 102호","indutype":"용역 서비스 - 기타용역서비스","category":"other"}]},{"lat":"37.895713615","long":"127.04850596","imageIndex":17,"items":[{"name":"영일자전거용품","tel":"031-868-0010","addr":"경기도 동두천시 지행동 680-2번지 101호","indutype":"레져용품 - 스포츠·레져용품","category":"other"}]},{"lat":"37.89133258","long":"127.05456261","imageIndex":17,"items":[{"name":"예삐플라워","tel":"031-864-1004","addr":"경기도 동두천시 지행동 721-4번지 송내메가타운 107호","indutype":"문화.취미 - 화원","category":"other"},{"name":"지에스컴퍼니","tel":"031-861-3559","addr":"경기도 동두천시 지행동 721-4번지 송내메가타운 104호","indutype":"신변잡화 - 기타잡화","category":"other"},{"name":"풀잎문화센터","tel":"031-864-5589","addr":"경기도 동두천시 지행동 721-4번지 송내메가타운 601호","indutype":"문화.취미 - 문화취미기타","category":"other"},{"name":"하나국제결혼","tel":"031-857-2153","addr":"경기도 동두천시 지행동 721-4번지 송내메가타운 602호","indutype":"회원제형태 - 기타4","category":"other"},{"name":"헤윰아트","tel":"","addr":"경기도 동두천시 지행동 721-4번지 송내메가타운 1002호","indutype":"문화.취미 - 화랑","category":"other"}]},{"lat":"37.894466674","long":"127.0571228","imageIndex":17,"items":[{"name":"와이디모바일(YD mobile)","tel":"031-861-9955","addr":"경기도 동두천시 지행동 728-4번지","indutype":"사무통신 - 통신기기","category":"other"},{"name":"향기캠프","tel":"031-861-0021","addr":"경기도 동두천시 지행동 728-4번지","indutype":"신변잡화 - 기타잡화","category":"other"}]},{"lat":"37.896300163","long":"127.04600511","imageIndex":17,"items":[{"name":"우주공업사","tel":"031-864-2189","addr":"경기도 동두천시 지행동 661-3번지","indutype":"회원제형태 - 기타4","category":"other"}]},{"lat":"37.895606278","long":"127.04645946","imageIndex":17,"items":[{"name":"우진산전","tel":"031-877-8273","addr":"경기도 동두천시 지행동 674-2번지","indutype":"수리서비스 - 가정용품수리","category":"other"}]},{"lat":"37.890302539","long":"127.06095083","imageIndex":17,"items":[{"name":"워시프렌즈 셀프빨래방 동두천지행점","tel":"031-111-1111","addr":"경기도 동두천시 지행동 348-2번지 1층 3호","indutype":"수리서비스 - 세탁소","category":"other"},{"name":"페트레잇","tel":"","addr":"경기도 동두천시 지행동 348-2번지","indutype":"광학제품 - 사진관","category":"other"}]},{"lat":"37.890943101","long":"127.0590983","imageIndex":17,"items":[{"name":"이담통상","tel":"031-862-4861","addr":"경기도 동두천시 지행동 342-1번지 현성하이츠 301호","indutype":"기타 - 기타 전문점","category":"other"}]},{"lat":"37.887384551","long":"127.0588114","imageIndex":17,"items":[{"name":"이레피엔알에이","tel":"031-871-1123","addr":"경기도 동두천시 지행동 406-45번지","indutype":"용역 서비스 - 종합용역","category":"other"}]},{"lat":"37.89446694","long":"127.05654298","imageIndex":17,"items":[{"name":"이마트24 동두천지행역점","tel":"","addr":"경기도 동두천시 지행동 727-5번지","indutype":"유통업 영리 - 편 의 점","category":"other"},{"name":"이마트24 동두천지행역점","tel":"","addr":"경기도 동두천시 지행동 727-5번지","indutype":"유통업 영리 - 편 의 점","category":"other"}]},{"lat":"37.888688592","long":"127.06348463","imageIndex":17,"items":[{"name":"이마트24 동두천지행타운점","tel":"031-111-1111","addr":"경기도 동두천시 지행동 171-12번지","indutype":"유통업 영리 - 편 의 점","category":"other"}]},{"lat":"37.891275925","long":"127.06017855","imageIndex":17,"items":[{"name":"이마트24 지행빌리지","tel":"031-1111-1111","addr":"경기도 동두천시 지행동 334-1번지","indutype":"유통업 영리 - 편 의 점","category":"other"}]},{"lat":"37.891194145","long":"127.07750388","imageIndex":17,"items":[{"name":"이마트24동두천영웅점","tel":"03-111-1111","addr":"경기도 동두천시 지행동 산23-2번지 2동 지하2층","indutype":"유통업 영리 - 편 의 점","category":"other"}]},{"lat":"37.890187563","long":"127.0564262","imageIndex":17,"items":[{"name":"이영휘한복","tel":"031-864-0620","addr":"경기도 동두천시 지행동 736-5번지","indutype":"의류 - 맞춤복점","category":"other"}]},{"lat":"37.890686083","long":"127.04934411","imageIndex":17,"items":[{"name":"일단지주공세탁소","tel":"031-859-7048","addr":"경기도 동두천시 지행동 717-2.송내주공1단지상가.205","indutype":"수리서비스 - 세탁소","category":"other"}]},{"lat":"37.89191447","long":"127.06243","imageIndex":17,"items":[{"name":"재크와콩나무","tel":"031-857-6277","addr":"경기도 동두천시 지행동 322-12번지","indutype":"건축자재 - 목재·석재·철물","category":"other"}]},{"lat":"37.896579255","long":"127.04653962","imageIndex":17,"items":[{"name":"제일지물상사","tel":"031-865-4187","addr":"경기도 동두천시 지행동 664-1번지","indutype":"직물 - 카페트,커튼,천막,지물","category":"other"}]},{"lat":"37.895077396","long":"127.06112512","imageIndex":17,"items":[{"name":"주블리","tel":"031-867-1230","addr":"경기도 동두천시 지행동 270-34번지 A동 103호","indutype":"문화.취미 - 애완동물","category":"other"}]},{"lat":"37.893827065","long":"127.05700864","imageIndex":17,"items":[{"name":"쥬베나일 블라썸","tel":"031-857-0857","addr":"경기도 동두천시 지행동 729-2번지 1층","indutype":"의류 - 정장","category":"other"}]},{"lat":"37.892859468","long":"127.06434069","imageIndex":17,"items":[{"name":"쥬비코스 르네셀","tel":"031-857-4646","addr":"경기도 동두천시 지행동 262-10번지","indutype":"회원제형태 - 기타1","category":"other"}]},{"lat":"37.894009876","long":"127.05096057","imageIndex":17,"items":[{"name":"지앤에이테크놀로지","tel":"031-863-9926","addr":"경기도 동두천시 지행동 691-3번지 현진에버빌 103동 501호","indutype":"수리서비스 - 기타수리서비스","category":"other"}]},{"lat":"37.886853919","long":"127.05684439","imageIndex":17,"items":[{"name":"지영안전산업","tel":"031-542-1721","addr":"경기도 동두천시 지행동 407-11번지","indutype":"기타 - 기타 전문점","category":"other"},{"name":"태양가전중고나라","tel":"031-866-8940","addr":"경기도 동두천시 지행동 407-11번지 1층","indutype":"전기제품 - 가전제품","category":"other"}]},{"lat":"37.892691018","long":"127.05887226","imageIndex":17,"items":[{"name":"지행인테리어","tel":"031-862-7339","addr":"경기도 동두천시 지행동 290-5 삼익빌라1층 102","indutype":"건축자재 - 인테리어전문","category":"other"}]},{"lat":"37.888304332","long":"127.0570387","imageIndex":17,"items":[{"name":"챔프스포츠","tel":"031-838-7989","addr":"경기도 동두천시 지행동 474-4번지 봉익빌딩 3층","indutype":"레져용품 - 스포츠·레져용품","category":"other"}]},{"lat":"37.891439515","long":"127.05717742","imageIndex":17,"items":[{"name":"코아부동산공인중개사사무소","tel":"031-859-2900","addr":"경기도 동두천시 지행동 340-17","indutype":"용역 서비스 - 부동산 중개·임대","category":"other"}]},{"lat":"37.886520573","long":"127.05684414","imageIndex":17,"items":[{"name":"코털이벤트공연기획사","tel":"031-868-8229","addr":"경기도 동두천시 지행동 407-8번지","indutype":"용역 서비스 - 사무서비스","category":"other"}]},{"lat":"37.892158856","long":"127.06014513","imageIndex":17,"items":[{"name":"크린토피아 지행초교점","tel":"031-857-1186","addr":"경기도 동두천시 지행동 328-7번지","indutype":"수리서비스 - 세탁소","category":"other"}]},{"lat":"37.895799487","long":"127.05834026","imageIndex":17,"items":[{"name":"클린 디디씨(DDC)","tel":"031-866-4267","addr":"경기도 동두천시 지행동 275-3번지","indutype":"용역 서비스 - 종합용역","category":"other"}]},{"lat":"37.895191871","long":"127.04640238","imageIndex":17,"items":[{"name":"태경에어컨","tel":"031-0000-0000","addr":"경기도 동두천시 지행동 675-2번지 경도빌II 302호","indutype":"용역 서비스 - 기타용역서비스","category":"other"}]},{"lat":"37.895912708","long":"127.04615268","imageIndex":17,"items":[{"name":"태림목조건설","tel":"031-861-3434","addr":"경기도 동두천시 지행동 662-1번지","indutype":"건축자재 - 부동산 분양","category":"other"}]},{"lat":"37.893944389","long":"127.05656534","imageIndex":17,"items":[{"name":"토우개발","tel":"031-865-5492","addr":"경기도 동두천시 지행동 732-2번지 404호","indutype":"건축자재 - 기타건축자재","category":"other"}]},{"lat":"37.893663721","long":"127.05950964","imageIndex":17,"items":[{"name":"프라임미디어","tel":"031-866-8898","addr":"경기도 동두천시 지행동 298-12","indutype":"용역 서비스 - 종합용역","category":"other"}]},{"lat":"37.890105141","long":"127.05929092","imageIndex":17,"items":[{"name":"한국유리샷시","tel":"031-868-5314","addr":"경기도 동두천시 지행동 350-1번지 한국유리샷시 1동","indutype":"건축자재 - 유리","category":"other"}]},{"lat":"37.89524109","long":"127.0579533","imageIndex":17,"items":[{"name":"한빛전기자재","tel":"070-8816-3983","addr":"경기도 동두천시 지행동 275-19번지 1층","indutype":"전기제품 - 기타전기제품","category":"other"}]},{"lat":"37.887052098","long":"127.05690137","imageIndex":17,"items":[{"name":"한성전기조명","tel":"","addr":"경기도 동두천시 지행동 407-6번지 1층","indutype":"건축자재 - 조명기구","category":"other"}]},{"lat":"37.894578449","long":"127.04848252","imageIndex":17,"items":[{"name":"헬로벨","tel":"070-7796-7774","addr":"경기도 동두천시 지행동 684-6번지 103호","indutype":"사무통신 - 통신기기","category":"other"}]},{"lat":"37.893469703","long":"127.05000525","imageIndex":17,"items":[{"name":"현진세탁소","tel":"031-864-8647","addr":"경기도 동두천시 지행동 691-3번지 현진에버빌","indutype":"수리서비스 - 세탁소","category":"other"}]},{"lat":"37.892159667","long":"127.05845122","imageIndex":17,"items":[{"name":"화이트크리닝","tel":"","addr":"경기도 동두천시 지행동 286-35번지 상원아트 101호","indutype":"수리서비스 - 세탁소","category":"other"}]},{"lat":"37.892076361","long":"127.06297582","imageIndex":17,"items":[{"name":"효담원 노인전문요양센터","tel":"031-866-1212","addr":"경기도 동두천시 지행동 316번지","indutype":"기타의료기관 - 기타의료기관 및 기타","category":"other"}]}]