[{"lat":"37.668463585","long":"126.83434078","imageIndex":7,"items":[{"name":"(주) 자연과 사람들","tel":"031-528-3580","addr":"경기도 고양시 덕양구 주교동 443-1번지","indutype":"음료식품 - 기타음료식품","category":"food"}]},{"lat":"37.662829152","long":"126.83832022","imageIndex":7,"items":[{"name":"(주)천년넷","tel":"031-818-6951","addr":"경기도 고양시 덕양구 주교동 568번지","indutype":"건강식품 - 기타건강식품","category":"food"},{"name":"원당건강원","tel":"031-963-6974","addr":"경기도 고양시 덕양구 주교동 568번지","indutype":"건강식품 - 기타건강식품","category":"food"},{"name":"케익하우스인","tel":"031-964-2043","addr":"경기도 고양시 덕양구 주교동 568번지","indutype":"음료식품 - 제과점","category":"food"}]},{"lat":"37.658936724","long":"126.83181242","imageIndex":7,"items":[{"name":"The착한정육점","tel":"031-969-5838","addr":"경기도 고양시 덕양구 주교동 597-4번지","indutype":"음료식품 - 정육점","category":"food"},{"name":"친정엄마김치","tel":"","addr":"경기도 고양시 덕양구 주교동 597-4번지","indutype":"음료식품 - 기타음료식품","category":"food"}]},{"lat":"37.659216023","long":"126.83181178","imageIndex":7,"items":[{"name":"건국우유","tel":"031-962-6572","addr":"경기도 고양시 덕양구 주교동","indutype":"음료식품 - 기타음료식품","category":"food"},{"name":"하나정육점","tel":"031-962-0420","addr":"경기도 고양시 덕양구 주교동 596-13번지","indutype":"음료식품 - 정육점","category":"food"}]},{"lat":"37.658409067","long":"126.8345335","imageIndex":7,"items":[{"name":"경기쌀집","tel":"031-962-6057","addr":"경기도 고양시 덕양구 주교동 585-14번지","indutype":"음료식품 - 미곡상","category":"food"}]},{"lat":"37.658878167","long":"126.83495176","imageIndex":7,"items":[{"name":"고려홍삼","tel":"02-111-1111","addr":"경기도 고양시 덕양구 주교동 584-13번지","indutype":"건강식품 - 홍삼제품","category":"food"}]},{"lat":"37.654577576","long":"126.83287632","imageIndex":7,"items":[{"name":"고양중앙청과(주)","tel":"031-963-3666","addr":"경기도 고양시 덕양구 주교동 535-51번지","indutype":"음료식품 - 농·축·수산품","category":"food"},{"name":"대형청과","tel":"031-967-7455","addr":"경기도 고양시 덕양구 주교동 535-51번지","indutype":"음료식품 - 농·축·수산품","category":"food"},{"name":"신풍농산 주식회사","tel":"031-963-3510","addr":"경기도 고양시 덕양구 주교동 535-51번지","indutype":"음료식품 - 농·축·수산품","category":"food"},{"name":"현창상회","tel":"031-996-9939","addr":"경기도 고양시 덕양구 주교동 535-51번지","indutype":"음료식품 - 농·축·수산품","category":"food"}]},{"lat":"37.657661896","long":"126.83497716","imageIndex":7,"items":[{"name":"광어15000 (서현수산)","tel":"031-969-2232","addr":"경기도 고양시 덕양구 주교동 617-15번지","indutype":"음료식품 - 기타음료식품","category":"food"}]},{"lat":"37.662467195","long":"126.83719902","imageIndex":7,"items":[{"name":"금정패키지","tel":"","addr":"경기도 고양시 덕양구 주교동 567-4번지","indutype":"음료식품 - 기타음료식품","category":"food"}]},{"lat":"37.655938784","long":"126.83339451","imageIndex":7,"items":[{"name":"기천한우직판장","tel":"031-968-3888","addr":"경기도 고양시 덕양구 주교동 608-2번지","indutype":"음료식품 - 정육점","category":"food"}]},{"lat":"37.659743029","long":"126.83490448","imageIndex":7,"items":[{"name":"나너우리작업장","tel":"031-963-4182","addr":"경기도 고양시 덕양구 주교동 583-3번지 대양빌라, 대양빌딩","indutype":"음료식품 - 기타음료식품","category":"food"}]},{"lat":"37.658913414","long":"126.83439637","imageIndex":7,"items":[{"name":"나눔견과","tel":"","addr":"경기도 고양시 덕양구 주교동 585번지","indutype":"음료식품 - 농·축·수산품","category":"food"}]},{"lat":"37.663243437","long":"126.83820597","imageIndex":7,"items":[{"name":"노마진 아이스크림 할인점","tel":"02-0000-0000","addr":"경기도 고양시 덕양구 주교동 556-5번지","indutype":"음료식품 - 기타음료식품","category":"food"}]},{"lat":"37.663044718","long":"126.83784374","imageIndex":7,"items":[{"name":"녹정육점","tel":"031-969-1707","addr":"경기도 고양시 덕양구 주교동 567번지","indutype":"음료식품 - 정육점","category":"food"},{"name":"우일떡방앗간","tel":"031-964-1925","addr":"경기도 고양시 덕양구 주교동 567번지","indutype":"음료식품 - 제과점","category":"food"},{"name":"우일축산","tel":"031-967-6888","addr":"경기도 고양시 덕양구 주교동 567번지","indutype":"음료식품 - 정육점","category":"food"}]},{"lat":"37.655966882","long":"126.82795489","imageIndex":7,"items":[{"name":"대상씨.에스","tel":"031-970-4927","addr":"경기도 고양시 덕양구 주교동 193번지","indutype":"음료식품 - 기타음료식품","category":"food"}]},{"lat":"37.657413731","long":"126.8315666","imageIndex":7,"items":[{"name":"대한민국막걸리축제","tel":"031-967-3131","addr":"경기도 고양시 덕양구 주교동","indutype":"음료식품 - 기타음료식품","category":"food"}]},{"lat":"37.65654864","long":"126.83145526","imageIndex":7,"items":[{"name":"더 반찬","tel":"031-905-6792","addr":"경기도 고양시 덕양구 주교동 606-2번지","indutype":"음료식품 - 기타음료식품","category":"food"}]},{"lat":"37.65637823","long":"126.83198828","imageIndex":7,"items":[{"name":"덕암유통","tel":"031-962-5360","addr":"경기도 고양시 덕양구 주교동 606-8번지","indutype":"건강식품 - 기타건강식품","category":"food"}]},{"lat":"37.660216979","long":"126.83242147","imageIndex":7,"items":[{"name":"덕양KIDS","tel":"031-968-8466","addr":"경기도 고양시 덕양구 주교동 589-11번지 인정파크뷰","indutype":"음료식품 - 기타음료식품","category":"food"}]},{"lat":"37.65898893","long":"126.83682143","imageIndex":7,"items":[{"name":"덴마크우유 고양대리점","tel":"031-906-0660","addr":"경기도 고양시 덕양구 주교동 623-19번지","indutype":"음료식품 - 기타음료식품","category":"food"}]},{"lat":"37.658601499","long":"126.83681096","imageIndex":7,"items":[{"name":"미성","tel":"031-966-7533","addr":"경기도 고양시 덕양구 주교동 619번지","indutype":"건강식품 - 기타건강식품","category":"food"}]},{"lat":"37.65113509","long":"126.82620982","imageIndex":7,"items":[{"name":"믿음농장","tel":"031-967-1515","addr":"경기도 고양시 덕양구 주교동 829번지","indutype":"음료식품 - 농·축·수산품","category":"food"},{"name":"토담 오리굼터","tel":"031-963-5295","addr":"경기도 고양시 덕양구 주교동 829번지","indutype":"음료식품 - 정육점","category":"food"}]},{"lat":"37.64527438","long":"126.82328903","imageIndex":7,"items":[{"name":"믿음농장","tel":"031-965-3135","addr":"경기도 고양시 덕양구 주교동 1334번지","indutype":"음료식품 - 정육점","category":"food"}]},{"lat":"37.657163624","long":"126.83306308","imageIndex":7,"items":[{"name":"배다리술도가","tel":"031-962-6100","addr":"경기도 고양시 덕양구 주교동 601-4번지","indutype":"음료식품 - 기타음료식품","category":"food"}]},{"lat":"37.663991068","long":"126.83175549","imageIndex":7,"items":[{"name":"백석푸드","tel":"031-967-1071","addr":"경기도 고양시 덕양구 주교동 303-1번지","indutype":"음료식품 - 기타음료식품","category":"food"}]},{"lat":"37.657518032","long":"126.83518147","imageIndex":7,"items":[{"name":"보니햄","tel":"031-968-6877","addr":"경기도 고양시 덕양구 주교동 617-7번지","indutype":"음료식품 - 기타음료식품","category":"food"},{"name":"보니헴","tel":"031-968-6877","addr":"경기도 고양시 덕양구 주교동 617-7번지","indutype":"음료식품 - 기타음료식품","category":"food"}]},{"lat":"37.6646233","long":"126.83283074","imageIndex":7,"items":[{"name":"보인유통","tel":"031-473-9107","addr":"경기도 고양시 덕양구 주교동 350-1번지 벽산아파트","indutype":"음료식품 - 기타음료식품","category":"food"}]},{"lat":"37.65727176","long":"126.81523666","imageIndex":7,"items":[{"name":"숲속에 고기집","tel":"031-962-3545","addr":"경기도 고양시 덕양구 주교동 1413번지","indutype":"음료식품 - 정육점","category":"food"}]},{"lat":"37.659267736","long":"126.83020239","imageIndex":7,"items":[{"name":"원당건강원","tel":"031-965-9534","addr":"경기도 고양시 덕양구 주교동 593-4번지","indutype":"건강식품 - 기타건강식품","category":"food"}]},{"lat":"37.657935724","long":"126.83748107","imageIndex":7,"items":[{"name":"원당왕쑥뚬","tel":"031-962-1202","addr":"경기도 고양시 덕양구 주교동 620-2번지","indutype":"음료식품 - 농·축·수산품","category":"food"}]},{"lat":"37.656908218","long":"126.83089914","imageIndex":7,"items":[{"name":"원당정육점","tel":"031-967-1209","addr":"경기도 고양시 덕양구 주교동 605-6번지","indutype":"음료식품 - 정육점","category":"food"}]},{"lat":"37.650516846","long":"126.82851159","imageIndex":7,"items":[{"name":"은성농원","tel":"","addr":"경기도 고양시 덕양구 주교동","indutype":"음료식품 - 농·축·수산품","category":"food"}]},{"lat":"37.660573703","long":"126.82990471","imageIndex":7,"items":[{"name":"이엘농산","tel":"031-965-6983","addr":"경기도 고양시 덕양구 주교동 274-3번지","indutype":"음료식품 - 기타음료식품","category":"food"}]},{"lat":"37.656954256","long":"126.83157899","imageIndex":7,"items":[{"name":"임승례","tel":"031-3579-7989","addr":"경기도 고양시 덕양구 주교동 602-16번지 신정베스트빌","indutype":"음료식품 - 농·축·수산품","category":"food"}]},{"lat":"37.66513298","long":"126.83643373","imageIndex":7,"items":[{"name":"자연그대로","tel":"031-965-9707","addr":"경기도 고양시 덕양구 주교동 560번지 현대맨션","indutype":"음료식품 - 농·축·수산품","category":"food"}]},{"lat":"37.660382358","long":"126.83465371","imageIndex":7,"items":[{"name":"자연농산","tel":"","addr":"경기도 고양시 덕양구 주교동 580-5번지","indutype":"음료식품 - 농·축·수산품","category":"food"}]},{"lat":"37.661881186","long":"126.83692832","imageIndex":7,"items":[{"name":"정.식품베지밀 원당대리짐","tel":"031-966-0057","addr":"경기도 고양시 덕양구 주교동","indutype":"음료식품 - 기타음료식품","category":"food"}]},{"lat":"37.66288252","long":"126.8315087","imageIndex":7,"items":[{"name":"정인양계","tel":"","addr":"경기도 고양시 덕양구 주교동 305-3번지","indutype":"음료식품 - 농·축·수산품","category":"food"}]},{"lat":"37.657406051","long":"126.83248456","imageIndex":7,"items":[{"name":"좋은과자점","tel":"031-967-5959","addr":"경기도 고양시 덕양구 주교동 601번지","indutype":"음료식품 - 제과점","category":"food"}]},{"lat":"37.656271864","long":"126.8332011","imageIndex":7,"items":[{"name":"중국식품","tel":"070-4821-4766","addr":"경기도 고양시 덕양구 주교동 611-7번지","indutype":"음료식품 - 기타음료식품","category":"food"},{"name":"중국식품","tel":"070-9924-1367","addr":"경기도 고양시 덕양구 주교동 611-7번지","indutype":"음료식품 - 기타음료식품","category":"food"}]},{"lat":"37.65166228","long":"126.81748313","imageIndex":7,"items":[{"name":"착한고기","tel":"031-963-0678","addr":"경기도 고양시 덕양구 주교동 1384번지","indutype":"음료식품 - 정육점","category":"food"}]},{"lat":"37.662656525","long":"126.83728926","imageIndex":7,"items":[{"name":"청원농장","tel":"031-962-5229","addr":"경기도 고양시 덕양구 주교동 567-6번지","indutype":"음료식품 - 정육점","category":"food"}]},{"lat":"37.658602168","long":"126.83728693","imageIndex":7,"items":[{"name":"특별한하루케이크","tel":"","addr":"경기도 고양시 덕양구 주교동 622-8번지","indutype":"음료식품 - 기타음료식품","category":"food"}]},{"lat":"37.663356525","long":"126.83533834","imageIndex":7,"items":[{"name":"평창식품","tel":"070-8956-4587","addr":"경기도 고양시 덕양구 주교동 573번지","indutype":"음료식품 - 기타음료식품","category":"food"}]},{"lat":"37.657488102","long":"126.833153","imageIndex":7,"items":[{"name":"한미종합유통","tel":"031-967-4831","addr":"경기도 고양시 덕양구 주교동 599-24번지","indutype":"건강식품 - 기타건강식품","category":"food"}]},{"lat":"37.662322833","long":"126.83076199","imageIndex":7,"items":[{"name":"한빛유통","tel":"02-332-0617","addr":"경기도 고양시 덕양구 주교동 275-13번지","indutype":"음료식품 - 기타음료식품","category":"food"}]},{"lat":"37.664051535","long":"126.83623214","imageIndex":7,"items":[{"name":"행복상점","tel":"031-968-9545","addr":"경기도 고양시 덕양구 주교동 564번지","indutype":"음료식품 - 농·축·수산품","category":"food"}]},{"lat":"37.663351205","long":"126.8379564","imageIndex":7,"items":[{"name":"행복한마트","tel":"031-8113-030","addr":"경기도 고양시 덕양구 주교동 556-6번지","indutype":"음료식품 - 농·축·수산품","category":"food"}]}]