[{"lat":"37.267296315","long":"126.9863657","imageIndex":13,"items":[{"name":"(주)네오리젠바이오텍","tel":"031-292-0732","addr":"경기도 수원시 권선구 서둔동 103-2번지 서울대학교농업생명과학대학 2동 1층 101호","indutype":"보건위생 - 화장품","category":"beauty"}]},{"lat":"37.270431287","long":"126.98247535","imageIndex":13,"items":[{"name":"가위클럽","tel":"031-296-5951","addr":"경기도 수원시 권선구 서둔동 149-17번지","indutype":"보건위생 - 미용원","category":"beauty"}]},{"lat":"37.270990174","long":"126.9839747","imageIndex":13,"items":[{"name":"규리미용실","tel":"031-295-5449","addr":"경기도 수원시 권선구 서둔동 199-8번지","indutype":"보건위생 - 미용원","category":"beauty"}]},{"lat":"37.270404773","long":"126.98573365","imageIndex":13,"items":[{"name":"그린덴탈","tel":"031-297-2804","addr":"경기도 수원시 권선구 서둔동 107-1번지 삼진프라자 302호","indutype":"보건위생 - 의료용품","category":"beauty"}]},{"lat":"37.27079201","long":"126.98436936","imageIndex":13,"items":[{"name":"그린안경원","tel":"031-294-1150","addr":"경기도 수원시 권선구 서둔동 200-38번지","indutype":"보건위생 - 안경","category":"beauty"},{"name":"헤어체크","tel":"031-291-3078","addr":"경기도 수원시 권선구 서둔동 200-38번지","indutype":"보건위생 - 미용원","category":"beauty"}]},{"lat":"37.279260631","long":"126.97861668","imageIndex":13,"items":[{"name":"노블헤어","tel":"031-298-7969","addr":"경기도 수원시 권선구 서둔동 260-13번지 1층","indutype":"보건위생 - 미용원","category":"beauty"}]},{"lat":"37.270629148","long":"126.98045718","imageIndex":13,"items":[{"name":"뉴영미용실","tel":"031-292-1924","addr":"경기도 수원시 권선구 서둔동 175-2번지","indutype":"보건위생 - 미용원","category":"beauty"}]},{"lat":"37.267738389","long":"126.99114577","imageIndex":13,"items":[{"name":"린 헤어","tel":"031-278-1917","addr":"경기도 수원시 권선구 서둔동 45-141번지 1층","indutype":"보건위생 - 미용원","category":"beauty"}]},{"lat":"37.271016995","long":"126.98270068","imageIndex":13,"items":[{"name":"마법의손길","tel":"","addr":"경기도 수원시 권선구 서둔동 200-51번지 1층","indutype":"보건위생 - 피부미용실","category":"beauty"}]},{"lat":"37.279566999","long":"126.97870679","imageIndex":13,"items":[{"name":"마샬미용실","tel":"031-291-8275","addr":"경기도 수원시 권선구 서둔동 260-99번지","indutype":"보건위생 - 미용원","category":"beauty"}]},{"lat":"37.264179396","long":"126.99189037","imageIndex":13,"items":[{"name":"머리손질헤어샵","tel":"031-292-2308","addr":"경기도 수원시 권선구 서둔동 33-1번지","indutype":"보건위생 - 미용원","category":"beauty"}]},{"lat":"37.266566927","long":"126.98995092","imageIndex":13,"items":[{"name":"머리쟁이","tel":"031-292-8530","addr":"경기도 수원시 권선구 서둔동 39-42번지","indutype":"보건위생 - 미용원","category":"beauty"}]},{"lat":"37.279125477","long":"126.97861672","imageIndex":13,"items":[{"name":"모던헤어플러스","tel":"031-291-8250","addr":"경기도 수원시 권선구 서둔동 260-14번지","indutype":"보건위생 - 미용원","category":"beauty"}]},{"lat":"37.265179616","long":"126.99275829","imageIndex":13,"items":[{"name":"별s헤어","tel":"070-4090-0828","addr":"경기도 수원시 권선구 서둔동 17-209번지","indutype":"보건위생 - 미용원","category":"beauty"}]},{"lat":"37.265377757","long":"126.99181128","imageIndex":13,"items":[{"name":"사계절","tel":"031-295-3236","addr":"경기도 수원시 권선구 서둔동 17-73번지","indutype":"보건위생 - 화장품","category":"beauty"}]},{"lat":"37.266323833","long":"126.99175477","imageIndex":13,"items":[{"name":"세븐핑글","tel":"031-000-0000","addr":"경기도 수원시 권선구 서둔동 17-359번지","indutype":"보건위생 - 화장품","category":"beauty"}]},{"lat":"37.266657378","long":"126.99367127","imageIndex":13,"items":[{"name":"솔리헤어(SOLI HAIR)","tel":"031-291-3278","addr":"경기도 수원시 권선구 서둔동 17-114번지 나이스밸 101호","indutype":"보건위생 - 미용원","category":"beauty"}]},{"lat":"37.271071208","long":"126.9836139","imageIndex":13,"items":[{"name":"쉭스헤어","tel":"","addr":"경기도 수원시 권선구 서둔동 198-15번지 1층","indutype":"보건위생 - 미용원","category":"beauty"}]},{"lat":"37.270655978","long":"126.97941993","imageIndex":13,"items":[{"name":"여진헤어샵","tel":"031-225-2419","addr":"경기도 수원시 권선구 서둔동 171-28번지 1층 102호","indutype":"보건위생 - 미용원","category":"beauty"}]},{"lat":"37.266657468","long":"126.99490011","imageIndex":13,"items":[{"name":"오땡큐","tel":"031-295-1339","addr":"경기도 수원시 권선구 서둔동 17-552번지 101호","indutype":"보건위생 - 화장품","category":"beauty"}]},{"lat":"37.278873189","long":"126.9786168","imageIndex":13,"items":[{"name":"올가드림뷰티(서수원구운점)","tel":"","addr":"경기도 수원시 권선구 서둔동 260-18번지 1층","indutype":"보건위생 - 피부미용실","category":"beauty"}]},{"lat":"37.266540238","long":"126.99359237","imageIndex":13,"items":[{"name":"우렁각시머리방","tel":"031-296-2880","addr":"경기도 수원시 권선구 서둔동 17-465번지","indutype":"보건위생 - 미용원","category":"beauty"}]},{"lat":"37.28104476","long":"126.9790897","imageIndex":13,"items":[{"name":"유한회사 에스윈","tel":"031-297-2086","addr":"경기도 수원시 권선구 서둔동 361-1번지 상가동 지층","indutype":"보건위생 - 미용재료","category":"beauty"}]},{"lat":"37.270963398","long":"126.98564333","imageIndex":13,"items":[{"name":"이레헤어","tel":"031-207-3582","addr":"경기도 수원시 권선구 서둔동 207-20번지 1층","indutype":"보건위생 - 미용원","category":"beauty"}]},{"lat":"37.270711143","long":"126.98586888","imageIndex":13,"items":[{"name":"정미용실","tel":"031-292-5107","addr":"경기도 수원시 권선구 서둔동 105-12번지","indutype":"보건위생 - 미용원","category":"beauty"},{"name":"청하","tel":"070-4320-5876","addr":"경기도 수원시 권선구 서둔동 105-12번지 1층","indutype":"보건위생 - 피부미용실","category":"beauty"}]},{"lat":"37.278179382","long":"126.9785381","imageIndex":13,"items":[{"name":"정희헤어샵","tel":"031-293-3053","addr":"경기도 수원시 권선구 서둔동 243-51번지 1층","indutype":"보건위생 - 미용원","category":"beauty"}]},{"lat":"37.277098216","long":"126.97886543","imageIndex":13,"items":[{"name":"진화장품","tel":"031-292-0302","addr":"경기도 수원시 권선구 서둔동 243-1번지","indutype":"보건위생 - 화장품","category":"beauty"}]},{"lat":"37.269045212","long":"126.99517044","imageIndex":13,"items":[{"name":"컬러하우스","tel":"031-234-4191","addr":"경기도 수원시 권선구 서둔동 17-436번지 1층","indutype":"보건위생 - 화장품","category":"beauty"}]},{"lat":"37.270765053","long":"126.98484289","imageIndex":13,"items":[{"name":"코코헤어샵","tel":"031-292-3705","addr":"경기도 수원시 권선구 서둔동 144-3번지 1층","indutype":"보건위생 - 미용원","category":"beauty"}]},{"lat":"37.264098671","long":"126.99706488","imageIndex":13,"items":[{"name":"토탈뮤직","tel":"031-8067-4067","addr":"경기도 수원시 권선구 서둔동 381번지 3층 롯데몰수원점","indutype":"보건위생 - 기타대인서비스","category":"beauty"},{"name":"투아이즈안경","tel":"031-8067-4022","addr":"경기도 수원시 권선구 서둔동 381번지 롯데마트수원점 2층 안경코너","indutype":"보건위생 - 안경","category":"beauty"}]},{"lat":"37.266657435","long":"126.99442661","imageIndex":13,"items":[{"name":"프리티헤어","tel":"031-294-4645","addr":"경기도 수원시 권선구 서둔동 17-27번지 탑빌딩 103호","indutype":"보건위생 - 미용원","category":"beauty"}]},{"lat":"37.278566836","long":"126.97859435","imageIndex":13,"items":[{"name":"하나로코스메틱","tel":"031-278-6774","addr":"경기도 수원시 권선구 서둔동 260-32번지","indutype":"보건위생 - 화장품","category":"beauty"}]},{"lat":"37.266071553","long":"126.991845","imageIndex":13,"items":[{"name":"하이얀미용실","tel":"031-291-0146","addr":"경기도 수원시 권선구 서둔동 17-279번지","indutype":"보건위생 - 미용원","category":"beauty"}]},{"lat":"37.267071656","long":"126.99142772","imageIndex":13,"items":[{"name":"한빛미용실","tel":"031-296-8812","addr":"경기도 수원시 권선구 서둔동 45-46번지","indutype":"보건위생 - 미용원","category":"beauty"}]},{"lat":"37.271043904","long":"126.98200166","imageIndex":13,"items":[{"name":"해피클럽M","tel":"031-297-9004","addr":"경기도 수원시 권선구 서둔동 186-4번지 1층","indutype":"보건위생 - 미용원","category":"beauty"}]},{"lat":"37.27472864","long":"126.97949759","imageIndex":13,"items":[{"name":"헤어샵제이오","tel":"031-227-2587","addr":"경기도 수원시 권선구 서둔동 377번지 서수원울트라참누리파크 103호","indutype":"보건위생 - 미용원","category":"beauty"}]},{"lat":"37.270791128","long":"126.97939733","imageIndex":13,"items":[{"name":"헤어짱","tel":"031-292-4696","addr":"경기도 수원시 권선구 서둔동 171-27번지","indutype":"보건위생 - 미용원","category":"beauty"}]}]