[{"lat":"37.407303816","long":"126.9498978","imageIndex":7,"items":[{"name":"그랜드마트","tel":"031-381-1020","addr":"경기도 안양시 동안구 비산동 1018-3번지","indutype":"유통업 영리 - 슈퍼마켓","category":"mart"}]},{"lat":"37.405275074","long":"126.94670287","imageIndex":7,"items":[{"name":"농구장구내매점","tel":"031-386-4969","addr":"경기도 안양시 동안구 비산동 1023번지","indutype":"유통업 영리 - 슈퍼마켓","category":"mart"}]},{"lat":"37.396446217","long":"126.94890035","imageIndex":7,"items":[{"name":"달안슈퍼","tel":"031-383-8455","addr":"경기도 안양시 동안구 비산동","indutype":"유통업 영리 - 슈퍼마켓","category":"mart"},{"name":"총각네야채가게평촌비산점","tel":"031-388-5249","addr":"경기도 안양시 동안구 비산동","indutype":"유통업 영리 - 슈퍼마켓","category":"mart"},{"name":"한양슈퍼","tel":"031-385-8731","addr":"경기도 안양시 동안구 비산동","indutype":"유통업 영리 - 슈퍼마켓","category":"mart"}]},{"lat":"37.393082003","long":"126.94181094","imageIndex":7,"items":[{"name":"대성할인마트","tel":"031-466-3645","addr":"경기도 안양시 동안구 비산동 580번지","indutype":"유통업 영리 - 슈퍼마켓","category":"mart"}]},{"lat":"37.402552219","long":"126.94301172","imageIndex":7,"items":[{"name":"동일상회","tel":"031-387-7028","addr":"경기도 안양시 동안구 비산동 338-4번지","indutype":"유통업 영리 - 슈퍼마켓","category":"mart"}]},{"lat":"37.40183392","long":"126.93131168","imageIndex":7,"items":[{"name":"땅콩마트","tel":"","addr":"경기도 안양시 동안구 비산동 1162번지 임곡휴먼시아아파트","indutype":"유통업 영리 - 슈퍼마켓","category":"mart"}]},{"lat":"37.400667319","long":"126.9395686","imageIndex":7,"items":[{"name":"래미안슈퍼","tel":"031-441-0574","addr":"경기도 안양시 동안구 비산동 425번지 비산삼성래미안","indutype":"유통업 영리 - 슈퍼마켓","category":"mart"},{"name":"삼성마트","tel":"031-464-5585","addr":"경기도 안양시 동안구 비산동 425번지","indutype":"유통업 영리 - 슈퍼마켓","category":"mart"}]},{"lat":"37.392417879","long":"126.94711901","imageIndex":7,"items":[{"name":"벽산슈퍼","tel":"031-381-0819","addr":"경기도 안양시 동안구 비산동","indutype":"유통업 영리 - 슈퍼마켓","category":"mart"}]},{"lat":"37.406246657","long":"126.9436187","imageIndex":7,"items":[{"name":"비산할인마트","tel":"031-388-0123","addr":"경기도 안양시 동안구 비산동 308-25번지","indutype":"유통업 영리 - 슈퍼마켓","category":"mart"}]},{"lat":"37.406917476","long":"126.95239422","imageIndex":7,"items":[{"name":"성원마트","tel":"031-387-9393","addr":"경기도 안양시 동안구 비산동 1028-20번지","indutype":"유통업 영리 - 슈퍼마켓","category":"mart"}]},{"lat":"37.395661249","long":"126.94656324","imageIndex":7,"items":[{"name":"성원하이퍼","tel":"031-385-3387","addr":"경기도 안양시 동안구 비산동","indutype":"유통업 영리 - 슈퍼마켓","category":"mart"}]},{"lat":"37.40541311","long":"126.95314067","imageIndex":7,"items":[{"name":"소망슈퍼","tel":"031-382-2149","addr":"경기도 안양시 동안구 비산동 1045-7번지","indutype":"유통업 영리 - 슈퍼마켓","category":"mart"}]},{"lat":"37.406690615","long":"126.94875746","imageIndex":7,"items":[{"name":"신세계슈퍼","tel":"031-382-7312","addr":"경기도 안양시 동안구 비산동 1019-17번지","indutype":"유통업 영리 - 슈퍼마켓","category":"mart"}]},{"lat":"37.40694366","long":"126.9504515","imageIndex":7,"items":[{"name":"싱싱마트","tel":"031-386-2747","addr":"경기도 안양시 동안구 비산동 1029번지","indutype":"유통업 영리 - 슈퍼마켓","category":"mart"}]},{"lat":"37.398997571","long":"126.93439753","imageIndex":7,"items":[{"name":"운곡마트","tel":"","addr":"경기도 안양시 동안구 비산동","indutype":"유통업 영리 - 슈퍼마켓","category":"mart"}]},{"lat":"37.405750456","long":"126.9423428","imageIndex":7,"items":[{"name":"하나로할인마트","tel":"031-388-5951","addr":"경기도 안양시 동안구 비산동 306-52번지","indutype":"유통업 영리 - 슈퍼마켓","category":"mart"}]},{"lat":"37.396692035","long":"126.93622914","imageIndex":7,"items":[{"name":"한마음슈퍼","tel":"031-449-1827","addr":"경기도 안양시 동안구 비산동 566-11번지","indutype":"유통업 영리 - 슈퍼마켓","category":"mart"}]},{"lat":"37.394222387","long":"126.95267377","imageIndex":7,"items":[{"name":"한양슈퍼","tel":"031-381-3344","addr":"경기도 안양시 동안구 비산동 1109-6번지 샛별한양아파트","indutype":"유통업 영리 - 슈퍼마켓","category":"mart"}]}]