[{"lat":"37.908601848","long":"127.11025869","imageIndex":4,"items":[{"name":"감성주의","tel":"070-4652-2275","addr":"경기도 동두천시 광암동 51번지","indutype":"일반휴게음식 - 일반한식","category":"restaurant"}]},{"lat":"37.896244243","long":"127.083762","imageIndex":4,"items":[{"name":"경원식당","tel":"031-821-1911","addr":"경기도 동두천시 광암동 487-36번지","indutype":"일반휴게음식 - 일반한식","category":"restaurant"}]},{"lat":"37.896109033","long":"127.08386418","imageIndex":4,"items":[{"name":"꾸어스","tel":"070-7529-8843","addr":"경기도 동두천시 광암동 486-21번지 1층","indutype":"일반휴게음식 - 스넥","category":"restaurant"}]},{"lat":"37.89536126","long":"127.08386336","imageIndex":4,"items":[{"name":"또래또래","tel":"031-865-3318","addr":"경기도 동두천시 광암동 494-32번지 1,2층","indutype":"일반휴게음식 - 스넥","category":"restaurant"}]},{"lat":"37.892357444","long":"127.0890896","imageIndex":4,"items":[{"name":"라르고경양식","tel":"031-868-1433","addr":"경기도 동두천시 광암동 175-11번지","indutype":"일반휴게음식 - 서양음식","category":"restaurant"}]},{"lat":"37.908407595","long":"127.10583508","imageIndex":4,"items":[{"name":"모닥불","tel":"031-867-2275","addr":"경기도 동두천시 광암동 67번지 1층","indutype":"일반휴게음식 - 일반한식","category":"restaurant"}]},{"lat":"37.908879399","long":"127.11214669","imageIndex":4,"items":[{"name":"사랑방농원","tel":"031-867-3992","addr":"경기도 동두천시 광암동 48-2번지","indutype":"일반휴게음식 - 일반한식","category":"restaurant"}]},{"lat":"37.906240805","long":"127.10061292","imageIndex":4,"items":[{"name":"산골메기탕","tel":"070-7715-9290","addr":"경기도 동두천시 광암동 86","indutype":"일반휴게음식 - 일반한식","category":"restaurant"}]},{"lat":"37.909491469","long":"127.11275027","imageIndex":4,"items":[{"name":"산속비버스","tel":"031-867-0005","addr":"경기도 동두천시 광암동 56-2번지","indutype":"일반휴게음식 - 일반한식","category":"restaurant"}]},{"lat":"37.905638139","long":"127.09945232","imageIndex":4,"items":[{"name":"산촌농원","tel":"031-868-0546","addr":"경기도 동두천시 광암동 83-1번지","indutype":"일반휴게음식 - 일반한식","category":"restaurant"}]},{"lat":"37.895440926","long":"127.0858985","imageIndex":4,"items":[{"name":"삼원식당","tel":"031-857-0123","addr":"경기도 동두천시 광암동 198-12번지","indutype":"일반휴게음식 - 일반한식","category":"restaurant"}]},{"lat":"37.893992974","long":"127.08220202","imageIndex":4,"items":[{"name":"손칼국수","tel":"031-867-2059","addr":"경기도 동두천시 광암동 519번지","indutype":"일반휴게음식 - 일반한식","category":"restaurant"}]},{"lat":"37.898297444","long":"127.08509448","imageIndex":4,"items":[{"name":"쇠목길54","tel":"031-866-5250","addr":"경기도 동두천시 광암동 449번지 1층","indutype":"일반휴게음식 - 일반한식","category":"restaurant"}]},{"lat":"37.895325488","long":"127.08347677","imageIndex":4,"items":[{"name":"실비촌","tel":"031-867-8429","addr":"경기도 동두천시 광암동 485-12번지 1층","indutype":"일반휴게음식 - 일반한식","category":"restaurant"}]},{"lat":"37.893966396","long":"127.08153123","imageIndex":4,"items":[{"name":"약수산장","tel":"031-867-3341","addr":"경기도 동두천시 광암동 520-3번지","indutype":"일반휴게음식 - 일반한식","category":"restaurant"}]},{"lat":"37.895685915","long":"127.08339758","imageIndex":4,"items":[{"name":"일미정","tel":"031-858-0406","addr":"경기도 동두천시 광암동 485-15번지","indutype":"일반휴게음식 - 일반한식","category":"restaurant"}]},{"lat":"37.894935913","long":"127.08659144","imageIndex":4,"items":[{"name":"초롱이네","tel":"031-858-3131","addr":"경기도 동두천시 광암동 193-36번지","indutype":"일반휴게음식 - 일반한식","category":"restaurant"}]},{"lat":"37.892249191","long":"127.08928274","imageIndex":4,"items":[{"name":"피자 아리오소","tel":"031-867-2212","addr":"경기도 동두천시 광암동 175-5번지","indutype":"일반휴게음식 - 서양음식","category":"restaurant"}]},{"lat":"37.89574898","long":"127.08339765","imageIndex":4,"items":[{"name":"형제관","tel":"031-867-7614","addr":"경기도 동두천시 광암동 485-3번지 1층","indutype":"일반휴게음식 - 중국식","category":"restaurant"}]}]