[{"lat":"37.007138997","long":"127.25557662","imageIndex":4,"items":[{"name":"노랑통닭 안성아양점","tel":"031-672-7759","addr":"경기도 안성시 옥산동 560번지 시티프라디움 104호","indutype":"일반휴게음식 - 일반한식","category":"restaurant"},{"name":"다이꼬지 안성점","tel":"","addr":"경기도 안성시 옥산동 560번지 상가 2동 1층 118호","indutype":"일반휴게음식 - 일식·회집","category":"restaurant"},{"name":"얌샘김밥 안성옥산점","tel":"031-674-2535","addr":"경기도 안성시 옥산동 560번지 상가1동 110호","indutype":"일반휴게음식 - 스넥","category":"restaurant"},{"name":"오늘은[ ]","tel":"031-673-2808","addr":"경기도 안성시 옥산동 560번지 상가1동 107호","indutype":"일반휴게음식 - 서양음식","category":"restaurant"},{"name":"자갈치브라더스 안성점","tel":"","addr":"경기도 안성시 옥산동 560번지 시티프라디움 상가 1동 101호","indutype":"일반휴게음식 - 일반한식","category":"restaurant"},{"name":"카페 애니시다","tel":"031-111-1111","addr":"경기도 안성시 옥산동 560번지 시티프라디움 상가 2동 119호","indutype":"일반휴게음식 - 서양음식","category":"restaurant"},{"name":"푸라닭 안성아양점","tel":"031-677-9206","addr":"경기도 안성시 옥산동 560번지 시티프라디움 상가 2동 117호","indutype":"일반휴게음식 - 스넥","category":"restaurant"}]},{"lat":"37.012636872","long":"127.25065091","imageIndex":4,"items":[{"name":"대박짬뽕","tel":"031-673-4172","addr":"경기도 안성시 옥산동 20-3번지 평화빌라 가동 104호","indutype":"일반휴게음식 - 중국식","category":"restaurant"}]},{"lat":"37.008412541","long":"127.24985071","imageIndex":4,"items":[{"name":"동해활어촌회포차","tel":"031-675-8895","addr":"경기도 안성시 옥산동 136-7번지","indutype":"일반휴게음식 - 일식·회집","category":"restaurant"}]},{"lat":"37.008304694","long":"127.24971554","imageIndex":4,"items":[{"name":"밀리미터커피","tel":"","addr":"경기도 안성시 옥산동 135번지","indutype":"일반휴게음식 - 서양음식","category":"restaurant"}]},{"lat":"37.0119125","long":"127.24360356","imageIndex":4,"items":[{"name":"별난돼지김치찌개","tel":"031-671-0571","addr":"경기도 안성시 옥산동 80-7번지 가동 1층","indutype":"일반휴게음식 - 일반한식","category":"restaurant"},{"name":"카페에이닷","tel":"","addr":"경기도 안성시 옥산동 80-7번지 가동 1층 101호","indutype":"일반휴게음식 - 서양음식","category":"restaurant"},{"name":"홍익돈까스 안성점","tel":"031-676-9977","addr":"경기도 안성시 옥산동 80-7번지 가동 1층좌측","indutype":"일반휴게음식 - 일반한식","category":"restaurant"}]},{"lat":"37.012884433","long":"127.25291019","imageIndex":4,"items":[{"name":"숯불구이","tel":"031-673-5414","addr":"경기도 안성시 옥산동 2-7번지 105호","indutype":"일반휴게음식 - 일반한식","category":"restaurant"}]},{"lat":"37.008025248","long":"127.24977081","imageIndex":4,"items":[{"name":"옥산뜰","tel":"031-677-1487","addr":"경기도 안성시 옥산동 138-11번지","indutype":"일반휴게음식 - 일반한식","category":"restaurant"}]},{"lat":"37.010521559","long":"127.24959911","imageIndex":4,"items":[{"name":"옥산명가","tel":"031-674-9700","addr":"경기도 안성시 옥산동 35번지 ,1,2층","indutype":"일반휴게음식 - 일반한식","category":"restaurant"}]},{"lat":"37.012411771","long":"127.25057153","imageIndex":4,"items":[{"name":"윤지네칼국수","tel":"031-675-0355","addr":"경기도 안성시 옥산동 20-3번지 연립주택","indutype":"일반휴게음식 - 일반한식","category":"restaurant"}]}]