[{"lat":"37.215665634","long":"127.05545017","imageIndex":4,"items":[{"name":"153포인츠부대찌개카페","tel":"031-8015-1535","addr":"경기도 화성시 능동 1100-2번지","indutype":"일반휴게음식 - 일반한식","category":"restaurant"}]},{"lat":"37.204548092","long":"127.05252494","imageIndex":4,"items":[{"name":"ACOC(아코크)","tel":"070-8976-2134","addr":"경기도 화성시 능동 1138-2번지 1층","indutype":"일반휴게음식 - 서양음식","category":"restaurant"}]},{"lat":"37.209437574","long":"127.05955769","imageIndex":4,"items":[{"name":"OVE베이커리(능동점)","tel":"031-613-5031","addr":"경기도 화성시 능동 1114-2번지 에버스타 102호","indutype":"일반휴게음식 - 일반한식","category":"restaurant"},{"name":"국수나무 동탄능동점","tel":"031-8003-4100","addr":"경기도 화성시 능동 1114-2번지 에버스타 104호","indutype":"일반휴게음식 - 일반한식","category":"restaurant"},{"name":"꿈꾸는 김자매","tel":"031-111-1111","addr":"경기도 화성시 능동 1114-2번지 에버스타 107호","indutype":"일반휴게음식 - 일반한식","category":"restaurant"},{"name":"돈이돈이4800","tel":"031-613-0920","addr":"경기도 화성시 능동 1114-2에버스타203호~204호","indutype":"일반휴게음식 - 일반한식","category":"restaurant"},{"name":"아이러브퍼피 (동탄점)","tel":"031-8003-9919","addr":"경기도 화성시 능동 1114-2번지 에버스타 203,204호","indutype":"일반휴게음식 - 서양음식","category":"restaurant"}]},{"lat":"37.217412214","long":"127.05858347","imageIndex":4,"items":[{"name":"PLULIELLE/무니(Moony)","tel":"","addr":"경기도 화성시 능동 1066-3번지 1층 105호","indutype":"일반휴게음식 - 서양음식","category":"restaurant"},{"name":"또봉이통닭(능동점)","tel":"031-8015-5746","addr":"경기도 화성시 능동 1066-3번지 103-1호","indutype":"일반휴게음식 - 일반한식","category":"restaurant"},{"name":"브로드웨이펍","tel":"031-8015-1181","addr":"경기도 화성시 능동 1066-3번지 102호","indutype":"일반휴게음식 - 일반한식","category":"restaurant"},{"name":"하루","tel":"070-6253-1716","addr":"경기도 화성시 능동 1066-3번지 아르젠오피스텔 101호 상가","indutype":"일반휴게음식 - 일식·회집","category":"restaurant"}]},{"lat":"37.21599822","long":"127.05721921","imageIndex":4,"items":[{"name":"SY푸드","tel":"031-8015-0918","addr":"경기도 화성시 능동 1092-5번지 1층","indutype":"일반휴게음식 - 일반한식","category":"restaurant"}]},{"lat":"37.197826363","long":"127.05247549","imageIndex":4,"items":[{"name":"가마솥 한식부페","tel":"031-8003-2898","addr":"경기도 화성시 능동 1161-9번지","indutype":"일반휴게음식 - 일반한식","category":"restaurant"},{"name":"커피에반하다 (화성여울점)","tel":"","addr":"경기도 화성시 능동 1161-9번지 1층 일부","indutype":"일반휴게음식 - 서양음식","category":"restaurant"}]},{"lat":"37.198222702","long":"127.05275734","imageIndex":4,"items":[{"name":"가마솥옛날통닭","tel":"","addr":"경기도 화성시 능동 1161-12번지 1층","indutype":"일반휴게음식 - 스넥","category":"restaurant"}]},{"lat":"37.210050279","long":"127.05955815","imageIndex":4,"items":[{"name":"감탄떡볶이","tel":"031-8003-4885","addr":"경기도 화성시 능동 1113-1번지 제이스프라자 101호","indutype":"일반휴게음식 - 스넥","category":"restaurant"},{"name":"신전떡볶이","tel":"031-8003-7282","addr":"경기도 화성시 능동 1113-1번지 제이스프라자 108호","indutype":"일반휴게음식 - 스넥","category":"restaurant"},{"name":"심봉사도로케","tel":"031-613-4124","addr":"경기도 화성시 능동 1113-1번지 제이스프라자 107호","indutype":"일반휴게음식 - 일반한식","category":"restaurant"},{"name":"우리집닭강정","tel":"031-613-4074","addr":"경기도 화성시 능동 1113-1번지 제이스프라자 104호","indutype":"일반휴게음식 - 스넥","category":"restaurant"}]},{"lat":"37.212052492","long":"127.05541387","imageIndex":4,"items":[{"name":"개성곱창","tel":"031-000-0000","addr":"경기도 화성시 능동 460-31번지 1,2층 일부호","indutype":"일반휴게음식 - 일반한식","category":"restaurant"},{"name":"고봉삼계탕 화성동탄점","tel":"031-223-3953","addr":"경기도 화성시 능동 460-31번지 1,2층 일부호","indutype":"일반휴게음식 - 일반한식","category":"restaurant"}]},{"lat":"37.213328486","long":"127.06274884","imageIndex":4,"items":[{"name":"계숙이네","tel":"031-613-9500","addr":"경기도 화성시 능동 1080-3번지","indutype":"일반휴게음식 - 스넥","category":"restaurant"}]},{"lat":"37.219079247","long":"127.05833682","imageIndex":4,"items":[{"name":"계절수산포차","tel":"031-613-1464","addr":"경기도 화성시 능동 1065-1번지 동탄헤리움 1층 126호","indutype":"일반휴게음식 - 일반한식","category":"restaurant"},{"name":"돼지세끼","tel":"","addr":"경기도 화성시 능동 1065-1번지 동탄해리움 1층 104호","indutype":"일반휴게음식 - 일반한식","category":"restaurant"},{"name":"마님닭발동탄점","tel":"031-8003-7982","addr":"경기도 화성시 능동 1065-1번지 동탄헤리움 1층 112호","indutype":"일반휴게음식 - 일반한식","category":"restaurant"},{"name":"술의 온도","tel":"070-4292-8344","addr":"경기도 화성시 능동 1065-1번지 1층 113호","indutype":"일반휴게음식 - 주점","category":"restaurant"},{"name":"토프레소동탄헤리움점","tel":"031-613-3588","addr":"경기도 화성시 능동 1065-1번지 106,107호","indutype":"일반휴게음식 - 서양음식","category":"restaurant"}]},{"lat":"37.211800929","long":"127.05374638","imageIndex":4,"items":[{"name":"고기굽는 하이소","tel":"031-427-9146","addr":"경기도 화성시 능동 471-2번지 2층","indutype":"일반휴게음식 - 일반한식","category":"restaurant"}]},{"lat":"37.214962866","long":"127.05535956","imageIndex":4,"items":[{"name":"고목정소머리국밥","tel":"031-8003-3296","addr":"경기도 화성시 능동 1101-8번지 1층","indutype":"일반휴게음식 - 일반한식","category":"restaurant"}]},{"lat":"37.209329314","long":"127.05983924","imageIndex":4,"items":[{"name":"고봉민김밥","tel":"031-613-6727","addr":"경기도 화성시 능동 1114-3번지 아크리아 102호","indutype":"일반휴게음식 - 스넥","category":"restaurant"},{"name":"북촌손만두 (화성능동점)","tel":"031-613-2999","addr":"경기도 화성시 능동 1114-3번지 아크리아 1층 101호","indutype":"일반휴게음식 - 일반한식","category":"restaurant"},{"name":"커피에반하다","tel":"031-8003-6779","addr":"경기도 화성시 능동 1114-3번지 아크리아 107호","indutype":"일반휴게음식 - 서양음식","category":"restaurant"}]},{"lat":"37.218358857","long":"127.0573899","imageIndex":4,"items":[{"name":"고품(고기를 품은 요리와 곰탕)","tel":"031-8003-1990","addr":"경기도 화성시 능동 1065-3번지 푸르지오시티 108,109호","indutype":"일반휴게음식 - 일반한식","category":"restaurant"},{"name":"이디야 동탄능동점","tel":"031-613-8230","addr":"경기도 화성시 능동 1065-3번지 동탄푸르지오시티 112호","indutype":"일반휴게음식 - 서양음식","category":"restaurant"},{"name":"짱수훠궈양꼬치(동탄점)","tel":"031-8049-7108","addr":"경기도 화성시 능동 1065-3번지 동탄푸르지오시티 1층 107호","indutype":"일반휴게음식 - 중국식","category":"restaurant"},{"name":"쪽찌 &복마니네","tel":"031-8003-9652","addr":"경기도 화성시 능동 1065-3번지 106호,107호","indutype":"일반휴게음식 - 일반한식","category":"restaurant"},{"name":"치어스화성능동점","tel":"031-613-2453","addr":"경기도 화성시 능동 1065-3번지 동탄푸르지오시티 113호","indutype":"일반휴게음식 - 서양음식","category":"restaurant"},{"name":"펀비어킹 동탄능동점","tel":"031-613-8875","addr":"경기도 화성시 능동 1065-3번지 동탄푸르지오시티 1층 115호","indutype":"일반휴게음식 - 주점","category":"restaurant"},{"name":"회사가는날","tel":"031-613-1164","addr":"경기도 화성시 능동 1065-3번지 동탄푸르지오시티 1층 103호","indutype":"일반휴게음식 - 일식·회집","category":"restaurant"}]},{"lat":"37.198666636","long":"127.04661891","imageIndex":4,"items":[{"name":"공간","tel":"070-4063-0994","addr":"경기도 화성시 능동 668-1번지 3층 전부호","indutype":"일반휴게음식 - 일반한식","category":"restaurant"},{"name":"영계소문","tel":"031-222-4259","addr":"경기도 화성시 능동 668-1번지 1층","indutype":"일반휴게음식 - 일반한식","category":"restaurant"}]},{"lat":"37.209022558","long":"127.06067263","imageIndex":4,"items":[{"name":"곽선생왕만두","tel":"","addr":"경기도 화성시 능동 1114-6번지 덕천프라자 106호","indutype":"일반휴게음식 - 스넥","category":"restaurant"},{"name":"님프","tel":"031-8015-3860","addr":"경기도 화성시 능동 1114-6번지 덕천프라자 503호","indutype":"일반휴게음식 - 서양음식","category":"restaurant"},{"name":"본죽&비빔밥cafe(동탄능동점)","tel":"031-8003-1235","addr":"경기도 화성시 능동 1114-6번지 덕천프라자 108호","indutype":"일반휴게음식 - 일반한식","category":"restaurant"}]},{"lat":"37.213247164","long":"127.06319941","imageIndex":4,"items":[{"name":"구이몽(능동점)","tel":"031-613-5998","addr":"경기도 화성시 능동 1079-7번지 1층","indutype":"일반휴게음식 - 일반한식","category":"restaurant"},{"name":"아삼소","tel":"031-613-5998","addr":"경기도 화성시 능동 1079-7번지 1층","indutype":"일반휴게음식 - 일반한식","category":"restaurant"}]},{"lat":"37.217574123","long":"127.05916944","imageIndex":4,"items":[{"name":"국수전문점 밀밭","tel":"031-000-0000","addr":"경기도 화성시 능동 1063-4번지 1층 104호","indutype":"일반휴게음식 - 일반한식","category":"restaurant"},{"name":"단골갈비맛집","tel":"050-5299-3401","addr":"경기도 화성시 능동 1063-4번지","indutype":"일반휴게음식 - 일반한식","category":"restaurant"},{"name":"장수본가해장국","tel":"031-613-0316","addr":"경기도 화성시 능동 1063-4번지 세가프라자 1층 106호","indutype":"일반휴게음식 - 일반한식","category":"restaurant"}]},{"lat":"37.209720373","long":"127.05175102","imageIndex":4,"items":[{"name":"그래비티","tel":"","addr":"경기도 화성시 능동 534-8번지 2동 1,2층","indutype":"일반휴게음식 - 서양음식","category":"restaurant"}]},{"lat":"37.21502321","long":"127.06119545","imageIndex":4,"items":[{"name":"그레이스그래니 (grace granny)","tel":"070-286-7938","addr":"경기도 화성시 능동 1071-9번지 1층","indutype":"일반휴게음식 - 서양음식","category":"restaurant"},{"name":"쁘디데쥬네","tel":"031-374-0178","addr":"경기도 화성시 능동 1071-9번지","indutype":"일반휴게음식 - 서양음식","category":"restaurant"}]},{"lat":"37.217880673","long":"127.05875281","imageIndex":4,"items":[{"name":"그집에","tel":"02-6340-5385","addr":"경기도 화성시 능동 1064-4번지 이너매스브라운 104호","indutype":"일반휴게음식 - 일식·회집","category":"restaurant"},{"name":"밥상설계","tel":"031-8003-3886","addr":"경기도 화성시 능동 1064-4번지 익현오피스텔 101,102호","indutype":"일반휴게음식 - 일반한식","category":"restaurant"},{"name":"본래순대(동탄점)","tel":"031-613-7498","addr":"경기도 화성시 능동 1064-4번지 익현오피스텔 1층상가 1층 109호,110호,111호","indutype":"일반휴게음식 - 일반한식","category":"restaurant"},{"name":"폴아저씨카페","tel":"031-613-6513","addr":"경기도 화성시 능동 1064-4번지 익현오피스텔 108호","indutype":"일반휴게음식 - 서양음식","category":"restaurant"}]},{"lat":"37.214161088","long":"127.05503229","imageIndex":4,"items":[{"name":"김가네대패삼겹살","tel":"031-613-7328","addr":"경기도 화성시 능동 1103-9번지 1층","indutype":"일반휴게음식 - 일반한식","category":"restaurant"},{"name":"훌랄라카페앤천족","tel":"031-613-7338","addr":"경기도 화성시 능동 1103-9번지","indutype":"일반휴게음식 - 일반한식","category":"restaurant"}]},{"lat":"37.209915005","long":"127.05980588","imageIndex":4,"items":[{"name":"김밥매니아","tel":"031-613-5672","addr":"경기도 화성시 능동 1113-2번지 아이비타워 103호","indutype":"일반휴게음식 - 일반한식","category":"restaurant"},{"name":"피자마루능동점","tel":"031-613-0028","addr":"경기도 화성시 능동 1113-2번지 아이비타워 101호","indutype":"일반휴게음식 - 서양음식","category":"restaurant"}]},{"lat":"37.199500707","long":"127.05613732","imageIndex":4,"items":[{"name":"꽈배기 패밀리","tel":"","addr":"경기도 화성시 능동 1152-3번지 스타타워 1층 104호","indutype":"일반휴게음식 - 서양음식","category":"restaurant"},{"name":"베테랑","tel":"031-613-9971","addr":"경기도 화성시 능동 1152-3번지 스타타워 105호","indutype":"일반휴게음식 - 일반한식","category":"restaurant"},{"name":"봉구스밥버거","tel":"031-8003-7820","addr":"경기도 화성시 능동 1152-3번지 스타타워 109호","indutype":"일반휴게음식 - 일반한식","category":"restaurant"},{"name":"이삭토스트&커피동탄마을점","tel":"031-8003-6242","addr":"경기도 화성시 능동 1152-3번지 스타타워 103호","indutype":"일반휴게음식 - 일반한식","category":"restaurant"}]},{"lat":"37.210745463","long":"127.05658458","imageIndex":4,"items":[{"name":"꾸메뜨락 직화쭈꾸미","tel":"031-222-3244","addr":"경기도 화성시 능동 452-3번지 102호","indutype":"일반휴게음식 - 일반한식","category":"restaurant"}]},{"lat":"37.197331169","long":"127.05156282","imageIndex":4,"items":[{"name":"꾸아도 케이크","tel":"","addr":"경기도 화성시 능동 1163-5번지 1층 일부호","indutype":"일반휴게음식 - 서양음식","category":"restaurant"},{"name":"봉수아피자 동탄1호점","tel":"031-8015-5904","addr":"경기도 화성시 능동 1163-5번지 1층 일부호","indutype":"일반휴게음식 - 서양음식","category":"restaurant"}]},{"lat":"37.218187068","long":"127.0586629","imageIndex":4,"items":[{"name":"나도쭈꾸미","tel":"031-613-4446","addr":"경기도 화성시 능동 1064-5번지 이너매스 111호","indutype":"일반휴게음식 - 일반한식","category":"restaurant"},{"name":"능골정육식당","tel":"031-8015-2300","addr":"경기도 화성시 능동 1064-5번지 104,120호,이너매스","indutype":"일반휴게음식 - 일반한식","category":"restaurant"},{"name":"얼큰이찌개마을","tel":"031-6224-1808","addr":"경기도 화성시 능동 1064-5번지 1층 112일부호","indutype":"일반휴게음식 - 일반한식","category":"restaurant"},{"name":"엄마손맛","tel":"031-8003-2257","addr":"경기도 화성시 능동 1064-5번지 이너매스 105~107호","indutype":"일반휴게음식 - 일반한식","category":"restaurant"},{"name":"엔(N)","tel":"","addr":"경기도 화성시 능동 1064-5번지 이너매스 207호","indutype":"일반휴게음식 - 일반한식","category":"restaurant"},{"name":"영달이네 뒷꼬기","tel":"031-8003-9106","addr":"경기도 화성시 능동 1064-5번지 이너매스 112호","indutype":"일반휴게음식 - 일반한식","category":"restaurant"},{"name":"우리집밥상","tel":"031-8003-4236","addr":"경기도 화성시 능동 1064-5번지 이그너매스그린 116,117호","indutype":"일반휴게음식 - 일반한식","category":"restaurant"},{"name":"투다리","tel":"031-8003-0428","addr":"경기도 화성시 능동 1064-5번지 이너매스 1층 110호","indutype":"일반휴게음식 - 주점","category":"restaurant"},{"name":"호수꼬치 화성능동","tel":"031-613-9582","addr":"경기도 화성시 능동 1064-5번지 이너매스 1층 107호","indutype":"일반휴게음식 - 스넥","category":"restaurant"}]},{"lat":"37.198889165","long":"127.05347865","imageIndex":4,"items":[{"name":"남원추어탕","tel":"031-8003-1231","addr":"경기도 화성시 능동 1153-4번지","indutype":"일반휴게음식 - 일반한식","category":"restaurant"}]},{"lat":"37.201078848","long":"127.0531084","imageIndex":4,"items":[{"name":"네네치킨 동탄3호점","tel":"031-8015-4479","addr":"경기도 화성시 능동 1145-2번지","indutype":"일반휴게음식 - 스넥","category":"restaurant"}]},{"lat":"37.199356702","long":"127.05577678","imageIndex":4,"items":[{"name":"누뷜동탄점","tel":"031-8003-2087","addr":"경기도 화성시 능동 1152-5번지 폴리클리닉 1층 121호","indutype":"일반휴게음식 - 서양음식","category":"restaurant"},{"name":"맘애든","tel":"031-5559-8965","addr":"경기도 화성시 능동 1152-5번지 폴리크리닉 113호","indutype":"일반휴게음식 - 일반한식","category":"restaurant"},{"name":"운김","tel":"031-613-3434","addr":"경기도 화성시 능동 1152-5번지","indutype":"일반휴게음식 - 스넥","category":"restaurant"},{"name":"이디야커피동탄폴리점","tel":"031-8003-2225","addr":"경기도 화성시 능동 1152-5 폴리클리닉116호~117호","indutype":"일반휴게음식 - 서양음식","category":"restaurant"}]},{"lat":"37.211971608","long":"127.05494066","imageIndex":4,"items":[{"name":"능동포차","tel":"031-223-3457","addr":"경기도 화성시 능동 464-2번지 1층","indutype":"일반휴게음식 - 주점","category":"restaurant"}]},{"lat":"37.218051436","long":"127.05966553","imageIndex":4,"items":[{"name":"능동해물짬뽕","tel":"","addr":"경기도 화성시 능동 1063-1번지 에이치오엔빌딩 106동 1층 110호","indutype":"일반휴게음식 - 중국식","category":"restaurant"},{"name":"와이제이","tel":"031-613-1311","addr":"경기도 화성시 능동 1063-1번지 에이치오엔빌딩","indutype":"일반휴게음식 - 일반한식","category":"restaurant"}]},{"lat":"37.199856454","long":"127.04539184","imageIndex":4,"items":[{"name":"능리식당","tel":"031-235-5233","addr":"경기도 화성시 능동 677-25번지 외1필지 B동","indutype":"일반휴게음식 - 일반한식","category":"restaurant"}]},{"lat":"37.214214956","long":"127.0554717","imageIndex":4,"items":[{"name":"다솜","tel":"031-6623-2096","addr":"경기도 화성시 능동 1104-11번지 1층 일부호","indutype":"일반휴게음식 - 서양음식","category":"restaurant"}]},{"lat":"37.213742974","long":"127.06272663","imageIndex":4,"items":[{"name":"달달해커피","tel":"031-732-9729","addr":"경기도 화성시 능동 1076-2번지","indutype":"일반휴게음식 - 서양음식","category":"restaurant"}]},{"lat":"37.217051799","long":"127.0585832","imageIndex":4,"items":[{"name":"대우(  )도","tel":"031-8003-1150","addr":"경기도 화성시 능동 1066-5번지 포레스트프라자 201~202호","indutype":"일반휴게음식 - 일반한식","category":"restaurant"}]},{"lat":"37.209130836","long":"127.06035729","imageIndex":4,"items":[{"name":"더벤티 (화성능동점)","tel":"031-000-0000","addr":"경기도 화성시 능동 1114-5번지 동탄엠플렉스 1층 101호","indutype":"일반휴게음식 - 서양음식","category":"restaurant"},{"name":"도로시명품찹쌀꽈배기","tel":"031-0000-0000","addr":"경기도 화성시 능동 1114-5번지 동탄엠플렉스 1층 105호","indutype":"일반휴게음식 - 일반한식","category":"restaurant"},{"name":"키쉬","tel":"070-8887-7909","addr":"경기도 화성시 능동 1114-5번지 106-108호","indutype":"일반휴게음식 - 서양음식","category":"restaurant"},{"name":"파파존스피자 동탄점","tel":"031-613-8004","addr":"경기도 화성시 능동 1114-5번지 동탄엠플렉스 201호","indutype":"일반휴게음식 - 서양음식","category":"restaurant"}]},{"lat":"37.217359301","long":"127.05608227","imageIndex":4,"items":[{"name":"더블디(DOUBLE D)","tel":"","addr":"경기도 화성시 능동 1094-5번지 1층 전부호","indutype":"일반휴게음식 - 일반한식","category":"restaurant"}]},{"lat":"37.214412673","long":"127.05660971","imageIndex":4,"items":[{"name":"도담도담","tel":"031-8003-6363","addr":"경기도 화성시 능동 1088번지","indutype":"일반휴게음식 - 일반한식","category":"restaurant"},{"name":"드롭탑 화성능동점","tel":"031-613-9665","addr":"경기도 화성시 능동 1088번지","indutype":"일반휴게음식 - 서양음식","category":"restaurant"}]},{"lat":"37.200051976","long":"127.0523643","imageIndex":4,"items":[{"name":"동탄 능동골","tel":"031-613-9599","addr":"경기도 화성시 능동 1147-5번지 1층","indutype":"일반휴게음식 - 일반한식","category":"restaurant"}]},{"lat":"37.212106724","long":"127.05503087","imageIndex":4,"items":[{"name":"동탄감자탕","tel":"031-224-7001","addr":"경기도 화성시 능동 467-5번지 1,2층","indutype":"일반휴게음식 - 일반한식","category":"restaurant"}]},{"lat":"37.213219978","long":"127.06350357","imageIndex":4,"items":[{"name":"두부애","tel":"031-613-3375","addr":"경기도 화성시 능동 1079-2번지 1층","indutype":"일반휴게음식 - 일반한식","category":"restaurant"}]},{"lat":"37.197610515","long":"127.05150668","imageIndex":4,"items":[{"name":"뒤풀이","tel":"031-8003-1440","addr":"경기도 화성시 능동 1164-11번지","indutype":"일반휴게음식 - 일반한식","category":"restaurant"}]},{"lat":"37.20971651","long":"127.06035773","imageIndex":4,"items":[{"name":"디저트39 동탄능동점","tel":"031-613-3954","addr":"경기도 화성시 능동 1113-4번지","indutype":"일반휴게음식 - 일반한식","category":"restaurant"},{"name":"메가엠지씨커피 동탄능동점","tel":"031-8003-7730","addr":"경기도 화성시 능동 1113-4번지 1층 102호","indutype":"일반휴게음식 - 서양음식","category":"restaurant"},{"name":"커피베이능동은행사거리점","tel":"031-613-7751","addr":"경기도 화성시 능동 1113-4번지 104호","indutype":"일반휴게음식 - 서양음식","category":"restaurant"}]},{"lat":"37.217629546","long":"127.05622893","imageIndex":4,"items":[{"name":"딜리셔스브라더","tel":"031-613-3362","addr":"경기도 화성시 능동 1094-7번지 1층 일부호","indutype":"일반휴게음식 - 일반한식","category":"restaurant"}]},{"lat":"37.211467521","long":"127.05380248","imageIndex":4,"items":[{"name":"따식이네포차","tel":"","addr":"경기도 화성시 능동 473번지 1층","indutype":"일반휴게음식 - 일반한식","category":"restaurant"}]},{"lat":"37.217439451","long":"127.05814409","imageIndex":4,"items":[{"name":"똘똘이 꼬마김밥","tel":"02-1577-0000","addr":"경기도 화성시 능동 1066-7번지 1층 104호","indutype":"일반휴게음식 - 스넥","category":"restaurant"}]},{"lat":"37.21841206","long":"127.0592264","imageIndex":4,"items":[{"name":"뚱보집","tel":"070-7543-8892","addr":"경기도 화성시 능동 1064-1번지 오디세이 더 테라스뷰 지1층 B04호","indutype":"일반휴게음식 - 일반한식","category":"restaurant"},{"name":"시몬일식스시","tel":"","addr":"경기도 화성시 능동 1064-1번지 105호","indutype":"일반휴게음식 - 일식·회집","category":"restaurant"},{"name":"한우의힘","tel":"031-377-1074","addr":"경기도 화성시 능동 1064-1번지 오디세이더테라스뷰 지1층층 B01호","indutype":"일반휴게음식 - 일반한식","category":"restaurant"}]},{"lat":"37.202853855","long":"127.05319969","imageIndex":4,"items":[{"name":"라오니피자","tel":"031-613-7877","addr":"경기도 화성시 능동 1143-7번지 101호","indutype":"일반휴게음식 - 서양음식","category":"restaurant"}]},{"lat":"37.213134628","long":"127.05336424","imageIndex":4,"items":[{"name":"로코코쇼파 동탄전시장","tel":"031-232-1366","addr":"경기도 화성시 능동 468-1번지","indutype":"일반휴게음식 - 서양음식","category":"restaurant"}]},{"lat":"37.199105782","long":"127.05261149","imageIndex":4,"items":[{"name":"롯데리아 서동탄역점","tel":"031-613-4874","addr":"경기도 화성시 능동 1154-8번지 101호","indutype":"일반휴게음식 - 서양음식","category":"restaurant"}]},{"lat":"37.211025563","long":"127.05483862","imageIndex":4,"items":[{"name":"르레브(주)","tel":"031-222-4585","addr":"경기도 화성시 능동 458번지 1층","indutype":"일반휴게음식 - 서양음식","category":"restaurant"}]},{"lat":"37.215746053","long":"127.05694864","imageIndex":4,"items":[{"name":"리베르호프","tel":"031-613-1544","addr":"경기도 화성시 능동 1092-8번지","indutype":"일반휴게음식 - 주점","category":"restaurant"}]},{"lat":"37.211944142","long":"127.05592075","imageIndex":4,"items":[{"name":"마포소문난족발","tel":"031-898-5155","addr":"경기도 화성시 능동 460-1번지 외3필지","indutype":"일반휴게음식 - 일반한식","category":"restaurant"}]},{"lat":"37.209554843","long":"127.05927614","imageIndex":4,"items":[{"name":"만두래","tel":"031-8003-4979","addr":"경기도 화성시 능동 1114-1번지 영화프라자 102호","indutype":"일반휴게음식 - 스넥","category":"restaurant"},{"name":"바보스","tel":"031-613-7955","addr":"경기도 화성시 능동 1114-1번지 영화프라자 2층 201,202호","indutype":"일반휴게음식 - 일반한식","category":"restaurant"},{"name":"이큐블럭카페","tel":"","addr":"경기도 화성시 능동 1114-1번지 영화프라자 204호","indutype":"일반휴게음식 - 서양음식","category":"restaurant"},{"name":"쥐눈이콩마을김밥상","tel":"031-831-5564","addr":"경기도 화성시 능동 1114-1번지 104호","indutype":"일반휴게음식 - 스넥","category":"restaurant"},{"name":"쥐눈이콩마을김밥상","tel":"031-831-5564","addr":"경기도 화성시 능동 1114-1번지 104호","indutype":"일반휴게음식 - 스넥","category":"restaurant"}]},{"lat":"37.213526657","long":"127.06286165","imageIndex":4,"items":[{"name":"만리장성","tel":"031-613-2228","addr":"경기도 화성시 능동 1078-6번지 1층","indutype":"일반휴게음식 - 중국식","category":"restaurant"}]},{"lat":"37.209797734","long":"127.06008743","imageIndex":4,"items":[{"name":"맘스터치 능동점","tel":"031-613-7709","addr":"경기도 화성시 능동 1113-3번지 102,103호","indutype":"일반휴게음식 - 서양음식","category":"restaurant"},{"name":"한솥도시락 동탄 능동점","tel":"031-613-6151","addr":"경기도 화성시 능동 1113-3번지 에이앤비프라자 101호","indutype":"일반휴게음식 - 스넥","category":"restaurant"}]},{"lat":"37.199248416","long":"127.05613714","imageIndex":4,"items":[{"name":"맛깔참죽동탄푸른마을점","tel":"031-8015-5001","addr":"경기도 화성시 능동 1152-4번지 엘리트타워 105호","indutype":"일반휴게음식 - 일반한식","category":"restaurant"},{"name":"피자스쿨 동탄푸른점","tel":"031-8003-0320","addr":"경기도 화성시 능동 1152-4번지 엘리트타워 106호","indutype":"일반휴게음식 - 서양음식","category":"restaurant"}]},{"lat":"37.213998782","long":"127.05530256","imageIndex":4,"items":[{"name":"맥주와사진","tel":"031-8003-9918","addr":"경기도 화성시 능동 1104-13번지 101호, 102호","indutype":"일반휴게음식 - 주점","category":"restaurant"}]},{"lat":"37.217601537","long":"127.05835828","imageIndex":4,"items":[{"name":"먹태&노가리","tel":"031-8015-4037","addr":"경기도 화성시 능동 1066-2번지 1층 101호","indutype":"일반휴게음식 - 일반한식","category":"restaurant"},{"name":"아벡테프리츠","tel":"031-225-2300","addr":"경기도 화성시 능동 1066-2번지 102호","indutype":"일반휴게음식 - 일반한식","category":"restaurant"}]},{"lat":"37.217799227","long":"127.05949634","imageIndex":4,"items":[{"name":"메리무드","tel":"031-111-1111","addr":"경기도 화성시 능동 1063-3번지 1층 104,105호","indutype":"일반휴게음식 - 서양음식","category":"restaurant"}]},{"lat":"37.211466354","long":"127.0564499","imageIndex":4,"items":[{"name":"멸치부터고래까지","tel":"031-222-9392","addr":"경기도 화성시 능동 453-1번지 외1필지","indutype":"일반휴게음식 - 일반한식","category":"restaurant"}]},{"lat":"37.209359186","long":"127.05358703","imageIndex":4,"items":[{"name":"명가만두전골","tel":"031-221-1827","addr":"경기도 화성시 능동 508-5번지 1층","indutype":"일반휴게음식 - 일반한식","category":"restaurant"}]},{"lat":"37.20963528","long":"127.06063931","imageIndex":4,"items":[{"name":"명랑핫도그동탄능동점","tel":"031-8015-1677","addr":"경기도 화성시 능동 1113-5번지 우리프라자 104호","indutype":"일반휴게음식 - 일반한식","category":"restaurant"},{"name":"오동족발.보쌈","tel":"031-613-9903","addr":"경기도 화성시 능동 1113-5번지 우리프라자 107,108,109호","indutype":"일반휴게음식 - 일반한식","category":"restaurant"},{"name":"정성한줄","tel":"031-613-6556","addr":"경기도 화성시 능동 1113-5번지 우리프라자 102호","indutype":"일반휴게음식 - 일반한식","category":"restaurant"},{"name":"카페사파리","tel":"031-613-0112","addr":"경기도 화성시 능동 1113-5번지 우리프라자 201호","indutype":"일반휴게음식 - 서양음식","category":"restaurant"}]},{"lat":"37.203998365","long":"127.05274987","imageIndex":4,"items":[{"name":"무봉리토종순대국","tel":"031-8003-4892","addr":"경기도 화성시 능동 1138-7번지","indutype":"일반휴게음식 - 일반한식","category":"restaurant"}]},{"lat":"37.21721388","long":"127.05880865","imageIndex":4,"items":[{"name":"무봉리토종순대국 능동점","tel":"031-613-4578","addr":"경기도 화성시 능동 1066-4번지 동탄V프라자 101호,102호,103호","indutype":"일반휴게음식 - 일반한식","category":"restaurant"}]},{"lat":"37.213436678","long":"127.06261373","imageIndex":4,"items":[{"name":"미똘","tel":"031-8003-1337","addr":"경기도 화성시 능동 1080-2번지 1층","indutype":"일반휴게음식 - 일반한식","category":"restaurant"}]},{"lat":"37.214049315","long":"127.06274941","imageIndex":4,"items":[{"name":"민트비어(Mint Beer Pub)","tel":"031-8015-3559","addr":"경기도 화성시 능동 1075-1번지 101호","indutype":"일반휴게음식 - 주점","category":"restaurant"}]},{"lat":"37.199744159","long":"127.05575452","imageIndex":4,"items":[{"name":"박가네김밥","tel":"031-8015-1544","addr":"경기도 화성시 능동 1152-7번지 정문빌딩 107호","indutype":"일반휴게음식 - 스넥","category":"restaurant"},{"name":"커피데이","tel":"031-1111-1111","addr":"경기도 화성시 능동 1152-7번지 정문빌딩 1층 103호","indutype":"일반휴게음식 - 서양음식","category":"restaurant"},{"name":"훌랄라능동1점","tel":"031-613-9530","addr":"경기도 화성시 능동 1152-7번지","indutype":"일반휴게음식 - 스넥","category":"restaurant"}]},{"lat":"37.215521544","long":"127.05528108","imageIndex":4,"items":[{"name":"반값소","tel":"031-613-2009","addr":"경기도 화성시 능동 1100-3번지 우영빌딩 1층 101,102,103,104호","indutype":"일반휴게음식 - 일반한식","category":"restaurant"}]},{"lat":"37.217799865","long":"127.05814436","imageIndex":4,"items":[{"name":"보쌈당한낙지","tel":"070-8108-3369","addr":"경기도 화성시 능동 1066-1번지 아르젠오피스텔상가 106호,107호","indutype":"일반휴게음식 - 일반한식","category":"restaurant"},{"name":"호치킨","tel":"031-8003-4726","addr":"경기도 화성시 능동 1066-1번지 아르젠오피스텔 상가동 109,110호","indutype":"일반휴게음식 - 스넥","category":"restaurant"}]},{"lat":"37.199024489","long":"127.05308451","imageIndex":4,"items":[{"name":"본죽","tel":"031-8015-3988","addr":"경기도 화성시 능동 1153-1번지 중앙프라자 1층 108호","indutype":"일반휴게음식 - 일반한식","category":"restaurant"},{"name":"엘리팝(서동탄역점)","tel":"031-8015-5354","addr":"경기도 화성시 능동 1153-1번지 중앙프라자 3층 302호 303호","indutype":"일반휴게음식 - 일반한식","category":"restaurant"},{"name":"열정분식소 동탄점","tel":"031-8015-2999","addr":"경기도 화성시 능동 1153-1번지 중앙프라자 1층 101호","indutype":"일반휴게음식 - 스넥","category":"restaurant"},{"name":"투썸플레이스 서동탄역점","tel":"031-613-5366","addr":"경기도 화성시 능동 1153-1번지 중앙프라자 103,104,202,203호","indutype":"일반휴게음식 - 서양음식","category":"restaurant"},{"name":"투썸플레이스서동탄역점","tel":"031-613-5366","addr":"경기도 화성시 능동 1153-1번지 중앙프라자 104호 202호","indutype":"일반휴게음식 - 서양음식","category":"restaurant"}]},{"lat":"37.213409224","long":"127.06344739","imageIndex":4,"items":[{"name":"비나토즈(BEANATOZ)","tel":"070-8615-4666","addr":"경기도 화성시 능동 1079-1번지 1층 101호","indutype":"일반휴게음식 - 서양음식","category":"restaurant"}]},{"lat":"37.212693321","long":"127.05289078","imageIndex":4,"items":[{"name":"빈티지컨테이너","tel":"031-111-1111","addr":"경기도 화성시 능동 469-1번지","indutype":"일반휴게음식 - 주점","category":"restaurant"}]},{"lat":"37.217664814","long":"127.05791893","imageIndex":4,"items":[{"name":"쁘띠카페","tel":"070-4768-4270","addr":"경기도 화성시 능동 1066-8번지 에스원스마트빌 105호","indutype":"일반휴게음식 - 서양음식","category":"restaurant"}]},{"lat":"37.211827193","long":"127.05550384","imageIndex":4,"items":[{"name":"사나래","tel":"031-222-2878","addr":"경기도 화성시 능동 460-2,3,14,16,18,25","indutype":"일반휴게음식 - 일반한식","category":"restaurant"}]},{"lat":"37.210413065","long":"127.05436505","imageIndex":4,"items":[{"name":"사랑애쌈","tel":"031-235-7755","addr":"경기도 화성시 능동 484-1번지","indutype":"일반휴게음식 - 일반한식","category":"restaurant"}]},{"lat":"37.210664232","long":"127.05688869","imageIndex":4,"items":[{"name":"생태명가코다리냉면","tel":"031-223-5800","addr":"경기도 화성시 능동 451-2번지 1층","indutype":"일반휴게음식 - 일반한식","category":"restaurant"}]},{"lat":"37.197834483","long":"127.05455925","imageIndex":4,"items":[{"name":"서가네갈비살","tel":"031-8003-0032","addr":"경기도 화성시 능동 805번지","indutype":"일반휴게음식 - 일반한식","category":"restaurant"}]},{"lat":"37.198133592","long":"127.0503356","imageIndex":4,"items":[{"name":"섬웨어커피","tel":"070-4843-0525","addr":"경기도 화성시 능동 1168-4번지","indutype":"일반휴게음식 - 서양음식","category":"restaurant"},{"name":"킨다블루","tel":"070-4842-0525","addr":"경기도 화성시 능동 1168-4번지","indutype":"일반휴게음식 - 서양음식","category":"restaurant"}]},{"lat":"37.210609371","long":"127.05861226","imageIndex":4,"items":[{"name":"수동골장수오리 동탄점","tel":"031-233-0301","addr":"경기도 화성시 능동 444번지 1층","indutype":"일반휴게음식 - 일반한식","category":"restaurant"},{"name":"인평일등추어탕","tel":"031-221-2030","addr":"경기도 화성시 능동 444번지","indutype":"일반휴게음식 - 일반한식","category":"restaurant"}]},{"lat":"37.216582448","long":"127.06028408","imageIndex":4,"items":[{"name":"수원가마솥통닭","tel":"031-8003-0799","addr":"경기도 화성시 능동 1062 능동마을상가 101","indutype":"일반휴게음식 - 스넥","category":"restaurant"}]},{"lat":"37.21312996","long":"127.06333451","imageIndex":4,"items":[{"name":"신)아삼모사","tel":"031-1111-1111","addr":"경기도 화성시 능동 1079-6번지 1층","indutype":"일반휴게음식 - 일반한식","category":"restaurant"}]},{"lat":"37.208909092","long":"127.05258412","imageIndex":4,"items":[{"name":"신가옥","tel":"031-222-8840","addr":"경기도 화성시 능동 538번지 1층","indutype":"일반휴게음식 - 일반한식","category":"restaurant"}]},{"lat":"37.218105804","long":"127.05902337","imageIndex":4,"items":[{"name":"썸 밀","tel":"031-8003-0601","addr":"경기도 화성시 능동 1064-3번지 삼성씨티오피스텔 1층 101호","indutype":"일반휴게음식 - 일반한식","category":"restaurant"}]},{"lat":"37.212832629","long":"127.06331174","imageIndex":4,"items":[{"name":"아이라이크커피","tel":"031-8015-5220","addr":"경기도 화성시 능동 1080-7번지 1층","indutype":"일반휴게음식 - 서양음식","category":"restaurant"}]},{"lat":"37.220106178","long":"127.05886712","imageIndex":4,"items":[{"name":"아재불닭발 동탄점","tel":"031-8051-2221","addr":"경기도 화성시 능동 1052-4번지 이너매스골드 상가동 1층 110호","indutype":"일반휴게음식 - 일반한식","category":"restaurant"},{"name":"황금룡","tel":"031-8003-1107","addr":"경기도 화성시 능동 1052-4번지 이너매스골드 111,112호","indutype":"일반휴게음식 - 중국식","category":"restaurant"}]},{"lat":"37.197556512","long":"127.05136022","imageIndex":4,"items":[{"name":"아트(ART)숲","tel":"","addr":"경기도 화성시 능동 1164-12번지 101호","indutype":"일반휴게음식 - 서양음식","category":"restaurant"}]},{"lat":"37.198466115","long":"127.05244211","imageIndex":4,"items":[{"name":"안주창고999","tel":"031-8003-9962","addr":"경기도 화성시 능동 1164-2번지 1층 103호","indutype":"일반휴게음식 - 일반한식","category":"restaurant"}]},{"lat":"37.202775281","long":"127.0468691","imageIndex":4,"items":[{"name":"앤커피","tel":"031-0000-0000","addr":"경기도 화성시 능동 697-16번지 1층","indutype":"일반휴게음식 - 서양음식","category":"restaurant"}]},{"lat":"37.214693054","long":"127.0542215","imageIndex":4,"items":[{"name":"양마니순대곱창","tel":"031-224-7481","addr":"경기도 화성시 능동 1103-17번지 1층 전체호","indutype":"일반휴게음식 - 일반한식","category":"restaurant"}]},{"lat":"37.210107272","long":"127.05305805","imageIndex":4,"items":[{"name":"여수집","tel":"031-236-8005","addr":"경기도 화성시 능동 529번지 1층","indutype":"일반휴게음식 - 일반한식","category":"restaurant"}]},{"lat":"37.216439468","long":"127.05778284","imageIndex":4,"items":[{"name":"여울로207","tel":"031-8003-0979","addr":"경기도 화성시 능동 1092-1번지","indutype":"일반휴게음식 - 일반한식","category":"restaurant"}]},{"lat":"37.214908482","long":"127.05608055","imageIndex":4,"items":[{"name":"영동식당","tel":"031-8003-2700","addr":"경기도 화성시 능동 1104-4번지 1층","indutype":"일반휴게음식 - 일반한식","category":"restaurant"}]},{"lat":"37.202996002","long":"127.05775058","imageIndex":4,"items":[{"name":"오늘밥상","tel":"","addr":"경기도 화성시 능동 1134번지 푸른마을포스코더샵2차 상가동 지1층 103-1호","indutype":"일반휴게음식 - 스넥","category":"restaurant"},{"name":"치킨더홈(동탄점)","tel":"031-8015-0001","addr":"경기도 화성시 능동 1134번지 푸른마을포스코더샵2차 상가동110,110-1호","indutype":"일반휴게음식 - 스넥","category":"restaurant"}]},{"lat":"37.200024889","long":"127.05249945","imageIndex":4,"items":[{"name":"오븐에빠진닭.피자에땅","tel":"031-8015-3650","addr":"경기도 화성시 능동 1147-4번지","indutype":"일반휴게음식 - 서양음식","category":"restaurant"}]},{"lat":"37.203800231","long":"127.05252445","imageIndex":4,"items":[{"name":"우리아구찜","tel":"031-378-6100","addr":"경기도 화성시 능동 1141-5번지 1층","indutype":"일반휴게음식 - 일반한식","category":"restaurant"}]},{"lat":"37.214521675","long":"127.05463822","imageIndex":4,"items":[{"name":"웅이네 오돌뼈","tel":"031-8003-9196","addr":"경기도 화성시 능동 1103-4번지 1층","indutype":"일반휴게음식 - 일반한식","category":"restaurant"}]},{"lat":"37.209161416","long":"127.05250543","imageIndex":4,"items":[{"name":"원조쌈밥 동탄점","tel":"031-221-5585","addr":"경기도 화성시 능동 537번지 1층","indutype":"일반휴게음식 - 일반한식","category":"restaurant"}]},{"lat":"37.215386117","long":"127.05588936","imageIndex":4,"items":[{"name":"육판서","tel":"031-613-6788","addr":"경기도 화성시 능동 1099번지 A동 1층","indutype":"일반휴게음식 - 일반한식","category":"restaurant"}]},{"lat":"37.197718341","long":"127.05222762","imageIndex":4,"items":[{"name":"인생역전족발","tel":"031-613-8258","addr":"경기도 화성시 능동 1162-1번지 1층 1호","indutype":"일반휴게음식 - 일반한식","category":"restaurant"}]},{"lat":"37.198716666","long":"127.05644089","imageIndex":4,"items":[{"name":"일인자감자탕","tel":"031-613-4299","addr":"경기도 화성시 능동 813-2번지","indutype":"일반휴게음식 - 일반한식","category":"restaurant"}]},{"lat":"37.215854596","long":"127.05602488","imageIndex":4,"items":[{"name":"일품뼈해장국","tel":"031-8003-9908","addr":"경기도 화성시 능동 1098-9번지 1층","indutype":"일반휴게음식 - 일반한식","category":"restaurant"}]},{"lat":"37.21716067","long":"127.05697218","imageIndex":4,"items":[{"name":"일품항아리갈비","tel":"031-613-4252","addr":"경기도 화성시 능동 1095-4번지 1층","indutype":"일반휴게음식 - 일반한식","category":"restaurant"}]},{"lat":"37.214774083","long":"127.05436801","imageIndex":4,"items":[{"name":"입큰아구알곤이찜","tel":"031-8015-4612","addr":"경기도 화성시 능동 1103-1번지 1층","indutype":"일반휴게음식 - 일반한식","category":"restaurant"}]},{"lat":"37.198691337","long":"127.05253237","imageIndex":4,"items":[{"name":"장가네소한마리","tel":"031-8015-1518","addr":"경기도 화성시 능동 1156-9번지 1층","indutype":"일반휴게음식 - 일반한식","category":"restaurant"}]},{"lat":"37.21638583","long":"127.05685896","imageIndex":4,"items":[{"name":"장수밥상","tel":"070-8944-0079","addr":"경기도 화성시 능동 1096-15번지 1층","indutype":"일반휴게음식 - 일반한식","category":"restaurant"}]},{"lat":"37.214746687","long":"127.05520168","imageIndex":4,"items":[{"name":"장수식당","tel":"031-613-3858","addr":"경기도 화성시 능동 1102-4번지 101 (1층)","indutype":"일반휴게음식 - 일반한식","category":"restaurant"},{"name":"코리안 덕","tel":"031-613-3980","addr":"경기도 화성시 능동 1102-4번지 1층 102호","indutype":"일반휴게음식 - 일반한식","category":"restaurant"}]},{"lat":"37.209774017","long":"127.05275367","imageIndex":4,"items":[{"name":"장수천한방민물장어","tel":"031-221-9252","addr":"경기도 화성시 능동 528-10번지","indutype":"일반휴게음식 - 일반한식","category":"restaurant"}]},{"lat":"37.214332285","long":"127.05503241","imageIndex":4,"items":[{"name":"장충동왕족발보쌈(동탄점)","tel":"031-8015-3300","addr":"경기도 화성시 능동 1103-7번지 1층","indutype":"일반휴게음식 - 일반한식","category":"restaurant"}]},{"lat":"37.21707998","long":"127.05608208","imageIndex":4,"items":[{"name":"정원족발막국수","tel":"031-376-8355","addr":"경기도 화성시 능동 1096-1번지 1층","indutype":"일반휴게음식 - 일반한식","category":"restaurant"}]},{"lat":"37.211053199","long":"127.05344171","imageIndex":4,"items":[{"name":"조마루감자탕능동점","tel":"031-222-2336","addr":"경기도 화성시 능동 474-2번지 1층","indutype":"일반휴게음식 - 일반한식","category":"restaurant"}]},{"lat":"37.198303667","long":"127.05306151","imageIndex":4,"items":[{"name":"지그라피(Z.graphy)","tel":"070-4354-8913","addr":"경기도 화성시 능동 1161-3번지 1층","indutype":"일반휴게음식 - 일반한식","category":"restaurant"}]},{"lat":"37.214915019","long":"127.06133056","imageIndex":4,"items":[{"name":"지나케이크","tel":"031-221-4223","addr":"경기도 화성시 능동 1071-8번지 1층","indutype":"일반휴게음식 - 서양음식","category":"restaurant"}]},{"lat":"37.216412743","long":"127.05711811","imageIndex":4,"items":[{"name":"지배온삼겹","tel":"031-222-6662","addr":"경기도 화성시 능동 1096-11번지 1층","indutype":"일반휴게음식 - 일반한식","category":"restaurant"}]},{"lat":"37.211610672","long":"127.05611203","imageIndex":4,"items":[{"name":"진천토종순대","tel":"031-225-4646","addr":"경기도 화성시 능동 460-4번지 1층","indutype":"일반휴게음식 - 일반한식","category":"restaurant"}]},{"lat":"37.198078559","long":"127.05270092","imageIndex":4,"items":[{"name":"찜마을","tel":"031-8003-9557","addr":"경기도 화성시 능동 1161-11번지","indutype":"일반휴게음식 - 일반한식","category":"restaurant"}]},{"lat":"37.213859788","long":"127.06335762","imageIndex":4,"items":[{"name":"착한불고기못된쭈꾸미","tel":"031-613-6176","addr":"경기도 화성시 능동 1078-1번지 102호","indutype":"일반휴게음식 - 일반한식","category":"restaurant"}]},{"lat":"37.200970732","long":"127.0530858","imageIndex":4,"items":[{"name":"찬","tel":"031-000-0000","addr":"경기도 화성시 능동 1145-3번지 102호","indutype":"일반휴게음식 - 일반한식","category":"restaurant"}]},{"lat":"37.211052864","long":"127.05421903","imageIndex":4,"items":[{"name":"창","tel":"","addr":"경기도 화성시 능동 474-1번지","indutype":"일반휴게음식 - 서양음식","category":"restaurant"}]},{"lat":"37.215077216","long":"127.06130816","imageIndex":4,"items":[{"name":"청기와24시감자탕","tel":"031-8015-1189","addr":"경기도 화성시 능동 1071-2번지","indutype":"일반휴게음식 - 일반한식","category":"restaurant"}]},{"lat":"37.199251078","long":"127.04984069","imageIndex":4,"items":[{"name":"청화루","tel":"031-226-6464","addr":"경기도 화성시 능동 1040번지 송골마을우남드림밸리 상가 202호","indutype":"일반휴게음식 - 중국식","category":"restaurant"}]},{"lat":"37.209188333","long":"127.05277582","imageIndex":4,"items":[{"name":"총각수산(능동점)","tel":"031-224-8287","addr":"경기도 화성시 능동 528-5번지","indutype":"일반휴게음식 - 일식·회집","category":"restaurant"}]},{"lat":"37.197665083","long":"127.05025646","imageIndex":4,"items":[{"name":"치킨마을","tel":"031-8003-4585","addr":"경기도 화성시 능동 1170-2번지 1층","indutype":"일반휴게음식 - 스넥","category":"restaurant"}]},{"lat":"37.209527018","long":"127.06092086","imageIndex":4,"items":[{"name":"치킨보감","tel":"031-359-4300","addr":"경기도 화성시 능동 1113-6번지 한솔프라자 110,111호","indutype":"일반휴게음식 - 주점","category":"restaurant"}]},{"lat":"37.216304583","long":"127.0571969","imageIndex":4,"items":[{"name":"카페 스물 한 살","tel":"","addr":"경기도 화성시 능동 1096-12번지 1층","indutype":"일반휴게음식 - 서양음식","category":"restaurant"}]},{"lat":"37.198384889","long":"127.05275744","imageIndex":4,"items":[{"name":"카페렐라","tel":"031-8015-5879","addr":"경기도 화성시 능동 1161-1번지 1층 상가전체","indutype":"일반휴게음식 - 서양음식","category":"restaurant"}]},{"lat":"37.21671925","long":"127.05678034","imageIndex":4,"items":[{"name":"카페로카","tel":"031-8003-8811","addr":"경기도 화성시 능동 1096-7번지 1층","indutype":"일반휴게음식 - 서양음식","category":"restaurant"}]},{"lat":"37.21296786","long":"127.06316539","imageIndex":4,"items":[{"name":"카페루멘","tel":"031-273-5823","addr":"경기도 화성시 능동 1080-6번지 1층","indutype":"일반휴게음식 - 서양음식","category":"restaurant"}]},{"lat":"37.198689817","long":"127.05603538","imageIndex":4,"items":[{"name":"카페올가(CAFE ORGA)","tel":"031-8015-4828","addr":"경기도 화성시 능동 811번지 가동 2호","indutype":"일반휴게음식 - 일반한식","category":"restaurant"}]},{"lat":"37.197773253","long":"127.05014389","imageIndex":4,"items":[{"name":"카페제이","tel":"031-8003-4091","addr":"경기도 화성시 능동 1170-1번지","indutype":"일반휴게음식 - 서양음식","category":"restaurant"}]},{"lat":"37.206522342","long":"127.05013808","imageIndex":4,"items":[{"name":"카페휴(나래울)","tel":"031-8015-7338","addr":"경기도 화성시 능동 1128번지 1층","indutype":"일반휴게음식 - 서양음식","category":"restaurant"}]},{"lat":"37.214166279","long":"127.06308748","imageIndex":4,"items":[{"name":"커피그린빈(Coffe Green Been)","tel":"031-8003-5259","addr":"경기도 화성시 능동 1077-5번지","indutype":"일반휴게음식 - 서양음식","category":"restaurant"}]},{"lat":"37.218719053","long":"127.05786336","imageIndex":4,"items":[{"name":"커피드림스","tel":"031-8003-0252","addr":"경기도 화성시 능동 1065-2번지 1층 114,115호","indutype":"일반휴게음식 - 서양음식","category":"restaurant"},{"name":"한솥 도시락 동탄능동스타점","tel":"031-8003-1840","addr":"경기도 화성시 능동 1065-2번지 1층 113호","indutype":"일반휴게음식 - 일반한식","category":"restaurant"}]},{"lat":"37.216691899","long":"127.05747883","imageIndex":4,"items":[{"name":"커피에반하다 능동2호점","tel":"070-5089-3725","addr":"경기도 화성시 능동 1095-10번지 1층","indutype":"일반휴게음식 - 서양음식","category":"restaurant"}]},{"lat":"37.210827983","long":"127.05334017","imageIndex":4,"items":[{"name":"콩마루","tel":"031-221-0014","addr":"경기도 화성시 능동 481-1번지","indutype":"일반휴게음식 - 일반한식","category":"restaurant"}]},{"lat":"37.197799598","long":"127.05183344","imageIndex":4,"items":[{"name":"크리미벨로","tel":"031-613-1261","addr":"경기도 화성시 능동 1164-8번지 1층","indutype":"일반휴게음식 - 일반한식","category":"restaurant"}]},{"lat":"37.199139194","long":"127.05852499","imageIndex":4,"items":[{"name":"큰집보쌈","tel":"031-805-5787","addr":"경기도 화성시 능동 984-6번지 1층","indutype":"일반휴게음식 - 일반한식","category":"restaurant"}]},{"lat":"37.212886553","long":"127.06358216","imageIndex":4,"items":[{"name":"통돼지김치찌개","tel":"031-613-4988","addr":"경기도 화성시 능동 1079-4번지 1층","indutype":"일반휴게음식 - 일반한식","category":"restaurant"}]},{"lat":"37.21132994","long":"127.05916481","imageIndex":4,"items":[{"name":"페리카나","tel":"031-613-0092","addr":"경기도 화성시 능동 1110번지 동탄능동마을주공아파트 상가 101호","indutype":"일반휴게음식 - 스넥","category":"restaurant"}]},{"lat":"37.198159804","long":"127.05234054","imageIndex":4,"items":[{"name":"퓨전포차조개마을","tel":"031-613-3029","addr":"경기도 화성시 능동 1164-4번지 1층","indutype":"일반휴게음식 - 일반한식","category":"restaurant"}]},{"lat":"37.199889939","long":"127.05200375","imageIndex":4,"items":[{"name":"한입 능동점","tel":"031-000-0000","addr":"경기도 화성시 능동 1149-2번지 1층","indutype":"일반휴게음식 - 일반한식","category":"restaurant"}]},{"lat":"37.204106513","long":"127.05269362","imageIndex":4,"items":[{"name":"해다온포차","tel":"031-8015-5777","addr":"경기도 화성시 능동 1138-6번지 1층","indutype":"일반휴게음식 - 일반한식","category":"restaurant"}]},{"lat":"37.215134172","long":"127.05511182","imageIndex":4,"items":[{"name":"해원","tel":"031-613-6326","addr":"경기도 화성시 능동 1101-10번지 1층 101호","indutype":"일반휴게음식 - 일반한식","category":"restaurant"}]},{"lat":"37.211332731","long":"127.05294621","imageIndex":4,"items":[{"name":"헤변의꽃게동탄점","tel":"031-223-2259","addr":"경기도 화성시 능동 476-3번지","indutype":"일반휴게음식 - 일반한식","category":"restaurant"}]},{"lat":"37.214629898","long":"127.05441298","imageIndex":4,"items":[{"name":"현현 브라더스","tel":"031-613-9209","addr":"경기도 화성시 능동 1103-2번지 1층 전체호","indutype":"일반휴게음식 - 일반한식","category":"restaurant"}]},{"lat":"37.21141295","long":"127.05497407","imageIndex":4,"items":[{"name":"형제상회","tel":"031-204-2467","addr":"경기도 화성시 능동 460-15번지","indutype":"일반휴게음식 - 일반한식","category":"restaurant"}]},{"lat":"37.215547928","long":"127.05672317","imageIndex":4,"items":[{"name":"호세야오리바베큐 동탄점","tel":"031-8015-5283","addr":"경기도 화성시 능동 1092-10번지 1층 일부호","indutype":"일반휴게음식 - 일반한식","category":"restaurant"}]},{"lat":"37.210078315","long":"127.05741774","imageIndex":4,"items":[{"name":"호아풍","tel":"031-232-3492","addr":"경기도 화성시 능동 449번지 외1필지 1층","indutype":"일반휴게음식 - 일반한식","category":"restaurant"}]},{"lat":"37.209548725","long":"127.05283238","imageIndex":4,"items":[{"name":"혼이담긴짬뽕","tel":"031-234-1144","addr":"경기도 화성시 능동 528-1번지 1층","indutype":"일반휴게음식 - 중국식","category":"restaurant"}]},{"lat":"37.212994747","long":"127.06344706","imageIndex":4,"items":[{"name":"홍익김밥","tel":"031-613-0257","addr":"경기도 화성시 능동 1079-5번지 1층","indutype":"일반휴게음식 - 스넥","category":"restaurant"}]},{"lat":"37.209888525","long":"127.05864553","imageIndex":4,"items":[{"name":"화성시니어클럽 노노카페 (동탄3동주민센터","tel":"031-8059-4349","addr":"경기도 화성시 능동 1119번지 1층","indutype":"일반휴게음식 - 서양음식","category":"restaurant"}]},{"lat":"37.209521421","long":"127.05347448","imageIndex":4,"items":[{"name":"황금 코다리","tel":"031-223-5504","addr":"경기도 화성시 능동 528-3번지 1층","indutype":"일반휴게음식 - 일반한식","category":"restaurant"}]},{"lat":"37.200330375","long":"127.05452716","imageIndex":4,"items":[{"name":"황금분식","tel":"031-8003-4666","addr":"경기도 화성시 능동 1150번지 동탄푸른마을신일해피트리 상가동 107호","indutype":"일반휴게음식 - 스넥","category":"restaurant"}]},{"lat":"37.197610287","long":"127.05205859","imageIndex":4,"items":[{"name":"회쳐모여","tel":"031-613-4290","addr":"경기도 화성시 능동 1162-9번지 1층","indutype":"일반휴게음식 - 일반한식","category":"restaurant"}]},{"lat":"37.214689648","long":"127.06155571","imageIndex":4,"items":[{"name":"희연토스트","tel":"070-7513-0204","addr":"경기도 화성시 능동 1071-6번지 101호","indutype":"일반휴게음식 - 스넥","category":"restaurant"}]}]