[{"lat":"37.208106454","long":"126.81671504","imageIndex":7,"items":[{"name":"(주) 스킨푸드","tel":"","addr":"경기도 화성시 남양읍 남양리 1172-16번지 남양빌딩 1층","indutype":"음료식품 - 농·축·수산품","category":"food"}]},{"lat":"37.208406719","long":"126.81858432","imageIndex":7,"items":[{"name":"(주) 티엔코리아","tel":"031-356-4362","addr":"경기도 화성시 남양읍 남양리 2253-1번지 201호","indutype":"음료식품 - 기타음료식품","category":"food"}]},{"lat":"37.207909528","long":"126.82944504","imageIndex":7,"items":[{"name":"100번길11","tel":"","addr":"경기도 화성시 남양읍 남양리 2039-9번지 3층 302호","indutype":"음료식품 - 기타음료식품","category":"food"}]},{"lat":"37.211990832","long":"126.82313819","imageIndex":7,"items":[{"name":"건국우유 화성서부대리점","tel":"031-355-0886","addr":"경기도 화성시 남양읍 남양리 1344-1번지","indutype":"음료식품 - 기타음료식품","category":"food"}]},{"lat":"37.202158493","long":"126.82780236","imageIndex":7,"items":[{"name":"국제어시장","tel":"031-366-9942","addr":"경기도 화성시 남양읍 남양리 2062-4번지","indutype":"음료식품 - 농·축·수산품","category":"food"}]},{"lat":"37.209019124","long":"126.81839132","imageIndex":7,"items":[{"name":"까투리수산","tel":"031-357-8333","addr":"경기도 화성시 남양읍 남양리 1197번지","indutype":"음료식품 - 농·축·수산품","category":"food"},{"name":"정관장남양점","tel":"031-357-8203","addr":"경기도 화성시 남양읍 남양리 1197번지 외3필지 103호","indutype":"건강식품 - 홍삼제품","category":"food"},{"name":"정관장남양점","tel":"031-357-8203","addr":"경기도 화성시 남양읍 남양리 1197번지 외3필지 103호","indutype":"건강식품 - 홍삼제품","category":"food"}]},{"lat":"37.209460279","long":"126.81816494","imageIndex":7,"items":[{"name":"낙원떡방앗간","tel":"031-355-5773","addr":"경기도 화성시 남양읍 남양리 1235-2번지","indutype":"음료식품 - 제과점","category":"food"},{"name":"정규호베이커리","tel":"070-7563-0123","addr":"경기도 화성시 남양읍 남양리 1235-2번지 1층","indutype":"음료식품 - 제과점","category":"food"}]},{"lat":"37.209494929","long":"126.8172749","imageIndex":7,"items":[{"name":"남양수산","tel":"031-355-4342","addr":"경기도 화성시 남양읍 남양리 1225-1번지","indutype":"음료식품 - 농·축·수산품","category":"food"}]},{"lat":"37.209348674","long":"126.81594595","imageIndex":7,"items":[{"name":"남양쌀상회","tel":"031-357-8117","addr":"경기도 화성시 남양읍 남양리 1163-47번지","indutype":"음료식품 - 미곡상","category":"food"}]},{"lat":"37.202655152","long":"126.80022627","imageIndex":7,"items":[{"name":"농업회사법인 주식회사 미래팜","tel":"031-366-7853","addr":"경기도 화성시 남양읍 남양리 399-2번지","indutype":"음료식품 - 농·축·수산품","category":"food"},{"name":"화성남양굼벵이","tel":"031-366-7853","addr":"경기도 화성시 남양읍 남양리 399-2번지","indutype":"음료식품 - 농·축·수산품","category":"food"}]},{"lat":"37.204965559","long":"126.83110767","imageIndex":7,"items":[{"name":"다배520","tel":"031-8055-7705","addr":"경기도 화성시 남양읍 남양리 2049-5번지 1층 101호","indutype":"음료식품 - 제과점","category":"food"}]},{"lat":"37.204549262","long":"126.80135893","imageIndex":7,"items":[{"name":"대박농장","tel":"031-355-6644","addr":"경기도 화성시 남양읍 남양리 311-3번지 2층 남양공구상사","indutype":"음료식품 - 농·축·수산품","category":"food"}]},{"lat":"37.209161459","long":"126.81721939","imageIndex":7,"items":[{"name":"대박축산","tel":"031-111-1111","addr":"경기도 화성시 남양읍 남양리 1225-2번지","indutype":"음료식품 - 정육점","category":"food"}]},{"lat":"37.207852994","long":"126.81597217","imageIndex":7,"items":[{"name":"더와인오브파이어","tel":"031-366-8870","addr":"경기도 화성시 남양읍 남양리 1170번지 청남빌딩 201호","indutype":"음료식품 - 주류 판매점","category":"food"},{"name":"주식회사 안코라코리아","tel":"","addr":"경기도 화성시 남양읍 남양리 1170번지 301호","indutype":"음료식품 - 주류 판매점","category":"food"}]},{"lat":"37.20027356","long":"126.82661274","imageIndex":7,"items":[{"name":"던킨도너츠 화성시청점","tel":"","addr":"경기도 화성시 남양읍 남양리 2072-13번지 101호","indutype":"음료식품 - 제과점","category":"food"}]},{"lat":"37.208548138","long":"126.81682661","imageIndex":7,"items":[{"name":"동원떡 방아간","tel":"031-357-7791","addr":"경기도 화성시 남양읍 남양리 1218번지 1층","indutype":"음료식품 - 제과점","category":"food"}]},{"lat":"37.208933754","long":"126.81566535","imageIndex":7,"items":[{"name":"두부마을 남양점","tel":"031-355-7669","addr":"경기도 화성시 남양읍 남양리 1167번지 1층 일부","indutype":"음료식품 - 기타음료식품","category":"food"}]},{"lat":"37.209542931","long":"126.81916735","imageIndex":7,"items":[{"name":"뚜레쥬르 화성남양(2)","tel":"031-355-0925","addr":"경기도 화성시 남양읍 남양리 1268번지 외5필지","indutype":"음료식품 - 제과점","category":"food"}]},{"lat":"37.205155624","long":"126.831693","imageIndex":7,"items":[{"name":"마사(masa)","tel":"031-357-3381","addr":"경기도 화성시 남양읍 남양리 2050-4번지 1층 102호","indutype":"음료식품 - 제과점","category":"food"}]},{"lat":"37.207794822","long":"126.83111253","imageIndex":7,"items":[{"name":"모녀찬방","tel":"031-358-6056","addr":"경기도 화성시 남양읍 남양리 2044-8번지 102호","indutype":"음료식품 - 기타음료식품","category":"food"}]},{"lat":"37.201492376","long":"126.8282432","imageIndex":7,"items":[{"name":"바다마트","tel":"031-356-0890","addr":"경기도 화성시 남양읍 남양리 2062-10번지 태양빌딩 106호","indutype":"음료식품 - 기타음료식품","category":"food"}]},{"lat":"37.209154612","long":"126.81860503","imageIndex":7,"items":[{"name":"방울네정육점","tel":"031-356-2203","addr":"경기도 화성시 남양읍 남양리 1195-3번지","indutype":"음료식품 - 정육점","category":"food"},{"name":"화성남양 베스킨라빈스","tel":"031-356-2519","addr":"경기도 화성시 남양읍 남양리 1195-3번지","indutype":"음료식품 - 제과점","category":"food"}]},{"lat":"37.198407662","long":"126.82611021","imageIndex":7,"items":[{"name":"배스킨라빈스 화성시청점","tel":"031-357-3063","addr":"경기도 화성시 남양읍 남양리 2320-5번지 101,102호일부","indutype":"음료식품 - 제과점","category":"food"}]},{"lat":"37.210156576","long":"126.81977419","imageIndex":7,"items":[{"name":"본시루","tel":"031-505-2528","addr":"경기도 화성시 남양읍 남양리 1270-3번지 2동 1층","indutype":"음료식품 - 제과점","category":"food"}]},{"lat":"37.202600947","long":"126.8284434","imageIndex":7,"items":[{"name":"봄눈베이커리","tel":"070-8186-3768","addr":"경기도 화성시 남양읍 남양리 2064-1번지 102호","indutype":"음료식품 - 제과점","category":"food"}]},{"lat":"37.200489473","long":"126.82638696","imageIndex":7,"items":[{"name":"블럭제빵소 화성남양점","tel":"031-357-5477","addr":"경기도 화성시 남양읍 남양리 2072-11번지 1층 106호","indutype":"음료식품 - 제과점","category":"food"}]},{"lat":"37.202939346","long":"126.82575045","imageIndex":7,"items":[{"name":"비터스윗","tel":"031-355-4131","addr":"경기도 화성시 남양읍 남양리 2017-9번지 1층","indutype":"음료식품 - 제과점","category":"food"}]},{"lat":"37.207407606","long":"126.81352877","imageIndex":7,"items":[{"name":"뻥튀기공장 (뻥튀기공장소)","tel":"00-0000-0000","addr":"경기도 화성시 남양읍 남양리 524번지 1층 일부","indutype":"음료식품 - 기타음료식품","category":"food"}]},{"lat":"37.203294163","long":"126.82804755","imageIndex":7,"items":[{"name":"사강수산","tel":"031-356-0775","addr":"경기도 화성시 남양읍 남양리 2032-10번지","indutype":"음료식품 - 농·축·수산품","category":"food"}]},{"lat":"37.211104994","long":"126.81550226","imageIndex":7,"items":[{"name":"생생과일","tel":"","addr":"경기도 화성시 남양읍 남양리 629-4번지 현대원룸 B동 202호","indutype":"음료식품 - 농·축·수산품","category":"food"}]},{"lat":"37.209042713","long":"126.81619454","imageIndex":7,"items":[{"name":"서울축산","tel":"031-355-4284","addr":"경기도 화성시 남양읍 남양리 1165-31번지","indutype":"음료식품 - 정육점","category":"food"}]},{"lat":"37.202934612","long":"126.82863413","imageIndex":7,"items":[{"name":"소랑 오리랑","tel":"031-356-1127","addr":"경기도 화성시 남양읍 남양리 2061-11번지","indutype":"음료식품 - 정육점","category":"food"}]},{"lat":"37.210715946","long":"126.83233384","imageIndex":7,"items":[{"name":"승일떡","tel":"031-356-8433","addr":"경기도 화성시 남양읍 남양리 2232-2번지 1동 B02호","indutype":"음료식품 - 기타음료식품","category":"food"}]},{"lat":"37.2082927","long":"126.81483331","imageIndex":7,"items":[{"name":"시온떡방","tel":"031-357-2705","addr":"경기도 화성시 남양읍 남양리 658-4번지 1층 2호","indutype":"음료식품 - 제과점","category":"food"},{"name":"장금이반찬","tel":"031-357-3504","addr":"경기도 화성시 남양읍 남양리 658-4번지 1층 101호102호","indutype":"음료식품 - 기타음료식품","category":"food"}]},{"lat":"37.196716752","long":"126.83438148","imageIndex":7,"items":[{"name":"시청수산물직매장","tel":"031-1111-1111","addr":"경기도 화성시 남양읍 남양리 1856-82번지","indutype":"음료식품 - 농·축·수산품","category":"food"}]},{"lat":"37.209821692","long":"126.81880618","imageIndex":7,"items":[{"name":"신바람건강원","tel":"031-355-0311","addr":"경기도 화성시 남양읍 남양리 1267-2번지 1층 4호","indutype":"건강식품 - 기타건강식품","category":"food"}]},{"lat":"37.202349436","long":"126.8289734","imageIndex":7,"items":[{"name":"안주파티","tel":"031-355-5635","addr":"경기도 화성시 남양읍 남양리 2064-5번지","indutype":"음료식품 - 기타음료식품","category":"food"}]},{"lat":"37.203884236","long":"126.8310538","imageIndex":7,"items":[{"name":"역골반찬가게","tel":"031-357-7688","addr":"경기도 화성시 남양읍 남양리 2050-18번지 1층 101호","indutype":"음료식품 - 기타음료식품","category":"food"}]},{"lat":"37.204795893","long":"126.83216693","imageIndex":7,"items":[{"name":"우리별빛반찬","tel":"031-357-7666","addr":"경기도 화성시 남양읍 남양리 2052-12번지 1층 101호","indutype":"음료식품 - 기타음료식품","category":"food"}]},{"lat":"37.205132151","long":"126.80505218","imageIndex":7,"items":[{"name":"율이네반찬","tel":"031-356-9292","addr":"경기도 화성시 남양읍 남양리 415-3번지 우림그린빌리지 B동 110호","indutype":"음료식품 - 기타음료식품","category":"food"}]},{"lat":"37.204100027","long":"126.80211484","imageIndex":7,"items":[{"name":"은쟁반에금사과농원","tel":"031-355-0291","addr":"경기도 화성시 남양읍 남양리 315번지","indutype":"음료식품 - 농·축·수산품","category":"food"}]},{"lat":"37.205523113","long":"126.80716892","imageIndex":7,"items":[{"name":"은혜떡방","tel":"031-355-2538","addr":"경기도 화성시 남양읍 남양리 465-3번지 상가 110호","indutype":"음료식품 - 제과점","category":"food"}]},{"lat":"37.209712006","long":"126.81780383","imageIndex":7,"items":[{"name":"자타정육점","tel":"031-357-8853","addr":"경기도 화성시 남양읍 남양리 1237번지 (주)픽앤츄코리아 104호","indutype":"음료식품 - 정육점","category":"food"}]},{"lat":"37.203987888","long":"126.82199693","imageIndex":7,"items":[{"name":"조은축산","tel":"031-355-2247","addr":"경기도 화성시 남양읍 남양리 2294-8번지 102호 101호, 102호","indutype":"음료식품 - 정육점","category":"food"}]},{"lat":"37.206518689","long":"126.79911199","imageIndex":7,"items":[{"name":"좋은식자재하나로유통주식회사","tel":"031-357-3999","addr":"경기도 화성시 남양읍 남양리 345-1번지","indutype":"음료식품 - 기타음료식품","category":"food"},{"name":"주식회사 하나로유통","tel":"031-357-3999","addr":"경기도 화성시 남양읍 남양리 345-1번지","indutype":"음료식품 - 농·축·수산품","category":"food"}]},{"lat":"37.210050753","long":"126.80441975","imageIndex":7,"items":[{"name":"주렁주렁","tel":"","addr":"경기도 화성시 남양읍 남양리 247-1번지 신동아홈타운1단지 101동 401호","indutype":"음료식품 - 농·축·수산품","category":"food"}]},{"lat":"37.202688755","long":"126.83947093","imageIndex":7,"items":[{"name":"주식회사 늘푸르다","tel":"031-1111-1111","addr":"경기도 화성시 남양읍 남양리 1479번지 신경대학교","indutype":"음료식품 - 기타음료식품","category":"food"}]},{"lat":"37.208072076","long":"126.8296925","imageIndex":7,"items":[{"name":"주식회사 보보","tel":"031-357-8294","addr":"경기도 화성시 남양읍 남양리 2039-12번지 1층","indutype":"음료식품 - 기타음료식품","category":"food"}]},{"lat":"37.204101714","long":"126.82577026","imageIndex":7,"items":[{"name":"채은맘 수제 누룽지","tel":"","addr":"경기도 화성시 남양읍 남양리 2025-5번지 102호","indutype":"음료식품 - 기타음료식품","category":"food"}]},{"lat":"37.208571358","long":"126.81441581","imageIndex":7,"items":[{"name":"청초한 만들기시간","tel":"070-4656-3843","addr":"경기도 화성시 남양읍 남양리 548번지 경도그린맨션 501호","indutype":"음료식품 - 기타음료식품","category":"food"}]},{"lat":"37.208210496","long":"126.81413508","imageIndex":7,"items":[{"name":"쿡1015화성남양점","tel":"031-357-6909","addr":"경기도 화성시 남양읍 남양리 546번지 1층","indutype":"음료식품 - 기타음료식품","category":"food"}]},{"lat":"37.213713083","long":"126.81810951","imageIndex":7,"items":[{"name":"태백산한우","tel":"031-356-8253","addr":"경기도 화성시 남양읍 남양리 1148-10번지","indutype":"음료식품 - 정육점","category":"food"}]},{"lat":"37.209520048","long":"126.81605818","imageIndex":7,"items":[{"name":"풍년떡집","tel":"031-356-3940","addr":"경기도 화성시 남양읍 남양리 1163-14번지","indutype":"음료식품 - 제과점","category":"food"}]},{"lat":"37.204352528","long":"126.83088377","imageIndex":7,"items":[{"name":"픽미픽미아이스 화성남양점","tel":"031-111-1111","addr":"경기도 화성시 남양읍 남양리 2049-11번지 1층 101호","indutype":"음료식품 - 기타음료식품","category":"food"}]},{"lat":"37.212213566","long":"126.81569104","imageIndex":7,"items":[{"name":"한양떡방앗간","tel":"031-357-2773","addr":"경기도 화성시 남양읍 남양리 59-1번지 103호","indutype":"음료식품 - 제과점","category":"food"}]},{"lat":"37.209685923","long":"126.81841222","imageIndex":7,"items":[{"name":"할인마트정육점","tel":"031-357-5103","addr":"경기도 화성시 남양읍 남양리 1267-4번지","indutype":"음료식품 - 정육점","category":"food"}]},{"lat":"37.20171555","long":"126.82683467","imageIndex":7,"items":[{"name":"해밀시아알엠 주식회사","tel":"031-355-8953","addr":"경기도 화성시 남양읍 남양리 2074-13번지 201호","indutype":"음료식품 - 기타음료식품","category":"food"}]},{"lat":"37.209876226","long":"126.81911021","imageIndex":7,"items":[{"name":"형제축산물판매장","tel":"031-357-5122","addr":"경기도 화성시 남양읍 남양리 1268-2번지 센타프라자 101호","indutype":"음료식품 - 정육점","category":"food"}]},{"lat":"37.207044238","long":"126.82924425","imageIndex":7,"items":[{"name":"홍삼백화점","tel":"031-356-8828","addr":"경기도 화성시 남양읍 남양리 2040-11번지 1층 101호","indutype":"건강식품 - 기타건강식품","category":"food"}]}]