[{"lat":"37.001298682","long":"127.16313109","imageIndex":0,"items":[{"name":"A.H MOTORS","tel":"031-691-1333","addr":"경기도 안성시 공도읍 용두리 275-51번지","indutype":"자동차정비 유지 - 자동차정비","category":"car"}]},{"lat":"37.000409444","long":"127.1610284","imageIndex":0,"items":[{"name":"공도365자동차공업사","tel":"031-656-1605","addr":"경기도 안성시 공도읍 용두리 231-2번지","indutype":"자동차정비 유지 - 자동차부품","category":"car"},{"name":"공도365자동차공업사","tel":"031-656-1606","addr":"경기도 안성시 공도읍 용두리 231-2번지","indutype":"자동차정비 유지 - 자동차정비","category":"car"},{"name":"공도이에스모터스","tel":"031-656-1605","addr":"경기도 안성시 공도읍 용두리 231-2번지 외 1필지","indutype":"자동차정비 유지 - 자동차정비","category":"car"},{"name":"명신공업사","tel":"031-656-1605","addr":"경기도 안성시 공도읍 용두리 231-2","indutype":"자동차정비 유지 - 자동차정비","category":"car"}]},{"lat":"36.998298419","long":"127.16291135","imageIndex":0,"items":[{"name":"광내는 사람들PRIME","tel":"031-652-6888","addr":"경기도 안성시 공도읍 용두리 275-119번지 1층","indutype":"자동차정비 유지 - 세차장","category":"car"}]},{"lat":"36.998360857","long":"127.16338331","imageIndex":0,"items":[{"name":"기아오토큐안성IC점","tel":"031-654-1838","addr":"경기도 안성시 공도읍 용두리 275-120번지","indutype":"자동차정비 유지 - 자동차부품","category":"car"}]},{"lat":"37.000774435","long":"127.16433208","imageIndex":0,"items":[{"name":"다올타이어","tel":"031-691-8500","addr":"경기도 안성시 공도읍 용두리 275-59번지","indutype":"자동차정비 유지 - 자동차시트·타이어","category":"car"}]},{"lat":"37.004106994","long":"127.15863179","imageIndex":0,"items":[{"name":"대영자동차정비","tel":"031-618-3700","addr":"경기도 안성시 공도읍 용두리 527-4번지","indutype":"자동차정비 유지 - 자동차정비","category":"car"}]},{"lat":"36.999352364","long":"127.16313824","imageIndex":0,"items":[{"name":"미래중고타이어","tel":"031-654-4009","addr":"경기도 안성시 공도읍 용두리 275-93","indutype":"자동차정비 유지 - 자동차시트·타이어","category":"car"}]},{"lat":"37.007990437","long":"127.16547088","imageIndex":0,"items":[{"name":"브이텍안성점","tel":"031-658-8906","addr":"경기도 안성시 공도읍 용두리 337번지","indutype":"자동차정비 유지 - 가타자동차서비스","category":"car"}]},{"lat":"36.999827259","long":"127.16510524","imageIndex":0,"items":[{"name":"서안성24시셀프세차장","tel":"","addr":"경기도 안성시 공도읍 용두리 275-86번지","indutype":"자동차정비 유지 - 자동차부품","category":"car"}]},{"lat":"37.007525269","long":"127.16952588","imageIndex":0,"items":[{"name":"세덴용두리점","tel":"031-656-9467","addr":"경기도 안성시 공도읍 용두리 102-8번지 101호","indutype":"자동차정비 유지 - 자동차정비","category":"car"}]},{"lat":"37.00460596","long":"127.16941839","imageIndex":0,"items":[{"name":"슈퍼카모터스","tel":"031-656-9877","addr":"경기도 안성시 공도읍 용두리 131-2번지","indutype":"자동차정비 유지 - 자동차시트·타이어","category":"car"}]},{"lat":"37.006353837","long":"127.16955703","imageIndex":0,"items":[{"name":"스팀 팩토리 (STEAM FACTORY)","tel":"031-656-8360","addr":"경기도 안성시 공도읍 용두리 104-6번지","indutype":"자동차정비 유지 - 카인테리어","category":"car"}]},{"lat":"36.998942766","long":"127.16615937","imageIndex":0,"items":[{"name":"안성번호판제작소","tel":"031-653-2297","addr":"경기도 안성시 공도읍 용두리 270","indutype":"자동차정비 유지 - 가타자동차서비스","category":"car"}]},{"lat":"37.007714035","long":"127.16985212","imageIndex":0,"items":[{"name":"오광택","tel":"031-692-2726","addr":"경기도 안성시 공도읍 용두리 103-1번지","indutype":"자동차정비 유지 - 카인테리어","category":"car"}]},{"lat":"37.007912537","long":"127.16966155","imageIndex":0,"items":[{"name":"한국GM공도지정서비스","tel":"031-692-8581","addr":"경기도 안성시 공도읍 용두리 102-4","indutype":"자동차정비 유지 - 자동차정비","category":"car"}]},{"lat":"37.003883082","long":"127.16436112","imageIndex":0,"items":[{"name":"휠사랑","tel":"070-8888-5316","addr":"경기도 안성시 공도읍 용두리 276-1","indutype":"자동차정비 유지 - 자동차정비","category":"car"}]}]