[{"lat":"37.336564367","long":"127.24905904","imageIndex":8,"items":[{"name":"모현누리소아청소년과의원","tel":"031-322-5597","addr":"경기도 용인시 처인구 모현읍 왕산리 801-10번지","indutype":"의원 - 의원","category":"medical"}]},{"lat":"37.337066556","long":"127.25020039","imageIndex":8,"items":[{"name":"모현우리이비인후과","tel":"031-577-0394","addr":"경기도 용인시 처인구 모현읍 왕산리 790-7. 2층","indutype":"의원 - 의원","category":"medical"}]},{"lat":"37.336788115","long":"127.24978196","imageIndex":8,"items":[{"name":"모현중앙약국","tel":"031-332-9968","addr":"경기도 용인시 처인구 모현읍 왕산리 797-1번지","indutype":"약국 - 약국","category":"medical"}]},{"lat":"37.336454859","long":"127.24972445","imageIndex":8,"items":[{"name":"모현치과","tel":"031-332-9669","addr":"경기도 용인시 처인구 모현읍 왕산리801-1","indutype":"의원 - 치과의원","category":"medical"},{"name":"햇살가득한의원","tel":"031-339-8275","addr":"경기도 용인시 처인구 모현읍 왕산리 801-1번지 2층","indutype":"의원 - 한의원","category":"medical"}]},{"lat":"37.336895835","long":"127.24997415","imageIndex":8,"items":[{"name":"문치과","tel":"031-322-7522","addr":"경기도 용인시 처인구 모현읍 왕산리798-1","indutype":"의원 - 치과의원","category":"medical"}]},{"lat":"37.337121088","long":"127.24997489","imageIndex":8,"items":[{"name":"반석한의원","tel":"031-339-6171","addr":"경기도 용인시 처인구 모현읍 왕산리 790-3번지","indutype":"의원 - 한의원","category":"medical"},{"name":"코끼리약국","tel":"031-333-5060","addr":"경기도 용인시 처인구 모현읍 왕산리 790-3번지 외1필지","indutype":"약국 - 약국","category":"medical"}]},{"lat":"37.336509836","long":"127.24928455","imageIndex":8,"items":[{"name":"세인약국","tel":"031-323-4135","addr":"경기도 용인시 처인구 모현읍 왕산리 801-23번지","indutype":"약국 - 약국","category":"medical"}]},{"lat":"37.337068533","long":"127.24925252","imageIndex":8,"items":[{"name":"연세치과","tel":"031-767-2875","addr":"경기도 용인시 처인구 모현읍 왕산리 799-7번지 2층","indutype":"의원 - 치과의원","category":"medical"}]},{"lat":"37.336094619","long":"127.24964428","imageIndex":8,"items":[{"name":"오케이경희한의원","tel":"031-334-2700","addr":"경기도 용인시 처인구 모현읍 왕산리 804-1번지 2층","indutype":"의원 - 한의원","category":"medical"}]},{"lat":"37.343874715","long":"127.2247066","imageIndex":8,"items":[{"name":"옵티마명성약국","tel":"031-333-7049","addr":"경기도 용인시 처인구 모현읍 매산리 208-2번지","indutype":"약국 - 약국","category":"medical"}]},{"lat":"37.330567668","long":"127.15581653","imageIndex":8,"items":[{"name":"용인능원약국","tel":"031-333-9806","addr":"경기도 용인시 처인구 모현읍 오산리 172-7번지 성덕자동차공업사","indutype":"약국 - 약국","category":"medical"}]},{"lat":"37.338508006","long":"127.25028411","imageIndex":8,"items":[{"name":"용인성모의원","tel":"031-332-7796","addr":"경기도 용인시 처인구 모현읍 왕산리 782-1번지","indutype":"의원 - 의원","category":"medical"},{"name":"일곱빛약국","tel":"031-334-2577","addr":"경기도 용인시 처인구 모현읍 왕산리 782-1번지","indutype":"약국 - 약국","category":"medical"}]},{"lat":"37.337985656","long":"127.25016955","imageIndex":8,"items":[{"name":"윤성욱내과의원","tel":"031-334-7582","addr":"경기도 용인시 처인구 모현읍 왕산리 945-23번지 2층","indutype":"의원 - 의원","category":"medical"},{"name":"행복한약국","tel":"031-321-6942","addr":"경기도 용인시 처인구 모현읍 왕산리 945-23번지 1층","indutype":"약국 - 약국","category":"medical"}]},{"lat":"37.33878467","long":"127.16937468","imageIndex":8,"items":[{"name":"주식회사메디웰에코","tel":"02-3453-9071","addr":"경기도 용인시 처인구 모현읍 능원리 137-16번지","indutype":"약국 - 제약회사","category":"medical"}]},{"lat":"37.330762813","long":"127.1511569","imageIndex":8,"items":[{"name":"죽전 TNR동물병원","tel":"031-322-7586","addr":"경기도 용인시 처인구 모현읍 오산리 193-28번지","indutype":"기타의료기관 - 동물병원","category":"medical"}]},{"lat":"37.334293516","long":"127.24919832","imageIndex":8,"items":[{"name":"행복동물병원","tel":"031-334-7580","addr":"경기도 용인시 처인구 모현읍 왕산리 428-1번지","indutype":"기타의료기관 - 동물병원","category":"medical"}]},{"lat":"37.33662598","long":"127.24975886","imageIndex":8,"items":[{"name":"현대정형외과의원","tel":"031-322-3080","addr":"경기도 용인시 처인구 모현읍 왕산리 796-1번지","indutype":"의원 - 의원","category":"medical"}]},{"lat":"37.331869445","long":"127.18462605","imageIndex":8,"items":[{"name":"힐링팜","tel":"031-4012-0372","addr":"경기도 용인시 처인구 모현읍 동림리 289번지 2층","indutype":"약국 - 제약회사","category":"medical"}]}]