[{"lat":"37.516866413","long":"126.76230113","imageIndex":13,"items":[{"name":"(주)DMW코리아","tel":"032-325-4260","addr":"경기도 부천시 약대동 192번지 부천테크노파크 201동 801호","indutype":"보건위생 - 미용재료","category":"beauty"},{"name":"(주)DMW코리아","tel":"032-621-2400","addr":"경기도 부천시 약대동 192번지 부천테크노파크 201동 801호","indutype":"보건위생 - 미용재료","category":"beauty"},{"name":"위더스바이오","tel":"070-7566-4129","addr":"경기도 부천시 약대동 192번지 부천테크노파크2단지 지층 3호 200 동제","indutype":"보건위생 - 의료용품","category":"beauty"},{"name":"제로니텍(주)","tel":"032-811-8890","addr":"경기도 부천시 약대동 192번지 부천테크노파크2단지 202동 602호","indutype":"보건위생 - 의료용품","category":"beauty"},{"name":"천국","tel":"032-324-9177","addr":"경기도 부천시 약대동 192번지 부천테크노파크2단지 200동 303호","indutype":"보건위생 - 화장품","category":"beauty"},{"name":"형진물산위그몰","tel":"032-324-3925","addr":"경기도 부천시 약대동 192번지 부천테크노파크2단지 202동 804호","indutype":"보건위생 - 미용재료","category":"beauty"},{"name":"휴 심리상담 카페(Hue 심리)","tel":"031-000-0000","addr":"경기도 부천시 약대동 192번지 부천테크노파크2단지 203동 102호-21","indutype":"보건위생 - 기타대인서비스","category":"beauty"}]},{"lat":"37.513315181","long":"126.77063727","imageIndex":13,"items":[{"name":"(주)포포큐","tel":"032-673-1235","addr":"경기도 부천시 약대동 126-2번지 3층","indutype":"보건위생 - 의료용품","category":"beauty"}]},{"lat":"37.513697573","long":"126.76809115","imageIndex":13,"items":[{"name":"가위소리","tel":"070-4327-1609","addr":"경기도 부천시 약대동 50번지 삼호아트빌 가동 101호","indutype":"보건위생 - 미용원","category":"beauty"}]},{"lat":"37.510535897","long":"126.77307761","imageIndex":13,"items":[{"name":"가인헤어샵","tel":"032-672-8883","addr":"경기도 부천시 약대동 175-17번지 1층 지상 1층 일부","indutype":"보건위생 - 미용원","category":"beauty"}]},{"lat":"37.513954212","long":"126.77029596","imageIndex":13,"items":[{"name":"김희정미용실","tel":"032-673-6006","addr":"경기도 부천시 약대동 98-3번지","indutype":"보건위생 - 미용원","category":"beauty"}]},{"lat":"37.512897618","long":"126.77365853","imageIndex":13,"items":[{"name":"까까머리","tel":"032-682-3357","addr":"경기도 부천시 약대동 169-28번지 1층","indutype":"보건위생 - 미용원","category":"beauty"}]},{"lat":"37.515953204","long":"126.76516579","imageIndex":13,"items":[{"name":"나르샤","tel":"032-324-2355","addr":"경기도 부천시 약대동 182-13번지","indutype":"보건위생 - 미용원","category":"beauty"}]},{"lat":"37.512815508","long":"126.76854634","imageIndex":13,"items":[{"name":"나빌레라헤어","tel":"032-676-0516","addr":"경기도 부천시 약대동 139-5번지 1층 일부","indutype":"보건위생 - 미용원","category":"beauty"}]},{"lat":"37.512534362","long":"126.77218925","imageIndex":13,"items":[{"name":"내가머리하는곳","tel":"032-683-9940","addr":"경기도 부천시 약대동 165-2번지","indutype":"보건위생 - 미용원","category":"beauty"}]},{"lat":"37.516064499","long":"126.76674901","imageIndex":13,"items":[{"name":"네일,너와","tel":"032-681-6981","addr":"경기도 부천시 약대동 216-1번지 부천아이파크","indutype":"보건위생 - 피부미용실","category":"beauty"},{"name":"리사헤어","tel":"032-327-2266","addr":"경기도 부천시 약대동 216-1번지 부천아이파크","indutype":"보건위생 - 미용원","category":"beauty"},{"name":"아르떼헤어","tel":"032-327-9777","addr":"경기도 부천시 약대동 216-1번지 부천아이파크","indutype":"보건위생 - 미용원","category":"beauty"},{"name":"플로라 뷰티","tel":"","addr":"경기도 부천시 약대동 216-1번지 부천아이파크 215동 2층 204호","indutype":"보건위생 - 화장품","category":"beauty"},{"name":"피부이야기유(YOU)","tel":"032-322-2358","addr":"경기도 부천시 약대동 216-1번지 부천아이파크","indutype":"보건위생 - 피부미용실","category":"beauty"}]},{"lat":"37.514844937","long":"126.76965978","imageIndex":13,"items":[{"name":"룩 (Look)안경콘택트","tel":"032-676-5825","addr":"경기도 부천시 약대동 92-2번지 1층","indutype":"보건위생 - 안경","category":"beauty"},{"name":"리안헤어 신흥사거리점","tel":"032-682-8991","addr":"경기도 부천시 약대동 92-2번지 2층","indutype":"보건위생 - 미용원","category":"beauty"}]},{"lat":"37.513930799","long":"126.77213971","imageIndex":13,"items":[{"name":"리엔모","tel":"070-8269-4034","addr":"경기도 부천시 약대동 118-2번지 파인센트럴빌 B101호","indutype":"보건위생 - 미용원","category":"beauty"}]},{"lat":"37.515286067","long":"126.76496431","imageIndex":13,"items":[{"name":"마마헤어","tel":"032-324-3090","addr":"경기도 부천시 약대동 182-58번지 1층 102호","indutype":"보건위생 - 미용원","category":"beauty"}]},{"lat":"37.512590935","long":"126.76888636","imageIndex":13,"items":[{"name":"마벨헤어","tel":"","addr":"경기도 부천시 약대동 139-20번지 2층","indutype":"보건위생 - 미용원","category":"beauty"}]},{"lat":"37.514372343","long":"126.76760266","imageIndex":13,"items":[{"name":"봉숭아손톱","tel":"032-320-2812","addr":"경기도 부천시 약대동 80-7번지 세영퍼스트빌 203호","indutype":"보건위생 - 화장품","category":"beauty"}]},{"lat":"37.510760394","long":"126.77269237","imageIndex":13,"items":[{"name":"뷰티호텔","tel":"","addr":"경기도 부천시 약대동 175번지 B동 1층","indutype":"보건위생 - 화장품","category":"beauty"},{"name":"시리네일","tel":"070-4696-0445","addr":"경기도 부천시 약대동 175번지 비동 1층 일부","indutype":"보건위생 - 피부미용실","category":"beauty"},{"name":"칸느헤어","tel":"032-345-4605","addr":"경기도 부천시 약대동 175번지","indutype":"보건위생 - 미용원","category":"beauty"}]},{"lat":"37.514647814","long":"126.77021463","imageIndex":13,"items":[{"name":"송화","tel":"032-215-2086","addr":"경기도 부천시 약대동 93-3번지 2층","indutype":"보건위생 - 화장품","category":"beauty"}]},{"lat":"37.514256003","long":"126.76799891","imageIndex":13,"items":[{"name":"썬네일(Sun Nail)","tel":"032-225-4141","addr":"경기도 부천시 약대동 80-11번지","indutype":"보건위생 - 피부미용실","category":"beauty"},{"name":"헤어블라섬","tel":"032-318-4252","addr":"경기도 부천시 약대동 80-11번지","indutype":"보건위생 - 미용원","category":"beauty"}]},{"lat":"37.516178655","long":"126.76526688","imageIndex":13,"items":[{"name":"어바우트민","tel":"032-322-9637","addr":"경기도 부천시 약대동 182-60번지 1층","indutype":"보건위생 - 미용원","category":"beauty"}]},{"lat":"37.513371238","long":"126.77165507","imageIndex":13,"items":[{"name":"어울림헤어","tel":"032-677-7192","addr":"경기도 부천시 약대동 121번지 호수빌딩","indutype":"보건위생 - 미용원","category":"beauty"}]},{"lat":"37.512312547","long":"126.76935096","imageIndex":13,"items":[{"name":"엠제이(MJ)메디라인","tel":"032-111-1111","addr":"경기도 부천시 약대동 138-7번지 다니엘종합병원 111호","indutype":"보건위생 - 의료용품","category":"beauty"}]},{"lat":"37.512895616","long":"126.77262926","imageIndex":13,"items":[{"name":"엠제이헤어","tel":"070-7370-4369","addr":"경기도 부천시 약대동 169-62번지 1층 일부","indutype":"보건위생 - 미용원","category":"beauty"}]},{"lat":"37.514814995","long":"126.76818944","imageIndex":13,"items":[{"name":"예맥디자인","tel":"070-8682-6131","addr":"경기도 부천시 약대동 82-6번지 3층","indutype":"보건위생 - 화장품","category":"beauty"}]},{"lat":"37.514565252","long":"126.76946837","imageIndex":13,"items":[{"name":"오로라테크","tel":"032-676-8695","addr":"경기도 부천시 약대동 90-2 102-202","indutype":"보건위생 - 의료용품","category":"beauty"}]},{"lat":"37.511536447","long":"126.76871999","imageIndex":13,"items":[{"name":"올리브헤어","tel":"032-324-3448","addr":"경기도 부천시 약대동 196번지 두산위브트레지움아파트1단지 107호","indutype":"보건위생 - 미용원","category":"beauty"}]},{"lat":"37.512367921","long":"126.77463286","imageIndex":13,"items":[{"name":"유스포 힐링스파","tel":"032-673-9100","addr":"경기도 부천시 약대동 169-115번지 지1, 2층","indutype":"보건위생 - 사우나","category":"beauty"},{"name":"효소힐링케어","tel":"","addr":"경기도 부천시 약대동 169-115번지 지하2층 유스포힐링사우나","indutype":"보건위생 - 피부미용실","category":"beauty"}]},{"lat":"37.510563784","long":"126.77351863","imageIndex":13,"items":[{"name":"주식회사 선광케미칼","tel":"032-523-6353","addr":"경기도 부천시 약대동 169-84번지 1층","indutype":"보건위생 - 화장품","category":"beauty"}]},{"lat":"37.511900806","long":"126.77535816","imageIndex":13,"items":[{"name":"허브테크코리아","tel":"032-678-6012","addr":"경기도 부천시 약대동 176-32번지 한성빌딩 5층","indutype":"보건위생 - 의료용품","category":"beauty"}]},{"lat":"37.514706652","long":"126.76807667","imageIndex":13,"items":[{"name":"헤어스토리","tel":"032-675-0507","addr":"경기도 부천시 약대동 83-1번지","indutype":"보건위생 - 미용원","category":"beauty"}]},{"lat":"37.513534344","long":"126.77212962","imageIndex":13,"items":[{"name":"헤어카페","tel":"032-295-4253","addr":"경기도 부천시 약대동 119번지 우남 상가 1층 1호","indutype":"보건위생 - 미용원","category":"beauty"}]},{"lat":"37.514034387","long":"126.76983197","imageIndex":13,"items":[{"name":"헤어호(HAIR HO)","tel":"032-672-4082","addr":"경기도 부천시 약대동 104번지 1층 2호","indutype":"보건위생 - 미용원","category":"beauty"}]}]