[{"lat":"37.204472152","long":"127.03814005","imageIndex":4,"items":[{"name":"1988옛날통닭","tel":"","addr":"경기도 화성시 병점동 870번지 화성병점에스케이뷰 상가 104동 1층 113호","indutype":"일반휴게음식 - 스넥","category":"restaurant"},{"name":"김밥사랑","tel":"031-234-9901","addr":"경기도 화성시 병점동 870번지 화성병점에스케이뷰 104동 S114호","indutype":"일반휴게음식 - 스넥","category":"restaurant"},{"name":"밥톨스","tel":"031-238-1018","addr":"경기도 화성시 병점동 870번지 SKVIEW상가 104동 205호","indutype":"일반휴게음식 - 서양음식","category":"restaurant"}]},{"lat":"37.20735534","long":"127.03859199","imageIndex":4,"items":[{"name":"369차차","tel":"031-111-1111","addr":"경기도 화성시 병점동 357-1번지 102호","indutype":"일반휴게음식 - 일반한식","category":"restaurant"},{"name":"김씨가마","tel":"031-221-8187","addr":"경기도 화성시 병점동 357-1번지 1층 일부","indutype":"일반휴게음식 - 일반한식","category":"restaurant"}]},{"lat":"37.213931677","long":"127.04248185","imageIndex":4,"items":[{"name":"60계치킨 (화성병점점)","tel":"031-225-6060","addr":"경기도 화성시 병점동 844-1번지 씨네샤르앙 A동 1층 101호","indutype":"일반휴게음식 - 스넥","category":"restaurant"},{"name":"미스터피자 병점점","tel":"031-226-2177","addr":"경기도 화성시 병점동 844-1번지 씨네샤르망 A동 206호","indutype":"일반휴게음식 - 서양음식","category":"restaurant"},{"name":"바불리옛날왕만두","tel":"","addr":"경기도 화성시 병점동 844-1번지 씨네샤르망 A동 110호","indutype":"일반휴게음식 - 스넥","category":"restaurant"},{"name":"병점 쉐이크 포테이토","tel":"031-235-1416","addr":"경기도 화성시 병점동 844-1번지 씨네샤르망 A동 803호","indutype":"일반휴게음식 - 주점","category":"restaurant"},{"name":"이끼","tel":"031-262-6735","addr":"경기도 화성시 병점동 844-1번지 씨네샤르망 A동 112호","indutype":"일반휴게음식 - 주점","category":"restaurant"},{"name":"잇플레이트","tel":"031-222-2126","addr":"경기도 화성시 병점동 844-1번지 씨네샤르망 A동 207호","indutype":"일반휴게음식 - 일반한식","category":"restaurant"},{"name":"청년다방 화성병점점","tel":"031-225-6541","addr":"경기도 화성시 병점동 844-1번지 씨네샤르망 A동 102호","indutype":"일반휴게음식 - 일반한식","category":"restaurant"},{"name":"총각네옛날통닭 병점롯데씨네마점","tel":"031-221-0248","addr":"경기도 화성시 병점동 844-1번지 씨네샤르망 A동 117호 116","indutype":"일반휴게음식 - 일반한식","category":"restaurant"},{"name":"커피투데이","tel":"031-232-9745","addr":"경기도 화성시 병점동 844-1번지 씨네샤르망 A동 802호","indutype":"일반휴게음식 - 서양음식","category":"restaurant"},{"name":"프라임","tel":"031-234-7770","addr":"경기도 화성시 병점동 844-1번지 씨네샤르망 A동 1101호","indutype":"일반휴게음식 - 일반한식","category":"restaurant"}]},{"lat":"37.214018319","long":"127.05175379","imageIndex":4,"items":[{"name":"BHC 병점점","tel":"031-222-7798","addr":"경기도 화성시 병점동 204번지","indutype":"일반휴게음식 - 스넥","category":"restaurant"},{"name":"주식회사 삼성에프앤디","tel":"111-1111-111","addr":"경기도 화성시 병점동 204번지","indutype":"일반휴게음식 - 일반한식","category":"restaurant"}]},{"lat":"37.206770601","long":"127.03533616","imageIndex":4,"items":[{"name":"COO(쿠)","tel":"031-235-5551","addr":"경기도 화성시 병점동 381-17번지 병점제일타운 103호","indutype":"일반휴게음식 - 서양음식","category":"restaurant"},{"name":"남도밥상","tel":"031-238-9840","addr":"경기도 화성시 병점동 381-17번지 병점제일타운 117호","indutype":"일반휴게음식 - 일반한식","category":"restaurant"},{"name":"병점식당","tel":"031-223-2226","addr":"경기도 화성시 병점동 381-17번지 병점제일타운 110호","indutype":"일반휴게음식 - 일반한식","category":"restaurant"},{"name":"보릿골","tel":"031-234-0710","addr":"경기도 화성시 병점동 381-17번지 병점제일타운 108호","indutype":"일반휴게음식 - 일반한식","category":"restaurant"},{"name":"스마일 찹쌀 꽈배기","tel":"070-4616-0200","addr":"경기도 화성시 병점동 381-17번지 병점제일타운 111호","indutype":"일반휴게음식 - 서양음식","category":"restaurant"},{"name":"신강양꼬치","tel":"031-223-6882","addr":"경기도 화성시 병점동 381-17번지 병점제일타운 111호","indutype":"일반휴게음식 - 일반한식","category":"restaurant"},{"name":"역전양꼬치","tel":"070-7517-7511","addr":"경기도 화성시 병점동 381-17번지 병점제일타운 101호","indutype":"일반휴게음식 - 일반한식","category":"restaurant"},{"name":"착한순대국","tel":"031-223-7022","addr":"경기도 화성시 병점동 381-17번지 병점제일타운 109호","indutype":"일반휴게음식 - 일반한식","category":"restaurant"}]},{"lat":"37.208776982","long":"127.0446984","imageIndex":4,"items":[{"name":"Good인정카페","tel":"031-111-1111","addr":"경기도 화성시 병점동 842-6번지 1층","indutype":"일반휴게음식 - 서양음식","category":"restaurant"}]},{"lat":"37.211129947","long":"127.0409708","imageIndex":4,"items":[{"name":"IL Barista(일 바리스타)","tel":"031-1111-1111","addr":"경기도 화성시 병점동 828-4번지 1층","indutype":"일반휴게음식 - 서양음식","category":"restaurant"}]},{"lat":"37.207634739","long":"127.03833303","imageIndex":4,"items":[{"name":"가르텐카페","tel":"070-4190-8827","addr":"경기도 화성시 병점동 356-10번지 1층","indutype":"일반휴게음식 - 서양음식","category":"restaurant"}]},{"lat":"37.214435942","long":"127.04341719","imageIndex":4,"items":[{"name":"가마로강정 병점점","tel":"031-222-5659","addr":"경기도 화성시 병점동 844-4번지 센타프라자 101-1","indutype":"일반휴게음식 - 일반한식","category":"restaurant"},{"name":"어촌","tel":"031-401-8803","addr":"경기도 화성시 병점동 844-4번지 센타프라자 106,107,108호","indutype":"일반휴게음식 - 일반한식","category":"restaurant"},{"name":"장호덕손만두 병점점","tel":"031-236-2999","addr":"경기도 화성시 병점동 844-4번지 센타프라자 1층 101호","indutype":"일반휴게음식 - 스넥","category":"restaurant"}]},{"lat":"37.199047798","long":"127.03847544","imageIndex":4,"items":[{"name":"가마에 빠진 닭","tel":"031-256-6282","addr":"경기도 화성시 병점동 520번지 한일타운 106호","indutype":"일반휴게음식 - 스넥","category":"restaurant"},{"name":"남도밥상","tel":"031-222-4584","addr":"경기도 화성시 병점동 520번지","indutype":"일반휴게음식 - 일반한식","category":"restaurant"},{"name":"치자보쌈","tel":"","addr":"경기도 화성시 병점동 520번지 한일 상가 106호","indutype":"일반휴게음식 - 일반한식","category":"restaurant"},{"name":"카페우리","tel":"","addr":"경기도 화성시 병점동 520번지 한일타운 303호","indutype":"일반휴게음식 - 서양음식","category":"restaurant"}]},{"lat":"37.204967837","long":"127.03775728","imageIndex":4,"items":[{"name":"가미감자탕","tel":"031-232-0330","addr":"경기도 화성시 병점동 406-1번지","indutype":"일반휴게음식 - 스넥","category":"restaurant"}]},{"lat":"37.202047327","long":"127.0414506","imageIndex":4,"items":[{"name":"건사랑","tel":"031-204-8772","addr":"경기도 화성시 병점동 490-2번지 하이코아 101호","indutype":"일반휴게음식 - 주점","category":"restaurant"},{"name":"우리동네분식대장","tel":"031-222-2127","addr":"경기도 화성시 병점동 490-2번지 하이코아 103호","indutype":"일반휴게음식 - 스넥","category":"restaurant"}]},{"lat":"37.213720455","long":"127.05300412","imageIndex":4,"items":[{"name":"고금기객잔","tel":"031-222-0957","addr":"경기도 화성시 병점동 210번지 ,1,2층","indutype":"일반휴게음식 - 중국식","category":"restaurant"}]},{"lat":"37.208436602","long":"127.03853617","imageIndex":4,"items":[{"name":"고기향기나는집","tel":"031-226-9338","addr":"경기도 화성시 병점동 345-56번지","indutype":"일반휴게음식 - 일반한식","category":"restaurant"}]},{"lat":"37.208076556","long":"127.03728558","imageIndex":4,"items":[{"name":"고바우황금족발","tel":"031-898-9982","addr":"경기도 화성시 병점동 348-16번지","indutype":"일반휴게음식 - 일반한식","category":"restaurant"}]},{"lat":"37.205553096","long":"127.03914311","imageIndex":4,"items":[{"name":"고봉민김밥인병점주공1단지점","tel":"031-233-2615","addr":"경기도 화성시 병점동 432번지 107호","indutype":"일반휴게음식 - 일반한식","category":"restaurant"},{"name":"신전떡볶이","tel":"031-232-2204","addr":"경기도 화성시 병점동 432번지","indutype":"일반휴게음식 - 스넥","category":"restaurant"}]},{"lat":"37.214273859","long":"127.04311292","imageIndex":4,"items":[{"name":"고피자 화성병점","tel":"031-000-0000","addr":"경기도 화성시 병점동 844-3번지 이타운4 1층 103호","indutype":"일반휴게음식 - 서양음식","category":"restaurant"},{"name":"빙과식당","tel":"","addr":"경기도 화성시 병점동 844-3번지 이타운4 2층 207호","indutype":"일반휴게음식 - 일반한식","category":"restaurant"},{"name":"육지호식당","tel":"031-221-2387","addr":"경기도 화성시 병점동 844-3번지 e-TOWN4 109호","indutype":"일반휴게음식 - 일반한식","category":"restaurant"},{"name":"치킨몬스터","tel":"031-238-1022","addr":"경기도 화성시 병점동 844-3번지 E동 TOWN4호 108","indutype":"일반휴게음식 - 스넥","category":"restaurant"},{"name":"홀릭","tel":"031-225-9551","addr":"경기도 화성시 병점동 844-3번지 e-TOWN4 109호","indutype":"일반휴게음식 - 일반한식","category":"restaurant"}]},{"lat":"37.207856909","long":"127.04748036","imageIndex":4,"items":[{"name":"곱창친구들","tel":"031-243-0625","addr":"경기도 화성시 병점동 858번지 정든마을신창2차비바패밀리 상가동 112호","indutype":"일반휴게음식 - 스넥","category":"restaurant"},{"name":"분반","tel":"031-223-2343","addr":"경기도 화성시 병점동 858번지 정든마을신창2차비바패밀리 1층 103호","indutype":"일반휴게음식 - 일반한식","category":"restaurant"},{"name":"산골통닭","tel":"031-222-1778","addr":"경기도 화성시 병점동 858번지 신창2차 상가 101호","indutype":"일반휴게음식 - 스넥","category":"restaurant"},{"name":"카페루킨 (CAFE LOOKIN')","tel":"031-225-8997","addr":"경기도 화성시 병점동 858번지 정든마을신창2차비바패밀리 상가동 1층 102호","indutype":"일반휴게음식 - 서양음식","category":"restaurant"},{"name":"투다리","tel":"031-225-8263","addr":"경기도 화성시 병점동 858 신창2차상가 205호~206호","indutype":"일반휴게음식 - 주점","category":"restaurant"},{"name":"행컵병점점","tel":"031-111-1111","addr":"경기도 화성시 병점동 858번지 정든마을 신창2차 비바패밀리 상가 1동 105호","indutype":"일반휴게음식 - 스넥","category":"restaurant"}]},{"lat":"37.206409827","long":"127.0366202","imageIndex":4,"items":[{"name":"교촌치킨병점1호점","tel":"031-239-1991","addr":"경기도 화성시 병점동 379-10번지 병점프라자 109, 110호","indutype":"일반휴게음식 - 스넥","category":"restaurant"},{"name":"맛갈촌","tel":"031-237-4101","addr":"경기도 화성시 병점동 379-10번지 병점프라자 101호","indutype":"일반휴게음식 - 일반한식","category":"restaurant"}]},{"lat":"37.205192528","long":"127.03963859","imageIndex":4,"items":[{"name":"국수나무병점역점","tel":"031-232-1310","addr":"경기도 화성시 병점동 431-9번지 신창프라자 110호","indutype":"일반휴게음식 - 일반한식","category":"restaurant"},{"name":"딱이야숯불닭갈비","tel":"031-235-9283","addr":"경기도 화성시 병점동 431-9번지 신창프라자","indutype":"일반휴게음식 - 일반한식","category":"restaurant"},{"name":"번개막창","tel":"031-223-5214","addr":"경기도 화성시 병점동 431-9번지 신창프라자","indutype":"일반휴게음식 - 일반한식","category":"restaurant"},{"name":"봉이치킨","tel":"031-226-9611","addr":"경기도 화성시 병점동 431-9번지 신창프라자 111호","indutype":"일반휴게음식 - 스넥","category":"restaurant"},{"name":"정철황소곱창","tel":"031-223-5214","addr":"경기도 화성시 병점동 431-9번지 신창프라자 109호","indutype":"일반휴게음식 - 일반한식","category":"restaurant"},{"name":"코케카페 (koke cafe)","tel":"","addr":"경기도 화성시 병점동 431-9번지 신창프라자 1층 106호","indutype":"일반휴게음식 - 서양음식","category":"restaurant"},{"name":"해피데이","tel":"031-234-2337","addr":"경기도 화성시 병점동 431-9번지 신창프라자 2층 204호","indutype":"일반휴게음식 - 주점","category":"restaurant"}]},{"lat":"37.210887129","long":"127.03950616","imageIndex":4,"items":[{"name":"굽네치킨 병점2동점","tel":"031-234-6633","addr":"경기도 화성시 병점동 826-3번지 1층 101호","indutype":"일반휴게음식 - 스넥","category":"restaurant"},{"name":"먹보돌판삼겹","tel":"031-238-5288","addr":"경기도 화성시 병점동 826-3번지","indutype":"일반휴게음식 - 일반한식","category":"restaurant"}]},{"lat":"37.205381711","long":"127.03975132","imageIndex":4,"items":[{"name":"김가네토종순대국","tel":"031-222-2147","addr":"경기도 화성시 병점동 431-3번지 두산탑프라자 111호","indutype":"일반휴게음식 - 일반한식","category":"restaurant"},{"name":"김인수 발아현미김밥","tel":"031-235-0959","addr":"경기도 화성시 병점동 431-3번지 두산탑프라자 105호","indutype":"일반휴게음식 - 일반한식","category":"restaurant"},{"name":"돈방석","tel":"031-235-0092","addr":"경기도 화성시 병점동 431-3번지 두산탑프라자 110호","indutype":"일반휴게음식 - 일반한식","category":"restaurant"},{"name":"명가통닭","tel":"031-235-6500","addr":"경기도 화성시 병점동 431-3번지 두산탑프라자 1층 102호","indutype":"일반휴게음식 - 스넥","category":"restaurant"},{"name":"빙수다","tel":"031-308-3111","addr":"경기도 화성시 병점동 431-3번지 두산탑프라자 2층 203호","indutype":"일반휴게음식 - 서양음식","category":"restaurant"},{"name":"쥬씨 병점역2호점","tel":"031-223-6762","addr":"경기도 화성시 병점동 431-3번지 두산탑프라자 107호","indutype":"일반휴게음식 - 서양음식","category":"restaurant"},{"name":"커피베이 병점두산점","tel":"031-233-1489","addr":"경기도 화성시 병점동 431-3번지 두산탑프라자 104호","indutype":"일반휴게음식 - 서양음식","category":"restaurant"}]},{"lat":"37.206408437","long":"127.04119372","imageIndex":4,"items":[{"name":"김밥천국","tel":"031-267-3434","addr":"경기도 화성시 병점동 314번지","indutype":"일반휴게음식 - 스넥","category":"restaurant"},{"name":"우리집 닭강정 병점점","tel":"031-232-5666","addr":"경기도 화성시 병점동 314번지 진영빌딩 102호","indutype":"일반휴게음식 - 스넥","category":"restaurant"}]},{"lat":"37.207662382","long":"127.03622648","imageIndex":4,"items":[{"name":"김밥천국 병점점","tel":"031-267-1060","addr":"경기도 화성시 병점동 348-4번지 그린시티 102호","indutype":"일반휴게음식 - 스넥","category":"restaurant"},{"name":"마약먹태","tel":"031-221-9225","addr":"경기도 화성시 병점동 348-4번지 그린씨티 1층 109호","indutype":"일반휴게음식 - 주점","category":"restaurant"},{"name":"바운스7080","tel":"031-222-0410","addr":"경기도 화성시 병점동 348-4번지 그린씨티 2층 201호","indutype":"일반휴게음식 - 일반한식","category":"restaurant"},{"name":"별밤","tel":"031-238-3222","addr":"경기도 화성시 병점동 348-4번지 그린씨티 1층 105호","indutype":"일반휴게음식 - 주점","category":"restaurant"},{"name":"병점김밥나라","tel":"","addr":"경기도 화성시 병점동 348-4번지 그린씨티 110호","indutype":"일반휴게음식 - 스넥","category":"restaurant"},{"name":"장안순대국","tel":"031-239-2359","addr":"경기도 화성시 병점동 348-4번지 그린씨티 1층 111호","indutype":"일반휴게음식 - 일반한식","category":"restaurant"},{"name":"화성전골","tel":"031-238-9787","addr":"경기도 화성시 병점동 348-4번지 그린씨티 113호","indutype":"일반휴게음식 - 일반한식","category":"restaurant"}]},{"lat":"37.205355629","long":"127.0365634","imageIndex":4,"items":[{"name":"김밥촌","tel":"031-234-8996","addr":"경기도 화성시 병점동 871번지 병점역효성해링턴플레이스 106동 107호","indutype":"일반휴게음식 - 일반한식","category":"restaurant"},{"name":"밥공장","tel":"031-226-7767","addr":"경기도 화성시 병점동 871번지 병점역효성해링턴플레이스 106동 116호","indutype":"일반휴게음식 - 일반한식","category":"restaurant"}]},{"lat":"37.208076328","long":"127.03806287","imageIndex":4,"items":[{"name":"까스타","tel":"031-267-0305","addr":"경기도 화성시 병점동 345-88번지","indutype":"일반휴게음식 - 일반한식","category":"restaurant"},{"name":"부여 통닭 병점점","tel":"031-222-1546","addr":"경기도 화성시 병점동 345-88번지 101,102","indutype":"일반휴게음식 - 일반한식","category":"restaurant"}]},{"lat":"37.205193156","long":"127.03755462","imageIndex":4,"items":[{"name":"까페,나무아래","tel":"031-232-2417","addr":"경기도 화성시 병점동 365-5번지 2층","indutype":"일반휴게음식 - 서양음식","category":"restaurant"},{"name":"청춘감성쌀핫도그병점점","tel":"031-111-1111","addr":"경기도 화성시 병점동 365-5번지","indutype":"일반휴게음식 - 서양음식","category":"restaurant"}]},{"lat":"37.204805446","long":"127.03844435","imageIndex":4,"items":[{"name":"꼬지사께 화성병점점","tel":"031-221-2226","addr":"경기도 화성시 병점동 870번지 104동 1층 상가117호","indutype":"일반휴게음식 - 일반한식","category":"restaurant"},{"name":"비씨800(BC500)","tel":"031-223-7200","addr":"경기도 화성시 병점동 870번지 화성병점에스케이뷰","indutype":"일반휴게음식 - 서양음식","category":"restaurant"}]},{"lat":"37.207743149","long":"127.03736428","imageIndex":4,"items":[{"name":"꼴통생골뱅이","tel":"031-226-4501","addr":"경기도 화성시 병점동 348-25번지 마루빌딩 101호","indutype":"일반휴게음식 - 일반한식","category":"restaurant"}]},{"lat":"37.214048438","long":"127.04358597","imageIndex":4,"items":[{"name":"끼니PLUS","tel":"070-4200-9910","addr":"경기도 화성시 병점동 846번지 태안프라자 217,218호","indutype":"일반휴게음식 - 일반한식","category":"restaurant"},{"name":"뚝백","tel":"031-221-3735","addr":"경기도 화성시 병점동 846번지 태안프라자 116호, 117호","indutype":"일반휴게음식 - 일반한식","category":"restaurant"},{"name":"뜨락","tel":"031-233-4591","addr":"경기도 화성시 병점동 846번지 태안프라자 114동 115호","indutype":"일반휴게음식 - 일반한식","category":"restaurant"},{"name":"바삭","tel":"070-4348-2445","addr":"경기도 화성시 병점동 846번지 120,121호","indutype":"일반휴게음식 - 서양음식","category":"restaurant"},{"name":"버클리","tel":"070-7151-9915","addr":"경기도 화성시 병점동 846번지 태안프라자 207호","indutype":"일반휴게음식 - 주점","category":"restaurant"},{"name":"보드람치킨병점점","tel":"031-223-0118","addr":"경기도 화성시 병점동 846번지 태안프라자 127호","indutype":"일반휴게음식 - 주점","category":"restaurant"},{"name":"좋은친구들","tel":"031-222-4003","addr":"경기도 화성시 병점동 846번지 태안프라자 124호","indutype":"일반휴게음식 - 서양음식","category":"restaurant"},{"name":"커피에반하다","tel":"031-233-7151","addr":"경기도 화성시 병점동 846번지 태안프라자 102호","indutype":"일반휴게음식 - 서양음식","category":"restaurant"}]},{"lat":"37.207221391","long":"127.03433377","imageIndex":4,"items":[{"name":"남도전","tel":"031-225-8366","addr":"경기도 화성시 병점동 382-16번지 105호","indutype":"일반휴게음식 - 일반한식","category":"restaurant"},{"name":"마니김밥","tel":"031-234-3090","addr":"경기도 화성시 병점동 382-16번지 103호","indutype":"일반휴게음식 - 스넥","category":"restaurant"}]},{"lat":"37.206635151","long":"127.036395","imageIndex":4,"items":[{"name":"남원추어탕","tel":"031-232-5735","addr":"경기도 화성시 병점동 380-1번지","indutype":"일반휴게음식 - 일반한식","category":"restaurant"},{"name":"안개꽃사랑","tel":"","addr":"경기도 화성시 병점동 380-1번지 2층 일부호","indutype":"일반휴게음식 - 주점","category":"restaurant"},{"name":"열린호프","tel":"031-224-7783","addr":"경기도 화성시 병점동 380-1번지","indutype":"일반휴게음식 - 주점","category":"restaurant"}]},{"lat":"37.206859927","long":"127.03806231","imageIndex":4,"items":[{"name":"네네치킨병점1호점","tel":"031-234-9986","addr":"경기도 화성시 병점동 361-3번지 덕성빌딩 101호","indutype":"일반휴게음식 - 스넥","category":"restaurant"}]},{"lat":"37.206273746","long":"127.03972923","imageIndex":4,"items":[{"name":"노가리&Beer","tel":"031-232-1510","addr":"경기도 화성시 병점동 811번지 1,층","indutype":"일반휴게음식 - 일반한식","category":"restaurant"},{"name":"대박횟집","tel":"031-237-5954","addr":"경기도 화성시 병점동 811번지 병점프라자 1층 104호","indutype":"일반휴게음식 - 일식·회집","category":"restaurant"},{"name":"청풍숯불갈비","tel":"031-239-0741","addr":"경기도 화성시 병점동 811번지","indutype":"일반휴게음식 - 일반한식","category":"restaurant"}]},{"lat":"37.200776551","long":"127.04239613","imageIndex":4,"items":[{"name":"노란손수건","tel":"031-000-0000","addr":"경기도 화성시 병점동 501-5번지","indutype":"일반휴게음식 - 서양음식","category":"restaurant"}]},{"lat":"37.212325145","long":"127.04983753","imageIndex":4,"items":[{"name":"다다닭","tel":"031-232-1599","addr":"경기도 화성시 병점동 850번지 안화동마을주공6단지 103호","indutype":"일반휴게음식 - 일반한식","category":"restaurant"},{"name":"돼지랑닭구이","tel":"031-237-8474","addr":"경기도 화성시 병점동 850번지 안화동마을주공6단지 105호","indutype":"일반휴게음식 - 일반한식","category":"restaurant"},{"name":"피니치니","tel":"031-238-3332","addr":"경기도 화성시 병점동 850번지 안화동마을주공6단지 상가동 102호","indutype":"일반휴게음식 - 스넥","category":"restaurant"}]},{"lat":"37.204607628","long":"127.03704745","imageIndex":4,"items":[{"name":"당당국수","tel":"070-7543-9479","addr":"경기도 화성시 병점동 871번지 병점역효성해링턴플레이스 107동 104호","indutype":"일반휴게음식 - 일반한식","category":"restaurant"},{"name":"카페하루","tel":"","addr":"경기도 화성시 병점동 871번지 병점역효성해링턴플레이스 107동 208호","indutype":"일반휴게음식 - 서양음식","category":"restaurant"}]},{"lat":"37.210859933","long":"127.04003563","imageIndex":4,"items":[{"name":"대박맛집","tel":"031-232-3536","addr":"경기도 화성시 병점동 826-6번지 1층","indutype":"일반휴게음식 - 일반한식","category":"restaurant"},{"name":"전주한옥찜닭","tel":"031-238-2282","addr":"경기도 화성시 병점동 826-6번지 1층 102호","indutype":"일반휴게음식 - 일반한식","category":"restaurant"}]},{"lat":"37.207662177","long":"127.03694744","imageIndex":4,"items":[{"name":"대복","tel":"031-221-4525","addr":"경기도 화성시 병점동 348-23번지 104,105호","indutype":"일반휴게음식 - 중국식","category":"restaurant"},{"name":"대복짬뽕","tel":"031-221-4525","addr":"경기도 화성시 병점동 348-23번지 1층 103호","indutype":"일반휴게음식 - 중국식","category":"restaurant"},{"name":"이모네주물럭","tel":"031-000-0000","addr":"경기도 화성시 병점동 348-23번지 1층 102호","indutype":"일반휴게음식 - 일반한식","category":"restaurant"},{"name":"장수본가해장국","tel":"031-225-6265","addr":"경기도 화성시 병점동 348-23번지 1층 101호","indutype":"일반휴게음식 - 일반한식","category":"restaurant"}]},{"lat":"37.208049733","long":"127.0365646","imageIndex":4,"items":[{"name":"대장간마을","tel":"031-222-3698","addr":"경기도 화성시 병점동 348-1번지 신안빌딩 104호","indutype":"일반휴게음식 - 일반한식","category":"restaurant"},{"name":"만두명가","tel":"031-223-2682","addr":"경기도 화성시 병점동 348-1번지","indutype":"일반휴게음식 - 스넥","category":"restaurant"},{"name":"응급실국물떡볶이 화성병점점","tel":"031-225-2119","addr":"경기도 화성시 병점동 348-1번지 신안빌딩 1층","indutype":"일반휴게음식 - 스넥","category":"restaurant"},{"name":"카페 크레마","tel":"031-233-3770","addr":"경기도 화성시 병점동 348-1번지 신안빌딩 1층 103호","indutype":"일반휴게음식 - 서양음식","category":"restaurant"}]},{"lat":"37.20822065","long":"127.03753348","imageIndex":4,"items":[{"name":"더 데이룸 카페(THE DAYROOM CAFE)","tel":"02-1111-1111","addr":"경기도 화성시 병점동 345-77번지 로타리빌딩 1층 103호","indutype":"일반휴게음식 - 서양음식","category":"restaurant"}]},{"lat":"37.214580023","long":"127.04366512","imageIndex":4,"items":[{"name":"더벤티 화성병점점","tel":"031-225-6600","addr":"경기도 화성시 병점동 844-5번지 리더스프라자 109호","indutype":"일반휴게음식 - 서양음식","category":"restaurant"},{"name":"뚝배기 꼬마김밥","tel":"031-212-3883","addr":"경기도 화성시 병점동 844-5번지 리더스프라자 114호","indutype":"일반휴게음식 - 일반한식","category":"restaurant"},{"name":"마성떡볶이 병점점","tel":"0707-7542-3836","addr":"경기도 화성시 병점동 844-5번지 리더스프라자 107호","indutype":"일반휴게음식 - 스넥","category":"restaurant"},{"name":"마성떡볶이 병정점","tel":"070-8777-3921","addr":"경기도 화성시 병점동 844-5번지 리더스프라자 1층 107호","indutype":"일반휴게음식 - 스넥","category":"restaurant"},{"name":"본가시골집뼈해장국","tel":"031-234-6664","addr":"경기도 화성시 병점동 844-5,리더스프라자2층204~205호","indutype":"일반휴게음식 - 일반한식","category":"restaurant"},{"name":"위츠커피(wits coffee)","tel":"02-1111-1111","addr":"경기도 화성시 병점동 844-5번지 리더스프라자 119,120호","indutype":"일반휴게음식 - 서양음식","category":"restaurant"},{"name":"큰손매운양푼갈비찜","tel":"031-236-5060","addr":"경기도 화성시 병점동 844-5번지 외1필지 리더스프라자 206호","indutype":"일반휴게음식 - 일반한식","category":"restaurant"},{"name":"하트츄(병점점)","tel":"031-226-1231","addr":"경기도 화성시 병점동 844-5번지 리더스프라자 112호","indutype":"일반휴게음식 - 일반한식","category":"restaurant"}]},{"lat":"37.211075946","long":"127.04077926","imageIndex":4,"items":[{"name":"도담도담한식뷔페","tel":"031-885-3580","addr":"경기도 화성시 병점동 828-3번지 1층","indutype":"일반휴게음식 - 일반한식","category":"restaurant"}]},{"lat":"37.213661291","long":"127.04270702","imageIndex":4,"items":[{"name":"동네방네스시","tel":"031-236-0489","addr":"경기도 화성시 병점동 844-1번지 씨네샤르망 B동 2층 202호","indutype":"일반휴게음식 - 일반한식","category":"restaurant"},{"name":"떡보의하루병점.동탄점","tel":"031-236-4407","addr":"경기도 화성시 병점동 844-1씨네샤르망B동1층103","indutype":"일반휴게음식 - 스넥","category":"restaurant"},{"name":"분식먹자","tel":"031-221-3309","addr":"경기도 화성시 병점동 844-1번지 씨네샤르망 B동 107호","indutype":"일반휴게음식 - 스넥","category":"restaurant"},{"name":"우리정육식당","tel":"031-238-9232","addr":"경기도 화성시 병점동 844-1번지 씨네샤르망 B동 1층 109호","indutype":"일반휴게음식 - 일반한식","category":"restaurant"},{"name":"정가네깐쇼새우","tel":"","addr":"경기도 화성시 병점동 844-1번지 씨네샤르망 B동 112호","indutype":"일반휴게음식 - 중국식","category":"restaurant"}]},{"lat":"37.211129776","long":"127.04150028","imageIndex":4,"items":[{"name":"디엠푸드","tel":"031-267-2544","addr":"경기도 화성시 병점동 829-1번지 유진클라우스 116호 일부","indutype":"일반휴게음식 - 일반한식","category":"restaurant"}]},{"lat":"37.208653392","long":"127.03668879","imageIndex":4,"items":[{"name":"디케이푸드병점점","tel":"","addr":"경기도 화성시 병점동 347-10번지 용우빌딩 A동 1층 일부호","indutype":"일반휴게음식 - 일반한식","category":"restaurant"}]},{"lat":"37.214579713","long":"127.04455514","imageIndex":4,"items":[{"name":"땡큐꼬마김밥","tel":"031-221-2322","addr":"경기도 화성시 병점동 845-2번지 한마음프라자 1층 105호","indutype":"일반휴게음식 - 스넥","category":"restaurant"},{"name":"병점순대국","tel":"031-239-5241","addr":"경기도 화성시 병점동 845-2번지 한마음프라자 110호","indutype":"일반휴게음식 - 일반한식","category":"restaurant"},{"name":"파머스마켓 팥집","tel":"031-895-5667","addr":"경기도 화성시 병점동 845-2번지 한마음프라자 1층 104호","indutype":"일반휴게음식 - 일반한식","category":"restaurant"}]},{"lat":"37.214462645","long":"127.04436355","imageIndex":4,"items":[{"name":"또봉이통닭병점점","tel":"031-224-7198","addr":"경기도 화성시 병점동 845-1번지 e-TOWN3 107호","indutype":"일반휴게음식 - 스넥","category":"restaurant"},{"name":"불닭발동대문엽기떡볶이병점점","tel":"031-235-8593","addr":"경기도 화성시 병점동 845-1번지 108 e-Town3","indutype":"일반휴게음식 - 일반한식","category":"restaurant"},{"name":"이즈미스시","tel":"031-221-1325","addr":"경기도 화성시 병점동 845-1번지 e-TOWN3 1층 109호","indutype":"일반휴게음식 - 일반한식","category":"restaurant"}]},{"lat":"37.21066095","long":"127.04236748","imageIndex":4,"items":[{"name":"똘이국밥","tel":"","addr":"경기도 화성시 병점동 833-6번지 서윤빌 1층 104호","indutype":"일반휴게음식 - 일반한식","category":"restaurant"},{"name":"청정수산","tel":"031-239-7888","addr":"경기도 화성시 병점동 833-6번지 서윤빌","indutype":"일반휴게음식 - 일반한식","category":"restaurant"}]},{"lat":"37.207553486","long":"127.03886244","imageIndex":4,"items":[{"name":"뚝심이네","tel":"031-235-3690","addr":"경기도 화성시 병점동 357-14번지 101호","indutype":"일반휴게음식 - 일반한식","category":"restaurant"},{"name":"지글보글 짝짝","tel":"031-236-2066","addr":"경기도 화성시 병점동 357-14번지 1층 102호","indutype":"일반휴게음식 - 일반한식","category":"restaurant"},{"name":"카페미지","tel":"070-8886-4114","addr":"경기도 화성시 병점동 357-14번지","indutype":"일반휴게음식 - 서양음식","category":"restaurant"}]},{"lat":"37.203013194","long":"127.03561616","imageIndex":4,"items":[{"name":"뚱뗑이네홍어전문점","tel":"031-226-3304","addr":"경기도 화성시 병점동 296-3번지 삼환주택 B동 103호","indutype":"일반휴게음식 - 일반한식","category":"restaurant"}]},{"lat":"37.213742445","long":"127.04252681","imageIndex":4,"items":[{"name":"라이브콜로세움","tel":"031-223-7089","addr":"경기도 화성시 병점동 844-1번지","indutype":"일반휴게음식 - 일반한식","category":"restaurant"},{"name":"샤브향화성병점","tel":"031-267-4934","addr":"경기도 화성시 병점동 844-1번지 씨네샤르망 304호","indutype":"일반휴게음식 - 일반한식","category":"restaurant"},{"name":"신선로","tel":"031-238-0924","addr":"경기도 화성시 병점동 844-1번지 씨네샤르망 303호","indutype":"일반휴게음식 - 일반한식","category":"restaurant"},{"name":"에이비씨커피(ABC Coffee)","tel":"031-223-5009","addr":"경기도 화성시 병점동 844-1번지 씨네샤르망 116호","indutype":"일반휴게음식 - 서양음식","category":"restaurant"}]},{"lat":"37.20819154","long":"127.04403343","imageIndex":4,"items":[{"name":"레드구공","tel":"031-226-3050","addr":"경기도 화성시 병점동 842-20번지 1층 102호","indutype":"일반휴게음식 - 서양음식","category":"restaurant"}]},{"lat":"37.214859129","long":"127.04428491","imageIndex":4,"items":[{"name":"로띠프랑","tel":"031-236-0654","addr":"경기도 화성시 병점동 844-7번지 상록프라자 1층 111호","indutype":"일반휴게음식 - 서양음식","category":"restaurant"},{"name":"맛터부대찌개","tel":"031-273-9833","addr":"경기도 화성시 병점동 844-7번지 상록프라자 204호","indutype":"일반휴게음식 - 일반한식","category":"restaurant"},{"name":"별법동태탕해물찜","tel":"031-223-2003","addr":"경기도 화성시 병점동 844-7번지 상록프라자 203호","indutype":"일반휴게음식 - 일반한식","category":"restaurant"}]},{"lat":"37.204787589","long":"127.03789238","imageIndex":4,"items":[{"name":"마이럽","tel":"031-237-3300","addr":"경기도 화성시 병점동 870번지 화성병점에스케이뷰 101동 109호","indutype":"일반휴게음식 - 스넥","category":"restaurant"},{"name":"코바코병점역점","tel":"031-239-6622","addr":"경기도 화성시 병점동 870번지 SK뷰상가 101동 105호","indutype":"일반휴게음식 - 일식·회집","category":"restaurant"}]},{"lat":"37.206525488","long":"127.04145287","imageIndex":4,"items":[{"name":"맘스터치","tel":"031-236-1006","addr":"경기도 화성시 병점동 314-3번지 성진빌딩 1층 101~102호","indutype":"일반휴게음식 - 서양음식","category":"restaurant"},{"name":"진안부대찌개","tel":"031-234-7972","addr":"경기도 화성시 병점동 314-3번지 성진빌딩 106.107호","indutype":"일반휴게음식 - 일반한식","category":"restaurant"}]},{"lat":"37.208245555","long":"127.04416864","imageIndex":4,"items":[{"name":"맛깔참죽","tel":"031-236-6288","addr":"경기도 화성시 병점동 842-19번지 104호","indutype":"일반휴게음식 - 스넥","category":"restaurant"}]},{"lat":"37.206245966","long":"127.04206103","imageIndex":4,"items":[{"name":"맛당","tel":"031-239-3280","addr":"경기도 화성시 병점동 292번지 브이타운2상가 103호","indutype":"일반휴게음식 - 일반한식","category":"restaurant"},{"name":"밀가촌국수","tel":"031-205-0332","addr":"경기도 화성시 병점동 292번지 외15필지태안병점V-TOWN 2동 105호","indutype":"일반휴게음식 - 일반한식","category":"restaurant"},{"name":"봉구스밥버거 병점점","tel":"031-234-5094","addr":"경기도 화성시 병점동 292번지 태안병점V-TOWN2 101호","indutype":"일반휴게음식 - 스넥","category":"restaurant"},{"name":"영구스피자","tel":"031-297-0982","addr":"경기도 화성시 병점동 292번지 외5필지태안병점V타운 102호","indutype":"일반휴게음식 - 서양음식","category":"restaurant"},{"name":"카페토이즈(cafe toys)","tel":"031-258-7577","addr":"경기도 화성시 병점동 292번지 태안병점브이타운 106층","indutype":"일반휴게음식 - 서양음식","category":"restaurant"}]},{"lat":"37.202470896","long":"127.041203","imageIndex":4,"items":[{"name":"맛맛나","tel":"031-222-2882","addr":"경기도 화성시 병점동 479-9번지","indutype":"일반휴게음식 - 스넥","category":"restaurant"},{"name":"보보치킨바베큐","tel":"031-222-8292","addr":"경기도 화성시 병점동 479-9번지 외1필지","indutype":"일반휴게음식 - 스넥","category":"restaurant"},{"name":"한신곱창","tel":"031-221-7792","addr":"경기도 화성시 병점동 479-9번지","indutype":"일반휴게음식 - 일반한식","category":"restaurant"}]},{"lat":"37.208499809","long":"127.0380856","imageIndex":4,"items":[{"name":"맛있족 먹어보쌈","tel":"031-225-7845","addr":"경기도 화성시 병점동 345-49번지","indutype":"일반휴게음식 - 일반한식","category":"restaurant"}]},{"lat":"37.208857847","long":"127.04534056","imageIndex":4,"items":[{"name":"매코미통닭발","tel":"031-238-8930","addr":"경기도 화성시 병점동 842-11번지 101호","indutype":"일반휴게음식 - 일반한식","category":"restaurant"}]},{"lat":"37.21063415","long":"127.04166901","imageIndex":4,"items":[{"name":"먹방시대","tel":"031-232-1626","addr":"경기도 화성시 병점동 830-6번지 1층 전체호","indutype":"일반휴게음식 - 일반한식","category":"restaurant"}]},{"lat":"37.206915059","long":"127.03425479","imageIndex":4,"items":[{"name":"메가엠지씨커피병점역점","tel":"070-1111-1111","addr":"경기도 화성시 병점동 382-2번지 미라클프라자 1층 102호","indutype":"일반휴게음식 - 서양음식","category":"restaurant"},{"name":"면당포 병점역점","tel":"031-222-7776","addr":"경기도 화성시 병점동 382-2번지 미라클프라자 1층 104호","indutype":"일반휴게음식 - 일반한식","category":"restaurant"},{"name":"못난이 닭강정","tel":"031-221-4102","addr":"경기도 화성시 병점동 382-2번지 미라클프라자 108호","indutype":"일반휴게음식 - 스넥","category":"restaurant"},{"name":"삼채닭한마리","tel":"031-223-6721","addr":"경기도 화성시 병점동 382-2번지 미라클프라자","indutype":"일반휴게음식 - 일반한식","category":"restaurant"},{"name":"새참김밥","tel":"031-222-0021","addr":"경기도 화성시 병점동 382-2번지 미라클프라자 106호","indutype":"일반휴게음식 - 스넥","category":"restaurant"},{"name":"술집","tel":"","addr":"경기도 화성시 병점동 382-2번지 미라클프라자 1층 101호","indutype":"일반휴게음식 - 일반한식","category":"restaurant"},{"name":"카페커피캣","tel":"031-308-0280","addr":"경기도 화성시 병점동 382-2번지 미라클프라자 304,305,306호","indutype":"일반휴게음식 - 서양음식","category":"restaurant"},{"name":"커피베이","tel":"031-222-3682","addr":"경기도 화성시 병점동 382-2번지 미라클프라자 108호","indutype":"일반휴게음식 - 서양음식","category":"restaurant"}]},{"lat":"37.208464187","long":"127.03664364","imageIndex":4,"items":[{"name":"묵은지","tel":"031-267-0131","addr":"경기도 화성시 병점동 347-10번지 B동 103호","indutype":"일반휴게음식 - 일반한식","category":"restaurant"},{"name":"생선구이","tel":"031-232-2329","addr":"경기도 화성시 병점동 347-10번지 B동 1층 103호","indutype":"일반휴게음식 - 일반한식","category":"restaurant"}]},{"lat":"37.207049295","long":"127.03755547","imageIndex":4,"items":[{"name":"미담김밥","tel":"031-9526-9669","addr":"경기도 화성시 병점동 356-36번지 지1층 B02호","indutype":"일반휴게음식 - 스넥","category":"restaurant"}]},{"lat":"37.205193202","long":"127.03739692","imageIndex":4,"items":[{"name":"밀겨울 (병점점)","tel":"031-233-4736","addr":"경기도 화성시 병점동 373-1번지","indutype":"일반휴게음식 - 일반한식","category":"restaurant"},{"name":"슈우슈팽","tel":"031-222-6683","addr":"경기도 화성시 병점동 373-1번지 2층","indutype":"일반휴게음식 - 중국식","category":"restaurant"},{"name":"춘천골닭갈비","tel":"031-223-8333","addr":"경기도 화성시 병점동 373-1번지 1층 일부호","indutype":"일반휴게음식 - 일반한식","category":"restaurant"}]},{"lat":"37.20738143","long":"127.04158849","imageIndex":4,"items":[{"name":"바다수산","tel":"031-231-1110","addr":"경기도 화성시 병점동 306-1번지 1층","indutype":"일반휴게음식 - 일반한식","category":"restaurant"}]},{"lat":"37.207966502","long":"127.0433912","imageIndex":4,"items":[{"name":"베베블리","tel":"031-234-5082","addr":"경기도 화성시 병점동 259-15번지 우남프라자 2층 203호","indutype":"일반휴게음식 - 일반한식","category":"restaurant"},{"name":"셀렉토커피 화성병점점","tel":"031-233-4219","addr":"경기도 화성시 병점동 259-15번지 우남프라자 1층 110호","indutype":"일반휴게음식 - 서양음식","category":"restaurant"},{"name":"킹콩쥬스","tel":"031-221-5858","addr":"경기도 화성시 병점동 259-15번지 우남프라자 103호","indutype":"일반휴게음식 - 서양음식","category":"restaurant"},{"name":"통큰두마리찜닭","tel":"02-236-7005","addr":"경기도 화성시 병점동 259-15번지 우남프라자 1층 116호","indutype":"일반휴게음식 - 일반한식","category":"restaurant"},{"name":"행복을마시는집","tel":"031-231-9991","addr":"경기도 화성시 병점동 259-15번지 우남프라자 104호","indutype":"일반휴게음식 - 스넥","category":"restaurant"}]},{"lat":"37.205246988","long":"127.03833191","imageIndex":4,"items":[{"name":"병점비비큐치킨1호점","tel":"031-222-8181","addr":"경기도 화성시 병점동 407-4번지","indutype":"일반휴게음식 - 서양음식","category":"restaurant"},{"name":"본죽","tel":"031-231-1788","addr":"경기도 화성시 병점동 407-4번지 103호","indutype":"일반휴게음식 - 일반한식","category":"restaurant"},{"name":"피엠푸드 병점진안점","tel":"031-233-8255","addr":"경기도 화성시 병점동 407-4번지 창명빌딩 108호","indutype":"일반휴게음식 - 일반한식","category":"restaurant"}]},{"lat":"37.2076887","long":"127.038671","imageIndex":4,"items":[{"name":"병점포차앤도야족발병점동탄점","tel":"031-237-8835","addr":"경기도 화성시 병점동 356-3번지 1층","indutype":"일반휴게음식 - 일반한식","category":"restaurant"}]},{"lat":"37.208770534","long":"127.03666631","imageIndex":4,"items":[{"name":"보보스포차","tel":"031-663-0447","addr":"경기도 화성시 병점동 347-14번지 101호","indutype":"일반휴게음식 - 일반한식","category":"restaurant"}]},{"lat":"37.208381102","long":"127.04303094","imageIndex":4,"items":[{"name":"보중정육식당","tel":"031-226-0009","addr":"경기도 화성시 병점동 259-9번지 1층","indutype":"일반휴게음식 - 일반한식","category":"restaurant"}]},{"lat":"37.202078712","long":"127.02422765","imageIndex":4,"items":[{"name":"복길이네한식뷔페","tel":"02-111-1111","addr":"경기도 화성시 병점동 755-2번지 1층","indutype":"일반휴게음식 - 일반한식","category":"restaurant"}]},{"lat":"37.20657948","long":"127.04166693","imageIndex":4,"items":[{"name":"본가매운등갈비찜&백반","tel":"031-273-2333","addr":"경기도 화성시 병점동 313-4번지 태성빌딩 2층 202호","indutype":"일반휴게음식 - 일반한식","category":"restaurant"},{"name":"샛밥이야기","tel":"031-232-6208","addr":"경기도 화성시 병점동 313-4번지 대성빌딩 105호","indutype":"일반휴게음식 - 스넥","category":"restaurant"},{"name":"이삭토스트 병점2호점","tel":"031-225-2212","addr":"경기도 화성시 병점동 313-4번지 태성빌딩","indutype":"일반휴게음식 - 서양음식","category":"restaurant"},{"name":"전티마이베트남쌀국수 병점점","tel":"070-4763-5091","addr":"경기도 화성시 병점동 313-4번지 태성빌딩 107호","indutype":"일반휴게음식 - 서양음식","category":"restaurant"}]},{"lat":"37.207687425","long":"127.04267009","imageIndex":4,"items":[{"name":"본스치킨","tel":"031-232-6011","addr":"경기도 화성시 병점동 300번지 1층 102호","indutype":"일반휴게음식 - 스넥","category":"restaurant"},{"name":"본스치킨","tel":"031-232-6011","addr":"경기도 화성시 병점동 300번지 102호","indutype":"일반휴게음식 - 스넥","category":"restaurant"},{"name":"소소","tel":"031-226-7141","addr":"경기도 화성시 병점동 300번지 1층 3호","indutype":"일반휴게음식 - 일반한식","category":"restaurant"},{"name":"치어스(병점점)","tel":"031-234-5933","addr":"경기도 화성시 병점동 300번지 1층","indutype":"일반휴게음식 - 주점","category":"restaurant"}]},{"lat":"37.210101999","long":"127.04327969","imageIndex":4,"items":[{"name":"사계절통닭","tel":"031-239-9233","addr":"경기도 화성시 병점동 821번지 느치미마을주공3단지 상가동 102호","indutype":"일반휴게음식 - 스넥","category":"restaurant"}]},{"lat":"37.213747438","long":"127.05311679","imageIndex":4,"items":[{"name":"생곡메밀막국수","tel":"031-235-2351","addr":"경기도 화성시 병점동 208번지","indutype":"일반휴게음식 - 일반한식","category":"restaurant"}]},{"lat":"37.21377504","long":"127.05175363","imageIndex":4,"items":[{"name":"생생해물찜","tel":"031-284-5070","addr":"경기도 화성시 병점동 203-5번지 1층","indutype":"일반휴게음식 - 일반한식","category":"restaurant"}]},{"lat":"37.208437166","long":"127.03660983","imageIndex":4,"items":[{"name":"소장군돼지박사","tel":"031-235-0160","addr":"경기도 화성시 병점동 347-10번지 용우빌딩 1층 일부호","indutype":"일반휴게음식 - 일반한식","category":"restaurant"}]},{"lat":"37.203186424","long":"127.02716796","imageIndex":4,"items":[{"name":"솔푸드","tel":"031-223-7140","addr":"경기도 화성시 병점동 675 외 81필지(롯데건설 현장식당)","indutype":"일반휴게음식 - 일반한식","category":"restaurant"},{"name":"솔푸드","tel":"031-222-7140","addr":"경기도 화성시 병점동 675번지 외 81필지 (현대산업개발 현장식당)","indutype":"일반휴게음식 - 일반한식","category":"restaurant"}]},{"lat":"37.207581664","long":"127.03486338","imageIndex":4,"items":[{"name":"수라다가","tel":"031-225-9271","addr":"경기도 화성시 병점동 349-10번지","indutype":"일반휴게음식 - 일반한식","category":"restaurant"}]},{"lat":"37.21038173","long":"127.04206317","imageIndex":4,"items":[{"name":"수제청마을","tel":"031-241-1665","addr":"경기도 화성시 병점동 833-9번지 1층 102호","indutype":"일반휴게음식 - 서양음식","category":"restaurant"}]},{"lat":"37.210715199","long":"127.04180424","imageIndex":4,"items":[{"name":"순수치킨병점동탄점","tel":"031-222-6226","addr":"경기도 화성시 병점동 830-3번지 1층 101호","indutype":"일반휴게음식 - 스넥","category":"restaurant"}]},{"lat":"37.204966447","long":"127.04219555","imageIndex":4,"items":[{"name":"스타트","tel":"031-222-7173","addr":"경기도 화성시 병점동 282번지 남수원두산A상가동 117동 119호","indutype":"일반휴게음식 - 일반한식","category":"restaurant"}]},{"lat":"37.213522179","long":"127.05311665","imageIndex":4,"items":[{"name":"시루향기병점능동점","tel":"031-234-3446","addr":"경기도 화성시 병점동 209번지 1층","indutype":"일반휴게음식 - 일반한식","category":"restaurant"}]},{"lat":"37.205993638","long":"127.04217355","imageIndex":4,"items":[{"name":"신양평해장국","tel":"031-226-8592","addr":"경기도 화성시 병점동 438번지 1층","indutype":"일반휴게음식 - 일반한식","category":"restaurant"},{"name":"일성식당","tel":"031-0000-0000","addr":"경기도 화성시 병점동 438번지 104, 105호","indutype":"일반휴게음식 - 일반한식","category":"restaurant"}]},{"lat":"37.20560678","long":"127.04035973","imageIndex":4,"items":[{"name":"신풍떡볶이","tel":"031-222-3525","addr":"경기도 화성시 병점동 431-55번지 102호","indutype":"일반휴게음식 - 일반한식","category":"restaurant"},{"name":"홍루이젠 병점점","tel":"070-7600-1513","addr":"경기도 화성시 병점동 431-55번지 101호","indutype":"일반휴게음식 - 서양음식","category":"restaurant"},{"name":"효소꼬마김밥","tel":"070-4217-3679","addr":"경기도 화성시 병점동 431-55번지 1층 113호","indutype":"일반휴게음식 - 일반한식","category":"restaurant"}]},{"lat":"37.208884999","long":"127.04500262","imageIndex":4,"items":[{"name":"아리랑불고기","tel":"031-223-7972","addr":"경기도 화성시 병점동 842-8번지 1층","indutype":"일반휴게음식 - 일반한식","category":"restaurant"}]},{"lat":"37.20679477","long":"127.04449454","imageIndex":4,"items":[{"name":"야꼬닭","tel":"031-221-0277","addr":"경기도 화성시 병점동 860번지 우남퍼스트빌상가 B동 103호","indutype":"일반휴게음식 - 스넥","category":"restaurant"}]},{"lat":"37.208499769","long":"127.03822078","imageIndex":4,"items":[{"name":"여백","tel":"031-111-1111","addr":"경기도 화성시 병점동 345-22번지 1층","indutype":"일반휴게음식 - 서양음식","category":"restaurant"}]},{"lat":"37.205220981","long":"127.0347272","imageIndex":4,"items":[{"name":"여성시대","tel":"031-232-2223","addr":"경기도 화성시 병점동 400-6번지 1층 104호","indutype":"일반휴게음식 - 서양음식","category":"restaurant"}]},{"lat":"37.214129796","long":"127.04280866","imageIndex":4,"items":[{"name":"여수","tel":"031-233-4045","addr":"경기도 화성시 병점동 844-2번지 109호","indutype":"일반휴게음식 - 일반한식","category":"restaurant"},{"name":"오에이치 (h)","tel":"031-239-3365","addr":"경기도 화성시 병점동 844-2번지 탑프라자 302호","indutype":"일반휴게음식 - 주점","category":"restaurant"},{"name":"정겨운오뎅집","tel":"031-222-2142","addr":"경기도 화성시 병점동 844-2번지","indutype":"일반휴게음식 - 일반한식","category":"restaurant"}]},{"lat":"37.210824108","long":"127.03933715","imageIndex":4,"items":[{"name":"여유","tel":"031-111-1111","addr":"경기도 화성시 병점동 826-2번지 1층 101호","indutype":"일반휴게음식 - 일반한식","category":"restaurant"}]},{"lat":"37.210580786","long":"127.03947222","imageIndex":4,"items":[{"name":"예담푸드","tel":"031-8031-5008","addr":"경기도 화성시 병점동 827-1번지 상가전체 1층","indutype":"일반휴게음식 - 일반한식","category":"restaurant"}]},{"lat":"37.199714227","long":"127.03959087","imageIndex":4,"items":[{"name":"예당꽃돼지","tel":"031-234-0592","addr":"경기도 화성시 병점동 514-4번지 1층","indutype":"일반휴게음식 - 일반한식","category":"restaurant"}]},{"lat":"37.207633456","long":"127.04238844","imageIndex":4,"items":[{"name":"옛날집","tel":"031-237-4022","addr":"경기도 화성시 병점동 301-1번지","indutype":"일반휴게음식 - 일반한식","category":"restaurant"},{"name":"차호차호","tel":"031-223-5282","addr":"경기도 화성시 병점동 301-1번지 1층","indutype":"일반휴게음식 - 중국식","category":"restaurant"}]},{"lat":"37.213414452","long":"127.05217024","imageIndex":4,"items":[{"name":"와바구이&샤브샤브부페","tel":"031-234-5298","addr":"경기도 화성시 병점동 203-26번지","indutype":"일반휴게음식 - 일반한식","category":"restaurant"}]},{"lat":"37.211300773","long":"127.04210871","imageIndex":4,"items":[{"name":"우도막국수병점점","tel":"031-233-6557","addr":"경기도 화성시 병점동 832-1번지 다락방빌 1층 101호","indutype":"일반휴게음식 - 일반한식","category":"restaurant"}]},{"lat":"37.207859897","long":"127.03867108","imageIndex":4,"items":[{"name":"우리모두마카롱을좋아해","tel":"031-000-0000","addr":"경기도 화성시 병점동 356-43번지","indutype":"일반휴게음식 - 서양음식","category":"restaurant"}]},{"lat":"37.206715884","long":"127.03764544","imageIndex":4,"items":[{"name":"유달칡냉면","tel":"031-235-2379","addr":"경기도 화성시 병점동 361-15번지","indutype":"일반휴게음식 - 일반한식","category":"restaurant"},{"name":"유진푸드","tel":"031-234-4992","addr":"경기도 화성시 병점동 361-15번지 101호","indutype":"일반휴게음식 - 일반한식","category":"restaurant"},{"name":"피자나라치킨공주(화성병점점)","tel":"031-898-7881","addr":"경기도 화성시 병점동 361-15번지 1층 일부호","indutype":"일반휴게음식 - 서양음식","category":"restaurant"}]},{"lat":"37.208551888","long":"127.04422514","imageIndex":4,"items":[{"name":"육장갈비","tel":"031-236-0543","addr":"경기도 화성시 병점동 842-3번지 1층","indutype":"일반휴게음식 - 일반한식","category":"restaurant"}]},{"lat":"37.205499353","long":"127.0380842","imageIndex":4,"items":[{"name":"이츠굿병점점","tel":"031-267-1001","addr":"경기도 화성시 병점동 364번지 글로리아빌딩 1층 일부호","indutype":"일반휴게음식 - 일반한식","category":"restaurant"}]},{"lat":"37.20821885","long":"127.04322236","imageIndex":4,"items":[{"name":"작은커피집","tel":"070-8866-5799","addr":"경기도 화성시 병점동 259-13번지 1층","indutype":"일반휴게음식 - 서양음식","category":"restaurant"}]},{"lat":"37.21304799","long":"127.04444164","imageIndex":4,"items":[{"name":"장수국수","tel":"031-221-1582","addr":"경기도 화성시 병점동 819번지 안화동마을주공9단지 107호","indutype":"일반휴게음식 - 일반한식","category":"restaurant"}]},{"lat":"37.210887069","long":"127.03969767","imageIndex":4,"items":[{"name":"전설의짬뽕병점점","tel":"031-221-6364","addr":"경기도 화성시 병점동 826-4번지 1층","indutype":"일반휴게음식 - 중국식","category":"restaurant"}]},{"lat":"37.208470854","long":"127.04405611","imageIndex":4,"items":[{"name":"중앙푸드","tel":"031-233-7878","addr":"경기도 화성시 병점동 842-2번지 102호","indutype":"일반휴게음식 - 일반한식","category":"restaurant"},{"name":"항아리","tel":"031-232-7787","addr":"경기도 화성시 병점동 842-2번지","indutype":"일반휴게음식 - 스넥","category":"restaurant"}]},{"lat":"37.207131197","long":"127.03467168","imageIndex":4,"items":[{"name":"착한가게 닭도리탕1호점","tel":"031-221-0805","addr":"경기도 화성시 병점동 382-12번지 1층","indutype":"일반휴게음식 - 일반한식","category":"restaurant"}]},{"lat":"37.214858044","long":"127.04728169","imageIndex":4,"items":[{"name":"처갓집양념치킨병점점","tel":"031-222-7292","addr":"경기도 화성시 병점동 848번지 안화동마을주공8단지 상가동 106호","indutype":"일반휴게음식 - 스넥","category":"restaurant"}]},{"lat":"37.208632935","long":"127.04436036","imageIndex":4,"items":[{"name":"추억의포차","tel":"031-232-7198","addr":"경기도 화성시 병점동 842-4번지 1층 일부호","indutype":"일반휴게음식 - 주점","category":"restaurant"},{"name":"치요남치킨(치킨과요리의만남)","tel":"031-225-8860","addr":"경기도 화성시 병점동 842-4번지 1층 일부호","indutype":"일반휴게음식 - 일반한식","category":"restaurant"}]},{"lat":"37.213135359","long":"127.05161803","imageIndex":4,"items":[{"name":"치킨뱅이","tel":"031-231-9856","addr":"경기도 화성시 병점동 203-23번지","indutype":"일반휴게음식 - 주점","category":"restaurant"}]},{"lat":"37.201885052","long":"127.04172085","imageIndex":4,"items":[{"name":"카페오레","tel":"","addr":"경기도 화성시 병점동 491-1번지 임광프라자","indutype":"일반휴게음식 - 서양음식","category":"restaurant"}]},{"lat":"37.210769331","long":"127.04159022","imageIndex":4,"items":[{"name":"커피마마","tel":"031-226-2118","addr":"경기도 화성시 병점동 830-1번지 1층","indutype":"일반휴게음식 - 서양음식","category":"restaurant"}]},{"lat":"37.208218727","long":"127.04358284","imageIndex":4,"items":[{"name":"커피마실시간","tel":"031-308-0403","addr":"경기도 화성시 병점동 259-14번지 103호","indutype":"일반휴게음식 - 서양음식","category":"restaurant"}]},{"lat":"37.211165422","long":"127.04269445","imageIndex":4,"items":[{"name":"커피볶는우리동네","tel":"031-222-8033","addr":"경기도 화성시 병점동 833-2번지","indutype":"일반휴게음식 - 서양음식","category":"restaurant"}]},{"lat":"37.202443919","long":"127.04103402","imageIndex":4,"items":[{"name":"커피에 반하다","tel":"031-226-6404","addr":"경기도 화성시 병점동 479-1번지 ,1,2층","indutype":"일반휴게음식 - 서양음식","category":"restaurant"},{"name":"커피에반하다 병점광은교회점","tel":"031-1111-1111","addr":"경기도 화성시 병점동 479-1번지 1,2층 일부호","indutype":"일반휴게음식 - 서양음식","category":"restaurant"}]},{"lat":"37.208498244","long":"127.04300847","imageIndex":4,"items":[{"name":"커피정원","tel":"031-233-3239","addr":"경기도 화성시 병점동 259-7번지 1층 103호","indutype":"일반휴게음식 - 서양음식","category":"restaurant"},{"name":"하하호호 베이비카페","tel":"031-238-0636","addr":"경기도 화성시 병점동 259-7번지 2층","indutype":"일반휴게음식 - 서양음식","category":"restaurant"}]},{"lat":"37.206328569","long":"127.03719467","imageIndex":4,"items":[{"name":"커피파는 돈가스 집","tel":"031-237-7291","addr":"경기도 화성시 병점동 366-1번지 102호","indutype":"일반휴게음식 - 일반한식","category":"restaurant"}]},{"lat":"37.207941041","long":"127.03850215","imageIndex":4,"items":[{"name":"커피하루","tel":"031-234-5948","addr":"경기도 화성시 병점동 356-2번지","indutype":"일반휴게음식 - 스넥","category":"restaurant"}]},{"lat":"37.207525507","long":"127.04185892","imageIndex":4,"items":[{"name":"코다리본가","tel":"031-235-1772","addr":"경기도 화성시 병점동 307-4번지","indutype":"일반휴게음식 - 일반한식","category":"restaurant"}]},{"lat":"37.209164252","long":"127.04519428","imageIndex":4,"items":[{"name":"퀸앤퀸즈","tel":"070-7728-2707","addr":"경기도 화성시 병점동 133-1번지 2층 전부호","indutype":"일반휴게음식 - 일반한식","category":"restaurant"}]},{"lat":"37.208605717","long":"127.04488981","imageIndex":4,"items":[{"name":"타코슈","tel":"031-0000-0000","addr":"경기도 화성시 병점동 842-15번지 1층 101호","indutype":"일반휴게음식 - 일반한식","category":"restaurant"},{"name":"타코슈","tel":"031-234-8201","addr":"경기도 화성시 병점동 842-15번지 101호","indutype":"일반휴게음식 - 일식·회집","category":"restaurant"}]},{"lat":"37.210913945","long":"127.04019337","imageIndex":4,"items":[{"name":"태영막창","tel":"031-232-8592","addr":"경기도 화성시 병점동 826-7번지","indutype":"일반휴게음식 - 일반한식","category":"restaurant"}]},{"lat":"37.210914048","long":"127.03986667","imageIndex":4,"items":[{"name":"태평양참치","tel":"031-221-5966","addr":"경기도 화성시 병점동 826-5번지","indutype":"일반휴게음식 - 일반한식","category":"restaurant"}]},{"lat":"37.208686938","long":"127.04452937","imageIndex":4,"items":[{"name":"통큰순대국","tel":"031-223-3288","addr":"경기도 화성시 병점동 842-5번지 일부 1층","indutype":"일반휴게음식 - 일반한식","category":"restaurant"},{"name":"홍's 비어","tel":"031-234-9817","addr":"경기도 화성시 병점동 842-5번지 102호","indutype":"일반휴게음식 - 주점","category":"restaurant"}]},{"lat":"37.205994251","long":"127.04028107","imageIndex":4,"items":[{"name":"투다리 태안점","tel":"031-234-6113","addr":"경기도 화성시 병점동 317-3번지 명신프라자 205호","indutype":"일반휴게음식 - 일반한식","category":"restaurant"}]},{"lat":"37.207194431","long":"127.0340634","imageIndex":4,"items":[{"name":"투썸플레이스 병점역점","tel":"031-228-6954","addr":"경기도 화성시 병점동 383-1번지 1층","indutype":"일반휴게음식 - 서양음식","category":"restaurant"}]},{"lat":"37.208524683","long":"127.04472079","imageIndex":4,"items":[{"name":"티바두마리치킨","tel":"031-226-7771","addr":"경기도 화성시 병점동 842-16번지 104호","indutype":"일반휴게음식 - 스넥","category":"restaurant"}]},{"lat":"37.211021938","long":"127.04061025","imageIndex":4,"items":[{"name":"페리카나 병점점","tel":"031-236-9245","addr":"경기도 화성시 병점동 828-2번지 1층","indutype":"일반휴게음식 - 스넥","category":"restaurant"}]},{"lat":"37.203607582","long":"127.03667527","imageIndex":4,"items":[{"name":"플라잉볼병점점","tel":"","addr":"경기도 화성시 병점동 399-4번지 홈플러스병점점 1층 XH,Y17호","indutype":"일반휴게음식 - 서양음식","category":"restaurant"}]},{"lat":"37.202804316","long":"127.04109052","imageIndex":4,"items":[{"name":"피자스쿨","tel":"031-222-6166","addr":"경기도 화성시 병점동 481번지 1층 일부호","indutype":"일반휴게음식 - 서양음식","category":"restaurant"},{"name":"한잔할까 밥먹을까?","tel":"031-224-0109","addr":"경기도 화성시 병점동 481번지 1층 일부호","indutype":"일반휴게음식 - 일반한식","category":"restaurant"}]},{"lat":"37.207075994","long":"127.03867071","imageIndex":4,"items":[{"name":"피자에땅","tel":"031-226-4477","addr":"경기도 화성시 병점동 358-1번지","indutype":"일반휴게음식 - 서양음식","category":"restaurant"},{"name":"히카리우동","tel":"070-7633-8942","addr":"경기도 화성시 병점동 358-1번지 1층 일부호","indutype":"일반휴게음식 - 일반한식","category":"restaurant"}]},{"lat":"37.200083986","long":"127.03849845","imageIndex":4,"items":[{"name":"한일밥상","tel":"031-236-7941","addr":"경기도 화성시 병점동 524-4번지","indutype":"일반휴게음식 - 일반한식","category":"restaurant"}]},{"lat":"37.210715106","long":"127.04208587","imageIndex":4,"items":[{"name":"한정식가연","tel":"031-273-5123","addr":"경기도 화성시 병점동 831-5번지 1층","indutype":"일반휴게음식 - 일반한식","category":"restaurant"}]},{"lat":"37.207743713","long":"127.03537037","imageIndex":4,"items":[{"name":"할리스커피병점역점","tel":"031-223-0737","addr":"경기도 화성시 병점동 349-12번지","indutype":"일반휴게음식 - 서양음식","category":"restaurant"}]},{"lat":"37.210770087","long":"127.03920194","imageIndex":4,"items":[{"name":"항아리보쌈","tel":"031-234-9678","addr":"경기도 화성시 병점동 826-1번지","indutype":"일반휴게음식 - 일반한식","category":"restaurant"}]},{"lat":"37.211300717","long":"127.04227769","imageIndex":4,"items":[{"name":"해담골 명태간장조림","tel":"","addr":"경기도 화성시 병점동 832-2번지 1층","indutype":"일반휴게음식 - 일반한식","category":"restaurant"}]},{"lat":"37.209049798","long":"127.03686921","imageIndex":4,"items":[{"name":"홈푸드스토리 병점동탄점","tel":"031-225-9235","addr":"경기도 화성시 병점동 347-1번지 1층 일부호","indutype":"일반휴게음식 - 일반한식","category":"restaurant"}]},{"lat":"37.204991819","long":"127.04691544","imageIndex":4,"items":[{"name":"화성시니어클럽 노노카페 (구봉산근린공원","tel":"031-8059-4349","addr":"경기도 화성시 병점동 865번지 1층","indutype":"일반휴게음식 - 서양음식","category":"restaurant"}]},{"lat":"37.206770078","long":"127.03719487","imageIndex":4,"items":[{"name":"화성시니어클럽 노노카페 (병점1동 주민센","tel":"031-8059-4349","addr":"경기도 화성시 병점동 367번지 1층","indutype":"일반휴게음식 - 서양음식","category":"restaurant"}]},{"lat":"37.203076888","long":"127.03328447","imageIndex":4,"items":[{"name":"화성시니어클럽 노노카페 (유앤아이센터점)","tel":"031-8059-4349","addr":"경기도 화성시 병점동 734번지 지하2층","indutype":"일반휴게음식 - 서양음식","category":"restaurant"},{"name":"화성시니어클럽 노노카페 (유앤아이센터점)","tel":"031-8059-4349","addr":"경기도 화성시 병점동 734번지 지하2층","indutype":"일반휴게음식 - 서양음식","category":"restaurant"},{"name":"화성시니어클럽노노카페 유앤아이센터 2호","tel":"031-8059-4349","addr":"경기도 화성시 병점동 734번지 1층","indutype":"일반휴게음식 - 서양음식","category":"restaurant"}]},{"lat":"37.208328725","long":"127.0377025","imageIndex":4,"items":[{"name":"회무침전문점","tel":"070-4634-8871","addr":"경기도 화성시 병점동 345-79번지 1층","indutype":"일반휴게음식 - 일반한식","category":"restaurant"}]},{"lat":"37.211048415","long":"127.04231136","imageIndex":4,"items":[{"name":"후라이드킹2019","tel":"031-000-0000","addr":"경기도 화성시 병점동 832-4번지 1층","indutype":"일반휴게음식 - 스넥","category":"restaurant"}]}]