[{"lat":"37.847749473","long":"127.19166778","imageIndex":7,"items":[{"name":"KRISHNA","tel":"031-541-4460","addr":"경기도 포천시 가산면 마산리 186-1","indutype":"음료식품 - 기타음료식품","category":"food"},{"name":"한우마루정육점","tel":"031-532-8402","addr":"경기도 포천시 가산면 마산리 186-1","indutype":"음료식품 - 정육점","category":"food"}]},{"lat":"37.847501945","long":"127.1886904","imageIndex":7,"items":[{"name":"가산정육점","tel":"031-543-0022","addr":"경기도 포천시 가산면 마산리 150-5번지","indutype":"음료식품 - 정육점","category":"food"}]},{"lat":"37.847280093","long":"127.1922233","imageIndex":7,"items":[{"name":"가산흑염소","tel":"031-544-6708","addr":"경기도 포천시 가산면 마산리 143-11번지","indutype":"음료식품 - 정육점","category":"food"}]},{"lat":"37.847780751","long":"127.18899786","imageIndex":7,"items":[{"name":"더불어삶베어커리","tel":"031-543-0149","addr":"경기도 포천시 가산면 마산리 149-4","indutype":"음료식품 - 제과점","category":"food"}]},{"lat":"37.847141392","long":"127.18880311","imageIndex":7,"items":[{"name":"돈마트","tel":"031-983-1424","addr":"경기도 포천시 가산면 마산리 183-8번지 평화빌딩 1층","indutype":"음료식품 - 정육점","category":"food"}]},{"lat":"37.857921472","long":"127.17369434","imageIndex":7,"items":[{"name":"빨간장화농장","tel":"031-542-8135","addr":"경기도 포천시 가산면 마산리 720-22번지","indutype":"음료식품 - 농·축·수산품","category":"food"}]},{"lat":"37.840812881","long":"127.18554945","imageIndex":7,"items":[{"name":"앞벌 농원","tel":"031-544-2921","addr":"경기도 포천시 가산면 마산리 65-7번지","indutype":"음료식품 - 농·축·수산품","category":"food"}]},{"lat":"37.846091394","long":"127.18618735","imageIndex":7,"items":[{"name":"월드마트","tel":"542-7703","addr":"경기도 포천시 가산면 마산리 43-8번지","indutype":"소매업 - 식품.잡화","category":"food"}]},{"lat":"37.843752613","long":"127.20063284","imageIndex":7,"items":[{"name":"주식회사 나눔공동체","tel":"02-977-1300","addr":"경기도 포천시 가산면 마산리 14-4번지","indutype":"음료식품 - 농·축·수산품","category":"food"}]},{"lat":"37.846783188","long":"127.19308551","imageIndex":7,"items":[{"name":"콜미트","tel":"031-1111-1111","addr":"경기도 포천시 가산면 마산리 172-23번지","indutype":"음료식품 - 정육점","category":"food"}]},{"lat":"37.846971431","long":"127.1880301","imageIndex":7,"items":[{"name":"푸른솔떡방앗간","tel":"031-543-1884","addr":"경기도 포천시 가산면 마산리 152-6","indutype":"음료식품 - 제과점","category":"food"}]},{"lat":"37.847310192","long":"127.19030327","imageIndex":7,"items":[{"name":"해오름건강원","tel":"031-544-0505","addr":"경기도 포천시 가산면 마산리 183-2번지 나동 1층","indutype":"건강식품 - 기타건강식품","category":"food"}]},{"lat":"37.847726173","long":"127.18932722","imageIndex":7,"items":[{"name":"홈마트","tel":"031-544-2933","addr":"경기도 포천시 가산면 마산리 150-1번지 가동","indutype":"음료식품 - 기타음료식품","category":"food"}]}]