[{"lat":"37.209050948","long":"127.03258842","imageIndex":16,"items":[{"name":"(주)화성직업전문학교","tel":"031-234-5588","addr":"경기도 화성시 진안동 539-7번지","indutype":"회원제형태 - 학원","category":"study"},{"name":"(주)화성직업전문학교","tel":"031-234-5588","addr":"경기도 화성시 진안동 539-7번지","indutype":"회원제형태 - 학원","category":"study"}]},{"lat":"37.21455358","long":"127.04191887","imageIndex":16,"items":[{"name":"CIEC어학원","tel":"031-222-7142","addr":"경기도 화성시 진안동 914-1번지 메인프라자 605호","indutype":"회원제형태 - 학원","category":"study"},{"name":"병점에듀나인고시학원","tel":"031-222-0059","addr":"경기도 화성시 진안동 914-1번지 메인프라자 305호","indutype":"회원제형태 - 학원","category":"study"},{"name":"삼성리빙텔","tel":"031-898-5958","addr":"경기도 화성시 진안동 914-1번지 메인프라자 504호","indutype":"학원 - 독서실","category":"study"},{"name":"이화발레학원","tel":"031-222-3664","addr":"경기도 화성시 진안동 914-1번지 메인프라자 601호","indutype":"학원 - 예·체능계학원","category":"study"}]},{"lat":"37.215580228","long":"127.04350793","imageIndex":16,"items":[{"name":"EM마이클영수학원","tel":"031-267-0589","addr":"경기도 화성시 진안동 914-8번지 뱅뱅프라자 205호","indutype":"회원제형태 - 학원","category":"study"},{"name":"그림그리는집미술학원","tel":"070-8833-8028","addr":"경기도 화성시 진안동 914-8번지 뱅뱅프라자 202호","indutype":"학원 - 예·체능계학원","category":"study"},{"name":"리오(Leo)해법학원","tel":"031-264-0165","addr":"경기도 화성시 진안동 914-8 뱅뱅프라자 502호~503호","indutype":"회원제형태 - 학원","category":"study"},{"name":"셀파우등생교실화성지사","tel":"031-237-3809","addr":"경기도 화성시 진안동 914-8번지 뱅뱅프라자 508호","indutype":"학원 - 보습학원","category":"study"},{"name":"숙명뮤직엘음악학원","tel":"","addr":"경기도 화성시 진안동 914-8번지 뱅뱅프라자 506호","indutype":"학원 - 예·체능계학원","category":"study"},{"name":"스윗스터디","tel":"","addr":"경기도 화성시 진안동 914-8번지 뱅뱅프라자 4층 411호","indutype":"학원 - 보습학원","category":"study"},{"name":"쎈수학러닝센터병점진안학원","tel":"031-225-5595","addr":"경기도 화성시 진안동 914-8번지 뱅뱅프라자 408호","indutype":"학원 - 보습학원","category":"study"},{"name":"안샘학원","tel":"031-232-6884","addr":"경기도 화성시 진안동 914-8 1필지뱅뱅프라자제4층406호,407호","indutype":"회원제형태 - 학원","category":"study"},{"name":"용인대아라태권도장","tel":"031-224-7770","addr":"경기도 화성시 진안동 914-8번지 뱅뱅프라지 504,505호","indutype":"학원 - 예·체능계학원","category":"study"},{"name":"커스텀뮤직실용음악학원","tel":"031-235-0131","addr":"경기도 화성시 진안동 914-8번지 뱅뱅프라자 201호","indutype":"학원 - 예·체능계학원","category":"study"},{"name":"하노버음악학원","tel":"031-2248-5790","addr":"경기도 화성시 진안동 914-8번지 뱅뱅프라자 501호","indutype":"학원 - 예·체능계학원","category":"study"},{"name":"혜윰수학학원","tel":"031-233-3323","addr":"경기도 화성시 진안동 914-8번지 뱅뱅프라자 4동 406,407호","indutype":"학원 - 보습학원","category":"study"}]},{"lat":"37.213274423","long":"127.04094935","imageIndex":16,"items":[{"name":"검도교실초연관","tel":"031-225-5070","addr":"경기도 화성시 진안동 877-5 6층","indutype":"학원 - 예·체능계학원","category":"study"}]},{"lat":"37.213690117","long":"127.03695015","imageIndex":16,"items":[{"name":"경희대석사엘리트태권도장","tel":"031-234-8393","addr":"경기도 화성시 진안동 868-1번지 3층","indutype":"학원 - 예·체능계학원","category":"study"}]},{"lat":"37.211609798","long":"127.03297245","imageIndex":16,"items":[{"name":"경희대학교 스포츠아카데미","tel":"031-877-3225","addr":"경기도 화성시 진안동 482-6번지 F동 104,105,106,107호","indutype":"학원 - 예·체능계학원","category":"study"}]},{"lat":"37.211384621","long":"127.03264566","imageIndex":16,"items":[{"name":"경희키즈풀","tel":"031-223-3307","addr":"경기도 화성시 진안동 482번지 병점아울렛 C동 101~112호","indutype":"학원 - 기타 교육기관","category":"study"}]},{"lat":"37.214580435","long":"127.04244839","imageIndex":16,"items":[{"name":"고유섭줄넘기교실","tel":"031-235-1236","addr":"경기도 화성시 진안동 914-2번지 미래프라자 7층 705호","indutype":"학원 - 예·체능계학원","category":"study"}]},{"lat":"37.215995517","long":"127.04106337","imageIndex":16,"items":[{"name":"고은햇살어린이집[아이행복]","tel":"031-232-7586","addr":"경기도 화성시 진안동 908번지 진안골마을주공10단지 1009동 104호","indutype":"학원 - 유아원","category":"study"}]},{"lat":"37.215546474","long":"127.03617362","imageIndex":16,"items":[{"name":"관인월드신예원음악학원","tel":"031-234-9040","addr":"경기도 화성시 진안동 935번지 월드메르디앙상가-203","indutype":"학원 - 예·체능계학원","category":"study"}]},{"lat":"37.21602377","long":"127.03706386","imageIndex":16,"items":[{"name":"기쁨어린이집[아이행복]","tel":"031-234-5123","addr":"경기도 화성시 진안동 416번지","indutype":"학원 - 유아원","category":"study"},{"name":"기쁨어린이집[아이행복]","tel":"031-234-5123","addr":"경기도 화성시 진안동 416번지 외4필지","indutype":"학원 - 유아원","category":"study"}]},{"lat":"37.216949175","long":"127.04530003","imageIndex":16,"items":[{"name":"꿈별어린이집[아이행복]","tel":"031-8031-6252","addr":"경기도 화성시 진안동 911번지 진안골마을주공11단지 1104동 106호","indutype":"학원 - 유아원","category":"study"}]},{"lat":"37.219051483","long":"127.03625402","imageIndex":16,"items":[{"name":"다일유치원[아이행복]","tel":"031-232-8984","addr":"경기도 화성시 진안동 921","indutype":"학원 - 유치원","category":"study"}]},{"lat":"37.212076921","long":"127.03810979","imageIndex":16,"items":[{"name":"드럼존학원","tel":"031-233-7670","addr":"경기도 화성시 진안동 878-1번지 2층","indutype":"학원 - 예·체능계학원","category":"study"}]},{"lat":"37.215327794","long":"127.04392465","imageIndex":16,"items":[{"name":"루트잉글리쉬영수학원","tel":"031-224-4070","addr":"경기도 화성시 진안동 914-7번지 거성프라자 10층","indutype":"학원 - 보습학원","category":"study"},{"name":"맥영수전문학원","tel":"031-224-7448","addr":"경기도 화성시 진안동 914-7번지 거성프라자 701,702","indutype":"학원 - 보습학원","category":"study"},{"name":"맥학원","tel":"031-224-7448","addr":"경기도 화성시 진안동 914-7번지 거성프라자 605호","indutype":"학원 - 보습학원","category":"study"},{"name":"명지대정통바둑교습소","tel":"031-234-6333","addr":"경기도 화성시 진안동 914-7번지 거성프라자 704호","indutype":"학원 - 기타 교육기관","category":"study"},{"name":"바른정인컴퓨터학원","tel":"031-305-8305","addr":"경기도 화성시 진안동 914-7번지 거성프라자 705호","indutype":"학원 - 컴퓨터학원","category":"study"},{"name":"엘피다영수학원","tel":"031-8015-3523","addr":"경기도 화성시 진안동 914-7번지 거성프라자 804,805호","indutype":"회원제형태 - 학원","category":"study"},{"name":"투베이스영수전문학원","tel":"031-234-9595","addr":"경기도 화성시 진안동 914-7번지 거성프라자 601호","indutype":"학원 - 보습학원","category":"study"},{"name":"포인트미술학원","tel":"070-7557-7952","addr":"경기도 화성시 진안동 914-7번지 거성프라자 8층 803호","indutype":"학원 - 예·체능계학원","category":"study"},{"name":"한솔수학영어병점","tel":"031-222-2079","addr":"경기도 화성시 진안동 914-7번지 거성프라자 8층","indutype":"학원 - 보습학원","category":"study"},{"name":"한솔플러스수학병점학원","tel":"031-222-2079","addr":"경기도 화성시 진안동 914-7번지 거성프라자 8층 803호","indutype":"학원 - 보습학원","category":"study"}]},{"lat":"37.208879654","long":"127.03297137","imageIndex":16,"items":[{"name":"마루고시텔","tel":"031-222-5421","addr":"경기도 화성시 진안동 539-10번지","indutype":"학원 - 독서실","category":"study"}]},{"lat":"37.215157016","long":"127.04269654","imageIndex":16,"items":[{"name":"메가스터디엠베스트SE초중고전과목학원","tel":"031-232-7008","addr":"경기도 화성시 진안동 913번지 4층 일부","indutype":"학원 - 보습학원","category":"study"}]},{"lat":"37.217689452","long":"127.04110929","imageIndex":16,"items":[{"name":"뮤엠진안영어교습소","tel":"031-232-0581","addr":"경기도 화성시 진안동 910번지 주공12단지 상가 가동 103호","indutype":"학원 - 외국어학원","category":"study"},{"name":"수학의달인수학교습소","tel":"031-224-6723","addr":"경기도 화성시 진안동 910번지 진안골마을주공12단지 가 상가동 202호 진안골마을","indutype":"학원 - 보습학원","category":"study"},{"name":"용인대진안태권도장","tel":"031-234-2792","addr":"경기도 화성시 진안동 910번지 진안골마을주공12단지 상가동 204호","indutype":"학원 - 예·체능계학원","category":"study"},{"name":"해그림어린이집[아이행복]","tel":"031-232-0908","addr":"경기도 화성시 진안동 910번지 진안골마을주공12단지 1층","indutype":"학원 - 유아원","category":"study"}]},{"lat":"37.211552951","long":"127.04244681","imageIndex":16,"items":[{"name":"뮤엠태안영어학원","tel":"031-234-5105","addr":"경기도 화성시 진안동 887-6번지 2층","indutype":"학원 - 외국어학원","category":"study"},{"name":"뮤엠태안영어학원","tel":"031-234-5105","addr":"경기도 화성시 진안동 887-6번지 2층","indutype":"학원 - 보습학원","category":"study"}]},{"lat":"37.217274103","long":"127.0437229","imageIndex":16,"items":[{"name":"반디유치원[아이행복]","tel":"031-234-0087","addr":"경기도 화성시 진안동 912-2","indutype":"학원 - 유치원","category":"study"}]},{"lat":"37.215165724","long":"127.04358657","imageIndex":16,"items":[{"name":"병점이룸프리미엄스터디센터독서실","tel":"031-232-2686","addr":"경기도 화성시 진안동 914-6번지 메디피아 6층 603호.604호","indutype":"학원 - 독서실","category":"study"},{"name":"셀파수학학원","tel":"031-373-4749","addr":"경기도 화성시 진안동 914-6번지 메디피아 602호","indutype":"학원 - 보습학원","category":"study"}]},{"lat":"37.209969414","long":"127.03486438","imageIndex":16,"items":[{"name":"병점초등학교병설유치원[아이행복]","tel":"031-233-2848","addr":"경기도 화성시 진안동 517-2번지 병점초등학교","indutype":"학원 - 유치원","category":"study"}]},{"lat":"37.216498869","long":"127.04470266","imageIndex":16,"items":[{"name":"빛고은어린이집[아이행복]","tel":"031-235-2205","addr":"경기도 화성시 진안동 911번지 진안골마을주공11단지 1층 관리사무소","indutype":"학원 - 유아원","category":"study"}]},{"lat":"37.21706657","long":"127.04456777","imageIndex":16,"items":[{"name":"사과향기어린이집[아이행복]","tel":"031-234-7999","addr":"경기도 화성시 진안동 911번지 진안골마을주공11단지 1103동 102호","indutype":"학원 - 유아원","category":"study"}]},{"lat":"37.208690471","long":"127.03283611","imageIndex":16,"items":[{"name":"사단법인 더큰이웃아시아","tel":"031-267-1526","addr":"경기도 화성시 진안동 539-4번지","indutype":"학원 - 기타 교육기관","category":"study"}]},{"lat":"37.211913649","long":"127.0415908","imageIndex":16,"items":[{"name":"상동비전작은도서관","tel":"031-222-9012","addr":"경기도 화성시 진안동 886-7번지","indutype":"학원 - 독서실","category":"study"}]},{"lat":"37.209356937","long":"127.03400796","imageIndex":16,"items":[{"name":"수원인재기술학원","tel":"031-223-5540","addr":"경기도 화성시 진안동 540-4번지 302호","indutype":"회원제형태 - 학원","category":"study"}]},{"lat":"37.214023501","long":"127.0369503","imageIndex":16,"items":[{"name":"슬기로운어린이집[아이행복]","tel":"031-222-3382","addr":"경기도 화성시 진안동 862-9번지 1층","indutype":"학원 - 유아원","category":"study"}]},{"lat":"37.216690156","long":"127.03835979","imageIndex":16,"items":[{"name":"시립진안어린이집[아이행복]","tel":"031-225-9605","addr":"경기도 화성시 진안동 857-2번지","indutype":"학원 - 유아원","category":"study"}]},{"lat":"37.210887492","long":"127.03831202","imageIndex":16,"items":[{"name":"아트앤하트홍익미술학원","tel":"070-8770-5108","addr":"경기도 화성시 진안동 524-1번지 메트로프라자 503호","indutype":"학원 - 예·체능계학원","category":"study"},{"name":"천지유도체육관","tel":"031-234-1150","addr":"경기도 화성시 진안동 524-1번지 메트로프라자 507호","indutype":"학원 - 예·체능계학원","category":"study"}]},{"lat":"37.216931682","long":"127.04380158","imageIndex":16,"items":[{"name":"앙팡어린이집[아이행복]","tel":"031-238-0324","addr":"경기도 화성시 진안동 911번지 진안골마을주공11단지 1102동 105호","indutype":"학원 - 유아원","category":"study"}]},{"lat":"37.21168901","long":"127.03964174","imageIndex":16,"items":[{"name":"야호어린이집[아이행복]","tel":"031-232-2303","addr":"경기도 화성시 진안동 884-5번지","indutype":"학원 - 유아원","category":"study"}]},{"lat":"37.211329067","long":"127.03808691","imageIndex":16,"items":[{"name":"웰빙고시원","tel":"031-233-2109","addr":"경기도 화성시 진안동 514-2번지 렉스몰 401동 405호","indutype":"학원 - 독서실","category":"study"}]},{"lat":"37.217023803","long":"127.0374699","imageIndex":16,"items":[{"name":"종이비행기어린이집[아이행복]","tel":"031-234-1297","addr":"경기도 화성시 진안동 855-2번지","indutype":"학원 - 유아원","category":"study"},{"name":"종이비행기어린이집[아이행복]","tel":"031-234-1297","addr":"경기도 화성시 진안동 855-2번지","indutype":"학원 - 유아원","category":"study"}]},{"lat":"37.211274806","long":"127.03875155","imageIndex":16,"items":[{"name":"주식회사 대한치매예방진흥원","tel":"031-898-8111","addr":"경기도 화성시 진안동 879-6번지 4층","indutype":"학원 - 기타 교육기관","category":"study"}]},{"lat":"37.218295413","long":"127.0332793","imageIndex":16,"items":[{"name":"주식회사 블루윙즈동탄축구단","tel":"031-372-7025","addr":"경기도 화성시 진안동 136번지","indutype":"학원 - 예·체능계학원","category":"study"}]},{"lat":"37.208635924","long":"127.03469484","imageIndex":16,"items":[{"name":"중앙검정고시학원","tel":"031-267-0667","addr":"경기도 화성시 진안동 525-96번지 3층","indutype":"회원제형태 - 학원","category":"study"}]},{"lat":"37.216023486","long":"127.03803276","imageIndex":16,"items":[{"name":"진안중학교","tel":"031-221-4713","addr":"경기도 화성시 진안동 857-1번지 진안중학교","indutype":"학원 - 초중고교육기관","category":"study"}]},{"lat":"37.216743504","long":"127.04066943","imageIndex":16,"items":[{"name":"진안초등학교병설유치원[아이행복]","tel":"031-222-5488","addr":"경기도 화성시 진안동 915번지 진안초등학교","indutype":"학원 - 유치원","category":"study"}]},{"lat":"37.217717956","long":"127.0362309","imageIndex":16,"items":[{"name":"천사소리음악학원","tel":"031-222-1525","addr":"경기도 화성시 진안동 204-2번지 양떼교회 202호","indutype":"학원 - 예·체능계학원","category":"study"},{"name":"천사소리음악학원","tel":"031-222-1525","addr":"경기도 화성시 진안동 204-2번지 양떼교회 2층 202호","indutype":"학원 - 예·체능계학원","category":"study"}]},{"lat":"37.215574081","long":"127.03405558","imageIndex":16,"items":[{"name":"큰사랑어린이집[아이행복]","tel":"031-222-3288","addr":"경기도 화성시 진안동 571-2번지","indutype":"학원 - 유아원","category":"study"}]},{"lat":"37.214519449","long":"127.03560986","imageIndex":16,"items":[{"name":"하이파이브키즈스포츠","tel":"031-221-5598","addr":"경기도 화성시 진안동 431-13번지 4층","indutype":"학원 - 기타 교육기관","category":"study"}]},{"lat":"37.215580902","long":"127.04149128","imageIndex":16,"items":[{"name":"한별어린이집[아이행복]","tel":"031-235-7999","addr":"경기도 화성시 진안동 908번지 진안골마을주공10단지 1008동 101호","indutype":"학원 - 유아원","category":"study"}]},{"lat":"37.212942477","long":"127.03617247","imageIndex":16,"items":[{"name":"해솔어린이집[아이행복]","tel":"031-226-7333","addr":"경기도 화성시 진안동 494-17번지","indutype":"학원 - 유아원","category":"study"}]},{"lat":"37.208446602","long":"127.03507778","imageIndex":16,"items":[{"name":"화성뷰티실용전문학교","tel":"031-267-3550","addr":"경기도 화성시 진안동 527-16번지 금성빌딩 A동 301호","indutype":"학원 - 기능학원","category":"study"}]}]