[{"lat":"37.292877855","long":"127.04847782","imageIndex":13,"items":[{"name":"(주)에스바디핏 광교지점","tel":"031-240-3666","addr":"경기도 수원시 영통구 이의동 1329번지 광교 안효회관 12층 1201호, 1202호","indutype":"레저업소 - 헬스클럽","category":"leisure"},{"name":"광교당구클럽","tel":"031-240-3660","addr":"경기도 수원시 영통구 이의동 1329번지 602호","indutype":"레저업소 - 당 구 장","category":"leisure"},{"name":"에이스노래연습장","tel":"031-240-3663","addr":"경기도 수원시 영통구 이의동 1329번지 지하1층","indutype":"레저업소 - 노 래 방","category":"leisure"},{"name":"존프랭클수원주짓수던전","tel":"070-7420-1083","addr":"경기도 수원시 영통구 이의동 1329번지 안호빌딩 B1층 103호","indutype":"레저업소 - 헬스클럽","category":"leisure"},{"name":"피에스타PC방 수원광교점","tel":"","addr":"경기도 수원시 영통구 이의동 1329번지 6층 601호","indutype":"레저업소 - 기타레져업소","category":"leisure"}]},{"lat":"37.295874551","long":"127.0572766","imageIndex":13,"items":[{"name":"KIM TAE HOON","tel":"070-8624-1127","addr":"경기도 수원시 영통구 이의동 1296-4번지 6301동 1902호","indutype":"레저업소 - 골프연습장","category":"leisure"}]},{"lat":"37.290427648","long":"127.04694262","imageIndex":13,"items":[{"name":"SK 뷰 휘트니스","tel":"070-8116-9696","addr":"경기도 수원시 영통구 이의동 1349번지 광교더로프트 824호","indutype":"레저업소 - 헬스클럽","category":"leisure"},{"name":"일프로라인","tel":"","addr":"경기도 수원시 영통구 이의동 1349번지 광교더로프트 640호","indutype":"레저업소 - 헬스클럽","category":"leisure"}]},{"lat":"37.300736016","long":"127.04516656","imageIndex":13,"items":[{"name":"갤럭시PC","tel":"070-7738-1697","addr":"경기도 수원시 영통구 이의동 1248번지 601~605호","indutype":"레저업소 - 기타레져업소","category":"leisure"},{"name":"공브라더스 골프아카데미 광교점","tel":"031-212-2013","addr":"경기도 수원시 영통구 이의동 1248번지 리치프라자 4층 402호","indutype":"레저업소 - 골프연습장","category":"leisure"},{"name":"광교골프존 주식회사","tel":"031-211-0907","addr":"경기도 수원시 영통구 이의동 1248번지 리치프라자1 9층","indutype":"레저업소 - 스크린골프","category":"leisure"},{"name":"멜론노래연습장","tel":"031-214-7244","addr":"경기도 수원시 영통구 이의동 1248번지 리치프라자l,203,204호","indutype":"레저업소 - 노 래 방","category":"leisure"}]},{"lat":"37.298788759","long":"127.0479964","imageIndex":13,"items":[{"name":"고릴라짐","tel":"070-7420-6775","addr":"경기도 수원시 영통구 이의동 1245-5번지 지하 101호","indutype":"레저업소 - 헬스클럽","category":"leisure"}]},{"lat":"37.298042856","long":"127.04255972","imageIndex":13,"items":[{"name":"고릴라짐광교2호점","tel":"070-7420-5444","addr":"경기도 수원시 영통구 이의동 1275-7번지 5층 501호","indutype":"레저업소 - 헬스클럽","category":"leisure"}]},{"lat":"37.299204809","long":"127.04364308","imageIndex":13,"items":[{"name":"골프존 광교경기대점","tel":"031-213-0753","addr":"경기도 수원시 영통구 이의동 1258-4번지","indutype":"레저업소 - 스크린골프","category":"leisure"},{"name":"비식스 피트니스","tel":"031-217-9497","addr":"경기도 수원시 영통구 이의동 1258-4번지 6층","indutype":"레저업소 - 헬스클럽","category":"leisure"},{"name":"아이센스리그PC방 경기대점","tel":"070-8889-8931","addr":"경기도 수원시 영통구 이의동 1258-4번지 402호, 403호","indutype":"레저업소 - 기타레져업소","category":"leisure"},{"name":"옵티머스 당구클럽","tel":"070-7756-3949","addr":"경기도 수원시 영통구 이의동 1258-4번지 7층","indutype":"레저업소 - 당 구 장","category":"leisure"},{"name":"판타스틱코인노래연습장 경기대점","tel":"","addr":"경기도 수원시 영통구 이의동 1258-4번지 경기캠퍼스프라자 9층 904-905호","indutype":"레저업소 - 노 래 방","category":"leisure"}]},{"lat":"37.300816876","long":"127.0458095","imageIndex":13,"items":[{"name":"광교 진 락볼링장","tel":"","addr":"경기도 수원시 영통구 이의동 1248-2번지 501~506호","indutype":"레저업소 - 볼 링 장","category":"leisure"},{"name":"주식회사 홈런","tel":"031-214-7982","addr":"경기도 수원시 영통구 이의동 1248-2번지 리치프라자3 601동 605호","indutype":"레저업소 - 기타레져업소","category":"leisure"}]},{"lat":"37.292454128","long":"127.04910911","imageIndex":13,"items":[{"name":"광교S2복싱다이어트","tel":"031-216-1282","addr":"경기도 수원시 영통구 이의동 1330번지 광교스타일스오피스텔 308호","indutype":"레저업소 - 헬스클럽","category":"leisure"}]},{"lat":"37.298232018","long":"127.04271772","imageIndex":13,"items":[{"name":"광교당구장","tel":"031-333-1561","addr":"경기도 수원시 영통구 이의동 1275-4번지 광교CM타워 3층","indutype":"레저업소 - 당 구 장","category":"leisure"},{"name":"샹떼PC","tel":"","addr":"경기도 수원시 영통구 이의동 1275-4번지 2층","indutype":"레저업소 - 기타레져업소","category":"leisure"},{"name":"질러넷 노래연습장","tel":"031-242-3791","addr":"경기도 수원시 영통구 이의동 1275-4번지 4층","indutype":"레저업소 - 노 래 방","category":"leisure"}]},{"lat":"37.299844614","long":"127.04341785","imageIndex":13,"items":[{"name":"광교스크린골프","tel":"031-890-9993","addr":"경기도 수원시 영통구 이의동 1257-3번지 이스턴타워 403 ,404,405호","indutype":"레저업소 - 스크린골프","category":"leisure"}]},{"lat":"37.287750182","long":"127.05060607","imageIndex":13,"items":[{"name":"광교자연앤힐스테이트아파트입주자대표회의","tel":"031-213-1755","addr":"경기도 수원시 영통구 이의동 1344번지 자연앤힐스테이트 관리사무소","indutype":"레저업소 - 기타레져업소","category":"leisure"}]},{"lat":"37.300429205","long":"127.0464409","imageIndex":13,"items":[{"name":"넥스타즈 주식회사","tel":"070-4649-1101","addr":"경기도 수원시 영통구 이의동 1248-3번지 7층 717호","indutype":"레저업소 - 당 구 장","category":"leisure"}]},{"lat":"37.297898742","long":"127.04241303","imageIndex":13,"items":[{"name":"놀숲 수원 경기대점","tel":"031-212-7786","addr":"경기도 수원시 영통구 이의동 1275-8번지 4층","indutype":"레저업소 - 기타레져업소","category":"leisure"}]},{"lat":"37.292237196","long":"127.05083445","imageIndex":13,"items":[{"name":"디스트릭트원","tel":"031-213-9688","addr":"경기도 수원시 영통구 이의동 1325-3번지 에이타워 202호,203호","indutype":"레저업소 - 헬스클럽","category":"leisure"}]},{"lat":"37.291850743","long":"127.04833059","imageIndex":13,"items":[{"name":"마인드 필라테스","tel":"031-216-0089","addr":"경기도 수원시 영통구 이의동 1331번지 광교푸르지오월드마크 204동 2층2-05호","indutype":"레저업소 - 헬스클럽","category":"leisure"},{"name":"비전바디광교점","tel":"031-214-0892","addr":"경기도 수원시 영통구 이의동 1331번지 광교푸르지오 월드마크, 월드스퀘어 204동 1-080호","indutype":"레저업소 - 헬스클럽","category":"leisure"},{"name":"인디고피씨 광교중앙점","tel":"","addr":"경기도 수원시 영통구 이의동 1331번지 광교푸르지오 월드마크, 월드스퀘어 1-100,101,102호","indutype":"레저업소 - 기타레져업소","category":"leisure"},{"name":"펀퍼니아트/(주)펀퍼니에듀","tel":"031-895-5566","addr":"경기도 수원시 영통구 이의동 1331번지 광교푸르지오 월드마크, 월드스퀘어 204동 B층 47호","indutype":"레저업소 - 기타레져업소","category":"leisure"},{"name":"필라테스 인앤업","tel":"070-7737-6065","addr":"경기도 수원시 영통구 이의동 1331번지 광교푸르지오월드마크 상가 1층 113호","indutype":"레저업소 - 헬스클럽","category":"leisure"}]},{"lat":"37.29170549","long":"127.05108222","imageIndex":13,"items":[{"name":"모던필라테스 광교","tel":"031-215-0953","addr":"경기도 수원시 영통구 이의동 1325-6번지 광교대림프라자 202호","indutype":"레저업소 - 헬스클럽","category":"leisure"}]},{"lat":"37.286153132","long":"127.05586001","imageIndex":13,"items":[{"name":"밤필라테스","tel":"02-6340-5385","addr":"경기도 수원시 영통구 이의동 1338번지 광교센트럴푸르지오시티 506호","indutype":"레저업소 - 헬스클럽","category":"leisure"},{"name":"진 피티에스(JIN PTS)","tel":"","addr":"경기도 수원시 영통구 이의동 1338번지 광교센트럴푸르지오시티 A동 406호","indutype":"레저업소 - 헬스클럽","category":"leisure"}]},{"lat":"37.299871356","long":"127.0442525","imageIndex":13,"items":[{"name":"버디노래연습장","tel":"031-216-1443","addr":"경기도 수원시 영통구 이의동 1258-1번지 3층 303,304호","indutype":"레저업소 - 노 래 방","category":"leisure"}]},{"lat":"37.295072447","long":"127.05769331","imageIndex":13,"items":[{"name":"브레이크포인트(Breakpoint)","tel":"070-7764-2456","addr":"경기도 수원시 영통구 이의동 1298-3번지 1층","indutype":"레저업소 - 헬스클럽","category":"leisure"}]},{"lat":"37.289184098","long":"127.04730276","imageIndex":13,"items":[{"name":"뽀뚜르 필라테스","tel":"031-212-8778","addr":"경기도 수원시 영통구 이의동 1347-3번지 에듀프라자 2층 201호","indutype":"레저업소 - 헬스클럽","category":"leisure"},{"name":"조이점핑클럽 광교점","tel":"031-216-3366","addr":"경기도 수원시 영통구 이의동 1347-3번지 에듀프라자 4층 404호 ,405,406호","indutype":"레저업소 - 기타레져업소","category":"leisure"},{"name":"케어핏","tel":"031-212-7350","addr":"경기도 수원시 영통구 이의동 1347-3번지 에듀프라자 5층 501호","indutype":"레저업소 - 헬스클럽","category":"leisure"}]},{"lat":"37.300430096","long":"127.04394827","imageIndex":13,"items":[{"name":"숨인필라테스","tel":"031-8009-0355","addr":"경기도 수원시 영통구 이의동 1257번지 405호","indutype":"레저업소 - 헬스클럽","category":"leisure"},{"name":"헌터PC 수원광교점","tel":"","addr":"경기도 수원시 영통구 이의동 1257번지 501동 505호","indutype":"레저업소 - 기타레져업소","category":"leisure"}]},{"lat":"37.300286265","long":"127.04297822","imageIndex":13,"items":[{"name":"스크린명랑골프","tel":"031-214-0330","addr":"경기도 수원시 영통구 이의동 1256-1번지 1층","indutype":"레저업소 - 스크린골프","category":"leisure"},{"name":"에스지골프 광교점","tel":"031-212-0753","addr":"경기도 수원시 영통구 이의동 1256-1번지 2층","indutype":"레저업소 - 스크린골프","category":"leisure"}]},{"lat":"37.298655366","long":"127.04311269","imageIndex":13,"items":[{"name":"스토리PC 수원경기대점","tel":"070-9344-2556","addr":"경기도 수원시 영통구 이의동 1275-1번지 4층","indutype":"레저업소 - 기타레져업소","category":"leisure"},{"name":"유량할틈새","tel":"031-211-5221","addr":"경기도 수원시 영통구 이의동 1275-1번지 502호","indutype":"레저업소 - 기타레져업소","category":"leisure"}]},{"lat":"37.28937322","long":"127.04755097","imageIndex":13,"items":[{"name":"시그널헌터 광교중앙점","tel":"031-213-3077","addr":"경기도 수원시 영통구 이의동 1347-2번지 지-타워 203 ,204호","indutype":"레저업소 - 기타레져업소","category":"leisure"},{"name":"휘트니스 2.0","tel":"031-214-9620","addr":"경기도 수원시 영통구 이의동 1347-2번지 지-타워 5층 501호 502호","indutype":"레저업소 - 헬스클럽","category":"leisure"}]},{"lat":"37.298123743","long":"127.0431688","imageIndex":13,"items":[{"name":"앤노래연습장","tel":"031-216-1668","addr":"경기도 수원시 영통구 이의동 1274-5번지 지하","indutype":"레저업소 - 노 래 방","category":"leisure"}]},{"lat":"37.306814914","long":"127.05288535","imageIndex":13,"items":[{"name":"앤비 스포츠","tel":"02-383-3232","addr":"경기도 수원시 영통구 이의동 1226번지 관리동 1층 휘트니스 광교 웰빙타운","indutype":"레저업소 - 헬스클럽","category":"leisure"}]},{"lat":"37.292651957","long":"127.05011294","imageIndex":13,"items":[{"name":"에이원필라테스","tel":"031-8019-9006","addr":"경기도 수원시 영통구 이의동 1322-5번지 센트럴프라자 2층 217호","indutype":"레저업소 - 헬스클럽","category":"leisure"},{"name":"제이바디짐(송정민)","tel":"031-7723-7935","addr":"경기도 수원시 영통구 이의동 1322-5번지 센트럴프라자 3층 307호","indutype":"레저업소 - 헬스클럽","category":"leisure"},{"name":"필라테스더밸런스","tel":"031-212-4403","addr":"경기도 수원시 영통구 이의동 1322-5번지 센트럴프라자 4층 403호","indutype":"레저업소 - 헬스클럽","category":"leisure"}]},{"lat":"37.290597476","long":"127.05047254","imageIndex":13,"items":[{"name":"엔필라테스(Npilates)","tel":"031-256-2412","addr":"경기도 수원시 영통구 이의동 1332번지 광교C1호반베르디움 202동 4층 409호","indutype":"레저업소 - 헬스클럽","category":"leisure"},{"name":"필라테스더문","tel":"031-213-8589","addr":"경기도 수원시 영통구 이의동 1332번지 1층 C109호 광교아브뉴프랑","indutype":"레저업소 - 헬스클럽","category":"leisure"}]},{"lat":"37.285154553","long":"127.05225081","imageIndex":13,"items":[{"name":"엠플러스 필라테스","tel":"031-217-1117","addr":"경기도 수원시 영통구 이의동 1341-4번지 그린프라자 3층 301호","indutype":"레저업소 - 헬스클럽","category":"leisure"},{"name":"핏앤바디(FIT&BODY)","tel":"","addr":"경기도 수원시 영통구 이의동 1341-4번지 B1층 B01,B02호","indutype":"레저업소 - 헬스클럽","category":"leisure"}]},{"lat":"37.289076719","long":"127.04527281","imageIndex":13,"items":[{"name":"오(oh)!필라테스","tel":"","addr":"경기도 수원시 영통구 이의동 1352번지 에듀하임1309오피스텔 106동 302호","indutype":"레저업소 - 헬스클럽","category":"leisure"}]},{"lat":"37.292570419","long":"127.05121811","imageIndex":13,"items":[{"name":"원요가 앤 필라테스","tel":"031-202-1814","addr":"경기도 수원시 영통구 이의동 1325-1번지 202호 201호,202호","indutype":"레저업소 - 헬스클럽","category":"leisure"}]},{"lat":"37.303897907","long":"127.04708582","imageIndex":13,"items":[{"name":"웰빙골프","tel":"031-212-6401","addr":"경기도 수원시 영통구 이의동 1204-8번지 301동 302호","indutype":"레저업소 - 골프연습장","category":"leisure"}]},{"lat":"37.28957246","long":"127.04477689","imageIndex":13,"items":[{"name":"이공라인(20LINE)","tel":"031-214-2096","addr":"경기도 수원시 영통구 이의동 1352번지 에듀하임1309 102동 110호 109, 110호","indutype":"레저업소 - 헬스클럽","category":"leisure"}]},{"lat":"37.289850958","long":"127.0470325","imageIndex":13,"items":[{"name":"이지요가","tel":"031-214-5005","addr":"경기도 수원시 영통구 이의동 1348-3번지 이루리타워 701호","indutype":"레저업소 - 헬스클럽","category":"leisure"}]},{"lat":"37.29951135","long":"127.04307931","imageIndex":13,"items":[{"name":"인디고pc방 수원 경기대점","tel":"","addr":"경기도 수원시 영통구 이의동 1257-4번지 2층","indutype":"레저업소 - 기타레져업소","category":"leisure"}]},{"lat":"37.293569522","long":"127.05368859","imageIndex":13,"items":[{"name":"제이골프앤바디웍스","tel":"031-212-8311","addr":"경기도 수원시 영통구 이의동 1321-10번지 케이비엠하우스 1층 101호 지1층","indutype":"레저업소 - 골프연습장","category":"leisure"}]},{"lat":"37.306203555","long":"127.04961383","imageIndex":13,"items":[{"name":"제이트레이닝스튜디오","tel":"070-7527-9696","addr":"경기도 수원시 영통구 이의동 1212번지 호반가든하임 제상가동 제지1층 제106호","indutype":"레저업소 - 헬스클럽","category":"leisure"}]},{"lat":"37.297763633","long":"127.04227761","imageIndex":13,"items":[{"name":"존케이지 광교경기대점","tel":"02-6672-6755","addr":"경기도 수원시 영통구 이의동 1275-9번지 4층","indutype":"레저업소 - 당 구 장","category":"leisure"},{"name":"퀸즈노래연습장","tel":"031-211-5013","addr":"경기도 수원시 영통구 이의동 1275-9번지 5층","indutype":"레저업소 - 노 래 방","category":"leisure"}]},{"lat":"37.305042708","long":"127.04572167","imageIndex":13,"items":[{"name":"주식회사 필라테라스","tel":"031-212-8866","addr":"경기도 수원시 영통구 이의동 1204번지 202,203,204호","indutype":"레저업소 - 헬스클럽","category":"leisure"}]},{"lat":"37.288733564","long":"127.04735888","imageIndex":13,"items":[{"name":"지니온 필라테스","tel":"","addr":"경기도 수원시 영통구 이의동 1347-5번지 광교세븐스퀘어 402호","indutype":"레저업소 - 헬스클럽","category":"leisure"}]},{"lat":"37.285235261","long":"127.05316426","imageIndex":13,"items":[{"name":"커브스 광교클럽","tel":"031-214-6630","addr":"경기도 수원시 영통구 이의동 1341-1번지 에듀메디컬 2층 205호","indutype":"레저업소 - 헬스클럽","category":"leisure"}]},{"lat":"37.298482982","long":"127.04647361","imageIndex":13,"items":[{"name":"쿠타짐광교점","tel":"031-212-1166","addr":"경기도 수원시 영통구 이의동 1244번지 101호","indutype":"레저업소 - 헬스클럽","category":"leisure"}]},{"lat":"37.299708719","long":"127.04552691","imageIndex":13,"items":[{"name":"크로스핏도전","tel":"031-212-5053","addr":"경기도 수원시 영통구 이의동 1259-1번지 지층","indutype":"레저업소 - 헬스클럽","category":"leisure"}]},{"lat":"37.307007655","long":"127.04369241","imageIndex":13,"items":[{"name":"클럽무브먼트","tel":"031-264-9300","addr":"경기도 수원시 영통구 이의동 1184번지 호반베르디움 휘트니센터","indutype":"레저업소 - 헬스클럽","category":"leisure"}]},{"lat":"37.299538083","long":"127.04394779","imageIndex":13,"items":[{"name":"탑노래연습장","tel":"","addr":"경기도 수원시 영통구 이의동 1258-3번지 오피스텔 205,206호","indutype":"레저업소 - 노 래 방","category":"leisure"}]},{"lat":"37.304321379","long":"127.04710863","imageIndex":13,"items":[{"name":"파워점핑줄넘기","tel":"031-000-0000","addr":"경기도 수원시 영통구 이의동 1202-3번지 4층 401,402호","indutype":"레저업소 - 기타레져업소","category":"leisure"}]},{"lat":"37.284704157","long":"127.0519686","imageIndex":13,"items":[{"name":"퍼펙트점프","tel":"031-212-7999","addr":"경기도 수원시 영통구 이의동 1369-1번지 광교프라자 4층 404호","indutype":"레저업소 - 헬스클럽","category":"leisure"}]},{"lat":"37.286954208","long":"127.0576987","imageIndex":13,"items":[{"name":"필라밍고","tel":"","addr":"경기도 수원시 영통구 이의동 1336-1번지 광교엘포트아이파크 18층 4호","indutype":"레저업소 - 헬스클럽","category":"leisure"},{"name":"필라밍고","tel":"","addr":"경기도 수원시 영통구 이의동 1336-1번지 광교엘포트아이파크 18층 4호","indutype":"레저업소 - 헬스클럽","category":"leisure"}]},{"lat":"37.304538045","long":"127.04596953","imageIndex":13,"items":[{"name":"필라테스 플래넷(pilates planet)","tel":"","addr":"경기도 수원시 영통구 이의동 1204-3번지 2층","indutype":"레저업소 - 헬스클럽","category":"leisure"}]}]