[{"lat":"36.98354727","long":"126.92227062","imageIndex":7,"items":[{"name":"OK마트","tel":"","addr":"경기도 평택시 안중읍 현화리 843-1번지 주공아파트","indutype":"소매업 - 슈퍼","category":"mart"}]},{"lat":"36.980435646","long":"126.91807334","imageIndex":7,"items":[{"name":"늘푸른무지개마트","tel":"031-684-0596","addr":"경기도 평택시 안중읍 현화리 828-1번지 늘푸른마을","indutype":"소매업 - 슈퍼","category":"mart"}]},{"lat":"36.979385748","long":"126.92440896","imageIndex":7,"items":[{"name":"무지개마트동신점","tel":"031-684-0600","addr":"경기도 평택시 안중읍 현화리 839-1번지 동신단지 상가 104호","indutype":"유통업 영리 - 슈퍼마켓","category":"mart"}]},{"lat":"36.985802691","long":"126.92641293","imageIndex":7,"items":[{"name":"성심슈퍼","tel":"031-684-2345","addr":"경기도 평택시 안중읍 현화리 56번지 영광빌 1층","indutype":"유통업 영리 - 슈퍼마켓","category":"mart"}]},{"lat":"36.978608272","long":"126.92063608","imageIndex":7,"items":[{"name":"애플트리","tel":"031-684-5585","addr":"경기도 평택시 안중읍 현화리 833-2번지 세연프라자 117호","indutype":"유통업 영리 - 슈퍼마켓","category":"mart"}]},{"lat":"36.988633512","long":"126.9154695","imageIndex":7,"items":[{"name":"에이치(H)마트 안중점","tel":"031-686-9933","addr":"경기도 평택시 안중읍 현화리 634-5번지 상가","indutype":"유통업 영리 - 슈퍼마켓","category":"mart"}]},{"lat":"36.982380319","long":"126.91580237","imageIndex":7,"items":[{"name":"율마트","tel":"031-618-7174","addr":"경기도 평택시 안중읍 현화리 497-8번지","indutype":"소매업 - 슈퍼","category":"mart"}]},{"lat":"36.984880802","long":"126.92219059","imageIndex":7,"items":[{"name":"정마트","tel":"031-681-8988","addr":"경기도 평택시 안중읍 현화리 240-3번지","indutype":"유통업 영리 - 슈퍼마켓","category":"mart"},{"name":"정마트","tel":"031-683-3579","addr":"경기도 평택시 안중읍 현화리 240-3번지","indutype":"소매업 - 슈퍼","category":"mart"}]},{"lat":"36.978880181","long":"126.92296065","imageIndex":7,"items":[{"name":"평택두레생협 안중점","tel":"031-683-8160","addr":"경기도 평택시 안중읍 현화리 836-4번지","indutype":"도소매업 - 슈퍼","category":"mart"}]},{"lat":"36.979302616","long":"126.92138783","imageIndex":7,"items":[{"name":"훼미리마트안중현화점","tel":"031-681-3138","addr":"경기도 평택시 안중읍 현화리 834-1번지 메트로프라자원 105호","indutype":"유통업 영리 - 슈퍼마켓","category":"mart"}]}]