[{"lat":"37.204720747","long":"127.35475356","imageIndex":17,"items":[{"name":"(주)자이언트북","tel":"070-7757-1718","addr":"경기도 이천시 마장면 해월리 33번지 청강문화산업대학","indutype":"용역 서비스 - 종합용역","category":"other"},{"name":"CCRC","tel":"031-639-5894","addr":"경기도 이천시 마장면 해월리 33번지 청강문화산업대학","indutype":"문화.취미 - 민예·공예품","category":"other"}]},{"lat":"37.215194382","long":"127.35352913","imageIndex":17,"items":[{"name":"YG레포츠","tel":"031-638-1865","addr":"경기도 이천시 마장면 해월리 196-1번지","indutype":"레져용품 - 스포츠·레져용품","category":"other"}]},{"lat":"37.216802606","long":"127.3489737","imageIndex":17,"items":[{"name":"e스키","tel":"031-637-0331","addr":"경기도 이천시 마장면 해월리 258번지","indutype":"레져용품 - 스포츠·레져용품","category":"other"},{"name":"이지레포츠","tel":"031-638-6384","addr":"경기도 이천시 마장면 해월리 258번지","indutype":"레져용품 - 스포츠·레져용품","category":"other"}]},{"lat":"37.215858609","long":"127.35133529","imageIndex":17,"items":[{"name":"눈사람","tel":"031-636-4030","addr":"경기도 이천시 마장면 해월리 306-13번지","indutype":"레져용품 - 스포츠·레져용품","category":"other"}]},{"lat":"37.212358568","long":"127.35875454","imageIndex":17,"items":[{"name":"더블유(W)PC방","tel":"031-638-1056","addr":"경기도 이천시 마장면 해월리 122-10번지","indutype":"문화.취미 - 문화취미기타","category":"other"}]},{"lat":"37.213885314","long":"127.3604178","imageIndex":17,"items":[{"name":"더알","tel":"070-7787-3028","addr":"경기도 이천시 마장면 해월리 79-2번지","indutype":"레져용품 - 스포츠·레져용품","category":"other"},{"name":"알인더스트리","tel":"070-7787-3028","addr":"경기도 이천시 마장면 해월리 79-2","indutype":"레져용품 - 스포츠·레져용품","category":"other"}]},{"lat":"37.214777995","long":"127.35719993","imageIndex":17,"items":[{"name":"동우냉열","tel":"031-638-1976","addr":"경기도 이천시 마장면 해월리 109번지","indutype":"전기제품 - 냉열기기","category":"other"}]},{"lat":"37.216363046","long":"127.34830699","imageIndex":17,"items":[{"name":"모닝레포츠","tel":"031-637-7310","addr":"경기도 이천시 마장면 해월리 222-2번지","indutype":"레져용품 - 스포츠·레져용품","category":"other"}]},{"lat":"37.217662386","long":"127.34767072","imageIndex":17,"items":[{"name":"미소하우스","tel":"031-638-2979","addr":"경기도 이천시 마장면 해월리 265-2","indutype":"용역 서비스 - 부동산 중개·임대","category":"other"}]},{"lat":"37.215749239","long":"127.35480477","imageIndex":17,"items":[{"name":"법경","tel":"031-637-9241","addr":"경기도 이천시 마장면 해월리 197-21","indutype":"용역 서비스 - 부동산 중개·임대","category":"other"}]},{"lat":"37.215414322","long":"127.3522796","imageIndex":17,"items":[{"name":"별","tel":"","addr":"경기도 이천시 마장면 해월리 205-55번지 102호","indutype":"레져용품 - 스포츠·레져용품","category":"other"},{"name":"샵스키","tel":"031-637-7553","addr":"경기도 이천시 마장면 해월리 205-55번지 1층 101호","indutype":"레져용품 - 스포츠·레져용품","category":"other"},{"name":"지산리조트 스키장 알파인","tel":"031-637-8626","addr":"경기도 이천시 마장면 해월리 205-55번지 102호","indutype":"레져용품 - 스포츠·레져용품","category":"other"},{"name":"지산리조트 스키장 알파인","tel":"031-637-8626","addr":"경기도 이천시 마장면 해월리 205-55번지 102호","indutype":"레져용품 - 스포츠·레져용품","category":"other"}]},{"lat":"37.216031425","long":"127.35078404","imageIndex":17,"items":[{"name":"보드박스","tel":"031-637-7553","addr":"경기도 이천시 마장면 해월리 306-4번지","indutype":"레져용품 - 스포츠·레져용품","category":"other"},{"name":"온리스키","tel":"031-638-3644","addr":"경기도 이천시 마장면 해월리 306-4번지","indutype":"레져용품 - 스포츠·레져용품","category":"other"},{"name":"지산화이트","tel":"031-637-4585","addr":"경기도 이천시 마장면 해월리 306-4번지","indutype":"레져용품 - 스포츠·레져용품","category":"other"}]},{"lat":"37.215613775","long":"127.35186368","imageIndex":17,"items":[{"name":"비에이치에스","tel":"031-638-8495","addr":"경기도 이천시 마장면 해월리 205번지","indutype":"레져용품 - 스포츠·레져용품","category":"other"},{"name":"윈터매니아","tel":"031-638-7405","addr":"경기도 이천시 마장면 해월리 205번지","indutype":"레져용품 - 스포츠·레져용품","category":"other"}]},{"lat":"37.213413302","long":"127.35857924","imageIndex":17,"items":[{"name":"세븐스키","tel":"031-637-7787","addr":"경기도 이천시 마장면 해월리 84-1","indutype":"레져용품 - 스포츠·레져용품","category":"other"}]},{"lat":"37.213419542","long":"127.35649509","imageIndex":17,"items":[{"name":"스키라인","tel":"031-637-0308","addr":"경기도 이천시 마장면 해월리 116번지","indutype":"레져용품 - 스포츠·레져용품","category":"other"}]},{"lat":"37.218115418","long":"127.34680526","imageIndex":17,"items":[{"name":"스키렌탈","tel":"031-637-1133","addr":"경기도 이천시 마장면 해월리 267번지","indutype":"용역 서비스 - 기타용역서비스","category":"other"},{"name":"에스엔비","tel":"031-637-1133","addr":"경기도 이천시 마장면 해월리 267번지","indutype":"레져용품 - 스포츠·레져용품","category":"other"}]},{"lat":"37.216946209","long":"127.34916589","imageIndex":17,"items":[{"name":"스키뱅크","tel":"031-637-0456","addr":"경기도 이천시 마장면 해월리 257번지","indutype":"레져용품 - 스포츠·레져용품","category":"other"}]},{"lat":"37.216304276","long":"127.34991779","imageIndex":17,"items":[{"name":"스키피아","tel":"031-638-2292","addr":"경기도 이천시 마장면 해월리 256-3번지","indutype":"레져용품 - 스포츠·레져용품","category":"other"}]},{"lat":"37.209635861","long":"127.35928249","imageIndex":17,"items":[{"name":"씨유이천청강대점","tel":"031-638-0659","addr":"경기도 이천시 마장면 해월리 135-2번지 1층","indutype":"유통업 영리 - 편 의 점","category":"other"}]},{"lat":"37.205030158","long":"127.35066596","imageIndex":17,"items":[{"name":"알파문구 청강대점","tel":"031-637-6965","addr":"경기도 이천시 마장면 해월리 산 37","indutype":"서적문구 - 문구용품","category":"other"}]},{"lat":"37.214114877","long":"127.36197358","imageIndex":17,"items":[{"name":"엑시(XEE)","tel":"031-637-4054","addr":"경기도 이천시 마장면 해월리 71-2번지","indutype":"레져용품 - 스포츠·레져용품","category":"other"}]},{"lat":"37.213722961","long":"127.36047336","imageIndex":17,"items":[{"name":"오늘은눈","tel":"031-637-9692","addr":"경기도 이천시 마장면 해월리 79-8번지","indutype":"레져용품 - 스포츠·레져용품","category":"other"}]},{"lat":"37.215388831","long":"127.3548031","imageIndex":17,"items":[{"name":"원룸임대","tel":"031-637-4585","addr":"경기도 이천시 마장면 해월리 197-23번지","indutype":"용역 서비스 - 부동산 중개·임대","category":"other"}]},{"lat":"37.214417268","long":"127.35428035","imageIndex":17,"items":[{"name":"위슬러","tel":"031-637-6632","addr":"경기도 이천시 마장면 해월리 200-6","indutype":"레져용품 - 스포츠·레져용품","category":"other"}]},{"lat":"37.215777106","long":"127.35452325","imageIndex":17,"items":[{"name":"일신원룸","tel":"031-638-0517","addr":"경기도 이천시 마장면 해월리 197-4","indutype":"용역 서비스 - 부동산 중개·임대","category":"other"}]},{"lat":"37.216750221","long":"127.35147459","imageIndex":17,"items":[{"name":"전원산장","tel":"031-637-3114","addr":"경기도 이천시 마장면 해월리 306-11번지","indutype":"용역 서비스 - 부동산 중개·임대","category":"other"}]},{"lat":"37.214553022","long":"127.35407819","imageIndex":17,"items":[{"name":"지산 준스키","tel":"031-1111-111","addr":"경기도 이천시 마장면 해월리 199-2번지 1층","indutype":"레져용품 - 스포츠·레져용품","category":"other"}]},{"lat":"37.21594043","long":"127.35108781","imageIndex":17,"items":[{"name":"지산강습센터","tel":"031-638-2550","addr":"경기도 이천시 마장면 해월리 306-5번지 1~3호","indutype":"레져용품 - 스포츠·레져용품","category":"other"},{"name":"투맨레포츠","tel":"031-638-8831","addr":"경기도 이천시 마장면 해월리 306-5번지 1층","indutype":"레져용품 - 스포츠·레져용품","category":"other"}]},{"lat":"37.213635203","long":"127.3596956","imageIndex":17,"items":[{"name":"지산리조트 스노우랜드","tel":"031-637-2207","addr":"경기도 이천시 마장면 해월리 80-6번지","indutype":"레져용품 - 스포츠·레져용품","category":"other"}]},{"lat":"37.214329789","long":"127.36241397","imageIndex":17,"items":[{"name":"지산슈퍼맨","tel":"070-4895-4120","addr":"경기도 이천시 마장면 해월리 68-2번지","indutype":"레져용품 - 스포츠·레져용품","category":"other"}]},{"lat":"37.213838085","long":"127.36113859","imageIndex":17,"items":[{"name":"지산캠프","tel":"031-631-3293","addr":"경기도 이천시 마장면 해월리 70-1번지","indutype":"용역 서비스 - 기타용역서비스","category":"other"},{"name":"지산캠프","tel":"031-631-3293","addr":"경기도 이천시 마장면 해월리 70-1번지","indutype":"레져용품 - 스포츠·레져용품","category":"other"}]},{"lat":"37.213917745","long":"127.36161214","imageIndex":17,"items":[{"name":"지산탑레포츠","tel":"031-638-2176","addr":"경기도 이천시 마장면 해월리 70-11번지","indutype":"레져용품 - 스포츠·레져용품","category":"other"}]},{"lat":"37.204199619","long":"127.36028199","imageIndex":17,"items":[{"name":"지산편의점","tel":"031-322-7611","addr":"경기도 이천시 마장면 해월리 28-7번지","indutype":"유통업 영리 - 편 의 점","category":"other"}]},{"lat":"37.213474274","long":"127.35927801","imageIndex":17,"items":[{"name":"케이팝레포츠","tel":"","addr":"경기도 이천시 마장면 해월리 82-1번지","indutype":"레져용품 - 스포츠·레져용품","category":"other"},{"name":"탑보드","tel":"031-638-9182","addr":"경기도 이천시 마장면 해월리 82-1번지","indutype":"레져용품 - 스포츠·레져용품","category":"other"}]},{"lat":"37.21716479","long":"127.3389708","imageIndex":17,"items":[{"name":"편의점","tel":"031-637-4794","addr":"경기도 이천시 마장면 해월리 산 28-7 지산리조트내렌탈편의점","indutype":"유통업 영리 - 편 의 점","category":"other"}]},{"lat":"37.216473289","long":"127.35066214","imageIndex":17,"items":[{"name":"편의점","tel":"031-637-3114","addr":"경기도 이천시 마장면 해월리 306-21","indutype":"유통업 영리 - 편 의 점","category":"other"}]}]