[{"lat":"37.060238404","long":"127.06639483","imageIndex":13,"items":[{"name":"1001안경콘택트","tel":"031-611-9419","addr":"경기도 평택시 이충동 664-8번지 이충센타프라자 103호","indutype":"보건위생 - 안경","category":"beauty"},{"name":"드라마안경원","tel":"031-611-0103","addr":"경기도 평택시 이충동 664-8번지 이충센타프라자 111호","indutype":"보건위생 - 안경","category":"beauty"},{"name":"보타니","tel":"031-663-2250","addr":"경기도 평택시 이충동 664-8번지 이충센타프라자 202호","indutype":"보건위생 - 이용원","category":"beauty"},{"name":"최경애헤어","tel":"031-662-3306","addr":"경기도 평택시 이충동 664-8번지 이충센터프라자 2층 204호","indutype":"보건위생 - 미용원","category":"beauty"},{"name":"컷트나라이충점","tel":"031-662-6012","addr":"경기도 평택시 이충동 664-8번지 이충센타프라자 106호","indutype":"보건위생 - 미용원","category":"beauty"}]},{"lat":"37.051602006","long":"127.05673082","imageIndex":13,"items":[{"name":"BODA안경","tel":"031-611-1598","addr":"경기도 평택시 이충동 612-1번지","indutype":"보건위생 - 안경","category":"beauty"}]},{"lat":"37.053735396","long":"127.06122923","imageIndex":13,"items":[{"name":"그리다","tel":"","addr":"경기도 평택시 이충동 607번지 평택장당5차우미이노스빌 상가동 103호","indutype":"보건위생 - 피부미용실","category":"beauty"},{"name":"헤어짱","tel":"031-663-6366","addr":"경기도 평택시 이충동 607번지 장당5차우미이노스빌 상가 102호","indutype":"보건위생 - 미용원","category":"beauty"},{"name":"헤어짱","tel":"","addr":"경기도 평택시 이충동 607번지 평택장당5차우미이노스빌 (우미 5차 상가), 102호","indutype":"서비스업 - 이미용","category":"beauty"}]},{"lat":"37.059788126","long":"127.06592225","imageIndex":13,"items":[{"name":"네일에반하다","tel":"031-000-0000","addr":"경기도 평택시 이충동 667번지 리치플러스 102호","indutype":"보건위생 - 피부미용실","category":"beauty"},{"name":"미라클종합화장품","tel":"","addr":"경기도 평택시 이충동 667번지 리치플러스 1층 117호","indutype":"보건위생 - 화장품","category":"beauty"},{"name":"이슈헤어","tel":"031-663-6445","addr":"경기도 평택시 이충동 667번지 리치플러스 108호","indutype":"보건위생 - 미용원","category":"beauty"}]},{"lat":"37.057431094","long":"127.05842136","imageIndex":13,"items":[{"name":"네일엔젤","tel":"","addr":"경기도 평택시 이충동 453-1번지 1층","indutype":"보건위생 - 피부미용실","category":"beauty"},{"name":"헤어휴(송탄2호점)","tel":"031-667-6027","addr":"경기도 평택시 이충동 453-1번지","indutype":"보건위생 - 미용원","category":"beauty"}]},{"lat":"37.059959737","long":"127.06514661","imageIndex":13,"items":[{"name":"눈편한안경원","tel":"031-665-2008","addr":"경기도 평택시 이충동 664-2번지 예림프라자1층102,130,104","indutype":"보건위생 - 안경","category":"beauty"},{"name":"알즈너힐러대리점","tel":"","addr":"경기도 평택시 이충동 664-2번지 예림프라자 101호","indutype":"보건위생 - 의료용품","category":"beauty"},{"name":"엔젤","tel":"070-6958-5533","addr":"경기도 평택시 이충동 664-2번지 3층 301,302호","indutype":"보건위생 - 미용재료","category":"beauty"}]},{"lat":"37.054845792","long":"127.05681181","imageIndex":13,"items":[{"name":"뉴헤어플러스","tel":"031-663-2612","addr":"경기도 평택시 이충동 491번지","indutype":"서비스업 - 미용","category":"beauty"}]},{"lat":"37.053711214","long":"127.05511343","imageIndex":13,"items":[{"name":"두꺼비미용실","tel":"031-664-2085","addr":"경기도 평택시 이충동 497-3번지","indutype":"보건위생 - 미용원","category":"beauty"}]},{"lat":"37.05942757","long":"127.0661693","imageIndex":13,"items":[{"name":"라파상담&쉼터","tel":"070-7543-8292","addr":"경기도 평택시 이충동 668-1번지 보람플러스I 201호","indutype":"보건위생 - 기타대인서비스","category":"beauty"},{"name":"제이엘뷰티","tel":"031-8003-3529","addr":"경기도 평택시 이충동 668-1번지 보람플러스I 104호 일부호","indutype":"보건위생 - 피부미용실","category":"beauty"}]},{"lat":"37.051629513","long":"127.0556741","imageIndex":13,"items":[{"name":"럭셔리뷰티 평택 고덕점","tel":"031-665-6223","addr":"경기도 평택시 이충동 514-26번지 가온프라자 3층 302호","indutype":"보건위생 - 화장품","category":"beauty"},{"name":"미리내스칼프","tel":"031-663-3545","addr":"경기도 평택시 이충동 514-26번지 가온프라자 301호","indutype":"보건위생 - 미용원","category":"beauty"},{"name":"미리내스칼프","tel":"","addr":"경기도 평택시 이충동 514-26번지 가온프라자 301호","indutype":"서비스업 - 이미용","category":"beauty"},{"name":"해쥬뷰티","tel":"","addr":"경기도 평택시 이충동 514-26번지 301호 내","indutype":"보건위생 - 화장품","category":"beauty"}]},{"lat":"37.051512078","long":"127.05633729","imageIndex":13,"items":[{"name":"맨즈헤어(Men'z hair)","tel":"031-691-8841","addr":"경기도 평택시 이충동 611-2번지 효명타운 1층 102호","indutype":"보건위생 - 미용원","category":"beauty"},{"name":"순네일","tel":"031-668-9007","addr":"경기도 평택시 이충동 611-2번지 효명타운 103호","indutype":"서비스업 - 미용","category":"beauty"},{"name":"순네일","tel":"02-1577-0000","addr":"경기도 평택시 이충동 611-2번지 효명타운 103호 일부호","indutype":"보건위생 - 피부미용실","category":"beauty"}]},{"lat":"37.060265586","long":"127.06611378","imageIndex":13,"items":[{"name":"머리깍는사람들","tel":"031-321-6886","addr":"경기도 평택시 이충동 664-7번지 하이존 103호","indutype":"보건위생 - 미용원","category":"beauty"},{"name":"머리깎는사람들","tel":"031-668-8747","addr":"경기도 평택시 이충동 664-7번지","indutype":"서비스업 - 미용","category":"beauty"},{"name":"황실아로마","tel":"031-611-5278","addr":"경기도 평택시 이충동 664-7번지 하이존1 203호","indutype":"보건위생 - 피부미용실","category":"beauty"}]},{"lat":"37.063760385","long":"127.06853408","imageIndex":13,"items":[{"name":"머리느낌","tel":"031-666-3525","addr":"경기도 평택시 이충동 591-2번지 건영 상가 108호","indutype":"보건위생 - 미용원","category":"beauty"},{"name":"머리느낌","tel":"031-662-3701","addr":"경기도 평택시 이충동 591-2번지 LIG아파트","indutype":"서비스업 - 미용","category":"beauty"}]},{"lat":"37.057124288","long":"127.05936553","imageIndex":13,"items":[{"name":"머리사랑","tel":"031-662-1305","addr":"경기도 평택시 이충동 447-5번지","indutype":"서비스업 - 미용","category":"beauty"},{"name":"머리사랑","tel":"031-665-4572","addr":"경기도 평택시 이충동 447-5번지","indutype":"보건위생 - 미용원","category":"beauty"},{"name":"킹아로마","tel":"031-000-0000","addr":"경기도 평택시 이충동 447-5번지","indutype":"보건위생 - 화장품","category":"beauty"}]},{"lat":"37.051962594","long":"127.05637134","imageIndex":13,"items":[{"name":"메트로헤어","tel":"031-666-6443","addr":"경기도 평택시 이충동 609-2번지","indutype":"보건위생 - 미용원","category":"beauty"},{"name":"수아로마","tel":"","addr":"경기도 평택시 이충동 609-2번지 금강프라자 303호","indutype":"보건위생 - 화장품","category":"beauty"},{"name":"채움네일아트","tel":"031-663-4155","addr":"경기도 평택시 이충동 609-2번지 (2금강프라자109호)","indutype":"보건위생 - 피부미용실","category":"beauty"}]},{"lat":"37.056684109","long":"127.05647583","imageIndex":13,"items":[{"name":"명품","tel":"","addr":"경기도 평택시 이충동 463-9번지","indutype":"보건위생 - 화장품","category":"beauty"},{"name":"스크린 딸리아씰썩세소 정암점","tel":"031-664-5568","addr":"경기도 평택시 이충동 463-9번지 1층","indutype":"보건위생 - 미용원","category":"beauty"}]},{"lat":"37.055098251","long":"127.05645223","imageIndex":13,"items":[{"name":"몽네일","tel":"031-666-9122","addr":"경기도 평택시 이충동 495-1번지 102호","indutype":"보건위생 - 피부미용실","category":"beauty"}]},{"lat":"37.051683315","long":"127.05625872","imageIndex":13,"items":[{"name":"뮤즈헤어","tel":"031-668-7967","addr":"경기도 평택시 이충동 611-1번지 중앙프라자 105호","indutype":"보건위생 - 미용원","category":"beauty"}]},{"lat":"37.052016244","long":"127.05728197","imageIndex":13,"items":[{"name":"미담","tel":"","addr":"경기도 평택시 이충동 610-1번지 1층 104호","indutype":"보건위생 - 화장품","category":"beauty"},{"name":"부티나피부관리실","tel":"031-662-6833","addr":"경기도 평택시 이충동 610-1번지","indutype":"서비스업 - 미용","category":"beauty"}]},{"lat":"37.057572436","long":"127.06416654","imageIndex":13,"items":[{"name":"미채","tel":"031-667-6669","addr":"경기도 평택시 이충동 649-5번지 1층","indutype":"보건위생 - 피부미용실","category":"beauty"}]},{"lat":"37.05595798","long":"127.06711079","imageIndex":13,"items":[{"name":"바른체형연구소","tel":"031-667-0617","addr":"경기도 평택시 이충동 370-10번지 2층","indutype":"보건위생 - 기타대인서비스","category":"beauty"}]},{"lat":"37.056629651","long":"127.05734148","imageIndex":13,"items":[{"name":"밝은안경원","tel":"031-663-7077","addr":"경기도 평택시 이충동 461-3","indutype":"보건위생 - 안경","category":"beauty"}]},{"lat":"37.057260409","long":"127.0573082","imageIndex":13,"items":[{"name":"베스트프리스타일","tel":"031-663-0205","addr":"경기도 평택시 이충동 458-3번지","indutype":"보건위생 - 미용원","category":"beauty"}]},{"lat":"37.059870653","long":"127.06316775","imageIndex":13,"items":[{"name":"보스헤어(BOSS헤어)","tel":"031-663-0447","addr":"경기도 평택시 이충동 430-20번지 1층","indutype":"보건위생 - 미용원","category":"beauty"}]},{"lat":"37.054954454","long":"127.05562019","imageIndex":13,"items":[{"name":"뷰티콜라겐","tel":"031-663-9009","addr":"경기도 평택시 이충동 495-7번지","indutype":"보건위생 - 화장품","category":"beauty"},{"name":"아담헤어2","tel":"031-666-3754","addr":"경기도 평택시 이충동 495-7번지","indutype":"보건위생 - 미용원","category":"beauty"}]},{"lat":"37.056818135","long":"127.05892684","imageIndex":13,"items":[{"name":"블라썸스킨케어","tel":"031-668-9206","addr":"경기도 평택시 이충동 451-7번지 3층 302호","indutype":"보건위생 - 피부미용실","category":"beauty"}]},{"lat":"37.054711068","long":"127.05584487","imageIndex":13,"items":[{"name":"세이프존평택지사","tel":"031-666-6864","addr":"경기도 평택시 이충동 495-26번지 1층","indutype":"보건위생 - 미용원","category":"beauty"}]},{"lat":"37.060876335","long":"127.06971214","imageIndex":13,"items":[{"name":"소인코리아","tel":"031-662-7454","addr":"경기도 평택시 이충동 688번지 반지마을주공1단지 101동 703호","indutype":"보건위생 - 미용재료","category":"beauty"}]},{"lat":"37.056960084","long":"127.06344651","imageIndex":13,"items":[{"name":"속눈썹에반하다","tel":"","addr":"경기도 평택시 이충동 647-1번지 지층","indutype":"보건위생 - 피부미용실","category":"beauty"}]},{"lat":"37.060121649","long":"127.06567517","imageIndex":13,"items":[{"name":"수기","tel":"031-668-5458","addr":"경기도 평택시 이충동 664-5번지 이충월드프라자 2층 201호","indutype":"보건위생 - 화장품","category":"beauty"},{"name":"해솔 아동청소년발달센터","tel":"031-668-7581","addr":"경기도 평택시 이충동 664-5번지 이충동월프라자 2층 202호","indutype":"보건위생 - 기타대인서비스","category":"beauty"}]},{"lat":"37.056484822","long":"127.05875795","imageIndex":13,"items":[{"name":"스마트헤어","tel":"031-667-0088","addr":"경기도 평택시 이충동 451-12번지 1층","indutype":"보건위생 - 미용원","category":"beauty"}]},{"lat":"37.053178484","long":"127.05756386","imageIndex":13,"items":[{"name":"씨에스남성헤어","tel":"031-665-0507","addr":"경기도 평택시 이충동 381번지 현대상가 206호","indutype":"보건위생 - 미용원","category":"beauty"}]},{"lat":"37.059733677","long":"127.06664176","imageIndex":13,"items":[{"name":"아도프로헤어","tel":"031-665-4655","addr":"경기도 평택시 이충동 668-3번지 뜨란프라자 2층 202호","indutype":"보건위생 - 미용원","category":"beauty"},{"name":"제이케이헤어","tel":"031-611-1226","addr":"경기도 평택시 이충동 668-3번지 뜨란프라자 107호","indutype":"보건위생 - 미용원","category":"beauty"},{"name":"탑네일","tel":"031-611-1270","addr":"경기도 평택시 이충동 668-3번지 뜨란프라자 2층 207호","indutype":"보건위생 - 피부미용실","category":"beauty"},{"name":"탑헤어","tel":"031-611-1270","addr":"경기도 평택시 이충동 668-3번지 뜨란프라자 2층 207호","indutype":"보건위생 - 미용원","category":"beauty"},{"name":"탑헤어","tel":"031-663-9599","addr":"경기도 평택시 이충동 668-3번지 뜨란프라자 207호","indutype":"서비스업 - 미용","category":"beauty"}]},{"lat":"37.059707499","long":"127.06503397","imageIndex":13,"items":[{"name":"아모레 카운셀러","tel":"031-611-2940","addr":"경기도 평택시 이충동 664-1번지 명성빌딩 510호","indutype":"보건위생 - 화장품","category":"beauty"},{"name":"아모레 카운셀러","tel":"031-611-2940","addr":"경기도 평택시 이충동 664-1번지 명성빌딩 510호","indutype":"보건위생 - 화장품","category":"beauty"},{"name":"아모레 카운셀러","tel":"031-611-2940","addr":"경기도 평택시 이충동 664-1번지 명성빌딩 510호","indutype":"보건위생 - 화장품","category":"beauty"},{"name":"아모레 카운셀러","tel":"031-611-2940","addr":"경기도 평택시 이충동 664-1번지 명성빌딩 510호","indutype":"보건위생 - 화장품","category":"beauty"},{"name":"아모레 카운셀러","tel":"031-611-2940","addr":"경기도 평택시 이충동 664-1번지 명성빌딩 510호","indutype":"보건위생 - 화장품","category":"beauty"},{"name":"아모레카운셀러","tel":"031-611-2940","addr":"경기도 평택시 이충동 664-1번지 명성빌딩 510호","indutype":"보건위생 - 화장품","category":"beauty"},{"name":"아모레카운셀러","tel":"031-611-2940","addr":"경기도 평택시 이충동 664-1번지 명성빌딩 510호","indutype":"보건위생 - 화장품","category":"beauty"},{"name":"아모레카운셀러","tel":"031-611-2940","addr":"경기도 평택시 이충동 664-1번지 명성빌딩 510호","indutype":"보건위생 - 화장품","category":"beauty"},{"name":"아모레카운셀러","tel":"031-611-2940","addr":"경기도 평택시 이충동 664-1번지 명성빌딩 507호","indutype":"보건위생 - 화장품","category":"beauty"},{"name":"아모레카운셀러","tel":"031-611-2940","addr":"경기도 평택시 이충동 664-1번지 명성빌딩 510호","indutype":"보건위생 - 화장품","category":"beauty"},{"name":"아모레카운셀러","tel":"031-611-2940","addr":"경기도 평택시 이충동 664-1번지 명성빌딩 510호","indutype":"보건위생 - 화장품","category":"beauty"},{"name":"아모레카운셀러","tel":"031-611-2940","addr":"경기도 평택시 이충동 664-1번지 명성빌딩 510호","indutype":"보건위생 - 화장품","category":"beauty"},{"name":"아모레카운셀러","tel":"031-611-2940","addr":"경기도 평택시 이충동 664-1번지 명성빌딩 510호","indutype":"보건위생 - 화장품","category":"beauty"},{"name":"아모레카운셀러","tel":"031-611-2940","addr":"경기도 평택시 이충동 664-1번지 명성빌딩 510호","indutype":"보건위생 - 화장품","category":"beauty"},{"name":"아모레카운셀러","tel":"031-611-2940","addr":"경기도 평택시 이충동 664-1번지 명성빌딩 510호","indutype":"보건위생 - 화장품","category":"beauty"},{"name":"아모레카운셀러","tel":"031-611-2940","addr":"경기도 평택시 이충동 664-1번지 명성빌딩 510호","indutype":"보건위생 - 화장품","category":"beauty"},{"name":"아모레카운셀러","tel":"031-611-2940","addr":"경기도 평택시 이충동 664-1번지 명성빌딩 5층 510호","indutype":"보건위생 - 화장품","category":"beauty"},{"name":"아모레카운셀러","tel":"031-611-2940","addr":"경기도 평택시 이충동 6641 명성빌딩 510","indutype":"보건위생 - 화장품","category":"beauty"},{"name":"아모레카운셀러","tel":"031-611-2940","addr":"경기도 평택시 이충동 664-1번지 명성빌딩 510호","indutype":"보건위생 - 화장품","category":"beauty"},{"name":"아모레카운셀러","tel":"031-611-2940","addr":"경기도 평택시 이충동 664-1번지 명성빌딩 510호","indutype":"보건위생 - 화장품","category":"beauty"},{"name":"아모레카운셀러","tel":"031-611-2940","addr":"경기도 평택시 이충동 664-1번지 명성빌딩 510호","indutype":"보건위생 - 화장품","category":"beauty"},{"name":"아모레카운셀러","tel":"031-611-2940","addr":"경기도 평택시 이충동 664-1번지 명성빌딩 501호","indutype":"보건위생 - 화장품","category":"beauty"},{"name":"아모레카운셀러","tel":"031-611-2940","addr":"경기도 평택시 이충동 664-1번지 명성빌딩 607호","indutype":"보건위생 - 화장품","category":"beauty"},{"name":"아모레카운셀러","tel":"031-611-2940","addr":"경기도 평택시 이충동 664-1번지 명성빌딩 510호","indutype":"보건위생 - 화장품","category":"beauty"},{"name":"아모레카운셀러","tel":"031-611-2940","addr":"경기도 평택시 이충동 664-1번지 명성빌딩 510호","indutype":"보건위생 - 화장품","category":"beauty"},{"name":"아모레카운셀러","tel":"031-611-2940","addr":"경기도 평택시 이충동 664-1번지 명성빌딩 510호","indutype":"보건위생 - 화장품","category":"beauty"},{"name":"아모레카운셀러","tel":"031-611-2940","addr":"경기도 평택시 이충동 664-1번지 명성빌딩 510호","indutype":"보건위생 - 화장품","category":"beauty"},{"name":"아모레카운셀러","tel":"031-611-2940","addr":"경기도 평택시 이충동 664-1번지 명성빌딩 510호","indutype":"보건위생 - 화장품","category":"beauty"},{"name":"아모레카운셀러","tel":"031-611-2940","addr":"경기도 평택시 이충동 664-1번지 명성빌딩 510호","indutype":"보건위생 - 화장품","category":"beauty"},{"name":"아모레카운셀러","tel":"031-611-2940","addr":"경기도 평택시 이충동 664-1번지 명성빌딩 510호","indutype":"보건위생 - 화장품","category":"beauty"},{"name":"아모레카운셀러","tel":"031-611-2940","addr":"경기도 평택시 이충동 664-1번지 명성빌딩 501호","indutype":"보건위생 - 화장품","category":"beauty"},{"name":"아모레카운셀러","tel":"031-611-2940","addr":"경기도 평택시 이충동 664-1번지 명성빌딩 510호","indutype":"보건위생 - 화장품","category":"beauty"},{"name":"아모레카운셀러","tel":"031-611-2940","addr":"경기도 평택시 이충동 664-1번지 명성빌딩 510호","indutype":"보건위생 - 화장품","category":"beauty"},{"name":"아모레카운셀러","tel":"031-611-2940","addr":"경기도 평택시 이충동 664-1번지 명성빌딩 510호","indutype":"보건위생 - 화장품","category":"beauty"},{"name":"아모레카운셀러","tel":"031-611-2940","addr":"경기도 평택시 이충동 664-1번지 명성빌딩 510호","indutype":"보건위생 - 화장품","category":"beauty"},{"name":"아모레카운셀러","tel":"031-611-2940","addr":"경기도 평택시 이충동 664-1번지 명성빌딩 510호","indutype":"보건위생 - 화장품","category":"beauty"},{"name":"아모레카운셀러","tel":"031-611-2940","addr":"경기도 평택시 이충동 664-1번지 명성빌딩 510호","indutype":"보건위생 - 화장품","category":"beauty"},{"name":"아모레카운셀러","tel":"031-611-2940","addr":"경기도 평택시 이충동 664-1번지 명성빌딩 510호","indutype":"보건위생 - 화장품","category":"beauty"},{"name":"아모레카운셀러","tel":"031-611-2940","addr":"경기도 평택시 이충동 664-1번지 명성빌딩 510호","indutype":"보건위생 - 화장품","category":"beauty"},{"name":"아모레카운셀러","tel":"031-611-2940","addr":"경기도 평택시 이충동 664-1번지 명성빌딩 510호","indutype":"보건위생 - 화장품","category":"beauty"},{"name":"아모레카운셀러","tel":"031-611-2940","addr":"경기도 평택시 이충동 664-1번지 명성빌딩 510호","indutype":"보건위생 - 화장품","category":"beauty"},{"name":"아모레카운셀러","tel":"031-611-2940","addr":"경기도 평택시 이충동 664-1번지 명성빌딩 510호","indutype":"보건위생 - 화장품","category":"beauty"}]},{"lat":"37.055484971","long":"127.05806018","imageIndex":13,"items":[{"name":"아모레카운셀러","tel":"031-611-2940","addr":"경기도 평택시 이충동 474-1번지 상가주택 2층","indutype":"보건위생 - 화장품","category":"beauty"},{"name":"아모레카운셀러","tel":"031-611-2940","addr":"경기도 평택시 이충동 474-1번지 2층","indutype":"보건위생 - 화장품","category":"beauty"},{"name":"아모레카운셀러","tel":"031-611-2940","addr":"경기도 평택시 이충동 474-1번지","indutype":"보건위생 - 화장품","category":"beauty"},{"name":"아모레카운셀러","tel":"031-611-2940","addr":"경기도 평택시 이충동 474-1번지 2층","indutype":"보건위생 - 화장품","category":"beauty"},{"name":"아모레카운셀러","tel":"031-611-2940","addr":"경기도 평택시 이충동 474-1번지 2층","indutype":"보건위생 - 화장품","category":"beauty"}]},{"lat":"37.062513448","long":"127.07453705","imageIndex":13,"items":[{"name":"아모레카운셀러","tel":"031-611-2940","addr":"경기도 평택시 이충동 2번지 C명성빌딩 510호","indutype":"보건위생 - 화장품","category":"beauty"},{"name":"아모레카운셀러","tel":"031-611-2940","addr":"경기도 평택시 이충동 2번지 C명성빌딩 5층 510호","indutype":"보건위생 - 화장품","category":"beauty"}]},{"lat":"37.051295265","long":"127.05756251","imageIndex":13,"items":[{"name":"애플헤어","tel":"031-662-6868","addr":"경기도 평택시 이충동 614-7번지 1층","indutype":"보건위생 - 미용원","category":"beauty"}]},{"lat":"37.058295228","long":"127.07659054","imageIndex":13,"items":[{"name":"어반레빗헤어 (HAIR)","tel":"070-4712-6152","addr":"경기도 평택시 이충동 22번지 이충빌딩 1동 102호","indutype":"보건위생 - 미용원","category":"beauty"}]},{"lat":"37.057237333","long":"127.06739294","imageIndex":13,"items":[{"name":"에스투헤어라인","tel":"031-665-2253","addr":"경기도 평택시 이충동 680번지 반지마을3단지 나 상가동 103호","indutype":"서비스업 - 미용","category":"beauty"},{"name":"유리헤어","tel":"031-611-2131","addr":"경기도 평택시 이충동 680번지 반지마을주공아파트 상가동 104호","indutype":"보건위생 - 미용원","category":"beauty"}]},{"lat":"37.054404622","long":"127.05603578","imageIndex":13,"items":[{"name":"여우별","tel":"","addr":"경기도 평택시 이충동 487-40번지","indutype":"보건위생 - 미용원","category":"beauty"}]},{"lat":"37.056872568","long":"127.05813989","imageIndex":13,"items":[{"name":"우리집강아지","tel":"070-7504-6466","addr":"경기도 평택시 이충동 452-4번지","indutype":"서비스업 - 애견미용","category":"beauty"}]},{"lat":"37.057124849","long":"127.0581738","imageIndex":13,"items":[{"name":"유경헤어 (염색전문)","tel":"","addr":"경기도 평택시 이충동 452-7번지 1층","indutype":"보건위생 - 미용원","category":"beauty"},{"name":"현대피부관리샵","tel":"","addr":"경기도 평택시 이충동 452-7번지 믿음빌딩 3층","indutype":"보건위생 - 피부미용실","category":"beauty"}]},{"lat":"37.050845724","long":"127.05537003","imageIndex":13,"items":[{"name":"조은찜질사우나","tel":"031-662-6584","addr":"경기도 평택시 이충동 518-3번지","indutype":"보건위생 - 사우나","category":"beauty"},{"name":"조은찜질사우나","tel":"031-666-5556","addr":"경기도 평택시 이충동 518-3번지","indutype":"보건위생 - 사우나","category":"beauty"},{"name":"진경","tel":"031-664-1266","addr":"경기도 평택시 이충동 518-3번지 2층 여탕사우나내 화장품매장","indutype":"보건위생 - 화장품","category":"beauty"}]},{"lat":"37.059544557","long":"127.06645047","imageIndex":13,"items":[{"name":"좋은사람들","tel":"031-662-1441","addr":"경기도 평택시 이충동 668-1번지 보람플러스 2동 202호","indutype":"보건위생 - 미용원","category":"beauty"}]},{"lat":"37.05456659","long":"127.05653056","imageIndex":13,"items":[{"name":"중앙가위손","tel":"031-666-8237","addr":"경기도 평택시 이충동 487-2번지 1층","indutype":"보건위생 - 미용원","category":"beauty"}]},{"lat":"37.057179437","long":"127.05703832","imageIndex":13,"items":[{"name":"채움헤어","tel":"031-662-7702","addr":"경기도 평택시 이충동 459-6번지","indutype":"서비스업 - 이미용","category":"beauty"},{"name":"채움헤어","tel":"031-663-3883","addr":"경기도 평택시 이충동 459-6번지","indutype":"보건위생 - 미용원","category":"beauty"}]},{"lat":"37.063347798","long":"127.06500321","imageIndex":13,"items":[{"name":"캔디머리방","tel":"031-662-7888","addr":"경기도 평택시 이충동 589-3번지 대진아파트 상가 103호 캔디머리방","indutype":"보건위생 - 미용원","category":"beauty"}]},{"lat":"37.056512295","long":"127.05781359","imageIndex":13,"items":[{"name":"코디헤어","tel":"031-664-1806","addr":"경기도 평택시 이충동 461-11번지 1층 2호","indutype":"보건위생 - 미용원","category":"beauty"}]},{"lat":"37.056403348","long":"127.05955612","imageIndex":13,"items":[{"name":"크로버 이용원","tel":"031-666-1992","addr":"경기도 평택시 이충동 401-1번지","indutype":"서비스업 - 이미용","category":"beauty"},{"name":"크로버이용원","tel":"","addr":"경기도 평택시 이충동 401-1번지","indutype":"보건위생 - 이용원","category":"beauty"}]},{"lat":"37.054872644","long":"127.05720532","imageIndex":13,"items":[{"name":"태라","tel":"070-7759-6005","addr":"경기도 평택시 이충동 491-7번지 가동 104호","indutype":"보건위생 - 미용재료","category":"beauty"}]},{"lat":"37.054232957","long":"127.05705871","imageIndex":13,"items":[{"name":"패패미용실","tel":"031-666-8636","addr":"경기도 평택시 이충동 479-7번지 주공상가 104호","indutype":"서비스업 - 미용","category":"beauty"}]},{"lat":"37.050737287","long":"127.05606695","imageIndex":13,"items":[{"name":"해드림안경원","tel":"031-611-0609","addr":"경기도 평택시 이충동 517-3번지","indutype":"보건위생 - 안경","category":"beauty"}]},{"lat":"37.058624997","long":"127.0673379","imageIndex":13,"items":[{"name":"헤어마트","tel":"031-667-9555","addr":"경기도 평택시 이충동 674번지 정암뜨란체 상가 101호","indutype":"보건위생 - 미용원","category":"beauty"}]},{"lat":"37.059184415","long":"127.06592175","imageIndex":13,"items":[{"name":"헤어토크","tel":"031-668-7708","addr":"경기도 평택시 이충동 이충지구 C3-3 대영프라자 201호","indutype":"보건위생 - 미용원","category":"beauty"}]},{"lat":"37.057403973","long":"127.05861247","imageIndex":13,"items":[{"name":"헤어휴","tel":"","addr":"경기도 평택시 이충동 453-3번지","indutype":"서비스업 - 이미용","category":"beauty"},{"name":"헤어휴 송탄점","tel":"031-611-6027","addr":"경기도 평택시 이충동 453-3번지","indutype":"보건위생 - 미용원","category":"beauty"}]},{"lat":"37.051736899","long":"127.0573155","imageIndex":13,"items":[{"name":"헤이즐헤어","tel":"031-665-3121","addr":"경기도 평택시 이충동 613-1번지 1층","indutype":"보건위생 - 미용원","category":"beauty"}]},{"lat":"37.055871947","long":"127.05908354","imageIndex":13,"items":[{"name":"휴먼마인드센터","tel":"031-663-3187","addr":"경기도 평택시 이충동 397-5번지","indutype":"보건위생 - 기타대인서비스","category":"beauty"}]}]