[{"lat":"37.641885574","long":"126.77096274","imageIndex":0,"items":[{"name":"(주) 몽키웍스","tel":"031-924-1382","addr":"경기도 고양시 일산동구 장항동 578번지","indutype":"자동차정비 유지 - 자동차시트·타이어","category":"car"}]},{"lat":"37.661542341","long":"126.76976828","imageIndex":0,"items":[{"name":"(주)씨에이치앤에스","tel":"031-6326-6766","addr":"경기도 고양시 일산동구 장항동 775-1번지","indutype":"자동차정비 유지 - 자동차부품","category":"car"}]},{"lat":"37.654715042","long":"126.77079819","imageIndex":0,"items":[{"name":"(주)엠비씨씨앤아이","tel":"02-789-9303","addr":"경기도 고양시 일산동구 장항동 869번지","indutype":"자동차정비 유지 - 주차장","category":"car"},{"name":"SK엠시티드라마파크상가관리단","tel":"031-931-8205","addr":"경기도 고양시 일산동구 장항동 869번지","indutype":"자동차정비 유지 - 주차장","category":"car"},{"name":"골드스팀 세차장","tel":"","addr":"경기도 고양시 일산동구 장항동 869번지","indutype":"자동차정비 유지 - 세차장","category":"car"},{"name":"성우상사","tel":"031-946-0429","addr":"경기도 고양시 일산동구 장항동 869번지","indutype":"자동차정비 유지 - 자동차부품","category":"car"},{"name":"일산엠시티입주자협의회","tel":"031-931-9001","addr":"경기도 고양시 일산동구 장항동 869번지","indutype":"자동차정비 유지 - 주차장","category":"car"}]},{"lat":"37.657684922","long":"126.77371277","imageIndex":0,"items":[{"name":"(주)웅신아트프라자","tel":"031-932-1264","addr":"경기도 고양시 일산동구 장항동 847번지","indutype":"자동차정비 유지 - 주차장","category":"car"},{"name":"대우자동차 일산호수영업소","tel":"031-932-5454","addr":"경기도 고양시 일산동구 장항동 847번지","indutype":"자동차판매 - 중고자동차판매","category":"car"}]},{"lat":"37.651186529","long":"126.77713224","imageIndex":0,"items":[{"name":"(주)토탈홈서비스","tel":"031-906-9598","addr":"경기도 고양시 일산동구 장항동 895-1번지","indutype":"자동차정비 유지 - 주차장","category":"car"}]},{"lat":"37.66082238","long":"126.76565661","imageIndex":0,"items":[{"name":"(주)하이젠상사","tel":"031-900-8555","addr":"경기도 고양시 일산동구 장항동 751번지","indutype":"자동차정비 유지 - 자동차부품","category":"car"},{"name":"삼성라끄빌관리사무소 관리단","tel":"031-904-3078","addr":"경기도 고양시 일산동구 장항동 751번지","indutype":"자동차정비 유지 - 주차장","category":"car"}]},{"lat":"37.66226816","long":"126.76777135","imageIndex":0,"items":[{"name":"(주)히로컴퍼니","tel":"031-811-3256","addr":"경기도 고양시 일산동구 장항동 763번지","indutype":"자동차정비 유지 - 자동차부품","category":"car"}]},{"lat":"37.647796515","long":"126.75787956","imageIndex":0,"items":[{"name":"HB모터스","tel":"031-904-7717","addr":"경기도 고양시 일산동구 장항동 673-43번지","indutype":"자동차정비 유지 - 자동차정비","category":"car"}]},{"lat":"37.641656486","long":"126.76901466","imageIndex":0,"items":[{"name":"INCH BY INCH","tel":"02-2212-2426","addr":"경기도 고양시 일산동구 장항동 566-35번지","indutype":"자동차정비 유지 - 자동차시트·타이어","category":"car"}]},{"lat":"37.656878063","long":"126.7711541","imageIndex":0,"items":[{"name":"J3타워 관리사무소","tel":"031-932-4130","addr":"경기도 고양시 일산동구 장항동 862번지","indutype":"자동차정비 유지 - 주차장","category":"car"}]},{"lat":"37.648935923","long":"126.75990412","imageIndex":0,"items":[{"name":"NC(엔씨)","tel":"031-906-8423","addr":"경기도 고양시 일산동구 장항동 673-10번지","indutype":"자동차정비 유지 - 자동차부품","category":"car"}]},{"lat":"37.640740811","long":"126.76170963","imageIndex":0,"items":[{"name":"강촌현대자동차공업사","tel":"031-903-3866","addr":"경기도 고양시 일산동구 장항동 549-2번지","indutype":"자동차정비 유지 - 자동차정비","category":"car"}]},{"lat":"37.66162669","long":"126.76687804","imageIndex":0,"items":[{"name":"게러지 웍스","tel":"031-963-5748","addr":"경기도 고양시 일산동구 장항동 760번지","indutype":"자동차정비 유지 - 자동차부품","category":"car"}]},{"lat":"37.648603546","long":"126.76038111","imageIndex":0,"items":[{"name":"경기상사","tel":"031-903-1252","addr":"경기도 고양시 일산동구 장항동 443-80번지","indutype":"자동차정비 유지 - 자동차부품","category":"car"}]},{"lat":"37.648801291","long":"126.76015385","imageIndex":0,"items":[{"name":"경기자동차공업사","tel":"031-932-5151","addr":"경기도 고양시 일산동구 장항동 673-18번지","indutype":"자동차정비 유지 - 자동차정비","category":"car"}]},{"lat":"37.644351701","long":"126.76073486","imageIndex":0,"items":[{"name":"경인무역","tel":"032-832-2201","addr":"경기도 고양시 일산동구 장항동","indutype":"자동차판매 - 중고자동차판매","category":"car"}]},{"lat":"37.657823583","long":"126.77090185","imageIndex":0,"items":[{"name":"고양선경주차장","tel":"031-111-1111","addr":"경기도 고양시 일산동구 장항동","indutype":"자동차정비 유지 - 주차장","category":"car"}]},{"lat":"37.645076755","long":"126.76282869","imageIndex":0,"items":[{"name":"기흥상사","tel":"031-906-0303","addr":"경기도 고양시 일산동구 장항동 540번지","indutype":"자동차정비 유지 - 자동차부품","category":"car"}]},{"lat":"37.664185055","long":"126.7666886","imageIndex":0,"items":[{"name":"꼴로레","tel":"031-986-5320","addr":"경기도 고양시 일산동구 장항동 731-2번지","indutype":"자동차정비 유지 - 자동차부품","category":"car"}]},{"lat":"37.657078938","long":"126.77251339","imageIndex":0,"items":[{"name":"낙원프라자빌딩관리단","tel":"031-932-2026","addr":"경기도 고양시 일산동구 장항동 856-3번지","indutype":"자동차정비 유지 - 주차장","category":"car"}]},{"lat":"37.647325876","long":"126.76121244","imageIndex":0,"items":[{"name":"다다상사","tel":"031-905-0851","addr":"경기도 고양시 일산동구 장항동 534번지","indutype":"자동차정비 유지 - 자동차부품","category":"car"}]},{"lat":"37.634686313","long":"126.78004845","imageIndex":0,"items":[{"name":"대선자동차보링","tel":"031-907-4523","addr":"경기도 고양시 일산동구 장항동 623-55번지","indutype":"자동차정비 유지 - 자동차정비","category":"car"}]},{"lat":"37.641350428","long":"126.76915158","imageIndex":0,"items":[{"name":"대승자동차정비","tel":"031-901-2786","addr":"경기도 고양시 일산동구 장항동 572번지","indutype":"자동차정비 유지 - 자동차정비","category":"car"}]},{"lat":"37.638714755","long":"126.77590105","imageIndex":0,"items":[{"name":"대영써비스","tel":"031-906-1902","addr":"경기도 고양시 일산동구 장항동 606-24번지","indutype":"자동차정비 유지 - 자동차부품","category":"car"}]},{"lat":"37.658269842","long":"126.77334833","imageIndex":0,"items":[{"name":"대원파킹","tel":"031-903-2610","addr":"경기도 고양시 일산동구 장항동 846번지","indutype":"자동차정비 유지 - 주차장","category":"car"}]},{"lat":"37.646660022","long":"126.76163384","imageIndex":0,"items":[{"name":"동일윤활유","tel":"031-907-0055","addr":"경기도 고양시 일산동구 장항동 534-1번지","indutype":"자동차정비 유지 - 윤활유 전문 판매","category":"car"}]},{"lat":"37.663299132","long":"126.76520672","imageIndex":0,"items":[{"name":"라이드온 법인특판","tel":"","addr":"경기도 고양시 일산동구 장항동 745번지","indutype":"자동차정비 유지 - 자동차부품","category":"car"},{"name":"코오롱레이크폴리스3차 입주자대표협의회","tel":"031-817-9758","addr":"경기도 고양시 일산동구 장항동 745번지","indutype":"자동차정비 유지 - 주차장","category":"car"}]},{"lat":"37.662106552","long":"126.76805519","imageIndex":0,"items":[{"name":"라페스타쇼핑몰관리단/AWP","tel":"031-920-9600","addr":"경기도 고양시 일산동구 장항동 763번지","indutype":"자동차정비 유지 - 주차장","category":"car"}]},{"lat":"37.660439684","long":"126.76801511","imageIndex":0,"items":[{"name":"로데오탑 상가번영회","tel":"031-902-9868","addr":"경기도 고양시 일산동구 장항동 757번지","indutype":"자동차정비 유지 - 주차장","category":"car"},{"name":"주식회사 좋은길로","tel":"031-904-2346","addr":"경기도 고양시 일산동구 장항동 757번지","indutype":"자동차정비 유지 - 세차장","category":"car"}]},{"lat":"37.657020634","long":"126.77034905","imageIndex":0,"items":[{"name":"로얄프라자상가번영회관리단","tel":"031-901-7774","addr":"경기도 고양시 일산동구 장항동 864-1번지","indutype":"자동차정비 유지 - 주차장","category":"car"}]},{"lat":"37.64307304","long":"126.76552045","imageIndex":0,"items":[{"name":"마스타공업사","tel":"031-907-6829","addr":"경기도 고양시 일산동구 장항동","indutype":"자동차정비 유지 - 자동차시트·타이어","category":"car"}]},{"lat":"37.642910671","long":"126.7609888","imageIndex":0,"items":[{"name":"매직터치장항점","tel":"031-908-0465","addr":"경기도 고양시 일산동구 장항동 541-3번지","indutype":"자동차정비 유지 - 카인테리어","category":"car"}]},{"lat":"37.655768004","long":"126.7748179","imageIndex":0,"items":[{"name":"메이저타워","tel":"02-1111-1111","addr":"경기도 고양시 일산동구 장항동 849번지","indutype":"자동차정비 유지 - 주차장","category":"car"}]},{"lat":"37.643352955","long":"126.76138393","imageIndex":0,"items":[{"name":"메트로덴트칼라","tel":"031-901-9804","addr":"경기도 고양시 일산동구 장항동 541-2번지","indutype":"자동차정비 유지 - 카인테리어","category":"car"},{"name":"인치업매니아일산점","tel":"031-924-0521","addr":"경기도 고양시 일산동구 장항동 541-2번지","indutype":"자동차정비 유지 - 자동차시트·타이어","category":"car"},{"name":"코카","tel":"031-905-2387","addr":"경기도 고양시 일산동구 장항동 541-2번지","indutype":"자동차정비 유지 - 자동차부품","category":"car"},{"name":"프라인런","tel":"031-901-9804","addr":"경기도 고양시 일산동구 장항동 541-2번지","indutype":"자동차정비 유지 - 자동차정비","category":"car"}]},{"lat":"37.657127541","long":"126.76973676","imageIndex":0,"items":[{"name":"메트로폴리스 주차장","tel":"031-908-3570","addr":"경기도 고양시 일산동구 장항동 864-2번지","indutype":"자동차정비 유지 - 주차장","category":"car"},{"name":"에이피모터스 일산점","tel":"031-916-7416","addr":"경기도 고양시 일산동구 장항동 864-2번지","indutype":"자동차정비 유지 - 카인테리어","category":"car"}]},{"lat":"37.638826391","long":"126.76399311","imageIndex":0,"items":[{"name":"모든 B/D 타이어","tel":"070-8785-7132","addr":"경기도 고양시 일산동구 장항동 563-3번지","indutype":"자동차정비 유지 - 자동차시트·타이어","category":"car"}]},{"lat":"37.642350818","long":"126.76037878","imageIndex":0,"items":[{"name":"밧데리도사","tel":"031-906-1155","addr":"경기도 고양시 일산동구 장항동 541-28번지","indutype":"자동차정비 유지 - 자동차부품","category":"car"}]},{"lat":"37.6432153","long":"126.76016069","imageIndex":0,"items":[{"name":"사우디세차장","tel":"","addr":"경기도 고양시 일산동구 장항동 541-18번지","indutype":"자동차정비 유지 - 세차장","category":"car"}]},{"lat":"37.659716427","long":"126.76677076","imageIndex":0,"items":[{"name":"삼현","tel":"","addr":"경기도 고양시 일산동구 장항동 752-1번지","indutype":"자동차정비 유지 - 자동차부품","category":"car"}]},{"lat":"37.641437912","long":"126.77240307","imageIndex":0,"items":[{"name":"새한공조","tel":"031-907-2724","addr":"경기도 고양시 일산동구 장항동 578-24번지","indutype":"자동차정비 유지 - 자동차부품","category":"car"}]},{"lat":"37.635798603","long":"126.77279436","imageIndex":0,"items":[{"name":"성우자동차보링공업사","tel":"031-908-2300","addr":"경기도 고양시 일산동구 장항동 597-11번지","indutype":"자동차정비 유지 - 자동차정비","category":"car"},{"name":"성우자동차보링공업사","tel":"031-908-2300","addr":"경기도 고양시 일산동구 장항동 597-11번지","indutype":"자동차정비 유지 - 자동차정비","category":"car"}]},{"lat":"37.644968962","long":"126.76298766","imageIndex":0,"items":[{"name":"스마일 SVC","tel":"031-901-2957","addr":"경기도 고양시 일산동구 장항동 540-8번지","indutype":"자동차정비 유지 - 자동차부품","category":"car"}]},{"lat":"37.657299664","long":"126.77021219","imageIndex":0,"items":[{"name":"스팀플러스","tel":"031-909-1211","addr":"경기도 고양시 일산동구 장항동 864번지","indutype":"자동차정비 유지 - 세차장","category":"car"}]},{"lat":"37.644102283","long":"126.76212933","imageIndex":0,"items":[{"name":"스피드메이트 유공판매점","tel":"031-906-8006","addr":"경기도 고양시 일산동구 장항동 541번지","indutype":"자동차정비 유지 - 자동차정비","category":"car"},{"name":"스피드메이트유공판매점","tel":"031-906-8006","addr":"경기도 고양시 일산동구 장항동 541번지","indutype":"자동차정비 유지 - 자동차정비","category":"car"}]},{"lat":"37.656461591","long":"126.77012414","imageIndex":0,"items":[{"name":"스피드출장세차","tel":"","addr":"경기도 고양시 일산동구 장항동 863-2번지","indutype":"자동차정비 유지 - 세차장","category":"car"}]},{"lat":"37.648684353","long":"126.76024488","imageIndex":0,"items":[{"name":"신도시자동차공업사","tel":"031-904-6545","addr":"경기도 고양시 일산동구 장항동 673-73번지","indutype":"자동차정비 유지 - 자동차정비","category":"car"}]},{"lat":"37.641133043","long":"126.7731518","imageIndex":0,"items":[{"name":"씨비퍼포먼스","tel":"","addr":"경기도 고양시 일산동구 장항동 578-28번지","indutype":"자동차정비 유지 - 카인테리어","category":"car"}]},{"lat":"37.665050204","long":"126.7667992","imageIndex":0,"items":[{"name":"아름다운세차","tel":"02-392-2516","addr":"경기도 고양시 일산동구 장항동 730번지","indutype":"자동차정비 유지 - 세차장","category":"car"},{"name":"우인아크리움빌","tel":"031-929-5001","addr":"경기도 고양시 일산동구 장항동 730번지","indutype":"자동차정비 유지 - 주차장","category":"car"}]},{"lat":"37.66332762","long":"126.76593198","imageIndex":0,"items":[{"name":"양우로데오랜드상가관리단","tel":"031-911-0235","addr":"경기도 고양시 일산동구 장항동 740-5번지","indutype":"자동차정비 유지 - 주차장","category":"car"}]},{"lat":"37.653963663","long":"126.76006905","imageIndex":0,"items":[{"name":"양지자동차공업사","tel":"031-932-5200","addr":"경기도 고양시 일산동구 장항동 653-4번지","indutype":"자동차정비 유지 - 자동차정비","category":"car"}]},{"lat":"37.659628322","long":"126.76776834","imageIndex":0,"items":[{"name":"에이스전자","tel":"031-000-0000","addr":"경기도 고양시 일산동구 장항동 756-2번지","indutype":"자동차정비 유지 - 자동차부품","category":"car"},{"name":"우리개발","tel":"","addr":"경기도 고양시 일산동구 장항동 756-2번지","indutype":"자동차정비 유지 - 주차장","category":"car"}]},{"lat":"37.654965402","long":"126.77443506","imageIndex":0,"items":[{"name":"영원","tel":"031-922-4118","addr":"경기도 고양시 일산동구 장항동 852번지","indutype":"자동차정비 유지 - 자동차부품","category":"car"}]},{"lat":"37.643738883","long":"126.76065753","imageIndex":0,"items":[{"name":"오렌지세차장","tel":"031-903-2294","addr":"경기도 고양시 일산동구 장항동 541-16번지","indutype":"자동차정비 유지 - 세차장","category":"car"}]},{"lat":"37.6649082","long":"126.76787636","imageIndex":0,"items":[{"name":"오일마스타","tel":"031-901-8141","addr":"경기도 고양시 일산동구 장항동 727-1번지","indutype":"자동차정비 유지 - 윤활유 전문 판매","category":"car"}]},{"lat":"37.643297505","long":"126.7651345","imageIndex":0,"items":[{"name":"오토 메딕","tel":"031-969-9238","addr":"경기도 고양시 일산동구 장항동 547-8번지","indutype":"자동차정비 유지 - 윤활유 전문 판매","category":"car"}]},{"lat":"37.658963707","long":"126.76882439","imageIndex":0,"items":[{"name":"오토오아시스 홈플러스 일산점","tel":"031-902-7466","addr":"경기도 고양시 일산동구 장항동 755번지","indutype":"자동차정비 유지 - 자동차부품","category":"car"},{"name":"크린매직","tel":"","addr":"경기도 고양시 일산동구 장항동 755번지","indutype":"자동차정비 유지 - 세차장","category":"car"}]},{"lat":"37.648992448","long":"126.76110506","imageIndex":0,"items":[{"name":"원일부란자","tel":"031-905-5110","addr":"경기도 고양시 일산동구 장항동 673-2번지","indutype":"자동차정비 유지 - 자동차부품","category":"car"}]},{"lat":"37.652023513","long":"126.77665377","imageIndex":0,"items":[{"name":"위너스21주차","tel":"031-375-9278","addr":"경기도 고양시 일산동구 장항동 893-1번지","indutype":"자동차정비 유지 - 주차장","category":"car"}]},{"lat":"37.662127809","long":"126.76968712","imageIndex":0,"items":[{"name":"일산프라자 관리단","tel":"031-902-0666","addr":"경기도 고양시 일산동구 장항동 776번지","indutype":"자동차정비 유지 - 주차장","category":"car"}]},{"lat":"37.642108672","long":"126.76987434","imageIndex":0,"items":[{"name":"자동차병원","tel":"031-906-0037","addr":"경기도 고양시 일산동구 장항동 566-49번지","indutype":"자동차정비 유지 - 자동차정비","category":"car"}]},{"lat":"37.639852019","long":"126.76326471","imageIndex":0,"items":[{"name":"자동차세상(C.W)모터스","tel":"031-932-9959","addr":"경기도 고양시 일산동구 장항동 558-6번지","indutype":"자동차정비 유지 - 자동차정비","category":"car"}]},{"lat":"37.649018035","long":"126.76040243","imageIndex":0,"items":[{"name":"자유로카센타","tel":"031-976-0951","addr":"경기도 고양시 일산동구 장항동 673번지","indutype":"자동차정비 유지 - 자동차정비","category":"car"}]},{"lat":"37.640574778","long":"126.75982938","imageIndex":0,"items":[{"name":"장항자동차정비공업사","tel":"031-906-5577","addr":"경기도 고양시 일산동구 장항동 545-26번지","indutype":"자동차정비 유지 - 자동차정비","category":"car"}]},{"lat":"37.634748009","long":"126.77932319","imageIndex":0,"items":[{"name":"장항특장","tel":"031-902-5479","addr":"경기도 고양시 일산동구 장항동 623-23번지","indutype":"자동차판매 - 기타운송","category":"car"}]},{"lat":"37.656660696","long":"126.77057682","imageIndex":0,"items":[{"name":"주식회사큐엘티","tel":"031-932-9599","addr":"경기도 고양시 일산동구 장항동 863번지","indutype":"자동차정비 유지 - 자동차부품","category":"car"}]},{"lat":"37.640745319","long":"126.77299437","imageIndex":0,"items":[{"name":"주영공업사","tel":"031-907-8171","addr":"경기도 고양시 일산동구 장항동 591번지","indutype":"자동차정비 유지 - 자동차정비","category":"car"}]},{"lat":"37.641186902","long":"126.77304966","imageIndex":0,"items":[{"name":"진선카센타","tel":"031-901-3553","addr":"경기도 고양시 일산동구 장항동 578-27번지","indutype":"자동차정비 유지 - 자동차정비","category":"car"}]},{"lat":"37.638906522","long":"126.77723738","imageIndex":0,"items":[{"name":"차사랑","tel":"031-907-4640","addr":"경기도 고양시 일산동구 장항동 611번지","indutype":"자동차정비 유지 - 자동차부품","category":"car"}]},{"lat":"37.664548538","long":"126.76824017","imageIndex":0,"items":[{"name":"청원레이크빌2오피스텔관리단","tel":"031-911-4466","addr":"경기도 고양시 일산동구 장항동 727-2번지","indutype":"자동차정비 유지 - 주차장","category":"car"}]},{"lat":"37.641635216","long":"126.77193792","imageIndex":0,"items":[{"name":"청화카드라이브","tel":"031-906-3692","addr":"경기도 고양시 일산동구 장항동 578-20번지","indutype":"자동차정비 유지 - 자동차정비","category":"car"}]},{"lat":"37.639912689","long":"126.77571613","imageIndex":0,"items":[{"name":"카짱모터스","tel":"031-901-2266","addr":"경기도 고양시 일산동구 장항동 601-22번지","indutype":"자동차정비 유지 - 자동차정비","category":"car"}]},{"lat":"37.65302343","long":"126.77657142","imageIndex":0,"items":[{"name":"케이에스텍","tel":"070-4144-9268","addr":"경기도 고양시 일산동구 장항동 890-4번지","indutype":"자동차정비 유지 - 자동차부품","category":"car"}]},{"lat":"37.650163025","long":"126.76077265","imageIndex":0,"items":[{"name":"코뿔소카모터스","tel":"031-903-8302","addr":"경기도 고양시 일산동구 장항동 671-2번지","indutype":"자동차정비 유지 - 자동차정비","category":"car"}]},{"lat":"37.662935448","long":"126.76357587","imageIndex":0,"items":[{"name":"코오롱레이크폴리스2관리단","tel":"031-913-2650","addr":"경기도 고양시 일산동구 장항동 749번지","indutype":"자동차정비 유지 - 주차장","category":"car"}]},{"lat":"37.638159457","long":"126.77762485","imageIndex":0,"items":[{"name":"크로스랜드","tel":"031-901-6912","addr":"경기도 고양시 일산동구 장항동 611-1번지","indutype":"자동차정비 유지 - 자동차부품","category":"car"}]},{"lat":"37.656407007","long":"126.77446464","imageIndex":0,"items":[{"name":"페인트온","tel":"031-902-6710","addr":"경기도 고양시 일산동구 장항동 848-1번지","indutype":"자동차정비 유지 - 카인테리어","category":"car"},{"name":"현대타운빌관리단","tel":"031-909-1111","addr":"경기도 고양시 일산동구 장항동 848-1번지","indutype":"자동차정비 유지 - 주차장","category":"car"}]},{"lat":"37.644464699","long":"126.76312525","imageIndex":0,"items":[{"name":"평화카센타","tel":"031-905-7485","addr":"경기도 고양시 일산동구 장항동 543-10번지","indutype":"자동차정비 유지 - 자동차정비","category":"car"}]},{"lat":"37.66060059","long":"126.77193585","imageIndex":0,"items":[{"name":"프리미엄스팀세차장","tel":"031-111-1111","addr":"경기도 고양시 일산동구 장항동 784번지","indutype":"자동차정비 유지 - 세차장","category":"car"}]},{"lat":"37.640101237","long":"126.77537565","imageIndex":0,"items":[{"name":"하나로정비센타","tel":"031-907-9092","addr":"경기도 고양시 일산동구 장항동 601-25번지","indutype":"자동차정비 유지 - 자동차정비","category":"car"}]},{"lat":"37.638493506","long":"126.77798639","imageIndex":0,"items":[{"name":"하이웨이카공업사","tel":"031-906-5109","addr":"경기도 고양시 일산동구 장항동 611-11번지","indutype":"자동차정비 유지 - 자동차정비","category":"car"}]},{"lat":"37.638574009","long":"126.77768025","imageIndex":0,"items":[{"name":"한신카플러스","tel":"031-932-7380","addr":"경기도 고양시 일산동구 장항동 611-22번지","indutype":"회원제형태 - 자동차서비스","category":"car"}]},{"lat":"37.642518822","long":"126.76770897","imageIndex":0,"items":[{"name":"한일카센타","tel":"031-905-5559","addr":"경기도 고양시 일산동구 장항동 566-11번지","indutype":"자동차정비 유지 - 자동차정비","category":"car"}]},{"lat":"37.65132241","long":"126.77751711","imageIndex":0,"items":[{"name":"현대주차장","tel":"031-901-1697","addr":"경기도 고양시 일산동구 장항동 895번지","indutype":"자동차정비 유지 - 주차장","category":"car"}]}]