[{"lat":"37.833729133","long":"127.50960691","imageIndex":8,"items":[{"name":"가평 올바른 치과의원","tel":"031-582-2822","addr":"경기도 가평군 가평읍 읍내리 635-2번지 에이스1차 2층","indutype":"의원 - 치과의원","category":"medical"}]},{"lat":"37.83159754","long":"127.51294327","imageIndex":8,"items":[{"name":"가평사랑정형외과의원","tel":"031-581-6737","addr":"경기도 가평군 가평읍 읍내리 445번지","indutype":"의원 - 의원","category":"medical"},{"name":"대신약국","tel":"031-581-6881","addr":"경기도 가평군 가평읍 읍내리 445번지 1층","indutype":"약국 - 약국","category":"medical"}]},{"lat":"37.832565155","long":"127.51001924","imageIndex":8,"items":[{"name":"가평삼성의원","tel":"031-585-3658","addr":"경기도 가평군 가평읍 읍내리 615-5번지","indutype":"의원 - 의원","category":"medical"},{"name":"소명약국","tel":"","addr":"경기도 가평군 가평읍 읍내리 615-5번지","indutype":"약국 - 약국","category":"medical"},{"name":"소명약국","tel":"","addr":"경기도 가평군 가평읍 읍내리 615-5번지","indutype":"약국 - 약국","category":"medical"}]},{"lat":"37.829649958","long":"127.51330471","imageIndex":8,"items":[{"name":"가평온누리약국","tel":"031-581-8777","addr":"경기도 가평군 가평읍 읍내리 468-22번지","indutype":"약국 - 약국","category":"medical"},{"name":"가평온누리약국","tel":"031-581-8777","addr":"경기도 가평군 가평읍 읍내리 468-22번지","indutype":"약국 - 약국","category":"medical"}]},{"lat":"37.831924078","long":"127.51243436","imageIndex":8,"items":[{"name":"경희동가원한의원","tel":"031-581-3375","addr":"경기도 가평군 가평읍 읍내리 443-13번지 1층","indutype":"의원 - 한의원","category":"medical"}]},{"lat":"37.830708297","long":"127.51232377","imageIndex":8,"items":[{"name":"금강한의원","tel":"031-581-6611","addr":"경기도 가평군 가평읍 읍내리 464-1번지","indutype":"의원 - 한의원","category":"medical"}]},{"lat":"37.829709672","long":"127.51407752","imageIndex":8,"items":[{"name":"류치과의원","tel":"031-582-6768","addr":"경기도 가평군 가평읍 읍내리 474-1번지","indutype":"의원 - 치과의원","category":"medical"}]},{"lat":"37.82898796","long":"127.51429971","imageIndex":8,"items":[{"name":"백세치과의원","tel":"031-581-7528","addr":"경기도 가평군 가평읍 읍내리 475-1번지","indutype":"의원 - 치과의원","category":"medical"}]},{"lat":"37.830452995","long":"127.51302626","imageIndex":8,"items":[{"name":"보령약국","tel":"031-528-7639","addr":"경기도 가평군 가평읍 읍내리 470-3번지","indutype":"약국 - 약국","category":"medical"}]},{"lat":"37.830154515","long":"127.51329682","imageIndex":8,"items":[{"name":"보령약국","tel":"031-582-7639","addr":"경기도 가평군 가평읍 읍내리 470-3번지","indutype":"약국 의료기기","category":"medical"}]},{"lat":"37.829731187","long":"127.51327119","imageIndex":8,"items":[{"name":"새희망마취통증의학과의원","tel":"031-581-7200","addr":"경기도 가평군 가평읍 읍내리 468-21번지","indutype":"의원 - 의원","category":"medical"}]},{"lat":"37.830452306","long":"127.51318529","imageIndex":8,"items":[{"name":"서울가정의학과의원","tel":"031-581-7558","addr":"경기도 가평군 가평읍 읍내리 470-6번지","indutype":"의원 - 의원","category":"medical"}]},{"lat":"37.831679949","long":"127.51263714","imageIndex":8,"items":[{"name":"서울베스트치과","tel":"031-286-8606","addr":"경기도 가평군 가평읍 읍내리 443-17번지 2층","indutype":"의원 - 치과의원","category":"medical"}]},{"lat":"37.830125665","long":"127.5137169","imageIndex":8,"items":[{"name":"서울정형외과","tel":"031-581-4562","addr":"경기도 가평군 가평읍 읍내리 473-1번지","indutype":"의원 - 의원","category":"medical"},{"name":"천병철내과의원","tel":"031-582-0075","addr":"경기도 가평군 가평읍 읍내리 473-1번지","indutype":"의원 - 의원","category":"medical"},{"name":"한천당약국","tel":"031-582-6465","addr":"경기도 가평군 가평읍 읍내리 473-1번지","indutype":"약국 - 약국","category":"medical"}]},{"lat":"37.826981304","long":"127.51374066","imageIndex":8,"items":[{"name":"성민부부한의원","tel":"031-582-5145","addr":"경기도 가평군 가평읍 읍내리 345-1번지","indutype":"의원 - 한의원","category":"medical"}]},{"lat":"37.826452365","long":"127.5152136","imageIndex":8,"items":[{"name":"약손약국","tel":"031-582-8230","addr":"경기도 가평군 가평읍 읍내리 362-2번지","indutype":"약국 - 약국","category":"medical"}]},{"lat":"37.830317367","long":"127.51313892","imageIndex":8,"items":[{"name":"연세복치과","tel":"031-581-2804","addr":"경기도 가평군 가평읍 읍내리 468-8번지 유진빌딩","indutype":"의원 - 치과의원","category":"medical"}]},{"lat":"37.829376583","long":"127.51401843","imageIndex":8,"items":[{"name":"오양근치과의원","tel":"031-582-5566","addr":"경기도 가평군 가평읍 읍내리 474-4번지","indutype":"의원 - 의원","category":"medical"}]},{"lat":"37.83286931","long":"127.51052114","imageIndex":8,"items":[{"name":"우림약국","tel":"031-582-5661","addr":"경기도 가평군 가평읍 읍내리 624-13번지","indutype":"약국 - 약국","category":"medical"}]},{"lat":"37.828538444","long":"127.5140808","imageIndex":8,"items":[{"name":"유성소아과","tel":"031-582-2519","addr":"경기도 가평군 가평읍 읍내리 476-4번지 2층","indutype":"의원 - 의원","category":"medical"}]},{"lat":"37.828349746","long":"127.51396591","imageIndex":8,"items":[{"name":"은혜약국","tel":"031-581-7227","addr":"경기도 가평군 가평읍 읍내리 478-23번지","indutype":"약국 - 약국","category":"medical"}]},{"lat":"37.829288266","long":"127.5136089","imageIndex":8,"items":[{"name":"임내과","tel":"031-581-0675","addr":"경기도 가평군 가평읍 읍내리 476-7번지 2층","indutype":"의원 - 의원","category":"medical"},{"name":"한마음 약국","tel":"031-582-2173","addr":"경기도 가평군 가평읍 읍내리 476-7번지","indutype":"약국 - 약국","category":"medical"}]},{"lat":"37.834820695","long":"127.50927359","imageIndex":8,"items":[{"name":"조일약국","tel":"031-581-1718","addr":"경기도 가평군 가평읍 읍내리 673번지","indutype":"약국 - 약국","category":"medical"}]},{"lat":"37.832095803","long":"127.5102205","imageIndex":8,"items":[{"name":"청담이라인 치과","tel":"031-581-5421","addr":"경기도 가평군 가평읍 읍내리 617-6번지 2,3층","indutype":"의원 - 치과의원","category":"medical"}]},{"lat":"37.830287484","long":"127.51379753","imageIndex":8,"items":[{"name":"하나로약국","tel":"031-58-4994","addr":"경기도 가평군 가평읍 읍내리 471-4","indutype":"약국-약국","category":"medical"}]},{"lat":"37.829569003","long":"127.51119141","imageIndex":8,"items":[{"name":"현대동물병원","tel":"031-582-2752","addr":"경기도 가평군 가평읍 읍내리 489-14번지","indutype":"기타의료기관 - 동물병원","category":"medical"}]}]