[{"lat":"37.409217625","long":"126.81877124","imageIndex":4,"items":[{"name":"마실","tel":"031-405-1561","addr":"경기도 시흥시 도창동 78번지 대선월드피아 B동 104호","indutype":"음식점업 - 일반음식","category":"restaurant"},{"name":"소야소야참숯불구이","tel":"031-435-8706","addr":"경기도 시흥시 도창동 78번지 대선월드피아 B103호","indutype":"음식점업 - 한식","category":"restaurant"},{"name":"여기서","tel":"031-500-0841","addr":"경기도 시흥시 도창동 78번지 대선월드피아","indutype":"음식점업 - 카페","category":"restaurant"},{"name":"주식회사 꼬장녀치킨","tel":"031-312-5242","addr":"경기도 시흥시 도창동 78번지 대선월드피아 1동 B108호","indutype":"음식점업 - 호프","category":"restaurant"},{"name":"홍장군","tel":"","addr":"경기도 시흥시 도창동 78번지 대선월드피아 105호","indutype":"음식점업 - 음식","category":"restaurant"}]},{"lat":"37.408629661","long":"126.81729303","imageIndex":4,"items":[{"name":"바다애","tel":"031-315-1555","addr":"경기도 시흥시 도창동 315-1번지 1(일부)층","indutype":"음식점업 - 한식","category":"restaurant"}]},{"lat":"37.406021647","long":"126.82638036","imageIndex":4,"items":[{"name":"예당매운탕","tel":"031-315-6160","addr":"경기도 시흥시 도창동 127-9번지","indutype":"음식점업 - 한식","category":"restaurant"}]},{"lat":"37.408746489","long":"126.81710073","imageIndex":4,"items":[{"name":"옥돌삼계탕","tel":"031-315-8314","addr":"경기도 시흥시 도창동 73-3번지","indutype":"음식점업 - 한식","category":"restaurant"}]},{"lat":"37.409157761","long":"126.82679092","imageIndex":4,"items":[{"name":"은인성","tel":"031-312-4209","addr":"경기도 시흥시 도창동 18-4번지","indutype":"음식점업 - 한식","category":"restaurant"}]}]