[{"lat":"37.282989598","long":"127.03277531","imageIndex":13,"items":[{"name":"369당구클럽","tel":"031-306-3686","addr":"경기도 수원시 팔달구 우만동 530-2번지 정훈빌딩 3층","indutype":"레저업소 - 당 구 장","category":"leisure"},{"name":"놀라go pc존","tel":"","addr":"경기도 수원시 팔달구 우만동 530-2번지 정훈빌딩 2층","indutype":"레저업소 - 기타레져업소","category":"leisure"}]},{"lat":"37.27890497","long":"127.04286539","imageIndex":13,"items":[{"name":"GS당구장","tel":"070-4789-2144","addr":"경기도 수원시 팔달구 우만동 58-6번지 2층","indutype":"레저업소 - 당 구 장","category":"leisure"}]},{"lat":"37.285954564","long":"127.03034072","imageIndex":13,"items":[{"name":"개미노래연습장","tel":"031-248-5059","addr":"경기도 수원시 팔달구 우만동 504번지 지하","indutype":"레저업소 - 노 래 방","category":"leisure"},{"name":"우만당구클럽","tel":"031-243-5093","addr":"경기도 수원시 팔달구 우만동 504번지 2층","indutype":"레저업소 - 당 구 장","category":"leisure"}]},{"lat":"37.283232573","long":"127.03394814","imageIndex":13,"items":[{"name":"골든벨노래방","tel":"031-257-5140","addr":"경기도 수원시 팔달구 우만동 531-3번지","indutype":"레저업소 - 노 래 방","category":"leisure"}]},{"lat":"37.278156903","long":"127.04349643","imageIndex":13,"items":[{"name":"광장노래연습장","tel":"031-212-8915","addr":"경기도 수원시 팔달구 우만동 575-1번지","indutype":"레저업소 - 노 래 방","category":"leisure"},{"name":"북카페요기","tel":"","addr":"경기도 수원시 팔달구 우만동 575-1번지 아록빌딩 3층 302호","indutype":"레저업소 - 기타레져업소","category":"leisure"},{"name":"싸인 이스케이프","tel":"031-211-8782","addr":"경기도 수원시 팔달구 우만동 575-1번지 아록빌딩 지하1층 101호","indutype":"레저업소 - 기타레져업소","category":"leisure"},{"name":"아록당구타운","tel":"031-215-0203","addr":"경기도 수원시 팔달구 우만동 575-1번지 아록빌딩 6층","indutype":"레저업소 - 당 구 장","category":"leisure"},{"name":"퀸스애비뉴","tel":"031-214-8400","addr":"경기도 수원시 팔달구 우만동 575-1번지 아록빌딩 4층 401호","indutype":"레저업소 - 노 래 방","category":"leisure"},{"name":"탑플레이스PC","tel":"031-000-0000","addr":"경기도 수원시 팔달구 우만동 575-1번지 아록빌딩 2층 201호,202호","indutype":"레저업소 - 기타레져업소","category":"leisure"},{"name":"포포PC방 비발디점","tel":"070-3936-9473","addr":"경기도 수원시 팔달구 우만동 575-1번지 아록빌딩 5층","indutype":"레저업소 - 기타레져업소","category":"leisure"}]},{"lat":"37.280016579","long":"127.03127445","imageIndex":13,"items":[{"name":"길당구클럽","tel":"02-2632-7089","addr":"경기도 수원시 팔달구 우만동 558-12번지 2층","indutype":"레저업소 - 당 구 장","category":"leisure"},{"name":"씽씽노래연습장","tel":"031-211-3331","addr":"경기도 수원시 팔달구 우만동 558-12번지 지하1층","indutype":"레저업소 - 노 래 방","category":"leisure"}]},{"lat":"37.284566274","long":"127.03324955","imageIndex":13,"items":[{"name":"김혜화 골프아카데미","tel":"02-259-2160","addr":"경기도 수원시 팔달구 우만동 522-3번지","indutype":"레저업소 - 골프연습장","category":"leisure"}]},{"lat":"37.288378614","long":"127.02905601","imageIndex":13,"items":[{"name":"까치노래연습장","tel":"031-246-0932","addr":"경기도 수원시 팔달구 우만동 477-19번지 지하","indutype":"레저업소 - 노 래 방","category":"leisure"}]},{"lat":"37.280710528","long":"127.03060944","imageIndex":13,"items":[{"name":"둥지당구장","tel":"","addr":"경기도 수원시 팔달구 우만동 549-7번지 지하1층","indutype":"레저업소 - 당 구 장","category":"leisure"},{"name":"테마노래연습장","tel":"031-211-6708","addr":"경기도 수원시 팔달구 우만동 549-7번지","indutype":"레저업소 - 노 래 방","category":"leisure"}]},{"lat":"37.285099014","long":"127.02844594","imageIndex":13,"items":[{"name":"라인","tel":"070-9144-6864","addr":"경기도 수원시 팔달구 우만동 490-11번지 2층","indutype":"레저업소 - 헬스클럽","category":"leisure"}]},{"lat":"37.275318901","long":"127.04280712","imageIndex":13,"items":[{"name":"마이핏","tel":"031-215-2116","addr":"경기도 수원시 팔달구 우만동 88-3번지 용신빌딩 7층","indutype":"레저업소 - 헬스클럽","category":"leisure"}]},{"lat":"37.276851136","long":"127.04133086","imageIndex":13,"items":[{"name":"바디포스짐","tel":"031-212-5786","addr":"경기도 수원시 팔달구 우만동 95-1번지 3층","indutype":"레저업소 - 헬스클럽","category":"leisure"}]},{"lat":"37.277014566","long":"127.03728309","imageIndex":13,"items":[{"name":"반도당구장","tel":"031-216-8420","addr":"경기도 수원시 팔달구 우만동 141-6번지 보람 상가 지층 2호","indutype":"레저업소 - 당 구 장","category":"leisure"}]},{"lat":"37.27757366","long":"127.03567096","imageIndex":13,"items":[{"name":"방방존","tel":"031-302-4896","addr":"경기도 수원시 팔달구 우만동 146번지 송림빌딩 1동 3층 301호","indutype":"레저업소 - 기타레져업소","category":"leisure"},{"name":"송림스크린&골프연습장","tel":"031-215-9200","addr":"경기도 수원시 팔달구 우만동 146번지 송림빌딩 지하2층","indutype":"레저업소 - 스크린골프","category":"leisure"},{"name":"정원볼링센터","tel":"031-211-8020","addr":"경기도 수원시 팔달구 우만동 146번지 송림빌딩 지하2층","indutype":"레저업소 - 볼 링 장","category":"leisure"}]},{"lat":"37.27884508","long":"127.03195055","imageIndex":13,"items":[{"name":"보니따필라테스수원우만점평생교육원","tel":"031-215-1926","addr":"경기도 수원시 팔달구 우만동 561-13번지 3층 301호","indutype":"레저업소 - 헬스클럽","category":"leisure"}]},{"lat":"37.279565896","long":"127.03197338","imageIndex":13,"items":[{"name":"보라 필라테스","tel":"031-211-3087","addr":"경기도 수원시 팔달구 우만동 561-2번지 우암빌딩 602호","indutype":"레저업소 - 헬스클럽","category":"leisure"}]},{"lat":"37.279683296","long":"127.0308684","imageIndex":13,"items":[{"name":"사비트리 요가 앤 플라잉","tel":"","addr":"경기도 수원시 팔달구 우만동 557-11번지 402호","indutype":"레저업소 - 헬스클럽","category":"leisure"}]},{"lat":"37.278932076","long":"127.0426399","imageIndex":13,"items":[{"name":"사이버블루PC방","tel":"","addr":"경기도 수원시 팔달구 우만동 58-18번지 3층","indutype":"레저업소 - 기타레져업소","category":"leisure"}]},{"lat":"37.279151465","long":"127.03180409","imageIndex":13,"items":[{"name":"산타페 노래연습장","tel":"031-215-5335","addr":"경기도 수원시 팔달구 우만동 561-7번지","indutype":"레저업소 - 노 래 방","category":"leisure"},{"name":"월드당구장","tel":"031-214-8075","addr":"경기도 수원시 팔달구 우만동 561-7번지 지하1층","indutype":"레저업소 - 당 구 장","category":"leisure"}]},{"lat":"37.278905681","long":"127.04070047","imageIndex":13,"items":[{"name":"삼육구(369)","tel":"031-213-1738","addr":"경기도 수원시 팔달구 우만동 49-1번지 지층","indutype":"레저업소 - 노 래 방","category":"leisure"}]},{"lat":"37.276374198","long":"127.03941383","imageIndex":13,"items":[{"name":"샤빌롯 당구클럽","tel":"070-4036-8796","addr":"경기도 수원시 팔달구 우만동 145-5번지 신원빌딩","indutype":"레저업소 - 당 구 장","category":"leisure"}]},{"lat":"37.279151591","long":"127.0312854","imageIndex":13,"items":[{"name":"샵노래연습장","tel":"031-242-0339","addr":"경기도 수원시 팔달구 우만동 562-2번지 동수원빌딩","indutype":"레저업소 - 노 래 방","category":"leisure"},{"name":"스카이당구장","tel":"031-214-3487","addr":"경기도 수원시 팔달구 우만동 562-2번지 동수원빌딩 301호","indutype":"레저업소 - 당 구 장","category":"leisure"}]},{"lat":"37.284791795","long":"127.03220092","imageIndex":13,"items":[{"name":"세븐당구클럽","tel":"000-000-0000","addr":"경기도 수원시 팔달구 우만동 514-5번지 홍산빌딩 3층","indutype":"레저업소 - 당 구 장","category":"leisure"}]},{"lat":"37.286485922","long":"127.03138965","imageIndex":13,"items":[{"name":"쇼킹노래연습장","tel":"031-243-5590","addr":"경기도 수원시 팔달구 우만동 502번지","indutype":"레저업소 - 노 래 방","category":"leisure"},{"name":"어썸 PC cafe","tel":"070-2723-3726","addr":"경기도 수원시 팔달구 우만동 502번지 1층","indutype":"레저업소 - 기타레져업소","category":"leisure"},{"name":"어썸PC Cafe","tel":"070-4141-0423","addr":"경기도 수원시 팔달구 우만동 502번지","indutype":"레저업소 - 기타레져업소","category":"leisure"}]},{"lat":"37.28807193","long":"127.0305332","imageIndex":13,"items":[{"name":"수원클라이밍센터","tel":"031-8025-2016","addr":"경기도 수원시 팔달구 우만동 483-5번지","indutype":"레저업소 - 기타레져업소","category":"leisure"}]},{"lat":"37.288594981","long":"127.02850351","imageIndex":13,"items":[{"name":"쉼터당구장","tel":"031-253-1406","addr":"경기도 수원시 팔달구 우만동 476-8번지 2층","indutype":"레저업소 - 당 구 장","category":"leisure"}]},{"lat":"37.278985855","long":"127.04347432","imageIndex":13,"items":[{"name":"슈퍼스타코인노래연습장","tel":"031-212-9264","addr":"경기도 수원시 팔달구 우만동 573-1번지 3층","indutype":"레저업소 - 노 래 방","category":"leisure"}]},{"lat":"37.279656046","long":"127.03178173","imageIndex":13,"items":[{"name":"시즌PC방","tel":"","addr":"경기도 수원시 팔달구 우만동 561-1번지 메르디앙빌딩 4층","indutype":"레저업소 - 기타레져업소","category":"leisure"},{"name":"윤노래연습장","tel":"031-217-6305","addr":"경기도 수원시 팔달구 우만동 561-1번지 메르디앙빌딩 3층 1호","indutype":"레저업소 - 노 래 방","category":"leisure"}]},{"lat":"37.286152829","long":"127.03017164","imageIndex":13,"items":[{"name":"신나는노래방","tel":"031-252-9992","addr":"경기도 수원시 팔달구 우만동 493-10번지 지하","indutype":"레저업소 - 노 래 방","category":"leisure"}]},{"lat":"37.27709574","long":"127.03700125","imageIndex":13,"items":[{"name":"신세대","tel":"031-212-0446","addr":"경기도 수원시 팔달구 우만동 139-5번지 지하1층","indutype":"레저업소 - 노 래 방","category":"leisure"}]},{"lat":"37.286432045","long":"127.03061153","imageIndex":13,"items":[{"name":"썬 노래연습장","tel":"031-235-2962","addr":"경기도 수원시 팔달구 우만동 494-2번지 지층","indutype":"레저업소 - 노 래 방","category":"leisure"}]},{"lat":"37.27570607","long":"127.04360786","imageIndex":13,"items":[{"name":"아이센스PC방","tel":"070-7737-0452","addr":"경기도 수원시 팔달구 우만동 578-1번지 용성빌딩 지하","indutype":"레저업소 - 기타레져업소","category":"leisure"},{"name":"에이스당구장","tel":"02-0000-0000","addr":"경기도 수원시 팔달구 우만동 578-1번지 용성빌딩 3층","indutype":"레저업소 - 당 구 장","category":"leisure"},{"name":"케어핏","tel":"031-214-7350","addr":"경기도 수원시 팔달구 우만동 578-1번지 용성빌딩 지하","indutype":"레저업소 - 헬스클럽","category":"leisure"}]},{"lat":"37.278427315","long":"127.04319213","imageIndex":13,"items":[{"name":"애플노래연습장","tel":"031-212-3616","addr":"경기도 수원시 팔달구 우만동 63-4번지 2층","indutype":"레저업소 - 노 래 방","category":"leisure"}]},{"lat":"37.2786559","long":"127.0318039","imageIndex":13,"items":[{"name":"어썸커뮤니티","tel":"031-211-2462","addr":"경기도 수원시 팔달구 우만동 561-15번지 상안빌딩 8층","indutype":"레저업소 - 기타레져업소","category":"leisure"}]},{"lat":"37.284710573","long":"127.03271961","imageIndex":13,"items":[{"name":"에이스노래방","tel":"031-255-1640","addr":"경기도 수원시 팔달구 우만동 522-21번지","indutype":"레저업소 - 노 래 방","category":"leisure"}]},{"lat":"37.289071898","long":"127.0312553","imageIndex":13,"items":[{"name":"엔조이 스쿠버다이빙","tel":"031-305-7687","addr":"경기도 수원시 팔달구 우만동 481-1번지 2층","indutype":"레저업소 - 기타레져업소","category":"leisure"}]},{"lat":"37.285378216","long":"127.02897604","imageIndex":13,"items":[{"name":"영노래방","tel":"031-257-0310","addr":"경기도 수원시 팔달구 우만동 491-10번지","indutype":"레저업소 - 노 래 방","category":"leisure"}]},{"lat":"37.277267077","long":"127.0365052","imageIndex":13,"items":[{"name":"올데이피티 (All-day PT)","tel":"031-214-3340","addr":"경기도 수원시 팔달구 우만동 140-4번지 송암빌딩","indutype":"레저업소 - 헬스클럽","category":"leisure"}]},{"lat":"37.279322693","long":"127.03166884","imageIndex":13,"items":[{"name":"우만동수원골프점","tel":"031-216-7753","addr":"경기도 수원시 팔달구 우만동 561-8번지 아이월드 가동 110~115호","indutype":"레저업소 - 스크린골프","category":"leisure"}]},{"lat":"37.283152288","long":"127.03070054","imageIndex":13,"items":[{"name":"우만헬스클럽","tel":"031-242-3309","addr":"경기도 수원시 팔달구 우만동 526-12번지 한효우만타운아파트 1층 113호 외","indutype":"레저업소 - 헬스클럽","category":"leisure"}]},{"lat":"37.282484966","long":"127.03300064","imageIndex":13,"items":[{"name":"월드노래연습장","tel":"","addr":"경기도 수원시 팔달구 우만동 552-8번지 지층","indutype":"레저업소 - 노 래 방","category":"leisure"}]},{"lat":"37.285072043","long":"127.02816402","imageIndex":13,"items":[{"name":"월드컵노래연습장","tel":"031-246-8070","addr":"경기도 수원시 팔달구 우만동 490-7번지 지층","indutype":"레저업소 - 노 래 방","category":"leisure"},{"name":"킹짐 2호점","tel":"031-247-7774","addr":"경기도 수원시 팔달구 우만동 490-7번지 4층","indutype":"레저업소 - 헬스클럽","category":"leisure"}]},{"lat":"37.285683218","long":"127.0345017","imageIndex":13,"items":[{"name":"월드컵당구장","tel":"031-000-0000","addr":"경기도 수원시 팔달구 우만동 519번지 연안빌딩 3층","indutype":"레저업소 - 당 구 장","category":"leisure"}]},{"lat":"37.287295209","long":"127.03752459","imageIndex":13,"items":[{"name":"월드컵스크린","tel":"031-252-0782","addr":"경기도 수원시 팔달구 우만동 228번지 수원월드컵경기장 3층","indutype":"레저업소 - 스크린골프","category":"leisure"},{"name":"월드컵스포츠","tel":"031-259-2153","addr":"경기도 수원시 팔달구 우만동 228번지 월드컵스포츠센터 2층","indutype":"레저업소 - 기타레져업소","category":"leisure"}]},{"lat":"37.281710189","long":"127.03258311","imageIndex":13,"items":[{"name":"월드탁구클럽","tel":"031-221-3630","addr":"경기도 수원시 팔달구 우만동 553-11번지 3층","indutype":"레저업소 - 기타레져업소","category":"leisure"}]},{"lat":"37.285846488","long":"127.0301377","imageIndex":13,"items":[{"name":"유토피아피시방","tel":"","addr":"경기도 수원시 팔달구 우만동 504-9번지","indutype":"레저업소 - 기타레져업소","category":"leisure"}]},{"lat":"37.286350979","long":"127.03049874","imageIndex":13,"items":[{"name":"장수노래연습장","tel":"031-245-1531","addr":"경기도 수원시 팔달구 우만동 494-3번지","indutype":"레저업소 - 노 래 방","category":"leisure"}]},{"lat":"37.279213105","long":"127.03717134","imageIndex":13,"items":[{"name":"점핑스타","tel":"031-217-2131","addr":"경기도 수원시 팔달구 우만동 133번지 월드프라자 603호","indutype":"레저업소 - 기타레져업소","category":"leisure"}]},{"lat":"37.279184093","long":"127.0434406","imageIndex":13,"items":[{"name":"질러넷노래연습장","tel":"031-211-0037","addr":"경기도 수원시 팔달구 우만동 571-3번지 지층","indutype":"레저업소 - 노 래 방","category":"leisure"}]},{"lat":"37.276490849","long":"127.04094732","imageIndex":13,"items":[{"name":"캡틴노래연습장","tel":"031-214-4224","addr":"경기도 수원시 팔달구 우만동 96-6번지 남경빌딩 지층","indutype":"레저업소 - 노 래 방","category":"leisure"}]},{"lat":"37.275183578","long":"127.04330315","imageIndex":13,"items":[{"name":"크로스핏SIDAE","tel":"031-214-0117","addr":"경기도 수원시 팔달구 우만동 81-6번지","indutype":"레저업소 - 헬스클럽","category":"leisure"}]},{"lat":"37.275959235","long":"127.0409696","imageIndex":13,"items":[{"name":"크리쉬나요가원","tel":"031-211-2196","addr":"경기도 수원시 팔달구 우만동 92-1번지 블루하우스 407호","indutype":"레저업소 - 헬스클럽","category":"leisure"},{"name":"피플노래연습장","tel":"031-211-8558","addr":"경기도 수원시 팔달구 우만동 92-1번지 블루하우스 208호","indutype":"레저업소 - 노 래 방","category":"leisure"}]},{"lat":"37.275462742","long":"127.04375431","imageIndex":13,"items":[{"name":"킹노래연습장","tel":"031-212-0497","addr":"경기도 수원시 팔달구 우만동 578-3번지","indutype":"레저업소 - 노 래 방","category":"leisure"}]},{"lat":"37.278093942","long":"127.0431694","imageIndex":13,"items":[{"name":"킹콩PC방","tel":"","addr":"경기도 수원시 팔달구 우만동 63-6번지 2층 201호","indutype":"레저업소 - 기타레져업소","category":"leisure"}]},{"lat":"37.279319247","long":"127.04344067","imageIndex":13,"items":[{"name":"판타스틱코인노래연습장","tel":"","addr":"경기도 수원시 팔달구 우만동 571-2번지 3층","indutype":"레저업소 - 노 래 방","category":"leisure"}]},{"lat":"37.287567517","long":"127.02983384","imageIndex":13,"items":[{"name":"필","tel":"031-243-6968","addr":"경기도 수원시 팔달구 우만동 484-22번지 지층","indutype":"레저업소 - 노 래 방","category":"leisure"}]},{"lat":"37.289622247","long":"127.02805277","imageIndex":13,"items":[{"name":"필라테스 다나","tel":"","addr":"경기도 수원시 팔달구 우만동 468-2번지 다인캐슬 101동 1층 102호","indutype":"레저업소 - 헬스클럽","category":"leisure"}]},{"lat":"37.288567699","long":"127.02964249","imageIndex":13,"items":[{"name":"핑클노래연습장","tel":"031-255-5766","addr":"경기도 수원시 팔달구 우만동 478-5번지 2층","indutype":"레저업소 - 노 래 방","category":"leisure"}]},{"lat":"37.284566462","long":"127.0325053","imageIndex":13,"items":[{"name":"한큐","tel":"031-253-3821","addr":"경기도 수원시 팔달구 우만동 523-11번지","indutype":"레저업소 - 당 구 장","category":"leisure"}]},{"lat":"37.286098671","long":"127.03058886","imageIndex":13,"items":[{"name":"허브노래연습장","tel":"031-242-4998","addr":"경기도 수원시 팔달구 우만동 503-12번지 2층","indutype":"레저업소 - 노 래 방","category":"leisure"}]},{"lat":"37.281430842","long":"127.03269576","imageIndex":13,"items":[{"name":"황제노래연습장","tel":"","addr":"경기도 수원시 팔달구 우만동 553-16번지 지층","indutype":"레저업소 - 노 래 방","category":"leisure"}]}]