[{"lat":"37.135417652","long":"127.07472953","imageIndex":9,"items":[{"name":"SK네트웍스(주)원동주유소","tel":"031-374-0142","addr":"경기도 오산시 원동 513번지","indutype":"연료판매점 - SK주유소","category":"oil"},{"name":"SK에너지 원동주유소","tel":"031-374-0142","addr":"경기도 오산시 원동 513번지","indutype":"연료판매점 - SK주유소","category":"oil"}]},{"lat":"37.137472564","long":"127.07386486","imageIndex":9,"items":[{"name":"오산LPG충전소","tel":"031-374-2822","addr":"경기도 오산시 원동 385번지","indutype":"연료판매점 - E1가스충전소","category":"oil"}]},{"lat":"37.136528722","long":"127.08436441","imageIndex":9,"items":[{"name":"오산가스","tel":"031-373-1717","addr":"경기도 오산시 원동 655-30번지","indutype":"연료판매점 - LPG 취급점","category":"oil"}]},{"lat":"37.142417591","long":"127.07669458","imageIndex":9,"items":[{"name":"오산제일주유소","tel":"031-376-0090","addr":"경기도 오산시 원동 119-137번지","indutype":"연료판매점 - SK주유소","category":"oil"}]},{"lat":"37.137202384","long":"127.07363952","imageIndex":9,"items":[{"name":"주식회사우성주유소","tel":"031-377-3388","addr":"경기도 오산시 원동 420-1번지","indutype":"연료판매점 - 주유소","category":"oil"},{"name":"하하하주유소","tel":"031-377-3388","addr":"경기도 오산시 원동 420-1번지","indutype":"연료판매점 - 현대정유(오일뱅크)","category":"oil"}]},{"lat":"37.142896959","long":"127.07372361","imageIndex":9,"items":[{"name":"한일주유소","tel":"031-374-9190","addr":"경기도 오산시 원동 791-1번지","indutype":"연료판매점 - 현대정유(오일뱅크)","category":"oil"}]}]