[{"lat":"37.601533255","long":"127.14156877","imageIndex":8,"items":[{"name":"365MC의원구리점","tel":"031-556-3650","addr":"경기도 구리시 인창동 676-1번지 두진에코맥스제4층제406호~제410호","indutype":"의원 - 의원","category":"medical"},{"name":"구리이지함피부과의원","tel":"031-567-6711","addr":"경기도 구리시 인창동 676-1번지 리맥스빌딩 3층","indutype":"의원 - 의원","category":"medical"},{"name":"구리항외과의원","tel":"031-569-8575","addr":"경기도 구리시 인창동 676-1두진에코맥스601,602,603호","indutype":"의원 - 의원","category":"medical"},{"name":"꿈나무치과의원","tel":"031-563-0428","addr":"경기도 구리시 인창동 676-1번지 두진에코맥스 6층 610호","indutype":"의원 - 치과의원","category":"medical"},{"name":"리맥스샘약국","tel":"031-555-4344","addr":"경기도 구리시 인창동 676-1번지 리맥스빌딩 503호","indutype":"약국 - 약국","category":"medical"},{"name":"메디컬 5층 약국","tel":"031-513-3355","addr":"경기도 구리시 인창동 676-1번지 두진에코맥스 5층 514호","indutype":"약국 - 약국","category":"medical"},{"name":"문승환내과의원","tel":"031-553-9221","addr":"경기도 구리시 인창동 676-1번지 문승환내과의원","indutype":"의원 - 의원","category":"medical"},{"name":"상쾌한의원","tel":"031-563-8714","addr":"경기도 구리시 인창동 676-1번지 리맥스빌딩 507호","indutype":"의원 - 의원","category":"medical"},{"name":"서울탑마취통증의학과의원","tel":"031-565-1083","addr":"경기도 구리시 인창동 676-1번지 리맥스빌딩 609호","indutype":"의원 - 의원","category":"medical"},{"name":"이규백비뇨기과의원","tel":"031-565-3577","addr":"경기도 구리시 인창동 676-1번지 리맥스빌딩 5층","indutype":"의원 - 의원","category":"medical"},{"name":"이명철성형외과","tel":"031-553-3366","addr":"경기도 구리시 인창동 676-1번지 리멕스타운 512호","indutype":"의원 - 의원","category":"medical"},{"name":"폴리한의원","tel":"031-524-9875","addr":"경기도 구리시 인창동 676-1번지 리맥스빌딩 3층","indutype":"의원 - 한의원","category":"medical"}]},{"lat":"37.60464389","long":"127.13962671","imageIndex":8,"items":[{"name":"가람동물병원","tel":"031-558-7582","addr":"경기도 구리시 인창동 346-40번지","indutype":"기타의료기관 - 동물병원","category":"medical"}]},{"lat":"37.601092825","long":"127.14067335","imageIndex":8,"items":[{"name":"가로세로한의원","tel":"031-554-8475","addr":"경기도 구리시 인창동 264-4번지 쌍용플래티넘선스타워 204호","indutype":"의원 - 한의원","category":"medical"},{"name":"구리돌다리정형외과의원","tel":"031-550-6565","addr":"경기도 구리시 인창동 264-4번지 쌍용오피스텔 3층 302호","indutype":"의원 - 의원","category":"medical"},{"name":"구리미소치과","tel":"031-569-9332","addr":"경기도 구리시 인창동 264-4번지 쌍용플레티넘오피스텔 306호","indutype":"의원 - 치과의원","category":"medical"},{"name":"김병수치과의원","tel":"031-550-6550","addr":"경기도 구리시 인창동 264-4번지 쌍용플레의빌 7동 1308호","indutype":"의원 - 의원","category":"medical"},{"name":"서울이안과의원","tel":"031-550-6660","addr":"경기도 구리시 인창동 264-4번지","indutype":"의원 - 의원","category":"medical"},{"name":"쌍용4층약국","tel":"031-550-6622","addr":"경기도 구리시 인창동 264-4번지 쌍용오피스텔 408호","indutype":"약국 - 약국","category":"medical"},{"name":"연세이비인후과의원","tel":"031-556-3375","addr":"경기도 구리시 인창동 264-4번지 쌍용플레티넘 407호","indutype":"의원 - 의원","category":"medical"},{"name":"조셉의원","tel":"031-557-5500","addr":"경기도 구리시 인창동 264-4번지 쌍용오피스텔 401호","indutype":"의원 - 의원","category":"medical"}]},{"lat":"37.604506352","long":"127.14167621","imageIndex":8,"items":[{"name":"강남성모내과","tel":"031-555-6600","addr":"경기도 구리시 인창동 672-3신아월드코아3층306호~307호","indutype":"의원 - 의원","category":"medical"},{"name":"문향한의원","tel":"031-558-1075","addr":"경기도 구리시 인창동 672-3번지 신아월드코아 3층 308호","indutype":"의원 - 한의원","category":"medical"},{"name":"박항이비인후과","tel":"031-557-1555","addr":"경기도 구리시 인창동 672-3번지 (택지개발13브럭304)","indutype":"의원 - 의원","category":"medical"},{"name":"신아약국","tel":"031-568-4004","addr":"경기도 구리시 인창동 672-3번지","indutype":"약국 - 약국","category":"medical"},{"name":"예인치과의원","tel":"031-552-2882","addr":"경기도 구리시 인창동 672-3번지 신아월드코아 406호","indutype":"의원 - 치과의원","category":"medical"},{"name":"준크리닉","tel":"031-551-3001","addr":"경기도 구리시 인창동 672-3번지 신아월드코아 303호 302","indutype":"의원 - 의원","category":"medical"}]},{"lat":"37.604336625","long":"127.1404302","imageIndex":8,"items":[{"name":"겸한의원","tel":"031-564-1075","addr":"경기도 구리시 인창동 670-7번지 화성골드프라자 205호","indutype":"의원 - 한의원","category":"medical"},{"name":"구리허브치과","tel":"031-565-2875","addr":"경기도 구리시 인창동 670-7번지 화성골드프라자 504호","indutype":"의원 - 치과의원","category":"medical"},{"name":"느티나무의원","tel":"031-555-8004","addr":"경기도 구리시 인창동 670-7번지 화성골드프라자 2층 207호,208호","indutype":"의원 - 의원","category":"medical"},{"name":"두리약국","tel":"031-562-2728","addr":"경기도 구리시 인창동 670-7번지 화성골드프라자 207호","indutype":"약국 - 약국","category":"medical"}]},{"lat":"37.608227384","long":"127.13378949","imageIndex":8,"items":[{"name":"경희가인한의원","tel":"031-557-8100","addr":"경기도 구리시 인창동 487-28번지 인창빌딩 3층","indutype":"의원 - 한의원","category":"medical"},{"name":"김진치과의원","tel":"031-565-2804","addr":"경기도 구리시 인창동 487-28번지 인창빌딩 2층","indutype":"의원 - 치과의원","category":"medical"},{"name":"서울진마취통증의학과의원","tel":"031-564-7577","addr":"경기도 구리시 인창동 487-28번지 인창빌딩 4층","indutype":"의원 - 의원","category":"medical"},{"name":"지의원","tel":"031-565-8275","addr":"경기도 구리시 인창동 487-28번지 인창빌딩 2층","indutype":"의원 - 의원","category":"medical"}]},{"lat":"37.608416777","long":"127.13361995","imageIndex":8,"items":[{"name":"경희부부한의원","tel":"031-566-7577","addr":"경기도 구리시 인창동 493-7번지 경호빌딩 2층 후면한의원","indutype":"의원 - 한의원","category":"medical"},{"name":"사랑이가득한치과의원","tel":"031-565-2879","addr":"경기도 구리시 인창동 494-1번지 경호빌딩 2층","indutype":"의원 - 치과의원","category":"medical"},{"name":"우리들소아과","tel":"031-552-4211","addr":"경기도 구리시 인창동 493-7번지 경호빌딩 2층","indutype":"의원 - 의원","category":"medical"},{"name":"큰사랑약국","tel":"031-567-4312","addr":"경기도 구리시 인창동 493-7번지 경호빌딩 1층","indutype":"약국 - 약국","category":"medical"}]},{"lat":"37.604758824","long":"127.14150681","imageIndex":8,"items":[{"name":"경희약침한의원","tel":"031-567-8275","addr":"경기도 구리시 인창동 672-2번지 세신종합상가208,209","indutype":"의원 - 한의원","category":"medical"},{"name":"이명희산부인과","tel":"031-552-1072","addr":"경기도 구리시 인창동 672-2번지 세신인창종합상가 505동 506호","indutype":"의원 - 의원","category":"medical"},{"name":"인창연세치과","tel":"031-552-2804","addr":"경기도 구리시 인창동 672-2번지 세신인창종합상가 5층 2","indutype":"의원 - 치과의원","category":"medical"}]},{"lat":"37.61269716","long":"127.14087597","imageIndex":8,"items":[{"name":"고운한의원","tel":"031-556-1010","addr":"경기도 구리시 인창동 430번지 가공식품동 2층 48동 49호","indutype":"의원 - 한의원","category":"medical"},{"name":"예일치과","tel":"031-563-7528","addr":"경기도 구리시 인창동 430번지 2층","indutype":"의원 - 치과의원","category":"medical"}]},{"lat":"37.60084133","long":"127.14000477","imageIndex":8,"items":[{"name":"고은이치과의원","tel":"031-569-5280","addr":"경기도 구리시 인창동 280-4번지 명동빌딩 3층","indutype":"의원 - 치과의원","category":"medical"},{"name":"박춘서한의원","tel":"031-562-0459","addr":"경기도 구리시 인창동 280-4번지 명동빌딩 201호","indutype":"의원 - 한의원","category":"medical"},{"name":"베스트마취통증의학과의원","tel":"031-568-8575","addr":"경기도 구리시 인창동 280-4번지 명동빌딩 5층","indutype":"의원 - 의원","category":"medical"},{"name":"삼층약국","tel":"031-562-8006","addr":"경기도 구리시 인창동 280-4 111번지","indutype":"약국 - 약국","category":"medical"},{"name":"석비뇨기과의원","tel":"031-557-1653","addr":"경기도 구리시 인창동 280-4번지","indutype":"의원 - 의원","category":"medical"},{"name":"석피부비뇨기과의원","tel":"031-557-1653","addr":"경기도 구리시 인창동 280-4번지 명동빌딩 3층","indutype":"의원 - 의원","category":"medical"},{"name":"성재소아과의원","tel":"031-563-2319","addr":"경기도 구리시 인창동 280-4번지 명동빌딩 305호","indutype":"의원 - 의원","category":"medical"},{"name":"수 영상의학과의원","tel":"031-554-9998","addr":"경기도 구리시 인창동 280-4번지 명동빌딩 3층","indutype":"의원 - 의원","category":"medical"},{"name":"애플산부인과 구리점","tel":"031-568-5100","addr":"경기도 구리시 인창동 280-4번지 명동빌딩 4층","indutype":"의원 - 의원","category":"medical"}]},{"lat":"37.600891018","long":"127.13595086","imageIndex":8,"items":[{"name":"구리서울한의원","tel":"031-563-2255","addr":"경기도 구리시 인창동 288-21번지","indutype":"의원 - 한의원","category":"medical"}]},{"lat":"37.605419148","long":"127.13926574","imageIndex":8,"items":[{"name":"구리웰치과의원","tel":"031-566-7528","addr":"경기도 구리시 인창동 344-7번지 2층","indutype":"의원 - 치과의원","category":"medical"}]},{"lat":"37.609755519","long":"127.1369293","imageIndex":8,"items":[{"name":"구리튼튼치과의원","tel":"031-564-2275","addr":"경기도 구리시 인창동 408-28번지 인성빌딩 2층","indutype":"의원 - 치과의원","category":"medical"}]},{"lat":"37.608618701","long":"127.13832027","imageIndex":8,"items":[{"name":"구리하와유치과의원","tel":"031-557-2804","addr":"경기도 구리시 인창동 382번지","indutype":"의원 - 치과의원","category":"medical"}]},{"lat":"37.60200052","long":"127.14262279","imageIndex":8,"items":[{"name":"구리함소아한의원","tel":"031-565-1075","addr":"경기도 구리시 인창동 676-6번지 동원플레이스테이션 8층 3호","indutype":"의원 - 한의원","category":"medical"},{"name":"동원약국","tel":"031-551-3111","addr":"경기도 구리시 인창동 676-6번지 동원파크빌딩 104호","indutype":"약국 - 약국","category":"medical"},{"name":"두리이비인후과의원","tel":"031-566-5075","addr":"경기도 구리시 인창동 동원플레이스테이션407~408호","indutype":"의원 - 의원","category":"medical"},{"name":"보스톤치과","tel":"031-566-2895","addr":"경기도 구리시 인창동 676-6번지 동원플레이스 703호","indutype":"의원 - 치과의원","category":"medical"},{"name":"아너스치과의원","tel":"031-557-2875","addr":"경기도 구리시 인창동 676-6동원파크3층301,302,304호","indutype":"의원 - 치과의원","category":"medical"},{"name":"유로진남성비뇨기과의원","tel":"031-551-0070","addr":"경기도 구리시 인창동 676-6번지 동원플에이스테이션 604호","indutype":"의원 - 의원","category":"medical"},{"name":"일맥한의원","tel":"031-553-1175","addr":"경기도 구리시 인창동 676-6번지 동원플레이스테이션 801호 동원플레이스테이션","indutype":"의원 - 한의원","category":"medical"},{"name":"청구경희한의원","tel":"031-554-1082","addr":"경기도 구리시 인창동 676-6번지 동원플레이스테이션 402호","indutype":"의원 - 한의원","category":"medical"},{"name":"코앤유의원","tel":"031-551-5897","addr":"경기도 구리시 인창동 676-6번지 동원플레이스테이션 306호","indutype":"의원 - 의원","category":"medical"},{"name":"화인마취통증의학과의원 구리점","tel":"031-523-9188","addr":"경기도 구리시 인창동 676-6번지 동원플에이스테이션 1동 6층","indutype":"의원 - 의원","category":"medical"}]},{"lat":"37.607951733","long":"127.13853423","imageIndex":8,"items":[{"name":"구리황내과의원","tel":"031-562-4560","addr":"경기도 구리시 인창동 382-8번지 우진빌딩 5,6층","indutype":"의원 - 의원","category":"medical"},{"name":"우진 메디칼 약국","tel":"031-553-3553","addr":"경기도 구리시 인창동 382-8번지 우진빌딩 1층","indutype":"약국 - 약국","category":"medical"}]},{"lat":"37.61003541","long":"127.11939804","imageIndex":8,"items":[{"name":"국군구리병원","tel":"031-554-0940","addr":"경기도 구리시 인창동 661-8번지","indutype":"병원 - 종합병원","category":"medical"}]},{"lat":"37.604896294","long":"127.13951393","imageIndex":8,"items":[{"name":"기쁨약국","tel":"031-564-0225","addr":"경기도 구리시 인창동 346-6번지 유일빌딩 1층","indutype":"약국 - 약국","category":"medical"}]},{"lat":"37.608255902","long":"127.14040344","imageIndex":8,"items":[{"name":"김곤의원","tel":"031-557-2824","addr":"경기도 구리시 인창동 663-4번지 주공1단지 상가 201호","indutype":"의원 - 의원","category":"medical"}]},{"lat":"37.60955847","long":"127.13589834","imageIndex":8,"items":[{"name":"김석호치과","tel":"031-567-3043","addr":"경기도 구리시 인창동 458-20번지 대웅빌딩 2층","indutype":"의원 - 치과의원","category":"medical"},{"name":"삼대한의원","tel":"031-551-1075","addr":"경기도 구리시 인창동 458-20번지","indutype":"의원 - 한의원","category":"medical"}]},{"lat":"37.608723846","long":"127.1329523","imageIndex":8,"items":[{"name":"김원영한의원","tel":"031-551-5474","addr":"경기도 구리시 인창동 493-3번지","indutype":"의원 - 한의원","category":"medical"}]},{"lat":"37.604425716","long":"127.14129103","imageIndex":8,"items":[{"name":"대웅한의원","tel":"031-553-7588","addr":"경기도 구리시 인창동 672-4번지 2층 214-217호","indutype":"의원 - 한의원","category":"medical"}]},{"lat":"37.609143895","long":"127.13601086","imageIndex":8,"items":[{"name":"동구약국","tel":"031-562-5211","addr":"경기도 구리시 인창동 504-4번지","indutype":"약국 - 약국","category":"medical"}]},{"lat":"37.609611646","long":"127.13667989","imageIndex":8,"items":[{"name":"래플즈동물병원","tel":"031-563-7582","addr":"경기도 구리시 인창동 408-27번지 구일빌딩 102호","indutype":"기타의료기관 - 동물병원","category":"medical"}]},{"lat":"37.608222182","long":"127.13839882","imageIndex":8,"items":[{"name":"미래정형외과의원","tel":"031-554-6677","addr":"경기도 구리시 인창동 382-7번지 현산빌딩 2층","indutype":"의원 - 의원","category":"medical"},{"name":"알파정형외과","tel":"031-554-6677","addr":"경기도 구리시 인창동 382-7번지 현산빌딩 2층","indutype":"의원 - 의원","category":"medical"}]},{"lat":"37.602144286","long":"127.14295146","imageIndex":8,"items":[{"name":"미올한의원","tel":"031-553-5500","addr":"경기도 구리시 인창동 676-7번지 다우스퀘어 7층 705호","indutype":"의원 - 한의원","category":"medical"},{"name":"백외과의원","tel":"031-551-8920","addr":"경기도 구리시 인창동 676-7번지 백외과의원","indutype":"의원 - 의원","category":"medical"},{"name":"손창신의원","tel":"031-551-0078","addr":"경기도 구리시 인창동 676-7번지 다우스퀘어 703호","indutype":"의원 - 의원","category":"medical"},{"name":"아이미소소아치과의원","tel":"031-562-7528","addr":"경기도 구리시 인창동 676-7번지 다우스퀘어빌딩 402호","indutype":"의원 - 치과의원","category":"medical"},{"name":"연세드림치과의원","tel":"031-555-8275","addr":"경기도 구리시 인창동 676-7번지 다우스퀘어 601호","indutype":"의원 - 치과의원","category":"medical"},{"name":"우리피부과의원","tel":"031-565-5544","addr":"경기도 구리시 인창동 676-7번지","indutype":"의원 - 의원","category":"medical"},{"name":"위강한의원(구리점)","tel":"031-523-2015","addr":"경기도 구리시 인창동 676-7번지 다우스퀘어 2층 201호,202호","indutype":"의원 - 한의원","category":"medical"},{"name":"이플란트치과의원","tel":"031-555-2860","addr":"경기도 구리시 인창동 676-7 다우스퀘어3층301호~302호","indutype":"의원 - 의원","category":"medical"},{"name":"잘나가는 한의원","tel":"031-566-1075","addr":"경기도 구리시 인창동 676-7번지 다우스퀘어 405호","indutype":"의원 - 한의원","category":"medical"},{"name":"정약국","tel":"031-555-1147","addr":"경기도 구리시 인창동 676-7번지 다우스퀘어 102호","indutype":"약국 - 약국","category":"medical"},{"name":"정재숙산부인과의원","tel":"031-562-1580","addr":"경기도 구리시 인창동 676-7번지 다우스퀘어 603호","indutype":"의원 - 의원","category":"medical"},{"name":"펜실베니아치과","tel":"031-552-2822","addr":"경기도 구리시 인창동 676-7번지 황금시계 701호","indutype":"의원 - 치과의원","category":"medical"},{"name":"프라임비뇨기과","tel":"031-551-8875","addr":"경기도 구리시 인창동 676-7번지 다우스퀘어 602호","indutype":"의원 - 의원","category":"medical"},{"name":"행복한길정신과의원","tel":"031-568-7734","addr":"경기도 구리시 인창동 676-7번지 황금시계 501호","indutype":"의원 - 의원","category":"medical"},{"name":"헤브론한의원","tel":"031-557-8855","addr":"경기도 구리시 인창동 676-7번지 다우스퀘어 4층 403호","indutype":"의원 - 한의원","category":"medical"}]},{"lat":"37.608200103","long":"127.13401595","imageIndex":8,"items":[{"name":"반내과의원","tel":"031-554-3375","addr":"경기도 구리시 인창동 487-49번지","indutype":"의원 - 의원","category":"medical"},{"name":"예손치과의원","tel":"031-552-7178","addr":"경기도 구리시 인창동 487-49번지 인창빌딩 3층","indutype":"의원 - 치과의원","category":"medical"},{"name":"이응준이비인후과의원","tel":"031-558-9244","addr":"경기도 구리시 인창동 487-49번지 인창빌딩 201호","indutype":"의원 - 의원","category":"medical"}]},{"lat":"37.608255152","long":"127.13312136","imageIndex":8,"items":[{"name":"밝은미소치과의원","tel":"031-569-2875","addr":"경기도 구리시 인창동 651-30번지 2층","indutype":"의원 - 치과의원","category":"medical"}]},{"lat":"37.604392037","long":"127.13926387","imageIndex":8,"items":[{"name":"본약국","tel":"031-565-7377","addr":"경기도 구리시 인창동 313-24번지 101호","indutype":"약국 - 약국","category":"medical"}]},{"lat":"37.608730731","long":"127.13486627","imageIndex":8,"items":[{"name":"사랑우리  동물병원","tel":"031-569-7582","addr":"경기도 구리시 인창동 495-10번지 1층","indutype":"기타의료기관 - 동물병원","category":"medical"}]},{"lat":"37.606284279","long":"127.13909745","imageIndex":8,"items":[{"name":"삼성서울가정의원","tel":"031-563-8279","addr":"경기도 구리시 인창동 383-100번지","indutype":"의원 - 의원","category":"medical"}]},{"lat":"37.608979286","long":"127.13815104","imageIndex":8,"items":[{"name":"새롬 소아청소년과 의원","tel":"031-563-0075","addr":"경기도 구리시 인창동 412-14번지 중앙빌딩 2층","indutype":"의원 - 의원","category":"medical"},{"name":"신농씨한의원","tel":"031-553-0700","addr":"경기도 구리시 인창동 412-14번지 중앙빌딩 302호","indutype":"의원 - 한의원","category":"medical"}]},{"lat":"37.605003609","long":"127.14020493","imageIndex":8,"items":[{"name":"새싹약국","tel":"031-554-0036","addr":"경기도 구리시 인창동 670-1번지 태영빌딩 112호","indutype":"약국 - 약국","category":"medical"},{"name":"서울이안치과의원","tel":"031-551-5517","addr":"경기도 구리시 인창동 670-1번지 태영빌딩 301호","indutype":"의원 - 치과의원","category":"medical"},{"name":"수 소아청소년과의원","tel":"031-552-0075","addr":"경기도 구리시 인창동 670-1번지 태영빌딩 302호","indutype":"의원 - 의원","category":"medical"}]},{"lat":"37.606615997","long":"127.14051367","imageIndex":8,"items":[{"name":"서울메디칼약국","tel":"031-555-3408","addr":"경기도 구리시 인창동 665-1번지 삼보상가 2층 206호","indutype":"약국 - 약국","category":"medical"},{"name":"인창한의원","tel":"031-562-7575","addr":"경기도 구리시 인창동 665-1번지 삼보상가","indutype":"의원 - 한의원","category":"medical"}]},{"lat":"37.606253974","long":"127.13403518","imageIndex":8,"items":[{"name":"성림치과의원","tel":"031-557-2879","addr":"경기도 구리시 인창동 527-32번지 원진녹색병원 별관 1층 1호","indutype":"의원 - 치과의원","category":"medical"}]},{"lat":"37.611647084","long":"127.14504188","imageIndex":8,"items":[{"name":"신선한의원","tel":"031-564-1275","addr":"경기도 구리시 인창동 127번지","indutype":"의원 - 한의원","category":"medical"}]},{"lat":"37.60133622","long":"127.14056056","imageIndex":8,"items":[{"name":"에스필의원","tel":"031-514-7700","addr":"경기도 구리시 인창동 266-8번지 3층","indutype":"의원 - 의원","category":"medical"}]},{"lat":"37.609616607","long":"127.13222903","imageIndex":8,"items":[{"name":"연세김치과","tel":"031-562-2804","addr":"경기도 구리시 인창동 493-1번지","indutype":"의원 - 치과의원","category":"medical"}]},{"lat":"37.607281975","long":"127.13323291","imageIndex":8,"items":[{"name":"연세황내과의원","tel":"02-1111-1111","addr":"경기도 구리시 인창동 703번지 동원베네스트 상가동 2층 203-4호","indutype":"의원 - 의원","category":"medical"}]},{"lat":"37.609944479","long":"127.13714483","imageIndex":8,"items":[{"name":"옵티마행복약국","tel":"031-553-1055","addr":"경기도 구리시 인창동 408-12번지 화성빌딩 1층 109호","indutype":"약국 - 약국","category":"medical"}]},{"lat":"37.619618041","long":"127.13967679","imageIndex":8,"items":[{"name":"정봉필 한의원","tel":"031-551-2626","addr":"경기도 구리시 인창동 47번지","indutype":"의원 - 한의원","category":"medical"}]},{"lat":"37.608532225","long":"127.1351264","imageIndex":8,"items":[{"name":"조은경희한의원","tel":"031-514-7511","addr":"경기도 구리시 인창동 520-17번지 2층","indutype":"의원 - 한의원","category":"medical"}]},{"lat":"37.609285811","long":"127.13798172","imageIndex":8,"items":[{"name":"조은약국","tel":"031-533-3565","addr":"경기도 구리시 인창동 412-15번지 인창프라자 102호","indutype":"약국 - 약국","category":"medical"}]},{"lat":"37.602197993","long":"127.13545492","imageIndex":8,"items":[{"name":"중앙동물병원","tel":"031-563-2044","addr":"경기도 구리시 인창동 604-4번지","indutype":"기타의료기관 - 동물병원","category":"medical"}]},{"lat":"37.607311807","long":"127.13873692","imageIndex":8,"items":[{"name":"참사랑한의원","tel":"031-555-7515","addr":"경기도 구리시 인창동 383-15번지 청아빌딩 3층 1호","indutype":"의원 - 한의원","category":"medical"}]},{"lat":"37.606644904","long":"127.13889426","imageIndex":8,"items":[{"name":"청담이라인치과의원","tel":"02-546-5421","addr":"경기도 구리시 인창동 383-67번지 2층","indutype":"의원 - 치과의원","category":"medical"}]},{"lat":"37.605505319","long":"127.13479263","imageIndex":8,"items":[{"name":"푸른솔약국","tel":"031-553-8319","addr":"경기도 구리시 인창동 309-6번지 인창e-편한세상 106호","indutype":"약국 - 약국","category":"medical"}]},{"lat":"37.601201654","long":"127.14006205","imageIndex":8,"items":[{"name":"하나약국","tel":"031-557-9731","addr":"경기도 구리시 인창동 277-7번지 301호","indutype":"약국 - 약국","category":"medical"}]},{"lat":"37.611680208","long":"127.13988876","imageIndex":8,"items":[{"name":"한양메디텍","tel":"031-563-6282","addr":"경기도 구리시 인창동 701-1번지 아이원패션로데오타운 B동 212호","indutype":"약국 - 제약회사","category":"medical"}]},{"lat":"37.606059009","long":"127.13911969","imageIndex":8,"items":[{"name":"해한의원","tel":"031-566-7000","addr":"경기도 구리시 인창동 383-90번지 부광빌딩 1층","indutype":"의원 - 한의원","category":"medical"}]}]