[{"lat":"37.60379088","long":"127.35249112","imageIndex":16,"items":[{"name":"더좋은 학원","tel":"031-771-2534","addr":"경기도 양평군 서종면 문호리 394-1번지 3,4층","indutype":"학원 - 보습학원","category":"study"},{"name":"찰흙미술학원","tel":"031-771-1583","addr":"경기도 양평군 서종면 문호리 394-1번지","indutype":"학원 - 예·체능계학원","category":"study"},{"name":"초이영수학원","tel":"031-772-1231","addr":"경기도 양평군 서종면 문호리 394-1번지 2층1호,2호","indutype":"회원제형태 - 학원","category":"study"}]},{"lat":"37.601283498","long":"127.35940971","imageIndex":16,"items":[{"name":"들꽃어린이집[아이행복]","tel":"031-771-3731","addr":"경기도 양평군 서종면 문호리 275-4번지","indutype":"학원 - 유아원","category":"study"}]},{"lat":"37.604841673","long":"127.36846371","imageIndex":16,"items":[{"name":"미갈루 스포츠","tel":"031-772-6540","addr":"경기도 양평군 서종면 문호리 113-1번지 마진배위드빌1차 가동 102호","indutype":"학원 - 기타 교육기관","category":"study"}]},{"lat":"37.602229712","long":"127.35934628","imageIndex":16,"items":[{"name":"샛별 어린이집[아이행복]","tel":"031-774-6330","addr":"경기도 양평군 서종면 문호리 90-30번지","indutype":"학원 - 유아원","category":"study"}]},{"lat":"37.631672667","long":"127.36256825","imageIndex":16,"items":[{"name":"서종어린이집[아이행복]","tel":"031-775-7370","addr":"경기도 양평군 서종면 문호리 592-120번지","indutype":"학원 - 유아원","category":"study"}]},{"lat":"37.613256845","long":"127.35054207","imageIndex":16,"items":[{"name":"서종중학교","tel":"031-773-6032","addr":"경기도 양평군 서종면 문호리 687-2번지 서종중학교","indutype":"학원 - 초중고교육기관","category":"study"}]},{"lat":"37.607477742","long":"127.34879377","imageIndex":16,"items":[{"name":"서종초등학교","tel":"031-774-3707","addr":"경기도 양평군 서종면 문호리 761-4번지","indutype":"학원 - 초중고교육기관","category":"study"},{"name":"서종초등학교병설유치원[아이행복]","tel":"031-774-3707","addr":"경기도 양평군 서종면 문호리 761-4번지","indutype":"학원 - 유치원","category":"study"}]},{"lat":"37.604178234","long":"127.34945796","imageIndex":16,"items":[{"name":"서종태권도장","tel":"031-771-4626","addr":"경기도 양평군 서종면 문호리 790-2번지","indutype":"학원 - 예·체능계학원","category":"study"}]},{"lat":"37.607036272","long":"127.34879173","imageIndex":16,"items":[{"name":"양평서종키즈엔리딩","tel":"","addr":"경기도 양평군 서종면 문호리 763번지 3층","indutype":"학원 - 외국어학원","category":"study"},{"name":"정샘수학원","tel":"031-774-3140","addr":"경기도 양평군 서종면 문호리 763번지 2층 원흥빌딩","indutype":"회원제형태 - 학원","category":"study"}]},{"lat":"37.605144667","long":"127.35473973","imageIndex":16,"items":[{"name":"유레카","tel":"031-772-3014","addr":"경기도 양평군 서종면 문호리 415번지","indutype":"학원 - 보습학원","category":"study"}]},{"lat":"37.605477013","long":"127.34898835","imageIndex":16,"items":[{"name":"유일피아노","tel":"031-775-9569","addr":"경기도 양평군 서종면 문호리 768-20번지","indutype":"학원 - 예·체능계학원","category":"study"}]},{"lat":"37.604032158","long":"127.35316039","imageIndex":16,"items":[{"name":"좋은천사영어교습소","tel":"031-595-9858","addr":"경기도 양평군 서종면 문호리 397-5번지 2층 202호","indutype":"회원제형태 - 학원","category":"study"}]},{"lat":"37.604812347","long":"127.35135211","imageIndex":16,"items":[{"name":"클랑클랑 음악학원","tel":"031-775-8270","addr":"경기도 양평군 서종면 문호리 773-1번지 201호","indutype":"학원 - 예·체능계학원","category":"study"}]},{"lat":"37.593478958","long":"127.34799298","imageIndex":16,"items":[{"name":"하니쿡문화예술원","tel":"031-774-3303","addr":"경기도 양평군 서종면 문호리 932-3번지","indutype":"학원 - 예·체능계학원","category":"study"}]},{"lat":"37.622898102","long":"127.3532942","imageIndex":16,"items":[{"name":"헬라의댄스스튜디오","tel":"031-6280-0037","addr":"경기도 양평군 서종면 문호리 641-41번지","indutype":"학원 - 예·체능계학원","category":"study"}]},{"lat":"37.607091391","long":"127.34842959","imageIndex":16,"items":[{"name":"휘 영어교습소","tel":"031-000-0000","addr":"경기도 양평군 서종면 문호리 767-1번지","indutype":"학원 - 외국어학원","category":"study"}]}]