[{"lat":"37.65191744","long":"127.24180135","imageIndex":0,"items":[{"name":"(주)케이엔제이(KNJ Co.Ltd)","tel":"031-111-1111","addr":"경기도 남양주시 평내동 130-21번지 1층","indutype":"자동차정비 유지 - 세차장","category":"car"}]},{"lat":"37.646029015","long":"127.23533522","imageIndex":0,"items":[{"name":"강남프라자관리단","tel":"031-559-9577","addr":"경기도 남양주시 평내동 579-2번지","indutype":"자동차정비 유지 - 주차장","category":"car"}]},{"lat":"37.645886821","long":"127.23433766","imageIndex":0,"items":[{"name":"다모아프라자 관리단","tel":"031-523-2720","addr":"경기도 남양주시 평내동 578-1번지 다모아프라자 지하1층","indutype":"자동차정비 유지 - 주차장","category":"car"},{"name":"다모아프라자상가관리단","tel":"031-523-2720","addr":"경기도 남양주시 평내동 578-1번지 다모아프라자","indutype":"자동차정비 유지 - 주차장","category":"car"}]},{"lat":"37.645336098","long":"127.23491382","imageIndex":0,"items":[{"name":"대한S&C","tel":"031-567-5133","addr":"경기도 남양주시 평내동 578-3번지 평내메인프라자 109호,111호","indutype":"자동차정비 유지 - 자동차부품","category":"car"},{"name":"메인프라자 상가번영회","tel":"031-593-4404","addr":"경기도 남양주시 평내동 578-3번지 메인프라자 304-1호","indutype":"자동차정비 유지 - 주차장","category":"car"}]},{"lat":"37.647779839","long":"127.24286456","imageIndex":0,"items":[{"name":"린팩토리","tel":"031-511-1430","addr":"경기도 남양주시 평내동 596번지","indutype":"자동차정비 유지 - 자동차부품","category":"car"},{"name":"태양모터스","tel":"031-595-5154","addr":"경기도 남양주시 평내동 596번지","indutype":"자동차정비 유지 - 자동차정비","category":"car"}]},{"lat":"37.649668213","long":"127.23569784","imageIndex":0,"items":[{"name":"마을카센타","tel":"031-592-7799","addr":"경기도 남양주시 평내동 206-4번지","indutype":"자동차정비 유지 - 자동차정비","category":"car"},{"name":"천년의소리","tel":"031-562-8959","addr":"경기도 남양주시 평내동 206-4번지 하이카프라자평내아도공업사","indutype":"자동차정비 유지 - 자동차부품","category":"car"},{"name":"평내세차장","tel":"031-559-4321","addr":"경기도 남양주시 평내동 206-4번지","indutype":"자동차정비 유지 - 세차장","category":"car"}]},{"lat":"37.643859534","long":"127.22975383","imageIndex":0,"items":[{"name":"매직터치","tel":"031-511-7471","addr":"경기도 남양주시 평내동 558-1번지","indutype":"자동차정비 유지 - 카인테리어","category":"car"}]},{"lat":"37.651560645","long":"127.24002113","imageIndex":0,"items":[{"name":"바이크시티","tel":"031-591-4109","addr":"경기도 남양주시 평내동 119-5번지","indutype":"자동차판매 - 이륜차판매","category":"car"}]},{"lat":"37.652223584","long":"127.24189299","imageIndex":0,"items":[{"name":"박광용자동차공업사","tel":"031-511-0348","addr":"경기도 남양주시 평내동 150-5번지 외2필지","indutype":"자동차정비 유지 - 자동차정비","category":"car"}]},{"lat":"37.651749391","long":"127.24024836","imageIndex":0,"items":[{"name":"배터리 총판","tel":"","addr":"경기도 남양주시 평내동 산87-25번지","indutype":"자동차정비 유지 - 자동차부품","category":"car"}]},{"lat":"37.645653485","long":"127.23842737","imageIndex":0,"items":[{"name":"성우출장","tel":"031-592-4530","addr":"경기도 남양주시 평내동 581번지 평내마을대주파크빌 1503동 1102호","indutype":"자동차정비 유지 - 자동차정비","category":"car"}]},{"lat":"37.650727283","long":"127.23775216","imageIndex":0,"items":[{"name":"아이트리","tel":"031-592-4877","addr":"경기도 남양주시 평내동 121-14번지 외199-5번지","indutype":"자동차정비 유지 - 자동차부품","category":"car"}]},{"lat":"37.644492439","long":"127.23782318","imageIndex":0,"items":[{"name":"우정윤활유","tel":"031-866-5185","addr":"경기도 남양주시 평내동 602번지 평내마을평내2차대주파크빌 1901동 805호","indutype":"자동차정비 유지 - 윤활유 전문 판매","category":"car"}]},{"lat":"37.64306039","long":"127.2283351","imageIndex":0,"items":[{"name":"이편한타이어 주식회사","tel":"031-511-8955","addr":"경기도 남양주시 평내동 394-5번지","indutype":"자동차정비 유지 - 자동차시트·타이어","category":"car"}]},{"lat":"37.651443725","long":"127.23991877","imageIndex":0,"items":[{"name":"인광오토카써비스","tel":"031-591-7239","addr":"경기도 남양주시 평내동 119-6번지","indutype":"자동차정비 유지 - 자동차정비","category":"car"}]},{"lat":"37.650138365","long":"127.23486077","imageIndex":0,"items":[{"name":"제이비","tel":"070-8796-4530","addr":"경기도 남양주시 평내동 215번지 103호","indutype":"자동차정비 유지 - 자동차부품","category":"car"}]},{"lat":"37.647449535","long":"127.23685802","imageIndex":0,"items":[{"name":"지성인터내셔널","tel":"031-559-9754","addr":"경기도 남양주시 평내동 587-13번지 301호","indutype":"자동차정비 유지 - 주차장","category":"car"}]},{"lat":"37.651805405","long":"127.23927401","imageIndex":0,"items":[{"name":"타이어 팩토리 평내호평점","tel":"","addr":"경기도 남양주시 평내동 121-1번지","indutype":"자동차정비 유지 - 자동차시트·타이어","category":"car"}]},{"lat":"37.650610609","long":"127.23752516","imageIndex":0,"items":[{"name":"평내 타이어","tel":"031-572-4540","addr":"경기도 남양주시 평내동 199번지","indutype":"자동차정비 유지 - 자동차시트·타이어","category":"car"}]},{"lat":"37.64678253","long":"127.23700323","imageIndex":0,"items":[{"name":"평내모터스","tel":"031-594-4967","addr":"경기도 남양주시 평내동 586-6번지","indutype":"자동차정비 유지 - 자동차정비","category":"car"}]},{"lat":"37.651003821","long":"127.23913549","imageIndex":0,"items":[{"name":"평내안전오토바이","tel":"031-591-3967","addr":"경기도 남양주시 평내동 121-10번지 유성빌딩 1층","indutype":"자동차판매 - 이륜차판매","category":"car"}]},{"lat":"37.647276726","long":"127.24216041","imageIndex":0,"items":[{"name":"평내현대기아카클리닉","tel":"031-594-0951","addr":"경기도 남양주시 평내동 594-6번지","indutype":"자동차정비 유지 - 자동차정비","category":"car"}]},{"lat":"37.65144832","long":"127.24210581","imageIndex":0,"items":[{"name":"평내호평역24시셀프세차","tel":"031-591-1460","addr":"경기도 남양주시 평내동 130-51번지","indutype":"자동차정비 유지 - 세차장","category":"car"}]},{"lat":"37.652032703","long":"127.2427196","imageIndex":0,"items":[{"name":"평호타이어","tel":"031-542-5966","addr":"경기도 남양주시 평내동 151-4","indutype":"자동차정비 유지 - 자동차시트·타이어","category":"car"}]},{"lat":"37.6466158","long":"127.23474784","imageIndex":0,"items":[{"name":"하나프라자상가관리단","tel":"031-511-9974","addr":"경기도 남양주시 평내동 579번지 하나프라자 관리사무소","indutype":"자동차정비 유지 - 주차장","category":"car"}]},{"lat":"37.650418808","long":"127.23882769","imageIndex":0,"items":[{"name":"한솔씨앤씨","tel":"031-595-1333","addr":"경기도 남양주시 평내동 117-4번지 2층 1호","indutype":"자동차정비 유지 - 자동차부품","category":"car"}]},{"lat":"37.643505316","long":"127.23122572","imageIndex":0,"items":[{"name":"현대기아카클리닉","tel":"031-593-4572","addr":"경기도 남양주시 평내동 572-6번지","indutype":"자동차정비 유지 - 자동차정비","category":"car"}]},{"lat":"37.646865614","long":"127.23599503","imageIndex":0,"items":[{"name":"훈스팀세차 Detailing shop","tel":"031-559-5557","addr":"경기도 남양주시 평내동 584-13번지 101호","indutype":"자동차정비 유지 - 세차장","category":"car"}]}]