[{"lat":"37.185774495","long":"126.79778254","imageIndex":0,"items":[{"name":"(주)MOTORIA","tel":"031-366-8031","addr":"경기도 화성시 남양읍 신남리 905-9번지","indutype":"자동차정비 유지 - 자동차부품","category":"car"}]},{"lat":"37.173609525","long":"126.79725242","imageIndex":0,"items":[{"name":"MS모터스","tel":"070-4120-4338","addr":"경기도 화성시 남양읍 신남리 1417번지 나동","indutype":"자동차정비 유지 - 자동차정비","category":"car"}]},{"lat":"37.192580836","long":"126.82205793","imageIndex":0,"items":[{"name":"대승카센타","tel":"031-355-3466","addr":"경기도 화성시 남양읍 신남리 7번지","indutype":"자동차정비 유지 - 자동차정비","category":"car"}]},{"lat":"37.172495738","long":"126.7992822","imageIndex":0,"items":[{"name":"대영모터스","tel":"031-356-9878","addr":"경기도 화성시 남양읍 신남리 1417-4번지","indutype":"자동차정비 유지 - 자동차정비","category":"car"}]},{"lat":"37.178219036","long":"126.81674336","imageIndex":0,"items":[{"name":"신남자동차정비공업사 주식회사","tel":"031-356-7719","addr":"경기도 화성시 남양읍 신남리 480번지","indutype":"자동차정비 유지 - 자동차정비","category":"car"}]},{"lat":"37.187217046","long":"126.8203589","imageIndex":0,"items":[{"name":"신남현대모터스","tel":"031-357-0004","addr":"경기도 화성시 남양읍 신남리 158-1","indutype":"자동차정비 유지 - 자동차부품","category":"car"}]},{"lat":"37.185080859","long":"126.81989105","imageIndex":0,"items":[{"name":"종합카에어콘","tel":"031-356-4404","addr":"경기도 화성시 남양읍 신남리 230-5번지 외1필지","indutype":"자동차정비 유지 - 자동차부품","category":"car"}]},{"lat":"37.190022975","long":"126.82277356","imageIndex":0,"items":[{"name":"주식회사 미니언","tel":"031-317-6672","addr":"경기도 화성시 남양읍 신남리 83번지","indutype":"자동차정비 유지 - 자동차부품","category":"car"},{"name":"주식회사 미니언","tel":"031-8047-5086","addr":"경기도 화성시 남양읍 신남리 83번지 1층","indutype":"자동차정비 유지 - 자동차부품","category":"car"}]},{"lat":"37.19399486","long":"126.82166036","imageIndex":0,"items":[{"name":"참좋은 모터스","tel":"031-357-9040","addr":"경기도 화성시 남양읍 신남리 18-5번지","indutype":"자동차정비 유지 - 자동차정비","category":"car"}]},{"lat":"37.185436857","long":"126.81705224","imageIndex":0,"items":[{"name":"포인트모터스 (Point Motors)","tel":"031-000-0000","addr":"경기도 화성시 남양읍 신남리 136-2번지","indutype":"자동차정비 유지 - 자동차정비","category":"car"}]},{"lat":"37.174134874","long":"126.80414214","imageIndex":0,"items":[{"name":"화진중장비","tel":"02-836-7092","addr":"경기도 화성시 남양읍 신남리 1311번지","indutype":"자동차정비 유지 - 중장비수리","category":"car"}]},{"lat":"37.183521815","long":"126.81399382","imageIndex":7,"items":[{"name":"(주)아침바다","tel":"031-753-7256","addr":"경기도 화성시 남양읍 신남리 569-2번지","indutype":"음료식품 - 기타음료식품","category":"food"}]},{"lat":"37.184962853","long":"126.81932825","imageIndex":7,"items":[{"name":"가림농원","tel":"031-497-4455","addr":"경기도 화성시 남양읍 신남리 249번지","indutype":"음료식품 - 농·축·수산품","category":"food"}]},{"lat":"37.190191851","long":"126.82125274","imageIndex":7,"items":[{"name":"고성물산","tel":"031-355-8655","addr":"경기도 화성시 남양읍 신남리 69번지","indutype":"음료식품 - 기타음료식품","category":"food"}]},{"lat":"37.183831785","long":"126.80516405","imageIndex":7,"items":[{"name":"선진농산","tel":"031-357-7336","addr":"경기도 화성시 남양읍 신남리 925번지","indutype":"음료식품 - 농·축·수산품","category":"food"}]},{"lat":"37.190774521","long":"126.81930293","imageIndex":7,"items":[{"name":"우리한우정육점","tel":"031-366-8590","addr":"경기도 화성시 남양읍 신남리 54-4번지","indutype":"음료식품 - 정육점","category":"food"}]},{"lat":"37.194382185","long":"126.82158059","imageIndex":7,"items":[{"name":"으뜸상사","tel":"031-265-5081","addr":"경기도 화성시 남양읍 신남리 19-5번지 1층","indutype":"음료식품 - 기타음료식품","category":"food"}]},{"lat":"37.188747695","long":"126.81963444","imageIndex":7,"items":[{"name":"주식회사 비타민나무","tel":"031-366-8467","addr":"경기도 화성시 남양읍 신남리 99번지 3동","indutype":"음료식품 - 기타음료식품","category":"food"}]},{"lat":"37.178913542","long":"126.81719209","imageIndex":17,"items":[{"name":"(주)에스앤컴퍼니","tel":"070-4334-2101","addr":"경기도 화성시 남양읍 신남리 511-5번지","indutype":"건축자재 - 조명기구","category":"other"}]},{"lat":"37.177658423","long":"126.81549482","imageIndex":17,"items":[{"name":"(주)원하이테크","tel":"031-356-5965","addr":"경기도 화성시 남양읍 신남리 487번지 2동","indutype":"전기제품 - 기타전기제품","category":"other"}]},{"lat":"37.176936709","long":"126.79860592","imageIndex":17,"items":[{"name":"(주)파이어앤텍","tel":"031-585-3970","addr":"경기도 화성시 남양읍 신남리 1018-1번지","indutype":"기타 - 기타 전문점","category":"other"}]},{"lat":"37.175602162","long":"126.81430631","imageIndex":17,"items":[{"name":"GS25남양로점","tel":"","addr":"경기도 화성시 남양읍 신남리 1151-7번지","indutype":"유통업 영리 - 편 의 점","category":"other"}]},{"lat":"37.173630142","long":"126.80405338","imageIndex":17,"items":[{"name":"GS25남양신남로점","tel":"","addr":"경기도 화성시 남양읍 신남리 1236-1번지 1층","indutype":"유통업 영리 - 편 의 점","category":"other"}]},{"lat":"37.188884656","long":"126.82080538","imageIndex":17,"items":[{"name":"GS25화성서부점","tel":"02-2006-2485","addr":"경기도 화성시 남양읍 신남리 106번지","indutype":"유통업 영리 - 편 의 점","category":"other"}]},{"lat":"37.19780046","long":"126.81791176","imageIndex":17,"items":[{"name":"TK스포츠","tel":"","addr":"경기도 화성시 남양읍 신남리 1563번지 대광파인밸리 207동 903호","indutype":"레져용품 - 스포츠·레져용품","category":"other"},{"name":"나이스","tel":"","addr":"경기도 화성시 남양읍 신남리 1563번지 대광파인밸리골드 상가 1층 104호","indutype":"건축자재 - 조명기구","category":"other"}]},{"lat":"37.197145243","long":"126.81954656","imageIndex":17,"items":[{"name":"굿애프터눈","tel":"031-356-2055","addr":"경기도 화성시 남양읍 신남리 36-24번지 신한래미안 2동 301호","indutype":"건축자재 - 인테리어전문","category":"other"}]},{"lat":"37.194969679","long":"126.82277308","imageIndex":17,"items":[{"name":"기산세탁","tel":"031-355-2858","addr":"경기도 화성시 남양읍 신남리 25-14번지","indutype":"수리서비스 - 세탁소","category":"other"}]},{"lat":"37.187108157","long":"126.81986364","imageIndex":17,"items":[{"name":"남양판넬백화점","tel":"031-356-4961","addr":"경기도 화성시 남양읍 신남리 116번지","indutype":"건축자재 - 기타건축자재","category":"other"}]},{"lat":"37.174942265","long":"126.81296799","imageIndex":17,"items":[{"name":"메스토","tel":"031-355-5644","addr":"경기도 화성시 남양읍 신남리 1151-2번지","indutype":"기타 - 기계공구","category":"other"},{"name":"메스토/원격지","tel":"031-111-1111","addr":"경기도 화성시 남양읍 신남리 1151-2번지","indutype":"기타 - 기타 전문점","category":"other"}]},{"lat":"37.189715988","long":"126.82235759","imageIndex":17,"items":[{"name":"바로철거","tel":"031-355-9471","addr":"경기도 화성시 남양읍 신남리 86번지 3동","indutype":"전기제품 - 가전제품","category":"other"}]},{"lat":"37.185803613","long":"126.82113936","imageIndex":17,"items":[{"name":"반창꼬미디어","tel":"031-355-5111","addr":"경기도 화성시 남양읍 신남리 228","indutype":"용역 서비스 - 종합용역","category":"other"}]},{"lat":"37.179969796","long":"126.81849577","imageIndex":17,"items":[{"name":"삼구저울","tel":"031-418-3981","addr":"경기도 화성시 남양읍 신남리 461-1번지 C동","indutype":"기타 - 기계공구","category":"other"}]},{"lat":"37.173102189","long":"126.80089074","imageIndex":17,"items":[{"name":"세명","tel":"031-355-8536","addr":"경기도 화성시 남양읍 신남리 1339번지","indutype":"기타 - 기타 전문점","category":"other"}]},{"lat":"37.186685494","long":"126.7983319","imageIndex":17,"items":[{"name":"세븐일레븐화성남양신남점","tel":"031-1577-0711","addr":"경기도 화성시 남양읍 신남리 901-32번지 진원빌아파트","indutype":"유통업 영리 - 편 의 점","category":"other"}]},{"lat":"37.194545678","long":"126.82243619","imageIndex":17,"items":[{"name":"세븐일레븐화성신남점","tel":"","addr":"경기도 화성시 남양읍 신남리 25-6번지","indutype":"유통업 영리 - 편 의 점","category":"other"}]},{"lat":"37.173686922","long":"126.80033744","imageIndex":17,"items":[{"name":"센스커뮤니케이션","tel":"031-357-6921","addr":"경기도 화성시 남양읍 신남리 1347번지","indutype":"용역 서비스 - 종합용역","category":"other"}]},{"lat":"37.180216192","long":"126.81474528","imageIndex":17,"items":[{"name":"신남중기","tel":"031-355-3228","addr":"경기도 화성시 남양읍 신남리 308번지","indutype":"수리서비스 - 기타수리서비스","category":"other"}]},{"lat":"37.189993657","long":"126.82127573","imageIndex":17,"items":[{"name":"신용건재","tel":"031-356-4343","addr":"경기도 화성시 남양읍 신남리 69-3번지","indutype":"건축자재 - 기타건축자재","category":"other"}]},{"lat":"37.194580757","long":"126.82180538","imageIndex":17,"items":[{"name":"신일공구","tel":"031-356-9444","addr":"경기도 화성시 남양읍 신남리 23번지","indutype":"기타 - 기계공구","category":"other"}]},{"lat":"37.173773571","long":"126.80361387","imageIndex":17,"items":[{"name":"씨유화성신남점","tel":"080-080-3663","addr":"경기도 화성시 남양읍 신남리 1308번지 1층 101호","indutype":"유통업 영리 - 편 의 점","category":"other"}]},{"lat":"37.195211946","long":"126.82210797","imageIndex":17,"items":[{"name":"아이지에이 화성시청점","tel":"031-768-0708","addr":"경기도 화성시 남양읍 신남리 26-2번지 1층","indutype":"유통업 영리 - 편 의 점","category":"other"}]},{"lat":"37.178219036","long":"126.81674336","imageIndex":17,"items":[{"name":"우원공업사","tel":"031-366-1177","addr":"경기도 화성시 남양읍 신남리 480번지 2동","indutype":"수리서비스 - 기타수리서비스","category":"other"},{"name":"재생공업사","tel":"031-356-1984","addr":"경기도 화성시 남양읍 신남리 480번지","indutype":"기타 - 기계공구","category":"other"}]},{"lat":"37.174907948","long":"126.80847527","imageIndex":17,"items":[{"name":"우원산업","tel":"031-358-9918","addr":"경기도 화성시 남양읍 신남리 1141번지","indutype":"신변잡화 - 기타잡화","category":"other"}]},{"lat":"37.190714831","long":"126.82149926","imageIndex":17,"items":[{"name":"이마트24 화성신남리점","tel":"","addr":"경기도 화성시 남양읍 신남리 72번지","indutype":"유통업 영리 - 편 의 점","category":"other"}]},{"lat":"37.179798037","long":"126.81813584","imageIndex":17,"items":[{"name":"인성철강밴딩","tel":"031-352-8173","addr":"경기도 화성시 남양읍 신남리 464번지","indutype":"건축자재 - 기타건축자재","category":"other"}]},{"lat":"37.173247171","long":"126.79613867","imageIndex":17,"items":[{"name":"제일적재함","tel":"031-352-6482","addr":"경기도 화성시 남양읍 신남리 1412번지","indutype":"기타 - 기타 전문점","category":"other"}]},{"lat":"37.179248053","long":"126.81791196","imageIndex":17,"items":[{"name":"주식회사 금아넥서스","tel":"031-355-1032","addr":"경기도 화성시 남양읍 신남리 471번지","indutype":"기타 - 기계공구","category":"other"}]},{"lat":"37.194435643","long":"126.82118625","imageIndex":17,"items":[{"name":"주식회사 에코누림","tel":"031-354-9601","addr":"경기도 화성시 남양읍 신남리 29번지","indutype":"가구 - 일반가구","category":"other"}]},{"lat":"37.182079977","long":"126.8138848","imageIndex":17,"items":[{"name":"주식회사 편백숲에서","tel":"031-000-0000","addr":"경기도 화성시 남양읍 신남리 535번지","indutype":"가구 - 일반가구","category":"other"}]},{"lat":"37.185463703","long":"126.80044114","imageIndex":17,"items":[{"name":"티와이테크 주식회사","tel":"02-1111-1111","addr":"경기도 화성시 남양읍 신남리 901-40번지 4C동","indutype":"전기제품 - 기타전기제품","category":"other"}]},{"lat":"37.192662513","long":"126.82244067","imageIndex":17,"items":[{"name":"현대종합건축인테리어","tel":"031-357-3730","addr":"경기도 화성시 남양읍 신남리 6 상가","indutype":"건축자재 - 인테리어전문","category":"other"}]},{"lat":"37.177018561","long":"126.81541757","imageIndex":4,"items":[{"name":"갈치명가","tel":"070-4254-0160","addr":"경기도 화성시 남양읍 신남리 488-4번지","indutype":"일반휴게음식 - 일반한식","category":"restaurant"}]},{"lat":"37.192716112","long":"126.82213645","imageIndex":4,"items":[{"name":"개성집","tel":"031-355-5666","addr":"경기도 화성시 남양읍 신남리 7-1번지","indutype":"일반휴게음식 - 일반한식","category":"restaurant"}]},{"lat":"37.193715969","long":"126.8219426","imageIndex":4,"items":[{"name":"김영희강남동태찜 탕","tel":"031-355-3953","addr":"경기도 화성시 남양읍 신남리 18-1번지","indutype":"일반휴게음식 - 일반한식","category":"restaurant"}]},{"lat":"37.172023333","long":"126.81324553","imageIndex":4,"items":[{"name":"다모아한식셀프식당","tel":"031-356-6856","addr":"경기도 화성시 남양읍 신남리 1159-1번지","indutype":"일반휴게음식 - 일반한식","category":"restaurant"}]},{"lat":"37.188188617","long":"126.81935423","imageIndex":4,"items":[{"name":"담쟁이횟집","tel":"031-356-5866","addr":"경기도 화성시 남양읍 신남리 101-1번지 가동","indutype":"일반휴게음식 - 일반한식","category":"restaurant"}]},{"lat":"37.183276408","long":"126.8242423","imageIndex":4,"items":[{"name":"대박식당","tel":"031-366-9173","addr":"경기도 화성시 남양읍 신남리 378번지","indutype":"일반휴게음식 - 일반한식","category":"restaurant"}]},{"lat":"37.173548633","long":"126.80380588","imageIndex":4,"items":[{"name":"맑은밥상","tel":"031-356-0385","addr":"경기도 화성시 남양읍 신남리 1236번지 1층","indutype":"일반휴게음식 - 일반한식","category":"restaurant"}]},{"lat":"37.179382223","long":"126.81728103","imageIndex":4,"items":[{"name":"맛사랑한식뷔페","tel":"031-355-3682","addr":"경기도 화성시 남양읍 신남리 512번지","indutype":"일반휴게음식 - 일반한식","category":"restaurant"}]},{"lat":"37.183629963","long":"126.81974815","imageIndex":4,"items":[{"name":"명소숯불광장","tel":"031-357-9250","addr":"경기도 화성시 남양읍 신남리 239-4번지 1동 1층","indutype":"일반휴게음식 - 일반한식","category":"restaurant"},{"name":"명품한식뷔페","tel":"031-356-1192","addr":"경기도 화성시 남양읍 신남리 239-4번지 2동 1층","indutype":"일반휴게음식 - 일반한식","category":"restaurant"}]},{"lat":"37.191353876","long":"126.82104723","imageIndex":4,"items":[{"name":"미추원주추어탕","tel":"031-357-6335","addr":"경기도 화성시 남양읍 신남리 51-1번지 1동 1층","indutype":"일반휴게음식 - 일반한식","category":"restaurant"}]},{"lat":"37.194969679","long":"126.82277308","imageIndex":4,"items":[{"name":"보고식당","tel":"031-355-0385","addr":"경기도 화성시 남양읍 신남리 25-14번지 101호","indutype":"일반휴게음식 - 일반한식","category":"restaurant"}]},{"lat":"37.181908425","long":"126.81939195","imageIndex":4,"items":[{"name":"보은집화성점","tel":"031-355-3365","addr":"경기도 화성시 남양읍 신남리 337-2번지 337-2외1필지","indutype":"일반휴게음식 - 일반한식","category":"restaurant"}]},{"lat":"37.175602162","long":"126.81430631","imageIndex":4,"items":[{"name":"비어존","tel":"031-356-6116","addr":"경기도 화성시 남양읍 신남리 1151-7번지 1층","indutype":"일반휴게음식 - 주점","category":"restaurant"},{"name":"전주웰빙한식부페","tel":"031-8059-4666","addr":"경기도 화성시 남양읍 신남리 1151-7번지 1층","indutype":"일반휴게음식 - 일반한식","category":"restaurant"}]},{"lat":"37.178463499","long":"126.81749723","imageIndex":4,"items":[{"name":"삼원푸드","tel":"031-355-6265","addr":"경기도 화성시 남양읍 신남리 474-5번지","indutype":"일반휴게음식 - 일반한식","category":"restaurant"},{"name":"신남동쭈꾸미볶음","tel":"031-356-7110","addr":"경기도 화성시 남양읍 신남리 474-5번지","indutype":"일반휴게음식 - 일반한식","category":"restaurant"},{"name":"집밥한식부페","tel":"031-356-6006","addr":"경기도 화성시 남양읍 신남리 474-5번지","indutype":"일반휴게음식 - 일반한식","category":"restaurant"}]},{"lat":"37.18671617","long":"126.81694775","imageIndex":4,"items":[{"name":"신화목장","tel":"031-355-0492","addr":"경기도 화성시 남양읍 신남리 133-7번지","indutype":"일반휴게음식 - 일반한식","category":"restaurant"}]},{"lat":"37.183161163","long":"126.81958036","imageIndex":4,"items":[{"name":"영의정","tel":"031-351-3101","addr":"경기도 화성시 남양읍 신남리 239-3번지 2동","indutype":"일반휴게음식 - 일반한식","category":"restaurant"},{"name":"월향","tel":"031-356-8890","addr":"경기도 화성시 남양읍 신남리 239-3번지","indutype":"일반휴게음식 - 중국식","category":"restaurant"}]},{"lat":"37.1865503","long":"126.79830975","imageIndex":4,"items":[{"name":"우리집 자연밥상","tel":"","addr":"경기도 화성시 남양읍 신남리 901-56번지 1층","indutype":"일반휴게음식 - 일반한식","category":"restaurant"}]},{"lat":"37.194824157","long":"126.82188364","imageIndex":4,"items":[{"name":"육대장화성시청점","tel":"031-356-6269","addr":"경기도 화성시 남양읍 신남리 24-2번지","indutype":"일반휴게음식 - 일반한식","category":"restaurant"},{"name":"육일칠","tel":"031-357-6174","addr":"경기도 화성시 남양읍 신남리 24-2번지 2동 1층","indutype":"일반휴게음식 - 일반한식","category":"restaurant"}]},{"lat":"37.194077054","long":"126.82238099","imageIndex":4,"items":[{"name":"초가집","tel":"031-356-7525","addr":"경기도 화성시 남양읍 신남리 20-1번지","indutype":"일반휴게음식 - 일반한식","category":"restaurant"}]},{"lat":"37.179582139","long":"126.81836158","imageIndex":4,"items":[{"name":"추미가","tel":"031-355-7789","addr":"경기도 화성시 남양읍 신남리 466번지 1층","indutype":"일반휴게음식 - 일반한식","category":"restaurant"}]},{"lat":"37.175026024","long":"126.80904924","imageIndex":4,"items":[{"name":"태양한식셀프식당","tel":"031-356-2422","addr":"경기도 화성시 남양읍 신남리 1142-1번지","indutype":"일반휴게음식 - 일반한식","category":"restaurant"}]},{"lat":"37.189715988","long":"126.82235759","imageIndex":4,"items":[{"name":"한라식당","tel":"031-355-1223","addr":"경기도 화성시 남양읍 신남리 86번지","indutype":"일반휴게음식 - 일반한식","category":"restaurant"}]},{"lat":"37.192382471","long":"126.8219683","imageIndex":4,"items":[{"name":"홍콩차우","tel":"031-238-2848","addr":"경기도 화성시 남양읍 신남리 8-1번지 1층","indutype":"일반휴게음식 - 중국식","category":"restaurant"}]},{"lat":"37.194969679","long":"126.82277308","imageIndex":13,"items":[{"name":"김정수쥬쥬헤어샵","tel":"031-355-7265","addr":"경기도 화성시 남양읍 신남리 25-14번지 은하 상가 103호","indutype":"보건위생 - 미용원","category":"beauty"}]},{"lat":"37.195211946","long":"126.82210797","imageIndex":13,"items":[{"name":"머리하는날","tel":"031-355-3863","addr":"경기도 화성시 남양읍 신남리 26-2번지","indutype":"보건위생 - 미용원","category":"beauty"}]},{"lat":"37.19780046","long":"126.81791176","imageIndex":13,"items":[{"name":"체리헤어","tel":"031-357-7657","addr":"경기도 화성시 남양읍 신남리 1563번지 대광파인밸리골드 상가동 105호","indutype":"보건위생 - 미용원","category":"beauty"}]},{"lat":"37.19780046","long":"126.81791176","imageIndex":16,"items":[{"name":"대광아이뜰어린이집[아이행복]","tel":"031-355-2526","addr":"경기도 화성시 남양읍 신남리 1563번지 대광파인밸리골드 201동 107호","indutype":"학원 - 유아원","category":"study"},{"name":"루카스영수학원","tel":"031-366-7227","addr":"경기도 화성시 남양읍 신남리 1563번지 상가 202,203,204,205호","indutype":"학원 - 보습학원","category":"study"},{"name":"키즈로베 어린이집[아이행복]","tel":"031-357-5733","addr":"경기도 화성시 남양읍 신남리 1563번지 대광파인밸리골드 202동 103호","indutype":"학원 - 유아원","category":"study"}]},{"lat":"37.184910702","long":"126.8148012","imageIndex":16,"items":[{"name":"샛별어린이집[아이행복]","tel":"031-357-7977","addr":"경기도 화성시 남양읍 신남리 566번지","indutype":"학원 - 유아원","category":"study"}]},{"lat":"37.187800105","long":"126.81866819","imageIndex":16,"items":[{"name":"참사랑어린이집[아이행복]","tel":"031-357-5719","addr":"경기도 화성시 남양읍 신남리 102-9번지","indutype":"학원 - 유아원","category":"study"}]},{"lat":"37.183161163","long":"126.81958036","imageIndex":13,"items":[{"name":"신남당구클럽","tel":"031-351-3101","addr":"경기도 화성시 남양읍 신남리 239-3번지 1층","indutype":"레저업소 - 당 구 장","category":"leisure"}]},{"lat":"37.172495558","long":"126.80994523","imageIndex":13,"items":[{"name":"잭니클라우스 이준영","tel":"031-259-2171","addr":"경기도 화성시 남양읍 신남리 1162-41번지","indutype":"레저업소 - 골프연습장","category":"leisure"}]},{"lat":"37.18024787","long":"126.81769556","imageIndex":7,"items":[{"name":"신남할인마트","tel":"031-356-1188","addr":"경기도 화성시 남양읍 신남리 518","indutype":"유통업 영리 - 슈퍼마켓","category":"mart"}]},{"lat":"37.19780046","long":"126.81791176","imageIndex":7,"items":[{"name":"왔다가게","tel":"031-357-9428","addr":"경기도 화성시 남양읍 신남리 1563번지 대광파인밸리골드 상가 1층 103호","indutype":"유통업 영리 - 슈퍼마켓","category":"mart"}]}]