[{"lat":"37.794594335","long":"127.07906425","imageIndex":16,"items":[{"name":"GT 거호 합기도/해동검도","tel":"031-845-7200","addr":"경기도 양주시 광사동 653-1번지 필립프라자 401,402호","indutype":"학원 - 예·체능계학원","category":"study"}]},{"lat":"37.795539096","long":"127.08094993","imageIndex":16,"items":[{"name":"u.p.i학원","tel":"031-821-0562","addr":"경기도 양주시 광사동 655 힘찬프라자 504.505호","indutype":"학원 - 보습학원","category":"study"},{"name":"경희대효태권도","tel":"031-841-2229","addr":"경기도 양주시 광사동 655번지 힘찬프라자 604동 605호","indutype":"학원 - 예·체능계학원","category":"study"}]},{"lat":"37.791260143","long":"127.08011666","imageIndex":16,"items":[{"name":"가온누리광사경희태권도장","tel":"031-848-6966","addr":"경기도 양주시 광사동 679-1번지 다우빌딩 2층 201호","indutype":"학원 - 예·체능계학원","category":"study"},{"name":"용인대베스트태권도장","tel":"031-846-3232","addr":"경기도 양주시 광사동 679-1번지 다우빌딩 201호","indutype":"학원 - 예·체능계학원","category":"study"},{"name":"이승도 태권스쿨","tel":"031-846-3232","addr":"경기도 양주시 광사동 679-1번지 2층","indutype":"학원 - 예·체능계학원","category":"study"}]},{"lat":"37.795340661","long":"127.08129033","imageIndex":16,"items":[{"name":"경희대한국태권도","tel":"031-847-4002","addr":"경기도 양주시 광사동 655-1번지 그린프라자 602호","indutype":"학원 - 예·체능계학원","category":"study"},{"name":"밸리댄스코리아학원","tel":"031-843-0057","addr":"경기도 양주시 광사동 655-1번지 그린프라자 503호","indutype":"학원 - 예·체능계학원","category":"study"},{"name":"양주비젼학원","tel":"031-841-0888","addr":"경기도 양주시 광사동 655-1번지 그린프라자 501호","indutype":"학원 - 보습학원","category":"study"},{"name":"양주비젼학원","tel":"031-847-8300","addr":"경기도 양주시 광사동 655-1번지 그린프라자 501호","indutype":"학원 - 보습학원","category":"study"}]},{"lat":"37.790233278","long":"127.07978635","imageIndex":16,"items":[{"name":"경희음악학원","tel":"031-840-2072","addr":"경기도 양주시 광사동 675-5번지 2층","indutype":"학원 - 예·체능계학원","category":"study"},{"name":"카이로스단과학원","tel":"031-1599-7761","addr":"경기도 양주시 광사동 675-5번지 호군빌딩 3층","indutype":"학원 - 보습학원","category":"study"}]},{"lat":"37.79495351","long":"127.0809039","imageIndex":16,"items":[{"name":"고읍검도관","tel":"031-846-0988","addr":"경기도 양주시 광사동 656번지 501호","indutype":"학원 - 예·체능계학원","category":"study"},{"name":"엘림학원","tel":"031-841-7728","addr":"경기도 양주시 광사동 656번지 우신고읍빌딩 4층 401호","indutype":"학원 - 보습학원","category":"study"},{"name":"줄기차게","tel":"031-111-1111","addr":"경기도 양주시 광사동 656번지 3층 301호","indutype":"학원 - 예·체능계학원","category":"study"}]},{"lat":"37.793901066","long":"127.07834827","imageIndex":16,"items":[{"name":"고읍종로엠보습학원","tel":"031-847-9500","addr":"경기도 양주시 광사동 653-4번지 양주프라임타워 5층 501호,502호","indutype":"학원 - 보습학원","category":"study"}]},{"lat":"37.791143412","long":"127.07951482","imageIndex":16,"items":[{"name":"고읍학원","tel":"031-848-1022","addr":"경기도 양주시 광사동 675번지 유진빌딩 2층","indutype":"회원제형태 - 학원","category":"study"},{"name":"그림숲미술학원","tel":"","addr":"경기도 양주시 광사동 675번지 유진빌딩 3층","indutype":"학원 - 예·체능계학원","category":"study"},{"name":"아소비고읍센터잉글리쉬타임학원","tel":"031-848-9753","addr":"경기도 양주시 광사동 675번지 유진빌딩 2층","indutype":"학원 - 외국어학원","category":"study"},{"name":"한미태권도 아카데미3","tel":"031-840-0180","addr":"경기도 양주시 광사동 675 유진빌딩 5층","indutype":"학원 - 예·체능계학원","category":"study"},{"name":"해법중국어 서울북부지사","tel":"031-846-8886","addr":"경기도 양주시 광사동 675번지 유진빌딩","indutype":"학원 - 외국어학원","category":"study"}]},{"lat":"37.789818693","long":"127.08001298","imageIndex":16,"items":[{"name":"광사해법독서논술교습소","tel":"031-848-7647","addr":"경기도 양주시 광사동 676-1번지 5층 502호","indutype":"회원제형태 - 학원","category":"study"},{"name":"보통교과교육","tel":"031-847-0509","addr":"경기도 양주시 광사동 676-1번지 진양빌딩 301호","indutype":"학원 - 보습학원","category":"study"},{"name":"와이엠(YM)영수학원","tel":"031-821-3773","addr":"경기도 양주시 광사동 676-1번지 4층","indutype":"회원제형태 - 학원","category":"study"},{"name":"창조앤아트미술교습소","tel":"","addr":"경기도 양주시 광사동 676-1번지 진양빌딩 302호","indutype":"학원 - 예·체능계학원","category":"study"}]},{"lat":"37.788592633","long":"127.08118103","imageIndex":16,"items":[{"name":"김멜연구소","tel":"","addr":"경기도 양주시 광사동 689-2번지 201호","indutype":"학원 - 기타 교육기관","category":"study"}]},{"lat":"37.788511419","long":"127.08137394","imageIndex":16,"items":[{"name":"꿈꾸는 음악학원","tel":"031-848-3262","addr":"경기도 양주시 광사동 689-3번지","indutype":"학원 - 예·체능계학원","category":"study"},{"name":"수학발전소학원","tel":"031-848-8004","addr":"경기도 양주시 광사동 689-3번지 3층","indutype":"학원 - 보습학원","category":"study"}]},{"lat":"37.790593745","long":"127.07965049","imageIndex":16,"items":[{"name":"달실용음악학원","tel":"031-847-3357","addr":"경기도 양주시 광사동 675-3번지 501호","indutype":"학원 - 예·체능계학원","category":"study"}]},{"lat":"37.79431425","long":"127.08027878","imageIndex":16,"items":[{"name":"드림음악학원","tel":"031-843-2013","addr":"경기도 양주시 광사동 656-7번지 604호","indutype":"학원 - 예·체능계학원","category":"study"},{"name":"사회적협동조합 신난다","tel":"031-851-0006","addr":"경기도 양주시 광사동 656-7번지 601호","indutype":"학원 - 기타 교육기관","category":"study"},{"name":"윤선생영어교실 양주중앙센터","tel":"031-846-0594","addr":"경기도 양주시 광사동 656-7번지 미들프라자 602-2호","indutype":"학원 - 학습지 교육","category":"study"},{"name":"코리아헤럴드조슈아어학원","tel":"031-845-0501","addr":"경기도 양주시 광사동 656-7 위너스타워5층503,4호","indutype":"회원제형태 - 학원","category":"study"},{"name":"필수학학원","tel":"031-848-3014","addr":"경기도 양주시 광사동 656-7번지 마들프라자 5층","indutype":"회원제형태 - 학원","category":"study"}]},{"lat":"37.793594976","long":"127.07798465","imageIndex":16,"items":[{"name":"린중국어학원","tel":"02-1566-5992","addr":"경기도 양주시 광사동 652-6번지 201,202호","indutype":"학원 - 외국어학원","category":"study"}]},{"lat":"37.791007474","long":"127.08072945","imageIndex":16,"items":[{"name":"명랑한 과학실험실","tel":"070-8834-3647","addr":"경기도 양주시 광사동 680-3번지 상가 101호","indutype":"회원제형태 - 학원","category":"study"}]},{"lat":"37.794323237","long":"127.08031285","imageIndex":16,"items":[{"name":"미라클영수학원","tel":"031-861-5936","addr":"경기도 양주시 광사동 656-5번지 솔리더스빌딩 501호","indutype":"회원제형태 - 학원","category":"study"},{"name":"서강에스엘피영어학당학원","tel":"031-843-0579","addr":"경기도 양주시 광사동 656-5번지 솔리더스 종합상가 4층","indutype":"회원제형태 - 학원","category":"study"},{"name":"아이짐 최강태권도","tel":"031-841-3114","addr":"경기도 양주시 광사동 656-5번지 솔리더스빌딩 5층 503호","indutype":"학원 - 예·체능계학원","category":"study"},{"name":"안병선고등수학전문학원","tel":"031-845-0004","addr":"경기도 양주시 광사동 656-5번지 솔리더스빌딩 601호","indutype":"학원 - 보습학원","category":"study"},{"name":"양주시매쓰수학학원","tel":"031-845-1500","addr":"경기도 양주시 광사동 656-5번지 솔리더스빌딩 204호","indutype":"학원 - 보습학원","category":"study"},{"name":"체르니음악학원","tel":"031-821-8884","addr":"경기도 양주시 광사동 656-5번지 솔리더스빌딩 504호","indutype":"학원 - 예·체능계학원","category":"study"},{"name":"토마스어학원","tel":"031-846-0570","addr":"경기도 양주시 광사동 656-5번지 솔리더스빌딩 304호","indutype":"학원 - 외국어학원","category":"study"}]},{"lat":"37.792702199","long":"127.07928937","imageIndex":16,"items":[{"name":"민경아어학원","tel":"031-846-0579","addr":"경기도 양주시 광사동 670-2번지 1층","indutype":"학원 - 외국어학원","category":"study"}]},{"lat":"37.790954199","long":"127.07953733","imageIndex":16,"items":[{"name":"바이제이(by J)무용학원","tel":"031-846-1278","addr":"경기도 양주시 광사동 675-1번지 401호","indutype":"학원 - 예·체능계학원","category":"study"},{"name":"용인대 탑 태권도장","tel":"031-821-3788","addr":"경기도 양주시 광사동 675-1번지 3층 301호","indutype":"학원 - 예·체능계학원","category":"study"},{"name":"키즈킥스 태권도 블랙벨트 아카데미 태권도","tel":"031-821-3788","addr":"경기도 양주시 광사동 675-1번지 나준빌딩 301호","indutype":"학원 - 예·체능계학원","category":"study"}]},{"lat":"37.791900341","long":"127.07931125","imageIndex":16,"items":[{"name":"박소현의 4B연필 미술교습소","tel":"070-4176-4145","addr":"경기도 양주시 광사동 674-4번지 103호","indutype":"학원 - 예·체능계학원","category":"study"}]},{"lat":"37.791233278","long":"127.07986686","imageIndex":16,"items":[{"name":"블루트리피아니스트음악학원","tel":"031-848-6893","addr":"경기도 양주시 광사동 679번지 3층","indutype":"학원 - 예·체능계학원","category":"study"},{"name":"에스엔티공부의감동학원","tel":"031-827-0203","addr":"경기도 양주시 광사동 679번지 2층","indutype":"회원제형태 - 학원","category":"study"},{"name":"엠에이치에듀학원","tel":"031-821-5164","addr":"경기도 양주시 광사동 679번지 4층 401호","indutype":"학원 - 보습학원","category":"study"}]},{"lat":"37.795656758","long":"127.08013259","imageIndex":16,"items":[{"name":"세븐스텝어학원","tel":"031-821-1000","addr":"경기도 양주시 광사동 654-1번지 세원프라자 6층","indutype":"회원제형태 - 학원","category":"study"},{"name":"원실용음악학원","tel":"031-846-4315","addr":"경기도 양주시 광사동 654-1번지 세원메디컬프라자 801호","indutype":"회원제형태 - 학원","category":"study"},{"name":"토즈스터디센터 고읍독서실","tel":"031-821-0801","addr":"경기도 양주시 광사동 654-1번지 세원메디컬프라자 7층 701호","indutype":"학원 - 독서실","category":"study"}]},{"lat":"37.791062075","long":"127.07990074","imageIndex":16,"items":[{"name":"쇼팽음악학원","tel":"031-111-1111","addr":"경기도 양주시 광사동 679-4번지 태영빌딩 2층","indutype":"학원 - 예·체능계학원","category":"study"},{"name":"해법영어해법수학학원","tel":"031-846-0562","addr":"경기도 양주시 광사동 679-4번지 태영빌딩 501호","indutype":"학원 - 보습학원","category":"study"},{"name":"허니비영수전문학원","tel":"031-821-0816","addr":"경기도 양주시 광사동 679-4번지 401호","indutype":"학원 - 보습학원","category":"study"}]},{"lat":"37.795837627","long":"127.07908823","imageIndex":16,"items":[{"name":"아트바디센터","tel":"","addr":"경기도 양주시 광사동 651-5번지 제이프라자 603,604호","indutype":"학원 - 예·체능계학원","category":"study"}]},{"lat":"37.796061975","long":"127.08045091","imageIndex":16,"items":[{"name":"에이스독서실","tel":"031-842-0997","addr":"경기도 양주시 광사동 651번지 해동월드타워 601호","indutype":"학원 - 독서실","category":"study"},{"name":"이화음악학원","tel":"031-846-7724","addr":"경기도 양주시 광사동 651번지 해동월드타워 804호","indutype":"학원 - 예·체능계학원","category":"study"},{"name":"지1230학원","tel":"031-840-1230","addr":"경기도 양주시 광사동 651번지 901,902호","indutype":"학원 - 보습학원","category":"study"}]},{"lat":"37.792539503","long":"127.08009528","imageIndex":16,"items":[{"name":"연이공예교습소","tel":"","addr":"경기도 양주시 광사동 671-2번지 101호","indutype":"학원 - 기타 교육기관","category":"study"}]},{"lat":"37.789647439","long":"127.08012633","imageIndex":16,"items":[{"name":"와이비엠양주이씨씨(ECC)어학원","tel":"031-848-7718","addr":"경기도 양주시 광사동 676-2번지","indutype":"학원 - 외국어학원","category":"study"}]},{"lat":"37.792012495","long":"127.0866228","imageIndex":16,"items":[{"name":"원리학원","tel":"070-2823-0125","addr":"경기도 양주시 광사동 691번지 3층 302호","indutype":"학원 - 보습학원","category":"study"}]},{"lat":"37.778619158","long":"127.06611894","imageIndex":16,"items":[{"name":"원학농장","tel":"031-848-7149","addr":"경기도 양주시 광사동 560-5번지","indutype":"학원 - 기타 교육기관","category":"study"}]},{"lat":"37.791657408","long":"127.07881146","imageIndex":16,"items":[{"name":"윤선생우리집앞영어교실양주광사공부방","tel":"031-847-4592","addr":"경기도 양주시 광사동 713번지 해동마을신도브래뉴 103동 702호","indutype":"학원 - 외국어학원","category":"study"}]},{"lat":"37.794376261","long":"127.08186834","imageIndex":16,"items":[{"name":"이미경피아노스토리음악교습소","tel":"031-841-1200","addr":"경기도 양주시 광사동 658번지 해동마을유승한내들 203, 204호","indutype":"학원 - 예·체능계학원","category":"study"}]},{"lat":"37.791593142","long":"127.0806506","imageIndex":16,"items":[{"name":"코리아태권도아카데미","tel":"031-856-0396","addr":"경기도 양주시 광사동 670-19번지","indutype":"학원 - 예·체능계학원","category":"study"}]},{"lat":"37.791225614","long":"127.07777789","imageIndex":16,"items":[{"name":"키즈킥스(Kiz Kicks)","tel":"031-822-9732","addr":"경기도 양주시 광사동 713번지 해동마을신도브래뉴 112동 204호","indutype":"학원 - 예·체능계학원","category":"study"}]},{"lat":"37.794045406","long":"127.07805322","imageIndex":16,"items":[{"name":"탑독서실","tel":"031-847-3332","addr":"경기도 양주시 광사동 653-5번지 7층","indutype":"학원 - 독서실","category":"study"}]},{"lat":"37.790873466","long":"127.07899231","imageIndex":16,"items":[{"name":"하이스피em(Hi speed)815","tel":"031-865-7481","addr":"경기도 양주시 광사동 713번지 해동마을신도브래뉴 102동 1505호","indutype":"회원제형태 - 학원","category":"study"}]},{"lat":"37.792205876","long":"127.080515","imageIndex":16,"items":[{"name":"행복한화가학원","tel":"070-8884-1617","addr":"경기도 양주시 광사동 670-14번지 1층","indutype":"학원 - 예·체능계학원","category":"study"}]}]