[{"lat":"37.26660243","long":"126.87947892","imageIndex":17,"items":[{"name":"다함피아노","tel":"031-443-2598","addr":"경기도 화성시 매송면 야목리 1300번지 휴먼시아 103동 1505호","indutype":"수리서비스 - 기타수리서비스","category":"other"}]},{"lat":"37.271376773","long":"126.86232259","imageIndex":17,"items":[{"name":"대한가설재","tel":"031-295-6262","addr":"경기도 화성시 매송면 야목리 163-3","indutype":"건축자재 - 기타건축자재","category":"other"},{"name":"야목리낚시마트","tel":"031-405-4404","addr":"경기도 화성시 매송면 야목리 163-3번지","indutype":"레져용품 - 스포츠·레져용품","category":"other"}]},{"lat":"37.271206565","long":"126.86315722","imageIndex":17,"items":[{"name":"동양꽃화원","tel":"031-295-5535","addr":"경기도 화성시 매송면 야목리 161-3","indutype":"문화.취미 - 화원","category":"other"}]},{"lat":"37.266125261","long":"126.87984045","imageIndex":17,"items":[{"name":"두림장식","tel":"031-213-0292","addr":"경기도 화성시 매송면 야목리 1300번지 휴먼시아 109동 102호","indutype":"용역 서비스 - 기타용역서비스","category":"other"}]},{"lat":"37.26754006","long":"126.88001853","imageIndex":17,"items":[{"name":"미도어","tel":"031-298-8662","addr":"경기도 화성시 매송면 야목리 427번지","indutype":"건축자재 - 기타건축자재","category":"other"}]},{"lat":"37.266909423","long":"126.88009848","imageIndex":17,"items":[{"name":"빈스갤러리","tel":"031-364-4196","addr":"경기도 화성시 매송면 야목리 1300번지 휴먼시아 105동 702호","indutype":"가구 - 일반가구","category":"other"}]},{"lat":"37.268902984","long":"126.86576581","imageIndex":17,"items":[{"name":"삼성하우젠","tel":"031-295-2446","addr":"경기도 화성시 매송면 야목리 176-1번지","indutype":"용역 서비스 - 기타용역서비스","category":"other"}]},{"lat":"37.265485824","long":"126.88012333","imageIndex":17,"items":[{"name":"스나이퍼 피싱","tel":"031-295-0866","addr":"경기도 화성시 매송면 야목리 444-8번지 1층 103호.104호","indutype":"레져용품 - 스포츠·레져용품","category":"other"}]},{"lat":"37.266656506","long":"126.88846405","imageIndex":17,"items":[{"name":"애견추모까페","tel":"031-296-4300","addr":"경기도 화성시 매송면 야목리 596-3번지","indutype":"문화.취미 - 애완동물","category":"other"}]},{"lat":"37.265098184","long":"126.87993231","imageIndex":17,"items":[{"name":"주식회사원일판넬산업","tel":"031-295-8821","addr":"경기도 화성시 매송면 야목리 450-3","indutype":"건축자재 - 기타건축자재","category":"other"}]},{"lat":"37.266933066","long":"126.87687412","imageIndex":17,"items":[{"name":"해신종합주방","tel":"02-1111-1111","addr":"경기도 화성시 매송면 야목리 332-7번지","indutype":"주방용구 - 주방용구","category":"other"}]},{"lat":"37.266378074","long":"126.88034736","imageIndex":17,"items":[{"name":"현대휴텍","tel":"031-294-3074","addr":"경기도 화성시 매송면 야목리 1300번지 휴먼시아 107동 6층 604호","indutype":"건축자재 - 인테리어전문","category":"other"}]}]