[{"lat":"37.121976572","long":"127.01945666","imageIndex":4,"items":[{"name":"개여울","tel":"","addr":"경기도 평택시 서탄면 수월암리 1030-3번지","indutype":"일반휴게음식 - 서양음식","category":"restaurant"},{"name":"오리와촌닭","tel":"031-663-5702","addr":"경기도 평택시 서탄면 수월암리 1030-3","indutype":"일반휴게음식 - 일반한식","category":"restaurant"}]},{"lat":"37.122618517","long":"127.04636134","imageIndex":4,"items":[{"name":"다복셀프식당","tel":"031-666-1110","addr":"경기도 평택시 서탄면 수월암리 130-4번지","indutype":"일반휴게음식 - 일반한식","category":"restaurant"}]},{"lat":"37.123060995","long":"127.04364974","imageIndex":4,"items":[{"name":"다연정","tel":"031-668-1280","addr":"경기도 평택시 서탄면 수월암리 190-1번지","indutype":"일반휴게음식 - 일반한식","category":"restaurant"}]},{"lat":"37.120974294","long":"127.03073113","imageIndex":4,"items":[{"name":"대웅식당","tel":"031-611-1118","addr":"경기도 평택시 서탄면 수월암리 651-7번지","indutype":"일반휴게음식 - 일반한식","category":"restaurant"}]},{"lat":"37.1200016","long":"127.02878417","imageIndex":4,"items":[{"name":"도담푸드","tel":"031-663-7148","addr":"경기도 평택시 서탄면 수월암리 964-19번지","indutype":"일반휴게음식 - 일반한식","category":"restaurant"}]},{"lat":"37.133391166","long":"127.02898005","imageIndex":4,"items":[{"name":"로얄식당","tel":"031-374-5603","addr":"경기도 평택시 서탄면 수월암리 261번지","indutype":"일반휴게음식 - 일반한식","category":"restaurant"}]},{"lat":"37.117308401","long":"127.02401256","imageIndex":4,"items":[{"name":"맛고을한식부페","tel":"031-667-5020","addr":"경기도 평택시 서탄면 수월암리 2008-3번지 1층","indutype":"일반휴게음식 - 일반한식","category":"restaurant"}]},{"lat":"37.121537815","long":"127.04480791","imageIndex":4,"items":[{"name":"맛집엄마손","tel":"070-7760-6230","addr":"경기도 평택시 서탄면 수월암리 147번지 C동","indutype":"일반휴게음식 - 일반한식","category":"restaurant"}]},{"lat":"37.118864017","long":"127.03761649","imageIndex":4,"items":[{"name":"명가한식부페","tel":"031-666-7783","addr":"경기도 평택시 서탄면 수월암리 419번지 1층 103호","indutype":"일반휴게음식 - 일반한식","category":"restaurant"}]},{"lat":"37.13339133","long":"127.02822603","imageIndex":4,"items":[{"name":"미소얼큰이샤브샤브칼국수","tel":"031-664-8511","addr":"경기도 평택시 서탄면 수월암리 827번지","indutype":"일반휴게음식 - 일반한식","category":"restaurant"},{"name":"오븐과 치킨","tel":"031-271-4119","addr":"경기도 평택시 서탄면 수월암리 827번지 2층","indutype":"일반휴게음식 - 스넥","category":"restaurant"},{"name":"청마루감자탕해장국","tel":"031-667-9990","addr":"경기도 평택시 서탄면 수월암리 827번지","indutype":"일반휴게음식 - 일반한식","category":"restaurant"}]},{"lat":"37.128085365","long":"127.02167488","imageIndex":4,"items":[{"name":"민지한식뷔페","tel":"","addr":"경기도 평택시 서탄면 수월암리 861-24번지 1층","indutype":"일반휴게음식 - 일반한식","category":"restaurant"}]},{"lat":"37.133364355","long":"127.02795592","imageIndex":4,"items":[{"name":"별커피카페","tel":"031-663-3383","addr":"경기도 평택시 서탄면 수월암리 828-5번지 2층","indutype":"일반휴게음식 - 서양음식","category":"restaurant"},{"name":"장터순대국감자탕","tel":"031-667-3232","addr":"경기도 평택시 서탄면 수월암리 828-5번지","indutype":"일반휴게음식 - 일반한식","category":"restaurant"}]},{"lat":"37.117533237","long":"127.02628546","imageIndex":4,"items":[{"name":"북경반점","tel":"031-611-1815","addr":"경기도 평택시 서탄면 수월암리 980-4번지","indutype":"일반휴게음식 - 중국식","category":"restaurant"},{"name":"우리들밥상","tel":"031-688-1158","addr":"경기도 평택시 서탄면 수월암리 980-4번지","indutype":"일반휴게음식 - 일반한식","category":"restaurant"}]},{"lat":"37.123230902","long":"127.04725064","imageIndex":4,"items":[{"name":"빌드매니아글로벌","tel":"031-611-1479","addr":"경기도 평택시 서탄면 수월암리 124번지 가동","indutype":"일반휴게음식 - 서양음식","category":"restaurant"}]},{"lat":"37.134390913","long":"127.03081482","imageIndex":4,"items":[{"name":"산홍(오산평택직영점)","tel":"031-665-7757","addr":"경기도 평택시 서탄면 수월암리 246-3번지","indutype":"일반휴게음식 - 일반한식","category":"restaurant"}]},{"lat":"37.121030546","long":"127.01889385","imageIndex":4,"items":[{"name":"서탄민물장어","tel":"031-667-5121","addr":"경기도 평택시 서탄면 수월암리 1036번지","indutype":"일반휴게음식 - 일반한식","category":"restaurant"},{"name":"서탄민물장어","tel":"","addr":"경기도 평택시 서탄면 수월암리 1036번지","indutype":"음식점 - 한식","category":"restaurant"}]},{"lat":"37.12356291","long":"127.01548486","imageIndex":4,"items":[{"name":"써니한식뷔페(내천점)","tel":"031-662-3222","addr":"경기도 평택시 서탄면 수월암리 1151-4번지 나동","indutype":"일반휴게음식 - 일반한식","category":"restaurant"}]},{"lat":"37.119756487","long":"127.03612039","imageIndex":4,"items":[{"name":"아현한식부페","tel":"031-666-0778","addr":"경기도 평택시 서탄면 수월암리 1283-10번지","indutype":"일반휴게음식 - 일반한식","category":"restaurant"}]},{"lat":"37.135002729","long":"127.0343939","imageIndex":4,"items":[{"name":"양감고추장돼지불백","tel":"031-353-5569","addr":"경기도 평택시 서탄면 수월암리 227-2번지","indutype":"일반휴게음식 - 일반한식","category":"restaurant"}]},{"lat":"37.128842159","long":"127.02222648","imageIndex":4,"items":[{"name":"엄마손가정식밥상","tel":"031-000-0000","addr":"경기도 평택시 서탄면 수월암리 861-12번지 1층","indutype":"일반휴게음식 - 일반한식","category":"restaurant"}]},{"lat":"37.130418006","long":"127.02756108","imageIndex":4,"items":[{"name":"오산한식부페","tel":"031-222-2265","addr":"경기도 평택시 서탄면 수월암리 773번지 3동","indutype":"일반휴게음식 - 일반한식","category":"restaurant"}]},{"lat":"37.134588999","long":"127.03142262","imageIndex":4,"items":[{"name":"전라도한식뷔페","tel":"031-000-0000","addr":"경기도 평택시 서탄면 수월암리 244-4번지 재명빌딩 1층 2호","indutype":"일반휴게음식 - 일반한식","category":"restaurant"}]},{"lat":"37.132896463","long":"127.02464711","imageIndex":4,"items":[{"name":"중화요리북경","tel":"031-372-6001","addr":"경기도 평택시 서탄면 수월암리 850-5번지","indutype":"일반휴게음식 - 중국식","category":"restaurant"}]},{"lat":"37.123089354","long":"127.03958761","imageIndex":4,"items":[{"name":"풀무원푸드앤컬처 경동나비엔서탄","tel":"02-3400-7544","addr":"경기도 평택시 서탄면 수월암리 2022번지 구내식당 202동 1층","indutype":"일반휴게음식 - 위탁급식업","category":"restaurant"}]},{"lat":"37.117397843","long":"127.02745559","imageIndex":4,"items":[{"name":"호남한식뷔페","tel":"031-611-8124","addr":"경기도 평택시 서탄면 수월암리 978-1번지","indutype":"일반휴게음식 - 일반한식","category":"restaurant"}]},{"lat":"37.116090812","long":"127.02978422","imageIndex":4,"items":[{"name":"황소네","tel":"031-663-1959","addr":"경기도 평택시 서탄면 수월암리 537-1번지","indutype":"일반휴게음식 - 일반한식","category":"restaurant"}]}]