[{"lat":"37.746421251","long":"126.75196114","imageIndex":17,"items":[{"name":"(주)대아운수","tel":"031-943-2778","addr":"경기도 파주시 당하동 308,309","indutype":"여행 - 렌터카","category":"other"},{"name":"신영설비","tel":"031-949-8686","addr":"경기도 파주시 당하동 308번지","indutype":"건축자재 - 목재·석재·철물","category":"other"},{"name":"아이북포유","tel":"031-949-4940","addr":"경기도 파주시 당하동 308","indutype":"회원제형태 - 서적","category":"other"},{"name":"이브이야기","tel":"031-941-0946","addr":"경기도 파주시 당하동 308번지","indutype":"의류 - 맞춤복점","category":"other"},{"name":"이안플라워","tel":"070-7502-1777","addr":"경기도 파주시 당하동 308번지","indutype":"문화.취미 - 화원","category":"other"},{"name":"핫독","tel":"031-945-0022","addr":"경기도 파주시 당하동 308번지","indutype":"문화.취미 - 애완동물","category":"other"}]},{"lat":"37.738287268","long":"126.74437616","imageIndex":17,"items":[{"name":"GS25파주로점","tel":"","addr":"경기도 파주시 당하동 240-171번지","indutype":"유통업 영리 - 편 의 점","category":"other"},{"name":"천하철물","tel":"031-948-6969","addr":"경기도 파주시 당하동 240-171번지","indutype":"건축자재 - 목재·석재·철물","category":"other"}]},{"lat":"37.739949132","long":"126.7504287","imageIndex":17,"items":[{"name":"S바이크","tel":"031-949-4206","addr":"경기도 파주시 당하동 230-20번지","indutype":"수리서비스 - 기타수리서비스","category":"other"},{"name":"제이제이무역","tel":"031-946-1777","addr":"경기도 파주시 당하동 230-20번지","indutype":"레져용품 - 골프용품 전문점","category":"other"}]},{"lat":"37.738286115","long":"126.74798385","imageIndex":17,"items":[{"name":"TS인피니티","tel":"031-949-1536","addr":"경기도 파주시 당하동 562-2번지","indutype":"서적문구 - 출판 및 인쇄물","category":"other"}]},{"lat":"37.743591964","long":"126.7518232","imageIndex":17,"items":[{"name":"교하 사임당 로타리클럽","tel":"031-947-5742","addr":"경기도 파주시 당하동 334번지","indutype":"기타 - 비영리/대상","category":"other"}]},{"lat":"37.746365404","long":"126.75112172","imageIndex":17,"items":[{"name":"금성가구","tel":"031-948-8652","addr":"경기도 파주시 당하동 203-2번지","indutype":"가구 - 일반가구","category":"other"},{"name":"놀러와","tel":"031-943-1244","addr":"경기도 파주시 당하동 203-2번지","indutype":"의류 - 정장","category":"other"},{"name":"문천오세무회계사무소","tel":"031-945-1982","addr":"경기도 파주시 당하동 203-2","indutype":"용역 서비스 - 법률회계서비스(개인)","category":"other"}]},{"lat":"37.744282493","long":"126.75032322","imageIndex":17,"items":[{"name":"세기철물공구","tel":"031-943-0986","addr":"경기도 파주시 당하동 223-5번지","indutype":"건축자재 - 목재·석재·철물","category":"other"}]},{"lat":"37.745787196","long":"126.75037483","imageIndex":17,"items":[{"name":"순금나라파주점","tel":"031-943-0540","addr":"경기도 파주시 당하동 170-31","indutype":"신변잡화 - 귀금속","category":"other"},{"name":"한국스카우트 파주대리점","tel":"031-942-5955","addr":"경기도 파주시 당하동 170-31 2층2호","indutype":"의류 - 기타의류","category":"other"}]},{"lat":"37.740539561","long":"126.7526844","imageIndex":17,"items":[{"name":"신국제공업사","tel":"031-941-0008","addr":"경기도 파주시 당하동 377번지","indutype":"농업 - 농기계","category":"other"}]},{"lat":"37.744123232","long":"126.75168526","imageIndex":17,"items":[{"name":"신태양안전철물","tel":"031-946-8589","addr":"경기도 파주시 당하동 302-5","indutype":"건축자재 - 목재·석재·철물","category":"other"}]},{"lat":"37.742924126","long":"126.75129221","imageIndex":17,"items":[{"name":"썬휴게편의점","tel":"031-941-7384","addr":"경기도 파주시 당하동 112-3번지","indutype":"유통업 영리 - 편 의 점","category":"other"}]},{"lat":"37.744119131","long":"126.74976783","imageIndex":17,"items":[{"name":"유성산업","tel":"031-945-5821","addr":"경기도 파주시 당하동 222-2번지","indutype":"주방용구 - 주방용구","category":"other"}]},{"lat":"37.747925541","long":"126.75181991","imageIndex":17,"items":[{"name":"인디캠핑","tel":"031-944-9997","addr":"경기도 파주시 당하동 194-6번지","indutype":"레져용품 - 스포츠·레져용품","category":"other"},{"name":"탄탄스토리하우스","tel":"031-942-6608","addr":"경기도 파주시 당하동 194-6","indutype":"회원제형태 - 서적","category":"other"}]},{"lat":"37.742869487","long":"126.7510201","imageIndex":17,"items":[{"name":"자전거 장나감나라","tel":"031-921-3323","addr":"경기도 파주시 당하동 112-5","indutype":"서적문구 - 완구점","category":"other"},{"name":"주식회사 네오글로벌 시스템","tel":"031-1611-3724","addr":"경기도 파주시 당하동 112-5번지","indutype":"사무통신 - 컴퓨터","category":"other"}]},{"lat":"37.746620231","long":"126.75232355","imageIndex":17,"items":[{"name":"첼시","tel":"031-939-1238","addr":"경기도 파주시 당하동 306-1번지","indutype":"가구 - 일반가구","category":"other"}]},{"lat":"37.738675223","long":"126.7446244","imageIndex":17,"items":[{"name":"탑플라이트","tel":"070-4192-1842","addr":"경기도 파주시 당하동 658-1번지","indutype":"문화.취미 - 애완동물","category":"other"}]},{"lat":"37.736865919","long":"126.74952025","imageIndex":17,"items":[{"name":"파주조경자재","tel":"031-948-4021","addr":"경기도 파주시 당하동 257-1번지","indutype":"기타 - 기계공구","category":"other"}]},{"lat":"37.746287848","long":"126.7485691","imageIndex":17,"items":[{"name":"홍선생교육","tel":"031-948-2366","addr":"경기도 파주시 당하동 198-13","indutype":"회원제형태 - 서적","category":"other"}]},{"lat":"37.74167732","long":"126.7625738","imageIndex":4,"items":[{"name":"(주)종가푸드파주","tel":"031-2939-5878","addr":"경기도 파주시 당하동 554번지","indutype":"일반휴게음식 - 일반한식","category":"restaurant"}]},{"lat":"37.736930235","long":"126.7459351","imageIndex":4,"items":[{"name":"sostga","tel":"031-941-7248","addr":"경기도 파주시 당하동 669번지","indutype":"일반휴게음식 - 서양음식","category":"restaurant"}]},{"lat":"37.734477998","long":"126.74518351","imageIndex":4,"items":[{"name":"더 리얼","tel":"031-946-8825","addr":"경기도 파주시 당하동 241-63번지","indutype":"일반휴게음식 - 서양음식","category":"restaurant"}]},{"lat":"37.746256465","long":"126.75073632","imageIndex":4,"items":[{"name":"떡기리","tel":"031-962-8848","addr":"경기도 파주시 당하동 203번지","indutype":"일반휴게음식 - 서양음식","category":"restaurant"}]},{"lat":"37.739949132","long":"126.7504287","imageIndex":4,"items":[{"name":"신장강","tel":"031-943-7740","addr":"경기도 파주시 당하동 230-20번지","indutype":"일반휴게음식 - 중국식","category":"restaurant"}]},{"lat":"37.746340409","long":"126.7478768","imageIndex":4,"items":[{"name":"쑥마루좌훈","tel":"031-944-4034","addr":"경기도 파주시 당하동 198-33번지","indutype":"일반휴게음식 - 일반한식","category":"restaurant"}]},{"lat":"37.738259219","long":"126.74391111","imageIndex":4,"items":[{"name":"오가네 추어 칼국수","tel":"031-947-1409","addr":"경기도 파주시 당하동 240-130번지","indutype":"일반휴게음식 - 일반한식","category":"restaurant"}]},{"lat":"37.738395631","long":"126.74448923","imageIndex":4,"items":[{"name":"원조양평해장국","tel":"031-946-9068","addr":"경기도 파주시 당하동 240-54번지","indutype":"일반휴게음식 - 일반한식","category":"restaurant"}]},{"lat":"37.742869487","long":"126.7510201","imageIndex":4,"items":[{"name":"전원가든","tel":"031-942-5785","addr":"경기도 파주시 당하동 112-5번지","indutype":"일반휴게음식 - 일반한식","category":"restaurant"}]},{"lat":"37.746421251","long":"126.75196114","imageIndex":4,"items":[{"name":"커피.쿠키","tel":"031-949-0039","addr":"경기도 파주시 당하동 308번지","indutype":"일반휴게음식 - 서양음식","category":"restaurant"}]},{"lat":"37.737812787","long":"126.75415707","imageIndex":0,"items":[{"name":"경안윤활유","tel":"031-946-9688","addr":"경기도 파주시 당하동 79","indutype":"자동차정비 유지 - 윤활유 전문 판매","category":"car"}]},{"lat":"37.742644905","long":"126.75132719","imageIndex":0,"items":[{"name":"교하당하점 현대자동차","tel":"031-943-8543","addr":"경기도 파주시 당하동 112-6","indutype":"자동차정비 유지 - 자동차정비","category":"car"}]},{"lat":"37.745921803","long":"126.75012476","imageIndex":0,"items":[{"name":"교하북부점기아오토큐","tel":"031-945-1227","addr":"경기도 파주시 당하동 201-1","indutype":"자동차정비 유지 - 자동차정비","category":"car"}]},{"lat":"37.739949132","long":"126.7504287","imageIndex":0,"items":[{"name":"다이앤샵","tel":"031-944-9878","addr":"경기도 파주시 당하동 230-20번지","indutype":"자동차정비 유지 - 자동차부품","category":"car"},{"name":"르노삼성자동차서비스코너파주교하점","tel":"031-957-0299","addr":"경기도 파주시 당하동 230-20번지","indutype":"자동차정비 유지 - 자동차정비","category":"car"},{"name":"세덴 파주교하점","tel":"031-946-7923","addr":"경기도 파주시 당하동 230-20 C동105호 106호","indutype":"자동차정비 유지 - 카인테리어","category":"car"},{"name":"아이나비 파주점","tel":"031-8071-4820","addr":"경기도 파주시 당하동 230-20번지","indutype":"자동차정비 유지 - 자동차부품","category":"car"}]},{"lat":"37.743924951","long":"126.75165189","imageIndex":0,"items":[{"name":"대림카모터스","tel":"031-945-9051","addr":"경기도 파주시 당하동 302-6번지","indutype":"자동차정비 유지 - 자동차정비","category":"car"}]},{"lat":"37.744201943","long":"126.7505731","imageIndex":0,"items":[{"name":"미진테크","tel":"031-919-5522","addr":"경기도 파주시 당하동 223-3번지","indutype":"자동차정비 유지 - 자동차시트·타이어","category":"car"}]},{"lat":"37.742869487","long":"126.7510201","imageIndex":0,"items":[{"name":"뽀빠이운수","tel":"031-945-0602","addr":"경기도 파주시 당하동 112-5번지","indutype":"자동차정비 유지 - 견인서비스","category":"car"}]},{"lat":"37.742616252","long":"126.75056714","imageIndex":0,"items":[{"name":"윈윈차바닥,공구함","tel":"031-948-8245","addr":"경기도 파주시 당하동 228번지","indutype":"자동차정비 유지 - 자동차부품","category":"car"}]},{"lat":"37.737812787","long":"126.75415707","imageIndex":9,"items":[{"name":"경인윤활유","tel":"031-945-0905","addr":"경기도 파주시 당하동 79","indutype":"연료판매점 - 기타연료","category":"oil"},{"name":"경진윤활유","tel":"","addr":"경기도 파주시 당하동 79","indutype":"연료판매점 - 기타연료","category":"oil"}]},{"lat":"37.738005656","long":"126.74332206","imageIndex":7,"items":[{"name":"나인음료유통","tel":"031-5213-9969","addr":"경기도 파주시 당하동 240-6번지","indutype":"음료식품 - 기타음료식품","category":"food"}]},{"lat":"37.74581274","long":"126.74968264","imageIndex":16,"items":[{"name":"라임어린이집[아이행복]","tel":"031-943-7808","addr":"경기도 파주시 당하동 201-7번지","indutype":"학원 - 유아원","category":"study"}]},{"lat":"37.737427134","long":"126.75074358","imageIndex":16,"items":[{"name":"아트빌 미술학원","tel":"070-8785-7142","addr":"경기도 파주시 당하동 250-12번지","indutype":"학원 - 예·체능계학원","category":"study"}]},{"lat":"37.738313498","long":"126.75235155","imageIndex":16,"items":[{"name":"이솔어린이집[아이행복]","tel":"031-945-2346","addr":"경기도 파주시 당하동 93-2번지","indutype":"학원 - 유아원","category":"study"}]},{"lat":"37.744342268","long":"126.74879133","imageIndex":16,"items":[{"name":"파주YMCA","tel":"031-957-4123","addr":"경기도 파주시 당하동 218-8번지","indutype":"학원 - 예·체능계학원","category":"study"}]},{"lat":"37.736758634","long":"126.74990634","imageIndex":16,"items":[{"name":"홍익유치원","tel":"031-948-2136","addr":"경기도 파주시 당하동 259-4","indutype":"학원 - 유치원","category":"study"},{"name":"홍익유치원[아이행복]","tel":"031-948-2136","addr":"경기도 파주시 당하동 259-4","indutype":"학원 - 유치원","category":"study"}]},{"lat":"37.739949132","long":"126.7504287","imageIndex":7,"items":[{"name":"행복마트","tel":"","addr":"경기도 파주시 당하동 230-20번지","indutype":"유통업 영리 - 슈퍼마켓","category":"mart"}]}]