[{"lat":"37.693907426","long":"126.77101624","imageIndex":7,"items":[{"name":"JD푸드","tel":"031-924-9931","addr":"경기도 고양시 일산서구 탄현동 1502번지","indutype":"음료식품 - 정육점","category":"food"}]},{"lat":"37.689485719","long":"126.7630144","imageIndex":7,"items":[{"name":"K아이스크림 할인점 (탄현2지구점)","tel":"02-1111-1111","addr":"경기도 고양시 일산서구 탄현동 1577-4번지","indutype":"음료식품 - 기타음료식품","category":"food"},{"name":"고향한우 도드람포크","tel":"031-916-1124","addr":"경기도 고양시 일산서구 탄현동 1577-4번지","indutype":"음료식품 - 정육점","category":"food"},{"name":"막 퍼주는집","tel":"","addr":"경기도 고양시 일산서구 탄현동 1577-4번지","indutype":"음료식품 - 농·축·수산품","category":"food"},{"name":"파리바게트","tel":"031-919-9358","addr":"경기도 고양시 일산서구 탄현동 1577-4번지","indutype":"음료식품 - 제과점","category":"food"},{"name":"풍성한떡집","tel":"031-922-9909","addr":"경기도 고양시 일산서구 탄현동","indutype":"음료식품 - 제과점","category":"food"}]},{"lat":"37.698518295","long":"126.76545718","imageIndex":7,"items":[{"name":"THE고기 GO-GI","tel":"","addr":"경기도 고양시 일산서구 탄현동 132-62번지","indutype":"음료식품 - 정육점","category":"food"},{"name":"여의도떡집","tel":"031-913-0089","addr":"경기도 고양시 일산서구 탄현동 132-62번지","indutype":"음료식품 - 제과점","category":"food"}]},{"lat":"37.693544899","long":"126.76992891","imageIndex":7,"items":[{"name":"건국우유일산보급소","tel":"031-913-7677","addr":"경기도 고양시 일산서구 탄현동 1498-11번지","indutype":"음료식품 - 기타음료식품","category":"food"}]},{"lat":"37.693767776","long":"126.77331832","imageIndex":7,"items":[{"name":"고기에 반하다","tel":"031-111-1111","addr":"경기도 고양시 일산서구 탄현동 41-6번지","indutype":"음료식품 - 정육점","category":"food"}]},{"lat":"37.691345135","long":"126.76470908","imageIndex":7,"items":[{"name":"과일이랑 야채랑","tel":"031-901-4338","addr":"경기도 고양시 일산서구 탄현동 1578번지","indutype":"음료식품 - 농·축·수산품","category":"food"}]},{"lat":"37.700850831","long":"126.76498483","imageIndex":7,"items":[{"name":"과일천국","tel":"","addr":"경기도 고양시 일산서구 탄현동 121번지 큰마을대림아파트","indutype":"음료식품 - 농·축·수산품","category":"food"},{"name":"돈키호테빵집","tel":"031-912-3602","addr":"경기도 고양시 일산서구 탄현동","indutype":"음료식품 - 제과점","category":"food"},{"name":"아이스크림할인점(탄현점)","tel":"031-919-0344","addr":"경기도 고양시 일산서구 탄현동 121번지 큰마을대림아파트","indutype":"음료식품 - 기타음료식품","category":"food"},{"name":"오가네","tel":"031-914-3371","addr":"경기도 고양시 일산서구 탄현동 121번지 큰마을대림아파트","indutype":"음료식품 - 농·축·수산품","category":"food"},{"name":"현미랑누룽지랑","tel":"031-912-1677","addr":"경기도 고양시 일산서구 탄현동 121번지 큰마을대림아파트","indutype":"음료식품 - 기타음료식품","category":"food"}]},{"lat":"37.69409829","long":"126.76284081","imageIndex":7,"items":[{"name":"광축산","tel":"031-917-6325","addr":"경기도 고양시 일산서구 탄현동 1640번지 일산위브더제니스","indutype":"음료식품 - 정육점","category":"food"},{"name":"브래드웍스","tel":"031-925-9511","addr":"경기도 고양시 일산서구 탄현동 1640번지 일산위브더제니스","indutype":"음료식품 - 제과점","category":"food"},{"name":"빵내음","tel":"031-913-0055","addr":"경기도 고양시 일산서구 탄현동 1640번지 일산위브더제니스","indutype":"음료식품 - 제과점","category":"food"},{"name":"장독대 탄현PM점","tel":"","addr":"경기도 고양시 일산서구 탄현동 1640번지 일산위브더제니스","indutype":"음료식품 - 기타음료식품","category":"food"},{"name":"제니스탑후르츠","tel":"02-6465-6500","addr":"경기도 고양시 일산서구 탄현동 1640번지 일산위브더제니스","indutype":"음료식품 - 농·축·수산품","category":"food"},{"name":"쿤밍코리아 주식회사","tel":"031-917-6600","addr":"경기도 고양시 일산서구 탄현동 1640번지 일산위브더제니스","indutype":"음료식품 - 기타음료식품","category":"food"},{"name":"타르트팜탄현점","tel":"031-913-1122","addr":"경기도 고양시 일산서구 탄현동 1640번지 일산위브더제니스","indutype":"음료식품 - 제과점","category":"food"},{"name":"해콩","tel":"031-921-2288","addr":"경기도 고양시 일산서구 탄현동 1640번지 일산위브더제니스","indutype":"음료식품 - 기타음료식품","category":"food"}]},{"lat":"37.703982805","long":"126.7677984","imageIndex":7,"items":[{"name":"구떼","tel":"","addr":"경기도 고양시 일산서구 탄현동 1650번지 일산에듀포레푸르지오","indutype":"음료식품 - 제과점","category":"food"},{"name":"스카이(SKY)아이스크림&세계맥주","tel":"031-923-3838","addr":"경기도 고양시 일산서구 탄현동 1650번지 일산에듀포레푸르지오","indutype":"음료식품 - 기타음료식품","category":"food"},{"name":"푸르지오 축산","tel":"","addr":"경기도 고양시 일산서구 탄현동 1650번지 일산에듀포레푸르지오","indutype":"음료식품 - 정육점","category":"food"}]},{"lat":"37.700609195","long":"126.76579068","imageIndex":7,"items":[{"name":"남양분유서부6전문점","tel":"031-819-0768","addr":"경기도 고양시 일산서구 탄현동 121번지 큰마을대림아파트","indutype":"음료식품 - 기타음료식품","category":"food"}]},{"lat":"37.690486403","long":"126.7633173","imageIndex":7,"items":[{"name":"농협안심축산물전문점","tel":"031-916-8111","addr":"경기도 고양시 일산서구 탄현동 1576-2번지","indutype":"음료식품 - 정육점","category":"food"}]},{"lat":"37.69785136","long":"126.76534592","imageIndex":7,"items":[{"name":"다솜연세내과소아과청소년과의원","tel":"031-912-3799","addr":"경기도 고양시 일산서구 탄현동 139-32번지","indutype":"건강식품 - 기타건강식품","category":"food"}]},{"lat":"37.700124129","long":"126.76206166","imageIndex":7,"items":[{"name":"달달제미니","tel":"","addr":"경기도 고양시 일산서구 탄현동 121번지 큰마을대림아파트","indutype":"음료식품 - 농·축·수산품","category":"food"}]},{"lat":"37.690071917","long":"126.76329596","imageIndex":7,"items":[{"name":"더브릭스 대박이네 과일야채","tel":"","addr":"경기도 고양시 일산서구 탄현동 1576-5번지","indutype":"음료식품 - 농·축·수산품","category":"food"},{"name":"명품떡집예향","tel":"031-911-3444","addr":"경기도 고양시 일산서구 탄현동 1576-5번지","indutype":"음료식품 - 제과점","category":"food"},{"name":"아두부야","tel":"070-4189-6867","addr":"경기도 고양시 일산서구 탄현동 1576-5번지","indutype":"음료식품 - 기타음료식품","category":"food"}]},{"lat":"37.693541862","long":"126.76390839","imageIndex":7,"items":[{"name":"던킨도너츠","tel":"031-925-0045","addr":"경기도 고양시 일산서구 탄현동 170-6번지","indutype":"음료식품 - 제과점","category":"food"}]},{"lat":"37.694518491","long":"126.77020932","imageIndex":7,"items":[{"name":"도우앤도우넛","tel":"031-975-0935","addr":"경기도 고양시 일산서구 탄현동 1490-1번지","indutype":"음료식품 - 제과점","category":"food"}]},{"lat":"37.691261133","long":"126.76326945","imageIndex":7,"items":[{"name":"뚜레쥬르 일산탄현(2)","tel":"031-915-3153","addr":"경기도 고양시 일산서구 탄현동 1573-5번지","indutype":"음료식품 - 제과점","category":"food"}]},{"lat":"37.697374699","long":"126.7702911","imageIndex":7,"items":[{"name":"민속","tel":"031-915-8406","addr":"경기도 고양시 일산서구 탄현동 1480번지","indutype":"음료식품 - 기타음료식품","category":"food"},{"name":"민속떡집","tel":"031-915-8406","addr":"경기도 고양시 일산서구 탄현동 1480번지","indutype":"음료식품 - 제과점","category":"food"},{"name":"하루한번","tel":"","addr":"경기도 고양시 일산서구 탄현동 1480번지","indutype":"음료식품 - 기타음료식품","category":"food"}]},{"lat":"37.7027617","long":"126.76539829","imageIndex":7,"items":[{"name":"백송상회","tel":"","addr":"경기도 고양시 일산서구 탄현동 1634번지 일산임광진흥아파트","indutype":"음료식품 - 농·축·수산품","category":"food"}]},{"lat":"37.690927318","long":"126.76304377","imageIndex":7,"items":[{"name":"베스킨라빈스","tel":"031-913-9695","addr":"경기도 고양시 일산서구 탄현동","indutype":"음료식품 - 제과점","category":"food"}]},{"lat":"37.700961091","long":"126.76605037","imageIndex":7,"items":[{"name":"삼촌들의 유통","tel":"031-4227-8116","addr":"경기도 고양시 일산서구 탄현동 121번지 큰마을대림아파트","indutype":"음료식품 - 기타음료식품","category":"food"}]},{"lat":"37.695265635","long":"126.76987817","imageIndex":7,"items":[{"name":"서울청과","tel":"02-969-2788","addr":"경기도 고양시 일산서구 탄현동","indutype":"음료식품 - 농·축·수산품","category":"food"}]},{"lat":"37.697897231","long":"126.77027813","imageIndex":7,"items":[{"name":"성경식품","tel":"031-812-8321","addr":"경기도 고양시 일산서구 탄현동 1480번지 탄현마을7단지아파트","indutype":"음료식품 - 기타음료식품","category":"food"}]},{"lat":"37.698205647","long":"126.76679615","imageIndex":7,"items":[{"name":"송림통상","tel":"031-912-8282","addr":"경기도 고양시 일산서구 탄현동 1476번지 탄현마을8단지아파트","indutype":"음료식품 - 기타음료식품","category":"food"}]},{"lat":"37.698512199","long":"126.76690857","imageIndex":7,"items":[{"name":"식빵이네","tel":"031-913-0225","addr":"경기도 고양시 일산서구 탄현동 1476번지","indutype":"음료식품 - 제과점","category":"food"}]},{"lat":"37.694454708","long":"126.7698467","imageIndex":7,"items":[{"name":"와동정육점","tel":"","addr":"경기도 고양시 일산서구 탄현동 1490-4번지","indutype":"음료식품 - 정육점","category":"food"}]},{"lat":"37.693595043","long":"126.76795592","imageIndex":7,"items":[{"name":"이조떡집","tel":"031-814-0086","addr":"경기도 고양시 일산서구 탄현동 1493-4번지","indutype":"음료식품 - 제과점","category":"food"}]},{"lat":"37.694041923","long":"126.77068701","imageIndex":7,"items":[{"name":"일도네 부대찌개","tel":"","addr":"경기도 고양시 일산서구 탄현동 1500-5번지","indutype":"음료식품 - 기타음료식품","category":"food"}]},{"lat":"37.706286481","long":"126.76640764","imageIndex":7,"items":[{"name":"자연","tel":"031-000-0000","addr":"경기도 고양시 일산서구 탄현동 98-6번지","indutype":"음료식품 - 기타음료식품","category":"food"},{"name":"자연에스파 구내매점","tel":"","addr":"경기도 고양시 일산서구 탄현동 98-6번지","indutype":"음료식품 - 기타음료식품","category":"food"}]},{"lat":"37.693625604","long":"126.76973591","imageIndex":7,"items":[{"name":"자연유통","tel":"031-901-6320","addr":"경기도 고양시 일산서구 탄현동 1498-8번지","indutype":"음료식품 - 기타음료식품","category":"food"}]},{"lat":"37.689456611","long":"126.76199412","imageIndex":7,"items":[{"name":"정관장경기탄현역점(신)","tel":"031-921-0304","addr":"경기도 고양시 일산서구 탄현동 1574-7번지","indutype":"건강식품 - 홍삼제품","category":"food"}]},{"lat":"37.700144044","long":"126.76299141","imageIndex":7,"items":[{"name":"지연통상","tel":"031-812-0505","addr":"경기도 고양시 일산서구 탄현동 121번지 큰마을대림아파트","indutype":"음료식품 - 기타음료식품","category":"food"}]},{"lat":"37.701638195","long":"126.76228355","imageIndex":7,"items":[{"name":"커피우즈","tel":"070-7554-3220","addr":"경기도 고양시 일산서구 탄현동 121번지 큰마을대림아파트","indutype":"음료식품 - 기타음료식품","category":"food"}]},{"lat":"37.69390268","long":"126.76412265","imageIndex":7,"items":[{"name":"탄현가판대","tel":"","addr":"경기도 고양시 일산서구 탄현동","indutype":"음료식품 - 기타음료식품","category":"food"}]},{"lat":"37.691901778","long":"126.76374358","imageIndex":7,"items":[{"name":"탄현점핑다이어트","tel":"","addr":"경기도 고양시 일산서구 탄현동 1573-1번지","indutype":"건강식품 - 기타건강식품","category":"food"}]},{"lat":"37.698878746","long":"126.76549004","imageIndex":7,"items":[{"name":"파리바게뜨-탄현큰마을점","tel":"031-921-0300","addr":"경기도 고양시 일산서구 탄현동","indutype":"음료식품 - 제과점","category":"food"},{"name":"하나로축산","tel":"031-913-2300","addr":"경기도 고양시 일산서구 탄현동 131-7번지","indutype":"음료식품 - 정육점","category":"food"}]},{"lat":"37.69309981","long":"126.76810488","imageIndex":7,"items":[{"name":"파리바게트일산탄현점","tel":"031-925-7081","addr":"경기도 고양시 일산서구 탄현동 1493-12번지","indutype":"음료식품 - 제과점","category":"food"}]},{"lat":"37.699927582","long":"126.76734631","imageIndex":7,"items":[{"name":"하나유통","tel":"031-916-3621","addr":"경기도 고양시 일산서구 탄현동 1470번지 탄현마을10단지아파트","indutype":"음료식품 - 농·축·수산품","category":"food"}]}]