[{"lat":"37.19960962","long":"127.0720532","imageIndex":17,"items":[{"name":"(주)그리플코리아","tel":"02-2142-3509","addr":"경기도 화성시 반송동 107-7번지 아시아프라자 778-2호","indutype":"건축자재 - 인테리어전문","category":"other"},{"name":"(주)부강이엔지","tel":"031-8094-1613","addr":"경기도 화성시 반송동 107-7번지 아시아프라자 765-1호","indutype":"신변잡화 - 기타잡화","category":"other"},{"name":"다올B&B","tel":"031-8003-6711","addr":"경기도 화성시 반송동 107-7번지 아시아프라자 7층 708-3호","indutype":"기타 - 기계공구","category":"other"},{"name":"더로직스","tel":"031-000-0000","addr":"경기도 화성시 반송동 107-7번지 아시아프라자 7층 765-1호","indutype":"건축자재 - 기타건축자재","category":"other"},{"name":"디와이교정계측기","tel":"031-8055-0854","addr":"경기도 화성시 반송동 107-7번지 아시아프라자 7층 744호","indutype":"기타 - 기계공구","category":"other"},{"name":"아이피산전","tel":"031-616-7002","addr":"경기도 화성시 반송동 107-7번지 아시아프라자 766-1호","indutype":"기타 - 기계공구","category":"other"},{"name":"우리설비","tel":"031-613-7749","addr":"경기도 화성시 반송동 107-7번지 아시아프라자 7층 755-1호","indutype":"용역 서비스 - 기타용역서비스","category":"other"},{"name":"이브자리동탄점","tel":"031-613-8862","addr":"경기도 화성시 반송동 107-7,아시아프라자내103호~104호","indutype":"직물 - 침구·수예점","category":"other"},{"name":"주식회사 아이소리산후조리원","tel":"031-8015-2024","addr":"경기도 화성시 반송동 107-7번지 아시아프라자 3층","indutype":"기타의료기관 - 산후조리원","category":"other"},{"name":"프리미어뮤직 화성동탄지사","tel":"","addr":"경기도 화성시 반송동 107-7번지 아시아프라자 7층 747호","indutype":"서적문구 - 일반서적","category":"other"},{"name":"한스터디카페","tel":"","addr":"경기도 화성시 반송동 107-7번지 아시아프라자 2층 208호","indutype":"용역 서비스 - 사무서비스","category":"other"}]},{"lat":"37.211606966","long":"127.06380645","imageIndex":17,"items":[{"name":"(주)기선","tel":"031-222-8423","addr":"경기도 화성시 반송동 2-1번지 1층","indutype":"사무통신 - 사무용 OA기기","category":"other"},{"name":"위드포레","tel":"","addr":"경기도 화성시 반송동 2-1번지 대원칸타빌2차 동탄2택지개발A33블럭 118호","indutype":"문화.취미 - 화원","category":"other"}]},{"lat":"37.207303553","long":"127.07363731","imageIndex":17,"items":[{"name":"(주)동성이엔씨","tel":"031-355-2201","addr":"경기도 화성시 반송동 86-4번지 위너스타 112호","indutype":"건축자재 - 인테리어전문","category":"other"},{"name":"DH웰리스","tel":"031-8015-2582","addr":"경기도 화성시 반송동 86-4번지 위너스타 810호","indutype":"회원제형태 - 레져업소","category":"other"},{"name":"동탄예음악기","tel":"031-8015-4666","addr":"경기도 화성시 반송동 86-4번지 위너스타 206-1호","indutype":"레져용품 - 악기점","category":"other"},{"name":"미라클","tel":"","addr":"경기도 화성시 반송동 86-4번지 위너스타 111호","indutype":"의류 - 정장","category":"other"},{"name":"야옹아멍멍해봐","tel":"031-222-6669","addr":"경기도 화성시 반송동 86-4번지 1층 117,118호","indutype":"문화.취미 - 애완동물","category":"other"},{"name":"영재SW교육","tel":"031-613-8655","addr":"경기도 화성시 반송동 86-4번지 606-1호","indutype":"서적문구 - 기타서적문구","category":"other"},{"name":"예당또래아동도서","tel":"031-8003-5598","addr":"경기도 화성시 반송동 86-4번지 위너스타 124호","indutype":"회원제형태 - 서적","category":"other"},{"name":"크린토피아 동탄위너스타점","tel":"031-8015-1331","addr":"경기도 화성시 반송동 86-4번지 위너스타 108호","indutype":"수리서비스 - 세탁소","category":"other"}]},{"lat":"37.211048253","long":"127.06394118","imageIndex":17,"items":[{"name":"(주)라온지에스","tel":"031-8003-6600","addr":"경기도 화성시 반송동 3-10번지 1층","indutype":"전기제품 - 기타전기제품","category":"other"}]},{"lat":"37.201078048","long":"127.0725051","imageIndex":17,"items":[{"name":"(주)료인터내셔널","tel":"031-8003-7741","addr":"경기도 화성시 반송동 104-6번지 프라임빌딩 5층 전체","indutype":"레져용품 - 스포츠·레져용품","category":"other"},{"name":"씨유동탄프라임점","tel":"031-8003-7492","addr":"경기도 화성시 반송동 104-6번지 프라임빌딩 104호","indutype":"유통업 영리 - 편 의 점","category":"other"}]},{"lat":"37.208606268","long":"127.06427717","imageIndex":17,"items":[{"name":"(주)리벳","tel":"070-4119-3685","addr":"경기도 화성시 반송동 33-3번지 1층","indutype":"가구 - 일반가구","category":"other"}]},{"lat":"37.199997132","long":"127.07194091","imageIndex":17,"items":[{"name":"(주)한솔교육오산동탄지사","tel":"031-410-3000","addr":"경기도 화성시 반송동 107-2번지 워터밸리 401호","indutype":"서적문구 - 일반서적","category":"other"},{"name":"세븐일레븐동탄중심상가점","tel":"031-1577-0711","addr":"경기도 화성시 반송동 107-2번지 워터밸리 107호","indutype":"유통업 영리 - 편 의 점","category":"other"}]},{"lat":"37.207607564","long":"127.06141505","imageIndex":17,"items":[{"name":"102마레(marais)","tel":"031-8003-2562","addr":"경기도 화성시 반송동 49-3번지 1층 102호","indutype":"의류 - 정장","category":"other"},{"name":"뉴파워텍","tel":"070-8992-8868","addr":"경기도 화성시 반송동 49-3번지","indutype":"건축자재 - 조명기구","category":"other"},{"name":"하늘구름 연구소","tel":"031-8003-9989","addr":"경기도 화성시 반송동 49-3번지 101호","indutype":"문화.취미 - 문화취미기타","category":"other"}]},{"lat":"37.207076223","long":"127.06086265","imageIndex":17,"items":[{"name":"2nd leborn(투앤드르본)","tel":"031-613-1732","addr":"경기도 화성시 반송동 50-20번지 103호","indutype":"신변잡화 - 기타잡화","category":"other"},{"name":"코코앤코코","tel":"","addr":"경기도 화성시 반송동 50-20번지 1층 101호","indutype":"의류 - 정장","category":"other"}]},{"lat":"37.203582449","long":"127.0733297","imageIndex":17,"items":[{"name":"32도 에프","tel":"070-8690-5671","addr":"경기도 화성시 반송동 92-3번지 센트럴시티오피스텔 1515호","indutype":"신변잡화 - 액세서리","category":"other"},{"name":"동탄 스타베이프","tel":"","addr":"경기도 화성시 반송동 92-3번지 센트럴시티 111호","indutype":"신변잡화 - 기타잡화","category":"other"},{"name":"아베끄초이","tel":"0504-2869-9390","addr":"경기도 화성시 반송동 92-3번지 센트럴시티오피스텔 1708호","indutype":"문화.취미 - 화원","category":"other"},{"name":"피에프에이(PFA)","tel":"","addr":"경기도 화성시 반송동 92-3번지 센트럴시티오피스 지층 08호 비","indutype":"레져용품 - 스포츠·레져용품","category":"other"}]},{"lat":"37.195829934","long":"127.07911182","imageIndex":17,"items":[{"name":"A+과학나라오산화성지사","tel":"031-373-7274","addr":"경기도 화성시 반송동 128-7번지 1층","indutype":"회원제형태 - 서적","category":"other"}]},{"lat":"37.208193372","long":"127.06114514","imageIndex":17,"items":[{"name":"AROB 아롭","tel":"070-7630-1225","addr":"경기도 화성시 반송동 44-4번지 101호","indutype":"의류 - 정장","category":"other"},{"name":"새천년 광고","tel":"031-898-6600","addr":"경기도 화성시 반송동 44-4번지 201호","indutype":"용역 서비스 - 종합용역","category":"other"},{"name":"파란종합기획","tel":"031-8003-1491","addr":"경기도 화성시 반송동 44-4번지 103호","indutype":"용역 서비스 - 종합용역","category":"other"}]},{"lat":"37.208769858","long":"127.06150607","imageIndex":17,"items":[{"name":"Anna 안나","tel":"070-4189-2676","addr":"경기도 화성시 반송동 43-1번지 토마토프라자 102호","indutype":"의류 - 정장","category":"other"},{"name":"나래문고","tel":"031-613-0434","addr":"경기도 화성시 반송동 43-1번지 토마토프라자 202호","indutype":"서적문구 - 일반서적","category":"other"},{"name":"이희승에스테틱","tel":"031-8003-1111","addr":"경기도 화성시 반송동 43-1번지 성우프라자 301호","indutype":"회원제형태 - 기타4","category":"other"},{"name":"하이쥬얼리","tel":"031-8003-2529","addr":"경기도 화성시 반송동 43-1번지 토마토프라자 101호","indutype":"신변잡화 - 귀금속","category":"other"}]},{"lat":"37.207159669","long":"127.07316405","imageIndex":17,"items":[{"name":"BYC동탄전문점","tel":"031-8003-1019","addr":"경기도 화성시 반송동 86-2번지 화성동탄센터타워 103호","indutype":"의류 - 내의판매","category":"other"},{"name":"갤러리 로(  )","tel":"","addr":"경기도 화성시 반송동 86-2번지 화성동탄센터타워 8층 803호","indutype":"문화.취미 - 화랑","category":"other"},{"name":"르하임스터디카페 동탄북광장점","tel":"031-8077-9626","addr":"경기도 화성시 반송동 86-2번지 화성동탄센터타워 302호","indutype":"용역 서비스 - 사무서비스","category":"other"},{"name":"우노실업","tel":"031-8003-0611","addr":"경기도 화성시 반송동 86-2번지 화성동탄센터타워","indutype":"용역 서비스 - 종합용역","category":"other"}]},{"lat":"37.209274316","long":"127.06175429","imageIndex":17,"items":[{"name":"BYC영신상회","tel":"031-613-5983","addr":"경기도 화성시 반송동 41-1번지 정일프라자 107호","indutype":"의류 - 내의판매","category":"other"},{"name":"누리보듬산후조리원","tel":"031-8003-5445","addr":"경기도 화성시 반송동 41-1번지 정일프라자 4층,5층","indutype":"기타의료기관 - 산후조리원","category":"other"},{"name":"모아","tel":"031-8003-3226","addr":"경기도 화성시 반송동 41-1번지 정일프라자 106호","indutype":"의류 - 정장","category":"other"},{"name":"베이비달 스튜디오","tel":"031-8015-3317","addr":"경기도 화성시 반송동 41-1번지 601호,602호","indutype":"광학제품 - 사진관","category":"other"},{"name":"베이비달 스튜디오","tel":"031-8015-3317","addr":"경기도 화성시 반송동 41-1번지 601,602호","indutype":"광학제품 - 사진관","category":"other"},{"name":"비전종합인테리어","tel":"070-7778-6140","addr":"경기도 화성시 반송동 41-1번지 정일 1층 2호","indutype":"건축자재 - 인테리어전문","category":"other"},{"name":"알파문구 센트럴파크점","tel":"031-613-2212","addr":"경기도 화성시 반송동 41-1번지 정일프라자 101동 102호","indutype":"서적문구 - 문구용품","category":"other"}]},{"lat":"37.210804434","long":"127.06497741","imageIndex":17,"items":[{"name":"C.H골프코리아","tel":"031-613-6410","addr":"경기도 화성시 반송동 6-1번지","indutype":"레져용품 - 스포츠·레져용품","category":"other"}]},{"lat":"37.195523363","long":"127.07944941","imageIndex":17,"items":[{"name":"CANDESIGN","tel":"031-613-5112","addr":"경기도 화성시 반송동 128-17번지","indutype":"직물 - 카페트,커튼,천막,지물","category":"other"}]},{"lat":"37.193833236","long":"127.07327559","imageIndex":17,"items":[{"name":"ESD트레이닝센터","tel":"031-8003-7814","addr":"경기도 화성시 반송동 220-4 모닝타운201호,202호","indutype":"회원제형태 - 레져업소","category":"other"},{"name":"Y.S코리아","tel":"070-7590-4625","addr":"경기도 화성시 반송동 220-4번지 모닝타운 101호","indutype":"의류 - 내의판매","category":"other"},{"name":"나무(namoo)","tel":"031-8003-9421","addr":"경기도 화성시 반송동 220-4번지 모닝타운 108호","indutype":"의류 - 정장","category":"other"},{"name":"도향스킨케어","tel":"031-238-6436","addr":"경기도 화성시 반송동 220-4번지 모닝타운 209호","indutype":"회원제형태 - 기타4","category":"other"},{"name":"라플로레종","tel":"031-8015-2576","addr":"경기도 화성시 반송동 220-4번지 모닝타운 1층 113호","indutype":"문화.취미 - 화원","category":"other"},{"name":"오드리","tel":"070-7779-7131","addr":"경기도 화성시 반송동 220-4번지","indutype":"의류 - 정장","category":"other"}]},{"lat":"37.206583231","long":"127.07278051","imageIndex":17,"items":[{"name":"FITNESS914","tel":"031-8015-1914","addr":"경기도 화성시 반송동 88-1번지 동탄제일프라자 2층 204호205호","indutype":"회원제형태 - 레져업소","category":"other"},{"name":"심스","tel":"02-2060-9339","addr":"경기도 화성시 반송동 88-1번지 동탄제일프라자 105호","indutype":"신변잡화 - 액세서리","category":"other"},{"name":"아이보람동탄센터 주식회사","tel":"031-8003-9212","addr":"경기도 화성시 반송동 88-1번지 동탄제일프라자 802호","indutype":"서적문구 - 일반서적","category":"other"},{"name":"청담맑은에스테틱","tel":"031-613-1928","addr":"경기도 화성시 반송동 88-1번지 제일프라자 403호","indutype":"회원제형태 - 기타4","category":"other"}]},{"lat":"37.204465813","long":"127.07274477","imageIndex":17,"items":[{"name":"GS25동탄골드점","tel":"","addr":"경기도 화성시 반송동 93-2번지 113,114,115호","indutype":"유통업 영리 - 편 의 점","category":"other"},{"name":"기타앤픽","tel":"031-000-0000","addr":"경기도 화성시 반송동 93-2번지 동탄에스알골드프라자 711호","indutype":"레져용품 - 악기점","category":"other"},{"name":"아이엔에스테크","tel":"031-8015-3936","addr":"경기도 화성시 반송동 93-2번지 동탄SR GOLD PLAZA 711호","indutype":"광학제품 - 사진관","category":"other"},{"name":"어니스트","tel":"","addr":"경기도 화성시 반송동 93-2번지 동탄에스알골드프라자 7층 703호","indutype":"의류 - 정장","category":"other"},{"name":"오도르 다이아","tel":"","addr":"경기도 화성시 반송동 93-2번지 동탄SR GOLD PLAZA 709호","indutype":"신변잡화 - 귀금속","category":"other"},{"name":"자이언트과학교구","tel":"031-378-6430","addr":"경기도 화성시 반송동 93-2번지 동탄SR GOLD PLAZA 705호","indutype":"서적문구 - 과학기자재","category":"other"},{"name":"지엔비골프","tel":"031-8015-4100","addr":"경기도 화성시 반송동 93-2번지 동탄SRGOLDPLAZA","indutype":"레져용품 - 스포츠·레져용품","category":"other"}]},{"lat":"37.206021514","long":"127.06186441","imageIndex":17,"items":[{"name":"GS25동탄공원점","tel":"","addr":"경기도 화성시 반송동 53-5번지 101호","indutype":"유통업 영리 - 편 의 점","category":"other"}]},{"lat":"37.19308534","long":"127.07333121","imageIndex":17,"items":[{"name":"GS25동탄나루점","tel":"080-555-2525","addr":"경기도 화성시 반송동 217-6번지 거택프라자 112(112호113호)(반송동217-6,0번지","indutype":"유통업 영리 - 편 의 점","category":"other"},{"name":"동탄나루마을 작심스페이스","tel":"031-613-9010","addr":"경기도 화성시 반송동 217-6번지 거택프라자 502호 일부","indutype":"용역 서비스 - 사무서비스","category":"other"},{"name":"스킨홀릭","tel":"031-613-7010","addr":"경기도 화성시 반송동 217-6번지 거택프라자 205호","indutype":"회원제형태 - 기타4","category":"other"}]},{"lat":"37.195495265","long":"127.08108255","imageIndex":17,"items":[{"name":"GS25동탄노작점","tel":"","addr":"경기도 화성시 반송동 125-8번지","indutype":"유통업 영리 - 편 의 점","category":"other"}]},{"lat":"37.188779099","long":"127.07208837","imageIndex":17,"items":[{"name":"GS25동탄리치점","tel":"","addr":"경기도 화성시 반송동 190-2번지 101호","indutype":"유통업 영리 - 편 의 점","category":"other"},{"name":"제너럴 오놀로직 소프트 주식회사(영업소)","tel":"","addr":"경기도 화성시 반송동 190-2번지 5층","indutype":"서적문구 - 일반서적","category":"other"},{"name":"주식회사 라이프디자인","tel":"031-622-3965","addr":"경기도 화성시 반송동 190-2번지 리츠스퀘어 3동","indutype":"용역 서비스 - 사무서비스","category":"other"}]},{"lat":"37.201412213","long":"127.07116498","imageIndex":17,"items":[{"name":"GS25동탄반석로점","tel":"","addr":"경기도 화성시 반송동 103-11번지 엔터프라임빌딩 1층 101호","indutype":"유통업 영리 - 편 의 점","category":"other"},{"name":"JRord Flower 디자인","tel":"031-613-7323","addr":"경기도 화성시 반송동 103-11번지 센터프라임빌딩 105-1호","indutype":"문화.취미 - 화원","category":"other"},{"name":"동탄연세언어청각연구원","tel":"031-8003-6574","addr":"경기도 화성시 반송동 103-11번지 엔터프라임빌딩 3층 303호","indutype":"용역 서비스 - 사무서비스","category":"other"}]},{"lat":"37.202409197","long":"127.06013817","imageIndex":17,"items":[{"name":"GS25동탄반송점","tel":"","addr":"경기도 화성시 반송동 66-1번지 그린주차빌딩 1층 110호","indutype":"유통업 영리 - 편 의 점","category":"other"},{"name":"공간인테리어","tel":"031-8003-0478","addr":"경기도 화성시 반송동 66-1번지 그린주차빌딩 109호","indutype":"건축자재 - 인테리어전문","category":"other"}]},{"lat":"37.206528323","long":"127.07419983","imageIndex":17,"items":[{"name":"GS25동탄북광장점","tel":"","addr":"경기도 화성시 반송동 87-4번지 지성프라자 1층 103호","indutype":"유통업 영리 - 편 의 점","category":"other"},{"name":"당구이야기","tel":"","addr":"경기도 화성시 반송동 87-4번지 지성프라자 2층 201~203호","indutype":"레져용품 - 스포츠·레져용품","category":"other"},{"name":"우리세탁소","tel":"031-8003-6699","addr":"경기도 화성시 반송동 87-4번지 지성프라자 103호","indutype":"수리서비스 - 세탁소","category":"other"}]},{"lat":"37.191998584","long":"127.0671695","imageIndex":17,"items":[{"name":"GS25동탄새강점","tel":"02-2006-2485","addr":"경기도 화성시 반송동 157-3 상가남쪽2칸","indutype":"유통업 영리 - 편 의 점","category":"other"}]},{"lat":"37.206078021","long":"127.07383894","imageIndex":17,"items":[{"name":"GS25동탄세림점","tel":"","addr":"경기도 화성시 반송동 88-6번지 세림프라자 105호","indutype":"유통업 영리 - 편 의 점","category":"other"},{"name":"웰빙센터","tel":"031-613-5670","addr":"경기도 화성시 반송동 88-6번지 세림프라자 402호~403호","indutype":"가구 - 기타가구","category":"other"}]},{"lat":"37.194499487","long":"127.07414347","imageIndex":17,"items":[{"name":"GS25동탄솔빛로점","tel":"","addr":"경기도 화성시 반송동 219-3번지 정림프라자 1층 105호","indutype":"유통업 영리 - 편 의 점","category":"other"},{"name":"나루사진관","tel":"031-8015-1804","addr":"경기도 화성시 반송동 219-3번지 정림프라자 102호","indutype":"광학제품 - 사진관","category":"other"}]},{"lat":"37.205826293","long":"127.07289246","imageIndex":17,"items":[{"name":"GS25동탄시티점","tel":"","addr":"경기도 화성시 반송동 88-11번지 씨티플러스 110호","indutype":"유통업 영리 - 편 의 점","category":"other"}]},{"lat":"37.202388345","long":"127.06572522","imageIndex":17,"items":[{"name":"GS25동탄월드점","tel":"02-2006-2485","addr":"경기도 화성시 반송동 80 월드반도상가 101호","indutype":"유통업 영리 - 편 의 점","category":"other"}]},{"lat":"37.210327522","long":"127.06374909","imageIndex":17,"items":[{"name":"GS25동탄잎새점","tel":"02-2006-2118","addr":"경기도 화성시 반송동 36-8번지","indutype":"유통업 영리 - 편 의 점","category":"other"},{"name":"인뉴욕","tel":"031-613-7834","addr":"경기도 화성시 반송동 36-8번지","indutype":"의류 - 정장","category":"other"}]},{"lat":"37.20972184","long":"127.06749996","imageIndex":17,"items":[{"name":"GS25동탄한빛길점","tel":"","addr":"경기도 화성시 반송동 18-1번지 101호","indutype":"유통업 영리 - 편 의 점","category":"other"},{"name":"주주문구팬시","tel":"031-613-6778","addr":"경기도 화성시 반송동 18-1번지 102호","indutype":"서적문구 - 문구용품","category":"other"}]},{"lat":"37.193439068","long":"127.06931068","imageIndex":17,"items":[{"name":"GS25동탄휴먼시아점","tel":"","addr":"경기도 화성시 반송동 159번지 나상가동","indutype":"유통업 영리 - 편 의 점","category":"other"},{"name":"휴먼세탁소","tel":"031-613-8839","addr":"경기도 화성시 반송동 159번지 동탄새강마을 상가 201호","indutype":"수리서비스 - 세탁소","category":"other"}]},{"lat":"37.202492811","long":"127.07228111","imageIndex":17,"items":[{"name":"GS25트라이엄프점","tel":"","addr":"경기도 화성시 반송동 93-7번지 트라이엄프동탄 101호","indutype":"유통업 영리 - 편 의 점","category":"other"},{"name":"주식회사프라임씨앤디","tel":"02-1111-1111","addr":"경기도 화성시 반송동 93-7번지 804호","indutype":"용역 서비스 - 사무서비스","category":"other"}]},{"lat":"37.206688198","long":"127.06203391","imageIndex":17,"items":[{"name":"GV스테이","tel":"02-797-5800","addr":"경기도 화성시 반송동 50-12번지 201호","indutype":"용역 서비스 - 종합용역","category":"other"}]},{"lat":"37.198858386","long":"127.07760553","imageIndex":17,"items":[{"name":"HARDERBRUSH(하더브러시)","tel":"070-8810-3602","addr":"경기도 화성시 반송동 112-8번지 1층","indutype":"의류 - 정장","category":"other"}]},{"lat":"37.208659244","long":"127.06633874","imageIndex":17,"items":[{"name":"HYUN스킨케어","tel":"070-4253-2256","addr":"경기도 화성시 반송동 24-6번지 102호","indutype":"회원제형태 - 기타4","category":"other"}]},{"lat":"37.194138772","long":"127.0746387","imageIndex":17,"items":[{"name":"JH 텔레콤","tel":"031-613-8993","addr":"경기도 화성시 반송동 218-2번지 가희프라자 107호","indutype":"사무통신 - 통신기기","category":"other"},{"name":"어썸커뮤니티","tel":"031-613-0018","addr":"경기도 화성시 반송동 218-2번지 가희프라자 606호","indutype":"용역 서비스 - 사무서비스","category":"other"},{"name":"우리동네사진관","tel":"031-8015-8976","addr":"경기도 화성시 반송동 218-2번지 기획프라자 108호","indutype":"광학제품 - 사진관","category":"other"},{"name":"이지요가","tel":"031-8015-2911","addr":"경기도 화성시 반송동 218-2,가희프라자2","indutype":"회원제형태 - 레져업소","category":"other"}]},{"lat":"37.201555226","long":"127.07313633","imageIndex":17,"items":[{"name":"LRI(엘리)","tel":"031-8003-6509","addr":"경기도 화성시 반송동 106-1 동탄파라곤Ⅱ 3503 27/4","indutype":"광학제품 - 사진관","category":"other"},{"name":"듀케이 (DUKAY)","tel":"","addr":"경기도 화성시 반송동 106-1번지 동탄파라곤II 2702호","indutype":"의류 - 정장","category":"other"},{"name":"르네셀","tel":"031-613-1365","addr":"경기도 화성시 반송동 106-1번지 동탄파라곤II 109호","indutype":"회원제형태 - 기타1","category":"other"},{"name":"뮤고박스 화성센터","tel":"031-8003-0564","addr":"경기도 화성시 반송동 106-1번지 동탄파라곤II 3층 309호","indutype":"서적문구 - 일반서적","category":"other"},{"name":"컬투훼미리","tel":"070-7012-1355","addr":"경기도 화성시 반송동 106-1 동탄택지개발지구23-1블럭동탄파라곤Ⅱ상가 115","indutype":"유통업 영리 - 편 의 점","category":"other"},{"name":"화성전자담배멀티샵동탄점","tel":"031-8003-7671","addr":"경기도 화성시 반송동 106-1번지 동탄파라곤ll 105호","indutype":"기타 - 기타 전문점","category":"other"}]},{"lat":"37.204556352","long":"127.07200139","imageIndex":17,"items":[{"name":"Leather n Design가죽공방","tel":"070-8810-2156","addr":"경기도 화성시 반송동 93-1번지 풍성위버폴리스 115호","indutype":"문화.취미 - 문화취미기타","category":"other"},{"name":"골드쉘 동탄점","tel":"031-8003-0893","addr":"경기도 화성시 반송동 93-1번지 풍성위버폴리스 106호","indutype":"신변잡화 - 귀금속","category":"other"},{"name":"동탄부동산풍성한공인중개사사무소","tel":"031-613-4800","addr":"경기도 화성시 반송동 93-1번지 풍성위버폴리스 150-1호","indutype":"용역 서비스 - 부동산 중개·임대","category":"other"},{"name":"마이크로스튜디오 동탄점","tel":"031-613-2052","addr":"경기도 화성시 반송동 93-1번지 풍성위버폴리스","indutype":"회원제형태 - 레져업소","category":"other"},{"name":"바디스토리","tel":"070-4036-6300","addr":"경기도 화성시 반송동 93-1번지 풍성위버폴리스 407호","indutype":"회원제형태 - 레져업소","category":"other"},{"name":"백앤슈즈","tel":"070-7666-9968","addr":"경기도 화성시 반송동 93-1번지 풍성위버폴리스 122호","indutype":"의류 - 정장","category":"other"},{"name":"베베드윤","tel":"02-3479-4511","addr":"경기도 화성시 반송동 93-1번지 풍성위버폴리스 110호","indutype":"의류 - 정장","category":"other"},{"name":"송현엘앤씨주식회사","tel":"031-8003-7740","addr":"경기도 화성시 반송동 93-1번지 풍성위버폴리스오피스텔 507호","indutype":"기타 - 기계공구","category":"other"},{"name":"에스지에스한국 주식회사","tel":"031-8003-3501","addr":"경기도 화성시 반송동 93-1번지 풍성위버폴리스 420호","indutype":"서적문구 - 과학기자재","category":"other"},{"name":"주식회사일루온","tel":"031-375-5858","addr":"경기도 화성시 반송동 93-1번지 풍성위버폴리스 320호","indutype":"전기제품 - 가전제품","category":"other"},{"name":"참테크","tel":"031-385-7828","addr":"경기도 화성시 반송동 93-1번지 위버플리스오피스텔 506호","indutype":"기타 - 기계공구","category":"other"},{"name":"풍성한공인중개사사무소","tel":"031-613-4800","addr":"경기도 화성시 반송동 93-1번지 풍성위버폴리스 105-1호","indutype":"용역 서비스 - 부동산 중개·임대","category":"other"}]},{"lat":"37.205051387","long":"127.07291427","imageIndex":17,"items":[{"name":"MS골프연습장","tel":"031-8003-9871","addr":"경기도 화성시 반송동 91-8번지 10층","indutype":"회원제형태 - 레져업소","category":"other"}]},{"lat":"37.20602482","long":"127.07238573","imageIndex":17,"items":[{"name":"NANA패션","tel":"070-4409-7759","addr":"경기도 화성시 반송동 88-13번지 아이프라자 103호","indutype":"의류 - 정장","category":"other"},{"name":"동탄쌈지스포츠","tel":"031-000-0000","addr":"경기도 화성시 반송동 88-13번지 아이프라자 1층 102호","indutype":"의류 - 스포츠의류","category":"other"},{"name":"멤버쉽라운지 북광장센터","tel":"031-8077-2677","addr":"경기도 화성시 반송동 88-13번지 아이프라자 8층 806호","indutype":"용역 서비스 - 사무서비스","category":"other"},{"name":"산솔합동법률사무소","tel":"031-217-1540","addr":"경기도 화성시 반송동 88-13번지 아이프라자 9층 905호","indutype":"용역 서비스 - 법률회계서비스(개인)","category":"other"}]},{"lat":"37.192779233","long":"127.0729142","imageIndex":17,"items":[{"name":"NO.5","tel":"031-613-7796","addr":"경기도 화성시 반송동 216-1번지 신성프라자 107호","indutype":"의류 - 캐주얼의류","category":"other"}]},{"lat":"37.203915745","long":"127.07347645","imageIndex":17,"items":[{"name":"N디자인 인테리어","tel":"031-8003-3381","addr":"경기도 화성시 반송동 92-2번지 마젤란오피스텔 상가 104호","indutype":"건축자재 - 인테리어전문","category":"other"},{"name":"쌍용명품세탁소","tel":"031-613-5052","addr":"경기도 화성시 반송동 92-2번지 마젤란오피스텔 1층 113호","indutype":"수리서비스 - 세탁소","category":"other"},{"name":"오월의토끼 (메이래빗)","tel":"","addr":"경기도 화성시 반송동 92-2번지 마젤란오피스텔 26층 6호","indutype":"신변잡화 - 기타잡화","category":"other"},{"name":"커튼이야기 천","tel":"031-8015-0042","addr":"경기도 화성시 반송동 92-2번지 마젤란오피스텔 105동 108호","indutype":"직물 - 카페트,커튼,천막,지물","category":"other"},{"name":"화인커뮤니케이션","tel":"02-2267-4410","addr":"경기도 화성시 반송동 92-2번지 마젤란오피스텔 202호","indutype":"서적문구 - 출판 및 인쇄물","category":"other"}]},{"lat":"37.200384931","long":"127.07133301","imageIndex":17,"items":[{"name":"Par7골프존","tel":"031-8003-8707","addr":"경기도 화성시 반송동 104-13번지 드림프라자 1003호 1004호","indutype":"회원제형태 - 레져업소","category":"other"},{"name":"신발나라","tel":"031-8003-2434","addr":"경기도 화성시 반송동 21-10드림프라자101,102호","indutype":"신변잡화 - 신발","category":"other"},{"name":"주식회사 랩스컴퍼니","tel":"031-8003-8151","addr":"경기도 화성시 반송동 104-13번지 드림프라자 803호","indutype":"용역 서비스 - 사무서비스","category":"other"},{"name":"휴에스테틱","tel":"031-613-1660","addr":"경기도 화성시 반송동 104-13번지 드림프라자 501호","indutype":"회원제형태 - 기타4","category":"other"}]},{"lat":"37.193719796","long":"127.06675423","imageIndex":17,"items":[{"name":"So-Yul 퍼니처","tel":"031-111-1111","addr":"경기도 화성시 반송동 145-11번지 1층","indutype":"가구 - 일반가구","category":"other"}]},{"lat":"37.209082586","long":"127.06660946","imageIndex":17,"items":[{"name":"THE KIN'S","tel":"031-613-2844","addr":"경기도 화성시 반송동 23-6번지 101호","indutype":"의류 - 정장","category":"other"},{"name":"인영 인테리어","tel":"031-8003-0042","addr":"경기도 화성시 반송동 23-6번지","indutype":"건축자재 - 인테리어전문","category":"other"}]},{"lat":"37.207327839","long":"127.06222591","imageIndex":17,"items":[{"name":"THE9900샵","tel":"031-8003-5520","addr":"경기도 화성시 반송동 49-9번지 103호","indutype":"의류 - 정장","category":"other"},{"name":"일공오(105)","tel":"031-8015-2191","addr":"경기도 화성시 반송동 49-9번지 1층 101호","indutype":"의류 - 정장","category":"other"}]},{"lat":"37.20938861","long":"127.06721805","imageIndex":17,"items":[{"name":"The 유풀 Life 핸드메이드샵","tel":"031-8003-4849","addr":"경기도 화성시 반송동 18-4번지 101호","indutype":"문화.취미 - 민예·공예품","category":"other"}]},{"lat":"37.205302851","long":"127.07430006","imageIndex":17,"items":[{"name":"X텐 편의점","tel":"02-1577-0945","addr":"경기도 화성시 반송동 90-7번지 제2충 204호중일부","indutype":"유통업 영리 - 편 의 점","category":"other"}]},{"lat":"37.19338303","long":"127.07274582","imageIndex":17,"items":[{"name":"abm마트 1호점","tel":"031-613-8216","addr":"경기도 화성시 반송동 220-7 현대프라자 101~103호","indutype":"전기제품 - 가전제품","category":"other"},{"name":"플럼스킨케어","tel":"031-8015-0867","addr":"경기도 화성시 반송동 220-7번지 능동프라자 502호","indutype":"회원제형태 - 기타4","category":"other"}]},{"lat":"37.206357692","long":"127.07325343","imageIndex":17,"items":[{"name":"daisy(서연상사)","tel":"031-291-8607","addr":"경기도 화성시 반송동 88-3번지 중앙프라자 109호","indutype":"의류 - 정장","category":"other"}]},{"lat":"37.20322037","long":"127.05964315","imageIndex":17,"items":[{"name":"digitalHP화성점","tel":"031-221-8207","addr":"경기도 화성시 반송동 61-1번지 남일빌딩 101호","indutype":"사무통신 - 컴퓨터","category":"other"}]},{"lat":"37.193859702","long":"127.07422171","imageIndex":17,"items":[{"name":"drawing 기린","tel":"031-613-1816","addr":"경기도 화성시 반송동 217-1 리첸프라자111호","indutype":"의류 - 정장","category":"other"},{"name":"미미블룸(mimibloom)","tel":"031-111-1111","addr":"경기도 화성시 반송동 217-1번지 리첸프라자 110호","indutype":"의류 - 정장","category":"other"},{"name":"아이러브제이(I Love J)","tel":"031-8003-7362","addr":"경기도 화성시 반송동 217-1번지 리첸프라자 103호","indutype":"의류 - 아동의류","category":"other"},{"name":"어나더아이","tel":"031-8015-3721","addr":"경기도 화성시 반송동 217-1번지 리첸프라자 105호","indutype":"의류 - 정장","category":"other"}]},{"lat":"37.20519532","long":"127.07330867","imageIndex":17,"items":[{"name":"emart24 동탄중심상가점","tel":"031-613-6764","addr":"경기도 화성시 반송동 91-6번지 그린프라자 104호","indutype":"유통업 영리 - 편 의 점","category":"other"},{"name":"북광장 비전 골프","tel":"031-377-1864","addr":"경기도 화성시 반송동 91-6번지 그린프라자 301,302호","indutype":"레져용품 - 골프용품 전문점","category":"other"}]},{"lat":"37.202249983","long":"127.07150366","imageIndex":17,"items":[{"name":"가벼워Gym","tel":"031-8015-3568","addr":"경기도 화성시 반송동 93-9번지 동탄하이페리온 107호,108호","indutype":"회원제형태 - 레져업소","category":"other"},{"name":"바이비(by.b)","tel":"1644-6730-0000","addr":"경기도 화성시 반송동 93-9번지 동탄하이페리온 102동 2104호","indutype":"의류 - 정장","category":"other"},{"name":"씨유동탄하이페리온점","tel":"031-613-0138","addr":"경기도 화성시 반송동 93-9번지 동탄하이페리온 1층 117호","indutype":"유통업 영리 - 편 의 점","category":"other"},{"name":"플라워스튜디오 오늘","tel":"","addr":"경기도 화성시 반송동 93-9번지 동탄현대하이페리온","indutype":"문화.취미 - 화원","category":"other"}]},{"lat":"37.204078446","long":"127.07260923","imageIndex":17,"items":[{"name":"감성목수 파우제","tel":"031-726-5010","addr":"경기도 화성시 반송동 93-3번지 동탄파라곤 B1층 25호","indutype":"가구 - 일반가구","category":"other"},{"name":"고이클래식","tel":"02-1111-1111","addr":"경기도 화성시 반송동 93-3번지 동탄파라곤 102동 B115호","indutype":"의류 - 맞춤복점","category":"other"},{"name":"꽃티나","tel":"","addr":"경기도 화성시 반송동 93-3번지 동탄파라곤 지하1층 비42호","indutype":"문화.취미 - 화원","category":"other"},{"name":"동탄슬라임&데코","tel":"031-613-1955","addr":"경기도 화성시 반송동 93-3번지 동탄파라곤 2층 217호","indutype":"문화.취미 - 문화취미기타","category":"other"},{"name":"마지삐에로도자기공예교습소","tel":"031-613-7949","addr":"경기도 화성시 반송동 93-3번지 동탄파라곤 216호","indutype":"문화.취미 - 문화취미기타","category":"other"},{"name":"벽창호동탄대리점","tel":"031-8015-2563","addr":"경기도 화성시 반송동 93-3번지 동탄파라곤 1층 140호","indutype":"직물 - 카페트,커튼,천막,지물","category":"other"},{"name":"보떼제이","tel":"070-7550-3837","addr":"경기도 화성시 반송동 93-3번지 동탄파라곤타운하우스 103동 2003호","indutype":"회원제형태 - 기타1","category":"other"},{"name":"봉봉 오 쇼콜라","tel":"031-000-0000","addr":"경기도 화성시 반송동 93-3번지 제지1층 비43호","indutype":"문화.취미 - 문화취미기타","category":"other"},{"name":"북스FTK","tel":"031-4160-2201","addr":"경기도 화성시 반송동 93-3번지 동탄파라곤 102동 1903호","indutype":"서적문구 - 일반서적","category":"other"},{"name":"씨스터","tel":"","addr":"경기도 화성시 반송동 93-3번지 동탄파라곤 B동 1층 125호","indutype":"의류 - 정장","category":"other"},{"name":"알비키즈","tel":"031-613-9387","addr":"경기도 화성시 반송동 93-3번지 동탄파라곤 102동 442호","indutype":"신변잡화 - 기타잡화","category":"other"},{"name":"에스엠위너스","tel":"031-8003-5558","addr":"경기도 화성시 반송동 93-3번지 동탄파라곤 1층 129호","indutype":"회원제형태 - 기타3","category":"other"},{"name":"열림","tel":"070-7518-8515","addr":"경기도 화성시 반송동 93-3번지 동탄파라곤","indutype":"문화.취미 - 문화취미기타","category":"other"},{"name":"정토이즈스토어","tel":"","addr":"경기도 화성시 반송동 93-3번지 동탄파라곤 1층 제비16호","indutype":"서적문구 - 기타서적문구","category":"other"},{"name":"주식회사 디랩 동탄연구소","tel":"031-613-6201","addr":"경기도 화성시 반송동 93-3번지 동탄파라곤 242호","indutype":"용역 서비스 - 사무서비스","category":"other"},{"name":"주식회사 펫타운","tel":"031-8003-5500","addr":"경기도 화성시 반송동 93-3번지 동탄파라곤 102동 4102호","indutype":"문화.취미 - 애완동물","category":"other"},{"name":"태양문구라인(반송점)","tel":"031-8015-5890","addr":"경기도 화성시 반송동 93-3번지 동탄파라곤 지층 B36호","indutype":"서적문구 - 문구용품","category":"other"},{"name":"파라곤세탁소","tel":"031-8003-5200","addr":"경기도 화성시 반송동 93-3번지 동양파라곤 128호","indutype":"수리서비스 - 세탁소","category":"other"},{"name":"펫디저트(Pet Dessert)","tel":"","addr":"경기도 화성시 반송동 93-3번지 동탄파라곤 1층 138호","indutype":"문화.취미 - 애완동물","category":"other"}]},{"lat":"37.200969418","long":"127.07336107","imageIndex":17,"items":[{"name":"거평인테리어","tel":"031-613-2666","addr":"경기도 화성시 반송동 106-3번지 돌모루프라자 105동 1층 106호","indutype":"직물 - 카페트,커튼,천막,지물","category":"other"},{"name":"나무그루","tel":"","addr":"경기도 화성시 반송동 106-3번지 돌모루프라자 625호","indutype":"건축자재 - 기타건축자재","category":"other"},{"name":"디자인큐브 (화성","tel":"031-111-1111","addr":"경기도 화성시 반송동 106-3번지 돌모루프라자 601-B69호","indutype":"서적문구 - 출판 및 인쇄물","category":"other"},{"name":"본207(Bone 207)","tel":"031-000-0000","addr":"경기도 화성시 반송동 106-3번지 돌모루프라자 601-B92호","indutype":"신변잡화 - 기타잡화","category":"other"},{"name":"서광자동문","tel":"","addr":"경기도 화성시 반송동 106-3번지 돌모루프라자 601-B71호","indutype":"용역 서비스 - 기타용역서비스","category":"other"},{"name":"에슬릿요가(ATHLETE- Yoga)","tel":"031-613-5544","addr":"경기도 화성시 반송동 106-3번지 돌모루프라자 DM프라자 7층 701호","indutype":"회원제형태 - 레져업소","category":"other"},{"name":"엠바스 동탄점","tel":"031-613-5277","addr":"경기도 화성시 반송동 106-3번지 돌모루프라자 2층 201호","indutype":"가구 - 일반가구","category":"other"},{"name":"이마트24 동탄남광잠점","tel":"","addr":"경기도 화성시 반송동 106-3번지 105, 106호","indutype":"유통업 영리 - 편 의 점","category":"other"},{"name":"폴리파크반송점","tel":"031-8003-9328","addr":"경기도 화성시 반송동 106-3번지 돌모루프라자 101호~104호","indutype":"문화.취미 - 애완동물","category":"other"},{"name":"해오름출력","tel":"070-4351-2229","addr":"경기도 화성시 반송동 106-3번지 돌모루프라자 601-B25호","indutype":"용역 서비스 - 종합용역","category":"other"}]},{"lat":"37.199528801","long":"127.07158004","imageIndex":17,"items":[{"name":"경기기독문화원동탄지회","tel":"031-374-1009","addr":"경기도 화성시 반송동 107-8번지 제일프라자 807호","indutype":"문화.취미 - 문화취미기타","category":"other"},{"name":"마스터스스크린골프장","tel":"031-8003-7559","addr":"경기도 화성시 반송동 107-8번지 제일프라자 901동 903호","indutype":"회원제형태 - 레져업소","category":"other"},{"name":"명품수선","tel":"031-613-7073","addr":"경기도 화성시 반송동 107-8번지 제일프라자 102호","indutype":"수리서비스 - 세탁소","category":"other"},{"name":"알엔에스","tel":"070-7756-5813","addr":"경기도 화성시 반송동 107-8번지 제일프라자 406호","indutype":"서적문구 - 과학기자재","category":"other"},{"name":"윤선생영어교실 동탄센타","tel":"031-613-0540","addr":"경기도 화성시 반송동 107-8번지 제일프라자 704호","indutype":"서적문구 - 일반서적","category":"other"},{"name":"창의교육연구회 과학놀이터","tel":"","addr":"경기도 화성시 반송동 107-8번지 제일프라자 1동 8층 806-1호","indutype":"서적문구 - 일반서적","category":"other"},{"name":"토브스터디카페","tel":"","addr":"경기도 화성시 반송동 107-8번지 제일프라자 207호","indutype":"용역 서비스 - 사무서비스","category":"other"}]},{"lat":"37.210047504","long":"127.06508945","imageIndex":17,"items":[{"name":"경기철물건재","tel":"031-613-0989","addr":"경기도 화성시 반송동 11-8번지","indutype":"건축자재 - 기타건축자재","category":"other"}]},{"lat":"37.19174622","long":"127.06730444","imageIndex":17,"items":[{"name":"고구려시스템","tel":"031-8003-3817","addr":"경기도 화성시 반송동 157-5번지","indutype":"건축자재 - 기타건축자재","category":"other"},{"name":"디자인풍경","tel":"031-613-8641","addr":"경기도 화성시 반송동 157-5번지 1층","indutype":"건축자재 - 인테리어전문","category":"other"}]},{"lat":"37.210163151","long":"127.06786083","imageIndex":17,"items":[{"name":"고무밴드기타클럽","tel":"031-8003-7748","addr":"경기도 화성시 반송동 14-4번지 102호","indutype":"레져용품 - 악기점","category":"other"}]},{"lat":"37.206970531","long":"127.0730287","imageIndex":17,"items":[{"name":"골든스터디카페 동탄점","tel":"","addr":"경기도 화성시 반송동 86-1번지 아인슈타인프라자 8층 805,806,807,808,809호","indutype":"용역 서비스 - 사무서비스","category":"other"},{"name":"까망토끼","tel":"031-8015-3287","addr":"경기도 화성시 반송동 86-1번지 아인슈타인프라자 1층 109호","indutype":"의류 - 정장","category":"other"},{"name":"동탄사진관","tel":"031-8015-3747","addr":"경기도 화성시 반송동 86-1번지 아인슈타인프라자 114호","indutype":"광학제품 - 사진관","category":"other"},{"name":"동탄옷수선","tel":"031-613-7803","addr":"경기도 화성시 반송동 86-1번지 아인슈타인프라자 112호","indutype":"수리서비스 - 세탁소","category":"other"},{"name":"디오아카데미","tel":"031-8015-5537","addr":"경기도 화성시 반송동 86-1 404호~405호","indutype":"회원제형태 - 레져업소","category":"other"},{"name":"소호","tel":"031-613-1465","addr":"경기도 화성시 반송동 86-1번지 아인슈타인프라자 1층 111호","indutype":"의류 - 정장","category":"other"},{"name":"인터미디어 주식회사","tel":"031-8015-0670","addr":"경기도 화성시 반송동 86-1번지 아인슈타인프라자 406호","indutype":"회원제형태 - 기타4","category":"other"},{"name":"종로귀금속","tel":"031-8015-3907","addr":"경기도 화성시 반송동 86-1번지 아인슈타인프라자 101호","indutype":"신변잡화 - 귀금속","category":"other"},{"name":"주식회사아이피솔루텍","tel":"031-8003-3201","addr":"경기도 화성시 반송동 86-1번지 아인슈타인프라자 703호","indutype":"전기제품 - 기타전기제품","category":"other"},{"name":"지니(GENIE)에스테틱","tel":"070-8613-2607","addr":"경기도 화성시 반송동 86-1번지 아인슈타인프라자 309호","indutype":"회원제형태 - 기타4","category":"other"},{"name":"진앤코","tel":"070-7591-8870","addr":"경기도 화성시 반송동 86-1번지 아인슈타인프라자 113호","indutype":"의류 - 정장","category":"other"},{"name":"패스코드교육컨설팅","tel":"031-8003-6262","addr":"경기도 화성시 반송동 86-1번지 아인슈타인프라자 503호","indutype":"회원제형태 - 기타4","category":"other"},{"name":"하이브로우 (high_brow)","tel":"031-8003-1213","addr":"경기도 화성시 반송동 86-1번지 아인슈타인프라자 5층 504호","indutype":"용역 서비스 - 종합용역","category":"other"}]},{"lat":"37.192661998","long":"127.07308304","imageIndex":17,"items":[{"name":"공간샘스터디카페 동탄나루점","tel":"","addr":"경기도 화성시 반송동 216-2번지 샹그릴라 6층 603,604호","indutype":"용역 서비스 - 사무서비스","category":"other"},{"name":"나무(namoo)","tel":"031-8003-9421","addr":"경기도 화성시 반송동 216-2번지 샹그릴라 105호","indutype":"의류 - 정장","category":"other"},{"name":"파란불 (PARAN BULL)","tel":"031-613-8316","addr":"경기도 화성시 반송동 216-2번지 샹그릴라 107호","indutype":"서적문구 - 문구용품","category":"other"}]},{"lat":"37.210471186","long":"127.06471804","imageIndex":17,"items":[{"name":"광고세상","tel":"031-8050-4975","addr":"경기도 화성시 반송동 6-4번지 102호","indutype":"용역 서비스 - 종합용역","category":"other"}]},{"lat":"37.206717993","long":"127.07344526","imageIndex":17,"items":[{"name":"굿모닝피시(goodmorningpc)","tel":"031-613-8662","addr":"경기도 화성시 반송동 87-7번지 네오프라자 903호","indutype":"수리서비스 - 기타수리서비스","category":"other"},{"name":"기찬 건강","tel":"","addr":"경기도 화성시 반송동 87-7번지 네오프라자 7층 704호","indutype":"레져용품 - 스포츠·레져용품","category":"other"},{"name":"아가월드동탄교육센타","tel":"031-613-6520","addr":"경기도 화성시 반송동 87-7번지 네오프라자 803호","indutype":"회원제형태 - 서적","category":"other"}]},{"lat":"37.207968184","long":"127.06099852","imageIndex":17,"items":[{"name":"그레이28","tel":"031-8991-7827","addr":"경기도 화성시 반송동 44-6번지 1층 102호","indutype":"의류 - 정장","category":"other"},{"name":"더베이비스토리(The baby story)","tel":"070-4642-4759","addr":"경기도 화성시 반송동 44-6번지 1층","indutype":"의류 - 아동의류","category":"other"},{"name":"샵홀릭","tel":"031-375-5147","addr":"경기도 화성시 반송동 44-6번지","indutype":"의류 - 정장","category":"other"}]},{"lat":"37.208661571","long":"127.06183267","imageIndex":17,"items":[{"name":"그리고...물고기","tel":"031-613-0955","addr":"경기도 화성시 반송동 43-2번지 1층 111호","indutype":"의류 - 정장","category":"other"},{"name":"세븐일레븐동탄파크점","tel":"","addr":"경기도 화성시 반송동 43-2번지 109호","indutype":"유통업 영리 - 편 의 점","category":"other"}]},{"lat":"37.205637486","long":"127.07219387","imageIndex":17,"items":[{"name":"그리고물고기","tel":"031-8003-9075","addr":"경기도 화성시 반송동 91-1번지 아인슈타인타워 105호","indutype":"의류 - 정장","category":"other"},{"name":"동아서적","tel":"031-205-9937","addr":"경기도 화성시 반송동 91-1번지 아인슈타인타워 2051호","indutype":"서적문구 - 일반서적","category":"other"},{"name":"동아서적","tel":"031-8015-1931","addr":"경기도 화성시 반송동 91-1번지 아인슈타인타워 201호","indutype":"서적문구 - 일반서적","category":"other"},{"name":"티에스세무그룹 동탄지사","tel":"031-613-1066","addr":"경기도 화성시 반송동 91-1번지 아인슈타인타워 6층 602호","indutype":"용역 서비스 - 법률회계서비스(법인)","category":"other"}]},{"lat":"37.20232783","long":"127.06070132","imageIndex":17,"items":[{"name":"그린캐처","tel":"","addr":"경기도 화성시 반송동 66-5번지 101호","indutype":"문화.취미 - 화원","category":"other"}]},{"lat":"37.205439026","long":"127.07258796","imageIndex":17,"items":[{"name":"그물코","tel":"031-8763-2219","addr":"경기도 화성시 반송동 91-2번지 로하스애비뉴 205호","indutype":"용역 서비스 - 사무서비스","category":"other"},{"name":"이엑스골프앤컴퍼니","tel":"031-8003-4403","addr":"경기도 화성시 반송동 91-2번지 로하스애비뉴 5층 501호","indutype":"레져용품 - 스포츠·레져용품","category":"other"},{"name":"주식회사세원이앤지","tel":"031-613-5908","addr":"경기도 화성시 반송동 91-2번지 로하스애비뉴 202호","indutype":"건축자재 - 기타건축자재","category":"other"}]},{"lat":"37.202799584","long":"127.07156048","imageIndex":17,"items":[{"name":"글램모먼트 (GLAM MOMENT)","tel":"02-1111-1111","addr":"경기도 화성시 반송동 93-10번지 동탄지웰에스테이트 지하 B11호","indutype":"의류 - 정장","category":"other"},{"name":"라니(RANEE)","tel":"070-4221-2009","addr":"경기도 화성시 반송동 93-10번지 동탄지웰에스테이트 B동 지하층 10호","indutype":"의류 - 정장","category":"other"},{"name":"마리연","tel":"","addr":"경기도 화성시 반송동 93-10번지 동탄지웰에스테이트 지하 B12호","indutype":"의류 - 정장","category":"other"},{"name":"비비속눈썹","tel":"031-8003-3225","addr":"경기도 화성시 반송동 93-10번지 B층 21호","indutype":"회원제형태 - 기타4","category":"other"},{"name":"세븐일레븐동탄신영지웰점","tel":"031-1577-0711","addr":"경기도 화성시 반송동 93-10번지 동탄지웰에스테이트 지하층 B15호","indutype":"유통업 영리 - 편 의 점","category":"other"},{"name":"신영지웰 세탁소","tel":"031-8003-5044","addr":"경기도 화성시 반송동 93-10번지 동탄지웰에스테이트 지하1층 B22호","indutype":"수리서비스 - 세탁소","category":"other"},{"name":"에스드림팩토리","tel":"031-8015-0556","addr":"경기도 화성시 반송동 93-10 동탄지웰에스테이트상가 203~204호","indutype":"회원제형태 - 레져업소","category":"other"},{"name":"오케타니 모유육아상담실","tel":"031-8015-1453","addr":"경기도 화성시 반송동 93-10번지 신영지웰에스테이트 B동 1405호","indutype":"회원제형태 - 기타4","category":"other"},{"name":"주식회사 마켓메이커","tel":"070-7178-9138","addr":"경기도 화성시 반송동 93-10번지 동탄지웰에스테이트 A동 205호","indutype":"의류 - 정장","category":"other"},{"name":"투페이지(2page)","tel":"031-613-0511","addr":"경기도 화성시 반송동 93-10 신영지웰오피스텔 비-1308","indutype":"직물 - 카페트,커튼,천막,지물","category":"other"},{"name":"페이지원 스튜디오","tel":"031-8043-7897","addr":"경기도 화성시 반송동 93-10 동탄지웰에스테이트 215~215호","indutype":"광학제품 - 사진관","category":"other"},{"name":"플로레시엔떼","tel":"","addr":"경기도 화성시 반송동 93-10번지 동탄지웰에스테이트 A동 1307호","indutype":"신변잡화 - 액세서리","category":"other"},{"name":"홈웨이동탄신영지웰점","tel":"070-7612-1355","addr":"경기도 화성시 반송동 93-10번지 동탄지웰에스테이트근린생활시설 B15호","indutype":"유통업 영리 - 편 의 점","category":"other"}]},{"lat":"37.197912309","long":"127.07758207","imageIndex":17,"items":[{"name":"기념하다/큐티파티","tel":"031-295-3690","addr":"경기도 화성시 반송동 113-10번지","indutype":"광학제품 - 사진관","category":"other"}]},{"lat":"37.204970127","long":"127.07319582","imageIndex":17,"items":[{"name":"김태관댄스스포츠","tel":"031-613-5581","addr":"경기도 화성시 반송동 91-7번지 월드프라자 4층 404호","indutype":"회원제형태 - 레져업소","category":"other"}]},{"lat":"37.209937997","long":"127.06766913","imageIndex":17,"items":[{"name":"까까노리터","tel":"","addr":"경기도 화성시 반송동 14-6번지 1층 103호","indutype":"문화.취미 - 애완동물","category":"other"},{"name":"베이직 인테리어","tel":"","addr":"경기도 화성시 반송동 14-6번지 102호","indutype":"건축자재 - 인테리어전문","category":"other"}]},{"lat":"37.188500584","long":"127.0706916","imageIndex":17,"items":[{"name":"꽃","tel":"","addr":"경기도 화성시 반송동 163-4번지 103호","indutype":"문화.취미 - 화원","category":"other"},{"name":"이마트24 동탄타운하우스점","tel":"","addr":"경기도 화성시 반송동 163-4번지 101호","indutype":"유통업 영리 - 편 의 점","category":"other"}]},{"lat":"37.197858544","long":"127.07710894","imageIndex":17,"items":[{"name":"끄라소따","tel":"031-613-9550","addr":"경기도 화성시 반송동 114-6번지 1층","indutype":"의류 - 정장","category":"other"}]},{"lat":"37.201637133","long":"127.07175091","imageIndex":17,"items":[{"name":"끌레도르","tel":"031-613-7077","addr":"경기도 화성시 반송동 103-3번지 디앤씨빌딩 201호","indutype":"회원제형태 - 기타4","category":"other"},{"name":"드림빌트","tel":"1522-0213-0000","addr":"경기도 화성시 반송동 103-3번지 디앤씨빌딩 5층 501호","indutype":"용역 서비스 - 기타용역서비스","category":"other"},{"name":"리고(LIGO)디자인 건축,인테리어","tel":"070-8822-8831","addr":"경기도 화성시 반송동 103-3번지 디앤씨빌딩 503호","indutype":"가구 - 기타가구","category":"other"},{"name":"바로전산컴퓨터","tel":"031-8015-4161","addr":"경기도 화성시 반송동 103-3번지 디앤씨빌딩 1층 103호","indutype":"사무통신 - 컴퓨터","category":"other"},{"name":"스튜디오 아티카","tel":"070-7583-6409","addr":"경기도 화성시 반송동 103-3번지 디앤씨빌딩 703호","indutype":"광학제품 - 사진관","category":"other"},{"name":"아티카 스튜디오","tel":"070-8186-4473","addr":"경기도 화성시 반송동 103-3번지 디앤씨빌딩 703호","indutype":"광학제품 - 사진관","category":"other"}]},{"lat":"37.204915669","long":"127.07386038","imageIndex":17,"items":[{"name":"나나스베딩","tel":"","addr":"경기도 화성시 반송동 90-9번지 동탄플래티넘 1층 104,105호","indutype":"직물 - 침구·수예점","category":"other"},{"name":"라미야전자담배동탄점","tel":"070-8221-0848","addr":"경기도 화성시 반송동 90-9번지 동탄플래티넘 115호","indutype":"기타 - 기타 전문점","category":"other"},{"name":"르비앙페","tel":"031-1661-0931","addr":"경기도 화성시 반송동 90-9번지 동탄플래티넘 2402호","indutype":"직물 - 카페트,커튼,천막,지물","category":"other"},{"name":"미요","tel":"031-866-5852","addr":"경기도 화성시 반송동 90-9번지 동탄플래티넘 3703호","indutype":"의류 - 정장","category":"other"}]},{"lat":"37.208219531","long":"127.06289125","imageIndex":17,"items":[{"name":"나니깐1","tel":"","addr":"경기도 화성시 반송동 43-6번지 골드프라자 1층 105호","indutype":"의류 - 정장","category":"other"},{"name":"센트럴파크KT스크린골프","tel":"031-8003-8400","addr":"경기도 화성시 반송동 43-6번지 골드프라자 601호","indutype":"회원제형태 - 레져업소","category":"other"},{"name":"알레르망","tel":"031-8003-9811","addr":"경기도 화성시 반송동 43-6번지 골드프라자 101.102호","indutype":"직물 - 침구·수예점","category":"other"},{"name":"원더우먼 2","tel":"031-8003-2567","addr":"경기도 화성시 반송동 43-6번지 골드프라자 108호","indutype":"의류 - 정장","category":"other"}]},{"lat":"37.187940267","long":"127.07355168","imageIndex":17,"items":[{"name":"나루세탁","tel":"031-8015-1661","addr":"경기도 화성시 반송동 190-9번지 1층 일부호","indutype":"수리서비스 - 세탁소","category":"other"},{"name":"닥터피씨","tel":"031-377-8253","addr":"경기도 화성시 반송동 190-9번지 1동 103층","indutype":"사무통신 - 컴퓨터","category":"other"},{"name":"씨유동탄타운하우스점","tel":"031-898-6568","addr":"경기도 화성시 반송동 190-9번지","indutype":"유통업 영리 - 편 의 점","category":"other"}]},{"lat":"37.207273974","long":"127.06183159","imageIndex":17,"items":[{"name":"나무동화","tel":"031-8003-8992","addr":"경기도 화성시 반송동 49-12번지","indutype":"문화.취미 - 민예·공예품","category":"other"},{"name":"스왈로우(SWALOW)","tel":"031-239-3372","addr":"경기도 화성시 반송동 49-12번지 1층 103호","indutype":"의류 - 정장","category":"other"}]},{"lat":"37.197993974","long":"127.0766698","imageIndex":17,"items":[{"name":"나무소리","tel":"031-8015-4678","addr":"경기도 화성시 반송동 115-3번지 101호","indutype":"가구 - 일반가구","category":"other"}]},{"lat":"37.199915183","long":"127.07339388","imageIndex":17,"items":[{"name":"나무아래마음쉼","tel":"070-4131-9004","addr":"경기도 화성시 반송동 106-7번지 서해더블루 203호","indutype":"문화.취미 - 문화취미기타","category":"other"},{"name":"네오아트","tel":"070-4351-2226","addr":"경기도 화성시 반송동 106-7번지 서해더블루","indutype":"용역 서비스 - 사무서비스","category":"other"},{"name":"동탄로봇센터","tel":"031-613-4443","addr":"경기도 화성시 반송동 106-7번지 1101호 서해더블루LUX","indutype":"서적문구 - 과학기자재","category":"other"},{"name":"래은옷장","tel":"02-1111-1111","addr":"경기도 화성시 반송동 106-7번지 서해더블루 1층 107호","indutype":"의류 - 정장","category":"other"},{"name":"리앤리플라워마켓","tel":"031-8003-2565","addr":"경기도 화성시 반송동 106-7번지 서해더블루LUX 112호","indutype":"문화.취미 - 화원","category":"other"},{"name":"주식회사 서림","tel":"031-8003-2295","addr":"경기도 화성시 반송동 106-7번지 서해더블루 401호","indutype":"건축자재 - 인테리어전문","category":"other"},{"name":"초콜릿은언제나웃는다","tel":"031-8003-2241","addr":"경기도 화성시 반송동 106-7번지 서해더블루 209호","indutype":"회원제형태 - 기타4","category":"other"}]},{"lat":"37.195108527","long":"127.08000089","imageIndex":17,"items":[{"name":"나무와 원두","tel":"070-8657-1688","addr":"경기도 화성시 반송동 131-22번지 102호","indutype":"가구 - 일반가구","category":"other"}]},{"lat":"37.198083853","long":"127.07703032","imageIndex":17,"items":[{"name":"나이스데이(Lieto BongBong)","tel":"070-7787-4100","addr":"경기도 화성시 반송동 114-8번지 1층","indutype":"문화.취미 - 문화취미기타","category":"other"}]},{"lat":"37.196055106","long":"127.07924721","imageIndex":17,"items":[{"name":"노작공방","tel":"070-8265-2403","addr":"경기도 화성시 반송동 123-20번지","indutype":"문화.취미 - 문화취미기타","category":"other"},{"name":"엘리스가든","tel":"02-1577-0000","addr":"경기도 화성시 반송동 123-20번지 1층","indutype":"문화.취미 - 화원","category":"other"}]},{"lat":"37.20210486","long":"127.07313684","imageIndex":17,"items":[{"name":"놀숲동탄남광장점","tel":"031-8015-2905","addr":"경기도 화성시 반송동 92-7번지 스타프라자 3층 301호","indutype":"서적문구 - 일반서적","category":"other"},{"name":"제이엔지","tel":"02-6340-5359","addr":"경기도 화성시 반송동 92-7번지 스타프라자 104호","indutype":"신변잡화 - 귀금속","category":"other"},{"name":"집현전스터디카페","tel":"02-3285-3945","addr":"경기도 화성시 반송동 92-7번지 스타프라자 304호","indutype":"용역 서비스 - 사무서비스","category":"other"}]},{"lat":"37.201714703","long":"127.06155693","imageIndex":17,"items":[{"name":"다다하우스","tel":"031-8003-8550","addr":"경기도 화성시 반송동 71-5번지","indutype":"의류 - 정장","category":"other"}]},{"lat":"37.200608955","long":"127.07343958","imageIndex":17,"items":[{"name":"다래경매 주식회사","tel":"02-2277-9963","addr":"경기도 화성시 반송동 106-5번지 유정프라자 3층","indutype":"용역 서비스 - 사무서비스","category":"other"},{"name":"도그스퀘어 애견샵","tel":"031-613-5508","addr":"경기도 화성시 반송동 106-5번지 유정프라자 1층 106호","indutype":"문화.취미 - 애완동물","category":"other"},{"name":"도그스퀘어(Dog square)","tel":"031-613-5508","addr":"경기도 화성시 반송동 106-5번지 유정프라자 105호","indutype":"문화.취미 - 애완동물","category":"other"},{"name":"동탄아레나","tel":"031-8015-5513","addr":"경기도 화성시 반송동 106-5번지 유정프라자 107호","indutype":"의류 - 스포츠의류","category":"other"},{"name":"잔티화성동탄점","tel":"031-8003-7906","addr":"경기도 화성시 반송동 106-5번지 유정프라자 1층 111호","indutype":"기타 - 기타 전문점","category":"other"}]},{"lat":"37.207832796","long":"127.06147155","imageIndex":17,"items":[{"name":"다메리노(DAMERINO)","tel":"070-4131-9004","addr":"경기도 화성시 반송동 45-7번지 1층 일부","indutype":"의류 - 정장","category":"other"}]},{"lat":"37.201471495","long":"127.06141031","imageIndex":17,"items":[{"name":"다복에어컨","tel":"","addr":"경기도 화성시 반송동 74번지 우림필유타운하우스 103동 106호","indutype":"전기제품 - 냉열기기","category":"other"}]},{"lat":"37.195666425","long":"127.08113904","imageIndex":17,"items":[{"name":"다온디자인","tel":"031-8003-4904","addr":"경기도 화성시 반송동 125-7번지 1동 102,103호","indutype":"가구 - 일반가구","category":"other"}]},{"lat":"37.192188342","long":"127.06616728","imageIndex":17,"items":[{"name":"다원안전","tel":"031-8043-1871","addr":"경기도 화성시 반송동 150-11번지 상가동 101호","indutype":"기타 - 기계공구","category":"other"}]},{"lat":"37.192160906","long":"127.06692186","imageIndex":17,"items":[{"name":"다원커뮤니티디자인","tel":"031-8015-4600","addr":"경기도 화성시 반송동 155-7번지 1층 101호","indutype":"건축자재 - 인테리어전문","category":"other"}]},{"lat":"37.20972211","long":"127.06700429","imageIndex":17,"items":[{"name":"다인숲공방","tel":"031-8003-8674","addr":"경기도 화성시 반송동 16-9번지 우성주택 1층 102호","indutype":"문화.취미 - 문화취미기타","category":"other"}]},{"lat":"37.202525582","long":"127.0616702","imageIndex":17,"items":[{"name":"다주인테리어","tel":"031-8003-5895","addr":"경기도 화성시 반송동 67-6번지","indutype":"건축자재 - 인테리어전문","category":"other"},{"name":"메이든제이","tel":"031-8059-2201","addr":"경기도 화성시 반송동 67-6번지","indutype":"문화.취미 - 문화취미기타","category":"other"},{"name":"민블루","tel":"","addr":"경기도 화성시 반송동 67-6번지 1층 일부","indutype":"의류 - 정장","category":"other"}]},{"lat":"37.201940179","long":"127.0611178","imageIndex":17,"items":[{"name":"다찬피싱","tel":"","addr":"경기도 화성시 반송동 68-11번지 1층 101호","indutype":"레져용품 - 스포츠·레져용품","category":"other"}]},{"lat":"37.203138427","long":"127.06138907","imageIndex":17,"items":[{"name":"달친구","tel":"","addr":"경기도 화성시 반송동 63-4번지 1층 102호","indutype":"신변잡화 - 기타잡화","category":"other"},{"name":"블라카스(BLACASS)","tel":"031-000-0000","addr":"경기도 화성시 반송동 63-4번지 1층 101,102호","indutype":"의류 - 정장","category":"other"}]},{"lat":"37.197138079","long":"127.07652254","imageIndex":17,"items":[{"name":"대금스포츠","tel":"031-377-4040","addr":"경기도 화성시 반송동 310-1","indutype":"레져용품 - 스포츠·레져용품","category":"other"}]},{"lat":"37.193472518","long":"127.07378209","imageIndex":17,"items":[{"name":"더 그레이","tel":"","addr":"경기도 화성시 반송동 217-4번지 엔타워 111-1호","indutype":"의류 - 정장","category":"other"},{"name":"모닝글로리 솔빛나루점","tel":"031-8003-2500","addr":"경기도 화성시 반송동 217-4번지 엔타워빌딩 2층 204호","indutype":"서적문구 - 문구용품","category":"other"},{"name":"스타일노리터(동탄나루점)","tel":"031-8003-6632","addr":"경기도 화성시 반송동 217-4번지 엔타워 103호","indutype":"의류 - 아동의류","category":"other"},{"name":"앤베이지플라워(&BEIGE Flower)","tel":"031-671-0826","addr":"경기도 화성시 반송동 217-4번지 엔타워 112호","indutype":"문화.취미 - 화원","category":"other"},{"name":"예당","tel":"031-373-8834","addr":"경기도 화성시 반송동 217-4번지 엔타워빌딩 104호","indutype":"신변잡화 - 귀금속","category":"other"},{"name":"운동화를부탁해","tel":"031-613-4636","addr":"경기도 화성시 반송동 217-4번지 엔타워 112호","indutype":"수리서비스 - 세탁소","category":"other"}]},{"lat":"37.188554212","long":"127.07144622","imageIndex":17,"items":[{"name":"더 에어 시스템","tel":"","addr":"경기도 화성시 반송동 189-1번지 102호","indutype":"용역 서비스 - 기타용역서비스","category":"other"},{"name":"아이엠마더","tel":"031-8003-4008","addr":"경기도 화성시 반송동 189-1번지 2층","indutype":"광학제품 - 사진관","category":"other"}]},{"lat":"37.208523943","long":"127.06660899","imageIndex":17,"items":[{"name":"더 옷","tel":"070-5017-4812","addr":"경기도 화성시 반송동 22-3번지 1층 102호","indutype":"의류 - 정장","category":"other"},{"name":"옷만들어요","tel":"032-342-0693","addr":"경기도 화성시 반송동 22-3번지 101호","indutype":"의류 - 정장","category":"other"},{"name":"주식회사 늘푸른하우스","tel":"031-8015-0038","addr":"경기도 화성시 반송동 22-3번지 101호","indutype":"용역 서비스 - 종합용역","category":"other"},{"name":"진팩토리 (Zin Factory)","tel":"070-1111-1111","addr":"경기도 화성시 반송동 22-3번지 1동 102호","indutype":"의류 - 아동의류","category":"other"}]},{"lat":"37.193775383","long":"127.07939133","imageIndex":17,"items":[{"name":"더감(the gam)","tel":"031-373-5142","addr":"경기도 화성시 반송동 224번지 동탄2택지개발지구C-15블럭 반도유보라카링애비뉴 판매시설 지하1층096호","indutype":"의류 - 정장","category":"other"},{"name":"엘리트학생복(동탄점)","tel":"031-8015-1318","addr":"경기도 화성시 반송동 224나루마을유보라@상가B-110","indutype":"의류 - 단체복","category":"other"}]},{"lat":"37.207688016","long":"127.06269932","imageIndex":17,"items":[{"name":"더그라운드(The ground)","tel":"031-111-1111","addr":"경기도 화성시 반송동 48-3번지 1층 103호","indutype":"의류 - 아동의류","category":"other"}]},{"lat":"37.209777889","long":"127.06374865","imageIndex":17,"items":[{"name":"더눈설공주","tel":"","addr":"경기도 화성시 반송동 35-3번지 1층 101호","indutype":"신변잡화 - 기타잡화","category":"other"}]},{"lat":"37.206158598","long":"127.07469514","imageIndex":17,"items":[{"name":"더블루","tel":"031-8003-2315","addr":"경기도 화성시 반송동 90-2번지 서해그랑블 104호","indutype":"수리서비스 - 세탁소","category":"other"},{"name":"에이치엔티21(H.N.T21)","tel":"031-8015-9192","addr":"경기도 화성시 반송동 90-2번지 서해더블루 201호","indutype":"전기제품 - 기타전기제품","category":"other"},{"name":"이노라이텍주식회사","tel":"031-8003-4411","addr":"경기도 화성시 반송동 90-2번지 동탄서해더블루 203호","indutype":"건축자재 - 조명기구","category":"other"},{"name":"정음미디어","tel":"031-613-2137","addr":"경기도 화성시 반송동 90-2번지 서해더블루 2층 213호","indutype":"용역 서비스 - 종합용역","category":"other"},{"name":"주식회사코코넛베이비","tel":"031-8003-5122","addr":"경기도 화성시 반송동 90-2번지 서해더블루 208호","indutype":"용역 서비스 - 종합용역","category":"other"}]},{"lat":"37.208444423","long":"127.0636124","imageIndex":17,"items":[{"name":"더블엠","tel":"","addr":"경기도 화성시 반송동 42-1번지 동탄삼성프라자 107호","indutype":"사무통신 - 통신기기","category":"other"},{"name":"블럭프렌즈","tel":"031-111-1111","addr":"경기도 화성시 반송동 42-1번지 501호,502호,503호","indutype":"서적문구 - 완구점","category":"other"}]},{"lat":"37.20888443","long":"127.06647411","imageIndex":17,"items":[{"name":"더블유인테리어","tel":"031-613-7565","addr":"경기도 화성시 반송동 23-8번지 101호","indutype":"건축자재 - 인테리어전문","category":"other"},{"name":"아름다운창","tel":"031-8003-6959","addr":"경기도 화성시 반송동 23-8번지 102호","indutype":"직물 - 침구·수예점","category":"other"},{"name":"제이앤에스","tel":"031-352-7798","addr":"경기도 화성시 반송동 23-8번지 102호","indutype":"레져용품 - 스포츠·레져용품","category":"other"}]},{"lat":"37.209271518","long":"127.06713909","imageIndex":17,"items":[{"name":"더스윗플라워(THE SWEET FLOWER)","tel":"031-000-0000","addr":"경기도 화성시 반송동 18-5번지 1층 103호","indutype":"문화.취미 - 화원","category":"other"}]},{"lat":"37.211055332","long":"127.06757996","imageIndex":17,"items":[{"name":"더위빙","tel":"","addr":"경기도 화성시 반송동 7-18번지 102호","indutype":"문화.취미 - 민예·공예품","category":"other"}]},{"lat":"37.211273767","long":"127.06344568","imageIndex":17,"items":[{"name":"더펫샵","tel":"","addr":"경기도 화성시 반송동 3-14번지 1층","indutype":"문화.취미 - 애완동물","category":"other"}]},{"lat":"37.206327783","long":"127.06203363","imageIndex":17,"items":[{"name":"데일리 클로젯","tel":"070-8833-2519","addr":"경기도 화성시 반송동 53-2번지 상가동 102호","indutype":"의류 - 정장","category":"other"},{"name":"앤프랑(ANN FRANC)","tel":"031-613-3654","addr":"경기도 화성시 반송동 53-2번지 101호","indutype":"의류 - 정장","category":"other"}]},{"lat":"37.199888731","long":"127.0724139","imageIndex":17,"items":[{"name":"데일리브(Daily-eve)","tel":"","addr":"경기도 화성시 반송동 107-3번지 에이스타운 1층 134호","indutype":"의류 - 아동의류","category":"other"},{"name":"로코코샵","tel":"031-8003-7637","addr":"경기도 화성시 반송동 107-3번지 에이스타운 116호","indutype":"의류 - 정장","category":"other"}]},{"lat":"37.210469368","long":"127.06810893","imageIndex":17,"items":[{"name":"데코라인","tel":"031-613-5285","addr":"경기도 화성시 반송동 14-1번지 101호","indutype":"용역 서비스 - 기타용역서비스","category":"other"},{"name":"동탄 반송 복권방","tel":"031-268-2489","addr":"경기도 화성시 반송동 14-1번지","indutype":"신변잡화 - 기타잡화","category":"other"},{"name":"동탄전기","tel":"031-8800-4449","addr":"경기도 화성시 반송동 14-1번지 103호","indutype":"용역 서비스 - 종합용역","category":"other"}]},{"lat":"37.209553055","long":"127.06291484","imageIndex":17,"items":[{"name":"도경디자인","tel":"031-8015-2739","addr":"경기도 화성시 반송동 39-10번지 1층 102호","indutype":"유통업 영리 - 기타유통업","category":"other"}]},{"lat":"37.201688175","long":"127.06053187","imageIndex":17,"items":[{"name":"도담도담","tel":"","addr":"경기도 화성시 반송동 70-5번지 102호","indutype":"건축자재 - 목재·석재·철물","category":"other"},{"name":"홀리데이","tel":"070-4038-3481","addr":"경기도 화성시 반송동 70-5번지 101호","indutype":"의류 - 아동의류","category":"other"}]},{"lat":"37.202911568","long":"127.0645429","imageIndex":17,"items":[{"name":"동부비료화성대리점","tel":"031-613-6245","addr":"경기도 화성시 반송동 80 동탄시범다은마을월드메르디앙 343-1803 10/4","indutype":"농업 - 비료,사료,종자","category":"other"}]},{"lat":"37.194432981","long":"127.07963978","imageIndex":17,"items":[{"name":"동부팜그린","tel":"031-8003-9498","addr":"경기도 화성시 반송동 224번지 나루마을월드메르디앙반도유보라 635동 1503호","indutype":"농업 - 비료,사료,종자","category":"other"}]},{"lat":"37.201412037","long":"127.07146911","imageIndex":17,"items":[{"name":"동탄 작심 스페이스","tel":"031-8003-0950","addr":"경기도 화성시 반송동 103-10번지 원영빌딩 202,203호","indutype":"용역 서비스 - 사무서비스","category":"other"},{"name":"맘아트","tel":"070-7562-3714","addr":"경기도 화성시 반송동 103-10번지 원영빌딩 7층701,702,703호","indutype":"서적문구 - 문구용품","category":"other"},{"name":"위더스 주식회사","tel":"031-221-6988","addr":"경기도 화성시 반송동 103-10번지 원영빌딩 10층","indutype":"회원제형태 - 기타4","category":"other"},{"name":"키즈 레몬 짐","tel":"070-2879-2314","addr":"경기도 화성시 반송동 103-10번지 원영빌딩 11층","indutype":"회원제형태 - 레져업소","category":"other"}]},{"lat":"37.193581125","long":"127.07297126","imageIndex":17,"items":[{"name":"동탄 전자담배 에이디 멀티샵 나루마을점","tel":"031-8003-5977","addr":"경기도 화성시 반송동 220-5번지 인창프라자 113-2호","indutype":"기타 - 기타 전문점","category":"other"},{"name":"미리네상회","tel":"031-613-7109","addr":"경기도 화성시 반송동 220-5번지 인창프라자 102호","indutype":"직물 - 침구·수예점","category":"other"},{"name":"삼천리자전거","tel":"031-613-2929","addr":"경기도 화성시 반송동 220-5번지 인창프라자 104호","indutype":"레져용품 - 스포츠·레져용품","category":"other"},{"name":"티라미슈 동탄","tel":"070-8612-9729","addr":"경기도 화성시 반송동 220-5번지 인창프라자 102호","indutype":"의류 - 정장","category":"other"}]},{"lat":"37.207443553","long":"127.06499719","imageIndex":17,"items":[{"name":"동탄C&C아동발달센터","tel":"031-613-8896","addr":"경기도 화성시 반송동 42-6번지 센트럴프라자 405호","indutype":"회원제형태 - 기타4","category":"other"},{"name":"브이가든","tel":"070-4809-6090","addr":"경기도 화성시 반송동 42-6번지 센트럴프라자 106호","indutype":"문화.취미 - 화원","category":"other"},{"name":"토끼사진관","tel":"070-8804-0200","addr":"경기도 화성시 반송동 42-6번지 센트럴프라자 6층 602호","indutype":"광학제품 - 사진관","category":"other"},{"name":"한국요가협회동탄지부","tel":"031-375-9191","addr":"경기도 화성시 반송동 42-6번지 센트럴프라자 402호,403호","indutype":"회원제형태 - 레져업소","category":"other"}]},{"lat":"37.209273802","long":"127.06277943","imageIndex":17,"items":[{"name":"동탄MTB짱","tel":"031-8015-4566","addr":"경기도 화성시 반송동 패밀리타운제 1층 148호","indutype":"레져용품 - 스포츠·레져용품","category":"other"},{"name":"디에이치 원","tel":"031-613-4306","addr":"경기도 화성시 반송동 40번지 패밀리타운 109호","indutype":"가구 - 기타가구","category":"other"},{"name":"민턴프렌즈","tel":"","addr":"경기도 화성시 반송동 40번지 패밀리타운 111호","indutype":"레져용품 - 스포츠·레져용품","category":"other"},{"name":"제이스주방","tel":"031-8003-6221","addr":"경기도 화성시 반송동 40번지 패밀리타운 1층 133호","indutype":"주방용구 - 주방용식기","category":"other"},{"name":"크로스핏테디짐 디타운","tel":"031-613-2656","addr":"경기도 화성시 반송동 40번지","indutype":"회원제형태 - 레져업소","category":"other"},{"name":"효성인테리어","tel":"031-8055-0910","addr":"경기도 화성시 반송동 40번지 패밀리타운 112호","indutype":"건축자재 - 인테리어전문","category":"other"}]},{"lat":"37.210299521","long":"127.06560786","imageIndex":17,"items":[{"name":"동탄고양이무마취미용실 뜰안에 냥","tel":"031-000-0000","addr":"경기도 화성시 반송동 10-6번지 1층 104호","indutype":"문화.취미 - 애완동물","category":"other"}]},{"lat":"37.200438798","long":"127.07167098","imageIndex":17,"items":[{"name":"동탄다을마을점(크린토피아)","tel":"031-613-0081","addr":"경기도 화성시 반송동 104-12번지 동탄프라자 110호","indutype":"수리서비스 - 세탁소","category":"other"},{"name":"아이노벨","tel":"031-8015-2477","addr":"경기도 화성시 반송동 104-12번지 동탄프라자 701호일부,702호","indutype":"광학제품 - 사진관","category":"other"},{"name":"요가라이프 동탄교육원","tel":"031-8003-1237","addr":"경기도 화성시 반송동 104-12번지 동탄프라자 304호","indutype":"회원제형태 - 레져업소","category":"other"},{"name":"코코블랙 부띠크 동탄점","tel":"031-613-2686","addr":"경기도 화성시 반송동 104-12번지 동탄프라자 1동 1층 106호","indutype":"의류 - 정장","category":"other"}]},{"lat":"37.193494505","long":"127.06681036","imageIndex":17,"items":[{"name":"동탄리더낚시","tel":"031-8015-1782","addr":"경기도 화성시 반송동 145-13번지","indutype":"레져용품 - 스포츠·레져용품","category":"other"}]},{"lat":"37.205159724","long":"127.07255391","imageIndex":17,"items":[{"name":"동탄세무회계 세무사 박상현","tel":"031-8015-0110","addr":"경기도 화성시 반송동 91-9번지 금정프라자 401호","indutype":"용역 서비스 - 법률회계서비스(개인)","category":"other"}]},{"lat":"37.209272718","long":"127.06488604","imageIndex":17,"items":[{"name":"동탄열쇠","tel":"031-613-1313","addr":"경기도 화성시 반송동 31-5번지","indutype":"건축자재 - 목재·석재·철물","category":"other"}]},{"lat":"37.20163731","long":"127.07144678","imageIndex":17,"items":[{"name":"동탄철물점","tel":"031-8015-4104","addr":"경기도 화성시 반송동 103-2번지 천년프라자 101호","indutype":"건축자재 - 목재·석재·철물","category":"other"},{"name":"비타민색소폰","tel":"","addr":"경기도 화성시 반송동 103-2번지 천년프라자 10층 1003호","indutype":"용역 서비스 - 사무서비스","category":"other"},{"name":"에디슨하비","tel":"031-613-4624","addr":"경기도 화성시 반송동 103-2번지 천년프라자 106호","indutype":"서적문구 - 완구점","category":"other"},{"name":"주식회사 다울퍼니처","tel":"031-358-8013","addr":"경기도 화성시 반송동 103-2번지 천년프라자 603호","indutype":"가구 - 기타가구","category":"other"}]},{"lat":"37.209444592","long":"127.0635794","imageIndex":17,"items":[{"name":"동탄컴퓨터","tel":"031-8015-2456","addr":"경기도 화성시 반송동 35-6번지 동탄컴퓨터 102호","indutype":"사무통신 - 컴퓨터","category":"other"},{"name":"숲이야기","tel":"031-613-7868","addr":"경기도 화성시 반송동 35-6번지 101호","indutype":"문화.취미 - 문화취미기타","category":"other"},{"name":"폴로키즈","tel":"070-7516-9924","addr":"경기도 화성시 반송동 35-6번지 101호","indutype":"의류 - 정장","category":"other"}]},{"lat":"37.208939505","long":"127.06455907","imageIndex":17,"items":[{"name":"동탄타일","tel":"031-8003-7694","addr":"경기도 화성시 반송동 32-4번지 1층","indutype":"건축자재 - 건축용 요업제품","category":"other"}]},{"lat":"37.208299129","long":"127.06577519","imageIndex":17,"items":[{"name":"두두기획","tel":"031-613-5035","addr":"경기도 화성시 반송동 25-9번지 101호","indutype":"용역 서비스 - 종합용역","category":"other"}]},{"lat":"37.207526632","long":"127.0610883","imageIndex":17,"items":[{"name":"디올","tel":"031-613-2798","addr":"경기도 화성시 반송동 49-17번지 101호","indutype":"의류 - 정장","category":"other"},{"name":"이레컴","tel":"031-613-2544","addr":"경기도 화성시 반송동 49-17번지 101호","indutype":"사무통신 - 컴퓨터","category":"other"}]},{"lat":"37.201714897","long":"127.06116269","imageIndex":17,"items":[{"name":"디자인 플로우","tel":"031-613-4630","addr":"경기도 화성시 반송동 71-2번지","indutype":"건축자재 - 인테리어전문","category":"other"}]},{"lat":"37.207607852","long":"127.06082927","imageIndex":17,"items":[{"name":"디자인K","tel":"031-613-2651","addr":"경기도 화성시 반송동 44-9번지","indutype":"용역 서비스 - 종합용역","category":"other"}]},{"lat":"37.200997683","long":"127.07125472","imageIndex":17,"items":[{"name":"디즈니월드 잉글리쉬","tel":"031-000-0000","addr":"경기도 화성시 반송동 104-1번지 에이치원메디컬 9층 일부","indutype":"서적문구 - 일반서적","category":"other"},{"name":"앤필라테스","tel":"031-8015-1202","addr":"경기도 화성시 반송동 104-1번지 3층 의일부","indutype":"회원제형태 - 레져업소","category":"other"},{"name":"에스에이치(SH)다이어트복싱","tel":"031-613-4112","addr":"경기도 화성시 반송동 104-1번지 2층","indutype":"회원제형태 - 레져업소","category":"other"},{"name":"올스토리","tel":"070-4211-8284","addr":"경기도 화성시 반송동 104-1번지 에이치원메디컬 903-1호","indutype":"문화.취미 - 문화취미기타","category":"other"},{"name":"지골드","tel":"032-424-3753","addr":"경기도 화성시 반송동 104-1번지 동탄에이치원메디컬센터 103호","indutype":"신변잡화 - 액세서리","category":"other"}]},{"lat":"37.191854777","long":"127.06650488","imageIndex":17,"items":[{"name":"또래아동도서(동탄점)","tel":"031-613-0029","addr":"경기도 화성시 반송동 150-14번지","indutype":"서적문구 - 일반서적","category":"other"}]},{"lat":"37.193251701","long":"127.06592039","imageIndex":17,"items":[{"name":"뚝딱뚝딱목공방","tel":"","addr":"경기도 화성시 반송동 150-2번지 1층","indutype":"가구 - 일반가구","category":"other"}]},{"lat":"37.206607656","long":"127.06091862","imageIndex":17,"items":[{"name":"라 테일러 (La Tailor)","tel":"031-000-0000","addr":"경기도 화성시 반송동 52-17번지 101호","indutype":"의류 - 맞춤복점","category":"other"},{"name":"라피에","tel":"","addr":"경기도 화성시 반송동 52-17번지 1층 101호","indutype":"신변잡화 - 제화","category":"other"},{"name":"에스테틱 다감","tel":"031-8015-5909","addr":"경기도 화성시 반송동 52-17번지 102호","indutype":"회원제형태 - 기타4","category":"other"}]},{"lat":"37.207382642","long":"127.06072771","imageIndex":17,"items":[{"name":"라비앙로즈","tel":"031-000-0000","addr":"경기도 화성시 반송동 44-11번지 1층 102호","indutype":"의류 - 정장","category":"other"},{"name":"세느앤발렌","tel":"031-000-0000","addr":"경기도 화성시 반송동 44-11번지 1층 101호","indutype":"문화.취미 - 화원","category":"other"},{"name":"센트오브플라워(Scent of flower)","tel":"031-8003-6774","addr":"경기도 화성시 반송동 44-11번지 101호","indutype":"문화.취미 - 화원","category":"other"}]},{"lat":"37.208048613","long":"127.06233913","imageIndex":17,"items":[{"name":"라빠레트","tel":"031-8003-6434","addr":"경기도 화성시 반송동 47-12번지","indutype":"문화.취미 - 화원","category":"other"}]},{"lat":"37.207634662","long":"127.06127989","imageIndex":17,"items":[{"name":"라온제나","tel":"070-7717-5554","addr":"경기도 화성시 반송동 49-2번지 1층","indutype":"의류 - 정장","category":"other"}]},{"lat":"37.206742333","long":"127.06188751","imageIndex":17,"items":[{"name":"라울","tel":"031-8015-1979","addr":"경기도 화성시 반송동 50-13번지 1층 우측상가","indutype":"의류 - 정장","category":"other"}]},{"lat":"37.210470001","long":"127.06694859","imageIndex":17,"items":[{"name":"라이노 스포츠(Rhino Sporta)","tel":"031-613-9931","addr":"경기도 화성시 반송동 15-2번지 1층","indutype":"레져용품 - 스포츠·레져용품","category":"other"}]},{"lat":"37.207886952","long":"127.06128008","imageIndex":17,"items":[{"name":"랩센트 (labscent)","tel":"031-8003-0421","addr":"경기도 화성시 반송동 45-8번지 1층","indutype":"문화.취미 - 화원","category":"other"}]},{"lat":"37.187499232","long":"127.07275166","imageIndex":17,"items":[{"name":"랩토피아","tel":"031-294-4348","addr":"경기도 화성시 반송동 183-1번지","indutype":"서적문구 - 과학기자재","category":"other"},{"name":"비티알","tel":"031-8003-5885","addr":"경기도 화성시 반송동 183-1 17/4","indutype":"서적문구 - 과학기자재","category":"other"}]},{"lat":"37.202111581","long":"127.06070116","imageIndex":17,"items":[{"name":"러닝뱅크","tel":"031-584-2580","addr":"경기도 화성시 반송동 69-6번지 1층","indutype":"서적문구 - 일반서적","category":"other"}]},{"lat":"37.207436406","long":"127.06133606","imageIndex":17,"items":[{"name":"럭키패밀리 동탄점","tel":"031-8015-1179","addr":"경기도 화성시 반송동 49-15번지 102호","indutype":"의류 - 정장","category":"other"},{"name":"애녹","tel":"031-8015-5593","addr":"경기도 화성시 반송동 49-15번지 전체 1층","indutype":"의류 - 정장","category":"other"}]},{"lat":"37.196136677","long":"127.07850391","imageIndex":17,"items":[{"name":"레이디자인","tel":"031-8050-0280","addr":"경기도 화성시 반송동 128-2번지 201호","indutype":"서적문구 - 출판 및 인쇄물","category":"other"}]},{"lat":"37.211742248","long":"127.06355871","imageIndex":17,"items":[{"name":"로망스악기","tel":"031-613-4900","addr":"경기도 화성시 반송동 1-1번지","indutype":"레져용품 - 악기점","category":"other"}]},{"lat":"37.197913265","long":"127.07605022","imageIndex":17,"items":[{"name":"루아코리아","tel":"070-8249-5561","addr":"경기도 화성시 반송동 116-6번지 1층","indutype":"의류 - 정장","category":"other"}]},{"lat":"37.209300241","long":"127.06393978","imageIndex":17,"items":[{"name":"루이드레스","tel":"031-613-0616","addr":"경기도 화성시 반송동 34-6번지","indutype":"의류 - 기타의류","category":"other"},{"name":"수아flower","tel":"031-613-1712","addr":"경기도 화성시 반송동 34-6번지 101호","indutype":"문화.취미 - 화원","category":"other"},{"name":"아트써니","tel":"031-8015-5370","addr":"경기도 화성시 반송동 34-6번지 1층","indutype":"용역 서비스 - 사무서비스","category":"other"},{"name":"이룸(E:Room)","tel":"070-4245-2981","addr":"경기도 화성시 반송동 34-6번지 102호","indutype":"의류 - 정장","category":"other"}]},{"lat":"37.195107907","long":"127.08094699","imageIndex":17,"items":[{"name":"르네(RENE)","tel":"","addr":"경기도 화성시 반송동 126-2번지 103호","indutype":"의류 - 정장","category":"other"}]},{"lat":"37.208220242","long":"127.06147185","imageIndex":17,"items":[{"name":"리바트키즈동탄점","tel":"031-8003-3175","addr":"경기도 화성시 반송동 45-11번지 1층","indutype":"가구 - 일반가구","category":"other"}]},{"lat":"37.20686004","long":"127.06072731","imageIndex":17,"items":[{"name":"리음","tel":"070-8221-8334","addr":"경기도 화성시 반송동 52-1번지 101호","indutype":"의류 - 정장","category":"other"},{"name":"메종드제이","tel":"031-246-7462","addr":"경기도 화성시 반송동 52-1번지 102호","indutype":"신변잡화 - 가방","category":"other"}]},{"lat":"37.205409209","long":"127.06105288","imageIndex":17,"items":[{"name":"리틀윙음악센터","tel":"","addr":"경기도 화성시 반송동 58-8번지 102호","indutype":"용역 서비스 - 사무서비스","category":"other"}]},{"lat":"37.210741656","long":"127.06441409","imageIndex":17,"items":[{"name":"리홈쿠첸서비스센터(동탄점)","tel":"031-8015-3999","addr":"경기도 화성시 반송동 5-3번지","indutype":"수리서비스 - 가정용품수리","category":"other"}]},{"lat":"37.206499081","long":"127.06183099","imageIndex":17,"items":[{"name":"마리","tel":"070-8877-0725","addr":"경기도 화성시 반송동 52-9번지 102호","indutype":"의류 - 정장","category":"other"}]},{"lat":"37.200099611","long":"127.06590355","imageIndex":17,"items":[{"name":"마이리틀스타(my little star)","tel":"","addr":"경기도 화성시 반송동 79번지 동탄시범다은마을우남퍼스트빌 353동 502호","indutype":"의류 - 아동의류","category":"other"}]},{"lat":"37.20832598","long":"127.06611316","imageIndex":17,"items":[{"name":"마이컴","tel":"031-8015-0751","addr":"경기도 화성시 반송동 25-6번지 101호","indutype":"사무통신 - 컴퓨터","category":"other"},{"name":"심플소잉NCC화성동탄점","tel":"070-4190-3830","addr":"경기도 화성시 반송동 25-6번지 1층","indutype":"직물 - 옷감·직물","category":"other"}]},{"lat":"37.206940852","long":"127.06130188","imageIndex":17,"items":[{"name":"메리조 (merizo)","tel":"070-4288-5520","addr":"경기도 화성시 반송동 50-17번지 102호","indutype":"의류 - 아동의류","category":"other"}]},{"lat":"37.206886291","long":"127.06230442","imageIndex":17,"items":[{"name":"메이비","tel":"031-613-2558","addr":"경기도 화성시 반송동 50-10번지 102호","indutype":"의류 - 정장","category":"other"}]},{"lat":"37.194945942","long":"127.08060893","imageIndex":17,"items":[{"name":"메이저독","tel":"","addr":"경기도 화성시 반송동 131-26번지 1층","indutype":"문화.취미 - 애완동물","category":"other"}]},{"lat":"37.210553035","long":"127.06325359","imageIndex":17,"items":[{"name":"메이커","tel":"070-4117-7590","addr":"경기도 화성시 반송동 36-4번지 1층","indutype":"가구 - 일반가구","category":"other"}]},{"lat":"37.200465672","long":"127.07194134","imageIndex":17,"items":[{"name":"멘토르7스터디센터","tel":"031-8015-0099","addr":"경기도 화성시 반송동 104-11번지 월드프라자 805호","indutype":"용역 서비스 - 사무서비스","category":"other"},{"name":"에비뉴","tel":"031-8015-2007","addr":"경기도 화성시 반송동 104-11번지 월드여심프라자 110호","indutype":"의류 - 정장","category":"other"},{"name":"오감","tel":"","addr":"경기도 화성시 반송동 104-11번지 월드프라자 108호","indutype":"의류 - 정장","category":"other"}]},{"lat":"37.207299228","long":"127.06530123","imageIndex":17,"items":[{"name":"모노C&C","tel":"031-8003-8178","addr":"경기도 화성시 반송동 42-7번지 동탄P&P메디칼프라자","indutype":"레져용품 - 악기점","category":"other"}]},{"lat":"37.19530715","long":"127.07939287","imageIndex":17,"items":[{"name":"모리의하루","tel":"070-8711-2231","addr":"경기도 화성시 반송동 131-17번지 1층","indutype":"광학제품 - 사진관","category":"other"}]},{"lat":"37.210271233","long":"127.06793978","imageIndex":17,"items":[{"name":"모아툴","tel":"070-4090-8809","addr":"경기도 화성시 반송동 14-3번지 102호","indutype":"기타 - 기계공구","category":"other"},{"name":"수아플라워 프리저브드스튜디오","tel":"031-8003-6529","addr":"경기도 화성시 반송동 14-3번지 103호","indutype":"문화.취미 - 화원","category":"other"}]},{"lat":"37.201966927","long":"127.0616923","imageIndex":17,"items":[{"name":"모젤플라워","tel":"031-111-1111","addr":"경기도 화성시 반송동 68-7번지 101호","indutype":"문화.취미 - 화원","category":"other"}]},{"lat":"37.202717566","long":"127.0731374","imageIndex":17,"items":[{"name":"문뭉이가게","tel":"03-111-1111","addr":"경기도 화성시 반송동 92-5번지 지하1층 B01호","indutype":"문화.취미 - 애완동물","category":"other"},{"name":"주식회사 필하우스","tel":"070-8834-4866","addr":"경기도 화성시 반송동 92-5번지 B03호","indutype":"용역 서비스 - 기타용역서비스","category":"other"},{"name":"테레사미(Teresa mee)","tel":"","addr":"경기도 화성시 반송동 92-5번지 파크뷰하이브리드빌당 지하 B04호","indutype":"문화.취미 - 문화취미기타","category":"other"}]},{"lat":"37.202132415","long":"127.07224699","imageIndex":17,"items":[{"name":"뮤직레슨","tel":"031-613-7146","addr":"경기도 화성시 반송동 93-8번지 서해더블루 310호","indutype":"용역 서비스 - 사무서비스","category":"other"},{"name":"삼성무역 금거래소","tel":"031-8015-4080","addr":"경기도 화성시 반송동 93-8번지 서해더블루 210호","indutype":"신변잡화 - 귀금속","category":"other"},{"name":"오르다코리아(오산,화성)","tel":"031-8003-7334","addr":"경기도 화성시 반송동 93-8번지 서해더블루상가409호410호","indutype":"회원제형태 - 서적","category":"other"},{"name":"커피랑도서관 동탄1호점","tel":"070-8800-0114","addr":"경기도 화성시 반송동 93-8번지 302,303,304,305호","indutype":"용역 서비스 - 사무서비스","category":"other"},{"name":"크린시아","tel":"031-8003-1448","addr":"경기도 화성시 반송동 93-8번지 서대더블루 101호","indutype":"수리서비스 - 세탁소","category":"other"},{"name":"파인시스 코퍼레이션","tel":"031-8015-5996","addr":"경기도 화성시 반송동 93-8번지 서해더블루 217호","indutype":"전기제품 - 기타전기제품","category":"other"}]},{"lat":"37.207111505","long":"127.06239472","imageIndex":17,"items":[{"name":"미니스톱동탄센트럴점","tel":"031-340-4261","addr":"경기도 화성시 반송동 48-8번지","indutype":"유통업 영리 - 편 의 점","category":"other"}]},{"lat":"37.208858529","long":"127.0643337","imageIndex":17,"items":[{"name":"미래데코","tel":"031-378-3881","addr":"경기도 화성시 반송동 32-8번지 102호","indutype":"건축자재 - 인테리어전문","category":"other"}]},{"lat":"37.209191725","long":"127.06469446","imageIndex":17,"items":[{"name":"미래디자인","tel":"031-613-3754","addr":"경기도 화성시 반송동 31-7번지 101호","indutype":"건축자재 - 인테리어전문","category":"other"}]},{"lat":"37.210353643","long":"127.06549525","imageIndex":17,"items":[{"name":"미메이드디자인","tel":"031-613-3754","addr":"경기도 화성시 반송동 10-7번지 102호","indutype":"건축자재 - 인테리어전문","category":"other"}]},{"lat":"37.196668591","long":"127.07803138","imageIndex":17,"items":[{"name":"바나나아트","tel":"","addr":"경기도 화성시 반송동 122-9번지 101호","indutype":"직물 - 침구·수예점","category":"other"},{"name":"바나나아트 공방","tel":"031-111-1111","addr":"경기도 화성시 반송동 122-9번지","indutype":"가구 - 기타가구","category":"other"}]},{"lat":"37.20774222","long":"127.06241774","imageIndex":17,"items":[{"name":"바나다 (banada)","tel":"","addr":"경기도 화성시 반송동 47-5번지 101호","indutype":"의류 - 정장","category":"other"},{"name":"엘린뷰티하우스(ELIN Beauty House)","tel":"070-7578-9921","addr":"경기도 화성시 반송동 47-5번지 101호","indutype":"의류 - 정장","category":"other"}]},{"lat":"37.208328338","long":"127.06152826","imageIndex":17,"items":[{"name":"바느질하는 농부","tel":"031-8003-3575","addr":"경기도 화성시 반송동 45-12번지 102호","indutype":"의류 - 정장","category":"other"},{"name":"비위치(bewich)","tel":"070-7719-1234","addr":"경기도 화성시 반송동 45-12번지","indutype":"의류 - 정장","category":"other"}]},{"lat":"37.208274192","long":"127.06169719","imageIndex":17,"items":[{"name":"바늘노리","tel":"031-8003-8590","addr":"경기도 화성시 반송동 45-3번지 1층 103호","indutype":"문화.취미 - 문화취미기타","category":"other"},{"name":"바다별","tel":"031-613-3443","addr":"경기도 화성시 반송동 45-3번지 103호","indutype":"의류 - 정장","category":"other"},{"name":"애니핸즈아카데미","tel":"031-8015-5414","addr":"경기도 화성시 반송동 45-3번지 102호","indutype":"신변잡화 - 액세서리","category":"other"}]},{"lat":"37.1958024","long":"127.07988896","imageIndex":17,"items":[{"name":"바복스(VAVOX)","tel":"070-8843-0803","addr":"경기도 화성시 반송동 123-15번지","indutype":"문화.취미 - 애완동물","category":"other"}]},{"lat":"37.201688594","long":"127.05966454","imageIndex":17,"items":[{"name":"반송제일산후조리원","tel":"031-8015-0115","addr":"경기도 화성시 반송동 61-11번지 덕천메디칼프라자 2-5층","indutype":"기타의료기관 - 산후조리원","category":"other"}]},{"lat":"37.211381462","long":"127.06427942","imageIndex":17,"items":[{"name":"반송타일","tel":"031-613-1459","addr":"경기도 화성시 반송동 2-5번지 1층","indutype":"건축자재 - 건축용 요업제품","category":"other"}]},{"lat":"37.201688295","long":"127.06028406","imageIndex":17,"items":[{"name":"베이비리퍼블릭","tel":"031-613-9950","addr":"경기도 화성시 반송동 70-3번지 1층","indutype":"의류 - 아동의류","category":"other"}]},{"lat":"37.191024944","long":"127.06811473","imageIndex":17,"items":[{"name":"벽과창","tel":"031-8015-0857","addr":"경기도 화성시 반송동 158-12번지","indutype":"직물 - 카페트,커튼,천막,지물","category":"other"}]},{"lat":"37.208082598","long":"127.06630447","imageIndex":17,"items":[{"name":"보니또","tel":"","addr":"경기도 화성시 반송동 22-7번지 102호","indutype":"의류 - 정장","category":"other"}]},{"lat":"37.209496685","long":"127.06730826","imageIndex":17,"items":[{"name":"복음","tel":"031-8003-5502","addr":"경기도 화성시 반송동 18-3번지 103호","indutype":"주방용구 - 주방용구","category":"other"},{"name":"효성타일","tel":"","addr":"경기도 화성시 반송동 18-3번지 1층 103호","indutype":"건축자재 - 건축용 요업제품","category":"other"}]},{"lat":"37.209886898","long":"127.06200261","imageIndex":17,"items":[{"name":"브라더소잉팩토리 동탄점","tel":"031-613-6678","addr":"경기도 화성시 반송동 38-8번지 1층","indutype":"기타 - 기계공구","category":"other"},{"name":"화성험멜","tel":"031-613-0125","addr":"경기도 화성시 반송동 38-8번지 102호","indutype":"레져용품 - 스포츠·레져용품","category":"other"}]},{"lat":"37.196137241","long":"127.07761411","imageIndex":17,"items":[{"name":"브이원(V1)골프","tel":"031-8015-0753","addr":"경기도 화성시 반송동 131-2번지 1층 101호","indutype":"레져용품 - 골프용품 전문점","category":"other"}]},{"lat":"37.208103146","long":"127.0613929","imageIndex":17,"items":[{"name":"블랑블랑","tel":"031-209-5870","addr":"경기도 화성시 반송동 45-10번지 주건축물제1동","indutype":"신변잡화 - 기타잡화","category":"other"}]},{"lat":"37.198221377","long":"127.0731445","imageIndex":17,"items":[{"name":"블루하우스","tel":"","addr":"경기도 화성시 반송동 132번지 동탄솔빛마을경남아너스빌 상가동 102호","indutype":"건축자재 - 인테리어전문","category":"other"}]},{"lat":"37.206102731","long":"127.06161665","imageIndex":17,"items":[{"name":"비 플라워(Bee Flower)","tel":"031-675-7225","addr":"경기도 화성시 반송동 54-6번지 1층 103호","indutype":"문화.취미 - 화원","category":"other"},{"name":"헤펠레목공방동탄점","tel":"031-613-2193","addr":"경기도 화성시 반송동 54-6번지 1층","indutype":"가구 - 일반가구","category":"other"}]},{"lat":"37.20932748","long":"127.06353425","imageIndex":17,"items":[{"name":"빨간머리앤","tel":"031-297-3401","addr":"경기도 화성시 반송동 35-7번지 103호","indutype":"의류 - 아동의류","category":"other"}]},{"lat":"37.207827381","long":"127.07155377","imageIndex":17,"items":[{"name":"삼부세탁","tel":"031-613-3232","addr":"경기도 화성시 반송동 83번지 시범한빛마을삼부르네상스 상가동 103호","indutype":"수리서비스 - 세탁소","category":"other"},{"name":"아트","tel":"070-4253-3373","addr":"경기도 화성시 반송동 83 시범한빛마을삼부르네상스상가 101","indutype":"광학제품 - 사진관","category":"other"}]},{"lat":"37.209075034","long":"127.06383821","imageIndex":17,"items":[{"name":"삼천리자전거","tel":"031-223-5214","addr":"경기도 화성시 반송동 34-8번지","indutype":"레져용품 - 스포츠·레져용품","category":"other"}]},{"lat":"37.194220415","long":"127.07372647","imageIndex":17,"items":[{"name":"삼천리자전거반송점","tel":"031-613-2949","addr":"경기도 화성시 반송동 220-1번지 훼미리빌딩 105호","indutype":"레져용품 - 스포츠·레져용품","category":"other"},{"name":"어라운드스터디룸 동탄나루점","tel":"031-8015-1138","addr":"경기도 화성시 반송동 220-1번지 훼미리빌딩 306호","indutype":"용역 서비스 - 사무서비스","category":"other"},{"name":"튼튼영어화성동탄대리점","tel":"031-8003-0277","addr":"경기도 화성시 반송동 220-1번지 훼미리프라자 305호","indutype":"서적문구 - 일반서적","category":"other"}]},{"lat":"37.203111816","long":"127.06053296","imageIndex":17,"items":[{"name":"서보텍","tel":"031-613-5587","addr":"경기도 화성시 반송동 62-8번지 102호","indutype":"수리서비스 - 기타수리서비스","category":"other"},{"name":"야다실업","tel":"070-8600-7222","addr":"경기도 화성시 반송동 62-8번지 102호","indutype":"전기제품 - 기타전기제품","category":"other"}]},{"lat":"37.20646595","long":"127.07302823","imageIndex":17,"items":[{"name":"성흥공조 주식회사","tel":"031-000-0000","addr":"경기도 화성시 반송동 88-2번지 필프라자","indutype":"용역 서비스 - 기타용역서비스","category":"other"},{"name":"스마트팩토리","tel":"070-8611-9653","addr":"경기도 화성시 반송동 88-2번지 필프라자 902-V12호","indutype":"건축자재 - 부동산 분양","category":"other"},{"name":"아이폰픽스샵출장액정수리동탄센타","tel":"070-7381-1883","addr":"경기도 화성시 반송동 88-2번지 필프라자 903호","indutype":"수리서비스 - 사무·통신기기수리","category":"other"},{"name":"아프리카홈케어","tel":"031-8015-0985","addr":"경기도 화성시 반송동 88-2번지 필프라자 902호","indutype":"용역 서비스 - 종합용역","category":"other"},{"name":"앨리스스튜디오","tel":"031-8015-2124","addr":"경기도 화성시 반송동 88-2번지 필프라자 604,605,606호","indutype":"광학제품 - 사진관","category":"other"},{"name":"엔젤페이 주식회사","tel":"070-4418-9920","addr":"경기도 화성시 반송동 88-2번지 필프라자 504호","indutype":"사무통신 - 컴퓨터","category":"other"},{"name":"유피스코리아","tel":"031-8015-8041","addr":"경기도 화성시 반송동 88-2번지 필프라자 903-V23호","indutype":"사무통신 - 기타 사무용품","category":"other"},{"name":"주식회사 클라보","tel":"070-7613-0595","addr":"경기도 화성시 반송동 88-2번지 필프라자 903호","indutype":"서적문구 - 과학기자재","category":"other"},{"name":"찬기획","tel":"031-1577-0000","addr":"경기도 화성시 반송동 88-2번지 필프라자 903호","indutype":"용역 서비스 - 종합용역","category":"other"},{"name":"킴바이오(KimBio)","tel":"031-416-4858","addr":"경기도 화성시 반송동 88-2번지 필프라자 902호","indutype":"서적문구 - 과학기자재","category":"other"}]},{"lat":"37.198499142","long":"127.07572414","imageIndex":17,"items":[{"name":"세라워크 (동탄점)우리자기공방","tel":"070-8941-6563","addr":"경기도 화성시 반송동 117-2번지 1동 101-1호","indutype":"문화.취미 - 문화취미기타","category":"other"},{"name":"코디스디자인(CodisDesign)","tel":"031-8015-1013","addr":"경기도 화성시 반송동 117-2번지 1층","indutype":"건축자재 - 인테리어전문","category":"other"}]},{"lat":"37.205771186","long":"127.07463845","imageIndex":17,"items":[{"name":"세븐일레븐동탄라마다점","tel":"","addr":"경기도 화성시 반송동 90-3번지 동탄라마다호텔 102호,103호","indutype":"유통업 영리 - 편 의 점","category":"other"}]},{"lat":"37.200164051","long":"127.06327911","imageIndex":17,"items":[{"name":"세븐일레븐동탄신미주점","tel":"031-1577-0711","addr":"경기도 화성시 반송동 75번지 동탄시범다은마을풍성신미주 상가동 101호","indutype":"유통업 영리 - 편 의 점","category":"other"}]},{"lat":"37.209191156","long":"127.06577593","imageIndex":17,"items":[{"name":"세븐일레븐화성반송점","tel":"031-1577-0711","addr":"경기도 화성시 반송동 23-13번지 1층","indutype":"유통업 영리 - 편 의 점","category":"other"}]},{"lat":"37.206942787","long":"127.07422275","imageIndex":17,"items":[{"name":"세사리빙(반송점)","tel":"031-8003-7872","addr":"경기도 화성시 반송동 86-7번지 오피스타워 101,102호","indutype":"직물 - 침구·수예점","category":"other"},{"name":"유한오에이","tel":"031-211-6895","addr":"경기도 화성시 반송동 86-7번지 오피스타워 9층 905호","indutype":"사무통신 - 컴퓨터","category":"other"}]},{"lat":"37.210019592","long":"127.06674544","imageIndex":17,"items":[{"name":"세탁매니저","tel":"031-8015-5534","addr":"경기도 화성시 반송동 16-3번지 1층","indutype":"수리서비스 - 세탁소","category":"other"}]},{"lat":"37.208165719","long":"127.06239554","imageIndex":17,"items":[{"name":"센트럴문고","tel":"031-8003-2244","addr":"경기도 화성시 반송동 47-1번지","indutype":"서적문구 - 일반서적","category":"other"}]},{"lat":"37.20311175","long":"127.06066813","imageIndex":17,"items":[{"name":"센트럴스포츠","tel":"031-613-7547","addr":"경기도 화성시 반송동 62-7번지","indutype":"레져용품 - 스포츠·레져용품","category":"other"}]},{"lat":"37.202688757","long":"127.05964276","imageIndex":17,"items":[{"name":"셀럽세탁","tel":"031-8003-0535","addr":"경기도 화성시 반송동 61-4번지 다경프라자 103호","indutype":"수리서비스 - 세탁소","category":"other"},{"name":"하이키즈(High-Kids)","tel":"031-8003-7983","addr":"경기도 화성시 반송동 61-4번지 다경프라자 3층 301호","indutype":"서적문구 - 일반서적","category":"other"}]},{"lat":"37.210301081","long":"127.06258873","imageIndex":17,"items":[{"name":"셀빨래방동탄점","tel":"","addr":"경기도 화성시 반송동 37-1번지 1층","indutype":"수리서비스 - 세탁소","category":"other"}]},{"lat":"37.201688366","long":"127.06013763","imageIndex":17,"items":[{"name":"소반","tel":"031-893-5044","addr":"경기도 화성시 반송동 70-2번지 101호","indutype":"주방용구 - 주방용구","category":"other"}]},{"lat":"37.197966753","long":"127.07697389","imageIndex":17,"items":[{"name":"소소꽃","tel":"02-1234-1234","addr":"경기도 화성시 반송동 114-7번지 1층 103호","indutype":"문화.취미 - 화원","category":"other"}]},{"lat":"37.192723805","long":"127.07518924","imageIndex":17,"items":[{"name":"손끝으로꾸는꿈","tel":"","addr":"경기도 화성시 반송동 215번지 동탄나루마을신도브래뉴 상가동 110호","indutype":"문화.취미 - 문화취미기타","category":"other"}]},{"lat":"37.202886353","long":"127.06094957","imageIndex":17,"items":[{"name":"손으로꾸미는세상","tel":"070-4212-9372","addr":"경기도 화성시 반송동 64-1번지 1층 101호","indutype":"신변잡화 - 액세서리","category":"other"}]},{"lat":"37.209435749","long":"127.0632527","imageIndex":17,"items":[{"name":"솔로몬스포츠","tel":"031-922-1872","addr":"경기도 화성시 반송동 39-8번지","indutype":"레져용품 - 스포츠·레져용품","category":"other"}]},{"lat":"37.193413714","long":"127.06624714","imageIndex":17,"items":[{"name":"솔솔세탁","tel":"031-613-7011","addr":"경기도 화성시 반송동 147-9번지","indutype":"수리서비스 - 세탁소","category":"other"}]},{"lat":"37.194972788","long":"127.08089054","imageIndex":17,"items":[{"name":"송월타월 동탄신도시점","tel":"031-222-3344","addr":"경기도 화성시 반송동 126-3번지 1층 1-1호","indutype":"직물 - 옷감·직물","category":"other"}]},{"lat":"37.20171477","long":"127.06142176","imageIndex":17,"items":[{"name":"수(  )피부샵","tel":"031-8003-5192","addr":"경기도 화성시 반송동 71-4번지 1층","indutype":"회원제형태 - 기타4","category":"other"}]},{"lat":"37.211246481","long":"127.06394134","imageIndex":17,"items":[{"name":"수지종합인쇄","tel":"031-264-0602","addr":"경기도 화성시 반송동 3-4번지 1층","indutype":"서적문구 - 출판 및 인쇄물","category":"other"}]},{"lat":"37.19557661","long":"127.08069968","imageIndex":17,"items":[{"name":"슈슈제이","tel":"","addr":"경기도 화성시 반송동 125-11번지","indutype":"신변잡화 - 기타잡화","category":"other"}]},{"lat":"37.207163893","long":"127.06563906","imageIndex":17,"items":[{"name":"스란한복","tel":"031-8003-3709","addr":"경기도 화성시 반송동 42-8번지 PARK PLAZA 202호 201호,202호","indutype":"의류 - 맞춤복점","category":"other"},{"name":"준 통신","tel":"031-8015-2265","addr":"경기도 화성시 반송동 42-8번지 107,108호","indutype":"사무통신 - 통신기기","category":"other"}]},{"lat":"37.208436435","long":"127.06158466","imageIndex":17,"items":[{"name":"스와니(SWANY)","tel":"031-000-0000","addr":"경기도 화성시 반송동 45-1번지 1층 103호","indutype":"의류 - 정장","category":"other"}]},{"lat":"37.210606005","long":"127.06536028","imageIndex":17,"items":[{"name":"스카이원 (SKY ONE)","tel":"031-1600-5322","addr":"경기도 화성시 반송동 10-2번지 102호","indutype":"신변잡화 - 기타잡화","category":"other"}]},{"lat":"37.191442384","long":"127.07830776","imageIndex":17,"items":[{"name":"스쿨룩스 동탄점","tel":"031-8003-6844","addr":"경기도 화성시 반송동 212번지 나루마을월드메르디앙반도유보라 105호","indutype":"의류 - 단체복","category":"other"},{"name":"월드반도세탁소","tel":"031-613-8822","addr":"경기도 화성시 반송동 212번지 동탄나루마을월드메르디앙반도유보라 107호","indutype":"수리서비스 - 세탁소","category":"other"}]},{"lat":"37.207166448","long":"127.0606149","imageIndex":17,"items":[{"name":"스킨러브","tel":"031-8003-4252","addr":"경기도 화성시 반송동 51-1번지 1층","indutype":"회원제형태 - 기타4","category":"other"}]},{"lat":"37.209498394","long":"127.06408638","imageIndex":17,"items":[{"name":"시그닛코리아 화성","tel":"031-8015-5455","addr":"경기도 화성시 반송동 34-4번지 103호","indutype":"기타 - 기타 전문점","category":"other"}]},{"lat":"37.207022106","long":"127.06097526","imageIndex":17,"items":[{"name":"신다(Sinda)","tel":"031-8003-1908","addr":"경기도 화성시 반송동 50-19번지 102호","indutype":"신변잡화 - 신발","category":"other"},{"name":"클래식 무드(Classic mood)","tel":"031-8003-2128","addr":"경기도 화성시 반송동 50-19번지 103호","indutype":"의류 - 정장","category":"other"}]},{"lat":"37.209687307","long":"127.06467233","imageIndex":17,"items":[{"name":"신우디자인","tel":"031-222-2623","addr":"경기도 화성시 반송동 30-10번지","indutype":"건축자재 - 인테리어전문","category":"other"}]},{"lat":"37.211498713","long":"127.0640542","imageIndex":17,"items":[{"name":"신우티에스","tel":"031-613-3479","addr":"경기도 화성시 반송동 2-3번지 1층","indutype":"용역 서비스 - 사무서비스","category":"other"}]},{"lat":"37.192386153","long":"127.06694458","imageIndex":17,"items":[{"name":"신한인테리어","tel":"031-372-8657","addr":"경기도 화성시 반송동 155-5번지 1층","indutype":"건축자재 - 인테리어전문","category":"other"}]},{"lat":"37.209553609","long":"127.06181084","imageIndex":17,"items":[{"name":"씨유동탄반송로점","tel":"080-080-3663","addr":"경기도 화성시 반송동 38-11번지 101호","indutype":"유통업 영리 - 편 의 점","category":"other"}]},{"lat":"37.195694018","long":"127.08028306","imageIndex":17,"items":[{"name":"씨유동탄반송원룸점","tel":"031-8015-3995","addr":"경기도 화성시 반송동 125-14번지 1층","indutype":"유통업 영리 - 편 의 점","category":"other"}]},{"lat":"37.199943344","long":"127.07146778","imageIndex":17,"items":[{"name":"씨유동탄센타프라자점","tel":"031-613-7433","addr":"경기도 화성시 반송동 107-1번지 쎈타프라자 105호","indutype":"유통업 영리 - 편 의 점","category":"other"},{"name":"아이공방igarage동탄1지구점","tel":"031-8003-4003","addr":"경기도 화성시 반송동 107-1번지 쎈타프라자 4층 403호","indutype":"문화.취미 - 문화취미기타","category":"other"},{"name":"옹알이스튜디오","tel":"031-8015-4646","addr":"경기도 화성시 반송동 107-1쎈타프라자405호406호","indutype":"광학제품 - 사진관","category":"other"},{"name":"채운","tel":"031-613-6336","addr":"경기도 화성시 반송동 107-1번지 센터프라자 4층 403호","indutype":"신변잡화 - 기타잡화","category":"other"},{"name":"폰깨비","tel":"","addr":"경기도 화성시 반송동 107-1번지 쎈타프라자 111호","indutype":"문화.취미 - 문화취미기타","category":"other"},{"name":"풀잎문화센터 (동탄지부)","tel":"031-8003-0636","addr":"경기도 화성시 반송동 107-1번지 쎈타프라자 302호","indutype":"문화.취미 - 문화취미기타","category":"other"}]},{"lat":"37.208020663","long":"127.06414152","imageIndex":17,"items":[{"name":"씨유동탄센트럴파크점","tel":"031-613-8259","addr":"경기도 화성시 반송동 42-3번지 하나로프라자 1동 108호","indutype":"유통업 영리 - 편 의 점","category":"other"},{"name":"프리마","tel":"","addr":"경기도 화성시 반송동 42-3번지 하나로프라자 101호","indutype":"의류 - 정장","category":"other"}]},{"lat":"37.2061863","long":"127.07357995","imageIndex":17,"items":[{"name":"씨유동탄중앙점","tel":"031-8050-5607","addr":"경기도 화성시 반송동 88-5번지 성진빌딩 105호","indutype":"유통업 영리 - 편 의 점","category":"other"}]},{"lat":"37.207722303","long":"127.06607886","imageIndex":17,"items":[{"name":"씨유동탄한화점","tel":"031-613-7430","addr":"경기도 화성시 반송동 22-10번지 103호 (103호~104호)","indutype":"유통업 영리 - 편 의 점","category":"other"}]},{"lat":"37.203273815","long":"127.06091607","imageIndex":17,"items":[{"name":"씨유화성동탄고점","tel":"031-8015-2262","addr":"경기도 화성시 반송동 63-1번지 101호","indutype":"유통업 영리 - 편 의 점","category":"other"},{"name":"에든 플라워","tel":"031-000-0000","addr":"경기도 화성시 반송동 63-1번지 102호","indutype":"문화.취미 - 화원","category":"other"}]},{"lat":"37.202886758","long":"127.06011601","imageIndex":17,"items":[{"name":"아로마스토리","tel":"031-613-6129","addr":"경기도 화성시 반송동 65-2번지 1층","indutype":"신변잡화 - 기타잡화","category":"other"}]},{"lat":"37.196190832","long":"127.07835754","imageIndex":17,"items":[{"name":"아론광고기획","tel":"","addr":"경기도 화성시 반송동 128-1번지 1층","indutype":"용역 서비스 - 종합용역","category":"other"}]},{"lat":"37.206715642","long":"127.06120033","imageIndex":17,"items":[{"name":"아미(Ami)","tel":"","addr":"경기도 화성시 반송동 52-4번지 102호","indutype":"의류 - 정장","category":"other"},{"name":"프샤 (fuschia)","tel":"070-4922-1261","addr":"경기도 화성시 반송동 52-4번지 101호","indutype":"의류 - 정장","category":"other"}]},{"lat":"37.206805912","long":"127.06086245","imageIndex":17,"items":[{"name":"아유알람테자스","tel":"02-1644-7970","addr":"경기도 화성시 반송동 52-2번지 1층 상가","indutype":"신변잡화 - 기타잡화","category":"other"}]},{"lat":"37.194751717","long":"127.07424507","imageIndex":17,"items":[{"name":"아이엠스피닝","tel":"031-613-7347","addr":"경기도 화성시 반송동 219-1번지 성우프라자 601,602호","indutype":"회원제형태 - 레져업소","category":"other"},{"name":"알파(동탄솔빛나루점)","tel":"031-8003-6300","addr":"경기도 화성시 반송동 219-1번지 성우프라자 104호 202일부","indutype":"서적문구 - 문구용품","category":"other"}]},{"lat":"37.186775403","long":"127.07766119","imageIndex":17,"items":[{"name":"아이테크(I.Tech)","tel":"","addr":"경기도 화성시 반송동 206번지 동탄파라곤타운하우스 304동 1호","indutype":"용역 서비스 - 종합용역","category":"other"}]},{"lat":"37.208166096","long":"127.06164078","imageIndex":17,"items":[{"name":"안질리오","tel":"070-8626-2244","addr":"경기도 화성시 반송동 45-4번지 102호","indutype":"신변잡화 - 액세서리","category":"other"}]},{"lat":"37.206886717","long":"127.06144829","imageIndex":17,"items":[{"name":"알로베이비","tel":"031-8015-1422","addr":"경기도 화성시 반송동 50-16번지 102호","indutype":"의류 - 아동의류","category":"other"}]},{"lat":"37.206853081","long":"127.07355804","imageIndex":17,"items":[{"name":"알파문구","tel":"031-8015-3256","addr":"경기도 화성시 반송동 87-1가희프라자102호-103호","indutype":"서적문구 - 문구용품","category":"other"},{"name":"탑교육","tel":"031-613-0137","addr":"경기도 화성시 반송동 87-1번지 가희프라자 304호","indutype":"회원제형태 - 서적","category":"other"}]},{"lat":"37.19524399","long":"127.07952797","imageIndex":17,"items":[{"name":"애플트리(사과나무)","tel":"070-8886-2448","addr":"경기도 화성시 반송동 131-18번지 101호","indutype":"가구 - 일반가구","category":"other"}]},{"lat":"37.191773743","long":"127.06639219","imageIndex":17,"items":[{"name":"앤드컴퍼니(A&D company)","tel":"031-613-4441","addr":"경기도 화성시 반송동 150-15번지 103호","indutype":"레져용품 - 골프용품 전문점","category":"other"}]},{"lat":"37.201637485","long":"127.07114265","imageIndex":17,"items":[{"name":"양키캔들 동탄점","tel":"031-613-3551","addr":"경기도 화성시 반송동 103-1번지 동탄스카이뷰빌딩 106호","indutype":"신변잡화 - 기타잡화","category":"other"},{"name":"쥬르드쥬아","tel":"031-8003-9577","addr":"경기도 화성시 반송동 103-1번지 동탄스카이뷰빌딩 105호","indutype":"문화.취미 - 화원","category":"other"}]},{"lat":"37.208524136","long":"127.06624851","imageIndex":17,"items":[{"name":"어바웃문","tel":"","addr":"경기도 화성시 반송동 24-7번지","indutype":"의류 - 정장","category":"other"}]},{"lat":"37.195252059","long":"127.08096967","imageIndex":17,"items":[{"name":"어반센트","tel":"","addr":"경기도 화성시 반송동 126-1번지 104호","indutype":"문화.취미 - 문화취미기타","category":"other"}]},{"lat":"37.204927563","long":"127.06887016","imageIndex":17,"items":[{"name":"어스앤뎀(USnTHEM)","tel":"","addr":"경기도 화성시 반송동 96","indutype":"의류 - 정장","category":"other"},{"name":"엘필라테스","tel":"031-613-9978","addr":"경기도 화성시 반송동 96번지 메타폴리스 상가동 지하B101호","indutype":"회원제형태 - 레져업소","category":"other"}]},{"lat":"37.2005554","long":"127.07258347","imageIndex":17,"items":[{"name":"에디슨","tel":"070-4046-2009","addr":"경기도 화성시 반송동 104-8번지 씨티21리건빌딩 601호","indutype":"서적문구 - 과학기자재","category":"other"}]},{"lat":"37.201024538","long":"127.07155887","imageIndex":17,"items":[{"name":"에메필 동탄점","tel":"","addr":"경기도 화성시 반송동 104-2번지 한솔프라자 1층 105호","indutype":"의류 - 내의판매","category":"other"},{"name":"연세재활실버센터","tel":"031-8058-5282","addr":"경기도 화성시 반송동 104-2번지 한솔프라자 10층","indutype":"기타의료기관 - 기타의료기관 및 기타","category":"other"},{"name":"주식회사삼환코리아/원격지","tel":"031-8015-1829","addr":"경기도 화성시 반송동 104-2번지 한솔프라자 905호","indutype":"기타 - 기타 전문점","category":"other"}]},{"lat":"37.200793176","long":"127.06634342","imageIndex":17,"items":[{"name":"에스와이플래닛","tel":"","addr":"경기도 화성시 반송동 79번지 동탄시범다은마을우남퍼스트빌 355동 7층 701호","indutype":"가구 - 기타가구","category":"other"},{"name":"티와이에이(TYA)","tel":"070-8095-2048","addr":"경기도 화성시 반송동 79번지 동탄시범다은마을우남퍼스트빌 355동 304호","indutype":"용역 서비스 - 사무서비스","category":"other"}]},{"lat":"37.208579405","long":"127.06395046","imageIndex":17,"items":[{"name":"에스테크","tel":"031-613-0708","addr":"경기도 화성시 반송동 33-8번지 104호","indutype":"수리서비스 - 사무·통신기기수리","category":"other"}]},{"lat":"37.210055267","long":"127.06742139","imageIndex":17,"items":[{"name":"에이비씨애드","tel":"031-613-3022","addr":"경기도 화성시 반송동 15-8번지 101호","indutype":"용역 서비스 - 종합용역","category":"other"}]},{"lat":"37.194775971","long":"127.07871655","imageIndex":17,"items":[{"name":"에이스유통","tel":"031-375-9700","addr":"경기도 화성시 반송동 224번지 나루마을월드메르디앙반도유보라 634동 2602호","indutype":"회원제형태 - 기타4","category":"other"}]},{"lat":"37.192972235","long":"127.06619046","imageIndex":17,"items":[{"name":"에이플러스자전거정비샵(동탄점)","tel":"031-8003-9152","addr":"경기도 화성시 반송동 151-8번지 101호","indutype":"레져용품 - 스포츠·레져용품","category":"other"}]},{"lat":"37.21158016","long":"127.06336707","imageIndex":17,"items":[{"name":"에코디자인","tel":"031-613-4423","addr":"경기도 화성시 반송동 1-3번지 1층","indutype":"건축자재 - 인테리어전문","category":"other"}]},{"lat":"37.207552889","long":"127.06264289","imageIndex":17,"items":[{"name":"엑스-업스포츠","tel":"031-613-9931","addr":"경기도 화성시 반송동 48-4번지","indutype":"레져용품 - 스포츠·레져용품","category":"other"}]},{"lat":"37.193112877","long":"127.07247526","imageIndex":17,"items":[{"name":"엔(N)플라잉핫요가","tel":"031-378-4554","addr":"경기도 화성시 반송동 221-2번지 서건프라자 601,602호","indutype":"회원제형태 - 레져업소","category":"other"},{"name":"티하프","tel":"031-8003-4179","addr":"경기도 화성시 반송동 221-2번지 서건프라자 106호","indutype":"의류 - 정장","category":"other"},{"name":"편의점사랑","tel":"031-376-8016","addr":"경기도 화성시 반송동 221-2번지 서건프라자 101호","indutype":"유통업 영리 - 편 의 점","category":"other"}]},{"lat":"37.209884235","long":"127.06711708","imageIndex":17,"items":[{"name":"엘린디자인","tel":"031-613-6767","addr":"경기도 화성시 반송동 16-6번지","indutype":"건축자재 - 인테리어전문","category":"other"}]},{"lat":"37.211163665","long":"127.06719702","imageIndex":17,"items":[{"name":"엘지시스템","tel":"070-2248-2354","addr":"경기도 화성시 반송동 7-15번지 3층","indutype":"용역 서비스 - 기타용역서비스","category":"other"}]},{"lat":"37.206464801","long":"127.07494325","imageIndex":17,"items":[{"name":"엘지전자(주) 동탄서비스센터","tel":"031-8003-6105","addr":"경기도 화성시 반송동 90-1번지 삼성스마트쉐르빌 LG BEST SHOP 2층","indutype":"수리서비스 - 가정용품수리","category":"other"},{"name":"엠브라운(EmBrown)","tel":"070-8031-4038","addr":"경기도 화성시 반송동 90-1번지 삼성스마트쉐르빌 1110호","indutype":"신변잡화 - 가방","category":"other"},{"name":"호수상회","tel":"031-8003-6232","addr":"경기도 화성시 반송동 90-1번지 삼성스마트쉐르빌 1층 112호","indutype":"신변잡화 - 기타잡화","category":"other"}]},{"lat":"37.202826182","long":"127.07230395","imageIndex":17,"items":[{"name":"엘콤마","tel":"070-4300-0220","addr":"경기도 화성시 반송동 93-6번지 지층 제비03호","indutype":"의류 - 정장","category":"other"},{"name":"주식회사 위승기업","tel":"02-1522-6682","addr":"경기도 화성시 반송동 93-6번지 센트럴에스타운 113호","indutype":"용역 서비스 - 종합용역","category":"other"}]},{"lat":"37.208742019","long":"127.06311697","imageIndex":17,"items":[{"name":"엠지에프 두피,탈모전문센터","tel":"031-8015-3025","addr":"경기도 화성시 반송동 41-6번지 101호","indutype":"회원제형태 - 기타4","category":"other"},{"name":"짐스테이션","tel":"031-613-0568","addr":"경기도 화성시 반송동 41-6번지 동탄반송프라자 3층 301호","indutype":"회원제형태 - 레져업소","category":"other"}]},{"lat":"37.193274424","long":"127.07355665","imageIndex":17,"items":[{"name":"영어몰닷컴","tel":"031-613-4187","addr":"경기도 화성시 반송동 217-5번지 급탑프라자 401호","indutype":"서적문구 - 일반서적","category":"other"},{"name":"하우스터디동탄센터모임공간","tel":"031-613-9961","addr":"경기도 화성시 반송동 217-5번지 금탑프라자 601호","indutype":"용역 서비스 - 사무서비스","category":"other"}]},{"lat":"37.193080118","long":"127.06664107","imageIndex":17,"items":[{"name":"영운조명","tel":"031-613-3550","addr":"경기도 화성시 반송동 151-5번지 1층","indutype":"건축자재 - 조명기구","category":"other"}]},{"lat":"37.193224303","long":"127.0666074","imageIndex":17,"items":[{"name":"예담인테리어","tel":"031-613-3336","addr":"경기도 화성시 반송동 151-4번지","indutype":"직물 - 카페트,커튼,천막,지물","category":"other"}]},{"lat":"37.209688365","long":"127.06261078","imageIndex":17,"items":[{"name":"예람엘이디","tel":"031-8015-0425","addr":"경기도 화성시 반송동 39-12번지","indutype":"건축자재 - 조명기구","category":"other"}]},{"lat":"37.196578963","long":"127.07727664","imageIndex":17,"items":[{"name":"오월에","tel":"","addr":"경기도 화성시 반송동 130-5번지 101-102호","indutype":"의류 - 정장","category":"other"}]},{"lat":"37.195973853","long":"127.07949492","imageIndex":17,"items":[{"name":"오프(OFF)","tel":"","addr":"경기도 화성시 반송동 123-18번지 1층 102호","indutype":"의류 - 정장","category":"other"}]},{"lat":"37.210550795","long":"127.06750067","imageIndex":17,"items":[{"name":"온비즈친구","tel":"031-251-4747","addr":"경기도 화성시 반송동 13-10번지 1동 101호","indutype":"사무통신 - 사무용 OA기기","category":"other"}]},{"lat":"37.207859327","long":"127.06247416","imageIndex":17,"items":[{"name":"온정보통신","tel":"031-226-1195","addr":"경기도 화성시 반송동 47-4 3층","indutype":"사무통신 - 컴퓨터","category":"other"},{"name":"히든스튜디오","tel":"031-8003-7176","addr":"경기도 화성시 반송동 47-4번지 102호","indutype":"광학제품 - 사진관","category":"other"}]},{"lat":"37.206192963","long":"127.06135763","imageIndex":17,"items":[{"name":"올리브베베","tel":"031-8003-9374","addr":"경기도 화성시 반송동 54-4번지 상가 1층 101호","indutype":"의류 - 아동의류","category":"other"}]},{"lat":"37.206385525","long":"127.07189041","imageIndex":17,"items":[{"name":"용진","tel":"","addr":"경기도 화성시 반송동 86번지","indutype":"용역 서비스 - 사무서비스","category":"other"}]},{"lat":"37.206327923","long":"127.061752","imageIndex":17,"items":[{"name":"우나스텔라","tel":"","addr":"경기도 화성시 반송동 52-10번지 1층 102호","indutype":"의류 - 정장","category":"other"}]},{"lat":"37.20949696","long":"127.06680132","imageIndex":17,"items":[{"name":"우든빌리지","tel":"031-376-5206","addr":"경기도 화성시 반송동 17-6 1층전체","indutype":"가구 - 일반가구","category":"other"}]},{"lat":"37.200528534","long":"127.07230184","imageIndex":17,"items":[{"name":"우리경매(주)","tel":"031-613-1316","addr":"경기도 화성시 반송동 104-9번지 에스엠프라자 702호 701","indutype":"건축자재 - 부동산 분양","category":"other"},{"name":"주식회사커스텀리테일","tel":"031-8003-5118","addr":"경기도 화성시 반송동 104-9번지 에스엠프라자 105호","indutype":"신변잡화 - 액세서리","category":"other"}]},{"lat":"37.20002733","long":"127.0662752","imageIndex":17,"items":[{"name":"운암스포츠","tel":"031-613-3082","addr":"경기도 화성시 반송동 79번지 우남퍼스트빌 지하2층","indutype":"회원제형태 - 레져업소","category":"other"}]},{"lat":"37.195695225","long":"127.07841336","imageIndex":17,"items":[{"name":"울동네 동탄세탁소","tel":"031-613-4657","addr":"경기도 화성시 반송동 131-9번지 1층","indutype":"수리서비스 - 세탁소","category":"other"}]},{"lat":"37.197912188","long":"127.07777355","imageIndex":17,"items":[{"name":"워시테리아 동탄점","tel":"","addr":"경기도 화성시 반송동 113-5번지","indutype":"수리서비스 - 세탁소","category":"other"}]},{"lat":"37.196245174","long":"127.07791832","imageIndex":17,"items":[{"name":"월드펫","tel":"070-7565-0497","addr":"경기도 화성시 반송동 129-5번지","indutype":"문화.취미 - 애완동물","category":"other"}]},{"lat":"37.205582652","long":"127.07350053","imageIndex":17,"items":[{"name":"웰빙세상","tel":"031-613-2008","addr":"경기도 화성시 반송동 88-8번지 수성프라자 301호","indutype":"가구 - 기타가구","category":"other"}]},{"lat":"37.210352732","long":"127.06719633","imageIndex":17,"items":[{"name":"유엔미도자연구소","tel":"031-8003-5539","addr":"경기도 화성시 반송동 15-4번지","indutype":"문화.취미 - 민예·공예품","category":"other"}]},{"lat":"37.210442535","long":"127.06774842","imageIndex":17,"items":[{"name":"유폴 24시애견셀프목욕 동탄점","tel":"","addr":"경기도 화성시 반송동 13-8번지 1층 101호","indutype":"문화.취미 - 애완동물","category":"other"}]},{"lat":"37.194216255","long":"127.08037166","imageIndex":17,"items":[{"name":"윤대성농기계","tel":"","addr":"경기도 화성시 반송동 224번지 동탄나루마을월드메르디앙반도유보라 636동 1001호","indutype":"농업 - 농기계","category":"other"}]},{"lat":"37.207940892","long":"127.06152796","imageIndex":17,"items":[{"name":"윰스캔들(yoom's candle)","tel":"031-000-0000","addr":"경기도 화성시 반송동 45-6번지 102호","indutype":"신변잡화 - 기타잡화","category":"other"},{"name":"작은아씨들","tel":"031-613-5801","addr":"경기도 화성시 반송동 45-6번지 101호","indutype":"문화.취미 - 문화취미기타","category":"other"}]},{"lat":"37.209579886","long":"127.06330914","imageIndex":17,"items":[{"name":"은제나","tel":"","addr":"경기도 화성시 반송동 39-7번지 101호","indutype":"신변잡화 - 귀금속","category":"other"},{"name":"페르미츠 동탄 반송점","tel":"031-378-0447","addr":"경기도 화성시 반송동 39-7번지 1층 101호","indutype":"의류 - 정장","category":"other"}]},{"lat":"37.206494576","long":"127.07027963","imageIndex":17,"items":[{"name":"이레옷수선","tel":"031-8003-5073","addr":"경기도 화성시 반송동 85번지 동탄시범한빛마을동탄아이파크 108호 상가","indutype":"수리서비스 - 세탁소","category":"other"},{"name":"케이작업실","tel":"031-8003-9290","addr":"경기도 화성시 반송동 85번지 동탄시범한빛마을동탄아이파크 상가동 지1층 113호","indutype":"문화.취미 - 문화취미기타","category":"other"}]},{"lat":"37.208190674","long":"127.06639468","imageIndex":17,"items":[{"name":"이뿌개","tel":"031-613-3118","addr":"경기도 화성시 반송동 22-6번지 103호","indutype":"문화.취미 - 애완동물","category":"other"},{"name":"재키의 옷장","tel":"","addr":"경기도 화성시 반송동 22-6번지 101호","indutype":"의류 - 정장","category":"other"}]},{"lat":"37.196136345","long":"127.07902202","imageIndex":17,"items":[{"name":"익사이팅스포츠(Exciting Sports)","tel":"070-7565-0497","addr":"경기도 화성시 반송동 123-21번지 202호","indutype":"레져용품 - 스포츠·레져용품","category":"other"}]},{"lat":"37.202886136","long":"127.06138887","imageIndex":17,"items":[{"name":"인쇄팩토리","tel":"070-7760-7046","addr":"경기도 화성시 반송동 64-4번지 3층 3호","indutype":"용역 서비스 - 사무서비스","category":"other"}]},{"lat":"37.203127665","long":"127.06483595","imageIndex":17,"items":[{"name":"인지한","tel":"037-947-7538","addr":"경기도 화성시 반송동 80번지 동탄시범다은마을월드메르디앙반도유보라 344동 201호","indutype":"문화.취미 - 애완동물","category":"other"}]},{"lat":"37.192278235","long":"127.06656155","imageIndex":17,"items":[{"name":"일곱코리아","tel":"070-7740-7778","addr":"경기도 화성시 반송동 155-2번지 101호","indutype":"신변잡화 - 기타잡화","category":"other"}]},{"lat":"37.206138828","long":"127.06150403","imageIndex":17,"items":[{"name":"일리","tel":"031-613-0913","addr":"경기도 화성시 반송동 54-5번지 103호","indutype":"의류 - 정장","category":"other"},{"name":"제이앤제이","tel":"070-7719-3373","addr":"경기도 화성시 반송동 54-5번지 1층","indutype":"의류 - 아동의류","category":"other"}]},{"lat":"37.200358807","long":"127.06974477","imageIndex":17,"items":[{"name":"잉크가이","tel":"031-831-8747","addr":"경기도 화성시 반송동 101번지 동탄시범다은마을롯데대동다 303동 1901호","indutype":"회원제형태 - 기타4","category":"other"}]},{"lat":"37.208246068","long":"127.06386007","imageIndex":17,"items":[{"name":"자갸즈코리아","tel":"070-8291-7569","addr":"경기도 화성시 반송동 42-2번지 109호","indutype":"레져용품 - 스포츠·레져용품","category":"other"}]},{"lat":"37.21013686","long":"127.0664977","imageIndex":17,"items":[{"name":"장안기획","tel":"031-8003-0272","addr":"경기도 화성시 반송동 16-1번지","indutype":"건축자재 - 인테리어전문","category":"other"}]},{"lat":"37.206274161","long":"127.06114366","imageIndex":17,"items":[{"name":"제니스타일","tel":"","addr":"경기도 화성시 반송동 54-2번지 102호","indutype":"의류 - 정장","category":"other"},{"name":"티에라(tierra)플라워","tel":"031-613-7794","addr":"경기도 화성시 반송동 54-2번지 102호","indutype":"문화.취미 - 화원","category":"other"}]},{"lat":"37.210966109","long":"127.06594638","imageIndex":17,"items":[{"name":"제일오토바이","tel":"031-613-3343","addr":"경기도 화성시 반송동 9-7번지","indutype":"수리서비스 - 레져용품수리","category":"other"}]},{"lat":"37.206769432","long":"127.06175235","imageIndex":17,"items":[{"name":"졸리","tel":"070-8292-6882","addr":"경기도 화성시 반송동 50-14번지 102호","indutype":"의류 - 정장","category":"other"}]},{"lat":"37.206520391","long":"127.07238618","imageIndex":17,"items":[{"name":"종합상사","tel":"031-613-4135","addr":"경기도 화성시 반송동 235","indutype":"수리서비스 - 신변잡화수리","category":"other"}]},{"lat":"37.20591653","long":"127.07266725","imageIndex":17,"items":[{"name":"주식회사 더바디","tel":"031-8003-8880","addr":"경기도 화성시 반송동 88-12번지 리더스프라자 802호","indutype":"레져용품 - 스포츠·레져용품","category":"other"}]},{"lat":"37.207994748","long":"127.06194481","imageIndex":17,"items":[{"name":"주식회사 바이웰","tel":"031-613-9144","addr":"경기도 화성시 반송동 46번지 세림타운136,137,138,147,148,149,150,151,152호","indutype":"신변잡화 - 기타잡화","category":"other"}]},{"lat":"37.21055252","long":"127.06425622","imageIndex":17,"items":[{"name":"주식회사 위드시디즈","tel":"031-613-0111","addr":"경기도 화성시 반송동 5-5번지 102호","indutype":"가구 - 기타가구","category":"other"}]},{"lat":"37.196055511","long":"127.07861646","imageIndex":17,"items":[{"name":"주식회사 지앤비파트너스","tel":"031-613-4805","addr":"경기도 화성시 반송동 128-3번지 101호","indutype":"신변잡화 - 기타잡화","category":"other"},{"name":"지앤비파트너스","tel":"031-111-1111","addr":"경기도 화성시 반송동 128-3번지 1층 101호","indutype":"신변잡화 - 기타잡화","category":"other"}]},{"lat":"37.189724521","long":"127.07322673","imageIndex":17,"items":[{"name":"주식회사 피피네트웍스","tel":"070-4060-1071","addr":"경기도 화성시 반송동 191-12번지 동탄세인트캐슬 111동 101호","indutype":"문화.취미 - 애완동물","category":"other"}]},{"lat":"37.196747854","long":"127.06569802","imageIndex":17,"items":[{"name":"주식회사 함광","tel":"031-8003-9447","addr":"경기도 화성시 반송동 142-5번지 4층","indutype":"전기제품 - 기타전기제품","category":"other"},{"name":"홍승애풍기인견화성동탄점","tel":"031-8015-3722","addr":"경기도 화성시 반송동 142-5번지 금곡플라자 1층","indutype":"의류 - 기타의류","category":"other"}]},{"lat":"37.210102825","long":"127.0626449","imageIndex":17,"items":[{"name":"주식회사 현대보안시스템","tel":"1688-7811-0000","addr":"경기도 화성시 반송동 37-13번지","indutype":"전기제품 - 기타전기제품","category":"other"}]},{"lat":"37.196027152","long":"127.08066635","imageIndex":17,"items":[{"name":"주식회사코어디자인그룹","tel":"031-613-1545","addr":"경기도 화성시 반송동 124-8번지 101호","indutype":"건축자재 - 인테리어전문","category":"other"}]},{"lat":"37.203103078","long":"127.05996973","imageIndex":17,"items":[{"name":"즐거운애견미용실","tel":"031-8015-3759","addr":"경기도 화성시 반송동 62-12번지 1층 101호","indutype":"문화.취미 - 애완동물","category":"other"}]},{"lat":"37.188188666","long":"127.07980239","imageIndex":17,"items":[{"name":"지에스큐에스(GSQS)","tel":"","addr":"경기도 화성시 반송동 238번지 에이힐스 16동 1호","indutype":"용역 서비스 - 사무서비스","category":"other"}]},{"lat":"37.208048989","long":"127.06158436","imageIndex":17,"items":[{"name":"지오CNC","tel":"031-8015-4844","addr":"경기도 화성시 반송동 45-5번지","indutype":"사무통신 - 컴퓨터","category":"other"}]},{"lat":"37.19477102","long":"127.07208257","imageIndex":17,"items":[{"name":"진콤마(JINCOMMA)","tel":"070-8838-3833","addr":"경기도 화성시 반송동 135번지 솔빛마을쌍용예가 1동 103층","indutype":"신변잡화 - 가방","category":"other"}]},{"lat":"37.209579719","long":"127.06363584","imageIndex":17,"items":[{"name":"청춘타투디자인","tel":"031-613-4974","addr":"경기도 화성시 반송동 35-5번지 102호","indutype":"용역 서비스 - 사무서비스","category":"other"}]},{"lat":"37.198579057","long":"127.07761651","imageIndex":17,"items":[{"name":"캐노피오","tel":"070-8868-3949","addr":"경기도 화성시 반송동 112-6번지 1층","indutype":"가구 - 기타가구","category":"other"}]},{"lat":"37.194332612","long":"127.06655201","imageIndex":17,"items":[{"name":"캐슬금속철물","tel":"031-8015-1902","addr":"경기도 화성시 반송동 145-5번지 1층","indutype":"건축자재 - 목재·석재·철물","category":"other"}]},{"lat":"37.207913219","long":"127.06281215","imageIndex":17,"items":[{"name":"켄과콩나무","tel":"031-613-5790","addr":"경기도 화성시 반송동 48-1번지 102호","indutype":"문화.취미 - 애완동물","category":"other"}]},{"lat":"37.198110715","long":"127.07730067","imageIndex":17,"items":[{"name":"코노키즈","tel":"070-8125-5253","addr":"경기도 화성시 반송동 114-3번지 1층","indutype":"의류 - 정장","category":"other"}]},{"lat":"37.208298774","long":"127.06643983","imageIndex":17,"items":[{"name":"퀸제이","tel":"","addr":"경기도 화성시 반송동 22-5번지 1층 일부","indutype":"의류 - 정장","category":"other"}]},{"lat":"37.195523041","long":"127.07994499","imageIndex":17,"items":[{"name":"큐앤아이 (본점)","tel":"031-8015-1844","addr":"경기도 화성시 반송동 128-13번지","indutype":"의류 - 단체복","category":"other"},{"name":"큐앤아이 자수","tel":"031-8015-1844","addr":"경기도 화성시 반송동 128-13번지 1층","indutype":"의류 - 단체복","category":"other"}]},{"lat":"37.194723154","long":"127.07674546","imageIndex":17,"items":[{"name":"크린토피아","tel":"031-613-4449","addr":"경기도 화성시 반송동 222 나루마을한화우림단지상가 106","indutype":"수리서비스 - 세탁소","category":"other"},{"name":"크린토피아동탄신도한화점","tel":"031-613-4449","addr":"경기도 화성시 반송동 222 나루마을한화우림단지 상가-106","indutype":"수리서비스 - 세탁소","category":"other"}]},{"lat":"37.192917724","long":"127.06702387","imageIndex":17,"items":[{"name":"크린토피아 (동탄새강마을점)","tel":"031-8003-4902","addr":"경기도 화성시 반송동 154-3번지","indutype":"수리서비스 - 세탁소","category":"other"}]},{"lat":"37.207857411","long":"127.0661691","imageIndex":17,"items":[{"name":"크린토피아동탄한빛마을점","tel":"031-613-8234","addr":"경기도 화성시 반송동 22-9번지 1층 101호","indutype":"수리서비스 - 세탁소","category":"other"}]},{"lat":"37.210381642","long":"127.06363648","imageIndex":17,"items":[{"name":"크린토피아화성반송점","tel":"031-8015-1167","addr":"경기도 화성시 반송동 36-7번지 1층 101호","indutype":"수리서비스 - 세탁소","category":"other"}]},{"lat":"37.202327709","long":"127.06094914","imageIndex":17,"items":[{"name":"클린코리아","tel":"031-8003-7878","addr":"경기도 화성시 반송동 67-12번지 102호","indutype":"용역 서비스 - 종합용역","category":"other"}]},{"lat":"37.210443627","long":"127.06572064","imageIndex":17,"items":[{"name":"토이25","tel":"070-7519-8231","addr":"경기도 화성시 반송동 10-5번지 1층103,104","indutype":"신변잡화 - 기타잡화","category":"other"}]},{"lat":"37.207166056","long":"127.06141471","imageIndex":17,"items":[{"name":"트랙3","tel":"031-613-3718","addr":"경기도 화성시 반송동 50-4번지 101호","indutype":"의류 - 정장","category":"other"}]},{"lat":"37.201221722","long":"127.07333877","imageIndex":17,"items":[{"name":"티박스클럽","tel":"031-8003-4653","addr":"경기도 화성시 반송동 106-2번지 화성동탄JO프라자 7층","indutype":"레져용품 - 골프용품 전문점","category":"other"}]},{"lat":"37.206499382","long":"127.06122269","imageIndex":17,"items":[{"name":"티파니","tel":"070-4226-9902","addr":"경기도 화성시 반송동 52-14번지","indutype":"의류 - 정장","category":"other"}]},{"lat":"37.207967423","long":"127.06253057","imageIndex":17,"items":[{"name":"파크애비뉴","tel":"070-8249-0823","addr":"경기도 화성시 반송동 47-3번지 102호","indutype":"신변잡화 - 기타잡화","category":"other"}]},{"lat":"37.193026207","long":"127.06635945","imageIndex":17,"items":[{"name":"파티걸 이벤트가이","tel":"031-111-1111","addr":"경기도 화성시 반송동 151-7번지","indutype":"용역 서비스 - 종합용역","category":"other"}]},{"lat":"37.206634427","long":"127.06144809","imageIndex":17,"items":[{"name":"퍼스트온 스포츠(FirstOn Sports)","tel":"031-1661-9612","addr":"경기도 화성시 반송동 52-6번지 1층","indutype":"레져용품 - 스포츠·레져용품","category":"other"}]},{"lat":"37.201940455","long":"127.06055459","imageIndex":17,"items":[{"name":"포그미","tel":"031-8003-7231","addr":"경기도 화성시 반송동 69-8번지","indutype":"직물 - 침구·수예점","category":"other"}]},{"lat":"37.209660783","long":"127.06369223","imageIndex":17,"items":[{"name":"포튜나제이(FORTUNA J)","tel":"031-8003-8370","addr":"경기도 화성시 반송동 35-4번지 1층","indutype":"문화.취미 - 화원","category":"other"}]},{"lat":"37.191439577","long":"127.06783352","imageIndex":17,"items":[{"name":"푸른디자인","tel":"031-487-2800","addr":"경기도 화성시 반송동 158-8번지 1층","indutype":"건축자재 - 인테리어전문","category":"other"}]},{"lat":"37.198993542","long":"127.07760566","imageIndex":17,"items":[{"name":"플라워미립","tel":"031-8003-7565","addr":"경기도 화성시 반송동 112-1번지","indutype":"문화.취미 - 화원","category":"other"}]},{"lat":"37.207965493","long":"127.06624804","imageIndex":17,"items":[{"name":"플로앤드 플라워","tel":"031-000-0000","addr":"경기도 화성시 반송동 22-8번지 102호","indutype":"문화.취미 - 화원","category":"other"}]},{"lat":"37.202498773","long":"127.06121961","imageIndex":17,"items":[{"name":"필트로스 코리아","tel":"031-111-1111","addr":"경기도 화성시 반송동 67-3번지 103호","indutype":"서적문구 - 과학기자재","category":"other"}]},{"lat":"37.203273638","long":"127.06127653","imageIndex":17,"items":[{"name":"하이진주","tel":"070-8805-2626","addr":"경기도 화성시 반송동 63-3번지","indutype":"의류 - 정장","category":"other"}]},{"lat":"37.208443247","long":"127.06586543","imageIndex":17,"items":[{"name":"한국문화센터(화성)","tel":"031-8003-1141","addr":"경기도 화성시 반송동 25-4번지 1층","indutype":"직물 - 침구·수예점","category":"other"}]},{"lat":"37.211164955","long":"127.06477493","imageIndex":17,"items":[{"name":"한샘동탄키친하우스","tel":"031-613-6220","addr":"경기도 화성시 반송동 2-9번지 상가 101호","indutype":"주방용구 - 주방용구","category":"other"}]},{"lat":"37.210660603","long":"127.06433516","imageIndex":17,"items":[{"name":"한성종합상사주식회사","tel":"031-8015-1632","addr":"경기도 화성시 반송동 5-4번지 1층","indutype":"건축자재 - 기타건축자재","category":"other"}]},{"lat":"37.202859797","long":"127.05996955","imageIndex":17,"items":[{"name":"해법독서논술교실수원화성지사","tel":"070-4148-9823","addr":"경기도 화성시 반송동 65-1번지","indutype":"서적문구 - 일반서적","category":"other"}]},{"lat":"37.198607231","long":"127.07578056","imageIndex":17,"items":[{"name":"향기가게 동탄","tel":"031-613-6355","addr":"경기도 화성시 반송동 117-1번지 1층","indutype":"문화.취미 - 화원","category":"other"}]},{"lat":"37.19641579","long":"127.07883083","imageIndex":17,"items":[{"name":"향운","tel":"070-8968-8860","addr":"경기도 화성시 반송동 123-2번지","indutype":"의류 - 정장","category":"other"}]},{"lat":"37.201714636","long":"127.0616921","imageIndex":17,"items":[{"name":"홍쑤의가죽공예","tel":"070-4111-7479","addr":"경기도 화성시 반송동 71-6번지 102호","indutype":"문화.취미 - 문화취미기타","category":"other"}]},{"lat":"37.203939263","long":"127.06355247","imageIndex":17,"items":[{"name":"화성시파크골프연합회","tel":"031-8003-8550","addr":"경기도 화성시 반송동 59번지","indutype":"회원제형태 - 기타4","category":"other"}]},{"lat":"37.195830539","long":"127.07816571","imageIndex":17,"items":[{"name":"화성철물건재안전","tel":"031-376-3509","addr":"경기도 화성시 반송동 131-7번지 1층","indutype":"건축자재 - 목재·석재·철물","category":"other"}]},{"lat":"37.209742495","long":"127.06247564","imageIndex":17,"items":[{"name":"회아천연염색","tel":"031-377-7113","addr":"경기도 화성시 반송동 39-13번지","indutype":"직물 - 옷감·직물","category":"other"}]},{"lat":"37.196830906","long":"127.0778288","imageIndex":17,"items":[{"name":"휴먼클리닝","tel":"031-8058-7336","addr":"경기도 화성시 반송동 122-11번지","indutype":"수리서비스 - 세탁소","category":"other"}]}]