[{"lat":"37.744700314","long":"126.80922974","imageIndex":7,"items":[{"name":"감동이있는허브다이어트","tel":"031-362-6000","addr":"경기도 파주시 조리읍 봉일천리 224-2번지","indutype":"건강식품 - 기타건강식품","category":"food"}]},{"lat":"37.743093682","long":"126.80745265","imageIndex":7,"items":[{"name":"고향건강촌","tel":"031-947-4385","addr":"경기도 파주시 조리읍 봉일천리 166-12","indutype":"건강식품 - 인삼제품","category":"food"}]},{"lat":"37.742616817","long":"126.80783966","imageIndex":7,"items":[{"name":"광일제분소","tel":"031-941-5828","addr":"경기도 파주시 조리읍 봉일천리 142-23","indutype":"음료식품 - 제과점","category":"food"}]},{"lat":"37.742090599","long":"126.8110972","imageIndex":7,"items":[{"name":"금손마트","tel":"031-1111-1111","addr":"경기도 파주시 조리읍 봉일천리 137-2번지","indutype":"음료식품 - 기타음료식품","category":"food"}]},{"lat":"37.744313222","long":"126.80942362","imageIndex":7,"items":[{"name":"기천한우직판장","tel":"031-944-6463","addr":"경기도 파주시 조리읍 봉일천리 210-56번지","indutype":"음료식품 - 정육점","category":"food"},{"name":"회포장전문점","tel":"031-942-8844","addr":"경기도 파주시 조리읍 봉일천리 210-56번지","indutype":"음료식품 - 기타음료식품","category":"food"}]},{"lat":"37.743703646","long":"126.80583995","imageIndex":7,"items":[{"name":"낙원복떡방앗간","tel":"031-944-7117","addr":"경기도 파주시 조리읍 봉일천리 169-14번지","indutype":"음료식품 - 제과점","category":"food"}]},{"lat":"37.743262204","long":"126.81132109","imageIndex":7,"items":[{"name":"남양유업","tel":"070-8154-8206","addr":"경기도 파주시 조리읍 봉일천리 125-22번지","indutype":"음료식품 - 기타음료식품","category":"food"}]},{"lat":"37.743398213","long":"126.80637401","imageIndex":7,"items":[{"name":"두부한모","tel":"02-945-7345","addr":"경기도 파주시 조리읍 봉일천리 170-3번지","indutype":"음료식품 - 기타음료식품","category":"food"}]},{"lat":"37.743734596","long":"126.80819979","imageIndex":7,"items":[{"name":"뚜레쥬르 파주봉일천(2)","tel":"031-949-9589","addr":"경기도 파주시 조리읍 봉일천리 209-3번지","indutype":"음료식품 - 제과점","category":"food"}]},{"lat":"37.744012482","long":"126.80734812","imageIndex":7,"items":[{"name":"라벨지","tel":"031-111-1111","addr":"경기도 파주시 조리읍 봉일천리 203-6번지","indutype":"음료식품 - 제과점","category":"food"}]},{"lat":"37.746093074","long":"126.80697957","imageIndex":7,"items":[{"name":"미림식품","tel":"031-944-9602","addr":"경기도 파주시 조리읍 봉일천리 183-31번지","indutype":"음료식품 - 기타음료식품","category":"food"}]},{"lat":"37.743400325","long":"126.80764472","imageIndex":7,"items":[{"name":"베스킨라빈스(봉일천점)","tel":"031-948-7748","addr":"경기도 파주시 조리읍 봉일천리 166-5번지","indutype":"음료식품 - 제과점","category":"food"}]},{"lat":"37.741069522","long":"126.82648414","imageIndex":7,"items":[{"name":"비앤씨매니아 파주점","tel":"070-7430-8837","addr":"경기도 파주시 조리읍 봉일천리 64-36번지","indutype":"음료식품 - 기타음료식품","category":"food"}]},{"lat":"37.738453395","long":"126.82425539","imageIndex":7,"items":[{"name":"산들푸드","tel":"","addr":"경기도 파주시 조리읍 봉일천리 62-164번지","indutype":"음료식품 - 기타음료식품","category":"food"}]},{"lat":"37.742101071","long":"126.80651358","imageIndex":7,"items":[{"name":"스낵코리아","tel":"","addr":"경기도 파주시 조리읍 봉일천리 156-1번지 성원아파트","indutype":"음료식품 - 기타음료식품","category":"food"}]},{"lat":"37.746786994","long":"126.80709121","imageIndex":7,"items":[{"name":"아모르푸르타","tel":"","addr":"경기도 파주시 조리읍 봉일천리 183-9번지","indutype":"음료식품 - 농·축·수산품","category":"food"}]},{"lat":"37.742924975","long":"126.80895072","imageIndex":7,"items":[{"name":"열린축산","tel":"031-941-3553","addr":"경기도 파주시 조리읍 봉일천리 141-39번지","indutype":"음료식품 - 정육점","category":"food"}]},{"lat":"37.743560422","long":"126.80639627","imageIndex":7,"items":[{"name":"우리농산물","tel":"031-000-0000","addr":"경기도 파주시 조리읍 봉일천리 169-22번지","indutype":"음료식품 - 농·축·수산품","category":"food"}]},{"lat":"37.746810692","long":"126.8105404","imageIndex":7,"items":[{"name":"우리동네 아이스크림 할인점","tel":"031-953-2923","addr":"경기도 파주시 조리읍 봉일천리 262-23번지","indutype":"음료식품 - 기타음료식품","category":"food"}]},{"lat":"37.735760937","long":"126.82518077","imageIndex":7,"items":[{"name":"일산유통","tel":"070-4200-2303","addr":"경기도 파주시 조리읍 봉일천리 13-15번지","indutype":"음료식품 - 기타음료식품","category":"food"}]},{"lat":"37.743039079","long":"126.80712377","imageIndex":7,"items":[{"name":"장군생고기정육점","tel":"031-944-1839","addr":"경기도 파주시 조리읍 봉일천리 166-21","indutype":"음료식품 - 정육점","category":"food"}]},{"lat":"37.743343323","long":"126.80587494","imageIndex":7,"items":[{"name":"전화하면 갑니데이","tel":"031-944-9288","addr":"경기도 파주시 조리읍 봉일천리 165-10번지","indutype":"음료식품 - 기타음료식품","category":"food"}]},{"lat":"37.743013573","long":"126.80804284","imageIndex":7,"items":[{"name":"종로떡집","tel":"031-944-1002","addr":"경기도 파주시 조리읍 봉일천리 142-3번지 B","indutype":"음료식품 - 제과점","category":"food"}]},{"lat":"37.74234247","long":"126.80540108","imageIndex":7,"items":[{"name":"주식회사 웰빙사랑미","tel":"031-947-4520","addr":"경기도 파주시 조리읍 봉일천리 157-19번지","indutype":"음료식품 - 농·축·수산품","category":"food"}]},{"lat":"37.743174165","long":"126.80708938","imageIndex":7,"items":[{"name":"착한고깃간","tel":"031-945-0801","addr":"경기도 파주시 조리읍 봉일천리 166-20번지","indutype":"음료식품 - 정육점","category":"food"}]},{"lat":"37.745536553","long":"126.80822911","imageIndex":7,"items":[{"name":"참조은건강원","tel":"031-944-8475","addr":"경기도 파주시 조리읍 봉일천리 186-15번지","indutype":"건강식품 - 기타건강식품","category":"food"}]},{"lat":"37.743065881","long":"126.80698755","imageIndex":7,"items":[{"name":"통일로흑염소","tel":"031-947-1777","addr":"경기도 파주시 조리읍 봉일천리 166-22번지","indutype":"건강식품 - 기타건강식품","category":"food"}]},{"lat":"37.743149222","long":"126.80834881","imageIndex":7,"items":[{"name":"파리바게뜨","tel":"031-943-8284","addr":"경기도 파주시 조리읍 봉일천리 142-2번지","indutype":"음료식품 - 제과점","category":"food"}]},{"lat":"37.742031406","long":"126.80796599","imageIndex":7,"items":[{"name":"하나양봉","tel":"031-943-7391","addr":"경기도 파주시 조리읍 봉일천리 147-1번지 동문아파트","indutype":"회원제형태 - 건강식품","category":"food"}]},{"lat":"37.74275969","long":"126.80706778","imageIndex":7,"items":[{"name":"하이축산","tel":"031-731-9709","addr":"경기도 파주시 조리읍 봉일천리 155-5번지","indutype":"음료식품 - 정육점","category":"food"}]},{"lat":"37.735339601","long":"126.82658849","imageIndex":7,"items":[{"name":"할매가","tel":"031-943-2977","addr":"경기도 파주시 조리읍 봉일천리 20-6번지","indutype":"음료식품 - 기타음료식품","category":"food"}]},{"lat":"37.74624159","long":"126.80962284","imageIndex":7,"items":[{"name":"햇살유통","tel":"","addr":"경기도 파주시 조리읍 봉일천리 236-32번지 한신타운빌리지","indutype":"음료식품 - 기타음료식품","category":"food"}]},{"lat":"37.743929225","long":"126.80604358","imageIndex":7,"items":[{"name":"현대건강원","tel":"031-944-0368","addr":"경기도 파주시 조리읍 봉일천리 204-19번지","indutype":"건강식품 - 기타건강식품","category":"food"}]},{"lat":"37.742651859","long":"126.80723825","imageIndex":7,"items":[{"name":"홍이네정육점","tel":"031-942-1929","addr":"경기도 파주시 조리읍 봉일천리 146-1번지","indutype":"음료식품 - 정육점","category":"food"}]}]