[{"lat":"37.008277318","long":"127.27065845","imageIndex":4,"items":[{"name":"1016 마카롱스튜디오","tel":"","addr":"경기도 안성시 대천동 27-2번지","indutype":"일반휴게음식 - 서양음식","category":"restaurant"},{"name":"경성술집","tel":"070-5121-6771","addr":"경기도 안성시 대천동 27-2번지 2층","indutype":"일반휴게음식 - 주점","category":"restaurant"}]},{"lat":"37.008333885","long":"127.26954633","imageIndex":4,"items":[{"name":"bhc안성중앙점","tel":"031-676-2030","addr":"경기도 안성시 대천동 122","indutype":"일반휴게음식 - 스넥","category":"restaurant"}]},{"lat":"37.008743761","long":"127.27159264","imageIndex":4,"items":[{"name":"ㅎㅎ슬라임","tel":"031-675-8005","addr":"경기도 안성시 대천동 1번지","indutype":"일반휴게음식 - 서양음식","category":"restaurant"}]},{"lat":"37.007637008","long":"127.27090338","imageIndex":4,"items":[{"name":"가고싶은 곱창집","tel":"031-673-8818","addr":"경기도 안성시 대천동 54번지","indutype":"일반휴게음식 - 일반한식","category":"restaurant"},{"name":"공차","tel":"","addr":"경기도 안성시 대천동 54번지 1층","indutype":"일반휴게음식 - 서양음식","category":"restaurant"}]},{"lat":"37.009027726","long":"127.26953752","imageIndex":4,"items":[{"name":"강릉초당순두부","tel":"031-673-3112","addr":"경기도 안성시 대천동 102번지","indutype":"일반휴게음식 - 일반한식","category":"restaurant"}]},{"lat":"37.008497891","long":"127.26873794","imageIndex":4,"items":[{"name":"겐스빌치킨","tel":"031-672-1838","addr":"경기도 안성시 대천동 143번지","indutype":"일반휴게음식 - 일반한식","category":"restaurant"}]},{"lat":"37.00815881","long":"127.27126475","imageIndex":4,"items":[{"name":"굿가이즈","tel":"031-677-8834","addr":"경기도 안성시 대천동 18-3번지 1층","indutype":"일반휴게음식 - 일반한식","category":"restaurant"}]},{"lat":"37.008249982","long":"127.27079318","imageIndex":4,"items":[{"name":"그리다널","tel":"070-4157-8551","addr":"경기도 안성시 대천동 29번지 2층","indutype":"일반휴게음식 - 서양음식","category":"restaurant"}]},{"lat":"37.007970273","long":"127.27096073","imageIndex":4,"items":[{"name":"글래이드펍","tel":"031-673-8033","addr":"경기도 안성시 대천동 38번지 2층","indutype":"일반휴게음식 - 주점","category":"restaurant"},{"name":"커피볶는집체리빈스","tel":"031-676-3755","addr":"경기도 안성시 대천동 38번지 1층","indutype":"일반휴게음식 - 서양음식","category":"restaurant"}]},{"lat":"37.007858692","long":"127.26848854","imageIndex":4,"items":[{"name":"김밥나라","tel":"031-675-4244","addr":"경기도 안성시 대천동 154번지","indutype":"일반휴게음식 - 일반한식","category":"restaurant"}]},{"lat":"37.007911951","long":"127.26884826","imageIndex":4,"items":[{"name":"꼬추포차","tel":"031-677-2208","addr":"경기도 안성시 대천동 151","indutype":"일반휴게음식 - 일반한식","category":"restaurant"}]},{"lat":"37.008222696","long":"127.27090544","imageIndex":4,"items":[{"name":"끌려","tel":"031-674-3748","addr":"경기도 안성시 대천동 30번지 2층","indutype":"일반휴게음식 - 일반한식","category":"restaurant"},{"name":"생과일쥬스전문점 시소","tel":"031-672-9187","addr":"경기도 안성시 대천동 30번지","indutype":"일반휴게음식 - 스넥","category":"restaurant"}]},{"lat":"37.007555405","long":"127.2711278","imageIndex":4,"items":[{"name":"날면돼지","tel":"031-677-1188","addr":"경기도 안성시 대천동 54-2번지 2층","indutype":"일반휴게음식 - 일반한식","category":"restaurant"}]},{"lat":"37.008109428","long":"127.26918601","imageIndex":4,"items":[{"name":"낭만","tel":"031-674-4399","addr":"경기도 안성시 대천동 136-3번지","indutype":"일반휴게음식 - 주점","category":"restaurant"},{"name":"숟가락젓가락","tel":"031-675-0125","addr":"경기도 안성시 대천동 136-3번지 1층","indutype":"일반휴게음식 - 일반한식","category":"restaurant"},{"name":"쏘&맥","tel":"031-673-2025","addr":"경기도 안성시 대천동 136-3번지","indutype":"일반휴게음식 - 주점","category":"restaurant"},{"name":"쏘&맥","tel":"031-676-9543","addr":"경기도 안성시 대천동 136-3번지 지하1층","indutype":"일반휴게음식 - 주점","category":"restaurant"},{"name":"짚동가리쌩주","tel":"031-674-7748","addr":"경기도 안성시 대천동 136-3번지 2층","indutype":"일반휴게음식 - 일반한식","category":"restaurant"}]},{"lat":"37.00805218","long":"127.27060148","imageIndex":4,"items":[{"name":"내일를향하여","tel":"031-673-4585","addr":"경기도 안성시 대천동 41-1번지 1층","indutype":"일반휴게음식 - 주점","category":"restaurant"},{"name":"내일을 향하여","tel":"031-673-4585","addr":"경기도 안성시 대천동 41-1번지","indutype":"일반휴게음식 - 주점","category":"restaurant"}]},{"lat":"37.008663352","long":"127.27128899","imageIndex":4,"items":[{"name":"내혜홀","tel":"031-674-1463","addr":"경기도 안성시 대천동 12번지","indutype":"일반휴게음식 - 일반한식","category":"restaurant"},{"name":"불난술집안성점","tel":"031-672-7455","addr":"경기도 안성시 대천동 12번지","indutype":"일반휴게음식 - 일반한식","category":"restaurant"}]},{"lat":"37.008686937","long":"127.26881725","imageIndex":4,"items":[{"name":"니또내","tel":"031-672-7644","addr":"경기도 안성시 대천동 120번지","indutype":"일반휴게음식 - 일반한식","category":"restaurant"},{"name":"본죽","tel":"031-677-6288","addr":"경기도 안성시 대천동 120번지","indutype":"일반휴게음식 - 일반한식","category":"restaurant"}]},{"lat":"37.008910083","long":"127.26976182","imageIndex":4,"items":[{"name":"달인즉석계란말이김밥","tel":"","addr":"경기도 안성시 대천동 89-1번지","indutype":"일반휴게음식 - 일반한식","category":"restaurant"},{"name":"돈가츠","tel":"031-675-2440","addr":"경기도 안성시 대천동 89-1번지 1층 중앙호","indutype":"일반휴게음식 - 일식·회집","category":"restaurant"},{"name":"수구레집","tel":"031-673-1433","addr":"경기도 안성시 대천동 89-1번지","indutype":"일반휴게음식 - 일반한식","category":"restaurant"}]},{"lat":"37.008467502","long":"127.27023216","imageIndex":4,"items":[{"name":"담너머집","tel":"031-676-8010","addr":"경기도 안성시 대천동 70번지","indutype":"일반휴게음식 - 일반한식","category":"restaurant"}]},{"lat":"37.008999431","long":"127.2700992","imageIndex":4,"items":[{"name":"대박소주방","tel":"031-671-2203","addr":"경기도 안성시 대천동 67번지","indutype":"일반휴게음식 - 일반한식","category":"restaurant"},{"name":"신전떡볶이","tel":"031-672-5558","addr":"경기도 안성시 대천동 67번지","indutype":"일반휴게음식 - 스넥","category":"restaurant"}]},{"lat":"37.008244486","long":"127.26923142","imageIndex":4,"items":[{"name":"대천동카페#1","tel":"031-673-5060","addr":"경기도 안성시 대천동 136-4번지 1동 1층","indutype":"일반휴게음식 - 서양음식","category":"restaurant"}]},{"lat":"37.008412806","long":"127.27051286","imageIndex":4,"items":[{"name":"돈데이","tel":"031-673-3459","addr":"경기도 안성시 대천동 27번지","indutype":"일반휴게음식 - 일반한식","category":"restaurant"},{"name":"위너","tel":"031-677-2208","addr":"경기도 안성시 대천동 27번지","indutype":"일반휴게음식 - 주점","category":"restaurant"}]},{"lat":"37.008521996","long":"127.27004135","imageIndex":4,"items":[{"name":"두꺼비스넥","tel":"031-675-3039","addr":"경기도 안성시 대천동 72번지 1층 가운데호","indutype":"일반휴게음식 - 스넥","category":"restaurant"},{"name":"두꺼비스넥","tel":"031-673-3039","addr":"경기도 안성시 대천동 72번지 1층","indutype":"일반휴게음식 - 일반한식","category":"restaurant"},{"name":"마리웨일마카롱 경기안성점","tel":"031-675-0251","addr":"경기도 안성시 대천동 72번지","indutype":"일반휴게음식 - 일반한식","category":"restaurant"}]},{"lat":"37.007831358","long":"127.26862327","imageIndex":4,"items":[{"name":"등초마라탕","tel":"031-672-0008","addr":"경기도 안성시 대천동 153-1번지 1층 우측호","indutype":"일반휴게음식 - 중국식","category":"restaurant"}]},{"lat":"37.008443273","long":"127.26898493","imageIndex":4,"items":[{"name":"땡이네포차","tel":"031-671-7774","addr":"경기도 안성시 대천동 139번지","indutype":"일반휴게음식 - 일반한식","category":"restaurant"}]},{"lat":"37.008520933","long":"127.27051324","imageIndex":4,"items":[{"name":"로이&듀크","tel":"070-2332-5447","addr":"경기도 안성시 대천동 26번지","indutype":"일반휴게음식 - 주점","category":"restaurant"}]},{"lat":"37.007492839","long":"127.27090287","imageIndex":4,"items":[{"name":"롯데리아안성중앙점","tel":"031-672-6618","addr":"경기도 안성시 대천동 56번지","indutype":"일반휴게음식 - 서양음식","category":"restaurant"},{"name":"오바","tel":"031-691-8223","addr":"경기도 안성시 대천동 56번지 2층","indutype":"일반휴게음식 - 주점","category":"restaurant"},{"name":"오바","tel":"031-673-5056","addr":"경기도 안성시 대천동 56번지","indutype":"일반휴게음식 - 주점","category":"restaurant"}]},{"lat":"37.008746577","long":"127.2703455","imageIndex":4,"items":[{"name":"마을회관","tel":"031-677-6692","addr":"경기도 안성시 대천동 65-3번지","indutype":"일반휴게음식 - 일반한식","category":"restaurant"}]},{"lat":"37.008053319","long":"127.27009589","imageIndex":4,"items":[{"name":"마초떡볶이 안성점","tel":"031-674-8061","addr":"경기도 안성시 대천동 78번지 2층 전체호","indutype":"일반휴게음식 - 스넥","category":"restaurant"}]},{"lat":"37.008828988","long":"127.26976153","imageIndex":4,"items":[{"name":"맘스터치","tel":"031-674-9245","addr":"경기도 안성시 대천동 90-1번지","indutype":"일반휴게음식 - 서양음식","category":"restaurant"},{"name":"순두네왕만두","tel":"031-671-9333","addr":"경기도 안성시 대천동 90-1번지 1층","indutype":"일반휴게음식 - 일반한식","category":"restaurant"}]},{"lat":"37.008611596","long":"127.27026637","imageIndex":4,"items":[{"name":"맥주콜","tel":"031-674-1253","addr":"경기도 안성시 대천동 69번지 2층","indutype":"일반휴게음식 - 주점","category":"restaurant"},{"name":"명가곱창볶음","tel":"031-672-9533","addr":"경기도 안성시 대천동 69번지","indutype":"일반휴게음식 - 일반한식","category":"restaurant"},{"name":"백채김치찌개","tel":"031-677-1007","addr":"경기도 안성시 대천동 69번지 1동","indutype":"일반휴게음식 - 일반한식","category":"restaurant"}]},{"lat":"37.008359375","long":"127.27023178","imageIndex":4,"items":[{"name":"메가커피 안성명동점","tel":"031-672-3344","addr":"경기도 안성시 대천동 70-3번지 1층","indutype":"일반휴게음식 - 서양음식","category":"restaurant"}]},{"lat":"37.008971209","long":"127.27062717","imageIndex":4,"items":[{"name":"명동닭갈비","tel":"031-671-8919","addr":"경기도 안성시 대천동 7번지","indutype":"일반휴게음식 - 일반한식","category":"restaurant"},{"name":"포크포크","tel":"070-4649-1101","addr":"경기도 안성시 대천동 7번지","indutype":"일반휴게음식 - 일반한식","category":"restaurant"}]},{"lat":"37.00777437","long":"127.26992638","imageIndex":4,"items":[{"name":"명랑핫도그","tel":"031-676-0085","addr":"경기도 안성시 대천동 80-1번지","indutype":"일반휴게음식 - 일반한식","category":"restaurant"}]},{"lat":"37.008583627","long":"127.27068199","imageIndex":4,"items":[{"name":"모모bar","tel":"031-672-7577","addr":"경기도 안성시 대천동 24-1번지 2층","indutype":"일반휴게음식 - 주점","category":"restaurant"},{"name":"카페달리","tel":"","addr":"경기도 안성시 대천동 24-1번지","indutype":"일반휴게음식 - 서양음식","category":"restaurant"},{"name":"탱고탱고","tel":"052-900-6783","addr":"경기도 안성시 대천동 24-1번지 지하1층 1호","indutype":"일반휴게음식 - 일반한식","category":"restaurant"},{"name":"화사랑","tel":"031-677-9294","addr":"경기도 안성시 대천동 24-1번지","indutype":"일반휴게음식 - 주점","category":"restaurant"}]},{"lat":"37.007384026","long":"127.27120585","imageIndex":4,"items":[{"name":"미락원","tel":"031-676-3544","addr":"경기도 안성시 대천동 54-4번지","indutype":"일반휴게음식 - 일반한식","category":"restaurant"}]},{"lat":"37.008079465","long":"127.27048922","imageIndex":4,"items":[{"name":"미스터피자안성점","tel":"031-671-0066","addr":"경기도 안성시 대천동 41번지","indutype":"일반휴게음식 - 서양음식","category":"restaurant"}]},{"lat":"37.008745386","long":"127.27087356","imageIndex":4,"items":[{"name":"바다고을","tel":"031-671-6282","addr":"경기도 안성시 대천동 9번지","indutype":"일반휴게음식 - 일반한식","category":"restaurant"},{"name":"불날개","tel":"031-676-5574","addr":"경기도 안성시 대천동 9번지","indutype":"일반휴게음식 - 주점","category":"restaurant"}]},{"lat":"37.008137895","long":"127.26854569","imageIndex":4,"items":[{"name":"백년주막","tel":"031-674-9647","addr":"경기도 안성시 대천동 155번지","indutype":"일반휴게음식 - 일반한식","category":"restaurant"}]},{"lat":"37.008971893","long":"127.27032381","imageIndex":4,"items":[{"name":"별별족닭","tel":"031-676-4506","addr":"경기도 안성시 대천동 65-1번지","indutype":"일반휴게음식 - 일반한식","category":"restaurant"}]},{"lat":"37.007493219","long":"127.27073434","imageIndex":4,"items":[{"name":"본가황제오리","tel":"031-677-5445","addr":"경기도 안성시 대천동 57번지","indutype":"일반휴게음식 - 일반한식","category":"restaurant"}]},{"lat":"37.007881232","long":"127.27048853","imageIndex":4,"items":[{"name":"부에노","tel":"031-674-0752","addr":"경기도 안성시 대천동 46번지","indutype":"일반휴게음식 - 서양음식","category":"restaurant"},{"name":"엉터리생고기(안성점)","tel":"031-677-8889","addr":"경기도 안성시 대천동 46번지 1층","indutype":"일반휴게음식 - 일반한식","category":"restaurant"}]},{"lat":"37.008465728","long":"127.27101864","imageIndex":4,"items":[{"name":"북촌삼대갈비","tel":"031-673-8110","addr":"경기도 안성시 대천동 21번지 현대빌딩 1층","indutype":"일반휴게음식 - 일반한식","category":"restaurant"}]},{"lat":"37.007942556","long":"127.27126399","imageIndex":4,"items":[{"name":"불타는닭갈비","tel":"031-674-3695","addr":"경기도 안성시 대천동 36번지","indutype":"일반휴게음식 - 일반한식","category":"restaurant"},{"name":"이안","tel":"031-671-5494","addr":"경기도 안성시 대천동 36번지","indutype":"일반휴게음식 - 서양음식","category":"restaurant"},{"name":"투존치킨 안성대천점","tel":"031-677-2242","addr":"경기도 안성시 대천동 36번지 2층","indutype":"일반휴게음식 - 일반한식","category":"restaurant"}]},{"lat":"37.008772799","long":"127.27070513","imageIndex":4,"items":[{"name":"비바청춘","tel":"031-674-0722","addr":"경기도 안성시 대천동 9-1번지 1층","indutype":"일반휴게음식 - 주점","category":"restaurant"},{"name":"오사카블루스","tel":"031-654-7254","addr":"경기도 안성시 대천동 9-1번지","indutype":"일반휴게음식 - 주점","category":"restaurant"}]},{"lat":"37.007555151","long":"127.27124015","imageIndex":4,"items":[{"name":"빨간자전거","tel":"031-671-1188","addr":"경기도 안성시 대천동 54-3번지","indutype":"일반휴게음식 - 일반한식","category":"restaurant"},{"name":"빨간자전거","tel":"031-671-1188","addr":"경기도 안성시 대천동 54-3번지","indutype":"일반휴게음식 - 일반한식","category":"restaurant"}]},{"lat":"37.008632546","long":"127.26896312","imageIndex":4,"items":[{"name":"빨계91.2","tel":"031-673-6997","addr":"경기도 안성시 대천동 118번지 1층","indutype":"일반휴게음식 - 일반한식","category":"restaurant"},{"name":"연탄화덕 탄탄구이","tel":"031-677-4566","addr":"경기도 안성시 대천동 118번지","indutype":"일반휴게음식 - 일반한식","category":"restaurant"}]},{"lat":"37.008356611","long":"127.27145645","imageIndex":4,"items":[{"name":"석기정","tel":"031-675-8724","addr":"경기도 안성시 대천동 15번지","indutype":"일반휴게음식 - 일반한식","category":"restaurant"},{"name":"크레마","tel":"","addr":"경기도 안성시 대천동 15번지","indutype":"일반휴게음식 - 일반한식","category":"restaurant"}]},{"lat":"37.00849347","long":"127.27070415","imageIndex":4,"items":[{"name":"숫도령쪽갈비","tel":"031-671-8885","addr":"경기도 안성시 대천동 23번지","indutype":"일반휴게음식 - 일반한식","category":"restaurant"}]},{"lat":"37.008331888","long":"127.27043393","imageIndex":4,"items":[{"name":"신통치킨","tel":"031-671-1251","addr":"경기도 안성시 대천동 27-3번지","indutype":"일반휴게음식 - 스넥","category":"restaurant"}]},{"lat":"37.007966693","long":"127.26854509","imageIndex":4,"items":[{"name":"아산만 수산","tel":"031-673-4000","addr":"경기도 안성시 대천동 155-5번지","indutype":"일반휴게음식 - 일식·회집","category":"restaurant"}]},{"lat":"37.008604707","long":"127.26932256","imageIndex":4,"items":[{"name":"아이보리","tel":"031-671-1510","addr":"경기도 안성시 대천동 95-2번지 1층 전호","indutype":"일반휴게음식 - 일반한식","category":"restaurant"}]},{"lat":"37.007885925","long":"127.26839875","imageIndex":4,"items":[{"name":"안성보쌈","tel":"031-671-2353","addr":"경기도 안성시 대천동 155-4번지","indutype":"일반휴게음식 - 일반한식","category":"restaurant"}]},{"lat":"37.007722098","long":"127.26912848","imageIndex":4,"items":[{"name":"안성중앙로점 빽다방","tel":"031-677-9633","addr":"경기도 안성시 대천동 130-1번지","indutype":"일반휴게음식 - 서양음식","category":"restaurant"},{"name":"안성중앙로점 빽다방","tel":"031-677-9633","addr":"경기도 안성시 대천동 130-1번지","indutype":"일반휴게음식 - 서양음식","category":"restaurant"}]},{"lat":"37.007825469","long":"127.2712411","imageIndex":4,"items":[{"name":"앵글러9","tel":"031-677-3322","addr":"경기도 안성시 대천동 35-2번지","indutype":"일반휴게음식 - 일반한식","category":"restaurant"},{"name":"앵글러9","tel":"031-677-3322","addr":"경기도 안성시 대천동 35-2번지","indutype":"일반휴게음식 - 주점","category":"restaurant"}]},{"lat":"37.009136962","long":"127.26904353","imageIndex":4,"items":[{"name":"언니밥상","tel":"031-671-3526","addr":"경기도 안성시 대천동 108번지 1층","indutype":"일반휴게음식 - 일반한식","category":"restaurant"},{"name":"자매식당","tel":"031-675-1580","addr":"경기도 안성시 대천동 108번지 자매식당","indutype":"일반휴게음식 - 일반한식","category":"restaurant"},{"name":"치킨플러스안성중앙점","tel":"031-671-0515","addr":"경기도 안성시 대천동 108번지","indutype":"일반휴게음식 - 스넥","category":"restaurant"}]},{"lat":"37.007856703","long":"127.26937613","imageIndex":4,"items":[{"name":"엔제리너스커피 안성점","tel":"031-674-4333","addr":"경기도 안성시 대천동 127-1번지 1층","indutype":"일반휴게음식 - 서양음식","category":"restaurant"}]},{"lat":"37.009136534","long":"127.26923453","imageIndex":4,"items":[{"name":"오른발왼발","tel":"031-671-2225","addr":"경기도 안성시 대천동 109번지","indutype":"일반휴게음식 - 일반한식","category":"restaurant"}]},{"lat":"37.008164121","long":"127.26890531","imageIndex":4,"items":[{"name":"왔다 꼬마김밥","tel":"031-675-7377","addr":"경기도 안성시 대천동 147번지 1층","indutype":"일반휴게음식 - 일반한식","category":"restaurant"}]},{"lat":"37.007799148","long":"127.27092642","imageIndex":4,"items":[{"name":"왕조곱창&닭갈비","tel":"031-676-2933","addr":"경기도 안성시 대천동 52-1번지","indutype":"일반휴게음식 - 일반한식","category":"restaurant"}]},{"lat":"37.008883859","long":"127.26940219","imageIndex":4,"items":[{"name":"우리집행국이","tel":"031-675-7611","addr":"경기도 안성시 대천동 100번지 1층","indutype":"일반휴게음식 - 일반한식","category":"restaurant"}]},{"lat":"37.008134338","long":"127.27012988","imageIndex":4,"items":[{"name":"이디야(커피전문점)","tel":"031-677-1235","addr":"경기도 안성시 대천동 77번지 1층","indutype":"일반휴게음식 - 서양음식","category":"restaurant"},{"name":"이디야(커피전문점)","tel":"031-677-1235","addr":"경기도 안성시 대천동 77번지","indutype":"일반휴게음식 - 서양음식","category":"restaurant"},{"name":"피라미드바","tel":"","addr":"경기도 안성시 대천동 77번지","indutype":"일반휴게음식 - 주점","category":"restaurant"}]},{"lat":"37.009271693","long":"127.26923501","imageIndex":4,"items":[{"name":"존맛탱 생고기 앤 단지화덕막창","tel":"031-677-6951","addr":"경기도 안성시 대천동 105번지 1층","indutype":"일반휴게음식 - 일반한식","category":"restaurant"}]},{"lat":"37.008133731","long":"127.27039953","imageIndex":4,"items":[{"name":"쥬씨","tel":"070-4226-1028","addr":"경기도 안성시 대천동 42번지","indutype":"일반휴게음식 - 서양음식","category":"restaurant"},{"name":"혜화동돈까스극장","tel":"031-673-6605","addr":"경기도 안성시 대천동 42번지 2층","indutype":"일반휴게음식 - 일반한식","category":"restaurant"}]},{"lat":"37.008800135","long":"127.2705704","imageIndex":4,"items":[{"name":"청년다방 안성중앙로점","tel":"031-673-3330","addr":"경기도 안성시 대천동 8번지","indutype":"일반휴게음식 - 스넥","category":"restaurant"}]},{"lat":"37.009217074","long":"127.269482","imageIndex":4,"items":[{"name":"초당 순두부","tel":"031-673-3118","addr":"경기도 안성시 대천동 104번지","indutype":"일반휴게음식 - 일반한식","category":"restaurant"}]},{"lat":"37.008610963","long":"127.27054726","imageIndex":4,"items":[{"name":"친절한 금순씨네","tel":"031-673-8253","addr":"경기도 안성시 대천동 25번지","indutype":"일반휴게음식 - 주점","category":"restaurant"}]},{"lat":"37.008051825","long":"127.27075877","imageIndex":4,"items":[{"name":"카페니즈","tel":"031-672-9911","addr":"경기도 안성시 대천동 39번지","indutype":"일반휴게음식 - 서양음식","category":"restaurant"}]},{"lat":"37.007880548","long":"127.27079188","imageIndex":4,"items":[{"name":"커피나무","tel":"031-547-7300","addr":"경기도 안성시 대천동 52번지","indutype":"일반휴게음식 - 일반한식","category":"restaurant"}]},{"lat":"37.00857823","long":"127.26907529","imageIndex":4,"items":[{"name":"쿤스트하우스","tel":"031-676-3461","addr":"경기도 안성시 대천동 117번지 2층","indutype":"일반휴게음식 - 주점","category":"restaurant"}]},{"lat":"37.007357249","long":"127.2710934","imageIndex":4,"items":[{"name":"파스타스토리","tel":"031-673-3331","addr":"경기도 안성시 대천동 55-1번지 2층","indutype":"일반휴게음식 - 서양음식","category":"restaurant"}]},{"lat":"37.007666041","long":"127.27001588","imageIndex":4,"items":[{"name":"포트오브모카","tel":"031-676-2565","addr":"경기도 안성시 대천동 84번지 2층","indutype":"일반휴게음식 - 서양음식","category":"restaurant"}]},{"lat":"37.007665484","long":"127.27026306","imageIndex":4,"items":[{"name":"프리카페","tel":"031-673-7892","addr":"경기도 안성시 대천동 61번지","indutype":"일반휴게음식 - 서양음식","category":"restaurant"}]},{"lat":"37.008159191","long":"127.27109622","imageIndex":4,"items":[{"name":"피카소","tel":"031-674-3839","addr":"경기도 안성시 대천동 30-3번지","indutype":"일반휴게음식 - 주점","category":"restaurant"}]},{"lat":"37.007494409","long":"127.27020628","imageIndex":4,"items":[{"name":"한스델리 안성점","tel":"031-675-5212","addr":"경기도 안성시 대천동 64번지 2층","indutype":"일반휴게음식 - 일반한식","category":"restaurant"}]},{"lat":"37.007717469","long":"127.27118455","imageIndex":4,"items":[{"name":"함흥식당","tel":"031-671-2205","addr":"경기도 안성시 대천동 35-5번지","indutype":"일반휴게음식 - 일반한식","category":"restaurant"}]},{"lat":"37.008912","long":"127.26890792","imageIndex":4,"items":[{"name":"형제순대국집","tel":"031-674-8700","addr":"경기도 안성시 대천동 114번지 1층","indutype":"일반휴게음식 - 일반한식","category":"restaurant"}]}]