[{"lat":"37.429299707","long":"126.99175327","imageIndex":0,"items":[{"name":"(주)메디쿠스","tel":"02-503-5576","addr":"경기도 과천시 주암동 179-23, 1층","indutype":"도소매 - 자동차부품","category":"car"}]},{"lat":"37.453128856","long":"127.02900028","imageIndex":0,"items":[{"name":"(주)메디쿠스","tel":"02-503-5576","addr":"경기도 과천시 주암동 179-23번지 1층","indutype":"자동차정비 유지 - 자동차부품","category":"car"}]},{"lat":"37.456246281","long":"127.02915959","imageIndex":0,"items":[{"name":"(주)한일오토","tel":"02-502-6026","addr":"경기도 과천시 주암동 158-5번지","indutype":"자동차정비 유지 - 자동차정비","category":"car"}]},{"lat":"37.456605779","long":"127.03294597","imageIndex":0,"items":[{"name":"3M카리폼","tel":"","addr":"경기도 과천시 주암동 104번지 1동","indutype":"자동차정비 유지 - 자동차부품","category":"car"},{"name":"SMART WORLD","tel":"070-4233-4231","addr":"경기도 과천시 주암동 104번지 지하","indutype":"자동차정비 유지 - 자동차부품","category":"car"}]},{"lat":"37.458407601","long":"127.03363615","imageIndex":0,"items":[{"name":"G모터스","tel":"02-2057-3798","addr":"경기도 과천시 주암동 19-12번지","indutype":"자동차정비 유지 - 자동차정비","category":"car"}]},{"lat":"37.454354254","long":"127.02883117","imageIndex":0,"items":[{"name":"JC모터스","tel":"02-502-7460","addr":"경기도 과천시 주암동 172-2번지 지층","indutype":"자동차정비 유지 - 자동차정비","category":"car"},{"name":"주식회사 씨아이티365","tel":"02-6245-1259","addr":"경기도 과천시 주암동 172-2번지 3층","indutype":"자동차정비 유지 - 자동차부품","category":"car"}]},{"lat":"37.452218895","long":"127.02877393","imageIndex":0,"items":[{"name":"THE STAR","tel":"02-3418-1119","addr":"경기도 과천시 주암동 181번지","indutype":"자동차정비 유지 - 자동차정비","category":"car"}]},{"lat":"37.45721851","long":"127.03274278","imageIndex":0,"items":[{"name":"그리핀(GRIFFIN)","tel":"02-3462-5941","addr":"경기도 과천시 주암동 102번지","indutype":"자동차정비 유지 - 자동차부품","category":"car"},{"name":"그리핀(GRIFFIN)","tel":"02-3462-5941","addr":"경기도 과천시 주암동 102번지","indutype":"자동차정비 유지 - 자동차정비","category":"car"},{"name":"그리핀(GRIFFIN)","tel":"02-3462-5941","addr":"경기도 과천시 주암동 102번지 외","indutype":"자동차정비 유지 - 자동차정비","category":"car"},{"name":"그리핀(GRIFFIN)","tel":"02-3462-5941","addr":"경기도 과천시 주암동 102번지 외","indutype":"자동차정비 유지 - 자동차정비","category":"car"}]},{"lat":"37.437136962","long":"127.02463318","imageIndex":0,"items":[{"name":"대명오토","tel":"02-507-0933","addr":"경기도 과천시 주암동 104-1","indutype":"도소매 - 자동차부품","category":"car"}]},{"lat":"37.456741014","long":"127.03260696","imageIndex":0,"items":[{"name":"대명오토","tel":"02-507-0933","addr":"경기도 과천시 주암동 104-1번지","indutype":"자동차정비 유지 - 자동차정비","category":"car"}]},{"lat":"37.446381663","long":"127.0222175","imageIndex":0,"items":[{"name":"모터피트","tel":"02-515-1483","addr":"경기도 과천시 주암동 440-1번지","indutype":"자동차정비 유지 - 자동차시트·타이어","category":"car"},{"name":"폴포지션모터스포츠","tel":"02-503-8209","addr":"경기도 과천시 주암동 440-1번지","indutype":"자동차정비 유지 - 자동차부품","category":"car"}]},{"lat":"37.456516379","long":"127.03005256","imageIndex":0,"items":[{"name":"샤인아트 (Shine Art)","tel":"02-3678-1023","addr":"경기도 과천시 주암동 127-13번지 완산빌딩 지하","indutype":"자동차정비 유지 - 카인테리어","category":"car"},{"name":"샤인아트(Shine Art)","tel":"02-504-5989","addr":"경기도 과천시 주암동 127-13번지 지하1층 완산빌딩","indutype":"자동차정비 유지 - 카인테리어","category":"car"},{"name":"클럽M","tel":"02-503-4289","addr":"경기도 과천시 주암동 127-13번지 완산빌딩 1층","indutype":"자동차정비 유지 - 카인테리어","category":"car"}]},{"lat":"37.455912784","long":"127.02972458","imageIndex":0,"items":[{"name":"세계 얼라이먼트","tel":"02-507-7964","addr":"경기도 과천시 주암동 162번지","indutype":"자동차정비 유지 - 자동차정비","category":"car"}]},{"lat":"37.4572456984","long":"127.0321098553","imageIndex":0,"items":[{"name":"스포튠","tel":"02-504-0107","addr":"경기도 과천시 주암동 105-57번지","indutype":"서비스 - 자동차수리","category":"car"}]},{"lat":"37.452525193","long":"127.02896616","imageIndex":0,"items":[{"name":"신창케미코","tel":"02-3418-1222","addr":"경기도 과천시 주암동 179-7 주암빌리지 2층","indutype":"자동차정비 유지 - 자동차부품","category":"car"}]},{"lat":"37.428831122","long":"126.99110935","imageIndex":0,"items":[{"name":"씨앤케이모터스","tel":"02-459-0118","addr":"경기도 과천시 주암동 17번지","indutype":"도소매 - 자동차정비","category":"car"}]},{"lat":"37.459074448","long":"127.03321823","imageIndex":0,"items":[{"name":"씨앤케이모터스 (CnKMotors)","tel":"02-459-0118","addr":"경기도 과천시 주암동 17번지","indutype":"자동차정비 유지 - 자동차정비","category":"car"}]},{"lat":"37.446823043","long":"127.02288436","imageIndex":0,"items":[{"name":"아메리카","tel":"02-3418-8815","addr":"경기도 과천시 주암동 438번지 2층","indutype":"자동차정비 유지 - 자동차부품","category":"car"}]},{"lat":"37.455633443","long":"127.02986011","imageIndex":0,"items":[{"name":"에이지모터스","tel":"02-2636-3307","addr":"경기도 과천시 주암동 163번지 1층","indutype":"자동차정비 유지 - 자동차정비","category":"car"}]},{"lat":"37.450302371","long":"127.01021651","imageIndex":0,"items":[{"name":"엠모터스","tel":"02-503-8207","addr":"경기도 과천시 주암동 108-3번지","indutype":"도소매 - 자동차정비","category":"car"}]},{"lat":"37.457020887","long":"127.03027879","imageIndex":0,"items":[{"name":"엠모터스(M-MOTORS)","tel":"02-503-8206","addr":"경기도 과천시 주암동 108-3번지","indutype":"자동차정비 유지 - 자동차정비","category":"car"},{"name":"티앤에이 모터스","tel":"02-414-1333","addr":"경기도 과천시 주암동 108-3번지","indutype":"자동차정비 유지 - 자동차시트·타이어","category":"car"}]},{"lat":"37.428524816","long":"126.99147094","imageIndex":0,"items":[{"name":"엠엔모터스(MN MOTORS)","tel":"02-504-0118","addr":"경기도 과천시 주암동 106-1번지 1층","indutype":"서비스 - 자동차부분정비업","category":"car"}]},{"lat":"37.45730004","long":"127.03094573","imageIndex":0,"items":[{"name":"엠엔모터스(MN MOTORS)","tel":"02-6053-9553","addr":"경기도 과천시 주암동 106-1번지 1층","indutype":"자동차정비 유지 - 자동차정비","category":"car"}]},{"lat":"37.463210077","long":"127.03305035","imageIndex":0,"items":[{"name":"엠지(MG)서비스","tel":"070-5022-4846","addr":"경기도 과천시 주암동 64-11번지 태우빌라 B01호","indutype":"자동차정비 유지 - 세차장","category":"car"}]},{"lat":"37.445858933","long":"127.02311011","imageIndex":0,"items":[{"name":"영농조합법인삼부골","tel":"02-502-5056","addr":"경기도 과천시 주암동 444-1번지","indutype":"자동차정비 유지 - 주차장","category":"car"}]},{"lat":"37.449463081","long":"127.02225219","imageIndex":0,"items":[{"name":"예일모터스(Yeilmotors)","tel":"02-503-7838","addr":"경기도 과천시 주암동 410-1번지","indutype":"자동차정비 유지 - 자동차시트·타이어","category":"car"},{"name":"클럽오투(CLUB 02)","tel":"02-503-7838","addr":"경기도 과천시 주암동 410-1번지","indutype":"자동차정비 유지 - 자동차부품","category":"car"}]},{"lat":"37.454489225","long":"127.02963366","imageIndex":0,"items":[{"name":"오버캠(OverCam)","tel":"070-8874-2944","addr":"경기도 과천시 주암동 170-6번지 수입차정비업소","indutype":"자동차정비 유지 - 자동차부품","category":"car"}]},{"lat":"37.454912542","long":"127.03030063","imageIndex":0,"items":[{"name":"주암경정비","tel":"02-502-2160","addr":"경기도 과천시 주암동 167-4번지","indutype":"자동차정비 유지 - 자동차정비","category":"car"}]},{"lat":"37.456912055","long":"127.03319475","imageIndex":0,"items":[{"name":"지니홉디자인","tel":"02-502-1023","addr":"경기도 과천시 주암동 32번지","indutype":"자동차정비 유지 - 자동차시트·타이어","category":"car"}]},{"lat":"37.456660437","long":"127.0304934","imageIndex":0,"items":[{"name":"차사랑","tel":"02-502-6669","addr":"경기도 과천시 주암동 108-7번지","indutype":"자동차정비 유지 - 자동차정비","category":"car"}]},{"lat":"37.426749933","long":"126.9924993","imageIndex":0,"items":[{"name":"케이엔케이(조아모터스)","tel":"02-529-3877","addr":"경기도 과천시 주암동 7-6번지","indutype":"도소매 - 자동차용품","category":"car"}]},{"lat":"37.460966625","long":"127.03291381","imageIndex":0,"items":[{"name":"케이엔케이(조아모터스)","tel":"02-529-3877","addr":"경기도 과천시 주암동 7-6번지","indutype":"자동차정비 유지 - 자동차부품","category":"car"}]},{"lat":"37.456273135","long":"127.02993945","imageIndex":0,"items":[{"name":"코션(caution)","tel":"02-502-0887","addr":"경기도 과천시 주암동 127-2번지 완산빌딩 1층","indutype":"자동차정비 유지 - 카인테리어","category":"car"}]},{"lat":"37.446823103","long":"127.02252273","imageIndex":0,"items":[{"name":"탑코트TopCoat","tel":"070-4238-8312","addr":"경기도 과천시 주암동 439번지 GTMOTORS","indutype":"자동차정비 유지 - 세차장","category":"car"}]},{"lat":"37.452885568","long":"127.0290793","imageIndex":0,"items":[{"name":"테크텍코리아","tel":"02-409-8209","addr":"경기도 과천시 주암동 179번지","indutype":"자동차정비 유지 - 자동차정비","category":"car"}]},{"lat":"37.454354143","long":"127.02932846","imageIndex":0,"items":[{"name":"페트라모터스","tel":"02-502-3809","addr":"경기도 과천시 주암동 172-1번지 1층","indutype":"자동차정비 유지 - 자동차정비","category":"car"}]},{"lat":"37.45730028","long":"127.02991722","imageIndex":0,"items":[{"name":"홍모터스","tel":"02-3418-2408","addr":"경기도 과천시 주암동 96-4번지","indutype":"자동차정비 유지 - 자동차정비","category":"car"}]},{"lat":"37.458713831","long":"127.03405447","imageIndex":0,"items":[{"name":"휠테크","tel":"02-504-1543","addr":"경기도 과천시 주암동 20-1번지","indutype":"자동차정비 유지 - 자동차시트·타이어","category":"car"}]}]