[{"lat":"37.713179161","long":"126.81126247","imageIndex":17,"items":[{"name":"(사)경기도북부자동차정비사업조합","tel":"031-979-5070","addr":"경기도 고양시 일산동구 설문동 190-2번지","indutype":"","category":"other"},{"name":"(사)경기도북부자동차정비사업조합","tel":"031-979-5070","addr":"경기도 고양시 일산동구 설문동 190-2번지","indutype":"기타 - 비영리/대상","category":"other"},{"name":"농가","tel":"031-932-5775","addr":"경기도 고양시 일산동구 설문동 190-2번지","indutype":"","category":"other"}]},{"lat":"37.725515758","long":"126.80192944","imageIndex":17,"items":[{"name":"(주)가람통상 설문동지점","tel":"070-4282-2462","addr":"경기도 고양시 일산동구 설문동 576-4번지","indutype":"의류 - 정장","category":"other"}]},{"lat":"37.719674865","long":"126.79012676","imageIndex":17,"items":[{"name":"(주)거성모터스","tel":"031-976-0061","addr":"경기도 고양시 일산동구 설문동 744-3번지","indutype":"","category":"other"},{"name":"21세기중고차스카이세차광택","tel":"031-977-0121","addr":"경기도 고양시 일산동구 설문동 744-3번지","indutype":"","category":"other"},{"name":"가포모터스","tel":"031-924-0099","addr":"경기도 고양시 일산동구 설문동 744-3번지","indutype":"","category":"other"},{"name":"제이엠모터스 (JM)","tel":"031-976-7715","addr":"경기도 고양시 일산동구 설문동 744-3번지","indutype":"","category":"other"},{"name":"주식회사 드림모터스","tel":"031-977-9246","addr":"경기도 고양시 일산동구 설문동 744-3번지","indutype":"","category":"other"},{"name":"주식회사 성연모터스","tel":"031-977-2260","addr":"경기도 고양시 일산동구 설문동 744-3번지","indutype":"","category":"other"},{"name":"주식회사 엠에스생활건강","tel":"032-290-2593","addr":"경기도 고양시 일산동구 설문동 744-3번지","indutype":"","category":"other"},{"name":"주식회사 엠에스생활건강","tel":"032-290-2593","addr":"경기도 고양시 일산동구 설문동 744-3번지","indutype":"의류 - 기타의류","category":"other"},{"name":"주식회사 월드모터스","tel":"","addr":"경기도 고양시 일산동구 설문동 744-3번지","indutype":"","category":"other"}]},{"lat":"37.722123791","long":"126.82145899","imageIndex":17,"items":[{"name":"(주)그린가이아","tel":"070-8864-6182","addr":"경기도 고양시 일산동구 설문동 39-1번지","indutype":"","category":"other"},{"name":"(주)그린가이아","tel":"070-8864-6182","addr":"경기도 고양시 일산동구 설문동 39-1번지","indutype":"가구 - 일반가구","category":"other"},{"name":"연일자원","tel":"070-8129-3769","addr":"경기도 고양시 일산동구 설문동 39-1번지","indutype":"","category":"other"},{"name":"연일자원","tel":"070-8129-3769","addr":"경기도 고양시 일산동구 설문동 39-1번지","indutype":"의류 - 기타의류","category":"other"}]},{"lat":"37.723012077","long":"126.81340358","imageIndex":17,"items":[{"name":"(주)글로벌에코라이프","tel":"031-976-0222","addr":"경기도 고양시 일산동구 설문동 365-3번지","indutype":"레져용품 - 스포츠·레져용품","category":"other"},{"name":"(주)글로벌에코라이프","tel":"031-976-0222","addr":"경기도 고양시 일산동구 설문동 365-3번지","indutype":"","category":"other"}]},{"lat":"37.720624198","long":"126.81887662","imageIndex":17,"items":[{"name":"(주)도그카페","tel":"031-977-6912","addr":"경기도 고양시 일산동구 설문동 43-36","indutype":"","category":"other"}]},{"lat":"37.726764897","long":"126.80006579","imageIndex":17,"items":[{"name":"(주)미래종합상사","tel":"031-8027-2730","addr":"경기도 고양시 일산동구 설문동 582-10번지","indutype":"","category":"other"},{"name":"(주)미래종합상사","tel":"031-8027-2730","addr":"경기도 고양시 일산동구 설문동 582-10번지","indutype":"건축자재 - 기타건축자재","category":"other"},{"name":"주식회사 팩스토리","tel":"031-901-3600","addr":"경기도 고양시 일산동구 설문동 582-10번지","indutype":"","category":"other"}]},{"lat":"37.724374335","long":"126.79831417","imageIndex":17,"items":[{"name":"(주)바인즈","tel":"031-977-3773","addr":"경기도 고양시 일산동구 설문동 546-4번지","indutype":"","category":"other"},{"name":"주식회사 씻앤슬립","tel":"031-000-0000","addr":"경기도 고양시 일산동구 설문동 546-4번지","indutype":"가구 - 일반가구","category":"other"},{"name":"주식회사 씻앤슬립","tel":"031-0-0000","addr":"경기도 고양시 일산동구 설문동 546-4번지","indutype":"","category":"other"},{"name":"지온테크","tel":"","addr":"경기도 고양시 일산동구 설문동 546-4번지","indutype":"사무통신 - 컴퓨터","category":"other"}]},{"lat":"37.716904101","long":"126.79245973","imageIndex":17,"items":[{"name":"(주)새들","tel":"031-977-3301","addr":"경기도 고양시 일산동구 설문동 790-1번지","indutype":"","category":"other"},{"name":"(주)새들","tel":"031-977-3301","addr":"경기도 고양시 일산동구 설문동 790-1번지","indutype":"기타 - 기계공구","category":"other"}]},{"lat":"37.720259047","long":"126.80481322","imageIndex":17,"items":[{"name":"(주)신원부품센터","tel":"031-975-4623","addr":"경기도 고양시 일산동구 설문동 478-6번지","indutype":"기타 - 기계공구","category":"other"}]},{"lat":"37.716792557","long":"126.80612674","imageIndex":17,"items":[{"name":"(주)아디오스","tel":"031-977-0014","addr":"경기도 고양시 일산동구 설문동 500-25번지","indutype":"","category":"other"}]},{"lat":"37.721349175","long":"126.81023196","imageIndex":17,"items":[{"name":"(주)아이엘케이산업 일산지점","tel":"02-565-6320","addr":"경기도 고양시 일산동구 설문동 375-6번지","indutype":"전기제품 - 가전제품","category":"other"}]},{"lat":"37.714897548","long":"126.80433981","imageIndex":17,"items":[{"name":"(주)오토존","tel":"02-1544-5186","addr":"경기도 고양시 일산동구 설문동 493-23번지","indutype":"","category":"other"},{"name":"브이앤피인터비즈(VNP InterBiz)","tel":"070-8600-4437","addr":"경기도 고양시 일산동구 설문동 493-23번지","indutype":"","category":"other"},{"name":"오토존","tel":"070-4667-1118","addr":"경기도 고양시 일산동구 설문동 493-23번지","indutype":"","category":"other"},{"name":"토우통상","tel":"031-962-7068","addr":"경기도 고양시 일산동구 설문동 493-23번지","indutype":"기타 - 기계공구","category":"other"},{"name":"토우통상","tel":"031-962-7068","addr":"경기도 고양시 일산동구 설문동 493-23번지","indutype":"","category":"other"}]},{"lat":"37.710986418","long":"126.81473839","imageIndex":17,"items":[{"name":"(주)위드유","tel":"031-976-2628","addr":"경기도 고양시 일산동구 설문동 147-4번지","indutype":"주방용구 - 주방용구","category":"other"}]},{"lat":"37.72317615","long":"126.79323597","imageIndex":17,"items":[{"name":"(주)유승아크릴","tel":"031-942-5607","addr":"경기도 고양시 일산동구 설문동 719-3번지","indutype":"","category":"other"},{"name":"씨앤테크(C&T)","tel":"031-932-5130","addr":"경기도 고양시 일산동구 설문동 719-3번지","indutype":"","category":"other"},{"name":"씨앤테크(C&T)","tel":"031-932-5130","addr":"경기도 고양시 일산동구 설문동 719-3번지","indutype":"건축자재 - 기타건축자재","category":"other"}]},{"lat":"37.718648503","long":"126.82303266","imageIndex":17,"items":[{"name":"(주)제롬","tel":"031-945-3575","addr":"경기도 고양시 일산동구 설문동 103-4번지","indutype":"","category":"other"},{"name":"(주)제롬","tel":"031-945-3575","addr":"경기도 고양시 일산동구 설문동 103-4번지","indutype":"전기제품 - 냉열기기","category":"other"}]},{"lat":"37.71723798","long":"126.80312","imageIndex":17,"items":[{"name":"(주)제이와이엠","tel":"02-3217-3887","addr":"경기도 고양시 일산동구 설문동 530-81번지","indutype":"","category":"other"},{"name":"(주)제이와이엠","tel":"02-3217-3887","addr":"경기도 고양시 일산동구 설문동 530-81번지","indutype":"레져용품 - 음반/영상물","category":"other"},{"name":"휴먼앤컴퍼니","tel":"031-337-5550","addr":"경기도 고양시 일산동구 설문동 530-81번지","indutype":"","category":"other"}]},{"lat":"37.711321881","long":"126.81606442","imageIndex":17,"items":[{"name":"(주)지에이치에스","tel":"031-969-7294","addr":"경기도 고양시 일산동구 설문동 149-8번지","indutype":"","category":"other"},{"name":"(주)지에이치에스","tel":"031-969-7294","addr":"경기도 고양시 일산동구 설문동 149-8번지","indutype":"기타 - 기계공구","category":"other"}]},{"lat":"37.721398062","long":"126.81826222","imageIndex":17,"items":[{"name":"(주)컨트렉스(contracks)","tel":"031-1644-9682","addr":"경기도 고양시 일산동구 설문동 314-11번지","indutype":"레져용품 - 스포츠·레져용품","category":"other"},{"name":"백상산업","tel":"02-977-6751","addr":"경기도 고양시 일산동구 설문동 314-11번지","indutype":"","category":"other"}]},{"lat":"37.717731782","long":"126.79178822","imageIndex":17,"items":[{"name":"(주)토탈사운드","tel":"031-977-7200","addr":"경기도 고양시 일산동구 설문동 770-1번지","indutype":"","category":"other"},{"name":"(주)토탈사운드","tel":"031-977-7200","addr":"경기도 고양시 일산동구 설문동 770-1번지","indutype":"전기제품 - 가전제품","category":"other"}]},{"lat":"37.718290576","long":"126.79190006","imageIndex":17,"items":[{"name":"(주)티비에스워터","tel":"031-976-4797","addr":"경기도 고양시 일산동구 설문동 771번지","indutype":"주방용구 - 정수기","category":"other"},{"name":"(주)티비에스워터","tel":"031-976-4797","addr":"경기도 고양시 일산동구 설문동 771번지","indutype":"","category":"other"}]},{"lat":"37.719037656","long":"126.82417726","imageIndex":17,"items":[{"name":"(주)펫앤비코리아(Pet&B korea)","tel":"032-1111-1111","addr":"경기도 고양시 일산동구 설문동 70-17번지","indutype":"문화.취미 - 애완동물","category":"other"},{"name":"(주)펫앤비코리아(Pet&B korea)","tel":"032-1111-1111","addr":"경기도 고양시 일산동구 설문동 70-17번지","indutype":"","category":"other"},{"name":"뉴알엑스강남대리점","tel":"","addr":"경기도 고양시 일산동구 설문동 70-17번지","indutype":"","category":"other"},{"name":"뉴알엑스강남대리점","tel":"","addr":"경기도 고양시 일산동구 설문동 70-17번지","indutype":"문화.취미 - 애완동물","category":"other"}]},{"lat":"37.708876348","long":"126.81359834","imageIndex":17,"items":[{"name":"(주)피엘코퍼레이션","tel":"031-903-0266","addr":"경기도 고양시 일산동구 설문동 167-20번지","indutype":"","category":"other"},{"name":"(주)피엘코퍼레이션","tel":"031-903-0266","addr":"경기도 고양시 일산동구 설문동 167-20번지","indutype":"직물 - 옷감·직물","category":"other"}]},{"lat":"37.719845247","long":"126.78968393","imageIndex":17,"items":[{"name":"21세기모터스2","tel":"031-977-1138","addr":"경기도 고양시 일산동구 설문동 744-38외1필지","indutype":"","category":"other"}]},{"lat":"37.725564581","long":"126.79373967","imageIndex":17,"items":[{"name":"705BEER","tel":"031-975-7051","addr":"경기도 고양시 일산동구 설문동 705-1번지","indutype":"","category":"other"},{"name":"설문미다미","tel":"","addr":"경기도 고양시 일산동구 설문동 705-1번지","indutype":"","category":"other"},{"name":"카페본(Cafe born)","tel":"02-7256-6004","addr":"경기도 고양시 일산동구 설문동 705-1번지","indutype":"","category":"other"}]},{"lat":"37.722513806","long":"126.81170347","imageIndex":17,"items":[{"name":"ABC중고","tel":"","addr":"경기도 고양시 일산동구 설문동 364-4번지","indutype":"","category":"other"},{"name":"월드에이스","tel":"02-6914-9340","addr":"경기도 고양시 일산동구 설문동 364-4번지","indutype":"","category":"other"},{"name":"월드에이스","tel":"02-6914-9340","addr":"경기도 고양시 일산동구 설문동 364-4번지","indutype":"전기제품 - 가전제품","category":"other"}]},{"lat":"37.714066793","long":"126.80323059","imageIndex":17,"items":[{"name":"AJ모터스","tel":"031-977-5773","addr":"경기도 고양시 일산동구 설문동 493-10번지","indutype":"","category":"other"},{"name":"CS모터스","tel":"031-977-6354","addr":"경기도 고양시 일산동구 설문동 493-10번지","indutype":"","category":"other"},{"name":"썸바디샵 모터스","tel":"","addr":"경기도 고양시 일산동구 설문동 493-10번지","indutype":"","category":"other"}]},{"lat":"37.71770931","long":"126.78931578","imageIndex":17,"items":[{"name":"ART모터스","tel":"031-977-7704","addr":"경기도 고양시 일산동구 설문동 797-6번지","indutype":"","category":"other"},{"name":"GS25설문대로점","tel":"","addr":"경기도 고양시 일산동구 설문동 797-6번지","indutype":"","category":"other"},{"name":"GS25설문대로점","tel":"","addr":"경기도 고양시 일산동구 설문동 797-6번지","indutype":"","category":"other"},{"name":"타이어팩토리설문점","tel":"031-975-3349","addr":"경기도 고양시 일산동구 설문동 797-6번지","indutype":"","category":"other"},{"name":"타이어프로 설문점","tel":"031-975-4985","addr":"경기도 고양시 일산동구 설문동 797-6번지","indutype":"","category":"other"}]},{"lat":"37.72209263","long":"126.81879359","imageIndex":17,"items":[{"name":"EC코리아(Electronic Commerce Korea)","tel":"070-8289-4523","addr":"경기도 고양시 일산동구 설문동 314-2번지","indutype":"직물 - 카페트,커튼,천막,지물","category":"other"}]},{"lat":"37.72590034","long":"126.79509989","imageIndex":17,"items":[{"name":"GS25고양상지석길점","tel":"080-555-2525","addr":"경기도 고양시 일산동구 설문동 703번지","indutype":"","category":"other"},{"name":"GS25고양상지석길점","tel":"080-555-2525","addr":"경기도 고양시 일산동구 설문동 703번지","indutype":"유통업 영리 - 편 의 점","category":"other"},{"name":"GS25고양상지석길점","tel":"080-555-2525","addr":"경기도 고양시 일산동구 설문동 703번지","indutype":"","category":"other"},{"name":"할리우드","tel":"","addr":"경기도 고양시 일산동구 설문동 703번지","indutype":"","category":"other"}]},{"lat":"37.717709762","long":"126.78956529","imageIndex":17,"items":[{"name":"GS25설문대로점","tel":"","addr":"경기도 고양시 일산동구 설문동 797-6번지","indutype":"유통업 영리 - 편 의 점","category":"other"}]},{"lat":"37.729704074","long":"126.79606482","imageIndex":17,"items":[{"name":"H3","tel":"031-975-4575","addr":"경기도 고양시 일산동구 설문동 699-4번지","indutype":"","category":"other"}]},{"lat":"37.724682271","long":"126.79409378","imageIndex":17,"items":[{"name":"JMJ 푸드","tel":"031-975-8986","addr":"경기도 고양시 일산동구 설문동 706-1번지","indutype":"","category":"other"},{"name":"KUMPOO(쿰푸코리아)","tel":"031-977-6751","addr":"경기도 고양시 일산동구 설문동 706-1번지","indutype":"","category":"other"},{"name":"대경종합포장","tel":"031-976-4520","addr":"경기도 고양시 일산동구 설문동 706-1번지","indutype":"유통업 영리 - 기타유통업","category":"other"},{"name":"마이카존","tel":"031-976-6132","addr":"경기도 고양시 일산동구 설문동 706-1번지","indutype":"","category":"other"}]},{"lat":"37.725121218","long":"126.79267469","imageIndex":17,"items":[{"name":"KL 모터스","tel":"031-977-9430","addr":"경기도 고양시 일산동구 설문동 705-8번지","indutype":"","category":"other"},{"name":"KL모터스","tel":"031-977-3101","addr":"경기도 고양시 일산동구 설문동 705-8번지","indutype":"","category":"other"}]},{"lat":"37.725924563","long":"126.7986502","imageIndex":17,"items":[{"name":"OHM테크","tel":"031-975-2203","addr":"경기도 고양시 일산동구 설문동 582-30번지","indutype":"전기제품 - 냉열기기","category":"other"},{"name":"OHM테크","tel":"031-975-2203","addr":"경기도 고양시 일산동구 설문동 582-30번지","indutype":"","category":"other"},{"name":"동일종합목재","tel":"031-977-4835","addr":"경기도 고양시 일산동구 설문동 582-30번지","indutype":"","category":"other"},{"name":"동일종합목재","tel":"031-977-4835","addr":"경기도 고양시 일산동구 설문동 582-30번지","indutype":"건축자재 - 목재·석재·철물","category":"other"},{"name":"일산타일","tel":"031-922-5363","addr":"경기도 고양시 일산동구 설문동","indutype":"건축자재 - 건축용 요업제품","category":"other"},{"name":"일산타일","tel":"031-922-5363","addr":"경기도 고양시 일산동구 설문동 582-30번지","indutype":"","category":"other"}]},{"lat":"37.720900468","long":"126.79029339","imageIndex":17,"items":[{"name":"STEP IN","tel":"","addr":"경기도 고양시 일산동구 설문동 720-5번지","indutype":"","category":"other"},{"name":"삼원빛","tel":"02-3158-0551","addr":"경기도 고양시 일산동구 설문동 720-5번지","indutype":"","category":"other"}]},{"lat":"37.73329018","long":"126.79623635","imageIndex":17,"items":[{"name":"TORORO PONG","tel":"031-977-9971","addr":"경기도 고양시 일산동구 설문동","indutype":"레져용품 - 스포츠·레져용품","category":"other"},{"name":"TORORO PONG","tel":"031-977-9971","addr":"경기도 고양시 일산동구 설문동 산7번지","indutype":"","category":"other"}]},{"lat":"37.717347486","long":"126.79353594","imageIndex":17,"items":[{"name":"YNG","tel":"070-5044-3897","addr":"경기도 고양시 일산동구 설문동 783번지","indutype":"","category":"other"},{"name":"YNG","tel":"070-5044-3897","addr":"경기도 고양시 일산동구 설문동 783번지","indutype":"가구 - 일반가구","category":"other"}]},{"lat":"37.723432549","long":"126.79557184","imageIndex":17,"items":[{"name":"comehome","tel":"","addr":"경기도 고양시 일산동구 설문동 706-77번지","indutype":"신변잡화 - 기타잡화","category":"other"}]},{"lat":"37.70945376","long":"126.81409585","imageIndex":17,"items":[{"name":"e편한 생활 서비스","tel":"031-1644-3828","addr":"경기도 고양시 일산동구 설문동 160-5번지","indutype":"","category":"other"}]},{"lat":"37.725871629","long":"126.79414716","imageIndex":17,"items":[{"name":"가나안돌솥추어탕.곰탕","tel":"031-915-3325","addr":"경기도 고양시 일산동구 설문동 705-14번지","indutype":"","category":"other"},{"name":"산문어세상","tel":"031-977-4522","addr":"경기도 고양시 일산동구 설문동 705-14번지","indutype":"","category":"other"},{"name":"코사마트설문점","tel":"031-964-6887","addr":"경기도 고양시 일산동구 설문동 705-14번지","indutype":"","category":"other"}]},{"lat":"37.712289016","long":"126.81237618","imageIndex":17,"items":[{"name":"가스펠음향","tel":"031-977-8509","addr":"경기도 고양시 일산동구 설문동 194-20번지","indutype":"전기제품 - 가전제품","category":"other"},{"name":"가스펠음향","tel":"031-977-8509","addr":"경기도 고양시 일산동구 설문동 194-20번지","indutype":"","category":"other"},{"name":"예쁜주방가구","tel":"031-962-9900","addr":"경기도 고양시 일산동구 설문동 194-20번지","indutype":"가구 - 기타가구","category":"other"},{"name":"예쁜주방가구","tel":"031-962-9900","addr":"경기도 고양시 일산동구 설문동 194-20번지","indutype":"","category":"other"}]},{"lat":"37.72398017","long":"126.79445872","imageIndex":17,"items":[{"name":"가온 베이스볼(BOXB)","tel":"","addr":"경기도 고양시 일산동구 설문동 706-32번지","indutype":"","category":"other"},{"name":"가온 베이스볼(BOXB)","tel":"","addr":"경기도 고양시 일산동구 설문동 706-32번지","indutype":"레져용품 - 스포츠·레져용품","category":"other"},{"name":"또또뱅","tel":"031-977-9501","addr":"경기도 고양시 일산동구 설문동 706-32번지","indutype":"용역 서비스 - 종합용역","category":"other"},{"name":"주식회사 일산서구에프씨","tel":"031-911-9207","addr":"경기도 고양시 일산동구 설문동 706-32번지","indutype":"","category":"other"},{"name":"지보바코리아 풋볼아카데미","tel":"031-911-9206","addr":"경기도 고양시 일산동구 설문동 706-32번지","indutype":"","category":"other"}]},{"lat":"37.717981306","long":"126.81128413","imageIndex":17,"items":[{"name":"가인 아트 스페이스 (gain art space)","tel":"031-000-0000","addr":"경기도 고양시 일산동구 설문동 245-65번지","indutype":"문화.취미 - 화랑","category":"other"},{"name":"가인 아트 스페이스 (gain art space)","tel":"031-0-0000","addr":"경기도 고양시 일산동구 설문동 245-65번지","indutype":"","category":"other"}]},{"lat":"37.713650055","long":"126.80723514","imageIndex":17,"items":[{"name":"가희텍","tel":"031-976-8280","addr":"경기도 고양시 일산동구 설문동 515-37번지","indutype":"","category":"other"},{"name":"가희텍","tel":"031-976-8280","addr":"경기도 고양시 일산동구 설문동 515-37번지","indutype":"건축자재 - 기타건축자재","category":"other"}]},{"lat":"37.711041613","long":"126.81545272","imageIndex":17,"items":[{"name":"강문창호산업","tel":"031-976-7198","addr":"경기도 고양시 일산동구 설문동 147-1번지","indutype":"건축자재 - 기타건축자재","category":"other"},{"name":"강문창호산업","tel":"031-976-7198","addr":"경기도 고양시 일산동구 설문동 147-1번지","indutype":"","category":"other"}]},{"lat":"37.724788694","long":"126.79826766","imageIndex":17,"items":[{"name":"강산미트","tel":"031-975-8845","addr":"경기도 고양시 일산동구 설문동 546-5번지","indutype":"","category":"other"}]},{"lat":"37.73034199","long":"126.80023753","imageIndex":17,"items":[{"name":"강서설렁탕","tel":"031-976-5241","addr":"경기도 고양시 일산동구 설문동 867번지","indutype":"","category":"other"},{"name":"강서설렁탕","tel":"031-976-5241","addr":"경기도 고양시 일산동구 설문동 867번지","indutype":"","category":"other"},{"name":"김대감설렁탕","tel":"031-977-7463","addr":"경기도 고양시 일산동구 설문동 867번지","indutype":"","category":"other"}]},{"lat":"37.723202179","long":"126.80303593","imageIndex":17,"items":[{"name":"강촌마트","tel":"031-977-1417","addr":"경기도 고양시 일산동구 설문동 459-3번지","indutype":"","category":"other"},{"name":"아성냉동기계","tel":"031-977-7204","addr":"경기도 고양시 일산동구 설문동 459-3번지","indutype":"기타 - 기타 전문점","category":"other"},{"name":"아성냉동기계","tel":"031-977-7204","addr":"경기도 고양시 일산동구 설문동 459-3번지","indutype":"","category":"other"},{"name":"육군상사","tel":"031-978-0431","addr":"경기도 고양시 일산동구 설문동 459-3번지","indutype":"","category":"other"},{"name":"육군상사","tel":"031-978-0431","addr":"경기도 고양시 일산동구 설문동 459-3번지","indutype":"주방용구 - 주방용구","category":"other"},{"name":"행복한밥상","tel":"031-968-2211","addr":"경기도 고양시 일산동구 설문동 459-3번지","indutype":"","category":"other"}]},{"lat":"37.727709509","long":"126.79925784","imageIndex":17,"items":[{"name":"개똥이네 일산점","tel":"031-976-7949","addr":"경기도 고양시 일산동구 설문동 601-1번지","indutype":"","category":"other"},{"name":"개똥이네 일산점","tel":"031-976-7949","addr":"경기도 고양시 일산동구 설문동 601-1번지","indutype":"서적문구 - 일반서적","category":"other"},{"name":"개똥이네 일산점","tel":"031-976-7949","addr":"경기도 고양시 일산동구 설문동 601-1번지","indutype":"","category":"other"},{"name":"개똥이네 일산점","tel":"031-976-7949","addr":"경기도 고양시 일산동구 설문동 601-1번지","indutype":"회원제형태 - 서적","category":"other"},{"name":"메르앙갤러리","tel":"031-976-4944","addr":"경기도 고양시 일산동구 설문동 601-1번지","indutype":"","category":"other"},{"name":"메르앙갤러리","tel":"031-976-4944","addr":"경기도 고양시 일산동구 설문동 601-1번지","indutype":"가구 - 일반가구","category":"other"},{"name":"평화사무용가구","tel":"031-976-4944","addr":"경기도 고양시 일산동구 설문동 601-1번지","indutype":"","category":"other"},{"name":"평화사무용가구","tel":"031-976-4944","addr":"경기도 고양시 일산동구 설문동 601-1번지","indutype":"가구 - 기타가구","category":"other"}]},{"lat":"37.723541974","long":"126.79123863","imageIndex":17,"items":[{"name":"거상식품","tel":"070-4138-2345","addr":"경기도 고양시 일산동구 설문동 722-60번지","indutype":"","category":"other"},{"name":"메밀꽃이피었습니다","tel":"031-977-5569","addr":"경기도 고양시 일산동구 설문동 722-60번지","indutype":"","category":"other"},{"name":"산들촌","tel":"031-977-5245","addr":"경기도 고양시 일산동구 설문동 722-60번지","indutype":"","category":"other"},{"name":"엠에프에스(MFS)일산점","tel":"031-975-0095","addr":"경기도 고양시 일산동구 설문동 722-60번지","indutype":"레져용품 - 골프용품 전문점","category":"other"},{"name":"엠에프에스(MFS)일산점","tel":"031-975-0095","addr":"경기도 고양시 일산동구 설문동 722-60번지","indutype":"","category":"other"},{"name":"제일안전","tel":"031-977-3600","addr":"경기도 고양시 일산동구 설문동 722-60번지","indutype":"기타 - 기계공구","category":"other"},{"name":"틴팅클럽","tel":"031-977-9875","addr":"경기도 고양시 일산동구 설문동 722-60번지","indutype":"","category":"other"}]},{"lat":"37.720655479","long":"126.82162136","imageIndex":17,"items":[{"name":"거성컴퍼니","tel":"","addr":"경기도 고양시 일산동구 설문동 81-3번지","indutype":"의류 - 정장","category":"other"}]},{"lat":"37.718624299","long":"126.79720713","imageIndex":17,"items":[{"name":"경기아스콘(주)","tel":"031-912-8504","addr":"경기도 고양시 일산동구 설문동 761-16번지","indutype":"용역 서비스 - 기타용역서비스","category":"other"},{"name":"경기아스콘(주)","tel":"031-912-8504","addr":"경기도 고양시 일산동구 설문동 761-16번지","indutype":"","category":"other"}]},{"lat":"37.724923716","long":"126.79307225","imageIndex":17,"items":[{"name":"고바우한우설렁탕","tel":"031-977-2358","addr":"경기도 고양시 일산동구 설문동 705-6번지","indutype":"","category":"other"},{"name":"돈까스클럽","tel":"031-975-9393","addr":"경기도 고양시 일산동구 설문동 705-6번지","indutype":"","category":"other"},{"name":"돈까스클럽","tel":"031-975-9393","addr":"경기도 고양시 일산동구 설문동 705-6번지","indutype":"","category":"other"},{"name":"마루철판","tel":"031-977-0720","addr":"경기도 고양시 일산동구 설문동 705-6 외1필지나동","indutype":"","category":"other"},{"name":"먹으면돼지","tel":"031-977-0106","addr":"경기도 고양시 일산동구 설문동 705-6번지","indutype":"","category":"other"},{"name":"설문면옥","tel":"","addr":"경기도 고양시 일산동구 설문동 705-6번지","indutype":"","category":"other"},{"name":"아찔한순대족발","tel":"031-977-0106","addr":"경기도 고양시 일산동구 설문동 705-6번지","indutype":"","category":"other"},{"name":"토종순대국","tel":"031-977-0106","addr":"경기도 고양시 일산동구 설문동 705-6번지","indutype":"","category":"other"}]},{"lat":"37.719043439","long":"126.78970892","imageIndex":17,"items":[{"name":"고봉산칼국수","tel":"031-976-9140","addr":"경기도 고양시 일산동구 설문동 740-5번지","indutype":"","category":"other"},{"name":"현대25시마트","tel":"031-975-5890","addr":"경기도 고양시 일산동구 설문동 741-3 1동1호","indutype":"","category":"other"}]},{"lat":"37.73078945","long":"126.79848937","imageIndex":17,"items":[{"name":"고시클래스","tel":"031-819-6901","addr":"경기도 고양시 일산동구 설문동 621-23번지","indutype":"","category":"other"},{"name":"고시클래스","tel":"02-1600-0972","addr":"경기도 고양시 일산동구 설문동 621-23번지","indutype":"","category":"other"}]},{"lat":"37.729536103","long":"126.79790295","imageIndex":17,"items":[{"name":"고양한우마을","tel":"031-976-4848","addr":"경기도 고양시 일산동구 설문동 611-9번지","indutype":"","category":"other"},{"name":"고향한우마을","tel":"031-976-4848","addr":"경기도 고양시 일산동구 설문동 611-9번지","indutype":"","category":"other"}]},{"lat":"37.724208384","long":"126.79614816","imageIndex":17,"items":[{"name":"광동기획","tel":"","addr":"경기도 고양시 일산동구 설문동 706-25번지","indutype":"용역 서비스 - 종합용역","category":"other"}]},{"lat":"37.724427343","long":"126.79259725","imageIndex":17,"items":[{"name":"교동짬뽕일산점","tel":"070-8834-0255","addr":"경기도 고양시 일산동구 설문동 719-49번지","indutype":"","category":"other"},{"name":"연수산","tel":"031-977-0590","addr":"경기도 고양시 일산동구 설문동 719-49번지","indutype":"","category":"other"}]},{"lat":"37.72370884","long":"126.79386966","imageIndex":17,"items":[{"name":"글로벌요양원","tel":"031-977-8883","addr":"경기도 고양시 일산동구 설문동 706-37번지","indutype":"기타의료기관 - 기타의료기관 및 기타","category":"other"}]},{"lat":"37.711622309","long":"126.81237788","imageIndex":17,"items":[{"name":"금성종합건철","tel":"031-921-7703","addr":"경기도 고양시 일산동구 설문동 197-1번지","indutype":"건축자재 - 목재·석재·철물","category":"other"},{"name":"금성종합건철","tel":"031-921-7703","addr":"경기도 고양시 일산동구 설문동 197-1번지","indutype":"","category":"other"}]},{"lat":"37.724429904","long":"126.79403778","imageIndex":17,"items":[{"name":"기쁨포장","tel":"031-977-3317","addr":"경기도 고양시 일산동구 설문동","indutype":"유통업 영리 - 기타유통업","category":"other"},{"name":"기쁨포장","tel":"031-977-3317","addr":"경기도 고양시 일산동구 설문동 706-30번지","indutype":"","category":"other"}]},{"lat":"37.708989606","long":"126.81120521","imageIndex":17,"items":[{"name":"길승사","tel":"031-977-3416","addr":"경기도 고양시 일산동구 설문동 167번지","indutype":"","category":"other"}]},{"lat":"37.724926426","long":"126.79976454","imageIndex":17,"items":[{"name":"김반장","tel":"02-831-9003","addr":"경기도 고양시 일산동구 설문동 583-22번지","indutype":"","category":"other"},{"name":"김반장","tel":"031-976-5919","addr":"경기도 고양시 일산동구 설문동 583-22번지","indutype":"","category":"other"}]},{"lat":"37.724927382","long":"126.80032034","imageIndex":17,"items":[{"name":"꼬꼬댁한식","tel":"070-1111-1111","addr":"경기도 고양시 일산동구 설문동 583-19번지","indutype":"","category":"other"},{"name":"바른자세교정원","tel":"031-111-1111","addr":"경기도 고양시 일산동구 설문동 583-19번지","indutype":"","category":"other"},{"name":"설문스낵바","tel":"031-0-0000","addr":"경기도 고양시 일산동구 설문동 583-19번지","indutype":"","category":"other"},{"name":"설문스파랜드","tel":"","addr":"경기도 고양시 일산동구 설문동 583-19번지","indutype":"","category":"other"},{"name":"설문스파랜드","tel":"031-977-5555","addr":"경기도 고양시 일산동구 설문동 583-19번지","indutype":"","category":"other"},{"name":"설문스파매점","tel":"","addr":"경기도 고양시 일산동구 설문동 583-19번지","indutype":"","category":"other"},{"name":"설문스파매점","tel":"070-7872-8733","addr":"경기도 고양시 일산동구 설문동 583-19번지","indutype":"","category":"other"},{"name":"설문이용원","tel":"","addr":"경기도 고양시 일산동구 설문동 583-19번지","indutype":"","category":"other"},{"name":"설문참숯가마 스파랜드","tel":"031-0-0000","addr":"경기도 고양시 일산동구 설문동 583-19번지","indutype":"","category":"other"},{"name":"설문참숯가마스파랜드","tel":"031-0-0000","addr":"경기도 고양시 일산동구 설문동 583-19번지","indutype":"","category":"other"}]},{"lat":"37.708512192","long":"126.81126314","imageIndex":17,"items":[{"name":"나인장식","tel":"031-976-8885","addr":"경기도 고양시 일산동구 설문동 167-63번지","indutype":"","category":"other"},{"name":"나인장식","tel":"031-976-8885","addr":"경기도 고양시 일산동구 설문동 167-63번지","indutype":"주방용구 - 주방용구","category":"other"},{"name":"씨유일산설문점","tel":"031-977-9397","addr":"경기도 고양시 일산동구 설문동 167-63번지","indutype":"","category":"other"},{"name":"씨유일산설문점","tel":"031-977-9397","addr":"경기도 고양시 일산동구 설문동 167-63번지","indutype":"유통업 영리 - 편 의 점","category":"other"},{"name":"조아","tel":"031-977-0000","addr":"경기도 고양시 일산동구 설문동 167-63번지","indutype":"","category":"other"}]},{"lat":"37.725257955","long":"126.79357039","imageIndex":17,"items":[{"name":"나주곰탕","tel":"031-975-7429","addr":"경기도 고양시 일산동구 설문동 705-16번지","indutype":"","category":"other"},{"name":"양평해장국","tel":"031-977-5504","addr":"경기도 고양시 일산동구 설문동 705-16번지","indutype":"","category":"other"},{"name":"일백집","tel":"070-8883-0600","addr":"경기도 고양시 일산동구 설문동 705-16번지","indutype":"","category":"other"}]},{"lat":"37.717097974","long":"126.7900434","imageIndex":17,"items":[{"name":"남지산업","tel":"031-977-7090","addr":"경기도 고양시 일산동구 설문동 796-2번지","indutype":"","category":"other"},{"name":"남지상사","tel":"031-977-7090","addr":"경기도 고양시 일산동구 설문동 796-2번지","indutype":"","category":"other"}]},{"lat":"37.715433588","long":"126.81251556","imageIndex":17,"items":[{"name":"노스랜드","tel":"070-4282-2468","addr":"경기도 고양시 일산동구 설문동 233-1번지","indutype":"","category":"other"}]},{"lat":"37.718705562","long":"126.79220511","imageIndex":17,"items":[{"name":"농민푸드","tel":"031-975-0064","addr":"경기도 고양시 일산동구 설문동 764번지","indutype":"","category":"other"}]},{"lat":"37.716346096","long":"126.79279021","imageIndex":17,"items":[{"name":"누어아인","tel":"031-000-0000","addr":"경기도 고양시 일산동구 설문동 788-3번지","indutype":"가구 - 일반가구","category":"other"},{"name":"누어아인","tel":"031-0-0000","addr":"경기도 고양시 일산동구 설문동 788-3번지","indutype":"","category":"other"}]},{"lat":"37.713901267","long":"126.80659937","imageIndex":17,"items":[{"name":"뉴나인모터스","tel":"031-976-9573","addr":"경기도 고양시 일산동구 설문동 512-2번지","indutype":"","category":"other"}]},{"lat":"37.713154958","long":"126.81300906","imageIndex":17,"items":[{"name":"늘봄실버케어","tel":"031-976-6103","addr":"경기도 고양시 일산동구 설문동 191-4번지 1동","indutype":"","category":"other"},{"name":"늘봄실버케어","tel":"031-976-6103","addr":"경기도 고양시 일산동구 설문동 191-4번지","indutype":"신변잡화 - 기타잡화","category":"other"}]},{"lat":"37.713927988","long":"126.81754357","imageIndex":17,"items":[{"name":"다드림유통","tel":"031-911-7148","addr":"경기도 고양시 일산동구 설문동 135-2번지","indutype":"","category":"other"}]},{"lat":"37.715571321","long":"126.8141257","imageIndex":17,"items":[{"name":"다선","tel":"031-977-4161","addr":"경기도 고양시 일산동구 설문동 117-1번지","indutype":"","category":"other"}]},{"lat":"37.722094431","long":"126.81995052","imageIndex":17,"items":[{"name":"다원","tel":"031-977-1946","addr":"경기도 고양시 일산동구 설문동 35-3번지","indutype":"주방용구 - 주방용구","category":"other"},{"name":"다원","tel":"031-977-1946","addr":"경기도 고양시 일산동구 설문동 35-3번지","indutype":"","category":"other"}]},{"lat":"37.71817797","long":"126.78940517","imageIndex":17,"items":[{"name":"다팜 산업자재","tel":"031-977-7733","addr":"경기도 고양시 일산동구 설문동 738-3번지","indutype":"유통업 영리 - 기타유통업","category":"other"},{"name":"다팜 산업자재","tel":"031-977-7733","addr":"경기도 고양시 일산동구 설문동 738-3번지","indutype":"","category":"other"},{"name":"모래내옛맛갈비","tel":"031-975-9092","addr":"경기도 고양시 일산동구 설문동 738-3번지","indutype":"","category":"other"},{"name":"모래내옛맛갈비","tel":"031-975-9092","addr":"경기도 고양시 일산동구 설문동 738-3번지","indutype":"","category":"other"}]},{"lat":"37.722841611","long":"126.7976832","imageIndex":17,"items":[{"name":"대광그린산업","tel":"031-977-5016","addr":"경기도 고양시 일산동구 설문동","indutype":"건축자재 - 기타건축자재","category":"other"},{"name":"대광그린산업","tel":"031-977-5016","addr":"경기도 고양시 일산동구 설문동 539-3번지","indutype":"","category":"other"}]},{"lat":"37.720708744","long":"126.78889884","imageIndex":17,"items":[{"name":"대광판넬","tel":"031-977-5016","addr":"경기도 고양시 일산동구 설문동 1129번지","indutype":"건축자재 - 기타건축자재","category":"other"},{"name":"대광판넬","tel":"031-977-5016","addr":"경기도 고양시 일산동구 설문동 1129번지","indutype":"","category":"other"},{"name":"왕새우직판장","tel":"031-977-7150","addr":"경기도 고양시 일산동구 설문동 1129번지","indutype":"","category":"other"}]},{"lat":"37.714208741","long":"126.80729038","imageIndex":17,"items":[{"name":"대길슈퍼","tel":"031-976-7715","addr":"경기도 고양시 일산동구 설문동 494-10번지","indutype":"","category":"other"},{"name":"대원기업","tel":"031-2742-6022","addr":"경기도 고양시 일산동구 설문동 494-10번지","indutype":"","category":"other"},{"name":"대원기업","tel":"031-2742-6022","addr":"경기도 고양시 일산동구 설문동 494-10번지","indutype":"수리서비스 - 세탁소","category":"other"},{"name":"똘배네식당","tel":"031-976-6800","addr":"경기도 고양시 일산동구 설문동 494-10번지","indutype":"","category":"other"},{"name":"세븐일레븐일산설문점","tel":"","addr":"경기도 고양시 일산동구 설문동 494-10번지","indutype":"","category":"other"},{"name":"씨유일산은마길점","tel":"080-80-3663","addr":"경기도 고양시 일산동구 설문동 494-10번지","indutype":"","category":"other"},{"name":"씨유일산은마길점","tel":"080-080-3663","addr":"경기도 고양시 일산동구 설문동 494-10번지","indutype":"유통업 영리 - 편 의 점","category":"other"},{"name":"오가네가정식","tel":"031-977-5173","addr":"경기도 고양시 일산동구 설문동 494-10번지","indutype":"","category":"other"},{"name":"오가네가정식","tel":"031-977-5124","addr":"경기도 고양시 일산동구 설문동 494-10번지","indutype":"","category":"other"},{"name":"원마트","tel":"031-976-4660","addr":"경기도 고양시 일산동구 설문동 494-10번지","indutype":"","category":"other"}]},{"lat":"37.721066861","long":"126.80300764","imageIndex":17,"items":[{"name":"대산산업","tel":"031-977-1266","addr":"경기도 고양시 일산동구 설문동 487-3,4","indutype":"","category":"other"},{"name":"대산산업","tel":"031-977-1266","addr":"경기도 고양시 일산동구 설문동","indutype":"가구 - 일반가구","category":"other"}]},{"lat":"37.717286594","long":"126.79993285","imageIndex":17,"items":[{"name":"대산테크","tel":"031-977-3480","addr":"경기도 고양시 일산동구 설문동 525번지","indutype":"건축자재 - 기타건축자재","category":"other"},{"name":"대산테크","tel":"031-977-3480","addr":"경기도 고양시 일산동구 설문동 525번지","indutype":"","category":"other"}]},{"lat":"37.708675982","long":"126.81226068","imageIndex":17,"items":[{"name":"대왕보링자동차공업사","tel":"02-372-9825","addr":"경기도 고양시 일산동구 설문동 167-9번지","indutype":"","category":"other"}]},{"lat":"37.72640134","long":"126.7982292","imageIndex":17,"items":[{"name":"대원종합특수가스","tel":"031-976-3155","addr":"경기도 고양시 일산동구 설문동 590-2번지","indutype":"","category":"other"}]},{"lat":"37.718570824","long":"126.79243233","imageIndex":17,"items":[{"name":"대한불교법성종천일용당","tel":"","addr":"경기도 고양시 일산동구 설문동 762-3번지","indutype":"기타 - 비영리/대상","category":"other"},{"name":"대한불교법성종천일용당","tel":"","addr":"경기도 고양시 일산동구 설문동 762-3번지","indutype":"","category":"other"}]},{"lat":"37.720124481","long":"126.78964911","imageIndex":17,"items":[{"name":"대한산업","tel":"031-971-3877","addr":"경기도 고양시 일산동구 설문동","indutype":"건축자재 - 기타건축자재","category":"other"},{"name":"대한산업","tel":"031-971-3877","addr":"경기도 고양시 일산동구 설문동 744-1번지","indutype":"","category":"other"},{"name":"신화낚시","tel":"031-977-6761","addr":"경기도 고양시 일산동구 설문동 744-1번지","indutype":"","category":"other"},{"name":"클라크서비스서울센타","tel":"031-976-6631","addr":"경기도 고양시 일산동구 설문동 744-1번지","indutype":"","category":"other"},{"name":"클라크서비스서울센타","tel":"031-976-6631","addr":"경기도 고양시 일산동구 설문동","indutype":"수리서비스 - 기타수리서비스","category":"other"}]},{"lat":"37.724285309","long":"126.79378864","imageIndex":17,"items":[{"name":"대한샷시","tel":"031-976-7506","addr":"경기도 고양시 일산동구 설문동 706-30번지","indutype":"","category":"other"},{"name":"일산볼트백화점","tel":"031-976-0989","addr":"경기도 고양시 일산동구 설문동 706-30번지","indutype":"","category":"other"},{"name":"일산볼트백화점","tel":"031-976-0989","addr":"경기도 고양시 일산동구 설문동 706-30번지","indutype":"기타 - 기계공구","category":"other"},{"name":"주식회사 대한산업개발","tel":"03-197-6506","addr":"경기도 고양시 일산동구 설문동 706-30번지","indutype":"건축자재 - 기타건축자재","category":"other"},{"name":"주식회사 대한산업개발","tel":"03-197-6506","addr":"경기도 고양시 일산동구 설문동 706-30번지","indutype":"","category":"other"}]},{"lat":"37.718343536","long":"126.79128744","imageIndex":17,"items":[{"name":"대현모터스","tel":"031-977-5329","addr":"경기도 고양시 일산동구 설문동 769-2번지","indutype":"","category":"other"}]},{"lat":"37.715737282","long":"126.81650699","imageIndex":17,"items":[{"name":"대흥금속","tel":"031-977-8336","addr":"경기도 고양시 일산동구 설문동 131-12번지","indutype":"건축자재 - 기타건축자재","category":"other"},{"name":"대흥금속","tel":"031-977-8336","addr":"경기도 고양시 일산동구 설문동 131-12번지","indutype":"","category":"other"}]},{"lat":"37.724008265","long":"126.81100772","imageIndex":17,"items":[{"name":"더지극정성요양원","tel":"031-977-6790","addr":"경기도 고양시 일산동구 설문동 386-5번지","indutype":"기타의료기관 - 기타의료기관 및 기타","category":"other"}]},{"lat":"37.723287543","long":"126.79003703","imageIndex":17,"items":[{"name":"도깨비공업사","tel":"031-904-6112","addr":"경기도 고양시 일산동구 설문동 722-6번지","indutype":"","category":"other"},{"name":"도깨비공업사","tel":"031-904-6112","addr":"경기도 고양시 일산동구 설문동 722-6번지","indutype":"","category":"other"},{"name":"주식회사 펜트라코리아","tel":"031-975-5518","addr":"경기도 고양시 일산동구 설문동 722-6번지","indutype":"","category":"other"}]},{"lat":"37.735785775","long":"126.79620673","imageIndex":17,"items":[{"name":"도깨비중고","tel":"","addr":"경기도 고양시 일산동구 설문동 694-1번지","indutype":"전기제품 - 가전제품","category":"other"}]},{"lat":"37.724598827","long":"126.79276691","imageIndex":17,"items":[{"name":"동문스크린골프","tel":"031-975-9910","addr":"경기도 고양시 일산동구 설문동 705-39번지","indutype":"","category":"other"},{"name":"동문스크린골프","tel":"031-975-9910","addr":"경기도 고양시 일산동구 설문동 705-39번지","indutype":"","category":"other"},{"name":"우전 스크린골프","tel":"031-975-9910","addr":"경기도 고양시 일산동구 설문동 705-39번지","indutype":"","category":"other"},{"name":"차이나정","tel":"031-975-0776","addr":"경기도 고양시 일산동구 설문동 705-39번지","indutype":"","category":"other"},{"name":"커피&톡","tel":"031-976-8428","addr":"경기도 고양시 일산동구 설문동 705-39번지","indutype":"","category":"other"}]},{"lat":"37.723234345","long":"126.79051358","imageIndex":17,"items":[{"name":"동산만두","tel":"031-976-5011","addr":"경기도 고양시 일산동구 설문동 722-4번지","indutype":"","category":"other"}]},{"lat":"37.717151269","long":"126.80512772","imageIndex":17,"items":[{"name":"동양창고문","tel":"031-977-1957","addr":"경기도 고양시 일산동구 설문동 500-18번지","indutype":"","category":"other"},{"name":"동양창고문","tel":"031-977-1957","addr":"경기도 고양시 일산동구 설문동 500-18번지","indutype":"기타 - 기타 전문점","category":"other"}]},{"lat":"37.711956632","long":"126.81297809","imageIndex":17,"items":[{"name":"두리원","tel":"031-976-6009","addr":"경기도 고양시 일산동구 설문동 197-6번지","indutype":"","category":"other"}]},{"lat":"37.717877232","long":"126.79251369","imageIndex":17,"items":[{"name":"드림애드","tel":"070-4212-5881","addr":"경기도 고양시 일산동구 설문동 776-1번지","indutype":"용역 서비스 - 종합용역","category":"other"},{"name":"드림애드","tel":"070-4212-5881","addr":"경기도 고양시 일산동구 설문동 776-1번지","indutype":"","category":"other"},{"name":"휠리페어","tel":"02-842-3888","addr":"경기도 고양시 일산동구 설문동 776-1번지","indutype":"","category":"other"}]},{"lat":"37.723846813","long":"126.8114505","imageIndex":17,"items":[{"name":"드림요양원","tel":"031-907-2426","addr":"경기도 고양시 일산동구 설문동 386-7번지","indutype":"기타의료기관 - 기타의료기관 및 기타","category":"other"},{"name":"드림요양원","tel":"031-907-2426","addr":"경기도 고양시 일산동구 설문동 386-7번지","indutype":"","category":"other"}]},{"lat":"37.723146908","long":"126.80232149","imageIndex":17,"items":[{"name":"드림패키지","tel":"031-976-6081","addr":"경기도 고양시 일산동구 설문동 574번지","indutype":"","category":"other"}]},{"lat":"37.724010489","long":"126.80153651","imageIndex":17,"items":[{"name":"디에이치","tel":"031-977-4115","addr":"경기도 고양시 일산동구 설문동 575-2번지 2동","indutype":"","category":"other"},{"name":"디에이치","tel":"031-977-4115","addr":"경기도 고양시 일산동구 설문동 575-2번지","indutype":"건축자재 - 보일러·펌프·샷시","category":"other"}]},{"lat":"37.725956664","long":"126.8015993","imageIndex":17,"items":[{"name":"디테일링월드","tel":"070-8860-8865","addr":"경기도 고양시 일산동구 설문동 576-1번지","indutype":"","category":"other"}]},{"lat":"37.728566333","long":"126.79978863","imageIndex":17,"items":[{"name":"디펙토리설문점","tel":"070-7420-7600","addr":"경기도 고양시 일산동구 설문동 606번지","indutype":"","category":"other"}]},{"lat":"37.716953269","long":"126.78973759","imageIndex":17,"items":[{"name":"띠띠빵빵기사님한식부페","tel":"031-977-6096","addr":"경기도 고양시 일산동구 설문동 796번지","indutype":"","category":"other"}]},{"lat":"37.715593302","long":"126.80554015","imageIndex":17,"items":[{"name":"라임트리","tel":"031-000-0000","addr":"경기도 고양시 일산동구 설문동 500-6번지","indutype":"가구 - 일반가구","category":"other"},{"name":"라임트리","tel":"031-0-0000","addr":"경기도 고양시 일산동구 설문동 500-6번지","indutype":"","category":"other"}]},{"lat":"37.729952665","long":"126.79912691","imageIndex":17,"items":[{"name":"로호","tel":"031-977-1663","addr":"경기도 고양시 일산동구 설문동 626-5번지","indutype":"서적문구 - 과학기자재","category":"other"},{"name":"로호","tel":"031-977-1663","addr":"경기도 고양시 일산동구 설문동 626-5번지","indutype":"","category":"other"}]},{"lat":"37.723015233","long":"126.81537718","imageIndex":17,"items":[{"name":"림 퍼니처","tel":"031-247-5746","addr":"경기도 고양시 일산동구 설문동 332-9번지","indutype":"가구 - 일반가구","category":"other"},{"name":"림 퍼니처","tel":"031-247-5746","addr":"경기도 고양시 일산동구 설문동 332-9번지","indutype":"","category":"other"}]},{"lat":"37.717040321","long":"126.82012173","imageIndex":17,"items":[{"name":"마루에이디","tel":"031-922-6111","addr":"경기도 고양시 일산동구 설문동 114-2번지","indutype":"","category":"other"},{"name":"마루에이디","tel":"031-922-6111","addr":"경기도 고양시 일산동구 설문동 114-2번지","indutype":"건축자재 - 인테리어전문","category":"other"}]},{"lat":"37.724456107","long":"126.79357265","imageIndex":17,"items":[{"name":"막파러종합공구","tel":"031-921-8574","addr":"경기도 고양시 일산동구 설문동 706-16번지","indutype":"","category":"other"}]},{"lat":"37.714378036","long":"126.8061558","imageIndex":17,"items":[{"name":"맛있는식품","tel":"031-932-0807","addr":"경기도 고양시 일산동구 설문동 512-6번지","indutype":"","category":"other"}]},{"lat":"37.719368991","long":"126.79037716","imageIndex":17,"items":[{"name":"명성타일","tel":"031-911-1610","addr":"경기도 고양시 일산동구 설문동 745-1번지","indutype":"","category":"other"}]},{"lat":"37.72511854","long":"126.81795807","imageIndex":17,"items":[{"name":"명품아트","tel":"031-922-9338","addr":"경기도 고양시 일산동구 설문동 351-1번지 폴라리스","indutype":"","category":"other"}]},{"lat":"37.724041669","long":"126.79357381","imageIndex":17,"items":[{"name":"목우촌고양점","tel":"031-975-6133","addr":"경기도 고양시 일산동구 설문동 706-31번지","indutype":"","category":"other"},{"name":"타이어클럽(설문)","tel":"031-977-4595","addr":"경기도 고양시 일산동구 설문동 706-31번지","indutype":"","category":"other"}]},{"lat":"37.723653514","long":"126.79315523","imageIndex":17,"items":[{"name":"미니슈퍼","tel":"070-4203-9035","addr":"경기도 고양시 일산동구 설문동 719-1번지","indutype":"","category":"other"},{"name":"월드에어텐트","tel":"031-976-9928","addr":"경기도 고양시 일산동구 설문동 719-1번지","indutype":"","category":"other"}]},{"lat":"37.717320255","long":"126.80382297","imageIndex":17,"items":[{"name":"미라인","tel":"032-835-7685","addr":"경기도 고양시 일산동구 설문동 530-80번지","indutype":"","category":"other"},{"name":"한창프라임","tel":"070-8826-0430","addr":"경기도 고양시 일산동구 설문동 530-80번지","indutype":"유통업 영리 - 기타유통업","category":"other"},{"name":"한창프라임","tel":"070-8826-0430","addr":"경기도 고양시 일산동구 설문동 530-80번지","indutype":"","category":"other"}]},{"lat":"37.720873073","long":"126.80032004","imageIndex":17,"items":[{"name":"미성씽크","tel":"031-977-2586","addr":"경기도 고양시 일산동구 설문동 530-113번지","indutype":"","category":"other"}]},{"lat":"37.716817777","long":"126.82186889","imageIndex":17,"items":[{"name":"바이플(B.F)","tel":"031-975-0724","addr":"경기도 고양시 일산동구 설문동 107-7번지","indutype":"","category":"other"},{"name":"바이플(B.F)","tel":"031-975-0724","addr":"경기도 고양시 일산동구 설문동 107-7번지","indutype":"회원제형태 - 기타4","category":"other"}]},{"lat":"37.725343814","long":"126.81798019","imageIndex":17,"items":[{"name":"베스타고양대리점","tel":"070-8848-7024","addr":"경기도 고양시 일산동구 설문동 349번지 폴라리스","indutype":"","category":"other"}]},{"lat":"37.721901444","long":"126.80106584","imageIndex":17,"items":[{"name":"베스트 홈","tel":"031-977-0467","addr":"경기도 고양시 일산동구 설문동 568-1번지","indutype":"","category":"other"},{"name":"베스트 홈","tel":"031-977-0467","addr":"경기도 고양시 일산동구 설문동 568-1번지","indutype":"가구 - 일반가구","category":"other"}]},{"lat":"37.721373666","long":"126.80329037","imageIndex":17,"items":[{"name":"베스티아","tel":"031-977-1268","addr":"경기도 고양시 일산동구 설문동 530-270번지","indutype":"","category":"other"},{"name":"베스티아","tel":"031-977-1268","addr":"경기도 고양시 일산동구 설문동 530-270번지","indutype":"주방용구 - 주방용구","category":"other"}]},{"lat":"37.714036957","long":"126.80692791","imageIndex":17,"items":[{"name":"벨로슈즈","tel":"","addr":"경기도 고양시 일산동구 설문동 494-13번지","indutype":"","category":"other"},{"name":"벨로슈즈","tel":"","addr":"경기도 고양시 일산동구 설문동 494-13번지","indutype":"신변잡화 - 신발","category":"other"}]},{"lat":"37.719591212","long":"126.78870924","imageIndex":17,"items":[{"name":"보물섬","tel":"031-942-9952","addr":"경기도 고양시 일산동구 설문동 744-12번지","indutype":"","category":"other"},{"name":"장춘닭개장","tel":"031-977-4686","addr":"경기도 고양시 일산동구 설문동 744-12번지","indutype":"","category":"other"}]},{"lat":"37.723343002","long":"126.8175428","imageIndex":17,"items":[{"name":"보물창고","tel":"031-977-1677","addr":"경기도 고양시 일산동구 설문동 326-3번지","indutype":"의류 - 정장","category":"other"}]},{"lat":"37.725453012","long":"126.81867184","imageIndex":17,"items":[{"name":"보송보송수건천국","tel":"031-943-2197","addr":"경기도 고양시 일산동구 설문동 347-3번지","indutype":"","category":"other"},{"name":"보송보송수건천국","tel":"031-943-2197","addr":"경기도 고양시 일산동구 설문동 347-3번지","indutype":"직물 - 옷감·직물","category":"other"}]},{"lat":"37.713485762","long":"126.8114318","imageIndex":17,"items":[{"name":"보타닉가든","tel":"031-994-1111","addr":"경기도 고양시 일산동구 설문동 190번지","indutype":"","category":"other"}]},{"lat":"37.723342908","long":"126.7907628","imageIndex":17,"items":[{"name":"본구이","tel":"031-977-9090","addr":"경기도 고양시 일산동구 설문동 722-59번지","indutype":"","category":"other"},{"name":"왕의손국수","tel":"031-977-1135","addr":"경기도 고양시 일산동구 설문동 722-59번지","indutype":"","category":"other"}]},{"lat":"37.71350937","long":"126.80392389","imageIndex":17,"items":[{"name":"빅토리아","tel":"031-975-6152","addr":"경기도 고양시 일산동구 설문동 493-4번지","indutype":"","category":"other"},{"name":"은성파넬","tel":"031-976-8681","addr":"경기도 고양시 일산동구 설문동","indutype":"전기제품 - 기타전기제품","category":"other"},{"name":"은성파넬","tel":"031-976-8681","addr":"경기도 고양시 일산동구 설문동 493-4","indutype":"","category":"other"},{"name":"향기나는목요일","tel":"031-914-1027","addr":"경기도 고양시 일산동구 설문동 493-4번지","indutype":"가구 - 일반가구","category":"other"},{"name":"향기나는목요일","tel":"031-914-1027","addr":"경기도 고양시 일산동구 설문동 493-4번지","indutype":"","category":"other"}]},{"lat":"37.721459598","long":"126.81164947","imageIndex":17,"items":[{"name":"사회적협동조합되돌림(고양지부)","tel":"031-975-1669","addr":"경기도 고양시 일산동구 설문동 1240번지","indutype":"","category":"other"},{"name":"사회적협동조합되돌림(고양지부)","tel":"031-975-1669","addr":"경기도 고양시 일산동구 설문동 1240번지","indutype":"신변잡화 - 기타잡화","category":"other"}]},{"lat":"37.724259134","long":"126.79942608","imageIndex":17,"items":[{"name":"산내한우골","tel":"031-977-7674","addr":"경기도 고양시 일산동구 설문동 556-1번지","indutype":"","category":"other"},{"name":"산내한우골","tel":"031-977-7674","addr":"경기도 고양시 일산동구 설문동 556-1번지","indutype":"","category":"other"},{"name":"행복한장어","tel":"031-976-7616","addr":"경기도 고양시 일산동구 설문동 556-1번지","indutype":"","category":"other"},{"name":"행복한장어/(주) 행복한마음 일산지점","tel":"031-976-7616","addr":"경기도 고양시 일산동구 설문동 556-1번지","indutype":"","category":"other"}]},{"lat":"37.722956238","long":"126.80145997","imageIndex":17,"items":[{"name":"상승대리점","tel":"02-381-2850","addr":"경기도 고양시 일산동구 설문동 572-9번지","indutype":"","category":"other"}]},{"lat":"37.720097294","long":"126.80506317","imageIndex":17,"items":[{"name":"상일상사","tel":"070-4190-3134","addr":"경기도 고양시 일산동구 설문동 478-7번지","indutype":"건축자재 - 보일러·펌프·샷시","category":"other"},{"name":"상일상사","tel":"070-4190-3134","addr":"경기도 고양시 일산동구 설문동 478-7번지","indutype":"","category":"other"}]},{"lat":"37.71657192","long":"126.79311848","imageIndex":17,"items":[{"name":"상준도기","tel":"031-943-6209","addr":"경기도 고양시 일산동구 설문동 784번지","indutype":"건축자재 - 건축용 요업제품","category":"other"},{"name":"상준도기","tel":"031-943-6209","addr":"경기도 고양시 일산동구 설문동 784번지","indutype":"","category":"other"},{"name":"유투프레임","tel":"031-975-4005","addr":"경기도 고양시 일산동구 설문동 784번지","indutype":"","category":"other"},{"name":"유투프레임","tel":"031-975-4005","addr":"경기도 고양시 일산동구 설문동 784번지","indutype":"문화.취미 - 화방·표구점","category":"other"}]},{"lat":"37.722345839","long":"126.79243299","imageIndex":17,"items":[{"name":"서울스포츠","tel":"031-976-3504","addr":"경기도 고양시 일산동구 설문동 719-43번지","indutype":"용역 서비스 - 종합용역","category":"other"},{"name":"서울스포츠","tel":"031-976-3504","addr":"경기도 고양시 일산동구 설문동 719-43번지","indutype":"","category":"other"}]},{"lat":"37.721488672","long":"126.81859092","imageIndex":17,"items":[{"name":"서진","tel":"070-7117-2882","addr":"경기도 고양시 일산동구 설문동 310번지","indutype":"의류 - 기타의류","category":"other"},{"name":"우리방","tel":"031-901-5833","addr":"경기도 고양시 일산동구 설문동 310번지","indutype":"수리서비스 - 세탁소","category":"other"}]},{"lat":"37.721371335","long":"126.8184551","imageIndex":17,"items":[{"name":"서진","tel":"070-7117-2882","addr":"경기도 고양시 일산동구 설문동 310번지","indutype":"","category":"other"}]},{"lat":"37.723265491","long":"126.81411752","imageIndex":17,"items":[{"name":"석우진","tel":"","addr":"경기도 고양시 일산동구 설문동 365-4번지","indutype":"","category":"other"},{"name":"클로버","tel":"031-975-8381","addr":"경기도 고양시 일산동구 설문동 365-4번지","indutype":"","category":"other"}]},{"lat":"37.720344447","long":"126.79681674","imageIndex":17,"items":[{"name":"석호전자","tel":"031-975-6731","addr":"경기도 고양시 일산동구 설문동 536-3번지","indutype":"","category":"other"}]},{"lat":"37.716731677","long":"126.81295457","imageIndex":17,"items":[{"name":"선웨어하우스","tel":"02-749-1940","addr":"경기도 고양시 일산동구 설문동 116-6번지","indutype":"회원제형태 - 기타4","category":"other"},{"name":"선웨어하우스","tel":"02-749-1940","addr":"경기도 고양시 일산동구 설문동 116-6번지","indutype":"","category":"other"}]},{"lat":"37.717871687","long":"126.78942873","imageIndex":17,"items":[{"name":"설문동민물매운탕","tel":"031-975-7285","addr":"경기도 고양시 일산동구 설문동 738-9번지","indutype":"","category":"other"}]},{"lat":"37.722426461","long":"126.81909901","imageIndex":17,"items":[{"name":"설문식당","tel":"031-977-2819","addr":"경기도 고양시 일산동구 설문동 317번지","indutype":"","category":"other"},{"name":"설문식당","tel":"031-977-2819","addr":"경기도 고양시 일산동구 설문동 317번지","indutype":"","category":"other"}]},{"lat":"37.726951512","long":"126.79856798","imageIndex":17,"items":[{"name":"설문카센타","tel":"031-977-5150","addr":"경기도 고양시 일산동구 설문동 599번지","indutype":"","category":"other"},{"name":"우리현대","tel":"031-977-0977","addr":"경기도 고양시 일산동구 설문동 599 외3필지(597,597-1,598-1)","indutype":"","category":"other"}]},{"lat":"37.726403461","long":"126.79945425","imageIndex":17,"items":[{"name":"설문커피/주식회사 로우브랜드","tel":"031-975-5078","addr":"경기도 고양시 일산동구 설문동 582-52번지","indutype":"","category":"other"}]},{"lat":"37.720375617","long":"126.80448398","imageIndex":17,"items":[{"name":"설문한식부페","tel":"031-975-0556","addr":"경기도 고양시 일산동구 설문동 475번지","indutype":"","category":"other"}]},{"lat":"37.72090442","long":"126.80284928","imageIndex":17,"items":[{"name":"세븐퍼니처","tel":"031-976-8608","addr":"경기도 고양시 일산동구 설문동 487-1번지","indutype":"","category":"other"},{"name":"세븐퍼니처","tel":"031-976-8608","addr":"경기도 고양시 일산동구 설문동 487-1번지","indutype":"가구 - 일반가구","category":"other"}]},{"lat":"37.724619646","long":"126.7943435","imageIndex":17,"items":[{"name":"소소함 스튜디오(SOSOHAM STUDIO)","tel":"070-7739-7877","addr":"경기도 고양시 일산동구 설문동 706-33번지","indutype":"가구 - 일반가구","category":"other"},{"name":"소소함 스튜디오(SOSOHAM STUDIO)","tel":"070-7739-7877","addr":"경기도 고양시 일산동구 설문동 706-33번지","indutype":"","category":"other"}]},{"lat":"37.724539101","long":"126.79464998","imageIndex":17,"items":[{"name":"소소함카페","tel":"031-111-1111","addr":"경기도 고양시 일산동구 설문동 706번지","indutype":"","category":"other"}]},{"lat":"37.728792737","long":"126.79528465","imageIndex":17,"items":[{"name":"솔로몬 산업","tel":"031-976-3227","addr":"경기도 고양시 일산동구 설문동 699-80번지","indutype":"","category":"other"},{"name":"솔로몬 산업","tel":"031-976-3227","addr":"경기도 고양시 일산동구 설문동 699-80번지","indutype":"건축자재 - 기타건축자재","category":"other"}]},{"lat":"37.730204205","long":"126.79870651","imageIndex":17,"items":[{"name":"솔밭갈비","tel":"031-977-1294","addr":"경기도 고양시 일산동구 설문동 617번지","indutype":"","category":"other"}]},{"lat":"37.717099012","long":"126.81732018","imageIndex":17,"items":[{"name":"쉼표캠퍼","tel":"031-976-8864","addr":"경기도 고양시 일산동구 설문동 125-15번지","indutype":"","category":"other"}]},{"lat":"37.717180098","long":"126.81731998","imageIndex":17,"items":[{"name":"쉼표캠퍼","tel":"031-976-8864","addr":"경기도 고양시 일산동구 설문동 125-15번지","indutype":"레져용품 - 스포츠·레져용품","category":"other"}]},{"lat":"37.719482532","long":"126.79854312","imageIndex":17,"items":[{"name":"스마트중고재활용센터","tel":"070-7809-8656","addr":"경기도 고양시 일산동구 설문동 530-61번지","indutype":"회원제형태 - 기타4","category":"other"},{"name":"스마트중고재활용센터","tel":"070-7809-8656","addr":"경기도 고양시 일산동구 설문동 530-61번지","indutype":"","category":"other"},{"name":"중고 리싸이클1","tel":"031-944-6330","addr":"경기도 고양시 일산동구 설문동 530-61번지","indutype":"","category":"other"},{"name":"중고 리싸이클1","tel":"031-944-6330","addr":"경기도 고양시 일산동구 설문동 530-61번지","indutype":"전기제품 - 가전제품","category":"other"}]},{"lat":"37.722398607","long":"126.81289473","imageIndex":17,"items":[{"name":"시골떡방앗간","tel":"031-964-2477","addr":"경기도 고양시 일산동구 설문동 364-19번지","indutype":"","category":"other"}]},{"lat":"37.721314702","long":"126.79017879","imageIndex":17,"items":[{"name":"신라","tel":"031-977-4935","addr":"경기도 고양시 일산동구 설문동 720-12번지","indutype":"","category":"other"},{"name":"이화물류","tel":"031-976-3636","addr":"경기도 고양시 일산동구 설문동 720-12번지","indutype":"","category":"other"}]},{"lat":"37.717204571","long":"126.78920381","imageIndex":17,"items":[{"name":"신원종합주방","tel":"031-924-7272","addr":"경기도 고양시 일산동구 설문동 796-1번지","indutype":"주방용구 - 주방용식기","category":"other"},{"name":"신원종합주방","tel":"031-924-7272","addr":"경기도 고양시 일산동구 설문동 796-1번지","indutype":"","category":"other"}]},{"lat":"37.716682772","long":"126.82195995","imageIndex":17,"items":[{"name":"신일코리아(주)","tel":"02-3158-0002","addr":"경기도 고양시 일산동구 설문동","indutype":"농업 - 비료,사료,종자","category":"other"},{"name":"신일코리아(주)","tel":"02-3158-0002","addr":"경기도 고양시 일산동구 설문동 107-8번지","indutype":"","category":"other"}]},{"lat":"37.730374953","long":"126.79845648","imageIndex":17,"items":[{"name":"씨소(SEE,SAW)","tel":"031-976-5556","addr":"경기도 고양시 일산동구 설문동 617-2번지","indutype":"","category":"other"}]},{"lat":"37.71753733","long":"126.79389834","imageIndex":17,"items":[{"name":"씨씨존 주식회사","tel":"031-977-6667","addr":"경기도 고양시 일산동구 설문동 780번지","indutype":"","category":"other"}]},{"lat":"37.723289412","long":"126.79615071","imageIndex":17,"items":[{"name":"씨앤씨팩","tel":"031-941-1466","addr":"경기도 고양시 일산동구 설문동 706-81번지","indutype":"","category":"other"},{"name":"씨앤씨팩","tel":"031-941-1466","addr":"경기도 고양시 일산동구 설문동 706-81번지","indutype":"유통업 영리 - 기타유통업","category":"other"}]},{"lat":"37.717404694","long":"126.80581889","imageIndex":17,"items":[{"name":"씽크인","tel":"031-942-7465","addr":"경기도 고양시 일산동구 설문동 500-19번지","indutype":"주방용구 - 주방용구","category":"other"},{"name":"씽크인","tel":"031-942-7465","addr":"경기도 고양시 일산동구 설문동 500-19번지","indutype":"","category":"other"}]},{"lat":"37.708790231","long":"126.81609345","imageIndex":17,"items":[{"name":"아이스블루(ICE-BLUE)","tel":"0505-308-0007","addr":"경기도 고양시 일산동구 설문동 159-94번지","indutype":"","category":"other"},{"name":"일동후디스서진유통","tel":"","addr":"경기도 고양시 일산동구 설문동 159-94번지","indutype":"","category":"other"}]},{"lat":"37.718041707","long":"126.80422934","imageIndex":17,"items":[{"name":"아즈펙토","tel":"031-975-1163","addr":"경기도 고양시 일산동구 설문동 530-84번지","indutype":"","category":"other"}]},{"lat":"37.710207147","long":"126.81762089","imageIndex":17,"items":[{"name":"아크릴파크","tel":"031-976-4157","addr":"경기도 고양시 일산동구 설문동 153-74번지","indutype":"","category":"other"},{"name":"아크릴파크","tel":"031-976-4157","addr":"경기도 고양시 일산동구 설문동 153-74번지","indutype":"건축자재 - 기타건축자재","category":"other"}]},{"lat":"37.720319646","long":"126.80334991","imageIndex":17,"items":[{"name":"아트만 조형디자인","tel":"031-976-7495","addr":"경기도 고양시 일산동구 설문동 484-2번지","indutype":"건축자재 - 조명기구","category":"other"}]},{"lat":"37.726654296","long":"126.79862551","imageIndex":17,"items":[{"name":"아프리칸아트갤러리","tel":"031-977-6199","addr":"경기도 고양시 일산동구 설문동 582-26번지","indutype":"","category":"other"}]},{"lat":"37.723480897","long":"126.79235038","imageIndex":17,"items":[{"name":"앤티끄허브커피","tel":"031-955-0929","addr":"경기도 고양시 일산동구 설문동 720-1번지","indutype":"","category":"other"},{"name":"일산허브랜드","tel":"031-977-9500","addr":"경기도 고양시 일산동구 설문동 720-1번지","indutype":"","category":"other"}]},{"lat":"37.717403335","long":"126.78950946","imageIndex":17,"items":[{"name":"에스제이(SJ)모터스","tel":"031-976-8879","addr":"경기도 고양시 일산동구 설문동 798-2번지","indutype":"","category":"other"}]},{"lat":"37.728487112","long":"126.79568253","imageIndex":17,"items":[{"name":"에스피지엠컴퍼니","tel":"031-000-0000","addr":"경기도 고양시 일산동구 설문동 699-10번지","indutype":"직물 - 옷감·직물","category":"other"},{"name":"에스피지엠컴퍼니","tel":"031-0-0000","addr":"경기도 고양시 일산동구 설문동 699-10번지","indutype":"","category":"other"}]},{"lat":"37.71748694","long":"126.81764813","imageIndex":17,"items":[{"name":"에어컨하는 남자","tel":"","addr":"경기도 고양시 일산동구 설문동 125-21번지","indutype":"용역 서비스 - 기타용역서비스","category":"other"}]},{"lat":"37.725090977","long":"126.81761785","imageIndex":17,"items":[{"name":"에이치엠(COSMESTIC)","tel":"02-523-8819","addr":"경기도 고양시 일산동구 설문동 351-14번지 폴라리스","indutype":"","category":"other"}]},{"lat":"37.711291801","long":"126.8141479","imageIndex":17,"items":[{"name":"엑스웨이브(X-WAVE)","tel":"031-975-3307","addr":"경기도 고양시 일산동구 설문동 145번지","indutype":"","category":"other"},{"name":"엑스웨이브(X-WAVE)","tel":"031-975-3307","addr":"경기도 고양시 일산동구 설문동 145번지","indutype":"레져용품 - 스포츠·레져용품","category":"other"}]},{"lat":"37.712405979","long":"126.81793296","imageIndex":17,"items":[{"name":"엘스튜디오","tel":"031-977-0322","addr":"경기도 고양시 일산동구 설문동 153-34번지","indutype":"광학제품 - 사진관","category":"other"},{"name":"엘스튜디오","tel":"031-977-0322","addr":"경기도 고양시 일산동구 설문동 153-34번지","indutype":"","category":"other"}]},{"lat":"37.712847462","long":"126.81228402","imageIndex":17,"items":[{"name":"엠엠글로벌","tel":"070-0-0000","addr":"경기도 고양시 일산동구 설문동 191-7번지","indutype":"","category":"other"},{"name":"주식회사대우피앤씨","tel":"031-977-8788","addr":"경기도 고양시 일산동구 설문동 191-7번지","indutype":"","category":"other"}]},{"lat":"37.718621378","long":"126.79553988","imageIndex":17,"items":[{"name":"여가","tel":"031-918-9023","addr":"경기도 고양시 일산동구 설문동 761-43번지","indutype":"","category":"other"}]},{"lat":"37.730095698","long":"126.79847993","imageIndex":17,"items":[{"name":"오리골","tel":"031-977-9252","addr":"경기도 고양시 일산동구 설문동 614번지","indutype":"","category":"other"}]},{"lat":"37.723041249","long":"126.79337246","imageIndex":17,"items":[{"name":"오케이칼국수","tel":"031-977-3608","addr":"경기도 고양시 일산동구 설문동 719-106번지","indutype":"","category":"other"}]},{"lat":"37.730259223","long":"126.7992622","imageIndex":17,"items":[{"name":"옥할머니집","tel":"031-977-5191","addr":"경기도 고양시 일산동구 설문동 624-3번지","indutype":"","category":"other"}]},{"lat":"37.724930299","long":"126.81857105","imageIndex":17,"items":[{"name":"올드룩(OLDLOOK)매드스토어","tel":"02-468-4758","addr":"경기도 고양시 일산동구 설문동 348-2번지","indutype":"","category":"other"},{"name":"올드룩(OLDLOOK)매드스토어","tel":"02-468-4758","addr":"경기도 고양시 일산동구 설문동 348-2번지","indutype":"의류 - 정장","category":"other"}]},{"lat":"37.721737677","long":"126.81090015","imageIndex":17,"items":[{"name":"왕성유압","tel":"031-906-5456","addr":"경기도 고양시 일산동구 설문동 374번지","indutype":"수리서비스 - 기타수리서비스","category":"other"},{"name":"왕성유압","tel":"031-906-5456","addr":"경기도 고양시 일산동구 설문동 374번지","indutype":"","category":"other"}]},{"lat":"37.726067454","long":"126.80856365","imageIndex":17,"items":[{"name":"용우공방","tel":"031-976-2441","addr":"경기도 고양시 일산동구 설문동 356번지","indutype":"","category":"other"},{"name":"용우공방","tel":"031-976-2441","addr":"경기도 고양시 일산동구 설문동 356번지","indutype":"레져용품 - 스포츠·레져용품","category":"other"}]},{"lat":"37.720461282","long":"126.81840065","imageIndex":17,"items":[{"name":"용희보링MBT","tel":"031-976-9457","addr":"경기도 고양시 일산동구 설문동 43-28번지","indutype":"기타 - 기계공구","category":"other"},{"name":"용희보링MBT","tel":"031-976-9457","addr":"경기도 고양시 일산동구 설문동 43-28번지","indutype":"","category":"other"}]},{"lat":"37.719571899","long":"126.79812322","imageIndex":17,"items":[{"name":"우리렌탈서울지사","tel":"031-977-3709","addr":"경기도 고양시 일산동구 설문동 530-216번지","indutype":"","category":"other"},{"name":"우리렌탈서울지사","tel":"031-977-3709","addr":"경기도 고양시 일산동구 설문동 530-216번지","indutype":"신변잡화 - 기타잡화","category":"other"}]},{"lat":"37.725260644","long":"126.79509034","imageIndex":17,"items":[{"name":"운정타일","tel":"031-975-5704","addr":"경기도 고양시 일산동구 설문동 703-2번지","indutype":"건축자재 - 건축용 요업제품","category":"other"},{"name":"운정타일","tel":"031-975-5704","addr":"경기도 고양시 일산동구 설문동 703-2번지","indutype":"","category":"other"},{"name":"주식회사 이노바텍코리아","tel":"031-901-7500","addr":"경기도 고양시 일산동구 설문동 703-2번지","indutype":"건축자재 - 인테리어전문","category":"other"},{"name":"주식회사 이노바텍코리아","tel":"031-901-7500","addr":"경기도 고양시 일산동구 설문동 703-2번지","indutype":"","category":"other"}]},{"lat":"37.709072219","long":"126.81214626","imageIndex":17,"items":[{"name":"원일 대형 세차장","tel":"031-977-3040","addr":"경기도 고양시 일산동구 설문동 167-1번지","indutype":"","category":"other"}]},{"lat":"37.725537995","long":"126.79398929","imageIndex":17,"items":[{"name":"원진물류","tel":"031-913-7936","addr":"경기도 고양시 일산동구 설문동 705-51번지","indutype":"주방용구 - 주방용구","category":"other"},{"name":"원진물류","tel":"031-913-7936","addr":"경기도 고양시 일산동구 설문동 705-51번지","indutype":"","category":"other"}]},{"lat":"37.725623774","long":"126.79665466","imageIndex":17,"items":[{"name":"월드SYSTEM","tel":"031-949-9587","addr":"경기도 고양시 일산동구 설문동 589-5번지","indutype":"","category":"other"},{"name":"월드SYSTEM","tel":"031-949-9587","addr":"경기도 고양시 일산동구 설문동","indutype":"전기제품 - 냉열기기","category":"other"}]},{"lat":"37.722209098","long":"126.81837363","imageIndex":17,"items":[{"name":"월드스카이","tel":"","addr":"경기도 고양시 일산동구 설문동 314-22번지","indutype":"","category":"other"}]},{"lat":"37.723821412","long":"126.79131723","imageIndex":17,"items":[{"name":"유진판넬","tel":"031-976-6114","addr":"경기도 고양시 일산동구 설문동 722-64번지","indutype":"","category":"other"},{"name":"유진판넬","tel":"031-976-6114","addr":"경기도 고양시 일산동구 설문동 722-64번지","indutype":"건축자재 - 기타건축자재","category":"other"}]},{"lat":"37.727098542","long":"126.80023503","imageIndex":17,"items":[{"name":"은곡농원","tel":"031-977-8496","addr":"경기도 고양시 일산동구 설문동 905번지","indutype":"","category":"other"},{"name":"은곡농원","tel":"031-977-8496","addr":"경기도 고양시 일산동구 설문동 905번지","indutype":"농업 - 비료,사료,종자","category":"other"}]},{"lat":"37.718484215","long":"126.81028474","imageIndex":17,"items":[{"name":"은진종합건설","tel":"031-975-9001","addr":"경기도 고양시 일산동구 설문동 266-23번지","indutype":"","category":"other"},{"name":"은진종합건설","tel":"031-975-9001","addr":"경기도 고양시 일산동구 설문동 266-23번지","indutype":"용역 서비스 - 기타용역서비스","category":"other"}]},{"lat":"37.715651734","long":"126.81370586","imageIndex":17,"items":[{"name":"이벤톨","tel":"031-957-6267","addr":"경기도 고양시 일산동구 설문동 234-8번지","indutype":"","category":"other"},{"name":"이벤톨","tel":"031-957-6267","addr":"경기도 고양시 일산동구 설문동 234-8번지","indutype":"레져용품 - 스포츠·레져용품","category":"other"}]},{"lat":"37.719093131","long":"126.79739865","imageIndex":17,"items":[{"name":"이앤이(E&E)","tel":"031-902-2451","addr":"경기도 고양시 일산동구 설문동 530-62번지","indutype":"","category":"other"}]},{"lat":"37.7227869","long":"126.7922049","imageIndex":17,"items":[{"name":"이차돌 일산라페스타점","tel":"031-923-1133","addr":"경기도 고양시 일산동구 설문동 719-53번지","indutype":"","category":"other"}]},{"lat":"37.714875354","long":"126.80723192","imageIndex":17,"items":[{"name":"이화모터스","tel":"031-977-7445","addr":"경기도 고양시 일산동구 설문동 494-11번지","indutype":"","category":"other"}]},{"lat":"37.719954712","long":"126.7904322","imageIndex":17,"items":[{"name":"이화물류","tel":"031-976-3636","addr":"경기도 고양시 일산동구 설문동","indutype":"용역 서비스 - 보관및 창고업","category":"other"},{"name":"이화물류","tel":"031-976-3636","addr":"경기도 고양시 일산동구 설문동 747번지","indutype":"","category":"other"}]},{"lat":"37.727703009","long":"126.82295404","imageIndex":17,"items":[{"name":"일미유통","tel":"031-947-2672","addr":"경기도 고양시 일산동구 설문동 1149번지","indutype":"용역 서비스 - 기타용역서비스","category":"other"},{"name":"일미유통","tel":"031-947-2672","addr":"경기도 고양시 일산동구 설문동 1149번지","indutype":"","category":"other"},{"name":"출장피씨119","tel":"031-942-8929","addr":"경기도 고양시 일산동구 설문동 1149번지","indutype":"","category":"other"}]},{"lat":"37.723654731","long":"126.79898537","imageIndex":17,"items":[{"name":"일미흑염소요리집","tel":"031-975-5244","addr":"경기도 고양시 일산동구 설문동 547-2번지","indutype":"","category":"other"}]},{"lat":"37.723313124","long":"126.79426777","imageIndex":17,"items":[{"name":"일산VIP요양원2","tel":"031-975-8833","addr":"경기도 고양시 일산동구 설문동 706-93번지","indutype":"기타의료기관 - 기타의료기관 및 기타","category":"other"},{"name":"일산VIP요양원2","tel":"031-975-8833","addr":"경기도 고양시 일산동구 설문동 706-93번지","indutype":"","category":"other"}]},{"lat":"37.723511032","long":"126.79409707","imageIndex":17,"items":[{"name":"일산성심요양원","tel":"070-4543-0119","addr":"경기도 고양시 일산동구 설문동 706-92번지","indutype":"","category":"other"},{"name":"일산성심요양원","tel":"070-4543-0119","addr":"경기도 고양시 일산동구 설문동 706-92번지","indutype":"기타의료기관 - 기타의료기관 및 기타","category":"other"}]},{"lat":"37.717179228","long":"126.80568339","imageIndex":17,"items":[{"name":"일산중공업","tel":"031-977-1492","addr":"경기도 고양시 일산동구 설문동 500-20번지","indutype":"","category":"other"},{"name":"일산중기","tel":"02-841-4138","addr":"경기도 고양시 일산동구 설문동 500-20번지","indutype":"","category":"other"},{"name":"일산중기","tel":"02-841-4138","addr":"경기도 고양시 일산동구 설문동 500-20번지","indutype":"건축자재 - 목재·석재·철물","category":"other"}]},{"lat":"37.720264685","long":"126.80281698","imageIndex":17,"items":[{"name":"일산특장","tel":"031-975-6812","addr":"경기도 고양시 일산동구 설문동 489-1번지","indutype":"건축자재 - 기타건축자재","category":"other"},{"name":"일산특장","tel":"031-975-6812","addr":"경기도 고양시 일산동구 설문동 489-1번지","indutype":"","category":"other"}]},{"lat":"37.711486175","long":"126.81176583","imageIndex":17,"items":[{"name":"일오삼목형","tel":"031-000-0000","addr":"경기도 고양시 일산동구 설문동 197번지","indutype":"기타 - 기계공구","category":"other"}]},{"lat":"37.721120559","long":"126.78745719","imageIndex":17,"items":[{"name":"일진기획","tel":"031-977-2490","addr":"경기도 고양시 일산동구 설문동 729-2번지","indutype":"","category":"other"}]},{"lat":"37.727375588","long":"126.7989298","imageIndex":17,"items":[{"name":"일품어찬 주식회사","tel":"031-977-8880","addr":"경기도 고양시 일산동구 설문동 600-1번지","indutype":"","category":"other"},{"name":"청석골가마솥추어탕설문점","tel":"031-976-8350","addr":"경기도 고양시 일산동구 설문동 600-1번지","indutype":"","category":"other"}]},{"lat":"37.721677937","long":"126.79176568","imageIndex":17,"items":[{"name":"잇탈리화덕","tel":"031-111-1111","addr":"경기도 고양시 일산동구 설문동 719-38번지","indutype":"","category":"other"}]},{"lat":"37.723766272","long":"126.81742832","imageIndex":17,"items":[{"name":"장난감학교쓸모","tel":"","addr":"경기도 고양시 일산동구 설문동 342-1번지","indutype":"","category":"other"}]},{"lat":"37.717624823","long":"126.79243501","imageIndex":17,"items":[{"name":"전라식당","tel":"031-977-1865","addr":"경기도 고양시 일산동구 설문동 776-3번지","indutype":"","category":"other"}]},{"lat":"37.724705943","long":"126.80254415","imageIndex":17,"items":[{"name":"전진광고","tel":"031-976-9622","addr":"경기도 고양시 일산동구 설문동 576-3번지","indutype":"","category":"other"},{"name":"한국진도견블랙탄","tel":"031-977-2668","addr":"경기도 고양시 일산동구 설문동 576-3번지","indutype":"","category":"other"},{"name":"한국진도견블랙탄","tel":"031-977-2668","addr":"경기도 고양시 일산동구 설문동 576-3번지","indutype":"기타 - 기타 전문점","category":"other"}]},{"lat":"37.719704706","long":"126.8244025","imageIndex":17,"items":[{"name":"제이덥스매싱기타","tel":"070-8727-9002","addr":"경기도 고양시 일산동구 설문동 70-1번지","indutype":"","category":"other"}]},{"lat":"37.722175994","long":"126.80357178","imageIndex":17,"items":[{"name":"제이아이모터스","tel":"031-923-6116","addr":"경기도 고양시 일산동구 설문동 530-53번지","indutype":"","category":"other"}]},{"lat":"37.722482932","long":"126.80393392","imageIndex":17,"items":[{"name":"제일무역","tel":"031-976-6585","addr":"경기도 고양시 일산동구 설문동 530-54번지","indutype":"","category":"other"},{"name":"제일무역","tel":"031-976-6585","addr":"경기도 고양시 일산동구 설문동 530-54번지","indutype":"신변잡화 - 기타잡화","category":"other"}]},{"lat":"37.710125008","long":"126.81695199","imageIndex":17,"items":[{"name":"제주&비트","tel":"031-641-7939","addr":"경기도 고양시 일산동구 설문동 153-71번지","indutype":"","category":"other"}]},{"lat":"37.723542215","long":"126.79645626","imageIndex":17,"items":[{"name":"주식회사 대한매트","tel":"031-963-9941","addr":"경기도 고양시 일산동구 설문동 706-28번지","indutype":"문화.취미 - 화원","category":"other"}]},{"lat":"37.717008779","long":"126.79054269","imageIndex":17,"items":[{"name":"주식회사 더담티씨(THE DAM T C)","tel":"031-909-0813","addr":"경기도 고양시 일산동구 설문동 787-22번지","indutype":"유통업 영리 - 기타유통업","category":"other"}]},{"lat":"37.718071224","long":"126.80039572","imageIndex":17,"items":[{"name":"주식회사 상상팩토리","tel":"031-976-7886","addr":"경기도 고양시 일산동구 설문동 530-189번지","indutype":"","category":"other"},{"name":"주식회사 상상팩토리","tel":"031-976-7886","addr":"경기도 고양시 일산동구 설문동 530-189번지","indutype":"용역 서비스 - 기타용역서비스","category":"other"}]},{"lat":"37.719735425","long":"126.80417945","imageIndex":17,"items":[{"name":"주식회사 아티콜로","tel":"031-976-0081","addr":"경기도 고양시 일산동구 설문동 477번지","indutype":"","category":"other"},{"name":"주식회사 아티콜로","tel":"031-976-0081","addr":"경기도 고양시 일산동구 설문동 477번지","indutype":"신변잡화 - 시계","category":"other"},{"name":"한양화학소재","tel":"031-977-7654","addr":"경기도 고양시 일산동구 설문동 477번지","indutype":"기타 - 기계공구","category":"other"},{"name":"한양화학소재","tel":"031-977-7654","addr":"경기도 고양시 일산동구 설문동 477번지","indutype":"","category":"other"}]},{"lat":"37.710234232","long":"126.81200719","imageIndex":17,"items":[{"name":"주식회사 엠와이에스","tel":"031-975-2024","addr":"경기도 고양시 일산동구 설문동 175-1번지","indutype":"","category":"other"},{"name":"주식회사 엠와이에스","tel":"031-975-2024","addr":"경기도 고양시 일산동구 설문동 175-1번지","indutype":"신변잡화 - 신발","category":"other"},{"name":"주식회사오마이솔코리아","tel":"031-920-8002","addr":"경기도 고양시 일산동구 설문동 175-1번지","indutype":"의류 - 기타의류","category":"other"},{"name":"주식회사오마이솔코리아","tel":"031-920-8002","addr":"경기도 고양시 일산동구 설문동 175-1번지","indutype":"","category":"other"}]},{"lat":"37.726039752","long":"126.80815537","imageIndex":17,"items":[{"name":"주식회사 와이비글로벌","tel":"031-938-7322","addr":"경기도 고양시 일산동구 설문동 355-2번지","indutype":"","category":"other"}]},{"lat":"37.72198357","long":"126.79137917","imageIndex":17,"items":[{"name":"주식회사 인코리아","tel":"031-919-6322","addr":"경기도 고양시 일산동구 설문동 719-70번지","indutype":"","category":"other"}]},{"lat":"37.725396874","long":"126.80622875","imageIndex":17,"items":[{"name":"주식회사 제세","tel":"02-1661-0263","addr":"경기도 고양시 일산동구 설문동 424번지","indutype":"","category":"other"}]},{"lat":"37.718035927","long":"126.79057378","imageIndex":17,"items":[{"name":"주식회사 준수","tel":"070-4015-2000","addr":"경기도 고양시 일산동구 설문동 740-3번지","indutype":"서적문구 - 문구용품","category":"other"}]},{"lat":"37.716206785","long":"126.80603755","imageIndex":17,"items":[{"name":"주식회사 청정바이오","tel":"031-975-7818","addr":"경기도 고양시 일산동구 설문동 500-14번지","indutype":"","category":"other"},{"name":"주식회사 청정바이오","tel":"031-975-7818","addr":"경기도 고양시 일산동구 설문동 500-14번지","indutype":"신변잡화 - 기타잡화","category":"other"}]},{"lat":"37.712953124","long":"126.80532033","imageIndex":17,"items":[{"name":"주식회사 텔루스카라반","tel":"031-902-1244","addr":"경기도 고양시 일산동구 설문동 515-14번지","indutype":"","category":"other"}]},{"lat":"37.722541753","long":"126.79115073","imageIndex":17,"items":[{"name":"주식회사 현암산업개발","tel":"031-976-8021","addr":"경기도 고양시 일산동구 설문동 720-3번지","indutype":"건축자재 - 부동산 분양","category":"other"},{"name":"타비아","tel":"031-977-0718","addr":"경기도 고양시 일산동구 설문동 720-3번지","indutype":"가구 - 일반가구","category":"other"},{"name":"타비아","tel":"031-977-0718","addr":"경기도 고양시 일산동구 설문동 720-3번지","indutype":"","category":"other"},{"name":"팔당냉면 일산설문점","tel":"031-977-6667","addr":"경기도 고양시 일산동구 설문동 720-3번지","indutype":"","category":"other"}]},{"lat":"37.721402745","long":"126.7890443","imageIndex":17,"items":[{"name":"주식회사 휴먼앤네이쳐","tel":"070-8802-1122","addr":"경기도 고양시 일산동구 설문동 722-23번지","indutype":"","category":"other"}]},{"lat":"37.731175065","long":"126.79745602","imageIndex":17,"items":[{"name":"주식회사나본","tel":"02-553-2339","addr":"경기도 고양시 일산동구 설문동 621-86번지","indutype":"","category":"other"}]},{"lat":"37.71717725","long":"126.79406948","imageIndex":17,"items":[{"name":"주식회사로젠해운","tel":"031-976-2426","addr":"경기도 고양시 일산동구 설문동 783-1번지","indutype":"","category":"other"}]},{"lat":"37.721926415","long":"126.8106161","imageIndex":17,"items":[{"name":"주식회사해피메리드","tel":"02-6017-2770","addr":"경기도 고양시 일산동구 설문동 379번지","indutype":"","category":"other"}]},{"lat":"37.718703752","long":"126.82381512","imageIndex":17,"items":[{"name":"주식회사현솔","tel":"031-7630-9962","addr":"경기도 고양시 일산동구 설문동 70-13번지","indutype":"","category":"other"}]},{"lat":"37.716294832","long":"126.81584778","imageIndex":17,"items":[{"name":"준에어컨","tel":"031-976-0847","addr":"경기도 고양시 일산동구 설문동 123번지","indutype":"전기제품 - 냉열기기","category":"other"},{"name":"준에어컨","tel":"031-976-0847","addr":"경기도 고양시 일산동구 설문동 123번지","indutype":"","category":"other"}]},{"lat":"37.71748646","long":"126.80089635","imageIndex":17,"items":[{"name":"중부패널산업","tel":"031-975-4300","addr":"경기도 고양시 일산동구 설문동 530-187번지","indutype":"","category":"other"},{"name":"중부패널산업","tel":"031-975-4300","addr":"경기도 고양시 일산동구 설문동","indutype":"건축자재 - 기타건축자재","category":"other"}]},{"lat":"37.724069775","long":"126.80462159","imageIndex":17,"items":[{"name":"지우유통","tel":"031-976-6788","addr":"경기도 고양시 일산동구 설문동 961번지","indutype":"","category":"other"}]},{"lat":"37.719044298","long":"126.80573515","imageIndex":17,"items":[{"name":"청아꽃집","tel":"031-977-8399","addr":"경기도 고양시 일산동구 설문동 478-11번지","indutype":"문화.취미 - 화원","category":"other"},{"name":"청아꽃집","tel":"031-977-8399","addr":"경기도 고양시 일산동구 설문동 478-11번지","indutype":"","category":"other"}]},{"lat":"37.718565386","long":"126.80489712","imageIndex":17,"items":[{"name":"청아편의점","tel":"031-977-9911","addr":"경기도 고양시 일산동구 설문동","indutype":"유통업 영리 - 편 의 점","category":"other"},{"name":"청아편의점","tel":"031-977-9911","addr":"경기도 고양시 일산동구 설문동 530-73번지","indutype":"","category":"other"}]},{"lat":"37.721066046","long":"126.78720781","imageIndex":17,"items":[{"name":"칠갑산두부마을","tel":"031-977-8526","addr":"경기도 고양시 일산동구 설문동 731-2번지","indutype":"","category":"other"}]},{"lat":"37.715181547","long":"126.80715172","imageIndex":17,"items":[{"name":"카샵","tel":"031-977-5177","addr":"경기도 고양시 일산동구 설문동 494-2번지","indutype":"","category":"other"}]},{"lat":"37.716377016","long":"126.81092533","imageIndex":17,"items":[{"name":"카페GUSA (구사)","tel":"031-977-0442","addr":"경기도 고양시 일산동구 설문동 238-4번지","indutype":"","category":"other"}]},{"lat":"37.714730924","long":"126.8182334","imageIndex":17,"items":[{"name":"컴팩트이엔지(COMPACT ENG)","tel":"","addr":"경기도 고양시 일산동구 설문동 135-31번지 2동","indutype":"","category":"other"},{"name":"컴팩트이엔지(COMPACT ENG)","tel":"","addr":"경기도 고양시 일산동구 설문동 135-31번지","indutype":"기타 - 기계공구","category":"other"}]},{"lat":"37.72517386","long":"126.8022026","imageIndex":17,"items":[{"name":"코드","tel":"031-8076-5191","addr":"경기도 고양시 일산동구 설문동 576-5번지","indutype":"","category":"other"}]},{"lat":"37.719789669","long":"126.78884478","imageIndex":17,"items":[{"name":"클럽타이어JK일산점","tel":"031-976-3727","addr":"경기도 고양시 일산동구 설문동 744-8번지","indutype":"","category":"other"}]},{"lat":"37.725036581","long":"126.81740247","imageIndex":17,"items":[{"name":"클레시아","tel":"","addr":"경기도 고양시 일산동구 설문동 351-17번지 폴라리스","indutype":"문화.취미 - 티켓","category":"other"}]},{"lat":"37.734593183","long":"126.79431553","imageIndex":17,"items":[{"name":"키즈스마일7","tel":"","addr":"경기도 고양시 일산동구 설문동 696-24번지","indutype":"서적문구 - 기타서적문구","category":"other"}]},{"lat":"37.725451937","long":"126.80148724","imageIndex":17,"items":[{"name":"탕수육","tel":"031-977-7112","addr":"경기도 고양시 일산동구 설문동 583-33번지 2동","indutype":"","category":"other"}]},{"lat":"37.724872954","long":"126.79493262","imageIndex":17,"items":[{"name":"태진이앤지(ENG)","tel":"031-976-4989","addr":"경기도 고양시 일산동구 설문동 707-2번지","indutype":"","category":"other"},{"name":"태진종합주방","tel":"031-976-4989","addr":"경기도 고양시 일산동구 설문동 707-2번지","indutype":"주방용구 - 주방용구","category":"other"},{"name":"태진종합주방","tel":"031-976-4989","addr":"경기도 고양시 일산동구 설문동 707-2번지","indutype":"","category":"other"}]},{"lat":"37.719898474","long":"126.80470076","imageIndex":17,"items":[{"name":"태홍판지공업사","tel":"031-975-5713","addr":"경기도 고양시 일산동구 설문동 478-8번지","indutype":"","category":"other"},{"name":"태홍판지공업사","tel":"031-975-5713","addr":"경기도 고양시 일산동구 설문동 478-8번지","indutype":"유통업 영리 - 기타유통업","category":"other"}]},{"lat":"37.708767559","long":"126.81317902","imageIndex":17,"items":[{"name":"태흥모터스","tel":"031-962-0858","addr":"경기도 고양시 일산동구 설문동 167-13번지","indutype":"","category":"other"},{"name":"태흥상사","tel":"031-962-7704","addr":"경기도 고양시 일산동구 설문동 167-13번지","indutype":"건축자재 - 페인트","category":"other"},{"name":"태흥상사","tel":"031-962-7704","addr":"경기도 고양시 일산동구 설문동 167-13번지","indutype":"","category":"other"}]},{"lat":"37.722816704","long":"126.8209242","imageIndex":17,"items":[{"name":"투베이스","tel":"070-7743-2855","addr":"경기도 고양시 일산동구 설문동 31-20번지","indutype":"","category":"other"}]},{"lat":"37.717342132","long":"126.80079467","imageIndex":17,"items":[{"name":"트라이빙렌탈","tel":"031-977-3709","addr":"경기도 고양시 일산동구 설문동 530-65번지","indutype":"","category":"other"}]},{"lat":"37.721431528","long":"126.80023912","imageIndex":17,"items":[{"name":"티슈코리아","tel":"031-913-4114","addr":"경기도 고양시 일산동구 설문동 563-2번지","indutype":"신변잡화 - 기타잡화","category":"other"}]},{"lat":"37.716288948","long":"126.80134192","imageIndex":17,"items":[{"name":"티파니파트너 주식회사","tel":"031-000-0000","addr":"경기도 고양시 일산동구 설문동 522번지","indutype":"신변잡화 - 기타잡화","category":"other"}]},{"lat":"37.715594041","long":"126.80598247","imageIndex":17,"items":[{"name":"포시즌유통","tel":"031-1111-1111","addr":"경기도 고양시 일산동구 설문동 500-7번지","indutype":"농업 - 기타농업관련","category":"other"},{"name":"포시즌유통","tel":"031-1111-1111","addr":"경기도 고양시 일산동구 설문동 500-7번지","indutype":"","category":"other"}]},{"lat":"37.713404569","long":"126.80589753","imageIndex":17,"items":[{"name":"풍년식당","tel":"031-977-1588","addr":"경기도 고양시 일산동구 설문동 514번지","indutype":"","category":"other"}]},{"lat":"37.713262323","long":"126.8125438","imageIndex":17,"items":[{"name":"플러스퍼니처","tel":"031-975-8855","addr":"경기도 고양시 일산동구 설문동 191-3번지","indutype":"","category":"other"},{"name":"플러스퍼니처","tel":"031-975-8855","addr":"경기도 고양시 일산동구 설문동 191-3번지","indutype":"가구 - 일반가구","category":"other"}]},{"lat":"37.710988707","long":"126.81617866","imageIndex":17,"items":[{"name":"하나디자인","tel":"031-976-8493","addr":"경기도 고양시 일산동구 설문동 148번지","indutype":"용역 서비스 - 종합용역","category":"other"},{"name":"하나디자인","tel":"031-976-8493","addr":"경기도 고양시 일산동구 설문동 148번지","indutype":"","category":"other"},{"name":"한빛유리","tel":"031-965-4729","addr":"경기도 고양시 일산동구 설문동 148번지","indutype":"건축자재 - 유리","category":"other"},{"name":"한빛유리","tel":"031-965-4729","addr":"경기도 고양시 일산동구 설문동 148번지","indutype":"","category":"other"}]},{"lat":"37.725488235","long":"126.80698849","imageIndex":17,"items":[{"name":"하이퍼디피","tel":"02-359-1818","addr":"경기도 고양시 일산동구 설문동 421-1번지","indutype":"","category":"other"}]},{"lat":"37.711314901","long":"126.81170956","imageIndex":17,"items":[{"name":"한강레이저","tel":"031-965-4138","addr":"경기도 고양시 일산동구 설문동 198번지","indutype":"건축자재 - 건축용 요업제품","category":"other"},{"name":"한강레이저","tel":"031-965-4138","addr":"경기도 고양시 일산동구 설문동 198번지","indutype":"","category":"other"}]},{"lat":"37.722623447","long":"126.8017898","imageIndex":17,"items":[{"name":"한민EOS","tel":"","addr":"경기도 고양시 일산동구 설문동 570번지","indutype":"사무통신 - 기타 사무용품","category":"other"},{"name":"한민EOS","tel":"","addr":"경기도 고양시 일산동구 설문동 570번지","indutype":"","category":"other"}]},{"lat":"37.712045575","long":"126.81226339","imageIndex":17,"items":[{"name":"한백축산","tel":"031-977-2153","addr":"경기도 고양시 일산동구 설문동 194-1번지","indutype":"","category":"other"}]},{"lat":"37.722654283","long":"126.79362309","imageIndex":17,"items":[{"name":"한성프레임","tel":"031-977-2757","addr":"경기도 고양시 일산동구 설문동 719-24번지","indutype":"신변잡화 - 기타잡화","category":"other"},{"name":"한성프레임","tel":"031-977-2757","addr":"경기도 고양시 일산동구 설문동 719-24번지","indutype":"","category":"other"}]},{"lat":"37.724624046","long":"126.81861718","imageIndex":17,"items":[{"name":"할머니가마솥보신탕","tel":"031-977-4488","addr":"경기도 고양시 일산동구 설문동 345-2번지","indutype":"","category":"other"}]},{"lat":"37.719374819","long":"126.78861913","imageIndex":17,"items":[{"name":"항아리 화원","tel":"031-976-0568","addr":"경기도 고양시 일산동구 설문동","indutype":"문화.취미 - 화원","category":"other"},{"name":"항아리 화원","tel":"031-976-0568","addr":"경기도 고양시 일산동구 설문동 1135-1번지","indutype":"","category":"other"}]},{"lat":"37.725592534","long":"126.79426137","imageIndex":17,"items":[{"name":"해나원","tel":"031-977-5354","addr":"경기도 고양시 일산동구 설문동 705-17번지","indutype":"","category":"other"}]},{"lat":"37.723373228","long":"126.79260023","imageIndex":17,"items":[{"name":"허브랜드화원","tel":"031-977-0884","addr":"경기도 고양시 일산동구 설문동 720-24","indutype":"","category":"other"}]},{"lat":"37.709595854","long":"126.81281401","imageIndex":17,"items":[{"name":"현대냉동","tel":"031-938-9710","addr":"경기도 고양시 일산동구 설문동 163-1번지","indutype":"","category":"other"},{"name":"현대냉동","tel":"031-938-9710","addr":"경기도 고양시 일산동구 설문동","indutype":"전기제품 - 냉열기기","category":"other"}]},{"lat":"37.714926165","long":"126.81073627","imageIndex":17,"items":[{"name":"현부채널","tel":"031-967-1506","addr":"경기도 고양시 일산동구 설문동 226-4번지","indutype":"","category":"other"}]},{"lat":"37.720209529","long":"126.8187302","imageIndex":17,"items":[{"name":"현진무역","tel":"031-977-8668","addr":"경기도 고양시 일산동구 설문동 43-29번지","indutype":"가구 - 일반가구","category":"other"},{"name":"현진무역","tel":"031-977-8668","addr":"경기도 고양시 일산동구 설문동 43-29번지","indutype":"","category":"other"}]},{"lat":"37.718764749","long":"126.81104393","imageIndex":17,"items":[{"name":"휴바스","tel":"031-977-5830","addr":"경기도 고양시 일산동구 설문동 251-5번지","indutype":"","category":"other"}]}]