[{"lat":"37.080315747","long":"127.06303773","imageIndex":8,"items":[{"name":"모은종치과의원","tel":"031-611-2275","addr":"경기도 평택시 독곡동 483번지 서북빌딩 2층","indutype":"의원 - 치과의원","category":"medical"}]},{"lat":"37.089037623","long":"127.06373071","imageIndex":8,"items":[{"name":"미리내의원","tel":"031-611-1218","addr":"경기도 평택시 독곡동 380번지","indutype":"의원 - 의원","category":"medical"}]},{"lat":"37.088312458","long":"127.07163702","imageIndex":8,"items":[{"name":"서울요양병원","tel":"02-1644-9339","addr":"경기도 평택시 독곡동 155-1번지","indutype":"병원 - 병원","category":"medical"}]},{"lat":"37.087785311","long":"127.06342604","imageIndex":8,"items":[{"name":"예은약국","tel":"031-664-1046","addr":"경기도 평택시 독곡동 378-1번지 2층","indutype":"약국 - 약국","category":"medical"},{"name":"예은약국","tel":"031-666-1909","addr":"경기도 평택시 독곡동 378-1번지 2층","indutype":"소매업 - 약국","category":"medical"}]},{"lat":"37.080540418","long":"127.06419626","imageIndex":8,"items":[{"name":"유일약국","tel":"031-666-1909","addr":"경기도 평택시 독곡동 488번지","indutype":"약국 - 약국","category":"medical"},{"name":"유일약국","tel":"080-667-0909","addr":"경기도 평택시 독곡동 488번지","indutype":"소매업 - 약국","category":"medical"},{"name":"좋은샘가정의학과의원","tel":"031-668-9411","addr":"경기도 평택시 독곡동 488번지 우남빌딩 2층","indutype":"의원 - 의원","category":"medical"}]}]