[{"lat":"36.999659197","long":"127.09483454","imageIndex":16,"items":[{"name":"(주)에스피에듀 평택지점","tel":"031-653-3989","addr":"경기도 평택시 비전동 487-13번지","indutype":"학원 - 보습학원","category":"study"},{"name":"라움프리미엄(raum premium)독서실","tel":"031-657-8228","addr":"경기도 평택시 비전동 487-13번지 302호","indutype":"학원 - 독서실","category":"study"},{"name":"맥썸뮤직실용음악학원","tel":"031-616-2110","addr":"경기도 평택시 비전동 487-13번지 401호","indutype":"학원 - 예·체능계학원","category":"study"},{"name":"비전3잉글리쉬무무학원","tel":"031-653-0598","addr":"경기도 평택시 비전동 487-13번지 202호","indutype":"학원 - 외국어학원","category":"study"},{"name":"아이캔드로미술교습소","tel":"","addr":"경기도 평택시 비전동 487-13번지 1층 102호 일부","indutype":"학원 - 예·체능계학원","category":"study"},{"name":"잉글리시아이비전2점학원","tel":"031-653-0598","addr":"경기도 평택시 비전동 487-13번지 202호","indutype":"학원 - 보습학원","category":"study"}]},{"lat":"37.004553438","long":"127.10414301","imageIndex":16,"items":[{"name":"531학원","tel":"031-652-0531","addr":"경기도 평택시 비전동 1012-2번지 우성메디피아 701호","indutype":"학원 - 보습학원","category":"study"},{"name":"슈에뜨발레무용학원","tel":"031-655-0666","addr":"경기도 평택시 비전동 1012-2번지 우성메디피아 704호","indutype":"학원 - 예·체능계학원","category":"study"},{"name":"윤유경플러스학원","tel":"031-692-2005","addr":"경기도 평택시 비전동 1012-2번지 우성메디피아 801,802,803호","indutype":"학원 - 보습학원","category":"study"},{"name":"윤플러스코칭학원","tel":"031-651-2009","addr":"경기도 평택시 비전동 1012-2번지 우성메디피아 상가동 8층 804호","indutype":"학원 - 보습학원","category":"study"},{"name":"윤플러스코칭학원","tel":"031-651-2009","addr":"경기도 평택시 비전동 1012-2번지 우성메디피아 상가동 8층 804호","indutype":"학원 - 보습학원","category":"study"},{"name":"이앤씨(E&C)학원","tel":"","addr":"경기도 평택시 비전동 1012-2번지 우성메디피아 702호,703호 전부","indutype":"학원 - 보습학원","category":"study"},{"name":"이투스수학비전학원","tel":"031-692-3336","addr":"경기도 평택시 비전동 1012-2번지 우성메디피아 603호","indutype":"학원 - 보습학원","category":"study"}]},{"lat":"36.992495303","long":"127.11613533","imageIndex":16,"items":[{"name":"ACE아카데미학원","tel":"031-653-7174","addr":"경기도 평택시 비전동 886-13번지","indutype":"학원 - 보습학원","category":"study"}]},{"lat":"36.996216775","long":"127.10619896","imageIndex":16,"items":[{"name":"Bell\"s String바이올린학원","tel":"031-691-2444","addr":"경기도 평택시 비전동 823-4번지 1층","indutype":"학원 - 예·체능계학원","category":"study"}]},{"lat":"37.004382475","long":"127.1038619","imageIndex":16,"items":[{"name":"CMS에듀케이션평택비전센터학원","tel":"031-692-7755","addr":"경기도 평택시 비전동 1012-1번지 아이메듀타워 801동 803호","indutype":"학원 - 보습학원","category":"study"},{"name":"아인클랑음악학원","tel":"031-658-7774","addr":"경기도 평택시 비전동 1012-1번지 아이메듀타워 5층 503호","indutype":"학원 - 예·체능계학원","category":"study"},{"name":"한수영학원","tel":"031-653-7987","addr":"경기도 평택시 비전동 1012-1번지 701호,702호일부","indutype":"학원 - 보습학원","category":"study"}]},{"lat":"36.995217048","long":"127.09467192","imageIndex":16,"items":[{"name":"DNA학원","tel":"031-691-7182","addr":"경기도 평택시 비전동 613-1번지 2층","indutype":"회원제형태 - 학원","category":"study"},{"name":"강선생중국어교습소","tel":"031-691-1480","addr":"경기도 평택시 비전동 613-1번지 1층","indutype":"학원 - 외국어학원","category":"study"}]},{"lat":"36.991052818","long":"127.11694197","imageIndex":16,"items":[{"name":"Doobap비전분원실용음악학원","tel":"031-618-9987","addr":"경기도 평택시 비전동 132-10번지 2층","indutype":"회원제형태 - 학원","category":"study"},{"name":"Doobop비전분원실용음악학원","tel":"031-653-5812","addr":"경기도 평택시 비전동 132-10번지 2층","indutype":"서비스업 - 교육(음악학원)","category":"study"},{"name":"용인대비전태권도","tel":"031-658-5573","addr":"경기도 평택시 비전동 132-10번지","indutype":"학원 - 예·체능계학원","category":"study"}]},{"lat":"37.000323951","long":"127.10813683","imageIndex":16,"items":[{"name":"ERC영어독서클럽비전효성영어교습소","tel":"031-653-0594","addr":"경기도 평택시 비전동 1089번지 평택비전동효성백년가약 201호","indutype":"학원 - 외국어학원","category":"study"},{"name":"윤샘입시수학교습소","tel":"","addr":"경기도 평택시 비전동 1089번지 효성백년가약 근린생활시설-2 203호","indutype":"학원 - 보습학원","category":"study"},{"name":"효성반디어린이집[아이행복]","tel":"031-692-3806","addr":"경기도 평택시 비전동 1089번지 평택비전동효성백년가약 관리동","indutype":"학원 - 유아원","category":"study"}]},{"lat":"36.993604541","long":"127.09414201","imageIndex":16,"items":[{"name":"EiE평택비전고려대학교국제어학원","tel":"031-652-6633","addr":"경기도 평택시 비전동 617-2번지 2층","indutype":"학원 - 외국어학원","category":"study"},{"name":"평택타일기술학원","tel":"031-654-4882","addr":"경기도 평택시 비전동 617-2번지 3층 전부","indutype":"학원 - 기능학원","category":"study"}]},{"lat":"36.992549228","long":"127.11628144","imageIndex":16,"items":[{"name":"Englishmoumou","tel":"031-692-9905","addr":"경기도 평택시 비전동 886-12번지 1층","indutype":"회원제형태 - 학원","category":"study"}]},{"lat":"37.004824417","long":"127.10336815","imageIndex":16,"items":[{"name":"FTK English 어학원","tel":"02-1644-3701","addr":"경기도 평택시 비전동 996-1번지 201호","indutype":"학원 - 외국어학원","category":"study"}]},{"lat":"36.992548352","long":"127.10741842","imageIndex":16,"items":[{"name":"JKM 수학교습소","tel":"031-655-5140","addr":"경기도 평택시 비전동 217-3번지 2층","indutype":"학원 - 보습학원","category":"study"},{"name":"KELS케네디 영어학원","tel":"031-692-3655","addr":"경기도 평택시 비전동 217-3번지 상가 2층","indutype":"회원제형태 - 학원","category":"study"}]},{"lat":"37.004995458","long":"127.10355937","imageIndex":16,"items":[{"name":"LnC영어교습소","tel":"032-562-1050","addr":"경기도 평택시 비전동 996번지 SK타워 202호","indutype":"학원 - 외국어학원","category":"study"},{"name":"대성N학원","tel":"031-653-3601","addr":"경기도 평택시 비전동 996번지 SK타워 503,504","indutype":"학원 - 보습학원","category":"study"},{"name":"배진 영어수학 전문학원","tel":"031-653-1206","addr":"경기도 평택시 비전동 996번지 SK타워 502호","indutype":"학원 - 보습학원","category":"study"},{"name":"시그마수학학원","tel":"031-657-0713","addr":"경기도 평택시 비전동 996번지 4층 시그마 401호 수학학원","indutype":"학원 - 보습학원","category":"study"}]},{"lat":"36.995635687","long":"127.111141","imageIndex":16,"items":[{"name":"MBL집중력독서학원","tel":"031-618-8219","addr":"경기도 평택시 비전동 829-1번지 2층 일부","indutype":"학원 - 기타 교육기관","category":"study"}]},{"lat":"36.991080288","long":"127.10664134","imageIndex":16,"items":[{"name":"MTM 명문학원","tel":"031-651-7501","addr":"경기도 평택시 비전동 764-7번지 2층","indutype":"학원 - 보습학원","category":"study"}]},{"lat":"36.9911078","long":"127.10609096","imageIndex":16,"items":[{"name":"PKS학원","tel":"031-652-6909","addr":"경기도 평택시 비전동 764-11번지 3층","indutype":"학원 - 보습학원","category":"study"},{"name":"예나실용무용댄스학원","tel":"031-652-1243","addr":"경기도 평택시 비전동 764-11번지 2층","indutype":"학원 - 예·체능계학원","category":"study"}]},{"lat":"36.999137028","long":"127.09424973","imageIndex":16,"items":[{"name":"SM성문학원","tel":"031-654-5988","addr":"경기도 평택시 비전동 487-58번지","indutype":"학원 - 보습학원","category":"study"},{"name":"필레몬실용음악학원","tel":"031-658-3080","addr":"경기도 평택시 비전동 487-58번지 4층","indutype":"학원 - 예·체능계학원","category":"study"}]},{"lat":"36.999524315","long":"127.09447488","imageIndex":16,"items":[{"name":"SS비전학원","tel":"031-652-1297","addr":"경기도 평택시 비전동 산108-10번지 2층","indutype":"학원 - 보습학원","category":"study"}]},{"lat":"37.003994209","long":"127.10480512","imageIndex":16,"items":[{"name":"STA경희대 삼성태권도","tel":"031-653-5112","addr":"경기도 평택시 비전동 1013번지 태성빌딩 507동 508호","indutype":"학원 - 예·체능계학원","category":"study"},{"name":"라이해법중국어교습소","tel":"031-655-8790","addr":"경기도 평택시 비전동 1013번지 태성빌딩 502호","indutype":"학원 - 외국어학원","category":"study"},{"name":"소사벌YBM잉글루어학원","tel":"031-653-0942","addr":"경기도 평택시 비전동 1013번지 태성빌딩 505~506호","indutype":"회원제형태 - 학원","category":"study"}]},{"lat":"36.993441532","long":"127.09519776","imageIndex":16,"items":[{"name":"Say Top","tel":"031-651-0102","addr":"경기도 평택시 비전동 731-8번지 3층","indutype":"학원 - 보습학원","category":"study"},{"name":"은새 어린이집[아이행복]","tel":"031-655-9792","addr":"경기도 평택시 비전동 731-8번지","indutype":"학원 - 유아원","category":"study"},{"name":"팀(TEAM)학원","tel":"031-656-7748","addr":"경기도 평택시 비전동 731-8번지 2층 전부","indutype":"학원 - 보습학원","category":"study"}]},{"lat":"36.992355405","long":"127.10122867","imageIndex":16,"items":[{"name":"f(x)수학학원","tel":"031-618-7322","addr":"경기도 평택시 비전동 761번지 3층","indutype":"학원 - 보습학원","category":"study"},{"name":"정현화외국어학원","tel":"031-654-2504","addr":"경기도 평택시 비전동 761번지 동아빌딩 3층일부","indutype":"학원 - 보습학원","category":"study"},{"name":"주식회사 평택행정고시학원","tel":"02-656-8888","addr":"경기도 평택시 비전동 761번지 동아빌딩 4층","indutype":"학원 - 기능학원","category":"study"}]},{"lat":"37.004022591","long":"127.10322104","imageIndex":16,"items":[{"name":"강의하는아이들학원","tel":"031-655-1295","addr":"경기도 평택시 비전동 1015번지 엘도라도시티 401호","indutype":"학원 - 보습학원","category":"study"},{"name":"브레인학원","tel":"031-656-3337","addr":"경기도 평택시 비전동 1015번지 엘도라도 시티 303,304호","indutype":"학원 - 보습학원","category":"study"},{"name":"엠코어수학학원","tel":"031-655-2510","addr":"경기도 평택시 비전동 1015번지 엘도라도시티 5층 504호","indutype":"학원 - 보습학원","category":"study"},{"name":"주식회사 평택비전정상어학원","tel":"031-111-1111","addr":"경기도 평택시 비전동 1015번지 엘도라도시티 402,403,404호","indutype":"학원 - 외국어학원","category":"study"},{"name":"플랜에이독서실","tel":"031-655-4200","addr":"경기도 평택시 비전동 1015번지 5층 501-503호","indutype":"학원 - 독서실","category":"study"}]},{"lat":"36.99571775","long":"127.09958165","imageIndex":16,"items":[{"name":"강현어린이집[아이행복]","tel":"031-656-0239","addr":"경기도 평택시 비전동 518-2번지","indutype":"학원 - 유아원","category":"study"}]},{"lat":"36.994770198","long":"127.11164528","imageIndex":16,"items":[{"name":"강현태권도","tel":"031-656-7340","addr":"경기도 평택시 비전동 832-6번지","indutype":"학원 - 예·체능계학원","category":"study"}]},{"lat":"36.994275042","long":"127.11117277","imageIndex":16,"items":[{"name":"걸음마어린이집[아이행복]","tel":"031-657-9590","addr":"경기도 평택시 비전동 931번지 비전경남아너스빌 105동 103호","indutype":"학원 - 유아원","category":"study"},{"name":"걸음마어린이집[아이행복]","tel":"031-657-9590","addr":"경기도 평택시 비전동 931번지 비전경남아너스빌 105동 103호","indutype":"학원 - 유아원","category":"study"}]},{"lat":"36.996462704","long":"127.11327659","imageIndex":16,"items":[{"name":"검무관","tel":"031-657-0933","addr":"경기도 평택시 비전동 872-6번지","indutype":"회원제형태 - 학원","category":"study"}]},{"lat":"37.004882121","long":"127.10952502","imageIndex":16,"items":[{"name":"경희대석사이화태권도장","tel":"031-653-5159","addr":"경기도 평택시 비전동 1031번지 우미린센트럴파크 상사 2층 201,202호","indutype":"학원 - 예·체능계학원","category":"study"},{"name":"별초롱어린이집[아이행복]","tel":"031-651-3360","addr":"경기도 평택시 비전동 1031번지 우미린센트럴파크 107동 101호","indutype":"학원 - 유아원","category":"study"},{"name":"우미린꿈의 어린이집[아이행복]","tel":"","addr":"경기도 평택시 비전동 1031번지 우미린센트럴파크 관리동","indutype":"학원 - 유아원","category":"study"},{"name":"윤선생우리집앞영어교실소사벌우미캠퍼스","tel":"070-8682-0579","addr":"경기도 평택시 비전동 1031번지 우미린센트럴파크 102동 302호","indutype":"학원 - 보습학원","category":"study"},{"name":"임선생독서·토론·글쓰기학원","tel":"031-618-3431","addr":"경기도 평택시 비전동 1031번지 우미린센트럴파크 상가동 206호","indutype":"학원 - 보습학원","category":"study"}]},{"lat":"36.992608415","long":"127.12028056","imageIndex":16,"items":[{"name":"고운아이어린이집","tel":"031-656-5722","addr":"경기도 평택시 비전동 913 경남아너스빌관리동","indutype":"학원 - 유아원","category":"study"},{"name":"고운아이어린이집[아이행복]","tel":"031-656-5722","addr":"경기도 평택시 비전동 913 경남아너스빌 관리동","indutype":"학원 - 유아원","category":"study"}]},{"lat":"36.992692354","long":"127.10760959","imageIndex":16,"items":[{"name":"국어와국어학원","tel":"031-651-9518","addr":"경기도 평택시 비전동 217-4번지 3층","indutype":"학원 - 보습학원","category":"study"},{"name":"용인대아이누리태권도장","tel":"031-657-6144","addr":"경기도 평택시 비전동 217-4번지 201호","indutype":"학원 - 예·체능계학원","category":"study"}]},{"lat":"36.995410697","long":"127.10042378","imageIndex":16,"items":[{"name":"권선생논술학원","tel":"031-657-5982","addr":"경기도 평택시 비전동 258-7번지 1층","indutype":"학원 - 보습학원","category":"study"}]},{"lat":"37.003107431","long":"127.10906192","imageIndex":16,"items":[{"name":"그리그음악학원","tel":"031-618-5922","addr":"경기도 평택시 비전동 1037-8번지","indutype":"학원 - 예·체능계학원","category":"study"}]},{"lat":"37.00288515","long":"127.10566872","imageIndex":16,"items":[{"name":"그림그린미술교습소","tel":"031-657-7307","addr":"경기도 평택시 비전동 1070번지 소사벌프라자 301호","indutype":"학원 - 예·체능계학원","category":"study"},{"name":"드림킥태권도장","tel":"031-658-1236","addr":"경기도 평택시 비전동 1070번지 소사벌프라자 403동 404호","indutype":"학원 - 예·체능계학원","category":"study"},{"name":"박정아수학학원","tel":"031-656-6200","addr":"경기도 평택시 비전동 1070번지 소사벌프라자 501호","indutype":"학원 - 보습학원","category":"study"},{"name":"비전크리아트윤미술교습소","tel":"031-652-5302","addr":"경기도 평택시 비전동 1070번지 소사벌프라자 202호","indutype":"학원 - 예·체능계학원","category":"study"},{"name":"잉글리시아이","tel":"031-655-7905","addr":"경기도 평택시 비전동 1070번지 소사벌프라자 3층 304호","indutype":"학원 - 보습학원","category":"study"},{"name":"해법독서논술셀파중등논술평택소사벌논술교","tel":"031-651-5278","addr":"경기도 평택시 비전동 1070번지 소사벌프라자 302호","indutype":"학원 - 보습학원","category":"study"}]},{"lat":"36.998331789","long":"127.10903281","imageIndex":16,"items":[{"name":"기린유치원[아이행복]","tel":"031-656-7166","addr":"경기도 평택시 비전동 828","indutype":"학원 - 유치원","category":"study"}]},{"lat":"37.002990744","long":"127.09789441","imageIndex":16,"items":[{"name":"기쁜사랑어린이집[아이행복]","tel":"031-652-2332","addr":"경기도 평택시 비전동 1008번지 엘에이치이곡마을3단지 313동 101호","indutype":"학원 - 유아원","category":"study"},{"name":"미니어처 아트스쿨","tel":"070-7643-3544","addr":"경기도 평택시 비전동 1008번지 엘에이치이곡마을3단지 상가동 208호","indutype":"학원 - 보습학원","category":"study"},{"name":"수학의달인 자란초점 수학교습소","tel":"031-000-0000","addr":"경기도 평택시 비전동 1008번지 엘에이치이곡마을3단지 210호","indutype":"학원 - 보습학원","category":"study"},{"name":"숙명라온음악학원","tel":"031-655-7179","addr":"경기도 평택시 비전동 1008번지 엘에이치이곡마을3단지 상가동 206,207호","indutype":"학원 - 예·체능계학원","category":"study"}]},{"lat":"36.994523398","long":"127.09444642","imageIndex":16,"items":[{"name":"김성진수학학원","tel":"031-652-5832","addr":"경기도 평택시 비전동 615-1번지 2층","indutype":"회원제형태 - 학원","category":"study"}]},{"lat":"36.991387977","long":"127.10511406","imageIndex":16,"items":[{"name":"김재우영어학원","tel":"031-618-7905","addr":"경기도 평택시 비전동 764-1번지","indutype":"학원 - 보습학원","category":"study"},{"name":"이얼싼중국어학원","tel":"031-655-6881","addr":"경기도 평택시 비전동 764-1번지 2층","indutype":"회원제형태 - 학원","category":"study"}]},{"lat":"37.002687031","long":"127.10553364","imageIndex":16,"items":[{"name":"김태완수학학원","tel":"","addr":"경기도 평택시 비전동 1070-1번지 강일프라자-1 301호","indutype":"학원 - 보습학원","category":"study"},{"name":"비전한솔플러스 영어수학학원","tel":"031-618-0579","addr":"경기도 평택시 비전동 1070-1번지 강일프라자-1 2층 201호","indutype":"학원 - 보습학원","category":"study"}]},{"lat":"36.991664788","long":"127.10800134","imageIndex":16,"items":[{"name":"꼬마별[아이행복]","tel":"031-651-6777","addr":"경기도 평택시 비전동 192-17번지","indutype":"학원 - 유아원","category":"study"}]},{"lat":"36.992493879","long":"127.11761811","imageIndex":16,"items":[{"name":"꼬마줄리어드음악학원","tel":"031-656-5678","addr":"경기도 평택시 비전동 884-10번지","indutype":"학원 - 예·체능계학원","category":"study"}]},{"lat":"36.992574715","long":"127.11788783","imageIndex":16,"items":[{"name":"꿈꾸는보습학원","tel":"031-618-0942","addr":"경기도 평택시 비전동 884-8번지","indutype":"학원 - 보습학원","category":"study"}]},{"lat":"36.992610616","long":"127.11803392","imageIndex":16,"items":[{"name":"꿈나무어린이집","tel":"031-652-6811","addr":"경기도 평택시 비전동 884-7번지","indutype":"학원 - 유치원","category":"study"},{"name":"평택꿈나무어린이집[아이행복]","tel":"031-652-6811","addr":"경기도 평택시 비전동 884-7번지","indutype":"학원 - 유아원","category":"study"}]},{"lat":"36.995883741","long":"127.10578287","imageIndex":16,"items":[{"name":"꿈쟁이놀이방[아이행복]","tel":"031-656-7959","addr":"경기도 평택시 비전동 823-17번지","indutype":"학원 - 유아원","category":"study"}]},{"lat":"36.998324963","long":"127.10656131","imageIndex":16,"items":[{"name":"꿈터유치원[아이행복]","tel":"031-654-0933","addr":"경기도 평택시 비전동 813-1번지 태산아파트","indutype":"학원 - 유치원","category":"study"}]},{"lat":"37.00299005","long":"127.10933139","imageIndex":16,"items":[{"name":"단국대 이화 태권도장","tel":"031-691-4222","addr":"경기도 평택시 비전동 1037-6번지 1층","indutype":"학원 - 예·체능계학원","category":"study"}]},{"lat":"36.994469117","long":"127.09472719","imageIndex":16,"items":[{"name":"대자연아동미술교습소","tel":"031-651-1379","addr":"경기도 평택시 비전동 730-1번지","indutype":"학원 - 예·체능계학원","category":"study"},{"name":"윤정음악교습소","tel":"031-000-0000","addr":"경기도 평택시 비전동 730-1번지 1층 일부","indutype":"학원 - 예·체능계학원","category":"study"}]},{"lat":"37.004274509","long":"127.10367077","imageIndex":16,"items":[{"name":"더하이츠,공터영어학원","tel":"031-652-3112","addr":"경기도 평택시 비전동 1012번지 제이타워 6층 601호","indutype":"학원 - 보습학원","category":"study"},{"name":"스터디엔카페독서실","tel":"031-365-3727","addr":"경기도 평택시 비전동 1012번지 제이타워 301호","indutype":"학원 - 독서실","category":"study"},{"name":"큐이디3년의약속학원","tel":"031-8094-0880","addr":"경기도 평택시 비전동 1012번지 제이타워 401호 일부","indutype":"학원 - 보습학원","category":"study"},{"name":"하이스트학원","tel":"031-651-1315","addr":"경기도 평택시 비전동 1012번지 제이타워 701호","indutype":"학원 - 보습학원","category":"study"}]},{"lat":"36.9972431","long":"127.10722264","imageIndex":16,"items":[{"name":"덕동초등학교","tel":"031-651-0696","addr":"경기도 평택시 비전동 814번지 덕동초등학교","indutype":"학원 - 초중고교육기관","category":"study"},{"name":"덕동초등학교_수업료","tel":"031-651-0696","addr":"경기도 평택시 비전동 814번지 덕동초등학교","indutype":"학원 - 초중고교육기관","category":"study"},{"name":"덕동초등학교병설유치원[아이행복]","tel":"031-654-0692","addr":"경기도 평택시 비전동 814번지","indutype":"학원 - 유치원","category":"study"}]},{"lat":"36.993241124","long":"127.118282","imageIndex":16,"items":[{"name":"도원서예","tel":"031-658-7767","addr":"경기도 평택시 비전동 882-1번지","indutype":"회원제형태 - 학원","category":"study"},{"name":"뮤엠영어소사벌초영어교습소","tel":"02-000-0000","addr":"경기도 평택시 비전동 882-1번지 1층","indutype":"학원 - 외국어학원","category":"study"}]},{"lat":"36.99768594","long":"127.1156375","imageIndex":16,"items":[{"name":"동산천사 어린이집[아이행복]","tel":"031-658-1004","addr":"경기도 평택시 비전동 874번지 시대한우리아파트","indutype":"학원 - 유아원","category":"study"}]},{"lat":"36.991637755","long":"127.11772916","imageIndex":16,"items":[{"name":"동일공업고등학교","tel":"","addr":"경기도 평택시 비전동 135-4번지","indutype":"학원 - 초중고교육기관","category":"study"}]},{"lat":"37.000824749","long":"127.1123392","imageIndex":16,"items":[{"name":"드림로봇학원","tel":"031-652-4549","addr":"경기도 평택시 비전동 1090-5번지 골든프라자-7 4층 401호","indutype":"학원 - 보습학원","category":"study"},{"name":"멘사SG브릭사고력2호학원","tel":"031-651-4445","addr":"경기도 평택시 비전동 1090-5번지 골든프라자-7 5층 501호","indutype":"학원 - 보습학원","category":"study"},{"name":"한우리비전논술교습소","tel":"031-654-5129","addr":"경기도 평택시 비전동 1090-5번지 골든프라자-7 507호","indutype":"학원 - 보습학원","category":"study"}]},{"lat":"36.994108993","long":"127.09433359","imageIndex":16,"items":[{"name":"디자인가우디미술학원","tel":"031-651-6611","addr":"경기도 평택시 비전동 615-9번지 J&J A동 2층 및 3층 전부","indutype":"학원 - 예·체능계학원","category":"study"}]},{"lat":"36.995132593","long":"127.09891812","imageIndex":16,"items":[{"name":"또래모아어린이집[아이행복]","tel":"031-656-2496","addr":"경기도 평택시 비전동 522번지","indutype":"학원 - 유아원","category":"study"}]},{"lat":"37.008905431","long":"127.10433978","imageIndex":16,"items":[{"name":"뜨레 어린이집[아이행복]","tel":"031-651-7661","addr":"경기도 평택시 비전동 967번지 뜨레휴이곡마을7단지 관리동","indutype":"학원 - 유아원","category":"study"},{"name":"정수학영어","tel":"","addr":"경기도 평택시 비전동 967번지 뜨레휴이곡마을7단지 708동 103호","indutype":"학원 - 기타 교육기관","category":"study"}]},{"lat":"36.993523142","long":"127.09453508","imageIndex":16,"items":[{"name":"라드피아노학원","tel":"","addr":"경기도 평택시 비전동 731-2번지 2층","indutype":"학원 - 예·체능계학원","category":"study"}]},{"lat":"37.002354304","long":"127.104758","imageIndex":16,"items":[{"name":"라온 음악학원","tel":"031-655-7663","addr":"경기도 평택시 비전동 1027-3번지 골든프라자 302호","indutype":"학원 - 예·체능계학원","category":"study"},{"name":"비전청림학원","tel":"031-654-5795","addr":"경기도 평택시 비전동 4022-1번지 골든프라자501,502호","indutype":"학원 - 보습학원","category":"study"},{"name":"연세스페셜학원","tel":"031-658-2871","addr":"경기도 평택시 비전동 1027-3번지 골든프라자 2층 201,202,203호","indutype":"학원 - 보습학원","category":"study"}]},{"lat":"36.999963454","long":"127.10821498","imageIndex":16,"items":[{"name":"라온뮤직","tel":"","addr":"경기도 평택시 비전동 1089번지 평택비전동효성백년가약 118동 1001호","indutype":"학원 - 기타 교육기관","category":"study"}]},{"lat":"36.992188982","long":"127.11608994","imageIndex":16,"items":[{"name":"루시드어학원","tel":"031-653-3989","addr":"경기도 평택시 비전동 885번지 4층","indutype":"학원 - 보습학원","category":"study"},{"name":"모네의정원","tel":"070-7647-7169","addr":"경기도 평택시 비전동 885번지 3층 일부","indutype":"회원제형태 - 학원","category":"study"},{"name":"비전해법중국어교습소","tel":"031-652-3327","addr":"경기도 평택시 비전동 885번지","indutype":"학원 - 외국어학원","category":"study"},{"name":"차수학소사벌캠퍼스학원","tel":"031-656-3405","addr":"경기도 평택시 비전동 885번지 4층 일부","indutype":"학원 - 보습학원","category":"study"},{"name":"평택차이코프스키음악학원","tel":"031-611-0666","addr":"경기도 평택시 비전동 885번지 3층 일부","indutype":"학원 - 예·체능계학원","category":"study"}]},{"lat":"36.997661945","long":"127.10214545","imageIndex":16,"items":[{"name":"류쌤필영어교습소","tel":"031-651-0594","addr":"경기도 평택시 비전동 807-7번지","indutype":"회원제형태 - 학원","category":"study"}]},{"lat":"37.004743445","long":"127.10322199","imageIndex":16,"items":[{"name":"리브로아르츠미술교습소","tel":"","addr":"경기도 평택시 비전동 996-2번지 J&J빌딩 3층","indutype":"학원 - 예·체능계학원","category":"study"}]},{"lat":"36.996688027","long":"127.10305413","imageIndex":16,"items":[{"name":"리즈어학원","tel":"031-656-6969","addr":"경기도 평택시 비전동 818-3번지 2층","indutype":"학원 - 외국어학원","category":"study"}]},{"lat":"36.996797797","long":"127.10108835","imageIndex":16,"items":[{"name":"맑고향기로운연꽃동산어린이집[아이행복]","tel":"031-618-6018","addr":"경기도 평택시 비전동 263번지","indutype":"학원 - 유아원","category":"study"}]},{"lat":"36.991884182","long":"127.1043958","imageIndex":16,"items":[{"name":"맘모스독서실","tel":"031-652-9674","addr":"경기도 평택시 비전동 763-2번지 1층,2층,3층","indutype":"학원 - 독서실","category":"study"}]},{"lat":"37.003020766","long":"127.10514087","imageIndex":16,"items":[{"name":"머스타트 미술학원","tel":"031-618-7988","addr":"경기도 평택시 비전동 1027번지 301, 302호","indutype":"학원 - 예·체능계학원","category":"study"},{"name":"아트포키즈미술학원","tel":"031-652-2550","addr":"경기도 평택시 비전동 1027번지 402호","indutype":"학원 - 예·체능계학원","category":"study"},{"name":"윤유경국어영어수학학원","tel":"031-657-3009","addr":"경기도 평택시 비전동 1027번지 502.503호","indutype":"학원 - 보습학원","category":"study"}]},{"lat":"37.001823705","long":"127.11366632","imageIndex":16,"items":[{"name":"메드탑학원","tel":"031-618-8209","addr":"경기도 평택시 비전동 1094-1번지 좋은메디타워 407호","indutype":"학원 - 보습학원","category":"study"},{"name":"본학원","tel":"031-000-0000","addr":"경기도 평택시 비전동 1094-1번지 좋은메디타워 802,803호","indutype":"학원 - 예·체능계학원","category":"study"}]},{"lat":"37.000047341","long":"127.09394749","imageIndex":16,"items":[{"name":"멜로디음악학원","tel":"031-692-0646","addr":"경기도 평택시 비전동 789-4번지 1층","indutype":"학원 - 예·체능계학원","category":"study"}]},{"lat":"36.991467679","long":"127.1067205","imageIndex":16,"items":[{"name":"모스프리미엄독서실","tel":"031-656-9588","addr":"경기도 평택시 비전동 766-3번지 5층 일부","indutype":"학원 - 독서실","category":"study"}]},{"lat":"36.992772601","long":"127.11824759","imageIndex":16,"items":[{"name":"문영개인과외","tel":"031-657-0278","addr":"경기도 평택시 비전동 882-8번지","indutype":"학원 - 기타 교육기관","category":"study"},{"name":"시매쓰평택센타학원","tel":"031-653-7379","addr":"경기도 평택시 비전동 882-8번지 1층","indutype":"회원제형태 - 학원","category":"study"}]},{"lat":"37.00285867","long":"127.1050283","imageIndex":16,"items":[{"name":"뮤직톡톡 음악학원","tel":"031-647-0365","addr":"경기도 평택시 비전동 1027-1번지 비전타워 301호","indutype":"학원 - 예·체능계학원","category":"study"},{"name":"애크미실용음악소사벌점학원","tel":"031-691-2733","addr":"경기도 평택시 비전동 1027-1번지 비전타워 1동 5층 501호","indutype":"학원 - 예·체능계학원","category":"study"},{"name":"푸른영수학원","tel":"031-651-5344","addr":"경기도 평택시 비전동 1027-1번지 비전타워1동 302호 전부","indutype":"회원제형태 - 학원","category":"study"}]},{"lat":"36.993939785","long":"127.11319431","imageIndex":16,"items":[{"name":"미래독서실","tel":"031-658-4930","addr":"경기도 평택시 비전동 844번지 4층","indutype":"학원 - 독서실","category":"study"}]},{"lat":"37.005632732","long":"127.10644764","imageIndex":16,"items":[{"name":"발도르프음악교습소","tel":"070-7752-7120","addr":"경기도 평택시 비전동 1011번지 엘에이치리더스하임 상가동 204호","indutype":"학원 - 예·체능계학원","category":"study"},{"name":"소꿉놀이어린이집[아이행복]","tel":"","addr":"경기도 평택시 비전동 1011번지 LH리더스하임동 810동 102호","indutype":"학원 - 유아원","category":"study"},{"name":"소꿉놀이어린이집[아이행복]","tel":"031-657-3521","addr":"경기도 평택시 비전동 1011번지 엘에이치리더스하임 810동 102호","indutype":"학원 - 유아원","category":"study"},{"name":"에이요뮤직쉐드음악교습소","tel":"","addr":"경기도 평택시 비전동 1011번지 엘에이치리더스하임 상가동 202호","indutype":"학원 - 예·체능계학원","category":"study"},{"name":"하늘맘어린이집[아이행복]","tel":"","addr":"경기도 평택시 비전동 1011번지 LH리더스하임 802동 102호","indutype":"학원 - 유아원","category":"study"},{"name":"해법중국어소사벌교실","tel":"0311-653-0326","addr":"경기도 평택시 비전동 1011번지 LH리더스하임 802동 402호","indutype":"회원제형태 - 학원","category":"study"}]},{"lat":"37.007021748","long":"127.10486534","imageIndex":16,"items":[{"name":"방글방글어린이집[아이행복]","tel":"","addr":"경기도 평택시 비전동 968번지 엘에이치이곡마을6단지 관리동","indutype":"학원 - 유아원","category":"study"}]},{"lat":"36.992440086","long":"127.1173372","imageIndex":16,"items":[{"name":"베리타스인스티튜트영어학원","tel":"031-655-1316","addr":"경기도 평택시 비전동 884-12번지 1층","indutype":"학원 - 외국어학원","category":"study"}]},{"lat":"37.004327932","long":"127.10442358","imageIndex":16,"items":[{"name":"보기드문소수정예학원","tel":"031-691-2138","addr":"경기도 평택시 비전동 1012-3번지 601,701호","indutype":"학원 - 보습학원","category":"study"},{"name":"보기드문쌤's학원","tel":"031-691-3309","addr":"경기도 평택시 비전동 1012-3번지 폴리프라자 501호","indutype":"학원 - 보습학원","category":"study"},{"name":"토마스영어수힉학원","tel":"031-658-5458","addr":"경기도 평택시 비전동 1012-3번지 폴리프라자 503호","indutype":"학원 - 보습학원","category":"study"}]},{"lat":"37.005595306","long":"127.09730218","imageIndex":16,"items":[{"name":"브레인통합상담심리연구소","tel":"","addr":"경기도 평택시 비전동 1004번지 휴먼시아2단지 208동 602호","indutype":"학원 - 기타 교육기관","category":"study"}]},{"lat":"37.003546605","long":"127.10133296","imageIndex":16,"items":[{"name":"비상아이비츠소사캠퍼스학원","tel":"031-654-4321","addr":"경기도 평택시 비전동 1003-2번지 3층 일부","indutype":"학원 - 보습학원","category":"study"},{"name":"용인대자란태권도","tel":"031-657-0858","addr":"경기도 평택시 비전동 1003-2번지 403호","indutype":"학원 - 예·체능계학원","category":"study"},{"name":"이화프랜즈음악학원","tel":"031-655-2511","addr":"경기도 평택시 비전동 1003-2번지 401호","indutype":"학원 - 예·체능계학원","category":"study"}]},{"lat":"36.999272819","long":"127.11458382","imageIndex":16,"items":[{"name":"비욘드잉글리쉬 평택캠퍼스","tel":"031-651-3366","addr":"경기도 평택시 비전동 1108-1번지 YJ타워 501호","indutype":"학원 - 외국어학원","category":"study"}]},{"lat":"36.991189042","long":"127.10592257","imageIndex":16,"items":[{"name":"비전1618고등입시학원","tel":"031-658-1618","addr":"경기도 평택시 비전동 764-12번지 2층","indutype":"학원 - 보습학원","category":"study"},{"name":"비전인학원/(주)비전인","tel":"031-618-8322","addr":"경기도 평택시 비전동 764-12번지 3층","indutype":"학원 - 보습학원","category":"study"}]},{"lat":"37.000659696","long":"127.10545227","imageIndex":16,"items":[{"name":"비전고등학교","tel":"031-610-9707","addr":"경기도 평택시 비전동 1088번지 비전고등학교","indutype":"학원 - 초중고교육기관","category":"study"},{"name":"비전고등학교_수업료","tel":"031-610-9707","addr":"경기도 평택시 비전동 1088번지 비전고등학교","indutype":"학원 - 초중고교육기관","category":"study"}]},{"lat":"36.995410593","long":"127.11094971","imageIndex":16,"items":[{"name":"비전누리독서실","tel":"031-655-3532","addr":"경기도 평택시 비전동 829-9번지 2층","indutype":"학원 - 독서실","category":"study"},{"name":"조인잉글리쉬어학원","tel":"031-658-1396","addr":"경기도 평택시 비전동 829-9번지 3층","indutype":"회원제형태 - 학원","category":"study"}]},{"lat":"37.000688219","long":"127.09247655","imageIndex":16,"items":[{"name":"비전음악학원","tel":"031-658-7069","addr":"경기도 평택시 비전동 788-2번지 1층","indutype":"학원 - 예·체능계학원","category":"study"}]},{"lat":"37.002128272","long":"127.10564523","imageIndex":16,"items":[{"name":"비전제4잉글리쉬무무학원","tel":"031-658-0597","addr":"경기도 평택시 비전동 1070-4번지 골든프라자2 207호","indutype":"학원 - 보습학원","category":"study"},{"name":"퍼니코랩","tel":"031-653-5316","addr":"경기도 평택시 비전동 1070-4번지 골든프라자2 204호","indutype":"학원 - 컴퓨터학원","category":"study"}]},{"lat":"37.006969527","long":"127.10269685","imageIndex":16,"items":[{"name":"비전중학교","tel":"031-615-2310","addr":"경기도 평택시 비전동 332-1번지 비전중학교","indutype":"학원 - 초중고교육기관","category":"study"}]},{"lat":"37.001020882","long":"127.0934431","imageIndex":16,"items":[{"name":"비전초등학교","tel":"031-651-0408","addr":"경기도 평택시 비전동 428-5번지 비전초등학교","indutype":"학원 - 초중고교육기관","category":"study"},{"name":"비전초등학교병설유치원[아이행복]","tel":"","addr":"경기도 평택시 비전동 428-5번지","indutype":"학원 - 유치원","category":"study"}]},{"lat":"37.003425113","long":"127.09554687","imageIndex":16,"items":[{"name":"비전휴먼시아어린이집[아이행복]","tel":"031-653-0793","addr":"경기도 평택시 비전동 1005번지 휴먼시아1단지 108동 101호","indutype":"학원 - 유아원","category":"study"}]},{"lat":"36.993220664","long":"127.10094895","imageIndex":16,"items":[{"name":"비트컴퓨터학원","tel":"031-654-6236","addr":"경기도 평택시 비전동 756-14번지 2층","indutype":"학원 - 컴퓨터학원","category":"study"}]},{"lat":"37.00191093","long":"127.10689198","imageIndex":16,"items":[{"name":"사랑유치원[아이행복]","tel":"031-667-8226","addr":"경기도 평택시 비전동 1077번지","indutype":"학원 - 유치원","category":"study"}]},{"lat":"37.002963511","long":"127.10878085","imageIndex":16,"items":[{"name":"삼성영어 이화점","tel":"031-656-2329","addr":"경기도 평택시 비전동 1038번지 201호","indutype":"학원 - 기타 교육기관","category":"study"},{"name":"수학의 달인 이화초점","tel":"02-0000-0000","addr":"경기도 평택시 비전동 1038번지 202호","indutype":"학원 - 보습학원","category":"study"}]},{"lat":"36.999434294","long":"127.09436243","imageIndex":16,"items":[{"name":"삼성영어비전3학원","tel":"031-655-0578","addr":"경기도 평택시 비전동 487-33번지 2층","indutype":"학원 - 외국어학원","category":"study"}]},{"lat":"36.994244171","long":"127.09431128","imageIndex":16,"items":[{"name":"샛별음악학원","tel":"031-656-7069","addr":"경기도 평택시 비전동 615-6번지","indutype":"학원 - 예·체능계학원","category":"study"}]},{"lat":"36.992971207","long":"127.09744384","imageIndex":16,"items":[{"name":"샛별음악학원","tel":"031-658-1240","addr":"경기도 평택시 비전동 746-13번지 2층","indutype":"학원 - 예·체능계학원","category":"study"}]},{"lat":"36.991854992","long":"127.10688952","imageIndex":16,"items":[{"name":"생각과상상학원","tel":"031-657-3800","addr":"경기도 평택시 비전동 190-1번지 영진빌딩 3층","indutype":"학원 - 보습학원","category":"study"}]},{"lat":"36.99310603","long":"127.10853129","imageIndex":16,"items":[{"name":"서강SLP어학당학원","tel":"031-692-3303","addr":"경기도 평택시 비전동 143-107번지 1층,2층","indutype":"학원 - 외국어학원","category":"study"}]},{"lat":"36.991270479","long":"127.10552953","imageIndex":16,"items":[{"name":"서울학원","tel":"031-656-8088","addr":"경기도 평택시 비전동 764-17번지 3층","indutype":"학원 - 보습학원","category":"study"},{"name":"원투투에듀학원","tel":"031-651-0122","addr":"경기도 평택시 비전동 764-17번지 2층","indutype":"학원 - 보습학원","category":"study"}]},{"lat":"36.992665969","long":"127.11669724","imageIndex":16,"items":[{"name":"성선제개인과외교습","tel":"031-654-7130","addr":"경기도 평택시 비전동 886-9번지","indutype":"학원 - 기타 교육기관","category":"study"}]},{"lat":"36.992271006","long":"127.10513771","imageIndex":16,"items":[{"name":"성혜몬테소리 어린이집[아이행복]","tel":"031-653-7328","addr":"경기도 평택시 비전동 225-37번지","indutype":"학원 - 유아원","category":"study"}]},{"lat":"36.994714275","long":"127.09227857","imageIndex":16,"items":[{"name":"소사벌웅변학원(스피치)","tel":"031-658-2340","addr":"경기도 평택시 비전동 618-1번지 2층","indutype":"학원 - 기능학원","category":"study"}]},{"lat":"36.994963512","long":"127.11689164","imageIndex":16,"items":[{"name":"소사벌초등학교","tel":"031-654-1193","addr":"경기도 평택시 비전동 879-3번지 소사벌초등학교","indutype":"학원 - 초중고교육기관","category":"study"},{"name":"소사벌초등학교병설유치원[아이행복]","tel":"031-654-1193","addr":"경기도 평택시 비전동 879-3번지 소사벌초등학교","indutype":"학원 - 유치원","category":"study"}]},{"lat":"36.991632457","long":"127.10372148","imageIndex":16,"items":[{"name":"소울트리학원","tel":"031-618-3217","addr":"경기도 평택시 비전동 762-12번지 2층","indutype":"학원 - 보습학원","category":"study"},{"name":"신동일논술스피치국어교습소","tel":"031-653-0042","addr":"경기도 평택시 비전동 762-12번지 101호","indutype":"회원제형태 - 학원","category":"study"},{"name":"이재영학원","tel":"031-655-0210","addr":"경기도 평택시 비전동 762-12번지 2층","indutype":"학원 - 보습학원","category":"study"}]},{"lat":"36.992995461","long":"127.10087003","imageIndex":16,"items":[{"name":"솔빛학원","tel":"031-654-5772","addr":"경기도 평택시 비전동 756-6번지 2층","indutype":"학원 - 보습학원","category":"study"}]},{"lat":"36.991243253","long":"127.10575415","imageIndex":16,"items":[{"name":"송아리무용학원","tel":"031-652-1282","addr":"경기도 평택시 비전동 764-21번지 2층","indutype":"학원 - 예·체능계학원","category":"study"}]},{"lat":"36.99471258","long":"127.09450281","imageIndex":16,"items":[{"name":"수앤수수학교습소","tel":"031-653-5388","addr":"경기도 평택시 비전동 613-5번지 1층 일부","indutype":"회원제형태 - 학원","category":"study"}]},{"lat":"36.992745831","long":"127.11797795","imageIndex":16,"items":[{"name":"수학따라잡기학원","tel":"031-655-0252","addr":"경기도 평택시 비전동 884-6번지","indutype":"회원제형태 - 학원","category":"study"},{"name":"휴먼이앤엠학원","tel":"031-618-0205","addr":"경기도 평택시 비전동 884-6번지 1층","indutype":"학원 - 보습학원","category":"study"}]},{"lat":"36.992998673","long":"127.11741667","imageIndex":16,"items":[{"name":"수학의달인마스터클럽비전학원","tel":"031-618-8477","addr":"경기도 평택시 비전동 883-3번지 1층","indutype":"학원 - 보습학원","category":"study"}]},{"lat":"36.992468399","long":"127.11600049","imageIndex":16,"items":[{"name":"슈 음악학원","tel":"031-692-2141","addr":"경기도 평택시 비전동 886-14번지 1층 전부","indutype":"학원 - 예·체능계학원","category":"study"}]},{"lat":"37.001885471","long":"127.1150595","imageIndex":16,"items":[{"name":"스텝업(STEPUP)독서실","tel":"031-647-0085","addr":"경기도 평택시 비전동 1096-2번지 에스-타워 2층 203호, 204호","indutype":"학원 - 독서실","category":"study"},{"name":"요미요미 평택","tel":"031-652-0205","addr":"경기도 평택시 비전동 1096-2번지 s타워 403호","indutype":"학원 - 학습지 교육","category":"study"}]},{"lat":"36.992547813","long":"127.11775299","imageIndex":16,"items":[{"name":"시드니음악학원","tel":"031-652-7955","addr":"경기도 평택시 비전동 884-9번지","indutype":"학원 - 예·체능계학원","category":"study"}]},{"lat":"37.00182535","long":"127.10158914","imageIndex":16,"items":[{"name":"시립배꽃마을어린이집[아이행복]","tel":"031-651-2329","addr":"경기도 평택시 비전동 1028번지 LH배꽃마을4단지","indutype":"학원 - 유아원","category":"study"},{"name":"윤선생우리집앞영어교실배꽃마을캠퍼스","tel":"02-1111-1111","addr":"경기도 평택시 비전동 1028번지 LH배꽃마을4단지 402동 201호","indutype":"학원 - 기타 교육기관","category":"study"}]},{"lat":"36.99208259","long":"127.10419387","imageIndex":16,"items":[{"name":"신한중학교","tel":"031-653-8114","addr":"경기도 평택시 비전동 224-8번지 신한중고등학교","indutype":"학원 - 초중고교육기관","category":"study"}]},{"lat":"36.997914385","long":"127.10197727","imageIndex":16,"items":[{"name":"아가동산어린이집[아이행복]","tel":"031-658-0256","addr":"경기도 평택시 비전동 806-2번지","indutype":"학원 - 유아원","category":"study"}]},{"lat":"36.995991918","long":"127.10572684","imageIndex":16,"items":[{"name":"아마데우스어린이집[아이행복]","tel":"031-655-8492","addr":"경기도 평택시 비전동 823-18번지","indutype":"학원 - 유아원","category":"study"}]},{"lat":"36.99288135","long":"127.11760746","imageIndex":16,"items":[{"name":"아아탑학원","tel":"031-656-2550","addr":"경기도 평택시 비전동 883-9번지 1층","indutype":"학원 - 기타 교육기관","category":"study"}]},{"lat":"37.004405484","long":"127.09781752","imageIndex":16,"items":[{"name":"아이뽀어린이집[아이행복]","tel":"031-616-6999","addr":"경기도 평택시 비전동 1004번지 휴먼시아2단지 205동 102호","indutype":"학원 - 유아원","category":"study"}]},{"lat":"37.001489921","long":"127.11408151","imageIndex":16,"items":[{"name":"아이손요리학교","tel":"","addr":"경기도 평택시 비전동 1098번지 스타타워 605호","indutype":"학원 - 기타 교육기관","category":"study"}]},{"lat":"36.994553839","long":"127.11175731","imageIndex":16,"items":[{"name":"아카데미라운지평택비전독서실","tel":"031-8029-0905","addr":"경기도 평택시 비전동 832-5번지 4층 일부","indutype":"학원 - 독서실","category":"study"}]},{"lat":"37.005184845","long":"127.10336862","imageIndex":16,"items":[{"name":"아카데미라운지평택소사벌독서실","tel":"031-8094-0972","addr":"경기도 평택시 비전동 995번지 디에이치빌딩 4층일부,5층전부","indutype":"학원 - 독서실","category":"study"}]},{"lat":"36.992523131","long":"127.10534024","imageIndex":16,"items":[{"name":"안샘.수학교실","tel":"031-651-2243","addr":"경기도 평택시 비전동 225-15번지","indutype":"회원제형태 - 학원","category":"study"}]},{"lat":"36.997101929","long":"127.10375117","imageIndex":16,"items":[{"name":"알파수학교습소","tel":"031-618-8003","addr":"경기도 평택시 비전동 816번지","indutype":"회원제형태 - 학원","category":"study"}]},{"lat":"36.991713877","long":"127.10333967","imageIndex":16,"items":[{"name":"애니원 미술학원","tel":"031-652-5188","addr":"경기도 평택시 비전동 762-17번지 3층","indutype":"학원 - 예·체능계학원","category":"study"}]},{"lat":"36.992855934","long":"127.10602592","imageIndex":16,"items":[{"name":"야호 어린이집[아이행복]","tel":"031-657-3488","addr":"경기도 평택시 비전동 225-25번지","indutype":"학원 - 유아원","category":"study"}]},{"lat":"36.993025564","long":"127.11756274","imageIndex":16,"items":[{"name":"어드밴스","tel":"031-618-0575","addr":"경기도 평택시 비전동 883-4번지","indutype":"학원 - 기타 교육기관","category":"study"}]},{"lat":"37.003715109","long":"127.10453511","imageIndex":16,"items":[{"name":"어반 트리독서실 평택점","tel":"031-655-3393","addr":"경기도 평택시 비전동 1015-5번지 홍익빌딩 501,502,601,602호","indutype":"학원 - 독서실","category":"study"}]},{"lat":"36.999578184","long":"127.11564029","imageIndex":16,"items":[{"name":"어썸플로꽃아카데미학원","tel":"031-651-0504","addr":"경기도 평택시 비전동 1102번지 에이치탑5 403호","indutype":"학원 - 기능학원","category":"study"},{"name":"커피앤베이커리학원","tel":"031-691-6913","addr":"경기도 평택시 비전동 1102번지 에이치탑5 402호","indutype":"학원 - 기능학원","category":"study"},{"name":"평택간호학원","tel":"031-657-7441","addr":"경기도 평택시 비전동 1102번지 에이치탑5 803호","indutype":"학원 - 기능학원","category":"study"}]},{"lat":"36.992413195","long":"127.11719113","imageIndex":16,"items":[{"name":"에듀빌학원","tel":"031-652-3123","addr":"경기도 평택시 비전동 884-13번지 1층","indutype":"학원 - 보습학원","category":"study"}]},{"lat":"37.002381673","long":"127.10436482","imageIndex":16,"items":[{"name":"에스유투애니메이션미술학원","tel":"031-677-0430","addr":"경기도 평택시 비전동 1027-4번지","indutype":"학원 - 예·체능계학원","category":"study"},{"name":"이예린수학학원","tel":"031-656-1913","addr":"경기도 평택시 비전동 1027-4번지 남현빌딩 4층 401호","indutype":"학원 - 보습학원","category":"study"}]},{"lat":"37.00118472","long":"127.11283404","imageIndex":16,"items":[{"name":"에이치(H)댄스학원","tel":"","addr":"경기도 평택시 비전동 1092번지 쏘울플러스 4층 404호","indutype":"학원 - 예·체능계학원","category":"study"}]},{"lat":"36.991053452","long":"127.10641664","imageIndex":16,"items":[{"name":"에임하이학원","tel":"031-654-7181","addr":"경기도 평택시 비전동 764-9번지 2층","indutype":"학원 - 보습학원","category":"study"}]},{"lat":"36.996993657","long":"127.10391954","imageIndex":16,"items":[{"name":"엘리피아노교습소","tel":"031-618-3691","addr":"경기도 평택시 비전동 816-1번지","indutype":"학원 - 예·체능계학원","category":"study"}]},{"lat":"36.990799112","long":"127.10873029","imageIndex":16,"items":[{"name":"엘뮤직음악교습소","tel":"031-655-3040","addr":"경기도 평택시 비전동 855번지","indutype":"학원 - 예·체능계학원","category":"study"}]},{"lat":"36.996994834","long":"127.10252654","imageIndex":16,"items":[{"name":"연세에듀","tel":"031-653-0596","addr":"경기도 평택시 비전동 809-3번지 3층","indutype":"학원 - 보습학원","category":"study"}]},{"lat":"36.992603023","long":"127.11656235","imageIndex":16,"items":[{"name":"연세캐슬학원","tel":"031-653-0599","addr":"경기도 평택시 비전동 886-10번지 1층","indutype":"학원 - 보습학원","category":"study"}]},{"lat":"37.000919133","long":"127.1075984","imageIndex":16,"items":[{"name":"영샘영어","tel":"","addr":"경기도 평택시 비전동 1089번지 평택비전동효성백년가약 107동 603호","indutype":"학원 - 기타 교육기관","category":"study"}]},{"lat":"37.003161625","long":"127.10891594","imageIndex":16,"items":[{"name":"예다움초등학습","tel":"031-653-3879","addr":"경기도 평택시 비전동 1037-9번지 201호","indutype":"학원 - 기타 교육기관","category":"study"}]},{"lat":"37.000128497","long":"127.09386895","imageIndex":16,"items":[{"name":"오렌지미술교습소","tel":"031-657-8254","addr":"경기도 평택시 비전동 789-3번지 1층","indutype":"학원 - 예·체능계학원","category":"study"},{"name":"키움수학교습소","tel":"031-657-6762","addr":"경기도 평택시 비전동 789-3번지","indutype":"학원 - 보습학원","category":"study"}]},{"lat":"37.000272823","long":"127.0936669","imageIndex":16,"items":[{"name":"오로라미술교습소","tel":"031-000-0000","addr":"경기도 평택시 비전동 789-1번지","indutype":"학원 - 예·체능계학원","category":"study"}]},{"lat":"36.994381663","long":"127.11281301","imageIndex":16,"items":[{"name":"오리정원독서실","tel":"031-658-5253","addr":"경기도 평택시 비전동 830-6번지 6층","indutype":"학원 - 독서실","category":"study"}]},{"lat":"37.002434859","long":"127.10538725","imageIndex":16,"items":[{"name":"옥스포드영어학원","tel":"031-655-0504","addr":"경기도 평택시 비전동 1070-2번지 샤르망프라자 203,204호","indutype":"학원 - 외국어학원","category":"study"}]},{"lat":"36.999857406","long":"127.09486848","imageIndex":16,"items":[{"name":"올림픽태권도체육관","tel":"031-656-1414","addr":"경기도 평택시 비전동 486-18번지","indutype":"학원 - 예·체능계학원","category":"study"}]},{"lat":"36.993187256","long":"127.11807972","imageIndex":16,"items":[{"name":"용인대소사벌체육관","tel":"031-657-3247","addr":"경기도 평택시 비전동 882번지","indutype":"학원 - 예·체능계학원","category":"study"},{"name":"클레이아트","tel":"02-1111-1111","addr":"경기도 평택시 비전동 882번지 소사벌문구","indutype":"학원 - 기타 교육기관","category":"study"}]},{"lat":"36.992692872","long":"127.11683208","imageIndex":16,"items":[{"name":"우리집앞영어교실비전현대학원","tel":"031-656-0582","addr":"경기도 평택시 비전동 886-8번지 1층","indutype":"학원 - 보습학원","category":"study"}]},{"lat":"36.993995426","long":"127.10114091","imageIndex":16,"items":[{"name":"웰메이드에듀학원","tel":"031-656-1086","addr":"경기도 평택시 비전동 751-8번지 2층","indutype":"학원 - 보습학원","category":"study"},{"name":"필로스터학원","tel":"031-652-1605","addr":"경기도 평택시 비전동 751-8번지 3층","indutype":"학원 - 보습학원","category":"study"},{"name":"하우스터디평택비전센터독서실","tel":"031-655-1178","addr":"경기도 평택시 비전동 751-8번지 동서빌딩 4층 401호","indutype":"학원 - 독서실","category":"study"}]},{"lat":"36.991297657","long":"127.10536107","imageIndex":16,"items":[{"name":"위즈원에듀학원","tel":"031-656-9753","addr":"경기도 평택시 비전동 764-16번지 2층","indutype":"학원 - 보습학원","category":"study"},{"name":"차현준국어과학학원","tel":"031-656-0273","addr":"경기도 평택시 비전동 764-16번지","indutype":"학원 - 보습학원","category":"study"},{"name":"차현준학원","tel":"031-663-0273","addr":"경기도 평택시 비전동 764-16번지 이충센타프라자 304호","indutype":"학원 - 보습학원","category":"study"}]},{"lat":"37.002855131","long":"127.10906157","imageIndex":16,"items":[{"name":"유니팝이화미술학원","tel":"031-656-5907","addr":"경기도 평택시 비전동 1038-2번지","indutype":"학원 - 예·체능계학원","category":"study"}]},{"lat":"36.992466988","long":"127.11747204","imageIndex":16,"items":[{"name":"윤정화음악학원","tel":"031-652-8219","addr":"경기도 평택시 비전동 884-11번지 1층","indutype":"학원 - 예·체능계학원","category":"study"}]},{"lat":"36.996109086","long":"127.1056933","imageIndex":16,"items":[{"name":"음피아노","tel":"031-651-4452","addr":"경기도 평택시 비전동 823번지 1층","indutype":"학원 - 예·체능계학원","category":"study"}]},{"lat":"36.996525518","long":"127.11355753","imageIndex":16,"items":[{"name":"이보영의토킹클럽평택비전어학원","tel":"031-616-1003","addr":"경기도 평택시 비전동 872-5번지 2층","indutype":"학원 - 외국어학원","category":"study"}]},{"lat":"36.992908241","long":"127.11775353","imageIndex":16,"items":[{"name":"이수진피아노학원","tel":"031-656-7876","addr":"경기도 평택시 비전동 883-8번지","indutype":"회원제형태 - 학원","category":"study"}]},{"lat":"36.992383307","long":"127.10017278","imageIndex":16,"items":[{"name":"이앤에듀학원","tel":"031-656-0585","addr":"경기도 평택시 비전동 760-8번지 2층","indutype":"학원 - 외국어학원","category":"study"}]},{"lat":"37.002720252","long":"127.10874681","imageIndex":16,"items":[{"name":"이화 윤현정음악학원","tel":"031-657-2242","addr":"경기도 평택시 비전동 1039-1번지 1층","indutype":"학원 - 예·체능계학원","category":"study"}]},{"lat":"37.003052923","long":"127.10955617","imageIndex":16,"items":[{"name":"이화미술교습소","tel":"","addr":"경기도 평택시 비전동 1037-4번지 1층","indutype":"학원 - 예·체능계학원","category":"study"}]},{"lat":"36.996272236","long":"127.10458138","imageIndex":16,"items":[{"name":"이화유치원[아이행복]","tel":"031-651-9986","addr":"경기도 평택시 비전동 272-3","indutype":"학원 - 유치원","category":"study"}]},{"lat":"37.004299821","long":"127.09468284","imageIndex":16,"items":[{"name":"잉큐영어","tel":"070-7559-3858","addr":"경기도 평택시 비전동 1005번지 휴먼시아1단지 110동 105호","indutype":"회원제형태 - 학원","category":"study"}]},{"lat":"37.003214513","long":"127.09974843","imageIndex":16,"items":[{"name":"자란초등학교","tel":"031-618-7460","addr":"경기도 평택시 비전동 1009번지 자란초등학교","indutype":"학원 - 초중고교육기관","category":"study"},{"name":"자란초등학교 병설유치원[아이행복]","tel":"031-618-7463","addr":"경기도 평택시 비전동 1009번지 자란초등학교 1층","indutype":"학원 - 유치원","category":"study"}]},{"lat":"36.99571542","long":"127.0909991","imageIndex":16,"items":[{"name":"자연미","tel":"031-652-1262","addr":"경기도 평택시 비전동 621-18번지","indutype":"회원제형태 - 학원","category":"study"}]},{"lat":"37.000324333","long":"127.0969474","imageIndex":16,"items":[{"name":"자연유치원","tel":"031-692-6700","addr":"경기도 평택시 비전동 798번지","indutype":"학원 - 유치원","category":"study"},{"name":"자연유치원[아이행복]","tel":"031-692-6700","addr":"경기도 평택시 비전동 798","indutype":"학원 - 유치원","category":"study"}]},{"lat":"37.002657047","long":"127.10889277","imageIndex":16,"items":[{"name":"정스ESL주니어이화캠퍼스영어학원","tel":"031-658-1165","addr":"경기도 평택시 비전동 1039-2번지 101호","indutype":"학원 - 외국어학원","category":"study"},{"name":"정스킨더","tel":"031-658-1164","addr":"경기도 평택시 비전동 1039-2번지 201호","indutype":"학원 - 기타 교육기관","category":"study"}]},{"lat":"37.002245722","long":"127.10528588","imageIndex":16,"items":[{"name":"제이씨케이(JCK)상승학원","tel":"031-658-6784","addr":"경기도 평택시 비전동 1070-3번지 501호,502호","indutype":"학원 - 보습학원","category":"study"},{"name":"제이씨케이(JCK)상승학원","tel":"031-658-6784","addr":"경기도 평택시 비전동 1070-3번지 501,502호","indutype":"학원 - 보습학원","category":"study"}]},{"lat":"36.994607759","long":"127.11191465","imageIndex":16,"items":[{"name":"주식회사 평택시사외국어학원","tel":"031-657-0500","addr":"경기도 평택시 비전동 832-4번지 신영빌딩 5층","indutype":"회원제형태 - 학원","category":"study"},{"name":"큐맥스(QMax)수학학원","tel":"031-653-9270","addr":"경기도 평택시 비전동 832-4번지 4층","indutype":"학원 - 보습학원","category":"study"}]},{"lat":"36.992548409","long":"127.11713516","imageIndex":16,"items":[{"name":"지혜의숲평택비전논술교습소","tel":"031-657-1312","addr":"경기도 평택시 비전동 884번지","indutype":"학원 - 보습학원","category":"study"}]},{"lat":"36.992382901","long":"127.10066704","imageIndex":16,"items":[{"name":"지혜의숲학원","tel":"031-656-4245","addr":"경기도 평택시 비전동 760-5번지","indutype":"학원 - 보습학원","category":"study"}]},{"lat":"36.996244588","long":"127.09425751","imageIndex":16,"items":[{"name":"지호공부방","tel":"031-618-2221","addr":"경기도 평택시 비전동 603-1번지 부원하이빌 B동 202호","indutype":"회원제형태 - 학원","category":"study"}]},{"lat":"36.996913541","long":"127.11295146","imageIndex":16,"items":[{"name":"쮸니네앤쿡","tel":"031-656-2610","addr":"경기도 평택시 비전동 871-1번지","indutype":"서비스업 - 요리학원","category":"study"}]},{"lat":"36.994913397","long":"127.11270144","imageIndex":16,"items":[{"name":"청담어학원","tel":"031-656-0561","addr":"경기도 평택시 비전동 830-2번지","indutype":"회원제형태 - 학원","category":"study"},{"name":"평택청담어학원","tel":"031-656-0561","addr":"경기도 평택시 비전동 830-2번지 패밀리타운 3층 일부","indutype":"회원제형태 - 학원","category":"study"}]},{"lat":"37.001300433","long":"127.1143621","imageIndex":16,"items":[{"name":"최민호 Jns GYM","tel":"","addr":"경기도 평택시 비전동 1098-1번지 희성프라자 805호","indutype":"학원 - 예·체능계학원","category":"study"}]},{"lat":"36.99377228","long":"127.10913881","imageIndex":16,"items":[{"name":"코끼리어린이집","tel":"031-653-7700","addr":"경기도 평택시 비전동 931번지 비전경남아너스빌 115동 103호","indutype":"학원 - 유아원","category":"study"},{"name":"코끼리어린이집[아이행복]","tel":"031-653-7700","addr":"경기도 평택시 비전동 931번지 비전경남아너스빌 115동 103호","indutype":"학원 - 유아원","category":"study"}]},{"lat":"36.996606383","long":"127.11380479","imageIndex":16,"items":[{"name":"키즈한국태권도","tel":"031-658-8009","addr":"경기도 평택시 비전동 872-4번지","indutype":"학원 - 예·체능계학원","category":"study"}]},{"lat":"36.993079095","long":"127.11811325","imageIndex":16,"items":[{"name":"토성미술학원","tel":"031-653-7343","addr":"경기도 평택시 비전동 882-11번지 1층","indutype":"학원 - 예·체능계학원","category":"study"}]},{"lat":"36.995518905","long":"127.11074765","imageIndex":16,"items":[{"name":"톰앤제니비전센터학원","tel":"031-651-0597","addr":"경기도 평택시 비전동 829-10번지","indutype":"학원 - 보습학원","category":"study"}]},{"lat":"36.992214857","long":"127.1075303","imageIndex":16,"items":[{"name":"팩토예감","tel":"031-668-8543","addr":"경기도 평택시 비전동 191-3번지 3층","indutype":"학원 - 학습지 교육","category":"study"}]},{"lat":"36.99146969","long":"127.10439525","imageIndex":16,"items":[{"name":"평무관","tel":"031-655-1488","addr":"경기도 평택시 비전동 763-9번지 2층","indutype":"학원 - 예·체능계학원","category":"study"}]},{"lat":"36.997798455","long":"127.08886705","imageIndex":16,"items":[{"name":"평택기계공고","tel":"031-659-1205","addr":"경기도 평택시 비전동 564-8번지 평택기계공업고교","indutype":"학원 - 초중고교육기관","category":"study"},{"name":"평택기계공고_수업료","tel":"031-659-1205","addr":"경기도 평택시 비전동 564-8번지 평택기계공업고교","indutype":"학원 - 초중고교육기관","category":"study"}]},{"lat":"37.002579484","long":"127.10485941","imageIndex":16,"items":[{"name":"평택바리스타클래스","tel":"","addr":"경기도 평택시 비전동 1027-2번지 보령프라자 4층 402호","indutype":"학원 - 기능학원","category":"study"},{"name":"홍익비전미술학원","tel":"031-658-7912","addr":"경기도 평택시 비전동 1027-2번지 보령프라자 504호","indutype":"학원 - 예·체능계학원","category":"study"}]},{"lat":"36.994605347","long":"127.0933344","imageIndex":16,"items":[{"name":"평택성동유치원[아이행복]","tel":"031-658-3109","addr":"경기도 평택시 비전동 611-1번지","indutype":"학원 - 유치원","category":"study"},{"name":"평택성동초등학교","tel":"070-4490-3001","addr":"경기도 평택시 비전동 611-1번지 성동초등학교","indutype":"학원 - 초중고교육기관","category":"study"}]},{"lat":"36.995137795","long":"127.0922566","imageIndex":16,"items":[{"name":"평택시육아종합지원센터부설시립어린이집[","tel":"031-692-7708","addr":"경기도 평택시 비전동 622-1번지","indutype":"학원 - 유아원","category":"study"}]},{"lat":"36.991714529","long":"127.11277547","imageIndex":16,"items":[{"name":"평택시청 예절교육관","tel":"031-8024-3106","addr":"경기도 평택시 비전동 846번지","indutype":"학원 - 기타 교육기관","category":"study"}]},{"lat":"36.990992639","long":"127.1138865","imageIndex":16,"items":[{"name":"평택시청직장어린이집[아이행복]","tel":"0311-655-5500","addr":"경기도 평택시 비전동 847번지","indutype":"학원 - 유아원","category":"study"}]},{"lat":"36.994419642","long":"127.11070117","imageIndex":16,"items":[{"name":"평택아너스어린이집[아이행복]","tel":"031-8029-0505","addr":"경기도 평택시 비전동 931번지 비전경남아너스빌","indutype":"학원 - 유아원","category":"study"}]},{"lat":"36.993300441","long":"127.10253295","imageIndex":16,"items":[{"name":"평택여자중학교","tel":"031-690-0900","addr":"경기도 평택시 비전동 236-21번지","indutype":"학원 - 초중고교육기관","category":"study"}]},{"lat":"37.003441646","long":"127.10814113","imageIndex":16,"items":[{"name":"평택이화초등학교","tel":"031-647-5002","addr":"경기도 평택시 비전동 1034번지 이화초등학교","indutype":"학원 - 초중고교육기관","category":"study"}]},{"lat":"37.003603788","long":"127.10819753","imageIndex":16,"items":[{"name":"평택이화초등학교병설유치원[아이행복]","tel":"031-647-5080","addr":"경기도 평택시 비전동 82-5","indutype":"학원 - 유치원","category":"study"}]},{"lat":"36.993414605","long":"127.09506292","imageIndex":16,"items":[{"name":"평택종이문화원","tel":"031-655-7279","addr":"경기도 평택시 비전동 731-7번지 2층","indutype":"학원 - 기타 교육기관","category":"study"}]},{"lat":"36.999165099","long":"127.09289043","imageIndex":16,"items":[{"name":"평택중학교","tel":"031-659-0003","addr":"경기도 평택시 비전동 469-8번지 평택중학교","indutype":"학원 - 초중고교육기관","category":"study"}]},{"lat":"36.994714265","long":"127.11366724","imageIndex":16,"items":[{"name":"평택페르마학원","tel":"031-658-6582","addr":"경기도 평택시 비전동 877-4번지 401호","indutype":"회원제형태 - 학원","category":"study"}]},{"lat":"36.993051816","long":"127.10869971","imageIndex":16,"items":[{"name":"피아노피아 (Pianopia)피아노학원","tel":"031-653-3737","addr":"경기도 평택시 비전동 935번지 비전경남아너스빌 상가동 201호","indutype":"학원 - 예·체능계학원","category":"study"}]},{"lat":"37.002909326","long":"127.10891559","imageIndex":16,"items":[{"name":"하나바둑개인과외교습","tel":"031-652-0125","addr":"경기도 평택시 비전동 1038-1번지 202호","indutype":"학원 - 기타 교육기관","category":"study"}]},{"lat":"37.000272522","long":"127.09406011","imageIndex":16,"items":[{"name":"하이터치학원","tel":"031-665-1939","addr":"경기도 평택시 비전동 791-9번지","indutype":"학원 - 보습학원","category":"study"}]},{"lat":"36.993550304","long":"127.09436662","imageIndex":16,"items":[{"name":"한가람에듀학원","tel":"031-655-9870","addr":"경기도 평택시 비전동 731-1번지","indutype":"학원 - 보습학원","category":"study"},{"name":"한가람학원","tel":"031-655-9870","addr":"경기도 평택시 비전동 731-1번지 2층","indutype":"학원 - 보습학원","category":"study"}]},{"lat":"36.996549307","long":"127.09636983","imageIndex":16,"items":[{"name":"한광고등학교","tel":"031-651-3111","addr":"경기도 평택시 비전동 504번지","indutype":"학원 - 초중고교육기관","category":"study"},{"name":"한광여자중학교","tel":"031-651-3128","addr":"경기도 평택시 비전동 504번지","indutype":"학원 - 초중고교육기관","category":"study"},{"name":"한광중학교","tel":"031-651-3120","addr":"경기도 평택시 비전동 504번지","indutype":"학원 - 초중고교육기관","category":"study"}]},{"lat":"36.994745577","long":"127.09836719","imageIndex":16,"items":[{"name":"한별어린이집[아이행복]","tel":"031-651-1719","addr":"경기도 평택시 비전동 743-11번지","indutype":"학원 - 유아원","category":"study"}]},{"lat":"36.991215429","long":"127.10666399","imageIndex":16,"items":[{"name":"한솔컴퓨터학원","tel":"031-658-8867","addr":"경기도 평택시 비전동 764-22번지 3층 전부","indutype":"학원 - 컴퓨터학원","category":"study"}]},{"lat":"36.993104024","long":"127.1003422","imageIndex":16,"items":[{"name":"한음국악학원","tel":"031-691-9425","addr":"경기도 평택시 비전동 755-8번지 1층","indutype":"학원 - 예·체능계학원","category":"study"}]},{"lat":"37.003296161","long":"127.10961269","imageIndex":16,"items":[{"name":"해법수학 셀파수학교실","tel":"","addr":"경기도 평택시 비전동 1036-4번지 201호","indutype":"학원 - 기타 교육기관","category":"study"}]},{"lat":"36.997075347","long":"127.09192185","imageIndex":16,"items":[{"name":"햇님어린이집[아이행복]","tel":"031-655-8227","addr":"경기도 평택시 비전동 625-8번지","indutype":"학원 - 유아원","category":"study"}]},{"lat":"36.993412418","long":"127.09783756","imageIndex":16,"items":[{"name":"햇빛마을어린이집[아이행복]","tel":"031-658-3282","addr":"경기도 평택시 비전동 746-1번지","indutype":"학원 - 유아원","category":"study"}]},{"lat":"36.9917199","long":"127.1068107","imageIndex":16,"items":[{"name":"현음악학원","tel":"031-652-9801","addr":"경기도 평택시 비전동 766-1번지 3층","indutype":"학원 - 예·체능계학원","category":"study"}]},{"lat":"37.000630214","long":"127.1082496","imageIndex":16,"items":[{"name":"효성잼잼어린이집[아이행복]","tel":"031-692-4688","addr":"경기도 평택시 비전동 1089번지 평택비전동효성백년가약 108동 103호","indutype":"학원 - 유아원","category":"study"}]},{"lat":"36.999438554","long":"127.11075319","imageIndex":16,"items":[{"name":"효성킨더어린이집[아이행복]","tel":"031-616-8651","addr":"경기도 평택시 비전동 1089번지 효성백년가약,113동101호","indutype":"학원 - 유아원","category":"study"}]}]