[{"lat":"37.34578477","long":"127.1762066","imageIndex":13,"items":[{"name":"MP3노래연습장","tel":"031-765-2778","addr":"경기도 광주시 오포읍 능평리 174번지","indutype":"레저업소 - 노 래 방","category":"leisure"},{"name":"와이짐(Y-GYM)헬스","tel":"02-421-7269","addr":"경기도 광주시 오포읍 능평리 174번지 주봉빌딩 3층","indutype":"레저업소 - 헬스클럽","category":"leisure"},{"name":"허슬러 당구클럽","tel":"","addr":"경기도 광주시 오포읍 능평리 174번지 주봉빌딩 4층","indutype":"레저업소 - 당 구 장","category":"leisure"}]},{"lat":"37.34453919","long":"127.1776822","imageIndex":13,"items":[{"name":"거기 노래연습장","tel":"031-765-6288","addr":"경기도 광주시 오포읍 능평리 153-4번지 금용빌딩 3층","indutype":"레저업소 - 노 래 방","category":"leisure"}]},{"lat":"37.34608751","long":"127.178645","imageIndex":13,"items":[{"name":"김형수골프아카데미","tel":"031-553-9995","addr":"경기도 광주시 오포읍 능평리 141-2번지 오포베르빌아파트","indutype":"레저업소 - 골프연습장","category":"leisure"}]},{"lat":"37.34573042","long":"127.1763984","imageIndex":13,"items":[{"name":"까당 당구클럽","tel":"031-604-2221","addr":"경기도 광주시 오포읍 능평리 174-33번지 덕수빌딩 2층","indutype":"레저업소 - 당 구 장","category":"leisure"}]},{"lat":"37.34583952","long":"127.1757328","imageIndex":13,"items":[{"name":"노리파크오포점","tel":"031-625-7333","addr":"경기도 광주시 오포읍 능평리 174-4번지 2층","indutype":"레저업소 - 기타레져업소","category":"leisure"},{"name":"레이크 노래연습장","tel":"031-765-0898","addr":"경기도 광주시 오포읍 능평리 174-4번지 2층","indutype":"레저업소 - 노 래 방","category":"leisure"}]},{"lat":"37.35028323","long":"127.1682376","imageIndex":13,"items":[{"name":"더블에이치짐 GX스튜디오","tel":"031-7777-7777","addr":"경기도 광주시 오포읍 능평리 267-9번지 2층","indutype":"레저업소 - 헬스클럽","category":"leisure"}]},{"lat":"37.35575413","long":"127.1669854","imageIndex":13,"items":[{"name":"더짐(The GYM) 180°","tel":"031-715-2132","addr":"경기도 광주시 오포읍 능평리 361-10번지 2층 계린빌딩","indutype":"레저업소 - 헬스클럽","category":"leisure"}]},{"lat":"37.3520347","long":"127.1657132","imageIndex":13,"items":[{"name":"더찬스짐","tel":"031-719-5308","addr":"경기도 광주시 오포읍 능평리 340-4번지 201호","indutype":"레저업소 - 헬스클럽","category":"leisure"}]},{"lat":"37.34400653","long":"127.1784032","imageIndex":13,"items":[{"name":"도깨비PC 광주오포본점","tel":"070-9224-3585","addr":"경기도 광주시 오포읍 능평리 153-10번지 2층","indutype":"레저업소 - 기타레져업소","category":"leisure"}]},{"lat":"37.34376176","long":"127.179407","imageIndex":13,"items":[{"name":"럭셔리노래연습장","tel":"031-761-3641","addr":"경기도 광주시 오포읍 능평리 152-4번지","indutype":"레저업소 - 노 래 방","category":"leisure"}]},{"lat":"37.35781173","long":"127.1710647","imageIndex":13,"items":[{"name":"레이더스","tel":"031-111-1111","addr":"경기도 광주시 오포읍 능평리 369-3번지","indutype":"레저업소 - 기타레져업소","category":"leisure"}]},{"lat":"37.34498102","long":"127.1774575","imageIndex":13,"items":[{"name":"명품 노래연습장","tel":"031-765-0507","addr":"경기도 광주시 오포읍 능평리 166-1번지 지층","indutype":"레저업소 - 노 래 방","category":"leisure"},{"name":"필라테스by문","tel":"","addr":"경기도 광주시 오포읍 능평리 166-1번지 한산빌딩 2동 2층 1호","indutype":"레저업소 - 헬스클럽","category":"leisure"}]},{"lat":"37.34906382","long":"127.1500755","imageIndex":13,"items":[{"name":"목사 요가원","tel":"02-836-1050","addr":"경기도 광주시 오포읍 능평리 604-5번지 G동 1층","indutype":"레저업소 - 헬스클럽","category":"leisure"}]},{"lat":"37.35429001","long":"127.1636865","imageIndex":13,"items":[{"name":"보글보글 실내 낚시카페","tel":"031-609-0091","addr":"경기도 광주시 오포읍 능평리 458번지 1동 2층","indutype":"레저업소 - 기타레져업소","category":"leisure"}]},{"lat":"37.3441221","long":"127.179453","imageIndex":13,"items":[{"name":"싸이판노래방","tel":"031-765-1767","addr":"경기도 광주시 오포읍 능평리 151-6번지","indutype":"레저업소 - 노 래 방","category":"leisure"}]},{"lat":"37.35456013","long":"127.1638225","imageIndex":13,"items":[{"name":"어썸바디","tel":"031-603-7298","addr":"경기도 광주시 오포읍 능평리 458-4번지 202호","indutype":"레저업소 - 헬스클럽","category":"leisure"}]},{"lat":"37.35103315","long":"127.1731262","imageIndex":13,"items":[{"name":"언바운드","tel":"","addr":"경기도 광주시 오포읍 능평리 205-1번지 UNBOUND","indutype":"레저업소 - 헬스클럽","category":"leisure"}]},{"lat":"37.35828428","long":"127.1616294","imageIndex":13,"items":[{"name":"오댄스스쿨","tel":"031-602-2119","addr":"경기도 광주시 오포읍 능평리 437-8번지 2층","indutype":"레저업소 - 헬스클럽","category":"leisure"}]},{"lat":"37.34361822","long":"127.1789891","imageIndex":13,"items":[{"name":"오로라노래연습장","tel":"","addr":"경기도 광주시 오포읍 능평리 152-5번지 한산빌딩 2층","indutype":"레저업소 - 노 래 방","category":"leisure"},{"name":"해피로PC 광주오포점","tel":"","addr":"경기도 광주시 오포읍 능평리 152-5번지 한산빌딩 2층","indutype":"레저업소 - 기타레져업소","category":"leisure"},{"name":"현대당구장","tel":"031-603-4839","addr":"경기도 광주시 오포읍 능평리 152-5번지 3층 301호(152-18)","indutype":"레저업소 - 당 구 장","category":"leisure"}]},{"lat":"37.35597764","long":"127.1682388","imageIndex":13,"items":[{"name":"오포실내스크린","tel":"031-726-3515","addr":"경기도 광주시 오포읍 능평리 359-7번지","indutype":"레저업소 - 스크린골프","category":"leisure"}]},{"lat":"37.34622829","long":"127.1748195","imageIndex":13,"items":[{"name":"월드골프아카데미","tel":"031-767-7600","addr":"경기도 광주시 오포읍 능평리 174-7번지 1층","indutype":"레저업소 - 골프연습장","category":"leisure"},{"name":"월드골프존","tel":"031-767-7600","addr":"경기도 광주시 오포읍 능평리 174-7번지","indutype":"레저업소 - 스크린골프","category":"leisure"}]},{"lat":"37.34601194","long":"127.180981","imageIndex":13,"items":[{"name":"위너스크린골프존","tel":"031-764-0754","addr":"경기도 광주시 오포읍 능평리 145-9번지","indutype":"레저업소 - 스크린골프","category":"leisure"},{"name":"카툰&북카페 휴","tel":"","addr":"경기도 광주시 오포읍 능평리 145-9번지 3층","indutype":"레저업소 - 기타레져업소","category":"leisure"}]},{"lat":"37.34384398","long":"127.1786511","imageIndex":13,"items":[{"name":"이네이처PC","tel":"031-1234-1234","addr":"경기도 광주시 오포읍 능평리 152-22번지 2층","indutype":"레저업소 - 기타레져업소","category":"leisure"}]},{"lat":"37.35170098","long":"127.1659608","imageIndex":13,"items":[{"name":"인카페 PC존","tel":"070-3707-1422","addr":"경기도 광주시 오포읍 능평리 340-8번지 2층","indutype":"레저업소 - 기타레져업소","category":"leisure"}]},{"lat":"37.3511324","long":"127.1600004","imageIndex":13,"items":[{"name":"좋은 골프","tel":"070-5521-6398","addr":"경기도 광주시 오포읍 능평리 510-7번지 롯데그린빌","indutype":"레저업소 - 골프연습장","category":"leisure"}]},{"lat":"37.34770285","long":"127.1707035","imageIndex":13,"items":[{"name":"주식회사서핑라이더","tel":"031-711-0891","addr":"경기도 광주시 오포읍 능평리 193-1번지","indutype":"레저업소 - 기타레져업소","category":"leisure"}]},{"lat":"37.3443947","long":"127.1779076","imageIndex":13,"items":[{"name":"천복당구장","tel":"031-768-5475","addr":"경기도 광주시 오포읍 능평리 153-21번지","indutype":"레저업소 - 당 구 장","category":"leisure"}]},{"lat":"37.35262143","long":"127.1649357","imageIndex":13,"items":[{"name":"홈트요가","tel":"","addr":"경기도 광주시 오포읍 능평리 340-20번지 더베일리하우스 301동 102호","indutype":"레저업소 - 헬스클럽","category":"leisure"}]}]