[{"lat":"37.382282338","long":"126.94889921","imageIndex":16,"items":[{"name":"고은음악학원","tel":"031-348-5115","addr":"경기도 안양시 동안구 귀인로","indutype":"학원 - 예·체능계학원","category":"study"}]},{"lat":"37.38517037","long":"126.96069679","imageIndex":16,"items":[{"name":"기린아바둑학원","tel":"031-385-0294","addr":"경기도 안양시 동안구 귀인로","indutype":"학원 - 기타 교육기관","category":"study"}]},{"lat":"37.385558206","long":"126.96183703","imageIndex":16,"items":[{"name":"김민정이화발레학원","tel":"031-383-3200","addr":"경기도 안양시 동안구 귀인로","indutype":"학원 - 예·체능계학원","category":"study"}]},{"lat":"37.386091924","long":"126.96848753","imageIndex":16,"items":[{"name":"꿈마을어린이집[아이행복]","tel":"031-387-8676","addr":"경기도 안양시 동안구 귀인로","indutype":"학원 - 유아원","category":"study"}]},{"lat":"37.386143181","long":"126.95991712","imageIndex":16,"items":[{"name":"빈피아노","tel":"031-388-2192","addr":"경기도 안양시 동안구 귀인로","indutype":"학원 - 예·체능계학원","category":"study"},{"name":"오은수학교습소","tel":"031-387-0511","addr":"경기도 안양시 동안구 귀인로","indutype":"회원제형태 - 학원","category":"study"}]},{"lat":"37.38689178","long":"126.96206214","imageIndex":16,"items":[{"name":"용인대멘토태권도","tel":"031-383-9909","addr":"경기도 안양시 동안구 귀인로","indutype":"학원 - 예·체능계학원","category":"study"},{"name":"위트잉글리시","tel":"031-387-8562","addr":"경기도 안양시 동안구 귀인로","indutype":"학원 - 보습학원","category":"study"}]},{"lat":"37.385693541","long":"126.96236766","imageIndex":16,"items":[{"name":"이에스엠수학교습소","tel":"031-384-0521","addr":"경기도 안양시 동안구 귀인로","indutype":"회원제형태 - 학원","category":"study"},{"name":"지엠수학교습소","tel":"031-383-0377","addr":"경기도 안양시 동안구 귀인로","indutype":"회원제형태 - 학원","category":"study"}]},{"lat":"37.385332693","long":"126.96109191","imageIndex":16,"items":[{"name":"해온태권도","tel":"031-388-7391","addr":"경기도 안양시 동안구 귀인로","indutype":"학원 - 예·체능계학원","category":"study"}]},{"lat":"37.388497107","long":"126.96675875","imageIndex":16,"items":[{"name":"홍수학","tel":"031-387-7717","addr":"경기도 안양시 동안구 귀인로","indutype":"회원제형태 - 학원","category":"study"}]},{"lat":"37.385107243","long":"126.96053875","imageIndex":4,"items":[{"name":"그림일기","tel":"031-384-1756","addr":"경기도 안양시 동안구 귀인로","indutype":"일반휴게음식 - 서양음식","category":"restaurant"}]},{"lat":"37.381831306","long":"126.94775914","imageIndex":4,"items":[{"name":"남촌칼국수","tel":"031-453-1189","addr":"경기도 안양시 동안구 귀인로","indutype":"일반휴게음식 - 일반한식","category":"restaurant"}]},{"lat":"37.388497107","long":"126.96675875","imageIndex":4,"items":[{"name":"야미","tel":"031-386-7509","addr":"경기도 안양시 동안구 귀인로","indutype":"일반휴게음식 - 스넥","category":"restaurant"}]},{"lat":"37.381751277","long":"126.95008515","imageIndex":4,"items":[{"name":"장수식당","tel":"031-456-0960","addr":"경기도 안양시 동안구 귀인로","indutype":"일반휴게음식 - 일반한식","category":"restaurant"},{"name":"피자스쿨(호계도서관점)","tel":"031-458-0077","addr":"경기도 안양시 동안구 귀인로","indutype":"일반휴게음식 - 서양음식","category":"restaurant"}]},{"lat":"37.381975839","long":"126.9485607","imageIndex":4,"items":[{"name":"치킨마루호계도서관점","tel":"031-477-2040","addr":"경기도 안양시 동안구 귀인로","indutype":"일반휴게음식 - 스넥","category":"restaurant"}]},{"lat":"37.388497107","long":"126.96675875","imageIndex":17,"items":[{"name":"꾸미크니","tel":"031-384-9277","addr":"경기도 안양시 동안구 귀인로","indutype":"신변잡화 - 기타잡화","category":"other"},{"name":"신세계","tel":"031-385-5557","addr":"경기도 안양시 동안구 귀인로","indutype":"신변잡화 - 액세서리","category":"other"},{"name":"오디자인","tel":"031-477-9919","addr":"경기도 안양시 동안구 귀인로","indutype":"건축자재 - 인테리어전문","category":"other"}]},{"lat":"37.386137807","long":"126.9714798","imageIndex":17,"items":[{"name":"데코","tel":"031-393-2724","addr":"경기도 안양시 동안구 귀인로","indutype":"의류 - 정장","category":"other"}]},{"lat":"37.385107243","long":"126.96053875","imageIndex":17,"items":[{"name":"아르케조명","tel":"031-382-0340","addr":"경기도 안양시 동안구 귀인로","indutype":"건축자재 - 조명기구","category":"other"}]},{"lat":"37.381832544","long":"126.95048028","imageIndex":17,"items":[{"name":"에이스통신","tel":"031-444-9011","addr":"경기도 안양시 동안구 귀인로","indutype":"사무통신 - 통신기기","category":"other"}]},{"lat":"37.388577548","long":"126.96469227","imageIndex":17,"items":[{"name":"플러스마켓","tel":"031-911-4588","addr":"경기도 안양시 동안구 귀인로","indutype":"회원제형태 - 기타1","category":"other"}]},{"lat":"37.38689178","long":"126.96206214","imageIndex":17,"items":[{"name":"피부사랑","tel":"031-429-3054","addr":"경기도 안양시 동안구 귀인로","indutype":"회원제형태 - 기타4","category":"other"},{"name":"현대세탁소","tel":"031-382-0478","addr":"경기도 안양시 동안구 귀인로","indutype":"수리서비스 - 세탁소","category":"other"}]},{"lat":"37.385774755","long":"126.96272895","imageIndex":13,"items":[{"name":"동네미장원","tel":"031-383-7282","addr":"경기도 안양시 동안구 귀인로","indutype":"보건위생 - 미용원","category":"beauty"}]},{"lat":"37.381750628","long":"126.94865119","imageIndex":13,"items":[{"name":"안양옥사우나","tel":"031-456-2207","addr":"경기도 안양시 동안구 귀인로","indutype":"보건위생 - 사우나","category":"beauty"}]},{"lat":"37.382889102","long":"126.95614772","imageIndex":7,"items":[{"name":"원마트","tel":"031-384-0710","addr":"경기도 안양시 동안구 귀인로","indutype":"유통업 영리 - 슈퍼마켓","category":"mart"}]},{"lat":"37.38689178","long":"126.96206214","imageIndex":7,"items":[{"name":"향촌마트","tel":"031-386-6640","addr":"경기도 안양시 동안구 귀인로","indutype":"유통업 영리 - 슈퍼마켓","category":"mart"}]},{"lat":"37.38689178","long":"126.96206214","imageIndex":8,"items":[{"name":"이종민소아과의원","tel":"031-383-2932","addr":"경기도 안양시 동안구 귀인로","indutype":"의원 - 의원","category":"medical"}]},{"lat":"37.382282338","long":"126.94889921","imageIndex":7,"items":[{"name":"지엔더블유코리아(GNWKOREA)","tel":"031-382-1088","addr":"경기도 안양시 동안구 귀인로","indutype":"회원제형태 - 건강식품","category":"food"}]}]