[{"lat":"37.322344366","long":"126.94386516","imageIndex":7,"items":[{"name":"고기바보푸주간","tel":"","addr":"경기도 군포시 부곡동 1139-1번지 1층 103호","indutype":"음료식품 - 정육점","category":"food"}]},{"lat":"37.337754856","long":"126.93295235","imageIndex":7,"items":[{"name":"국사랑 군포삼성마을점","tel":"031-398-9453","addr":"경기도 군포시 부곡동 1211번지 1층","indutype":"음료식품 - 기타음료식품","category":"food"}]},{"lat":"37.32209088","long":"126.94150741","imageIndex":7,"items":[{"name":"대양","tel":"031-456-7246","addr":"경기도 군포시 부곡동 1133-3번지 1층","indutype":"음료식품 - 기타음료식품","category":"food"}]},{"lat":"37.333587842","long":"126.92600539","imageIndex":7,"items":[{"name":"동진수산","tel":"031-397-1888","addr":"경기도 군포시 부곡동 763번지 1층","indutype":"음료식품 - 농·축·수산품","category":"food"},{"name":"부곡수산","tel":"031-397-1888","addr":"경기도 군포시 부곡동 763번지","indutype":"음료식품 - 농·축·수산품","category":"food"}]},{"lat":"37.337007337","long":"126.93350597","imageIndex":7,"items":[{"name":"똘똘이네 축산유통","tel":"031-391-0188","addr":"경기도 군포시 부곡동 1214-2번지 101호","indutype":"음료식품 - 정육점","category":"food"}]},{"lat":"37.323758803","long":"126.94353687","imageIndex":7,"items":[{"name":"뚜레쥬르군포부곡점","tel":"031-461-0904","addr":"경기도 군포시 부곡동 1126 휴먼시아상가 103","indutype":"음료식품 - 제과점","category":"food"}]},{"lat":"37.323728397","long":"126.93715109","imageIndex":7,"items":[{"name":"모감주 매점","tel":"031-461-0925","addr":"경기도 군포시 부곡동 1094번지 부곡중앙고등학교","indutype":"음료식품 - 기타음료식품","category":"food"}]},{"lat":"37.337476769","long":"126.93506279","imageIndex":7,"items":[{"name":"목마르즈","tel":"070-3933-9876","addr":"경기도 군포시 부곡동 1217-6번지 1층","indutype":"음료식품 - 기타음료식품","category":"food"}]},{"lat":"37.322344185","long":"126.94350414","imageIndex":7,"items":[{"name":"반찬사랑","tel":"031-461-7791","addr":"경기도 군포시 부곡동 1132-2번지 1층","indutype":"음료식품 - 기타음료식품","category":"food"}]},{"lat":"37.324217117","long":"126.94117849","imageIndex":7,"items":[{"name":"부곡명가축산","tel":"031-462-7277","addr":"경기도 군포시 부곡동 1098번지 휴먼시아 상가 103호","indutype":"음료식품 - 정육점","category":"food"}]},{"lat":"37.32578495","long":"126.94129003","imageIndex":7,"items":[{"name":"부곡복권방","tel":"","addr":"경기도 군포시 부곡동 1249-5번지 태진 상가동 102호","indutype":"음료식품 - 기타음료식품","category":"food"}]},{"lat":"37.322506033","long":"126.94283836","imageIndex":7,"items":[{"name":"브이점핑다이어트","tel":"070-8780-2150","addr":"경기도 군포시 부곡동 1130-3번지 상가동 1층 101호","indutype":"건강식품 - 기타건강식품","category":"food"}]},{"lat":"37.338807698","long":"126.93070574","imageIndex":7,"items":[{"name":"삼성농산","tel":"031-000-0000","addr":"경기도 군포시 부곡동 1204번지 삼성마을6단지","indutype":"음료식품 - 농·축·수산품","category":"food"}]},{"lat":"37.336620229","long":"126.93407054","imageIndex":7,"items":[{"name":"선진","tel":"031-477-5551","addr":"경기도 군포시 부곡동 1214-7번지 202호","indutype":"음료식품 - 농·축·수산품","category":"food"}]},{"lat":"37.336918061","long":"126.93492788","imageIndex":7,"items":[{"name":"슬림핏점핑다이어트2호점","tel":"031-4154-7414","addr":"경기도 군포시 부곡동 1218-2번지 노블타워 301호","indutype":"건강식품 - 기타건강식품","category":"food"}]},{"lat":"37.335953456","long":"126.9340373","imageIndex":7,"items":[{"name":"싱싱농산물","tel":"","addr":"경기도 군포시 부곡동 1195번지 해피시티 102호","indutype":"음료식품 - 농·축·수산품","category":"food"},{"name":"좋은아침 군포점","tel":"031-391-8781","addr":"경기도 군포시 부곡동 1195번지 해피시티 105,106호","indutype":"음료식품 - 제과점","category":"food"}]},{"lat":"37.337034664","long":"126.93401374","imageIndex":7,"items":[{"name":"아이유푸드","tel":"031-396-4048","addr":"경기도 군포시 부곡동 1215-3번지 1층","indutype":"음료식품 - 정육점","category":"food"}]},{"lat":"37.337646967","long":"126.9333474","imageIndex":7,"items":[{"name":"우리수산","tel":"031-399-8666","addr":"경기도 군포시 부곡동 1213-5, 1층","indutype":"음료식품 - 농·축·수산품","category":"food"}]},{"lat":"37.337475527","long":"126.93293004","imageIndex":7,"items":[{"name":"윈디","tel":"031-393-5231","addr":"경기도 군포시 부곡동 1210-2번지 101(101호~102호)","indutype":"음료식품 - 정육점","category":"food"}]},{"lat":"37.333480513","long":"126.92723543","imageIndex":7,"items":[{"name":"자판기","tel":"031-397-8880","addr":"경기도 군포시 부곡동 1185번지","indutype":"음료식품 - 기타음료식품","category":"food"},{"name":"자판기","tel":"","addr":"경기도 군포시 부곡동 1185번지","indutype":"음료식품 - 기타음료식품","category":"food"}]},{"lat":"37.337917786","long":"126.93422734","imageIndex":7,"items":[{"name":"조셉파리","tel":"031-394-0908","addr":"경기도 군포시 부곡동 1217번지 주건축물제1동 1층","indutype":"음료식품 - 제과점","category":"food"}]},{"lat":"37.323232325","long":"126.93623766","imageIndex":7,"items":[{"name":"주식회사 올굿","tel":"031-462-4620","addr":"경기도 군포시 부곡동 1092-5번지 1층","indutype":"음료식품 - 기타음료식품","category":"food"}]},{"lat":"37.336448167","long":"126.93259246","imageIndex":7,"items":[{"name":"진이찬방","tel":"031-399-0555","addr":"경기도 군포시 부곡동 1199번지 삼성마을2단지 상가동 1층 101호","indutype":"음료식품 - 기타음료식품","category":"food"}]},{"lat":"37.336836289","long":"126.93375438","imageIndex":7,"items":[{"name":"파리바게뜨 (군포삼성마을점)","tel":"031-394-8240","addr":"경기도 군포시 부곡동 1214-4번지 1층 102호","indutype":"음료식품 - 제과점","category":"food"}]},{"lat":"37.322119268","long":"126.94418124","imageIndex":7,"items":[{"name":"파리바게트 부곡점","tel":"031-461-8240","addr":"경기도 군포시 부곡동 1140-1번지 101호","indutype":"음료식품 - 제과점","category":"food"}]},{"lat":"37.336314119","long":"126.93447705","imageIndex":7,"items":[{"name":"하늘소아청소년건강기능식품","tel":"031-392-0075","addr":"경기도 군포시 부곡동 1219번지 웅신프라자 302호","indutype":"건강식품 - 기타건강식품","category":"food"}]}]