[{"lat":"37.736430412","long":"126.76093444","imageIndex":4,"items":[{"name":"(주)애플이엔씨 파주운정","tel":"","addr":"경기도 파주시 와동동 333-14","indutype":"일반휴게음식 - 일반한식","category":"restaurant"}]},{"lat":"37.732788341","long":"126.75126979","imageIndex":4,"items":[{"name":"(주)커피에반하다 운정가람점","tel":"031-946-8320","addr":"경기도 파주시 와동동 1302번지","indutype":"일반휴게음식 - 서양음식","category":"restaurant"},{"name":"실내포차 중독","tel":"031-111-1111","addr":"경기도 파주시 와동동 1302번지","indutype":"일반휴게음식 - 일반한식","category":"restaurant"},{"name":"오븐마루 운정점","tel":"031-942-4141","addr":"경기도 파주시 와동동 1302번지","indutype":"일반휴게음식 - 일반한식","category":"restaurant"},{"name":"웰빙장충왕족발","tel":"031-949-1170","addr":"경기도 파주시 와동동 1302번지","indutype":"일반휴게음식 - 일반한식","category":"restaurant"}]},{"lat":"37.735782989","long":"126.75290461","imageIndex":4,"items":[{"name":"37.5익스프레스 운정점","tel":"031-948-3705","addr":"경기도 파주시 와동동 1654번지","indutype":"일반휴게음식 - 일반한식","category":"restaurant"}]},{"lat":"37.732005749","long":"126.75185098","imageIndex":4,"items":[{"name":"60계치킨 파주운정점","tel":"031-947-8860","addr":"경기도 파주시 와동동 1302-3번지","indutype":"일반휴게음식 - 스넥","category":"restaurant"},{"name":"강순자 옛맛김치찌개 운정해솔마을점","tel":"070-4047-2404","addr":"경기도 파주시 와동동 1302-3번지","indutype":"일반휴게음식 - 일반한식","category":"restaurant"},{"name":"고수떡볶이 (운정가람본점)","tel":"031-944-9940","addr":"경기도 파주시 와동동 1302-3번지","indutype":"일반휴게음식 - 일반한식","category":"restaurant"},{"name":"보드람치킨(가람마을점)","tel":"031-942-0034","addr":"경기도 파주시 와동동 476-5 라이프프라자II 102","indutype":"일반휴게음식 - 스넥","category":"restaurant"},{"name":"죠이카페","tel":"070-8873-5525","addr":"경기도 파주시 와동동 1302-3번지","indutype":"일반휴게음식 - 서양음식","category":"restaurant"},{"name":"커피와","tel":"031-946-4701","addr":"경기도 파주시 와동동 1302-3번지","indutype":"일반휴게음식 - 일반한식","category":"restaurant"}]},{"lat":"37.735814475","long":"126.76373855","imageIndex":4,"items":[{"name":"8번출구","tel":"","addr":"경기도 파주시 와동동 1523-6번지","indutype":"일반휴게음식 - 주점","category":"restaurant"},{"name":"고씨네해장국삼겹살","tel":"031-948-8220","addr":"경기도 파주시 와동동 1523-6번지","indutype":"일반휴게음식 - 일반한식","category":"restaurant"},{"name":"나누리한식부페","tel":"031-943-9423","addr":"경기도 파주시 와동동 1523-6번지","indutype":"일반휴게음식 - 일반한식","category":"restaurant"},{"name":"커피에반하다 운정솔가람점","tel":"031-943-9964","addr":"경기도 파주시 와동동 1523-6번지","indutype":"일반휴게음식 - 서양음식","category":"restaurant"}]},{"lat":"37.724786019","long":"126.75465435","imageIndex":4,"items":[{"name":"가람분식","tel":"031-949-9178","addr":"경기도 파주시 와동동 1368번지","indutype":"일반휴게음식 - 일반한식","category":"restaurant"}]},{"lat":"37.719708291","long":"126.75213067","imageIndex":4,"items":[{"name":"가온로178","tel":"031-946-0160","addr":"경기도 파주시 와동동 1400-1번지","indutype":"일반휴게음식 - 일반한식","category":"restaurant"},{"name":"대동오리","tel":"031-943-6168","addr":"경기도 파주시 와동동 1400-1번지","indutype":"일반휴게음식 - 일반한식","category":"restaurant"}]},{"lat":"37.735151195","long":"126.7566504","imageIndex":4,"items":[{"name":"가장맛있는족발","tel":"031-957-9577","addr":"경기도 파주시 와동동 1564-6 (가람로51번길 16-20)","indutype":"일반휴게음식 - 일반한식","category":"restaurant"}]},{"lat":"37.723375473","long":"126.75226576","imageIndex":4,"items":[{"name":"강이만두","tel":"","addr":"경기도 파주시 와동동 1365번지","indutype":"일반휴게음식 - 스넥","category":"restaurant"}]},{"lat":"37.736707781","long":"126.75140401","imageIndex":4,"items":[{"name":"강정구의피자생각 운정점/(주)좋은친구들","tel":"031-947-1043","addr":"경기도 파주시 와동동 1642-2번지","indutype":"일반휴게음식 - 일반한식","category":"restaurant"},{"name":"존가네 운정점/주식회사 좋은친구들","tel":"031-947-1042","addr":"경기도 파주시 와동동 1642-2번지","indutype":"일반휴게음식 - 일반한식","category":"restaurant"}]},{"lat":"37.726347498","long":"126.75173396","imageIndex":4,"items":[{"name":"개성할머니보쌈족발","tel":"031-948-9483","addr":"경기도 파주시 와동동 597-10","indutype":"일반휴게음식 - 일반한식","category":"restaurant"}]},{"lat":"37.734763977","long":"126.75674244","imageIndex":4,"items":[{"name":"객잔차이나","tel":"031-943-4664","addr":"경기도 파주시 와동동 1553번지","indutype":"일반휴게음식 - 일반한식","category":"restaurant"},{"name":"국가대패 운정점","tel":"031-949-3969","addr":"경기도 파주시 와동동 1553번지","indutype":"일반휴게음식 - 일반한식","category":"restaurant"},{"name":"봄날김밥","tel":"031-949-0711","addr":"경기도 파주시 와동동 1553번지","indutype":"일반휴게음식 - 서양음식","category":"restaurant"},{"name":"짝태와노가리","tel":"031-8071-2193","addr":"경기도 파주시 와동동 1553번지","indutype":"일반휴게음식 - 주점","category":"restaurant"},{"name":"효로효로","tel":"031-374-1648","addr":"경기도 파주시 와동동 1553번지","indutype":"일반휴게음식 - 일반한식","category":"restaurant"}]},{"lat":"37.728567278","long":"126.75334858","imageIndex":4,"items":[{"name":"걸작떡볶이파주운정점","tel":"031-946-2821","addr":"경기도 파주시 와동동 1344번지 가람마을9단지남양휴튼","indutype":"일반휴게음식 - 스넥","category":"restaurant"},{"name":"노가리세상 가람점","tel":"","addr":"경기도 파주시 와동동 1344번지 가람마을9단지남양휴튼","indutype":"일반휴게음식 - 주점","category":"restaurant"},{"name":"지코바운정2호점","tel":"031-946-3434","addr":"경기도 파주시 와동동 1344번지 가람마을9단지남양휴튼","indutype":"일반휴게음식 - 일반한식","category":"restaurant"},{"name":"치킨마루","tel":"031-945-7272","addr":"경기도 파주시 와동동 1344번지 가람마을9단지남양휴튼","indutype":"일반휴게음식 - 스넥","category":"restaurant"},{"name":"카페.일상","tel":"031-947-5112","addr":"경기도 파주시 와동동 1344번지 가람마을9단지남양휴튼","indutype":"일반휴게음식 - 서양음식","category":"restaurant"}]},{"lat":"37.734817915","long":"126.7524087","imageIndex":4,"items":[{"name":"계림원 누릉지통닭 운정점","tel":"031-949-4216","addr":"경기도 파주시 와동동 1593-9번지","indutype":"일반휴게음식 - 일반한식","category":"restaurant"}]},{"lat":"37.735512119","long":"126.75691013","imageIndex":4,"items":[{"name":"고기깡패 운정점","tel":"031-755-5433","addr":"경기도 파주시 와동동 1569-8번지","indutype":"일반휴게음식 - 일반한식","category":"restaurant"},{"name":"맵도리탕 운정점","tel":"031-946-1275","addr":"경기도 파주시 와동동 1569-8번지","indutype":"일반휴게음식 - 일반한식","category":"restaurant"}]},{"lat":"37.73228439","long":"126.75154375","imageIndex":4,"items":[{"name":"고깃집","tel":"031-947-3129","addr":"경기도 파주시 와동동 1302-2번지","indutype":"일반휴게음식 - 일반한식","category":"restaurant"},{"name":"우리둥지 와동점","tel":"031-947-1489","addr":"경기도 파주시 와동동 1302-2번지","indutype":"일반휴게음식 - 일반한식","category":"restaurant"},{"name":"운정호프","tel":"031-942-7780","addr":"경기도 파주시 와동동 1302-2번지","indutype":"일반휴게음식 - 주점","category":"restaurant"},{"name":"테라스(terrace)","tel":"","addr":"경기도 파주시 와동동 1302-2번지","indutype":"일반휴게음식 - 주점","category":"restaurant"}]},{"lat":"37.735672344","long":"126.75171381","imageIndex":4,"items":[{"name":"곤드레찜드레","tel":"051-948-9311","addr":"경기도 파주시 와동동 1632번지","indutype":"일반휴게음식 - 일반한식","category":"restaurant"}]},{"lat":"37.733985585","long":"126.75078928","imageIndex":4,"items":[{"name":"곰초밥","tel":"031-948-7393","addr":"경기도 파주시 와동동 1620-7번지","indutype":"일반휴게음식 - 일식·회집","category":"restaurant"},{"name":"석스시","tel":"031-941-1180","addr":"경기도 파주시 와동동 1620-7번지","indutype":"일반휴게음식 - 일식·회집","category":"restaurant"}]},{"lat":"37.735900733","long":"126.75748742","imageIndex":4,"items":[{"name":"곱창고 운정점","tel":"031-941-9279","addr":"경기도 파주시 와동동 1548-4번지","indutype":"일반휴게음식 - 일반한식","category":"restaurant"}]},{"lat":"37.735396367","long":"126.75756849","imageIndex":4,"items":[{"name":"광어와우럭사이","tel":"031-957-5008","addr":"경기도 파주시 와동동 1567-5번지","indutype":"일반휴게음식 - 일식·회집","category":"restaurant"},{"name":"브라더막창","tel":"","addr":"경기도 파주시 와동동 1567-5번지","indutype":"일반휴게음식 - 일반한식","category":"restaurant"}]},{"lat":"37.735729836","long":"126.75762412","imageIndex":4,"items":[{"name":"교맥","tel":"031-945-2975","addr":"경기도 파주시 와동동 1548-5번지","indutype":"일반휴게음식 - 일반한식","category":"restaurant"}]},{"lat":"37.734618782","long":"126.75624377","imageIndex":4,"items":[{"name":"구이가","tel":"031-946-9291","addr":"경기도 파주시 와동동 1553-2번지","indutype":"일반휴게음식 - 일반한식","category":"restaurant"},{"name":"코다리명가","tel":"031-957-0966","addr":"경기도 파주시 와동동 1553-2번지","indutype":"일반휴게음식 - 일반한식","category":"restaurant"}]},{"lat":"37.731285207","long":"126.75195551","imageIndex":4,"items":[{"name":"금촌뼈다귀감자탕 (운정점)","tel":"","addr":"경기도 파주시 와동동 1303-4번지","indutype":"일반휴게음식 - 일반한식","category":"restaurant"},{"name":"뚱스족발","tel":"070-7747-7006","addr":"경기도 파주시 와동동 1303-4번지","indutype":"일반휴게음식 - 일반한식","category":"restaurant"}]},{"lat":"37.723566454","long":"126.75310447","imageIndex":4,"items":[{"name":"기라메쿠","tel":"031-949-9725","addr":"경기도 파주시 와동동 1365-3번지","indutype":"일반휴게음식 - 일식·회집","category":"restaurant"},{"name":"기라메쿠","tel":"031-949-9725","addr":"경기도 파주시 와동동 1365-3번지","indutype":"일반휴게음식 - 일반한식","category":"restaurant"},{"name":"김밥천국","tel":"031-946-9456","addr":"경기도 파주시 와동동 1365-3번지","indutype":"일반휴게음식 - 일반한식","category":"restaurant"},{"name":"봉구스밥버거","tel":"031-948-0908","addr":"경기도 파주시 와동동 1365-3번지","indutype":"일반휴게음식 - 일반한식","category":"restaurant"},{"name":"주부반란전","tel":"031-8071-1647","addr":"경기도 파주시 와동동 1365-3번지","indutype":"일반휴게음식 - 일반한식","category":"restaurant"}]},{"lat":"37.731843409","long":"126.75177212","imageIndex":4,"items":[{"name":"김가네김밥(가람마을점)","tel":"031-942-9942","addr":"경기도 파주시 와동동 1302-4번지","indutype":"일반휴게음식 - 일반한식","category":"restaurant"},{"name":"돈치킨 운정점","tel":"031-943-9240","addr":"경기도 파주시 와동동 1302-4번지","indutype":"일반휴게음식 - 스넥","category":"restaurant"},{"name":"동명카츠 운정점","tel":"031-947-8050","addr":"경기도 파주시 와동동 1302-4번지","indutype":"일반휴게음식 - 일반한식","category":"restaurant"},{"name":"땡스독","tel":"031-111-1111","addr":"경기도 파주시 와동동 1302-4번지","indutype":"일반휴게음식 - 일반한식","category":"restaurant"},{"name":"레후즉석떡볶이","tel":"031-943-7120","addr":"경기도 파주시 와동동 1302-4번지","indutype":"일반휴게음식 - 일반한식","category":"restaurant"},{"name":"메이젠","tel":"02-1234-1234","addr":"경기도 파주시 와동동 1302-4번지","indutype":"일반휴게음식 - 일반한식","category":"restaurant"},{"name":"복만원","tel":"031-948-8883","addr":"경기도 파주시 와동동 1302-4번지","indutype":"일반휴게음식 - 일반한식","category":"restaurant"},{"name":"신참떡볶이 파주운정점","tel":"031-948-8778","addr":"경기도 파주시 와동동 1302-4번지","indutype":"일반휴게음식 - 일반한식","category":"restaurant"}]},{"lat":"37.726062926","long":"126.7534931","imageIndex":4,"items":[{"name":"김가네김밥(운정행복센터점)","tel":"031-941-3393","addr":"경기도 파주시 와동동 1356번지","indutype":"일반휴게음식 - 일반한식","category":"restaurant"},{"name":"커피에반하다 가람마을지산점","tel":"070-7609-9332","addr":"경기도 파주시 와동동 1356번지","indutype":"일반휴게음식 - 서양음식","category":"restaurant"}]},{"lat":"37.735176134","long":"126.75565201","imageIndex":4,"items":[{"name":"김가네칼국수","tel":"031-949-2924","addr":"경기도 파주시 와동동 1572-10번지","indutype":"일반휴게음식 - 일반한식","category":"restaurant"}]},{"lat":"37.735094963","long":"126.75135274","imageIndex":4,"items":[{"name":"김밥짱","tel":"031-946-9755","addr":"경기도 파주시 와동동 1625-7번지","indutype":"일반휴게음식 - 서양음식","category":"restaurant"}]},{"lat":"37.733175095","long":"126.75096219","imageIndex":4,"items":[{"name":"김양비어","tel":"","addr":"경기도 파주시 와동동 1301번지","indutype":"일반휴게음식 - 일반한식","category":"restaurant"},{"name":"누나홀닭 파주운정점","tel":"031-942-9297","addr":"경기도 파주시 와동동 1301번지","indutype":"일반휴게음식 - 일반한식","category":"restaurant"},{"name":"양스","tel":"02-6340-5385","addr":"경기도 파주시 와동동 1301번지","indutype":"일반휴게음식 - 일반한식","category":"restaurant"},{"name":"이디야(가람마을점)","tel":"031-949-8538","addr":"경기도 파주시 와동동 1301번지","indutype":"일반휴게음식 - 서양음식","category":"restaurant"},{"name":"차오차오","tel":"031-943-4545","addr":"경기도 파주시 와동동 1301번지 월드타워 201호","indutype":"일반휴게음식 - 일반한식","category":"restaurant"}]},{"lat":"37.735675813","long":"126.75334741","imageIndex":4,"items":[{"name":"깡통집","tel":"031-111-1111","addr":"경기도 파주시 와동동 1654-3번지","indutype":"일반휴게음식 - 일반한식","category":"restaurant"}]},{"lat":"37.731010696","long":"126.75421385","imageIndex":4,"items":[{"name":"꼬레랑옛날통닭","tel":"031-943-1003","addr":"경기도 파주시 와동동 1311번지","indutype":"일반휴게음식 - 스넥","category":"restaurant"},{"name":"아침에김밥","tel":"031-947-5989","addr":"경기도 파주시 와동동 1311번지","indutype":"일반휴게음식 - 스넥","category":"restaurant"},{"name":"카페깐또(CAFE CANTO)","tel":"070-6274-1684","addr":"경기도 파주시 와동동 1311번지","indutype":"일반휴게음식 - 서양음식","category":"restaurant"}]},{"lat":"37.719597856","long":"126.7510422","imageIndex":4,"items":[{"name":"꽃피우는기와보쌈","tel":"031-944-8226","addr":"경기도 파주시 와동동 1399번지","indutype":"일반휴게음식 - 일반한식","category":"restaurant"},{"name":"노랑통닭(운정점)","tel":"031-946-3428","addr":"경기도 파주시 와동동 1399번지","indutype":"일반휴게음식 - 스넥","category":"restaurant"},{"name":"명륜진사갈비 운정점","tel":"031-945-3006","addr":"경기도 파주시 와동동 1399번지","indutype":"일반휴게음식 - 일반한식","category":"restaurant"},{"name":"수라칼국수비빔국수굴요리보쌈","tel":"031-944-1196","addr":"경기도 파주시 와동동 1399번지","indutype":"일반휴게음식 - 일반한식","category":"restaurant"},{"name":"커피파니니","tel":"","addr":"경기도 파주시 와동동 1399번지","indutype":"일반휴게음식 - 일반한식","category":"restaurant"}]},{"lat":"37.732955812","long":"126.75376493","imageIndex":4,"items":[{"name":"꾸러미","tel":"031-943-0744","addr":"경기도 파주시 와동동 1308번지","indutype":"일반휴게음식 - 일반한식","category":"restaurant"},{"name":"떡뽀이","tel":"031-945-7706","addr":"경기도 파주시 와동동 1308번지 가람마을1단지벽산한라아파트","indutype":"일반휴게음식 - 일반한식","category":"restaurant"},{"name":"정김밥","tel":"070-4131-2378","addr":"경기도 파주시 와동동 1308번지","indutype":"일반휴게음식 - 스넥","category":"restaurant"},{"name":"카페공감","tel":"031-8070-5339","addr":"경기도 파주시 와동동 1308번지 가람마을1단지벽산한라아파트","indutype":"일반휴게음식 - 서양음식","category":"restaurant"},{"name":"통큰치킨&돈까스","tel":"031-943-5030","addr":"경기도 파주시 와동동 1308번지 가람마을1단지벽산한라아파트","indutype":"일반휴게음식 - 일반한식","category":"restaurant"}]},{"lat":"37.727235012","long":"126.7625751","imageIndex":4,"items":[{"name":"나는흑돼지다","tel":"031-943-7727","addr":"경기도 파주시 와동동 1437번지","indutype":"일반휴게음식 - 일반한식","category":"restaurant"},{"name":"노리터","tel":"070-8951-0000","addr":"경기도 파주시 와동동 1437번지","indutype":"일반휴게음식 - 주점","category":"restaurant"},{"name":"노리터","tel":"031-944-0058","addr":"경기도 파주시 와동동 1437번지","indutype":"일반휴게음식 - 서양음식","category":"restaurant"},{"name":"셰프의초밥 파주운정점","tel":"031-948-8881","addr":"경기도 파주시 와동동 1437번지","indutype":"일반휴게음식 - 일반한식","category":"restaurant"},{"name":"파주한식뷔페","tel":"","addr":"경기도 파주시 와동동 1437번지","indutype":"일반휴게음식 - 일반한식","category":"restaurant"}]},{"lat":"37.736035592","long":"126.75735084","imageIndex":4,"items":[{"name":"나통삼","tel":"031-945-0090","addr":"경기도 파주시 와동동 1548-3번지","indutype":"일반휴게음식 - 일반한식","category":"restaurant"}]},{"lat":"37.733507135","long":"126.75034848","imageIndex":4,"items":[{"name":"남도복국(운정점)","tel":"031-946-4127","addr":"경기도 파주시 와동동 1603번지","indutype":"일반휴게음식 - 일반한식","category":"restaurant"}]},{"lat":"37.736096978","long":"126.75654517","imageIndex":4,"items":[{"name":"남도술상","tel":"031-941-2183","addr":"경기도 파주시 와동동 1576번지","indutype":"일반휴게음식 - 일반한식","category":"restaurant"}]},{"lat":"37.734927354","long":"126.75732046","imageIndex":4,"items":[{"name":"남포포차","tel":"031-948-8920","addr":"경기도 파주시 와동동 1551-3번지","indutype":"일반휴게음식 - 일반한식","category":"restaurant"},{"name":"대구전통참숯막창(문정점)","tel":"070-7740-3868","addr":"경기도 파주시 와동동 1551-3번지","indutype":"일반휴게음식 - 일반한식","category":"restaurant"},{"name":"마움","tel":"070-7766-3623","addr":"경기도 파주시 와동동 1551-3번지","indutype":"일반휴게음식 - 서양음식","category":"restaurant"},{"name":"산들오리","tel":"031-941-9111","addr":"경기도 파주시 와동동 1551-3번지","indutype":"일반휴게음식 - 일반한식","category":"restaurant"},{"name":"쿠빠","tel":"031-947-5723","addr":"경기도 파주시 와동동 1551-3번지","indutype":"일반휴게음식 - 주점","category":"restaurant"}]},{"lat":"37.735483676","long":"126.75196403","imageIndex":4,"items":[{"name":"낭만돈까스","tel":"031-945-5956","addr":"경기도 파주시 와동동 1632-2번지","indutype":"일반휴게음식 - 서양음식","category":"restaurant"}]},{"lat":"37.735314715","long":"126.7572965","imageIndex":4,"items":[{"name":"낭만옵빠 운정점","tel":"031-949-0047","addr":"경기도 파주시 와동동 1567-3번지","indutype":"일반휴게음식 - 일반한식","category":"restaurant"},{"name":"아지트","tel":"","addr":"경기도 파주시 와동동 1567-3번지","indutype":"일반휴게음식 - 주점","category":"restaurant"}]},{"lat":"37.734700389","long":"126.75649308","imageIndex":4,"items":[{"name":"낭만치맥 파주운정가람점","tel":"031-945-0875","addr":"경기도 파주시 와동동 1553-1번지","indutype":"일반휴게음식 - 일반한식","category":"restaurant"},{"name":"설빙 파주운정점","tel":"031-957-2228","addr":"경기도 파주시 와동동 1553-1번지","indutype":"일반휴게음식 - 일반한식","category":"restaurant"}]},{"lat":"37.736310298","long":"126.75090619","imageIndex":4,"items":[{"name":"너비아니","tel":"031-000-0000","addr":"경기도 파주시 와동동 1640-5번지","indutype":"일반휴게음식 - 일반한식","category":"restaurant"}]},{"lat":"37.734596832","long":"126.75437202","imageIndex":4,"items":[{"name":"노원","tel":"","addr":"경기도 파주시 와동동 1558번지","indutype":"일반휴게음식 - 일반한식","category":"restaurant"},{"name":"방가비어 운정가람점","tel":"031-942-1664","addr":"경기도 파주시 와동동 1558번지","indutype":"일반휴게음식 - 일반한식","category":"restaurant"},{"name":"불스떡볶이 운정점","tel":"031-943-5814","addr":"경기도 파주시 와동동 1558번지","indutype":"일반휴게음식 - 일반한식","category":"restaurant"},{"name":"술닭발","tel":"031-946-0992","addr":"경기도 파주시 와동동 1558번지","indutype":"일반휴게음식 - 일반한식","category":"restaurant"},{"name":"스몰벤치","tel":"031-948-9711","addr":"경기도 파주시 와동동 1558번지","indutype":"일반휴게음식 - 서양음식","category":"restaurant"},{"name":"심바카레","tel":"031-901-6774","addr":"경기도 파주시 와동동 1558번지","indutype":"일반휴게음식 - 일반한식","category":"restaurant"}]},{"lat":"37.733561483","long":"126.75048442","imageIndex":4,"items":[{"name":"놀란돼지","tel":"031-957-2996","addr":"경기도 파주시 와동동 1603-1번지","indutype":"일반휴게음식 - 일반한식","category":"restaurant"}]},{"lat":"37.734534338","long":"126.75040171","imageIndex":4,"items":[{"name":"달빛소나타","tel":"","addr":"경기도 파주시 와동동 1615-2번지","indutype":"일반휴게음식 - 일반한식","category":"restaurant"}]},{"lat":"37.733930046","long":"126.75009747","imageIndex":4,"items":[{"name":"대박포차","tel":"031-944-8744","addr":"경기도 파주시 와동동 1606-2번지","indutype":"일반휴게음식 - 일반한식","category":"restaurant"}]},{"lat":"37.734872777","long":"126.75707107","imageIndex":4,"items":[{"name":"대왕해물문어보쌈","tel":"031-944-9282","addr":"경기도 파주시 와동동 1551-4번지","indutype":"일반휴게음식 - 일반한식","category":"restaurant"},{"name":"독도왕새우튀김 가람점","tel":"031-943-8610","addr":"경기도 파주시 와동동 1551-4번지","indutype":"일반휴게음식 - 일반한식","category":"restaurant"},{"name":"먹태와노가리","tel":"","addr":"경기도 파주시 와동동 1551-4번지","indutype":"일반휴게음식 - 일반한식","category":"restaurant"},{"name":"이번지 깡통집","tel":"031-949-1105","addr":"경기도 파주시 와동동 1551-4번지","indutype":"일반휴게음식 - 일반한식","category":"restaurant"},{"name":"치골미남 운정신도시점","tel":"02-000-0000","addr":"경기도 파주시 와동동 1551-4번지","indutype":"일반휴게음식 - 일반한식","category":"restaurant"},{"name":"커피통","tel":"031-946-1288","addr":"경기도 파주시 와동동 1551-4번지","indutype":"일반휴게음식 - 서양음식","category":"restaurant"}]},{"lat":"37.733705101","long":"126.75023436","imageIndex":4,"items":[{"name":"대판","tel":"031-945-8332","addr":"경기도 파주시 와동동 1606-4번지","indutype":"일반휴게음식 - 일반한식","category":"restaurant"}]},{"lat":"37.735369055","long":"126.75743245","imageIndex":4,"items":[{"name":"대한민국 최고 포차","tel":"","addr":"경기도 파주시 와동동 1567-4번지","indutype":"일반휴게음식 - 일반한식","category":"restaurant"},{"name":"본가닭탕","tel":"031-945-5774","addr":"경기도 파주시 와동동 1567-4번지","indutype":"일반휴게음식 - 일반한식","category":"restaurant"}]},{"lat":"37.736366364","long":"126.7518476","imageIndex":4,"items":[{"name":"데일리리튜얼커피","tel":"","addr":"경기도 파주시 와동동 1638-6번지","indutype":"일반휴게음식 - 서양음식","category":"restaurant"}]},{"lat":"37.736762128","long":"126.75153996","imageIndex":4,"items":[{"name":"도깨비탕수육","tel":"031-944-6635","addr":"경기도 파주시 와동동 1642-3번지","indutype":"일반휴게음식 - 중국식","category":"restaurant"}]},{"lat":"37.735232991","long":"126.75699047","imageIndex":4,"items":[{"name":"도둑고기 운정점","tel":"031-942-8445","addr":"경기도 파주시 와동동 1567-1번지","indutype":"일반휴게음식 - 일반한식","category":"restaurant"}]},{"lat":"37.735315674","long":"126.75346206","imageIndex":4,"items":[{"name":"돈판사판솥뚜껑 생김치삼겹살 운정점","tel":"031-949-9646","addr":"경기도 파주시 와동동 1652-5번지","indutype":"일반휴게음식 - 일반한식","category":"restaurant"}]},{"lat":"37.733039225","long":"126.75062233","imageIndex":4,"items":[{"name":"동원참치 운정점","tel":"031-944-6578","addr":"경기도 파주시 와동동 1301-1번지","indutype":"일반휴게음식 - 일식·회집","category":"restaurant"},{"name":"셀렉토커피파주가람마을점","tel":"02-1111-1111","addr":"경기도 파주시 와동동 1301-1번지","indutype":"일반휴게음식 - 서양음식","category":"restaurant"},{"name":"회시장해물찜","tel":"031-946-1135","addr":"경기도 파주시 와동동 1301-1번지","indutype":"일반휴게음식 - 일반한식","category":"restaurant"}]},{"lat":"37.73487011","long":"126.76454704","imageIndex":4,"items":[{"name":"동해한식부페식당","tel":"031-942-2131","addr":"경기도 파주시 와동동 1488-2번지","indutype":"일반휴게음식 - 일반한식","category":"restaurant"},{"name":"블럭하우스 더 카페","tel":"031-947-6460","addr":"경기도 파주시 와동동 1488-2번지","indutype":"일반휴게음식 - 서양음식","category":"restaurant"}]},{"lat":"37.734033366","long":"126.75207102","imageIndex":4,"items":[{"name":"드롭탑 (운정가람점)","tel":"031-947-8879","addr":"경기도 파주시 와동동 1598번지","indutype":"일반휴게음식 - 서양음식","category":"restaurant"},{"name":"전통숯불닭바베큐","tel":"031-957-9245","addr":"경기도 파주시 와동동 1598번지","indutype":"일반휴게음식 - 일반한식","category":"restaurant"}]},{"lat":"37.733815011","long":"126.75107346","imageIndex":4,"items":[{"name":"등촌샤브칼국수","tel":"031-111-1111","addr":"경기도 파주시 와동동 1603-5번지","indutype":"일반휴게음식 - 일반한식","category":"restaurant"}]},{"lat":"37.735924537","long":"126.75167892","imageIndex":4,"items":[{"name":"디에이멘 브런치카페","tel":"031-941-0048","addr":"경기도 파주시 와동동 1634번지","indutype":"일반휴게음식 - 서양음식","category":"restaurant"}]},{"lat":"37.736427591","long":"126.7509852","imageIndex":4,"items":[{"name":"따순기미 가람점","tel":"031-944-9645","addr":"경기도 파주시 와동동 1640-6번지","indutype":"일반휴게음식 - 일반한식","category":"restaurant"}]},{"lat":"37.735094018","long":"126.75091031","imageIndex":4,"items":[{"name":"또래오래 운정1점","tel":"031-942-9533","addr":"경기도 파주시 와동동 1625번지","indutype":"일반휴게음식 - 스넥","category":"restaurant"}]},{"lat":"37.732480986","long":"126.76376061","imageIndex":4,"items":[{"name":"또봉이통닭 운정가람점","tel":"031-945-7773","addr":"경기도 파주시 와동동 1338번지","indutype":"일반휴게음식 - 일반한식","category":"restaurant"},{"name":"또봉이통닭(운정가람점)","tel":"031-945-7773","addr":"경기도 파주시 와동동 1338번지","indutype":"일반휴게음식 - 일반한식","category":"restaurant"}]},{"lat":"37.735397122","long":"126.75793152","imageIndex":4,"items":[{"name":"뜬닭숯불닭갈비(파주운정점)","tel":"031-945-9592","addr":"경기도 파주시 와동동 1550-1번지","indutype":"일반휴게음식 - 일반한식","category":"restaurant"}]},{"lat":"37.734564179","long":"126.75598303","imageIndex":4,"items":[{"name":"라무진","tel":"031-944-1222","addr":"경기도 파주시 와동동 1553-3번지","indutype":"일반휴게음식 - 일반한식","category":"restaurant"},{"name":"원마산아구찜","tel":"031-945-2929","addr":"경기도 파주시 와동동 1553-3번지","indutype":"일반휴게음식 - 일반한식","category":"restaurant"}]},{"lat":"37.734815717","long":"126.75137637","imageIndex":4,"items":[{"name":"라브리(LABRI)","tel":"031-712-1279","addr":"경기도 파주시 와동동 1624번지","indutype":"일반휴게음식 - 서양음식","category":"restaurant"}]},{"lat":"37.719841064","long":"126.75527198","imageIndex":4,"items":[{"name":"라이니수변카페","tel":"031-947-0332","addr":"경기도 파주시 와동동 1412번지","indutype":"일반휴게음식 - 서양음식","category":"restaurant"}]},{"lat":"37.7342907","long":"126.7544638","imageIndex":4,"items":[{"name":"라이브클럽섹소폰","tel":"031-944-8090","addr":"경기도 파주시 와동동 1557-4번지","indutype":"일반휴게음식 - 주점","category":"restaurant"},{"name":"모닥불","tel":"","addr":"경기도 파주시 와동동 1557-4번지","indutype":"일반휴게음식 - 일반한식","category":"restaurant"},{"name":"바삭공작소","tel":"031-949-5729","addr":"경기도 파주시 와동동 1557-4번지","indutype":"일반휴게음식 - 일반한식","category":"restaurant"},{"name":"샤브홀리운정점","tel":"031-944-4696","addr":"경기도 파주시 와동동 1557-4번지","indutype":"일반휴게음식 - 일반한식","category":"restaurant"},{"name":"올바른옛날통닭 가람마을점","tel":"031-944-9994","addr":"경기도 파주시 와동동 1557-4번지","indutype":"일반휴게음식 - 일반한식","category":"restaurant"},{"name":"와동홍삼합녹두전","tel":"070-7365-0492","addr":"경기도 파주시 와동동 1557-4번지","indutype":"일반휴게음식 - 일반한식","category":"restaurant"},{"name":"인터루드커피","tel":"","addr":"경기도 파주시 와동동 1557-4번지","indutype":"일반휴게음식 - 서양음식","category":"restaurant"},{"name":"투썸플레이스 파주운정가람점","tel":"031-945-8870","addr":"경기도 파주시 와동동 1557-4번지","indutype":"일반휴게음식 - 서양음식","category":"restaurant"}]},{"lat":"37.733869358","long":"126.75120941","imageIndex":4,"items":[{"name":"라페스타 화정족발","tel":"031-943-6888","addr":"경기도 파주시 와동동 1603-6번지","indutype":"일반휴게음식 - 일반한식","category":"restaurant"},{"name":"이신닭강정","tel":"031-942-2272","addr":"경기도 파주시 와동동 1603-6번지","indutype":"일반휴게음식 - 일반한식","category":"restaurant"},{"name":"카페마체베트","tel":"","addr":"경기도 파주시 와동동 1603-6번지","indutype":"일반휴게음식 - 서양음식","category":"restaurant"}]},{"lat":"37.735035851","long":"126.75321342","imageIndex":4,"items":[{"name":"로그55(Log.55)","tel":"031-945-5155","addr":"경기도 파주시 와동동 1595번지","indutype":"일반휴게음식 - 일반한식","category":"restaurant"}]},{"lat":"37.735339645","long":"126.75202124","imageIndex":4,"items":[{"name":"롤 더 문 (ROOL THE MOON)","tel":"031-953-1103","addr":"경기도 파주시 와동동 1632-3번지","indutype":"일반휴게음식 - 일반한식","category":"restaurant"}]},{"lat":"37.734925016","long":"126.75193188","imageIndex":4,"items":[{"name":"린칸토 (L'incanto)","tel":"031-949-3031","addr":"경기도 파주시 와동동 1624-4번지","indutype":"일반휴게음식 - 일반한식","category":"restaurant"}]},{"lat":"37.735395172","long":"126.75271306","imageIndex":4,"items":[{"name":"마마경양식","tel":"","addr":"경기도 파주시 와동동 1652번지","indutype":"일반휴게음식 - 서양음식","category":"restaurant"}]},{"lat":"37.734229326","long":"126.75101534","imageIndex":4,"items":[{"name":"마을회관포장마차","tel":"031-947-1615","addr":"경기도 파주시 와동동 1620-4번지","indutype":"일반휴게음식 - 일반한식","category":"restaurant"},{"name":"만강","tel":"031-942-1092","addr":"경기도 파주시 와동동 1620-4번지","indutype":"일반휴게음식 - 일반한식","category":"restaurant"}]},{"lat":"37.72822965","long":"126.75992887","imageIndex":4,"items":[{"name":"만랩커피 파주운정점","tel":"","addr":"경기도 파주시 와동동 1384번지","indutype":"일반휴게음식 - 서양음식","category":"restaurant"},{"name":"파뿌리","tel":"031-946-2332","addr":"경기도 파주시 와동동 1384번지","indutype":"일반휴게음식 - 일반한식","category":"restaurant"}]},{"lat":"37.735007692","long":"126.75268033","imageIndex":4,"items":[{"name":"말랑버블","tel":"070-8623-9995","addr":"경기도 파주시 와동동 1593-2번지","indutype":"일반휴게음식 - 서양음식","category":"restaurant"}]},{"lat":"37.734479989","long":"126.75026576","imageIndex":4,"items":[{"name":"맘스패밀리 도시락","tel":"031-947-8688","addr":"경기도 파주시 와동동 1615-1번지","indutype":"일반휴게음식 - 일반한식","category":"restaurant"}]},{"lat":"37.734428109","long":"126.75554105","imageIndex":4,"items":[{"name":"먹보보쌈","tel":"031-957-3989","addr":"경기도 파주시 와동동 1557번지","indutype":"일반휴게음식 - 일반한식","category":"restaurant"},{"name":"브라더오뎅(파주운정점)","tel":"031-943-7555","addr":"경기도 파주시 와동동 1557번지","indutype":"일반휴게음식 - 주점","category":"restaurant"},{"name":"육회지존","tel":"031-943-6369","addr":"경기도 파주시 와동동 1557번지","indutype":"일반휴게음식 - 일반한식","category":"restaurant"}]},{"lat":"37.732625273","long":"126.75085061","imageIndex":4,"items":[{"name":"메가엠지씨커피 운정가람마을점","tel":"","addr":"경기도 파주시 와동동 1301-3번지","indutype":"일반휴게음식 - 서양음식","category":"restaurant"},{"name":"미소야 파주운정점","tel":"031-944-1012","addr":"경기도 파주시 와동동 1301-3번지","indutype":"일반휴게음식 - 일반한식","category":"restaurant"}]},{"lat":"37.735644662","long":"126.7514076","imageIndex":4,"items":[{"name":"멜팅바닐라","tel":"070-1111-1111","addr":"경기도 파주시 와동동 1630-2번지","indutype":"일반휴게음식 - 서양음식","category":"restaurant"}]},{"lat":"37.734874737","long":"126.75371312","imageIndex":4,"items":[{"name":"명가 양꼬치","tel":"031-949-3888","addr":"경기도 파주시 와동동 1595-6번지","indutype":"일반휴게음식 - 일반한식","category":"restaurant"}]},{"lat":"37.735315265","long":"126.75326921","imageIndex":4,"items":[{"name":"명가순대국","tel":"031-945-2792","addr":"경기도 파주시 와동동 1652-6번지","indutype":"일반휴게음식 - 일반한식","category":"restaurant"}]},{"lat":"37.732319315","long":"126.75102181","imageIndex":4,"items":[{"name":"명랑시대쌀핫도그(와동점)","tel":"031-957-9558","addr":"경기도 파주시 와동동 1301-4번지","indutype":"일반휴게음식 - 일반한식","category":"restaurant"},{"name":"바다향","tel":"031-946-3500","addr":"경기도 파주시 와동동 1301-4번지","indutype":"일반휴게음식 - 일반한식","category":"restaurant"},{"name":"준초밥참치&탕","tel":"031-948-8006","addr":"경기도 파주시 와동동 1301-4번지","indutype":"일반휴게음식 - 일식·회집","category":"restaurant"},{"name":"해솔7080","tel":"031-948-1313","addr":"경기도 파주시 와동동 1301-4번지","indutype":"일반휴게음식 - 일반한식","category":"restaurant"}]},{"lat":"37.731645369","long":"126.7518522","imageIndex":4,"items":[{"name":"명태마루","tel":"031-949-5257","addr":"경기도 파주시 와동동 1302-5번지","indutype":"일반휴게음식 - 일반한식","category":"restaurant"},{"name":"정정당당김대표","tel":"031-947-4507","addr":"경기도 파주시 와동동 1302-5번지","indutype":"일반휴게음식 - 일반한식","category":"restaurant"},{"name":"핫짱쌀핫도그 가람마을점","tel":"031-941-5992","addr":"경기도 파주시 와동동 1302-5번지","indutype":"일반휴게음식 - 서양음식","category":"restaurant"}]},{"lat":"37.736617396","long":"126.75126818","imageIndex":4,"items":[{"name":"모리모리","tel":"031-957-1117","addr":"경기도 파주시 와동동 1642-1번지","indutype":"일반휴게음식 - 일반한식","category":"restaurant"}]},{"lat":"37.731203373","long":"126.75160412","imageIndex":4,"items":[{"name":"모모닭강정","tel":"031-948-9228","addr":"경기도 파주시 와동동 1303-3번지","indutype":"일반휴게음식 - 일반한식","category":"restaurant"},{"name":"이삭토스트","tel":"031-944-4789","addr":"경기도 파주시 와동동 1303-3번지","indutype":"일반휴게음식 - 스넥","category":"restaurant"}]},{"lat":"37.735427829","long":"126.75112472","imageIndex":4,"items":[{"name":"므와","tel":"031-895-6275","addr":"경기도 파주시 와동동 1630-5번지","indutype":"일반휴게음식 - 일반한식","category":"restaurant"}]},{"lat":"37.735925964","long":"126.75662515","imageIndex":4,"items":[{"name":"미스터계수작","tel":"031-941-9009","addr":"경기도 파주시 와동동 1576-6번지","indutype":"일반휴게음식 - 일반한식","category":"restaurant"}]},{"lat":"37.723430133","long":"126.75254914","imageIndex":4,"items":[{"name":"바푸리롯데캐슬점","tel":"031-946-3337","addr":"경기도 파주시 와동동 1365-1번지","indutype":"일반휴게음식 - 스넥","category":"restaurant"},{"name":"성원닭갈비","tel":"031-949-6238","addr":"경기도 파주시 와동동 1365-1번지","indutype":"일반휴게음식 - 일반한식","category":"restaurant"}]},{"lat":"37.734788084","long":"126.755347","imageIndex":4,"items":[{"name":"배부장찌개 운정가람마을점","tel":"031-957-0618","addr":"경기도 파주시 와동동 1562번지","indutype":"일반휴게음식 - 일반한식","category":"restaurant"},{"name":"이자카야 륜","tel":"031-944-2602","addr":"경기도 파주시 와동동 1562번지","indutype":"일반휴게음식 - 일반한식","category":"restaurant"},{"name":"커피에반하다(와동점)","tel":"031-948-1002","addr":"경기도 파주시 와동동 1562번지","indutype":"일반휴게음식 - 서양음식","category":"restaurant"}]},{"lat":"37.736510177","long":"126.75168829","imageIndex":4,"items":[{"name":"백금당","tel":"001-0000-0000","addr":"경기도 파주시 와동동 1638-2번지","indutype":"일반휴게음식 - 서양음식","category":"restaurant"}]},{"lat":"37.723787615","long":"126.75118681","imageIndex":4,"items":[{"name":"뱅킷하우스","tel":"031-942-7066","addr":"경기도 파주시 와동동 1358번지 운정행복센터 7층","indutype":"일반휴게음식 - 일반한식","category":"restaurant"},{"name":"카페요나","tel":"031-944-4732","addr":"경기도 파주시 와동동 1358번지","indutype":"일반휴게음식 - 일반한식","category":"restaurant"}]},{"lat":"37.731730754","long":"126.75818182","imageIndex":4,"items":[{"name":"베베테이블","tel":"070-8884-6111","addr":"경기도 파주시 와동동 240번지","indutype":"일반휴게음식 - 일반한식","category":"restaurant"},{"name":"홍스꿀맛분식","tel":"031-8035-5070","addr":"경기도 파주시 와동동 240번지 가람마을3단지동문아파트","indutype":"일반휴게음식 - 일반한식","category":"restaurant"}]},{"lat":"37.734874089","long":"126.75340682","imageIndex":4,"items":[{"name":"본가왕십리소곱창","tel":"031-919-9972","addr":"경기도 파주시 와동동 1595-8번지","indutype":"일반휴게음식 - 일반한식","category":"restaurant"}]},{"lat":"37.7348467","long":"126.75323675","imageIndex":4,"items":[{"name":"봉비어바켓(Beer Barket)","tel":"031-944-6771","addr":"경기도 파주시 와동동 1595-9번지","indutype":"일반휴게음식 - 일반한식","category":"restaurant"},{"name":"인생극장","tel":"031-957-1358","addr":"경기도 파주시 와동동 1595-9번지","indutype":"일반휴게음식 - 일반한식","category":"restaurant"}]},{"lat":"37.734706068","long":"126.75490484","imageIndex":4,"items":[{"name":"불간짬뽕","tel":"031-945-5297","addr":"경기도 파주시 와동동 1560번지","indutype":"일반휴게음식 - 중국식","category":"restaurant"},{"name":"우원","tel":"031-943-8708","addr":"경기도 파주시 와동동 1560번지","indutype":"일반휴게음식 - 일반한식","category":"restaurant"},{"name":"쩐호우","tel":"031-945-8613","addr":"경기도 파주시 와동동 1560번지","indutype":"일반휴게음식 - 중국식","category":"restaurant"}]},{"lat":"37.734652068","long":"126.75068492","imageIndex":4,"items":[{"name":"블랙쉽","tel":"031-943-4617","addr":"경기도 파주시 와동동 1615-4번지","indutype":"일반휴게음식 - 일반한식","category":"restaurant"}]},{"lat":"37.734316918","long":"126.74984658","imageIndex":4,"items":[{"name":"블루레인보우","tel":"","addr":"경기도 파주시 와동동 1608번지","indutype":"일반휴게음식 - 서양음식","category":"restaurant"},{"name":"블루레인보우","tel":"","addr":"경기도 파주시 와동동 1608번지","indutype":"일반휴게음식 - 서양음식","category":"restaurant"},{"name":"에스오치킨(SO치킨)","tel":"031-944-1223","addr":"경기도 파주시 와동동 1608번지","indutype":"일반휴게음식 - 스넥","category":"restaurant"}]},{"lat":"37.735648231","long":"126.75737481","imageIndex":4,"items":[{"name":"비비큐 운정점","tel":"031-946-1239","addr":"경기도 파주시 와동동 1569-5번지","indutype":"일반휴게음식 - 스넥","category":"restaurant"},{"name":"수빠","tel":"031-949-0514","addr":"경기도 파주시 와동동 1569-5번지","indutype":"일반휴게음식 - 일반한식","category":"restaurant"}]},{"lat":"37.735347148","long":"126.75557203","imageIndex":4,"items":[{"name":"비에이치씨(BHC)운정가람점","tel":"031-944-9266","addr":"경기도 파주시 와동동 1572번지","indutype":"일반휴게음식 - 스넥","category":"restaurant"},{"name":"에이바","tel":"070-4203-1201","addr":"경기도 파주시 와동동 1572번지","indutype":"일반휴게음식 - 일반한식","category":"restaurant"}]},{"lat":"37.719653751","long":"126.75190401","imageIndex":4,"items":[{"name":"뽕잎사랑","tel":"031-949-9666","addr":"경기도 파주시 와동동 1400번지","indutype":"일반휴게음식 - 일반한식","category":"restaurant"},{"name":"요거프레소 운정호수점","tel":"","addr":"경기도 파주시 와동동 1400번지","indutype":"일반휴게음식 - 스넥","category":"restaurant"}]},{"lat":"37.736229988","long":"126.75126949","imageIndex":4,"items":[{"name":"산옥커피운정점","tel":"031-947-7843","addr":"경기도 파주시 와동동 1636-4번지","indutype":"일반휴게음식 - 서양음식","category":"restaurant"}]},{"lat":"37.73506947","long":"126.75634437","imageIndex":4,"items":[{"name":"산카이 운정점","tel":"031-947-7301","addr":"경기도 파주시 와동동 1564-4번지","indutype":"일반휴게음식 - 주점","category":"restaurant"}]},{"lat":"37.736430371","long":"126.75228983","imageIndex":4,"items":[{"name":"산티모르 커피 하우스","tel":"031-901-6774","addr":"경기도 파주시 와동동 1660-5번지","indutype":"일반휴게음식 - 서양음식","category":"restaurant"}]},{"lat":"37.735510531","long":"126.75615006","imageIndex":4,"items":[{"name":"삼겹살데이","tel":"","addr":"경기도 파주시 와동동 1572-5번지","indutype":"일반휴게음식 - 일반한식","category":"restaurant"}]},{"lat":"37.734846244","long":"126.75302121","imageIndex":4,"items":[{"name":"삼세판","tel":"031-944-9291","addr":"경기도 파주시 와동동 1593-5번지","indutype":"일반휴게음식 - 일반한식","category":"restaurant"}]},{"lat":"37.735285127","long":"126.75607139","imageIndex":4,"items":[{"name":"생고기 제작소","tel":"031-946-5592","addr":"경기도 파주시 와동동 1572-7번지","indutype":"일반휴게음식 - 일반한식","category":"restaurant"},{"name":"쭈꾸미땡기는날","tel":"031-943-0092","addr":"경기도 파주시 와동동 1572-7번지","indutype":"일반휴게음식 - 일반한식","category":"restaurant"}]},{"lat":"37.734285173","long":"126.75185463","imageIndex":4,"items":[{"name":"설악추어탕","tel":"031-941-7597","addr":"경기도 파주시 와동동 1622-8번지","indutype":"일반휴게음식 - 일반한식","category":"restaurant"}]},{"lat":"37.735145139","long":"126.75806848","imageIndex":4,"items":[{"name":"세계맥주펍","tel":"031-942-3815","addr":"경기도 파주시 와동동 1551번지","indutype":"일반휴게음식 - 일반한식","category":"restaurant"},{"name":"장호덕만두","tel":"031-943-1143","addr":"경기도 파주시 와동동 1551번지","indutype":"일반휴게음식 - 일반한식","category":"restaurant"},{"name":"조은가든 가람점","tel":"031-945-4568","addr":"경기도 파주시 와동동 1551번지","indutype":"일반휴게음식 - 일반한식","category":"restaurant"}]},{"lat":"37.735035371","long":"126.75298654","imageIndex":4,"items":[{"name":"셰프의 강남면옥","tel":"031-947-1024","addr":"경기도 파주시 와동동 1593-4번지","indutype":"일반휴게음식 - 일반한식","category":"restaurant"}]},{"lat":"37.736537544","long":"126.75184702","imageIndex":4,"items":[{"name":"소바동","tel":"070-5105-3516","addr":"경기도 파주시 와동동 1638-3번지","indutype":"일반휴게음식 - 일식·회집","category":"restaurant"}]},{"lat":"37.719762806","long":"126.75234598","imageIndex":4,"items":[{"name":"숯불구이 벽창우","tel":"031-949-4343","addr":"경기도 파주시 와동동 1400-2번지","indutype":"일반휴게음식 - 일반한식","category":"restaurant"}]},{"lat":"37.719980118","long":"126.75285565","imageIndex":4,"items":[{"name":"스타부속전문점","tel":"031-946-5595","addr":"경기도 파주시 와동동 1400-4번지","indutype":"일반휴게음식 - 일반한식","category":"restaurant"},{"name":"카페더메이커스","tel":"031-111-1111","addr":"경기도 파주시 와동동 1400-4번지","indutype":"일반휴게음식 - 서양음식","category":"restaurant"},{"name":"커브","tel":"031-941-5300","addr":"경기도 파주시 와동동 1400-4번지","indutype":"일반휴게음식 - 일반한식","category":"restaurant"},{"name":"커피에반하다 운정롯데캐슬점","tel":"","addr":"경기도 파주시 와동동 1400-4번지","indutype":"일반휴게음식 - 서양음식","category":"restaurant"}]},{"lat":"37.735678736","long":"126.75048858","imageIndex":4,"items":[{"name":"스테이크와샐러드","tel":"","addr":"경기도 파주시 와동동 1628번지","indutype":"일반휴게음식 - 서양음식","category":"restaurant"}]},{"lat":"37.735367373","long":"126.75235013","imageIndex":4,"items":[{"name":"승희네 짬뽕","tel":"031-8071-5788","addr":"경기도 파주시 와동동 1650-3번지","indutype":"일반휴게음식 - 중국식","category":"restaurant"}]},{"lat":"37.726902792","long":"126.76313199","imageIndex":4,"items":[{"name":"시작","tel":"","addr":"경기도 파주시 와동동 1450-1번지","indutype":"일반휴게음식 - 서양음식","category":"restaurant"}]},{"lat":"37.736564862","long":"126.75198307","imageIndex":4,"items":[{"name":"썬2018","tel":"031-1111-1111","addr":"경기도 파주시 와동동 1638-4번지","indutype":"일반휴게음식 - 서양음식","category":"restaurant"}]},{"lat":"37.735815188","long":"126.75110072","imageIndex":4,"items":[{"name":"아리아리동동","tel":"070-8887-8994","addr":"경기도 파주시 와동동 1636-8번지","indutype":"일반휴게음식 - 일반한식","category":"restaurant"}]},{"lat":"37.736816838","long":"126.75184608","imageIndex":4,"items":[{"name":"아지티","tel":"031-948-2367","addr":"경기도 파주시 와동동 1642-5번지","indutype":"일반휴게음식 - 일반한식","category":"restaurant"}]},{"lat":"37.736004969","long":"126.75137235","imageIndex":4,"items":[{"name":"아트모스커피파주","tel":"02-1111-1111","addr":"경기도 파주시 와동동 1636-6번지","indutype":"일반휴게음식 - 서양음식","category":"restaurant"},{"name":"주식회사 아트모스커피","tel":"02-1111-1111","addr":"경기도 파주시 와동동 1636-6번지","indutype":"일반휴게음식 - 서양음식","category":"restaurant"}]},{"lat":"37.733478313","long":"126.75803993","imageIndex":4,"items":[{"name":"애견미용복카페","tel":"031-946-4241","addr":"경기도 파주시 와동동 1321번지 가람마을4단지한양수자인","indutype":"일반휴게음식 - 일반한식","category":"restaurant"},{"name":"피자에땅운정점","tel":"031-946-0021","addr":"경기도 파주시 와동동 1321번지 가람마을4단지한양수자인","indutype":"일반휴게음식 - 서양음식","category":"restaurant"}]},{"lat":"37.734483599","long":"126.75195606","imageIndex":4,"items":[{"name":"야경포차","tel":"031-943-7315","addr":"경기도 파주시 와동동 1622-4번지","indutype":"일반휴게음식 - 일반한식","category":"restaurant"}]},{"lat":"37.734735889","long":"126.75196655","imageIndex":4,"items":[{"name":"야끼토리쿠모","tel":"070-4768-4115","addr":"경기도 파주시 와동동 1624-7번지","indutype":"일반휴게음식 - 일식·회집","category":"restaurant"}]},{"lat":"37.736844228","long":"126.75201616","imageIndex":4,"items":[{"name":"야무진갈비","tel":"031-949-1727","addr":"경기도 파주시 와동동 1642-6번지","indutype":"일반휴게음식 - 일반한식","category":"restaurant"}]},{"lat":"37.736789471","long":"126.75168735","imageIndex":4,"items":[{"name":"어딜로커피 로스터스","tel":"070-2365-6647","addr":"경기도 파주시 와동동 1642-4번지","indutype":"일반휴게음식 - 서양음식","category":"restaurant"}]},{"lat":"37.735484783","long":"126.75676274","imageIndex":4,"items":[{"name":"어랑","tel":"070-8972-8733","addr":"경기도 파주시 와동동 1569-9번지","indutype":"일반휴게음식 - 일식·회집","category":"restaurant"}]},{"lat":"37.735063535","long":"126.75781917","imageIndex":4,"items":[{"name":"어쭈구이","tel":"031-944-9293","addr":"경기도 파주시 와동동 1551-1번지","indutype":"일반휴게음식 - 일반한식","category":"restaurant"},{"name":"족발야시장 운정점","tel":"031-949-4969","addr":"경기도 파주시 와동동 1551-1번지","indutype":"일반휴게음식 - 일반한식","category":"restaurant"},{"name":"황후","tel":"031-942-9796","addr":"경기도 파주시 와동동 1551-1번지 삼성프라자 2층 전체","indutype":"일반휴게음식 - 중국식","category":"restaurant"}]},{"lat":"37.719599042","long":"126.75159796","imageIndex":4,"items":[{"name":"어컵오브커피","tel":"031-941-7113","addr":"경기도 파주시 와동동 1399-2번지","indutype":"일반휴게음식 - 서양음식","category":"restaurant"},{"name":"채선당(운정점)","tel":"031-944-2208","addr":"경기도 파주시 와동동 1399-2번지","indutype":"일반휴게음식 - 일반한식","category":"restaurant"},{"name":"청담순대국","tel":"031-944-4555","addr":"경기도 파주시 와동동 1399-2번지","indutype":"일반휴게음식 - 일반한식","category":"restaurant"}]},{"lat":"37.735063576","long":"126.75354232","imageIndex":4,"items":[{"name":"옛날아우내순대","tel":"031-874-1922","addr":"경기도 파주시 와동동 1595-2번지","indutype":"일반휴게음식 - 일반한식","category":"restaurant"}]},{"lat":"37.73562","long":"126.75251945","imageIndex":4,"items":[{"name":"오누테(ONUTE)","tel":"031-944-8555","addr":"경기도 파주시 와동동 1650-1번지","indutype":"일반휴게음식 - 서양음식","category":"restaurant"}]},{"lat":"37.735287403","long":"126.75716045","imageIndex":4,"items":[{"name":"오돌 운정점","tel":"031-948-9210","addr":"경기도 파주시 와동동 1567-2번지","indutype":"일반휴게음식 - 일반한식","category":"restaurant"}]},{"lat":"37.734671977","long":"126.75156971","imageIndex":4,"items":[{"name":"오비엣","tel":"031-944-1989","addr":"경기도 파주시 와동동 1624-10번지","indutype":"일반휴게음식 - 서양음식","category":"restaurant"}]},{"lat":"37.735868639","long":"126.75081693","imageIndex":4,"items":[{"name":"오후의식탁","tel":"031-111-1111","addr":"경기도 파주시 와동동 1636번지","indutype":"일반휴게음식 - 일반한식","category":"restaurant"}]},{"lat":"37.734951491","long":"126.75593637","imageIndex":4,"items":[{"name":"우미정","tel":"031-942-9410","addr":"경기도 파주시 와동동 1564-1번지","indutype":"일반휴게음식 - 일반한식","category":"restaurant"}]},{"lat":"37.721454613","long":"126.75141021","imageIndex":4,"items":[{"name":"운정김밥","tel":"031-942-9960","addr":"경기도 파주시 와동동 1404번지 해솔마을7단지롯데캐슬","indutype":"일반휴게음식 - 일반한식","category":"restaurant"},{"name":"큐브케이크(CUBECAKE)","tel":"","addr":"경기도 파주시 와동동 1404번지 해솔마을7단지롯데캐슬","indutype":"일반휴게음식 - 서양음식","category":"restaurant"}]},{"lat":"37.728209332","long":"126.76320718","imageIndex":4,"items":[{"name":"운정낙지냉면","tel":"031-000-0000","addr":"경기도 파주시 와동동 1469번지","indutype":"일반휴게음식 - 일반한식","category":"restaurant"},{"name":"운정스넥","tel":"031-123-4567","addr":"경기도 파주시 와동동 1469번지","indutype":"일반휴게음식 - 서양음식","category":"restaurant"},{"name":"운정스파식당","tel":"031-941-8866","addr":"경기도 파주시 와동동 1469번지","indutype":"일반휴게음식 - 일반한식","category":"restaurant"},{"name":"전주팔미콩나물국밥","tel":"031-946-9988","addr":"경기도 파주시 와동동 1469번지","indutype":"일반휴게음식 - 일반한식","category":"restaurant"},{"name":"한식퓨전뷔페자연애","tel":"031-941-1288","addr":"경기도 파주시 와동동 1469번지","indutype":"일반휴게음식 - 일반한식","category":"restaurant"}]},{"lat":"37.734735575","long":"126.75181907","imageIndex":4,"items":[{"name":"운정닭갈비","tel":"031-957-5292","addr":"경기도 파주시 와동동 1624-8번지","indutype":"일반휴게음식 - 일반한식","category":"restaurant"}]},{"lat":"37.719598583","long":"126.75138246","imageIndex":4,"items":[{"name":"운정손만두","tel":"031-941-0136","addr":"경기도 파주시 와동동 1399-1번지","indutype":"일반휴게음식 - 일반한식","category":"restaurant"},{"name":"육대장","tel":"031-941-0136","addr":"경기도 파주시 와동동 1399-1번지","indutype":"일반휴게음식 - 일반한식","category":"restaurant"}]},{"lat":"37.734845883","long":"126.75285104","imageIndex":4,"items":[{"name":"운정족발천하","tel":"031-946-4888","addr":"경기도 파주시 와동동 1593-6번지","indutype":"일반휴게음식 - 일반한식","category":"restaurant"}]},{"lat":"37.734005686","long":"126.75176482","imageIndex":4,"items":[{"name":"운정족발쿠데타","tel":"031-949-6226","addr":"경기도 파주시 와동동 1599-2번지","indutype":"일반휴게음식 - 일반한식","category":"restaurant"}]},{"lat":"37.734374422","long":"126.75145728","imageIndex":4,"items":[{"name":"월화","tel":"031-948-0213","addr":"경기도 파주시 와동동 1622-1번지","indutype":"일반휴게음식 - 일반한식","category":"restaurant"}]},{"lat":"37.735040494","long":"126.75116007","imageIndex":4,"items":[{"name":"위드어스(withus)","tel":"031-1111-1111","addr":"경기도 파주시 와동동 1625-8번지","indutype":"일반휴게음식 - 서양음식","category":"restaurant"}]},{"lat":"37.734679388","long":"126.75082096","imageIndex":4,"items":[{"name":"응급실국물떡볶이(파주운정점)","tel":"031-944-3045","addr":"경기도 파주시 와동동 1615-5번지","indutype":"일반휴게음식 - 일반한식","category":"restaurant"}]},{"lat":"37.734456233","long":"126.75179733","imageIndex":4,"items":[{"name":"이실장삼겹갈비전문점","tel":"031-945-6432","addr":"경기도 파주시 와동동 1622-3번지","indutype":"일반휴게음식 - 일반한식","category":"restaurant"}]},{"lat":"37.735008054","long":"126.7528505","imageIndex":4,"items":[{"name":"이자카야 오늘","tel":"","addr":"경기도 파주시 와동동 1593-3번지","indutype":"일반휴게음식 - 주점","category":"restaurant"}]},{"lat":"37.736040377","long":"126.75107727","imageIndex":4,"items":[{"name":"이정빙수","tel":"031-529-1423","addr":"경기도 파주시 와동동 1636-2번지","indutype":"일반휴게음식 - 서양음식","category":"restaurant"}]},{"lat":"37.735096806","long":"126.75649176","imageIndex":4,"items":[{"name":"이차돌 파주운정점/제이에이엠엠홀딩스(주)","tel":"031-111-1111","addr":"경기도 파주시 와동동 1564-5번지","indutype":"일반휴게음식 - 일반한식","category":"restaurant"}]},{"lat":"37.736122213","long":"126.75142868","imageIndex":4,"items":[{"name":"이태리 식당","tel":"070-4042-8770","addr":"경기도 파주시 와동동 1636-5번지","indutype":"일반휴게음식 - 서양음식","category":"restaurant"}]},{"lat":"37.735064296","long":"126.75388265","imageIndex":4,"items":[{"name":"인생은고추통닭","tel":"031-944-6769","addr":"경기도 파주시 와동동 1595-4번지","indutype":"일반휴게음식 - 스넥","category":"restaurant"}]},{"lat":"37.735728234","long":"126.75257581","imageIndex":4,"items":[{"name":"일공공샤브","tel":"070-4384-1001","addr":"경기도 파주시 와동동 1650번지","indutype":"일반휴게음식 - 일반한식","category":"restaurant"}]},{"lat":"37.735205678","long":"126.75685442","imageIndex":4,"items":[{"name":"일편등심","tel":"031-000-0000","addr":"경기도 파주시 와동동 1567번지","indutype":"일반휴게음식 - 일반한식","category":"restaurant"}]},{"lat":"37.725126418","long":"126.76240042","imageIndex":4,"items":[{"name":"자연애","tel":"031-947-5550","addr":"경기도 파주시 와동동 1429번지","indutype":"일반휴게음식 - 일반한식","category":"restaurant"}]},{"lat":"37.736147715","long":"126.75071388","imageIndex":4,"items":[{"name":"자화상","tel":"031-0000-0000","addr":"경기도 파주시 와동동 1640-3번지","indutype":"일반휴게음식 - 서양음식","category":"restaurant"}]},{"lat":"37.733706242","long":"126.75076754","imageIndex":4,"items":[{"name":"장수누룽지백숙","tel":"02-000-0000","addr":"경기도 파주시 와동동 1603-3번지","indutype":"일반휴게음식 - 일반한식","category":"restaurant"}]},{"lat":"37.73559382","long":"126.75720482","imageIndex":4,"items":[{"name":"전집","tel":"031-944-9617","addr":"경기도 파주시 와동동 1569-6번지","indutype":"일반휴게음식 - 일반한식","category":"restaurant"}]},{"lat":"37.734978805","long":"126.75607241","imageIndex":4,"items":[{"name":"정가네 운정양꼬치","tel":"031-946-4478","addr":"경기도 파주시 와동동 1564-2번지","indutype":"일반휴게음식 - 중국식","category":"restaurant"}]},{"lat":"37.734118953","long":"126.74996069","imageIndex":4,"items":[{"name":"종로빈대떡","tel":"031-943-0911","addr":"경기도 파주시 와동동 1606번지","indutype":"일반휴게음식 - 일반한식","category":"restaurant"}]},{"lat":"37.734874449","long":"126.75357699","imageIndex":4,"items":[{"name":"주문진회","tel":"031-944-9950","addr":"경기도 파주시 와동동 1595-7번지","indutype":"일반휴게음식 - 일반한식","category":"restaurant"}]},{"lat":"37.72754279","long":"126.76328873","imageIndex":4,"items":[{"name":"주식회사 평양손만두","tel":"031-943-9230","addr":"경기도 파주시 와동동 1452번지","indutype":"일반휴게음식 - 일반한식","category":"restaurant"}]},{"lat":"37.735953276","long":"126.75676119","imageIndex":4,"items":[{"name":"중식객잔여기요","tel":"031-941-1892","addr":"경기도 파주시 와동동 1576-5번지","indutype":"일반휴게음식 - 중국식","category":"restaurant"}]},{"lat":"37.736151722","long":"126.75687398","imageIndex":4,"items":[{"name":"지랄닭발(운정신도시점)","tel":"02-1234-1234","addr":"경기도 파주시 와동동 1576-2번지","indutype":"일반휴게음식 - 일반한식","category":"restaurant"}]},{"lat":"37.719844326","long":"126.75254986","imageIndex":4,"items":[{"name":"진짜배기 명태촌","tel":"031-943-1436","addr":"경기도 파주시 와동동 1400-3번지","indutype":"일반휴게음식 - 일반한식","category":"restaurant"},{"name":"펀비어킹 운정호수공원점","tel":"031-943-6259","addr":"경기도 파주시 와동동 1400-3번지","indutype":"일반휴게음식 - 주점","category":"restaurant"}]},{"lat":"37.734818565","long":"126.752715","imageIndex":4,"items":[{"name":"쭈꾸미본부","tel":"031-942-3933","addr":"경기도 파주시 와동동 1593-7번지","indutype":"일반휴게음식 - 일반한식","category":"restaurant"}]},{"lat":"37.735896686","long":"126.7512933","imageIndex":4,"items":[{"name":"찜 하고 탕","tel":"031-946-6929","addr":"경기도 파주시 와동동 1636-7번지","indutype":"일반휴게음식 - 일반한식","category":"restaurant"}]},{"lat":"37.733923948","long":"126.7514588","imageIndex":4,"items":[{"name":"차오차오파주운정점","tel":"031-943-4545","addr":"경기도 파주시 와동동 1599번지","indutype":"일반휴게음식 - 중국식","category":"restaurant"}]},{"lat":"37.734708305","long":"126.75170572","imageIndex":4,"items":[{"name":"착한생선구이 운정","tel":"031-942-3492","addr":"경기도 파주시 와동동 1624-9번지","indutype":"일반휴게음식 - 일반한식","category":"restaurant"}]},{"lat":"37.735204551","long":"126.75204438","imageIndex":4,"items":[{"name":"청춘꿀벅지닭갈비","tel":"031-948-5992","addr":"경기도 파주시 와동동 1632-4번지","indutype":"일반휴게음식 - 일반한식","category":"restaurant"}]},{"lat":"37.724423329","long":"126.76223255","imageIndex":4,"items":[{"name":"초담추어탕","tel":"031-943-7585","addr":"경기도 파주시 와동동 1426-1번지","indutype":"일반휴게음식 - 일반한식","category":"restaurant"}]},{"lat":"37.731869349","long":"126.75126155","imageIndex":4,"items":[{"name":"춤추는 만두랑","tel":"031-946-2999","addr":"경기도 파주시 와동동 1303번지","indutype":"일반휴게음식 - 스넥","category":"restaurant"}]},{"lat":"37.735509641","long":"126.75146478","imageIndex":4,"items":[{"name":"치킨의민족 파주운정점","tel":"","addr":"경기도 파주시 와동동 1630-3번지","indutype":"일반휴게음식 - 스넥","category":"restaurant"}]},{"lat":"37.73622897","long":"126.75079302","imageIndex":4,"items":[{"name":"카페987","tel":"","addr":"경기도 파주시 와동동 1640-4번지","indutype":"일반휴게음식 - 서양음식","category":"restaurant"}]},{"lat":"37.731590297","long":"126.75137594","imageIndex":4,"items":[{"name":"카페게이트 파주운정 가람점","tel":"031-111-1111","addr":"경기도 파주시 와동동 1303-1번지","indutype":"일반휴게음식 - 서양음식","category":"restaurant"}]},{"lat":"37.729235699","long":"126.76285222","imageIndex":4,"items":[{"name":"카페글렌 파주운정점","tel":"070-8252-8552","addr":"경기도 파주시 와동동 1456-3번지","indutype":"일반휴게음식 - 서양음식","category":"restaurant"}]},{"lat":"37.736066387","long":"126.75060071","imageIndex":4,"items":[{"name":"카페크램","tel":"031-949-2952","addr":"경기도 파주시 와동동 1640-2번지","indutype":"일반휴게음식 - 서양음식","category":"restaurant"}]},{"lat":"37.736148661","long":"126.75115632","imageIndex":4,"items":[{"name":"커피마인","tel":"031-949-3110","addr":"경기도 파주시 와동동 1636-3번지","indutype":"일반휴게음식 - 서양음식","category":"restaurant"}]},{"lat":"37.734481349","long":"126.75090104","imageIndex":4,"items":[{"name":"쿠사","tel":"031-6081-9425","addr":"경기도 파주시 와동동 1617-5번지","indutype":"일반휴게음식 - 일반한식","category":"restaurant"}]},{"lat":"37.735564471","long":"126.75182762","imageIndex":4,"items":[{"name":"크루아 피차이","tel":"070-7764-8799","addr":"경기도 파주시 와동동 1632-1번지","indutype":"일반휴게음식 - 서양음식","category":"restaurant"}]},{"lat":"37.7352305","long":"126.75579931","imageIndex":4,"items":[{"name":"킹대패1900","tel":"031-946-5892","addr":"경기도 파주시 와동동 1572-9번지","indutype":"일반휴게음식 - 일반한식","category":"restaurant"}]},{"lat":"37.7364852","long":"126.75265267","imageIndex":4,"items":[{"name":"타르멜","tel":"","addr":"경기도 파주시 와동동 1660-2번지","indutype":"일반휴게음식 - 일반한식","category":"restaurant"}]},{"lat":"37.73606893","long":"126.75179188","imageIndex":4,"items":[{"name":"택이네조개전골","tel":"031-941-5246","addr":"경기도 파주시 와동동 1634-1번지","indutype":"일반휴게음식 - 일반한식","category":"restaurant"}]},{"lat":"37.725567692","long":"126.75792986","imageIndex":4,"items":[{"name":"토크","tel":"070-4324-5081","addr":"경기도 파주시 와동동 1374번지 명인빌딩 101호","indutype":"일반휴게음식 - 일반한식","category":"restaurant"}]},{"lat":"37.733867806","long":"126.75048338","imageIndex":4,"items":[{"name":"통우럭칼제비","tel":"031-942-1101","addr":"경기도 파주시 와동동 1620-9번지","indutype":"일반휴게음식 - 일반한식","category":"restaurant"}]},{"lat":"37.728925853","long":"126.76112901","imageIndex":4,"items":[{"name":"투썸플레이스 운정역점","tel":"031-944-6060","addr":"경기도 파주시 와동동 1454번지","indutype":"일반휴게음식 - 서양음식","category":"restaurant"}]},{"lat":"37.736035856","long":"126.75318738","imageIndex":4,"items":[{"name":"파운드(pound)","tel":"","addr":"경기도 파주시 와동동 1662-3번지","indutype":"일반휴게음식 - 서양음식","category":"restaurant"}]},{"lat":"37.734203363","long":"126.75151458","imageIndex":4,"items":[{"name":"파주된장국밥","tel":"031-943-6577","addr":"경기도 파주시 와동동 1622-10번지","indutype":"일반휴게음식 - 일반한식","category":"restaurant"}]},{"lat":"37.734427001","long":"126.75076509","imageIndex":4,"items":[{"name":"파주선식당","tel":"031-111-1111","addr":"경기도 파주시 와동동 1617-4번지","indutype":"일반휴게음식 - 일반한식","category":"restaurant"}]},{"lat":"37.735008959","long":"126.75756977","imageIndex":4,"items":[{"name":"펀비어킹","tel":"031-944-6261","addr":"경기도 파주시 와동동 1551-2번지","indutype":"일반휴게음식 - 일반한식","category":"restaurant"}]},{"lat":"37.735311964","long":"126.75171503","imageIndex":4,"items":[{"name":"포리나인스 (49s)","tel":"031-111-1111","addr":"경기도 파주시 와동동 1625-4번지","indutype":"일반휴게음식 - 일반한식","category":"restaurant"}]},{"lat":"37.735117975","long":"126.76237945","imageIndex":4,"items":[{"name":"포아풀","tel":"","addr":"경기도 파주시 와동동 1332번지 가람마을5단지","indutype":"일반휴게음식 - 서양음식","category":"restaurant"}]},{"lat":"37.735646835","long":"126.75670548","imageIndex":4,"items":[{"name":"포차어게인 파주운정점","tel":"031-943-0781","addr":"경기도 파주시 와동동 1569번지","indutype":"일반휴게음식 - 주점","category":"restaurant"}]},{"lat":"37.736314247","long":"126.75704361","imageIndex":4,"items":[{"name":"하남돼지집 운정신도시점","tel":"031-944-9239","addr":"경기도 파주시 와동동 1548-1번지","indutype":"일반휴게음식 - 일반한식","category":"restaurant"}]},{"lat":"37.736538919","long":"126.75249366","imageIndex":4,"items":[{"name":"하윌라(Havi lah)","tel":"","addr":"경기도 파주시 와동동 1660-1번지","indutype":"일반휴게음식 - 서양음식","category":"restaurant"}]},{"lat":"37.734870379","long":"126.7516598","imageIndex":4,"items":[{"name":"하이드링커(HIDRINKER)","tel":"070-8957-6330","addr":"경기도 파주시 와동동 1624-2번지","indutype":"일반휴게음식 - 일반한식","category":"restaurant"}]},{"lat":"37.735339469","long":"126.75620735","imageIndex":4,"items":[{"name":"한판집","tel":"031-947-7654","addr":"경기도 파주시 와동동 1572-6번지","indutype":"일반휴게음식 - 일반한식","category":"restaurant"}]},{"lat":"37.736116172","long":"126.75282408","imageIndex":4,"items":[{"name":"해와달참치","tel":"031-942-0851","addr":"경기도 파주시 와동동 1662-5번지","indutype":"일반휴게음식 - 일식·회집","category":"restaurant"}]},{"lat":"37.736565586","long":"126.7523234","imageIndex":4,"items":[{"name":"해주","tel":"","addr":"경기도 파주시 와동동 1660번지","indutype":"일반휴게음식 - 일반한식","category":"restaurant"}]},{"lat":"37.73442564","long":"126.75012982","imageIndex":4,"items":[{"name":"호식이두마리치킨(운정2호점)","tel":"031-944-9299","addr":"경기도 파주시 와동동 1615번지","indutype":"일반휴게음식 - 스넥","category":"restaurant"}]},{"lat":"37.73431254","long":"126.75201336","imageIndex":4,"items":[{"name":"황가네 부대찌개","tel":"031-945-4610","addr":"경기도 파주시 와동동 1622-7번지","indutype":"일반휴게음식 - 일반한식","category":"restaurant"}]},{"lat":"37.735541038","long":"126.7578176","imageIndex":4,"items":[{"name":"히든플레이스","tel":"","addr":"경기도 파주시 와동동 1550번지","indutype":"일반휴게음식 - 서양음식","category":"restaurant"}]}]