[{"lat":"37.085822282","long":"127.1532203","imageIndex":17,"items":[{"name":"(주)엔타스푸드시스템","tel":"02-486-0222","addr":"경기도 안성시 원곡면 성은리 188-7번지 2층","indutype":"신변잡화 - 기타잡화","category":"other"}]},{"lat":"37.076818398","long":"127.15504681","imageIndex":17,"items":[{"name":"(주)지에이치티","tel":"","addr":"경기도 안성시 원곡면 성은리 280-1번지 B동","indutype":"전기제품 - 기타전기제품","category":"other"}]},{"lat":"37.073517864","long":"127.15710933","imageIndex":17,"items":[{"name":"GS25안성성은점","tel":"","addr":"경기도 안성시 원곡면 성은리 348-1번지","indutype":"유통업 영리 - 편 의 점","category":"other"},{"name":"GS25안성성은점","tel":"080-555-2525","addr":"경기도 안성시 원곡면 성은리 348-1번지","indutype":"유통업 영리 - 편 의 점","category":"other"}]},{"lat":"37.083151353","long":"127.1490538","imageIndex":17,"items":[{"name":"NY202","tel":"070-7624-5222","addr":"경기도 안성시 원곡면 성은리 202-8","indutype":"회원제형태 - 기타4","category":"other"}]},{"lat":"37.070402687","long":"127.16205068","imageIndex":17,"items":[{"name":"김쌤트레이드","tel":"031-657-0734","addr":"경기도 안성시 원곡면 성은리 415번지","indutype":"의류 - 정장","category":"other"}]},{"lat":"37.083175943","long":"127.151022","imageIndex":17,"items":[{"name":"농업회사법인 주식회사 성은화훼유통센터","tel":"031-655-6149","addr":"경기도 안성시 원곡면 성은리 170-5번지","indutype":"문화.취미 - 화원","category":"other"}]},{"lat":"37.067511023","long":"127.1681053","imageIndex":17,"items":[{"name":"레이크타운","tel":"031-618-3577","addr":"경기도 안성시 원곡면 성은리 449-2번지","indutype":"용역 서비스 - 부동산 중개·임대","category":"other"}]},{"lat":"37.066294206","long":"127.16838376","imageIndex":17,"items":[{"name":"무비마운틴","tel":"031-655-4895","addr":"경기도 안성시 원곡면 성은리 449-1","indutype":"문화.취미 - 티켓","category":"other"}]},{"lat":"37.079317028","long":"127.15988759","imageIndex":17,"items":[{"name":"봄씽크","tel":"031-655-2825","addr":"경기도 안성시 원곡면 성은리 116-1","indutype":"회원제형태 - 기타3","category":"other"}]},{"lat":"37.078068252","long":"127.16385479","imageIndex":17,"items":[{"name":"선일그라스","tel":"","addr":"경기도 안성시 원곡면 성은리 4번지","indutype":"건축자재 - 유리","category":"other"}]},{"lat":"37.073066545","long":"127.15771565","imageIndex":17,"items":[{"name":"성은이불","tel":"031-657-3316","addr":"경기도 안성시 원곡면 성은리 350-13번지","indutype":"직물 - 침구·수예점","category":"other"}]},{"lat":"37.087203203","long":"127.15138974","imageIndex":17,"items":[{"name":"세븐일레븐안성원곡성은점","tel":"031-1577-0711","addr":"경기도 안성시 원곡면 성은리 188-1번지","indutype":"유통업 영리 - 편 의 점","category":"other"}]},{"lat":"37.07790143","long":"127.15366574","imageIndex":17,"items":[{"name":"씨유안성성은휴게소점","tel":"031-691-1738","addr":"경기도 안성시 원곡면 성은리 275-3번지 나동","indutype":"유통업 영리 - 편 의 점","category":"other"}]},{"lat":"37.075294458","long":"127.1559434","imageIndex":17,"items":[{"name":"오토그린 주식회사","tel":"031-691-9788","addr":"경기도 안성시 원곡면 성은리 285-13번지","indutype":"농업 - 기타농업관련","category":"other"}]},{"lat":"37.072794257","long":"127.16591273","imageIndex":17,"items":[{"name":"이원황토","tel":"031-353-5063","addr":"경기도 안성시 원곡면 성은리 산30번지 1층","indutype":"건축자재 - 기타건축자재","category":"other"}]},{"lat":"37.071845652","long":"127.15419351","imageIndex":17,"items":[{"name":"주방인","tel":"070-4940-6765","addr":"경기도 안성시 원곡면 성은리 335-2번지","indutype":"주방용구 - 주방용구","category":"other"}]},{"lat":"37.077652313","long":"127.15818605","imageIndex":17,"items":[{"name":"주식회사서남","tel":"031-655-4336","addr":"경기도 안성시 원곡면 성은리 103","indutype":"전기제품 - 기타전기제품","category":"other"}]},{"lat":"37.074705155","long":"127.15871981","imageIndex":17,"items":[{"name":"주식회사에이맥스테크놀러지/원격지","tel":"031-668-4425","addr":"경기도 안성시 원곡면 성은리 358-7번지 (주)에이맥스테크놀러지","indutype":"기타 - 기타 전문점","category":"other"}]},{"lat":"37.084039799","long":"127.15194591","imageIndex":17,"items":[{"name":"진보산업","tel":"031-656-4604","addr":"경기도 안성시 원곡면 성은리 181-8","indutype":"전기제품 - 냉열기기","category":"other"}]},{"lat":"37.074346163","long":"127.16438669","imageIndex":17,"items":[{"name":"키친탑리폼공장","tel":"031-655-6908","addr":"경기도 안성시 원곡면 성은리 64-2번지","indutype":"가구 - 일반가구","category":"other"}]},{"lat":"37.072156063","long":"127.16477562","imageIndex":4,"items":[{"name":"가물치가든","tel":"031-655-6189","addr":"경기도 안성시 원곡면 성은리 79-1번지","indutype":"일반휴게음식 - 일반한식","category":"restaurant"}]},{"lat":"37.073427261","long":"127.15749148","imageIndex":4,"items":[{"name":"고향부폐","tel":"031-655-4037","addr":"경기도 안성시 원곡면 성은리 350-1번지","indutype":"일반휴게음식 - 일반한식","category":"restaurant"}]},{"lat":"37.075789762","long":"127.15615806","imageIndex":4,"items":[{"name":"낙원한우정육구이","tel":"031-655-9984","addr":"경기도 안성시 원곡면 성은리 286-1번지 1층","indutype":"일반휴게음식 - 일반한식","category":"restaurant"}]},{"lat":"37.075239755","long":"127.15643809","imageIndex":4,"items":[{"name":"대성식당","tel":"031-652-3855","addr":"경기도 안성시 원곡면 성은리 286-3","indutype":"일반휴게음식 - 일반한식","category":"restaurant"}]},{"lat":"37.073482216","long":"127.15680563","imageIndex":4,"items":[{"name":"대호한정식뷔페","tel":"031-654-6949","addr":"경기도 안성시 원곡면 성은리 347-3번지","indutype":"일반휴게음식 - 일반한식","category":"restaurant"}]},{"lat":"37.087203203","long":"127.15138974","imageIndex":4,"items":[{"name":"리오","tel":"","addr":"경기도 안성시 원곡면 성은리 188-1번지","indutype":"일반휴게음식 - 서양음식","category":"restaurant"},{"name":"자매한정식뷔페","tel":"031-692-3622","addr":"경기도 안성시 원곡면 성은리 188-1번지 1층","indutype":"일반휴게음식 - 일반한식","category":"restaurant"}]},{"lat":"37.071928319","long":"127.15991734","imageIndex":4,"items":[{"name":"보신마을","tel":"031-652-1771","addr":"경기도 안성시 원곡면 성은리 377-2","indutype":"일반휴게음식 - 일반한식","category":"restaurant"}]},{"lat":"37.077093364","long":"127.15840982","imageIndex":4,"items":[{"name":"산모롱이","tel":"031-655-0139","addr":"경기도 안성시 원곡면 성은리 102번지","indutype":"일반휴게음식 - 일반한식","category":"restaurant"}]},{"lat":"37.073157076","long":"127.15738972","imageIndex":4,"items":[{"name":"산촌","tel":"031-111-1111","addr":"경기도 안성시 원곡면 성은리 349-1번지 1층 우측","indutype":"일반휴게음식 - 일반한식","category":"restaurant"},{"name":"산촌식당","tel":"031-618-6699","addr":"경기도 안성시 원곡면 성은리 349-1번지","indutype":"일반휴게음식 - 일반한식","category":"restaurant"}]},{"lat":"37.071323282","long":"127.16091688","imageIndex":4,"items":[{"name":"삼일부대찌개전문점","tel":"031-651-5657","addr":"경기도 안성시 원곡면 성은리 375-2","indutype":"일반휴게음식 - 일반한식","category":"restaurant"}]},{"lat":"37.078289284","long":"127.15335163","imageIndex":4,"items":[{"name":"성은각","tel":"031-618-1237","addr":"경기도 안성시 원곡면 성은리 275-8번지","indutype":"일반휴게음식 - 중국식","category":"restaurant"}]},{"lat":"37.066344171","long":"127.17129609","imageIndex":4,"items":[{"name":"아로니아","tel":"031-111-1111","addr":"경기도 안성시 원곡면 성은리 452-1번지","indutype":"일반휴게음식 - 일반한식","category":"restaurant"}]},{"lat":"37.07084425","long":"127.16201787","imageIndex":4,"items":[{"name":"옛날치킨","tel":"031-655-6908","addr":"경기도 안성시 원곡면 성은리 383번지 1층","indutype":"일반휴게음식 - 스넥","category":"restaurant"}]},{"lat":"37.072156063","long":"127.16477562","imageIndex":7,"items":[{"name":"가물치원","tel":"031-655-0995","addr":"경기도 안성시 원곡면 성은리 79-1번지","indutype":"건강식품 - 기타건강식품","category":"food"}]},{"lat":"37.075789762","long":"127.15615806","imageIndex":7,"items":[{"name":"낙원정육","tel":"031-655-9985","addr":"경기도 안성시 원곡면 성은리 286-1번지","indutype":"음료식품 - 정육점","category":"food"}]},{"lat":"37.075263655","long":"127.15182752","imageIndex":7,"items":[{"name":"농민버섯연구소","tel":"031-653-0384","addr":"경기도 안성시 원곡면 성은리 320-1번지","indutype":"음료식품 - 농·축·수산품","category":"food"}]},{"lat":"37.076822311","long":"127.15196552","imageIndex":7,"items":[{"name":"농협회사법인(주)안성떡방","tel":"031-618-4647","addr":"경기도 안성시 원곡면 성은리 264번지","indutype":"음료식품 - 제과점","category":"food"}]},{"lat":"37.079235658","long":"127.14585242","imageIndex":7,"items":[{"name":"성은농축산가공원","tel":"031-653-3024","addr":"경기도 안성시 원곡면 성은리 229-3","indutype":"건강식품 - 기타건강식품","category":"food"}]},{"lat":"37.070545737","long":"127.16288309","imageIndex":7,"items":[{"name":"성은유통","tel":"031-658-5551","addr":"경기도 안성시 원곡면 성은리 410-3번지","indutype":"음료식품 - 농·축·수산품","category":"food"}]},{"lat":"37.087203203","long":"127.15138974","imageIndex":13,"items":[{"name":"경동스크린골프존","tel":"031-656-7577","addr":"경기도 안성시 원곡면 성은리 188-1번지","indutype":"레저업소 - 스크린골프","category":"leisure"}]},{"lat":"37.073157076","long":"127.15738972","imageIndex":13,"items":[{"name":"산촌노래연습장","tel":"031-656-5482","addr":"경기도 안성시 원곡면 성은리 349-1번지 2층","indutype":"레저업소 - 노 래 방","category":"leisure"},{"name":"산촌노래연습장","tel":"031-656-5482","addr":"경기도 안성시 원곡면 성은리 349-1번지","indutype":"레저업소 - 노 래 방","category":"leisure"}]},{"lat":"37.076653697","long":"127.15699197","imageIndex":13,"items":[{"name":"안성실내바다낚시터","tel":"031-6920-9138","addr":"경기도 안성시 원곡면 성은리 354-4번지 다동","indutype":"레저업소 - 기타레져업소","category":"leisure"},{"name":"안성실내바다낚시터","tel":"031-692-9138","addr":"경기도 안성시 원곡면 성은리 354-4번지","indutype":"레저업소 - 기타레져업소","category":"leisure"}]},{"lat":"37.073096028","long":"127.15582653","imageIndex":0,"items":[{"name":"대명공업사","tel":"031-656-2083","addr":"경기도 안성시 원곡면 성은리 342-1번지","indutype":"자동차정비 유지 - 자동차정비","category":"car"}]},{"lat":"37.079573135","long":"127.163768","imageIndex":0,"items":[{"name":"주식회사누리정공","tel":"031-618-9956","addr":"경기도 안성시 원곡면 성은리 9-8","indutype":"자동차정비 유지 - 자동차부품","category":"car"}]},{"lat":"37.073401559","long":"127.15646812","imageIndex":0,"items":[{"name":"창대자동차공업사","tel":"031-652-1684","addr":"경기도 안성시 원곡면 성은리 346-4번지","indutype":"자동차정비 유지 - 자동차정비","category":"car"}]},{"lat":"37.08609502","long":"127.1512976","imageIndex":9,"items":[{"name":"성은주유소","tel":"031-655-6651","addr":"경기도 안성시 원곡면 성은리 189-1번지","indutype":"연료판매점 - GS주유소","category":"oil"},{"name":"성은주유소","tel":"031-655-6651","addr":"경기도 안성시 원곡면 성은리 189-1번지","indutype":"연료판매점 - 주유소","category":"oil"}]},{"lat":"37.066265663","long":"127.16946313","imageIndex":5,"items":[{"name":"아이비모텔","tel":"031-653-9089","addr":"경기도 안성시 원곡면 성은리 449-3번지 아이비모텔","indutype":"숙박업 - 여관/기타숙박업","category":"hotel"}]}]