[{"lat":"38.02323386","long":"127.0606114","imageIndex":4,"items":[{"name":"(주)아워홈 연천군보건의료원점","tel":"02-6966-9049","addr":"경기도 연천군 전곡읍 은대리 577-36번지","indutype":"일반휴게음식 - 위탁급식업","category":"restaurant"}]},{"lat":"38.03011426","long":"127.0656169","imageIndex":4,"items":[{"name":"동경","tel":"031-835-0056","addr":"경기도 연천군 전곡읍 은대리 556-1번지","indutype":"일반휴게음식 - 일반한식","category":"restaurant"},{"name":"명동족발","tel":"031-833-5278","addr":"경기도 연천군 전곡읍 은대리 556-1번지","indutype":"일반휴게음식 - 일반한식","category":"restaurant"}]},{"lat":"38.04869875","long":"127.0679797","imageIndex":4,"items":[{"name":"동막골2호점","tel":"031-832-4945","addr":"경기도 연천군 전곡읍 은대리 422-32번지","indutype":"일반휴게음식 - 일반한식","category":"restaurant"}]},{"lat":"38.02945169","long":"127.057393","imageIndex":4,"items":[{"name":"동해바다","tel":"031-833-9777","addr":"경기도 연천군 전곡읍 은대리 629-4번지","indutype":"일반휴게음식 - 일반한식","category":"restaurant"}]},{"lat":"38.05041899","long":"127.0688698","imageIndex":4,"items":[{"name":"라르고","tel":"031-832-1430","addr":"경기도 연천군 전곡읍 은대리 413-1번지","indutype":"일반휴게음식 - 서양음식","category":"restaurant"}]},{"lat":"38.03197958","long":"127.0648098","imageIndex":4,"items":[{"name":"라온뷔페","tel":"","addr":"경기도 연천군 전곡읍 은대리 537-4번지","indutype":"일반휴게음식 - 일반한식","category":"restaurant"}]},{"lat":"38.02750291","long":"127.0631432","imageIndex":4,"items":[{"name":"로하스 캠핑테리아","tel":"031-834-6080","addr":"경기도 연천군 전곡읍 은대리 573번지 전곡읍사무소 정문 인근","indutype":"일반휴게음식 - 서양음식","category":"restaurant"}]},{"lat":"38.02941971","long":"127.0671995","imageIndex":4,"items":[{"name":"마왕쭈꾸미","tel":"031-000-0000","addr":"경기도 연천군 전곡읍 은대리 543-2번지 나동 1층 일부","indutype":"일반휴게음식 - 일반한식","category":"restaurant"},{"name":"뮬","tel":"031-833-2500","addr":"경기도 연천군 전곡읍 은대리 543-2번지 ((전곡은대543-22층))","indutype":"일반휴게음식 - 서양음식","category":"restaurant"},{"name":"한탄강맛집통통돼지","tel":"031-832-9155","addr":"경기도 연천군 전곡읍 은대리 543-2번지 나동 1층","indutype":"일반휴게음식 - 일반한식","category":"restaurant"}]},{"lat":"38.02889739","long":"127.0668118","imageIndex":4,"items":[{"name":"만두랑 국수랑 참 잘하는집","tel":"031-833-5602","addr":"경기도 연천군 전곡읍 은대리 544-8번지","indutype":"일반휴게음식 - 일반한식","category":"restaurant"}]},{"lat":"38.02881285","long":"127.0556157","imageIndex":4,"items":[{"name":"먹고또오리","tel":"031-832-5289","addr":"경기도 연천군 전곡읍 은대리 628-35","indutype":"일반휴게음식 - 일반한식","category":"restaurant"}]},{"lat":"38.0309519","long":"127.0660049","imageIndex":4,"items":[{"name":"미소육화","tel":"031-833-8592","addr":"경기도 연천군 전곡읍 은대리 550-8번지","indutype":"일반휴게음식 - 일반한식","category":"restaurant"}]},{"lat":"38.03011554","long":"127.0631681","imageIndex":4,"items":[{"name":"소문난 대박집","tel":"031-833-5300","addr":"경기도 연천군 전곡읍 은대리 634-7번지","indutype":"일반휴게음식 - 일반한식","category":"restaurant"}]},{"lat":"38.02975297","long":"127.0673365","imageIndex":4,"items":[{"name":"수연정칼국수","tel":"031-832-2200","addr":"경기도 연천군 전곡읍 은대리 541-14번지","indutype":"일반휴게음식 - 일반한식","category":"restaurant"}]},{"lat":"38.03172787","long":"127.0637503","imageIndex":4,"items":[{"name":"아름다운 연천 한우","tel":"031-832-4001","addr":"경기도 연천군 전곡읍 은대리 2245번지","indutype":"일반휴게음식 - 일반한식","category":"restaurant"}]},{"lat":"38.03203517","long":"127.0618143","imageIndex":4,"items":[{"name":"아승메밀막국수","tel":"031-833-0048","addr":"경기도 연천군 전곡읍 은대리 2211-8번지","indutype":"일반휴게음식 - 일반한식","category":"restaurant"}]},{"lat":"38.03025855","long":"127.0653437","imageIndex":4,"items":[{"name":"연천온골생고기","tel":"031-832-6353","addr":"경기도 연천군 전곡읍 은대리 555-11번지","indutype":"일반휴게음식 - 일반한식","category":"restaurant"}]},{"lat":"38.04581294","long":"127.0558102","imageIndex":4,"items":[{"name":"용바위식당","tel":"031-835-6050","addr":"경기도 연천군 전곡읍 은대리 729번지","indutype":"일반휴게음식 - 일반한식","category":"restaurant"}]},{"lat":"38.02828128","long":"127.0556951","imageIndex":4,"items":[{"name":"일품손짜장","tel":"031-833-8999","addr":"경기도 연천군 전곡읍 은대리 776-3번지","indutype":"일반휴게음식 - 중국식","category":"restaurant"}]},{"lat":"38.02592599","long":"127.0637797","imageIndex":4,"items":[{"name":"임진강쉼터 어부식당","tel":"031-835-1484","addr":"경기도 연천군 전곡읍 은대리 575-3번지","indutype":"일반휴게음식 - 일반한식","category":"restaurant"}]},{"lat":"38.05003211","long":"127.0679467","imageIndex":4,"items":[{"name":"지니출장요리","tel":"031-835-7279","addr":"경기도 연천군 전곡읍 은대리 418-53","indutype":"일반휴게음식 - 일반한식","category":"restaurant"}]},{"lat":"38.03087112","long":"127.0654467","imageIndex":4,"items":[{"name":"처가집 치킨. 빅스타피자","tel":"031-832-9942","addr":"경기도 연천군 전곡읍 은대리 550-4번지","indutype":"일반휴게음식 - 스넥","category":"restaurant"}]},{"lat":"38.02967196","long":"127.0671997","imageIndex":4,"items":[{"name":"첫머리 야식","tel":"031-833-0437","addr":"경기도 연천군 전곡읍 은대리 542-3번지","indutype":"일반휴게음식 - 일반한식","category":"restaurant"}]},{"lat":"38.03047649","long":"127.0620294","imageIndex":4,"items":[{"name":"커피민스","tel":"031-834-3682","addr":"경기도 연천군 전곡읍 은대리 640-2번지","indutype":"일반휴게음식 - 서양음식","category":"restaurant"}]},{"lat":"38.02865018","long":"127.0567318","imageIndex":4,"items":[{"name":"한양가든","tel":"031-835-8645","addr":"경기도 연천군 전곡읍 은대리 628-30","indutype":"일반휴게음식 - 일반한식","category":"restaurant"}]},{"lat":"38.05331119","long":"127.0683597","imageIndex":4,"items":[{"name":"한양옥","tel":"031-833-5537","addr":"경기도 연천군 전곡읍 은대리 283-2번지 가동","indutype":"일반휴게음식 - 일반한식","category":"restaurant"}]},{"lat":"38.02467537","long":"127.06051","imageIndex":17,"items":[{"name":"119건설중기","tel":"031-835-9111","addr":"경기도 연천군 전곡읍 은대리 585-13번지","indutype":"기타 - 기계공구","category":"other"}]},{"lat":"38.02875323","long":"127.0668345","imageIndex":17,"items":[{"name":"CS몰","tel":"001-0000-0000","addr":"경기도 연천군 전곡읍 은대리 544-14번지 대성빌딩 1층","indutype":"서적문구 - 문구용품","category":"other"},{"name":"엔에이아그로","tel":"031-835-0876","addr":"경기도 연천군 전곡읍 은대리 544-14 대성빌딩 8층","indutype":"농업 - 비료,사료,종자","category":"other"}]},{"lat":"38.02941971","long":"127.0671995","imageIndex":17,"items":[{"name":"CS코리아","tel":"031-833-3233","addr":"경기도 연천군 전곡읍 은대리 543-2번지 1층","indutype":"의류 - 정장","category":"other"}]},{"lat":"38.03128578","long":"127.0649801","imageIndex":17,"items":[{"name":"귀뚜라미보일러서비스","tel":"031-832-9911","addr":"경기도 연천군 전곡읍 은대리 551-3번지","indutype":"건축자재 - 보일러·펌프·샷시","category":"other"},{"name":"태양상사","tel":"031-832-9923","addr":"경기도 연천군 전곡읍 은대리 551-3번지","indutype":"건축자재 - 기타건축자재","category":"other"},{"name":"페어리","tel":"","addr":"경기도 연천군 전곡읍 은대리 551-3번지","indutype":"의류 - 내의판매","category":"other"}]},{"lat":"38.05075281","long":"127.0680043","imageIndex":17,"items":[{"name":"금풍철강","tel":"031-833-2277","addr":"경기도 연천군 전곡읍 은대리 418-13번지","indutype":"건축자재 - 기타건축자재","category":"other"}]},{"lat":"38.05011359","long":"127.067229","imageIndex":17,"items":[{"name":"다모아","tel":"031-571-8246","addr":"경기도 연천군 전곡읍 은대리 426-62번지","indutype":"기타 - 기타 전문점","category":"other"}]},{"lat":"38.05003211","long":"127.0679467","imageIndex":17,"items":[{"name":"대건철물공구건재","tel":"031-832-2553","addr":"경기도 연천군 전곡읍 은대리 418-53번지","indutype":"건축자재 - 목재·석재·철물","category":"other"}]},{"lat":"38.02958581","long":"127.0595344","imageIndex":17,"items":[{"name":"대성건재","tel":"031-832-8723","addr":"경기도 연천군 전곡읍 은대리 626-3번지","indutype":"건축자재 - 기타건축자재","category":"other"}]},{"lat":"38.03103338","long":"127.0652532","imageIndex":17,"items":[{"name":"대성기계공구","tel":"031-835-0907","addr":"경기도 연천군 전곡읍 은대리 550-1번지","indutype":"기타 - 기계공구","category":"other"}]},{"lat":"38.03011426","long":"127.0656169","imageIndex":17,"items":[{"name":"대한투어","tel":"","addr":"경기도 연천군 전곡읍 은대리 556-1,555-5","indutype":"여행 - 관광여행","category":"other"}]},{"lat":"38.03120522","long":"127.0640005","imageIndex":17,"items":[{"name":"명품농자재마트","tel":"031-832-6989","addr":"경기도 연천군 전곡읍 은대리 553-5번지","indutype":"농업 - 농기계","category":"other"}]},{"lat":"38.05675678","long":"127.076612","imageIndex":17,"items":[{"name":"믿음 하우징","tel":"031-834-1521","addr":"경기도 연천군 전곡읍 은대리 30-10번지","indutype":"용역 서비스 - 기타용역서비스","category":"other"}]},{"lat":"38.04531438","long":"127.077979","imageIndex":17,"items":[{"name":"베스트멈","tel":"070-7789-3552","addr":"경기도 연천군 전곡읍 은대리 97-9","indutype":"문화.취미 - 화원","category":"other"}]},{"lat":"38.02975297","long":"127.0673365","imageIndex":17,"items":[{"name":"복영이네 옷가게","tel":"031-111-1111","addr":"경기도 연천군 전곡읍 은대리 541-14번지","indutype":"의류 - 정장","category":"other"}]},{"lat":"38.03980672","long":"127.0680857","imageIndex":17,"items":[{"name":"북스토리","tel":"031-4586-1348","addr":"경기도 연천군 전곡읍 은대리 2388-1번지","indutype":"서적문구 - 일반서적","category":"other"}]},{"lat":"38.03039427","long":"127.0642504","imageIndex":17,"items":[{"name":"삼영타일","tel":"031-832-5452","addr":"경기도 연천군 전곡읍 은대리 557","indutype":"건축자재 - 건축용 요업제품","category":"other"}]},{"lat":"38.02925812","long":"127.0661401","imageIndex":17,"items":[{"name":"삼일건축","tel":"031-833-1131","addr":"경기도 연천군 전곡읍 은대리 562-1번지","indutype":"건축자재 - 인테리어전문","category":"other"}]},{"lat":"38.02934312","long":"127.0583724","imageIndex":17,"items":[{"name":"샘가설재","tel":"031-8332-3370","addr":"경기도 연천군 전곡읍 은대리 628-1번지","indutype":"건축자재 - 기타건축자재","category":"other"}]},{"lat":"38.03034044","long":"127.0638061","imageIndex":17,"items":[{"name":"성훈스텐샷슈","tel":"031-892-5217","addr":"경기도 연천군 전곡읍 은대리 635-6번지","indutype":"건축자재 - 보일러·펌프·샷시","category":"other"}]},{"lat":"38.03356541","long":"127.0643669","imageIndex":17,"items":[{"name":"세븐일레븐연천전곡대로점","tel":"031-1577-0711","addr":"경기도 연천군 전곡읍 은대리 530-42번지","indutype":"유통업 영리 - 편 의 점","category":"other"}]},{"lat":"38.03197958","long":"127.0648098","imageIndex":17,"items":[{"name":"신세계농자재","tel":"031-833-4490","addr":"경기도 연천군 전곡읍 은대리 537-4번지","indutype":"농업 - 기타농업관련","category":"other"}]},{"lat":"38.03084304","long":"127.0673944","imageIndex":17,"items":[{"name":"씨유연천군복지회관점","tel":"031-832-8868","addr":"경기도 연천군 전곡읍 은대리 540-5번지 1층","indutype":"유통업 영리 - 편 의 점","category":"other"}]},{"lat":"38.03047649","long":"127.0620294","imageIndex":17,"items":[{"name":"씨유전곡푸르미점","tel":"031-833-4515","addr":"경기도 연천군 전곡읍 은대리 640-2번지 1층","indutype":"유통업 영리 - 편 의 점","category":"other"}]},{"lat":"38.03192603","long":"127.0638416","imageIndex":17,"items":[{"name":"안성공업사","tel":"031-832-3501","addr":"경기도 연천군 전곡읍 은대리 2242-3번지","indutype":"수리서비스 - 기타수리서비스","category":"other"}]},{"lat":"38.02323386","long":"127.0606114","imageIndex":17,"items":[{"name":"연천군보건의료원","tel":"031-839-4001","addr":"경기도 연천군 전곡읍 은대리 577-36번지","indutype":"기타 - 비영리/대상","category":"other"},{"name":"연천군청","tel":"031-832-4474","addr":"경기도 연천군 전곡읍 은대리 577-36번지 ,연천군 보건의료원 장례식장","indutype":"용역 서비스 - 가례서비스업","category":"other"}]},{"lat":"38.03459249","long":"127.0642881","imageIndex":17,"items":[{"name":"연천정밀","tel":"031-833-0482","addr":"경기도 연천군 전곡읍 은대리 1864번지","indutype":"기타 - 기계공구","category":"other"},{"name":"태광정밀","tel":"031-832-1524","addr":"경기도 연천군 전곡읍 은대리 1864","indutype":"기타 - 기계공구","category":"other"}]},{"lat":"38.02917678","long":"127.0666184","imageIndex":17,"items":[{"name":"연천통일공인중개사 사무소","tel":"031-832-0101","addr":"경기도 연천군 전곡읍 은대리 544-4번지","indutype":"용역 서비스 - 부동산 중개·임대","category":"other"}]},{"lat":"38.03189705","long":"127.0674864","imageIndex":17,"items":[{"name":"연천판촉","tel":"031-000-0000","addr":"경기도 연천군 전곡읍 은대리 513-1번지 백련주택 가동 304호","indutype":"전기제품 - 기타전기제품","category":"other"}]},{"lat":"38.03378052","long":"127.0664515","imageIndex":17,"items":[{"name":"영진공사","tel":"031-832-1154","addr":"경기도 연천군 전곡읍 은대리 529-8","indutype":"용역 서비스 - 기타용역서비스","category":"other"}]},{"lat":"38.05369714","long":"127.0708894","imageIndex":17,"items":[{"name":"유아교육사","tel":"031-867-6103","addr":"경기도 연천군 전곡읍 은대리 293-2번지","indutype":"서적문구 - 기타서적문구","category":"other"}]},{"lat":"38.02567531","long":"127.0606475","imageIndex":17,"items":[{"name":"유진철물,공구,건재","tel":"031-832-3708","addr":"경기도 연천군 전곡읍 은대리 584-22 3필지","indutype":"건축자재 - 목재·석재·철물","category":"other"}]},{"lat":"38.05206188","long":"127.078453","imageIndex":17,"items":[{"name":"은대리 쉼나루","tel":"031-833-5260","addr":"경기도 연천군 전곡읍 은대리 49-1번지","indutype":"용역 서비스 - 부동산 중개·임대","category":"other"}]},{"lat":"38.02814823","long":"127.0508089","imageIndex":17,"items":[{"name":"전곡골재","tel":"031-832-1462","addr":"경기도 연천군 전곡읍 은대리 824-3","indutype":"건축자재 - 기타건축자재","category":"other"}]},{"lat":"38.05103192","long":"127.0683121","imageIndex":17,"items":[{"name":"전곡공조시스템","tel":"070-8847-5015","addr":"경기도 연천군 전곡읍 은대리 418-9번지","indutype":"용역 서비스 - 기타용역서비스","category":"other"}]},{"lat":"38.05331119","long":"127.0683597","imageIndex":17,"items":[{"name":"전곡비니루","tel":"031-835-3110","addr":"경기도 연천군 전곡읍 은대리 283-2","indutype":"기타 - 기타 전문점","category":"other"}]},{"lat":"38.02851016","long":"127.0665039","imageIndex":17,"items":[{"name":"전곡삼일가구","tel":"031-832-2364","addr":"경기도 연천군 전곡읍 은대리 565-3번지","indutype":"가구 - 일반가구","category":"other"}]},{"lat":"38.02750291","long":"127.0631432","imageIndex":17,"items":[{"name":"전곡읍사무소","tel":"031-839-2752","addr":"경기도 연천군 전곡읍 은대리 573번지 1층","indutype":"용역 서비스 - 사무서비스","category":"other"}]},{"lat":"38.03223227","long":"127.0639786","imageIndex":17,"items":[{"name":"전곡종합공구","tel":"031-832-2333","addr":"경기도 연천군 전곡읍 은대리 2239-6번지","indutype":"기타 - 기계공구","category":"other"}]},{"lat":"38.03008637","long":"127.0672229","imageIndex":17,"items":[{"name":"제일광고","tel":"031-832-6589","addr":"경기도 연천군 전곡읍 은대리 541-9번지","indutype":"용역 서비스 - 종합용역","category":"other"}]},{"lat":"38.03167328","long":"127.0647868","imageIndex":17,"items":[{"name":"중고가전센타","tel":"031-832-8752","addr":"경기도 연천군 전곡읍 은대리 537-9번지","indutype":"전기제품 - 가전제품","category":"other"}]},{"lat":"38.03051049","long":"127.0659476","imageIndex":17,"items":[{"name":"청송가구갤러리","tel":"031-833-4849","addr":"경기도 연천군 전곡읍 은대리 546-1번지","indutype":"가구 - 일반가구","category":"other"}]},{"lat":"38.0252607","long":"127.0610344","imageIndex":17,"items":[{"name":"태산광고","tel":"031-833-1001","addr":"경기도 연천군 전곡읍 은대리 588-18번지","indutype":"건축자재 - 인테리어전문","category":"other"}]},{"lat":"38.0377575","long":"127.0586408","imageIndex":17,"items":[{"name":"티앤드티( Tea and T )","tel":"","addr":"경기도 연천군 전곡읍 은대리 680-23번지","indutype":"문화.취미 - 민예·공예품","category":"other"}]},{"lat":"38.03120386","long":"127.0665518","imageIndex":17,"items":[{"name":"하나건설중기","tel":"031-878-3556","addr":"경기도 연천군 전곡읍 은대리 539-27번지 평화연립 4동 431호","indutype":"기타 - 기타 전문점","category":"other"}]},{"lat":"38.03100659","long":"127.064809","imageIndex":17,"items":[{"name":"현대종합건재","tel":"031-832-2040","addr":"경기도 연천군 전곡읍 은대리 552-2번지","indutype":"건축자재 - 기타건축자재","category":"other"}]},{"lat":"38.03087112","long":"127.0654467","imageIndex":17,"items":[{"name":"현대천막","tel":"031-832-0370","addr":"경기도 연천군 전곡읍 은대리 550-4","indutype":"직물 - 카페트,커튼,천막,지물","category":"other"}]},{"lat":"38.04869875","long":"127.0679797","imageIndex":17,"items":[{"name":"협성배관상사","tel":"031-832-9900","addr":"경기도 연천군 전곡읍 은대리 422-32","indutype":"건축자재 - 목재·석재·철물","category":"other"}]},{"lat":"38.03039246","long":"127.0676104","imageIndex":17,"items":[{"name":"형제샷시","tel":"031-835-1414","addr":"경기도 연천군 전곡읍 은대리 541-10번지","indutype":"용역 서비스 - 기타용역서비스","category":"other"}]},{"lat":"38.02980903","long":"127.0635551","imageIndex":7,"items":[{"name":"EDP연천군식자재","tel":"031-832-2727","addr":"경기도 연천군 전곡읍 은대리 559-4번지","indutype":"음료식품 - 기타음료식품","category":"food"}]},{"lat":"38.02981686","long":"127.0658103","imageIndex":7,"items":[{"name":"곤이네 청과","tel":"031-835-8912","addr":"경기도 연천군 전곡읍 은대리 561-3번지","indutype":"음료식품 - 기타음료식품","category":"food"}]},{"lat":"38.03172787","long":"127.0637503","imageIndex":7,"items":[{"name":"대도정육도소매센타","tel":"031-832-4001","addr":"경기도 연천군 전곡읍 은대리 2245번지","indutype":"음료식품 - 정육점","category":"food"}]},{"lat":"38.02925812","long":"127.0661401","imageIndex":7,"items":[{"name":"백호 수제 담배잎","tel":"","addr":"경기도 연천군 전곡읍 은대리 562-1번지 1층 3호","indutype":"음료식품 - 기타음료식품","category":"food"}]},{"lat":"38.05267452","long":"127.0784195","imageIndex":7,"items":[{"name":"사랑애굼비","tel":"","addr":"경기도 연천군 전곡읍 은대리 45-20번지","indutype":"음료식품 - 농·축·수산품","category":"food"}]},{"lat":"38.04964455","long":"127.0682539","imageIndex":7,"items":[{"name":"싱싱상회","tel":"031-832-3624","addr":"경기도 연천군 전곡읍 은대리 245-14번지","indutype":"음료식품 - 기타음료식품","category":"food"}]},{"lat":"38.02592599","long":"127.0637797","imageIndex":7,"items":[{"name":"어부민물","tel":"031-835-1484","addr":"경기도 연천군 전곡읍 은대리 575-3번지 2층","indutype":"음료식품 - 농·축·수산품","category":"food"}]},{"lat":"38.03047483","long":"127.06523","imageIndex":7,"items":[{"name":"연천온골생고기","tel":"031-832-6353","addr":"경기도 연천군 전곡읍 은대리 555동 15호","indutype":"음료식품 - 정육점","category":"food"}]},{"lat":"38.02323386","long":"127.0606114","imageIndex":7,"items":[{"name":"연천의료원 매점","tel":"031-111-1111","addr":"경기도 연천군 전곡읍 은대리 577-36번지","indutype":"음료식품 - 기타음료식품","category":"food"}]},{"lat":"38.03450899","long":"127.0687531","imageIndex":7,"items":[{"name":"전곡고등학교매점","tel":"031-832-1233","addr":"경기도 연천군 전곡읍 은대리 506-1번지 전곡고등학교","indutype":"음료식품 - 기타음료식품","category":"food"}]},{"lat":"38.02811393","long":"127.0661961","imageIndex":7,"items":[{"name":"한끼분식","tel":"031-833-2299","addr":"경기도 연천군 전곡읍 은대리 566번지","indutype":"음료식품 - 기타음료식품","category":"food"}]},{"lat":"38.0522571","long":"127.0684158","imageIndex":0,"items":[{"name":"그린1급자동차공업사","tel":"031-835-7870","addr":"경기도 연천군 전곡읍 은대리 407-6","indutype":"자동차정비 유지 - 자동차정비","category":"car"}]},{"lat":"38.03025855","long":"127.0653437","imageIndex":0,"items":[{"name":"두원모터스","tel":"031-832-7411","addr":"경기도 연천군 전곡읍 은대리 555-11번지","indutype":"자동차정비 유지 - 자동차정비","category":"car"},{"name":"하나지프","tel":"031-832-6862","addr":"경기도 연천군 전곡읍 은대리 555-11","indutype":"자동차정비 유지 - 자동차부품","category":"car"}]},{"lat":"38.02980799","long":"127.0655369","imageIndex":0,"items":[{"name":"일월세차장","tel":"031-833-5205","addr":"경기도 연천군 전곡읍 은대리 560-6번지","indutype":"자동차정비 유지 - 세차장","category":"car"}]},{"lat":"38.0250623","long":"127.0614442","imageIndex":0,"items":[{"name":"전곡24시셀프세차타운","tel":"031-833-3377","addr":"경기도 연천군 전곡읍 은대리 565-5번지","indutype":"자동차정비 유지 - 세차장","category":"car"}]},{"lat":"38.030177","long":"127.066232","imageIndex":13,"items":[{"name":"김정옥 심리 상담 연구소","tel":"031-835-8276","addr":"경기도 연천군 전곡읍 은대리 546-7번지","indutype":"보건위생 - 기타대인서비스","category":"beauty"}]},{"lat":"38.03084304","long":"127.0673944","imageIndex":13,"items":[{"name":"민지미용실","tel":"031-832-6412","addr":"경기도 연천군 전곡읍 은대리 540-5","indutype":"보건위생 - 미용원","category":"beauty"}]},{"lat":"38.02941971","long":"127.0671995","imageIndex":13,"items":[{"name":"박지영헤어샵","tel":"031-835-8752","addr":"경기도 연천군 전곡읍 은대리 543-2번지","indutype":"보건위생 - 미용원","category":"beauty"}]},{"lat":"38.03036829","long":"127.0622002","imageIndex":13,"items":[{"name":"이끌린","tel":"031-111-1111","addr":"경기도 연천군 전곡읍 은대리 640-12번지 1호","indutype":"보건위생 - 미용원","category":"beauty"},{"name":"차차네일(CHACHANAIL)","tel":"","addr":"경기도 연천군 전곡읍 은대리 640-12번지","indutype":"보건위생 - 피부미용실","category":"beauty"}]},{"lat":"38.02875323","long":"127.0668345","imageIndex":13,"items":[{"name":"참존","tel":"031-835-4450","addr":"경기도 연천군 전곡읍 은대리 544-14번지 대성빌딩 4층","indutype":"보건위생 - 화장품","category":"beauty"}]},{"lat":"38.02941971","long":"127.0671995","imageIndex":13,"items":[{"name":"삼영당구장","tel":"","addr":"경기도 연천군 전곡읍 은대리 543-2번지","indutype":"레저업소 - 당 구 장","category":"leisure"}]},{"lat":"38.02903254","long":"127.0667777","imageIndex":13,"items":[{"name":"중앙비디오","tel":"031-832-6430","addr":"경기도 연천군 전곡읍 은대리 543-11번지","indutype":"레저업소 - 기타레져업소","category":"leisure"}]},{"lat":"38.02975297","long":"127.0673365","imageIndex":13,"items":[{"name":"휴만화카페","tel":"031-1111-1111","addr":"경기도 연천군 전곡읍 은대리 541-14번지 2층","indutype":"레저업소 - 기타레져업소","category":"leisure"}]},{"lat":"38.02975297","long":"127.0673365","imageIndex":16,"items":[{"name":"영국보습학원","tel":"031-832-1569","addr":"경기도 연천군 전곡읍 은대리 541-14번지","indutype":"회원제형태 - 학원","category":"study"}]},{"lat":"38.02875323","long":"127.0668345","imageIndex":16,"items":[{"name":"용인대태권스쿨","tel":"031-832-0303","addr":"경기도 연천군 전곡읍 은대리 544-14번지 대성빌딩 3층","indutype":"학원 - 예·체능계학원","category":"study"}]},{"lat":"38.04925734","long":"127.0679232","imageIndex":9,"items":[{"name":"원에너지(주)호원주유소","tel":"031-875-0911","addr":"경기도 연천군 전곡읍 은대리 422-3번지","indutype":"연료판매점 - SK주유소","category":"oil"}]},{"lat":"38.03862041","long":"127.0783139","imageIndex":5,"items":[{"name":"한탄강 로하스로즈","tel":"","addr":"경기도 연천군 전곡읍 은대리 125-38번지 2동","indutype":"숙박업 - 여관/기타숙박업","category":"hotel"}]},{"lat":"38.03995408","long":"127.077814","imageIndex":5,"items":[{"name":"한탄강한가족","tel":"02-1111-1111","addr":"경기도 연천군 전곡읍 은대리 137-18번지","indutype":"숙박업 - 여관/기타숙박업","category":"hotel"}]},{"lat":"38.03011426","long":"127.0656169","imageIndex":8,"items":[{"name":"활기찬의원","tel":"031-833-0700","addr":"경기도 연천군 전곡읍 은대리 556-1번지 그린부페웨딩홀 205동 1402호","indutype":"의원 - 의원","category":"medical"},{"name":"활기찬의원","tel":"031-832-7118","addr":"경기도 연천군 전곡읍 은대리 556-1번지 그린부페웨딩홀 205동 1402호","indutype":"의원 - 의원","category":"medical"}]}]