[{"lat":"37.01110237","long":"127.08294944","imageIndex":17,"items":[{"name":"(주)동양잉크제2공장","tel":"031-659-9744","addr":"경기도 평택시 세교동 542번지","indutype":"사무통신 - 기타 사무용품","category":"other"}]},{"lat":"37.007465146","long":"127.07822675","imageIndex":17,"items":[{"name":"(주)플러스경영정보","tel":"031-523-3109","addr":"경기도 평택시 세교동 426-1번지 2층","indutype":"기타 - 기계공구","category":"other"},{"name":"하나유통","tel":"031-656-7811","addr":"경기도 평택시 세교동 426-1번지","indutype":"문화.취미 - 애완동물","category":"other"}]},{"lat":"37.000048562","long":"127.07945521","imageIndex":17,"items":[{"name":"(주)하나항공여행사","tel":"031-655-9600","addr":"경기도 평택시 세교동 561-14번지 1층","indutype":"여행 - 관광여행","category":"other"}]},{"lat":"37.005129999","long":"127.08037035","imageIndex":17,"items":[{"name":"GN스튜디오","tel":"031-618-2234","addr":"경기도 평택시 세교동 248-1번지","indutype":"서비스업 - 사진관","category":"other"},{"name":"GN스튜디오","tel":"031-681-7429","addr":"경기도 평택시 세교동 248-1번지","indutype":"광학제품 - 사진관","category":"other"}]},{"lat":"37.006826949","long":"127.08916933","imageIndex":17,"items":[{"name":"GS25세교현대점","tel":"","addr":"경기도 평택시 세교동 35번지 힐스테이트 2차 상가동 110호","indutype":"유통업 영리 - 편 의 점","category":"other"}]},{"lat":"37.00771809","long":"127.07720457","imageIndex":17,"items":[{"name":"GS25평택명품점","tel":"","addr":"경기도 평택시 세교동 432-78번지","indutype":"유통업 영리 - 편 의 점","category":"other"}]},{"lat":"37.003080939","long":"127.08574973","imageIndex":17,"items":[{"name":"JH영어수학학원","tel":"031-616-6119","addr":"경기도 평택시 세교동 555번지 부영아파트 301호","indutype":"서비스업 - 교육","category":"other"},{"name":"글로벌키즈태권도장","tel":"031-655-3151","addr":"경기도 평택시 세교동 555번지 부영아파트 상가 2동 203호","indutype":"서비스업 - 태권도장","category":"other"},{"name":"부영세탁소","tel":"031-657-6078","addr":"경기도 평택시 세교동 555번지 부영상가 108호","indutype":"수리서비스 - 세탁소","category":"other"},{"name":"부영해법수학교습소","tel":"","addr":"경기도 평택시 세교동 555번지 부영1차 상가 2동 3층","indutype":"서비스업 - 교육","category":"other"},{"name":"세교헬스","tel":"031-618-3428","addr":"경기도 평택시 세교동 555번지 부영1차 상가 3층","indutype":"회원제형태 - 레져업소","category":"other"},{"name":"오레시피 세교점","tel":"031-658-2001","addr":"경기도 평택시 세교동 555번지 부영상가 107호","indutype":"소매업 - 반찬","category":"other"},{"name":"웰빙홍삼","tel":"","addr":"경기도 평택시 세교동 555번지 부영아파트 상가 2동 201호","indutype":"소매업 - 홍삼","category":"other"}]},{"lat":"37.002906526","long":"127.0769752","imageIndex":17,"items":[{"name":"K크린","tel":"031-1600-4860","addr":"경기도 평택시 세교동 191-11번지 동원빌리지 403호","indutype":"용역 서비스 - 종합용역","category":"other"}]},{"lat":"37.011405593","long":"127.08747787","imageIndex":17,"items":[{"name":"LG.삼성에어컨 이전설치","tel":"","addr":"경기도 평택시 세교동 303-3번지 힐스테이트평택 102동 1201호","indutype":"수리서비스 - 기타수리서비스","category":"other"},{"name":"씨유세교힐스테이트점","tel":"080-080-3663","addr":"경기도 평택시 세교동 303-3번지 평택힐스테이트1차 상가 122동 107호","indutype":"유통업 영리 - 편 의 점","category":"other"},{"name":"풍년축산","tel":"031-652-3301","addr":"경기도 평택시 세교동 303-3번지 힐스테이트평택 1차상가 110호","indutype":"도소매업 - 정육","category":"other"}]},{"lat":"37.008243754","long":"127.07217157","imageIndex":17,"items":[{"name":"LG종합상사","tel":"031-618-1531","addr":"경기도 평택시 세교동 406-10번지 대원 상가 109호","indutype":"건축자재 - 보일러·펌프·샷시","category":"other"},{"name":"LK평택센타","tel":"031-655-6232","addr":"경기도 평택시 세교동 406-10번지","indutype":"기타 - 기계공구","category":"other"},{"name":"국제상사","tel":"031-657-8798","addr":"경기도 평택시 세교동 406-10번지 대원종합상사","indutype":"건축자재 - 기타건축자재","category":"other"},{"name":"남일벨트","tel":"031-651-4991","addr":"경기도 평택시 세교동 406-10번지 1층","indutype":"기타 - 기계공구","category":"other"},{"name":"선진용접","tel":"031-653-6692","addr":"경기도 평택시 세교동 406-10","indutype":"기타 - 기계공구","category":"other"},{"name":"세기냉동공조","tel":"031-652-8622","addr":"경기도 평택시 세교동 406-10번지","indutype":"전기제품 - 냉열기기","category":"other"},{"name":"쌍두정밀","tel":"031-657-3486","addr":"경기도 평택시 세교동 406-10번지","indutype":"기타 - 기계공구","category":"other"},{"name":"진영운반기계","tel":"031-653-0936","addr":"경기도 평택시 세교동 406-10번지","indutype":"기타 - 기계공구","category":"other"},{"name":"평택와이어로프산업","tel":"031-618-4218","addr":"경기도 평택시 세교동 406-10번지","indutype":"건축자재 - 기타건축자재","category":"other"},{"name":"플라워에스(Flower's)","tel":"070-8246-2578","addr":"경기도 평택시 세교동 406-10번지 대원상가 203호","indutype":"문화.취미 - 화원","category":"other"},{"name":"화인특장","tel":"031-655-7387","addr":"경기도 평택시 세교동 406-10번지","indutype":"기타 - 기계공구","category":"other"}]},{"lat":"37.000156965","long":"127.07902841","imageIndex":17,"items":[{"name":"W 휘트니스","tel":"031-5336-9234","addr":"경기도 평택시 세교동 568-3번지","indutype":"회원제형태 - 레져업소","category":"other"}]},{"lat":"37.000074347","long":"127.08136507","imageIndex":17,"items":[{"name":"가나종합장식","tel":"031-618-1916","addr":"경기도 평택시 세교동 562-5번지 가나인테리어","indutype":"직물 - 카페트,커튼,천막,지물","category":"other"},{"name":"금성전설","tel":"031-611-9400","addr":"경기도 평택시 세교동 562-5번지 2층","indutype":"용역 서비스 - 기타용역서비스","category":"other"},{"name":"동네정육점","tel":"031-653-1127","addr":"경기도 평택시 세교동 562-5번지","indutype":"소매업 - 정육","category":"other"}]},{"lat":"37.000606598","long":"127.08042193","imageIndex":17,"items":[{"name":"가원종합장식","tel":"031-652-7833","addr":"경기도 평택시 세교동 561-23번지","indutype":"건축자재 - 인테리어전문","category":"other"}]},{"lat":"37.004657691","long":"127.08591996","imageIndex":17,"items":[{"name":"간판114","tel":"031-652-7713","addr":"경기도 평택시 세교동 60 60-12","indutype":"용역 서비스 - 종합용역","category":"other"}]},{"lat":"37.001383509","long":"127.07731075","imageIndex":17,"items":[{"name":"강원닥트","tel":"031-658-6698","addr":"경기도 평택시 세교동 180-2번지","indutype":"건축자재 - 기타건축자재","category":"other"},{"name":"신신상사","tel":"031-658-6675","addr":"경기도 평택시 세교동 180-2번지","indutype":"건축자재 - 페인트","category":"other"}]},{"lat":"37.000498109","long":"127.0809723","imageIndex":17,"items":[{"name":"개나리세탁소","tel":"031-618-1200","addr":"경기도 평택시 세교동 562번지 1층","indutype":"수리서비스 - 세탁소","category":"other"},{"name":"글라스톡안경","tel":"031-653-8398","addr":"경기도 평택시 세교동 562번지","indutype":"소매업 - 안경","category":"other"}]},{"lat":"37.005536409","long":"127.07893266","imageIndex":17,"items":[{"name":"개인콜밴","tel":"031-654-8181","addr":"경기도 평택시 세교동 240-53번지 신아맨션 202동 301호","indutype":"여행 - 기타교통수단","category":"other"}]},{"lat":"37.006856142","long":"127.07211413","imageIndex":17,"items":[{"name":"거성종합상사","tel":"031-8094-4094","addr":"경기도 평택시 세교동 406-15번지","indutype":"기타 - 기계공구","category":"other"},{"name":"우리종합상사","tel":"031-652-3078","addr":"경기도 평택시 세교동 406-15번지 1층","indutype":"기타 - 기계공구","category":"other"}]},{"lat":"36.999048128","long":"127.07983617","imageIndex":17,"items":[{"name":"경기공구상사","tel":"031-657-9097","addr":"경기도 평택시 세교동 569-7번지","indutype":"기타 - 기계공구","category":"other"},{"name":"덕성빌딩","tel":"031-652-7133","addr":"경기도 평택시 세교동 569-7번지","indutype":"용역 서비스 - 부동산 중개·임대","category":"other"},{"name":"동양하이켐","tel":"031-652-8070","addr":"경기도 평택시 세교동 569-7번지","indutype":"서적문구 - 과학기자재","category":"other"},{"name":"동양하이켐/원격지","tel":"031-652-8070","addr":"경기도 평택시 세교동 569-7번지","indutype":"기타 - 기타 전문점","category":"other"},{"name":"평택중,고총동문회","tel":"031-653-4224","addr":"경기도 평택시 세교동 569-7번지 승은빌딩 3층 전체","indutype":"기타 - 비영리/대상","category":"other"}]},{"lat":"36.998939803","long":"127.08013938","imageIndex":17,"items":[{"name":"경기사임당 돌봄센터","tel":"031-652-7250","addr":"경기도 평택시 세교동 569-5번지 3층","indutype":"서비스업 - 산모도우미","category":"other"},{"name":"경기친정맘","tel":"050-7982-6465","addr":"경기도 평택시 세교동 569-5번지 3층","indutype":"서비스업 - 산모도우미","category":"other"}]},{"lat":"37.003132017","long":"127.0766159","imageIndex":17,"items":[{"name":"고려배관","tel":"031-651-0422","addr":"경기도 평택시 세교동 192 (1.2호)","indutype":"건축자재 - 보일러·펌프·샷시","category":"other"}]},{"lat":"36.99985058","long":"127.07906181","imageIndex":17,"items":[{"name":"고운하우징","tel":"031-652-6800","addr":"경기도 평택시 세교동 569-13번지","indutype":"직물 - 카페트,커튼,천막,지물","category":"other"}]},{"lat":"36.999326992","long":"127.08055544","imageIndex":17,"items":[{"name":"고은장식","tel":"031-652-7120","addr":"경기도 평택시 세교동 565-14번지","indutype":"직물 - 카페트,커튼,천막,지물","category":"other"},{"name":"준광고","tel":"031-657-5954","addr":"경기도 평택시 세교동 565-14번지","indutype":"용역 서비스 - 종합용역","category":"other"}]},{"lat":"37.001022699","long":"127.07791706","imageIndex":17,"items":[{"name":"공간기획","tel":"031-653-6115","addr":"경기도 평택시 세교동 180-6번지","indutype":"서적문구 - 출판 및 인쇄물","category":"other"},{"name":"공간기획","tel":"031-657-7703","addr":"경기도 평택시 세교동 180-6번지","indutype":"서비스업 - 인쇄, 판촉","category":"other"},{"name":"커버스토어","tel":"031-653-8661","addr":"경기도 평택시 세교동 180-6번지 한영빌딩 3층","indutype":"신변잡화 - 액세서리","category":"other"},{"name":"형제상사","tel":"031-653-6550","addr":"경기도 평택시 세교동 180-6번지","indutype":"소매업 - 페인트","category":"other"}]},{"lat":"37.000580769","long":"127.07855699","imageIndex":17,"items":[{"name":"구르미","tel":"031-681-2369","addr":"경기도 평택시 세교동 568번지 1층 103호","indutype":"의류 - 아동의류","category":"other"},{"name":"주식회사 삼영이노베이션","tel":"031-653-7658","addr":"경기도 평택시 세교동 568번지","indutype":"서적문구 - 과학기자재","category":"other"},{"name":"휴대폰 싸나이 (세교)","tel":"031-656-1030","addr":"경기도 평택시 세교동 568번지 101호","indutype":"사무통신 - 통신기기","category":"other"}]},{"lat":"37.00040809","long":"127.0808374","imageIndex":17,"items":[{"name":"그녀의속눈썹","tel":"031-655-7622","addr":"경기도 평택시 세교동 562-12번지 우측","indutype":"서비스업 - 피부,속눈썹","category":"other"},{"name":"나무잎새","tel":"031-658-9972","addr":"경기도 평택시 세교동 562-12번지","indutype":"의류 - 정장","category":"other"}]},{"lat":"37.001825152","long":"127.0771202","imageIndex":17,"items":[{"name":"그린공조","tel":"041-900-0768","addr":"경기도 평택시 세교동 187-2번지","indutype":"전기제품 - 냉열기기","category":"other"},{"name":"한성가스설비","tel":"031-658-3927","addr":"경기도 평택시 세교동 187-2","indutype":"용역 서비스 - 기타용역서비스","category":"other"}]},{"lat":"37.004361366","long":"127.08443662","imageIndex":17,"items":[{"name":"그린상회","tel":"031-618-4031","addr":"경기도 평택시 세교동 554번지 태영청솔아파트 107동 505호","indutype":"도매업 - 과일","category":"other"}]},{"lat":"37.011150719","long":"127.07790455","imageIndex":17,"items":[{"name":"금강개발컨설팅","tel":"031-691-8255","addr":"경기도 평택시 세교동 산69-6번지 매봉조합주택 B동 201호","indutype":"용역 서비스 - 사무서비스","category":"other"}]},{"lat":"37.008880474","long":"127.07719447","imageIndex":17,"items":[{"name":"금강차유리","tel":"031-651-6259","addr":"경기도 평택시 세교동 429-35번지 103호","indutype":"건축자재 - 유리","category":"other"},{"name":"지제역대명공인중개사무소","tel":"","addr":"경기도 평택시 세교동 429-35번지","indutype":"서비스업 - 부동산","category":"other"},{"name":"지제역대명공인중개사사무소","tel":"031-658-1600","addr":"경기도 평택시 세교동 429-35번지","indutype":"용역 서비스 - 부동산 중개·임대","category":"other"}]},{"lat":"37.011099485","long":"127.08711798","imageIndex":17,"items":[{"name":"금빛공인중개사사무소","tel":"031-618-9400","addr":"경기도 평택시 세교동 303-1번지 힐스테이트평택2차 상가 103호","indutype":"서비스업 - 부동산","category":"other"},{"name":"도매폰센터","tel":"031-691-1614","addr":"경기도 평택시 세교동 303-1번지 힐스테이트평택2차 상가 111호","indutype":"도소매업 - 전자기기","category":"other"},{"name":"에이스학원","tel":"031-692-0409","addr":"경기도 평택시 세교동 303-1번지 힐스테이트평택2차 상가 201호","indutype":"서비스업 - 교육","category":"other"},{"name":"여우손아트","tel":"031-655-5353","addr":"경기도 평택시 세교동 303-1번지 힐스테이트평택2차 211동 1102호","indutype":"소매업 - 공예품","category":"other"},{"name":"평택현대힐스공인중개사무소","tel":"031-657-1861","addr":"경기도 평택시 세교동 303-1번지 힐스테이트평택2차 상가 106호","indutype":"서비스업 - 부동산","category":"other"}]},{"lat":"36.999497774","long":"127.08119597","imageIndex":17,"items":[{"name":"금성열쇠","tel":"031-657-3030","addr":"경기도 평택시 세교동 565-2번지","indutype":"기타 - 기계공구","category":"other"},{"name":"짱진수입용품전문점","tel":"031-658-9581","addr":"경기도 평택시 세교동 565-2번지","indutype":"의류 - 기타의류","category":"other"}]},{"lat":"36.999246473","long":"127.07966786","imageIndex":17,"items":[{"name":"길희재 배드민턴샵","tel":"031-692-5570","addr":"경기도 평택시 세교동 569-8번지 1층 2호","indutype":"소매업 - 배드민턴용품","category":"other"},{"name":"길희재배드민턴샵","tel":"031-656-2401","addr":"경기도 평택시 세교동 569-8번지 1층 2호","indutype":"레져용품 - 스포츠·레져용품","category":"other"},{"name":"대가종합장식","tel":"031-654-3184","addr":"경기도 평택시 세교동 569-8,1층3","indutype":"직물 - 카페트,커튼,천막,지물","category":"other"}]},{"lat":"36.999524345","long":"127.08189252","imageIndex":17,"items":[{"name":"남부대리점","tel":"031-658-2536","addr":"경기도 평택시 세교동 563-1번지 1층","indutype":"사무통신 - 컴퓨터","category":"other"},{"name":"특수열쇠","tel":"031-618-1345","addr":"경기도 평택시 세교동 563-1번지","indutype":"기타 - 기계공구","category":"other"}]},{"lat":"36.999742024","long":"127.07972453","imageIndex":17,"items":[{"name":"뉴향촌옷수선","tel":"031-653-6139","addr":"경기도 평택시 세교동 567-11번지 1층","indutype":"수리서비스 - 세탁소","category":"other"},{"name":"엔젤노래연습장","tel":"031-665-2760","addr":"경기도 평택시 세교동 567-11번지","indutype":"서비스업 - 노래연습장","category":"other"}]},{"lat":"37.008493463","long":"127.07647502","imageIndex":17,"items":[{"name":"다온퍼니처(리바트가구)","tel":"031-656-7721","addr":"경기도 평택시 세교동 433-1번지","indutype":"도소매업 - 가구","category":"other"}]},{"lat":"37.009072723","long":"127.07219479","imageIndex":17,"items":[{"name":"다원산업개발주식회사","tel":"031-657-4966","addr":"경기도 평택시 세교동 406-7번지 103호","indutype":"건축자재 - 기타건축자재","category":"other"},{"name":"한양정비기기상사","tel":"031-654-1377","addr":"경기도 평택시 세교동 406-7번지","indutype":"기타 - 기계공구","category":"other"}]},{"lat":"37.011577737","long":"127.07211841","imageIndex":17,"items":[{"name":"다인갤러리","tel":"031-655-8111","addr":"경기도 평택시 세교동 406번지","indutype":"가구 - 일반가구","category":"other"}]},{"lat":"37.010099908","long":"127.0722519","imageIndex":17,"items":[{"name":"다흥공구","tel":"031-654-8809","addr":"경기도 평택시 세교동 406-30번지","indutype":"기타 - 기계공구","category":"other"},{"name":"다흥공구","tel":"031-8059-3575","addr":"경기도 평택시 세교동 406-30번지","indutype":"소매업 - 철물","category":"other"},{"name":"우리배관","tel":"031-653-3555","addr":"경기도 평택시 세교동 406-30번지","indutype":"건축자재 - 기타건축자재","category":"other"}]},{"lat":"37.003052193","long":"127.07453739","imageIndex":17,"items":[{"name":"대성쎌틱가스보일러","tel":"031-691-5594","addr":"경기도 평택시 세교동 206-1","indutype":"수리서비스 - 기타수리서비스","category":"other"}]},{"lat":"37.006162332","long":"127.07209103","imageIndex":17,"items":[{"name":"대원화공약품상사","tel":"031-658-3399","addr":"경기도 평택시 세교동 462-9번지","indutype":"서적문구 - 과학기자재","category":"other"},{"name":"평택서비스","tel":"031-618-7961","addr":"경기도 평택시 세교동 462-9번지","indutype":"전기제품 - 가전제품","category":"other"},{"name":"환풍기백화점","tel":"031-652-0235","addr":"경기도 평택시 세교동 462-9번지","indutype":"기타 - 기계공구","category":"other"}]},{"lat":"37.003465883","long":"127.08927788","imageIndex":17,"items":[{"name":"대한장애인인성협회","tel":"031-651-0690","addr":"경기도 평택시 세교동 87-3번지 3층 1호","indutype":"신변잡화 - 기타잡화","category":"other"}]},{"lat":"37.00382667","long":"127.08878395","imageIndex":17,"items":[{"name":"대한전기전업사","tel":"031-652-3500","addr":"경기도 평택시 세교동 27-4번지 2층","indutype":"건축자재 - 조명기구","category":"other"}]},{"lat":"37.00190709","long":"127.07576089","imageIndex":17,"items":[{"name":"대흥종합기계","tel":"031-656-1284","addr":"경기도 평택시 세교동 213-9번지","indutype":"기타 - 기계공구","category":"other"},{"name":"두산정밀기어","tel":"031-686-5781","addr":"경기도 평택시 세교동 213-9번지","indutype":"기타 - 기계공구","category":"other"},{"name":"명준기공","tel":"031-652-9677","addr":"경기도 평택시 세교동 213-9번지","indutype":"기타 - 기계공구","category":"other"},{"name":"세교정밀","tel":"031-657-3504","addr":"경기도 평택시 세교동 213-9번지","indutype":"기타 - 기계공구","category":"other"}]},{"lat":"37.014074588","long":"127.08486275","imageIndex":17,"items":[{"name":"동국철강","tel":"031-654-7777","addr":"경기도 평택시 세교동 537-11","indutype":"건축자재 - 기타건축자재","category":"other"}]},{"lat":"36.999435799","long":"127.07951077","imageIndex":17,"items":[{"name":"동양툴테크","tel":"031-656-0749","addr":"경기도 평택시 세교동 569-9번지","indutype":"도소매업 - 철물","category":"other"}]},{"lat":"36.998858795","long":"127.08000449","imageIndex":17,"items":[{"name":"동주산업","tel":"031-657-2376","addr":"경기도 평택시 세교동 569-6번지","indutype":"건축자재 - 기타건축자재","category":"other"},{"name":"캐드원","tel":"031-651-7722","addr":"경기도 평택시 세교동 569-6번지","indutype":"직물 - 카페트,커튼,천막,지물","category":"other"}]},{"lat":"37.007600485","long":"127.077946","imageIndex":17,"items":[{"name":"동호엘앤씨","tel":"031-651-1242","addr":"경기도 평택시 세교동 426번지","indutype":"서적문구 - 과학기자재","category":"other"},{"name":"동호엘앤씨/원격지","tel":"041-531-1246","addr":"경기도 평택시 세교동 426번지","indutype":"기타 - 기타 전문점","category":"other"},{"name":"스마트보안공사","tel":"031-611-7599","addr":"경기도 평택시 세교동 426번지","indutype":"건축자재 - 목재·석재·철물","category":"other"}]},{"lat":"37.017020803","long":"127.0852592","imageIndex":17,"items":[{"name":"두산토파스","tel":"031-656-9930","addr":"경기도 평택시 세교동 366-1번지","indutype":"가구 - 기타가구","category":"other"}]},{"lat":"37.006656704","long":"127.07414754","imageIndex":17,"items":[{"name":"디에스(DS)공조","tel":"031-657-0257","addr":"경기도 평택시 세교동 463-84번지","indutype":"건축자재 - 보일러·펌프·샷시","category":"other"}]},{"lat":"37.002439338","long":"127.07475028","imageIndex":17,"items":[{"name":"디에스플라텍","tel":"031-655-1243","addr":"경기도 평택시 세교동 220-6번지","indutype":"제조업 - 아크릴 외","category":"other"},{"name":"유앤아이","tel":"031-692-1651","addr":"경기도 평택시 세교동 220-6번지 1층 103호","indutype":"기타 - 기계공구","category":"other"}]},{"lat":"37.000435614","long":"127.08008472","imageIndex":17,"items":[{"name":"따르릉텔레콤","tel":"031-651-1194","addr":"경기도 평택시 세교동 561-20번지 1층","indutype":"사무통신 - 통신기기","category":"other"}]},{"lat":"37.003058269","long":"127.07924477","imageIndex":17,"items":[{"name":"롯데운송,평택Tilers","tel":"","addr":"경기도 평택시 세교동 185-19번지 대임연립 가동 202호","indutype":"건축자재 - 건축용 요업제품","category":"other"}]},{"lat":"37.006826979","long":"127.0756757","imageIndex":17,"items":[{"name":"리즈 아쿠아","tel":"070-3884-3677","addr":"경기도 평택시 세교동 432-28번지 지하","indutype":"문화.취미 - 수족관","category":"other"}]},{"lat":"37.000606377","long":"127.08075896","imageIndex":17,"items":[{"name":"리틀스완","tel":"031-618-0544","addr":"경기도 평택시 세교동 561-2번지 1층 우측상가","indutype":"소매업 - 아동복","category":"other"},{"name":"리틀스완","tel":"070-4245-2981","addr":"경기도 평택시 세교동 561-2번지 1층 우측 상가","indutype":"의류 - 정장","category":"other"}]},{"lat":"37.006486249","long":"127.07288903","imageIndex":17,"items":[{"name":"리퍼니처","tel":"031-618-3010","addr":"경기도 평택시 세교동 462-1번지 동성주택 가동 303호","indutype":"가구 - 일반가구","category":"other"}]},{"lat":"37.007631008","long":"127.07220472","imageIndex":17,"items":[{"name":"마코FA","tel":"031-8094-2113","addr":"경기도 평택시 세교동 406-12번지 1층 8호 일원상가","indutype":"전기제품 - 기타전기제품","category":"other"},{"name":"을지전기","tel":"031-651-0436","addr":"경기도 평택시 세교동 406-12번지","indutype":"건축자재 - 보일러·펌프·샷시","category":"other"},{"name":"주식회사 지엘바이오","tel":"031-655-1605","addr":"경기도 평택시 세교동 406-12번지 2층 202호","indutype":"농업 - 농기계","category":"other"},{"name":"지완종합상사","tel":"","addr":"경기도 평택시 세교동 406-12번지","indutype":"소매업 - 공구 및 포장자재","category":"other"},{"name":"진영콘베아링","tel":"031-658-6202","addr":"경기도 평택시 세교동 406-12번지","indutype":"기타 - 기계공구","category":"other"}]},{"lat":"37.000183585","long":"127.0796688","imageIndex":17,"items":[{"name":"마크","tel":"031-000-0000","addr":"경기도 평택시 세교동 561-16번지 B동 1층 2호","indutype":"의류 - 정장","category":"other"}]},{"lat":"37.004851569","long":"127.07897692","imageIndex":17,"items":[{"name":"맑은창호","tel":"031-656-6627","addr":"경기도 평택시 세교동 240번지","indutype":"용역 서비스 - 기타용역서비스","category":"other"},{"name":"맑은창호","tel":"","addr":"경기도 평택시 세교동 240번지","indutype":"건설업 - 창호공사","category":"other"}]},{"lat":"37.006576824","long":"127.07209141","imageIndex":17,"items":[{"name":"명품차유리","tel":"031-651-0483","addr":"경기도 평택시 세교동 406-33번지","indutype":"서비스업 - 차유리, 썬팅, 복원","category":"other"},{"name":"상기금속용접기","tel":"031-651-0483","addr":"경기도 평택시 세교동 406-33번지","indutype":"기타 - 기계공구","category":"other"},{"name":"상기금속용접기","tel":"031-658-4820","addr":"경기도 평택시 세교동 406-33번지","indutype":"소매업 - 용접기외 산업용품","category":"other"}]},{"lat":"37.00226747","long":"127.07583988","imageIndex":17,"items":[{"name":"미래기업","tel":"031-618-4077","addr":"경기도 평택시 세교동 199-2번지","indutype":"건축자재 - 보일러·펌프·샷시","category":"other"},{"name":"삼성인테리어필름","tel":"031-656-5404","addr":"경기도 평택시 세교동 199-2번지","indutype":"건축자재 - 인테리어전문","category":"other"},{"name":"서울세탁소","tel":"031-658-3983","addr":"경기도 평택시 세교동 199-2번지","indutype":"수리서비스 - 세탁소","category":"other"},{"name":"신안종합상사","tel":"031-658-4123","addr":"경기도 평택시 세교동 199-2번지","indutype":"의류 - 기타의류","category":"other"}]},{"lat":"37.00588024","long":"127.07667473","imageIndex":17,"items":[{"name":"미래종합수지","tel":"031-692-3458","addr":"경기도 평택시 세교동 231-14번지","indutype":"기타 - 기타 전문점","category":"other"}]},{"lat":"37.004497407","long":"127.08314475","imageIndex":17,"items":[{"name":"반찬사랑","tel":"031-653-8111","addr":"경기도 평택시 세교동 554번지 태영청솔아파트 상가동 105호","indutype":"소매업 - 반찬","category":"other"},{"name":"태영세탁소","tel":"031-651-8586","addr":"경기도 평택시 세교동 554번지 태영상가 107호","indutype":"서비스업 - 세탁소","category":"other"},{"name":"태영유통","tel":"031-652-8032","addr":"경기도 평택시 세교동 554번지 태영 상가 102호","indutype":"유통업 영리 - 기타유통업","category":"other"}]},{"lat":"37.014352833","long":"127.07244679","imageIndex":17,"items":[{"name":"백두종합상사","tel":"031-658-7029","addr":"경기도 평택시 세교동 387번지 201호","indutype":"기타 - 기계공구","category":"other"},{"name":"선영누수방수공사","tel":"031-655-4705","addr":"경기도 평택시 세교동 387번지 2층","indutype":"기타 - 기타 전문점","category":"other"},{"name":"세움휀스 엔지니어링","tel":"031-691-5055","addr":"경기도 평택시 세교동 387번지","indutype":"용역 서비스 - 기타용역서비스","category":"other"}]},{"lat":"36.99991351","long":"127.07928656","imageIndex":17,"items":[{"name":"백현건기","tel":"031-658-5595","addr":"경기도 평택시 세교동 569번지","indutype":"건축자재 - 기타건축자재","category":"other"}]},{"lat":"37.005551411","long":"127.06892217","imageIndex":17,"items":[{"name":"범양기업사","tel":"031-652-9936","addr":"경기도 평택시 세교동 491-5번지","indutype":"건축자재 - 기타건축자재","category":"other"}]},{"lat":"37.009329698","long":"127.09217209","imageIndex":17,"items":[{"name":"법무사김영주사무소","tel":"031-658-2100","addr":"경기도 평택시 세교동 9-12","indutype":"용역 서비스 - 법률회계서비스(개인)","category":"other"},{"name":"법무사양만규사무소","tel":"031-618-1050","addr":"경기도 평택시 세교동 9-12","indutype":"용역 서비스 - 법률회계서비스(개인)","category":"other"}]},{"lat":"37.000246587","long":"127.07978121","imageIndex":17,"items":[{"name":"베베퀸","tel":"","addr":"경기도 평택시 세교동 561-17번지","indutype":"신변잡화 - 기타잡화","category":"other"}]},{"lat":"37.003385839","long":"127.07412202","imageIndex":17,"items":[{"name":"벽돌쟁이","tel":"031-656-8816","addr":"경기도 평택시 세교동 222-13번지 1호","indutype":"건축자재 - 기타건축자재","category":"other"}]},{"lat":"37.009439689","long":"127.07630739","imageIndex":17,"items":[{"name":"보성아이엔에이","tel":"031-653-1330","addr":"경기도 평택시 세교동 434-4번지","indutype":"용역 서비스 - 종합용역","category":"other"},{"name":"연우테크","tel":"031-691-6566","addr":"경기도 평택시 세교동 434-4번지","indutype":"건축자재 - 목재·석재·철물","category":"other"},{"name":"위니아 서비스 평택점","tel":"070-4895-1576","addr":"경기도 평택시 세교동 434-4번지","indutype":"수리서비스 - 가정용품수리","category":"other"},{"name":"장수돌침대평택전시장","tel":"031-658-2585","addr":"경기도 평택시 세교동 434-4번지","indutype":"가구 - 일반가구","category":"other"}]},{"lat":"37.001329409","long":"127.07736687","imageIndex":17,"items":[{"name":"보쉬기계공구","tel":"031-653-0903","addr":"경기도 평택시 세교동 180-17번지","indutype":"기타 - 기계공구","category":"other"}]},{"lat":"37.003408138","long":"127.08161567","imageIndex":17,"items":[{"name":"본스튜디오","tel":"031-556-6491","addr":"경기도 평택시 세교동 557번지 부영원앙아파트 상가동 107호","indutype":"서비스업 - 사진관","category":"other"},{"name":"사랑가득찬","tel":"031-691-6006","addr":"경기도 평택시 세교동 557번지 부영2차 상가 101호","indutype":"제조업 - 반찬","category":"other"},{"name":"세탁의명가","tel":"031-652-4304","addr":"경기도 평택시 세교동 557번지 부영2차 상가 111호","indutype":"서비스업 - 세탁","category":"other"},{"name":"수지네떡방","tel":"031-656-4244","addr":"경기도 평택시 세교동 557번지 부영2차 상가 103호","indutype":"제조업 - 떡","category":"other"}]},{"lat":"37.00027304","long":"127.08066875","imageIndex":17,"items":[{"name":"브이플러스","tel":"031-657-8910","addr":"경기도 평택시 세교동 567번지 코너상가 1층","indutype":"신변잡화 - 기타잡화","category":"other"},{"name":"오렌지나무","tel":"070-4384-8295","addr":"경기도 평택시 세교동 567번지","indutype":"의류 - 정장","category":"other"}]},{"lat":"37.005407071","long":"127.06922539","imageIndex":17,"items":[{"name":"사계절꽃농원","tel":"031-662-2275","addr":"경기도 평택시 세교동 480-7번지","indutype":"문화.취미 - 화원","category":"other"}]},{"lat":"37.000164506","long":"127.08128653","imageIndex":17,"items":[{"name":"사계절종합인테리어","tel":"031-651-5437","addr":"경기도 평택시 세교동 562-4번지","indutype":"직물 - 카페트,커튼,천막,지물","category":"other"}]},{"lat":"37.007024112","long":"127.07745108","imageIndex":17,"items":[{"name":"새길공인중개사사무소","tel":"031-655-5201","addr":"경기도 평택시 세교동 234-6번지 엔젤하우스 101호","indutype":"용역 서비스 - 부동산 중개·임대","category":"other"}]},{"lat":"36.999047454","long":"127.08086971","imageIndex":17,"items":[{"name":"세교동우편취급소","tel":"031-658-1014","addr":"경기도 평택시 세교동 564-13번지","indutype":"용역 서비스 - 공공요금대행서비스/소","category":"other"}]},{"lat":"37.000795602","long":"127.08075915","imageIndex":17,"items":[{"name":"세교보석","tel":"031-658-9870","addr":"경기도 평택시 세교동 561번지","indutype":"신변잡화 - 시계","category":"other"}]},{"lat":"37.003133762","long":"127.07375103","imageIndex":17,"items":[{"name":"세교식물원","tel":"031-657-3229","addr":"경기도 평택시 세교동 222-2번지","indutype":"문화.취미 - 화원","category":"other"}]},{"lat":"37.003856124","long":"127.08536858","imageIndex":17,"items":[{"name":"세교어린이집","tel":"031-657-5133","addr":"경기도 평택시 세교동 555번지 부영아파트 503동 108호","indutype":"서비스업 - 교육","category":"other"}]},{"lat":"37.003661855","long":"127.0794476","imageIndex":17,"items":[{"name":"세교잉글리쉬무무학원","tel":"031-652-5592","addr":"경기도 평택시 세교동 185-12번지","indutype":"서비스업 - 교육","category":"other"}]},{"lat":"36.999407168","long":"127.08194857","imageIndex":17,"items":[{"name":"세교종합장식","tel":"031-618-0906","addr":"경기도 평택시 세교동 563-2번지","indutype":"직물 - 카페트,커튼,천막,지물","category":"other"},{"name":"세교휴대폰명가","tel":"031-653-8254","addr":"경기도 평택시 세교동 563-2번지","indutype":"사무통신 - 통신기기","category":"other"}]},{"lat":"37.006907855","long":"127.07603531","imageIndex":17,"items":[{"name":"세븐일레븐평택세교은실점","tel":"031-1577-0711","addr":"경기도 평택시 세교동 432-27번지 1층","indutype":"유통업 영리 - 편 의 점","category":"other"},{"name":"위드미 평택 한솔점","tel":"031-000-0000","addr":"경기도 평택시 세교동 432-27번지","indutype":"유통업 영리 - 편 의 점","category":"other"}]},{"lat":"37.002267896","long":"127.07514333","imageIndex":17,"items":[{"name":"세인전자","tel":"031-654-2694","addr":"경기도 평택시 세교동 213-3번지 2층","indutype":"수리서비스 - 가정용품수리","category":"other"},{"name":"우진공구","tel":"031-658-8509","addr":"경기도 평택시 세교동 213-3번지","indutype":"기타 - 기계공구","category":"other"}]},{"lat":"37.003941128","long":"127.07953776","imageIndex":17,"items":[{"name":"세탁마을","tel":"031-651-8003","addr":"경기도 평택시 세교동 147-6번지 1층","indutype":"수리서비스 - 세탁소","category":"other"},{"name":"세탁마을","tel":"031-656-9366","addr":"경기도 평택시 세교동 147-6번지","indutype":"서비스업 - 세탁소","category":"other"}]},{"lat":"37.002183454","long":"127.080446","imageIndex":17,"items":[{"name":"세탁하기좋은날","tel":"031-652-8032","addr":"경기도 평택시 세교동 558번지 우성 상가동 108호","indutype":"서비스업 - 세탁","category":"other"}]},{"lat":"36.99927278","long":"127.08078007","imageIndex":17,"items":[{"name":"신미 인테리어","tel":"031-666-6666","addr":"경기도 평택시 세교동 565-6번지","indutype":"건축자재 - 인테리어전문","category":"other"}]},{"lat":"37.0026644","long":"127.07508753","imageIndex":17,"items":[{"name":"신성투스","tel":"031-616-3787","addr":"경기도 평택시 세교동 215-1번지","indutype":"기타 - 기계공구","category":"other"}]},{"lat":"37.001519222","long":"127.07642336","imageIndex":17,"items":[{"name":"신흥고압","tel":"031-656-4061","addr":"경기도 평택시 세교동 524-34번지","indutype":"건축자재 - 기타건축자재","category":"other"}]},{"lat":"37.008797044","long":"127.08083473","imageIndex":17,"items":[{"name":"씨유평택세교공단점","tel":"031-898-6568","addr":"경기도 평택시 세교동 543번지","indutype":"유통업 영리 - 편 의 점","category":"other"}]},{"lat":"37.00471666","long":"127.07858356","imageIndex":17,"items":[{"name":"씨유평택세교사랑점","tel":"031-898-6566","addr":"경기도 평택시 세교동 238번지 101호","indutype":"유통업 영리 - 편 의 점","category":"other"},{"name":"크린업24 평택세교사랑점","tel":"","addr":"경기도 평택시 세교동 238번지","indutype":"수리서비스 - 세탁소","category":"other"}]},{"lat":"36.999327278","long":"127.08011731","imageIndex":17,"items":[{"name":"씨유평택세교우리점","tel":"031-689-4491","addr":"경기도 평택시 세교동 566-9번지","indutype":"유통업 영리 - 편 의 점","category":"other"}]},{"lat":"37.005607711","long":"127.08014613","imageIndex":17,"items":[{"name":"아이뜰어린이집","tel":"031-651-5578","addr":"경기도 평택시 세교동 247-3번지","indutype":"서비스업 - 교육","category":"other"}]},{"lat":"37.00079474","long":"127.08206235","imageIndex":17,"items":[{"name":"아이스께끼","tel":"031-658-7117","addr":"경기도 평택시 세교동 559번지 제상가동 1층 102호","indutype":"소매업 - 편의점","category":"other"}]},{"lat":"37.009547969","long":"127.07606031","imageIndex":17,"items":[{"name":"에이스침대 평택스퀘어점","tel":"031-618-3194","addr":"경기도 평택시 세교동 434-9번지","indutype":"가구 - 일반가구","category":"other"}]},{"lat":"37.010910999","long":"127.07202792","imageIndex":17,"items":[{"name":"엘지전자(주) 평택서비스센터","tel":"02-3777-1114","addr":"경기도 평택시 세교동 406-2번지 LGBESTSH오피스텔평택본점","indutype":"수리서비스 - 가정용품수리","category":"other"}]},{"lat":"37.010099445","long":"127.07303841","imageIndex":17,"items":[{"name":"연진종합만물","tel":"031-653-7261","addr":"경기도 평택시 세교동 442-14번지 1층","indutype":"레져용품 - 스포츠·레져용품","category":"other"},{"name":"플래그골프","tel":"031-658-4994","addr":"경기도 평택시 세교동 442-14번지 3층","indutype":"레져용품 - 스포츠·레져용품","category":"other"}]},{"lat":"37.004850233","long":"127.08103293","imageIndex":17,"items":[{"name":"영광 E.N.G","tel":"031-652-5406","addr":"경기도 평택시 세교동 258-1번지","indutype":"용역 서비스 - 기타용역서비스","category":"other"},{"name":"영광E.N.G","tel":"031-652-0045","addr":"경기도 평택시 세교동 258-1번지","indutype":"건설업 - 실내장식","category":"other"},{"name":"지인인테리어","tel":"031-691-6896","addr":"경기도 평택시 세교동 258-1번지","indutype":"건축자재 - 인테리어전문","category":"other"}]},{"lat":"37.007072379","long":"127.07214803","imageIndex":17,"items":[{"name":"영동철물","tel":"031-651-5325","addr":"경기도 평택시 세교동 406-14번지","indutype":"기타 - 기계공구","category":"other"},{"name":"영동철물","tel":"031-653-8200","addr":"경기도 평택시 세교동 406-14번지","indutype":"소매업 - 철물","category":"other"},{"name":"은성기업","tel":"031-653-2997","addr":"경기도 평택시 세교동 406-14번지","indutype":"기타 - 기계공구","category":"other"},{"name":"평택명판CNC가공","tel":"031-657-0774","addr":"경기도 평택시 세교동 406-14번지","indutype":"기타 - 기계공구","category":"other"}]},{"lat":"37.001212235","long":"127.07742293","imageIndex":17,"items":[{"name":"영진공구","tel":"031-658-0989","addr":"경기도 평택시 세교동 180-12번지","indutype":"기타 - 기계공구","category":"other"}]},{"lat":"37.001771778","long":"127.07600792","imageIndex":17,"items":[{"name":"영진상사","tel":"031-653-0782","addr":"경기도 평택시 세교동 212번지","indutype":"유통업 영리 - 기타유통업","category":"other"}]},{"lat":"37.009710417","long":"127.07564474","imageIndex":17,"items":[{"name":"예가인테리어","tel":"031-658-7447","addr":"경기도 평택시 세교동 434-3번지","indutype":"건축자재 - 인테리어전문","category":"other"}]},{"lat":"36.999381269","long":"127.0802297","imageIndex":17,"items":[{"name":"오반장인테리어","tel":"031-653-7234","addr":"경기도 평택시 세교동 566-8번지","indutype":"건축자재 - 인테리어전문","category":"other"}]},{"lat":"37.003745683","long":"127.07508855","imageIndex":17,"items":[{"name":"욕실마을","tel":"031-691-0164","addr":"경기도 평택시 세교동 109-44 중앙연립 312","indutype":"용역 서비스 - 기타용역서비스","category":"other"}]},{"lat":"37.001717234","long":"127.07678305","imageIndex":17,"items":[{"name":"월드무역","tel":"031-654-4813","addr":"경기도 평택시 세교동 196-1번지","indutype":"신변잡화 - 기타잡화","category":"other"},{"name":"제일종합연마센타","tel":"031-654-0945","addr":"경기도 평택시 세교동 196-1번지","indutype":"건축자재 - 기타건축자재","category":"other"},{"name":"헬로우미니쥬","tel":"031-658-0308","addr":"경기도 평택시 세교동 196-1번지","indutype":"서비스업 - 애견샵","category":"other"}]},{"lat":"37.008883335","long":"127.07247551","imageIndex":17,"items":[{"name":"유로건설공구평택점","tel":"031-665-0980","addr":"경기도 평택시 세교동 406-8번지","indutype":"기타 - 기계공구","category":"other"}]},{"lat":"37.00485386","long":"127.0753143","imageIndex":17,"items":[{"name":"주식회사 끼니","tel":"031-1567-3992","addr":"경기도 평택시 세교동 227-8번지","indutype":"건축자재 - 인테리어전문","category":"other"}]},{"lat":"37.010851182","long":"127.08128626","imageIndex":17,"items":[{"name":"주식회사 서우이엔지","tel":"031-654-0893","addr":"경기도 평택시 세교동 541-1번지","indutype":"가구 - 철제가구","category":"other"}]},{"lat":"37.006659183","long":"127.06988936","imageIndex":17,"items":[{"name":"주식회사 케이디","tel":"031-657-1995","addr":"경기도 평택시 세교동 481-5번지","indutype":"건축자재 - 인테리어전문","category":"other"}]},{"lat":"37.004355299","long":"127.08003251","imageIndex":17,"items":[{"name":"중앙냉동","tel":"031-652-5585","addr":"경기도 평택시 세교동 243-1번지","indutype":"용역 서비스 - 기타용역서비스","category":"other"}]},{"lat":"36.999715167","long":"127.07945488","imageIndex":17,"items":[{"name":"중앙당구장","tel":"031-653-9285","addr":"경기도 평택시 세교동 569-1번지","indutype":"서비스업 - 당구장","category":"other"}]},{"lat":"37.00124761","long":"127.07847901","imageIndex":17,"items":[{"name":"중앙문구","tel":"031-658-4820","addr":"경기도 평택시 세교동 182-4번지 1층","indutype":"서적문구 - 문구용품","category":"other"},{"name":"중앙문구","tel":"031-656-1389","addr":"경기도 평택시 세교동 182-4번지","indutype":"도소매업 - 문구","category":"other"}]},{"lat":"37.01782283","long":"127.0851477","imageIndex":17,"items":[{"name":"중앙종합중고","tel":"031-658-9982","addr":"경기도 평택시 세교동 368번지","indutype":"전기제품 - 냉열기기","category":"other"}]},{"lat":"37.00354832","long":"127.07363907","imageIndex":17,"items":[{"name":"진성콤프레샤","tel":"031-691-0673","addr":"경기도 평택시 세교동 222-3번지","indutype":"기타 - 기타 전문점","category":"other"},{"name":"평택모터펌프","tel":"031-618-8861","addr":"경기도 평택시 세교동 222-3번지","indutype":"건축자재 - 보일러·펌프·샷시","category":"other"}]},{"lat":"37.00238378","long":"127.07717691","imageIndex":17,"items":[{"name":"청우컴퓨터","tel":"031-691-1253","addr":"경기도 평택시 세교동 188-38번지","indutype":"수리서비스 - 사무·통신기기수리","category":"other"}]},{"lat":"37.000157138","long":"127.07875879","imageIndex":17,"items":[{"name":"충남철물","tel":"031-654-2949","addr":"경기도 평택시 세교동 568-5번지","indutype":"기타 - 기계공구","category":"other"},{"name":"충남철물","tel":"031-653-8097","addr":"경기도 평택시 세교동 568-5번지","indutype":"소매업 - 철물","category":"other"}]},{"lat":"37.003718376","long":"127.07553792","imageIndex":17,"items":[{"name":"캐리어수지센타","tel":"031-652-6141","addr":"경기도 평택시 세교동 225-3번지 은실연립 108호","indutype":"용역 서비스 - 기타용역서비스","category":"other"}]},{"lat":"37.004409034","long":"127.08053814","imageIndex":17,"items":[{"name":"컴퓨터 세상","tel":"","addr":"경기도 평택시 세교동 255번지","indutype":"서비스업 - 컴퓨터 수리","category":"other"},{"name":"컴퓨터세상","tel":"031-692-0388","addr":"경기도 평택시 세교동 255번지 1층 3,4,5호","indutype":"사무통신 - 컴퓨터","category":"other"},{"name":"해바라기 사진관","tel":"031-8015-1813","addr":"경기도 평택시 세교동 255번지 유청빌딩 1층 4호","indutype":"서비스업 - 사진관","category":"other"},{"name":"해바라기사진관","tel":"031-618-4766","addr":"경기도 평택시 세교동 255번지 1층 4호","indutype":"광학제품 - 사진관","category":"other"}]},{"lat":"37.000552607","long":"127.08030953","imageIndex":17,"items":[{"name":"크린토피아 평택세교점","tel":"031-651-9449","addr":"경기도 평택시 세교동 561-22번지","indutype":"수리서비스 - 세탁소","category":"other"}]},{"lat":"37.006827758","long":"127.07439488","imageIndex":17,"items":[{"name":"티엔비사이언스","tel":"031-658-4996","addr":"경기도 평택시 세교동 230-3번지 수림빌 1층","indutype":"기타 - 기타 전문점","category":"other"}]},{"lat":"37.001405985","long":"127.08425372","imageIndex":17,"items":[{"name":"평택공인중개사","tel":"031-657-9599","addr":"경기도 평택시 세교동 556-2번지 보성상가 104호","indutype":"서비스업 - 부동산","category":"other"}]},{"lat":"37.001491743","long":"127.07714234","imageIndex":17,"items":[{"name":"평택마대미싱","tel":"031-654-0442","addr":"경기도 평택시 세교동 187-4번지","indutype":"기타 - 기계공구","category":"other"}]},{"lat":"37.006576548","long":"127.07256329","imageIndex":17,"items":[{"name":"평택앵글","tel":"031-653-0067","addr":"경기도 평택시 세교동 462-13번지","indutype":"기타 - 기타 전문점","category":"other"}]},{"lat":"36.999634164","long":"127.07930875","imageIndex":17,"items":[{"name":"평택용접기","tel":"031-652-7078","addr":"경기도 평택시 세교동 569-10번지","indutype":"기타 - 기계공구","category":"other"},{"name":"평택포장상사","tel":"031-652-4840","addr":"경기도 평택시 세교동 569-10번지","indutype":"기타 - 기계공구","category":"other"}]},{"lat":"37.009658352","long":"127.07230768","imageIndex":17,"items":[{"name":"평택중앙라이온스클럽","tel":"031-658-2161","addr":"경기도 평택시 세교동 406-5번지","indutype":"기타 - 비영리/비대상","category":"other"}]},{"lat":"37.010691232","long":"127.07781421","imageIndex":17,"items":[{"name":"평택직배","tel":"031-658-8088","addr":"경기도 평택시 세교동 435-96번지 103호","indutype":"통신업 - 간행물","category":"other"}]},{"lat":"37.010132229","long":"127.09139776","imageIndex":17,"items":[{"name":"포유","tel":"031-692-7008","addr":"경기도 평택시 세교동 7-2번지 남부빌딩 201호","indutype":"회원제형태 - 기타4","category":"other"}]},{"lat":"36.999551764","long":"127.08130836","imageIndex":17,"items":[{"name":"핑크노래연습장","tel":"031-658-1644","addr":"경기도 평택시 세교동 565-1번지","indutype":"서비스업 - 노래연습장","category":"other"}]},{"lat":"37.009962888","long":"127.07536409","imageIndex":17,"items":[{"name":"한국","tel":"031-664-8873","addr":"경기도 평택시 세교동 435-49번지 신축상가 1층","indutype":"건축자재 - 유리","category":"other"}]},{"lat":"37.000326795","long":"127.08114065","imageIndex":17,"items":[{"name":"한일공사","tel":"031-651-4645","addr":"경기도 평택시 세교동 562-2번지","indutype":"건축자재 - 보일러·펌프·샷시","category":"other"}]},{"lat":"37.002853856","long":"127.07470573","imageIndex":17,"items":[{"name":"한일자동펌프","tel":"031-658-3925","addr":"경기도 평택시 세교동 217번지","indutype":"건축자재 - 보일러·펌프·샷시","category":"other"}]},{"lat":"37.002587686","long":"127.08233384","imageIndex":17,"items":[{"name":"해법서적","tel":"031-657-2725","addr":"경기도 평택시 세교동 557번지 부영원앙아파트 302동 102호","indutype":"서적문구 - 일반서적","category":"other"}]},{"lat":"37.000354569","long":"127.080006","imageIndex":17,"items":[{"name":"헤라(투)","tel":"031-658-6240","addr":"경기도 평택시 세교동 561-19번지","indutype":"의류 - 정장","category":"other"}]},{"lat":"37.002023737","long":"127.07655866","imageIndex":17,"items":[{"name":"헬로우미니쥬","tel":"031-8029-6035","addr":"경기도 평택시 세교동 197-1번지 6호","indutype":"문화.취미 - 애완동물","category":"other"}]},{"lat":"37.000354372","long":"127.08030933","imageIndex":17,"items":[{"name":"호연뷰티케어","tel":"031-656-8914","addr":"경기도 평택시 세교동 561-6번지","indutype":"회원제형태 - 기타1","category":"other"}]},{"lat":"37.005717578","long":"127.07742733","imageIndex":17,"items":[{"name":"화성프로파일","tel":"031-652-6647","addr":"경기도 평택시 세교동 237-13번지","indutype":"기타 - 기계공구","category":"other"}]},{"lat":"37.001879426","long":"127.07678321","imageIndex":0,"items":[{"name":"(주)평택카도크","tel":"031-653-7000","addr":"경기도 평택시 세교동 195-2번지","indutype":"자동차정비 유지 - 자동차정비","category":"car"},{"name":"전진석광택멀티샵","tel":"031-000-0000","addr":"경기도 평택시 세교동 195-2번지","indutype":"자동차정비 유지 - 세차장","category":"car"}]},{"lat":"37.009520296","long":"127.07709397","imageIndex":0,"items":[{"name":"(주)한성모터스","tel":"031-618-3900","addr":"경기도 평택시 세교동 429-2번지 외4필지 4호","indutype":"자동차판매 - 중고자동차판매","category":"car"},{"name":"노벨자동차매매상사","tel":"031-651-8808","addr":"경기도 평택시 세교동 429-2번지","indutype":"자동차판매 - 중고자동차판매","category":"car"},{"name":"코리아","tel":"031-656-6886","addr":"경기도 평택시 세교동 429-2번지 외4필지","indutype":"자동차판매 - 중고자동차판매","category":"car"}]},{"lat":"37.007329736","long":"127.07861986","imageIndex":0,"items":[{"name":"EDS 24시 셀프세차","tel":"031-657-3383","addr":"경기도 평택시 세교동 425","indutype":"자동차정비 유지 - 세차장","category":"car"},{"name":"공단자동차정비","tel":"031-654-8333","addr":"경기도 평택시 세교동 425번지","indutype":"서비스업 - 자동차정비","category":"car"},{"name":"공단자동차정비공업사","tel":"031-618-0544","addr":"경기도 평택시 세교동 425번지","indutype":"자동차정비 유지 - 자동차정비","category":"car"},{"name":"로케트밧데리","tel":"031-653-5503","addr":"경기도 평택시 세교동 425번지 1층","indutype":"자동차정비 유지 - 자동차부품","category":"car"}]},{"lat":"37.009881757","long":"127.07542019","imageIndex":0,"items":[{"name":"GT KOREA","tel":"031-658-6282","addr":"경기도 평택시 세교동 435-48번지","indutype":"자동차정비 유지 - 자동차부품","category":"car"}]},{"lat":"37.009934321","long":"127.07783594","imageIndex":0,"items":[{"name":"K모터스","tel":"031-618-1166","addr":"경기도 평택시 세교동 429-23번지","indutype":"자동차판매 - 중고자동차판매","category":"car"},{"name":"골드카자동차","tel":"031-656-0646","addr":"경기도 평택시 세교동 429-23번지 6호","indutype":"자동차판매 - 중고자동차판매","category":"car"},{"name":"인터넷자동차매매상사","tel":"031-618-2265","addr":"경기도 평택시 세교동 429-23번지 20호","indutype":"자동차판매 - 중고자동차판매","category":"car"},{"name":"클릭모터스","tel":"031-654-8989","addr":"경기도 평택시 세교동 429-23번지","indutype":"자동차판매 - 중고자동차판매","category":"car"}]},{"lat":"37.00252001","long":"127.0754469","imageIndex":0,"items":[{"name":"경성자동차공업사","tel":"031-652-8957","addr":"경기도 평택시 세교동 210-1번지","indutype":"자동차정비 유지 - 자동차정비","category":"car"},{"name":"세연자동차","tel":"031-618-8482","addr":"경기도 평택시 세교동 210-1번지","indutype":"자동차정비 유지 - 자동차정비","category":"car"}]},{"lat":"37.009910683","long":"127.07225173","imageIndex":0,"items":[{"name":"광남광택","tel":"031-618-0952","addr":"경기도 평택시 세교동 406-4번지","indutype":"자동차정비 유지 - 카인테리어","category":"car"},{"name":"광남상사","tel":"031-652-8278","addr":"경기도 평택시 세교동 406-4번지","indutype":"자동차정비 유지 - 자동차부품","category":"car"},{"name":"이화부품상사","tel":"031-655-2649","addr":"경기도 평택시 세교동 406-4번지","indutype":"자동차정비 유지 - 자동차부품","category":"car"}]},{"lat":"37.014352833","long":"127.07244679","imageIndex":0,"items":[{"name":"굳타이어할인매장","tel":"031-655-5251","addr":"경기도 평택시 세교동 387번지","indutype":"자동차정비 유지 - 자동차시트·타이어","category":"car"}]},{"lat":"37.009991937","long":"127.07198214","imageIndex":0,"items":[{"name":"답","tel":"","addr":"경기도 평택시 세교동 406-36번지 102호","indutype":"자동차정비 유지 - 윤활유 전문 판매","category":"car"},{"name":"상신라이닝상사","tel":"031-651-4865","addr":"경기도 평택시 세교동 406-36번지","indutype":"자동차정비 유지 - 자동차부품","category":"car"},{"name":"스팀세차의답","tel":"02-1111-1111","addr":"경기도 평택시 세교동 406-36번지 101호","indutype":"자동차정비 유지 - 세차장","category":"car"},{"name":"이화정비카센타","tel":"031-652-1915","addr":"경기도 평택시 세교동 406-36번지","indutype":"자동차정비 유지 - 자동차정비","category":"car"}]},{"lat":"37.009051811","long":"127.07698116","imageIndex":0,"items":[{"name":"동산자동차공업사","tel":"031-651-1104","addr":"경기도 평택시 세교동 429번지","indutype":"자동차정비 유지 - 자동차정비","category":"car"}]},{"lat":"37.001329409","long":"127.07736687","imageIndex":0,"items":[{"name":"동현오토텍","tel":"031-652-8984","addr":"경기도 평택시 세교동 180-17번지 1층","indutype":"자동차정비 유지 - 자동차시트·타이어","category":"car"}]},{"lat":"37.007681331","long":"127.07833932","imageIndex":0,"items":[{"name":"라이더스바이크","tel":"031-651-5282","addr":"경기도 평택시 세교동 426-1번지 1동 1층 1호","indutype":"자동차판매 - 이륜차판매","category":"car"},{"name":"이이디(EED) PRO","tel":"","addr":"경기도 평택시 세교동 426-1번지 1동 1층 2호","indutype":"자동차정비 유지 - 카인테리어","category":"car"}]},{"lat":"37.00965625","long":"127.07581323","imageIndex":0,"items":[{"name":"르노삼성자동차정비코너 세교점","tel":"031-658-3361","addr":"경기도 평택시 세교동 434-8번지","indutype":"자동차정비 유지 - 자동차정비","category":"car"}]},{"lat":"37.00771809","long":"127.07720457","imageIndex":0,"items":[{"name":"명품자동차공업사","tel":"","addr":"경기도 평택시 세교동 432-78번지","indutype":"서비스업 - 자동차정비","category":"car"},{"name":"명품자동차공업사","tel":"031-653-8200","addr":"경기도 평택시 세교동 432-78번지","indutype":"자동차정비 유지 - 자동차정비","category":"car"},{"name":"타이어샵","tel":"031-653-4200","addr":"경기도 평택시 세교동 432-78번지 A동","indutype":"자동차정비 유지 - 자동차시트·타이어","category":"car"}]},{"lat":"37.006576824","long":"127.07209141","imageIndex":0,"items":[{"name":"명품자동차유리","tel":"031-656-0865","addr":"경기도 평택시 세교동 406-33번지","indutype":"자동차정비 유지 - 자동차부품","category":"car"}]},{"lat":"36.998579229","long":"127.0803637","imageIndex":0,"items":[{"name":"모터랜드","tel":"031-618-0905","addr":"경기도 평택시 세교동 570번지","indutype":"자동차정비 유지 - 세차장","category":"car"},{"name":"오토소사이어티","tel":"","addr":"경기도 평택시 세교동 570번지","indutype":"자동차정비 유지 - 카인테리어","category":"car"},{"name":"현대지바트평택점","tel":"031-651-9878","addr":"경기도 평택시 세교동 570번지","indutype":"자동차정비 유지 - 카인테리어","category":"car"}]},{"lat":"37.002490712","long":"127.07906445","imageIndex":0,"items":[{"name":"밍광택","tel":"031-657-7560","addr":"경기도 평택시 세교동 185-21번지","indutype":"자동차정비 유지 - 카인테리어","category":"car"}]},{"lat":"37.009295309","long":"127.07664433","imageIndex":0,"items":[{"name":"블랙런평택점","tel":"031-656-2120","addr":"경기도 평택시 세교동 429-29번지 1층","indutype":"자동차정비 유지 - 자동차부품","category":"car"}]},{"lat":"37.003385839","long":"127.07412202","imageIndex":0,"items":[{"name":"삼성라지에다","tel":"031-653-7232","addr":"경기도 평택시 세교동 222-13번지","indutype":"자동차정비 유지 - 자동차부품","category":"car"}]},{"lat":"36.999634164","long":"127.07930875","imageIndex":0,"items":[{"name":"세덴자동차외형복원 평택세교점","tel":"031-651-0210","addr":"경기도 평택시 세교동 569-10번지","indutype":"자동차정비 유지 - 카인테리어","category":"car"}]},{"lat":"37.004549097","long":"127.08658271","imageIndex":0,"items":[{"name":"쌍용자동차용진정비센터","tel":"031-657-8845","addr":"경기도 평택시 세교동 60-6번지","indutype":"자동차정비 유지 - 자동차정비","category":"car"},{"name":"평택타이어총판","tel":"031-652-8007","addr":"경기도 평택시 세교동 60-6번지","indutype":"자동차정비 유지 - 자동차시트·타이어","category":"car"}]},{"lat":"37.009132977","long":"127.07686888","imageIndex":0,"items":[{"name":"썬팅집","tel":"070-8729-9998","addr":"경기도 평택시 세교동 429-4번지 외1필지","indutype":"자동차정비 유지 - 자동차부품","category":"car"}]},{"lat":"37.00354832","long":"127.07363907","imageIndex":0,"items":[{"name":"오토맨평택점","tel":"031-654-6188","addr":"경기도 평택시 세교동 222-3번지","indutype":"자동차정비 유지 - 자동차부품","category":"car"}]},{"lat":"37.003935927","long":"127.07339226","imageIndex":0,"items":[{"name":"오토바디","tel":"031-656-1077","addr":"경기도 평택시 세교동 223-1번지","indutype":"자동차정비 유지 - 카인테리어","category":"car"}]},{"lat":"37.006663719","long":"127.09058479","imageIndex":0,"items":[{"name":"오토오아시스 세교점","tel":"031-692-0066","addr":"경기도 평택시 세교동 20번지","indutype":"자동차정비 유지 - 자동차부품","category":"car"}]},{"lat":"37.005663025","long":"127.0782025","imageIndex":0,"items":[{"name":"워시존","tel":"031-656-8761","addr":"경기도 평택시 세교동 237-3번지","indutype":"자동차정비 유지 - 세차장","category":"car"},{"name":"카딕션","tel":"","addr":"경기도 평택시 세교동 237-3번지","indutype":"자동차정비 유지 - 카인테리어","category":"car"}]},{"lat":"37.001022699","long":"127.07791706","imageIndex":0,"items":[{"name":"윤성모터스","tel":"031-658-3550","addr":"경기도 평택시 세교동 180-6번지","indutype":"서비스업 - 자동차정비","category":"car"},{"name":"윤성모터스","tel":"031-653-6550","addr":"경기도 평택시 세교동 180-6번지","indutype":"자동차정비 유지 - 자동차정비","category":"car"}]},{"lat":"37.004580134","long":"127.0806956","imageIndex":0,"items":[{"name":"이차자동차정비공업사","tel":"031-653-2144","addr":"경기도 평택시 세교동 256번지","indutype":"서비스업 - 자동차정비","category":"car"},{"name":"이차자동차정비공업사","tel":"031-654-8333","addr":"경기도 평택시 세교동 256번지","indutype":"자동차정비 유지 - 자동차정비","category":"car"}]},{"lat":"37.005826173","long":"127.08997713","imageIndex":0,"items":[{"name":"장인정신","tel":"031-658-6142","addr":"경기도 평택시 세교동 33-2번지","indutype":"자동차정비 유지 - 자동차정비","category":"car"}]},{"lat":"37.01054929","long":"127.07419612","imageIndex":0,"items":[{"name":"정오토서비스","tel":"031-656-2540","addr":"경기도 평택시 세교동 443-27번지","indutype":"자동차정비 유지 - 자동차부품","category":"car"}]},{"lat":"37.0079909","long":"127.07311512","imageIndex":0,"items":[{"name":"주식회사 세교공업사","tel":"031-656-0331","addr":"경기도 평택시 세교동 449-1번지","indutype":"자동차정비 유지 - 자동차정비","category":"car"},{"name":"주식회사세교공업사","tel":"031-656-0331","addr":"경기도 평택시 세교동 449-1번지","indutype":"자동차정비 유지 - 자동차정비","category":"car"}]},{"lat":"37.004106599","long":"127.08795288","imageIndex":0,"items":[{"name":"주식회사한국리멘모터스","tel":"031-655-3967","addr":"경기도 평택시 세교동 27-7번지 2층","indutype":"자동차정비 유지 - 자동차부품","category":"car"},{"name":"한일모터스","tel":"031-655-3967","addr":"경기도 평택시 세교동 27-7번지","indutype":"자동차정비 유지 - 자동차정비","category":"car"}]},{"lat":"37.008661972","long":"127.08069976","imageIndex":0,"items":[{"name":"황금지게차","tel":"","addr":"경기도 평택시 세교동 543-12번지 204호","indutype":"자동차판매 - 기타운송","category":"car"}]},{"lat":"37.003385839","long":"127.07412202","imageIndex":7,"items":[{"name":"25시 신 가락시장 도매유통마트","tel":"070-9866-6992","addr":"경기도 평택시 세교동 222-13번지","indutype":"유통업 영리 - 슈퍼마켓","category":"mart"}]},{"lat":"37.008661972","long":"127.08069976","imageIndex":7,"items":[{"name":"공단마트","tel":"031-655-5300","addr":"경기도 평택시 세교동 543-12번지","indutype":"유통업 영리 - 슈퍼마켓","category":"mart"}]},{"lat":"37.008797044","long":"127.08083473","imageIndex":7,"items":[{"name":"만물마-트","tel":"031-618-0349","addr":"경기도 평택시 세교동 543번지","indutype":"유통업 영리 - 슈퍼마켓","category":"mart"}]},{"lat":"37.003080939","long":"127.08574973","imageIndex":7,"items":[{"name":"부영공판장","tel":"031-657-3391","addr":"경기도 평택시 세교동 555번지 상가지하101호","indutype":"소매업 - 슈퍼","category":"mart"},{"name":"부영공판장","tel":"031-657-8294","addr":"경기도 평택시 세교동 555번지 부영1상가 지하층 101호","indutype":"유통업 영리 - 슈퍼마켓","category":"mart"},{"name":"부영그린유통","tel":"031-657-6533","addr":"경기도 평택시 세교동 555번지 부영아파트 114,115호","indutype":"유통업 영리 - 슈퍼마켓","category":"mart"},{"name":"엄마랑마트","tel":"031-654-2688","addr":"경기도 평택시 세교동 555번지 부영 상가 2동 1층 108호","indutype":"소매업 - 슈퍼","category":"mart"}]},{"lat":"37.00263624","long":"127.07691876","imageIndex":7,"items":[{"name":"성도마트","tel":"031-655-1067","addr":"경기도 평택시 세교동 191-10번지","indutype":"유통업 영리 - 슈퍼마켓","category":"mart"}]},{"lat":"37.001185118","long":"127.07755772","imageIndex":7,"items":[{"name":"세교상회","tel":"031-656-7366","addr":"경기도 평택시 세교동 180-11번지 세교상회","indutype":"유통업 영리 - 슈퍼마켓","category":"mart"}]},{"lat":"37.00040809","long":"127.0808374","imageIndex":7,"items":[{"name":"아이지에이마트","tel":"031-653-9766","addr":"경기도 평택시 세교동 562-12번지","indutype":"유통업 영리 - 슈퍼마켓","category":"mart"}]},{"lat":"37.004187377","long":"127.0748081","imageIndex":7,"items":[{"name":"은실슈퍼","tel":"031-652-1261","addr":"경기도 평택시 세교동 산115-1번지","indutype":"유통업 영리 - 슈퍼마켓","category":"mart"}]},{"lat":"37.00379716","long":"127.07922304","imageIndex":7,"items":[{"name":"평택두레생협 평택점","tel":"031-653-7512","addr":"경기도 평택시 세교동 185-65번지","indutype":"도소매업 - 슈퍼","category":"mart"},{"name":"평택두레소비자생활협동조합 평택점","tel":"031-665-2760","addr":"경기도 평택시 세교동 185-65번지","indutype":"유통업 영리 - 슈퍼마켓","category":"mart"}]},{"lat":"37.003995033","long":"127.07978498","imageIndex":7,"items":[{"name":"하나로마트(평택농협 세교지점)","tel":"","addr":"경기도 평택시 세교동 146-23번지","indutype":"소매업 - 슈퍼","category":"mart"}]},{"lat":"37.004409034","long":"127.08053814","imageIndex":4,"items":[{"name":"59쌀피자 세교점","tel":"031-655-3359","addr":"경기도 평택시 세교동 255번지 1층","indutype":"일반휴게음식 - 서양음식","category":"restaurant"}]},{"lat":"36.999940368","long":"127.07955621","imageIndex":4,"items":[{"name":"B.H.C세교점","tel":"031-656-9266","addr":"경기도 평택시 세교동 561-13번지","indutype":"일반휴게음식 - 스넥","category":"restaurant"},{"name":"캐럿1975","tel":"02-1111-1111","addr":"경기도 평택시 세교동 561-13번지 1층","indutype":"일반휴게음식 - 서양음식","category":"restaurant"}]},{"lat":"37.000048045","long":"127.08025285","imageIndex":4,"items":[{"name":"BBQ세교점","tel":"031-657-8295","addr":"경기도 평택시 세교동 567-16번지","indutype":"일반휴게음식 - 일반한식","category":"restaurant"}]},{"lat":"37.003408138","long":"127.08161567","imageIndex":4,"items":[{"name":"CAFE TOSPIA","tel":"031-658-9585","addr":"경기도 평택시 세교동 557번지 부영원앙아파트 105호","indutype":"일반휴게음식 - 서양음식","category":"restaurant"},{"name":"김밥마당","tel":"031-655-2221","addr":"경기도 평택시 세교동 557번지 부영2차 상가 104호","indutype":"일반휴게음식 - 일반한식","category":"restaurant"},{"name":"토스피아","tel":"031-658-5430","addr":"경기도 평택시 세교동 557번지 부영2차 상가 105호","indutype":"음식점 - 커피","category":"restaurant"}]},{"lat":"37.002183454","long":"127.080446","imageIndex":4,"items":[{"name":"가나다떡볶이","tel":"","addr":"경기도 평택시 세교동 558번지 우성꿈그린아파트","indutype":"음식점 - 분식","category":"restaurant"}]},{"lat":"37.000164654","long":"127.08106184","imageIndex":4,"items":[{"name":"가르텐비어(세교점)","tel":"031-655-5591","addr":"경기도 평택시 세교동 562-9번지 1층","indutype":"일반휴게음식 - 주점","category":"restaurant"}]},{"lat":"37.004742363","long":"127.08063959","imageIndex":4,"items":[{"name":"강쇠장어","tel":"031-665-5065","addr":"경기도 평택시 세교동 258번지","indutype":"음식점 - 한식","category":"restaurant"},{"name":"강쇠장어","tel":"031-655-5508","addr":"경기도 평택시 세교동 258번지","indutype":"일반휴게음식 - 일식·회집","category":"restaurant"}]},{"lat":"36.999327278","long":"127.08011731","imageIndex":4,"items":[{"name":"갯벌","tel":"","addr":"경기도 평택시 세교동 566-9번지 전체","indutype":"일반휴게음식 - 일반한식","category":"restaurant"},{"name":"알콜주유소","tel":"031-658-8837","addr":"경기도 평택시 세교동 566-9번지","indutype":"일반휴게음식 - 일반한식","category":"restaurant"}]},{"lat":"36.999272979","long":"127.08047675","imageIndex":4,"items":[{"name":"고기좋은집","tel":"031-654-9292","addr":"경기도 평택시 세교동 565-13번지","indutype":"음식점 - 한식","category":"restaurant"}]},{"lat":"36.999912517","long":"127.08081443","imageIndex":4,"items":[{"name":"골드","tel":"031-666-6666","addr":"경기도 평택시 세교동 566-17번지 지하1층","indutype":"일반휴게음식 - 일반한식","category":"restaurant"},{"name":"북경양꼬치","tel":"031-652-5276","addr":"경기도 평택시 세교동 566-17번지 1층","indutype":"일반휴게음식 - 일반한식","category":"restaurant"}]},{"lat":"36.999551764","long":"127.08130836","imageIndex":4,"items":[{"name":"구룡포","tel":"031-651-5599","addr":"경기도 평택시 세교동 565-1번지","indutype":"일반휴게음식 - 일반한식","category":"restaurant"}]},{"lat":"36.998939803","long":"127.08013938","imageIndex":4,"items":[{"name":"구석탱이연탄집","tel":"031-653-9199","addr":"경기도 평택시 세교동 569-5번지","indutype":"음식점 - 한식","category":"restaurant"},{"name":"구석탱이연탄집","tel":"031-658-0770","addr":"경기도 평택시 세교동 569-5번지 1층","indutype":"일반휴게음식 - 일반한식","category":"restaurant"},{"name":"김길자한우육개장","tel":"031-652-5492","addr":"경기도 평택시 세교동 569-5번지","indutype":"일반휴게음식 - 일반한식","category":"restaurant"}]},{"lat":"36.999380761","long":"127.08100487","imageIndex":4,"items":[{"name":"구이구이 생고기마을","tel":"031-692-2737","addr":"경기도 평택시 세교동 565-4번지 1층","indutype":"일반휴게음식 - 일반한식","category":"restaurant"},{"name":"구이구이생고기마을","tel":"031-658-1122","addr":"경기도 평택시 세교동 565-4번지","indutype":"음식점 - 한식","category":"restaurant"}]},{"lat":"37.00829715","long":"127.0733064","imageIndex":4,"items":[{"name":"국수와분식","tel":"031-654-5529","addr":"경기도 평택시 세교동 439-14번지","indutype":"일반휴게음식 - 일반한식","category":"restaurant"},{"name":"맛있는죽앤비빔밥","tel":"031-656-8266","addr":"경기도 평택시 세교동 439-14번지 1층","indutype":"일반휴게음식 - 일반한식","category":"restaurant"}]},{"lat":"36.999191462","long":"127.08111701","imageIndex":4,"items":[{"name":"긴고개","tel":"031-651-8828","addr":"경기도 평택시 세교동 564-15번지","indutype":"일반휴게음식 - 일반한식","category":"restaurant"},{"name":"우렁쌈밥","tel":"031-658-0221","addr":"경기도 평택시 세교동 564-15번지","indutype":"음식점 - 한식","category":"restaurant"}]},{"lat":"37.010132229","long":"127.09139776","imageIndex":4,"items":[{"name":"길가에있는 카페","tel":"031-691-4066","addr":"경기도 평택시 세교동 7-2번지 남부빌딩 1층","indutype":"일반휴게음식 - 서양음식","category":"restaurant"},{"name":"청춘연가(평택세교점)","tel":"031-691-4066","addr":"경기도 평택시 세교동 7-2번지 남부빌딩 1층","indutype":"일반휴게음식 - 일반한식","category":"restaurant"},{"name":"할매추어탕","tel":"031-656-8400","addr":"경기도 평택시 세교동 7-2번지","indutype":"일반휴게음식 - 일반한식","category":"restaurant"}]},{"lat":"37.00068914","long":"127.07817513","imageIndex":4,"items":[{"name":"김밥천국","tel":"031-655-2910","addr":"경기도 평택시 세교동 179-1번지","indutype":"일반휴게음식 - 스넥","category":"restaurant"}]},{"lat":"37.004574197","long":"127.08927913","imageIndex":4,"items":[{"name":"깡통시장","tel":"031-653-8892","addr":"경기도 평택시 세교동 27-2번지","indutype":"일반휴게음식 - 일반한식","category":"restaurant"}]},{"lat":"36.999795819","long":"127.08014025","imageIndex":4,"items":[{"name":"꼬기야","tel":"031-618-6564","addr":"경기도 평택시 세교동 567-7번지","indutype":"일반휴게음식 - 일반한식","category":"restaurant"},{"name":"꼬기야","tel":"031-652-2756","addr":"경기도 평택시 세교동 567-7번지","indutype":"음식점 - 한식","category":"restaurant"}]},{"lat":"36.999525513","long":"127.08011751","imageIndex":4,"items":[{"name":"꼬챙이세교점","tel":"031-657-8173","addr":"경기도 평택시 세교동 566-11번지 상가 1층","indutype":"일반휴게음식 - 일반한식","category":"restaurant"}]},{"lat":"37.000741611","long":"127.08064676","imageIndex":4,"items":[{"name":"꽃꼬마김밥","tel":"031-653-0291","addr":"경기도 평택시 세교동 561-25번지","indutype":"음식점 - 한식","category":"restaurant"},{"name":"꽃꼬마김밥","tel":"031-657-3391","addr":"경기도 평택시 세교동 561-25번지","indutype":"일반휴게음식 - 일반한식","category":"restaurant"},{"name":"돈도바","tel":"","addr":"경기도 평택시 세교동 561-25번지","indutype":"음식점 - 일반","category":"restaurant"},{"name":"천하제일 닭","tel":"031-651-9889","addr":"경기도 평택시 세교동 561-25번지","indutype":"음식점 - 치킨","category":"restaurant"},{"name":"천하제일닭","tel":"031-616-3306","addr":"경기도 평택시 세교동 561-25번지","indutype":"일반휴게음식 - 스넥","category":"restaurant"}]},{"lat":"37.000156041","long":"127.08045518","imageIndex":4,"items":[{"name":"꾸러기","tel":"031-618-9270","addr":"경기도 평택시 세교동 567-18번지","indutype":"일반휴게음식 - 일반한식","category":"restaurant"}]},{"lat":"36.999796016","long":"127.07983692","imageIndex":4,"items":[{"name":"남도밥상","tel":"031-654-4574","addr":"경기도 평택시 세교동 567-12번지","indutype":"일반휴게음식 - 일반한식","category":"restaurant"},{"name":"남도밥상","tel":"","addr":"경기도 평택시 세교동 567-12번지 1층","indutype":"음식점 - 한식","category":"restaurant"}]},{"lat":"36.99927278","long":"127.08078007","imageIndex":4,"items":[{"name":"네네치킨(세교점)","tel":"031-653-9985","addr":"경기도 평택시 세교동 565-6번지 1층 네네치킨","indutype":"일반휴게음식 - 스넥","category":"restaurant"},{"name":"네네치킨(세교점)","tel":"031-681-7429","addr":"경기도 평택시 세교동 565-6번지","indutype":"음식점 - 치킨","category":"restaurant"}]},{"lat":"37.000435395","long":"127.08042176","imageIndex":4,"items":[{"name":"노을담집","tel":"031-653-7877","addr":"경기도 평택시 세교동 561-5번지 1층","indutype":"일반휴게음식 - 일반한식","category":"restaurant"}]},{"lat":"37.003080939","long":"127.08574973","imageIndex":4,"items":[{"name":"늘처음처럼","tel":"031-618-1163","addr":"경기도 평택시 세교동 555번지 부영아파트","indutype":"일반휴게음식 - 주점","category":"restaurant"},{"name":"봉이닭발","tel":"031-655-3315","addr":"경기도 평택시 세교동 555번지 부영아파트 후문상가 110호","indutype":"음식점 - 한식","category":"restaurant"},{"name":"신마포나루","tel":"031-651-7778","addr":"경기도 평택시 세교동 555번지 부영 상가 2동 107호","indutype":"일반휴게음식 - 일반한식","category":"restaurant"},{"name":"신마포나루","tel":"031-653-5688","addr":"경기도 평택시 세교동 555번지 부영아파트 상가 2동 107호","indutype":"음식점 - 한식","category":"restaurant"},{"name":"신통치킨","tel":"031-658-9641","addr":"경기도 평택시 세교동 555번지 부영아파트 114호","indutype":"음식점 - 치킨","category":"restaurant"},{"name":"웰타운","tel":"031-653-5612","addr":"경기도 평택시 세교동 555번지 부영1차 상가","indutype":"음식점 - 치킨","category":"restaurant"},{"name":"파리바게뜨평택부영점","tel":"031-652-3100","addr":"경기도 평택시 세교동 555번지 부영아파트 상가 2동 101호","indutype":"음식점 - 제과점","category":"restaurant"},{"name":"한우세상","tel":"","addr":"경기도 평택시 세교동 555번지 부영아파트 상가 2동 102호","indutype":"음식점 - 한식","category":"restaurant"}]},{"lat":"36.999327474","long":"127.07981398","imageIndex":4,"items":[{"name":"다빈치","tel":"031-000-0000","addr":"경기도 평택시 세교동 569-3번지 1층 4호","indutype":"일반휴게음식 - 주점","category":"restaurant"},{"name":"마포구이한판","tel":"031-653-1037","addr":"경기도 평택시 세교동 569-3번지","indutype":"일반휴게음식 - 일반한식","category":"restaurant"}]},{"lat":"36.99999334","long":"127.08123018","imageIndex":4,"items":[{"name":"달구지","tel":"031-651-8254","addr":"경기도 평택시 세교동 562-7번지","indutype":"음식점 - 한식","category":"restaurant"},{"name":"달구지","tel":"031-618-5627","addr":"경기도 평택시 세교동 562-7번지","indutype":"일반휴게음식 - 일반한식","category":"restaurant"},{"name":"이심전심","tel":"031-651-8896","addr":"경기도 평택시 세교동 562-7번지 1층","indutype":"일반휴게음식 - 일반한식","category":"restaurant"}]},{"lat":"36.999074744","long":"127.08047655","imageIndex":4,"items":[{"name":"달그리고","tel":"031-656-6496","addr":"경기도 평택시 세교동 565-9번지","indutype":"일반휴게음식 - 일반한식","category":"restaurant"},{"name":"달그리고","tel":"031-651-8523","addr":"경기도 평택시 세교동 565-9번지","indutype":"음식점 - 일반","category":"restaurant"}]},{"lat":"37.000101837","long":"127.08066857","imageIndex":4,"items":[{"name":"대구생막창","tel":"031-658-5777","addr":"경기도 평택시 세교동 567-2번지","indutype":"음식점 - 한식","category":"restaurant"},{"name":"대구생막창","tel":"031-656-9299","addr":"경기도 평택시 세교동 567-2번지","indutype":"일반휴게음식 - 일반한식","category":"restaurant"}]},{"lat":"37.000245787","long":"127.08100575","imageIndex":4,"items":[{"name":"대왕탕","tel":"031-658-4240","addr":"경기도 평택시 세교동 562-10번지","indutype":"음식점 - 한식","category":"restaurant"},{"name":"대왕탕","tel":"031-667-8634","addr":"경기도 평택시 세교동 562-10번지 1층 전부","indutype":"일반휴게음식 - 일반한식","category":"restaurant"}]},{"lat":"36.999128734","long":"127.08058894","imageIndex":4,"items":[{"name":"덕성아구탕","tel":"031-657-1770","addr":"경기도 평택시 세교동 565-8번지","indutype":"일반휴게음식 - 일반한식","category":"restaurant"},{"name":"빛고을","tel":"031-658-0770","addr":"경기도 평택시 세교동 565-8번지","indutype":"음식점 - 한식","category":"restaurant"},{"name":"빛고을","tel":"031-658-0221","addr":"경기도 평택시 세교동 565-8번지","indutype":"일반휴게음식 - 일반한식","category":"restaurant"}]},{"lat":"37.0006874","long":"127.08087139","imageIndex":4,"items":[{"name":"델리쇼우과자점","tel":"031-691-6136","addr":"경기도 평택시 세교동 561-1번지","indutype":"음식점 - 제과점","category":"restaurant"}]},{"lat":"36.999020753","long":"127.08036415","imageIndex":4,"items":[{"name":"동태와 쭈꾸미","tel":"031-658-6471","addr":"경기도 평택시 세교동 565-10번지","indutype":"음식점 - 한식","category":"restaurant"},{"name":"동태와쭈꾸미","tel":"031-658-8088","addr":"경기도 평택시 세교동 565-10번지 1층 상가우측","indutype":"일반휴게음식 - 일반한식","category":"restaurant"},{"name":"커피야","tel":"031-658-1633","addr":"경기도 평택시 세교동 565-10번지","indutype":"음식점 - 카페","category":"restaurant"},{"name":"커피야","tel":"031-655-1146","addr":"경기도 평택시 세교동 565-10번지","indutype":"일반휴게음식 - 서양음식","category":"restaurant"}]},{"lat":"36.999940063","long":"127.08002805","imageIndex":4,"items":[{"name":"동해대구탕","tel":"031-651-0251","addr":"경기도 평택시 세교동 567-14번지","indutype":"일반휴게음식 - 일반한식","category":"restaurant"}]},{"lat":"36.999966507","long":"127.08092682","imageIndex":4,"items":[{"name":"돼지꿈","tel":"031-656-7767","addr":"경기도 평택시 세교동 566번지","indutype":"일반휴게음식 - 일반한식","category":"restaurant"},{"name":"지영주 산골쌈밥","tel":"031-658-0749","addr":"경기도 평택시 세교동 566번지","indutype":"음식점 - 한식","category":"restaurant"}]},{"lat":"37.000436491","long":"127.07872536","imageIndex":4,"items":[{"name":"돼지저금통","tel":"031-651-6050","addr":"경기도 평택시 세교동 568-1번지","indutype":"음식점 - 한식","category":"restaurant"},{"name":"돼지저금통","tel":"031-652-8293","addr":"경기도 평택시 세교동 568-1번지 1층","indutype":"일반휴게음식 - 일반한식","category":"restaurant"}]},{"lat":"36.999714282","long":"127.08081422","imageIndex":4,"items":[{"name":"두메골","tel":"031-691-1614","addr":"경기도 평택시 세교동 566-3번지","indutype":"일반휴게음식 - 일반한식","category":"restaurant"},{"name":"두메골","tel":"","addr":"경기도 평택시 세교동 566-3번지","indutype":"음식점 - 한식","category":"restaurant"}]},{"lat":"36.999326475","long":"127.08134184","imageIndex":4,"items":[{"name":"두메산골","tel":"031-652-5320","addr":"경기도 평택시 세교동 564-17번지 1층","indutype":"일반휴게음식 - 일반한식","category":"restaurant"}]},{"lat":"37.001405985","long":"127.08425372","imageIndex":4,"items":[{"name":"둘마니 치킨","tel":"","addr":"경기도 평택시 세교동 556-2번지 보성청실 상가동 101호","indutype":"음식점 - 치킨","category":"restaurant"},{"name":"처갓집양념치킨 평택세교점","tel":"031-657-9934","addr":"경기도 평택시 세교동 556-2번지 보성청실 상가 109호","indutype":"음식점 - 치킨","category":"restaurant"}]},{"lat":"37.000102343","long":"127.0798934","imageIndex":4,"items":[{"name":"떳다포차","tel":"031-657-4054","addr":"경기도 평택시 세교동 561-10번지 1층","indutype":"일반휴게음식 - 일반한식","category":"restaurant"}]},{"lat":"36.99885845","long":"127.0805325","imageIndex":4,"items":[{"name":"라이브","tel":"031-656-9799","addr":"경기도 평택시 세교동 564-10번지","indutype":"일반휴게음식 - 주점","category":"restaurant"},{"name":"시골집밥상","tel":"031-656-8954","addr":"경기도 평택시 세교동 564-10번지 1층","indutype":"일반휴게음식 - 일반한식","category":"restaurant"}]},{"lat":"36.998831271","long":"127.08075715","imageIndex":4,"items":[{"name":"마레","tel":"031-691-7742","addr":"경기도 평택시 세교동 564-8번지","indutype":"일반휴게음식 - 주점","category":"restaurant"}]},{"lat":"37.006906499","long":"127.07820373","imageIndex":4,"items":[{"name":"마음이착한이에게","tel":"031-691-1316","addr":"경기도 평택시 세교동 235번지 1층","indutype":"일반휴게음식 - 서양음식","category":"restaurant"}]},{"lat":"37.005464597","long":"127.07850566","imageIndex":4,"items":[{"name":"마인드cafe","tel":"031-658-7102","addr":"경기도 평택시 세교동 237-36번지 1층","indutype":"일반휴게음식 - 서양음식","category":"restaurant"}]},{"lat":"37.00802439","long":"127.07730599","imageIndex":4,"items":[{"name":"만석갈비","tel":"031-658-1600","addr":"경기도 평택시 세교동 433-25번지","indutype":"음식점 - 한식","category":"restaurant"},{"name":"만석궁갈비","tel":"031-691-6006","addr":"경기도 평택시 세교동 433-25번지 1층","indutype":"일반휴게음식 - 일반한식","category":"restaurant"}]},{"lat":"36.999715167","long":"127.07945488","imageIndex":4,"items":[{"name":"무룡닭발본점","tel":"031-691-9992","addr":"경기도 평택시 세교동 569-1번지","indutype":"일반휴게음식 - 일반한식","category":"restaurant"},{"name":"비앤비","tel":"031-654-3054","addr":"경기도 평택시 세교동 569-1번지","indutype":"일반휴게음식 - 일반한식","category":"restaurant"},{"name":"정석통바베큐족구이","tel":"","addr":"경기도 평택시 세교동 569-1번지 세교빌딩 4호","indutype":"음식점 - 한식","category":"restaurant"},{"name":"정석통바베큐족구이세교점","tel":"031-653-9052","addr":"경기도 평택시 세교동 569-1번지 세교빌딩","indutype":"일반휴게음식 - 일반한식","category":"restaurant"},{"name":"청미감자탕","tel":"031-652-2756","addr":"경기도 평택시 세교동 569-1번지","indutype":"일반휴게음식 - 일반한식","category":"restaurant"}]},{"lat":"37.000580769","long":"127.07855699","imageIndex":4,"items":[{"name":"미스터브리즈","tel":"031-654-6636","addr":"경기도 평택시 세교동 568번지 1층","indutype":"일반휴게음식 - 서양음식","category":"restaurant"}]},{"lat":"36.999605493","long":"127.08181396","imageIndex":4,"items":[{"name":"밀라노피자","tel":"031-652-9925","addr":"경기도 평택시 세교동 563번지","indutype":"음식점 - 피자","category":"restaurant"},{"name":"밀라노피자","tel":"031-658-1122","addr":"경기도 평택시 세교동 563번지","indutype":"일반휴게음식 - 서양음식","category":"restaurant"}]},{"lat":"37.011099485","long":"127.08711798","imageIndex":4,"items":[{"name":"바른치킨","tel":"","addr":"경기도 평택시 세교동 303-1번지 힐스테이트평택2차 220동","indutype":"음식점 - 치킨","category":"restaurant"},{"name":"바른치킨 평택세교힐스테이트점","tel":"031-658-0308","addr":"경기도 평택시 세교동 303-1번지 힐스테이트평택2차 220동 101호","indutype":"일반휴게음식 - 스넥","category":"restaurant"},{"name":"신참떡볶이 평택세교점","tel":"031-653-1010","addr":"경기도 평택시 세교동 303-1번지 힐스테이트평택2차 220동 103호","indutype":"일반휴게음식 - 스넥","category":"restaurant"},{"name":"커피마마","tel":"031-618-8229","addr":"경기도 평택시 세교동 303-1번지 힐스테이트평택2차 221동 B102호 상가","indutype":"일반휴게음식 - 서양음식","category":"restaurant"},{"name":"파리바게뜨(평택힐스테이트점)","tel":"031-656-2044","addr":"경기도 평택시 세교동 303-1번지 상가221동 B103,104호","indutype":"음식점 - 제과점","category":"restaurant"}]},{"lat":"37.003661855","long":"127.0794476","imageIndex":4,"items":[{"name":"박가네마포숯불돼지갈비","tel":"031-657-8592","addr":"경기도 평택시 세교동 185-12번지 외3필지 1층","indutype":"일반휴게음식 - 일반한식","category":"restaurant"},{"name":"부어치킨","tel":"031-657-0945","addr":"경기도 평택시 세교동 185-12번지 외3필지 1층","indutype":"음식점 - 치킨","category":"restaurant"},{"name":"부어치킨세교동점","tel":"031-656-7721","addr":"경기도 평택시 세교동 185-12번지 외3필지 1층","indutype":"일반휴게음식 - 스넥","category":"restaurant"}]},{"lat":"37.003989393","long":"127.07439222","imageIndex":4,"items":[{"name":"박가네손칼국수","tel":"031-652-2519","addr":"경기도 평택시 세교동 466-5번지","indutype":"일반휴게음식 - 스넥","category":"restaurant"},{"name":"박가네칼국수","tel":"031-652-9816~8","addr":"경기도 평택시 세교동 466-5번지","indutype":"음식점 - 한식","category":"restaurant"}]},{"lat":"36.999714503","long":"127.0804772","imageIndex":4,"items":[{"name":"백두대간세교점","tel":"031-618-6626","addr":"경기도 평택시 세교동 566-14번지 1층","indutype":"일반휴게음식 - 주점","category":"restaurant"}]},{"lat":"37.000048923","long":"127.07889349","imageIndex":4,"items":[{"name":"버블스","tel":"031-652-8293","addr":"경기도 평택시 세교동 568-4번지","indutype":"음식점 - 카페","category":"restaurant"},{"name":"빅원치킨 세교점","tel":"031-653-6253","addr":"경기도 평택시 세교동 568-4번지","indutype":"일반휴게음식 - 일반한식","category":"restaurant"},{"name":"수누리","tel":"031-657-8526","addr":"경기도 평택시 세교동 568-4번지 세호빌딩 1층","indutype":"일반휴게음식 - 일반한식","category":"restaurant"},{"name":"수누리","tel":"","addr":"경기도 평택시 세교동 568-4번지","indutype":"음식점 - 한식","category":"restaurant"}]},{"lat":"37.004689535","long":"127.07872959","imageIndex":4,"items":[{"name":"벧엘콩국수","tel":"031-652-5592","addr":"경기도 평택시 세교동 239-3번지","indutype":"일반휴게음식 - 일반한식","category":"restaurant"},{"name":"벧엘콩국수","tel":"031-618-7918","addr":"경기도 평택시 세교동 239-3번지","indutype":"음식점 - 한식","category":"restaurant"}]},{"lat":"37.000687621","long":"127.08053436","imageIndex":4,"items":[{"name":"보경이네","tel":"031-658-1647","addr":"경기도 평택시 세교동 561-24","indutype":"일반휴게음식 - 스넥","category":"restaurant"}]},{"lat":"37.000048351","long":"127.07978101","imageIndex":4,"items":[{"name":"보들족발","tel":"","addr":"경기도 평택시 세교동 561-11번지","indutype":"일반휴게음식 - 일반한식","category":"restaurant"}]},{"lat":"36.999326162","long":"127.08181367","imageIndex":4,"items":[{"name":"부자식당","tel":"031-657-4742","addr":"경기도 평택시 세교동 563-3번지 1층","indutype":"음식점 - 한식","category":"restaurant"},{"name":"부자식당","tel":"","addr":"경기도 평택시 세교동 563-3번지 1층","indutype":"일반휴게음식 - 일반한식","category":"restaurant"}]},{"lat":"36.999326771","long":"127.08089247","imageIndex":4,"items":[{"name":"불날개","tel":"031-654-5577","addr":"경기도 평택시 세교동 565-5번지","indutype":"음식점 - 한식","category":"restaurant"},{"name":"불날개본점","tel":"031-653-9199","addr":"경기도 평택시 세교동 565-5번지","indutype":"일반휴게음식 - 일반한식","category":"restaurant"}]},{"lat":"37.000047847","long":"127.08055617","imageIndex":4,"items":[{"name":"불만난고기","tel":"031-654-7738","addr":"경기도 평택시 세교동 567-3번지 1층","indutype":"일반휴게음식 - 일반한식","category":"restaurant"}]},{"lat":"37.00027304","long":"127.08066875","imageIndex":4,"items":[{"name":"브이플러스","tel":"031-657-8910","addr":"경기도 평택시 세교동 567번지","indutype":"음식점 - 한식","category":"restaurant"}]},{"lat":"36.999742024","long":"127.07972453","imageIndex":4,"items":[{"name":"브이플러스 세교점","tel":"031-656-5655","addr":"경기도 평택시 세교동 567-11번지","indutype":"음식점 - 한식","category":"restaurant"},{"name":"브이플러스세교점","tel":"031-657-8910","addr":"경기도 평택시 세교동 567-11번지 1층","indutype":"일반휴게음식 - 일반한식","category":"restaurant"}]},{"lat":"37.00021905","long":"127.08055635","imageIndex":4,"items":[{"name":"빵순이네","tel":"031-692-5570","addr":"경기도 평택시 세교동 567-19번지 1층","indutype":"일반휴게음식 - 일반한식","category":"restaurant"},{"name":"빵순이네","tel":"031-654-4574","addr":"경기도 평택시 세교동 567-19번지","indutype":"음식점 - 한식","category":"restaurant"}]},{"lat":"37.007880078","long":"127.07753056","imageIndex":4,"items":[{"name":"산골사랑","tel":"031-656-2044","addr":"경기도 평택시 세교동 431번지","indutype":"일반휴게음식 - 일반한식","category":"restaurant"},{"name":"산골사랑","tel":"","addr":"경기도 평택시 세교동 431번지","indutype":"음식점 - 한식","category":"restaurant"},{"name":"제네로주(generoso)","tel":"031-111-1111","addr":"경기도 평택시 세교동 431번지 2층","indutype":"일반휴게음식 - 서양음식","category":"restaurant"}]},{"lat":"37.010099445","long":"127.07303841","imageIndex":4,"items":[{"name":"삼공이스트리트 (302st)","tel":"031-658-1580","addr":"경기도 평택시 세교동 442-14번지 1층","indutype":"일반휴게음식 - 서양음식","category":"restaurant"}]},{"lat":"37.008323713","long":"127.07409292","imageIndex":4,"items":[{"name":"삼성웰스토리(주)평택성모병원","tel":"031-5171-1420","addr":"경기도 평택시 세교동 439-3번지","indutype":"일반휴게음식 - 위탁급식업","category":"restaurant"}]},{"lat":"37.011405593","long":"127.08747787","imageIndex":4,"items":[{"name":"서가원 평택점","tel":"031-611-2354","addr":"경기도 평택시 세교동 303-3번지 힐스테이트1차 112동 B103호","indutype":"음식점 - 한식","category":"restaurant"},{"name":"서가원평택점","tel":"031-655-7622","addr":"경기도 평택시 세교동 303-3번지 힐스테이트평택 122동 B103호","indutype":"일반휴게음식 - 일반한식","category":"restaurant"},{"name":"투다리 힐스테이트점","tel":"031-654-0882","addr":"경기도 평택시 세교동 303-3번지 힐스테이트 평택 122동 B101호","indutype":"일반휴게음식 - 주점","category":"restaurant"}]},{"lat":"36.999858313","long":"127.08102782","imageIndex":4,"items":[{"name":"선산곱창","tel":"031-655-3429","addr":"경기도 평택시 세교동 566-1번지 1층","indutype":"일반휴게음식 - 일반한식","category":"restaurant"},{"name":"영주산골쌈밥알파가정식백반","tel":"031-651-8254","addr":"경기도 평택시 세교동 566-1번지","indutype":"일반휴게음식 - 일반한식","category":"restaurant"}]},{"lat":"37.00865741","long":"127.07358763","imageIndex":4,"items":[{"name":"성모한우곰탕","tel":"031-657-8810","addr":"경기도 평택시 세교동 439-22번지 101호","indutype":"일반휴게음식 - 일반한식","category":"restaurant"}]},{"lat":"37.000155828","long":"127.08078097","imageIndex":4,"items":[{"name":"성환막창구이","tel":"031-618-2607","addr":"경기도 평택시 세교동 567-1번지 1층","indutype":"일반휴게음식 - 일반한식","category":"restaurant"},{"name":"성환막창구이","tel":"031-618-5627","addr":"경기도 평택시 세교동 567-1번지","indutype":"음식점 - 한식","category":"restaurant"},{"name":"어우동","tel":"031-654-5952","addr":"경기도 평택시 세교동 567-1번지","indutype":"음식점 - 일반","category":"restaurant"},{"name":"어우동","tel":"031-656-1389","addr":"경기도 평택시 세교동 567-1번지","indutype":"일반휴게음식 - 일반한식","category":"restaurant"},{"name":"청미감자탕","tel":"031-657-8526","addr":"경기도 평택시 세교동 567-1번지","indutype":"음식점 - 한식","category":"restaurant"}]},{"lat":"36.999128955","long":"127.08025192","imageIndex":4,"items":[{"name":"세교마루","tel":"031-691-3332","addr":"경기도 평택시 세교동 565-11번지","indutype":"일반휴게음식 - 일반한식","category":"restaurant"},{"name":"세교마루","tel":"031-658-0597","addr":"경기도 평택시 세교동 565-11번지","indutype":"음식점 - 한식","category":"restaurant"},{"name":"열린음악회","tel":"031-658-4060","addr":"경기도 평택시 세교동 565-11번지 지하층","indutype":"일반휴게음식 - 일반한식","category":"restaurant"},{"name":"오뎅&호프","tel":"031-618-4575","addr":"경기도 평택시 세교동 565-11번지 101호","indutype":"일반휴게음식 - 주점","category":"restaurant"}]},{"lat":"37.004850233","long":"127.08103293","imageIndex":4,"items":[{"name":"세교맛집","tel":"031-654-1555","addr":"경기도 평택시 세교동 258-1번지","indutype":"음식점 - 일반","category":"restaurant"},{"name":"세교맛집","tel":"031-665-5065","addr":"경기도 평택시 세교동 258-1번지","indutype":"일반휴게음식 - 일반한식","category":"restaurant"}]},{"lat":"36.999380982","long":"127.08066784","imageIndex":4,"items":[{"name":"세교회집","tel":"031-652-7133","addr":"경기도 평택시 세교동 565-15번지 1층","indutype":"일반휴게음식 - 일반한식","category":"restaurant"},{"name":"세교횟집","tel":"031-655-1146","addr":"경기도 평택시 세교동 565-15번지","indutype":"음식점 - 한식","category":"restaurant"}]},{"lat":"37.001690543","long":"127.07623253","imageIndex":4,"items":[{"name":"송가네식당","tel":"031-658-9589","addr":"경기도 평택시 세교동 196-5번지","indutype":"음식점 - 한식","category":"restaurant"},{"name":"송가네식당","tel":"031-651-6606","addr":"경기도 평택시 세교동 196-5번지","indutype":"일반휴게음식 - 일반한식","category":"restaurant"}]},{"lat":"37.009132977","long":"127.07686888","imageIndex":4,"items":[{"name":"송박사칼국수","tel":"031-655-0683","addr":"경기도 평택시 세교동 429-4번지","indutype":"일반휴게음식 - 일반한식","category":"restaurant"}]},{"lat":"37.004355299","long":"127.08003251","imageIndex":4,"items":[{"name":"송이네초밥가게","tel":"","addr":"경기도 평택시 세교동 243-1번지","indutype":"일반휴게음식 - 일반한식","category":"restaurant"}]},{"lat":"36.99991351","long":"127.07928656","imageIndex":4,"items":[{"name":"송이촌","tel":"031-656-7282","addr":"경기도 평택시 세교동 569번지 1층","indutype":"음식점 - 한식","category":"restaurant"},{"name":"송이촌","tel":"031-653-9285","addr":"경기도 평택시 세교동 569번지","indutype":"일반휴게음식 - 일반한식","category":"restaurant"}]},{"lat":"36.999912811","long":"127.08036505","imageIndex":4,"items":[{"name":"술이랑안주랑","tel":"031-691-2148","addr":"경기도 평택시 세교동 567-5번지","indutype":"일반휴게음식 - 일반한식","category":"restaurant"},{"name":"평택부대찌개하우스","tel":"031-618-2607","addr":"경기도 평택시 세교동 567-5번지","indutype":"음식점 - 한식","category":"restaurant"},{"name":"평택부대찌개하우스","tel":"031-654-9292","addr":"경기도 평택시 세교동 567-5번지 1층","indutype":"일반휴게음식 - 일반한식","category":"restaurant"}]},{"lat":"37.000192377","long":"127.08000584","imageIndex":4,"items":[{"name":"술통","tel":"031-666-6666","addr":"경기도 평택시 세교동 561-9번지 1층","indutype":"일반휴게음식 - 주점","category":"restaurant"}]},{"lat":"37.000246368","long":"127.08011824","imageIndex":4,"items":[{"name":"시골집","tel":"031-666-6546","addr":"경기도 평택시 세교동 561-8번지 1층","indutype":"일반휴게음식 - 일반한식","category":"restaurant"},{"name":"칸","tel":"031-656-3006","addr":"경기도 평택시 세교동 561-8번지","indutype":"일반휴게음식 - 일반한식","category":"restaurant"},{"name":"칸","tel":"031-653-6115","addr":"경기도 평택시 세교동 561-8번지","indutype":"음식점 - 일반","category":"restaurant"}]},{"lat":"36.999380464","long":"127.08145423","imageIndex":4,"items":[{"name":"쑈군","tel":"031-656-2385","addr":"경기도 평택시 세교동 564번지","indutype":"일반휴게음식 - 스넥","category":"restaurant"}]},{"lat":"36.999524494","long":"127.08166783","imageIndex":4,"items":[{"name":"쑈맥","tel":"031-657-2806","addr":"경기도 평택시 세교동 563-5번지 1층","indutype":"일반휴게음식 - 주점","category":"restaurant"}]},{"lat":"37.000489385","long":"127.08053415","imageIndex":4,"items":[{"name":"씨에프숯불바베큐치킨","tel":"031-655-7236","addr":"경기도 평택시 세교동 561-4번지","indutype":"일반휴게음식 - 스넥","category":"restaurant"}]},{"lat":"37.000245639","long":"127.08123044","imageIndex":4,"items":[{"name":"아느로","tel":"031-657-4020","addr":"경기도 평택시 세교동 562-3번지 지하층","indutype":"일반휴게음식 - 주점","category":"restaurant"}]},{"lat":"37.004967224","long":"127.08125775","imageIndex":4,"items":[{"name":"안나의 뜰","tel":"031-655-5508","addr":"경기도 평택시 세교동 260-3번지","indutype":"음식점 - 커피","category":"restaurant"},{"name":"안나의뜰","tel":"031-111-1111","addr":"경기도 평택시 세교동 260-3번지","indutype":"일반휴게음식 - 서양음식","category":"restaurant"}]},{"lat":"36.999245452","long":"127.08122941","imageIndex":4,"items":[{"name":"앵무새","tel":"031-653-9588","addr":"경기도 평택시 세교동 564-16번지","indutype":"일반휴게음식 - 일반한식","category":"restaurant"},{"name":"호식이두마리치킨 세교점","tel":"031-618-4418","addr":"경기도 평택시 세교동 564-16번지","indutype":"일반휴게음식 - 스넥","category":"restaurant"}]},{"lat":"36.999497774","long":"127.08119597","imageIndex":4,"items":[{"name":"예스생돈까스","tel":"031-658-7117","addr":"경기도 평택시 세교동 565-2번지 1층","indutype":"일반휴게음식 - 서양음식","category":"restaurant"},{"name":"예스생돈까스","tel":"","addr":"경기도 평택시 세교동 565-2번지","indutype":"음식점 - 양식","category":"restaurant"}]},{"lat":"37.008797044","long":"127.08083473","imageIndex":4,"items":[{"name":"옛고을","tel":"031-618-1259","addr":"경기도 평택시 세교동 543번지","indutype":"일반휴게음식 - 일반한식","category":"restaurant"}]},{"lat":"37.000552387","long":"127.08064656","imageIndex":4,"items":[{"name":"옛날장터치킨 세교점","tel":"031-652-4003","addr":"경기도 평택시 세교동 561-3번지","indutype":"음식점 - 치킨","category":"restaurant"},{"name":"옛날장터치킨세교점","tel":"031-658-0749","addr":"경기도 평택시 세교동 561-3번지","indutype":"일반휴게음식 - 스넥","category":"restaurant"}]},{"lat":"37.000246587","long":"127.07978121","imageIndex":4,"items":[{"name":"요리당","tel":"031-656-8233","addr":"경기도 평택시 세교동 561-17번지","indutype":"음식점 - 중식","category":"restaurant"},{"name":"요리왕","tel":"031-616-3306","addr":"경기도 평택시 세교동 561-17번지","indutype":"음식점 - 중식","category":"restaurant"},{"name":"요리왕","tel":"031-652-8853","addr":"경기도 평택시 세교동 561-17번지","indutype":"일반휴게음식 - 중국식","category":"restaurant"}]},{"lat":"36.999525293","long":"127.08045453","imageIndex":4,"items":[{"name":"요요통닭","tel":"031-653-1235","addr":"경기도 평택시 세교동 566-6번지","indutype":"일반휴게음식 - 스넥","category":"restaurant"}]},{"lat":"37.000489605","long":"127.08019712","imageIndex":4,"items":[{"name":"우리집양념통닭세교점","tel":"031-657-6077","addr":"경기도 평택시 세교동 561-21","indutype":"일반휴게음식 - 주점","category":"restaurant"},{"name":"유과장쌩돈구이","tel":"031-653-7122","addr":"경기도 평택시 세교동 561-21번지 1층","indutype":"일반휴게음식 - 일반한식","category":"restaurant"},{"name":"이맛시얌","tel":"031-657-3391","addr":"경기도 평택시 세교동 561-21번지","indutype":"음식점 - 분식","category":"restaurant"}]},{"lat":"37.000498109","long":"127.0809723","imageIndex":4,"items":[{"name":"으뜸분식","tel":"031-652-8010","addr":"경기도 평택시 세교동 562번지","indutype":"일반휴게음식 - 스넥","category":"restaurant"}]},{"lat":"37.000795602","long":"127.08075915","imageIndex":4,"items":[{"name":"이구구","tel":"031-652-2990","addr":"경기도 평택시 세교동 561번지 1층","indutype":"일반휴게음식 - 서양음식","category":"restaurant"}]},{"lat":"36.999435479","long":"127.08000507","imageIndex":4,"items":[{"name":"자매식당","tel":"031-658-8224","addr":"경기도 평택시 세교동 566-10번지 1층","indutype":"일반휴게음식 - 일반한식","category":"restaurant"}]},{"lat":"37.004156977","long":"127.08016713","imageIndex":4,"items":[{"name":"잔다리영양탕","tel":"031-654-5582","addr":"경기도 평택시 세교동 146-16번지","indutype":"일반휴게음식 - 일반한식","category":"restaurant"},{"name":"잔다리영양탕","tel":"031-658-6160","addr":"경기도 평택시 세교동 146-16번지","indutype":"음식점 - 한식","category":"restaurant"}]},{"lat":"37.003995496","long":"127.07906595","imageIndex":4,"items":[{"name":"잔다리워낭소","tel":"031-657-2911","addr":"경기도 평택시 세교동 185-6번지","indutype":"일반휴게음식 - 일반한식","category":"restaurant"},{"name":"잔다리워낭소","tel":"031-651-8150","addr":"경기도 평택시 세교동 185-6번지","indutype":"음식점 - 한식","category":"restaurant"}]},{"lat":"36.999434751","long":"127.08111726","imageIndex":4,"items":[{"name":"장수영양탕","tel":"031-657-0330","addr":"경기도 평택시 세교동 565-3번지","indutype":"음식점 - 한식","category":"restaurant"},{"name":"장수영양탕","tel":"031-653-5612","addr":"경기도 평택시 세교동 565-3번지","indutype":"일반휴게음식 - 일반한식","category":"restaurant"}]},{"lat":"36.998858795","long":"127.08000449","imageIndex":4,"items":[{"name":"정진원의 카페볶는집 세교점","tel":"031-655-7925","addr":"경기도 평택시 세교동 569-6번지","indutype":"음식점 - 카페","category":"restaurant"},{"name":"정진원의커피볶는집세교점(ROASTERS)","tel":"031-657-0330","addr":"경기도 평택시 세교동 569-6번지 1-2층","indutype":"일반휴게음식 - 서양음식","category":"restaurant"}]},{"lat":"36.999218294","long":"127.08142036","imageIndex":4,"items":[{"name":"제이앤제이카페","tel":"070-4233-3926","addr":"경기도 평택시 세교동 564-2번지","indutype":"일반휴게음식 - 서양음식","category":"restaurant"}]},{"lat":"36.999272269","long":"127.08155523","imageIndex":4,"items":[{"name":"종로경원족발","tel":"","addr":"경기도 평택시 세교동 564-1번지","indutype":"음식점 - 한식","category":"restaurant"},{"name":"종로경원족발","tel":"031-657-4742","addr":"경기도 평택시 세교동 564-1번지 1층","indutype":"일반휴게음식 - 일반한식","category":"restaurant"}]},{"lat":"36.999047454","long":"127.08086971","imageIndex":4,"items":[{"name":"주원산오리","tel":"031-655-8447","addr":"경기도 평택시 세교동 564-13번지","indutype":"일반휴게음식 - 일반한식","category":"restaurant"}]},{"lat":"36.998993464","long":"127.08075732","imageIndex":4,"items":[{"name":"지리산골","tel":"031-654-5577","addr":"경기도 평택시 세교동 564-12번지","indutype":"일반휴게음식 - 일반한식","category":"restaurant"},{"name":"지리산골","tel":"031-653-9255","addr":"경기도 평택시 세교동 564-12번지","indutype":"음식점 - 한식","category":"restaurant"}]},{"lat":"36.999859032","long":"127.07992686","imageIndex":4,"items":[{"name":"지지고볶고","tel":"031-616-9190","addr":"경기도 평택시 세교동 567-13번지","indutype":"일반휴게음식 - 일반한식","category":"restaurant"}]},{"lat":"36.999687815","long":"127.07994916","imageIndex":4,"items":[{"name":"지짐이평택세교점","tel":"031-653-1957","addr":"경기도 평택시 세교동 567-9번지","indutype":"일반휴게음식 - 일반한식","category":"restaurant"}]},{"lat":"37.00010205","long":"127.08034278","imageIndex":4,"items":[{"name":"찌개마을","tel":"031-654-5532","addr":"경기도 평택시 세교동 567-17번지 1층","indutype":"일반휴게음식 - 일반한식","category":"restaurant"}]},{"lat":"36.999218768","long":"127.08070138","imageIndex":4,"items":[{"name":"참숯닭불고기","tel":"031-656-5592","addr":"경기도 평택시 세교동 565-7번지","indutype":"일반휴게음식 - 일반한식","category":"restaurant"},{"name":"참숯닭불고기","tel":"031-651-8828","addr":"경기도 평택시 세교동 565-7번지","indutype":"음식점 - 한식","category":"restaurant"}]},{"lat":"36.99910143","long":"127.08100458","imageIndex":4,"items":[{"name":"최부자숯불갈비","tel":"031-658-6999","addr":"경기도 평택시 세교동 564-14번지","indutype":"음식점 - 한식","category":"restaurant"},{"name":"최부자숯불갈비","tel":"031-658-9589","addr":"경기도 평택시 세교동 564-14번지 1층","indutype":"일반휴게음식 - 일반한식","category":"restaurant"}]},{"lat":"36.999993849","long":"127.08045501","imageIndex":4,"items":[{"name":"춘천호반닭갈비, 막국수 세교점","tel":"","addr":"경기도 평택시 세교동 567-4번지 1층상가 1층","indutype":"음식점 - 한식","category":"restaurant"},{"name":"춘천호반닭갈비,막국수세교점","tel":"031-652-7250","addr":"경기도 평택시 세교동 567-4번지 1층 상가","indutype":"일반휴게음식 - 일반한식","category":"restaurant"}]},{"lat":"37.008774716","long":"127.07330684","imageIndex":4,"items":[{"name":"카페모든","tel":"031-653-5815","addr":"경기도 평택시 세교동 439번지 104호","indutype":"일반휴게음식 - 일반한식","category":"restaurant"}]},{"lat":"36.99874126","long":"127.08061102","imageIndex":4,"items":[{"name":"코코coco","tel":"031-668-3130","addr":"경기도 평택시 세교동 564-9번지","indutype":"일반휴게음식 - 일반한식","category":"restaurant"}]},{"lat":"37.004157421","long":"127.0794818","imageIndex":4,"items":[{"name":"크레마","tel":"031-657-0749","addr":"경기도 평택시 세교동 147-3번지","indutype":"일반휴게음식 - 주점","category":"restaurant"},{"name":"크레마","tel":"031-691-3332","addr":"경기도 평택시 세교동 147-3번지","indutype":"음식점 - 호프","category":"restaurant"}]},{"lat":"37.003664135","long":"127.08925564","imageIndex":4,"items":[{"name":"킹크랩가든궁","tel":"031-651-1578","addr":"경기도 평택시 세교동 85번지 1,2층","indutype":"일반휴게음식 - 일식·회집","category":"restaurant"}]},{"lat":"37.001465053","long":"127.07659182","imageIndex":4,"items":[{"name":"털보다방","tel":"031-651-8003","addr":"경기도 평택시 세교동 196-7번지","indutype":"음식점 - 카페","category":"restaurant"}]},{"lat":"36.999524345","long":"127.08189252","imageIndex":4,"items":[{"name":"토프레소 세교점","tel":"","addr":"경기도 평택시 세교동 563-1번지 1층","indutype":"일반휴게음식 - 서양음식","category":"restaurant"},{"name":"토프레소세교점","tel":"031-692-3388","addr":"경기도 평택시 세교동 563-1번지","indutype":"음식점 - 커피","category":"restaurant"}]},{"lat":"36.999796444","long":"127.0791741","imageIndex":4,"items":[{"name":"퇘랑숯돌생고기전문점","tel":"031-657-9252","addr":"경기도 평택시 세교동 569-11번지 1층","indutype":"일반휴게음식 - 일반한식","category":"restaurant"}]},{"lat":"36.999858527","long":"127.08070203","imageIndex":4,"items":[{"name":"평택정대포","tel":"","addr":"경기도 평택시 세교동 566-16번지","indutype":"음식점 - 한식","category":"restaurant"},{"name":"평택정대포본점","tel":"031-656-8233","addr":"경기도 평택시 세교동 566-16번지","indutype":"일반휴게음식 - 일반한식","category":"restaurant"}]},{"lat":"36.999686999","long":"127.08119616","imageIndex":4,"items":[{"name":"포항회센타","tel":"031-618-6186","addr":"경기도 평택시 세교동 565번지","indutype":"일반휴게음식 - 일반한식","category":"restaurant"}]},{"lat":"36.998912441","long":"127.08064489","imageIndex":4,"items":[{"name":"피그피그","tel":"031-657-4739","addr":"경기도 평택시 세교동 564-11번지","indutype":"일반휴게음식 - 일반한식","category":"restaurant"},{"name":"피그피그","tel":"031-691-5096","addr":"경기도 평택시 세교동 564-11번지","indutype":"음식점 - 한식","category":"restaurant"}]},{"lat":"36.999633495","long":"127.0803423","imageIndex":4,"items":[{"name":"피쉬천국","tel":"031-657-2030","addr":"경기도 평택시 세교동 566-13번지","indutype":"일반휴게음식 - 일반한식","category":"restaurant"}]},{"lat":"36.999552872","long":"127.07961199","imageIndex":4,"items":[{"name":"한주전자","tel":"031-658-4240","addr":"경기도 평택시 세교동 569-2번지","indutype":"일반휴게음식 - 일반한식","category":"restaurant"},{"name":"한주전자","tel":"","addr":"경기도 평택시 세교동 569-2번지","indutype":"음식점 - 한식","category":"restaurant"}]},{"lat":"36.999660292","long":"127.08070183","imageIndex":4,"items":[{"name":"해물포차 수정이네","tel":"031-653-0640","addr":"경기도 평택시 세교동 566-4번지","indutype":"음식점 - 일반","category":"restaurant"},{"name":"해물포차 수정이네","tel":"031-691-8223","addr":"경기도 평택시 세교동 566-4번지 1층","indutype":"일반휴게음식 - 일반한식","category":"restaurant"}]},{"lat":"37.004436629","long":"127.07967308","imageIndex":4,"items":[{"name":"황소머리국밥","tel":"031-654-1898","addr":"경기도 평택시 세교동 243-3번지 1층","indutype":"음식점 - 일반","category":"restaurant"},{"name":"황소머리국밥","tel":"","addr":"경기도 평택시 세교동 243-3번지","indutype":"일반휴게음식 - 일반한식","category":"restaurant"}]},{"lat":"36.99985058","long":"127.07906181","imageIndex":4,"items":[{"name":"훌랄라 바베큐 세교1점","tel":"","addr":"경기도 평택시 세교동 569-13번지","indutype":"음식점 - 치킨","category":"restaurant"},{"name":"훌랄라바베큐치킨세교점","tel":"031-658-1644","addr":"경기도 평택시 세교동 569-13번지","indutype":"일반휴게음식 - 스넥","category":"restaurant"}]},{"lat":"36.999524494","long":"127.08166783","imageIndex":13,"items":[{"name":"H헤어","tel":"031-653-4448","addr":"경기도 평택시 세교동 563-5번지 1층","indutype":"서비스업 - 미용업","category":"beauty"},{"name":"에이치헤어네","tel":"031-691-0371","addr":"경기도 평택시 세교동 563-5번지 1층","indutype":"보건위생 - 미용원","category":"beauty"}]},{"lat":"37.000326795","long":"127.08114065","imageIndex":13,"items":[{"name":"SOME HAIR & NAIL","tel":"031-653-8398","addr":"경기도 평택시 세교동 562-2번지 1층","indutype":"보건위생 - 피부미용실","category":"beauty"},{"name":"소미헤어","tel":"031-653-8398","addr":"경기도 평택시 세교동 562-2번지 1층","indutype":"보건위생 - 미용원","category":"beauty"},{"name":"소미헤어","tel":"","addr":"경기도 평택시 세교동 562-2번지","indutype":"서비스업 - 미용업","category":"beauty"}]},{"lat":"37.011099485","long":"127.08711798","imageIndex":13,"items":[{"name":"가미네일","tel":"","addr":"경기도 평택시 세교동 303-1번지 힐스테이트평택2차 220동 106호","indutype":"보건위생 - 피부미용실","category":"beauty"},{"name":"헤어힐스","tel":"031-653-9847","addr":"경기도 평택시 세교동 303-1번지 힐스테이트평택2차 220동 104호","indutype":"보건위생 - 미용원","category":"beauty"}]},{"lat":"37.006162332","long":"127.07209103","imageIndex":13,"items":[{"name":"구디그","tel":"031-618-9999","addr":"경기도 평택시 세교동 462-9번지","indutype":"보건위생 - 미용재료","category":"beauty"}]},{"lat":"37.003080939","long":"127.08574973","imageIndex":13,"items":[{"name":"권필승헤어","tel":"031-657-6400","addr":"경기도 평택시 세교동 555번지 부영1차 상가","indutype":"서비스업 - 미용","category":"beauty"},{"name":"까까헤어","tel":"031-657-5560","addr":"경기도 평택시 세교동 555번지 부영1차 상가 2동 104호","indutype":"서비스업 - 미용","category":"beauty"},{"name":"유씨씨헤어샵","tel":"031-652-7429","addr":"경기도 평택시 세교동 555번지 부영A제1상가202호","indutype":"보건위생 - 미용원","category":"beauty"}]},{"lat":"37.00040809","long":"127.0808374","imageIndex":13,"items":[{"name":"그녀의 속눈썹","tel":"","addr":"경기도 평택시 세교동 562-12번지","indutype":"보건위생 - 피부미용실","category":"beauty"}]},{"lat":"37.000300359","long":"127.08023063","imageIndex":13,"items":[{"name":"그린그린","tel":"","addr":"경기도 평택시 세교동 561-7번지","indutype":"서비스업 - 미용업","category":"beauty"}]},{"lat":"37.000498109","long":"127.0809723","imageIndex":13,"items":[{"name":"글라스톡 (GLASS TALK)","tel":"031-652-6544","addr":"경기도 평택시 세교동 562번지 1층","indutype":"보건위생 - 안경","category":"beauty"}]},{"lat":"37.002183454","long":"127.080446","imageIndex":13,"items":[{"name":"글로리아헤어샵","tel":"031-656-9056","addr":"경기도 평택시 세교동 558번지 우성꿈그린 상가동 2층 203호","indutype":"보건위생 - 미용원","category":"beauty"}]},{"lat":"36.999327474","long":"127.07981398","imageIndex":13,"items":[{"name":"금영","tel":"031-663-2255","addr":"경기도 평택시 세교동 569-3번지","indutype":"보건위생 - 피부미용실","category":"beauty"}]},{"lat":"37.000129593","long":"127.0795564","imageIndex":13,"items":[{"name":"꽃눈","tel":"070-9654-1421","addr":"경기도 평택시 세교동 561-15번지 1층 북서층상가","indutype":"보건위생 - 화장품","category":"beauty"}]},{"lat":"37.000048562","long":"127.07945521","imageIndex":13,"items":[{"name":"꽃단장","tel":"031-657-8294","addr":"경기도 평택시 세교동 561-14번지 1층","indutype":"서비스업 - 이미용","category":"beauty"},{"name":"꽃단장","tel":"031-657-0666","addr":"경기도 평택시 세교동 561-14번지 1층","indutype":"보건위생 - 미용원","category":"beauty"}]},{"lat":"37.000354372","long":"127.08030933","imageIndex":13,"items":[{"name":"네일보니타","tel":"031-691-1316","addr":"경기도 평택시 세교동 561-6번지","indutype":"보건위생 - 피부미용실","category":"beauty"}]},{"lat":"37.000606598","long":"127.08042193","imageIndex":13,"items":[{"name":"동경(DK)헤어샵","tel":"031-684-3078","addr":"경기도 평택시 세교동 561-23번지","indutype":"보건위생 - 미용원","category":"beauty"}]},{"lat":"36.999633823","long":"127.07983676","imageIndex":13,"items":[{"name":"라빈헤어","tel":"031-618-4844","addr":"경기도 평택시 세교동 567-10번지","indutype":"보건위생 - 미용원","category":"beauty"},{"name":"라빈헤어","tel":"031-652-6544","addr":"경기도 평택시 세교동 567-10번지 1층","indutype":"서비스업 - 미용업","category":"beauty"}]},{"lat":"37.011405593","long":"127.08747787","imageIndex":13,"items":[{"name":"머리하는 풍경","tel":"","addr":"경기도 평택시 세교동 303-3번지 힐스테이트평택 상가 122동 B102호","indutype":"보건위생 - 미용원","category":"beauty"},{"name":"머리하는풍경","tel":"031-653-6474","addr":"경기도 평택시 세교동 303-3번지 힐스테이트 상가","indutype":"서비스업 - 미용","category":"beauty"}]},{"lat":"36.999380464","long":"127.08145423","imageIndex":13,"items":[{"name":"미스터헤어","tel":"031-691-5096","addr":"경기도 평택시 세교동 564번지 1층","indutype":"보건위생 - 미용원","category":"beauty"},{"name":"미스테헤어","tel":"031-653-6433","addr":"경기도 평택시 세교동 564번지","indutype":"서비스업 - 이미용","category":"beauty"}]},{"lat":"37.00238378","long":"127.07717691","imageIndex":13,"items":[{"name":"미헤어클럽","tel":"031-618-3235","addr":"경기도 평택시 세교동 188-38번지","indutype":"서비스업 - 이미용","category":"beauty"},{"name":"미헤어클럽","tel":"031-656-0017","addr":"경기도 평택시 세교동 188-38번지 1층","indutype":"보건위생 - 미용원","category":"beauty"}]},{"lat":"37.000074347","long":"127.08136507","imageIndex":13,"items":[{"name":"뷰티라인","tel":"031-692-3388","addr":"경기도 평택시 세교동 562-5번지 2층","indutype":"보건위생 - 화장품","category":"beauty"},{"name":"뷰티라인","tel":"031-691-3114","addr":"경기도 평택시 세교동 562-5번지 2층","indutype":"서비스업 - 미용","category":"beauty"},{"name":"커트라인남성커트전문점","tel":"031-656-5986","addr":"경기도 평택시 세교동 562-5번지","indutype":"보건위생 - 이용원","category":"beauty"}]},{"lat":"37.000687621","long":"127.08053436","imageIndex":13,"items":[{"name":"샤플리헤어","tel":"031-652-6018","addr":"경기도 평택시 세교동 561-24번지 1층","indutype":"보건위생 - 미용원","category":"beauty"}]},{"lat":"37.008774716","long":"127.07330684","imageIndex":13,"items":[{"name":"성모의료기","tel":"031-653-4810","addr":"경기도 평택시 세교동 439번지 1층 103호","indutype":"보건위생 - 의료용품","category":"beauty"}]},{"lat":"37.000300578","long":"127.0798936","imageIndex":13,"items":[{"name":"세비헤어","tel":"031-653-5888","addr":"경기도 평택시 세교동 561-18번지 1층","indutype":"보건위생 - 미용원","category":"beauty"},{"name":"황언니 네일","tel":"031-651-9982","addr":"경기도 평택시 세교동 561-18번지","indutype":"서비스업 - 미용, 네일","category":"beauty"},{"name":"황언니네일","tel":"","addr":"경기도 평택시 세교동 561-18번지","indutype":"보건위생 - 피부미용실","category":"beauty"}]},{"lat":"36.999074744","long":"127.08047655","imageIndex":13,"items":[{"name":"소라미용실","tel":"031-652-9280","addr":"경기도 평택시 세교동 565-9번지 1층","indutype":"보건위생 - 미용원","category":"beauty"}]},{"lat":"36.999246473","long":"127.07966786","imageIndex":13,"items":[{"name":"아모레","tel":"031-692-5800","addr":"경기도 평택시 세교동 569-8번지 4층","indutype":"보건위생 - 화장품","category":"beauty"},{"name":"아모레","tel":"031-692-5800","addr":"경기도 평택시 세교동 569-8번지 4층","indutype":"보건위생 - 화장품","category":"beauty"},{"name":"아모레","tel":"031-692-5800","addr":"경기도 평택시 세교동 569-8번지 4층","indutype":"보건위생 - 화장품","category":"beauty"},{"name":"아모레","tel":"031-692-5800","addr":"경기도 평택시 세교동 569-8번지","indutype":"보건위생 - 화장품","category":"beauty"},{"name":"아모레","tel":"031-692-5800","addr":"경기도 평택시 세교동 569-8번지","indutype":"보건위생 - 화장품","category":"beauty"},{"name":"아모레","tel":"031-692-5800","addr":"경기도 평택시 세교동 569-8번지 4층","indutype":"보건위생 - 화장품","category":"beauty"},{"name":"아모레","tel":"031-692-5800","addr":"경기도 평택시 세교동 569-8번지 4층","indutype":"보건위생 - 화장품","category":"beauty"},{"name":"아모레 문희","tel":"031-692-5800","addr":"경기도 평택시 세교동 569-8번지 4층","indutype":"보건위생 - 화장품","category":"beauty"},{"name":"아모레 세교특약점","tel":"031-692-5800","addr":"경기도 평택시 세교동 569-8번지","indutype":"보건위생 - 화장품","category":"beauty"},{"name":"아모레 소문","tel":"031-692-5800","addr":"경기도 평택시 세교동 569-8번지 4층","indutype":"보건위생 - 화장품","category":"beauty"},{"name":"아모레 앤메이","tel":"031-692-5800","addr":"경기도 평택시 세교동 569-8번지 4층","indutype":"보건위생 - 화장품","category":"beauty"},{"name":"아모레 퍼시픽","tel":"031-692-5800","addr":"경기도 평택시 세교동 569-8번지 4층","indutype":"보건위생 - 화장품","category":"beauty"},{"name":"아모레 해옥","tel":"031-692-5800","addr":"경기도 평택시 세교동 569-8번지 4층","indutype":"보건위생 - 화장품","category":"beauty"},{"name":"아모레경화","tel":"031-692-5800","addr":"경기도 평택시 세교동 569-8번지 구문빌딩 4층","indutype":"보건위생 - 화장품","category":"beauty"},{"name":"아모레금란","tel":"031-692-5800","addr":"경기도 평택시 세교동 569-8번지 4층","indutype":"보건위생 - 화장품","category":"beauty"},{"name":"아모레명숙","tel":"031-692-5800","addr":"경기도 평택시 세교동 569-8번지","indutype":"보건위생 - 화장품","category":"beauty"},{"name":"아모레세교특약점","tel":"031-692-5800","addr":"경기도 평택시 세교동 569-8번지 4층","indutype":"보건위생 - 화장품","category":"beauty"},{"name":"아모레옌푸친","tel":"031-692-5800","addr":"경기도 평택시 세교동 569-8번지 4층","indutype":"보건위생 - 화장품","category":"beauty"},{"name":"아모레외판","tel":"031-692-5800","addr":"경기도 평택시 세교동 569-8번지 4층","indutype":"보건위생 - 화장품","category":"beauty"},{"name":"아모레지희","tel":"031-692-5800","addr":"경기도 평택시 세교동 569-8번지 4층","indutype":"보건위생 - 화장품","category":"beauty"},{"name":"아모레카운셀러","tel":"031-692-5800","addr":"경기도 평택시 세교동 569-8번지 구문빌딩 4층","indutype":"보건위생 - 화장품","category":"beauty"},{"name":"아모레카운셀러","tel":"031-692-5800","addr":"경기도 평택시 세교동 569-8번지 구문빌딩 4층","indutype":"보건위생 - 화장품","category":"beauty"},{"name":"아모레카운셀러","tel":"031-692-5800","addr":"경기도 평택시 세교동 569-8번지 구문빌딩 4층","indutype":"보건위생 - 화장품","category":"beauty"},{"name":"아모레카운셀러","tel":"031-692-5800","addr":"경기도 평택시 세교동 569-8번지","indutype":"보건위생 - 화장품","category":"beauty"},{"name":"아모레카운셀러","tel":"031-692-5800","addr":"경기도 평택시 세교동 569-8번지 4층","indutype":"보건위생 - 화장품","category":"beauty"},{"name":"아모레카운셀러","tel":"031-692-5800","addr":"경기도 평택시 세교동 569-8번지 4층","indutype":"보건위생 - 화장품","category":"beauty"},{"name":"아모레카운셀러","tel":"031-692-5800","addr":"경기도 평택시 세교동 569-8번지 4층","indutype":"보건위생 - 화장품","category":"beauty"},{"name":"아모레카운셀러","tel":"031-692-5800","addr":"경기도 평택시 세교동 569-8번지 4층","indutype":"보건위생 - 화장품","category":"beauty"},{"name":"아모레카운셀러 금실","tel":"031-692-5800","addr":"경기도 평택시 세교동 569-8번지 4층","indutype":"보건위생 - 화장품","category":"beauty"},{"name":"아모레카운셀러 창민","tel":"031-692-5800","addr":"경기도 평택시 세교동 569-8번지 4층","indutype":"보건위생 - 화장품","category":"beauty"},{"name":"아모레카운셀러(리하이보)","tel":"031-692-5800","addr":"경기도 평택시 세교동 569-8번지 4층","indutype":"보건위생 - 화장품","category":"beauty"},{"name":"아모레카운셀러(정심)","tel":"031-692-5800","addr":"경기도 평택시 세교동 569-8번지 구문빌딩 4층","indutype":"보건위생 - 화장품","category":"beauty"},{"name":"아모레특약점","tel":"031-692-5800","addr":"경기도 평택시 세교동 569-8번지 구문빌딩 4층","indutype":"보건위생 - 화장품","category":"beauty"},{"name":"아모레퍼시픽","tel":"031-692-5800","addr":"경기도 평택시 세교동 569-8번지 4층","indutype":"보건위생 - 화장품","category":"beauty"},{"name":"아모레퍼시픽","tel":"031-692-5800","addr":"경기도 평택시 세교동 569-8번지 4층","indutype":"보건위생 - 화장품","category":"beauty"},{"name":"아모레퍼시픽","tel":"031-692-5800","addr":"경기도 평택시 세교동 569-8번지 구문빌딩 4층","indutype":"보건위생 - 화장품","category":"beauty"},{"name":"아모레퍼시픽","tel":"031-692-5800","addr":"경기도 평택시 세교동 569-8번지 구문빌딩 4층","indutype":"보건위생 - 화장품","category":"beauty"},{"name":"아모레퍼시픽","tel":"031-692-5800","addr":"경기도 평택시 세교동 569-8번지 4층","indutype":"보건위생 - 화장품","category":"beauty"},{"name":"아모레퍼시픽","tel":"031-692-5800","addr":"경기도 평택시 세교동 569-8번지","indutype":"보건위생 - 화장품","category":"beauty"},{"name":"아모레퍼시픽","tel":"031-692-5800","addr":"경기도 평택시 세교동 569-8번지 4층","indutype":"보건위생 - 화장품","category":"beauty"},{"name":"아모레퍼시픽 민","tel":"031-692-5800","addr":"경기도 평택시 세교동 569-8번지 4층","indutype":"보건위생 - 화장품","category":"beauty"},{"name":"아모레퍼시픽세교점","tel":"031-692-5800","addr":"경기도 평택시 세교동 569-8번지 4층","indutype":"보건위생 - 화장품","category":"beauty"}]},{"lat":"37.000048923","long":"127.07889349","imageIndex":13,"items":[{"name":"에쿠스","tel":"031-651-9859","addr":"경기도 평택시 세교동 568-4번지","indutype":"보건위생 - 화장품","category":"beauty"}]},{"lat":"36.999047454","long":"127.08086971","imageIndex":13,"items":[{"name":"염색전문점 또또헤어","tel":"031-656-8535","addr":"경기도 평택시 세교동 564-13번지","indutype":"보건위생 - 미용원","category":"beauty"}]},{"lat":"37.003408138","long":"127.08161567","imageIndex":13,"items":[{"name":"예린미용실","tel":"031-658-5578","addr":"경기도 평택시 세교동 557번지 부영2차 상가 102호","indutype":"서비스업 - 미용","category":"beauty"}]},{"lat":"36.99999436","long":"127.07966861","imageIndex":13,"items":[{"name":"오정희투미용실","tel":"031-656-8599","addr":"경기도 평택시 세교동 561-12번지","indutype":"보건위생 - 미용원","category":"beauty"}]},{"lat":"37.004409034","long":"127.08053814","imageIndex":13,"items":[{"name":"오컷헤어","tel":"031-658-6160","addr":"경기도 평택시 세교동 255번지","indutype":"보건위생 - 미용원","category":"beauty"},{"name":"오컷헤어","tel":"031-692-0388","addr":"경기도 평택시 세교동 255번지","indutype":"서비스업 - 이미용","category":"beauty"}]},{"lat":"37.000606377","long":"127.08075896","imageIndex":13,"items":[{"name":"유&미헤어","tel":"031-691-8460","addr":"경기도 평택시 세교동 561-2번지","indutype":"보건위생 - 미용원","category":"beauty"}]},{"lat":"37.002663377","long":"127.07675027","imageIndex":13,"items":[{"name":"유니뷰티 멀티넷","tel":"031-651-7213","addr":"경기도 평택시 세교동 191-8번지","indutype":"보건위생 - 미용원","category":"beauty"}]},{"lat":"36.999497974","long":"127.08089264","imageIndex":13,"items":[{"name":"윤미정헤어 겔러리","tel":"031-618-1805","addr":"경기도 평택시 세교동 565-17번지","indutype":"보건위생 - 미용원","category":"beauty"}]},{"lat":"37.000245639","long":"127.08123044","imageIndex":13,"items":[{"name":"장헤어메카","tel":"031-657-1232","addr":"경기도 평택시 세교동 562-3번지","indutype":"보건위생 - 미용원","category":"beauty"}]},{"lat":"36.999218294","long":"127.08142036","imageIndex":13,"items":[{"name":"제이앤제이헤어","tel":"070-4233-0726","addr":"경기도 평택시 세교동 564-2번지","indutype":"보건위생 - 미용원","category":"beauty"}]},{"lat":"37.003661855","long":"127.0794476","imageIndex":13,"items":[{"name":"젤라헤어","tel":"031-655-5575","addr":"경기도 평택시 세교동 185-12번지","indutype":"보건위생 - 미용원","category":"beauty"}]},{"lat":"37.00382667","long":"127.08878395","imageIndex":13,"items":[{"name":"조은","tel":"031-655-7422","addr":"경기도 평택시 세교동 27-4번지","indutype":"보건위생 - 미용재료","category":"beauty"}]},{"lat":"37.008323713","long":"127.07409292","imageIndex":13,"items":[{"name":"주식회사 제세의료기 평택성모병원점","tel":"031-658-8004","addr":"경기도 평택시 세교동 439-3번지 평택성모병원 지하1층","indutype":"보건위생 - 의료용품","category":"beauty"}]},{"lat":"36.999551764","long":"127.08130836","imageIndex":13,"items":[{"name":"진스타일","tel":"031-658-5575","addr":"경기도 평택시 세교동 565-1번지","indutype":"보건위생 - 미용원","category":"beauty"}]},{"lat":"37.004850233","long":"127.08103293","imageIndex":13,"items":[{"name":"태후사랑","tel":"031-656-0017","addr":"경기도 평택시 세교동 258-1번지","indutype":"서비스업 - 이미용","category":"beauty"},{"name":"태후사랑(세교점)","tel":"031-652-3100","addr":"경기도 평택시 세교동 258-1번지 1층","indutype":"보건위생 - 미용원","category":"beauty"}]},{"lat":"37.000580769","long":"127.07855699","imageIndex":13,"items":[{"name":"테라선","tel":"","addr":"경기도 평택시 세교동 568번지","indutype":"보건위생 - 화장품","category":"beauty"}]},{"lat":"36.999940368","long":"127.07955621","imageIndex":13,"items":[{"name":"하비헤어","tel":"031-657-9562","addr":"경기도 평택시 세교동 561-13번지 1층","indutype":"보건위생 - 미용원","category":"beauty"}]},{"lat":"37.000048351","long":"127.07978101","imageIndex":13,"items":[{"name":"헤어앤네일","tel":"02-111-1111","addr":"경기도 평택시 세교동 561-11번지 1층","indutype":"보건위생 - 미용원","category":"beauty"}]},{"lat":"37.011099485","long":"127.08711798","imageIndex":16,"items":[{"name":"경희대석사 위너태권도장","tel":"031-655-3923","addr":"경기도 평택시 세교동 303-1번지 힐스테이트평택2차 상가동 2층 209-211호","indutype":"학원 - 예·체능계학원","category":"study"},{"name":"셀파 공부방","tel":"","addr":"경기도 평택시 세교동 303-1번지 힐스테이트평택2차 204동 104호","indutype":"학원 - 기타 교육기관","category":"study"},{"name":"시립힐스테이트평택2차어린이집[아이행복]","tel":"031-8054-0118","addr":"경기도 평택시 세교동 303-1번지 힐스테이트평택2차","indutype":"학원 - 유아원","category":"study"},{"name":"압구정영어","tel":"031-657-3456","addr":"경기도 평택시 세교동 303-1번지 힐스테이트평택2차 205동 104호","indutype":"학원 - 기타 교육기관","category":"study"},{"name":"에이스학원","tel":"031-618-7767","addr":"경기도 평택시 세교동 303-1번지 힐스테이트평택2차 상가동 201호","indutype":"학원 - 보습학원","category":"study"},{"name":"예원음악학원","tel":"031-651-3877","addr":"경기도 평택시 세교동 303-1번지 힐스테이트평택2차 상가S층 207,208호","indutype":"학원 - 예·체능계학원","category":"study"}]},{"lat":"37.000741611","long":"127.08064676","imageIndex":16,"items":[{"name":"그림터미술세상","tel":"031-618-6707","addr":"경기도 평택시 세교동 561-25번지 2층","indutype":"학원 - 예·체능계학원","category":"study"}]},{"lat":"37.004850233","long":"127.08103293","imageIndex":16,"items":[{"name":"봉우리학원","tel":"031-657-3648","addr":"경기도 평택시 세교동 258-1번지 2층","indutype":"학원 - 보습학원","category":"study"}]},{"lat":"37.003080939","long":"127.08574973","imageIndex":16,"items":[{"name":"비상아이비츠학원","tel":"031-657-9980","addr":"경기도 평택시 세교동 555번지 상가1동 3층 301,305호","indutype":"학원 - 보습학원","category":"study"}]},{"lat":"37.003408138","long":"127.08161567","imageIndex":16,"items":[{"name":"비상잉글리시아이세교학원","tel":"031-656-0579","addr":"경기도 평택시 세교동 557번지 상가동 202,203호","indutype":"학원 - 보습학원","category":"study"},{"name":"이병기피아노","tel":"031-652-7302","addr":"경기도 평택시 세교동 557번지 부영2차 상가 2층 204호","indutype":"학원 - 예·체능계학원","category":"study"}]},{"lat":"37.003661855","long":"127.0794476","imageIndex":16,"items":[{"name":"세교2잉글리쉬무무학원","tel":"031-658-0597","addr":"경기도 평택시 세교동 185-12번지","indutype":"회원제형태 - 학원","category":"study"},{"name":"포인트독서실","tel":"031-691-1122","addr":"경기도 평택시 세교동 185-12번지","indutype":"학원 - 독서실","category":"study"}]},{"lat":"36.999715167","long":"127.07945488","imageIndex":16,"items":[{"name":"세교독서실","tel":"031-655-8815","addr":"경기도 평택시 세교동 569-1번지 3층","indutype":"학원 - 독서실","category":"study"}]},{"lat":"37.013323791","long":"127.08897442","imageIndex":16,"items":[{"name":"세교중학교","tel":"031-615-9103","addr":"경기도 평택시 세교동 304-11번지 세교중학교","indutype":"학원 - 초중고교육기관","category":"study"}]},{"lat":"37.001911492","long":"127.08291734","imageIndex":16,"items":[{"name":"세교초등학교","tel":"031-653-6073","addr":"경기도 평택시 세교동 556번지 세교초등학교","indutype":"학원 - 초중고교육기관","category":"study"},{"name":"세교초등학교병설유치원[아이행복]","tel":"031-653-6075","addr":"경기도 평택시 세교동 556번지","indutype":"학원 - 유치원","category":"study"}]},{"lat":"37.00427402","long":"127.0803133","imageIndex":16,"items":[{"name":"세실리아음악학원","tel":"031-656-2206","addr":"경기도 평택시 세교동 146-8번지 1층","indutype":"학원 - 예·체능계학원","category":"study"}]},{"lat":"37.011405593","long":"127.08747787","imageIndex":16,"items":[{"name":"시립힐스테이트평택1차어린이집[아이행복]","tel":"031-8054-0122","addr":"경기도 평택시 세교동 303-3번지 힐스테이트평택","indutype":"학원 - 유아원","category":"study"}]},{"lat":"37.00079474","long":"127.08206235","imageIndex":16,"items":[{"name":"아이들천국[아이행복]","tel":"031-652-3018","addr":"경기도 평택시 세교동 559번지 개나리아파트","indutype":"학원 - 유치원","category":"study"}]},{"lat":"37.005607711","long":"127.08014613","imageIndex":16,"items":[{"name":"아이뜰어린이집[아이행복]","tel":"","addr":"경기도 평택시 세교동 247-3번지","indutype":"학원 - 유아원","category":"study"}]},{"lat":"37.004048951","long":"127.08000973","imageIndex":16,"items":[{"name":"애크미실용음악학원","tel":"031-655-2733","addr":"경기도 평택시 세교동 146-5번지 2층","indutype":"학원 - 예·체능계학원","category":"study"}]},{"lat":"36.999686999","long":"127.08119616","imageIndex":16,"items":[{"name":"예나실용댄스협회","tel":"031-652-5926","addr":"경기도 평택시 세교동 565번지","indutype":"학원 - 예·체능계학원","category":"study"}]},{"lat":"37.003689046","long":"127.07920046","imageIndex":16,"items":[{"name":"유현철학원","tel":"031-655-8882","addr":"경기도 평택시 세교동 185-32번지 1층","indutype":"학원 - 보습학원","category":"study"}]},{"lat":"37.000048923","long":"127.07889349","imageIndex":16,"items":[{"name":"윤선생영어숲평택세교학원","tel":"031-654-0579","addr":"경기도 평택시 세교동 568-4번지 세호빌딩 3층","indutype":"학원 - 보습학원","category":"study"},{"name":"정도합기도체육관","tel":"031-618-9116","addr":"경기도 평택시 세교동 568-4번지 세호빌딩 6층","indutype":"학원 - 예·체능계학원","category":"study"}]},{"lat":"36.999634164","long":"127.07930875","imageIndex":16,"items":[{"name":"이투스수학설리번영어학원","tel":"031-653-4443","addr":"경기도 평택시 세교동 569-10번지 2층,3층","indutype":"학원 - 보습학원","category":"study"},{"name":"이투스수학설리번영어학원","tel":"031-653-4447","addr":"경기도 평택시 세교동 569-10번지 ,2,3층","indutype":"학원 - 외국어학원","category":"study"}]},{"lat":"37.00040809","long":"127.0808374","imageIndex":16,"items":[{"name":"쿠킹아트(평택세교점)","tel":"070-8659-2974","addr":"경기도 평택시 세교동 562-12번지 1층","indutype":"학원 - 기능학원","category":"study"}]},{"lat":"37.012466784","long":"127.09033303","imageIndex":16,"items":[{"name":"평택여자고등학교","tel":"031-690-0600","addr":"경기도 평택시 세교동 1-2번지 평택여자종합고등학교","indutype":"학원 - 초중고교육기관","category":"study"},{"name":"평택여자고등학교_수업료","tel":"031-690-0600","addr":"경기도 평택시 세교동 1-2번지 평택여자종합고등학교","indutype":"학원 - 초중고교육기관","category":"study"}]},{"lat":"37.002049918","long":"127.07791807","imageIndex":16,"items":[{"name":"평택중앙초등학교","tel":"031-651-5143","addr":"경기도 평택시 세교동 186-1번지 평택중앙초등학교","indutype":"학원 - 초중고교육기관","category":"study"},{"name":"평택중앙초등학교_수업료","tel":"031-651-5143","addr":"경기도 평택시 세교동 186-1번지 평택중앙초등학교","indutype":"학원 - 초중고교육기관","category":"study"},{"name":"평택중앙초등학교병설유치원[아이행복]","tel":"031-651-5143","addr":"경기도 평택시 세교동 186-1번지 평택중앙초등학교","indutype":"학원 - 유치원","category":"study"}]},{"lat":"37.000156965","long":"127.07902841","imageIndex":13,"items":[{"name":"그린골프연습장","tel":"02-0000-0000","addr":"경기도 평택시 세교동 568-3번지 그린프라자빌딩 지층","indutype":"레저업소 - 골프연습장","category":"leisure"},{"name":"앵콜 노래연습장","tel":"031-657-8778","addr":"경기도 평택시 세교동 568-3번지 2층","indutype":"레저업소 - 노 래 방","category":"leisure"},{"name":"킹당구장","tel":"","addr":"경기도 평택시 세교동 568-3번지 3층","indutype":"레저업소 - 당 구 장","category":"leisure"},{"name":"킹당구장","tel":"031-657-9795","addr":"경기도 평택시 세교동 568-3번지 3층","indutype":"레저업소 - 당 구 장","category":"leisure"}]},{"lat":"36.999327474","long":"127.07981398","imageIndex":13,"items":[{"name":"기모찌 노래연습장","tel":"070-7799-8858","addr":"경기도 평택시 세교동 569-3번지","indutype":"레저업소 - 노 래 방","category":"leisure"},{"name":"민 당구클럽","tel":"031-657-4172","addr":"경기도 평택시 세교동 569-3번지 2층","indutype":"레저업소 - 당 구 장","category":"leisure"}]},{"lat":"36.999994054","long":"127.08014045","imageIndex":13,"items":[{"name":"내고향노래연습장","tel":"031-657-4729","addr":"경기도 평택시 세교동 567-15번지","indutype":"레저업소 - 노 래 방","category":"leisure"}]},{"lat":"36.999435479","long":"127.08000507","imageIndex":13,"items":[{"name":"뉴차차차노래연습장","tel":"031-618-8621","addr":"경기도 평택시 세교동 566-10번지","indutype":"레저업소 - 노 래 방","category":"leisure"}]},{"lat":"36.99912913","long":"127.0799823","imageIndex":13,"items":[{"name":"동양당구장","tel":"031-656-1668","addr":"경기도 평택시 세교동 569-4번지 3층","indutype":"레저업소 - 당 구 장","category":"leisure"},{"name":"벌떼노래연습장","tel":"031-692-9977","addr":"경기도 평택시 세교동 569-4번지","indutype":"레저업소 - 노 래 방","category":"leisure"}]},{"lat":"37.000102343","long":"127.0798934","imageIndex":13,"items":[{"name":"두꺼비노래연습장","tel":"031-657-5331","addr":"경기도 평택시 세교동 561-10번지 지하","indutype":"레저업소 - 노 래 방","category":"leisure"}]},{"lat":"36.999858313","long":"127.08102782","imageIndex":13,"items":[{"name":"따봉노래연습장","tel":"031-651-9934","addr":"경기도 평택시 세교동 566-1번지","indutype":"레저업소 - 노 래 방","category":"leisure"}]},{"lat":"36.999048128","long":"127.07983617","imageIndex":13,"items":[{"name":"레인보우 당구클럽","tel":"031-000-0000","addr":"경기도 평택시 세교동 569-7번지 덕성빌딩 지하1층","indutype":"레저업소 - 당 구 장","category":"leisure"}]},{"lat":"37.010132229","long":"127.09139776","imageIndex":13,"items":[{"name":"메이져골프클럽","tel":"031-651-0752","addr":"경기도 평택시 세교동 7-2번지 남부빌딩 4층 전체","indutype":"레저업소 - 골프연습장","category":"leisure"}]},{"lat":"37.008797044","long":"127.08083473","imageIndex":13,"items":[{"name":"블랙홀 당구클럽","tel":"031-618-4939","addr":"경기도 평택시 세교동 543번지 2층","indutype":"레저업소 - 당 구 장","category":"leisure"}]},{"lat":"36.999858527","long":"127.08070203","imageIndex":13,"items":[{"name":"빵빵노래연습장","tel":"031-654-5529","addr":"경기도 평택시 세교동 566-16번지","indutype":"레저업소 - 노 래 방","category":"leisure"}]},{"lat":"36.999524345","long":"127.08189252","imageIndex":13,"items":[{"name":"사이버노래연습장","tel":"031-658-4255","addr":"경기도 평택시 세교동 563-1번지 지하층 지","indutype":"레저업소 - 노 래 방","category":"leisure"}]},{"lat":"37.0006874","long":"127.08087139","imageIndex":13,"items":[{"name":"수정노래연습장","tel":"031-111-1111","addr":"경기도 평택시 세교동 561-1번지","indutype":"레저업소 - 노 래 방","category":"leisure"}]},{"lat":"37.00010205","long":"127.08034278","imageIndex":13,"items":[{"name":"신도시노래연습장","tel":"031-691-1316","addr":"경기도 평택시 세교동 567-17번지 지층","indutype":"레저업소 - 노 래 방","category":"leisure"}]},{"lat":"36.999552872","long":"127.07961199","imageIndex":13,"items":[{"name":"싸이 노래연습장","tel":"031-651-6434","addr":"경기도 평택시 세교동 569-2번지","indutype":"레저업소 - 노 래 방","category":"leisure"}]},{"lat":"36.999742024","long":"127.07972453","imageIndex":13,"items":[{"name":"엔젤노래연습장","tel":"031-651-6050","addr":"경기도 평택시 세교동 567-11번지","indutype":"레저업소 - 노 래 방","category":"leisure"}]},{"lat":"37.004409034","long":"127.08053814","imageIndex":13,"items":[{"name":"예무관","tel":"031-656-9091","addr":"경기도 평택시 세교동 255번지","indutype":"레저업소 - 헬스클럽","category":"leisure"}]},{"lat":"36.999605493","long":"127.08181396","imageIndex":13,"items":[{"name":"월드컵노래방","tel":"031-657-2266","addr":"경기도 평택시 세교동 563번지","indutype":"레저업소 - 노 래 방","category":"leisure"}]},{"lat":"36.99985058","long":"127.07906181","imageIndex":13,"items":[{"name":"제이요가","tel":"031-691-8211","addr":"경기도 평택시 세교동 569-13번지 2층","indutype":"레저업소 - 헬스클럽","category":"leisure"}]},{"lat":"36.999715167","long":"127.07945488","imageIndex":13,"items":[{"name":"중앙당구장","tel":"070-8295-5464","addr":"경기도 평택시 세교동 569-1번지 2층","indutype":"레저업소 - 당 구 장","category":"leisure"}]},{"lat":"37.006817664","long":"127.07617005","imageIndex":13,"items":[{"name":"초롱이벤트","tel":"","addr":"경기도 평택시 세교동 432-62번지 장미타운 25동 101호","indutype":"레저업소 - 기타레져업소","category":"leisure"}]},{"lat":"37.000498109","long":"127.0809723","imageIndex":13,"items":[{"name":"카라노래방","tel":"031-656-1142","addr":"경기도 평택시 세교동 562번지","indutype":"레저업소 - 노 래 방","category":"leisure"}]},{"lat":"36.998939803","long":"127.08013938","imageIndex":13,"items":[{"name":"킹노래연습장","tel":"031-658-6347","addr":"경기도 평택시 세교동 569-5번지","indutype":"레저업소 - 노 래 방","category":"leisure"}]},{"lat":"36.99999436","long":"127.07966861","imageIndex":13,"items":[{"name":"팡팡노래연습장","tel":"031-657-6626","addr":"경기도 평택시 세교동 561-12번지","indutype":"레저업소 - 노 래 방","category":"leisure"}]},{"lat":"37.000580769","long":"127.07855699","imageIndex":13,"items":[{"name":"평택복싱세교점","tel":"031-663-5128","addr":"경기도 평택시 세교동 568번지 3층","indutype":"레저업소 - 헬스클럽","category":"leisure"}]},{"lat":"36.999551764","long":"127.08130836","imageIndex":13,"items":[{"name":"핑크노래연습장","tel":"031-654-8163","addr":"경기도 평택시 세교동 565-1번지 지층 전체","indutype":"레저업소 - 노 래 방","category":"leisure"}]},{"lat":"37.000048923","long":"127.07889349","imageIndex":13,"items":[{"name":"황제당구장","tel":"031-657-7082","addr":"경기도 평택시 세교동 568-4번지 5층","indutype":"레저업소 - 당 구 장","category":"leisure"}]},{"lat":"37.000994656","long":"127.0795011","imageIndex":8,"items":[{"name":"나.오치과의원","tel":"031-618-7007","addr":"경기도 평택시 세교동 560번지 현대아파트","indutype":"의원 - 치과의원","category":"medical"},{"name":"한라약국","tel":"031-655-5581","addr":"경기도 평택시 세교동 560번지 향촌 상가 105호","indutype":"약국 - 약국","category":"medical"}]},{"lat":"37.003080939","long":"127.08574973","imageIndex":8,"items":[{"name":"사랑의의원","tel":"031-654-0654","addr":"경기도 평택시 세교동 555번지 부영 상가 205호","indutype":"의원 - 의원","category":"medical"},{"name":"성신당한의원","tel":"031-692-7777","addr":"경기도 평택시 세교동 555번지 부영아파트 상가 204호","indutype":"서비스업 - 병원","category":"medical"},{"name":"조수현치과","tel":"031-655-8566","addr":"경기도 평택시 세교동 555번지 부영2상가 2동 302호","indutype":"의원 - 치과의원","category":"medical"}]},{"lat":"36.99912913","long":"127.0799823","imageIndex":8,"items":[{"name":"세교한의원","tel":"031-656-7575","addr":"경기도 평택시 세교동 569-4번지 2층","indutype":"서비스업 - 병원","category":"medical"},{"name":"세교한의원","tel":"031-653-7512","addr":"경기도 평택시 세교동 569-4번지 2층","indutype":"의원 - 한의원","category":"medical"}]},{"lat":"37.011099485","long":"127.08711798","imageIndex":8,"items":[{"name":"세교현대치과의원","tel":"031-656-7588","addr":"경기도 평택시 세교동 303-1번지 힐스테이트평택2차 204호","indutype":"의원 - 치과의원","category":"medical"},{"name":"우리동네현대약국","tel":"031-8094-0110","addr":"경기도 평택시 세교동 303-1번지 힐스테이트평택2차 상가동 205호","indutype":"약국 - 약국","category":"medical"}]},{"lat":"37.000048562","long":"127.07945521","imageIndex":8,"items":[{"name":"유명약국","tel":"031-654-0109","addr":"경기도 평택시 세교동 561-14번지","indutype":"소매업 - 약국","category":"medical"},{"name":"유명약국","tel":"031-655-7925","addr":"경기도 평택시 세교동 561-14번지 102호","indutype":"약국 - 약국","category":"medical"}]},{"lat":"37.008774716","long":"127.07330684","imageIndex":8,"items":[{"name":"참바른약국","tel":"031-652-0420","addr":"경기도 평택시 세교동 439번지 1층 102호","indutype":"약국 - 약국","category":"medical"},{"name":"참바른약국","tel":"031-655-5581","addr":"경기도 평택시 세교동 439번지 동진빌딩 102호","indutype":"소매업 - 약국","category":"medical"}]},{"lat":"37.003408138","long":"127.08161567","imageIndex":8,"items":[{"name":"평택바른한의원","tel":"031-618-9111","addr":"경기도 평택시 세교동 557번지 부영2차 상가 206호","indutype":"서비스업 - 병원","category":"medical"}]},{"lat":"37.00829715","long":"127.0733064","imageIndex":8,"items":[{"name":"평택정문약국","tel":"031-652-0420","addr":"경기도 평택시 세교동 439-14번지 1층","indutype":"소매업 - 약국","category":"medical"}]},{"lat":"36.99991351","long":"127.07928656","imageIndex":8,"items":[{"name":"한마음의원","tel":"031-658-7999","addr":"경기도 평택시 세교동 569번지 개암빌딩","indutype":"의원 - 의원","category":"medical"}]},{"lat":"37.005103135","long":"127.08011191","imageIndex":7,"items":[{"name":"대복","tel":"031-691-4734","addr":"경기도 평택시 세교동 245-14번지","indutype":"음료식품 - 정육점","category":"food"}]},{"lat":"37.0006874","long":"127.08087139","imageIndex":7,"items":[{"name":"델리쇼우과자점","tel":"031-652-0045","addr":"경기도 평택시 세교동 561-1번지","indutype":"음료식품 - 제과점","category":"food"}]},{"lat":"37.000074347","long":"127.08136507","imageIndex":7,"items":[{"name":"동네정육점","tel":"031-658-9641","addr":"경기도 평택시 세교동 562-5번지","indutype":"음료식품 - 정육점","category":"food"}]},{"lat":"37.011405593","long":"127.08747787","imageIndex":7,"items":[{"name":"마노아티 (MANOAH TEA)","tel":"031-000-0000","addr":"경기도 평택시 세교동 303-3번지 힐스테이트평택 110동 2603호","indutype":"음료식품 - 기타음료식품","category":"food"},{"name":"미로유통","tel":"","addr":"경기도 평택시 세교동 303-3번지 힐스테이트평택 110동 13층 1304호","indutype":"음료식품 - 기타음료식품","category":"food"},{"name":"풍년축산","tel":"031-656-6662","addr":"경기도 평택시 세교동 303-3번지 힐스테이트평택 122동 110호","indutype":"음료식품 - 정육점","category":"food"}]},{"lat":"37.000047847","long":"127.08055617","imageIndex":7,"items":[{"name":"불만난고기","tel":"031-654-7738","addr":"경기도 평택시 세교동 567-3번지","indutype":"음료식품 - 정육점","category":"food"}]},{"lat":"37.004355299","long":"127.08003251","imageIndex":7,"items":[{"name":"사랑스런 내 떡방앗간","tel":"031-618-0804","addr":"경기도 평택시 세교동 243-1번지 102호","indutype":"음료식품 - 제과점","category":"food"}]},{"lat":"37.007880078","long":"127.07753056","imageIndex":7,"items":[{"name":"산골농산","tel":"031-656-2044","addr":"경기도 평택시 세교동 431번지","indutype":"음료식품 - 농·축·수산품","category":"food"}]},{"lat":"37.000436648","long":"127.07847821","imageIndex":7,"items":[{"name":"세교점핑다이어트클럽","tel":"","addr":"경기도 평택시 세교동 568-7번지 은실신협 3층","indutype":"건강식품 - 기타건강식품","category":"food"}]},{"lat":"37.013323791","long":"127.08897442","imageIndex":7,"items":[{"name":"세교중학교","tel":"031-615-9100","addr":"경기도 평택시 세교동 304-11번지 세교중학교","indutype":"음료식품 - 기타음료식품","category":"food"}]},{"lat":"37.00079474","long":"127.08206235","imageIndex":7,"items":[{"name":"아이스께끼","tel":"031-656-5655","addr":"경기도 평택시 세교동 559번지 개나리아파트 상가동 102호","indutype":"음료식품 - 기타음료식품","category":"food"}]},{"lat":"37.00027304","long":"127.08066875","imageIndex":7,"items":[{"name":"은혜반찬","tel":"031-651-6370","addr":"경기도 평택시 세교동 567번지 1층","indutype":"음료식품 - 기타음료식품","category":"food"}]},{"lat":"37.004497407","long":"127.08314475","imageIndex":7,"items":[{"name":"이든네이처(평택세교지사)","tel":"031-657-7171","addr":"경기도 평택시 세교동 554번지 태영청솔아파트 상가동 201호","indutype":"건강식품 - 기타건강식품","category":"food"},{"name":"이롬세교중앙지사","tel":"031-657-9982","addr":"경기도 평택시 세교동 554번지 태영상가 204호","indutype":"소매업 - 건강기능식품","category":"food"},{"name":"태영공판장","tel":"","addr":"경기도 평택시 세교동 554번지 태영상가 101호","indutype":"소매업 - 식품, 잡화","category":"food"}]},{"lat":"37.015551445","long":"127.08614531","imageIndex":7,"items":[{"name":"주식회사영진푸드","tel":"031-651-9002","addr":"경기도 평택시 세교동 362-4번지","indutype":"음료식품 - 기타음료식품","category":"food"}]},{"lat":"36.999407318","long":"127.08172388","imageIndex":7,"items":[{"name":"천하명당 복권방","tel":"031-656-6116","addr":"경기도 평택시 세교동 563-4번지 1층","indutype":"음료식품 - 기타음료식품","category":"food"}]},{"lat":"37.011099485","long":"127.08711798","imageIndex":7,"items":[{"name":"파리바게트평택힐스테이트점","tel":"","addr":"경기도 평택시 세교동 303-1번지 힐스테이트평택2차 상가 221동 B103호,B104호","indutype":"음료식품 - 제과점","category":"food"}]},{"lat":"37.00555121","long":"127.06928169","imageIndex":7,"items":[{"name":"평택미에로","tel":"","addr":"경기도 평택시 세교동 480-6번지 1층","indutype":"음료식품 - 기타음료식품","category":"food"}]},{"lat":"37.012466784","long":"127.09033303","imageIndex":7,"items":[{"name":"평택여자고등학교매점","tel":"031-654-3559","addr":"경기도 평택시 세교동 1-2번지 평택여자고등학교 매점","indutype":"음료식품 - 기타음료식품","category":"food"}]},{"lat":"37.003080939","long":"127.08574973","imageIndex":7,"items":[{"name":"한우세상","tel":"031-655-3315","addr":"경기도 평택시 세교동 555번지 부영아파트 2동 1층 102호","indutype":"음료식품 - 정육점","category":"food"}]},{"lat":"37.000552387","long":"127.08064656","imageIndex":7,"items":[{"name":"현미박사누룽지세교점","tel":"031-5229-9246","addr":"경기도 평택시 세교동 561-3번지 1층","indutype":"음료식품 - 기타음료식품","category":"food"}]}]