[{"lat":"37.313311623","long":"126.82927088","imageIndex":16,"items":[{"name":"(사)한국청소년문화육성회 한국평생교육원","tel":"031-482-0505","addr":"경기도 안산시 단원구 고잔동 706-3번지 장은타워 307호","indutype":"학원 - 기타 교육기관","category":"study"},{"name":"경기비전평생교육원","tel":"070-8816-3586","addr":"경기도 안산시 단원구 고잔동 706-3번지 장은타워 705호","indutype":"회원제형태 - 학원","category":"study"},{"name":"빠삐에친구아트센터미술학원","tel":"031-480-7909","addr":"경기도 안산시 단원구 고잔동 706-3번지 장은타워 309호","indutype":"학원 - 예·체능계학원","category":"study"},{"name":"씨앤제이어학원","tel":"031-486-4863","addr":"경기도 안산시 단원구 고잔동 706-3 장은타워6층 601.602호","indutype":"회원제형태 - 학원","category":"study"},{"name":"아이보람","tel":"","addr":"경기도 안산시 단원구 고잔동 706-3번지 장은타워 7층 710호","indutype":"학원 - 기타 교육기관","category":"study"},{"name":"한국애니메이션교육협회","tel":"031-507-1400","addr":"경기도 안산시 단원구 고잔동 706-3번지 장은타워 4층 405호","indutype":"학원 - 기타 교육기관","category":"study"}]},{"lat":"37.316977252","long":"126.84090476","imageIndex":16,"items":[{"name":"(재)한국호텔관광교육재단","tel":"031-402-2199","addr":"경기도 안산시 단원구 고잔동 542-4번지","indutype":"학원 - 기타 교육기관","category":"study"},{"name":"(재)한국호텔관광직업전문학교","tel":"031-402-2199","addr":"경기도 안산시 단원구 고잔동 542-4번지","indutype":"회원제형태 - 학원","category":"study"},{"name":"HANHOJEON","tel":"031-410-0902","addr":"경기도 안산시 단원구 고잔동 542-4번지 해양빌딩","indutype":"학원 - 기능학원","category":"study"},{"name":"중앙요리제과제빵학원","tel":"031-402-2199","addr":"경기도 안산시 단원구 고잔동 542-4번지 해양빌딩 301호","indutype":"학원 - 기능학원","category":"study"},{"name":"한양검정고시학원","tel":"031-411-6333","addr":"경기도 안산시 단원구 고잔동 542-4번지 해양빌딩 201,203호","indutype":"회원제형태 - 학원","category":"study"}]},{"lat":"37.308115481","long":"126.8311553","imageIndex":16,"items":[{"name":"(주) 나무교육","tel":"070-8278-4522","addr":"경기도 안산시 단원구 고잔동 775-1번지 스카이프라자 507호","indutype":"학원 - 보습학원","category":"study"},{"name":"고잔연세음악학원","tel":"031-402-0727","addr":"경기도 안산시 단원구 고잔동 775-1번지 스카이프라자 408호","indutype":"학원 - 예·체능계학원","category":"study"},{"name":"백지원연세수학교습소","tel":"031-406-4614","addr":"경기도 안산시 단원구 고잔동 775-1번지 스카이프라자 4층 407호","indutype":"학원 - 보습학원","category":"study"},{"name":"사담화미술교습소","tel":"031-403-2057","addr":"경기도 안산시 단원구 고잔동 775-1번지 스카이프라자 206호","indutype":"학원 - 예·체능계학원","category":"study"},{"name":"샤오또우원어민중국어학원","tel":"031-402-1670","addr":"경기도 안산시 단원구 고잔동 775-1번지 스카이프라자 6층 605호","indutype":"학원 - 외국어학원","category":"study"},{"name":"에꼴드아르떼미술학원","tel":"031-000-0000","addr":"경기도 안산시 단원구 고잔동 775-1번지 스카이프라자 307호","indutype":"학원 - 예·체능계학원","category":"study"},{"name":"올댓기타실용음악학원","tel":"031-502-4001","addr":"경기도 안산시 단원구 고잔동 775-1번지 스카이프라자 406호","indutype":"회원제형태 - 학원","category":"study"},{"name":"용선생영어학원","tel":"031-411-3839","addr":"경기도 안산시 단원구 고잔동 775-1번지 스카이프라자 605호","indutype":"학원 - 보습학원","category":"study"},{"name":"지혜의숲안산고잔학원","tel":"031-405-8799","addr":"경기도 안산시 단원구 고잔동 775-1번지 스카이프라자 308호","indutype":"학원 - 보습학원","category":"study"},{"name":"크리아트학원","tel":"031-401-0977","addr":"경기도 안산시 단원구 고잔동 775-1번지 스카이프라자 306호","indutype":"학원 - 예·체능계학원","category":"study"}]},{"lat":"37.308091766","long":"126.82727504","imageIndex":16,"items":[{"name":"(주)에스피에듀","tel":"031-437-5757","addr":"경기도 안산시 단원구 고잔동 718-5번지 대림프라자701,702,703,704,705,706,707호","indutype":"학원 - 보습학원","category":"study"},{"name":"(주)에스피에듀/토피아학원","tel":"031-437-5757","addr":"경기도 안산시 단원구 고잔동 718-5번지 대림프라자 701,702,703,704,705,706,707호","indutype":"학원 - 보습학원","category":"study"},{"name":"구루독서실","tel":"031-480-0013","addr":"경기도 안산시 단원구 고잔동 718-5번지 대림프라자 505,506호","indutype":"학원 - 독서실","category":"study"},{"name":"더샵아이엘음악미술학원","tel":"031-439-7555","addr":"경기도 안산시 단원구 고잔동 718-5,5층501,502호","indutype":"학원 - 예·체능계학원","category":"study"},{"name":"비발디관현악음악학원","tel":"031-485-0330","addr":"경기도 안산시 단원구 고잔동 718-5번지 대림프라자 504호","indutype":"학원 - 예·체능계학원","category":"study"},{"name":"안산김샘학원","tel":"031-437-5757","addr":"경기도 안산시 단원구 고잔동 718-5번지 대림프라자 701호","indutype":"학원 - 보습학원","category":"study"}]},{"lat":"37.310758998","long":"126.82741548","imageIndex":16,"items":[{"name":"(주)우즈글로벌워크","tel":"031-475-3330","addr":"경기도 안산시 단원구 고잔동 710-1번지 삼영빌딩 109호","indutype":"학원 - 유학원","category":"study"}]},{"lat":"37.317870894","long":"126.83560056","imageIndex":16,"items":[{"name":"(주)하이미디어컴퓨터학원","tel":"031-487-1414","addr":"경기도 안산시 단원구 고잔동 535-1번지 신양프라자 405,406호","indutype":"학원 - 컴퓨터학원","category":"study"},{"name":"안산이지어학원","tel":"031-439-0550","addr":"경기도 안산시 단원구 고잔동 535-1번지 신양복합빌딩 602동 603호","indutype":"학원 - 외국어학원","category":"study"},{"name":"엠비씨 아카데미 뷰티미용학원","tel":"031-487-8003","addr":"경기도 안산시 단원구 고잔동 535-1번지","indutype":"학원 - 기능학원","category":"study"}]},{"lat":"37.308952625","long":"126.83060067","imageIndex":16,"items":[{"name":"(주)하이츠","tel":"031-365-4009","addr":"경기도 안산시 단원구 고잔동 772-1번지 크리스탈빌딩 603호","indutype":"학원 - 외국어학원","category":"study"},{"name":"FUN리더십교육원","tel":"031-406-2111","addr":"경기도 안산시 단원구 고잔동 772-1번지 크리스탈빌딩 707호","indutype":"회원제형태 - 학원","category":"study"},{"name":"고잔신도시씨앤씨미술학원","tel":"031-414-3336","addr":"경기도 안산시 단원구 고잔동 772-1번지 크리스탈빌딩 703,704호","indutype":"학원 - 예·체능계학원","category":"study"},{"name":"드림업영어학원","tel":"031-000-0000","addr":"경기도 안산시 단원구 고잔동 772-1번지 크리스탈빌딩 409호","indutype":"학원 - 보습학원","category":"study"},{"name":"로그인매쓰학원","tel":"031-414-0009","addr":"경기도 안산시 단원구 고잔동 772-1번지","indutype":"회원제형태 - 학원","category":"study"},{"name":"리드앤톡영어원서학원","tel":"","addr":"경기도 안산시 단원구 고잔동 772-1번지 크리스탈빌딩 609호","indutype":"학원 - 외국어학원","category":"study"},{"name":"매스탑초등영재관학원","tel":"031-480-6077","addr":"경기도 안산시 단원구 고잔동 772-1번지 크리스탈빌딩 607호","indutype":"학원 - 보습학원","category":"study"},{"name":"안산정상어학원","tel":"031-484-0509","addr":"경기도 안산시 단원구 고잔동 772-1번지 크리스탈프라자 3층","indutype":"회원제형태 - 학원","category":"study"},{"name":"유니스어학원(EUNICE IN SOTTAE)","tel":"031-402-0522","addr":"경기도 안산시 단원구 고잔동 772-1번지 크리스탈빌딩 4층 401,402호","indutype":"회원제형태 - 학원","category":"study"},{"name":"정글뮤직아카데미학원","tel":"031-401-0921","addr":"경기도 안산시 단원구 고잔동 772-1번지 크리스탈빌딩 602호 601","indutype":"회원제형태 - 학원","category":"study"},{"name":"주식회사매스탑","tel":"031-480-6077","addr":"경기도 안산시 단원구 고잔동 772-1번지 크리스탈빌딩 5층","indutype":"회원제형태 - 학원","category":"study"},{"name":"틴틴크리에이티브학원","tel":"","addr":"경기도 안산시 단원구 고잔동 772-1번지 크리스탈빌딩 705호","indutype":"학원 - 컴퓨터학원","category":"study"}]},{"lat":"37.317342346","long":"126.83143891","imageIndex":16,"items":[{"name":"HS연기뮤지컬방송아카데미","tel":"031-403-5315","addr":"경기도 안산시 단원구 고잔동 531-5번지 한양빌딩 2층 206호","indutype":"학원 - 예·체능계학원","category":"study"},{"name":"HS연기뮤지컬방송아카데미","tel":"031-403-5315","addr":"경기도 안산시 단원구 고잔동 531-5번지 한양빌딩 2층 206호","indutype":"학원 - 예·체능계학원","category":"study"},{"name":"한국자동차정비학원","tel":"031-402-4114","addr":"경기도 안산시 단원구 고잔동 531-5번지 한양빌딩 206호","indutype":"회원제형태 - 학원","category":"study"}]},{"lat":"37.308033586","long":"126.83060277","imageIndex":16,"items":[{"name":"His Math(히즈매쓰)","tel":"031-410-0038","addr":"경기도 안산시 단원구 고잔동 775번지 폴리타운B동317","indutype":"학원 - 보습학원","category":"study"},{"name":"강한대치학원","tel":"031-506-7899","addr":"경기도 안산시 단원구 고잔동 775번지 폴리타운 A동 608호","indutype":"학원 - 보습학원","category":"study"},{"name":"공감독서실","tel":"031-403-5111","addr":"경기도 안산시 단원구 고잔동 775번지 203,204호","indutype":"학원 - 독서실","category":"study"},{"name":"공감학원","tel":"031-403-5144","addr":"경기도 안산시 단원구 고잔동 775번지 2층 205,206호","indutype":"회원제형태 - 학원","category":"study"},{"name":"꿈꾸는피아니스트음악학원","tel":"031-485-3535","addr":"경기도 안산시 단원구 고잔동 775번지 폴리타운 B동 214호","indutype":"학원 - 예·체능계학원","category":"study"},{"name":"끝장수학학원","tel":"031-413-0506","addr":"경기도 안산시 단원구 고잔동 775번지 폴리타운 B동 509호","indutype":"학원 - 보습학원","category":"study"},{"name":"누리이음아동발달센터(고잔점)","tel":"031-414-4111","addr":"경기도 안산시 단원구 고잔동 775번지 폴리타운 309호","indutype":"학원 - 기타 교육기관","category":"study"},{"name":"늘오름국어논술교습소","tel":"031-401-7856","addr":"경기도 안산시 단원구 고잔동 775번지 A동 401-1호","indutype":"회원제형태 - 학원","category":"study"},{"name":"늘오름국어논술학원","tel":"031-401-7856","addr":"경기도 안산시 단원구 고잔동 775번지 폴리타운 A동 5층 502호","indutype":"학원 - 보습학원","category":"study"},{"name":"대치위슬런학원","tel":"031-486-6788","addr":"경기도 안산시 단원구 고잔동 775번지 폴리타운 B동 613호","indutype":"학원 - 보습학원","category":"study"},{"name":"마카잉글리쉬학원","tel":"070-4922-1261","addr":"경기도 안산시 단원구 고잔동 775번지 폴리타운 B동 5층 512호","indutype":"학원 - 외국어학원","category":"study"},{"name":"매쓰플로우수학교습소","tel":"","addr":"경기도 안산시 단원구 고잔동 775번지 A동 401-1호","indutype":"학원 - 보습학원","category":"study"},{"name":"보드펀체스학원","tel":"031-482-6141","addr":"경기도 안산시 단원구 고잔동 775번지 폴리타운 314호","indutype":"학원 - 보습학원","category":"study"},{"name":"뿌리깊은나무학원","tel":"","addr":"경기도 안산시 단원구 고잔동 775번지 폴리타운 406호","indutype":"학원 - 보습학원","category":"study"},{"name":"수학의마법사기성쌤수학학원","tel":"031-403-7560","addr":"경기도 안산시 단원구 고잔동 775번지 폴리타운 B동 310호","indutype":"학원 - 보습학원","category":"study"},{"name":"수학혁명학원","tel":"031-485-4007","addr":"경기도 안산시 단원구 고잔동 775번지 폴리타운 508호","indutype":"회원제형태 - 학원","category":"study"},{"name":"아이그림미술학원","tel":"031-414-6772","addr":"경기도 안산시 단원구 고잔동 775번지 폴리타운 215호","indutype":"학원 - 예·체능계학원","category":"study"},{"name":"엑스파일학원","tel":"031-403-7977","addr":"경기도 안산시 단원구 고잔동 775번지 폴리타운 316호","indutype":"회원제형태 - 학원","category":"study"},{"name":"엔케이 (NK)인피니트영수전문학원","tel":"031-401-8102","addr":"경기도 안산시 단원구 고잔동 775번지 폴리타운 A동 707,708호","indutype":"학원 - 보습학원","category":"study"},{"name":"엠클래스수학과학전문학원","tel":"031-439-1222","addr":"경기도 안산시 단원구 고잔동 775번지 폴리타운 516호","indutype":"회원제형태 - 학원","category":"study"},{"name":"오르다코리아샘앤클래스안산고잔학원","tel":"031-411-5520","addr":"경기도 안산시 단원구 고잔동 775번지 폴리타운 411,412호","indutype":"회원제형태 - 학원","category":"study"},{"name":"위슬런학원","tel":"031-439-4002","addr":"경기도 안산시 단원구 고잔동 775 6층(609,610,616,617호)","indutype":"회원제형태 - 학원","category":"study"},{"name":"이투스수학고잔신도시학원","tel":"031-480-0547","addr":"경기도 안산시 단원구 고잔동 775번지 폴리타운 B동 413호","indutype":"학원 - 보습학원","category":"study"},{"name":"일성TMS고잔캠퍼스학원","tel":"070-4225-5559","addr":"경기도 안산시 단원구 고잔동 775번지 폴리타운 7층 701,702호","indutype":"학원 - 보습학원","category":"study"},{"name":"잉글리시에그안산센터","tel":"031-475-2990","addr":"경기도 안산시 단원구 고잔동 775번지 폴리타운 2층 207호","indutype":"학원 - 학습지 교육","category":"study"},{"name":"주식회사 교육법인대신에듀","tel":"031-403-6263","addr":"경기도 안산시 단원구 고잔동 775번지 폴리타운 310호","indutype":"학원 - 보습학원","category":"study"},{"name":"주식회사 이투스247안산","tel":"031-402-0247","addr":"경기도 안산시 단원구 고잔동 775번지 폴리타운 A동 801호","indutype":"학원 - 보습학원","category":"study"},{"name":"주식회사 하이츠","tel":"031-484-0509","addr":"경기도 안산시 단원구 고잔동 775번지 폴리타운 415호 ,416,417호","indutype":"회원제형태 - 학원","category":"study"},{"name":"주식회사잉글리쉬월드","tel":"031-314-8087","addr":"경기도 안산시 단원구 고잔동 775번지 폴리타운 309호","indutype":"회원제형태 - 학원","category":"study"},{"name":"청춘날다","tel":"031-483-4488","addr":"경기도 안산시 단원구 고잔동 775번지 폴리타운 308호","indutype":"회원제형태 - 학원","category":"study"},{"name":"청춘날다플러스학원","tel":"031-483-4488","addr":"경기도 안산시 단원구 고잔동 775번지 폴리타운 B동 510호","indutype":"학원 - 보습학원","category":"study"},{"name":"콰이러중국어학원","tel":"031-439-1324","addr":"경기도 안산시 단원구 고잔동 775번지 폴리타운 A동 608호","indutype":"학원 - 외국어학원","category":"study"},{"name":"터치잉글리쉬학원","tel":"","addr":"경기도 안산시 단원구 고잔동 775번지 폴리타운 306호","indutype":"학원 - 보습학원","category":"study"},{"name":"품태권도","tel":"031-414-7141","addr":"경기도 안산시 단원구 고잔동 775번지 폴리타운 313호","indutype":"학원 - 예·체능계학원","category":"study"},{"name":"하빅선영어학원","tel":"031-403-1504","addr":"경기도 안산시 단원구 고잔동 775번지 폴리타운 B동 5층 515호","indutype":"학원 - 외국어학원","category":"study"},{"name":"하이츠학원","tel":"031-365-3360","addr":"경기도 안산시 단원구 고잔동 775번지 폴리타운 416,417호","indutype":"학원 - 보습학원","category":"study"},{"name":"한스영어전문학원","tel":"031-439-1638","addr":"경기도 안산시 단원구 고잔동 775번지","indutype":"회원제형태 - 학원","category":"study"},{"name":"힐링학원","tel":"031-486-5355","addr":"경기도 안산시 단원구 고잔동 775번지 폴리타운 B동 6층 614호","indutype":"학원 - 보습학원","category":"study"}]},{"lat":"37.311982513","long":"126.83229713","imageIndex":16,"items":[{"name":"ITF 태권도","tel":"031-439-1955","addr":"경기도 안산시 단원구 고잔동 768-2번지","indutype":"학원 - 예·체능계학원","category":"study"},{"name":"고잔대한논리속독학원","tel":"031-507-8214","addr":"경기도 안산시 단원구 고잔동 768-2번지 화승타운 506호","indutype":"학원 - 기타 교육기관","category":"study"},{"name":"김성수요가","tel":"031-503-3338","addr":"경기도 안산시 단원구 고잔동 768-2번지 화승타운 609호","indutype":"학원 - 기능학원","category":"study"},{"name":"김영진어학원","tel":"031-411-2225","addr":"경기도 안산시 단원구 고잔동 768-2번지 308호,310호","indutype":"학원 - 외국어학원","category":"study"},{"name":"너를위한수학학원","tel":"031-403-3383","addr":"경기도 안산시 단원구 고잔동 768-2번지 화승타운 406호","indutype":"학원 - 보습학원","category":"study"},{"name":"더오른영수학원","tel":"031-483-1212","addr":"경기도 안산시 단원구 고잔동 768-2번지 화승타운 408호","indutype":"회원제형태 - 학원","category":"study"},{"name":"빅텐학원","tel":"031-483-4161","addr":"경기도 안산시 단원구 고잔동 768-2번지 화승타운 403호","indutype":"학원 - 보습학원","category":"study"},{"name":"삼년의신화국어전문학원","tel":"031-480-3500","addr":"경기도 안산시 단원구 고잔동 768-2번지 화승타운 404호","indutype":"학원 - 보습학원","category":"study"},{"name":"스터디파트너영어학원","tel":"031-413-2237","addr":"경기도 안산시 단원구 고잔동 768-2번지 화승타운 404호","indutype":"학원 - 보습학원","category":"study"},{"name":"아티스 미술센터","tel":"031-411-5571","addr":"경기도 안산시 단원구 고잔동 768-2번지 화승타운 6층 612호","indutype":"학원 - 예·체능계학원","category":"study"},{"name":"옵티마플러스고잔독서실","tel":"031-405-4243","addr":"경기도 안산시 단원구 고잔동 768-2번지 화승타운 703호 ,704,705호","indutype":"학원 - 독서실","category":"study"},{"name":"유투엠안산고잔캠퍼스","tel":"031-403-0073","addr":"경기도 안산시 단원구 고잔동 768-2번지 화승타운 604,605호","indutype":"학원 - 보습학원","category":"study"},{"name":"유투엠안산고잔캠퍼스","tel":"031-403-0073","addr":"경기도 안산시 단원구 고잔동 768-2번지 604,605","indutype":"학원 - 보습학원","category":"study"},{"name":"주식회사걸리샘","tel":"031-414-4895","addr":"경기도 안산시 단원구 고잔동 768-2번지 화승타운 504호","indutype":"학원 - 보습학원","category":"study"},{"name":"지능로봇과학학원","tel":"031-414-9010","addr":"경기도 안산시 단원구 고잔동 768-2번지 화승타운 606호","indutype":"학원 - 보습학원","category":"study"},{"name":"지니어스마술학원","tel":"0000-1599-2926","addr":"경기도 안산시 단원구 고잔동 768-2번지 화승타운 412호","indutype":"회원제형태 - 학원","category":"study"}]},{"lat":"37.312205714","long":"126.8371924","imageIndex":16,"items":[{"name":"THE E.Y.E(디아이)","tel":"031-8042-7070","addr":"경기도 안산시 단원구 고잔동 741-3번지 2층 201호","indutype":"학원 - 외국어학원","category":"study"},{"name":"다비수&오창영논술수학학원","tel":"031-405-3534","addr":"경기도 안산시 단원구 고잔동 741-3번지 401호","indutype":"학원 - 보습학원","category":"study"},{"name":"아트앤하트안산고잔송호미술학원","tel":"031-403-1884","addr":"경기도 안산시 단원구 고잔동 741-3번지 3층 301호","indutype":"학원 - 예·체능계학원","category":"study"}]},{"lat":"37.320676957","long":"126.83201799","imageIndex":16,"items":[{"name":"The first class","tel":"031-381-2405","addr":"경기도 안산시 단원구 고잔동 527-1번지 벨라지움오피스텔 201동 218호","indutype":"학원 - 독서실","category":"study"}]},{"lat":"37.331449347","long":"126.82940969","imageIndex":16,"items":[{"name":"YBM리딩클럽","tel":"031-411-6789","addr":"경기도 안산시 단원구 고잔동 622-10 1층101호","indutype":"회원제형태 - 학원","category":"study"}]},{"lat":"37.311872498","long":"126.83098883","imageIndex":16,"items":[{"name":"e-고잔고시텔","tel":"031-484-3555","addr":"경기도 안산시 단원구 고잔동 768 월드타운 513.514.520호","indutype":"학원 - 독서실","category":"study"},{"name":"상상아이학원","tel":"031-480-3800","addr":"경기도 안산시 단원구 고잔동 768번지 월드타운 207,307호","indutype":"학원 - 보습학원","category":"study"},{"name":"씨엠에스학원","tel":"031-480-7997","addr":"경기도 안산시 단원구 고잔동 768번지 월드타운 508호","indutype":"학원 - 보습학원","category":"study"},{"name":"아담리즈수학학원","tel":"031-482-5885","addr":"경기도 안산시 단원구 고잔동 768번지 월드타운 502호","indutype":"학원 - 보습학원","category":"study"},{"name":"제이와이엠호텔요리제과제빵학원","tel":"031-486-8006","addr":"경기도 안산시 단원구 고잔동 768번지 월드타운 D동 412호","indutype":"학원 - 기타 교육기관","category":"study"}]},{"lat":"37.314671431","long":"126.82877139","imageIndex":16,"items":[{"name":"가인하우스","tel":"031-410-8865","addr":"경기도 안산시 단원구 고잔동 703-3번지 트윈타운 601호 B동","indutype":"학원 - 독서실","category":"study"}]},{"lat":"37.325617216","long":"126.83387972","imageIndex":16,"items":[{"name":"경안고등학교","tel":"","addr":"경기도 안산시 단원구 고잔동 677번지","indutype":"학원 - 초중고교육기관","category":"study"}]},{"lat":"37.3259768","long":"126.83971205","imageIndex":16,"items":[{"name":"경희대리더태권스쿨","tel":"031-413-3210","addr":"경기도 안산시 단원구 고잔동 671-1번지 201호","indutype":"학원 - 예·체능계학원","category":"study"},{"name":"경희리더태권스쿨","tel":"031-413-3210","addr":"경기도 안산시 단원구 고잔동 671-1번지 2층 201호","indutype":"학원 - 예·체능계학원","category":"study"},{"name":"디토음악학원","tel":"031-413-8273","addr":"경기도 안산시 단원구 고잔동 671-1번지 2층","indutype":"학원 - 예·체능계학원","category":"study"},{"name":"디토음악학원","tel":"031-413-8273","addr":"경기도 안산시 단원구 고잔동 671-1번지","indutype":"학원 - 예·체능계학원","category":"study"},{"name":"이룸학원","tel":"031-401-6878","addr":"경기도 안산시 단원구 고잔동 671-1번지","indutype":"학원 - 보습학원","category":"study"},{"name":"탑주니어학원","tel":"031-483-1783","addr":"경기도 안산시 단원구 고잔동 671-1번지 3층","indutype":"회원제형태 - 학원","category":"study"},{"name":"페찌아이어린이집[아이행복]","tel":"031-484-6673","addr":"경기도 안산시 단원구 고잔동 671-1번지 주공8단지내상가1층","indutype":"학원 - 유아원","category":"study"}]},{"lat":"37.307837455","long":"126.83204705","imageIndex":16,"items":[{"name":"경희대석사블랙벨트태권도장","tel":"031-485-5577","addr":"경기도 안산시 단원구 고잔동 775-4번지 대우프라자 304호","indutype":"학원 - 예·체능계학원","category":"study"},{"name":"고잔해법중국어교습소","tel":"031-411-4686","addr":"경기도 안산시 단원구 고잔동 775-4번지 대우프라자4층401-A호","indutype":"회원제형태 - 학원","category":"study"},{"name":"글로리아영어학원","tel":"031-410-9087","addr":"경기도 안산시 단원구 고잔동 775-4번지 대우프라자 406호","indutype":"학원 - 외국어학원","category":"study"},{"name":"마당미술학원","tel":"031-401-1311","addr":"경기도 안산시 단원구 고잔동 775-4번지 대우프라자 501호","indutype":"학원 - 예·체능계학원","category":"study"},{"name":"뮤엠영어양지학원","tel":"031-403-0090","addr":"경기도 안산시 단원구 고잔동 775-4번지 대우프라자 403호","indutype":"학원 - 외국어학원","category":"study"},{"name":"보스턴어학원","tel":"031-439-8505","addr":"경기도 안산시 단원구 고잔동 775-4번지 대우프라자 6층 604호, 605호","indutype":"학원 - 외국어학원","category":"study"},{"name":"브레인스톰미술학원","tel":"031-403-1108","addr":"경기도 안산시 단원구 고잔동 775-4번지 대우프라자 404호","indutype":"학원 - 예·체능계학원","category":"study"},{"name":"사차원학원","tel":"031-480-4447","addr":"경기도 안산시 단원구 고잔동 775-4번지 대우프라자 4층 405호","indutype":"회원제형태 - 학원","category":"study"},{"name":"엠베스트에스이양지점학원","tel":"031-439-4321","addr":"경기도 안산시 단원구 고잔동 775-4번지 306,307호","indutype":"학원 - 보습학원","category":"study"},{"name":"외교관사관학원","tel":"031-401-4769","addr":"경기도 안산시 단원구 고잔동 775-4번지 대우프라자 310동 311호","indutype":"학원 - 외국어학원","category":"study"},{"name":"이화뮤즈음악학원","tel":"031-410-2679","addr":"경기도 안산시 단원구 고잔동 775-4번지 대우프라자 309호","indutype":"학원 - 예·체능계학원","category":"study"},{"name":"잇올스파르타관리형프리미엄독서실(안산점)","tel":"031-365-3067","addr":"경기도 안산시 단원구 고잔동 775-4번지 대우프라자 603호 일부","indutype":"학원 - 독서실","category":"study"},{"name":"잇올스파르타독학관리학원(안산점)/(주)이","tel":"031-365-3067","addr":"경기도 안산시 단원구 고잔동 775-4번지 대우프라자 603호 일부","indutype":"학원 - 보습학원","category":"study"},{"name":"잉글리쉬무무고잔3학원","tel":"031-316-9905","addr":"경기도 안산시 단원구 고잔동 775-4번지 대우프라자 601호","indutype":"학원 - 보습학원","category":"study"},{"name":"지덕관","tel":"031-414-3595","addr":"경기도 안산시 단원구 고잔동 775-4번지 대우프라자 503호","indutype":"학원 - 예·체능계학원","category":"study"},{"name":"케이엔영어전문학원","tel":"031-484-5583","addr":"경기도 안산시 단원구 고잔동 775-4번지 대우프라자 403호","indutype":"회원제형태 - 학원","category":"study"}]},{"lat":"37.310254759","long":"126.84026493","imageIndex":16,"items":[{"name":"경희대석사태권도교육관","tel":"031-439-2727","addr":"경기도 안산시 단원구 고잔동 765번지 주공그린빌9단지상가","indutype":"회원제형태 - 학원","category":"study"},{"name":"꿈동산유치원[아이행복]","tel":"031-413-0033","addr":"경기도 안산시 단원구 고잔동 765번지 주공그린빌","indutype":"학원 - 유치원","category":"study"},{"name":"해법그린영어교습소","tel":"031-483-7123","addr":"경기도 안산시 단원구 고잔동 765번지 그린빌주공9단지 상가 203호","indutype":"회원제형태 - 학원","category":"study"},{"name":"해법영어교실해바라기영어교습소","tel":"031-483-7123","addr":"경기도 안산시 단원구 고잔동 765번지 주공그린빌9단지 203호","indutype":"회원제형태 - 학원","category":"study"}]},{"lat":"37.324171839","long":"126.83760615","imageIndex":16,"items":[{"name":"경희점 품태권도장","tel":"031-413-5224","addr":"경기도 안산시 단원구 고잔동 672-1번지 중앙시장 상가 3층 304호","indutype":"학원 - 예·체능계학원","category":"study"},{"name":"비욘드영어학원","tel":"031-411-2611","addr":"경기도 안산시 단원구 고잔동 672-1번지 201,205,205-1,206호","indutype":"학원 - 외국어학원","category":"study"},{"name":"제이엔제이음악학원","tel":"031-483-3988","addr":"경기도 안산시 단원구 고잔동 672-1번지 중앙시장 3층 305호","indutype":"학원 - 예·체능계학원","category":"study"}]},{"lat":"37.31325968","long":"126.82463461","imageIndex":16,"items":[{"name":"고대안산병원어린이집[아이행복]","tel":"031-413-6155","addr":"경기도 안산시 단원구 고잔동 699-4번지","indutype":"학원 - 유아원","category":"study"},{"name":"고대안산병원어린이집[아이행복]","tel":"031-413-6155","addr":"경기도 안산시 단원구 고잔동 699-4번지","indutype":"학원 - 유아원","category":"study"}]},{"lat":"37.315114139","long":"126.82354725","imageIndex":16,"items":[{"name":"고려어학원","tel":"031-401-3605","addr":"경기도 안산시 단원구 고잔동 681-3번지 206호 205호, 206호","indutype":"학원 - 외국어학원","category":"study"}]},{"lat":"37.3170646511","long":"126.8389416236","imageIndex":16,"items":[{"name":"고엽중국어학원","tel":"031-419-5877","addr":"경기도 안산시 단원구 고잔동 541-1번지","indutype":"교육서비스업 - 중국어학원","category":"study"}]},{"lat":"37.310031504","long":"126.82899641","imageIndex":16,"items":[{"name":"고잔VIP고시텔","tel":"031-486-1134","addr":"경기도 안산시 단원구 고잔동 708-2번지 7층","indutype":"학원 - 독서실","category":"study"},{"name":"두드림간호학원","tel":"031-410-4222","addr":"경기도 안산시 단원구 고잔동 708-2번지 삼영타운 407동 408호","indutype":"회원제형태 - 학원","category":"study"}]},{"lat":"37.308481663","long":"126.83518145","imageIndex":16,"items":[{"name":"고잔고등학교","tel":"031-486-6764","addr":"경기도 안산시 단원구 고잔동 776-1번지 고잔고등학교","indutype":"학원 - 초중고교육기관","category":"study"},{"name":"고잔고등학교_수업료","tel":"031-486-6764","addr":"경기도 안산시 단원구 고잔동 776-1번지 고잔고등학교","indutype":"학원 - 초중고교육기관","category":"study"}]},{"lat":"37.324731642","long":"126.82002683","imageIndex":16,"items":[{"name":"고잔교일학원","tel":"031-403-6966","addr":"경기도 안산시 단원구 고잔동 663-1번지 창동 상가 201~204호","indutype":"학원 - 보습학원","category":"study"}]},{"lat":"37.311586179","long":"126.83237698","imageIndex":16,"items":[{"name":"고잔독서실","tel":"031-403-9322","addr":"경기도 안산시 단원구 고잔동 768-3번지 드림프라자 406호","indutype":"학원 - 독서실","category":"study"},{"name":"더솔영어학원","tel":"","addr":"경기도 안산시 단원구 고잔동 768-3번지 진성드림프라자 607호","indutype":"학원 - 외국어학원","category":"study"},{"name":"번개수학학원","tel":"070-8849-4858","addr":"경기도 안산시 단원구 고잔동 768-3번지 드림프라자 308호","indutype":"회원제형태 - 학원","category":"study"},{"name":"아테네영어전문학원","tel":"031-475-5805","addr":"경기도 안산시 단원구 고잔동 768-3번지 드림프라자","indutype":"회원제형태 - 학원","category":"study"},{"name":"한양스포츠","tel":"031-410-3217","addr":"경기도 안산시 단원구 고잔동 768-3번지 진성드림프라자 703,704,705호","indutype":"학원 - 예·체능계학원","category":"study"}]},{"lat":"37.308344085","long":"126.82729702","imageIndex":16,"items":[{"name":"고잔소마사고력수학학원","tel":"031-414-5277","addr":"경기도 안산시 단원구 고잔동 718번지 이노프라자 203호","indutype":"학원 - 보습학원","category":"study"},{"name":"꿈이있는독서실","tel":"031-405-1250","addr":"경기도 안산시 단원구 고잔동 718번지 이노프라자 4층 402호","indutype":"학원 - 독서실","category":"study"},{"name":"피엠피영어1관학원","tel":"031-411-2113","addr":"경기도 안산시 단원구 고잔동 718번지 이노프라자 4층 404,405호","indutype":"학원 - 외국어학원","category":"study"}]},{"lat":"37.30808974","long":"126.83204648","imageIndex":16,"items":[{"name":"고잔시대정신학원","tel":"031-000-0000","addr":"경기도 안산시 단원구 고잔동 775-3번지 604,605호","indutype":"학원 - 보습학원","category":"study"},{"name":"드림워커수학과학전문학원","tel":"031-411-8850","addr":"경기도 안산시 단원구 고잔동 775-3번지 로진프라자 607,608호","indutype":"학원 - 보습학원","category":"study"},{"name":"써미트 수학학원","tel":"031-480-3133","addr":"경기도 안산시 단원구 고잔동 775-3번지 로진프라자 2층 203호","indutype":"학원 - 보습학원","category":"study"},{"name":"씨엔엔어학원","tel":"031-401-8688","addr":"경기도 안산시 단원구 고잔동 775-3번지 로진프라자 601호,602호,603호","indutype":"학원 - 외국어학원","category":"study"},{"name":"에듀플레스학원","tel":"031-410-4819","addr":"경기도 안산시 단원구 고잔동 775-3번지 로진프라자 201호","indutype":"학원 - 보습학원","category":"study"},{"name":"원화실미술교습소","tel":"031-411-7174","addr":"경기도 안산시 단원구 고잔동 775-3번지 로진프라자 609호","indutype":"학원 - 예·체능계학원","category":"study"},{"name":"이지홈스쿨","tel":"031-414-2095","addr":"경기도 안산시 단원구 고잔동 775-3 로진프라자 401,402,403호","indutype":"회원제형태 - 학원","category":"study"},{"name":"인코딩플러스학원","tel":"031-8042-2391","addr":"경기도 안산시 단원구 고잔동 775-3번지 로진프라자 305,305-1호","indutype":"학원 - 컴퓨터학원","category":"study"},{"name":"장수영바둑학원","tel":"031-480-7959","addr":"경기도 안산시 단원구 고잔동 775-3번지 로진프라자 302호","indutype":"학원 - 기타 교육기관","category":"study"},{"name":"정명3관학원","tel":"031-503-0029","addr":"경기도 안산시 단원구 고잔동 775-3번지 로진프라자 505호","indutype":"학원 - 보습학원","category":"study"}]},{"lat":"37.313836908","long":"126.82501679","imageIndex":16,"items":[{"name":"고잔실용음악학원","tel":"031-410-3824","addr":"경기도 안산시 단원구 고잔동 685-5번지 태성빌딩 301호","indutype":"회원제형태 - 학원","category":"study"},{"name":"아띠랑스케이크&디저트학원","tel":"031-365-5674","addr":"경기도 안산시 단원구 고잔동 685-5번지 태성빌딩 201호","indutype":"학원 - 기능학원","category":"study"}]},{"lat":"37.3081154808","long":"126.8311553034","imageIndex":16,"items":[{"name":"고잔연세음악학원","tel":"031-402-0727","addr":"경기도 안산시 단원구 고잔동 775-1번지","indutype":"교육서비스업 - 음악학원","category":"study"},{"name":"에꼴드아르떼미술학원","tel":"031-487-8736","addr":"경기도 안산시 단원구 고잔동 775-1번지","indutype":"교육서비스업 - 미술학원","category":"study"},{"name":"크리아트학원","tel":"031-401-0977","addr":"경기도 안산시 단원구 고잔동 775-1번지","indutype":"교육서비스업 - 미술학원","category":"study"}]},{"lat":"37.313004061","long":"126.82243547","imageIndex":16,"items":[{"name":"고잔예감터치미술학원","tel":"031-410-5535","addr":"경기도 안산시 단원구 고잔동 696-2번지 201호","indutype":"학원 - 예·체능계학원","category":"study"}]},{"lat":"37.315035566","long":"126.82521703","imageIndex":16,"items":[{"name":"고잔요양보호사교육원","tel":"031-411-1010","addr":"경기도 안산시 단원구 고잔동 681-7번지 대덕프라자 403호","indutype":"학원 - 기타 교육기관","category":"study"}]},{"lat":"37.33003467","long":"126.82935652","imageIndex":16,"items":[{"name":"고잔체육관","tel":"031-410-0777","addr":"경기도 안산시 단원구 고잔동 613번지 303,304호","indutype":"학원 - 예·체능계학원","category":"study"}]},{"lat":"37.324228917","long":"126.82719237","imageIndex":16,"items":[{"name":"고잔초등학교","tel":"031-487-4350","addr":"경기도 안산시 단원구 고잔동 581번지 고잔초등학교","indutype":"학원 - 초중고교육기관","category":"study"}]},{"lat":"37.310615634","long":"126.83416147","imageIndex":16,"items":[{"name":"국가대표준태권도","tel":"031-411-0019","addr":"경기도 안산시 단원구 고잔동 767번지 네오빌6단지 상가동 201호","indutype":"학원 - 예·체능계학원","category":"study"},{"name":"네오빌음악학원","tel":"031-414-8181","addr":"경기도 안산시 단원구 고잔동 767 네오빌상가 204~205호","indutype":"학원 - 예·체능계학원","category":"study"},{"name":"롤마해법영어교습소","tel":"031-475-5800","addr":"경기도 안산시 단원구 고잔동 767번지 네오빌 상가 202호","indutype":"학원 - 외국어학원","category":"study"}]},{"lat":"37.31255949","long":"126.83252144","imageIndex":16,"items":[{"name":"국어연구소 맥학원","tel":"031-411-9545","addr":"경기도 안산시 단원구 고잔동 727-4번지 시티프라자 505호","indutype":"학원 - 보습학원","category":"study"},{"name":"렘넌트어학원","tel":"031-439-0315","addr":"경기도 안산시 단원구 고잔동 727-4번지 씨티프라자 306호","indutype":"학원 - 기타 교육기관","category":"study"},{"name":"아트플레이","tel":"","addr":"경기도 안산시 단원구 고잔동 727-4번지 시티프라자 305호","indutype":"학원 - 기타 교육기관","category":"study"},{"name":"연세수호학원","tel":"","addr":"경기도 안산시 단원구 고잔동 727-4번지 시티프라자 304호","indutype":"학원 - 보습학원","category":"study"},{"name":"위상학원","tel":"031-402-4304","addr":"경기도 안산시 단원구 고잔동 727-4번지 시티프라자 306호","indutype":"학원 - 보습학원","category":"study"},{"name":"인싸이트 학원","tel":"031-401-0520","addr":"경기도 안산시 단원구 고잔동 727-4번지 시티프라자 405호","indutype":"학원 - 보습학원","category":"study"},{"name":"제우스과학전문학원","tel":"031-480-1728","addr":"경기도 안산시 단원구 고잔동 727-4번지 시티프라자 407호","indutype":"회원제형태 - 학원","category":"study"},{"name":"조이발레아카데미학원","tel":"031-480-1850","addr":"경기도 안산시 단원구 고잔동 727-4번지 시티프라자 503호","indutype":"학원 - 예·체능계학원","category":"study"},{"name":"지혜경희태권도","tel":"031-402-9622","addr":"경기도 안산시 단원구 고잔동 727-4씨티프라자402호~403호","indutype":"학원 - 예·체능계학원","category":"study"},{"name":"해법유솔루션수학학원","tel":"031-405-3342","addr":"경기도 안산시 단원구 고잔동 727-4번지 시티프라자 404호","indutype":"학원 - 보습학원","category":"study"}]},{"lat":"37.318592932","long":"126.83646764","imageIndex":16,"items":[{"name":"그린섬미술학원","tel":"031-402-9817","addr":"경기도 안산시 단원구 고잔동 534-3,615-1,615-2,616,617,619호","indutype":"학원 - 예·체능계학원","category":"study"},{"name":"디자인그린섬미술학원","tel":"031-403-9819","addr":"경기도 안산시 단원구 고잔동 534-3번지 안산중앙노블레스 607호","indutype":"학원 - 예·체능계학원","category":"study"},{"name":"백만영어학원","tel":"031-402-7015","addr":"경기도 안산시 단원구 고잔동 534-3번지 안산중앙노블레스 409호","indutype":"학원 - 보습학원","category":"study"},{"name":"시사플러스어학원","tel":"031-483-3000","addr":"경기도 안산시 단원구 고잔동 534-3번지 814-817호","indutype":"학원 - 외국어학원","category":"study"},{"name":"시사플러스어학원","tel":"031-483-3000","addr":"경기도 안산시 단원구 고잔동 534-3번지 안산중앙노블레스 814~817,820~822호","indutype":"학원 - 외국어학원","category":"study"},{"name":"에듀박스(edubox)학원","tel":"031-481-9877","addr":"경기도 안산시 단원구 고잔동 534-3번지 안산중앙노블레스 413호","indutype":"학원 - 보습학원","category":"study"},{"name":"에이투무용학원","tel":"031-484-7782","addr":"경기도 안산시 단원구 고잔동 534-3중앙노블레스빌딩721호~722호","indutype":"학원 - 예·체능계학원","category":"study"},{"name":"이연보컬학원","tel":"031-414-2053","addr":"경기도 안산시 단원구 고잔동 534-3번지 714-5호","indutype":"학원 - 예·체능계학원","category":"study"},{"name":"인주피아노","tel":"031-402-3763","addr":"경기도 안산시 단원구 고잔동 534-3번지 안산중앙노블레스 613호","indutype":"학원 - 예·체능계학원","category":"study"},{"name":"중앙간호학원","tel":"031-411-4760","addr":"경기도 안산시 단원구 고잔동 534-3번지 801,802,812,813호","indutype":"학원 - 기능학원","category":"study"},{"name":"청송요양보호사교육원","tel":"031-403-7795","addr":"경기도 안산시 단원구 고잔동 534-3번지 안산중앙노블레스 9층 910호","indutype":"회원제형태 - 학원","category":"study"},{"name":"크리스찬쇼보미용학원","tel":"031-507-2079","addr":"경기도 안산시 단원구 고잔동 534-3중앙노블레스빌딩706~710,716,717","indutype":"회원제형태 - 학원","category":"study"},{"name":"한국직업능력교육원 안산","tel":"031-402-7113","addr":"경기도 안산시 단원구 고잔동 534-3번지 안산중앙노블레스 7층 701~706,712-2,713호","indutype":"학원 - 기능학원","category":"study"}]},{"lat":"37.328780049","long":"126.82785876","imageIndex":16,"items":[{"name":"그린어린이집[아이행복]","tel":"031-520-1212","addr":"경기도 안산시 단원구 고잔동 606번지 동화연립 101동 106호","indutype":"학원 - 유아원","category":"study"},{"name":"사랑꿈어린이집[아이행복]","tel":"031-414-1391","addr":"경기도 안산시 단원구 고잔동 606번지 동화연립 101동 103호","indutype":"학원 - 유아원","category":"study"}]},{"lat":"37.3175605920","long":"126.8328260281","imageIndex":16,"items":[{"name":"글로벌외국어학원","tel":"031-405-6969","addr":"경기도 안산시 단원구 고잔동 531-2번지","indutype":"교육서비스업 - 외국어학원","category":"study"}]},{"lat":"37.317560592","long":"126.83282603","imageIndex":16,"items":[{"name":"글로벌외국어학원","tel":"031-405-6969","addr":"경기도 안산시 단원구 고잔동 531-2번지 601~605호,608~610호","indutype":"회원제형태 - 학원","category":"study"},{"name":"안산대성학원","tel":"031-410-0522","addr":"경기도 안산시 단원구 고잔동 531-2 에메랄드빌딩 502,503,504호","indutype":"회원제형태 - 학원","category":"study"},{"name":"양지고시원","tel":"031-486-8886","addr":"경기도 안산시 단원구 고잔동 531-2번지 에머랄드빌딩 501호 ,508,509호","indutype":"학원 - 독서실","category":"study"},{"name":"양지원룸텔","tel":"031-486-8886","addr":"경기도 안산시 단원구 고잔동 531-2번지 에머랄드빌딩 502호","indutype":"학원 - 독서실","category":"study"},{"name":"최강고잔유도체육관","tel":"031-405-7795","addr":"경기도 안산시 단원구 고잔동 531-2번지 에머랄드빌딩 612호","indutype":"학원 - 예·체능계학원","category":"study"}]},{"lat":"37.331251685","long":"126.82979378","imageIndex":16,"items":[{"name":"금빛학원","tel":"031-484-4777","addr":"경기도 안산시 단원구 고잔동 621-15번지 1층","indutype":"학원 - 기타 교육기관","category":"study"}]},{"lat":"37.310119175","long":"126.82734929","imageIndex":16,"items":[{"name":"김기한(부동산,알테피스원룸텔)","tel":"031-480-8145","addr":"경기도 안산시 단원구 고잔동 710-3번지 고잔법조빌딩 301~310호","indutype":"학원 - 독서실","category":"study"},{"name":"안산커피바리스타전문학원","tel":"031-410-7179","addr":"경기도 안산시 단원구 고잔동 710-3번지 고잔법조빌딩 6층 610호","indutype":"학원 - 기능학원","category":"study"},{"name":"알테피스원룸","tel":"031-480-8145","addr":"경기도 안산시 단원구 고잔동 710-3번지 고잔법조빌딩 307호","indutype":"학원 - 독서실","category":"study"},{"name":"알테피스원룸텔","tel":"031-480-8145","addr":"경기도 안산시 단원구 고잔동 710-3번지 고잔법조빌딩 307호","indutype":"학원 - 독서실","category":"study"},{"name":"엘앤에스실용음악학원","tel":"031-483-3060","addr":"경기도 안산시 단원구 고잔동 710-3번지 고잔법조빌딩 406호","indutype":"학원 - 예·체능계학원","category":"study"},{"name":"올림입파교육컨설팅","tel":"031-418-2895","addr":"경기도 안산시 단원구 고잔동 710-3번지 고잔법조빌딩 2동 209호","indutype":"학원 - 기타 교육기관","category":"study"},{"name":"풀뿌리환경센타","tel":"031-410-6925","addr":"경기도 안산시 단원구 고잔동 710-3번지 고잔법조빌딩 507호","indutype":"학원 - 기타 교육기관","category":"study"}]},{"lat":"37.31019853","long":"126.83232372","imageIndex":16,"items":[{"name":"김대원수학학원","tel":"031-439-2212","addr":"경기도 안산시 단원구 고잔동 769-3번지 거성타운 302호","indutype":"학원 - 보습학원","category":"study"},{"name":"더와이즈영어학원","tel":"031-413-8286","addr":"경기도 안산시 단원구 고잔동 769-3번지 거성타운 303호","indutype":"학원 - 외국어학원","category":"study"},{"name":"생각오름고잔점생각디자인학원","tel":"070-4233-7664","addr":"경기도 안산시 단원구 고잔동 769-3번지 거성타운 201호","indutype":"학원 - 보습학원","category":"study"},{"name":"수학여우학원","tel":"031-410-4345","addr":"경기도 안산시 단원구 고잔동 769-3번지 거성타운 508,509호","indutype":"학원 - 보습학원","category":"study"},{"name":"스마트잉글리쉬교습소","tel":"031-411-5067","addr":"경기도 안산시 단원구 고잔동 769-3번지 거성빌딩 209호","indutype":"회원제형태 - 학원","category":"study"},{"name":"연세이앤앰학원","tel":"031-410-9540","addr":"경기도 안산시 단원구 고잔동 769-3번지 거성타운 507호","indutype":"학원 - 보습학원","category":"study"},{"name":"열린음악학원","tel":"031-484-4405","addr":"경기도 안산시 단원구 고잔동 769-3번지 거성타운 503호","indutype":"학원 - 예·체능계학원","category":"study"},{"name":"열린음악학원","tel":"031-484-4405","addr":"경기도 안산시 단원구 고잔동 769-3번지 거성빌딩 503동 504호","indutype":"학원 - 예·체능계학원","category":"study"},{"name":"예인학원","tel":"031-475-8209","addr":"경기도 안산시 단원구 고잔동 769-3번지 거성타운 605,606호","indutype":"학원 - 보습학원","category":"study"},{"name":"이룸최현숙국어전문학원","tel":"070-7696-6932","addr":"경기도 안산시 단원구 고잔동 769-3번지 401,402호","indutype":"학원 - 보습학원","category":"study"},{"name":"큰숲독서실","tel":"031-413-6004","addr":"경기도 안산시 단원구 고잔동 769-3번지 501,502,505,506호","indutype":"학원 - 독서실","category":"study"},{"name":"토즈스터디센터 고잔독서실","tel":"031-403-1232","addr":"경기도 안산시 단원구 고잔동 769-3번지 거성타운 601호 ,602,603,604호","indutype":"학원 - 독서실","category":"study"},{"name":"팩션국어교습소","tel":"031-480-0480","addr":"경기도 안산시 단원구 고잔동 769-3번지 거성타운 301호","indutype":"회원제형태 - 학원","category":"study"},{"name":"프론티어영어교습소","tel":"031-413-8286","addr":"경기도 안산시 단원구 고잔동 769-3번지 거성타운 202호","indutype":"학원 - 보습학원","category":"study"}]},{"lat":"37.309145958","long":"126.82727259","imageIndex":16,"items":[{"name":"김영음악학원","tel":"031-484-2220","addr":"경기도 안산시 단원구 고잔동 715-2번지 우석프라자 403호","indutype":"학원 - 예·체능계학원","category":"study"},{"name":"더큰교육학원","tel":"031-487-1900","addr":"경기도 안산시 단원구 고잔동 715-2번지 우석프라자 307호","indutype":"학원 - 보습학원","category":"study"},{"name":"아이비케이쌤수학교습소 (IBK쌤수학교습소)","tel":"031-410-1412","addr":"경기도 안산시 단원구 고잔동 715-2번지 우석프라자 306호","indutype":"학원 - 보습학원","category":"study"},{"name":"안산호수공원점작심독서실","tel":"031-487-0910","addr":"경기도 안산시 단원구 고잔동 715-2번지 우석프라자 3층 303,304,305호","indutype":"학원 - 독서실","category":"study"},{"name":"연세대태권도","tel":"031-405-8554","addr":"경기도 안산시 단원구 고잔동 715-2번지 우석프라자 501동 502호","indutype":"학원 - 예·체능계학원","category":"study"},{"name":"피엠피학원","tel":"031-411-2113","addr":"경기도 안산시 단원구 고잔동 715-2번지 우석프라자 404호","indutype":"학원 - 보습학원","category":"study"},{"name":"해법독서논술학원","tel":"031-401-6506","addr":"경기도 안산시 단원구 고잔동 715-2번지 우석프라자 307호","indutype":"회원제형태 - 학원","category":"study"},{"name":"해법영어학원","tel":"031-411-5357","addr":"경기도 안산시 단원구 고잔동 715-2번지 우석프라자 502호","indutype":"학원 - 보습학원","category":"study"},{"name":"혜다국어논술전문학원","tel":"031-509-1087","addr":"경기도 안산시 단원구 고잔동 715-2번지 우석프라자 203호","indutype":"학원 - 보습학원","category":"study"}]},{"lat":"37.3119825135","long":"126.8322971258","imageIndex":16,"items":[{"name":"김영진어학원","tel":"031-411-2225","addr":"경기도 안산시 단원구 고잔동 768-2번지","indutype":"교육서비스업 - 외국어학원","category":"study"},{"name":"번개수학학원","tel":"031-401-4858","addr":"경기도 안산시 단원구 고잔동 768-2번지","indutype":"교육서비스업 - 학원","category":"study"},{"name":"스터디파트너영어학원","tel":"031-413-2237","addr":"경기도 안산시 단원구 고잔동 768-2번지","indutype":"교육서비스업 - 학교교과교습학원","category":"study"},{"name":"지능로봇과학학원","tel":"031-414-9010","addr":"경기도 안산시 단원구 고잔동 768-2번지","indutype":"교육서비스업 - 학원","category":"study"}]},{"lat":"37.311561388","long":"126.82774075","imageIndex":16,"items":[{"name":"김진숙속기사무소","tel":"031-485-0976","addr":"경기도 안산시 단원구 고잔동 707-3번지 대한법조빌딩 132호","indutype":"회원제형태 - 학원","category":"study"}]},{"lat":"37.309342481","long":"126.83226925","imageIndex":16,"items":[{"name":"김현영어전문학원","tel":"031-402-4947","addr":"경기도 안산시 단원구 고잔동 774번지 21세기프라자 502호","indutype":"회원제형태 - 학원","category":"study"},{"name":"멕스학원","tel":"031-439-3222","addr":"경기도 안산시 단원구 고잔동 774번지 21세기프라자 506호","indutype":"학원 - 보습학원","category":"study"},{"name":"옳은미래학원","tel":"031-362-5065","addr":"경기도 안산시 단원구 고잔동 774번지 21세기프라자 506호","indutype":"학원 - 보습학원","category":"study"},{"name":"와이엘(YL)수학학원","tel":"031-411-6809","addr":"경기도 안산시 단원구 고잔동 774번지 501호 21C프라자 (21세기프라자)","indutype":"회원제형태 - 학원","category":"study"},{"name":"전재희영어학원","tel":"031-402-2256","addr":"경기도 안산시 단원구 고잔동 774번지 21세기프라자 502호","indutype":"회원제형태 - 학원","category":"study"},{"name":"파란나라독서실","tel":"031-405-2325","addr":"경기도 안산시 단원구 고잔동 774번지 503-505호 (21세기프라자)","indutype":"학원 - 독서실","category":"study"}]},{"lat":"37.310450864","long":"126.83235699","imageIndex":16,"items":[{"name":"꼭지점수학전문학원","tel":"031-406-9577","addr":"경기도 안산시 단원구 고잔동 769-2번지 신명빌딩 6동 601~603호","indutype":"학원 - 보습학원","category":"study"},{"name":"리디머입시학원","tel":"031-505-6600","addr":"경기도 안산시 단원구 고잔동 769-2번지 405호, 406호","indutype":"학원 - 보습학원","category":"study"},{"name":"마테마타수학전문학원","tel":"031-414-0994","addr":"경기도 안산시 단원구 고잔동 769-2번지 신명빌딩 501호","indutype":"회원제형태 - 학원","category":"study"},{"name":"북꼬리독서학원","tel":"031-485-3336","addr":"경기도 안산시 단원구 고잔동 769-2번지 신명빌딩 303호","indutype":"학원 - 보습학원","category":"study"},{"name":"최용훈국어전문학원","tel":"031-410-2859","addr":"경기도 안산시 단원구 고잔동 769-2번지 신명빌딩 503호","indutype":"학원 - 보습학원","category":"study"},{"name":"황금알독서논술학원","tel":"031-439-3939","addr":"경기도 안산시 단원구 고잔동 769-2번지 신명빌딩 503호","indutype":"학원 - 보습학원","category":"study"}]},{"lat":"37.317591007","long":"126.84168186","imageIndex":16,"items":[{"name":"꿈꾸는어린왕자","tel":"031-487-9701","addr":"경기도 안산시 단원구 고잔동 540-9번지 리치프라자 2층","indutype":"학원 - 유학원","category":"study"},{"name":"사단법인 한국화학안전협회","tel":"031-410-2991","addr":"경기도 안산시 단원구 고잔동 540-9번지 리치프라자 402호","indutype":"학원 - 기타 교육기관","category":"study"},{"name":"탑애견미용학원","tel":"031-413-8747","addr":"경기도 안산시 단원구 고잔동 540-9번지 리치프라자 2층 205호","indutype":"학원 - 기능학원","category":"study"}]},{"lat":"37.308281716","long":"126.82777092","imageIndex":16,"items":[{"name":"나눔교육","tel":"031-472-0620","addr":"경기도 안산시 단원구 고잔동 718-1번지 동남레이크빌II 206호","indutype":"회원제형태 - 학원","category":"study"},{"name":"유정교육","tel":"031-472-0620","addr":"경기도 안산시 단원구 고잔동 718-1번지 동남레이크빌II 205호 일부","indutype":"학원 - 예·체능계학원","category":"study"},{"name":"카이씬중국어교습소","tel":"031-405-6775","addr":"경기도 안산시 단원구 고잔동 718-1번지 동남레이크빌II 201호","indutype":"회원제형태 - 학원","category":"study"}]},{"lat":"37.319897559","long":"126.83515608","imageIndex":16,"items":[{"name":"난 음악이랑 놀아!","tel":"","addr":"경기도 안산시 단원구 고잔동 853번지 안산힐스테이트중앙 105동 302호","indutype":"학원 - 예·체능계학원","category":"study"}]},{"lat":"37.312898967","long":"126.82443241","imageIndex":16,"items":[{"name":"내신공부의신학원","tel":"031-413-4312","addr":"경기도 안산시 단원구 고잔동 700-5번지 4층","indutype":"회원제형태 - 학원","category":"study"},{"name":"대풍태권도","tel":"031-403-9952","addr":"경기도 안산시 단원구 고잔동 700-5번지 2층","indutype":"학원 - 예·체능계학원","category":"study"},{"name":"제씨잉글리쉬학원","tel":"070-4218-8252","addr":"경기도 안산시 단원구 고잔동 700-5번지 3층","indutype":"학원 - 보습학원","category":"study"}]},{"lat":"37.308619215","long":"126.83057887","imageIndex":16,"items":[{"name":"네오위너스영어학원","tel":"031-413-9555","addr":"경기도 안산시 단원구 고잔동 772-2번지 골든에이스프라자 301~302호","indutype":"학원 - 보습학원","category":"study"},{"name":"더힐스","tel":"031-484-8788","addr":"경기도 안산시 단원구 고잔동 772-2번지 골든에이스프라자 407호","indutype":"학원 - 독서실","category":"study"},{"name":"역전가능국어논술전문학원","tel":"031-413-9511","addr":"경기도 안산시 단원구 고잔동 772-2번지 골든에이스프라자 503호","indutype":"학원 - 보습학원","category":"study"},{"name":"주식회사리틀팍스","tel":"031-410-0013","addr":"경기도 안산시 단원구 고잔동 772-2,골든에이스플라자401~403호","indutype":"회원제형태 - 학원","category":"study"}]},{"lat":"37.310703182","long":"126.83237898","imageIndex":16,"items":[{"name":"노블레스영수전문학원","tel":"070-4201-7589","addr":"경기도 안산시 단원구 고잔동 769-1번지 네오빌딩 502호","indutype":"학원 - 보습학원","category":"study"},{"name":"단원미술교습소","tel":"03-1414-8745","addr":"경기도 안산시 단원구 고잔동 769-1 네오빌딩404호","indutype":"학원 - 예·체능계학원","category":"study"},{"name":"쌤통학원","tel":"070-5415-0426","addr":"경기도 안산시 단원구 고잔동 769-1번지","indutype":"회원제형태 - 학원","category":"study"},{"name":"알앤씨입시학원","tel":"031-481-8588","addr":"경기도 안산시 단원구 고잔동 769-1번지 네오빌딩 403호","indutype":"회원제형태 - 학원","category":"study"},{"name":"예원실용음악학원","tel":"031-403-3179","addr":"경기도 안산시 단원구 고잔동 769-1번지 네오빌딩 302호","indutype":"회원제형태 - 학원","category":"study"},{"name":"예원알프레드음악학원","tel":"031-403-3179","addr":"경기도 안산시 단원구 고잔동 769-1번지 네오빌딩 501호","indutype":"학원 - 예·체능계학원","category":"study"},{"name":"한국영재학원","tel":"031-482-6030","addr":"경기도 안산시 단원구 고잔동 769-1네오빌딩504.505호","indutype":"학원 - 보습학원","category":"study"},{"name":"합격고잔지점독서실","tel":"","addr":"경기도 안산시 단원구 고잔동 769-1번지 네오빌딩 506,7,8호","indutype":"학원 - 독서실","category":"study"},{"name":"해냄국어논술전문학원","tel":"070-8615-9589","addr":"경기도 안산시 단원구 고잔동 769-1번지 네오빌딩 401호","indutype":"학원 - 보습학원","category":"study"}]},{"lat":"37.314788015","long":"126.82839885","imageIndex":16,"items":[{"name":"노블레지던스고잔점","tel":"031-482-0077","addr":"경기도 안산시 단원구 고잔동 703-2 트윈타운A동301호~305호","indutype":"학원 - 독서실","category":"study"}]},{"lat":"37.312003401","long":"126.84074622","imageIndex":16,"items":[{"name":"뉴턴과외학원","tel":"070-4354-2139","addr":"경기도 안산시 단원구 고잔동 763-1번지 3층","indutype":"학원 - 보습학원","category":"study"}]},{"lat":"37.313535575","long":"126.83460618","imageIndex":16,"items":[{"name":"다빈치의꿈미술학원","tel":"031-475-0707","addr":"경기도 안산시 단원구 고잔동 728번지 302호 푸르지오3차상가","indutype":"학원 - 예·체능계학원","category":"study"},{"name":"모짜르트음악교습소","tel":"031-000-0000","addr":"경기도 안산시 단원구 고잔동 728번지 안산고잔3차푸르지오 상가동 2층 203호","indutype":"학원 - 예·체능계학원","category":"study"},{"name":"푸른하늘어린이집[아이행복]","tel":"031-401-1117","addr":"경기도 안산시 단원구 고잔동 728번지 안산고잔3차푸르지오","indutype":"학원 - 유아원","category":"study"},{"name":"해법영어수학꿈의학원","tel":"031-410-0506","addr":"경기도 안산시 단원구 고잔동 728번지 안산고잔3차푸르지오 상가동 201호 206호","indutype":"학원 - 보습학원","category":"study"}]},{"lat":"37.3135355753","long":"126.8346061802","imageIndex":16,"items":[{"name":"다빈치의꿈미술학원","tel":"031-475-0707","addr":"경기도 안산시 단원구 고잔동 728번지","indutype":"교육서비스업 - 미술학원","category":"study"}]},{"lat":"37.312925708","long":"126.82424057","imageIndex":16,"items":[{"name":"다스름무용학원","tel":"031-482-6925","addr":"경기도 안산시 단원구 고잔동 700-4번지 영창빌딩 2층","indutype":"학원 - 예·체능계학원","category":"study"}]},{"lat":"37.312977546","long":"126.82277396","imageIndex":16,"items":[{"name":"다온국영수학원","tel":"031-410-9909","addr":"경기도 안산시 단원구 고잔동 696-4번지 상록빌딩 4층","indutype":"학원 - 보습학원","category":"study"},{"name":"뮤엠영어고잔학원","tel":"031-0000-0000","addr":"경기도 안산시 단원구 고잔동 696-4번지 상록빌딩 3층","indutype":"학원 - 보습학원","category":"study"},{"name":"엠베스트에스이고잔학원","tel":"031-410-5994","addr":"경기도 안산시 단원구 고잔동 696-4번지 상록빌딩 3층","indutype":"학원 - 보습학원","category":"study"},{"name":"클라쎄음악학원","tel":"031-483-5210","addr":"경기도 안산시 단원구 고잔동 696-4번지 상록빌딩 2층","indutype":"학원 - 예·체능계학원","category":"study"}]},{"lat":"37.3129775464","long":"126.8227739556","imageIndex":16,"items":[{"name":"다온국영수학원","tel":"031-410-9909","addr":"경기도 안산시 단원구 고잔동 696-4번지","indutype":"교육서비스업 - 학교교과교습학원,보습","category":"study"}]},{"lat":"37.324838906","long":"126.83783034","imageIndex":16,"items":[{"name":"다올미술학원","tel":"031-485-9880","addr":"경기도 안산시 단원구 고잔동 671-2번지 201 바상가","indutype":"학원 - 예·체능계학원","category":"study"},{"name":"도도음악학원","tel":"031-413-1084","addr":"경기도 안산시 단원구 고잔동 671-2번지 216호 바상가","indutype":"학원 - 예·체능계학원","category":"study"},{"name":"리딩영어고잔7센터교습소","tel":"031-405-0594","addr":"경기도 안산시 단원구 고잔동 671-2번지 바동 212호","indutype":"학원 - 외국어학원","category":"study"},{"name":"베이스음악교습소","tel":"031-410-8633","addr":"경기도 안산시 단원구 고잔동 671-2번지 218호 바상가","indutype":"학원 - 예·체능계학원","category":"study"},{"name":"베이스음악교습소","tel":"","addr":"경기도 안산시 단원구 고잔동 671-2번지 바동 2층 218호","indutype":"학원 - 예·체능계학원","category":"study"},{"name":"삼성영어중앙교실영어교습소","tel":"031-410-3305","addr":"경기도 안산시 단원구 고잔동 671-2번지 219호","indutype":"학원 - 외국어학원","category":"study"},{"name":"스카이명문국어교습소","tel":"031-487-7030","addr":"경기도 안산시 단원구 고잔동 671-2번지 203호의일부","indutype":"학원 - 보습학원","category":"study"},{"name":"스카이명문수학교습소","tel":"031-487-7030","addr":"경기도 안산시 단원구 고잔동 671-2번지 203호의일부","indutype":"학원 - 보습학원","category":"study"},{"name":"아이비티주니어영어교습소","tel":"031-413-7306","addr":"경기도 안산시 단원구 고잔동 671-2번지 209호","indutype":"회원제형태 - 학원","category":"study"},{"name":"와이비엠고잔7센터영어교습소","tel":"031-405-0594","addr":"경기도 안산시 단원구 고잔동 671-2번지 바동 209호","indutype":"학원 - 외국어학원","category":"study"},{"name":"임마누엘음악학원","tel":"031-410-4175","addr":"경기도 안산시 단원구 고잔동 671-2번지 바상가 206호","indutype":"학원 - 예·체능계학원","category":"study"}]},{"lat":"37.3248389061","long":"126.8378303350","imageIndex":16,"items":[{"name":"다올미술학원","tel":"031-485-9880","addr":"경기도 안산시 단원구 고잔동 671-2번지","indutype":"교육서비스업 - 미술학원","category":"study"}]},{"lat":"37.312978095","long":"126.82313494","imageIndex":16,"items":[{"name":"다윈영수학원","tel":"031-403-1704","addr":"경기도 안산시 단원구 고잔동 696-6번지 2층","indutype":"학원 - 보습학원","category":"study"}]},{"lat":"37.306872424","long":"126.83773426","imageIndex":16,"items":[{"name":"닥터정 이클래스","tel":"070-8815-2919","addr":"경기도 안산시 단원구 고잔동 780번지 양지마을 102동 104호","indutype":"학원 - 기타 교육기관","category":"study"}]},{"lat":"37.327252006","long":"126.82429692","imageIndex":16,"items":[{"name":"단원고등학교","tel":"031-488-0091","addr":"경기도 안산시 단원구 고잔동 426번지 단원고등학교","indutype":"학원 - 초중고교육기관","category":"study"},{"name":"단원고등학교_수업료","tel":"031-488-0091","addr":"경기도 안산시 단원구 고잔동 426번지 단원고등학교","indutype":"학원 - 초중고교육기관","category":"study"}]},{"lat":"37.327393722","long":"126.82268314","imageIndex":16,"items":[{"name":"단원중학교","tel":"","addr":"경기도 안산시 단원구 고잔동 431-4번지 단원중학교","indutype":"학원 - 초중고교육기관","category":"study"}]},{"lat":"37.32684062","long":"126.82635136","imageIndex":16,"items":[{"name":"단원체육관","tel":"031-410-7989","addr":"경기도 안산시 단원구 고잔동 603신유5차상가2층204호","indutype":"학원 - 예·체능계학원","category":"study"}]},{"lat":"37.3186733563","long":"126.8359936410","imageIndex":16,"items":[{"name":"달콤수학학원","tel":"031-439-0314","addr":"경기도 안산시 단원구 고잔동 534-2번지","indutype":"교육서비스업 - 교습,보습학원","category":"study"},{"name":"클릭미술학원","tel":"031-480-4649","addr":"경기도 안산시 단원구 고잔동 534-2번지","indutype":"교육서비스업 - 미술학원","category":"study"}]},{"lat":"37.318673356","long":"126.83599364","imageIndex":16,"items":[{"name":"달콤수학학원","tel":"031-439-0314","addr":"경기도 안산시 단원구 고잔동 534-2번지 9층 901,902호","indutype":"학원 - 보습학원","category":"study"},{"name":"빡공대수학과학학원","tel":"031-362-4882","addr":"경기도 안산시 단원구 고잔동 534-2번지 9층 907,908호","indutype":"학원 - 보습학원","category":"study"},{"name":"이룸수학교습소","tel":"031-405-2959","addr":"경기도 안산시 단원구 고잔동 534-2번지 10층 1007호","indutype":"학원 - 보습학원","category":"study"},{"name":"클릭미술학원","tel":"031-8042-2303","addr":"경기도 안산시 단원구 고잔동 534-2번지 10층 1005,1011호","indutype":"학원 - 예·체능계학원","category":"study"},{"name":"한우리독서토론논술 단원","tel":"031-413-1919","addr":"경기도 안산시 단원구 고잔동 534-2번지 909호","indutype":"학원 - 보습학원","category":"study"}]},{"lat":"37.322668856","long":"126.82038158","imageIndex":16,"items":[{"name":"대동학원","tel":"031-485-5813","addr":"경기도 안산시 단원구 고잔동 667 무진2차 상가 201","indutype":"학원 - 보습학원","category":"study"}]},{"lat":"37.3063384138","long":"126.8236921690","imageIndex":16,"items":[{"name":"대림학원","tel":"031-414-5559","addr":"경기도 안산시 단원구 고잔동 720번지 호수공원대림아파트","indutype":"교육서비스업 - 학원","category":"study"}]},{"lat":"37.314202719","long":"126.84135067","imageIndex":16,"items":[{"name":"대성전기학원","tel":"031-414-8847","addr":"경기도 안산시 단원구 고잔동 729-9번지 WIN-WIN프라자 305호","indutype":"회원제형태 - 학원","category":"study"}]},{"lat":"37.313422813","long":"126.82526595","imageIndex":16,"items":[{"name":"대한천연디자인협회 부설학원","tel":"031-485-0480","addr":"경기도 안산시 단원구 고잔동 701-1번지 한영빌딩 3층","indutype":"학원 - 기능학원","category":"study"}]},{"lat":"37.31880792","long":"126.83557592","imageIndex":16,"items":[{"name":"댄스에비뉴학원","tel":"","addr":"경기도 안산시 단원구 고잔동 534번지 2층","indutype":"학원 - 예·체능계학원","category":"study"}]},{"lat":"37.313897368","long":"126.82932594","imageIndex":16,"items":[{"name":"더베스트댄스학원","tel":"","addr":"경기도 안산시 단원구 고잔동 706-1번지 신앙빌딩 510호","indutype":"학원 - 예·체능계학원","category":"study"},{"name":"에녹실용음악 뮤지컬연기학원","tel":"031-401-3444","addr":"경기도 안산시 단원구 고잔동 706-1번지 8층","indutype":"회원제형태 - 학원","category":"study"}]},{"lat":"37.327342484","long":"126.83693351","imageIndex":16,"items":[{"name":"덕성초등학교","tel":"031-487-6102","addr":"경기도 안산시 단원구 고잔동 676-1번지 덕성초등학교","indutype":"학원 - 초중고교육기관","category":"study"},{"name":"덕성초등학교병설유치원[아이행복]","tel":"031-487-6105","addr":"경기도 안산시 단원구 고잔동 676-1번지 덕성초등학교","indutype":"학원 - 유치원","category":"study"}]},{"lat":"37.313947276","long":"126.82651689","imageIndex":16,"items":[{"name":"도담도담어린이집[아이행복]","tel":"031-414-2333","addr":"경기도 안산시 단원구 고잔동 702번지 안산고잔4차푸르지오 관리동","indutype":"학원 - 유아원","category":"study"},{"name":"엘리제피아노교습소","tel":"031-403-3731","addr":"경기도 안산시 단원구 고잔동 702번지 안산고잔4차푸르지오 상가동 203호","indutype":"학원 - 예·체능계학원","category":"study"}]},{"lat":"37.318477932","long":"126.83799091","imageIndex":16,"items":[{"name":"도도아카데미미용학원","tel":"031-402-0333","addr":"경기도 안산시 단원구 고잔동 539-2번지 대동조이월드 409호","indutype":"학원 - 기능학원","category":"study"}]},{"lat":"37.322784699","long":"126.8379138","imageIndex":16,"items":[{"name":"동산독서실","tel":"031-414-0302","addr":"경기도 안산시 단원구 고잔동 672-6번지 3층","indutype":"학원 - 독서실","category":"study"},{"name":"안산153에듀학원","tel":"031-403-9905","addr":"경기도 안산시 단원구 고잔동 672-6번지 동산빌딩 204호","indutype":"학원 - 보습학원","category":"study"},{"name":"중앙피아노교습소","tel":"031-482-2682","addr":"경기도 안산시 단원구 고잔동 672-6번지 4층 403호","indutype":"학원 - 예·체능계학원","category":"study"},{"name":"청마용인대석사태권도장","tel":"031-401-4144","addr":"경기도 안산시 단원구 고잔동 672-6번지 동산빌딩 5층 501호","indutype":"학원 - 예·체능계학원","category":"study"}]},{"lat":"37.326226681","long":"126.81960575","imageIndex":16,"items":[{"name":"동아체육관","tel":"031-414-0080","addr":"경기도 안산시 단원구 고잔동 660번지 광운 상가 201호","indutype":"학원 - 기타 교육기관","category":"study"},{"name":"동아태권도장","tel":"031-414-0080","addr":"경기도 안산시 단원구 고잔동 660번지 광운빌라9차 상가동 2층 201호","indutype":"학원 - 예·체능계학원","category":"study"}]},{"lat":"37.3262266813","long":"126.8196057495","imageIndex":16,"items":[{"name":"동아태권도","tel":"031-414-0080","addr":"경기도 안산시 단원구 고잔동 660번지 광운빌라9차","indutype":"교육서비스업 - 태권도학원","category":"study"}]},{"lat":"37.314429484","long":"126.83594662","imageIndex":16,"items":[{"name":"두란노 아버지학교 안산지주","tel":"031-405-4404","addr":"경기도 안산시 단원구 고잔동 728번지 안산고잔3차푸르지오 305동 1502호","indutype":"학원 - 기타 교육기관","category":"study"}]},{"lat":"37.330889656","long":"126.82868884","imageIndex":16,"items":[{"name":"두란노어린이집[아이행복]","tel":"031-402-7520","addr":"경기도 안산시 단원구 고잔동 505-4번지 102호","indutype":"학원 - 유아원","category":"study"},{"name":"두란노어린이집[아이행복]","tel":"031-402-7520","addr":"경기도 안산시 단원구 고잔동 505-4번지","indutype":"학원 - 유아원","category":"study"}]},{"lat":"37.309865121","long":"126.83230191","imageIndex":16,"items":[{"name":"드럼홀릭리듬전문음악학원","tel":"031-405-9297","addr":"경기도 안산시 단원구 고잔동 769-4번지 중앙프라자 405호","indutype":"학원 - 예·체능계학원","category":"study"},{"name":"쇼킹잉글리쉬학원","tel":"031-407-8411","addr":"경기도 안산시 단원구 고잔동 769-4번지 중앙프라자 5층 504호","indutype":"학원 - 외국어학원","category":"study"},{"name":"승쌤수학학원","tel":"","addr":"경기도 안산시 단원구 고잔동 769-4번지 중앙프라자 505호","indutype":"학원 - 보습학원","category":"study"},{"name":"아이에스입시전문학원","tel":"031-365-3658","addr":"경기도 안산시 단원구 고잔동 769-4번지 501,502호","indutype":"학원 - 보습학원","category":"study"},{"name":"아트앤네이쳐미술학원","tel":"0311-485-5634","addr":"경기도 안산시 단원구 고잔동 769-4번지 중앙프라자 406호","indutype":"학원 - 예·체능계학원","category":"study"},{"name":"에이레네실용음악학원","tel":"031-405-9297","addr":"경기도 안산시 단원구 고잔동 769-4번지 중앙프라자 405호","indutype":"회원제형태 - 학원","category":"study"},{"name":"연세탑수학학원","tel":"031-410-0999","addr":"경기도 안산시 단원구 고잔동 769-4번지 중앙프라자 508호","indutype":"학원 - 보습학원","category":"study"},{"name":"예꼴엔투미술교습소","tel":"031-486-4861","addr":"경기도 안산시 단원구 고잔동 769-4번지 중앙프라자 409호","indutype":"학원 - 예·체능계학원","category":"study"},{"name":"위즈덤영어교습소","tel":"031-484-0584","addr":"경기도 안산시 단원구 고잔동 769-4번지 중앙프라자 503호","indutype":"학원 - 보습학원","category":"study"},{"name":"정상수학학원","tel":"031-413-0413","addr":"경기도 안산시 단원구 고잔동 769-4번지 중앙프라자 407,408호","indutype":"회원제형태 - 학원","category":"study"},{"name":"중앙용인대태권도장","tel":"031-410-9773","addr":"경기도 안산시 단원구 고잔동 769-4번지 중앙프라자 401,402호","indutype":"학원 - 예·체능계학원","category":"study"},{"name":"토라모리아학원","tel":"031-411-5809","addr":"경기도 안산시 단원구 고잔동 769-4번지 507호 506호,507호","indutype":"학원 - 보습학원","category":"study"},{"name":"한우리국어교습소","tel":"031-413-1919","addr":"경기도 안산시 단원구 고잔동 769-4번지 중앙프라자 404호","indutype":"회원제형태 - 학원","category":"study"},{"name":"휴브레인수학학원","tel":"031-414-3691","addr":"경기도 안산시 단원구 고잔동 769-4번지 중앙프라자 506호~507호","indutype":"학원 - 보습학원","category":"study"}]},{"lat":"37.318201878","long":"126.84034934","imageIndex":16,"items":[{"name":"드림리빙원룸텔","tel":"031-405-4538","addr":"경기도 안산시 단원구 고잔동 539-14번지 상아프라자 301,302호","indutype":"학원 - 독서실","category":"study"}]},{"lat":"37.313199294","long":"126.8325764","imageIndex":16,"items":[{"name":"드림빌 원룸텔","tel":"031-402-2400","addr":"경기도 안산시 단원구 고잔동 727-2번지 현대타운 3층 302호","indutype":"학원 - 독서실","category":"study"},{"name":"디얼뮤직스튜디오학원","tel":"031-405-2775","addr":"경기도 안산시 단원구 고잔동 727-2번지 현대타운 604호","indutype":"학원 - 예·체능계학원","category":"study"}]},{"lat":"37.318675573","long":"126.83757306","imageIndex":16,"items":[{"name":"드림요양보호사교육원","tel":"031-505-0191","addr":"경기도 안산시 단원구 고잔동 539-1번지 607호","indutype":"학원 - 기능학원","category":"study"},{"name":"창조의아침미술학원","tel":"","addr":"경기도 안산시 단원구 고잔동 539-1번지 대지스타타워 601 ,602,603호","indutype":"학원 - 예·체능계학원","category":"study"},{"name":"토즈스터디센터중앙역독서실","tel":"031-405-4635","addr":"경기도 안산시 단원구 고잔동 539-1번지 대지스타타워 901,902,903호","indutype":"학원 - 독서실","category":"study"},{"name":"파리클라라네일아트미용학원","tel":"031-509-4141","addr":"경기도 안산시 단원구 고잔동 539-1번지 604,605호","indutype":"학원 - 기능학원","category":"study"}]},{"lat":"37.319505521","long":"126.83194167","imageIndex":16,"items":[{"name":"디마인커피 교육센터 학원","tel":"070-7010-2776","addr":"경기도 안산시 단원구 고잔동 527-4번지 타워아이즈빌 3층 306호","indutype":"학원 - 기능학원","category":"study"},{"name":"한국열처리기술지원센터","tel":"031-411-1233","addr":"경기도 안산시 단원구 고잔동 527-4번지 타워아이즈빌 205호","indutype":"회원제형태 - 학원","category":"study"}]},{"lat":"37.3195055209","long":"126.8319416745","imageIndex":16,"items":[{"name":"디마인커피교육센터학원","tel":"070-7010-2776","addr":"경기도 안산시 단원구 고잔동 527-4번지","indutype":"교육서비스업 - 학원","category":"study"}]},{"lat":"37.317835522","long":"126.83607446","imageIndex":16,"items":[{"name":"라인컴퓨터아트학원","tel":"031-365-5008","addr":"경기도 안산시 단원구 고잔동 535-2번지 코스모프라자 601호","indutype":"학원 - 기능학원","category":"study"},{"name":"비상에듀학원","tel":"031-386-5100","addr":"경기도 안산시 단원구 고잔동 535-2번지 코스모프라자 8층","indutype":"학원 - 보습학원","category":"study"},{"name":"중앙웰빙텔","tel":"031-410-0855","addr":"경기도 안산시 단원구 고잔동 535-2번지 코스모프라자","indutype":"학원 - 독서실","category":"study"}]},{"lat":"37.312951527","long":"126.82343958","imageIndex":16,"items":[{"name":"락아이엘학원","tel":"031-410-9555","addr":"경기도 안산시 단원구 고잔동 700번지 대성빌딩 4층","indutype":"학원 - 예·체능계학원","category":"study"},{"name":"창조 태권도","tel":"031-414-4580","addr":"경기도 안산시 단원구 고잔동 700번지 대성빌딩 2층","indutype":"학원 - 예·체능계학원","category":"study"},{"name":"창조 태권도장","tel":"031-414-4580","addr":"경기도 안산시 단원구 고잔동 700번지 대성빌딩 2층","indutype":"학원 - 예·체능계학원","category":"study"}]},{"lat":"37.313091225","long":"126.83899538","imageIndex":16,"items":[{"name":"렉스댄스학원","tel":"031-405-2933","addr":"경기도 안산시 단원구 고잔동 756-2번지 401호","indutype":"학원 - 예·체능계학원","category":"study"},{"name":"렉스댄스학원","tel":"031-405-2933","addr":"경기도 안산시 단원구 고잔동 756-2번지 401호","indutype":"학원 - 예·체능계학원","category":"study"}]},{"lat":"37.313169059","long":"126.83666009","imageIndex":16,"items":[{"name":"로시오","tel":"031-403-0211","addr":"경기도 안산시 단원구 고잔동 730-5번지 신세계빌딩 3층","indutype":"학원 - 기능학원","category":"study"}]},{"lat":"37.309147477","long":"126.82829908","imageIndex":16,"items":[{"name":"로얄원룸텔","tel":"031-401-6003","addr":"경기도 안산시 단원구 고잔동 716-2번지 현대프라자 301호","indutype":"학원 - 독서실","category":"study"}]},{"lat":"37.322534285","long":"126.82671118","imageIndex":16,"items":[{"name":"롯데캐슬음악교습소","tel":"031-402-4850","addr":"경기도 안산시 단원구 고잔동 852번지 고잔롯데캐슬골드파크 상가동 206호","indutype":"학원 - 예·체능계학원","category":"study"},{"name":"롯데캐슬한솔플러스수학교습소","tel":"","addr":"경기도 안산시 단원구 고잔동 852번지 상가동 2층 205호","indutype":"학원 - 보습학원","category":"study"},{"name":"시립고잔어린이집[아이행복]","tel":"031-401-6677","addr":"경기도 안산시 단원구 고잔동 852번지 고잔롯데캐슬골드파크","indutype":"학원 - 유아원","category":"study"}]},{"lat":"37.320786062","long":"126.82654604","imageIndex":16,"items":[{"name":"롯데캐슬해법영어교습소","tel":"","addr":"경기도 안산시 단원구 고잔동 517번지 안산세무서 상가동 2층 205호","indutype":"학원 - 외국어학원","category":"study"}]},{"lat":"37.312228025","long":"126.82766024","imageIndex":16,"items":[{"name":"리더스힐링캠프","tel":"031-475-3558","addr":"경기도 안산시 단원구 고잔동 707번지 안산법조타운 803호","indutype":"학원 - 기타 교육기관","category":"study"}]},{"lat":"37.313594447","long":"126.83802413","imageIndex":16,"items":[{"name":"리틀금초롱어린이집","tel":"031-439-2101","addr":"경기도 안산시 단원구 고잔동 734-6번지 1층","indutype":"학원 - 유아원","category":"study"},{"name":"리틀금초롱어린이집","tel":"031-439-2101","addr":"경기도 안산시 단원구 고잔동 734-6번지 101호","indutype":"학원 - 유아원","category":"study"}]},{"lat":"37.312369125","long":"126.83807193","imageIndex":16,"items":[{"name":"마루수학교습소","tel":"031-403-4226","addr":"경기도 안산시 단원구 고잔동 743-5번지 101호","indutype":"학원 - 보습학원","category":"study"}]},{"lat":"37.3091459578","long":"126.8272725913","imageIndex":16,"items":[{"name":"마이멘토수학학원","tel":"","addr":"경기도 안산시 단원구 고잔동 715-2번지","indutype":"교육서비스업 - 수학학원,서적","category":"study"},{"name":"해법영어학원","tel":"031-411-5357","addr":"경기도 안산시 단원구 고잔동 715-2번지","indutype":"교육서비스업 - 학교교과교습학원,보습","category":"study"}]},{"lat":"37.317143655","long":"126.83744103","imageIndex":16,"items":[{"name":"마인드댄스학원","tel":"031-487-4872","addr":"경기도 안산시 단원구 고잔동 541번지 안산종합상가 301호","indutype":"학원 - 예·체능계학원","category":"study"},{"name":"안산대한간호학원","tel":"031-413-7004","addr":"경기도 안산시 단원구 고잔동 541번지","indutype":"회원제형태 - 학원","category":"study"}]},{"lat":"37.312977838","long":"126.82296573","imageIndex":16,"items":[{"name":"맑은마음터학원","tel":"031-439-6953","addr":"경기도 안산시 단원구 고잔동 696-5번지 201호","indutype":"학원 - 예·체능계학원","category":"study"},{"name":"상승11도장","tel":"031-414-9522","addr":"경기도 안산시 단원구 고잔동 696-5번지 301호","indutype":"학원 - 예·체능계학원","category":"study"}]},{"lat":"37.308631339","long":"126.83911786","imageIndex":16,"items":[{"name":"머스트헤브","tel":"031-505-0515","addr":"경기도 안산시 단원구 고잔동 778번지 보네르빌리지 107동 301호","indutype":"학원 - 기타 교육기관","category":"study"}]},{"lat":"37.314255374","long":"126.84032399","imageIndex":16,"items":[{"name":"메가랜드 안산캠퍼스지점","tel":"02-000-0000","addr":"경기도 안산시 단원구 고잔동 729-7번지 씨티프라자 301호","indutype":"학원 - 보습학원","category":"study"}]},{"lat":"37.310923628","long":"126.82907332","imageIndex":16,"items":[{"name":"메텔미용학원(주)","tel":"031-482-1321","addr":"경기도 안산시 단원구 고잔동 708번지 웅신아트빌딩 405호","indutype":"회원제형태 - 학원","category":"study"},{"name":"빌라엠원룸텔","tel":"031-411-0050","addr":"경기도 안산시 단원구 고잔동 708번지 웅신아트프라자309호-310호 309호","indutype":"학원 - 독서실","category":"study"},{"name":"줌수학학원","tel":"031-483-3003","addr":"경기도 안산시 단원구 고잔동 708번지 웅신아트프라자 504호","indutype":"회원제형태 - 학원","category":"study"},{"name":"필즈씨투엠수학학원","tel":"031-483-1231","addr":"경기도 안산시 단원구 고잔동 708번지 웅신아트프라자 506호","indutype":"학원 - 보습학원","category":"study"}]},{"lat":"37.318698774","long":"126.83485415","imageIndex":16,"items":[{"name":"명문언어심리센타","tel":"031-411-7771","addr":"경기도 안산시 단원구 고잔동 533-3영풍맘모스프라자3층304호,303-1호","indutype":"학원 - 기타 교육기관","category":"study"},{"name":"에듀텍(Edu Tek)","tel":"070-8886-8009","addr":"경기도 안산시 단원구 고잔동 533-3번지 영풍빌딩 1동 903호","indutype":"학원 - 컴퓨터학원","category":"study"}]},{"lat":"37.31223246","long":"126.83698929","imageIndex":16,"items":[{"name":"명석수학학원","tel":"01-487-7311","addr":"경기도 안산시 단원구 고잔동 741-2번지 2층","indutype":"회원제형태 - 학원","category":"study"}]},{"lat":"37.311230618","long":"126.82346623","imageIndex":16,"items":[{"name":"뮤엠영어진흥점교습소","tel":"070-8870-8409","addr":"경기도 안산시 단원구 고잔동 712번지 안산고잔5차푸르지오 상가동 204호","indutype":"학원 - 외국어학원","category":"study"},{"name":"용인대힘찬태권도","tel":"031-480-8070","addr":"경기도 안산시 단원구 고잔동 712번지 안산고잔5차푸르지오 상가 304,305호","indutype":"학원 - 예·체능계학원","category":"study"},{"name":"푸르지오음악학원","tel":"031-403-8610","addr":"경기도 안산시 단원구 고잔동 712번지 안산고잔5차푸르지오 상가 301,302,303호","indutype":"학원 - 예·체능계학원","category":"study"},{"name":"희망나래어린이집[아이행복]","tel":"031-475-1014","addr":"경기도 안산시 단원구 고잔동 712번지 안산고잔5차푸르지오 관리동","indutype":"학원 - 유아원","category":"study"}]},{"lat":"37.313502515","long":"126.83671576","imageIndex":16,"items":[{"name":"미래중국어학원","tel":"031-401-9773","addr":"경기도 안산시 단원구 고잔동 730-3번지 3층","indutype":"학원 - 외국어학원","category":"study"}]},{"lat":"37.312729611","long":"126.83812755","imageIndex":16,"items":[{"name":"미루샘학원","tel":"031-411-2182","addr":"경기도 안산시 단원구 고잔동 744-5번지 2층","indutype":"학원 - 보습학원","category":"study"}]},{"lat":"37.30958754","long":"126.82732797","imageIndex":16,"items":[{"name":"미소부동산경매학원","tel":"031-405-9952","addr":"경기도 안산시 단원구 고잔동 715번지 금강프라자 305호","indutype":"회원제형태 - 학원","category":"study"},{"name":"언발란스 색소폰","tel":"031-506-5011","addr":"경기도 안산시 단원구 고잔동 715번지 금강프라자 2층 207호","indutype":"학원 - 예·체능계학원","category":"study"}]},{"lat":"37.309395826","long":"126.8317728","imageIndex":16,"items":[{"name":"미술로생각하기고잔학원","tel":"","addr":"경기도 안산시 단원구 고잔동 773번지 신화빌딩 302호","indutype":"학원 - 예·체능계학원","category":"study"}]},{"lat":"37.318613775","long":"126.838487","imageIndex":16,"items":[{"name":"미스터위너스","tel":"","addr":"경기도 안산시 단원구 고잔동 539-3번지 신광프라자 401호","indutype":"학원 - 기타 교육기관","category":"study"}]},{"lat":"37.312892899","long":"126.83254324","imageIndex":16,"items":[{"name":"민할렐루야뮤직아카데미학원","tel":"031-475-8070","addr":"경기도 안산시 단원구 고잔동 727-3번지 궁전타워 402호","indutype":"학원 - 예·체능계학원","category":"study"},{"name":"수학사랑수학전문학원","tel":"031-483-4839","addr":"경기도 안산시 단원구 고잔동 727-3번지 궁전타워 501호","indutype":"회원제형태 - 학원","category":"study"},{"name":"씨엠학원","tel":"031-405-5172","addr":"경기도 안산시 단원구 고잔동 727-3번지 궁전타워 405호,406호","indutype":"학원 - 보습학원","category":"study"},{"name":"잉글리쉬무무 고잔제1학원","tel":"031-439-9905","addr":"경기도 안산시 단원구 고잔동 727-3번지 궁전타워 301호","indutype":"학원 - 외국어학원","category":"study"}]},{"lat":"37.317108008","long":"126.83772315","imageIndex":16,"items":[{"name":"발레벨발레전문학원","tel":"031-403-0008","addr":"경기도 안산시 단원구 고잔동 541번지 안산종합상가 3동 206호","indutype":"학원 - 예·체능계학원","category":"study"}]},{"lat":"37.32486488","long":"126.83707435","imageIndex":16,"items":[{"name":"베스트탑학원","tel":"031-0000-0000","addr":"경기도 안산시 단원구 고잔동 676-4번지 203,204,205호","indutype":"학원 - 보습학원","category":"study"},{"name":"옥스포드영어교습소","tel":"","addr":"경기도 안산시 단원구 고잔동 676-4번지 안산스포츠문화센타 218호","indutype":"학원 - 외국어학원","category":"study"},{"name":"와이즈엔학원","tel":"070-7762-3236","addr":"경기도 안산시 단원구 고잔동 676-4번지 209,210,213,214호","indutype":"학원 - 보습학원","category":"study"},{"name":"은석학원","tel":"031-414-2554","addr":"경기도 안산시 단원구 고잔동 676-4번지 안산스포츠문화센터 217동 218호","indutype":"회원제형태 - 학원","category":"study"},{"name":"화정미술학원","tel":"031-405-4445","addr":"경기도 안산시 단원구 고잔동 676-4번지 안산스포츠문화센터 203호","indutype":"회원제형태 - 학원","category":"study"}]},{"lat":"37.317038416","long":"126.83951703","imageIndex":16,"items":[{"name":"베이징중국어학원","tel":"031-419-5877","addr":"경기도 안산시 단원구 고잔동 541-2번지 남양빌딩 603호","indutype":"회원제형태 - 학원","category":"study"},{"name":"에스제이외국어세종공무원학원","tel":"031-439-1504","addr":"경기도 안산시 단원구 고잔동 541-2번지 남양빌딩 601호 602","indutype":"회원제형태 - 학원","category":"study"}]},{"lat":"37.308226862","long":"126.83982937","imageIndex":16,"items":[{"name":"보네르어린이집[아이행복]","tel":"031-487-8111","addr":"경기도 안산시 단원구 고잔동 778번지 보네르빌리지 관리동 1층","indutype":"학원 - 유아원","category":"study"}]},{"lat":"37.3104508638","long":"126.8323569879","imageIndex":16,"items":[{"name":"북꼬리독서학원","tel":"031-485-3336","addr":"경기도 안산시 단원구 고잔동 769-2번지","indutype":"교육서비스업 - 학교교과교습학원,보습","category":"study"}]},{"lat":"37.312613638","long":"126.83896257","imageIndex":16,"items":[{"name":"블루노트 실용음악학원","tel":"031-405-1423","addr":"경기도 안산시 단원구 고잔동 756-5번지 찬희빌딩 201호","indutype":"학원 - 예·체능계학원","category":"study"}]},{"lat":"37.312337688","long":"126.84141106","imageIndex":16,"items":[{"name":"비상학원","tel":"031-480-0546","addr":"경기도 안산시 단원구 고잔동 764-2번지 덕암빌딩 2층","indutype":"학원 - 기타 교육기관","category":"study"}]},{"lat":"37.3133116234","long":"126.8292708780","imageIndex":16,"items":[{"name":"빠삐에친구아트센터","tel":"070-4248-1135","addr":"경기도 안산시 단원구 고잔동 706-3번지 장은타워","indutype":"교육서비스업 - 교습학원","category":"study"},{"name":"씨앤제이어학원","tel":"031-486-4863","addr":"경기도 안산시 단원구 고잔동 706-3번지","indutype":"교육서비스업 - 외국어학원","category":"study"}]},{"lat":"37.309031241","long":"126.82890848","imageIndex":16,"items":[{"name":"사단법인 안산학연구원","tel":"031-475-4700","addr":"경기도 안산시 단원구 고잔동 717-1번지 밀레니엄빌딩 B동 603호","indutype":"학원 - 기타 교육기관","category":"study"}]},{"lat":"37.3078374547","long":"126.8320470514","imageIndex":16,"items":[{"name":"사차원 학원","tel":"031-480-4447","addr":"경기도 안산시 단원구 고잔동 775-4번지","indutype":"교육서비스업 - 학원,서적","category":"study"},{"name":"엠베스트에스이양지점학원","tel":"031-439-4321","addr":"경기도 안산시 단원구 고잔동 775-4번지","indutype":"교육서비스업 - 학원","category":"study"}]},{"lat":"37.3080335858","long":"126.8306027708","imageIndex":16,"items":[{"name":"삼년의신화국어전문학원","tel":"031-480-3500","addr":"경기도 안산시 단원구 고잔동 775번지","indutype":"교육서비스업 - 학원","category":"study"},{"name":"엑스파일학원","tel":"","addr":"경기도 안산시 단원구 고잔동 775번지","indutype":"교육서비스업 - 교습학원","category":"study"},{"name":"엔케이(NK)인피니트영수전문학원","tel":"031-401-8102","addr":"경기도 안산시 단원구 고잔동 775번지","indutype":"교육서비스업 - 학원","category":"study"},{"name":"엠클래스수학과학전문학원","tel":"031-439-1222","addr":"경기도 안산시 단원구 고잔동 775번지 폴리타운","indutype":"교육서비스업 - 교과교습학원","category":"study"},{"name":"위슬런 학원","tel":"031-439-4002","addr":"경기도 안산시 단원구 고잔동 775번지","indutype":"교육서비스업 - 학원","category":"study"},{"name":"이투스수학고잔신도시학원","tel":"","addr":"경기도 안산시 단원구 고잔동 775번지","indutype":"교육서비스업 - 수학학원","category":"study"},{"name":"일성TMS고잔캠퍼스학원","tel":"031-405-7855","addr":"경기도 안산시 단원구 고잔동 775번지","indutype":"교육서비스업 - 학원","category":"study"},{"name":"주식회사 이투스247안산","tel":"031-402-0247","addr":"경기도 안산시 단원구 고잔동 775번지 폴리타운","indutype":"교육서비스업 - 입시보습학원","category":"study"},{"name":"청춘날다","tel":"031-483-4488","addr":"경기도 안산시 단원구 고잔동 775번지","indutype":"교육서비스업 - 학원","category":"study"},{"name":"터치잉글리쉬학원","tel":"031-509-0916","addr":"경기도 안산시 단원구 고잔동 775번지","indutype":"교육서비스업 - 교습학원,보습","category":"study"},{"name":"힐링학원","tel":"031-486-5355","addr":"경기도 안산시 단원구 고잔동 775번지","indutype":"교육서비스업 - 영어학원","category":"study"}]},{"lat":"37.313232904","long":"126.82480388","imageIndex":16,"items":[{"name":"삼성몬테소리어린이집[아이행복]","tel":"031-402-4927","addr":"경기도 안산시 단원구 고잔동 699-5번지","indutype":"학원 - 유아원","category":"study"}]},{"lat":"37.320922539","long":"126.82743699","imageIndex":16,"items":[{"name":"상록요양보호사교육원","tel":"031-439-9800","addr":"경기도 안산시 단원구 고잔동 518번지 자유센터 501호","indutype":"학원 - 기능학원","category":"study"}]},{"lat":"37.3118724979","long":"126.8309888307","imageIndex":16,"items":[{"name":"상상아이학원","tel":"031-480-3800","addr":"경기도 안산시 단원구 고잔동 768번지","indutype":"교육서비스업 - 학원","category":"study"}]},{"lat":"37.32498523","long":"126.82087241","imageIndex":16,"items":[{"name":"새솔방과후교실","tel":"031-414-0132","addr":"경기도 안산시 단원구 고잔동 663-2번지 효정연립 3동 206호","indutype":"학원 - 보습학원","category":"study"}]},{"lat":"37.313004319","long":"126.82260468","imageIndex":16,"items":[{"name":"샘과통하는학원","tel":"031-480-3405","addr":"경기도 안산시 단원구 고잔동 696-3번지 2층","indutype":"학원 - 보습학원","category":"study"}]},{"lat":"37.328941718","long":"126.84012311","imageIndex":16,"items":[{"name":"샬롬어린이집[아이행복]","tel":"031-414-0553","addr":"경기도 안산시 단원구 고잔동 648-2 라성연립 103동 102호","indutype":"학원 - 유아원","category":"study"}]},{"lat":"37.318228226","long":"126.8398529","imageIndex":16,"items":[{"name":"서미옥댄스스포츠학원","tel":"031-5544-4617","addr":"경기도 안산시 단원구 고잔동 539-15번지 금산빌딩 503호","indutype":"학원 - 예·체능계학원","category":"study"}]},{"lat":"37.332362293","long":"126.83774618","imageIndex":16,"items":[{"name":"서울예술대학","tel":"031-412-7146","addr":"경기도 안산시 단원구 고잔동 640번지","indutype":"학원 - 대학등록금","category":"study"}]},{"lat":"37.311894765","long":"126.82773998","imageIndex":16,"items":[{"name":"서울휘트니스","tel":"031-403-2388","addr":"경기도 안산시 단원구 고잔동 707-4번지 한남법조타운 604동 606호","indutype":"학원 - 예·체능계학원","category":"study"}]},{"lat":"37.312170681","long":"126.83791444","imageIndex":16,"items":[{"name":"세종학원","tel":"02-1111-1111","addr":"경기도 안산시 단원구 고잔동 742-1번지 수정빌딩 4층 401호","indutype":"학원 - 보습학원","category":"study"}]},{"lat":"37.3306463823","long":"126.8286893971","imageIndex":16,"items":[{"name":"소리뜰음악학원","tel":"031-408-0684","addr":"경기도 안산시 단원구 고잔동 506-3번지","indutype":"교육서비스업 - 음악학원","category":"study"}]},{"lat":"37.330646382","long":"126.8286894","imageIndex":16,"items":[{"name":"소리뜰음악학원","tel":"031-403-0683","addr":"경기도 안산시 단원구 고잔동 506-3번지 401호","indutype":"학원 - 예·체능계학원","category":"study"}]},{"lat":"37.330450967","long":"126.83060801","imageIndex":16,"items":[{"name":"솔잎향기어린이집[아이행복]","tel":"031-486-0255","addr":"경기도 안산시 단원구 고잔동 614-8번지 윌드맨션 1층 101호","indutype":"학원 - 유아원","category":"study"}]},{"lat":"37.311010325","long":"126.83932702","imageIndex":16,"items":[{"name":"송호중학교","tel":"031-414-2474","addr":"경기도 안산시 단원구 고잔동 765-1번지 송호중학교","indutype":"학원 - 초중고교육기관","category":"study"}]},{"lat":"37.311311149","long":"126.83537821","imageIndex":16,"items":[{"name":"송호초등학교","tel":"031-487-8438","addr":"경기도 안산시 단원구 고잔동 767-1번지 송호초등학교","indutype":"학원 - 초중고교육기관","category":"study"}]},{"lat":"37.3171143098","long":"126.8357940239","imageIndex":16,"items":[{"name":"수도학원","tel":"031-413-6233","addr":"경기도 안산시 단원구 고잔동 537-6번지","indutype":"교육서비스업 - 학원","category":"study"}]},{"lat":"37.324810392","long":"126.83676984","imageIndex":16,"items":[{"name":"수피독서실","tel":"031-484-4888","addr":"경기도 안산시 단원구 고잔동 676-3번지 4층","indutype":"학원 - 독서실","category":"study"},{"name":"지앤비고잔세종영어전문학원","tel":"031-414-3283","addr":"경기도 안산시 단원구 고잔동 676-3번지 3층","indutype":"회원제형태 - 학원","category":"study"}]},{"lat":"37.3128928991","long":"126.8325432442","imageIndex":16,"items":[{"name":"수학사랑 수학전문학원","tel":"031-483-4839","addr":"경기도 안산시 단원구 고잔동 727-3번지","indutype":"교육서비스업 - 학원","category":"study"},{"name":"잉글리쉬무무 고잔 제1학원","tel":"031-439-9905","addr":"경기도 안산시 단원구 고잔동 727-3번지","indutype":"교육서비스업 - 외국어학원","category":"study"}]},{"lat":"37.317367422","long":"126.83638009","imageIndex":16,"items":[{"name":"스와트체대입시교육원","tel":"031-405-6339","addr":"경기도 안산시 단원구 고잔동 537-4번지 롯데프라자 지하2층 212호 210 211 일부","indutype":"회원제형태 - 학원","category":"study"},{"name":"스와트체대입시교육원","tel":"031-405-6339","addr":"경기도 안산시 단원구 고잔동 537-4번지 롯데프라자 지하2층 210,211,212,240,246호","indutype":"학원 - 예·체능계학원","category":"study"}]},{"lat":"37.3146478947","long":"126.8311630069","imageIndex":16,"items":[{"name":"스카이독학재수학원","tel":"031-8042-2820","addr":"경기도 안산시 단원구 고잔동 724번지","indutype":"교육서비스업 - 교습학원","category":"study"}]},{"lat":"37.314647895","long":"126.83116301","imageIndex":16,"items":[{"name":"스카이독학재수학원","tel":"031-8042-2820","addr":"경기도 안산시 단원구 고잔동 724번지 골든빌 1203호","indutype":"학원 - 보습학원","category":"study"}]},{"lat":"37.309371246","long":"126.82729463","imageIndex":16,"items":[{"name":"스터디파크독서실","tel":"031-414-7151","addr":"경기도 안산시 단원구 고잔동 715-1번지 종로프라자 2층 202,203호","indutype":"학원 - 독서실","category":"study"},{"name":"와이즈만청담에이프릴학원","tel":"031-439-5151","addr":"경기도 안산시 단원구 고잔동 715-1번지","indutype":"학원 - 보습학원","category":"study"}]},{"lat":"37.305260518","long":"126.82590552","imageIndex":16,"items":[{"name":"슬기초등학교","tel":"070-8677-8907","addr":"경기도 안산시 단원구 고잔동 720-1번지 슬기초등학교","indutype":"학원 - 초중고교육기관","category":"study"}]},{"lat":"37.310336204","long":"126.82787896","imageIndex":16,"items":[{"name":"승룡검도관","tel":"031-402-8688","addr":"경기도 안산시 단원구 고잔동 709-9번지 3층 302호","indutype":"학원 - 예·체능계학원","category":"study"},{"name":"주식회사희망이음","tel":"031-1566-3199","addr":"경기도 안산시 단원구 고잔동 709-9번지 301호","indutype":"회원제형태 - 학원","category":"study"}]},{"lat":"37.3098651207","long":"126.8323019096","imageIndex":16,"items":[{"name":"승쌤수학학원","tel":"","addr":"경기도 안산시 단원구 고잔동 769-4번지","indutype":"교육서비스업 - 보습학원","category":"study"},{"name":"아이에스입시전문학원","tel":"031-365-3658","addr":"경기도 안산시 단원구 고잔동 769-4번지","indutype":"교육서비스업 - 학원","category":"study"},{"name":"정상수학학원","tel":"031-413-0413","addr":"경기도 안산시 단원구 고잔동 769-4번지","indutype":"교육서비스업 - 수학학원","category":"study"},{"name":"토라모리아학원","tel":"031-411-5809","addr":"경기도 안산시 단원구 고잔동 769-4번지","indutype":"교육서비스업 - 학원","category":"study"}]},{"lat":"37.327090833","long":"126.81907336","imageIndex":16,"items":[{"name":"시립단원어린이집[아이행복]","tel":"031-401-9585","addr":"경기도 안산시 단원구 고잔동 659-6번지","indutype":"학원 - 유아원","category":"study"},{"name":"시립단원어린이집[아이행복]","tel":"031-401-9585","addr":"경기도 안산시 단원구 고잔동 659-6","indutype":"학원 - 유아원","category":"study"}]},{"lat":"37.319668591","long":"126.83893597","imageIndex":16,"items":[{"name":"시립중앙어린이집[아이행복]","tel":"031-365-5689","addr":"경기도 안산시 단원구 고잔동 851번지 안산센트럴푸르지오","indutype":"학원 - 유아원","category":"study"}]},{"lat":"37.3185929321","long":"126.8364676441","imageIndex":16,"items":[{"name":"시사플러스어학원","tel":"031-483-3000","addr":"경기도 안산시 단원구 고잔동 534-3번지","indutype":"교육서비스업 - 어학원","category":"study"}]},{"lat":"37.3121444985","long":"126.8385236455","imageIndex":16,"items":[{"name":"신나는 음악학원","tel":"031-410-0335","addr":"경기도 안산시 단원구 고잔동 746-2번지","indutype":"교육서비스업 - 학교교과교습학원,음악","category":"study"}]},{"lat":"37.312144498","long":"126.83852365","imageIndex":16,"items":[{"name":"신나는음악학원","tel":"031-401-5362","addr":"경기도 안산시 단원구 고잔동 746-2번지 201호","indutype":"학원 - 예·체능계학원","category":"study"}]},{"lat":"37.312619359","long":"126.8366049","imageIndex":16,"items":[{"name":"씨알학원","tel":"031-410-8780","addr":"경기도 안산시 단원구 고잔동 738-2번지 추영빌딩 301호","indutype":"학원 - 보습학원","category":"study"},{"name":"씨알학원","tel":"031-410-8780","addr":"경기도 안산시 단원구 고잔동 738-2번지 추영빌딩 301호","indutype":"학원 - 기타 교육기관","category":"study"},{"name":"에스엘에이어학원","tel":"031-482-2284","addr":"경기도 안산시 단원구 고잔동 738-2번지 추영빌딩 2층","indutype":"학원 - 보습학원","category":"study"},{"name":"중앙드래곤합기도","tel":"031-414-7988","addr":"경기도 안산시 단원구 고잔동 738-2번지 3층","indutype":"학원 - 예·체능계학원","category":"study"}]},{"lat":"37.3080897400","long":"126.8320464806","imageIndex":16,"items":[{"name":"씨엔엔어학원","tel":"031-401-8688","addr":"경기도 안산시 단원구 고잔동 775-3번지","indutype":"교육서비스업 - 영어학원,교재판매","category":"study"}]},{"lat":"37.31115118","long":"126.82456062","imageIndex":16,"items":[{"name":"아름자리어린이집[아이행복]","tel":"031-504-5455","addr":"경기도 안산시 단원구 고잔동 712번지 안산고잔5차푸르지오 514동 105호","indutype":"학원 - 유아원","category":"study"}]},{"lat":"37.31209136","long":"126.83918932","imageIndex":16,"items":[{"name":"아빠학원","tel":"031-403-2282","addr":"경기도 안산시 단원구 고잔동 760번지 201호","indutype":"학원 - 보습학원","category":"study"}]},{"lat":"37.3120913599","long":"126.8391893155","imageIndex":16,"items":[{"name":"아빠학원","tel":"031-403-2282","addr":"경기도 안산시 단원구 고잔동 760번지","indutype":"교육서비스업 - 보습학원","category":"study"}]},{"lat":"37.305925392","long":"126.83704827","imageIndex":16,"items":[{"name":"아이꿈몬테소리어린이집[아이행복]","tel":"031-485-5333","addr":"경기도 안산시 단원구 고잔동 780번지 양지마을","indutype":"학원 - 유아원","category":"study"}]},{"lat":"37.311903704","long":"126.83388786","imageIndex":16,"items":[{"name":"아이꿈터어린이집[아이행복]","tel":"031-405-4646","addr":"경기도 안산시 단원구 고잔동 767번지 네오빌6단지 602동 103호","indutype":"학원 - 유아원","category":"study"}]},{"lat":"37.313285911","long":"126.82410435","imageIndex":16,"items":[{"name":"아이엘어린이집[아이행복]","tel":"031-439-7101","addr":"경기도 안산시 단원구 고잔동 699-1번지","indutype":"학원 - 유아원","category":"study"}]},{"lat":"37.308089055","long":"126.83157272","imageIndex":16,"items":[{"name":"아이잼학원","tel":"031-487-8585","addr":"경기도 안산시 단원구 고잔동 775-2번지 광장타워 402호","indutype":"학원 - 예·체능계학원","category":"study"},{"name":"알고리즘학원","tel":"031-483-6264","addr":"경기도 안산시 단원구 고잔동 775-2번지 광장타워 601호","indutype":"학원 - 보습학원","category":"study"},{"name":"최강수학학원","tel":"031-401-5417","addr":"경기도 안산시 단원구 고잔동 775-2번지 광장타워 403호","indutype":"회원제형태 - 학원","category":"study"}]},{"lat":"37.313453313","long":"126.84021291","imageIndex":16,"items":[{"name":"아이템플안산지사","tel":"031-485-2223","addr":"경기도 안산시 단원구 고잔동 753-6번지 101호","indutype":"학원 - 학습지 교육","category":"study"},{"name":"으뜸교육","tel":"031-485-2223","addr":"경기도 안산시 단원구 고잔동 753-6번지 102호","indutype":"학원 - 학습지 교육","category":"study"},{"name":"주식회사 미덕교육","tel":"031-485-2223","addr":"경기도 안산시 단원구 고잔동 753-6번지","indutype":"학원 - 학습지 교육","category":"study"}]},{"lat":"37.312864097","long":"126.82521086","imageIndex":16,"items":[{"name":"아이트 미술학원","tel":"031-000-0000","addr":"경기도 안산시 단원구 고잔동 701-5번지 3층","indutype":"학원 - 예·체능계학원","category":"study"}]},{"lat":"37.3128640974","long":"126.8252108565","imageIndex":16,"items":[{"name":"아이트 미술학원","tel":"031-403-7670","addr":"경기도 안산시 단원구 고잔동 701-5번지","indutype":"교육서비스업 - 미술학원","category":"study"}]},{"lat":"37.318869053","long":"126.83421072","imageIndex":16,"items":[{"name":"아트폴리오학원","tel":"031-403-9812","addr":"경기도 안산시 단원구 고잔동 533-1번지 706,707,806,807호","indutype":"학원 - 예·체능계학원","category":"study"},{"name":"올패스센트럴입시학원/주식회사 원이윤","tel":"031-485-0700","addr":"경기도 안산시 단원구 고잔동 533-1번지 501,502,508호","indutype":"학원 - 보습학원","category":"study"}]},{"lat":"37.3227846987","long":"126.8379138029","imageIndex":16,"items":[{"name":"안산153에듀학원","tel":"031-403-9905","addr":"경기도 안산시 단원구 고잔동 672-6번지","indutype":"교육서비스업 - 보습학원","category":"study"}]},{"lat":"37.317920117","long":"126.83857876","imageIndex":16,"items":[{"name":"안산고시원","tel":"031-411-8580","addr":"경기도 안산시 단원구 고잔동 540-3번지 천혜빌딩 801호","indutype":"학원 - 독서실","category":"study"}]},{"lat":"37.31348114","long":"126.82813113","imageIndex":16,"items":[{"name":"안산고시텔","tel":"031-3006-4186","addr":"경기도 안산시 단원구 고잔동 705-9번지 선경프라자 401,402호","indutype":"학원 - 독서실","category":"study"},{"name":"에비스고시텔","tel":"","addr":"경기도 안산시 단원구 고잔동 705-9번지 선경프라자 402호","indutype":"학원 - 독서실","category":"study"}]},{"lat":"37.314421902","long":"126.83696192","imageIndex":16,"items":[{"name":"안산마음수련회","tel":"031-475-9952","addr":"경기도 안산시 단원구 고잔동 729번지 밀레니엄프라자 506동 507호","indutype":"학원 - 기타 교육기관","category":"study"},{"name":"안산전기공과학원","tel":"031-442-4245","addr":"경기도 안산시 단원구 고잔동 729번지 밀레니엄프라자203,203-1호","indutype":"학원 - 기타 교육기관","category":"study"},{"name":"와이낫영어교습소","tel":"070-8200-8799","addr":"경기도 안산시 단원구 고잔동 729번지 밀레니엄프라자 509호","indutype":"회원제형태 - 학원","category":"study"}]},{"lat":"37.31711431","long":"126.83579402","imageIndex":16,"items":[{"name":"안산수도검정고시학원","tel":"031-413-6233","addr":"경기도 안산시 단원구 고잔동 537-6,유창빌딩501호~502호","indutype":"회원제형태 - 학원","category":"study"},{"name":"안산제일요양보호사교육원","tel":"031-415-2141","addr":"경기도 안산시 단원구 고잔동 537-6번지 유창빌딩 504호","indutype":"회원제형태 - 학원","category":"study"},{"name":"안산제일요양보호사교육원","tel":"031-415-2141","addr":"경기도 안산시 단원구 고잔동 537-6번지 유창빌딩 5층 504호","indutype":"학원 - 기능학원","category":"study"},{"name":"인디아 뷰티아카데미(india beauty academy","tel":"031-415-5688","addr":"경기도 안산시 단원구 고잔동 537-6번지 유창빌딩 6층 605호","indutype":"학원 - 기능학원","category":"study"},{"name":"한국교육원","tel":"031-410-1339","addr":"경기도 안산시 단원구 고잔동 537-6번지 유창빌딩 6층 602호","indutype":"학원 - 기타 교육기관","category":"study"},{"name":"한국주얼리학원","tel":"031-484-7722","addr":"경기도 안산시 단원구 고잔동 537-6번지 유창빌딩 202호","indutype":"학원 - 기능학원","category":"study"},{"name":"한양예술실용전문학교","tel":"031-401-6001","addr":"경기도 안산시 단원구 고잔동 537-6번지 유차빌딩 601호","indutype":"학원 - 기타 교육기관","category":"study"}]},{"lat":"37.313143464","long":"126.82524404","imageIndex":16,"items":[{"name":"안산스마트속기학원","tel":"031-411-8273","addr":"경기도 안산시 단원구 고잔동 701-3번지 덕용빌딩 3층","indutype":"학원 - 컴퓨터학원","category":"study"},{"name":"이앤아이(E&I)학원","tel":"031-8042-6006","addr":"경기도 안산시 단원구 고잔동 701-3번지 2층","indutype":"학원 - 보습학원","category":"study"}]},{"lat":"37.312728446","long":"126.83729278","imageIndex":16,"items":[{"name":"안산아모스학원","tel":"031-410-2527","addr":"경기도 안산시 단원구 고잔동 740-7번지 201호","indutype":"학원 - 기능학원","category":"study"}]},{"lat":"37.304678723","long":"126.83473871","imageIndex":16,"items":[{"name":"안산양지초등학교","tel":"031-414-8475","addr":"경기도 안산시 단원구 고잔동 781-1번지 안산양지초등학교","indutype":"학원 - 초중고교육기관","category":"study"},{"name":"안산양지초등학교병설유치원[아이행복]","tel":"031-414-8497","addr":"경기도 안산시 단원구 고잔동 781-1번지 안산양지초등학교","indutype":"학원 - 유치원","category":"study"}]},{"lat":"37.320781981","long":"126.82988548","imageIndex":16,"items":[{"name":"안산여성인력개발센터","tel":"031-439-2060","addr":"경기도 안산시 단원구 고잔동 523-8번지 산업은행 3층","indutype":"학원 - 기능학원","category":"study"}]},{"lat":"37.325389564","long":"126.82607269","imageIndex":16,"items":[{"name":"안산유치원[아이행복]","tel":"031-482-3608","addr":"경기도 안산시 단원구 고잔동 574-3번지","indutype":"학원 - 유치원","category":"study"}]},{"lat":"37.3178708935","long":"126.8356005646","imageIndex":16,"items":[{"name":"안산이지어학원","tel":"031-439-0550","addr":"경기도 안산시 단원구 고잔동 535-1번지","indutype":"교육서비스업 - 외국어학원","category":"study"}]},{"lat":"37.3127843","long":"126.83857866","imageIndex":16,"items":[{"name":"안산조은요양보호사교육원","tel":"031-401-2035","addr":"경기도 안산시 단원구 고잔동 745-4번지 201호","indutype":"학원 - 기능학원","category":"study"}]},{"lat":"37.317951314","long":"126.83512657","imageIndex":16,"items":[{"name":"안산중앙씨앤씨미술학원","tel":"031-506-0123","addr":"경기도 안산시 단원구 고잔동 535번지 중앙마케이트빌딩 402동 405호","indutype":"학원 - 예·체능계학원","category":"study"},{"name":"애니스타 만화학원","tel":"031-411-8070","addr":"경기도 안산시 단원구 고잔동 535번지 중앙마케이트빌딩 406동 408호","indutype":"학원 - 예·체능계학원","category":"study"}]},{"lat":"37.317586694","long":"126.83854564","imageIndex":16,"items":[{"name":"안산중앙용접학원","tel":"031-402-5911","addr":"경기도 안산시 단원구 고잔동 540-14번지 504,505호","indutype":"학원 - 기능학원","category":"study"},{"name":"영광장례지도사교육원","tel":"031-487-9603","addr":"경기도 안산시 단원구 고잔동 540-14번지 경신씨티프라자 502호","indutype":"학원 - 기능학원","category":"study"}]},{"lat":"37.321253159","long":"126.83805253","imageIndex":16,"items":[{"name":"안산중앙초등학교","tel":"031-487-4374","addr":"경기도 안산시 단원구 고잔동 673-1번지","indutype":"학원 - 초중고교육기관","category":"study"}]},{"lat":"37.313786785","long":"126.82765663","imageIndex":16,"items":[{"name":"안산지역사회교육협의회","tel":"031-417-4453","addr":"경기도 안산시 단원구 고잔동 704-1번지 대우빌딩 402호","indutype":"학원 - 기타 교육기관","category":"study"}]},{"lat":"37.3101191746","long":"126.8273492898","imageIndex":16,"items":[{"name":"안산커피바리스타전문학원","tel":"031-410-7179","addr":"경기도 안산시 단원구 고잔동 710-3번지","indutype":"교육서비스업 - 바리스타전문학원","category":"study"}]},{"lat":"37.315229213","long":"126.82219325","imageIndex":16,"items":[{"name":"안산특수용접전문학원","tel":"031-405-0506","addr":"경기도 안산시 단원구 고잔동 681번지 211-214호","indutype":"학원 - 기능학원","category":"study"}]},{"lat":"37.309201078","long":"126.82199335","imageIndex":16,"items":[{"name":"양지고등학교","tel":"031-439-8301","addr":"경기도 안산시 단원구 고잔동 713번지 양지고등학교","indutype":"학원 - 초중고교육기관","category":"study"},{"name":"양지고등학교_수업료","tel":"031-439-8301","addr":"경기도 안산시 단원구 고잔동 713번지 양지고등학교","indutype":"학원 - 초중고교육기관","category":"study"}]},{"lat":"37.304730562","long":"126.83318203","imageIndex":16,"items":[{"name":"양지중학교","tel":"031-489-9706","addr":"경기도 안산시 단원구 고잔동 781-2번지","indutype":"학원 - 초중고교육기관","category":"study"}]},{"lat":"37.314699244","long":"126.82326621","imageIndex":16,"items":[{"name":"에듀코리아관광가이드학원","tel":"","addr":"경기도 안산시 단원구 고잔동 682-6번지","indutype":"학원 - 기능학원","category":"study"}]},{"lat":"37.317727955","long":"126.83646955","imageIndex":16,"items":[{"name":"에듀코치개별지도중앙학원","tel":"031-405-5666","addr":"경기도 안산시 단원구 고잔동 535-4번지 보배프라자 408,409호","indutype":"학원 - 보습학원","category":"study"},{"name":"주식회사 한솔교육 안산지사","tel":"031-410-3000","addr":"경기도 안산시 단원구 고잔동 535-4번지 보배빌딩 6층","indutype":"학원 - 학습지 교육","category":"study"}]},{"lat":"37.312091936","long":"126.8396067","imageIndex":16,"items":[{"name":"에스티엔학원","tel":"031-405-5530","addr":"경기도 안산시 단원구 고잔동 760-2번지 ,2,3층","indutype":"학원 - 보습학원","category":"study"}]},{"lat":"37.329369072","long":"126.8364326","imageIndex":16,"items":[{"name":"에이엔디쿠킹학원","tel":"031-439-2930","addr":"경기도 안산시 단원구 고잔동 631-1번지 안산중앙노블레스 502호","indutype":"회원제형태 - 학원","category":"study"}]},{"lat":"37.311533383","long":"126.83325698","imageIndex":16,"items":[{"name":"에코어린이집[아이행복]","tel":"031-8044-7282","addr":"경기도 안산시 단원구 고잔동 767번지 네오빌6단지 601동 104호","indutype":"학원 - 유아원","category":"study"}]},{"lat":"37.312448166","long":"126.83660528","imageIndex":16,"items":[{"name":"엠베스트에스이송호공부학원","tel":"031-410-2783","addr":"경기도 안산시 단원구 고잔동 738-3번지 301호","indutype":"학원 - 보습학원","category":"study"}]},{"lat":"37.312450876","long":"126.83854554","imageIndex":16,"items":[{"name":"엠연기학원","tel":"031-413-9995","addr":"경기도 안산시 단원구 고잔동 746번지 201,301호","indutype":"학원 - 예·체능계학원","category":"study"}]},{"lat":"37.326586342","long":"126.82502059","imageIndex":16,"items":[{"name":"엠플러스컴영어전문학원","tel":"031-410-8494","addr":"경기도 안산시 단원구 고잔동 602번지 301호","indutype":"학원 - 기타 교육기관","category":"study"},{"name":"잉글리쉬무무고잔5학원","tel":"031-319-9905","addr":"경기도 안산시 단원구 고잔동 602번지 SK빌딩 2층","indutype":"학원 - 보습학원","category":"study"}]},{"lat":"37.312232191","long":"126.83679752","imageIndex":16,"items":[{"name":"엠플루언스영수학원","tel":"031-0000-0000","addr":"경기도 안산시 단원구 고잔동 741-1번지 3층","indutype":"학원 - 보습학원","category":"study"},{"name":"조이음악학원","tel":"031-413-4006","addr":"경기도 안산시 단원구 고잔동 741-1번지","indutype":"학원 - 예·체능계학원","category":"study"}]},{"lat":"37.318564597","long":"126.83554262","imageIndex":16,"items":[{"name":"열린헬스크리닉","tel":"031-439-5677","addr":"경기도 안산시 단원구 고잔동 534-1번지 대유빌딩 3층 303호","indutype":"회원제형태 - 학원","category":"study"},{"name":"영원한미소미술학원","tel":"031-405-0117","addr":"경기도 안산시 단원구 고잔동 534-1번지 대유빌딩 7층","indutype":"학원 - 예·체능계학원","category":"study"},{"name":"쿠나만화학원","tel":"031-405-0117","addr":"경기도 안산시 단원구 고잔동 534-1번지 대유빌딩 701,702,703호","indutype":"학원 - 예·체능계학원","category":"study"}]},{"lat":"37.323337532","long":"126.82163229","imageIndex":16,"items":[{"name":"예쁜숲어린이집[아이행복]","tel":"031-414-3384","addr":"경기도 안산시 단원구 고잔동 665-1번지 신원빌라7차 2동 101호","indutype":"학원 - 유아원","category":"study"}]},{"lat":"37.331944905","long":"126.82940855","imageIndex":16,"items":[{"name":"예슬어린이집[아이행복]","tel":"031-403-3504","addr":"경기도 안산시 단원구 고잔동 623-9번지","indutype":"학원 - 유아원","category":"study"}]},{"lat":"37.312065512","long":"126.8400467","imageIndex":16,"items":[{"name":"와이투엔학원","tel":"031-411-8044","addr":"경기도 안산시 단원구 고잔동 760-4번지 3층","indutype":"학원 - 보습학원","category":"study"}]},{"lat":"37.31345308","long":"126.8400437","imageIndex":16,"items":[{"name":"우리아이잼북스학원","tel":"031-475-2950","addr":"경기도 안산시 단원구 고잔동 753-7번지 2층","indutype":"회원제형태 - 학원","category":"study"}]},{"lat":"37.3089526247","long":"126.8306006740","imageIndex":16,"items":[{"name":"유니스어학원","tel":"031-403-0522","addr":"경기도 안산시 단원구 고잔동 772-1번지","indutype":"교육서비스업 - 어학원","category":"study"}]},{"lat":"37.312196972","long":"126.83738419","imageIndex":16,"items":[{"name":"윤단학원","tel":"031-410-7979","addr":"경기도 안산시 단원구 고잔동 741-4번지 2층","indutype":"학원 - 보습학원","category":"study"},{"name":"한빛무용학원","tel":"031-475-9988","addr":"경기도 안산시 단원구 고잔동 741-4번지 3층","indutype":"학원 - 예·체능계학원","category":"study"}]},{"lat":"37.308560587","long":"126.83365846","imageIndex":16,"items":[{"name":"윤중국어교습소","tel":"031-439-9300","addr":"경기도 안산시 단원구 고잔동 776번지 주공그린빌 상가동 109호","indutype":"학원 - 외국어학원","category":"study"}]},{"lat":"37.3248648798","long":"126.8370743513","imageIndex":16,"items":[{"name":"은석학원","tel":"031-414-2554","addr":"경기도 안산시 단원구 고잔동 676-4번지","indutype":"교육서비스업 - 보습학원,서적","category":"study"}]},{"lat":"37.3101985300","long":"126.8323237169","imageIndex":16,"items":[{"name":"이룸최현숙국어전문학원","tel":"070-7696-6932","addr":"경기도 안산시 단원구 고잔동 769-3번지","indutype":"교육서비스업 - 학원","category":"study"}]},{"lat":"37.330031188","long":"126.82699833","imageIndex":16,"items":[{"name":"이삼성학원","tel":"031-402-3344","addr":"경기도 안산시 단원구 고잔동 610번지 삼성중앙연립 2층","indutype":"학원 - 보습학원","category":"study"}]},{"lat":"37.312092232","long":"126.83982103","imageIndex":16,"items":[{"name":"이승훈실용음악학원","tel":"031-410-4319","addr":"경기도 안산시 단원구 고잔동 760-3번지 3층","indutype":"회원제형태 - 학원","category":"study"},{"name":"한예종드림무용학원","tel":"031-402-6676","addr":"경기도 안산시 단원구 고잔동 760-3번지","indutype":"학원 - 예·체능계학원","category":"study"}]},{"lat":"37.320696455","long":"126.8330446","imageIndex":16,"items":[{"name":"자연꽃예술원","tel":"031-405-5125","addr":"경기도 안산시 단원구 고잔동 528번지 블루빌타운 624호","indutype":"학원 - 예·체능계학원","category":"study"}]},{"lat":"37.327784457","long":"126.81897012","imageIndex":16,"items":[{"name":"자연사랑숲어린이집[아이행복]","tel":"031-439-0283","addr":"경기도 안산시 단원구 고잔동 659-4번지 화랑아트빌 101호","indutype":"학원 - 유아원","category":"study"}]},{"lat":"37.313954886","long":"126.83804591","imageIndex":16,"items":[{"name":"작심독서실","tel":"031-401-0910","addr":"경기도 안산시 단원구 고잔동 732-1번지 모범빌딩 2층","indutype":"학원 - 독서실","category":"study"}]},{"lat":"37.310479632","long":"126.82738229","imageIndex":16,"items":[{"name":"재단법인한국계측제어기술교육","tel":"031-405-3081","addr":"경기도 안산시 단원구 고잔동 710-2 하눌법조빌딩 208~216호","indutype":"학원 - 기타 교육기관","category":"study"}]},{"lat":"37.317285459","long":"126.84226915","imageIndex":16,"items":[{"name":"정대흥댄스스포츠","tel":"031-411-7960","addr":"경기도 안산시 단원구 고잔동 542-2번지 409-2,409-3호","indutype":"학원 - 예·체능계학원","category":"study"},{"name":"한중실용음악학원","tel":"031-414-7561","addr":"경기도 안산시 단원구 고잔동 542-2번지 우진빌딩 204호","indutype":"회원제형태 - 학원","category":"study"}]},{"lat":"37.311977204","long":"126.84135543","imageIndex":16,"items":[{"name":"정예학원","tel":"031-439-6567","addr":"경기도 안산시 단원구 고잔동 763-4 2.3층","indutype":"학원 - 보습학원","category":"study"},{"name":"정예학원","tel":"031-439-6567","addr":"경기도 안산시 단원구 고잔동 763-4,2,3층","indutype":"학원 - 보습학원","category":"study"}]},{"lat":"37.313169408","long":"126.83690827","imageIndex":16,"items":[{"name":"제이드학원","tel":"031-480-9110","addr":"경기도 안산시 단원구 고잔동 737-6번지 3층","indutype":"학원 - 보습학원","category":"study"}]},{"lat":"37.322449998","long":"126.83696684","imageIndex":16,"items":[{"name":"제이서라벌학원","tel":"031-413-0505","addr":"경기도 안산시 단원구 고잔동 674-1번지 4층","indutype":"학원 - 기타 교육기관","category":"study"}]},{"lat":"37.3241718390","long":"126.8376061462","imageIndex":16,"items":[{"name":"제이앤제이 음악학원","tel":"","addr":"경기도 안산시 단원구 고잔동 672-1번지","indutype":"교육서비스업 - 음악학원","category":"study"}]},{"lat":"37.312315723","long":"126.83854583","imageIndex":16,"items":[{"name":"제이와이에스영수전문학원","tel":"031-483-6626","addr":"경기도 안산시 단원구 고잔동 746-1번지 계림빌딩 201호,202호","indutype":"학원 - 보습학원","category":"study"}]},{"lat":"37.329283155","long":"126.8394341","imageIndex":16,"items":[{"name":"제일유치원[아이행복]","tel":"031-401-6767","addr":"경기도 안산시 단원구 고잔동 647-1","indutype":"학원 - 유치원","category":"study"}]},{"lat":"37.318561649","long":"126.83988602","imageIndex":16,"items":[{"name":"조아댄스스포츠학원","tel":"031-000-0000","addr":"경기도 안산시 단원구 고잔동 539-6번지 유림빌딩 202,203,205,206호","indutype":"학원 - 예·체능계학원","category":"study"}]},{"lat":"37.31228924","long":"126.83894071","imageIndex":16,"items":[{"name":"조형회화미술학원","tel":"031-403-4827","addr":"경기도 안산시 단원구 고잔동 757-1번지 광진빌딩 201호","indutype":"학원 - 예·체능계학원","category":"study"},{"name":"테라매쓰수학전문학원","tel":"031-410-1020","addr":"경기도 안산시 단원구 고잔동 757-1번지 광진빌딩 3층","indutype":"학원 - 보습학원","category":"study"},{"name":"호수이스턴영어학원","tel":"031-414-1888","addr":"경기도 안산시 단원구 고잔동 757-1번지 광진빌딩 4층","indutype":"회원제형태 - 학원","category":"study"}]},{"lat":"37.324703761","long":"126.82538607","imageIndex":16,"items":[{"name":"좋은소리음악학원","tel":"031-480-1863","addr":"경기도 안산시 단원구 고잔동 576번지 정원빌라 3층 302호","indutype":"학원 - 예·체능계학원","category":"study"}]},{"lat":"37.317003711","long":"126.8404873","imageIndex":16,"items":[{"name":"주식회사 한국문화예술실용전문학교","tel":"031-410-0902","addr":"경기도 안산시 단원구 고잔동 542번지 6층","indutype":"회원제형태 - 학원","category":"study"}]},{"lat":"37.320668467","long":"126.83237903","imageIndex":16,"items":[{"name":"주식회사씨앤씨미술학원","tel":"031-485-3322","addr":"경기도 안산시 단원구 고잔동 527-8번지 신원프라자 4층","indutype":"학원 - 예·체능계학원","category":"study"}]},{"lat":"37.321561803","long":"126.83971031","imageIndex":16,"items":[{"name":"중앙중학교","tel":"070-4355-1777","addr":"경기도 안산시 단원구 고잔동 673-2번지","indutype":"학원 - 초중고교육기관","category":"study"}]},{"lat":"37.313066202","long":"126.82182616","imageIndex":16,"items":[{"name":"즐공학원","tel":"031-403-9552","addr":"경기도 안산시 단원구 고잔동 693-5번지 3층","indutype":"학원 - 보습학원","category":"study"},{"name":"한우리독서토론논술","tel":"031-475-1959","addr":"경기도 안산시 단원구 고잔동 693-5번지 3층","indutype":"학원 - 보습학원","category":"study"}]},{"lat":"37.317064651","long":"126.83894162","imageIndex":16,"items":[{"name":"지아이티아카데미안산","tel":"031-8044-2111","addr":"경기도 안산시 단원구 고잔동 541-1번지 동서코아빌딩 3층","indutype":"회원제형태 - 학원","category":"study"},{"name":"하우 상담교육센터","tel":"031-414-5479","addr":"경기도 안산시 단원구 고잔동 541-1번지 동서코아 420호","indutype":"학원 - 기타 교육기관","category":"study"}]},{"lat":"37.308830855","long":"126.84005367","imageIndex":16,"items":[{"name":"지혜어린이집[아이행복]","tel":"031-411-3949","addr":"경기도 안산시 단원구 고잔동 778번지 보네르빌리지 109동 102호","indutype":"학원 - 유아원","category":"study"}]},{"lat":"37.3310884438","long":"126.8290720128","imageIndex":16,"items":[{"name":"창작예감 미술교습소","tel":"031-401-4013","addr":"경기도 안산시 단원구 고잔동 504-6번지","indutype":"교육서비스업 - 미술학원","category":"study"}]},{"lat":"37.310593301","long":"126.83748923","imageIndex":16,"items":[{"name":"초록마을어린이집","tel":"031-439-3515","addr":"경기도 안산시 단원구 고잔동 766 주공그린빌8단지관리동1층","indutype":"학원 - 유아원","category":"study"},{"name":"초록마을어린이집[아이행복]","tel":"031-439-3515","addr":"경기도 안산시 단원구 고잔동 766번지 주공그린빌8단지 관리동1층","indutype":"학원 - 유아원","category":"study"},{"name":"초록마을어린이집[아이행복]","tel":"031-439-3515","addr":"경기도 안산시 단원구 고잔동 766번지 주공그린빌","indutype":"학원 - 유아원","category":"study"},{"name":"초록마을어린이집[아이행복]","tel":"031-439-3515","addr":"경기도 안산시 단원구 고잔동 766번지 주공그린빌8단지 관리동 1층","indutype":"학원 - 유아원","category":"study"}]},{"lat":"37.314035873","long":"126.83162691","imageIndex":16,"items":[{"name":"최희훈 색소폰 스튜디오","tel":"031-000-0000","addr":"경기도 안산시 단원구 고잔동 726-11번지 삼성타운 3층 302호","indutype":"학원 - 예·체능계학원","category":"study"}]},{"lat":"37.329533089","long":"126.83774108","imageIndex":16,"items":[{"name":"코스모스어린이집[아이행복]","tel":"031-413-6680","addr":"경기도 안산시 단원구 고잔동 633-2번지","indutype":"학원 - 유아원","category":"study"}]},{"lat":"37.318254728","long":"126.83946927","imageIndex":16,"items":[{"name":"코아리빙텔","tel":"070-8610-0007","addr":"경기도 안산시 단원구 고잔동 539-16번지 3층","indutype":"학원 - 독서실","category":"study"},{"name":"코아리빙텔","tel":"070-8610-0007","addr":"경기도 안산시 단원구 고잔동 539-16번지 3층 301-308호","indutype":"학원 - 독서실","category":"study"}]},{"lat":"37.318702099","long":"126.83721199","imageIndex":16,"items":[{"name":"코지하우스","tel":"031-413-3003","addr":"경기도 안산시 단원구 고잔동 539번지 전원빌딩 5층","indutype":"학원 - 독서실","category":"study"},{"name":"팝스음악학원","tel":"031-494-7474","addr":"경기도 안산시 단원구 고잔동 539번지 전원빌딩 4층","indutype":"학원 - 예·체능계학원","category":"study"}]},{"lat":"37.3243422587","long":"126.8370529347","imageIndex":16,"items":[{"name":"클라비어음악학원","tel":"031-401-3388","addr":"경기도 안산시 단원구 고잔동 675-1번지","indutype":"교육서비스업 - 음악학원","category":"study"}]},{"lat":"37.324342259","long":"126.83705293","imageIndex":16,"items":[{"name":"클라비어음악학원","tel":"031-4001-3388","addr":"경기도 안산시 단원구 고잔동 675-1번지 2층 203호","indutype":"학원 - 예·체능계학원","category":"study"}]},{"lat":"37.326868196","long":"126.82076632","imageIndex":16,"items":[{"name":"키즈월드","tel":"031-872-4501","addr":"경기도 안산시 단원구 고잔동 660-1번지 세승연립 5동 204호","indutype":"학원 - 예·체능계학원","category":"study"}]},{"lat":"37.312424393","long":"126.83894042","imageIndex":16,"items":[{"name":"탑클래스독서실","tel":"031-411-4223","addr":"경기도 안산시 단원구 고잔동 757번지","indutype":"학원 - 독서실","category":"study"}]},{"lat":"37.314056069","long":"126.82696787","imageIndex":16,"items":[{"name":"튼튼샘어린이집[아이행복]","tel":"031-405-3589","addr":"경기도 안산시 단원구 고잔동 702번지 안산고잔4차푸르지오 411동 103호","indutype":"학원 - 유아원","category":"study"}]},{"lat":"37.313813953","long":"126.84038135","imageIndex":16,"items":[{"name":"퍼스트바리스타학원","tel":"031-362-5979","addr":"경기도 안산시 단원구 고잔동 748-6번지 1,2층","indutype":"학원 - 기능학원","category":"study"},{"name":"퍼스트바리스타학원 안산점","tel":"031-362-5979","addr":"경기도 안산시 단원구 고잔동 748-6번지 1층, 2층","indutype":"학원 - 기능학원","category":"study"}]},{"lat":"37.320007024","long":"126.82983085","imageIndex":16,"items":[{"name":"펀앤조이 체육교실 F&J 이벤트","tel":"","addr":"경기도 안산시 단원구 고잔동 523-2번지 브레스빌 5층 519호","indutype":"학원 - 기타 교육기관","category":"study"}]},{"lat":"37.313835892","long":"126.83671503","imageIndex":16,"items":[{"name":"페이댄스팩토리학원","tel":"031-402-5027","addr":"경기도 안산시 단원구 고잔동 730-1번지 호석빌딩 201호","indutype":"학원 - 예·체능계학원","category":"study"}]},{"lat":"37.311093925","long":"126.82846379","imageIndex":16,"items":[{"name":"펜싱","tel":"031-8044-8811","addr":"경기도 안산시 단원구 고잔동 709번지 보성프라자 401,402호","indutype":"학원 - 예·체능계학원","category":"study"}]},{"lat":"37.306338414","long":"126.82369217","imageIndex":16,"items":[{"name":"포스영어교습소","tel":"031-475-9995","addr":"경기도 안산시 단원구 고잔동 720번지 호수공원대림아파트 서문상가 2동 202호","indutype":"학원 - 외국어학원","category":"study"}]},{"lat":"37.305727699","long":"126.83110434","imageIndex":16,"items":[{"name":"푸르미어린이집[아이행복]","tel":"031-405-2125","addr":"경기도 안산시 단원구 고잔동 782번지 안산레이크타운푸르지오","indutype":"학원 - 유아원","category":"study"},{"name":"푸르지오","tel":"","addr":"경기도 안산시 단원구 고잔동 782번지 안산레이크타운푸르지오 107동 2703호","indutype":"학원 - 기타 교육기관","category":"study"}]},{"lat":"37.315061851","long":"126.8247206","imageIndex":16,"items":[{"name":"피스톤스포츠(All about piston)","tel":"031-418-1628","addr":"경기도 안산시 단원구 고잔동 681-6번지 슈마프라자 지층101,102호","indutype":"회원제형태 - 학원","category":"study"}]},{"lat":"37.3173936730","long":"126.8358272497","imageIndex":16,"items":[{"name":"피아노소아베학원","tel":"031-411-7288","addr":"경기도 안산시 단원구 고잔동 537-3번지","indutype":"교육서비스업 - 음악학원","category":"study"}]},{"lat":"37.317393673","long":"126.83582725","imageIndex":16,"items":[{"name":"피아노소아베학원","tel":"031-411-7288","addr":"경기도 안산시 단원구 고잔동 537-3번지 2층 205호","indutype":"학원 - 예·체능계학원","category":"study"}]},{"lat":"37.327838816","long":"126.8191618","imageIndex":16,"items":[{"name":"피아노숲음악교습소","tel":"031-405-9142","addr":"경기도 안산시 단원구 고잔동 658-5번지 101호","indutype":"학원 - 예·체능계학원","category":"study"}]},{"lat":"37.3083440850","long":"126.8272970162","imageIndex":16,"items":[{"name":"피엠피영어1관학원","tel":"031-411-2113","addr":"경기도 안산시 단원구 고잔동 718번지","indutype":"교육서비스업 - 영어학원","category":"study"}]},{"lat":"37.313866522","long":"126.83929828","imageIndex":16,"items":[{"name":"피플실용음악학원","tel":"031-414-1071","addr":"경기도 안산시 단원구 고잔동 748번지","indutype":"회원제형태 - 학원","category":"study"}]},{"lat":"37.312588862","long":"126.84059832","imageIndex":16,"items":[{"name":"한국목조주택시공교육학원","tel":"031-405-1964","addr":"경기도 안산시 단원구 고잔동 761-7번지 201호","indutype":"회원제형태 - 학원","category":"study"}]},{"lat":"37.31300826","long":"126.82521052","imageIndex":16,"items":[{"name":"한국비행드론교육원(KFDC)","tel":"031-410-1193","addr":"경기도 안산시 단원구 고잔동 701-4번지 부림빌딩 402호","indutype":"학원 - 기능학원","category":"study"}]},{"lat":"37.3107031815","long":"126.8323789788","imageIndex":16,"items":[{"name":"한국영재학원","tel":"031-482-6030","addr":"경기도 안산시 단원구 고잔동 769-1번지","indutype":"교육서비스업 - 보습학원","category":"study"}]},{"lat":"37.317868296","long":"126.83377298","imageIndex":16,"items":[{"name":"한국요리학원","tel":"031-413-2500","addr":"경기도 안산시 단원구 고잔동 536-1번지 제일빌딩 303동 308호","indutype":"학원 - 기능학원","category":"study"}]},{"lat":"37.3121969717","long":"126.8373841908","imageIndex":16,"items":[{"name":"한빛무용학원","tel":"031-475-9988","addr":"경기도 안산시 단원구 고잔동 741-4번지","indutype":"교육서비스업 - 무용학원","category":"study"}]},{"lat":"37.328036952","long":"126.8191049","imageIndex":16,"items":[{"name":"한사랑음악학원","tel":"031-405-6842","addr":"경기도 안산시 단원구 고잔동 658-6,1층1,2호","indutype":"학원 - 예·체능계학원","category":"study"}]},{"lat":"37.3233375322","long":"126.8216322906","imageIndex":16,"items":[{"name":"한사랑음악학원","tel":"031-405-6842","addr":"경기도 안산시 단원구 고잔동 665-1번지 신원빌라7차","indutype":"교육서비스업 - 음악학원","category":"study"}]},{"lat":"37.3125594900","long":"126.8325214352","imageIndex":16,"items":[{"name":"해법유솔루션수학학원","tel":"031-405-3342","addr":"경기도 안산시 단원구 고잔동 727-4번지","indutype":"교육서비스업 - 보습학원","category":"study"}]},{"lat":"37.328064192","long":"126.81924023","imageIndex":16,"items":[{"name":"햇살어린이집[아이행복]","tel":"031-487-4907","addr":"경기도 안산시 단원구 고잔동 658-3번지 강산맨션 101호","indutype":"학원 - 유아원","category":"study"}]},{"lat":"37.309974823","long":"126.83981432","imageIndex":16,"items":[{"name":"햇상둥이어린이집[아이행복]","tel":"070-4671-7446","addr":"경기도 안산시 단원구 고잔동 765번지 주공그린빌 909동 101호","indutype":"학원 - 유아원","category":"study"}]},{"lat":"37.33061127","long":"126.82932135","imageIndex":16,"items":[{"name":"행복한유치원","tel":"031-475-8881","addr":"경기도 안산시 단원구 고잔동 614번지","indutype":"학원 - 유치원","category":"study"},{"name":"행복한유치원[아이행복]","tel":"031-475-8881","addr":"경기도 안산시 단원구 고잔동 614","indutype":"학원 - 유치원","category":"study"}]},{"lat":"37.329417944","long":"126.82662741","imageIndex":16,"items":[{"name":"현대피아노","tel":"031-483-5870","addr":"경기도 안산시 단원구 고잔동 608대동상가3층","indutype":"학원 - 예·체능계학원","category":"study"}]},{"lat":"37.3294179440","long":"126.8266274129","imageIndex":16,"items":[{"name":"현대피아노","tel":"031-483-5870","addr":"경기도 안산시 단원구 고잔동 608번지 대동15차빌라","indutype":"교육서비스업 - 피아노학원","category":"study"}]},{"lat":"37.318704428","long":"126.82635911","imageIndex":16,"items":[{"name":"휴먼컨설팅앤메니지먼트","tel":"031-491-4412","addr":"경기도 안산시 단원구 고잔동 519-1번지","indutype":"회원제형태 - 학원","category":"study"}]}]