[{"lat":"37.3531446","long":"127.252612","imageIndex":0,"items":[{"name":"COSER RND","tel":"031-765-2462","addr":"경기도 광주시 오포읍 매산리 211번지","indutype":"자동차정비 유지 - 자동차부품","category":"car"}]},{"lat":"37.35170282","long":"127.2610834","imageIndex":0,"items":[{"name":"Monx(몽스)","tel":"070-4042-8503","addr":"경기도 광주시 오포읍 매산리 92-11번지","indutype":"자동차정비 유지 - 자동차부품","category":"car"}]},{"lat":"37.35181213","long":"127.256366","imageIndex":0,"items":[{"name":"디맥스","tel":"031-766-2462","addr":"경기도 광주시 오포읍 매산리 198-1번지","indutype":"자동차정비 유지 - 자동차시트·타이어","category":"car"}]},{"lat":"37.35684094","long":"127.2472516","imageIndex":0,"items":[{"name":"디에이치디","tel":"031-726-3818","addr":"경기도 광주시 오포읍 매산리 225-5번지 1층 102호","indutype":"자동차정비 유지 - 자동차정비","category":"car"}]},{"lat":"37.35578807","long":"127.2466161","imageIndex":0,"items":[{"name":"명품밧데리","tel":"031-1588-2898","addr":"경기도 광주시 오포읍 매산리 223-8번지 태룡빌딩","indutype":"자동차정비 유지 - 자동차부품","category":"car"}]},{"lat":"37.36406364","long":"127.2445319","imageIndex":0,"items":[{"name":"모현현대자동자공업사","tel":"031-798-9411","addr":"경기도 광주시 오포읍 매산리 611-1번지","indutype":"자동차정비 유지 - 자동차정비","category":"car"}]},{"lat":"37.36537017","long":"127.2445022","imageIndex":0,"items":[{"name":"범이네자동차마을","tel":"031-765-4137","addr":"경기도 광주시 오포읍 매산리 616-3번지","indutype":"자동차정비 유지 - 자동차정비","category":"car"}]},{"lat":"37.36628857","long":"127.24481","imageIndex":0,"items":[{"name":"베스트카공업사","tel":"031-763-3019","addr":"경기도 광주시 오포읍 매산리 619-8번지","indutype":"자동차정비 유지 - 자동차정비","category":"car"},{"name":"보쉬","tel":"031-8864-9936","addr":"경기도 광주시 오포읍 매산리 619-8번지 외4","indutype":"자동차정비 유지 - 세차장","category":"car"}]},{"lat":"37.36267664","long":"127.2442565","imageIndex":0,"items":[{"name":"성원카","tel":"031-762-1192","addr":"경기도 광주시 오포읍 매산리 591-17번지","indutype":"자동차정비 유지 - 자동차정비","category":"car"}]},{"lat":"37.37008847","long":"127.241537","imageIndex":0,"items":[{"name":"신우특장기업","tel":"031-404-0097","addr":"경기도 광주시 오포읍 매산리 626-111번지 113호","indutype":"자동차판매 - 기타운송","category":"car"}]},{"lat":"37.36109057","long":"127.2443982","imageIndex":0,"items":[{"name":"신일전기통신","tel":"070-8248-9451","addr":"경기도 광주시 오포읍 매산리 598-2번지","indutype":"자동차정비 유지 - 자동차부품","category":"car"}]},{"lat":"37.35717398","long":"127.2517337","imageIndex":0,"items":[{"name":"엠플러스","tel":"031-798-0347","addr":"경기도 광주시 오포읍 매산리 239-8번지","indutype":"자동차정비 유지 - 자동차부품","category":"car"}]},{"lat":"37.36175396","long":"127.2460371","imageIndex":0,"items":[{"name":"천우테크","tel":"","addr":"경기도 광주시 오포읍 매산리 589-4번지 현대맨션 3층 302호","indutype":"자동차정비 유지 - 중장비수리","category":"car"}]},{"lat":"37.35786391","long":"127.2449071","imageIndex":0,"items":[{"name":"출장세차","tel":"","addr":"경기도 광주시 오포읍 매산리 741-4번지 부강타운 4동 401호","indutype":"자동차정비 유지 - 세차장","category":"car"}]},{"lat":"37.35851129","long":"127.2455638","imageIndex":0,"items":[{"name":"카앤가이","tel":"031-8028-8333","addr":"경기도 광주시 오포읍 매산리 720-6번지","indutype":"자동차정비 유지 - 자동차정비","category":"car"}]},{"lat":"37.36817139","long":"127.2449515","imageIndex":0,"items":[{"name":"타이어프로 오포점","tel":"031-768-0103","addr":"경기도 광주시 오포읍 매산리 624-3번지","indutype":"자동차정비 유지 - 자동차시트·타이어","category":"car"}]},{"lat":"37.35589498","long":"127.2472033","imageIndex":0,"items":[{"name":"형제밧데리","tel":"031-766-4255","addr":"경기도 광주시 오포읍 매산리 223-13번지","indutype":"자동차정비 유지 - 자동차정비","category":"car"}]}]