[{"lat":"37.750370877","long":"127.07221082","imageIndex":17,"items":[{"name":"(수)","tel":"031-1111-1111","addr":"경기도 의정부시 신곡동 765-1번지 금오종합상가 B동 807호","indutype":"문화.취미 - 문화취미기타","category":"other"},{"name":"(주)보노텍스","tel":"070-8870-3008","addr":"경기도 의정부시 신곡동 765-1번지 금오종합상가 A동 1005호","indutype":"의류 - 정장","category":"other"},{"name":"GS25금오종합점","tel":"02-2006-2118","addr":"경기도 의정부시 신곡동 765-1번지 금오종합상가 A동 110호","indutype":"유통업 영리 - 편 의 점","category":"other"},{"name":"Icon PC","tel":"031-829-7119","addr":"경기도 의정부시 신곡동 765-1번지 금오종합상가 B동 106호","indutype":"수리서비스 - 기타수리서비스","category":"other"},{"name":"YOU스킨케어","tel":"031-851-2317","addr":"경기도 의정부시 신곡동 765-1번지 금오종합상가 A동 310호","indutype":"회원제형태 - 기타4","category":"other"},{"name":"늘예랑요양원(3)","tel":"031-852-8192","addr":"경기도 의정부시 신곡동 765-1번지 금오종합상가 8동803,804,805,806호","indutype":"기타의료기관 - 기타의료기관 및 기타","category":"other"},{"name":"더원특허법률사무소","tel":"031-851-6617","addr":"경기도 의정부시 신곡동 765-1번지 금오종합상가 A동 5507호","indutype":"용역 서비스 - 법률회계서비스(개인)","category":"other"},{"name":"럭키커머스(LUCKY COMMERCE)","tel":"","addr":"경기도 의정부시 신곡동 765-1번지 금오종합상가 11층 A-1303호","indutype":"주방용구 - 주방용구","category":"other"},{"name":"르하임스터디카페 의정부북부청사점","tel":"","addr":"경기도 의정부시 신곡동 765-1번지 금오종합상가 B동 305,306호","indutype":"용역 서비스 - 사무서비스","category":"other"},{"name":"법무사박홍경사무소","tel":"031-853-4337","addr":"경기도 의정부시 신곡동 765-1금오종합상가에이-903","indutype":"용역 서비스 - 법률회계서비스(개인)","category":"other"},{"name":"세무사곽용훈사무소","tel":"031-853-1144","addr":"경기도 의정부시 신곡동 765-1번지 2.3 6층 B608호","indutype":"용역 서비스 - 법률회계서비스(개인)","category":"other"},{"name":"오진관","tel":"070-4388-8583","addr":"경기도 의정부시 신곡동 765-1외2필지금오종합상가 비-114","indutype":"광학제품 - 사진관","category":"other"},{"name":"와이엘(YL)FC","tel":"031-000-0000","addr":"경기도 의정부시 신곡동 765-1번지 금오종합상가 A동 1110호","indutype":"용역 서비스 - 사무서비스","category":"other"},{"name":"유즈시스템","tel":"031-856-9661","addr":"경기도 의정부시 신곡동 765-1번지 금오종합상가제5층 B동 502호","indutype":"사무통신 - 컴퓨터","category":"other"},{"name":"의정부21세기라이온스클럽","tel":"031-852-2154","addr":"경기도 의정부시 신곡동 765-1번지 외2필지 금오종합상가 A동 801호","indutype":"회원제형태 - 기타1","category":"other"},{"name":"주식회사 처음교육","tel":"031-821-4482","addr":"경기도 의정부시 신곡동 765-1번지 금오종합상가 A동 809호","indutype":"서적문구 - 기타서적문구","category":"other"},{"name":"주식회사레이텍","tel":"031-852-8484","addr":"경기도 의정부시 신곡동 765-1금오종합상가에이동901,902호","indutype":"사무통신 - 통신기기","category":"other"},{"name":"초이스인테리어","tel":"031-874-9066","addr":"경기도 의정부시 신곡동 765-1번지 금오종합상가 A동 105호","indutype":"직물 - 카페트,커튼,천막,지물","category":"other"},{"name":"크린토피아 레미안점","tel":"031-8083-2229","addr":"경기도 의정부시 신곡동 765-1번지 금오종합상가 A동 106호","indutype":"수리서비스 - 세탁소","category":"other"},{"name":"포인트국제특허법률사무소","tel":"031-8083-4648","addr":"경기도 의정부시 신곡동 765-1번지 금오종합상가 B동 1001호","indutype":"용역 서비스 - 법률회계서비스(개인)","category":"other"},{"name":"하나악기","tel":"031-933-5003","addr":"경기도 의정부시 신곡동 765-1번지 금오종합상가 B동 907호","indutype":"레져용품 - 악기점","category":"other"},{"name":"해피브릭","tel":"031-851-1209","addr":"경기도 의정부시 신곡동 765-1번지 금오종합상가 B동 304호","indutype":"서적문구 - 완구점","category":"other"},{"name":"혜인IT","tel":"02-3392-1182","addr":"경기도 의정부시 신곡동 765-1번지 금오종합상가 5층 B506-2호","indutype":"용역 서비스 - 사무서비스","category":"other"},{"name":"효자정보공인중개사사무소","tel":"031-825-8959","addr":"경기도 의정부시 신곡동 765-1번지 금오종합상가 B동 105호","indutype":"용역 서비스 - 부동산 중개·임대","category":"other"}]},{"lat":"37.736824837","long":"127.06440436","imageIndex":17,"items":[{"name":"(신)삼일목재","tel":"031-847-0611","addr":"경기도 의정부시 신곡동 143-1번지","indutype":"건축자재 - 목재·석재·철물","category":"other"}]},{"lat":"37.729178037","long":"127.05976987","imageIndex":17,"items":[{"name":"(주)VR WORLD","tel":"031-843-2569","addr":"경기도 의정부시 신곡동 331-1번지 미림빌딩 601호","indutype":"레져용품 - 스포츠·레져용품","category":"other"},{"name":"타임유스터디카페 신곡점","tel":"","addr":"경기도 의정부시 신곡동 331-1번지 미림빌딩 3층 301호","indutype":"용역 서비스 - 사무서비스","category":"other"}]},{"lat":"37.749183232","long":"127.0694071","imageIndex":17,"items":[{"name":"(주)가람정보통신","tel":"031-826-6633","addr":"경기도 의정부시 신곡동 760-3번지 우정프라자 9층","indutype":"사무통신 - 컴퓨터","category":"other"},{"name":"(주)진시스템","tel":"031-873-3684","addr":"경기도 의정부시 신곡동 760-3번지 우정프라자 9층","indutype":"사무통신 - 컴퓨터","category":"other"},{"name":"SHIN힐링뷰티케어","tel":"031-846-3686","addr":"경기도 의정부시 신곡동 760-3번지 우정프라자 203호","indutype":"회원제형태 - 기타4","category":"other"},{"name":"대도디자인","tel":"031-825-8080","addr":"경기도 의정부시 신곡동 760-3번지 우정프라자 6층 604호","indutype":"용역 서비스 - 종합용역","category":"other"},{"name":"슈퍼비(헤어에듀)","tel":"031-875-2583","addr":"경기도 의정부시 신곡동 760-3번지 우정프라자 4층 405호","indutype":"서적문구 - 기타서적문구","category":"other"},{"name":"크린토피아(2청사점)","tel":"031-853-2255","addr":"경기도 의정부시 신곡동 760-3번지 우성프라자 101호","indutype":"수리서비스 - 세탁소","category":"other"},{"name":"휴딕스 넷","tel":"031-853-5114","addr":"경기도 의정부시 신곡동 760-3번지 우정프라자 905호","indutype":"사무통신 - 사무용 OA기기","category":"other"}]},{"lat":"37.74407269","long":"127.05582157","imageIndex":17,"items":[{"name":"(주)그린라이프공조","tel":"031-842-7777","addr":"경기도 의정부시 신곡동 677-1번지 1층","indutype":"전기제품 - 가전제품","category":"other"},{"name":"광고타운","tel":"031-841-0373","addr":"경기도 의정부시 신곡동 677-1번지 1층","indutype":"건축자재 - 인테리어전문","category":"other"},{"name":"아이리스","tel":"031-821-6623","addr":"경기도 의정부시 신곡동 677-1번지","indutype":"회원제형태 - 기타3","category":"other"}]},{"lat":"37.746517566","long":"127.06731701","imageIndex":17,"items":[{"name":"(주)뉴월드보안","tel":"031-847-8259","addr":"경기도 의정부시 신곡동 121-17번지 뉴월드빌딩 203호","indutype":"용역 서비스 - 기타용역서비스","category":"other"}]},{"lat":"37.747627138","long":"127.06470831","imageIndex":17,"items":[{"name":"(주)다인","tel":"031-853-2480","addr":"경기도 의정부시 신곡동 757-7번지 한남프라자 302호","indutype":"여행 - 관광여행","category":"other"},{"name":"윤짐(YUN GYM)","tel":"031-825-6639","addr":"경기도 의정부시 신곡동 757-7번지 한남프라자 4층","indutype":"회원제형태 - 기타4","category":"other"}]},{"lat":"37.738072508","long":"127.05540888","imageIndex":17,"items":[{"name":"(주)도연렌트카","tel":"031-842-6500","addr":"경기도 의정부시 신곡동 566-1,19","indutype":"여행 - 렌터카","category":"other"}]},{"lat":"37.750709243","long":"127.07870153","imageIndex":17,"items":[{"name":"(주)선진조경기술개발","tel":"031-841-9292","addr":"경기도 의정부시 신곡동 782-5번지 1층 102호","indutype":"건축자재 - 인테리어전문","category":"other"}]},{"lat":"37.749676995","long":"127.0724598","imageIndex":17,"items":[{"name":"(주)온새미여행사","tel":"031-851-2480","addr":"경기도 의정부시 신곡동 765-4번지 삼성플러스 104호","indutype":"여행 - 관광여행","category":"other"},{"name":"뉴하우스인테리어","tel":"031-851-4266","addr":"경기도 의정부시 신곡동 765-4번지 삼성플러스 105호","indutype":"건축자재 - 인테리어전문","category":"other"},{"name":"늘예랑노인주간보호센터","tel":"031-851-5656","addr":"경기도 의정부시 신곡동 765-4번지 삼성플러스 10층 1001호","indutype":"기타의료기관 - 기타의료기관 및 기타","category":"other"},{"name":"늘예랑요양원(2)","tel":"031-852-3232","addr":"경기도 의정부시 신곡동 765-4번지 삼성플러스 801호","indutype":"기타의료기관 - 기타의료기관 및 기타","category":"other"},{"name":"삼성플러스","tel":"031-851-8935","addr":"경기도 의정부시 신곡동 765-4번지 삼성플러스","indutype":"용역 서비스 - 종합용역","category":"other"},{"name":"이루다교육","tel":"031-855-3222","addr":"경기도 의정부시 신곡동 765-4번지 삼성플러스 1001호","indutype":"회원제형태 - 서적","category":"other"},{"name":"제이케이디자인랩 (JK design LAB)","tel":"031-852-0479","addr":"경기도 의정부시 신곡동 765-4번지 삼성플러스 102호","indutype":"건축자재 - 인테리어전문","category":"other"}]},{"lat":"37.730963848","long":"127.05565342","imageIndex":17,"items":[{"name":"(주)의정부환경","tel":"031-873-2000","addr":"경기도 의정부시 신곡동 719-2번지 백상프라자빌딩 2층 202호","indutype":"용역 서비스 - 종합용역","category":"other"},{"name":"(주)의진산업","tel":"031-873-2000","addr":"경기도 의정부시 신곡동 719-2번지 백상프라자빌딩 2층 202호","indutype":"용역 서비스 - 종합용역","category":"other"},{"name":"(주)혁성","tel":"031-873-2000","addr":"경기도 의정부시 신곡동 719-2번지 백상프라자빌딩 2층 202호","indutype":"용역 서비스 - 종합용역","category":"other"},{"name":"(주)홍삼정화","tel":"031-873-2000","addr":"경기도 의정부시 신곡동 719-2번지 백상프라자빌딩 2층 202호","indutype":"용역 서비스 - 종합용역","category":"other"},{"name":"리브여행사","tel":"031-823-9939","addr":"경기도 의정부시 신곡동 719-2번지 백상프라자빌딩 311호","indutype":"여행 - 관광여행","category":"other"},{"name":"메이크 포토","tel":"031-826-3766","addr":"경기도 의정부시 신곡동 719-2번지 외3필지백상프라자 119호","indutype":"광학제품 - 사진관","category":"other"},{"name":"모아인테리어","tel":"","addr":"경기도 의정부시 신곡동 719-2번지 백상프라자빌딩 210호","indutype":"건축자재 - 인테리어전문","category":"other"},{"name":"백상골프클럽","tel":"031-855-3603","addr":"경기도 의정부시 신곡동 719-2번지 백상프라자 307호","indutype":"회원제형태 - 레져업소","category":"other"},{"name":"블럭캐슬","tel":"031-829-0520","addr":"경기도 의정부시 신곡동 719-2번지 백상프라자 304호","indutype":"기타 - 기타 전문점","category":"other"},{"name":"신곡텔레콤","tel":"031-837-2000","addr":"경기도 의정부시 신곡동 719-2번지 백상프라자 1층 102호","indutype":"사무통신 - 통신기기","category":"other"},{"name":"의민정화(주)","tel":"031-873-2000","addr":"경기도 의정부시 신곡동 719-2번지 백상프라자빌딩 202호","indutype":"용역 서비스 - 종합용역","category":"other"},{"name":"인정시스템","tel":"031-874-0101","addr":"경기도 의정부시 신곡동 719-2 백상프라자빌딩 312","indutype":"직물 - 카페트,커튼,천막,지물","category":"other"},{"name":"코코","tel":"031-826-0846","addr":"경기도 의정부시 신곡동 719-2번지 백상프라자빌딩 118호","indutype":"의류 - 정장","category":"other"},{"name":"크린토피아 신곡농협점","tel":"031-874-8612","addr":"경기도 의정부시 신곡동 719-2번지 백상프라자빌딩 118-13호","indutype":"수리서비스 - 세탁소","category":"other"},{"name":"행복요양원","tel":"031-876-8800","addr":"경기도 의정부시 신곡동 719-2번지 4층","indutype":"기타의료기관 - 기타의료기관 및 기타","category":"other"}]},{"lat":"37.736401257","long":"127.06465359","imageIndex":17,"items":[{"name":"(주)크린토피아 의정부추동공원점","tel":"031-851-9634","addr":"경기도 의정부시 신곡동 143-6번지 1동 장령 상가","indutype":"수리서비스 - 세탁소","category":"other"},{"name":"케이투필름","tel":"031-821-8707","addr":"경기도 의정부시 신곡동 143-6번지 장영상가 B동 208호","indutype":"직물 - 카페트,커튼,천막,지물","category":"other"}]},{"lat":"37.746625345","long":"127.0679298","imageIndex":17,"items":[{"name":"(주)투데이컴퓨터","tel":"031-853-4623","addr":"경기도 의정부시 신곡동 73-28번지","indutype":"사무통신 - 컴퓨터","category":"other"},{"name":"나눔 광고","tel":"031-852-1443","addr":"경기도 의정부시 신곡동 73-28번지 대흥빌딩 101호","indutype":"서적문구 - 출판 및 인쇄물","category":"other"},{"name":"단지","tel":"070-7573-1097","addr":"경기도 의정부시 신곡동 73-28번지","indutype":"문화.취미 - 문화취미기타","category":"other"}]},{"lat":"37.744762976","long":"127.06301538","imageIndex":17,"items":[{"name":"(주)피디케이","tel":"031-852-8012","addr":"경기도 의정부시 신곡동 519-24번지 4층","indutype":"전기제품 - 가전제품","category":"other"}]},{"lat":"37.746818267","long":"127.06079318","imageIndex":17,"items":[{"name":"4단지세탁소","tel":"031-852-6650","addr":"경기도 의정부시 신곡동 755-1번지 주공그린빌 상가 106호","indutype":"수리서비스 - 세탁소","category":"other"},{"name":"GS25신곡그린빌점","tel":"","addr":"경기도 의정부시 신곡동 755-1번지 주공그린빌 상가동 1층 105호","indutype":"유통업 영리 - 편 의 점","category":"other"}]},{"lat":"37.731324231","long":"127.05565368","imageIndex":17,"items":[{"name":"707","tel":"070-4133-1707","addr":"경기도 의정부시 신곡동 707-10번지","indutype":"의류 - 정장","category":"other"}]},{"lat":"37.749399512","long":"127.06931652","imageIndex":17,"items":[{"name":"A+과학나라","tel":"031-848-5442","addr":"경기도 의정부시 신곡동 760-2번지 세명프라자 802호","indutype":"회원제형태 - 서적","category":"other"},{"name":"가족주간보호센터","tel":"031-853-6678","addr":"경기도 의정부시 신곡동 760-2번지 세명프라자 501호","indutype":"기타의료기관 - 기타의료기관 및 기타","category":"other"},{"name":"로봇클럽&과학클럽","tel":"031-851-4346","addr":"경기도 의정부시 신곡동 760-2번지 세명프라자 2층 202호","indutype":"서적문구 - 기타서적문구","category":"other"},{"name":"세방기획","tel":"02-2268-8081","addr":"경기도 의정부시 신곡동 760-2번지 세명프라자 705호","indutype":"서적문구 - 출판 및 인쇄물","category":"other"}]},{"lat":"37.749426271","long":"127.0697931","imageIndex":17,"items":[{"name":"A+행복돌봄데이케어","tel":"031-847-9860","addr":"경기도 의정부시 신곡동 761-1번지 센타프라자 10층","indutype":"기타의료기관 - 기타의료기관 및 기타","category":"other"},{"name":"GS25의정청사점","tel":"080-555-2525","addr":"경기도 의정부시 신곡동 761-1번지 센타프라자 114호","indutype":"유통업 영리 - 편 의 점","category":"other"},{"name":"강북캐녹스","tel":"02-3392-2850","addr":"경기도 의정부시 신곡동 761-1번지 센터프라자 202호","indutype":"사무통신 - 사무용 OA기기","category":"other"},{"name":"강북캐녹스","tel":"070-4234-8879","addr":"경기도 의정부시 신곡동 761-1번지 센터프라자 202호","indutype":"서적문구 - 완구점","category":"other"},{"name":"늘예랑요양원","tel":"031-853-8841","addr":"경기도 의정부시 신곡동 761-1번지 센타프라자 704,705호","indutype":"기타의료기관 - 기타의료기관 및 기타","category":"other"},{"name":"더심플","tel":"070-4419-9989","addr":"경기도 의정부시 신곡동 761-1번지 센타프라자 204호","indutype":"사무통신 - 컴퓨터","category":"other"},{"name":"동심원","tel":"031-852-9333","addr":"경기도 의정부시 신곡동 761-1번지 센터프라자 7층 707호","indutype":"서적문구 - 출판 및 인쇄물","category":"other"},{"name":"롤리팝","tel":"031-851-5552","addr":"경기도 의정부시 신곡동 761-1번지 센터프라자 113호","indutype":"의류 - 아동의류","category":"other"},{"name":"에이플러스(A+)행복돌봄공동생활가정","tel":"031-847-9860","addr":"경기도 의정부시 신곡동 761-1번지 센타프라자 10층","indutype":"기타의료기관 - 기타의료기관 및 기타","category":"other"},{"name":"제이 시스터","tel":"031-852-8802","addr":"경기도 의정부시 신곡동 761-1번지 센터프라자 115호","indutype":"의류 - 정장","category":"other"},{"name":"주식회사 진디자인","tel":"031-852-5386","addr":"경기도 의정부시 신곡동 761-1번지 센타프라자 2층 202호","indutype":"건축자재 - 인테리어전문","category":"other"},{"name":"주식회사한빛","tel":"031-853-0984","addr":"경기도 의정부시 신곡동 761-1번지 센터프라자 803호","indutype":"서적문구 - 기타서적문구","category":"other"},{"name":"초심 스터디카페 청사점","tel":"031-827-1313","addr":"경기도 의정부시 신곡동 761-1번지 센타프라자 304호","indutype":"용역 서비스 - 사무서비스","category":"other"},{"name":"크린월드","tel":"031-853-5492","addr":"경기도 의정부시 신곡동 761-1번지 센터프라자 114호","indutype":"신변잡화 - 기타잡화","category":"other"},{"name":"폼플러스","tel":"031-853-0221","addr":"경기도 의정부시 신곡동 761-1번지 센타프라자 112호","indutype":"가구 - 기타가구","category":"other"},{"name":"피어나다 플라워디자인","tel":"031-111-1111","addr":"경기도 의정부시 신곡동 761-1번지 센타프라자 101호","indutype":"문화.취미 - 화원","category":"other"}]},{"lat":"37.742484286","long":"127.06157265","imageIndex":17,"items":[{"name":"B&F헬스크럽","tel":"031-856-7755","addr":"경기도 의정부시 신곡동 489-5번지","indutype":"회원제형태 - 레져업소","category":"other"},{"name":"자전거의모든것","tel":"031-856-6677","addr":"경기도 의정부시 신곡동 489-5번지","indutype":"레져용품 - 스포츠·레져용품","category":"other"}]},{"lat":"37.729095914","long":"127.0618797","imageIndex":17,"items":[{"name":"B&K운동처방센터","tel":"031-846-0366","addr":"경기도 의정부시 신곡동 362-4번지","indutype":"회원제형태 - 레져업소","category":"other"}]},{"lat":"37.749348547","long":"127.07909727","imageIndex":17,"items":[{"name":"GS25금오주공점","tel":"02-2006-2118","addr":"경기도 의정부시 신곡동 788-8번지","indutype":"유통업 영리 - 편 의 점","category":"other"}]},{"lat":"37.731324317","long":"127.05546083","imageIndex":17,"items":[{"name":"GS25신곡으뜸점","tel":"","addr":"경기도 의정부시 신곡동 707-11번지","indutype":"유통업 영리 - 편 의 점","category":"other"}]},{"lat":"37.735455454","long":"127.06426709","imageIndex":17,"items":[{"name":"GS25신곡한일점","tel":"02-2006-2485","addr":"경기도 의정부시 신곡동 393-11 한일유앤아이@101호","indutype":"유통업 영리 - 편 의 점","category":"other"}]},{"lat":"37.740457136","long":"127.06157105","imageIndex":17,"items":[{"name":"GS25의정능곡점","tel":"","addr":"경기도 의정부시 신곡동 485-4번지 2층","indutype":"유통업 영리 - 편 의 점","category":"other"}]},{"lat":"37.742927936","long":"127.05701205","imageIndex":17,"items":[{"name":"GS25의정문화점","tel":"","addr":"경기도 의정부시 신곡동 673번지","indutype":"유통업 영리 - 편 의 점","category":"other"},{"name":"ITQ의정부센터","tel":"031-853-9408","addr":"경기도 의정부시 신곡동 673번지 휴먼시티빌딩 509호","indutype":"서적문구 - 일반서적","category":"other"},{"name":"묘하개","tel":"031-871-8713","addr":"경기도 의정부시 신곡동 673번지","indutype":"문화.취미 - 애완동물","category":"other"},{"name":"뷰티피아","tel":"031-846-1187","addr":"경기도 의정부시 신곡동 673번지 휴먼시티 210호","indutype":"회원제형태 - 기타4","category":"other"},{"name":"뽀앤느","tel":"031-840-0330","addr":"경기도 의정부시 신곡동 673번지 휴먼시티빌딩 5층 503호","indutype":"회원제형태 - 기타4","category":"other"}]},{"lat":"37.730484655","long":"127.05929443","imageIndex":17,"items":[{"name":"GS25의정신곡점","tel":"02-2006-2485","addr":"경기도 의정부시 신곡동 352-13번지","indutype":"유통업 영리 - 편 의 점","category":"other"}]},{"lat":"37.72956746","long":"127.0554369","imageIndex":17,"items":[{"name":"GS25장암현대점","tel":"02-2006-2485","addr":"경기도 의정부시 신곡동 722-1 동신현대@상가101,107","indutype":"유통업 영리 - 편 의 점","category":"other"},{"name":"현대동신세탁소","tel":"031-826-2325","addr":"경기도 의정부시 신곡동 722-1번지 현대단지내상가 102 1층","indutype":"수리서비스 - 세탁소","category":"other"}]},{"lat":"37.726847358","long":"127.05363141","imageIndex":17,"items":[{"name":"GV전자담배(그린베이퍼)","tel":"031-872-0855","addr":"경기도 의정부시 신곡동 664-22번지 유경빌딩 1층","indutype":"기타 - 기타 전문점","category":"other"}]},{"lat":"37.750402324","long":"127.0796203","imageIndex":17,"items":[{"name":"G테크","tel":"070-4123-0705","addr":"경기도 의정부시 신곡동 778-2번지 1층 101호","indutype":"사무통신 - 기타 사무용품","category":"other"}]},{"lat":"37.735177959","long":"127.0607047","imageIndex":17,"items":[{"name":"HS bio (에이치에스바이오)","tel":"070-4042-0551","addr":"경기도 의정부시 신곡동 419번지","indutype":"서적문구 - 과학기자재","category":"other"}]},{"lat":"37.745347812","long":"127.06453622","imageIndex":17,"items":[{"name":"INPC","tel":"02-1566-3633","addr":"경기도 의정부시 신곡동 92-2번지 신곡파크빌 A동 503호","indutype":"전기제품 - 가전제품","category":"other"}]},{"lat":"37.749651824","long":"127.06923732","imageIndex":17,"items":[{"name":"JD뷰티샵","tel":"031-855-6756","addr":"경기도 의정부시 신곡동 760-1번지 월드프라자빌딩 205,206호","indutype":"의류 - 기타의류","category":"other"},{"name":"굿모닝관광여행사 교육사","tel":"02-853-0111","addr":"경기도 의정부시 신곡동 760-1번지 월드프라자 201호","indutype":"여행 - 관광여행","category":"other"},{"name":"리드테크","tel":"031-873-7141","addr":"경기도 의정부시 신곡동 760-1 월드프라자505-1호","indutype":"사무통신 - 컴퓨터","category":"other"},{"name":"사랑요양원","tel":"031-823-2677","addr":"경기도 의정부시 신곡동 760-1번지 월드프라자 7층","indutype":"기타의료기관 - 기타의료기관 및 기타","category":"other"},{"name":"어울림","tel":"031-848-5066","addr":"경기도 의정부시 신곡동 760-1번지 월드프라자 113호","indutype":"직물 - 카페트,커튼,천막,지물","category":"other"}]},{"lat":"37.743260954","long":"127.05773841","imageIndex":17,"items":[{"name":"KTF(선경정보통신)","tel":"031-840-0330","addr":"경기도 의정부시 신곡동 673-4번지 대명빌딩 1층 101호","indutype":"사무통신 - 통신기기","category":"other"},{"name":"대명디카랜드","tel":"031-841-4411","addr":"경기도 의정부시 신곡동 673-4번지 대명프라자 1층 112호","indutype":"광학제품 - 사진관","category":"other"},{"name":"대명보석","tel":"031-848-7587","addr":"경기도 의정부시 신곡동 673-4번지 대명프라자 102호","indutype":"신변잡화 - 귀금속","category":"other"},{"name":"스포웰짐 신곡","tel":"031-821-3030","addr":"경기도 의정부시 신곡동 673-4번지 ,6,7층","indutype":"레져용품 - 스포츠·레져용품","category":"other"},{"name":"엘이디나라(LED NARA)","tel":"031-843-8700","addr":"경기도 의정부시 신곡동 673-4번지 대명프라자B1층118-1","indutype":"건축자재 - 조명기구","category":"other"},{"name":"커브스신곡클럽","tel":"031-846-5330","addr":"경기도 의정부시 신곡동 673-4번지 대명프라자 306,307호","indutype":"회원제형태 - 레져업소","category":"other"},{"name":"태복상회","tel":"031-879-3908","addr":"경기도 의정부시 신곡동 673-4번지 대명프라자","indutype":"의류 - 내의판매","category":"other"},{"name":"폰마을","tel":"031-856-0100","addr":"경기도 의정부시 신곡동 673-4번지 대명프라자 108호","indutype":"사무통신 - 통신기기","category":"other"}]},{"lat":"37.730963587","long":"127.05623196","imageIndex":17,"items":[{"name":"N.S.팬시문구","tel":"031-873-7743","addr":"경기도 의정부시 신곡동 719-4번지 우신프라자 115호","indutype":"서적문구 - 문구용품","category":"other"},{"name":"놀이터대장","tel":"031-877-6966","addr":"경기도 의정부시 신곡동 719-4번지 우신프라자 1층 116호","indutype":"의류 - 아동의류","category":"other"},{"name":"베이징전통마사지","tel":"031-878-5420","addr":"경기도 의정부시 신곡동 719-4번지 우신프라자 202호","indutype":"회원제형태 - 기타4","category":"other"},{"name":"줌텔레콤","tel":"031-549-2744","addr":"경기도 의정부시 신곡동 719-4번지 우신프라자 102호","indutype":"사무통신 - 통신기기","category":"other"}]},{"lat":"37.747511963","long":"127.06087314","imageIndex":17,"items":[{"name":"NARA정보통신","tel":"031-852-5528","addr":"경기도 의정부시 신곡동 755-1번지 금오주공그린빌4단지 406동 201호","indutype":"사무통신 - 통신기기","category":"other"}]},{"lat":"37.728681958","long":"127.06090383","imageIndex":17,"items":[{"name":"NB휘트니스","tel":"031-847-0696","addr":"경기도 의정부시 신곡동 317-1 성호빌딩2층 1","indutype":"회원제형태 - 레져업소","category":"other"},{"name":"로고스","tel":"","addr":"경기도 의정부시 신곡동 317-1번지 외3필지","indutype":"의류 - 정장","category":"other"},{"name":"르믹 (LMEAK)","tel":"","addr":"경기도 의정부시 신곡동 317-1번지 2층","indutype":"레져용품 - 악기점","category":"other"},{"name":"소잉돌 호호미공방","tel":"","addr":"경기도 의정부시 신곡동 317-1번지 2층","indutype":"문화.취미 - 문화취미기타","category":"other"}]},{"lat":"37.737622668","long":"127.05395642","imageIndex":17,"items":[{"name":"OK네온","tel":"031-842-3761","addr":"경기도 의정부시 신곡동 567-24번지","indutype":"건축자재 - 인테리어전문","category":"other"},{"name":"제일철물전기","tel":"031-842-0222","addr":"경기도 의정부시 신곡동 567-24번지","indutype":"기타 - 기계공구","category":"other"}]},{"lat":"37.750429692","long":"127.07909838","imageIndex":17,"items":[{"name":"The dodo(더. 도도)","tel":"031-852-7123","addr":"경기도 의정부시 신곡동 782-1번지 1층","indutype":"의류 - 정장","category":"other"},{"name":"지안건축인테리어","tel":"031-853-1019","addr":"경기도 의정부시 신곡동 782-1번지 102호 신고동","indutype":"건축자재 - 인테리어전문","category":"other"}]},{"lat":"37.746536971","long":"127.06473009","imageIndex":17,"items":[{"name":"TwentYNINE29(투웨니나인29)","tel":"070-4610-2743","addr":"경기도 의정부시 신곡동 87-13번지 서희빌 101호","indutype":"유통업 영리 - 편 의 점","category":"other"},{"name":"바이미노","tel":"","addr":"경기도 의정부시 신곡동 87-13번지 서희빌 201호","indutype":"주방용구 - 주방용식기","category":"other"}]},{"lat":"37.728907777","long":"127.05971294","imageIndex":17,"items":[{"name":"WEDDING-GALLERY","tel":"031-871-7676","addr":"경기도 의정부시 신곡동 726-1번지 박사빌딩 203호","indutype":"광학제품 - 사진관","category":"other"},{"name":"현토탈퍼니처","tel":"031-871-7676","addr":"경기도 의정부시 신곡동 726-1번지 박사빌딩 203호","indutype":"가구 - 일반가구","category":"other"}]},{"lat":"37.750263121","long":"127.07159799","imageIndex":17,"items":[{"name":"oco sports","tel":"031-853-2258","addr":"경기도 의정부시 신곡동 763-1드림타워1층10","indutype":"레져용품 - 스포츠·레져용품","category":"other"},{"name":"솜베딩홈데코","tel":"","addr":"경기도 의정부시 신곡동 763-1번지 제1층 제106","indutype":"직물 - 침구·수예점","category":"other"}]},{"lat":"37.742952201","long":"127.06273027","imageIndex":17,"items":[{"name":"ok클리닝경기북부지사","tel":"02-999-6336","addr":"경기도 의정부시 신곡동 98번지 으뜸마을신명아파트 109동 801호","indutype":"용역 서비스 - 종합용역","category":"other"}]},{"lat":"37.751142777","long":"127.07701128","imageIndex":17,"items":[{"name":"가나안","tel":"070-7690-9869","addr":"경기도 의정부시 신곡동 767-2번지 상록아이파크 102동 304호","indutype":"의류 - 내의판매","category":"other"}]},{"lat":"37.737017816","long":"127.05667874","imageIndex":17,"items":[{"name":"가나어님천막공사","tel":"031-846-3121","addr":"경기도 의정부시 신곡동 571-64번지","indutype":"기타 - 기타 전문점","category":"other"}]},{"lat":"37.749876639","long":"127.0699864","imageIndex":17,"items":[{"name":"가나크레인","tel":"031-851-6100","addr":"경기도 의정부시 신곡동 762-2번지 엘리트타운 605호","indutype":"기타 - 기계공구","category":"other"},{"name":"들꽃마을","tel":"031-853-9445","addr":"경기도 의정부시 신곡동 762-2번지 엘리트타운 102호","indutype":"문화.취미 - 화원","category":"other"},{"name":"예다움 요양원 너싱홈","tel":"031-851-9111","addr":"경기도 의정부시 신곡동 762-2번지 엘리트타운 801호","indutype":"기타의료기관 - 기타의료기관 및 기타","category":"other"},{"name":"컴퓨토피아","tel":"070-868-6363","addr":"경기도 의정부시 신곡동 762-2번지 엘리트타운 105호","indutype":"사무통신 - 컴퓨터","category":"other"}]},{"lat":"37.728600597","long":"127.0614596","imageIndex":17,"items":[{"name":"가베미술놀이터","tel":"031-856-0879","addr":"경기도 의정부시 신곡동 313-9번지 중앙빌딩 3층","indutype":"회원제형태 - 서적","category":"other"},{"name":"렉스세정","tel":"031-845-3100","addr":"경기도 의정부시 신곡동 313-9번지","indutype":"건축자재 - 보일러·펌프·샷시","category":"other"},{"name":"사진카페A꽁떼","tel":"031-3233-9474","addr":"경기도 의정부시 신곡동 313-9번지","indutype":"광학제품 - 사진관","category":"other"},{"name":"희스토리","tel":"070-8129-5600","addr":"경기도 의정부시 신곡동 313-9번지","indutype":"의류 - 정장","category":"other"}]},{"lat":"37.729411806","long":"127.06075694","imageIndex":17,"items":[{"name":"간식스토리","tel":"","addr":"경기도 의정부시 신곡동 355-38번지 국도빌라드케이3차 다동 503호","indutype":"신변잡화 - 기타잡화","category":"other"}]},{"lat":"37.73709944","long":"127.0554876","imageIndex":17,"items":[{"name":"갑지","tel":"031-848-9018","addr":"경기도 의정부시 신곡동 571-19번지","indutype":"의류 - 정장","category":"other"},{"name":"대빵음향","tel":"031-848-0119","addr":"경기도 의정부시 신곡동 571-19번지","indutype":"전기제품 - 가전제품","category":"other"}]},{"lat":"37.749268037","long":"127.07820081","imageIndex":17,"items":[{"name":"거성","tel":"070-8951-5250","addr":"경기도 의정부시 신곡동 785-2번지","indutype":"건축자재 - 기타건축자재","category":"other"}]},{"lat":"37.744906106","long":"127.06498969","imageIndex":17,"items":[{"name":"고려지물포","tel":"031-843-5945","addr":"경기도 의정부시 신곡동 107-6번지 102호","indutype":"직물 - 카페트,커튼,천막,지물","category":"other"},{"name":"주식회사 장례다이렉트","tel":"02-1644-4148","addr":"경기도 의정부시 신곡동 107-6번지 104호","indutype":"용역 서비스 - 가례서비스업","category":"other"}]},{"lat":"37.749290941","long":"127.07012203","imageIndex":17,"items":[{"name":"골드 커튼 블라인드","tel":"","addr":"경기도 의정부시 신곡동 761-7번지 골드프라자 5층 502호","indutype":"직물 - 카페트,커튼,천막,지물","category":"other"},{"name":"김태종세무회계사무소","tel":"031-852-7744","addr":"경기도 의정부시 신곡동 761-7번지 골드프라자 603호","indutype":"용역 서비스 - 법률회계서비스(개인)","category":"other"},{"name":"꿈터","tel":"","addr":"경기도 의정부시 신곡동 761-7번지 골드프라자 104호","indutype":"서적문구 - 일반서적","category":"other"},{"name":"제이앤케이컴퍼니","tel":"031-852-4909","addr":"경기도 의정부시 신곡동 761-7번지 골드프라자 3층 301호","indutype":"레져용품 - 스포츠·레져용품","category":"other"}]},{"lat":"37.728988694","long":"127.06006465","imageIndex":17,"items":[{"name":"곰돌이포토스튜디오","tel":"031-821-3390","addr":"경기도 의정부시 신곡동 330-1번지 101호","indutype":"광학제품 - 사진관","category":"other"},{"name":"쥬얼리카페앙뜨","tel":"031-821-1120","addr":"경기도 의정부시 신곡동 330-1번지 경동빌딩 1층","indutype":"신변잡화 - 액세서리","category":"other"},{"name":"핑크네일","tel":"031-847-5003","addr":"경기도 의정부시 신곡동 330-1번지","indutype":"회원제형태 - 기타4","category":"other"}]},{"lat":"37.747122484","long":"127.06493481","imageIndex":17,"items":[{"name":"광원sunny 8","tel":"031-111-1111","addr":"경기도 의정부시 신곡동 78-13번지","indutype":"의류 - 정장","category":"other"},{"name":"대한사","tel":"031-847-4035","addr":"경기도 의정부시 신곡동 78-13번지","indutype":"기타 - 기계공구","category":"other"}]},{"lat":"37.730963205","long":"127.0570714","imageIndex":17,"items":[{"name":"국민서적","tel":"031-877-7028","addr":"경기도 의정부시 신곡동 720-2번지 신풍프라자B1","indutype":"회원제형태 - 서적","category":"other"},{"name":"국민서적","tel":"031-877-7028","addr":"경기도 의정부시 신곡동 720-2번지 신풍프라자B1","indutype":"회원제형태 - 서적","category":"other"}]},{"lat":"37.73571071","long":"127.058232","imageIndex":17,"items":[{"name":"국일전기조명","tel":"031-841-3151","addr":"경기도 의정부시 신곡동 441-2번지","indutype":"건축자재 - 조명기구","category":"other"}]},{"lat":"37.749430042","long":"127.07846194","imageIndex":17,"items":[{"name":"국제설비","tel":"031-872-8090","addr":"경기도 의정부시 신곡동 786-10번지 102호","indutype":"용역 서비스 - 기타용역서비스","category":"other"},{"name":"누구~개","tel":"02-111-1111","addr":"경기도 의정부시 신곡동 786-10번지 1층","indutype":"문화.취미 - 애완동물","category":"other"}]},{"lat":"37.751457615","long":"127.07779453","imageIndex":17,"items":[{"name":"굿모닝개발산업","tel":"031-853-0357","addr":"경기도 의정부시 신곡동 772-1번지 명경지수 103호","indutype":"건축자재 - 인테리어전문","category":"other"},{"name":"멍이사랑","tel":"031-1600-5065","addr":"경기도 의정부시 신곡동 772-1번지 명경지수 1층 103호","indutype":"문화.취미 - 애완동물","category":"other"},{"name":"세븐일레븐의정부신곡효자점","tel":"","addr":"경기도 의정부시 신곡동 772-1번지","indutype":"유통업 영리 - 편 의 점","category":"other"},{"name":"운동화손세탁","tel":"031-853-8284","addr":"경기도 의정부시 신곡동 772-1번지 명경지수 102호","indutype":"수리서비스 - 세탁소","category":"other"}]},{"lat":"37.747039476","long":"127.06848613","imageIndex":17,"items":[{"name":"그린벨화일","tel":"070-4120-7424","addr":"경기도 의정부시 신곡동 802-10번지 1층","indutype":"유통업 영리 - 기타유통업","category":"other"}]},{"lat":"37.746039661","long":"127.06804275","imageIndex":17,"items":[{"name":"그린칠판교구","tel":"031-846-7878","addr":"경기도 의정부시 신곡동 123번지","indutype":"서적문구 - 문구용품","category":"other"}]},{"lat":"37.748266935","long":"127.06448191","imageIndex":17,"items":[{"name":"그린피부관리실","tel":"031-853-8765","addr":"경기도 의정부시 신곡동 757-4번지 2층","indutype":"회원제형태 - 기타4","category":"other"},{"name":"주식회사베프","tel":"031-853-8829","addr":"경기도 의정부시 신곡동 757-4번지 주원빌딩 205호","indutype":"레져용품 - 스포츠·레져용품","category":"other"},{"name":"토담","tel":"02-3444-8520","addr":"경기도 의정부시 신곡동 757-4번지 주원빌딩 303호","indutype":"건축자재 - 기타건축자재","category":"other"}]},{"lat":"37.737903049","long":"127.06979408","imageIndex":17,"items":[{"name":"근영프라임","tel":"031-314-8504","addr":"경기도 의정부시 신곡동 164-7번지","indutype":"용역 서비스 - 기타용역서비스","category":"other"}]},{"lat":"37.74943369","long":"127.072539","imageIndex":17,"items":[{"name":"글마니서점","tel":"00-1599-9619","addr":"경기도 의정부시 신곡동 765-5번지 금오프라자 701호","indutype":"서적문구 - 일반서적","category":"other"},{"name":"꽃떼","tel":"031-852-7708","addr":"경기도 의정부시 신곡동 765-5번지 금오프라자 1층 110호","indutype":"문화.취미 - 화원","category":"other"},{"name":"두경문화사","tel":"031-852-2805","addr":"경기도 의정부시 신곡동 765-5번지 금오프라자 1층 111호","indutype":"서적문구 - 출판 및 인쇄물","category":"other"},{"name":"리딩파크","tel":"031-853-2201","addr":"경기도 의정부시 신곡동 765-5번지 금오프라자 1001호","indutype":"서적문구 - 일반서적","category":"other"},{"name":"몽키닷컴","tel":"070-8843-3309","addr":"경기도 의정부시 신곡동 765-5번지 금오프라자 105호","indutype":"사무통신 - 컴퓨터","category":"other"},{"name":"보경","tel":"031-853-3700","addr":"경기도 의정부시 신곡동 765-5번지 금오프라자 108호","indutype":"건축자재 - 인테리어전문","category":"other"},{"name":"세븐일레븐의정부청사점","tel":"","addr":"경기도 의정부시 신곡동 765-5번지 금오프라자 108호","indutype":"유통업 영리 - 편 의 점","category":"other"},{"name":"씨유의정부금오점","tel":"031-851-5068","addr":"경기도 의정부시 신곡동 765-5번지 금오프라 101호","indutype":"유통업 영리 - 편 의 점","category":"other"},{"name":"의정부아동발달센터","tel":"031-853-7581","addr":"경기도 의정부시 신곡동 765-5번지 금오프라자 1002호","indutype":"회원제형태 - 기타4","category":"other"}]},{"lat":"37.735016904","long":"127.05837896","imageIndex":17,"items":[{"name":"금강철물","tel":"031-847-3183","addr":"경기도 의정부시 신곡동 440-17번지","indutype":"건축자재 - 목재·석재·철물","category":"other"}]},{"lat":"37.750150146","long":"127.07948388","imageIndex":17,"items":[{"name":"금강컴퓨터","tel":"031-851-1711","addr":"경기도 의정부시 신곡동 780-3번지","indutype":"사무통신 - 컴퓨터","category":"other"}]},{"lat":"37.737459847","long":"127.05543113","imageIndex":17,"items":[{"name":"금성유리","tel":"031-843-5755","addr":"경기도 의정부시 신곡동 571-1번지","indutype":"건축자재 - 유리","category":"other"}]},{"lat":"37.733602204","long":"127.05879765","imageIndex":17,"items":[{"name":"금성전기조명","tel":"031-821-7300","addr":"경기도 의정부시 신곡동 431-1번지 1층 101호","indutype":"전기제품 - 기타전기제품","category":"other"}]},{"lat":"37.751655724","long":"127.07795359","imageIndex":17,"items":[{"name":"금토농원","tel":"031-851-1323","addr":"경기도 의정부시 신곡동 769-1번지 1층","indutype":"문화.취미 - 화원","category":"other"}]},{"lat":"37.747346383","long":"127.06743119","imageIndex":17,"items":[{"name":"금풍문구도매쎈타바른손의정부지점","tel":"031-821-2700","addr":"경기도 의정부시 신곡동 68-4번지","indutype":"서적문구 - 문구용품","category":"other"}]},{"lat":"37.73371215","long":"127.05479321","imageIndex":17,"items":[{"name":"긍정재능","tel":"031-870-4131","addr":"경기도 의정부시 신곡동 615-47번지 1층","indutype":"사무통신 - 통신기기","category":"other"}]},{"lat":"37.744483894","long":"127.06259536","imageIndex":17,"items":[{"name":"김해경 요가아카데미","tel":"031-856-8896","addr":"경기도 의정부시 신곡동 519-28번지","indutype":"회원제형태 - 레져업소","category":"other"},{"name":"동원전기조명","tel":"031-821-2857","addr":"경기도 의정부시 신곡동 519-28번지 동원빌딩 1층","indutype":"건축자재 - 조명기구","category":"other"}]},{"lat":"37.735574799","long":"127.05984283","imageIndex":17,"items":[{"name":"까치인테리어","tel":"031-853-3300","addr":"경기도 의정부시 신곡동 444-9번지","indutype":"직물 - 카페트,커튼,천막,지물","category":"other"},{"name":"디자인협동조합좋은이웃","tel":"","addr":"경기도 의정부시 신곡동 444-9번지 2층","indutype":"용역 서비스 - 사무서비스","category":"other"}]},{"lat":"37.735511095","long":"127.0611474","imageIndex":17,"items":[{"name":"꽃과나무김정희플라워","tel":"031-848-4140","addr":"경기도 의정부시 신곡동 447-38번지","indutype":"문화.취미 - 화원","category":"other"}]},{"lat":"37.747573211","long":"127.06445864","imageIndex":17,"items":[{"name":"꽃자리한복","tel":"031-852-6714","addr":"경기도 의정부시 신곡동 757-8번지 승원빌딩 105호","indutype":"의류 - 맞춤복점","category":"other"},{"name":"로신 ROSSIN","tel":"031-853-3579","addr":"경기도 의정부시 신곡동 757-8번지 승원빌딩 2층","indutype":"레져용품 - 스포츠·레져용품","category":"other"},{"name":"세화건설중기","tel":"031-837-0462","addr":"경기도 의정부시 신곡동 757-8번지 승원빌딩 502호","indutype":"기타 - 기계공구","category":"other"},{"name":"아이엠","tel":"031-823-3932","addr":"경기도 의정부시 신곡동 757-8번지 승원빌딩 1층","indutype":"의류 - 정장","category":"other"}]},{"lat":"37.74781654","long":"127.06432269","imageIndex":17,"items":[{"name":"꽃집언니","tel":"031-000-0000","addr":"경기도 의정부시 신곡동 756-5번지 세원빌딩 1층 중 일부","indutype":"문화.취미 - 화원","category":"other"},{"name":"루디아","tel":"031-853-8061","addr":"경기도 의정부시 신곡동 756-5번지 블루밍 1층","indutype":"의류 - 정장","category":"other"},{"name":"즐겨찾기","tel":"070-7777-1562","addr":"경기도 의정부시 신곡동 756-5번지 세원빌딩 5층 501호","indutype":"용역 서비스 - 종합용역","category":"other"}]},{"lat":"37.734934303","long":"127.06150997","imageIndex":17,"items":[{"name":"꿈이랑펫","tel":"070-4152-0649","addr":"경기도 의정부시 신곡동 419-23번지 1층","indutype":"문화.취미 - 애완동물","category":"other"}]},{"lat":"37.738595027","long":"127.05548866","imageIndex":17,"items":[{"name":"나비야","tel":"031-821-8905","addr":"경기도 의정부시 신곡동 574번지 1층","indutype":"문화.취미 - 애완동물","category":"other"}]},{"lat":"37.734708882","long":"127.06187281","imageIndex":17,"items":[{"name":"남영 철물 건재","tel":"031-821-2114","addr":"경기도 의정부시 신곡동 397-4번지 1층","indutype":"건축자재 - 목재·석재·철물","category":"other"}]},{"lat":"37.729096112","long":"127.06148268","imageIndex":17,"items":[{"name":"너와펫","tel":"031-821-0919","addr":"경기도 의정부시 신곡동 355-4번지 광조빌딩","indutype":"문화.취미 - 애완동물","category":"other"}]},{"lat":"37.736015681","long":"127.06104569","imageIndex":17,"items":[{"name":"네오스크린골프","tel":"031-856-3004","addr":"경기도 의정부시 신곡동 455-36번지 2층","indutype":"회원제형태 - 레져업소","category":"other"},{"name":"루프탑(Rooftop)237","tel":"031-873-5094","addr":"경기도 의정부시 신곡동 455-36번지 다우빌딩 6층 신곡","indutype":"용역 서비스 - 사무서비스","category":"other"}]},{"lat":"37.738299166","long":"127.07032764","imageIndex":17,"items":[{"name":"노만(NOMAN)","tel":"02-2277-1244","addr":"경기도 의정부시 신곡동 167-20번지 극동스타클래스 105동 1702호","indutype":"광학제품 - 사진관","category":"other"}]},{"lat":"37.728573404","long":"127.06178854","imageIndex":17,"items":[{"name":"놀러와 캣독","tel":"031-1111-1111","addr":"경기도 의정부시 신곡동 313-3번지","indutype":"문화.취미 - 애완동물","category":"other"},{"name":"단추","tel":"031-528-6263","addr":"경기도 의정부시 신곡동 313-3번지 1층","indutype":"의류 - 정장","category":"other"},{"name":"제이룸","tel":"070-8812-0033","addr":"경기도 의정부시 신곡동 313-3번지 1층","indutype":"의류 - 정장","category":"other"},{"name":"코잠하우스","tel":"031-867-6888","addr":"경기도 의정부시 신곡동 313-3번지 지하","indutype":"직물 - 침구·수예점","category":"other"}]},{"lat":"37.731403723","long":"127.05910228","imageIndex":17,"items":[{"name":"다 드림","tel":"031-847-9440","addr":"경기도 의정부시 신곡동 352-21번지","indutype":"전기제품 - 기타전기제품","category":"other"},{"name":"캐리어냉동산업","tel":"031-847-0639","addr":"경기도 의정부시 신곡동 352-21번지","indutype":"전기제품 - 냉열기기","category":"other"}]},{"lat":"37.736179771","long":"127.05701848","imageIndex":17,"items":[{"name":"다온샷시 금속","tel":"031-848-0669","addr":"경기도 의정부시 신곡동 597-150번지 102호","indutype":"건축자재 - 보일러·펌프·샷시","category":"other"}]},{"lat":"37.736845899","long":"127.05826688","imageIndex":17,"items":[{"name":"다원 골프아카데미","tel":"031-841-5424","addr":"경기도 의정부시 신곡동 443-10번지 삼호빌딩 2층","indutype":"레져용품 - 골프용품 전문점","category":"other"}]},{"lat":"37.740349049","long":"127.06151424","imageIndex":17,"items":[{"name":"다율통신","tel":"031-8414-0101","addr":"경기도 의정부시 신곡동 485-5번지 2층","indutype":"사무통신 - 통신기기","category":"other"},{"name":"아세요","tel":"031-821-4425","addr":"경기도 의정부시 신곡동 485-5번지 2층","indutype":"유통업 영리 - 편 의 점","category":"other"}]},{"lat":"37.744538037","long":"127.06242521","imageIndex":17,"items":[{"name":"단아 블라인드","tel":"031-848-8412","addr":"경기도 의정부시 신곡동 519-26번지 지층 전부","indutype":"직물 - 카페트,커튼,천막,지물","category":"other"},{"name":"신도테크OA","tel":"031-842-0133","addr":"경기도 의정부시 신곡동 519-26번지 3층","indutype":"사무통신 - 사무용 OA기기","category":"other"}]},{"lat":"37.752042793","long":"127.07848729","imageIndex":17,"items":[{"name":"대륜이엔에스 의정부4고객센터","tel":"","addr":"경기도 의정부시 신곡동 769-11번지 101호","indutype":"용역 서비스 - 기타용역서비스","category":"other"}]},{"lat":"37.743843211","long":"127.06454632","imageIndex":17,"items":[{"name":"대림목재","tel":"031-848-0720","addr":"경기도 의정부시 신곡동 103-5번지","indutype":"건축자재 - 목재·석재·철물","category":"other"}]},{"lat":"37.73509579","long":"127.06287143","imageIndex":17,"items":[{"name":"대성사","tel":"031-841-2829","addr":"경기도 의정부시 신곡동 448-4번지","indutype":"수리서비스 - 세탁소","category":"other"}]},{"lat":"37.744178535","long":"127.06065497","imageIndex":17,"items":[{"name":"대성종합인테리어","tel":"031-843-0482","addr":"경기도 의정부시 신곡동 685 벽산상가1층 102","indutype":"건축자재 - 인테리어전문","category":"other"}]},{"lat":"37.735601959","long":"127.05957058","imageIndex":17,"items":[{"name":"대세통상","tel":"031-845-2201","addr":"경기도 의정부시 신곡동 444-7번지","indutype":"기타 - 기타 전문점","category":"other"}]},{"lat":"37.742793083","long":"127.05637659","imageIndex":17,"items":[{"name":"대원","tel":"031-847-8488","addr":"경기도 의정부시 신곡동 680-5번지 3층","indutype":"수리서비스 - 가정용품수리","category":"other"}]},{"lat":"37.75168159","long":"127.07975779","imageIndex":17,"items":[{"name":"대원INS","tel":"031-851-5222","addr":"경기도 의정부시 신곡동 772-14번지","indutype":"사무통신 - 사무용 OA기기","category":"other"}]},{"lat":"37.729150512","long":"127.06079076","imageIndex":17,"items":[{"name":"대원밧데리","tel":"031-847-0539","addr":"경기도 의정부시 신곡동 355-9번지","indutype":"기타 - 기타 전문점","category":"other"}]},{"lat":"37.737099586","long":"127.05515861","imageIndex":17,"items":[{"name":"대원종합목재","tel":"031-844-2828","addr":"경기도 의정부시 신곡동 570-11번지","indutype":"건축자재 - 기타건축자재","category":"other"}]},{"lat":"37.748732665","long":"127.06956555","imageIndex":17,"items":[{"name":"대진사진관 제2청사점","tel":"070-4236-6368","addr":"경기도 의정부시 신곡동 760-5번지 경남프라자 109호 110호 신곡동,경남빌딩 일부","indutype":"광학제품 - 사진관","category":"other"},{"name":"도도플라워","tel":"031-848-5012","addr":"경기도 의정부시 신곡동 760-5번지 경남빌딩, 105호, 106호","indutype":"문화.취미 - 화원","category":"other"},{"name":"맘스드림","tel":"031-853-6049","addr":"경기도 의정부시 신곡동 760-5번지 경남프라자 115호","indutype":"의류 - 정장","category":"other"},{"name":"모아마켓","tel":"031-853-5123","addr":"경기도 의정부시 신곡동 760-5번지 경남프라자 1층 108호","indutype":"직물 - 옷감·직물","category":"other"},{"name":"시가모아금오점","tel":"031-853-5123","addr":"경기도 의정부시 신곡동 760-5번지 경남프라자 107호","indutype":"기타 - 기타 전문점","category":"other"}]},{"lat":"37.750681108","long":"127.08040352","imageIndex":17,"items":[{"name":"더 팩토리","tel":"","addr":"경기도 의정부시 신곡동 777-9번지 1층","indutype":"의류 - 정장","category":"other"}]},{"lat":"37.747762601","long":"127.06409571","imageIndex":17,"items":[{"name":"더펫샵","tel":"031-111-1111","addr":"경기도 의정부시 신곡동 756-4번지 성광빌딩 1층","indutype":"문화.취미 - 애완동물","category":"other"}]},{"lat":"37.744628241","long":"127.06220971","imageIndex":17,"items":[{"name":"도도리사이클샵","tel":"031-841-8849","addr":"경기도 의정부시 신곡동 519-10번지 1층","indutype":"회원제형태 - 기타4","category":"other"},{"name":"벌룬데코UJB","tel":"031-843-0888","addr":"경기도 의정부시 신곡동 519-10번지 1층","indutype":"기타 - 기타 전문점","category":"other"}]},{"lat":"37.731466567","long":"127.05956743","imageIndex":17,"items":[{"name":"동명설비","tel":"031-844-4602","addr":"경기도 의정부시 신곡동 351-2번지 신곡빌라 2동 102호","indutype":"용역 서비스 - 기타용역서비스","category":"other"}]},{"lat":"37.74145732","long":"127.06132224","imageIndex":17,"items":[{"name":"동화마을","tel":"031-840-7770","addr":"경기도 의정부시 신곡동 493-1번지 동화마을","indutype":"회원제형태 - 서적","category":"other"},{"name":"동화마을","tel":"031-840-7770","addr":"경기도 의정부시 신곡동 493-1번지","indutype":"회원제형태 - 서적","category":"other"}]},{"lat":"37.727072505","long":"127.07159925","imageIndex":17,"items":[{"name":"동화조경상사","tel":"01-7938-3821","addr":"경기도 의정부시 신곡동 산 87-1","indutype":"건축자재 - 인테리어전문","category":"other"}]},{"lat":"37.735294185","long":"127.06250857","imageIndex":17,"items":[{"name":"두뇌로수학 포천지사","tel":"031-000-0000","addr":"경기도 의정부시 신곡동 448-30번지 1층","indutype":"서적문구 - 일반서적","category":"other"}]},{"lat":"37.737181051","long":"127.05429646","imageIndex":17,"items":[{"name":"두라플라워","tel":"031-821-1313","addr":"경기도 의정부시 신곡동 567-7번지","indutype":"문화.취미 - 화원","category":"other"},{"name":"리시안플라워","tel":"031-847-3939","addr":"경기도 의정부시 신곡동 567-7번지","indutype":"문화.취미 - 화원","category":"other"},{"name":"삼천리자전거","tel":"031-821-0398","addr":"경기도 의정부시 신곡동 567-7번지","indutype":"레져용품 - 스포츠·레져용품","category":"other"}]},{"lat":"37.737100138","long":"127.05389934","imageIndex":17,"items":[{"name":"두리씽크","tel":"031-848-5545","addr":"경기도 의정부시 신곡동 568-3","indutype":"주방용구 - 주방용구","category":"other"}]},{"lat":"37.748598833","long":"127.06720535","imageIndex":17,"items":[{"name":"드림밸리사","tel":"031-851-8804","addr":"경기도 의정부시 신곡동 758-1드림밸리상가209","indutype":"수리서비스 - 세탁소","category":"other"},{"name":"비전인테리어","tel":"031-851-1214","addr":"경기도 의정부시 신곡동 758-1드림밸리상가205","indutype":"건축자재 - 인테리어전문","category":"other"}]},{"lat":"37.746906172","long":"127.06509348","imageIndex":17,"items":[{"name":"디스포저마트","tel":"031-853-3668","addr":"경기도 의정부시 신곡동 78-22번지 세븐파크빌 303호","indutype":"회원제형태 - 기타1","category":"other"}]},{"lat":"37.746611142","long":"127.06060013","imageIndex":17,"items":[{"name":"디에이치(DH)바이오","tel":"02-955-0703","addr":"경기도 의정부시 신곡동 755-1번지 주공그린빌 402동 1905호","indutype":"서적문구 - 과학기자재","category":"other"}]},{"lat":"37.731684173","long":"127.05662951","imageIndex":17,"items":[{"name":"때빼고광내고","tel":"070-8690-5899","addr":"경기도 의정부시 신곡동 709-9번지 1층","indutype":"수리서비스 - 세탁소","category":"other"},{"name":"신곡탑공인중개사사무소","tel":"031-840-3200","addr":"경기도 의정부시 신곡동 709-9번지 1층","indutype":"용역 서비스 - 부동산 중개·임대","category":"other"},{"name":"해피하우스","tel":"070-8771-0890","addr":"경기도 의정부시 신곡동 709-9번지 1층우측","indutype":"의류 - 정장","category":"other"}]},{"lat":"37.735150363","long":"127.06185047","imageIndex":17,"items":[{"name":"라온공방(국제아로마테라피신곡교육센터)","tel":"031-970-7897","addr":"경기도 의정부시 신곡동 447-28번지 1층","indutype":"신변잡화 - 기타잡화","category":"other"}]},{"lat":"37.744315277","long":"127.0572967","imageIndex":17,"items":[{"name":"레오","tel":"031-844-7677","addr":"경기도 의정부시 신곡동 671-14번지 하이컴프라자","indutype":"문화.취미 - 화원","category":"other"},{"name":"컴포니통신","tel":"031-841-3396","addr":"경기도 의정부시 신곡동 671-14번지 1층","indutype":"사무통신 - 컴퓨터","category":"other"}]},{"lat":"37.74512142","long":"127.06670312","imageIndex":17,"items":[{"name":"로뎀2","tel":"070-2699-0807","addr":"경기도 의정부시 신곡동 122-29번지","indutype":"의류 - 내의판매","category":"other"}]},{"lat":"37.731016274","long":"127.05918139","imageIndex":17,"items":[{"name":"룰루(Lulu)","tel":"031-000-0000","addr":"경기도 의정부시 신곡동 352-35번지 4층","indutype":"신변잡화 - 액세서리","category":"other"},{"name":"카피랜드","tel":"031-821-5141","addr":"경기도 의정부시 신곡동 352-35번지","indutype":"용역 서비스 - 사무서비스","category":"other"},{"name":"한샘의정부TOP","tel":"031-853-0073","addr":"경기도 의정부시 신곡동 352-35번지","indutype":"주방용구 - 주방용구","category":"other"}]},{"lat":"37.730818365","long":"127.05854599","imageIndex":17,"items":[{"name":"리빙아울렛 신곡점","tel":"031-873-6853","addr":"경기도 의정부시 신곡동 721-1번지 지하층 비1층","indutype":"신변잡화 - 기타잡화","category":"other"},{"name":"민영MTB나라","tel":"031-829-1753","addr":"경기도 의정부시 신곡동 721-1번지 장암프라자 104호","indutype":"레져용품 - 스포츠·레져용품","category":"other"},{"name":"베스트올신곡점","tel":"031-855-5362","addr":"경기도 의정부시 신곡동 721-1번지 장암프라자 1층 1호","indutype":"유통업 영리 - 편 의 점","category":"other"},{"name":"오드리","tel":"031-836-5332","addr":"경기도 의정부시 신곡동 721-1번지 장암프라자 104호","indutype":"의류 - 정장","category":"other"},{"name":"인컴정보시스템","tel":"00-1644-3455","addr":"경기도 의정부시 신곡동 721-1번지 107호","indutype":"사무통신 - 컴퓨터","category":"other"}]},{"lat":"37.731657747","long":"127.05529091","imageIndex":17,"items":[{"name":"마니공방","tel":"031-826-8268","addr":"경기도 의정부시 신곡동 704-6번지","indutype":"문화.취미 - 문화취미기타","category":"other"}]},{"lat":"37.738134346","long":"127.05809767","imageIndex":17,"items":[{"name":"마린 엔 펄","tel":"02-3303-0444","addr":"경기도 의정부시 신곡동 754번지 신곡주공푸르미 408동 204호","indutype":"신변잡화 - 액세서리","category":"other"},{"name":"모니카 뷰티","tel":"","addr":"경기도 의정부시 신곡동 754번지 신곡주공푸르미 408동 2003호","indutype":"의류 - 맞춤복점","category":"other"}]},{"lat":"37.749628237","long":"127.07848484","imageIndex":17,"items":[{"name":"마이비","tel":"","addr":"경기도 의정부시 신곡동 786-2번지 지하1층","indutype":"직물 - 옷감·직물","category":"other"},{"name":"주식회사 골프와사람들","tel":"031-853-6622","addr":"경기도 의정부시 신곡동 786-2번지 103호","indutype":"회원제형태 - 기타4","category":"other"}]},{"lat":"37.737100015","long":"127.05418296","imageIndex":17,"items":[{"name":"만물사","tel":"031-846-0033","addr":"경기도 의정부시 신곡동 567-5","indutype":"건축자재 - 목재·석재·철물","category":"other"},{"name":"한국소방 주식회사","tel":"031-847-4219","addr":"경기도 의정부시 신곡동 567-5번지 유한빌딩 3층","indutype":"용역 서비스 - 종합용역","category":"other"}]},{"lat":"37.748041648","long":"127.06457249","imageIndex":17,"items":[{"name":"매니아","tel":"031-851-9266","addr":"경기도 의정부시 신곡동 757-5번지 뉴월드프라자 102호","indutype":"의류 - 기타의류","category":"other"},{"name":"선경디지탈","tel":"031-852-9609","addr":"경기도 의정부시 신곡동 757-5번지 뉴월드프라자 108호","indutype":"사무통신 - 컴퓨터","category":"other"},{"name":"의정부열쇠","tel":"031-000-0000","addr":"경기도 의정부시 신곡동 757-5번지 GM프라자 105호","indutype":"수리서비스 - 기타수리서비스","category":"other"}]},{"lat":"37.737045306","long":"127.05565774","imageIndex":17,"items":[{"name":"멍멍이하우스","tel":"031-840-4368","addr":"경기도 의정부시 신곡동 571-59번지","indutype":"문화.취미 - 애완동물","category":"other"}]},{"lat":"37.738343829","long":"127.07099704","imageIndex":17,"items":[{"name":"메가에프티","tel":"031-527-1369","addr":"경기도 의정부시 신곡동 167-20번지 극동스타클래스 106동 804호","indutype":"회원제형태 - 기타3","category":"other"},{"name":"일월종합광고","tel":"031-821-8396","addr":"경기도 의정부시 신곡동 167-20번지 극동스타클래스아파 106동 801호","indutype":"유통업 영리 - 기타유통업","category":"other"}]},{"lat":"37.730655863","long":"127.05923784","imageIndex":17,"items":[{"name":"메이블룸","tel":"031-842-5055","addr":"경기도 의정부시 신곡동 352-18번지 용호빌딩 1층","indutype":"문화.취미 - 화원","category":"other"}]},{"lat":"37.74729339","long":"127.06545689","imageIndex":17,"items":[{"name":"메인텔레콤","tel":"","addr":"경기도 의정부시 신곡동 807-2번지 3층","indutype":"사무통신 - 통신기기","category":"other"}]},{"lat":"37.735511622","long":"127.06006967","imageIndex":17,"items":[{"name":"모닝원(morning one)","tel":"","addr":"경기도 의정부시 신곡동 447-34번지 1층","indutype":"문화.취미 - 애완동물","category":"other"},{"name":"벽지촌","tel":"031-842-7448","addr":"경기도 의정부시 신곡동 447-34번지","indutype":"직물 - 카페트,커튼,천막,지물","category":"other"}]},{"lat":"37.736955994","long":"127.05387655","imageIndex":17,"items":[{"name":"모든 엘이디","tel":"031-846-1588","addr":"경기도 의정부시 신곡동 568-12번지","indutype":"건축자재 - 조명기구","category":"other"}]},{"lat":"37.744429652","long":"127.06295838","imageIndex":17,"items":[{"name":"모든인테리어","tel":"031-844-7704","addr":"경기도 의정부시 신곡동 519-8번지 101호","indutype":"건축자재 - 인테리어전문","category":"other"},{"name":"후레쉬워터","tel":"031-841-3999","addr":"경기도 의정부시 신곡동 519-8번지","indutype":"주방용구 - 정수기","category":"other"}]},{"lat":"37.732566678","long":"127.05757171","imageIndex":17,"items":[{"name":"미니스톱 신곡빌리지점","tel":"031-1577-9621","addr":"경기도 의정부시 신곡동 710-10번지 1층","indutype":"유통업 영리 - 편 의 점","category":"other"}]},{"lat":"37.751014736","long":"127.07998404","imageIndex":17,"items":[{"name":"미니스톱 의정부용로점","tel":"031-1577-9621","addr":"경기도 의정부시 신곡동 777-5번지 1층","indutype":"유통업 영리 - 편 의 점","category":"other"}]},{"lat":"37.729511463","long":"127.05962265","imageIndex":17,"items":[{"name":"미니스톱의정부신곡점","tel":"031-821-7380","addr":"경기도 의정부시 신곡동 334-2번지 장곡빌딩","indutype":"유통업 영리 - 편 의 점","category":"other"},{"name":"수락원사우나","tel":"031-842-5903","addr":"경기도 의정부시 신곡동 334-2","indutype":"회원제형태 - 기타4","category":"other"},{"name":"수락원사우나","tel":"031-821-8081","addr":"경기도 의정부시 신곡동 334-2번지","indutype":"회원제형태 - 레져업소","category":"other"}]},{"lat":"37.744763815","long":"127.06134753","imageIndex":17,"items":[{"name":"미래종합중기","tel":"031-1111-1111","addr":"경기도 의정부시 신곡동 522-1번지 대영프라자빌딩","indutype":"기타 - 기계공구","category":"other"},{"name":"삼천리지게차","tel":"031-358-2250","addr":"경기도 의정부시 신곡동 522-1번지 대영프라자빌딩 203호","indutype":"기타 - 기계공구","category":"other"},{"name":"소리샘심리발달센터","tel":"031-848-0277","addr":"경기도 의정부시 신곡동 522-1번지 대영프라자빌딩","indutype":"용역 서비스 - 사무서비스","category":"other"},{"name":"우리크레인","tel":"","addr":"경기도 의정부시 신곡동 522-1번지 대영프라자빌딩 304호","indutype":"기타 - 기계공구","category":"other"},{"name":"주식회사 애드플러스","tel":"031-844-9790","addr":"경기도 의정부시 신곡동 522-1번지 대영프라자 2층 202호","indutype":"용역 서비스 - 종합용역","category":"other"},{"name":"주식회사 캠프닉","tel":"031-843-3132","addr":"경기도 의정부시 신곡동 522-1번지 외6필지 대영프라자 303호","indutype":"건축자재 - 조명기구","category":"other"}]},{"lat":"37.735656572","long":"127.05840213","imageIndex":17,"items":[{"name":"미래토탈","tel":"070-7420-1431","addr":"경기도 의정부시 신곡동 441-4번지 1층","indutype":"건축자재 - 인테리어전문","category":"other"},{"name":"시티온","tel":"031-843-2217","addr":"경기도 의정부시 신곡동 441-4번지","indutype":"전기제품 - 기타전기제품","category":"other"}]},{"lat":"37.748600371","long":"127.06432334","imageIndex":17,"items":[{"name":"미랜바이오","tel":"031-846-8994","addr":"경기도 의정부시 신곡동 757-2번지 광장빌딩 101호","indutype":"주방용구 - 주방용구","category":"other"},{"name":"스마트공인중개사사무소","tel":"031-842-9999","addr":"경기도 의정부시 신곡동 757-2번지 광장빌딩 107호","indutype":"용역 서비스 - 부동산 중개·임대","category":"other"}]},{"lat":"37.733376824","long":"127.05909243","imageIndex":17,"items":[{"name":"미소크린","tel":"","addr":"경기도 의정부시 신곡동 429-13번지 천일빌라 101호","indutype":"용역 서비스 - 종합용역","category":"other"}]},{"lat":"37.749065651","long":"127.0702126","imageIndex":17,"items":[{"name":"미앤체힐링맘스(주)신곡점","tel":"02-952-2962","addr":"경기도 의정부시 신곡동 761-6번지 씨티프라자 9층","indutype":"회원제형태 - 기타4","category":"other"},{"name":"바비즈 의정부점","tel":"031-853-5898","addr":"경기도 의정부시 신곡동 761-6번지 시티프라자 103호","indutype":"신변잡화 - 기타잡화","category":"other"},{"name":"베이베투유스튜디오","tel":"031-853-9344","addr":"경기도 의정부시 신곡동 761-6번지 씨티프라자 1101호","indutype":"광학제품 - 사진관","category":"other"},{"name":"우먼피아 산후조리원","tel":"031-853-6760","addr":"경기도 의정부시 신곡동 761-6번지 8층, 9층","indutype":"기타의료기관 - 산후조리원","category":"other"},{"name":"주식회사 비즈파트너즈","tel":"031-111-1111","addr":"경기도 의정부시 신곡동 761-6번지 씨티메디타운 3층 303호","indutype":"사무통신 - 기타 사무용품","category":"other"}]},{"lat":"37.730963037","long":"127.0574344","imageIndex":17,"items":[{"name":"바른교육","tel":"031-837-1188","addr":"경기도 의정부시 신곡동 720-3번지 서울프라자 303호","indutype":"서적문구 - 일반서적","category":"other"},{"name":"의정부 챌린지팀","tel":"031-829-0919","addr":"경기도 의정부시 신곡동 720-3번지 서울프라자 402,403호","indutype":"회원제형태 - 레져업소","category":"other"}]},{"lat":"37.748984977","long":"127.06948635","imageIndex":17,"items":[{"name":"바른컴닥터","tel":"","addr":"경기도 의정부시 신곡동 760-4번지 골드타워 602-1호","indutype":"수리서비스 - 사무·통신기기수리","category":"other"},{"name":"승우디자인","tel":"031-851-7244","addr":"경기도 의정부시 신곡동 760-4번지 골드타워 503호","indutype":"회원제형태 - 기타4","category":"other"},{"name":"아이디스토리","tel":"031-841-0222","addr":"경기도 의정부시 신곡동 760-4번지 골드타워 107호","indutype":"건축자재 - 인테리어전문","category":"other"},{"name":"영토탈패션","tel":"031-852-6144","addr":"경기도 의정부시 신곡동 760-4번지 골드타워 1동 105호","indutype":"의류 - 기타의류","category":"other"},{"name":"주식회사 문화가족","tel":"031-852-9250","addr":"경기도 의정부시 신곡동 760-4번지 골드타워 601호","indutype":"용역 서비스 - 종합용역","category":"other"}]},{"lat":"37.7466798","long":"127.06720369","imageIndex":17,"items":[{"name":"바이수(by soo)","tel":"070-8864-0601","addr":"경기도 의정부시 신곡동 121-1번지 퍼스트스포렉스1관 1층 104호","indutype":"의류 - 정장","category":"other"},{"name":"블랙지니","tel":"","addr":"경기도 의정부시 신곡동 121-1번지 퍼스트스포렉스1관 105호","indutype":"의류 - 정장","category":"other"},{"name":"케이엠솔루션","tel":"031-851-3205","addr":"경기도 의정부시 신곡동 121-1번지 퍼스트스포렉스1관 108호","indutype":"사무통신 - 기타 사무용품","category":"other"}]},{"lat":"37.731847194","long":"127.05473519","imageIndex":17,"items":[{"name":"바이크클리닉","tel":"031-836-5663","addr":"경기도 의정부시 신곡동 703-3번지","indutype":"레져용품 - 스포츠·레져용품","category":"other"}]},{"lat":"37.731097322","long":"127.05926086","imageIndex":17,"items":[{"name":"반석광고","tel":"031-878-9987","addr":"경기도 의정부시 신곡동 352-33번지 신곡빌라 302호","indutype":"용역 서비스 - 종합용역","category":"other"}]},{"lat":"37.749011755","long":"127.06992889","imageIndex":17,"items":[{"name":"백돌스냅","tel":"","addr":"경기도 의정부시 신곡동 761-3번지 아띠랑스A 1206호","indutype":"광학제품 - 사진관","category":"other"}]},{"lat":"37.739088817","long":"127.05924423","imageIndex":17,"items":[{"name":"백마유통","tel":"","addr":"경기도 의정부시 신곡동 754번지 신곡주공푸르미 402동 1202호","indutype":"유통업 영리 - 기타유통업","category":"other"}]},{"lat":"37.732099044","long":"127.05567691","imageIndex":17,"items":[{"name":"베스트올 청룡점","tel":"031-875-4559","addr":"경기도 의정부시 신곡동 705-10번지","indutype":"유통업 영리 - 편 의 점","category":"other"}]},{"lat":"37.735456534","long":"127.06215702","imageIndex":17,"items":[{"name":"베스트올편의점","tel":"031-848-3265","addr":"경기도 의정부시 신곡동 448-1번지","indutype":"유통업 영리 - 편 의 점","category":"other"}]},{"lat":"37.735124343","long":"127.0597971","imageIndex":17,"items":[{"name":"보리심,우리양초","tel":"031-848-5830","addr":"경기도 의정부시 신곡동 435-3번지 동진빌라 101호","indutype":"신변잡화 - 기타잡화","category":"other"}]},{"lat":"37.731711356","long":"127.05628921","imageIndex":17,"items":[{"name":"보성건축","tel":"031-877-8495","addr":"경기도 의정부시 신곡동 707-4번지","indutype":"건축자재 - 인테리어전문","category":"other"},{"name":"창미플라워","tel":"031-855-0002","addr":"경기도 의정부시 신곡동 707-4번지 1층","indutype":"문화.취미 - 화원","category":"other"},{"name":"해피몽","tel":"031-855-2893","addr":"경기도 의정부시 신곡동 707-4번지 1층","indutype":"문화.취미 - 애완동물","category":"other"}]},{"lat":"37.73545798","long":"127.05920744","imageIndex":17,"items":[{"name":"볼링플러스","tel":"","addr":"경기도 의정부시 신곡동 441-16번지","indutype":"레져용품 - 스포츠·레져용품","category":"other"}]},{"lat":"37.734572793","long":"127.06373318","imageIndex":17,"items":[{"name":"부원전기","tel":"031-848-0610","addr":"경기도 의정부시 신곡동 416-50번지 1층","indutype":"수리서비스 - 가정용품수리","category":"other"}]},{"lat":"37.737184191","long":"127.06634462","imageIndex":17,"items":[{"name":"비비안샵","tel":"","addr":"경기도 의정부시 신곡동 816번지 e편한세상신곡파크비스타 110동 2202호","indutype":"의류 - 내의판매","category":"other"},{"name":"언니3","tel":"","addr":"경기도 의정부시 신곡동 816번지 e편한세상신곡파크비스타 106동 1303호","indutype":"의류 - 정장","category":"other"},{"name":"조이 스마트홈","tel":"031-6524-7712","addr":"경기도 의정부시 신곡동 816번지 e편한세상신곡파크비스타 101동 503호","indutype":"전기제품 - 기타전기제품","category":"other"},{"name":"지산케이스","tel":"031-827-9288","addr":"경기도 의정부시 신곡동 816번지 e편한세상신곡파크비스타 106동 2403호","indutype":"신변잡화 - 기타잡화","category":"other"}]},{"lat":"37.747816368","long":"127.06465173","imageIndex":17,"items":[{"name":"비앤지투어 주식회사","tel":"","addr":"경기도 의정부시 신곡동 757-6번지 풍림프라자 501호","indutype":"여행 - 관광여행","category":"other"},{"name":"비전드림기획","tel":"031-876-3706","addr":"경기도 의정부시 신곡동 757-6번지 풍림프라자 501호","indutype":"용역 서비스 - 사무서비스","category":"other"},{"name":"코리아애견샵","tel":"031-853-7424","addr":"경기도 의정부시 신곡동 757-6번지 풍림프라자 104호","indutype":"문화.취미 - 애완동물","category":"other"},{"name":"한북신문 주식회사","tel":"01-876-3706","addr":"경기도 의정부시 신곡동 757-6번지 풍림프라자 501호","indutype":"서적문구 - 정기간행물","category":"other"}]},{"lat":"37.736901794","long":"127.05420551","imageIndex":17,"items":[{"name":"비젼P.A.G","tel":"031-821-9743","addr":"경기도 의정부시 신곡동 567-8번지 유한빌딩","indutype":"기타 - 기타 전문점","category":"other"}]},{"lat":"37.73590017","long":"127.05767626","imageIndex":17,"items":[{"name":"사거리공구ㅡ철물,건재","tel":"031-846-0945","addr":"경기도 의정부시 신곡동 597-136번지","indutype":"기타 - 기계공구","category":"other"},{"name":"세종유리","tel":"031-848-7895","addr":"경기도 의정부시 신곡동 597-136번지","indutype":"건축자재 - 유리","category":"other"}]},{"lat":"37.750294424","long":"127.07929114","imageIndex":17,"items":[{"name":"사계절꽃향기","tel":"031-851-7322","addr":"경기도 의정부시 신곡동 780-1번지","indutype":"문화.취미 - 화원","category":"other"},{"name":"찌찌루","tel":"070-8824-6318","addr":"경기도 의정부시 신곡동 780-1번지 1층","indutype":"의류 - 정장","category":"other"}]},{"lat":"37.750207596","long":"127.07407154","imageIndex":17,"items":[{"name":"삼성세탁소","tel":"031-853-0999","addr":"경기도 의정부시 신곡동 767-1번지 삼성래미안진흥 상가 102호","indutype":"수리서비스 - 세탁소","category":"other"}]},{"lat":"37.731683892","long":"127.05724208","imageIndex":17,"items":[{"name":"삼성스크린재료","tel":"031-8083-7229","addr":"경기도 의정부시 신곡동 712-6번지 에듀세상 201호","indutype":"사무통신 - 기타 사무용품","category":"other"}]},{"lat":"37.739989484","long":"127.05984621","imageIndex":17,"items":[{"name":"삼성인테리어","tel":"031-848-9861","addr":"경기도 의정부시 신곡동 473-4번지","indutype":"건축자재 - 인테리어전문","category":"other"}]},{"lat":"37.747319205","long":"127.06770348","imageIndex":17,"items":[{"name":"삼우종합식품기계","tel":"031-824-0982","addr":"경기도 의정부시 신곡동 69-5번지","indutype":"기타 - 기계공구","category":"other"}]},{"lat":"37.729653923","long":"127.06303719","imageIndex":17,"items":[{"name":"삼진산업","tel":"031-848-2055","addr":"경기도 의정부시 신곡동 312-30번지","indutype":"기타 - 기타 전문점","category":"other"}]},{"lat":"37.75126063","long":"127.07584266","imageIndex":17,"items":[{"name":"상록세탁소","tel":"031-853-2425","addr":"경기도 의정부시 신곡동 767-2 상록아이파크 상가-203","indutype":"수리서비스 - 세탁소","category":"other"},{"name":"씨유상록아이파크점","tel":"031-851-7992","addr":"경기도 의정부시 신곡동 767-2번지 상록아이파크 상가동 1층 106호","indutype":"유통업 영리 - 편 의 점","category":"other"}]},{"lat":"37.751945913","long":"127.07493557","imageIndex":17,"items":[{"name":"상상건축","tel":"031-853-0777","addr":"경기도 의정부시 신곡동 767-2번지 상록아이파크 106동 2004호","indutype":"기타 - 기계공구","category":"other"},{"name":"하나유통","tel":"031-826-6633","addr":"경기도 의정부시 신곡동 767-2번지 상록아이파크 106동 1302호","indutype":"사무통신 - 컴퓨터","category":"other"}]},{"lat":"37.735539512","long":"127.05826591","imageIndex":17,"items":[{"name":"새한오토상사","tel":"031-844-5580","addr":"경기도 의정부시 신곡동 441-3번지","indutype":"수리서비스 - 기타수리서비스","category":"other"}]},{"lat":"37.729239748","long":"127.06251506","imageIndex":17,"items":[{"name":"서진디자인","tel":"031-822-8228","addr":"경기도 의정부시 신곡동 331-14번지 105호","indutype":"건축자재 - 인테리어전문","category":"other"},{"name":"크린토피아신곡서해점","tel":"031-856-8580","addr":"경기도 의정부시 신곡동 331-14번지 101호","indutype":"수리서비스 - 세탁소","category":"other"}]},{"lat":"37.747816327","long":"127.08001476","imageIndex":17,"items":[{"name":"선하이동통신","tel":"031-853-0260","addr":"경기도 의정부시 신곡동 790번지 금오주공9단지 상가동 1층 104호","indutype":"사무통신 - 통신기기","category":"other"}]},{"lat":"37.745067116","long":"127.06715691","imageIndex":17,"items":[{"name":"성광에어컨","tel":"","addr":"경기도 의정부시 신곡동 122-61번지 청광빌라 지하층 101호","indutype":"전기제품 - 냉열기기","category":"other"}]},{"lat":"37.734015117","long":"127.06192898","imageIndex":17,"items":[{"name":"세븐일레븐신곡사거리점","tel":"031-1577-0711","addr":"경기도 의정부시 신곡동 409-9번지 1층","indutype":"유통업 영리 - 편 의 점","category":"other"}]},{"lat":"37.729131241","long":"127.06328633","imageIndex":17,"items":[{"name":"세븐일레븐의정부동부점","tel":"","addr":"경기도 의정부시 신곡동 312-38번지","indutype":"유통업 영리 - 편 의 점","category":"other"}]},{"lat":"37.745680663","long":"127.06548957","imageIndex":17,"items":[{"name":"세븐일레븐추동로점","tel":"070-7793-4123","addr":"경기도 의정부시 신곡동 112-37번지 1층","indutype":"유통업 영리 - 편 의 점","category":"other"}]},{"lat":"37.734486852","long":"127.05506601","imageIndex":17,"items":[{"name":"세승공조","tel":"031-845-0905","addr":"경기도 의정부시 신곡동 613-36번지","indutype":"건축자재 - 인테리어전문","category":"other"}]},{"lat":"37.729400542","long":"127.06518093","imageIndex":17,"items":[{"name":"세승재활용(가전제품)","tel":"031-844-8866","addr":"경기도 의정부시 신곡동 369-1번지","indutype":"전기제품 - 가전제품","category":"other"},{"name":"한미냉난방","tel":"070-8241-7215","addr":"경기도 의정부시 신곡동 369-1번지","indutype":"용역 서비스 - 기타용역서비스","category":"other"}]},{"lat":"37.734735448","long":"127.06279173","imageIndex":17,"items":[{"name":"소녀감성","tel":"031-1111-1111","addr":"경기도 의정부시 신곡동 416-22번지 1층","indutype":"용역 서비스 - 사무서비스","category":"other"}]},{"lat":"37.737622609","long":"127.05409256","imageIndex":17,"items":[{"name":"송산공사","tel":"031-848-6227","addr":"경기도 의정부시 신곡동 567-25번지 1층","indutype":"용역 서비스 - 기타용역서비스","category":"other"}]},{"lat":"37.747510275","long":"127.06420897","imageIndex":17,"items":[{"name":"스웨터","tel":"031-836-4827","addr":"경기도 의정부시 신곡동 757-9번지 대성빌딩 108호","indutype":"문화.취미 - 문화취미기타","category":"other"},{"name":"큰옷애플빅","tel":"031-511-3384","addr":"경기도 의정부시 신곡동 757-9번지 대성빌딩","indutype":"의류 - 정장","category":"other"}]},{"lat":"37.74951104","long":"127.07859819","imageIndex":17,"items":[{"name":"스쿨키친(School-Kitchen)","tel":"031-853-9951","addr":"경기도 의정부시 신곡동 786-9번지","indutype":"주방용구 - 주방용구","category":"other"}]},{"lat":"37.72948381","long":"127.06090446","imageIndex":17,"items":[{"name":"스타(star)냉동","tel":"","addr":"경기도 의정부시 신곡동 355-7번지 국도빌라드케이3차 가동 702호","indutype":"수리서비스 - 가정용품수리","category":"other"}]},{"lat":"37.734077343","long":"127.0635853","imageIndex":17,"items":[{"name":"스피드 열쇠","tel":"031-848-2220","addr":"경기도 의정부시 신곡동 416-68번지 금오빌라 A동 402호","indutype":"수리서비스 - 기타수리서비스","category":"other"}]},{"lat":"37.735874615","long":"127.054409","imageIndex":17,"items":[{"name":"시스템엔지니어링","tel":"031-879-0561","addr":"경기도 의정부시 신곡동 614-21번지","indutype":"용역 서비스 - 기타용역서비스","category":"other"}]},{"lat":"37.730737965","long":"127.05707124","imageIndex":17,"items":[{"name":"시우터서점","tel":"031-837-6060","addr":"경기도 의정부시 신곡동 720-9번지 6층","indutype":"서적문구 - 일반서적","category":"other"}]},{"lat":"37.7364007","long":"127.06570865","imageIndex":17,"items":[{"name":"시은","tel":"031-843-6333","addr":"경기도 의정부시 신곡동 146-12번지 1층","indutype":"레져용품 - 스포츠·레져용품","category":"other"}]},{"lat":"37.732233313","long":"127.05759415","imageIndex":17,"items":[{"name":"신곡","tel":"","addr":"경기도 의정부시 신곡동 713-2번지 라임빌 402호","indutype":"신변잡화 - 기타잡화","category":"other"}]},{"lat":"37.741070005","long":"127.06112906","imageIndex":17,"items":[{"name":"신곡골프","tel":"031-844-7582","addr":"경기도 의정부시 신곡동 493-3번지 벽산프라자 403호","indutype":"회원제형태 - 레져업소","category":"other"}]},{"lat":"37.750042355","long":"127.07898452","imageIndex":17,"items":[{"name":"신곡광고","tel":"031-852-6379","addr":"경기도 의정부시 신곡동 787-1번지","indutype":"용역 서비스 - 종합용역","category":"other"}]},{"lat":"37.744044848","long":"127.05760284","imageIndex":17,"items":[{"name":"신곡대리점","tel":"031-846-1547","addr":"경기도 의정부시 신곡동 671-11번지","indutype":"레져용품 - 스포츠·레져용품","category":"other"}]},{"lat":"37.735483466","long":"127.06234989","imageIndex":17,"items":[{"name":"신곡전자통신","tel":"031-844-5010","addr":"경기도 의정부시 신곡동 448-41번지","indutype":"사무통신 - 통신기기","category":"other"}]},{"lat":"37.737405403","long":"127.0562933","imageIndex":17,"items":[{"name":"신곡중고전자제품매장","tel":"031-848-4349","addr":"경기도 의정부시 신곡동 588-11번지","indutype":"전기제품 - 기타전기제품","category":"other"}]},{"lat":"37.750548573","long":"127.07632988","imageIndex":17,"items":[{"name":"신다날라","tel":"070-4120-1210","addr":"경기도 의정부시 신곡동 767-2번지 상록아이파크 103동 504호","indutype":"회원제형태 - 기타4","category":"other"}]},{"lat":"37.744459866","long":"127.05634375","imageIndex":17,"items":[{"name":"신도디지탈OA","tel":"031-840-9075","addr":"경기도 의정부시 신곡동 670번지","indutype":"사무통신 - 사무용 OA기기","category":"other"},{"name":"신도오에이","tel":"02-1688-9871","addr":"경기도 의정부시 신곡동 670번지","indutype":"사무통신 - 사무용 OA기기","category":"other"},{"name":"코콤경기북부지사","tel":"031-840-9077","addr":"경기도 의정부시 신곡동 670번지","indutype":"사무통신 - 통신기기","category":"other"}]},{"lat":"37.7319639","long":"127.05567682","imageIndex":17,"items":[{"name":"신문유통원의정부서부센타(동아일보,중앙일","tel":"031-846-1641","addr":"경기도 의정부시 신곡동 705-9번지","indutype":"서적문구 - 정기간행물","category":"other"}]},{"lat":"37.733484912","long":"127.05914923","imageIndex":17,"items":[{"name":"신바람 나는 여성","tel":"","addr":"경기도 의정부시 신곡동 429-12번지 2층","indutype":"의류 - 내의판매","category":"other"}]},{"lat":"37.750095652","long":"127.08015329","imageIndex":17,"items":[{"name":"신우정보통신","tel":"080-913-9000","addr":"경기도 의정부시 신곡동 779-6번지 1층","indutype":"사무통신 - 통신기기","category":"other"}]},{"lat":"37.733430773","long":"127.05931935","imageIndex":17,"items":[{"name":"쓰리제이(3J)에어컨","tel":"","addr":"경기도 의정부시 신곡동 429-14번지 명진빌라 301호","indutype":"용역 서비스 - 기타용역서비스","category":"other"}]},{"lat":"37.734456779","long":"127.06154362","imageIndex":17,"items":[{"name":"씨엔백","tel":"02-951-1577","addr":"경기도 의정부시 신곡동 409-1번지","indutype":"건축자재 - 인테리어전문","category":"other"}]},{"lat":"37.729095999","long":"127.06170955","imageIndex":17,"items":[{"name":"씨유신곡서해점","tel":"031-821-4400","addr":"경기도 의정부시 신곡동 362-2번지","indutype":"유통업 영리 - 편 의 점","category":"other"}]},{"lat":"37.746787303","long":"127.06831571","imageIndex":17,"items":[{"name":"씨유의정부과학도서관점","tel":"031-852-9602","addr":"경기도 의정부시 신곡동 803-3번지 한일빌딩 1층","indutype":"유통업 영리 - 편 의 점","category":"other"}]},{"lat":"37.738407112","long":"127.07062271","imageIndex":17,"items":[{"name":"씨유의정부극동점","tel":"031-847-2666","addr":"경기도 의정부시 신곡동 167-20번지 극동스타클래스 상가동 101호","indutype":"유통업 영리 - 편 의 점","category":"other"}]},{"lat":"37.74517626","long":"127.06523953","imageIndex":17,"items":[{"name":"씨유의정부신곡새말점","tel":"031-840-8996","addr":"경기도 의정부시 신곡동 90-2번지","indutype":"유통업 영리 - 편 의 점","category":"other"}]},{"lat":"37.743044883","long":"127.05739788","imageIndex":17,"items":[{"name":"씨유의정부신곡점","tel":"031-847-2694","addr":"경기도 의정부시 신곡동 673-6번지","indutype":"유통업 영리 - 편 의 점","category":"other"}]},{"lat":"37.734852584","long":"127.06276913","imageIndex":17,"items":[{"name":"씨유의정부원룸점","tel":"031-873-9690","addr":"경기도 의정부시 신곡동 397-19번지 1층","indutype":"유통업 영리 - 편 의 점","category":"other"}]},{"lat":"37.727846646","long":"127.05540166","imageIndex":17,"items":[{"name":"씨유장암현대점","tel":"02-1577-8007","addr":"경기도 의정부시 신곡동 724-2번지 현대2차아파트 1층 107호","indutype":"유통업 영리 - 편 의 점","category":"other"}]},{"lat":"37.730962885","long":"127.05776337","imageIndex":17,"items":[{"name":"씽씽텔레콤","tel":"031-826-6014","addr":"경기도 의정부시 신곡동 720-4번지 미리타운 103호","indutype":"사무통신 - 통신기기","category":"other"},{"name":"티스퀘어","tel":"031-837-7846","addr":"경기도 의정부시 신곡동 720-4번지 미리타운 5층 504호","indutype":"용역 서비스 - 소프트웨어","category":"other"}]},{"lat":"37.732098768","long":"127.05628949","imageIndex":17,"items":[{"name":"아동도서할인매장","tel":"031-871-9895","addr":"경기도 의정부시 신곡동 707-1번지","indutype":"서적문구 - 일반서적","category":"other"}]},{"lat":"37.751961766","long":"127.07839644","imageIndex":17,"items":[{"name":"아로마컴퍼니","tel":"031-853-1790","addr":"경기도 의정부시 신곡동 769-12번지 1층 101호","indutype":"신변잡화 - 기타잡화","category":"other"}]},{"lat":"37.743432673","long":"127.05656993","imageIndex":17,"items":[{"name":"아름다운세상","tel":"031-8083-0904","addr":"경기도 의정부시 신곡동 675-11번지","indutype":"회원제형태 - 기타4","category":"other"}]},{"lat":"37.735403303","long":"127.06048933","imageIndex":17,"items":[{"name":"아름드리공방","tel":"070-7394-0161","addr":"경기도 의정부시 신곡동 447-11번지 101호","indutype":"문화.취미 - 문화취미기타","category":"other"}]},{"lat":"37.751538513","long":"127.07808964","imageIndex":17,"items":[{"name":"아성사","tel":"031-851-8012","addr":"경기도 의정부시 신곡동 769-16번지 건호빌 1층 102호","indutype":"기타 - 기타 전문점","category":"other"},{"name":"종이와잉크","tel":"031-838-8389","addr":"경기도 의정부시 신곡동 769-16번지 상가 102호","indutype":"사무통신 - 기타 사무용품","category":"other"}]},{"lat":"37.737153058","long":"127.05646329","imageIndex":17,"items":[{"name":"아세아냉동","tel":"031-856-9900","addr":"경기도 의정부시 신곡동 590-2번지","indutype":"전기제품 - 기타전기제품","category":"other"}]},{"lat":"37.746374722","long":"127.06487746","imageIndex":17,"items":[{"name":"아쿠아워시 신곡점","tel":"","addr":"경기도 의정부시 신곡동 88-15번지 가동 1층 101호","indutype":"수리서비스 - 세탁소","category":"other"}]},{"lat":"37.747319866","long":"127.06648942","imageIndex":17,"items":[{"name":"안나","tel":"031-796-2554","addr":"경기도 의정부시 신곡동 805-2번지","indutype":"의류 - 정장","category":"other"},{"name":"의정부 귀뚜라미 보일러","tel":"031-852-9015","addr":"경기도 의정부시 신곡동 805-2번지 102호","indutype":"전기제품 - 냉열기기","category":"other"},{"name":"주식회사BPL","tel":"070-8118-0777","addr":"경기도 의정부시 신곡동 805-2번지 101호","indutype":"유통업 영리 - 기타유통업","category":"other"}]},{"lat":"37.750347718","long":"127.08045991","imageIndex":17,"items":[{"name":"알쌤","tel":"031-853-1102","addr":"경기도 의정부시 신곡동 779-3번지 102호","indutype":"회원제형태 - 기타1","category":"other"}]},{"lat":"37.745069045","long":"127.06351485","imageIndex":17,"items":[{"name":"애드올","tel":"031-438-8745","addr":"경기도 의정부시 신곡동 93번지 202호","indutype":"서적문구 - 출판 및 인쇄물","category":"other"}]},{"lat":"37.733404699","long":"127.05728872","imageIndex":17,"items":[{"name":"양사또공방","tel":"070-4300-0577","addr":"경기도 의정부시 신곡동 603-13번지 1층","indutype":"직물 - 침구·수예점","category":"other"},{"name":"의정부열쇠","tel":"031-841-5566","addr":"경기도 의정부시 신곡동 603-13번지 1층","indutype":"건축자재 - 목재·석재·철물","category":"other"}]},{"lat":"37.743121878","long":"127.06562356","imageIndex":17,"items":[{"name":"양서윤 스포츠용품점","tel":"","addr":"경기도 의정부시 신곡동 128번지 신곡실내배드민턴장","indutype":"레져용품 - 스포츠·레져용품","category":"other"}]},{"lat":"37.749870636","long":"127.07981265","imageIndex":17,"items":[{"name":"에띠임 by 정혜연","tel":"070-8877-0469","addr":"경기도 의정부시 신곡동 780-7번지 203호","indutype":"의류 - 내의판매","category":"other"},{"name":"플러스모바일 (plusmobile)","tel":"","addr":"경기도 의정부시 신곡동 780-7번지 1층","indutype":"사무통신 - 통신기기","category":"other"}]},{"lat":"37.740537789","long":"127.06243335","imageIndex":17,"items":[{"name":"에어컨천국","tel":"070-4131-5966","addr":"경기도 의정부시 신곡동 486-3번지 6층","indutype":"용역 서비스 - 기타용역서비스","category":"other"}]},{"lat":"37.73562907","long":"127.05940043","imageIndex":17,"items":[{"name":"에이스광고","tel":"031-841-0466","addr":"경기도 의정부시 신곡동 444-3번지 1층","indutype":"건축자재 - 인테리어전문","category":"other"}]},{"lat":"37.747544988","long":"127.0667052","imageIndex":17,"items":[{"name":"에이스디자인","tel":"031-874-2385","addr":"경기도 의정부시 신곡동 804-10번지 3층","indutype":"기타 - 기계공구","category":"other"}]},{"lat":"37.737432621","long":"127.05587356","imageIndex":17,"items":[{"name":"에이스버티칼","tel":"031-851-5678","addr":"경기도 의정부시 신곡동 571-85 지층","indutype":"직물 - 카페트,커튼,천막,지물","category":"other"}]},{"lat":"37.751817256","long":"127.07895229","imageIndex":17,"items":[{"name":"에이티엔티글로벌","tel":"031-851-9830","addr":"경기도 의정부시 신곡동 771-3번지 상가 1층 101호","indutype":"용역 서비스 - 종합용역","category":"other"}]},{"lat":"37.730738745","long":"127.05534698","imageIndex":17,"items":[{"name":"엔티에스코리아(NTS KOREA)","tel":"031-572-4242","addr":"경기도 의정부시 신곡동 719-8번지 백상플러스 402호","indutype":"레져용품 - 스포츠·레져용품","category":"other"}]},{"lat":"37.73776601","long":"127.05579439","imageIndex":17,"items":[{"name":"엔학고레금속","tel":"031-845-7586","addr":"경기도 의정부시 신곡동 572","indutype":"건축자재 - 목재·석재·철물","category":"other"}]},{"lat":"37.748429136","long":"127.06442531","imageIndex":17,"items":[{"name":"엘케이 세무회계(LK세무회계)","tel":"031-853-8031","addr":"경기도 의정부시 신곡동 757-3번지 트윈프라자1 2층 204호","indutype":"용역 서비스 - 법률회계서비스(개인)","category":"other"}]},{"lat":"37.735934212","long":"127.06181706","imageIndex":17,"items":[{"name":"연희텔레콤","tel":"070-7743-1226","addr":"경기도 의정부시 신곡동 445-1번지 다우빌딩 105호","indutype":"사무통신 - 통신기기","category":"other"}]},{"lat":"37.730737645","long":"127.05776321","imageIndex":17,"items":[{"name":"열음교육","tel":"031-829-2256","addr":"경기도 의정부시 신곡동 720-7번지 한덕프라자 3층","indutype":"서적문구 - 출판 및 인쇄물","category":"other"}]},{"lat":"37.739681979","long":"127.0622398","imageIndex":17,"items":[{"name":"영아트문구","tel":"031-848-5857","addr":"경기도 의정부시 신곡동 471번지 상가동 104,105호","indutype":"서적문구 - 문구용품","category":"other"}]},{"lat":"37.742684958","long":"127.0563992","imageIndex":17,"items":[{"name":"영진수족관","tel":"031-842-0045","addr":"경기도 의정부시 신곡동 680-6번지","indutype":"문화.취미 - 수족관","category":"other"},{"name":"영진애견","tel":"031-821-1128","addr":"경기도 의정부시 신곡동 680-6번지","indutype":"문화.취미 - 애완동물","category":"other"}]},{"lat":"37.747148733","long":"127.06639851","imageIndex":17,"items":[{"name":"예스광고기획","tel":"031-852-8800","addr":"경기도 의정부시 신곡동 805-5번지","indutype":"건축자재 - 인테리어전문","category":"other"}]},{"lat":"37.749763256","long":"127.07867787","imageIndex":17,"items":[{"name":"예장","tel":"031-853-8900","addr":"경기도 의정부시 신곡동 786-4번지","indutype":"직물 - 카페트,커튼,천막,지물","category":"other"}]},{"lat":"37.729096632","long":"127.06042773","imageIndex":17,"items":[{"name":"오로라S라인","tel":"","addr":"경기도 의정부시 신곡동 360-2번지 초원빌라 401호","indutype":"의류 - 내의판매","category":"other"}]},{"lat":"37.735519435","long":"127.06248606","imageIndex":17,"items":[{"name":"올댓독","tel":"031-848-0393","addr":"경기도 의정부시 신곡동 448-38번지","indutype":"문화.취미 - 애완동물","category":"other"}]},{"lat":"37.740268715","long":"127.05998256","imageIndex":17,"items":[{"name":"와와109","tel":"031-848-0905","addr":"경기도 의정부시 신곡동 480번지","indutype":"서적문구 - 기타서적문구","category":"other"}]},{"lat":"37.738177451","long":"127.06210246","imageIndex":17,"items":[{"name":"와우민턴샵 추동점","tel":"02-1111-1111","addr":"경기도 의정부시 신곡동 472-5번지","indutype":"레져용품 - 스포츠·레져용품","category":"other"}]},{"lat":"37.73815383","long":"127.05487572","imageIndex":17,"items":[{"name":"와우스크린골프장","tel":"031-821-1240","addr":"경기도 의정부시 신곡동 566-8번지","indutype":"회원제형태 - 레져업소","category":"other"}]},{"lat":"37.729493383","long":"127.05974742","imageIndex":17,"items":[{"name":"와우통신","tel":"031-841-7011","addr":"경기도 의정부시 신곡동 334-2번지 장곡빌딩 나동 101호","indutype":"사무통신 - 통신기기","category":"other"}]},{"lat":"37.735602424","long":"127.05859495","imageIndex":17,"items":[{"name":"우경미디어","tel":"031-822-8700","addr":"경기도 의정부시 신곡동 441-7번지","indutype":"전기제품 - 가전제품","category":"other"}]},{"lat":"37.729068663","long":"127.06232208","imageIndex":17,"items":[{"name":"우리집 실버 요양원","tel":"031-842-5050","addr":"경기도 의정부시 신곡동 331-13번지","indutype":"기타의료기관 - 기타의료기관 및 기타","category":"other"}]},{"lat":"37.735350545","long":"127.05776661","imageIndex":17,"items":[{"name":"우먼플러스","tel":"031-841-7891","addr":"경기도 의정부시 신곡동 442-17번지 1층","indutype":"주방용구 - 주방용구","category":"other"},{"name":"윤인테리어디자인","tel":"031-848-9057","addr":"경기도 의정부시 신곡동 442-17번지","indutype":"건축자재 - 인테리어전문","category":"other"}]},{"lat":"37.728349992","long":"127.058011","imageIndex":17,"items":[{"name":"우정지물","tel":"031-877-5903","addr":"경기도 의정부시 신곡동 725-2번지 장암현대1차 상가 104호","indutype":"직물 - 카페트,커튼,천막,지물","category":"other"}]},{"lat":"37.746184139","long":"127.06745288","imageIndex":17,"items":[{"name":"워시타임셀프빨래방(신곡점)","tel":"","addr":"경기도 의정부시 신곡동 121-4번지 1층 101호","indutype":"수리서비스 - 세탁소","category":"other"}]},{"lat":"37.750509785","long":"127.08061894","imageIndex":17,"items":[{"name":"원봉신정점 위프영업소","tel":"031-000-0000","addr":"경기도 의정부시 신곡동 779-1번지 201호","indutype":"주방용구 - 정수기","category":"other"}]},{"lat":"37.731792288","long":"127.05662959","imageIndex":17,"items":[{"name":"월드이벤트","tel":"031-837-4696","addr":"경기도 의정부시 신곡동 709-8","indutype":"회원제형태 - 기타4","category":"other"}]},{"lat":"37.727745841","long":"127.05908817","imageIndex":17,"items":[{"name":"윌로펌프","tel":"031-875-7903","addr":"경기도 의정부시 신곡동 725-3번지 장암주공5단지 512동 1602호","indutype":"수리서비스 - 기타수리서비스","category":"other"}]},{"lat":"37.74548578","long":"127.05887466","imageIndex":17,"items":[{"name":"윤정세탁","tel":"031-848-5265","addr":"경기도 의정부시 신곡동 669극동동성상가105","indutype":"수리서비스 - 세탁소","category":"other"}]},{"lat":"37.744126409","long":"127.05657043","imageIndex":17,"items":[{"name":"음악살이현","tel":"070-4152-7406","addr":"경기도 의정부시 신곡동 676-5번지 지하1층","indutype":"용역 서비스 - 종합용역","category":"other"}]},{"lat":"37.733404798","long":"127.05707318","imageIndex":17,"items":[{"name":"의류아울렛","tel":"070-7013-8874","addr":"경기도 의정부시 신곡동 603-53번지","indutype":"의류 - 정장","category":"other"}]},{"lat":"37.74606889","long":"127.07937756","imageIndex":17,"items":[{"name":"의정부문화원","tel":"031-872-5678","addr":"경기도 의정부시 신곡동 793번지","indutype":"기타 - 기타 전문점","category":"other"}]},{"lat":"37.745268062","long":"127.06192657","imageIndex":17,"items":[{"name":"의정부백병원장례식장","tel":"031-841-4444","addr":"경기도 의정부시 신곡동 519-11번지","indutype":"회원제형태 - 기타4","category":"other"}]},{"lat":"37.743433336","long":"127.05509498","imageIndex":17,"items":[{"name":"의정부시재활용센타","tel":"031-844-7282","addr":"경기도 의정부시 신곡동 681번지","indutype":"전기제품 - 가전제품","category":"other"}]},{"lat":"37.729267758","long":"127.0605413","imageIndex":17,"items":[{"name":"의정부헌책창고","tel":"031-841-8915","addr":"경기도 의정부시 신곡동 359-2번지","indutype":"서적문구 - 일반서적","category":"other"}]},{"lat":"37.747544717","long":"127.06720444","imageIndex":17,"items":[{"name":"의정토기","tel":"031-852-2122","addr":"경기도 의정부시 신곡동 804-7번지","indutype":"문화.취미 - 민예·공예품","category":"other"}]},{"lat":"37.750320964","long":"127.08004005","imageIndex":17,"items":[{"name":"이레피앤알","tel":"031-1566-5771","addr":"경기도 의정부시 신곡동 778-6번지 102호","indutype":"용역 서비스 - 종합용역","category":"other"}]},{"lat":"37.747066409","long":"127.06865635","imageIndex":17,"items":[{"name":"이리집","tel":"02-915-1096","addr":"경기도 의정부시 신곡동 802-9번지 202호","indutype":"신변잡화 - 액세서리","category":"other"}]},{"lat":"37.737432707","long":"127.0556807","imageIndex":17,"items":[{"name":"이야기","tel":"031-848-8214","addr":"경기도 의정부시 신곡동 571-87번지 1층","indutype":"유통업 영리 - 기타유통업","category":"other"}]},{"lat":"37.75026707","long":"127.07979037","imageIndex":17,"items":[{"name":"이엔제이솔루션","tel":"031-853-3802","addr":"경기도 의정부시 신곡동 778-4번지","indutype":"사무통신 - 사무용 OA기기","category":"other"},{"name":"친절한 사무기","tel":"031-8083-9898","addr":"경기도 의정부시 신곡동 778-4번지","indutype":"사무통신 - 사무용 OA기기","category":"other"}]},{"lat":"37.739108874","long":"127.05480832","imageIndex":17,"items":[{"name":"이지에프앤비 (EG F&B)","tel":"031-846-0486","addr":"경기도 의정부시 신곡동 565-9번지 현진에버빌 101동 708호","indutype":"레져용품 - 스포츠·레져용품","category":"other"}]},{"lat":"37.726764029","long":"127.05859967","imageIndex":17,"items":[{"name":"인디자인","tel":"031-871-7490","addr":"경기도 의정부시 신곡동 725-6번지 장암주공5단지@상가동104호","indutype":"건축자재 - 인테리어전문","category":"other"},{"name":"컴마당","tel":"031-879-1116","addr":"경기도 의정부시 신곡동 725-6번지 장암주공5단지 상가 102호","indutype":"사무통신 - 컴퓨터","category":"other"},{"name":"크린세탁소","tel":"031-826-9116","addr":"경기도 의정부시 신곡동 725-6번지 장암주공5단지 상가 203호","indutype":"수리서비스 - 세탁소","category":"other"}]},{"lat":"37.74681641","long":"127.06445802","imageIndex":17,"items":[{"name":"인터락","tel":"031-386-5307","addr":"경기도 의정부시 신곡동 87-11번지","indutype":"건축자재 - 목재·석재·철물","category":"other"}]},{"lat":"37.747042941","long":"127.07779009","imageIndex":17,"items":[{"name":"인터씨앤지 주식회사","tel":"031-841-6691","addr":"경기도 의정부시 신곡동 53-485","indutype":"건축자재 - 인테리어전문","category":"other"}]},{"lat":"37.727206404","long":"127.05664896","imageIndex":17,"items":[{"name":"인테리어하우스","tel":"031-837-5750","addr":"경기도 의정부시 신곡동 725-5번지 105호","indutype":"건축자재 - 인테리어전문","category":"other"}]},{"lat":"37.735961001","long":"127.06229355","imageIndex":17,"items":[{"name":"재연이네문구","tel":"031-845-1944","addr":"경기도 의정부시 신곡동 451-1번지 남훈빌딩","indutype":"서적문구 - 문구용품","category":"other"}]},{"lat":"37.736712445","long":"127.05454572","imageIndex":17,"items":[{"name":"정안목재합판","tel":"031-876-1300","addr":"경기도 의정부시 신곡동 569-22번지 1층","indutype":"건축자재 - 목재·석재·철물","category":"other"}]},{"lat":"37.728816979","long":"127.0611535","imageIndex":17,"items":[{"name":"제이사운드","tel":"031-821-4116","addr":"경기도 의정부시 신곡동 314-1번지 성진빌딩 1층","indutype":"용역 서비스 - 종합용역","category":"other"}]},{"lat":"37.734268717","long":"127.05920654","imageIndex":17,"items":[{"name":"제이제이샵","tel":"","addr":"경기도 의정부시 신곡동 432-58번지 2층 201호","indutype":"주방용구 - 주방용구","category":"other"},{"name":"카라샵","tel":"031-876-7470","addr":"경기도 의정부시 신곡동 432-58번지","indutype":"의류 - 정장","category":"other"}]},{"lat":"37.731629005","long":"127.0590117","imageIndex":17,"items":[{"name":"좋은집만들기","tel":"031-856-6668","addr":"경기도 의정부시 신곡동 351-3번지","indutype":"건축자재 - 인테리어전문","category":"other"}]},{"lat":"37.733905803","long":"127.06427716","imageIndex":17,"items":[{"name":"주식회사 에스씨지직무전문성연구소","tel":"02-780-4991","addr":"경기도 의정부시 신곡동 401-48번지 삼익그린빌라 102동 302호","indutype":"용역 서비스 - 사무서비스","category":"other"}]},{"lat":"37.73479118","long":"127.05939979","imageIndex":17,"items":[{"name":"주식회사 엘림비엔엘","tel":"070-4134-1967","addr":"경기도 의정부시 신곡동 420-16번지","indutype":"신변잡화 - 기타잡화","category":"other"}]},{"lat":"37.745905932","long":"127.06543303","imageIndex":17,"items":[{"name":"주식회사 우결웨드","tel":"031-1666-9961","addr":"경기도 의정부시 신곡동 112-4번지 B01호","indutype":"용역 서비스 - 종합용역","category":"other"}]},{"lat":"37.734151803","long":"127.05876403","imageIndex":17,"items":[{"name":"주식회사 환디자인","tel":"031-8083-4737","addr":"경기도 의정부시 신곡동 430-3번지","indutype":"용역 서비스 - 사무서비스","category":"other"}]},{"lat":"37.74548235","long":"127.06568228","imageIndex":17,"items":[{"name":"주식회사우진우드","tel":"031-3217-0301","addr":"경기도 의정부시 신곡동 111-2번지","indutype":"건축자재 - 목재·석재·철물","category":"other"}]},{"lat":"37.736991203","long":"127.0557598","imageIndex":17,"items":[{"name":"중고가전사고팔고","tel":"070-8156-0557","addr":"경기도 의정부시 신곡동 597-21번지","indutype":"전기제품 - 가전제품","category":"other"}]},{"lat":"37.732539353","long":"127.05820695","imageIndex":17,"items":[{"name":"중앙사무기","tel":"031-878-5522","addr":"경기도 의정부시 신곡동 715-2번지 1층","indutype":"사무통신 - 사무용 OA기기","category":"other"}]},{"lat":"37.745070235","long":"127.06115489","imageIndex":17,"items":[{"name":"중앙지게차 (의정부지게차 콜 민락지게차)","tel":"031-852-4200","addr":"경기도 의정부시 신곡동 521-1번지","indutype":"기타 - 기계공구","category":"other"}]},{"lat":"37.735071238","long":"127.05778909","imageIndex":17,"items":[{"name":"지원광고","tel":"031-846-8004","addr":"경기도 의정부시 신곡동 442-12번지","indutype":"용역 서비스 - 종합용역","category":"other"}]},{"lat":"37.731963737","long":"127.05603983","imageIndex":17,"items":[{"name":"착한아저씨컴PC","tel":"031-876-7542","addr":"경기도 의정부시 신곡동 706-9번지 1층좌측","indutype":"수리서비스 - 사무·통신기기수리","category":"other"}]},{"lat":"37.736738782","long":"127.05609996","imageIndex":17,"items":[{"name":"천우영상시스템","tel":"031-847-1579","addr":"경기도 의정부시 신곡동 598-25번지","indutype":"회원제형태 - 기타4","category":"other"}]},{"lat":"37.735214395","long":"127.05988793","imageIndex":17,"items":[{"name":"철거천사","tel":"","addr":"경기도 의정부시 신곡동 435-3번지 동진빌라 나동 110호","indutype":"용역 서비스 - 기타용역서비스","category":"other"}]},{"lat":"37.7462055","long":"127.06103097","imageIndex":17,"items":[{"name":"칠성유통","tel":"031-843-9183","addr":"경기도 의정부시 신곡동 755-1번지 금오주공그린빌4단지 403동 1703호","indutype":"회원제형태 - 기타4","category":"other"}]},{"lat":"37.746843212","long":"127.0648892","imageIndex":17,"items":[{"name":"컴닥터스","tel":"031-1600-5632","addr":"경기도 의정부시 신곡동 78-18번지 정은스카이 D동 201호","indutype":"수리서비스 - 사무·통신기기수리","category":"other"}]},{"lat":"37.745481586","long":"127.06710054","imageIndex":17,"items":[{"name":"컴포리티","tel":"050-7706-3201","addr":"경기도 의정부시 신곡동 122-40번지 1,2층 컴포리티","indutype":"의류 - 정장","category":"other"}]},{"lat":"37.744815674","long":"127.06562499","imageIndex":17,"items":[{"name":"케냐원두커피 커피로스팅","tel":"070-8863-5739","addr":"경기도 의정부시 신곡동 108-14번지 신명스카이뷰 상가동 102호","indutype":"주방용구 - 주방용구","category":"other"}]},{"lat":"37.749601063","long":"127.07871174","imageIndex":17,"items":[{"name":"케어메디칼","tel":"031-853-6724","addr":"경기도 의정부시 신곡동 786-8번지","indutype":"기타의료기관 - 기타의료기관 및 기타","category":"other"}]},{"lat":"37.738584579","long":"127.05861987","imageIndex":17,"items":[{"name":"케이앤씨 솔루션(K&C Solution)","tel":"02-0000-0000","addr":"경기도 의정부시 신곡동 754번지 신곡주공푸르미 410동 1901호","indutype":"신변잡화 - 기타잡화","category":"other"}]},{"lat":"37.746237796","long":"127.06817908","imageIndex":17,"items":[{"name":"케이에스냉동","tel":"031-852-9882","addr":"경기도 의정부시 신곡동 73-32번지 102-1호","indutype":"전기제품 - 냉열기기","category":"other"}]},{"lat":"37.750564959","long":"127.07890562","imageIndex":17,"items":[{"name":"케이제이인터내셔널","tel":"031-851-4411","addr":"경기도 의정부시 신곡동 782-3번지 상가북쪽 1층","indutype":"신변잡화 - 기타잡화","category":"other"}]},{"lat":"37.732099291","long":"127.05512106","imageIndex":17,"items":[{"name":"크레파스","tel":"031-858-8501","addr":"경기도 의정부시 신곡동 704-1번지","indutype":"직물 - 침구·수예점","category":"other"}]},{"lat":"37.749816519","long":"127.07990337","imageIndex":17,"items":[{"name":"크린토피아","tel":"031-853-2366","addr":"경기도 의정부시 신곡동 780-8번지","indutype":"수리서비스 - 세탁소","category":"other"}]},{"lat":"37.735512102","long":"127.05907135","imageIndex":17,"items":[{"name":"키메이트","tel":"031-843-0013","addr":"경기도 의정부시 신곡동 441-14번지","indutype":"건축자재 - 목재·석재·철물","category":"other"}]},{"lat":"37.73368161","long":"127.06223501","imageIndex":17,"items":[{"name":"킹의정부솜틀집","tel":"031-821-3500","addr":"경기도 의정부시 신곡동 409-5번지","indutype":"직물 - 침구·수예점","category":"other"}]},{"lat":"37.750627215","long":"127.08015384","imageIndex":17,"items":[{"name":"탑스보안","tel":"070-8952-5918","addr":"경기도 의정부시 신곡동 777-2번지 203호","indutype":"용역 서비스 - 기타용역서비스","category":"other"}]},{"lat":"37.734627671","long":"127.06212232","imageIndex":17,"items":[{"name":"탑쿠치나","tel":"031-826-2420","addr":"경기도 의정부시 신곡동 416-26번지","indutype":"주방용구 - 주방용구","category":"other"}]},{"lat":"37.735737998","long":"127.05767614","imageIndex":17,"items":[{"name":"태광목재합판","tel":"031-848-4836","addr":"경기도 의정부시 신곡동 597-137번지","indutype":"건축자재 - 목재·석재·철물","category":"other"},{"name":"파란채","tel":"031-821-3221","addr":"경기도 의정부시 신곡동 597-137번지","indutype":"건축자재 - 인테리어전문","category":"other"}]},{"lat":"37.73337599","long":"127.06081674","imageIndex":17,"items":[{"name":"태양","tel":"070-8283-9411","addr":"경기도 의정부시 신곡동 425-1번지 1층","indutype":"레져용품 - 스포츠·레져용품","category":"other"}]},{"lat":"37.742150603","long":"127.06223043","imageIndex":17,"items":[{"name":"토담공방카페","tel":"031-848-9921","addr":"경기도 의정부시 신곡동 489-39번지 1층","indutype":"문화.취미 - 문화취미기타","category":"other"}]},{"lat":"37.730963985","long":"127.05534714","imageIndex":17,"items":[{"name":"토즈멤버십라운지 신곡센터","tel":"031-874-1109","addr":"경기도 의정부시 신곡동 719-1번지 해송빌딩 4층","indutype":"용역 서비스 - 사무서비스","category":"other"}]},{"lat":"37.743540736","long":"127.05668346","imageIndex":17,"items":[{"name":"토탈빨래방","tel":"031-844-8194","addr":"경기도 의정부시 신곡동 675-10번지","indutype":"수리서비스 - 세탁소","category":"other"}]},{"lat":"37.728573137","long":"127.06232168","imageIndex":17,"items":[{"name":"파스텔문구","tel":"031-824-4518","addr":"경기도 의정부시 신곡동 313-2번지","indutype":"서적문구 - 문구용품","category":"other"}]},{"lat":"37.729656523","long":"127.05770569","imageIndex":17,"items":[{"name":"폴리공예교습소","tel":"","addr":"경기도 의정부시 신곡동 723-1번지 한일.삼익아파트 203호","indutype":"문화.취미 - 문화취미기타","category":"other"}]},{"lat":"37.727492447","long":"127.06140201","imageIndex":17,"items":[{"name":"풍림","tel":"031-877-6426","addr":"경기도 의정부시 신곡동 727-1번지 한국풍림상가 129호","indutype":"주방용구 - 주방용구","category":"other"},{"name":"한국사","tel":"031-874-5593","addr":"경기도 의정부시 신곡동 727-1 풍림한국@상가동216-1","indutype":"수리서비스 - 세탁소","category":"other"}]},{"lat":"37.731847134","long":"127.05487131","imageIndex":17,"items":[{"name":"플레르","tel":"031-876-3663","addr":"경기도 의정부시 신곡동 703-12번지 1층","indutype":"문화.취미 - 화원","category":"other"}]},{"lat":"37.736954687","long":"127.05681484","imageIndex":17,"items":[{"name":"하나산업기계","tel":"031-848-0477","addr":"경기도 의정부시 신곡동 571-65번지","indutype":"기타 - 기계공구","category":"other"}]},{"lat":"37.750990337","long":"127.07585375","imageIndex":17,"items":[{"name":"하수구변기씽크뚫음,방충망하수도막힘누수","tel":"070-8842-7080","addr":"경기도 의정부시 신곡동 767-2번지 상록아이파크 104동 304호","indutype":"용역 서비스 - 기타용역서비스","category":"other"}]},{"lat":"37.732070945","long":"127.05801376","imageIndex":17,"items":[{"name":"학스포츠","tel":"02-2252-1088","addr":"경기도 의정부시 신곡동 714-2번지 화인빌 105호","indutype":"레져용품 - 스포츠·레져용품","category":"other"}]},{"lat":"37.734652259","long":"127.06679623","imageIndex":17,"items":[{"name":"한신건업","tel":"031-855-7770","addr":"경기도 의정부시 신곡동 386-6번지","indutype":"건축자재 - 기타건축자재","category":"other"}]},{"lat":"37.735404807","long":"127.05732421","imageIndex":17,"items":[{"name":"한주패션","tel":"031-846-8582","addr":"경기도 의정부시 신곡동 597-1번지 개나리맨숀 A동 104호","indutype":"의류 - 정장","category":"other"}]},{"lat":"37.749204774","long":"127.0785071","imageIndex":17,"items":[{"name":"해피가이드","tel":"031-852-5570","addr":"경기도 의정부시 신곡동 785-11번지","indutype":"용역 서비스 - 종합용역","category":"other"}]},{"lat":"37.731819818","long":"127.0555179","imageIndex":17,"items":[{"name":"핸디맨 집수리","tel":"","addr":"경기도 의정부시 신곡동 705-3번지","indutype":"건축자재 - 인테리어전문","category":"other"}]},{"lat":"37.736296796","long":"127.05723411","imageIndex":17,"items":[{"name":"햇살요양원","tel":"031-821-2100","addr":"경기도 의정부시 신곡동 596-2번지 ,4,5층","indutype":"기타의료기관 - 기타의료기관 및 기타","category":"other"}]},{"lat":"37.731323462","long":"127.05734392","imageIndex":17,"items":[{"name":"행복통신","tel":"031-836-1500","addr":"경기도 의정부시 신곡동 716-5번지 1층","indutype":"사무통신 - 통신기기","category":"other"}]},{"lat":"37.735267504","long":"127.06181653","imageIndex":17,"items":[{"name":"행복한고양이","tel":"031-821-1206","addr":"경기도 의정부시 신곡동 447-27번지","indutype":"의류 - 정장","category":"other"}]},{"lat":"37.736955668","long":"127.0546253","imageIndex":17,"items":[{"name":"행복한여성","tel":"","addr":"경기도 의정부시 신곡동 570-22번지","indutype":"의류 - 내의판매","category":"other"}]},{"lat":"37.73548466","long":"127.05993351","imageIndex":17,"items":[{"name":"향이네","tel":"","addr":"경기도 의정부시 신곡동 447-5번지","indutype":"용역 서비스 - 종합용역","category":"other"}]},{"lat":"37.734017605","long":"127.0567333","imageIndex":17,"items":[{"name":"현AD","tel":"031-875-1399","addr":"경기도 의정부시 신곡동 603-8번지 1층","indutype":"용역 서비스 - 종합용역","category":"other"}]},{"lat":"37.736765698","long":"127.05634957","imageIndex":17,"items":[{"name":"현대라인","tel":"","addr":"경기도 의정부시 신곡동 598-26번지","indutype":"용역 서비스 - 기타용역서비스","category":"other"}]},{"lat":"37.736373743","long":"127.06557249","imageIndex":17,"items":[{"name":"현대상사","tel":"031-821-2377","addr":"경기도 의정부시 신곡동 146-13번지","indutype":"용역 서비스 - 종합용역","category":"other"}]},{"lat":"37.742738938","long":"127.05656943","imageIndex":17,"items":[{"name":"현대철물","tel":"031-846-8747","addr":"경기도 의정부시 신곡동 680-7번지 1층","indutype":"건축자재 - 목재·석재·철물","category":"other"}]},{"lat":"37.743432199","long":"127.05760239","imageIndex":17,"items":[{"name":"혜림문고","tel":"031-848-2657","addr":"경기도 의정부시 신곡동 673-3번지 영화빌딩 1층","indutype":"서적문구 - 일반서적","category":"other"}]},{"lat":"37.737234965","long":"127.0546255","imageIndex":17,"items":[{"name":"홍당무디자인","tel":"031-848-9583","addr":"경기도 의정부시 신곡동 566-15번지 1층","indutype":"유통업 영리 - 기타유통업","category":"other"}]}]