[{"lat":"37.41230516","long":"127.1945118","imageIndex":0,"items":[{"name":"(주)세기자사랑","tel":"031-762-4249","addr":"경기도 광주시 삼동 424-9번지 2층","indutype":"자동차정비 유지 - 자동차부품","category":"car"}]},{"lat":"37.41294661","long":"127.1989526","imageIndex":0,"items":[{"name":"JL물류건설기계","tel":"031-767-8822","addr":"경기도 광주시 삼동 296-20번지","indutype":"자동차정비 유지 - 자동차정비","category":"car"}]},{"lat":"37.40644692","long":"127.2010139","imageIndex":0,"items":[{"name":"JR모터스","tel":"031-000-0000","addr":"경기도 광주시 삼동 237-2번지 1,2,3동","indutype":"자동차정비 유지 - 카인테리어","category":"car"}]},{"lat":"37.41408526","long":"127.1968998","imageIndex":0,"items":[{"name":"MS-TECH(모터스파이)","tel":"031-721-7047","addr":"경기도 광주시 삼동 294-20번지 1층","indutype":"자동차정비 유지 - 자동차부품","category":"car"}]},{"lat":"37.41100279","long":"127.2029235","imageIndex":0,"items":[{"name":"덴트플러스","tel":"031-763-8021","addr":"경기도 광주시 삼동 211-1번지","indutype":"자동차정비 유지 - 카인테리어","category":"car"}]},{"lat":"37.41133454","long":"127.1985079","imageIndex":0,"items":[{"name":"동양네트웍스","tel":"031-762-9965","addr":"경기도 광주시 삼동 281-4번지","indutype":"자동차정비 유지 - 자동차부품","category":"car"}]},{"lat":"37.4108593","long":"127.1971173","imageIndex":0,"items":[{"name":"올밴","tel":"031-763-8094","addr":"경기도 광주시 삼동 284-2번지 2동 1층","indutype":"자동차정비 유지 - 자동차부품","category":"car"}]},{"lat":"37.40958262","long":"127.2008979","imageIndex":0,"items":[{"name":"우남1급자동차정비공업사","tel":"031-798-5570","addr":"경기도 광주시 삼동 245-1번지 외1필지","indutype":"자동차정비 유지 - 자동차정비","category":"car"}]},{"lat":"37.40938885","long":"127.203597","imageIndex":0,"items":[{"name":"창대자동차","tel":"031-763-9709","addr":"경기도 광주시 삼동 226-14번지","indutype":"자동차정비 유지 - 자동차정비","category":"car"}]},{"lat":"37.40966459","long":"127.2003673","imageIndex":0,"items":[{"name":"카독스","tel":"031-8016-4955","addr":"경기도 광주시 삼동 246-10번지 에이 1동","indutype":"자동차정비 유지 - 카인테리어","category":"car"}]}]