[{"lat":"37.512106562","long":"127.40107172","imageIndex":4,"items":[{"name":"고기야","tel":"031-773-6723","addr":"경기도 양평군 양서면 국수리 326-13번지 나동 1층","indutype":"일반휴게음식 - 일반한식","category":"restaurant"},{"name":"기분좋은날","tel":"031-771-0891","addr":"경기도 양평군 양서면 국수리 326-13번지 나동","indutype":"일반휴게음식 - 일반한식","category":"restaurant"},{"name":"돈대박","tel":"031-774-5425","addr":"경기도 양평군 양서면 국수리 326-13번지","indutype":"일반휴게음식 - 일반한식","category":"restaurant"},{"name":"막회","tel":"031-771-1128","addr":"경기도 양평군 양서면 국수리 326-13번지","indutype":"일반휴게음식 - 일반한식","category":"restaurant"},{"name":"아지트","tel":"031-774-2223","addr":"경기도 양평군 양서면 국수리 326-13번지 나동 1층","indutype":"일반휴게음식 - 일반한식","category":"restaurant"},{"name":"힐링채 시즌2","tel":"031-773-6723","addr":"경기도 양평군 양서면 국수리 326-13번지 나동 1층","indutype":"일반휴게음식 - 일반한식","category":"restaurant"}]},{"lat":"37.511075014","long":"127.399709","imageIndex":4,"items":[{"name":"곤지암나래소머리국밥","tel":"031-772-9401","addr":"경기도 양평군 양서면 국수리 340-13번지","indutype":"일반휴게음식 - 일반한식","category":"restaurant"},{"name":"상하이","tel":"031-772-8311","addr":"경기도 양평군 양서면 국수리 340-13번지","indutype":"일반휴게음식 - 중국식","category":"restaurant"}]},{"lat":"37.51571124","long":"127.40085334","imageIndex":4,"items":[{"name":"국수리칼국수","tel":"031-773-0348","addr":"경기도 양평군 양서면 국수리 252-8번지","indutype":"일반휴게음식 - 일반한식","category":"restaurant"}]},{"lat":"37.511961186","long":"127.40143289","imageIndex":4,"items":[{"name":"국수마을","tel":"031-772-6311","addr":"경기도 양평군 양서면 국수리 326-4","indutype":"일반휴게음식 - 일반한식","category":"restaurant"}]},{"lat":"37.512239189","long":"127.40181893","imageIndex":4,"items":[{"name":"까페하라","tel":"031-775-8869","addr":"경기도 양평군 양서면 국수리 326-37번지 2층","indutype":"일반휴게음식 - 서양음식","category":"restaurant"},{"name":"또래오래 양평국수리점","tel":"031-000-0000","addr":"경기도 양평군 양서면 국수리 326-37번지 2층","indutype":"일반휴게음식 - 일반한식","category":"restaurant"},{"name":"유앤미(U&Me)","tel":"070-4151-3947","addr":"경기도 양평군 양서면 국수리 326-37번지 2층","indutype":"일반휴게음식 - 서양음식","category":"restaurant"}]},{"lat":"37.513795068","long":"127.39998354","imageIndex":4,"items":[{"name":"맛있는집","tel":"031-775-5564","addr":"경기도 양평군 양서면 국수리 275-5번지","indutype":"일반휴게음식 - 일반한식","category":"restaurant"}]},{"lat":"37.512690132","long":"127.4016856","imageIndex":4,"items":[{"name":"삼전숯불갈비","tel":"031-775-1915","addr":"경기도 양평군 양서면 국수리 321-1번지","indutype":"일반휴게음식 - 일반한식","category":"restaurant"}]},{"lat":"37.510238859","long":"127.3991843","imageIndex":4,"items":[{"name":"안흥촌두부밥상","tel":"031-774-4034","addr":"경기도 양평군 양서면 국수리 338-13번지","indutype":"일반휴게음식 - 일반한식","category":"restaurant"}]},{"lat":"37.511352642","long":"127.40020813","imageIndex":4,"items":[{"name":"양평갈비","tel":"031-774-2938","addr":"경기도 양평군 양서면 국수리 330-5번지","indutype":"일반휴게음식 - 일반한식","category":"restaurant"}]},{"lat":"37.510856804","long":"127.40029598","imageIndex":4,"items":[{"name":"양평선지해장국","tel":"031-771-6888","addr":"경기도 양평군 양서면 국수리 331-5","indutype":"일반휴게음식 - 일반한식","category":"restaurant"}]},{"lat":"37.515408297","long":"127.39984505","imageIndex":4,"items":[{"name":"역전마당","tel":"031-772-7216","addr":"경기도 양평군 양서면 국수리 268-8","indutype":"일반휴게음식 - 일반한식","category":"restaurant"}]},{"lat":"37.511657106","long":"127.40076395","imageIndex":4,"items":[{"name":"요거프레소 양평국수점","tel":"070-7404-1468","addr":"경기도 양평군 양서면 국수리 328-9번지","indutype":"일반휴게음식 - 서양음식","category":"restaurant"}]},{"lat":"37.512436447","long":"127.40210274","imageIndex":4,"items":[{"name":"전주가마솥장작불곰탕","tel":"031-775-1566","addr":"경기도 양평군 양서면 국수리 326-35번지","indutype":"일반휴게음식 - 일반한식","category":"restaurant"},{"name":"최가네오리곰탕","tel":"031-774-9228","addr":"경기도 양평군 양서면 국수리 326-35번지","indutype":"일반휴게음식 - 일반한식","category":"restaurant"}]},{"lat":"37.510913865","long":"127.39940276","imageIndex":4,"items":[{"name":"처갓집양념치킨국수점","tel":"031-771-2344","addr":"경기도 양평군 양서면 국수리 340-3번지","indutype":"일반휴게음식 - 일반한식","category":"restaurant"},{"name":"청산막국수","tel":"031-773-0170","addr":"경기도 양평군 양서면 국수리 340-3번지 1층","indutype":"일반휴게음식 - 일반한식","category":"restaurant"},{"name":"토스트앤핫도그","tel":"031-774-0409","addr":"경기도 양평군 양서면 국수리 340-3번지","indutype":"일반휴게음식 - 서양음식","category":"restaurant"}]},{"lat":"37.512050634","long":"127.40162564","imageIndex":4,"items":[{"name":"커피앤트레블","tel":"031-773-2279","addr":"경기도 양평군 양서면 국수리 326-38번지","indutype":"일반휴게음식 - 서양음식","category":"restaurant"}]},{"lat":"37.508691874","long":"127.3929556","imageIndex":4,"items":[{"name":"큰댁순두부쌈밥","tel":"031-774-9970","addr":"경기도 양평군 양서면 국수리 391-10번지 2층","indutype":"일반휴게음식 - 일반한식","category":"restaurant"}]},{"lat":"37.515410348","long":"127.39923426","imageIndex":4,"items":[{"name":"황토마루","tel":"031-772-7380","addr":"경기도 양평군 양서면 국수리 267-3","indutype":"일반휴게음식 - 일반한식","category":"restaurant"}]},{"lat":"37.524630633","long":"127.40889861","imageIndex":4,"items":[{"name":"힐링채","tel":"031-771-6726","addr":"경기도 양평군 양서면 국수리 2-11번지","indutype":"일반휴게음식 - 일반한식","category":"restaurant"}]}]