[{"lat":"37.34809245","long":"127.3544396","imageIndex":13,"items":[{"name":"(주)쌍별바이오","tel":"031-000-0000","addr":"경기도 광주시 곤지암읍 곤지암리 75번지","indutype":"보건위생 - 화장품","category":"beauty"}]},{"lat":"37.35009545","long":"127.3411312","imageIndex":13,"items":[{"name":"GG사우나","tel":"031-764-6158","addr":"경기도 광주시 곤지암읍 곤지암리 435-28번지 지층","indutype":"보건위생 - 사우나","category":"beauty"}]},{"lat":"37.34887624","long":"127.3389701","imageIndex":13,"items":[{"name":"J헤어","tel":"031-766-1611","addr":"경기도 광주시 곤지암읍 곤지암리 447-1번지 1층","indutype":"보건위생 - 미용원","category":"beauty"}]},{"lat":"37.34920304","long":"127.3444115","imageIndex":13,"items":[{"name":"곤지암 독일 보청기","tel":"031-8028-8728","addr":"경기도 광주시 곤지암읍 곤지암리 341-17번지 3층","indutype":"보건위생 - 의료용품","category":"beauty"}]},{"lat":"37.34975899","long":"127.339053","imageIndex":13,"items":[{"name":"곤지암 전국 대리운전","tel":"031-765-9900","addr":"경기도 광주시 곤지암읍 곤지암리 441-13번지 1층","indutype":"보건위생 - 기타대인서비스","category":"beauty"}]},{"lat":"37.34967665","long":"127.3394928","imageIndex":13,"items":[{"name":"더페이스샵","tel":"031-769-8687","addr":"경기도 광주시 곤지암읍 곤지암리 441-16번지","indutype":"보건위생 - 화장품","category":"beauty"},{"name":"신성대리운전","tel":"031-762-2264","addr":"경기도 광주시 곤지암읍 곤지암리 441-16 4층 1/","indutype":"보건위생 - 기타대인서비스","category":"beauty"}]},{"lat":"37.34934556","long":"127.33869","imageIndex":13,"items":[{"name":"루비나","tel":"031-797-4221","addr":"경기도 광주시 곤지암읍 곤지암리 453-119번지","indutype":"보건위생 - 미용원","category":"beauty"}]},{"lat":"37.34945587","long":"127.3410832","imageIndex":13,"items":[{"name":"루비헤어","tel":"031-338-4934","addr":"경기도 광주시 곤지암읍 곤지암리 440-15번지","indutype":"보건위생 - 미용원","category":"beauty"},{"name":"에뛰드하우스곤지암점","tel":"070-4143-1201","addr":"경기도 광주시 곤지암읍 곤지암리 440-15번지","indutype":"보건위생 - 화장품","category":"beauty"},{"name":"이미경혜어스토리","tel":"031-769-5175","addr":"경기도 광주시 곤지암읍 곤지암리 440-15번지","indutype":"보건위생 - 미용원","category":"beauty"}]},{"lat":"37.34926197","long":"127.3427188","imageIndex":13,"items":[{"name":"루시헤어","tel":"031-764-2263","addr":"경기도 광주시 곤지암읍 곤지암리 432-1번지","indutype":"보건위생 - 미용원","category":"beauty"},{"name":"힐링","tel":"","addr":"경기도 광주시 곤지암읍 곤지암리 432-1번지","indutype":"보건위생 - 미용재료","category":"beauty"}]},{"lat":"37.34812974","long":"127.3447903","imageIndex":13,"items":[{"name":"미미속눈썹","tel":"031-765-7227","addr":"경기도 광주시 곤지암읍 곤지암리 343-48번지 효성아트빌 B동 1층","indutype":"보건위생 - 기타대인서비스","category":"beauty"}]},{"lat":"37.34854351","long":"127.3387429","imageIndex":13,"items":[{"name":"발리헤어클럽","tel":"031-763-3339","addr":"경기도 광주시 곤지암읍 곤지암리 447-3번지 동성빌딩 2층","indutype":"보건위생 - 미용원","category":"beauty"}]},{"lat":"37.34945494","long":"127.3414105","imageIndex":13,"items":[{"name":"뷰티하우스(화장품)","tel":"031-769-6653","addr":"경기도 광주시 곤지암읍 곤지암리 433-19번지","indutype":"보건위생 - 화장품","category":"beauty"}]},{"lat":"37.34942661","long":"127.3418618","imageIndex":13,"items":[{"name":"새로미미용실","tel":"031-762-7822","addr":"경기도 광주시 곤지암읍 곤지암리 433-8번지","indutype":"보건위생 - 미용원","category":"beauty"}]},{"lat":"37.34934216","long":"127.3398863","imageIndex":13,"items":[{"name":"샤인네일","tel":"031-8028-3337","addr":"경기도 광주시 곤지암읍 곤지암리 445-2번지 중앙빌딩 1층","indutype":"보건위생 - 피부미용실","category":"beauty"},{"name":"파라팜헤어","tel":"031-764-7966","addr":"경기도 광주시 곤지암읍 곤지암리 445-2번지","indutype":"보건위생 - 미용원","category":"beauty"}]},{"lat":"37.3507654","long":"127.3368341","imageIndex":13,"items":[{"name":"썸타이아로마","tel":"031-764-7993","addr":"경기도 광주시 곤지암읍 곤지암리 453-222번지 2층","indutype":"보건위생 - 화장품","category":"beauty"}]},{"lat":"37.34940458","long":"127.3401124","imageIndex":13,"items":[{"name":"씨앤씨안경원","tel":"031-797-2593","addr":"경기도 광주시 곤지암읍 곤지암리 445-6번지","indutype":"보건위생 - 안경","category":"beauty"}]},{"lat":"37.34928713","long":"127.3402247","imageIndex":13,"items":[{"name":"약수사우나","tel":"031-797-7482","addr":"경기도 광주시 곤지암읍 곤지암리 445-23번지","indutype":"보건위생 - 사우나","category":"beauty"},{"name":"유인안경원","tel":"031-767-0927","addr":"경기도 광주시 곤지암읍 곤지암리 445-23번지 1층","indutype":"보건위생 - 안경","category":"beauty"}]},{"lat":"37.34909339","long":"127.3449414","imageIndex":13,"items":[{"name":"어반헤어에스쁘티","tel":"031-769-2100","addr":"경기도 광주시 곤지암읍 곤지암리 341-11번지","indutype":"보건위생 - 미용원","category":"beauty"},{"name":"화이트","tel":"031-111-1111","addr":"경기도 광주시 곤지암읍 곤지암리 341-11번지","indutype":"보건위생 - 화장품","category":"beauty"}]},{"lat":"37.34929385","long":"127.3441636","imageIndex":13,"items":[{"name":"에스더미용실","tel":"031-797-4971","addr":"경기도 광주시 곤지암읍 곤지암리 345-1","indutype":"보건위생 - 미용원","category":"beauty"}]},{"lat":"37.34990363","long":"127.3388844","imageIndex":13,"items":[{"name":"오늘도 예쁜머리","tel":"031-769-2588","addr":"경기도 광주시 곤지암읍 곤지암리 444-8번지","indutype":"보건위생 - 미용원","category":"beauty"}]},{"lat":"37.34998591","long":"127.3384672","imageIndex":13,"items":[{"name":"오땡큐","tel":"031-768-1973","addr":"경기도 광주시 곤지암읍 곤지암리 453-8번지","indutype":"보건위생 - 화장품","category":"beauty"},{"name":"현대이발관","tel":"031-798-2126","addr":"경기도 광주시 곤지암읍 곤지암리 453-8번지","indutype":"보건위생 - 이용원","category":"beauty"}]},{"lat":"37.34973142","long":"127.3392448","imageIndex":13,"items":[{"name":"왓포","tel":"031-769-5788","addr":"경기도 광주시 곤지암읍 곤지암리 441-6번지 2층","indutype":"보건위생 - 미용재료","category":"beauty"},{"name":"향기나라","tel":"031-767-5759","addr":"경기도 광주시 곤지암읍 곤지암리 441-6번지","indutype":"보건위생 - 화장품","category":"beauty"}]},{"lat":"37.34948077","long":"127.3386681","imageIndex":13,"items":[{"name":"이가미장","tel":"031-767-2580","addr":"경기도 광주시 곤지암읍 곤지암리 453-20번지 이가미장","indutype":"보건위생 - 미용원","category":"beauty"}]},{"lat":"37.34976508","long":"127.3400801","imageIndex":13,"items":[{"name":"정헤어클럽","tel":"031-764-3738","addr":"경기도 광주시 곤지암읍 곤지암리 441-2번지","indutype":"보건위생 - 미용원","category":"beauty"}]},{"lat":"37.348953","long":"127.3436316","imageIndex":13,"items":[{"name":"카리스피부샵","tel":"02-1111-1111","addr":"경기도 광주시 곤지암읍 곤지암리 344-5번지 1층","indutype":"보건위생 - 피부미용실","category":"beauty"}]},{"lat":"37.34842747","long":"127.3383587","imageIndex":13,"items":[{"name":"컷팅클럽","tel":"031-763-1206","addr":"경기도 광주시 곤지암읍 곤지암리 453-112","indutype":"보건위생 - 미용원","category":"beauty"}]},{"lat":"37.34975746","long":"127.3427436","imageIndex":13,"items":[{"name":"태화 대리운전","tel":"031-762-7729","addr":"경기도 광주시 곤지암읍 곤지암리 430-6번지 2층 101호","indutype":"보건위생 - 기타대인서비스","category":"beauty"}]},{"lat":"37.34817476","long":"127.3448018","imageIndex":13,"items":[{"name":"퍼니헤어","tel":"031-797-5111","addr":"경기도 광주시 곤지암읍 곤지암리 343-48번지","indutype":"보건위생 - 미용원","category":"beauty"}]},{"lat":"37.34116986","long":"127.349284","imageIndex":13,"items":[{"name":"한올한올","tel":"070-8031-0164","addr":"경기도 광주시 곤지암읍 곤지암리 312-23번지 네스트빌","indutype":"보건위생 - 화장품","category":"beauty"}]},{"lat":"37.34959745","long":"127.3388266","imageIndex":13,"items":[{"name":"헤어스케치","tel":"031-763-7788","addr":"경기도 광주시 곤지암읍 곤지암리 581번지","indutype":"보건위생 - 미용원","category":"beauty"}]},{"lat":"37.34943052","long":"127.3404962","imageIndex":13,"items":[{"name":"헤어이네누","tel":"031-763-2163","addr":"경기도 광주시 곤지암읍 곤지암리 445-1번지 2층","indutype":"보건위생 - 미용원","category":"beauty"}]},{"lat":"37.34986978","long":"127.3412769","imageIndex":13,"items":[{"name":"황제","tel":"031-769-7089","addr":"경기도 광주시 곤지암읍 곤지암리 435-3번지","indutype":"보건위생 - 피부미용실","category":"beauty"}]}]