[{"lat":"37.310200228","long":"126.86862372","imageIndex":13,"items":[{"name":"123당구","tel":"070-4254-0160","addr":"경기도 안산시 상록구 일동 120-3번지 2층 202호","indutype":"레저업소 - 당 구 장","category":"leisure"}]},{"lat":"37.314257798","long":"126.86340473","imageIndex":13,"items":[{"name":"2002월드컵노래연습장","tel":"031-400-9441","addr":"경기도 안산시 상록구 일동 577-8번지","indutype":"레저업소 - 노 래 방","category":"leisure"}]},{"lat":"37.307175577","long":"126.87109939","imageIndex":13,"items":[{"name":"24시노래연습장","tel":"031-406-9414","addr":"경기도 안산시 상록구 일동 626-10번지","indutype":"레저업소 - 노 래 방","category":"leisure"}]},{"lat":"37.315231985","long":"126.86432797","imageIndex":13,"items":[{"name":"369당구클럽","tel":"031-503-6022","addr":"경기도 안산시 상록구 일동 576-2번지 4층","indutype":"레저업소 - 당 구 장","category":"leisure"},{"name":"닉PC방","tel":"070-6729-0805","addr":"경기도 안산시 상록구 일동 576-2번지 5층","indutype":"레저업소 - 기타레져업소","category":"leisure"}]},{"lat":"37.309037476","long":"126.86824227","imageIndex":13,"items":[{"name":"O2 PC(오투피씨)","tel":"","addr":"경기도 안산시 상록구 일동 632-2번지 원영빌딩 201동 203호","indutype":"레저업소 - 기타레져업소","category":"leisure"}]},{"lat":"37.309227062","long":"126.86856905","imageIndex":13,"items":[{"name":"e-Station PC방","tel":"070-5020-5333","addr":"경기도 안산시 상록구 일동 632-4번지 3층","indutype":"레저업소 - 기타레져업소","category":"leisure"},{"name":"약손","tel":"031-406-6399","addr":"경기도 안산시 상록구 일동 632-4번지 202호","indutype":"레저업소 - 헬스클럽","category":"leisure"},{"name":"코리아당구클럽","tel":"031-473-9107","addr":"경기도 안산시 상록구 일동 632-4번지 201호","indutype":"레저업소 - 당 구 장","category":"leisure"},{"name":"태지나노래연습장","tel":"031-416-1933","addr":"경기도 안산시 상록구 일동 632-4번지 3층","indutype":"레저업소 - 노 래 방","category":"leisure"}]},{"lat":"37.316177274","long":"126.86366065","imageIndex":13,"items":[{"name":"공57 당구장","tel":"031-407-2165","addr":"경기도 안산시 상록구 일동 574-2번지 2층","indutype":"레저업소 - 당 구 장","category":"leisure"}]},{"lat":"37.311811445","long":"126.86721079","imageIndex":13,"items":[{"name":"국민BOXING클럽","tel":"031-418-1212","addr":"경기도 안산시 상록구 일동 89-7번지 지하1층","indutype":"레저업소 - 헬스클럽","category":"leisure"}]},{"lat":"37.309426422","long":"126.86957264","imageIndex":13,"items":[{"name":"궁노래연습장","tel":"031-501-7670","addr":"경기도 안산시 상록구 일동 618번지 지하","indutype":"레저업소 - 노 래 방","category":"leisure"},{"name":"홀릭노래연습장","tel":"031-501-7670","addr":"경기도 안산시 상록구 일동 618번지 B01호","indutype":"레저업소 - 노 래 방","category":"leisure"}]},{"lat":"37.314925334","long":"126.86406907","imageIndex":13,"items":[{"name":"길담노래연습장","tel":"031-407-4246","addr":"경기도 안산시 상록구 일동 577-1번지","indutype":"레저업소 - 노 래 방","category":"leisure"}]},{"lat":"37.314922841","long":"126.86195953","imageIndex":13,"items":[{"name":"노래생각노래연습장","tel":"031-416-9970","addr":"경기도 안산시 상록구 일동 570-9번지","indutype":"레저업소 - 노 래 방","category":"leisure"}]},{"lat":"37.315060725","long":"126.86427188","imageIndex":13,"items":[{"name":"노리파크","tel":"031-483-3431","addr":"경기도 안산시 상록구 일동 576-6번지 5층 501호","indutype":"레저업소 - 기타레져업소","category":"leisure"},{"name":"해피원노래연습장","tel":"031-406-2150","addr":"경기도 안산시 상록구 일동 576-6번지 서원빌딩 3층","indutype":"레저업소 - 노 래 방","category":"leisure"},{"name":"해피원노래연습장","tel":"031-408-7701","addr":"경기도 안산시 상록구 일동 576-6번지 3층","indutype":"레저업소 - 노 래 방","category":"leisure"}]},{"lat":"37.313644024","long":"126.86249212","imageIndex":13,"items":[{"name":"뉴캐슬노래연습장","tel":"031-362-6000","addr":"경기도 안산시 상록구 일동 580-8번지 지하층","indutype":"레저업소 - 노 래 방","category":"leisure"},{"name":"캐슬노래연습장","tel":"031-409-2557","addr":"경기도 안산시 상록구 일동 580-8번지 지하","indutype":"레저업소 - 노 래 방","category":"leisure"}]},{"lat":"37.315511459","long":"126.86446283","imageIndex":13,"items":[{"name":"대단한PC방","tel":"031-365-5766","addr":"경기도 안산시 상록구 일동 575-2번지 원인영빌딩 4층","indutype":"레저업소 - 기타레져업소","category":"leisure"}]},{"lat":"37.315286889","long":"126.86504986","imageIndex":13,"items":[{"name":"더놀자노래연습장","tel":"031-406-5612","addr":"경기도 안산시 상록구 일동 585번지 지층","indutype":"레저업소 - 노 래 방","category":"leisure"}]},{"lat":"37.314032941","long":"126.86374357","imageIndex":13,"items":[{"name":"동이노래연습장","tel":"031-418-2585","addr":"경기도 안산시 상록구 일동 583-9번지 지하1층","indutype":"레저업소 - 노 래 방","category":"leisure"}]},{"lat":"37.304898197","long":"126.86512522","imageIndex":13,"items":[{"name":"둘리노래연습장","tel":"","addr":"경기도 안산시 상록구 일동 666번지 3층","indutype":"레저업소 - 노 래 방","category":"leisure"},{"name":"둘리당구클럽","tel":"","addr":"경기도 안산시 상록구 일동 666번지 2층","indutype":"레저업소 - 당 구 장","category":"leisure"}]},{"lat":"37.30920076","long":"126.86921207","imageIndex":13,"items":[{"name":"똥쌍피노래연습장","tel":"031-417-3719","addr":"경기도 안산시 상록구 일동 618-17번지","indutype":"레저업소 - 노 래 방","category":"leisure"}]},{"lat":"37.303815257","long":"126.86366088","imageIndex":13,"items":[{"name":"라성노래연습장","tel":"031-502-8110","addr":"경기도 안산시 상록구 일동 661-11번지 지하","indutype":"레저업소 - 노 래 방","category":"leisure"}]},{"lat":"37.310066336","long":"126.86974071","imageIndex":13,"items":[{"name":"레드 피씨(RED PC)","tel":"","addr":"경기도 안산시 상록구 일동 631-1번지 3층","indutype":"레저업소 - 기타레져업소","category":"leisure"},{"name":"플러스당구클럽","tel":"03-1223-9159","addr":"경기도 안산시 상록구 일동 631-1번지","indutype":"레저업소 - 당 구 장","category":"leisure"}]},{"lat":"37.314447238","long":"126.86359615","imageIndex":13,"items":[{"name":"리멤버노래연습장","tel":"031-406-3935","addr":"경기도 안산시 상록구 일동 577-6번지 지층","indutype":"레저업소 - 노 래 방","category":"leisure"}]},{"lat":"37.310477262","long":"126.86662661","imageIndex":13,"items":[{"name":"뮤직노래연습장","tel":"","addr":"경기도 안산시 상록구 일동 118-10번지 서광빌딩 지층","indutype":"레저업소 - 노 래 방","category":"leisure"}]},{"lat":"37.310120676","long":"126.86998878","imageIndex":13,"items":[{"name":"미래당구클럽","tel":"031-000-0000","addr":"경기도 안산시 상록구 일동 631번지 2층","indutype":"레저업소 - 당 구 장","category":"leisure"}]},{"lat":"37.308704381","long":"126.86849102","imageIndex":13,"items":[{"name":"미인당구클럽","tel":"031-504-3334","addr":"경기도 안산시 상록구 일동 621-16번지 3층","indutype":"레저업소 - 당 구 장","category":"leisure"}]},{"lat":"37.314399591","long":"126.86140774","imageIndex":13,"items":[{"name":"본사렌탈접수처","tel":"070-4295-0025","addr":"경기도 안산시 상록구 일동 569-9번지 4층","indutype":"레저업소 - 헬스클럽","category":"leisure"},{"name":"씽씽노래연습장","tel":"031-502-9849","addr":"경기도 안산시 상록구 일동 569-9번지","indutype":"레저업소 - 노 래 방","category":"leisure"}]},{"lat":"37.30726023","long":"126.86629402","imageIndex":13,"items":[{"name":"삿뽀로노래연습장","tel":"031-409-4300","addr":"경기도 안산시 상록구 일동 650-19번지","indutype":"레저업소 - 노 래 방","category":"leisure"},{"name":"킹스타당구클럽","tel":"031-000-0000","addr":"경기도 안산시 상록구 일동 650-19번지 구룡빌딩 4층","indutype":"레저업소 - 당 구 장","category":"leisure"}]},{"lat":"37.314817119","long":"126.86399031","imageIndex":13,"items":[{"name":"새우깡노래연습장","tel":"031-406-1601","addr":"경기도 안산시 상록구 일동 577-2번지 2층","indutype":"레저업소 - 노 래 방","category":"leisure"}]},{"lat":"37.314948184","long":"126.86054936","imageIndex":13,"items":[{"name":"스카이노래연습장","tel":"031-408-7647","addr":"경기도 안산시 상록구 일동 568-11번지 201호","indutype":"레저업소 - 노 래 방","category":"leisure"}]},{"lat":"37.308672994","long":"126.87265343","imageIndex":13,"items":[{"name":"스타노래연습장","tel":"031-406-0606","addr":"경기도 안산시 상록구 일동 611-6번지 지하층","indutype":"레저업소 - 노 래 방","category":"leisure"}]},{"lat":"37.315169941","long":"126.86520801","imageIndex":13,"items":[{"name":"스토리PC방","tel":"","addr":"경기도 안산시 상록구 일동 585-1번지 2층","indutype":"레저업소 - 기타레져업소","category":"leisure"}]},{"lat":"37.307256819","long":"126.87123461","imageIndex":13,"items":[{"name":"스토리PC방","tel":"070-3285-3192","addr":"경기도 안산시 상록구 일동 626-11번지 1층","indutype":"레저업소 - 기타레져업소","category":"leisure"}]},{"lat":"37.308591778","long":"126.87254077","imageIndex":13,"items":[{"name":"스펀지피시방","tel":"","addr":"경기도 안산시 상록구 일동 611-7번지 1층","indutype":"레저업소 - 기타레져업소","category":"leisure"}]},{"lat":"37.308785601","long":"126.86860368","imageIndex":13,"items":[{"name":"신원당구클럽","tel":"070-7210-5610","addr":"경기도 안산시 상록구 일동 621-17번지 4층","indutype":"레저업소 - 당 구 장","category":"leisure"}]},{"lat":"37.314645701","long":"126.86379884","imageIndex":13,"items":[{"name":"알까기당구장","tel":"070-8632-7365","addr":"경기도 안산시 상록구 일동 577-4번지 2층","indutype":"레저업소 - 당 구 장","category":"leisure"}]},{"lat":"37.31384281","long":"126.86296554","imageIndex":13,"items":[{"name":"에이스당구장","tel":"031-493-0052","addr":"경기도 안산시 상록구 일동 580-4번지 2층","indutype":"레저업소 - 당 구 장","category":"leisure"}]},{"lat":"37.315761285","long":"126.86237537","imageIndex":13,"items":[{"name":"와우노래연습장","tel":"","addr":"경기도 안산시 상록구 일동 565-5번지 지층","indutype":"레저업소 - 노 래 방","category":"leisure"}]},{"lat":"37.311505318","long":"126.86740311","imageIndex":13,"items":[{"name":"일동노래연습장","tel":"031-406-6062","addr":"경기도 안산시 상록구 일동 90번지 지하1층","indutype":"레저업소 - 노 래 방","category":"leisure"},{"name":"일등노래연습장","tel":"031-406-6062","addr":"경기도 안산시 상록구 일동 90번지 지하1층","indutype":"레저업소 - 노 래 방","category":"leisure"}]},{"lat":"37.312840382","long":"126.86876568","imageIndex":13,"items":[{"name":"점핑다이어트 점핑하이(안산일동점)","tel":"","addr":"경기도 안산시 상록구 일동 88-2번지 지층","indutype":"레저업소 - 헬스클럽","category":"leisure"},{"name":"최현정 테니스 연구소","tel":"031-489-7801","addr":"경기도 안산시 상록구 일동 88-2번지 지층","indutype":"레저업소 - 테니스장","category":"leisure"}]},{"lat":"37.309370442","long":"126.86788071","imageIndex":13,"items":[{"name":"준스크린","tel":"031-406-1877","addr":"경기도 안산시 상록구 일동 632번지 3층","indutype":"레저업소 - 스크린골프","category":"leisure"},{"name":"준스크린골프","tel":"031-406-1877","addr":"경기도 안산시 상록구 일동 632번지 3층","indutype":"레저업소 - 스크린골프","category":"leisure"},{"name":"키키카페안산점","tel":"031-501-7722","addr":"경기도 안산시 상록구 일동 632번지 2층","indutype":"레저업소 - 기타레져업소","category":"leisure"}]},{"lat":"37.314202801","long":"126.87043283","imageIndex":13,"items":[{"name":"중앙노래연습장","tel":"031-415-1255","addr":"경기도 안산시 상록구 일동 84-1번지 B1층","indutype":"레저업소 - 노 래 방","category":"leisure"}]},{"lat":"37.303619873","long":"126.86609758","imageIndex":13,"items":[{"name":"카라노래연습장","tel":"031-418-7554","addr":"경기도 안산시 상록구 일동 667-9번지 지층","indutype":"레저업소 - 노 래 방","category":"leisure"}]},{"lat":"37.308230784","long":"126.87201123","imageIndex":13,"items":[{"name":"캠퍼스당구클럽","tel":"031-983-5413","addr":"경기도 안산시 상록구 일동 616-1번지 2층","indutype":"레저업소 - 당 구 장","category":"leisure"}]},{"lat":"37.309642234","long":"126.86918873","imageIndex":13,"items":[{"name":"큐당구클럽","tel":"02-0000-0000","addr":"경기도 안산시 상록구 일동 632-15번지 금신빌딩 301동 303호","indutype":"레저업소 - 당 구 장","category":"leisure"}]},{"lat":"37.308817405","long":"126.87287878","imageIndex":13,"items":[{"name":"팡팡노래연습장","tel":"031-406-8090","addr":"경기도 안산시 상록구 일동 610-5번지","indutype":"레저업소 - 노 래 방","category":"leisure"}]}]