[{"lat":"37.020992779","long":"127.05690026","imageIndex":4,"items":[{"name":"\"태백닭갈비앤닭발  횡성한우국밥\"","tel":"031-692-2737","addr":"경기도 평택시 지제동 896-2번지","indutype":"음식점 - 한식","category":"restaurant"},{"name":"삼복순대국.보쌈","tel":"031-655-0709","addr":"경기도 평택시 지제동 896-2번지 103, 104호","indutype":"일반휴게음식 - 일반한식","category":"restaurant"},{"name":"어느 배관사의 밥스토리","tel":"031-652-7877","addr":"경기도 평택시 지제동 896-2번지 109호","indutype":"일반휴게음식 - 일반한식","category":"restaurant"},{"name":"자매네면사랑","tel":"031-000-0000","addr":"경기도 평택시 지제동 896-2번지 108호","indutype":"일반휴게음식 - 일반한식","category":"restaurant"},{"name":"천하제일 돈찌","tel":"","addr":"경기도 평택시 지제동 896-2번지 105호","indutype":"일반휴게음식 - 일반한식","category":"restaurant"},{"name":"커피베리","tel":"031-111-1111","addr":"경기도 평택시 지제동 896-2번지 1층 107호","indutype":"일반휴게음식 - 서양음식","category":"restaurant"}]},{"lat":"37.021849308","long":"127.05575463","imageIndex":4,"items":[{"name":"79네수육국밥과철판지제점","tel":"031-655-7998","addr":"경기도 평택시 지제동 905-2번지 1층","indutype":"일반휴게음식 - 일반한식","category":"restaurant"}]},{"lat":"37.022209121","long":"127.05711463","imageIndex":4,"items":[{"name":"개성식당","tel":"031-618-8540","addr":"경기도 평택시 지제동 산40-4번지 1층","indutype":"일반휴게음식 - 일반한식","category":"restaurant"}]},{"lat":"37.023958146","long":"127.05498068","imageIndex":4,"items":[{"name":"그날","tel":"031-8043-0529","addr":"경기도 평택시 지제동 302-6번지","indutype":"일반휴게음식 - 서양음식","category":"restaurant"},{"name":"오뚜기한식뷔페","tel":"","addr":"경기도 평택시 지제동 302-6번지 103,104,105,106호","indutype":"일반휴게음식 - 일반한식","category":"restaurant"}]},{"lat":"37.021992701","long":"127.05747408","imageIndex":4,"items":[{"name":"김밥매니아(평택지제점)","tel":"031-691-6136","addr":"경기도 평택시 지제동 902-1번지 A동 101호","indutype":"일반휴게음식 - 일반한식","category":"restaurant"},{"name":"김밥매니아(평택지제점)","tel":"031-653-1520","addr":"경기도 평택시 지제동 902-1번지 A동 101호","indutype":"음식점 - 한식","category":"restaurant"},{"name":"전라도한식뷔페","tel":"031-651-6664","addr":"경기도 평택시 지제동 902-1번지","indutype":"일반휴게음식 - 일반한식","category":"restaurant"},{"name":"청춘뷔페함바식당/주식회사 청춘뷔페","tel":"031-653-7891","addr":"경기도 평택시 지제동 902-1번지 C동 201호","indutype":"일반휴게음식 - 일반한식","category":"restaurant"}]},{"lat":"37.02154209","long":"127.05764232","imageIndex":4,"items":[{"name":"김밥천국 지제점","tel":"031-653-2030","addr":"경기도 평택시 지제동 890번지 1층","indutype":"일반휴게음식 - 일반한식","category":"restaurant"},{"name":"플리즈 (투)","tel":"031-655-9119","addr":"경기도 평택시 지제동 890번지 1층 101호","indutype":"일반휴게음식 - 서양음식","category":"restaurant"}]},{"lat":"37.023381131","long":"127.05573322","imageIndex":4,"items":[{"name":"꺼먼돼지","tel":"031-657-1998","addr":"경기도 평택시 지제동 302-12번지 2층","indutype":"일반휴게음식 - 일반한식","category":"restaurant"},{"name":"삼시세끼","tel":"031-658-0082","addr":"경기도 평택시 지제동 302-12번지 1층","indutype":"일반휴게음식 - 일반한식","category":"restaurant"}]},{"lat":"37.020966037","long":"127.0562597","imageIndex":4,"items":[{"name":"누나네","tel":"070-4649-1101","addr":"경기도 평택시 지제동 899번지 1동","indutype":"일반휴게음식 - 일반한식","category":"restaurant"}]},{"lat":"37.024020412","long":"127.05679002","imageIndex":4,"items":[{"name":"대박삼계탕&닭계장","tel":"031-656-0327","addr":"경기도 평택시 지제동 302-17번지 나동","indutype":"일반휴게음식 - 일반한식","category":"restaurant"}]},{"lat":"37.020406292","long":"127.05861915","imageIndex":4,"items":[{"name":"대찬짬뽕","tel":"031-653-0709","addr":"경기도 평택시 지제동 923-3번지 1층","indutype":"일반휴게음식 - 중국식","category":"restaurant"}]},{"lat":"37.021244723","long":"127.05767582","imageIndex":4,"items":[{"name":"더참맛수육국밥지제점","tel":"","addr":"경기도 평택시 지제동 891-1번지 B동 102호","indutype":"음식점 - 한식","category":"restaurant"},{"name":"더참맛수육국밥지제점","tel":"031-653-1520","addr":"경기도 평택시 지제동 891-1번지 B동 102호","indutype":"일반휴게음식 - 일반한식","category":"restaurant"},{"name":"진수성찬한식기사부페","tel":"031-655-9533","addr":"경기도 평택시 지제동 891-1번지 2동 2층","indutype":"일반휴게음식 - 일반한식","category":"restaurant"}]},{"lat":"37.021099839","long":"127.07575674","imageIndex":4,"items":[{"name":"두끼 이마트평택점","tel":"031-651-2771","addr":"경기도 평택시 지제동 50번지 2층","indutype":"일반휴게음식 - 스넥","category":"restaurant"},{"name":"탭플레이 이마트평택점","tel":"031-371-1234","addr":"경기도 평택시 지제동 50번지 이마트점 내","indutype":"일반휴게음식 - 서양음식","category":"restaurant"},{"name":"파파이스평택이마트점","tel":"031-653-8814","addr":"경기도 평택시 지제동 50번지 1층","indutype":"일반휴게음식 - 서양음식","category":"restaurant"}]},{"lat":"37.022597864","long":"127.05422683","imageIndex":4,"items":[{"name":"보름식당","tel":"031-653-3445","addr":"경기도 평택시 지제동 905-11번지","indutype":"일반휴게음식 - 일반한식","category":"restaurant"},{"name":"한상","tel":"031-683-8360","addr":"경기도 평택시 지제동 905-11번지 지하 B06,B07,B08호","indutype":"일반휴게음식 - 일반한식","category":"restaurant"}]},{"lat":"37.024155725","long":"127.05645298","imageIndex":4,"items":[{"name":"삼성식당","tel":"031-656-6662","addr":"경기도 평택시 지제동 302-31번지","indutype":"음식점 - 한식","category":"restaurant"}]},{"lat":"37.021714073","long":"127.0559231","imageIndex":4,"items":[{"name":"상우네밥집","tel":"031-658-8938","addr":"경기도 평택시 지제동 906번지 1층","indutype":"일반휴게음식 - 일반한식","category":"restaurant"}]},{"lat":"37.020659477","long":"127.05669775","imageIndex":4,"items":[{"name":"서현케터링","tel":"","addr":"경기도 평택시 지제동 897번지","indutype":"일반휴게음식 - 일반한식","category":"restaurant"}]},{"lat":"37.021657806","long":"127.06064282","imageIndex":4,"items":[{"name":"선이네함바식당","tel":"031-657-5005","addr":"경기도 평택시 지제동 372-1번지","indutype":"음식점 - 한식","category":"restaurant"},{"name":"선이네함바식당","tel":"031-656-1165","addr":"경기도 평택시 지제동 372-1번지 A동","indutype":"일반휴게음식 - 일반한식","category":"restaurant"}]},{"lat":"37.020187054","long":"127.06464218","imageIndex":4,"items":[{"name":"세명식당","tel":"031-654-5666","addr":"경기도 평택시 지제동 521-3번지","indutype":"일반휴게음식 - 일반한식","category":"restaurant"}]},{"lat":"37.020489066","long":"127.05492213","imageIndex":4,"items":[{"name":"세자매뷔페","tel":"031-666-9999","addr":"경기도 평택시 지제동 908번지 1층","indutype":"일반휴게음식 - 일반한식","category":"restaurant"}]},{"lat":"37.02154281","long":"127.05605783","imageIndex":4,"items":[{"name":"소돈명가","tel":"031-656-8938","addr":"경기도 평택시 지제동 906-9번지 1층","indutype":"일반휴게음식 - 일반한식","category":"restaurant"}]},{"lat":"37.023966678","long":"127.05605952","imageIndex":4,"items":[{"name":"신세계한식뷔페","tel":"031-657-7517","addr":"경기도 평택시 지제동 302-32번지 C동 지하1층","indutype":"일반휴게음식 - 일반한식","category":"restaurant"}]},{"lat":"37.023714228","long":"127.05639648","imageIndex":4,"items":[{"name":"알리바바 평택지점","tel":"031-653-2952","addr":"경기도 평택시 지제동 302-16번지 A동 1층","indutype":"일반휴게음식 - 일반한식","category":"restaurant"}]},{"lat":"37.023550484","long":"127.05973399","imageIndex":4,"items":[{"name":"원재한식부페","tel":"031-657-9682","addr":"경기도 평택시 지제동 367-8번지 가동 1층","indutype":"일반휴게음식 - 일반한식","category":"restaurant"}]},{"lat":"37.02012739","long":"127.05769749","imageIndex":4,"items":[{"name":"원주추어탕","tel":"031-618-3508","addr":"경기도 평택시 지제동 922-2번지 1층","indutype":"일반휴게음식 - 일반한식","category":"restaurant"},{"name":"원주추어탕","tel":"031-656-6150","addr":"경기도 평택시 지제동 922-2번지 1층","indutype":"음식점 - 한식","category":"restaurant"},{"name":"이비가짬뽕 평택지제역점","tel":"031-618-0321","addr":"경기도 평택시 지제동 922-2번지 1층","indutype":"일반휴게음식 - 중국식","category":"restaurant"},{"name":"커피플리즈","tel":"061-279-9902","addr":"경기도 평택시 지제동 922-2번지 1층","indutype":"일반휴게음식 - 서양음식","category":"restaurant"},{"name":"커피플리즈","tel":"","addr":"경기도 평택시 지제동 922-2번지 1층","indutype":"음식점 - 카페","category":"restaurant"}]},{"lat":"37.023766366","long":"127.06050956","imageIndex":4,"items":[{"name":"웰빙한식부페소반","tel":"031-657-1213","addr":"경기도 평택시 지제동 367-7번지 2동 1층","indutype":"일반휴게음식 - 일반한식","category":"restaurant"}]},{"lat":"37.023523318","long":"127.06001491","imageIndex":4,"items":[{"name":"이셰프 한식뷔페","tel":"031-618-2666","addr":"경기도 평택시 지제동 367-8번지 다동 1층","indutype":"일반휴게음식 - 일반한식","category":"restaurant"},{"name":"휴게소커피숍","tel":"031-111-1111","addr":"경기도 평택시 지제동 367-8번지 다동 1층","indutype":"일반휴게음식 - 서양음식","category":"restaurant"}]},{"lat":"37.023795771","long":"127.05539637","imageIndex":4,"items":[{"name":"정다운식당","tel":"061-658-6280","addr":"경기도 평택시 지제동 302-5번지 1층 101호","indutype":"일반휴게음식 - 일반한식","category":"restaurant"},{"name":"정다운식당","tel":"031-654-2949","addr":"경기도 평택시 지제동 302-5번지 1층","indutype":"음식점 - 한식","category":"restaurant"}]},{"lat":"37.021133942","long":"127.06314837","imageIndex":4,"items":[{"name":"지제한식부페","tel":"031-658-0031","addr":"경기도 평택시 지제동 391-1번지","indutype":"음식점 - 한식","category":"restaurant"},{"name":"지제한식뷔페정육식당","tel":"031-691-9279","addr":"경기도 평택시 지제동 391-1번지","indutype":"일반휴게음식 - 일반한식","category":"restaurant"}]},{"lat":"37.020236559","long":"127.05539392","imageIndex":4,"items":[{"name":"평택한우마을1","tel":"031-655-5392","addr":"경기도 평택시 지제동 913번지","indutype":"일반휴게음식 - 일반한식","category":"restaurant"}]},{"lat":"37.024772064","long":"127.06730929","imageIndex":4,"items":[{"name":"함흥냉면","tel":"031-692-2611","addr":"경기도 평택시 지제동 253번지 1층","indutype":"일반휴게음식 - 일반한식","category":"restaurant"}]},{"lat":"37.016737902","long":"127.06080765","imageIndex":4,"items":[{"name":"행운정","tel":"031-655-1137","addr":"경기도 평택시 지제동 783번지","indutype":"일반휴게음식 - 일반한식","category":"restaurant"}]}]