[{"lat":"37.595143319","long":"126.87858739","imageIndex":4,"items":[{"name":"고향식당","tel":"02-3158-0567","addr":"경기도 고양시 덕양구 덕은동 50-8번지","indutype":"일반휴게음식 - 일반한식","category":"restaurant"}]},{"lat":"37.583804244","long":"126.87414559","imageIndex":4,"items":[{"name":"국방대학교","tel":"02-300-2470","addr":"경기도 고양시 덕양구 덕은동 291번지","indutype":"일반휴게음식 - 서양음식","category":"restaurant"},{"name":"국방대학교(간부식당)","tel":"02-300-2471","addr":"경기도 고양시 덕양구 덕은동 291번지","indutype":"일반휴게음식 - 위탁급식업","category":"restaurant"}]},{"lat":"37.596116111","long":"126.87833666","imageIndex":4,"items":[{"name":"꼬닭","tel":"02-3159-7425","addr":"경기도 고양시 덕양구 덕은동 15-22번지","indutype":"일반휴게음식 - 스넥","category":"restaurant"}]},{"lat":"37.583612854","long":"126.85679017","imageIndex":4,"items":[{"name":"남도한식뷔페","tel":"02-3158-2445","addr":"경기도 고양시 덕양구 덕은동 537-17번지","indutype":"일반휴게음식 - 일반한식","category":"restaurant"}]},{"lat":"37.581449589","long":"126.86348517","imageIndex":4,"items":[{"name":"대동강","tel":"02-3158-2213","addr":"경기도 고양시 덕양구 덕은동 411-1번지","indutype":"일반휴게음식 - 중국식","category":"restaurant"}]},{"lat":"37.594890963","long":"126.87850855","imageIndex":4,"items":[{"name":"덕은식당","tel":"02-3158-4851","addr":"경기도 고양시 덕양구 덕은동 49-10번지","indutype":"일반휴게음식 - 일반한식","category":"restaurant"}]},{"lat":"37.581116974","long":"126.86411977","imageIndex":4,"items":[{"name":"덕은잔치국수","tel":"02-3158-4842","addr":"경기도 고양시 덕양구 덕은동 413-1번지","indutype":"일반휴게음식 - 일반한식","category":"restaurant"}]},{"lat":"37.587834148","long":"126.87648232","imageIndex":4,"items":[{"name":"물레방아메기전문점","tel":"02-3158-3422","addr":"경기도 고양시 덕양구 덕은동 209-3번지","indutype":"일반휴게음식 - 일반한식","category":"restaurant"}]},{"lat":"37.586554371","long":"126.87612218","imageIndex":4,"items":[{"name":"배밭식당","tel":"02-3158-2147","addr":"경기도 고양시 덕양구 덕은동 201-2번지","indutype":"일반휴게음식 - 일반한식","category":"restaurant"}]},{"lat":"37.587779018","long":"126.87548607","imageIndex":4,"items":[{"name":"봉우리한우정육식당","tel":"02-2637-6700","addr":"경기도 고양시 덕양구 덕은동 151-1번지","indutype":"일반휴게음식 - 일반한식","category":"restaurant"},{"name":"북극곰카페","tel":"02-3159-7233","addr":"경기도 고양시 덕양구 덕은동 151-1번지","indutype":"일반휴게음식 - 서양음식","category":"restaurant"}]},{"lat":"37.586724838","long":"126.8754539","imageIndex":4,"items":[{"name":"블러썸미디어","tel":"070-7770-8744","addr":"경기도 고양시 덕양구 덕은동 198번지","indutype":"일반휴게음식 - 일반한식","category":"restaurant"}]},{"lat":"37.588419455","long":"126.87617563","imageIndex":4,"items":[{"name":"시루","tel":"02-303-9916","addr":"경기도 고양시 덕양구 덕은동 209-20번지","indutype":"일반휴게음식 - 일반한식","category":"restaurant"}]},{"lat":"37.594027071","long":"126.87950641","imageIndex":4,"items":[{"name":"아리랑회관","tel":"02-3159-8788","addr":"경기도 고양시 덕양구 덕은동 59-4번지","indutype":"일반휴게음식 - 중국식","category":"restaurant"}]},{"lat":"37.588248233","long":"126.87614196","imageIndex":4,"items":[{"name":"엘에이부대찌개","tel":"","addr":"경기도 고양시 덕양구 덕은동 209-9번지","indutype":"일반휴게음식 - 일반한식","category":"restaurant"}]},{"lat":"37.595278263","long":"126.87839467","imageIndex":4,"items":[{"name":"치킨프라임","tel":"02-3158-5714","addr":"경기도 고양시 덕양구 덕은동 50-2번지","indutype":"일반휴게음식 - 주점","category":"restaurant"}]},{"lat":"37.587113001","long":"126.87614388","imageIndex":4,"items":[{"name":"카나에","tel":"070-8834-5650","addr":"경기도 고양시 덕양구 덕은동 206번지","indutype":"일반휴게음식 - 서양음식","category":"restaurant"}]},{"lat":"37.581701099","long":"126.8628394","imageIndex":4,"items":[{"name":"토담자연포크","tel":"02-3159-7859","addr":"경기도 고양시 덕양구 덕은동 409-3번지","indutype":"일반휴게음식 - 일반한식","category":"restaurant"}]},{"lat":"37.594476978","long":"126.87895084","imageIndex":4,"items":[{"name":"파로호식당","tel":"02-3158-0142","addr":"경기도 고양시 덕양구 덕은동","indutype":"일반휴게음식 - 일반한식","category":"restaurant"}]},{"lat":"37.586976989","long":"126.87534025","imageIndex":4,"items":[{"name":"퍼니피디주식회사","tel":"02-512-8596","addr":"경기도 고양시 덕양구 덕은동 158-2번지","indutype":"일반휴게음식 - 서양음식","category":"restaurant"}]},{"lat":"37.594611982","long":"126.87881474","imageIndex":4,"items":[{"name":"행복한하루","tel":"02-371-1405","addr":"경기도 고양시 덕양구 덕은동 53-5번지","indutype":"일반휴게음식 - 일반한식","category":"restaurant"}]}]