[{"lat":"37.622148531","long":"127.63167847","imageIndex":5,"items":[{"name":"가원별장","tel":"031-771-2027","addr":"경기도 양평군 단월면 명성리 613-3","indutype":"숙박업 - 여관/기타숙박업","category":"hotel"}]},{"lat":"37.623038558","long":"127.64706835","imageIndex":5,"items":[{"name":"글램터","tel":"","addr":"경기도 양평군 단월면 명성리 318번지","indutype":"숙박업 - 여관/기타숙박업","category":"hotel"}]},{"lat":"37.618568557","long":"127.63227128","imageIndex":5,"items":[{"name":"노르웨이숲","tel":"070-8840-6488","addr":"경기도 양평군 단월면 명성리 625-1번지","indutype":"숙박업 - 여관/기타숙박업","category":"hotel"}]},{"lat":"37.604098383","long":"127.67962102","imageIndex":5,"items":[{"name":"다지안 포레스트힐","tel":"","addr":"경기도 양평군 단월면 명성리 78-9번지","indutype":"숙박업 - 여관/기타숙박업","category":"hotel"}]},{"lat":"37.612258303","long":"127.63293161","imageIndex":5,"items":[{"name":"도로시밸리","tel":"031-772-0083","addr":"경기도 양평군 단월면 명성리 673번지","indutype":"숙박업 - 여관/기타숙박업","category":"hotel"}]},{"lat":"37.623814263","long":"127.66159669","imageIndex":5,"items":[{"name":"라테라스","tel":"031-774-0160","addr":"경기도 양평군 단월면 명성리 161-1번지","indutype":"숙박업 - 여관/기타숙박업","category":"hotel"}]},{"lat":"37.617647246","long":"127.63101761","imageIndex":5,"items":[{"name":"레몬그라스","tel":"031-000-0000","addr":"경기도 양평군 단월면 명성리 637번지","indutype":"숙박업 - 여관/기타숙박업","category":"hotel"}]},{"lat":"37.623682855","long":"127.66092722","imageIndex":5,"items":[{"name":"로즈데일","tel":"031-773-2221","addr":"경기도 양평군 단월면 명성리 162번지","indutype":"숙박업 - 여관/기타숙박업","category":"hotel"}]},{"lat":"37.600070458","long":"127.67815775","imageIndex":5,"items":[{"name":"메이폴하우스","tel":"031-775-3937","addr":"경기도 양평군 단월면 명성리 88-3번지","indutype":"숙박업 - 여관/기타숙박업","category":"hotel"}]},{"lat":"37.615370534","long":"127.66992613","imageIndex":5,"items":[{"name":"무예원","tel":"031-771-1012","addr":"경기도 양평군 단월면 명성리 144-2번지","indutype":"숙박업 - 여관/기타숙박업","category":"hotel"}]},{"lat":"37.623566015","long":"127.6478205","imageIndex":5,"items":[{"name":"비발디 씨에스타1","tel":"031-771-3355","addr":"경기도 양평군 단월면 명성리 315번지","indutype":"숙박업 - 여관/기타숙박업","category":"hotel"}]},{"lat":"37.607018157","long":"127.67001009","imageIndex":5,"items":[{"name":"산고은펜션","tel":"031-772-0029","addr":"경기도 양평군 단월면 명성리 94번지","indutype":"숙박업 - 여관/기타숙박업","category":"hotel"}]},{"lat":"37.618821994","long":"127.66176785","imageIndex":5,"items":[{"name":"산골짜기 하얀집","tel":"031-774-3426","addr":"경기도 양평군 단월면 명성리 184-15번지","indutype":"숙박업 - 여관/기타숙박업","category":"hotel"}]},{"lat":"37.625652194","long":"127.63693002","imageIndex":5,"items":[{"name":"생각이나","tel":"031-771-8752","addr":"경기도 양평군 단월면 명성리 534-2번지 외3필지","indutype":"숙박업 - 여관/기타숙박업","category":"hotel"}]},{"lat":"37.600433868","long":"127.67920282","imageIndex":5,"items":[{"name":"숲","tel":"031-771-7878","addr":"경기도 양평군 단월면 명성리 85-9번지","indutype":"숙박업 - 여관/기타숙박업","category":"hotel"}]},{"lat":"37.604126968","long":"127.6793495","imageIndex":5,"items":[{"name":"카리포스 펜션","tel":"031-771-0528","addr":"경기도 양평군 단월면 명성리 78-21번지","indutype":"숙박업 - 여관/기타숙박업","category":"hotel"}]},{"lat":"37.61853724","long":"127.66113105","imageIndex":4,"items":[{"name":"대명캐슬","tel":"031-775-0588","addr":"경기도 양평군 단월면 명성리 184-8번지","indutype":"일반휴게음식 - 일반한식","category":"restaurant"}]},{"lat":"37.623814263","long":"127.66159669","imageIndex":7,"items":[{"name":"라테라스 까페","tel":"031-774-0160","addr":"경기도 양평군 단월면 명성리 161-1번지 지하1층","indutype":"음료식품 - 기타음료식품","category":"food"}]},{"lat":"37.600070458","long":"127.67815775","imageIndex":7,"items":[{"name":"맑은별빛 영농조합법인","tel":"031-775-5071","addr":"경기도 양평군 단월면 명성리 88-3","indutype":"음료식품 - 농·축·수산품","category":"food"}]},{"lat":"37.623702295","long":"127.66228667","imageIndex":7,"items":[{"name":"배려원 매점","tel":"031-771-5908","addr":"경기도 양평군 단월면 명성리 160","indutype":"음료식품 - 기타음료식품","category":"food"}]},{"lat":"37.605434571","long":"127.68070896","imageIndex":17,"items":[{"name":"박광용편의점","tel":"","addr":"경기도 양평군 단월면 명성리 54-6번지 1층","indutype":"유통업 영리 - 편 의 점","category":"other"}]}]