[{"lat":"37.515533902","long":"126.76276917","imageIndex":0,"items":[{"name":"그린손세차장","tel":"032-323-5530","addr":"경기도 부천시 약대동 192-1번지","indutype":"자동차정비 유지 - 세차장","category":"car"},{"name":"제이케이모터스(J.K MOTORS)","tel":"032-328-0982","addr":"경기도 부천시 약대동 192-1번지","indutype":"자동차정비 유지 - 자동차정비","category":"car"}]},{"lat":"37.512755793","long":"126.77024313","imageIndex":0,"items":[{"name":"대우중동바로정비코너","tel":"032-678-8585","addr":"경기도 부천시 약대동 135번지","indutype":"자동차정비 유지 - 자동차정비","category":"car"}]},{"lat":"37.513592882","long":"126.76982203","imageIndex":0,"items":[{"name":"두리카프라자","tel":"032-675-9029","addr":"경기도 부천시 약대동 106번지","indutype":"자동차정비 유지 - 자동차정비","category":"car"}]},{"lat":"37.511621576","long":"126.77076693","imageIndex":0,"items":[{"name":"몽땅종합상사","tel":"032-611-4747","addr":"경기도 부천시 약대동 147-2번지","indutype":"자동차정비 유지 - 자동차부품","category":"car"}]},{"lat":"37.516734869","long":"126.76407743","imageIndex":0,"items":[{"name":"부천테크노파크4단지입주자대표회의","tel":"032-234-3041","addr":"경기도 부천시 약대동 193번지 부천테크노파크4단지","indutype":"자동차정비 유지 - 주차장","category":"car"}]},{"lat":"37.516866413","long":"126.76230113","imageIndex":0,"items":[{"name":"비티피2(BTP2)","tel":"032-621-1180","addr":"경기도 부천시 약대동 192번지 부천테크노파크 204동 403호","indutype":"자동차정비 유지 - 주차장","category":"car"},{"name":"비티피2_부천테크노파크2단지","tel":"032-621-1181","addr":"경기도 부천시 약대동 192번지 부천테크노파크2단지 204동 4층 403호","indutype":"자동차정비 유지 - 주차장","category":"car"},{"name":"테크노파크정비","tel":"032-216-5442","addr":"경기도 부천시 약대동 192번지 부천테크노파크2단지 200동 104호","indutype":"자동차정비 유지 - 자동차정비","category":"car"}]},{"lat":"37.512260029","long":"126.77013156","imageIndex":0,"items":[{"name":"상승카","tel":"032-676-0788","addr":"경기도 부천시 약대동 145-13번지","indutype":"자동차정비 유지 - 자동차정비","category":"car"}]},{"lat":"37.511422158","long":"126.77015678","imageIndex":0,"items":[{"name":"수향빌딩","tel":"","addr":"경기도 부천시 약대동 144-3번지 수향빌딩","indutype":"자동차정비 유지 - 주차장","category":"car"}]},{"lat":"37.515261233","long":"126.761605","imageIndex":0,"items":[{"name":"스피드메이트중동대로점","tel":"032-322-8393","addr":"경기도 부천시 약대동 192-3번지","indutype":"자동차정비 유지 - 자동차정비","category":"car"}]},{"lat":"37.514457737","long":"126.7697741","imageIndex":0,"items":[{"name":"신부천카인테리어","tel":"032-677-5059","addr":"경기도 부천시 약대동 89번지","indutype":"자동차정비 유지 - 자동차정비","category":"car"}]},{"lat":"37.514841755","long":"126.76805363","imageIndex":0,"items":[{"name":"알피엠","tel":"032-674-5774","addr":"경기도 부천시 약대동 82-5번지","indutype":"자동차정비 유지 - 자동차부품","category":"car"}]},{"lat":"37.511590708","long":"126.77341369","imageIndex":0,"items":[{"name":"애니용환","tel":"032-679-6709","addr":"경기도 부천시 약대동 169-6번지 현대아파트","indutype":"자동차정비 유지 - 견인서비스","category":"car"}]},{"lat":"37.513007838","long":"126.77474402","imageIndex":0,"items":[{"name":"약대용품","tel":"032-661-1616","addr":"경기도 부천시 약대동 169-130번지 1층 일부","indutype":"자동차정비 유지 - 자동차부품","category":"car"}]},{"lat":"37.514810102","long":"126.77027069","imageIndex":0,"items":[{"name":"약대자동차공업사","tel":"032-681-3967","addr":"경기도 부천시 약대동 92-3번지","indutype":"자동차정비 유지 - 자동차정비","category":"car"}]},{"lat":"37.512457375","long":"126.76968983","imageIndex":0,"items":[{"name":"약대점현대자동차","tel":"032-675-2254","addr":"경기도 부천시 약대동 138-2번지","indutype":"자동차정비 유지 - 자동차정비","category":"car"}]},{"lat":"37.509535518","long":"126.77293364","imageIndex":0,"items":[{"name":"우리윤활유","tel":"032-505-4122","addr":"경기도 부천시 약대동 209번지 부천위브트레지움2단지아파트","indutype":"자동차정비 유지 - 윤활유 전문 판매","category":"car"}]},{"lat":"37.512952489","long":"126.77407686","imageIndex":0,"items":[{"name":"전구교체서비스","tel":"070-4200-3222","addr":"경기도 부천시 약대동 170-12번지","indutype":"자동차정비 유지 - 자동차정비","category":"car"}]},{"lat":"37.508927165","long":"126.7751636","imageIndex":0,"items":[{"name":"타이어테크 약대점","tel":"032-679-7770","addr":"경기도 부천시 약대동 153-24번지","indutype":"자동차정비 유지 - 자동차시트·타이어","category":"car"}]},{"lat":"37.515176877","long":"126.76443304","imageIndex":0,"items":[{"name":"현대카써비스 약대","tel":"032-323-8913","addr":"경기도 부천시 약대동 182-34번지 1층","indutype":"자동차정비 유지 - 자동차정비","category":"car"}]}]