[{"lat":"37.313713694","long":"127.65025169","imageIndex":17,"items":[{"name":"(주)생활미인","tel":"031-886-1975","addr":"경기도 여주시 오학동 140-7번지","indutype":"문화.취미 - 민예·공예품","category":"other"}]},{"lat":"37.308633771","long":"127.64330485","imageIndex":17,"items":[{"name":"21세기조명전기","tel":"031-881-2121","addr":"경기도 여주시 오학동 286번지","indutype":"전기제품 - 기타전기제품","category":"other"},{"name":"닥터크린세탁소","tel":"031-885-3488","addr":"경기도 여주시 오학동 286번지","indutype":"수리서비스 - 세탁소","category":"other"}]},{"lat":"37.310463281","long":"127.64321884","imageIndex":17,"items":[{"name":"GS25여주승리점","tel":"","addr":"경기도 여주시 오학동 279-41번지","indutype":"유통업 영리 - 편 의 점","category":"other"}]},{"lat":"37.303552531","long":"127.64488595","imageIndex":17,"items":[{"name":"GS25여주오학점","tel":"","addr":"경기도 여주시 오학동 361번지 여주신도브래뉴 101호","indutype":"유통업 영리 - 편 의 점","category":"other"}]},{"lat":"37.306885495","long":"127.64502708","imageIndex":17,"items":[{"name":"K 월드세라믹","tel":"070-8845-0927","addr":"경기도 여주시 오학동 322-2번지 2층","indutype":"문화.취미 - 민예·공예품","category":"other"},{"name":"거성요업전시장","tel":"031-885-1308","addr":"경기도 여주시 오학동 322-2번지","indutype":"건축자재 - 건축용 요업제품","category":"other"}]},{"lat":"37.301554403","long":"127.64449677","imageIndex":17,"items":[{"name":"LKmade","tel":"031-885-5441","addr":"경기도 여주시 오학동 376번지 376호","indutype":"문화.취미 - 민예·공예품","category":"other"},{"name":"두광도예","tel":"031-885-2659","addr":"경기도 여주시 오학동 376번지 102호","indutype":"문화.취미 - 민예·공예품","category":"other"}]},{"lat":"37.30985481","long":"127.64410481","imageIndex":17,"items":[{"name":"PIXEL","tel":"031-885-3366","addr":"경기도 여주시 오학동 256-4번지","indutype":"서적문구 - 출판 및 인쇄물","category":"other"},{"name":"대림종합설비","tel":"031-882-7333","addr":"경기도 여주시 오학동 256-4번지","indutype":"용역 서비스 - 기타용역서비스","category":"other"}]},{"lat":"37.306384101","long":"127.64277819","imageIndex":17,"items":[{"name":"PORSL IN","tel":"031-885-8823","addr":"경기도 여주시 오학동 292-11번지 1층","indutype":"주방용구 - 주방용식기","category":"other"}]},{"lat":"37.308104459","long":"127.642883","imageIndex":17,"items":[{"name":"She ri (쉬리)","tel":"031-1111-1111","addr":"경기도 여주시 오학동 285-11번지","indutype":"의류 - 정장","category":"other"}]},{"lat":"37.301411475","long":"127.64758595","imageIndex":17,"items":[{"name":"haru hana (하루하나)","tel":"031-886-0704","addr":"경기도 여주시 오학동 404-12번지","indutype":"문화.취미 - 화원","category":"other"},{"name":"다이소 여주오학점","tel":"031-885-0262","addr":"경기도 여주시 오학동 404-12번지","indutype":"신변잡화 - 기타잡화","category":"other"}]},{"lat":"37.314628515","long":"127.64772136","imageIndex":17,"items":[{"name":"가야","tel":"031-886-5317","addr":"경기도 여주시 오학동 124-2번지","indutype":"주방용구 - 주방용식기","category":"other"}]},{"lat":"37.32012874","long":"127.65027286","imageIndex":17,"items":[{"name":"경진요업","tel":"031-885-0953","addr":"경기도 여주시 오학동 62-11번지","indutype":"문화.취미 - 골동품점","category":"other"},{"name":"현진도예","tel":"031-886-0897","addr":"경기도 여주시 오학동 62-11번지","indutype":"문화.취미 - 민예·공예품","category":"other"}]},{"lat":"37.319886097","long":"127.65015797","imageIndex":17,"items":[{"name":"고센화분","tel":"031-886-1532","addr":"경기도 여주시 오학동 62-12번지","indutype":"문화.취미 - 민예·공예품","category":"other"}]},{"lat":"37.311994337","long":"127.64500285","imageIndex":17,"items":[{"name":"골드그린세탁","tel":"031-885-8853","addr":"경기도 여주시 오학동 272-4번지","indutype":"수리서비스 - 세탁소","category":"other"}]},{"lat":"37.310522584","long":"127.64224925","imageIndex":17,"items":[{"name":"공간(타이앤타이)","tel":"031-881-3493","addr":"경기도 여주시 오학동 280번지","indutype":"가구 - 기타가구","category":"other"}]},{"lat":"37.309272136","long":"127.64521658","imageIndex":17,"items":[{"name":"금강건재상사","tel":"031-884-4105","addr":"경기도 여주시 오학동 300-11번지","indutype":"건축자재 - 목재·석재·철물","category":"other"}]},{"lat":"37.311856682","long":"127.64546417","imageIndex":17,"items":[{"name":"꽃과나무","tel":"031-883-1944","addr":"경기도 여주시 오학동 270번지","indutype":"문화.취미 - 화원","category":"other"}]},{"lat":"37.31194163","long":"127.64641245","imageIndex":17,"items":[{"name":"남양문구","tel":"031-885-2619","addr":"경기도 여주시 오학동 237-1번지","indutype":"서적문구 - 문구용품","category":"other"}]},{"lat":"37.312190205","long":"127.64377495","imageIndex":17,"items":[{"name":"남혁도예","tel":"031-886-5655","addr":"경기도 여주시 오학동 100-35번지","indutype":"문화.취미 - 민예·공예품","category":"other"}]},{"lat":"37.306129237","long":"127.64657722","imageIndex":17,"items":[{"name":"다보도예","tel":"031-886-3589","addr":"경기도 여주시 오학동 310번지","indutype":"문화.취미 - 민예·공예품","category":"other"}]},{"lat":"37.301718364","long":"127.64582906","imageIndex":17,"items":[{"name":"대광기계공구","tel":"031-885-0985","addr":"경기도 여주시 오학동 358-2번지 105호","indutype":"기타 - 기계공구","category":"other"},{"name":"러블리 펫","tel":"031-883-8525","addr":"경기도 여주시 오학동 358-2번지 1동 1층","indutype":"문화.취미 - 애완동물","category":"other"}]},{"lat":"37.311633768","long":"127.64669183","imageIndex":17,"items":[{"name":"대명제형","tel":"031-885-8812","addr":"경기도 여주시 오학동 239-3번지","indutype":"기타 - 기타 전문점","category":"other"},{"name":"삼미물산","tel":"031-885-8667","addr":"경기도 여주시 오학동 239-3번지","indutype":"문화.취미 - 민예·공예품","category":"other"},{"name":"삼영산업개발","tel":"031-881-0957","addr":"경기도 여주시 오학동 239-3번지","indutype":"건축자재 - 보일러·펌프·샷시","category":"other"},{"name":"예랑석고아트","tel":"031-886-7849","addr":"경기도 여주시 오학동 239-3번지","indutype":"문화.취미 - 민예·공예품","category":"other"}]},{"lat":"37.3146285151","long":"127.6477213596","imageIndex":17,"items":[{"name":"대성가마공업","tel":"031-885-3576","addr":"경기도 여주시 오학동 124-2번지","indutype":"기타 - 기계공구","category":"other"}]},{"lat":"37.3034690513","long":"127.6419977876","imageIndex":17,"items":[{"name":"대원도재상사","tel":"031-885-7005","addr":"경기도 여주시 오학동 292-50번지","indutype":"건축자재 - 기타건축자재","category":"other"}]},{"lat":"37.307075187","long":"127.64493846","imageIndex":17,"items":[{"name":"더나은갤러리","tel":"0231-885-0133","addr":"경기도 여주시 오학동 321-8번지","indutype":"문화.취미 - 화랑","category":"other"},{"name":"창덕도자유통센타","tel":"031-881-2255","addr":"경기도 여주시 오학동 321-8번지","indutype":"주방용구 - 주방용식기","category":"other"}]},{"lat":"37.3056081489","long":"127.6463020763","imageIndex":17,"items":[{"name":"덕산방","tel":"031-885-1747","addr":"경기도 여주시 오학동 315-4번지","indutype":"문화.취미 - 민예·공예품","category":"other"}]},{"lat":"37.311244271","long":"127.64541384","imageIndex":17,"items":[{"name":"도화","tel":"031-883-3204","addr":"경기도 여주시 오학동 268-3번지","indutype":"주방용구 - 주방용식기","category":"other"},{"name":"바이더웨이여주오학점","tel":"","addr":"경기도 여주시 오학동 268-3번지","indutype":"유통업 영리 - 편 의 점","category":"other"},{"name":"세븐일레븐여주오학점","tel":"","addr":"경기도 여주시 오학동 268-3번지","indutype":"유통업 영리 - 편 의 점","category":"other"}]},{"lat":"37.307300677","long":"127.64655337","imageIndex":17,"items":[{"name":"동방UK","tel":"070-4255-0905","addr":"경기도 여주시 오학동 303-40번지","indutype":"농업 - 비료,사료,종자","category":"other"}]},{"lat":"37.305745146","long":"127.64263742","imageIndex":17,"items":[{"name":"드라이119수선","tel":"031-885-9904","addr":"경기도 여주시 오학동 292-13번지","indutype":"수리서비스 - 세탁소","category":"other"},{"name":"옥봉도예","tel":"031-885-7573","addr":"경기도 여주시 오학동 292-13번지","indutype":"문화.취미 - 민예·공예품","category":"other"}]},{"lat":"37.309023545","long":"127.64619582","imageIndex":17,"items":[{"name":"떡이야기","tel":"031-881-2147","addr":"경기도 여주시 오학동 303-103번지","indutype":"문화.취미 - 문화취미기타","category":"other"}]},{"lat":"37.31230102","long":"127.64161004","imageIndex":17,"items":[{"name":"라온유통","tel":"","addr":"경기도 여주시 오학동 408번지 여주오드카운티 상가동 101호","indutype":"신변잡화 - 액세서리","category":"other"},{"name":"씨유여주오드카운티점","tel":"080-080-3663","addr":"경기도 여주시 오학동 408번지 여주오드카운티 상가동 1층 104호","indutype":"유통업 영리 - 편 의 점","category":"other"},{"name":"오띠모","tel":"","addr":"경기도 여주시 오학동 408번지 여주오드카운티","indutype":"의류 - 내의판매","category":"other"}]},{"lat":"37.303134639","long":"127.643856","imageIndex":17,"items":[{"name":"리나플라워","tel":"031-123-4567","addr":"경기도 여주시 오학동 359-6번지","indutype":"문화.취미 - 화원","category":"other"}]},{"lat":"37.30607383","long":"127.6468249","imageIndex":17,"items":[{"name":"뫼풀세라믹","tel":"031-886-7551","addr":"경기도 여주시 오학동 311번지","indutype":"문화.취미 - 민예·공예품","category":"other"}]},{"lat":"37.317522158","long":"127.64580571","imageIndex":17,"items":[{"name":"미가도예","tel":"031-886-6286","addr":"경기도 여주시 오학동 86-2번지","indutype":"주방용구 - 주방용식기","category":"other"}]},{"lat":"37.305574084","long":"127.64261341","imageIndex":17,"items":[{"name":"미니스톱 여주오학점","tel":"031-1577-9621","addr":"경기도 여주시 오학동 292-14번지 1층","indutype":"유통업 영리 - 편 의 점","category":"other"}]},{"lat":"37.313326588","long":"127.65019197","imageIndex":17,"items":[{"name":"범석도예","tel":"031-881-5805","addr":"경기도 여주시 오학동 141-1번지","indutype":"문화.취미 - 민예·공예품","category":"other"}]},{"lat":"37.309101236","long":"127.64350057","imageIndex":17,"items":[{"name":"베란다(VERANDA)","tel":"031-881-5038","addr":"경기도 여주시 오학동 255-8번지","indutype":"의류 - 정장","category":"other"},{"name":"윤경꽃화원","tel":"031-885-8237","addr":"경기도 여주시 오학동 255-8번지","indutype":"문화.취미 - 화원","category":"other"}]},{"lat":"37.315774119","long":"127.64912998","imageIndex":17,"items":[{"name":"보산","tel":"031-886-0625","addr":"경기도 여주시 오학동 127-13번지","indutype":"문화.취미 - 민예·공예품","category":"other"}]},{"lat":"37.313463583","long":"127.64985473","imageIndex":17,"items":[{"name":"부여도자기","tel":"031-881-4384","addr":"경기도 여주시 오학동 137번지","indutype":"문화.취미 - 민예·공예품","category":"other"}]},{"lat":"37.308768024","long":"127.64513333","imageIndex":17,"items":[{"name":"삼성종합주방","tel":"031-886-9121","addr":"경기도 여주시 오학동 300-13번지","indutype":"주방용구 - 주방용식기","category":"other"}]},{"lat":"37.3148582886","long":"127.6501938209","imageIndex":17,"items":[{"name":"서라벌도예","tel":"031-886-7717","addr":"경기도 여주시 오학동 132-1번지","indutype":"문화.취미 - 민예·공예품","category":"other"},{"name":"소우재도예","tel":"031-885-8788","addr":"경기도 여주시 오학동 132-1번지","indutype":"문화.취미 - 민예·공예품","category":"other"}]},{"lat":"37.318044829","long":"127.64744595","imageIndex":17,"items":[{"name":"성월요업","tel":"031-885-2179","addr":"경기도 여주시 오학동 85-10번지","indutype":"문화.취미 - 민예·공예품","category":"other"}]},{"lat":"37.302164098","long":"127.64338533","imageIndex":17,"items":[{"name":"세종꽃화원","tel":"031-881-0150","addr":"경기도 여주시 오학동 359-15번지","indutype":"문화.취미 - 화원","category":"other"}]},{"lat":"37.309184459","long":"127.64310648","imageIndex":17,"items":[{"name":"속옷패션","tel":"031-886-2225","addr":"경기도 여주시 오학동 284-5번지","indutype":"의류 - 내의판매","category":"other"},{"name":"씨유여주오학점","tel":"031-885-0798","addr":"경기도 여주시 오학동 284-5번지","indutype":"유통업 영리 - 편 의 점","category":"other"},{"name":"우성전사","tel":"031-885-0100","addr":"경기도 여주시 오학동 284-5번지","indutype":"기타 - 기타 전문점","category":"other"}]},{"lat":"37.314273834","long":"127.64997448","imageIndex":17,"items":[{"name":"송전도예공방","tel":"031-886-2288","addr":"경기도 여주시 오학동 134-6번지","indutype":"문화.취미 - 민예·공예품","category":"other"}]},{"lat":"37.303721505","long":"127.64196609","imageIndex":17,"items":[{"name":"아랑디자인","tel":"","addr":"경기도 여주시 오학동 292-48번지 102호","indutype":"가구 - 기타가구","category":"other"}]},{"lat":"37.308103849","long":"127.6429958","imageIndex":17,"items":[{"name":"아이러브21세기유아체육원","tel":"","addr":"경기도 여주시 오학동 285-11번지","indutype":"용역 서비스 - 사무서비스","category":"other"}]},{"lat":"37.314969488","long":"127.64963073","imageIndex":17,"items":[{"name":"엘림도예","tel":"031-884-0368","addr":"경기도 여주시 오학동 132-3번지","indutype":"문화.취미 - 민예·공예품","category":"other"}]},{"lat":"37.302776451","long":"127.64344692","imageIndex":17,"items":[{"name":"여주 스크린 골프","tel":"031-883-6900","addr":"경기도 여주시 오학동 369-2번지 2동","indutype":"레져용품 - 스포츠·레져용품","category":"other"},{"name":"여주골프아카데미","tel":"031-883-6900","addr":"경기도 여주시 오학동 369-2번지","indutype":"회원제형태 - 레져업소","category":"other"}]},{"lat":"37.307969896","long":"127.64443847","imageIndex":17,"items":[{"name":"여주도자기","tel":"031-886-4184","addr":"경기도 여주시 오학동 296-2번지","indutype":"주방용구 - 주방용식기","category":"other"},{"name":"여주도자기마을","tel":"031-886-7497","addr":"경기도 여주시 오학동 296-2번지","indutype":"문화.취미 - 민예·공예품","category":"other"},{"name":"화조화분","tel":"031-886-7791","addr":"경기도 여주시 오학동 296-2번지","indutype":"문화.취미 - 민예·공예품","category":"other"}]},{"lat":"37.307052637","long":"127.64577296","imageIndex":17,"items":[{"name":"여주도자기그릇백화점","tel":"031-885-4141","addr":"경기도 여주시 오학동 303-35번지","indutype":"주방용구 - 주방용식기","category":"other"}]},{"lat":"37.313801527","long":"127.64404808","imageIndex":17,"items":[{"name":"여주도자기아울렛","tel":"031-886-4370","addr":"경기도 여주시 오학동 100-48번지","indutype":"주방용구 - 주방용식기","category":"other"},{"name":"주식회사 한경","tel":"031-885-3740","addr":"경기도 여주시 오학동 100-48번지","indutype":"수리서비스 - 세탁소","category":"other"}]},{"lat":"37.310712824","long":"127.64538676","imageIndex":17,"items":[{"name":"여주토기","tel":"031-885-5685","addr":"경기도 여주시 오학동 250-1번지","indutype":"문화.취미 - 민예·공예품","category":"other"}]},{"lat":"37.316240464","long":"127.64952881","imageIndex":17,"items":[{"name":"영보도자기","tel":"031-886-0921","addr":"경기도 여주시 오학동 127-9번지","indutype":"주방용구 - 주방용식기","category":"other"}]},{"lat":"37.3033566083","long":"127.6427976523","imageIndex":17,"items":[{"name":"영주헌도예","tel":"031-884-9249","addr":"경기도 여주시 오학동 292-7번지","indutype":"문화.취미 - 민예·공예품","category":"other"}]},{"lat":"37.310019549","long":"127.64363244","imageIndex":17,"items":[{"name":"영통신","tel":"031-881-4343","addr":"경기도 여주시 오학동 283-5번지","indutype":"사무통신 - 통신기기","category":"other"}]},{"lat":"37.315212563","long":"127.64966666","imageIndex":17,"items":[{"name":"예나공방","tel":"070-7521-5158","addr":"경기도 여주시 오학동 132-8번지","indutype":"문화.취미 - 민예·공예품","category":"other"}]},{"lat":"37.309664384","long":"127.64432879","imageIndex":17,"items":[{"name":"오학동주민센터","tel":"031-887-3478","addr":"경기도 여주시 오학동 254-1번지 1층","indutype":"용역 서비스 - 사무서비스","category":"other"}]},{"lat":"37.309911556","long":"127.64360897","imageIndex":17,"items":[{"name":"오학열쇠","tel":"031-885-3248","addr":"경기도 여주시 오학동 283-1번지","indutype":"건축자재 - 목재·석재·철물","category":"other"}]},{"lat":"37.308938756","long":"127.64355559","imageIndex":17,"items":[{"name":"오학유리","tel":"031-885-6443","addr":"경기도 여주시 오학동 254번지","indutype":"건축자재 - 유리","category":"other"}]},{"lat":"37.308771939","long":"127.64441145","imageIndex":17,"items":[{"name":"우주공업사","tel":"031-885-1116","addr":"경기도 여주시 오학동 297-3번지","indutype":"기타 - 기계공구","category":"other"},{"name":"은성도예전시관","tel":"031-885-0303","addr":"경기도 여주시 오학동 297-3번지","indutype":"문화.취미 - 골동품점","category":"other"},{"name":"의석도예","tel":"031-886-1484","addr":"경기도 여주시 오학동 297-3번지","indutype":"문화.취미 - 민예·공예품","category":"other"},{"name":"주식회사소도연","tel":"031-883-7078","addr":"경기도 여주시 오학동 297-3번지","indutype":"문화.취미 - 화랑","category":"other"}]},{"lat":"37.301578192","long":"127.64675273","imageIndex":17,"items":[{"name":"윌스튜디오","tel":"031-882-3007","addr":"경기도 여주시 오학동 404-9번지 진양빌딩 2층","indutype":"광학제품 - 사진관","category":"other"},{"name":"진양 스포츠 기획","tel":"","addr":"경기도 여주시 오학동 404-9번지 진양빌딩","indutype":"레져용품 - 스포츠·레져용품","category":"other"}]},{"lat":"37.311214255","long":"127.64263864","imageIndex":17,"items":[{"name":"유림환경","tel":"","addr":"경기도 여주시 오학동 279-13번지 굿모닝타운 104동 201호","indutype":"용역 서비스 - 종합용역","category":"other"}]},{"lat":"37.307490366","long":"127.64480663","imageIndex":17,"items":[{"name":"유진도요","tel":"031-885-7272","addr":"경기도 여주시 오학동 321-1번지","indutype":"문화.취미 - 민예·공예품","category":"other"},{"name":"태현전시장","tel":"031-885-1633","addr":"경기도 여주시 오학동 321-1번지","indutype":"문화.취미 - 화랑","category":"other"},{"name":"한국종합주방","tel":"031-885-4141","addr":"경기도 여주시 오학동 303-35번지","indutype":"주방용구 - 주방용구","category":"other"}]},{"lat":"37.308943122","long":"127.6444129","imageIndex":17,"items":[{"name":"은성도토","tel":"031-885-0303","addr":"경기도 여주시 오학동 297-3번지","indutype":"문화.취미 - 민예·공예품","category":"other"}]},{"lat":"37.308303376","long":"127.64441875","imageIndex":17,"items":[{"name":"은성사","tel":"031-886-1190","addr":"경기도 여주시 오학동 297-12번지","indutype":"용역 서비스 - 가례서비스업","category":"other"}]},{"lat":"37.307803011","long":"127.6453056","imageIndex":17,"items":[{"name":"이진코리아","tel":"031-886-5455","addr":"경기도 여주시 오학동 305-1번지","indutype":"주방용구 - 주방용식기","category":"other"}]},{"lat":"37.3110508931","long":"127.6445210539","imageIndex":17,"items":[{"name":"장인도예","tel":"031-885-8361","addr":"경기도 여주시 오학동 263번지","indutype":"문화.취미 - 민예·공예품","category":"other"}]},{"lat":"37.310662255","long":"127.64474336","imageIndex":17,"items":[{"name":"정도루어피싱","tel":"031-885-3012","addr":"경기도 여주시 오학동 258-5번지","indutype":"레져용품 - 스포츠·레져용품","category":"other"}]},{"lat":"37.303355084","long":"127.64307962","imageIndex":17,"items":[{"name":"조광도예","tel":"031-885-2836","addr":"경기도 여주시 오학동 292-43번지","indutype":"문화.취미 - 민예·공예품","category":"other"}]},{"lat":"37.314078212","long":"127.64949901","imageIndex":17,"items":[{"name":"증터가마","tel":"031-886-6810","addr":"경기도 여주시 오학동 136-5번지","indutype":"문화.취미 - 민예·공예품","category":"other"}]},{"lat":"37.31062964","long":"127.64411139","imageIndex":17,"items":[{"name":"쭌모바일","tel":"031-883-7774","addr":"경기도 여주시 오학동 261-7번지 1층 105호","indutype":"사무통신 - 통신기기","category":"other"}]},{"lat":"37.339021962","long":"127.64047083","imageIndex":17,"items":[{"name":"청강도예","tel":"031-884-6231","addr":"경기도 여주시 오학동 86-2번지","indutype":"문화.취미 - 민예·공예품","category":"other"}]},{"lat":"37.313218671","long":"127.64519375","imageIndex":17,"items":[{"name":"청개구리도형","tel":"031-885-0834","addr":"경기도 여주시 오학동 100-30번지","indutype":"문화.취미 - 민예·공예품","category":"other"}]},{"lat":"37.313913017","long":"127.65005035","imageIndex":17,"items":[{"name":"청일도예","tel":"031-884-0788","addr":"경기도 여주시 오학동 138-3번지","indutype":"문화.취미 - 민예·공예품","category":"other"}]},{"lat":"37.311274789","long":"127.64477112","imageIndex":17,"items":[{"name":"춤추는쏘잉 (레이스나라 원단공주)","tel":"031-1111-1111","addr":"경기도 여주시 오학동 264-2번지","indutype":"직물 - 옷감·직물","category":"other"}]},{"lat":"37.31616249","long":"127.64730578","imageIndex":17,"items":[{"name":"태평플라워","tel":"031-885-4400","addr":"경기도 여주시 오학동 123-8번지","indutype":"문화.취미 - 화원","category":"other"},{"name":"한국장례문화원","tel":"031-885-4400","addr":"경기도 여주시 오학동 123-8번지","indutype":"용역 서비스 - 가례서비스업","category":"other"}]},{"lat":"37.3174373306","long":"127.6464931393","imageIndex":17,"items":[{"name":"한솔도예","tel":"031-885-4036","addr":"경기도 여주시 오학동 85-1번지","indutype":"문화.취미 - 민예·공예품","category":"other"}]},{"lat":"37.305693464","long":"127.64552452","imageIndex":17,"items":[{"name":"해성다원","tel":"031-885-7667","addr":"경기도 여주시 오학동 318-2번지","indutype":"주방용구 - 주방용식기","category":"other"}]},{"lat":"37.306354908","long":"127.64650019","imageIndex":17,"items":[{"name":"해성요","tel":"031-885-7667","addr":"경기도 여주시 오학동 308번지","indutype":"문화.취미 - 민예·공예품","category":"other"}]},{"lat":"37.315187612","long":"127.65257691","imageIndex":17,"items":[{"name":"해청도예","tel":"031-885-4802","addr":"경기도 여주시 오학동 160-6번지","indutype":"문화.취미 - 민예·공예품","category":"other"}]},{"lat":"37.314858366","long":"127.64521898","imageIndex":17,"items":[{"name":"흙고을","tel":"031-885-2093","addr":"경기도 여주시 오학동 98-4번지","indutype":"문화.취미 - 민예·공예품","category":"other"}]},{"lat":"37.311216323","long":"127.64558281","imageIndex":17,"items":[{"name":"흙과사람들","tel":"031-885-0133","addr":"경기도 여주시 오학동 267-1번지","indutype":"문화.취미 - 민예·공예품","category":"other"}]}]