[{"lat":"37.36131075","long":"127.3157724","imageIndex":13,"items":[{"name":"나이스","tel":"031-762-9646","addr":"경기도 광주시 초월읍 산이리 7-8번지","indutype":"보건위생 - 피부미용실","category":"beauty"}]},{"lat":"37.36036768","long":"127.3146398","imageIndex":13,"items":[{"name":"너의예쁨에스테틱","tel":"031-767-9772","addr":"경기도 광주시 초월읍 산이리 17-13번지 3층 301호","indutype":"보건위생 - 피부미용실","category":"beauty"}]},{"lat":"37.36014757","long":"127.3161062","imageIndex":13,"items":[{"name":"네일 Haja","tel":"031-000-0000","addr":"경기도 광주시 초월읍 산이리 8-9번지 2층","indutype":"보건위생 - 피부미용실","category":"beauty"}]},{"lat":"37.3638965","long":"127.3089425","imageIndex":13,"items":[{"name":"뉴스타헤어타운","tel":"02-1111-1111","addr":"경기도 광주시 초월읍 산이리 432번지 산이리대주파크빌 203-1호","indutype":"보건위생 - 미용원","category":"beauty"}]},{"lat":"37.36248408","long":"127.3115781","imageIndex":13,"items":[{"name":"마리뷰티라인","tel":"070-4219-0063","addr":"경기도 광주시 초월읍 산이리 139-50번지 까사펠리스 제아이동 1층 1호","indutype":"보건위생 - 미용재료","category":"beauty"}]},{"lat":"37.36131798","long":"127.3130295","imageIndex":13,"items":[{"name":"메디파크","tel":"031-743-9437","addr":"경기도 광주시 초월읍 산이리 13-21번지","indutype":"보건위생 - 의료용품","category":"beauty"},{"name":"우노헤어","tel":"031-798-3698","addr":"경기도 광주시 초월읍 산이리 13-21번지 1층","indutype":"보건위생 - 미용원","category":"beauty"}]},{"lat":"37.36045118","long":"127.3171347","imageIndex":13,"items":[{"name":"에프앤씨","tel":"031-797-1701","addr":"경기도 광주시 초월읍 산이리 2-1","indutype":"보건위생 - 화장품","category":"beauty"}]},{"lat":"37.36223439","long":"127.3140266","imageIndex":13,"items":[{"name":"오휘화장품","tel":"031-798-5242","addr":"경기도 광주시 초월읍 산이리 13-2번지 한일빌딩 2층","indutype":"보건위생 - 화장품","category":"beauty"}]},{"lat":"37.36414454","long":"127.3105803","imageIndex":13,"items":[{"name":"원헤어(One hair)","tel":"031-769-2932","addr":"경기도 광주시 초월읍 산이리 94-1번지 상상초월아트 1층 4호","indutype":"보건위생 - 미용원","category":"beauty"}]},{"lat":"37.3640665","long":"127.3128602","imageIndex":13,"items":[{"name":"지은스킨 앤 바디","tel":"031-797-9219","addr":"경기도 광주시 초월읍 산이리 92-12번지 2층","indutype":"보건위생 - 피부미용실","category":"beauty"}]},{"lat":"37.36265125","long":"127.313114","imageIndex":13,"items":[{"name":"헤어리더","tel":"031-761-1568","addr":"경기도 광주시 초월읍 산이리 78-14번지","indutype":"보건위생 - 미용원","category":"beauty"}]}]