[{"lat":"37.253490567","long":"127.03008096","imageIndex":17,"items":[{"name":"(주) 가림종합건축사사무소","tel":"031-226-4121","addr":"경기도 수원시 권선구 권선동 1250-3번지 가림프라자 201호","indutype":"용역 서비스 - 사무서비스","category":"other"},{"name":"굿마트수원권선점","tel":"031-4238-6415","addr":"경기도 수원시 권선구 권선동 1250-3번지 가림프라자 1층 101호","indutype":"유통업 영리 - 편 의 점","category":"other"}]},{"lat":"37.263520391","long":"127.02333183","imageIndex":17,"items":[{"name":"(주)경복","tel":"031-222-7033","addr":"경기도 수원시 권선구 권선동 940-2번지","indutype":"사무통신 - 컴퓨터","category":"other"},{"name":"에코에어(eco-air)","tel":"031-235-6204","addr":"경기도 수원시 권선구 권선동 940-2번지 2층","indutype":"전기제품 - 냉열기기","category":"other"},{"name":"크레이지베이프 수원점","tel":"","addr":"경기도 수원시 권선구 권선동 940-2번지 1층 101호","indutype":"기타 - 기타 전문점","category":"other"}]},{"lat":"37.263601545","long":"127.0229711","imageIndex":17,"items":[{"name":"(주)대문타일","tel":"031-237-3500","addr":"경기도 수원시 권선구 권선동 940번지","indutype":"건축자재 - 건축용 요업제품","category":"other"},{"name":"기수유통","tel":"","addr":"경기도 수원시 권선구 권선동 940번지 404호","indutype":"유통업 영리 - 기타유통업","category":"other"}]},{"lat":"37.259069426","long":"127.02260917","imageIndex":17,"items":[{"name":"(주)대연에어테크 수원지점","tel":"031-912-0002","addr":"경기도 수원시 권선구 권선동 970-4번지","indutype":"건축자재 - 목재·석재·철물","category":"other"},{"name":"참조은 건축자재","tel":"031-234-8361","addr":"경기도 수원시 권선구 권선동 970-4번지","indutype":"건축자재 - 기타건축자재","category":"other"}]},{"lat":"37.259879523","long":"127.02708469","imageIndex":17,"items":[{"name":"(주)디엔텔","tel":"031-213-3200","addr":"경기도 수원시 권선구 권선동 1017-10번지 선광빌딩 3층 303호","indutype":"사무통신 - 통신기기","category":"other"},{"name":"(주)선광","tel":"031-234-6464","addr":"경기도 수원시 권선구 권선동 1017-10번지 선광빌딩 1층","indutype":"건축자재 - 기타건축자재","category":"other"},{"name":"우송이앤지","tel":"031-222-0130","addr":"경기도 수원시 권선구 권선동 1017-10번지 선광빌딩 102호","indutype":"기타 - 기계공구","category":"other"}]},{"lat":"37.259880416","long":"127.02222611","imageIndex":17,"items":[{"name":"(주)만조정보통신","tel":"031-238-2408","addr":"경기도 수원시 권선구 권선동 967-6번지 연안빌딩 201호","indutype":"사무통신 - 통신기기","category":"other"},{"name":"도서출판 영음사","tel":"031-233-1401","addr":"경기도 수원시 권선구 권선동 967-6번지 연안빌딩 4층","indutype":"서적문구 - 출판 및 인쇄물","category":"other"}]},{"lat":"37.259989015","long":"127.01905847","imageIndex":17,"items":[{"name":"(주)미래환경시스템","tel":"031-237-8926","addr":"경기도 수원시 권선구 권선동 977-5번지 2층","indutype":"용역 서비스 - 종합용역","category":"other"},{"name":"대한불교대각종편일암","tel":"031-224-3544","addr":"경기도 수원시 권선구 권선동 977-5번지","indutype":"기타 - 비영리/대상","category":"other"},{"name":"예일디자인","tel":"031-223-1512","addr":"경기도 수원시 권선구 권선동 977-5번지","indutype":"건축자재 - 인테리어전문","category":"other"}]},{"lat":"37.261104399","long":"127.02953132","imageIndex":17,"items":[{"name":"(주)미코컴퍼니","tel":"031-213-3437","addr":"경기도 수원시 권선구 권선동 1013-1번지 세종그랑시아 627호","indutype":"전기제품 - 가전제품","category":"other"},{"name":"그랑시아","tel":"031-232-2603","addr":"경기도 수원시 권선구 권선동 1013-1번지 세종그랑시아 1029호","indutype":"의류 - 정장","category":"other"},{"name":"대박폰","tel":"","addr":"경기도 수원시 권선구 권선동 1013-1번지 세종그랑시아 604호","indutype":"사무통신 - 통신기기","category":"other"},{"name":"민스베베","tel":"031-222-3361","addr":"경기도 수원시 권선구 권선동 1013-1번지 세종그랑시아오피스텔 604호","indutype":"의류 - 기타의류","category":"other"},{"name":"별플러스","tel":"","addr":"경기도 수원시 권선구 권선동 1013-1번지 세종그랑시아 1526호","indutype":"용역 서비스 - 종합용역","category":"other"},{"name":"세종세탁","tel":"031-225-9449","addr":"경기도 수원시 권선구 권선동 1013-1번지 세종그랑시아 105호","indutype":"수리서비스 - 세탁소","category":"other"},{"name":"주식회사 디자인공감","tel":"031-222-1249","addr":"경기도 수원시 권선구 권선동 1013-1번지 세종그랑시아 911호","indutype":"서적문구 - 출판 및 인쇄물","category":"other"}]},{"lat":"37.254932781","long":"127.02750017","imageIndex":17,"items":[{"name":"(주)세화테크 지점","tel":"031-223-0006","addr":"경기도 수원시 권선구 권선동 1043-11번지 남정빌딩 301호","indutype":"농업 - 비료,사료,종자","category":"other"},{"name":"명품아울렛","tel":"031-221-4813","addr":"경기도 수원시 권선구 권선동 1043-11번지 1층","indutype":"신변잡화 - 기타잡화","category":"other"},{"name":"서현테크","tel":"031-226-5331","addr":"경기도 수원시 권선구 권선동 1043-11번지 남정빌딩 103호","indutype":"사무통신 - 컴퓨터","category":"other"},{"name":"시작스터디룸 권선점","tel":"031-269-7934","addr":"경기도 수원시 권선구 권선동 1043-11번지 창진빌딩 201호","indutype":"용역 서비스 - 사무서비스","category":"other"}]},{"lat":"37.261214074","long":"127.02139225","imageIndex":17,"items":[{"name":"(주)소리노리","tel":"0000-1588-6457","addr":"경기도 수원시 권선구 권선동 955-9번지 103호","indutype":"전기제품 - 기타전기제품","category":"other"}]},{"lat":"37.250076967","long":"127.02360998","imageIndex":17,"items":[{"name":"(주)소명케미칼","tel":"031-239-7360","addr":"경기도 수원시 권선구 권선동 1196-8번지 2층","indutype":"서적문구 - 과학기자재","category":"other"},{"name":"(주)소명케미칼/원격지","tel":"031-239-7360","addr":"경기도 수원시 권선구 권선동 1196-8번지 2층","indutype":"기타 - 기타 전문점","category":"other"}]},{"lat":"37.255183712","long":"127.0333392","imageIndex":17,"items":[{"name":"(주)시그마테크/원격지","tel":"031-223-4318","addr":"경기도 수원시 권선구 권선동 1231-9번지","indutype":"기타 - 기타 전문점","category":"other"}]},{"lat":"37.256131242","long":"127.02706094","imageIndex":17,"items":[{"name":"(주)씨앤엠솔루션","tel":"031-267-4034","addr":"경기도 수원시 권선구 권선동 1047-17번지","indutype":"기타 - 기계공구","category":"other"},{"name":"(주)씨앤엠솔루션/원격지","tel":"031-267-4034","addr":"경기도 수원시 권선구 권선동 1047-17번지","indutype":"기타 - 기타 전문점","category":"other"},{"name":"광진인쇄사","tel":"031-233-0923","addr":"경기도 수원시 권선구 권선동 1047-17번지","indutype":"서적문구 - 출판 및 인쇄물","category":"other"}]},{"lat":"37.262853233","long":"127.02550738","imageIndex":17,"items":[{"name":"(주)웅지기획원","tel":"031-230-2210","addr":"경기도 수원시 권선구 권선동 1010번지 501호","indutype":"용역 서비스 - 사무서비스","category":"other"},{"name":"케이아이피아이주식회사","tel":"031-611-5094","addr":"경기도 수원시 권선구 권선동 1010번지","indutype":"용역 서비스 - 사무서비스","category":"other"},{"name":"퍼니앤골프(FUNNY&GOLF)","tel":"","addr":"경기도 수원시 권선구 권선동 1010번지","indutype":"회원제형태 - 레져업소","category":"other"}]},{"lat":"37.260628302","long":"127.02203466","imageIndex":17,"items":[{"name":"(주)유니온텔레콤","tel":"031-223-2244","addr":"경기도 수원시 권선구 권선동 963-5번지","indutype":"사무통신 - 통신기기","category":"other"},{"name":"방수자재백화점,태영","tel":"031-221-3635","addr":"경기도 수원시 권선구 권선동 963-5번지","indutype":"유통업 영리 - 기타유통업","category":"other"}]},{"lat":"37.259294608","long":"127.02306014","imageIndex":17,"items":[{"name":"(주)유성상사","tel":"031-232-2654","addr":"경기도 수원시 권선구 권선동 969번지 1층","indutype":"건축자재 - 기타건축자재","category":"other"}]},{"lat":"37.262627843","long":"127.02619498","imageIndex":17,"items":[{"name":"(주)유한솔루션","tel":"02-1600-0271","addr":"경기도 수원시 권선구 권선동 1011-3번지 덕화빌딩 301호","indutype":"용역 서비스 - 소프트웨어","category":"other"},{"name":"두각가죽공방(Dugak Atelier)","tel":"031-223-0612","addr":"경기도 수원시 권선구 권선동 1011-3번지 덕화빌딩 201호","indutype":"문화.취미 - 문화취미기타","category":"other"},{"name":"사단법인수원음악진흥원","tel":"031-224-0533","addr":"경기도 수원시 권선구 권선동 1011-3 덕화빌딩비01호","indutype":"기타 - 비영리/비대상","category":"other"}]},{"lat":"37.262294495","long":"127.02602578","imageIndex":17,"items":[{"name":"(주)케이앤지인터내셔날 K&G International","tel":"070-4258-9023","addr":"경기도 수원시 권선구 권선동 1011-8번지","indutype":"신변잡화 - 기타잡화","category":"other"}]},{"lat":"37.25898772","long":"127.02600222","imageIndex":17,"items":[{"name":"(주)하이테크비엔비","tel":"031-233-9573","addr":"경기도 수원시 권선구 권선동 1029-9번지","indutype":"가구 - 일반가구","category":"other"}]},{"lat":"37.261015865","long":"127.02127947","imageIndex":17,"items":[{"name":"(주)한네트여행사","tel":"031-225-9300","addr":"경기도 수원시 권선구 권선동 964-13번지 2층 202호","indutype":"여행 - 관광여행","category":"other"},{"name":"삼다조경개발(주)","tel":"031-234-9827","addr":"경기도 수원시 권선구 권선동 964-13번지 303B호","indutype":"용역 서비스 - 기타용역서비스","category":"other"},{"name":"스튜디오 미화","tel":"070-8860-4781","addr":"경기도 수원시 권선구 권선동 964-13번지","indutype":"광학제품 - 사진관","category":"other"},{"name":"엘림이엔씨","tel":"031-225-1937","addr":"경기도 수원시 권선구 권선동 964-13번지 유일빌딩 205호","indutype":"서적문구 - 과학기자재","category":"other"}]},{"lat":"37.25034773","long":"127.02083729","imageIndex":17,"items":[{"name":"3층수선실","tel":"031-8065-3824","addr":"경기도 수원시 권선구 권선동 1189번지 3층","indutype":"수리서비스 - 세탁소","category":"other"},{"name":"4-1159","tel":"031-267-7159","addr":"경기도 수원시 권선구 권선동 1189번지 밀리오레 4층 1159호","indutype":"신변잡화 - 가방","category":"other"},{"name":"공무원특판","tel":"031-267-2011","addr":"경기도 수원시 권선구 권선동 1189번지 터미널동 1층 1315호","indutype":"신변잡화 - 액세서리","category":"other"},{"name":"극단 중원극회","tel":"031-1588-6212","addr":"경기도 수원시 권선구 권선동 1189번지 할인점동,주차빌딩 5층","indutype":"문화.취미 - 티켓","category":"other"},{"name":"너나드리","tel":"011-***-****","addr":"경기도 수원시 권선구 권선동 1189번지 밀리오레 4층 1012호","indutype":"신변잡화 - 신발","category":"other"},{"name":"넥서스메디케어 주식회사(수원점)","tel":"031-000-0000","addr":"경기도 수원시 권선구 권선동 1189번지 할인점동,주차빌딩","indutype":"신변잡화 - 기타잡화","category":"other"},{"name":"또오이소","tel":"031-267-6176","addr":"경기도 수원시 권선구 권선동 1189번지 밀리오레 2층 2223 2224","indutype":"의류 - 정장","category":"other"},{"name":"로뎀","tel":"031-267-5061","addr":"경기도 수원시 권선구 권선동 1189번지 밀리오레 3층 A-07호","indutype":"가구 - 일반가구","category":"other"},{"name":"마이유","tel":"031-267-5500","addr":"경기도 수원시 권선구 권선동 1189번지 4층 터미널동","indutype":"의류 - 정장","category":"other"},{"name":"소렌티노","tel":"031-267-7170","addr":"경기도 수원시 권선구 권선동 1189번지 밀리오레 3층 B-09호","indutype":"가구 - 일반가구","category":"other"},{"name":"아드레날린","tel":"031-267-6469","addr":"경기도 수원시 권선구 권선동 1189번지 밀리오레 3층 2133호","indutype":"의류 - 정장","category":"other"},{"name":"에스제이북스","tel":"070-8924-6418","addr":"경기도 수원시 권선구 권선동 1189번지 패션아일랜드 4층","indutype":"회원제형태 - 서적","category":"other"},{"name":"영패션","tel":"031-267-7181","addr":"경기도 수원시 권선구 권선동 1189 패션아일랜드3층 88","indutype":"신변잡화 - 기타잡화","category":"other"},{"name":"올리버트위스트","tel":"031-267-5971","addr":"경기도 수원시 권선구 권선동 1189번지 수원터미널 1304호","indutype":"의류 - 아동의류","category":"other"},{"name":"원호","tel":"031-267-6720","addr":"경기도 수원시 권선구 권선동 1189패션아일랜드3층19","indutype":"의류 - 정장","category":"other"},{"name":"천지","tel":"031-267-7267","addr":"경기도 수원시 권선구 권선동 1189번지 밀리오레 4층 2159호","indutype":"신변잡화 - 액세서리","category":"other"},{"name":"터미널편의점1층","tel":"031-267-7744","addr":"경기도 수원시 권선구 권선동 1189번지 수원복합터미널 1301호","indutype":"유통업 영리 - 편 의 점","category":"other"},{"name":"패션아일랜드 수선실","tel":"031-8065-3788","addr":"경기도 수원시 권선구 권선동 1189번지","indutype":"수리서비스 - 세탁소","category":"other"}]},{"lat":"37.257934582","long":"127.01966675","imageIndex":17,"items":[{"name":"503공조냉동","tel":"","addr":"경기도 수원시 권선구 권선동 995-12번지 1층","indutype":"용역 서비스 - 기타용역서비스","category":"other"}]},{"lat":"37.263682934","long":"127.02114484","imageIndex":17,"items":[{"name":"BH컴퓨터","tel":"031-232-8090","addr":"경기도 수원시 권선구 권선동 949-20번지","indutype":"사무통신 - 컴퓨터","category":"other"},{"name":"소피앤본느","tel":"031-226-6404","addr":"경기도 수원시 권선구 권선동 949-20번지 1층","indutype":"의류 - 정장","category":"other"}]},{"lat":"37.258050772","long":"127.0253594","imageIndex":17,"items":[{"name":"GS25권선SK점","tel":"","addr":"경기도 수원시 권선구 권선동 1035번지 권선SKVIEW 110동 104호","indutype":"유통업 영리 - 편 의 점","category":"other"},{"name":"크린토피아 권선SK뷰점","tel":"031-237-5233","addr":"경기도 수원시 권선구 권선동 1035번지 권선SKVIEW 110동 103호","indutype":"수리서비스 - 세탁소","category":"other"}]},{"lat":"37.26381818","long":"127.02053611","imageIndex":17,"items":[{"name":"GS25권선골드점","tel":"","addr":"경기도 수원시 권선구 권선동 950번지","indutype":"유통업 영리 - 편 의 점","category":"other"}]},{"lat":"37.252794625","long":"127.03821891","imageIndex":17,"items":[{"name":"GS25권선명당점","tel":"","addr":"경기도 수원시 권선구 권선동 1283-2번지 1층","indutype":"유통업 영리 - 편 의 점","category":"other"}]},{"lat":"37.26101507","long":"127.02583375","imageIndex":17,"items":[{"name":"GS25권선미래점","tel":"02-2006-2118","addr":"경기도 수원시 권선구 권선동 1011-14번지 미래사랑오피스텔","indutype":"유통업 영리 - 편 의 점","category":"other"}]},{"lat":"37.25595956","long":"127.02933788","imageIndex":17,"items":[{"name":"GS25권선세곡점","tel":"02-2006-2485","addr":"경기도 수원시 권선구 권선동 1042-15번지","indutype":"유통업 영리 - 편 의 점","category":"other"}]},{"lat":"37.262015857","long":"127.02222665","imageIndex":17,"items":[{"name":"GS25권선세지로점","tel":"","addr":"경기도 수원시 권선구 권선동 956-17번지 기경빌 102호","indutype":"유통업 영리 - 편 의 점","category":"other"}]},{"lat":"37.246383317","long":"127.01997977","imageIndex":17,"items":[{"name":"GS25권선아이파크점","tel":"","addr":"경기도 수원시 권선구 권선동 1337번지 707동 상가동 109~110호","indutype":"유통업 영리 - 편 의 점","category":"other"},{"name":"권선시티공인중개사무소","tel":"031-233-6554","addr":"경기도 수원시 권선구 권선동 1337번지 수원아이파크시티7단지 707동 105호","indutype":"용역 서비스 - 부동산 중개·임대","category":"other"},{"name":"달콤코코케이크","tel":"031-000-0000","addr":"경기도 수원시 권선구 권선동 1337번지 수원아이파크시티7단지 707동 상가동 2층 210호","indutype":"문화.취미 - 문화취미기타","category":"other"},{"name":"데일리 픽","tel":"031-000-0000","addr":"경기도 수원시 권선구 권선동 1337번지 수원아이파크시티7단지 707동 205호 상가","indutype":"의류 - 정장","category":"other"},{"name":"알파크린 옷수선","tel":"031-212-5786","addr":"경기도 수원시 권선구 권선동 1337번지 수원아이파크시티7단지 718동 110호","indutype":"수리서비스 - 세탁소","category":"other"},{"name":"일등공인중개사무소","tel":"031-221-7700","addr":"경기도 수원시 권선구 권선동 1337번지 수원아이파크시티7단지 112호","indutype":"용역 서비스 - 부동산 중개·임대","category":"other"},{"name":"제이씨샤이닝","tel":"031-233-0879","addr":"경기도 수원시 권선구 권선동 1337번지 수원아이파크시티7단지 상가동 707동 202호","indutype":"신변잡화 - 기타잡화","category":"other"},{"name":"크린캐츠 세탁프리 아이파크점","tel":"031-236-1515","addr":"경기도 수원시 권선구 권선동 1337번지 수원아이파크시티7단지 707동 201호","indutype":"수리서비스 - 세탁소","category":"other"}]},{"lat":"37.257627381","long":"127.02486329","imageIndex":17,"items":[{"name":"GS25권선오길점","tel":"","addr":"경기도 수원시 권선구 권선동 1034-7번지 1층","indutype":"유통업 영리 - 편 의 점","category":"other"},{"name":"언더렌지","tel":"031-233-4707","addr":"경기도 수원시 권선구 권선동 1034-7번지","indutype":"주방용구 - 주방용구","category":"other"}]},{"lat":"37.25918676","long":"127.0213692","imageIndex":17,"items":[{"name":"GS25권선중앙점","tel":"","addr":"경기도 수원시 권선구 권선동 972-14번지 1층","indutype":"유통업 영리 - 편 의 점","category":"other"},{"name":"GS25권선중앙점","tel":"","addr":"경기도 수원시 권선구 권선동 972-14번지","indutype":"유통업 영리 - 편 의 점","category":"other"},{"name":"오성총포","tel":"031-226-5013","addr":"경기도 수원시 권선구 권선동 972-14번지","indutype":"레져용품 - 총포류판매점","category":"other"}]},{"lat":"37.252265214","long":"127.02986635","imageIndex":17,"items":[{"name":"GS25수원권선점","tel":"02-2006-2485","addr":"경기도 수원시 권선구 권선동 1258-11번지","indutype":"유통업 영리 - 편 의 점","category":"other"}]},{"lat":"37.250966046","long":"127.03644843","imageIndex":17,"items":[{"name":"GS25수원나루점","tel":"02-2006-2118","addr":"경기도 수원시 권선구 권선동 1292-10번지 1층","indutype":"유통업 영리 - 편 의 점","category":"other"}]},{"lat":"37.260070171","long":"127.01858503","imageIndex":17,"items":[{"name":"GS25수원삼익점","tel":"02-2006-2118","addr":"경기도 수원시 권선구 권선동 978-8번지","indutype":"유통업 영리 - 편 의 점","category":"other"}]},{"lat":"37.261104247","long":"127.03019642","imageIndex":17,"items":[{"name":"GS25수원선일점","tel":"","addr":"경기도 수원시 권선구 권선동 1013-21번지 선일빌딩 101호","indutype":"유통업 영리 - 편 의 점","category":"other"},{"name":"골드세탁소","tel":"031-236-1638","addr":"경기도 수원시 권선구 권선동 1013-21 선일빌딩102","indutype":"수리서비스 - 세탁소","category":"other"}]},{"lat":"37.246660754","long":"127.03005596","imageIndex":17,"items":[{"name":"GS25수원에비뉴점","tel":"","addr":"경기도 수원시 권선구 권선동 1364번지 수원아이파크시티8단지 800동 115호","indutype":"유통업 영리 - 편 의 점","category":"other"},{"name":"글로벌","tel":"031-222-3681","addr":"경기도 수원시 권선구 권선동 1364번지 수원아이파크5차E1블럭 상가 800E동 149호","indutype":"사무통신 - 통신기기","category":"other"},{"name":"김사슴","tel":"031-236-9789","addr":"경기도 수원시 권선구 권선동 1364번지 수원아이파크시티8단지 상가 1층 127호","indutype":"신변잡화 - 액세서리","category":"other"},{"name":"나경이네","tel":"02-1111-1111","addr":"경기도 수원시 권선구 권선동 1364번지 수원아이파크시티8단지 800층 133호","indutype":"신변잡화 - 기타잡화","category":"other"},{"name":"라인업(Line up)","tel":"031-0000-0000","addr":"경기도 수원시 권선구 권선동 1364번지 E블럭 수원아이파크5차 800동 126호","indutype":"의류 - 정장","category":"other"},{"name":"미다온 공예방","tel":"031-222-6395","addr":"경기도 수원시 권선구 권선동 1364번지 수원아이파크시티8단지 E1블럭 143호","indutype":"직물 - 침구·수예점","category":"other"},{"name":"스마트 스토어","tel":"070-4799-5799","addr":"경기도 수원시 권선구 권선동 1364번지 수원아이파크시티5차 상가E1블럭 800동 132호","indutype":"사무통신 - 통신기기","category":"other"},{"name":"아리아플레르(AREA FLEUR)","tel":"031-302-2010","addr":"경기도 수원시 권선구 권선동 1364번지 수원아이파크시티5차 800동 144호","indutype":"문화.취미 - 화원","category":"other"},{"name":"아바","tel":"031-000-0000","addr":"경기도 수원시 권선구 권선동 1364번지 수원아이파크시티5차 상가 800동 131호","indutype":"의류 - 기타의류","category":"other"},{"name":"아트레 (attrait)","tel":"","addr":"경기도 수원시 권선구 권선동 1364번지 수원아이파크시티8단지 8동 1층 139호","indutype":"의류 - 정장","category":"other"},{"name":"어썸","tel":"031-224-5658","addr":"경기도 수원시 권선구 권선동 1364번지 수원아이파크시티8단지 상가 124호","indutype":"신변잡화 - 액세서리","category":"other"},{"name":"유행통신","tel":"031-256-0040","addr":"경기도 수원시 권선구 권선동 1364번지 수원아이파크시티8단지 800동 164호","indutype":"의류 - 정장","category":"other"},{"name":"젬마그레이 바느질공방","tel":"031-800-1000","addr":"경기도 수원시 권선구 권선동 1364번지 수원아이파크시티8단지 상가 800동 226호","indutype":"직물 - 옷감·직물","category":"other"},{"name":"탐","tel":"070-7529-0334","addr":"경기도 수원시 권선구 권선동 1364번지 수원아이파크시티8단지 상가 1층 123호","indutype":"의류 - 정장","category":"other"},{"name":"프렌즈독","tel":"031-222-2242","addr":"경기도 수원시 권선구 권선동 1364번지 수원아이파크시티8단지 상가동 155호","indutype":"문화.취미 - 애완동물","category":"other"},{"name":"피알아이","tel":"031-223-1535","addr":"경기도 수원시 권선구 권선동 1364번지 수원아이파크시티8단지 800동 134호","indutype":"용역 서비스 - 종합용역","category":"other"}]},{"lat":"37.25204711","long":"127.03705758","imageIndex":17,"items":[{"name":"GS25수원은혜점","tel":"","addr":"경기도 수원시 권선구 권선동 1286-2번지 1층","indutype":"유통업 영리 - 편 의 점","category":"other"}]},{"lat":"37.262123352","long":"127.02575517","imageIndex":17,"items":[{"name":"GS25씨즈더원점","tel":"","addr":"경기도 수원시 권선구 권선동 1011-9번지 1층 104호","indutype":"유통업 영리 - 편 의 점","category":"other"},{"name":"양정","tel":"","addr":"경기도 수원시 권선구 권선동 1011-9번지 씨즈더원 207호","indutype":"용역 서비스 - 기타용역서비스","category":"other"}]},{"lat":"37.259429093","long":"127.02666745","imageIndex":17,"items":[{"name":"INART/주식회사 올리브데코홈즈","tel":"031-239-5230","addr":"경기도 수원시 권선구 권선동 1020-10번지 태경빌딩 103호","indutype":"가구 - 일반가구","category":"other"},{"name":"삼성퍼니처(주)","tel":"031-233-2882","addr":"경기도 수원시 권선구 권선동 1020-10번지","indutype":"가구 - 일반가구","category":"other"},{"name":"일룸동수원점","tel":"031-234-1340","addr":"경기도 수원시 권선구 권선동 1020-10번지 태경빌딩 101호","indutype":"가구 - 일반가구","category":"other"}]},{"lat":"37.256437837","long":"127.02583236","imageIndex":17,"items":[{"name":"K.S정보컨설팅","tel":"031-222-5222","addr":"경기도 수원시 권선구 권선동 1052-3번지 2층","indutype":"사무통신 - 통신기기","category":"other"},{"name":"더사라","tel":"02-0000-0000","addr":"경기도 수원시 권선구 권선동 1052-3번지 1층","indutype":"의류 - 정장","category":"other"},{"name":"러블링","tel":"031-237-8976","addr":"경기도 수원시 권선구 권선동 1052-3번지 1층","indutype":"회원제형태 - 기타4","category":"other"}]},{"lat":"37.259376072","long":"127.02074925","imageIndex":17,"items":[{"name":"KB인테리어","tel":"070-8889-3042","addr":"경기도 수원시 권선구 권선동 973-5번지 2층","indutype":"건축자재 - 인테리어전문","category":"other"}]},{"lat":"37.255076512","long":"127.02950665","imageIndex":17,"items":[{"name":"LG상우회","tel":"031-222-3222","addr":"경기도 수원시 권선구 권선동 1041-4번지 오천빌딩 401호","indutype":"유통업 영리 - 기타유통업","category":"other"}]},{"lat":"37.260403223","long":"127.02089604","imageIndex":17,"items":[{"name":"MILLION인테리어","tel":"031-234-1231","addr":"경기도 수원시 권선구 권선동 965-9번지","indutype":"건축자재 - 인테리어전문","category":"other"},{"name":"남일기획","tel":"031-224-0080","addr":"경기도 수원시 권선구 권선동 965-9번지","indutype":"유통업 영리 - 기타유통업","category":"other"},{"name":"성수아크릴","tel":"031-221-5689","addr":"경기도 수원시 권선구 권선동 965-9번지","indutype":"기타 - 기타 전문점","category":"other"},{"name":"코로나통상","tel":"031-237-9400","addr":"경기도 수원시 권선구 권선동 965-9번지","indutype":"전기제품 - 가전제품","category":"other"}]},{"lat":"37.25323659","long":"127.03664106","imageIndex":17,"items":[{"name":"PC플러스","tel":"031-225-3034","addr":"경기도 수원시 권선구 권선동 1240번지 현대상가 102호","indutype":"사무통신 - 컴퓨터","category":"other"},{"name":"서광유통","tel":"031-356-6172","addr":"경기도 수원시 권선구 권선동 1240번지 현대상가 101호","indutype":"유통업 영리 - 기타유통업","category":"other"}]},{"lat":"37.258491266","long":"127.03017293","imageIndex":17,"items":[{"name":"PREMIUM MULTISHOP","tel":"","addr":"경기도 수원시 권선구 권선동 1022-5번지 4층","indutype":"의류 - 정장","category":"other"}]},{"lat":"37.262070216","long":"127.02031023","imageIndex":17,"items":[{"name":"S&B공조시스템","tel":"070-7630-3188","addr":"경기도 수원시 권선구 권선동 952-11번지","indutype":"수리서비스 - 기타수리서비스","category":"other"}]},{"lat":"37.260321759","long":"127.02319569","imageIndex":17,"items":[{"name":"STCO동수원상설점","tel":"031-225-1953","addr":"경기도 수원시 권선구 권선동 962-5번지 1층 2층","indutype":"레져용품 - 스포츠·레져용품","category":"other"},{"name":"바름테크","tel":"031-232-5111","addr":"경기도 수원시 권선구 권선동 962-5번지 3층 302호","indutype":"수리서비스 - 사무·통신기기수리","category":"other"},{"name":"플레이스","tel":"","addr":"경기도 수원시 권선구 권선동 962-5번지 3층 302호","indutype":"용역 서비스 - 사무서비스","category":"other"}]},{"lat":"37.250680758","long":"127.0230353","imageIndex":17,"items":[{"name":"YJ정보통신","tel":"070-4209-8885","addr":"경기도 수원시 권선구 권선동 1191번지 108호","indutype":"사무통신 - 통신기기","category":"other"},{"name":"나누리복권방","tel":"070-8280-1582","addr":"경기도 수원시 권선구 권선동 1191번지 웰스톤프라자 1층 108호","indutype":"기타 - 기타 전문점","category":"other"},{"name":"제이케이통신","tel":"070-4194-3331","addr":"경기도 수원시 권선구 권선동 1191번지 웰스톤프라자 107호","indutype":"사무통신 - 통신기기","category":"other"}]},{"lat":"37.256796282","long":"127.03438818","imageIndex":17,"items":[{"name":"s모터스","tel":"031-233-3691","addr":"경기도 수원시 권선구 권선동 1165-7번지","indutype":"수리서비스 - 레져용품수리","category":"other"},{"name":"수원현대테크","tel":"031-221-6020","addr":"경기도 수원시 권선구 권선동 1165-7번지","indutype":"회원제형태 - 기타3","category":"other"}]},{"lat":"37.255346778","long":"127.02969837","imageIndex":17,"items":[{"name":"가구종합유통(구,규수방)","tel":"031-233-5577","addr":"경기도 수원시 권선구 권선동 1041-2번지","indutype":"가구 - 일반가구","category":"other"}]},{"lat":"37.252131557","long":"127.02220158","imageIndex":17,"items":[{"name":"가꿈인테리어","tel":"031-223-7557","addr":"경기도 수원시 권선구 권선동 1188-1번지 성지아파트 상가동 105호","indutype":"직물 - 카페트,커튼,천막,지물","category":"other"},{"name":"보람장식","tel":"031-267-0485","addr":"경기도 수원시 권선구 권선동 1188-1번지 한양상가 115호","indutype":"직물 - 카페트,커튼,천막,지물","category":"other"},{"name":"성지세탁소","tel":"031-236-7011","addr":"경기도 수원시 권선구 권선동 1188-1번지 성지 상가 108호","indutype":"수리서비스 - 세탁소","category":"other"}]},{"lat":"37.259680981","long":"127.0285839","imageIndex":17,"items":[{"name":"가나네오퍼스","tel":"070-7777-8919","addr":"경기도 수원시 권선구 권선동 1016-2번지 3층","indutype":"가구 - 기타가구","category":"other"},{"name":"시상종합건축사사무소","tel":"031-225-1430","addr":"경기도 수원시 권선구 권선동 1016-2번지","indutype":"용역 서비스 - 사무서비스","category":"other"}]},{"lat":"37.258040902","long":"127.02950769","imageIndex":17,"items":[{"name":"가나안꽃직매장","tel":"031-235-0033","addr":"경기도 수원시 권선구 권선동 1027-7번지","indutype":"문화.취미 - 화원","category":"other"}]},{"lat":"37.25677119","long":"127.025979","imageIndex":17,"items":[{"name":"가람실버밸리요양원","tel":"031-226-6090","addr":"경기도 수원시 권선구 권선동 1053-7번지 SK프라자 401호","indutype":"기타의료기관 - 기타의료기관 및 기타","category":"other"}]},{"lat":"37.260131835","long":"127.02697204","imageIndex":17,"items":[{"name":"가람종합건축사사무소","tel":"031-226-8444","addr":"경기도 수원시 권선구 권선동 1017-2번지","indutype":"용역 서비스 - 법률회계서비스(개인)","category":"other"},{"name":"쉼","tel":"031-233-1588","addr":"경기도 수원시 권선구 권선동 1017-2번지 3층 302호","indutype":"신변잡화 - 기타잡화","category":"other"}]},{"lat":"37.251077018","long":"127.02414001","imageIndex":17,"items":[{"name":"가시연","tel":"031-893-8950","addr":"경기도 수원시 권선구 권선동 1194-3번지","indutype":"문화.취미 - 화원","category":"other"}]},{"lat":"37.252409186","long":"127.03070051","imageIndex":17,"items":[{"name":"갑부상사","tel":"031-237-3070","addr":"경기도 수원시 권선구 권선동 1256-6번지 202호","indutype":"사무통신 - 기타 사무용품","category":"other"}]},{"lat":"37.252896394","long":"127.02777003","imageIndex":17,"items":[{"name":"강상우골프아카데미","tel":"031-226-5856","addr":"경기도 수원시 권선구 권선동 1330번지 권선자이이편한세상 110동 903호","indutype":"회원제형태 - 레져업소","category":"other"},{"name":"장티공작소","tel":"","addr":"경기도 수원시 권선구 권선동 1330번지 권선자이이편한세상 110동 304호","indutype":"신변잡화 - 액세서리","category":"other"}]},{"lat":"37.24721094","long":"127.02750893","imageIndex":17,"items":[{"name":"같이 뜨개","tel":"","addr":"경기도 수원시 권선구 권선동 1362번지 수원아이파크시티9단지 E2블럭 145호","indutype":"문화.취미 - 문화취미기타","category":"other"},{"name":"마그앤 그래","tel":"031-233-1007","addr":"경기도 수원시 권선구 권선동 1362번지 수원아이파크시티9단지 104호","indutype":"서적문구 - 일반서적","category":"other"},{"name":"마그앤그래","tel":"031-111-1111","addr":"경기도 수원시 권선구 권선동 1362번지 수원아이파크시티9단지 105호","indutype":"서적문구 - 일반서적","category":"other"},{"name":"사라(SARA)","tel":"070-3594-3936","addr":"경기도 수원시 권선구 권선동 1362번지 수원 I PARK CITY E1 BL 800동 145호","indutype":"의류 - 정장","category":"other"},{"name":"유향","tel":"","addr":"경기도 수원시 권선구 권선동 1362번지 아이파크애비뉴 1층 105호","indutype":"문화.취미 - 문화취미기타","category":"other"},{"name":"이마트24 권선아이파크점","tel":"031-000-0000","addr":"경기도 수원시 권선구 권선동 1362번지 수원아이파크시티9단지 118호","indutype":"유통업 영리 - 편 의 점","category":"other"},{"name":"테시 (Tessi)","tel":"","addr":"경기도 수원시 권선구 권선동 1362번지 수원아이파크시티 E2블럭 120호","indutype":"신변잡화 - 액세서리","category":"other"},{"name":"플라워바이빈(FLOWERS BY BIN)","tel":"031-000-0000","addr":"경기도 수원시 권선구 권선동 1362번지 수원아이파크시티9단지 102호","indutype":"문화.취미 - 화원","category":"other"}]},{"lat":"37.262573936","long":"127.02539457","imageIndex":17,"items":[{"name":"거산","tel":"031-238-9084","addr":"경기도 수원시 권선구 권선동 1010-1번지 청광노블하임오피스텔 1015호","indutype":"가구 - 기타가구","category":"other"},{"name":"블루모","tel":"031-222-6730","addr":"경기도 수원시 권선구 권선동 1010-1번지 청광노블하임 915호","indutype":"수리서비스 - 신변잡화수리","category":"other"},{"name":"아경석사골프회","tel":"031-235-3377","addr":"경기도 수원시 권선구 권선동 1010-1번지 청광노블하임 105호","indutype":"기타 - 비영리/비대상","category":"other"},{"name":"예감","tel":"00-1566-1646","addr":"경기도 수원시 권선구 권선동 1010-1번지 청광노블하임 1동 401호","indutype":"건축자재 - 기타건축자재","category":"other"},{"name":"위드미수원청광점","tel":"031-238-8202","addr":"경기도 수원시 권선구 권선동 1010-1번지 청광 노블하임 106호","indutype":"유통업 영리 - 편 의 점","category":"other"},{"name":"재인통상","tel":"031-233-9887","addr":"경기도 수원시 권선구 권선동 1010-1번지 청광 노블하임 913호","indutype":"신변잡화 - 기타잡화","category":"other"},{"name":"주식회사 강남","tel":"031-235-3377","addr":"경기도 수원시 권선구 권선동 1010-1번지 청광노블하임 상가 105호","indutype":"서적문구 - 출판 및 인쇄물","category":"other"},{"name":"주식회사 강남","tel":"031-235-3377","addr":"경기도 수원시 권선구 권선동 1010-1번지 수원청광노블하임 상가","indutype":"서적문구 - 출판 및 인쇄물","category":"other"}]},{"lat":"37.264178568","long":"127.02069402","imageIndex":17,"items":[{"name":"경기교육다산사회적협동조합","tel":"031-271-8875","addr":"경기도 수원시 권선구 권선동 939번지 3층 302호","indutype":"서적문구 - 기타서적문구","category":"other"}]},{"lat":"37.258042342","long":"127.02205655","imageIndex":17,"items":[{"name":"경기금속샤링","tel":"031-223-6780","addr":"경기도 수원시 권선구 권선동 988-11번지","indutype":"기타 - 기계공구","category":"other"}]},{"lat":"37.255040984","long":"127.02711695","imageIndex":17,"items":[{"name":"경기까운","tel":"031-238-3848","addr":"경기도 수원시 권선구 권선동 1043-13번지 1층 101호","indutype":"신변잡화 - 기타잡화","category":"other"},{"name":"올리비아로렌수원권선점","tel":"031-222-8331","addr":"경기도 수원시 권선구 권선동 1043-13번지","indutype":"레져용품 - 스포츠·레져용품","category":"other"}]},{"lat":"37.260457516","long":"127.01930658","imageIndex":17,"items":[{"name":"경기꽃도매","tel":"031-225-2844","addr":"경기도 수원시 권선구 권선동 977번지 1층","indutype":"문화.취미 - 화원","category":"other"}]},{"lat":"37.262655474","long":"127.02291448","imageIndex":17,"items":[{"name":"경기도자동차검사정비사업조합수원지역협의","tel":"031-238-8491","addr":"경기도 수원시 권선구 권선동 945-4번지","indutype":"기타 - 비영리/비대상","category":"other"}]},{"lat":"37.256238698","long":"127.0301383","imageIndex":17,"items":[{"name":"경기비닐포장","tel":"031-225-6367","addr":"경기도 수원시 권선구 권선동 1039-4번지","indutype":"기타 - 기타 전문점","category":"other"}]},{"lat":"37.255157239","long":"127.03108477","imageIndex":17,"items":[{"name":"경기상회","tel":"","addr":"경기도 수원시 권선구 권선동 1229번지","indutype":"유통업 영리 - 농축수산 가공품","category":"other"},{"name":"경남상회","tel":"031-232-3088","addr":"경기도 수원시 권선구 권선동 1229번지","indutype":"유통업 영리 - 농축수산 가공품","category":"other"},{"name":"그린유통","tel":"031-247-1052","addr":"경기도 수원시 권선구 권선동 1229번지 농수산물도매시장","indutype":"유통업 영리 - 농축수산 가공품","category":"other"},{"name":"대양상회","tel":"031-226-3266","addr":"경기도 수원시 권선구 권선동 1229번지","indutype":"유통업 영리 - 농축수산 가공품","category":"other"},{"name":"반석얼음","tel":"031-238-5319","addr":"경기도 수원시 권선구 권선동 1229번지","indutype":"유통업 영리 - 기타유통업","category":"other"},{"name":"부흥상회","tel":"031-224-1463","addr":"경기도 수원시 권선구 권선동 1229번지","indutype":"유통업 영리 - 농축수산 가공품","category":"other"},{"name":"상안상회","tel":"031-237-3619","addr":"경기도 수원시 권선구 권선동 1229번지","indutype":"유통업 영리 - 농축수산 가공품","category":"other"},{"name":"선심상회","tel":"","addr":"경기도 수원시 권선구 권선동 1229번지","indutype":"유통업 영리 - 농축수산 가공품","category":"other"},{"name":"수원어름","tel":"031-236-1903","addr":"경기도 수원시 권선구 권선동 1229번지","indutype":"유통업 영리 - 기타유통업","category":"other"},{"name":"신흥상회","tel":"031-237-3619","addr":"경기도 수원시 권선구 권선동 1229번지 수원원예조합","indutype":"유통업 영리 - 농축수산 가공품","category":"other"},{"name":"왕궁수산","tel":"031-221-3131","addr":"경기도 수원시 권선구 권선동 1229번지","indutype":"용역 서비스 - 기타용역서비스","category":"other"},{"name":"중앙상회","tel":"031-225-2963","addr":"경기도 수원시 권선구 권선동 1229번지","indutype":"유통업 영리 - 농축수산 가공품","category":"other"},{"name":"칠성상회","tel":"031-221-7776","addr":"경기도 수원시 권선구 권선동 1229번지 농수산물도매시장원예농협","indutype":"유통업 영리 - 농축수산 가공품","category":"other"},{"name":"호남유통","tel":"031-252-9281","addr":"경기도 수원시 권선구 권선동 1229번지 농수산물도매시장 36","indutype":"유통업 영리 - 농축수산 가공품","category":"other"}]},{"lat":"37.257960988","long":"127.02361214","imageIndex":17,"items":[{"name":"경기센타","tel":"031-234-5424","addr":"경기도 수원시 권선구 권선동 1034번지","indutype":"기타 - 기계공구","category":"other"}]},{"lat":"37.263349209","long":"127.02325287","imageIndex":17,"items":[{"name":"경성종합건재","tel":"031-236-4040","addr":"경기도 수원시 권선구 권선동 940-3번지","indutype":"건축자재 - 기타건축자재","category":"other"}]},{"lat":"37.256987966","long":"127.02308207","imageIndex":17,"items":[{"name":"경안상사","tel":"031-222-8020","addr":"경기도 수원시 권선구 권선동 1055-13번지","indutype":"건축자재 - 목재·석재·철물","category":"other"}]},{"lat":"37.261376251","long":"127.02144865","imageIndex":17,"items":[{"name":"경애씨엔씨","tel":"031-233-5668","addr":"경기도 수원시 권선구 권선동 955-10번지 1층","indutype":"사무통신 - 기타 사무용품","category":"other"}]},{"lat":"37.257546551","long":"127.02339785","imageIndex":17,"items":[{"name":"경원SM","tel":"031-221-0050","addr":"경기도 수원시 권선구 권선동 1054번지","indutype":"기타 - 기타 전문점","category":"other"}]},{"lat":"37.257213941","long":"127.0183139","imageIndex":17,"items":[{"name":"경인전자","tel":"031-224-7076","addr":"경기도 수원시 권선구 권선동 1000-7번지","indutype":"전기제품 - 가전제품","category":"other"},{"name":"한국생화직매장","tel":"031-238-0184","addr":"경기도 수원시 권선구 권선동 1000-7번지","indutype":"문화.취미 - 화원","category":"other"}]},{"lat":"37.261572896","long":"127.02970058","imageIndex":17,"items":[{"name":"경인프린팅","tel":"031-255-1989","addr":"경기도 수원시 권선구 권선동 1013번지 지오베르크 112호","indutype":"서적문구 - 출판 및 인쇄물","category":"other"},{"name":"블라썸마켓","tel":"031-1111-1111","addr":"경기도 수원시 권선구 권선동 1013번지 지오베르크 901호","indutype":"신변잡화 - 신발","category":"other"},{"name":"수원중부로타리클럽","tel":"031-224-3750","addr":"경기도 수원시 권선구 권선동 1013번지 지오베르크 1108호","indutype":"기타 - 비영리/대상","category":"other"},{"name":"에밀","tel":"031-212-8457","addr":"경기도 수원시 권선구 권선동 1013번지 지오베르크 713호","indutype":"의류 - 정장","category":"other"},{"name":"정인아동발달연구소","tel":"031-224-1259","addr":"경기도 수원시 권선구 권선동 1013번지 지오베르크 605호","indutype":"회원제형태 - 기타4","category":"other"},{"name":"주식회사두성필테크","tel":"031-307-2042","addr":"경기도 수원시 권선구 권선동 1013번지 지오베르크빌딩 609호","indutype":"기타 - 기타 전문점","category":"other"},{"name":"주식회사문보우","tel":"031-257-5589","addr":"경기도 수원시 권선구 권선동 1013번지 지오베르크 316호","indutype":"회원제형태 - 기타4","category":"other"}]},{"lat":"37.257825847","long":"127.02353319","imageIndex":17,"items":[{"name":"경화불교만물","tel":"031-222-3530","addr":"경기도 수원시 권선구 권선동 1034-12번지","indutype":"문화.취미 - 문화취미기타","category":"other"}]},{"lat":"37.261789887","long":"127.02618345","imageIndex":17,"items":[{"name":"계보람상사","tel":"031-212-6430","addr":"경기도 수원시 권선구 권선동 1011-10 대우미래사랑 102-303","indutype":"유통업 영리 - 기타유통업","category":"other"},{"name":"메리트종합건축사사무소","tel":"031-221-4353","addr":"경기도 수원시 권선구 권선동 1011-10번지 올림픽공원대우미래사랑오 102동 1403호","indutype":"건축자재 - 부동산 분양","category":"other"},{"name":"베이스컴퍼니(BASS COMPANY)","tel":"031-404-7378","addr":"경기도 수원시 권선구 권선동 1011-10번지 올림픽공원대우미래사랑 102동 1212호","indutype":"레져용품 - 악기점","category":"other"}]},{"lat":"37.255013925","long":"127.02725221","imageIndex":17,"items":[{"name":"고객만족대리점","tel":"031-232-8011","addr":"경기도 수원시 권선구 권선동 1043-12번지 1층","indutype":"사무통신 - 통신기기","category":"other"},{"name":"웰빙 시스템 퍼니쳐","tel":"031-237-4743","addr":"경기도 수원시 권선구 권선동 1043-12번지 1층","indutype":"주방용구 - 주방용구","category":"other"}]},{"lat":"37.263935135","long":"127.02169729","imageIndex":17,"items":[{"name":"고려물산","tel":"031-238-0195","addr":"경기도 수원시 권선구 권선동 939-4번지 102호","indutype":"기타 - 기타 전문점","category":"other"},{"name":"제일소방기술단(주)","tel":"031-238-1196","addr":"경기도 수원시 권선구 권선동 939-4번지 천일빌딩 303호","indutype":"용역 서비스 - 기타용역서비스","category":"other"},{"name":"청운기업","tel":"031-239-8245","addr":"경기도 수원시 권선구 권선동 939-4번지 1층","indutype":"건축자재 - 인테리어전문","category":"other"}]},{"lat":"37.260771048","long":"127.02939592","imageIndex":17,"items":[{"name":"고려애드컴","tel":"031-244-7580","addr":"경기도 수원시 권선구 권선동 1013-3번지","indutype":"용역 서비스 - 종합용역","category":"other"},{"name":"대신테크","tel":"031-237-5967","addr":"경기도 수원시 권선구 권선동 1013-3번지 1층","indutype":"기타 - 기타 전문점","category":"other"},{"name":"댄싱위드송무도학원","tel":"031-239-2397","addr":"경기도 수원시 권선구 권선동 1013-3번지 2층","indutype":"회원제형태 - 레져업소","category":"other"},{"name":"동일기획","tel":"031-237-6844","addr":"경기도 수원시 권선구 권선동 1013-3번지","indutype":"용역 서비스 - 종합용역","category":"other"},{"name":"유담건축","tel":"031-231-1249","addr":"경기도 수원시 권선구 권선동 1013-3번지","indutype":"용역 서비스 - 기타용역서비스","category":"other"}]},{"lat":"37.258682056","long":"127.02216944","imageIndex":17,"items":[{"name":"공간기획","tel":"031-236-5879","addr":"경기도 수원시 권선구 권선동 988번지","indutype":"건축자재 - 인테리어전문","category":"other"}]},{"lat":"37.250686471","long":"127.03733875","imageIndex":17,"items":[{"name":"공감욕실(타일조명)","tel":"031-305-3917","addr":"경기도 수원시 권선구 권선동 1291-4번지","indutype":"건축자재 - 인테리어전문","category":"other"}]},{"lat":"37.26185317","long":"127.02508998","imageIndex":17,"items":[{"name":"공인회계사김상선사무소","tel":"031-234-2415","addr":"경기도 수원시 권선구 권선동 1010-6번지 새암빌딩 301호","indutype":"용역 서비스 - 법률회계서비스(개인)","category":"other"},{"name":"엔젤하트","tel":"031-278-6331","addr":"경기도 수원시 권선구 권선동 1010-6번지 1층","indutype":"전기제품 - 가전제품","category":"other"},{"name":"예은디자인건축사사무소","tel":"031-224-0005","addr":"경기도 수원시 권선구 권선동 1010-6번지","indutype":"용역 서비스 - 법률회계서비스(개인)","category":"other"}]},{"lat":"37.260187056","long":"127.02036617","imageIndex":17,"items":[{"name":"광고기획 투맨","tel":"031-245-1930","addr":"경기도 수원시 권선구 권선동 975-1번지","indutype":"용역 서비스 - 종합용역","category":"other"}]},{"lat":"37.255319883","long":"127.02908967","imageIndex":17,"items":[{"name":"광명전기조명","tel":"031-223-8456","addr":"경기도 수원시 권선구 권선동 1042-11번지","indutype":"건축자재 - 조명기구","category":"other"},{"name":"수원권투체육관","tel":"031-226-5212","addr":"경기도 수원시 권선구 권선동 1042-11번지","indutype":"회원제형태 - 레져업소","category":"other"},{"name":"이정세라믹스","tel":"031-224-7666","addr":"경기도 수원시 권선구 권선동 1042-11번지 전체 1층","indutype":"건축자재 - 건축용 요업제품","category":"other"},{"name":"제이에스에듀컨설팅학원","tel":"02-111-1111","addr":"경기도 수원시 권선구 권선동 1042-11번지 3층 302호","indutype":"용역 서비스 - 사무서비스","category":"other"},{"name":"한국종합주방","tel":"031-239-1534","addr":"경기도 수원시 권선구 권선동 1042-11,12번지","indutype":"주방용구 - 주방용구","category":"other"}]},{"lat":"37.255987537","long":"127.02469373","imageIndex":17,"items":[{"name":"광목하우스","tel":"070-7808-3072","addr":"경기도 수원시 권선구 권선동 1051번지 120호","indutype":"직물 - 카페트,커튼,천막,지물","category":"other"},{"name":"권선베비라","tel":"031-36-3483","addr":"경기도 수원시 권선구 권선동 1051번지 권선시장 144호","indutype":"의류 - 아동의류","category":"other"},{"name":"권선신발","tel":"031-222-3439","addr":"경기도 수원시 권선구 권선동 1051번지 106호","indutype":"신변잡화 - 신발","category":"other"},{"name":"일번상사","tel":"031-222-3439","addr":"경기도 수원시 권선구 권선동 1051번지 권선종합시장 105호","indutype":"신변잡화 - 신발","category":"other"}]},{"lat":"37.256320643","long":"127.02613668","imageIndex":17,"items":[{"name":"광일씽크","tel":"031-239-4201","addr":"경기도 수원시 권선구 권선동 1047-1번지 1층","indutype":"회원제형태 - 기타3","category":"other"},{"name":"단비","tel":"","addr":"경기도 수원시 권선구 권선동 1047-1번지 1층","indutype":"의류 - 정장","category":"other"}]},{"lat":"37.257409821","long":"127.03106307","imageIndex":17,"items":[{"name":"광천상회","tel":"031-233-2255","addr":"경기도 수원시 권선구 권선동 1025-7번지","indutype":"유통업 영리 - 기타유통업","category":"other"}]},{"lat":"37.25226493","long":"127.03108369","imageIndex":17,"items":[{"name":"국민간식333 (권선점)","tel":"","addr":"경기도 수원시 권선구 권선동 1257-2번지 1층","indutype":"유통업 영리 - 편 의 점","category":"other"},{"name":"좋은자전거","tel":"031-223-3939","addr":"경기도 수원시 권선구 권선동 1257-2번지","indutype":"레져용품 - 스포츠·레져용품","category":"other"}]},{"lat":"37.257600406","long":"127.02455892","imageIndex":17,"items":[{"name":"권선1동주민자치센터","tel":"031-228-6178","addr":"경기도 수원시 권선구 권선동 1034-5번지","indutype":"문화.취미 - 문화취미기타","category":"other"}]},{"lat":"37.251129978","long":"127.02958416","imageIndex":17,"items":[{"name":"권선2동주민자치위원회","tel":"031-228-6159","addr":"경기도 수원시 권선구 권선동 1268-2번지","indutype":"문화.취미 - 문화취미기타","category":"other"}]},{"lat":"37.25879871","long":"127.02491999","imageIndex":17,"items":[{"name":"권선광고시대","tel":"031-204-0724","addr":"경기도 수원시 권선구 권선동 1031-4번지 명화빌딩 1층","indutype":"용역 서비스 - 종합용역","category":"other"},{"name":"넥스퍼스","tel":"031-237-6888","addr":"경기도 수원시 권선구 권선동 1031-4번지 202호","indutype":"레져용품 - 스포츠·레져용품","category":"other"},{"name":"디케이엔터테인먼트(구호박이벤트)","tel":"031-243-7721","addr":"경기도 수원시 권선구 권선동 1031-4번지 1층","indutype":"회원제형태 - 기타4","category":"other"}]},{"lat":"37.257129981","long":"127.0331709","imageIndex":17,"items":[{"name":"권선동 컴퓨터수리(파란컴퓨터)","tel":"031-546-0505","addr":"경기도 수원시 권선구 권선동 1159-6번지 2층","indutype":"수리서비스 - 사무·통신기기수리","category":"other"},{"name":"필름마을","tel":"031-890-6929","addr":"경기도 수원시 권선구 권선동 1159-6번지 1층","indutype":"건축자재 - 기타건축자재","category":"other"}]},{"lat":"37.256266652","long":"127.02577595","imageIndex":17,"items":[{"name":"권선베스토아","tel":"031-239-8836","addr":"경기도 수원시 권선구 권선동 1052-4번지","indutype":"유통업 영리 - 편 의 점","category":"other"},{"name":"투데이뉴스","tel":"031-233-9114","addr":"경기도 수원시 권선구 권선동 1052-4번지","indutype":"유통업 영리 - 기타유통업","category":"other"}]},{"lat":"37.255320824","long":"127.02442301","imageIndex":17,"items":[{"name":"권선이동통신","tel":"031-222-1131","addr":"경기도 수원시 권선구 권선동 1062-12번지","indutype":"사무통신 - 통신기기","category":"other"},{"name":"드림에듀","tel":"031-221-8815","addr":"경기도 수원시 권선구 권선동 1062-12번지","indutype":"회원제형태 - 서적","category":"other"},{"name":"삼성당","tel":"031-221-1178","addr":"경기도 수원시 권선구 권선동 1062-12번지 1층 2호","indutype":"신변잡화 - 귀금속","category":"other"},{"name":"이불개는남자","tel":"031-224-5684","addr":"경기도 수원시 권선구 권선동 1062-12번지","indutype":"직물 - 침구·수예점","category":"other"}]},{"lat":"37.253986773","long":"127.02713916","imageIndex":17,"items":[{"name":"권선자이송이합동공인중개사사무소","tel":"031-226-6113","addr":"경기도 수원시 권선구 권선동 1067 상가 116","indutype":"용역 서비스 - 부동산 중개·임대","category":"other"}]},{"lat":"37.257068829","long":"127.02438969","imageIndex":17,"items":[{"name":"권선자전거","tel":"031-235-9285","addr":"경기도 수원시 권선구 권선동 1054-24번지 1층","indutype":"레져용품 - 스포츠·레져용품","category":"other"}]},{"lat":"37.255572852","long":"127.02580955","imageIndex":17,"items":[{"name":"권선장식","tel":"031-33-2142","addr":"경기도 수원시 권선구 권선동 1049번지","indutype":"직물 - 카페트,커튼,천막,지물","category":"other"}]},{"lat":"37.256853316","long":"127.01986941","imageIndex":17,"items":[{"name":"권선종합알뜰매장","tel":"031-233-6950","addr":"경기도 수원시 권선구 권선동 1001-7번지","indutype":"신변잡화 - 기타잡화","category":"other"}]},{"lat":"37.259151182","long":"127.01811139","imageIndex":17,"items":[{"name":"귀보석","tel":"031-36-1325","addr":"경기도 수원시 권선구 권선동 979-8번지","indutype":"신변잡화 - 시계","category":"other"}]},{"lat":"37.258734753","long":"127.02924867","imageIndex":17,"items":[{"name":"귀빈양복점","tel":"031-234-6060","addr":"경기도 수원시 권선구 권선동 1021-15번지","indutype":"의류 - 정장","category":"other"},{"name":"이강복갤러리","tel":"031-235-9869","addr":"경기도 수원시 권선구 권선동 1021-15번지 1층","indutype":"가구 - 일반가구","category":"other"}]},{"lat":"37.258491764","long":"127.02791841","imageIndex":17,"items":[{"name":"규수방","tel":"031-224-8594","addr":"경기도 수원시 권선구 권선동 1028-3번지","indutype":"가구 - 일반가구","category":"other"},{"name":"대한사무용가구","tel":"031-221-9109","addr":"경기도 수원시 권선구 권선동 1028번지 3호","indutype":"가구 - 기타가구","category":"other"},{"name":"우드피아","tel":"031-222-4422","addr":"경기도 수원시 권선구 권선동 1028번지 3호","indutype":"가구 - 일반가구","category":"other"}]},{"lat":"37.261042922","long":"127.02111038","imageIndex":17,"items":[{"name":"그린정보통신","tel":"031-254-8114","addr":"경기도 수원시 권선구 권선동 964-25번지 쉐르빌","indutype":"사무통신 - 통신기기","category":"other"},{"name":"신도O.A솔루션","tel":"031-252-5212","addr":"경기도 수원시 권선구 권선동 964-25번지 쉐르빌","indutype":"사무통신 - 사무용 OA기기","category":"other"},{"name":"에어컨박사","tel":"","addr":"경기도 수원시 권선구 권선동 964-25번지 쉐르빌 4층 402호","indutype":"용역 서비스 - 기타용역서비스","category":"other"}]},{"lat":"37.259601204","long":"127.02156094","imageIndex":17,"items":[{"name":"금호씨앤에이","tel":"031-255-2355","addr":"경기도 수원시 권선구 권선동 972-8번지","indutype":"용역 서비스 - 종합용역","category":"other"}]},{"lat":"37.251597184","long":"127.03494959","imageIndex":17,"items":[{"name":"기독교대한성결교회 동수원교회","tel":"031-235-7009","addr":"경기도 수원시 권선구 권선동 1294-1번지","indutype":"기타 - 비영리/대상","category":"other"}]},{"lat":"37.256294288","long":"127.02239427","imageIndex":17,"items":[{"name":"김용선세무회계사무소","tel":"031-224-5393","addr":"경기도 수원시 권선구 권선동 1004-1번지 상화빌딩 5층","indutype":"용역 서비스 - 법률회계서비스(개인)","category":"other"}]},{"lat":"37.260908061","long":"127.01909249","imageIndex":17,"items":[{"name":"까비애견샵","tel":"031-898-6821","addr":"경기도 수원시 권선구 권선동 965번지 1층","indutype":"문화.취미 - 애완동물","category":"other"},{"name":"무한타올(현주상사)","tel":"031-224-8885","addr":"경기도 수원시 권선구 권선동 965번지","indutype":"직물 - 옷감·직물","category":"other"},{"name":"사진가의집","tel":"","addr":"경기도 수원시 권선구 권선동 965번지","indutype":"광학제품 - 사진관","category":"other"}]},{"lat":"37.257184077","long":"127.03303565","imageIndex":17,"items":[{"name":"까사디자인","tel":"031-233-8923","addr":"경기도 수원시 권선구 권선동 1159-5번지","indutype":"직물 - 카페트,커튼,천막,지물","category":"other"},{"name":"한빛문화사","tel":"031-237-8814","addr":"경기도 수원시 권선구 권선동 1159-5번지","indutype":"용역 서비스 - 사무서비스","category":"other"}]},{"lat":"37.257907142","long":"127.02233833","imageIndex":17,"items":[{"name":"깨끗한사람들이레사운드","tel":"031-898-7728","addr":"경기도 수원시 권선구 권선동 989-4번지 102호","indutype":"전기제품 - 가전제품","category":"other"}]},{"lat":"37.263186777","long":"127.02463944","imageIndex":17,"items":[{"name":"꿈애견","tel":"031-222-7617","addr":"경기도 수원시 권선구 권선동 941-5번지 1층","indutype":"문화.취미 - 애완동물","category":"other"}]},{"lat":"37.256877441","long":"127.03414022","imageIndex":17,"items":[{"name":"나노그래픽","tel":"031-291-0681","addr":"경기도 수원시 권선구 권선동 1165-5번지","indutype":"건축자재 - 인테리어전문","category":"other"}]},{"lat":"37.250559445","long":"127.04024672","imageIndex":17,"items":[{"name":"나누리주방","tel":"","addr":"경기도 수원시 권선구 권선동 1304번지 권선3지구주공3단지 336동 205호","indutype":"주방용구 - 주방용구","category":"other"}]},{"lat":"37.249185134","long":"127.02250515","imageIndex":17,"items":[{"name":"나라애견","tel":"031-223-1163","addr":"경기도 수원시 권선구 권선동 1193-2번지 미래타운 107호","indutype":"문화.취미 - 애완동물","category":"other"},{"name":"레드힘(REDHIM)","tel":"031-267-6770","addr":"경기도 수원시 권선구 권선동 1193-2번지 여객타운빌딩 1층 105호","indutype":"의류 - 정장","category":"other"},{"name":"마리","tel":"031-223-6763","addr":"경기도 수원시 권선구 권선동 1193-2번지 미래타운빌딩 106호","indutype":"의류 - 정장","category":"other"},{"name":"엄지공주","tel":"031-225-5009","addr":"경기도 수원시 권선구 권선동 1193-2번지 미래타운빌딩 1층 104호","indutype":"회원제형태 - 기타4","category":"other"},{"name":"온누리통신","tel":"031-267-0999","addr":"경기도 수원시 권선구 권선동 1193-2번지 미래타운빌딩 102호","indutype":"사무통신 - 통신기기","category":"other"},{"name":"젬렉스","tel":"031-238-7028","addr":"경기도 수원시 권선구 권선동 1193-2번지 미래타운빌딩 102호","indutype":"신변잡화 - 귀금속","category":"other"},{"name":"지니어스리더십 주식회사","tel":"031-439-1919","addr":"경기도 수원시 권선구 권선동 1193-2번지 미래타운빌딩 702호","indutype":"용역 서비스 - 사무서비스","category":"other"},{"name":"프라임텔레콤","tel":"031-224-6634","addr":"경기도 수원시 권선구 권선동 1193-2번지 미래타운빌딩 1층 101호","indutype":"사무통신 - 통신기기","category":"other"}]},{"lat":"37.258852472","long":"127.02647563","imageIndex":17,"items":[{"name":"나모 엔터테인먼트","tel":"031-233-2670","addr":"경기도 수원시 권선구 권선동 1029-1번지 301호","indutype":"가구 - 일반가구","category":"other"},{"name":"다우닝가구 수원점","tel":"031-224-1714","addr":"경기도 수원시 권선구 권선동 1029-1번지 A동 101호 ,201,지층비1호","indutype":"가구 - 일반가구","category":"other"},{"name":"리바트 수원점","tel":"031-238-2848","addr":"경기도 수원시 권선구 권선동 1029-1번지 지하1층,1층","indutype":"가구 - 일반가구","category":"other"},{"name":"베르디","tel":"031-238-2848","addr":"경기도 수원시 권선구 권선동 1029-1번지 2층","indutype":"가구 - 일반가구","category":"other"},{"name":"장수돌침대","tel":"031-226-8833","addr":"경기도 수원시 권선구 권선동 1029-1번지 A동 401호","indutype":"가구 - 일반가구","category":"other"},{"name":"장수온돌침대","tel":"031-226-8833","addr":"경기도 수원시 권선구 권선동 1029-1 301,401,501","indutype":"가구 - 일반가구","category":"other"},{"name":"헨리갤러리","tel":"031-222-6448","addr":"경기도 수원시 권선구 권선동 1029-1번지","indutype":"가구 - 일반가구","category":"other"}]},{"lat":"37.257906499","long":"127.02592299","imageIndex":17,"items":[{"name":"나모나무(NamoNamoo)","tel":"031-221-1103","addr":"경기도 수원시 권선구 권선동 1035번지 권선SKVIEW 110동 1층 102호","indutype":"가구 - 일반가구","category":"other"},{"name":"누리공예","tel":"031-238-2606","addr":"경기도 수원시 권선구 권선동 1035번지 수원권선SKVIEW223동1층103호","indutype":"문화.취미 - 문화취미기타","category":"other"},{"name":"더문코리아","tel":"070-1111-1111","addr":"경기도 수원시 권선구 권선동 1035번지 권선SKVIEW 222동 1층 102호","indutype":"의류 - 정장","category":"other"}]},{"lat":"37.257211146","long":"127.03288912","imageIndex":17,"items":[{"name":"나스트로 놀라","tel":"02-1111-1111","addr":"경기도 수원시 권선구 권선동 1159-4번지 ,1,2층","indutype":"의류 - 정장","category":"other"},{"name":"나스트로놀라","tel":"031-224-5419","addr":"경기도 수원시 권선구 권선동 1159-4번지","indutype":"의류 - 정장","category":"other"},{"name":"대우전자명일점","tel":"031-37-1604","addr":"경기도 수원시 권선구 권선동 1159-4번지","indutype":"전기제품 - 가전제품","category":"other"}]},{"lat":"37.260464485","long":"127.03033147","imageIndex":17,"items":[{"name":"나우히얼","tel":"031-291-3524","addr":"경기도 수원시 권선구 권선동 1014-5번지 우덕빌딩 1층","indutype":"의류 - 정장","category":"other"},{"name":"미니스톱 수원베스트점","tel":"031-1577-9621","addr":"경기도 수원시 권선구 권선동 1014-5번지 1층","indutype":"유통업 영리 - 편 의 점","category":"other"}]},{"lat":"37.256958608","long":"127.03385845","imageIndex":17,"items":[{"name":"나인문","tel":"031-111-1111","addr":"경기도 수원시 권선구 권선동 1165-3번지 203호","indutype":"신변잡화 - 기타잡화","category":"other"}]},{"lat":"37.263295269","long":"127.02253136","imageIndex":17,"items":[{"name":"나인뮤직스튜디오","tel":"031-238-0685","addr":"경기도 수원시 권선구 권선동 947번지","indutype":"용역 서비스 - 사무서비스","category":"other"},{"name":"메리골드","tel":"031-232-4884","addr":"경기도 수원시 권선구 권선동 947번지 1층","indutype":"의류 - 정장","category":"other"}]},{"lat":"37.260015549","long":"127.02236142","imageIndex":17,"items":[{"name":"나플로라","tel":"070-7543-2199","addr":"경기도 수원시 권선구 권선동 967번지 1층","indutype":"문화.취미 - 화원","category":"other"},{"name":"대한통신","tel":"031-226-0400","addr":"경기도 수원시 권선구 권선동 967번지","indutype":"사무통신 - 통신기기","category":"other"}]},{"lat":"37.260961867","long":"127.02086235","imageIndex":17,"items":[{"name":"남도종합건재","tel":"031-233-7853","addr":"경기도 수원시 권선구 권선동 964-26번지","indutype":"건축자재 - 기타건축자재","category":"other"}]},{"lat":"37.254932617","long":"127.02827794","imageIndex":17,"items":[{"name":"남수원액자","tel":"031-233-2896","addr":"경기도 수원시 권선구 권선동 1043-6번지","indutype":"문화.취미 - 화방·표구점","category":"other"}]},{"lat":"37.258853483","long":"127.02069276","imageIndex":17,"items":[{"name":"남수원워터스","tel":"031-222-5015","addr":"경기도 수원시 권선구 권선동 984-12번지","indutype":"주방용구 - 정수기","category":"other"},{"name":"용성정보통신","tel":"031-221-6986","addr":"경기도 수원시 권선구 권선동 984-12번지 101호","indutype":"사무통신 - 컴퓨터","category":"other"}]},{"lat":"37.245237336","long":"127.02910872","imageIndex":17,"items":[{"name":"낭만출력소 권선점","tel":"031-0000-0000","addr":"경기도 수원시 권선구 권선동 1361번지 수원아이파크시티2단지 216동 104호","indutype":"광학제품 - 사진관","category":"other"}]},{"lat":"37.258628274","long":"127.02036581","imageIndex":17,"items":[{"name":"네온프라자","tel":"031-111-1111","addr":"경기도 수원시 권선구 권선동 984-5번지 지층","indutype":"용역 서비스 - 기타용역서비스","category":"other"}]},{"lat":"37.25821347","long":"127.02247368","imageIndex":17,"items":[{"name":"노투스바이크","tel":"031-233-1818","addr":"경기도 수원시 권선구 권선동 989-2번지 1층","indutype":"레져용품 - 스포츠·레져용품","category":"other"},{"name":"시원정보통신","tel":"","addr":"경기도 수원시 권선구 권선동 989-2번지 401호","indutype":"사무통신 - 통신기기","category":"other"},{"name":"잔다냥","tel":"031-222-3141","addr":"경기도 수원시 권선구 권선동 989-2번지 2층","indutype":"문화.취미 - 애완동물","category":"other"},{"name":"주식회사 지은다","tel":"031-267-0607","addr":"경기도 수원시 권선구 권선동 989-2번지 이연빌딩 401호","indutype":"용역 서비스 - 기타용역서비스","category":"other"}]},{"lat":"37.255741628","long":"127.03603348","imageIndex":17,"items":[{"name":"누리소파","tel":"031-236-6340","addr":"경기도 수원시 권선구 권선동 1172번지","indutype":"가구 - 일반가구","category":"other"},{"name":"홈컴MOBILE&COMPUTING","tel":"031-224-3410","addr":"경기도 수원시 권선구 권선동 1172번지","indutype":"수리서비스 - 사무·통신기기수리","category":"other"}]},{"lat":"37.257628539","long":"127.01733328","imageIndex":17,"items":[{"name":"다솜이불마트","tel":"031-234-6679","addr":"경기도 수원시 권선구 권선동 1000번지","indutype":"직물 - 침구·수예점","category":"other"},{"name":"제이에이치샵","tel":"031-234-6126","addr":"경기도 수원시 권선구 권선동 1000번지","indutype":"신변잡화 - 액세서리","category":"other"},{"name":"하은BYC","tel":"031-365-5375","addr":"경기도 수원시 권선구 권선동 1000번지 제로마트","indutype":"의류 - 내의판매","category":"other"}]},{"lat":"37.258572932","long":"127.02755772","imageIndex":17,"items":[{"name":"다우닝소파","tel":"031-233-1714","addr":"경기도 수원시 권선구 권선동 1028-1번지 1층","indutype":"가구 - 일반가구","category":"other"}]},{"lat":"37.261375662","long":"127.02488692","imageIndex":17,"items":[{"name":"다음씨엔씨","tel":"031-222-5162","addr":"경기도 수원시 권선구 권선동 1009번지 성은빌딩 1층","indutype":"사무통신 - 컴퓨터","category":"other"},{"name":"더캠프 수원점","tel":"070-8253-9080","addr":"경기도 수원시 권선구 권선동 1009번지 3층","indutype":"레져용품 - 스포츠·레져용품","category":"other"},{"name":"페리스","tel":"031-239-1072","addr":"경기도 수원시 권선구 권선동 1009번지 성은빌딩","indutype":"신변잡화 - 귀금속","category":"other"}]},{"lat":"37.25179466","long":"127.03760977","imageIndex":17,"items":[{"name":"단디자인","tel":"031-222-6096","addr":"경기도 수원시 권선구 권선동 1286-5번지 상가동 1층 3호 좌측","indutype":"건축자재 - 인테리어전문","category":"other"}]},{"lat":"37.261123927","long":"127.02167405","imageIndex":17,"items":[{"name":"대광전기주식회사","tel":"031-235-2019","addr":"경기도 수원시 권선구 권선동 956-8번지","indutype":"전기제품 - 기타전기제품","category":"other"},{"name":"대양문화사","tel":"031-222-1677","addr":"경기도 수원시 권선구 권선동 956-8번지 2층 3호","indutype":"서적문구 - 출판 및 인쇄물","category":"other"},{"name":"디자인 지안","tel":"031-236-0894","addr":"경기도 수원시 권선구 권선동 956-8번지 2층 202호","indutype":"서적문구 - 출판 및 인쇄물","category":"other"}]},{"lat":"37.252851631","long":"127.02636105","imageIndex":17,"items":[{"name":"대림자이명품세탁","tel":"031-221-0071","addr":"경기도 수원시 권선구 권선동 1330번지 권선자이이편한세상 2동 B201호","indutype":"수리서비스 - 세탁소","category":"other"},{"name":"블럭팝에듀센터","tel":"031-237-3332","addr":"경기도 수원시 권선구 권선동 1330번지 권선자이이편한세상 B동 207호","indutype":"서적문구 - 일반서적","category":"other"},{"name":"주식회사 서교여행사","tel":"031-223-0130","addr":"경기도 수원시 권선구 권선동 1330번지 권선자이이편한세상 상가 A동 113호","indutype":"여행 - 관광여행","category":"other"},{"name":"포슬린아트아카데미 수원점","tel":"031-286-2808","addr":"경기도 수원시 권선구 권선동 1330번지 권선자이이편한세상 상가 1동 A-112호 권성동","indutype":"문화.취미 - 민예·공예품","category":"other"}]},{"lat":"37.255211772","long":"127.02903327","imageIndex":17,"items":[{"name":"대림철물상사","tel":"031-236-7781","addr":"경기도 수원시 권선구 권선동 1042-10번지","indutype":"기타 - 기계공구","category":"other"}]},{"lat":"37.255825231","long":"127.0253362","imageIndex":17,"items":[{"name":"대명장식","tel":"031-237-9304","addr":"경기도 수원시 권선구 권선동 1050번지 권선 상가 121호","indutype":"직물 - 카페트,커튼,천막,지물","category":"other"},{"name":"링크하우징","tel":"031-226-2088","addr":"경기도 수원시 권선구 권선동 1050번지 권선종합상가 1동 111호","indutype":"건축자재 - 인테리어전문","category":"other"},{"name":"마젤라","tel":"031-000-0000","addr":"경기도 수원시 권선구 권선동 1050번지 권선종합상가 1동 1층 47호","indutype":"의류 - 정장","category":"other"},{"name":"법무사김기사무소","tel":"031-211-7000","addr":"경기도 수원시 권선구 권선동 1050번지 권선상가 204호","indutype":"용역 서비스 - 법률회계서비스(개인)","category":"other"},{"name":"복돌이숙녀복","tel":"031-236-5178","addr":"경기도 수원시 권선구 권선동 1050번지 권선 상가 93호","indutype":"의류 - 정장","category":"other"},{"name":"비와이씨","tel":"031-235-9314","addr":"경기도 수원시 권선구 권선동 1050번지 (권선상가45)","indutype":"의류 - 내의판매","category":"other"},{"name":"삼진관광(주)","tel":"031-239-9200","addr":"경기도 수원시 권선구 권선동 1050번지 권선 상가 204호","indutype":"여행 - 관광여행","category":"other"},{"name":"서부모범상사","tel":"","addr":"경기도 수원시 권선구 권선동 1050번지 권선종합상가 1동 32호","indutype":"의류 - 단체복","category":"other"},{"name":"수원통신","tel":"031-248-0032","addr":"경기도 수원시 권선구 권선동 1050번지 119호","indutype":"사무통신 - 통신기기","category":"other"},{"name":"슈가","tel":"031-267-3353","addr":"경기도 수원시 권선구 권선동 1050번지 권선종합상가 61호","indutype":"의류 - 정장","category":"other"},{"name":"유성공예","tel":"031-235-5708","addr":"경기도 수원시 권선구 권선동 1050번지 (권선상가-37)","indutype":"문화.취미 - 민예·공예품","category":"other"},{"name":"줌마렐라","tel":"031-221-3543","addr":"경기도 수원시 권선구 권선동 1050번지 권선 상가 133호","indutype":"의류 - 정장","category":"other"},{"name":"쥬노","tel":"031-225-6478","addr":"경기도 수원시 권선구 권선동 1050번지 권선 상가 71호","indutype":"의류 - 정장","category":"other"},{"name":"캐라반","tel":"031-34-7188","addr":"경기도 수원시 권선구 권선동 1050번지 권선종합상가 12호","indutype":"신변잡화 - 제화","category":"other"},{"name":"캔버스","tel":"031-35-3282","addr":"경기도 수원시 권선구 권선동 1050번지 권선종합상가 34호","indutype":"의류 - 정장","category":"other"},{"name":"케이모바일","tel":"","addr":"경기도 수원시 권선구 권선동 1050번지 권선종합상가 122호","indutype":"사무통신 - 통신기기","category":"other"},{"name":"토탈패션","tel":"031-232-7615","addr":"경기도 수원시 권선구 권선동 1050번지 권선종합상가1층52호","indutype":"의류 - 정장","category":"other"},{"name":"폼생폼사","tel":"031-239-3196","addr":"경기도 수원시 권선구 권선동 1050번지 동신 상가 127호","indutype":"의류 - 정장","category":"other"},{"name":"한미주단","tel":"031-234-6736","addr":"경기도 수원시 권선구 권선동 1050번지 권선종합상가","indutype":"의류 - 맞춤복점","category":"other"}]},{"lat":"37.253230007","long":"127.02664296","imageIndex":17,"items":[{"name":"대산토종약초","tel":"070-8246-1715","addr":"경기도 수원시 권선구 권선동 1330번지 권선자이e-편한세상 112동 202호","indutype":"회원제형태 - 기타1","category":"other"}]},{"lat":"37.261268082","long":"127.02173045","imageIndex":17,"items":[{"name":"대성F&C","tel":"031-232-0695","addr":"경기도 수원시 권선구 권선동 956-7번지","indutype":"회원제형태 - 기타4","category":"other"}]},{"lat":"37.256652102","long":"127.03444448","imageIndex":17,"items":[{"name":"대성공조","tel":"031-334-4162","addr":"경기도 수원시 권선구 권선동 1165-9번지 103호","indutype":"용역 서비스 - 기타용역서비스","category":"other"},{"name":"우리건축설비","tel":"031-225-9933","addr":"경기도 수원시 권선구 권선동 1165-9번지 1층","indutype":"용역 서비스 - 기타용역서비스","category":"other"},{"name":"평국 A앤S","tel":"","addr":"경기도 수원시 권선구 권선동 1165-9번지 202호","indutype":"수리서비스 - 가정용품수리","category":"other"}]},{"lat":"37.256888592","long":"127.02455872","imageIndex":17,"items":[{"name":"대성산업","tel":"031-308-1622","addr":"경기도 수원시 권선구 권선동 1055-28번지 삼원빌라 A동 301호","indutype":"건축자재 - 페인트","category":"other"}]},{"lat":"37.255347172","long":"127.02789483","imageIndex":17,"items":[{"name":"대양지도","tel":"031-235-8667","addr":"경기도 수원시 권선구 권선동 1044-1번지 금성아파트 1층","indutype":"서적문구 - 출판 및 인쇄물","category":"other"}]},{"lat":"37.257376208","long":"127.01767141","imageIndex":17,"items":[{"name":"대양컴퓨터","tel":"031-235-5827","addr":"경기도 수원시 권선구 권선동 1000-8번지","indutype":"사무통신 - 컴퓨터","category":"other"},{"name":"우남전기조명","tel":"031-238-2223","addr":"경기도 수원시 권선구 권선동 1000-8번지","indutype":"건축자재 - 조명기구","category":"other"}]},{"lat":"37.261708808","long":"127.02611579","imageIndex":17,"items":[{"name":"대우미래세탁소","tel":"031-224-3330","addr":"경기도 수원시 권선구 권선동 1011-10번지 대우미래사랑 상가 102동 101-2호","indutype":"수리서비스 - 세탁소","category":"other"}]},{"lat":"37.255879851","long":"127.02216872","imageIndex":17,"items":[{"name":"대원상사","tel":"031-226-0770","addr":"경기도 수원시 권선구 권선동 1058번지","indutype":"건축자재 - 건축용 요업제품","category":"other"},{"name":"주식회사에너옵토","tel":"031-222-3868","addr":"경기도 수원시 권선구 권선동 1058번지","indutype":"기타 - 기타 전문점","category":"other"}]},{"lat":"37.257436625","long":"127.03199869","imageIndex":17,"items":[{"name":"대일기획","tel":"031-237-7303","addr":"경기도 수원시 권선구 권선동 1154-3번지","indutype":"서적문구 - 출판 및 인쇄물","category":"other"},{"name":"만물철물","tel":"031-236-2841","addr":"경기도 수원시 권선구 권선동 1154-3번지","indutype":"기타 - 기계공구","category":"other"}]},{"lat":"37.255680883","long":"127.02628302","imageIndex":17,"items":[{"name":"대한불교묵조선종관음정사","tel":"031-892-9394","addr":"경기도 수원시 권선구 권선동 1048-14번지","indutype":"회원제형태 - 기타4","category":"other"}]},{"lat":"37.256131876","long":"127.02372436","imageIndex":17,"items":[{"name":"댄스스포츠클럽타운","tel":"031-236-1154","addr":"경기도 수원시 권선구 권선동 1057-7번지 2층","indutype":"회원제형태 - 레져업소","category":"other"}]},{"lat":"37.248876001","long":"127.03519641","imageIndex":17,"items":[{"name":"더북 (The Book)","tel":"","addr":"경기도 수원시 권선구 권선동 1311-6번지 에스띠보보1차 3층 313호","indutype":"서적문구 - 일반서적","category":"other"},{"name":"행복동행 입주박람회","tel":"","addr":"경기도 수원시 권선구 권선동 1311-6번지 에스띠보보1차 410호","indutype":"용역 서비스 - 종합용역","category":"other"}]},{"lat":"37.260520412","long":"127.02053534","imageIndex":17,"items":[{"name":"더조은디자인","tel":"031-731-9709","addr":"경기도 수원시 권선구 권선동 965-8번지 1층","indutype":"건축자재 - 인테리어전문","category":"other"}]},{"lat":"37.255653234","long":"127.02922505","imageIndex":17,"items":[{"name":"덕원아이엔티","tel":"031-267-1107","addr":"경기도 수원시 권선구 권선동 1042-14번지 영진빌딩 2층","indutype":"기타 - 기계공구","category":"other"}]},{"lat":"37.253418904","long":"127.02818726","imageIndex":17,"items":[{"name":"데이원수원대리점","tel":"","addr":"경기도 수원시 권선구 권선동 1330번지 권선자이이편한세상 107동 401호","indutype":"문화.취미 - 애완동물","category":"other"}]},{"lat":"37.257707439","long":"127.02986829","imageIndex":17,"items":[{"name":"데코프로","tel":"031-213-7397","addr":"경기도 수원시 권선구 권선동 1026-7번지 1층 및 지하","indutype":"건축자재 - 인테리어전문","category":"other"},{"name":"라인도장","tel":"031-223-9158","addr":"경기도 수원시 권선구 권선동 1026-7번지","indutype":"건축자재 - 페인트","category":"other"}]},{"lat":"37.241993859","long":"127.02800312","imageIndex":17,"items":[{"name":"도로시","tel":"031-224-6864","addr":"경기도 수원시 권선구 권선동 1357번지 제상가 1동 103호","indutype":"의류 - 정장","category":"other"},{"name":"백악관","tel":"031-212-4460","addr":"경기도 수원시 권선구 권선동 1357번지 현대아이파크4단지 상가 102호","indutype":"수리서비스 - 세탁소","category":"other"},{"name":"크린토피아 권선아이파크4단지점","tel":"031-222-2032","addr":"경기도 수원시 권선구 권선동 1357번지 수원아이파크시티4단지 상가 2동 11호","indutype":"수리서비스 - 세탁소","category":"other"}]},{"lat":"37.245678579","long":"127.03026975","imageIndex":17,"items":[{"name":"도토리에듀","tel":"","addr":"경기도 수원시 권선구 권선동 1361번지 수원아이파크시티2단지 221동 1001호","indutype":"서적문구 - 일반서적","category":"other"}]},{"lat":"37.25138012","long":"127.03783501","imageIndex":17,"items":[{"name":"돌담정원","tel":"031-212-8002","addr":"경기도 수원시 권선구 권선동 1286-9번지 뉴빌 203호","indutype":"문화.취미 - 화원","category":"other"}]},{"lat":"37.250326569","long":"127.03553517","imageIndex":17,"items":[{"name":"동그라미교육","tel":"031-234-2202","addr":"경기도 수원시 권선구 권선동 1297-5번지 태양프라자 3층 301호","indutype":"회원제형태 - 서적","category":"other"},{"name":"듀오","tel":"031-224-4662","addr":"경기도 수원시 권선구 권선동 1297-5번지 태양프라자 1층 112호","indutype":"회원제형태 - 기타4","category":"other"},{"name":"정운스크린골프","tel":"031-237-0753","addr":"경기도 수원시 권선구 권선동 1297-5번지 태양프라자 601~602호","indutype":"회원제형태 - 레져업소","category":"other"}]},{"lat":"37.258933614","long":"127.02622766","imageIndex":17,"items":[{"name":"동서가구동수원점","tel":"031-234-4005","addr":"경기도 수원시 권선구 권선동 1029-10번지","indutype":"가구 - 일반가구","category":"other"}]},{"lat":"37.25657291","long":"127.02624948","imageIndex":17,"items":[{"name":"동서지물커텐","tel":"031-235-7222","addr":"경기도 수원시 권선구 권선동 1046-13번지","indutype":"직물 - 카페트,커튼,천막,지물","category":"other"}]},{"lat":"37.258096984","long":"127.01805481","imageIndex":17,"items":[{"name":"동아매경권선곡선센타","tel":"031-232-0928","addr":"경기도 수원시 권선구 권선동 998-7 103호~104호","indutype":"서적문구 - 정기간행물","category":"other"}]},{"lat":"37.256462907","long":"127.0343655","imageIndex":17,"items":[{"name":"동양건축설비","tel":"031-239-9887","addr":"경기도 수원시 권선구 권선동 1164-8번지","indutype":"회원제형태 - 기타4","category":"other"},{"name":"우선컴퓨터세탁소","tel":"031-223-5214","addr":"경기도 수원시 권선구 권선동 1164-8번지","indutype":"수리서비스 - 세탁소","category":"other"}]},{"lat":"37.260628193","long":"127.02269976","imageIndex":17,"items":[{"name":"동양공사","tel":"031-222-6943","addr":"경기도 수원시 권선구 권선동 962-9번지","indutype":"건축자재 - 인테리어전문","category":"other"}]},{"lat":"37.25487866","long":"127.02778195","imageIndex":17,"items":[{"name":"동양유리알미늄","tel":"031-239-4577","addr":"경기도 수원시 권선구 권선동 1043-15번지","indutype":"건축자재 - 유리","category":"other"}]},{"lat":"37.257851445","long":"127.03055597","imageIndex":17,"items":[{"name":"동양토탈남수원대리점","tel":"031-34-9595","addr":"경기도 수원시 권선구 권선동 1025번지","indutype":"가구 - 일반가구","category":"other"},{"name":"로이젠수원권선점","tel":"031-224-7990","addr":"경기도 수원시 권선구 권선동 1025번지 1층,2층","indutype":"의류 - 정장","category":"other"}]},{"lat":"37.259520414","long":"127.01953183","imageIndex":17,"items":[{"name":"동우씨엠","tel":"031-222-9929","addr":"경기도 수원시 권선구 권선동 981-12번지 101동 102호","indutype":"신변잡화 - 기타잡화","category":"other"},{"name":"블루밍","tel":"031-224-7442","addr":"경기도 수원시 권선구 권선동 981-12번지 1층 105호","indutype":"의류 - 정장","category":"other"},{"name":"예인기획","tel":"031-224-1709","addr":"경기도 수원시 권선구 권선동 981-12번지 1층 103호","indutype":"용역 서비스 - 종합용역","category":"other"}]},{"lat":"37.26109615","long":"127.02590141","imageIndex":17,"items":[{"name":"동원시스템","tel":"031-234-0150","addr":"경기도 수원시 권선구 권선동 1011-14번지 대우미래사랑 101동 1212호","indutype":"사무통신 - 통신기기","category":"other"},{"name":"인터랩","tel":"070-7753-6927","addr":"경기도 수원시 권선구 권선동 1011-14번지 올림픽공원대우미래사랑 101동 1413호","indutype":"서적문구 - 과학기자재","category":"other"},{"name":"호텔도노 인(hotelDoNo inn)","tel":"031-258-8881","addr":"경기도 수원시 권선구 권선동 1011-14번지 대우미래사랑 101동 1410호","indutype":"용역 서비스 - 사무서비스","category":"other"}]},{"lat":"37.240491086","long":"127.01586492","imageIndex":17,"items":[{"name":"동진알미늄","tel":"031-235-4341","addr":"경기도 수원시 권선구 권선동 872-3번지","indutype":"건축자재 - 보일러·펌프·샷시","category":"other"}]},{"lat":"37.258185361","long":"127.02816631","imageIndex":17,"items":[{"name":"드림정보통신","tel":"031-222-6810","addr":"경기도 수원시 권선구 권선동 1028-6번지 2층","indutype":"사무통신 - 통신기기","category":"other"}]},{"lat":"37.262519641","long":"127.02658951","imageIndex":17,"items":[{"name":"드림통상수원점","tel":"031-231-1616","addr":"경기도 수원시 권선구 권선동 1011-5번지","indutype":"레져용품 - 스포츠·레져용품","category":"other"},{"name":"탑법무사사무소","tel":"031-217-6001","addr":"경기도 수원시 권선구 권선동 1011-5번지 중앙빌딩 5층","indutype":"용역 서비스 - 법률회계서비스(개인)","category":"other"}]},{"lat":"37.251632927","long":"127.03603168","imageIndex":17,"items":[{"name":"디레노(DILEGNO)","tel":"070-4095-7653","addr":"경기도 수원시 권선구 권선동 1289-2번지","indutype":"가구 - 일반가구","category":"other"}]},{"lat":"37.258853835","long":"127.01816769","imageIndex":17,"items":[{"name":"디아이와이솝(DIY SOAP)","tel":"031-213-1123","addr":"경기도 수원시 권선구 권선동 999-19번지 1층","indutype":"신변잡화 - 기타잡화","category":"other"}]},{"lat":"37.244786471","long":"127.03064136","imageIndex":17,"items":[{"name":"디자인 심포니","tel":"031-241-4492","addr":"경기도 수원시 권선구 권선동 1361번지 수원아이파크시티2단지 212동 304호","indutype":"용역 서비스 - 사무서비스","category":"other"}]},{"lat":"37.2564355","long":"127.03575198","imageIndex":17,"items":[{"name":"디자인씨","tel":"031-232-7476","addr":"경기도 수원시 권선구 권선동 1171번지","indutype":"서적문구 - 출판 및 인쇄물","category":"other"}]},{"lat":"37.25704879","long":"127.03355413","imageIndex":17,"items":[{"name":"디자인한슬","tel":"031-224-8311","addr":"경기도 수원시 권선구 권선동 1165-1번지","indutype":"용역 서비스 - 종합용역","category":"other"}]},{"lat":"37.252156857","long":"127.03086949","imageIndex":17,"items":[{"name":"디케이 (DK)","tel":"031-237-6413","addr":"경기도 수원시 권선구 권선동 1257-6번지 B02호","indutype":"건축자재 - 기타건축자재","category":"other"}]},{"lat":"37.260680581","long":"127.0309741","imageIndex":17,"items":[{"name":"디페리옴므 수원점","tel":"031-224-2267","addr":"경기도 수원시 권선구 권선동 1023-2번지 이오스오피스텔 106호","indutype":"의류 - 정장","category":"other"},{"name":"마리스튜디오","tel":"031-223-0067","addr":"경기도 수원시 권선구 권선동 1023-2,이오스오피스텔2층201,202,210호","indutype":"광학제품 - 사진관","category":"other"},{"name":"씨유수원이오스점","tel":"031-222-6698","addr":"경기도 수원시 권선구 권선동 1023-2번지 이오스오피스텔 1층 104호","indutype":"유통업 영리 - 편 의 점","category":"other"},{"name":"티켓나라(동수원점)","tel":"031-225-6011","addr":"경기도 수원시 권선구 권선동 1023-2번지 이오스오피스텔 107호","indutype":"사무통신 - 통신기기","category":"other"}]},{"lat":"37.252438096","long":"127.02100686","imageIndex":17,"items":[{"name":"라스포사","tel":"031-222-2559","addr":"경기도 수원시 권선구 권선동 1188번지 한양상가 116호","indutype":"신변잡화 - 액세서리","category":"other"},{"name":"주식회사패밀리투어","tel":"031-232-1811","addr":"경기도 수원시 권선구 권선동 1188번지 한양상가 B05호","indutype":"여행 - 관광여행","category":"other"}]},{"lat":"37.256291196","long":"127.03624789","imageIndex":17,"items":[{"name":"라이프시스템","tel":"031-233-3323","addr":"경기도 수원시 권선구 권선동 1171-4번지","indutype":"사무통신 - 컴퓨터","category":"other"},{"name":"명성종합공사","tel":"031-232-4704","addr":"경기도 수원시 권선구 권선동 1171-4번지","indutype":"건축자재 - 인테리어전문","category":"other"}]},{"lat":"37.258907203","long":"127.02283458","imageIndex":17,"items":[{"name":"라임시스템","tel":"031-224-7114","addr":"경기도 수원시 권선구 권선동 969-2번지 한진빌딩 2층","indutype":"수리서비스 - 사무·통신기기수리","category":"other"},{"name":"신한법률경매(주)","tel":"031-222-1388","addr":"경기도 수원시 권선구 권선동 969-2번지 한진빌딩 3층","indutype":"용역 서비스 - 부동산 중개·임대","category":"other"},{"name":"한진플라워","tel":"031-234-3641","addr":"경기도 수원시 권선구 권선동 969-2번지 B1층","indutype":"문화.취미 - 화원","category":"other"}]},{"lat":"37.255408287","long":"127.0358868","imageIndex":17,"items":[{"name":"렌탈솔루션","tel":"031-222-1555","addr":"경기도 수원시 권선구 권선동 1172-3번지","indutype":"전기제품 - 기타전기제품","category":"other"},{"name":"하나시스템","tel":"031-243-1098","addr":"경기도 수원시 권선구 권선동 1172-3번지 1층","indutype":"사무통신 - 컴퓨터","category":"other"}]},{"lat":"37.253716068","long":"127.02899894","imageIndex":17,"items":[{"name":"렛츠(LET''S)권선점","tel":"","addr":"경기도 수원시 권선구 권선동 1066-3번지 5층","indutype":"용역 서비스 - 사무서비스","category":"other"},{"name":"마고","tel":"","addr":"경기도 수원시 권선구 권선동 1066-3번지 지하1층","indutype":"가구 - 일반가구","category":"other"}]},{"lat":"37.257213692","long":"127.02011749","imageIndex":17,"items":[{"name":"롯데캐논선광사무기기(특별할부)","tel":"031-237-8583","addr":"경기도 수원시 권선구 권선동 993-5번지","indutype":"사무통신 - 사무용 OA기기","category":"other"},{"name":"태강 디지탈 OA","tel":"031-237-9494","addr":"경기도 수원시 권선구 권선동 993-5번지","indutype":"사무통신 - 사무용 OA기기","category":"other"}]},{"lat":"37.259069373","long":"127.02292481","imageIndex":17,"items":[{"name":"루리한복","tel":"031-8081-0090","addr":"경기도 수원시 권선구 권선동 969-1번지 2층","indutype":"의류 - 맞춤복점","category":"other"},{"name":"컴퓨터할인매장","tel":"031-237-0279","addr":"경기도 수원시 권선구 권선동 969-1번지 1층","indutype":"사무통신 - 컴퓨터","category":"other"}]},{"lat":"37.26234892","long":"127.02408681","imageIndex":17,"items":[{"name":"루클라비","tel":"","addr":"경기도 수원시 권선구 권선동 942번지 KT권선동빌딩 10층","indutype":"용역 서비스 - 혼례서비스","category":"other"},{"name":"주식회사114인포","tel":"031-231-2474","addr":"경기도 수원시 권선구 권선동 942번지 (4층KT권선동빌딩 )","indutype":"용역 서비스 - 사무서비스","category":"other"},{"name":"주식회사루클라비","tel":"02-000-0000","addr":"경기도 수원시 권선구 권선동 942번지 1층,8층,10층","indutype":"용역 서비스 - 혼례서비스","category":"other"},{"name":"한솔이앤에프 주식회사","tel":"02-000-0000","addr":"경기도 수원시 권선구 권선동 942번지 케이티남수원사옥 4층","indutype":"전기제품 - 기타전기제품","category":"other"}]},{"lat":"37.254905446","long":"127.02892044","imageIndex":17,"items":[{"name":"리더스주방가구","tel":"031-237-2335","addr":"경기도 수원시 권선구 권선동 1042-9,1층5,6호","indutype":"주방용구 - 주방용구","category":"other"},{"name":"유한디자인","tel":"031-225-7476","addr":"경기도 수원시 권선구 권선동 1042-9번지","indutype":"서적문구 - 출판 및 인쇄물","category":"other"},{"name":"잉크스테이션권선점","tel":"031-238-2985","addr":"경기도 수원시 권선구 권선동 1042-9 3","indutype":"사무통신 - 기타 사무용품","category":"other"}]},{"lat":"37.252184059","long":"127.03013684","imageIndex":17,"items":[{"name":"리모드인테리어","tel":"031-222-6656","addr":"경기도 수원시 권선구 권선동 1258-9번지 1층","indutype":"직물 - 카페트,커튼,천막,지물","category":"other"}]},{"lat":"37.256186123","long":"127.02264224","imageIndex":17,"items":[{"name":"리빙씽크","tel":"031-239-5254","addr":"경기도 수원시 권선구 권선동 1057-17번지 1층","indutype":"주방용구 - 주방용구","category":"other"},{"name":"소파천갈이","tel":"031-232-2880","addr":"경기도 수원시 권선구 권선동 1057-17번지","indutype":"수리서비스 - 신변잡화수리","category":"other"}]},{"lat":"37.252319615","long":"127.02833342","imageIndex":17,"items":[{"name":"리홈쿠첸 남수원서비스센터","tel":"031-235-1405","addr":"경기도 수원시 권선구 권선동 1260-3번지 2층","indutype":"수리서비스 - 가정용품수리","category":"other"}]},{"lat":"37.258681142","long":"127.02714067","imageIndex":17,"items":[{"name":"마들렌상점","tel":"031-239-4419","addr":"경기도 수원시 권선구 권선동 1028번지","indutype":"가구 - 일반가구","category":"other"},{"name":"모자이크","tel":"031-225-1767","addr":"경기도 수원시 권선구 권선동 1028번지","indutype":"가구 - 일반가구","category":"other"},{"name":"목수와아들","tel":"031-237-2577","addr":"경기도 수원시 권선구 권선동 1028번지 1층","indutype":"가구 - 일반가구","category":"other"}]},{"lat":"37.252544819","long":"127.02858148","imageIndex":17,"items":[{"name":"마랑","tel":"032-236-1843","addr":"경기도 수원시 권선구 권선동 1260-2번지 1층","indutype":"의류 - 정장","category":"other"}]},{"lat":"37.256770419","long":"127.02964251","imageIndex":17,"items":[{"name":"마리 앙뜨와네뜨","tel":"031-222-0029","addr":"경기도 수원시 권선구 권선동 1038-19번지 1층","indutype":"신변잡화 - 기타잡화","category":"other"},{"name":"베르사이유","tel":"031-237-0010","addr":"경기도 수원시 권선구 권선동 1038-19번지","indutype":"문화.취미 - 민예·공예품","category":"other"},{"name":"샬롬","tel":"031-222-0038","addr":"경기도 수원시 권선구 권선동 1038-19번지","indutype":"의류 - 정장","category":"other"}]},{"lat":"37.258376082","long":"127.01970066","imageIndex":17,"items":[{"name":"만능철물","tel":"031-234-9456","addr":"경기도 수원시 권선구 권선동 995-11번지","indutype":"건축자재 - 목재·석재·철물","category":"other"}]},{"lat":"37.256013672","long":"127.02911245","imageIndex":17,"items":[{"name":"멘토사진기구","tel":"031-898-9896","addr":"경기도 수원시 권선구 권선동 1042번지 윤호빌딩 2층","indutype":"광학제품 - 기타광학제품","category":"other"},{"name":"바이온텍 웰빙","tel":"031-233-0033","addr":"경기도 수원시 권선구 권선동 1042번지 윤호빌딩 2층","indutype":"주방용구 - 정수기","category":"other"},{"name":"이온수기전문점헬스케어","tel":"031-227-5225","addr":"경기도 수원시 권선구 권선동 1042번지 윤호빌딩 201호","indutype":"회원제형태 - 기타4","category":"other"}]},{"lat":"37.255293894","long":"127.02385939","imageIndex":17,"items":[{"name":"명수종합건축설비","tel":"","addr":"경기도 수원시 권선구 권선동 1061-9번지","indutype":"용역 서비스 - 기타용역서비스","category":"other"}]},{"lat":"37.258655349","long":"127.02006145","imageIndex":17,"items":[{"name":"명품세탁소","tel":"031-239-0880","addr":"경기도 수원시 권선구 권선동 983-9번지 1층","indutype":"수리서비스 - 세탁소","category":"other"}]},{"lat":"37.245571216","long":"127.02675326","imageIndex":17,"items":[{"name":"모닝글로리수원아이파크시티점","tel":"031-239-1406","addr":"경기도 수원시 권선구 권선동 1360번지 수원아이파크시티 200동 104호","indutype":"서적문구 - 문구용품","category":"other"},{"name":"크린토피아 수원아이파크시티1단지점","tel":"031-225-5322","addr":"경기도 수원시 권선구 권선동 1360번지 수원아이파크시티1단지 1동 110호","indutype":"수리서비스 - 세탁소","category":"other"}]},{"lat":"37.257213407","long":"127.02197743","imageIndex":17,"items":[{"name":"모던도자기","tel":"031-231-2250","addr":"경기도 수원시 권선구 권선동 990-4번지 혼수명품관 2층 2호","indutype":"주방용구 - 주방용식기","category":"other"},{"name":"브릭테일러","tel":"031-898-6618","addr":"경기도 수원시 권선구 권선동 990-4번지 2층 일부","indutype":"의류 - 맞춤복점","category":"other"},{"name":"비단채 한복","tel":"031-235-6001","addr":"경기도 수원시 권선구 권선동 990-4번지 3층","indutype":"의류 - 맞춤복점","category":"other"},{"name":"해라와펠로","tel":"031-267-1377","addr":"경기도 수원시 권선구 권선동 990-4번지 3층 꿈꾸는신부","indutype":"신변잡화 - 귀금속","category":"other"}]},{"lat":"37.250986854","long":"127.02447813","imageIndex":17,"items":[{"name":"무에타이킥복싱","tel":"031-898-9009","addr":"경기도 수원시 권선구 권선동 1194-5번지 3층","indutype":"회원제형태 - 레져업소","category":"other"},{"name":"이마트24수원곡선초점","tel":"","addr":"경기도 수원시 권선구 권선동 1194-5번지 1층","indutype":"유통업 영리 - 편 의 점","category":"other"}]},{"lat":"37.252073937","long":"127.03775643","imageIndex":17,"items":[{"name":"무지개스포츠","tel":"031-233-2281","addr":"경기도 수원시 권선구 권선동 1283-10번지 상가 101호","indutype":"레져용품 - 스포츠·레져용품","category":"other"},{"name":"싸이버랜드공인중개사사무소","tel":"031-236-8245","addr":"경기도 수원시 권선구 권선동 1283-10번지","indutype":"용역 서비스 - 부동산 중개·임대","category":"other"}]},{"lat":"37.2544912","long":"127.02786073","imageIndex":17,"items":[{"name":"무지개싱크","tel":"","addr":"경기도 수원시 권선구 권선동 1064-3번지 1층","indutype":"주방용구 - 주방용구","category":"other"},{"name":"초원꽃뜨락","tel":"031-221-6589","addr":"경기도 수원시 권선구 권선동 1064-3번지","indutype":"문화.취미 - 화원","category":"other"}]},{"lat":"37.255797394","long":"127.02924764","imageIndex":17,"items":[{"name":"문화","tel":"031-221-6935","addr":"경기도 수원시 권선구 권선동 1042-16번지","indutype":"서적문구 - 출판 및 인쇄물","category":"other"}]},{"lat":"37.250569441","long":"127.03697801","imageIndex":17,"items":[{"name":"뭉개뭉개","tel":"031-267-3618","addr":"경기도 수원시 권선구 권선동 1291-7번지 104호","indutype":"문화.취미 - 애완동물","category":"other"},{"name":"벧엘 수선","tel":"031-222-1343","addr":"경기도 수원시 권선구 권선동 1291-7번지 1층","indutype":"수리서비스 - 세탁소","category":"other"},{"name":"우리.꽃","tel":"","addr":"경기도 수원시 권선구 권선동 1291-7번지","indutype":"문화.취미 - 화원","category":"other"},{"name":"진컴퓨터","tel":"031-213-4491","addr":"경기도 수원시 권선구 권선동 1291-7번지","indutype":"사무통신 - 컴퓨터","category":"other"}]},{"lat":"37.259735492","long":"127.02641955","imageIndex":17,"items":[{"name":"미니스톱 수원현정점","tel":"031-1577-9621","addr":"경기도 수원시 권선구 권선동 1020번지 1층","indutype":"유통업 영리 - 편 의 점","category":"other"}]},{"lat":"37.25982644","long":"127.02169627","imageIndex":17,"items":[{"name":"미니스톱권선중앙점","tel":"031-1577-9621","addr":"경기도 수원시 권선구 권선동 972-10번지 1층","indutype":"유통업 영리 - 편 의 점","category":"other"},{"name":"휴","tel":"031-221-8728","addr":"경기도 수원시 권선구 권선동 972-10번지 3층","indutype":"레져용품 - 스포츠·레져용품","category":"other"}]},{"lat":"37.259322092","long":"127.02019687","imageIndex":17,"items":[{"name":"미래교육사","tel":"031-232-7008","addr":"경기도 수원시 권선구 권선동 983번지 지층","indutype":"서적문구 - 기타서적문구","category":"other"},{"name":"아리아","tel":"031-236-4234","addr":"경기도 수원시 권선구 권선동 983번지 2층","indutype":"문화.취미 - 티켓","category":"other"}]},{"lat":"37.263267925","long":"127.02433508","imageIndex":17,"items":[{"name":"미르","tel":"031-257-3666","addr":"경기도 수원시 권선구 권선동 941-3번지 원진빌딩 1층","indutype":"신변잡화 - 기타잡화","category":"other"}]},{"lat":"37.256906384","long":"127.02577614","imageIndex":17,"items":[{"name":"미르-com","tel":"031-267-2724","addr":"경기도 수원시 권선구 권선동 1053-6번지","indutype":"사무통신 - 컴퓨터","category":"other"},{"name":"옴네스(OMNES)주식회사","tel":"00-1577-1250","addr":"경기도 수원시 권선구 권선동 1053-6번지 2층","indutype":"사무통신 - 통신기기","category":"other"},{"name":"포슬린위드연 Porcelain with yeon","tel":"","addr":"경기도 수원시 권선구 권선동 1053-6번지 1층 101호","indutype":"문화.취미 - 문화취미기타","category":"other"}]},{"lat":"37.260547468","long":"127.02036625","imageIndex":17,"items":[{"name":"미림합판","tel":"031-236-1885","addr":"경기도 수원시 권선구 권선동 965-7번지","indutype":"건축자재 - 기타건축자재","category":"other"}]},{"lat":"37.260320571","long":"127.02922667","imageIndex":17,"items":[{"name":"미스터마트 권선공원점","tel":"031-222-7089","addr":"경기도 수원시 권선구 권선동 1013-4번지 한라비발디파크 1층 104호","indutype":"유통업 영리 - 편 의 점","category":"other"}]},{"lat":"37.251848532","long":"127.03825228","imageIndex":17,"items":[{"name":"미스터케이","tel":"031-234-1393","addr":"경기도 수원시 권선구 권선동 1283-13번지 1층","indutype":"서적문구 - 문구용품","category":"other"}]},{"lat":"37.238245904","long":"127.02633398","imageIndex":17,"items":[{"name":"미조양행","tel":"031-484-9228","addr":"경기도 수원시 권선구 권선동 1356번지 수원아이파크시티6단지 603동 502호","indutype":"회원제형태 - 기타4","category":"other"},{"name":"포웰(ForeWell)","tel":"","addr":"경기도 수원시 권선구 권선동 1356번지 수원아이파크시티6단지 610동 201호","indutype":"레져용품 - 스포츠·레져용품","category":"other"}]},{"lat":"37.260853447","long":"127.02272237","imageIndex":17,"items":[{"name":"미진무늬목","tel":"031-226-5803","addr":"경기도 수원시 권선구 권선동 958-9번지","indutype":"건축자재 - 기타건축자재","category":"other"},{"name":"세븐일레븐수원권선본점","tel":"","addr":"경기도 수원시 권선구 권선동 958-9번지","indutype":"유통업 영리 - 편 의 점","category":"other"},{"name":"한누리편의점","tel":"031-238-0233","addr":"경기도 수원시 권선구 권선동 958-9번지","indutype":"유통업 영리 - 편 의 점","category":"other"}]},{"lat":"37.254680206","long":"127.02884146","imageIndex":17,"items":[{"name":"미코티나","tel":"031-258-2863","addr":"경기도 수원시 권선구 권선동 1042-8,2번지 점포","indutype":"의류 - 맞춤복점","category":"other"}]},{"lat":"37.252409503","long":"127.02931409","imageIndex":17,"items":[{"name":"민뷰티샵","tel":"031-226-4118","addr":"경기도 수원시 권선구 권선동 1259-8번지 101호","indutype":"회원제형태 - 기타4","category":"other"}]},{"lat":"37.251103517","long":"127.02692408","imageIndex":17,"items":[{"name":"민인테리어","tel":"031-225-2522","addr":"경기도 수원시 권선구 권선동 1187-1번지 신현대아파트 상가 103호","indutype":"직물 - 카페트,커튼,천막,지물","category":"other"}]},{"lat":"37.257132063","long":"127.02347664","imageIndex":17,"items":[{"name":"민턴데일리엔","tel":"031-111-1111","addr":"경기도 수원시 권선구 권선동 1055-21번지","indutype":"여행 - 관광여행","category":"other"}]},{"lat":"37.256879908","long":"127.02269878","imageIndex":17,"items":[{"name":"민하우스","tel":"031-232-7405","addr":"경기도 수원시 권선구 권선동 1005-4번지","indutype":"건축자재 - 인테리어전문","category":"other"}]},{"lat":"37.250050074","long":"127.0228097","imageIndex":17,"items":[{"name":"밀라노","tel":"031-237-5678","addr":"경기도 수원시 권선구 권선동 1192번지 효림트윈타워 1층 2호","indutype":"신변잡화 - 귀금속","category":"other"},{"name":"순금보석","tel":"031-237-5678","addr":"경기도 수원시 권선구 권선동 1192번지 효림트윈타워 1층 2호","indutype":"신변잡화 - 귀금속","category":"other"}]},{"lat":"37.250821593","long":"127.03745153","imageIndex":17,"items":[{"name":"바비걸","tel":"031-238-1595","addr":"경기도 수원시 권선구 권선동 1291-3번지 103호","indutype":"의류 - 정장","category":"other"},{"name":"크린토피아 수원권선상록점","tel":"031-233-7110","addr":"경기도 수원시 권선구 권선동 1291-3번지 1층 1호","indutype":"수리서비스 - 세탁소","category":"other"},{"name":"홍민인테리어","tel":"031-235-6370","addr":"경기도 수원시 권선구 권선동 1291-3번지 1층 2호","indutype":"건축자재 - 인테리어전문","category":"other"}]},{"lat":"37.251821884","long":"127.03694476","imageIndex":17,"items":[{"name":"박씨공방","tel":"","addr":"경기도 수원시 권선구 권선동 1287-2번지 1층","indutype":"가구 - 일반가구","category":"other"}]},{"lat":"37.255293311","long":"127.02692541","imageIndex":17,"items":[{"name":"박인테리어","tel":"031-236-0459","addr":"경기도 수원시 권선구 권선동 1049-7번지","indutype":"건축자재 - 인테리어전문","category":"other"}]},{"lat":"37.25979087","long":"127.0184497","imageIndex":17,"items":[{"name":"반도골프","tel":"031-292-0562","addr":"경기도 수원시 권선구 권선동 979-1번지 지하","indutype":"레져용품 - 골프용품 전문점","category":"other"}]},{"lat":"37.249409847","long":"127.02555972","imageIndex":17,"items":[{"name":"백양세탁소","tel":"031-223-7760","addr":"경기도 수원시 권선구 권선동 1199-1번지 두산동아 상가 1동 108호","indutype":"수리서비스 - 세탁소","category":"other"}]},{"lat":"37.254653231","long":"127.02858219","imageIndex":17,"items":[{"name":"백조씽크","tel":"031-239-9616","addr":"경기도 수원시 권선구 권선동 1042-7번지","indutype":"주방용구 - 주방용구","category":"other"},{"name":"사단법인가정행복연구원","tel":"031-267-1767","addr":"경기도 수원시 권선구 권선동 1042-7번지","indutype":"기타 - 비영리/대상","category":"other"}]},{"lat":"37.255770198","long":"127.02998032","imageIndex":17,"items":[{"name":"백호상사","tel":"031-221-8806","addr":"경기도 수원시 권선구 권선동 1041-8번지","indutype":"서적문구 - 완구점","category":"other"}]},{"lat":"37.258465584","long":"127.02349955","imageIndex":17,"items":[{"name":"범일금고","tel":"031-236-0707","addr":"경기도 수원시 권선구 권선동 1006-3번지","indutype":"가구 - 철제가구","category":"other"}]},{"lat":"37.25090342","long":"127.03483658","imageIndex":17,"items":[{"name":"법무사김진수사무소","tel":"031-215-6200","addr":"경기도 수원시 권선구 권선동 1296-2번지 나눔프라자 B9호","indutype":"용역 서비스 - 법률회계서비스(개인)","category":"other"},{"name":"아센라이프센타권선점","tel":"031-267-2400","addr":"경기도 수원시 권선구 권선동 1296-2번지","indutype":"회원제형태 - 레져업소","category":"other"},{"name":"하우스터디 수원권선센터 모임공간","tel":"031-224-0903","addr":"경기도 수원시 권선구 권선동 1296-2번지 301호","indutype":"용역 서비스 - 사무서비스","category":"other"}]},{"lat":"37.257076738","long":"127.02977789","imageIndex":17,"items":[{"name":"법무사장경아사무소","tel":"031-224-2335","addr":"경기도 수원시 권선구 권선동 1038-17번지 2층","indutype":"용역 서비스 - 법률회계서비스(개인)","category":"other"},{"name":"수원광교로타리클럽","tel":"031-221-3750","addr":"경기도 수원시 권선구 권선동 1038-17번지 산호빌딩 2층","indutype":"기타 - 비영리/비대상","category":"other"},{"name":"조영태법무사사무소","tel":"031-211-9369","addr":"경기도 수원시 권선구 권선동 1038-17번지 3층","indutype":"용역 서비스 - 법률회계서비스(개인)","category":"other"},{"name":"한국씽크","tel":"031-233-5552","addr":"경기도 수원시 권선구 권선동 1038-17번지","indutype":"주방용구 - 주방용구","category":"other"}]},{"lat":"37.245327876","long":"127.02705749","imageIndex":17,"items":[{"name":"베베로엘","tel":"070-8849-8210","addr":"경기도 수원시 권선구 권선동 1360번지 수원아이파크시티1단지 105동 601호","indutype":"의류 - 맞춤복점","category":"other"}]},{"lat":"37.256573211","long":"127.02467135","imageIndex":17,"items":[{"name":"베스트 구즈","tel":"031-890-0412","addr":"경기도 수원시 권선구 권선동 1052-8번지 306호","indutype":"유통업 영리 - 기타유통업","category":"other"}]},{"lat":"37.256318757","long":"127.03430907","imageIndex":17,"items":[{"name":"베스트컬러","tel":"031-305-5011","addr":"경기도 수원시 권선구 권선동 1164-9번지 1층 3호","indutype":"서적문구 - 출판 및 인쇄물","category":"other"}]},{"lat":"37.258825396","long":"127.02670108","imageIndex":17,"items":[{"name":"벽창호","tel":"031-225-5774","addr":"경기도 수원시 권선구 권선동 1029-2번지 1층","indutype":"직물 - 침구·수예점","category":"other"}]},{"lat":"37.263764095","long":"127.02069392","imageIndex":17,"items":[{"name":"별솔집중력센터","tel":"031-892-6162","addr":"경기도 수원시 권선구 권선동 950-22번지 2층","indutype":"용역 서비스 - 사무서비스","category":"other"}]},{"lat":"37.255291169","long":"127.03583038","imageIndex":17,"items":[{"name":"별이 텔레콤","tel":"031-238-1235","addr":"경기도 수원시 권선구 권선동 1172-4번지 3호","indutype":"사무통신 - 통신기기","category":"other"},{"name":"수원명품사","tel":"031-213-3340","addr":"경기도 수원시 권선구 권선동 1172-4 1층1-1호","indutype":"수리서비스 - 신변잡화수리","category":"other"}]},{"lat":"37.248462354","long":"127.03200651","imageIndex":17,"items":[{"name":"별이공방","tel":"031-297-4154","addr":"경기도 수원시 권선구 권선동 1274번지 대원신동아 상가동 123호,125호","indutype":"문화.취미 - 문화취미기타","category":"other"}]},{"lat":"37.257015199","long":"127.02186466","imageIndex":17,"items":[{"name":"보그스타 주식회사 (VOGSTAR INC.)","tel":"031-238-1872","addr":"경기도 수원시 권선구 권선동 990-1번지 4층","indutype":"레져용품 - 스포츠·레져용품","category":"other"},{"name":"보그스타(VOG STAR)","tel":"031-238-1872","addr":"경기도 수원시 권선구 권선동 990-1번지 1층 (4층","indutype":"레져용품 - 스포츠·레져용품","category":"other"}]},{"lat":"37.255348142","long":"127.02277728","imageIndex":17,"items":[{"name":"보민기업","tel":"031-221-3364","addr":"경기도 수원시 권선구 권선동 1060-6번지 104호","indutype":"용역 서비스 - 기타용역서비스","category":"other"}]},{"lat":"37.257409558","long":"127.03214522","imageIndex":17,"items":[{"name":"보보상사","tel":"031-225-6137","addr":"경기도 수원시 권선구 권선동 1154-4번지","indutype":"주방용구 - 주방용구","category":"other"},{"name":"현대타일","tel":"031-898-8471","addr":"경기도 수원시 권선구 권선동 1154-4번지 1층","indutype":"건축자재 - 건축용 요업제품","category":"other"}]},{"lat":"37.256934468","long":"127.01945235","imageIndex":17,"items":[{"name":"보석나라","tel":"031-223-3377","addr":"경기도 수원시 권선구 권선동 1001-9번지","indutype":"신변잡화 - 귀금속","category":"other"}]},{"lat":"37.258907573","long":"127.02050114","imageIndex":17,"items":[{"name":"보성당","tel":"031-239-5409","addr":"경기도 수원시 권선구 권선동 984-2번지","indutype":"신변잡화 - 시계","category":"other"}]},{"lat":"37.262547795","long":"127.02008488","imageIndex":17,"items":[{"name":"복사기임대전문점(삼성OA시스템)","tel":"031-222-5289","addr":"경기도 수원시 권선구 권선동 951-20번지 두홍메르디안 1층 102호","indutype":"사무통신 - 사무용 OA기기","category":"other"}]},{"lat":"37.258988286","long":"127.02289097","imageIndex":17,"items":[{"name":"부라더홈미싱","tel":"031-238-8185","addr":"경기도 수원시 권선구 권선동 969-4번지 1층","indutype":"전기제품 - 기타전기제품","category":"other"}]},{"lat":"37.25704208","long":"127.02277773","imageIndex":17,"items":[{"name":"부림방화문산업","tel":"031-222-3233","addr":"경기도 수원시 권선구 권선동 1005-3번지","indutype":"건축자재 - 기타건축자재","category":"other"}]},{"lat":"37.257238205","long":"127.03277641","imageIndex":17,"items":[{"name":"브로베이퍼스(BroVapers)","tel":"031-0000-0000","addr":"경기도 수원시 권선구 권선동 1159-3번지 1층 3호","indutype":"기타 - 기타 전문점","category":"other"},{"name":"우리상사","tel":"031-204-2828","addr":"경기도 수원시 권선구 권선동 1159-3번지","indutype":"직물 - 카페트,커튼,천막,지물","category":"other"}]},{"lat":"37.249542743","long":"127.03527559","imageIndex":17,"items":[{"name":"블랙캅보안시스템","tel":"031-237-0112","addr":"경기도 수원시 권선구 권선동 1296-7번지 베스토아 702호","indutype":"용역 서비스 - 기타용역서비스","category":"other"},{"name":"세무사박인준사무소","tel":"031-236-4455","addr":"경기도 수원시 권선구 권선동 1296-7번지 베스토아 7층","indutype":"용역 서비스 - 법률회계서비스(개인)","category":"other"},{"name":"에이투렌트카(주)권선지점","tel":"031-232-4001","addr":"경기도 수원시 권선구 권선동 1296-7번지","indutype":"여행 - 렌터카","category":"other"},{"name":"홀인원스크린골프클럽","tel":"031-236-3633","addr":"경기도 수원시 권선구 권선동 1296-7번지 베스토아 701호","indutype":"회원제형태 - 레져업소","category":"other"}]},{"lat":"37.250020259","long":"127.03538851","imageIndex":17,"items":[{"name":"비비드","tel":"031-252-4138","addr":"경기도 수원시 권선구 권선동 1297-4번지","indutype":"의류 - 정장","category":"other"}]},{"lat":"37.257375371","long":"127.02330762","imageIndex":17,"items":[{"name":"비앙비체유소버티칼","tel":"031-239-6684","addr":"경기도 수원시 권선구 권선동 1054-23번지","indutype":"직물 - 카페트,커튼,천막,지물","category":"other"},{"name":"싸인스토리","tel":"031-898-8617","addr":"경기도 수원시 권선구 권선동 1054-23번지","indutype":"서적문구 - 출판 및 인쇄물","category":"other"},{"name":"코아플러스","tel":"031-225-9626","addr":"경기도 수원시 권선구 권선동 1054-23번지 2층","indutype":"회원제형태 - 기타4","category":"other"}]},{"lat":"37.255266723","long":"127.02463716","imageIndex":17,"items":[{"name":"비와이씨(BYC)권선점","tel":"031-241-7344","addr":"경기도 수원시 권선구 권선동 1062-1번지","indutype":"의류 - 내의판매","category":"other"},{"name":"세사리빙수원권선","tel":"031-222-0621","addr":"경기도 수원시 권선구 권선동 1062-1번지","indutype":"직물 - 침구·수예점","category":"other"}]},{"lat":"37.258123782","long":"127.01977952","imageIndex":17,"items":[{"name":"빈티지코코","tel":"070-8813-3020","addr":"경기도 수원시 권선구 권선동 995-8번지 2층 사무실","indutype":"의류 - 기타의류","category":"other"},{"name":"케이엠시스템","tel":"070-4350-6591","addr":"경기도 수원시 권선구 권선동 995-8번지 2층","indutype":"회원제형태 - 사무서비스","category":"other"}]},{"lat":"37.25675364","long":"127.02342018","imageIndex":17,"items":[{"name":"빨래건조대 방충망(한빛)","tel":"031-239-7355","addr":"경기도 수원시 권선구 권선동 1056-2번지 정원빌라 가동 102호","indutype":"용역 서비스 - 기타용역서비스","category":"other"}]},{"lat":"37.2618806563","long":"127.0225084462","imageIndex":17,"items":[{"name":"삼보상사","tel":"031-236-0317","addr":"경기도 수원시 권선구 권선동 957번지","indutype":"건축자재 - 보일러·펌프·샷시","category":"other"}]},{"lat":"37.260853969","long":"127.01930666","imageIndex":17,"items":[{"name":"삼성종합목재합판","tel":"031-224-4477","addr":"경기도 수원시 권선구 권선동 965-1번지","indutype":"건축자재 - 목재·석재·철물","category":"other"}]},{"lat":"37.25049146","long":"127.02350865","imageIndex":17,"items":[{"name":"삼성훼미리","tel":"031-223-2510","addr":"경기도 수원시 권선구 권선동 1195-4번지","indutype":"기타 - 기타 전문점","category":"other"}]},{"lat":"37.257075861","long":"127.03339633","imageIndex":17,"items":[{"name":"삼신종합장식","tel":"031-224-0006","addr":"경기도 수원시 권선구 권선동 1165번지","indutype":"건축자재 - 인테리어전문","category":"other"}]},{"lat":"37.256183101","long":"127.0361464","imageIndex":17,"items":[{"name":"삼육타일","tel":"031-236-3602","addr":"경기도 수원시 권선구 권선동 1171-5번지 1층","indutype":"건축자재 - 건축용 요업제품","category":"other"}]},{"lat":"37.259293835","long":"127.02717468","imageIndex":17,"items":[{"name":"삼익가구동수원점 (가구의전당)","tel":"031-221-7389","addr":"경기도 수원시 권선구 권선동 1020-9번지 서봉빌딩","indutype":"가구 - 일반가구","category":"other"}]},{"lat":"37.254402183","long":"127.02203308","imageIndex":17,"items":[{"name":"삼천리가스프라자","tel":"031-222-3002","addr":"경기도 수원시 권선구 권선동 1059-4번지","indutype":"건축자재 - 보일러·펌프·샷시","category":"other"}]},{"lat":"37.25110408","long":"127.02397095","imageIndex":17,"items":[{"name":"삼천리자전거남수원대리점","tel":"031-232-9102","addr":"경기도 수원시 권선구 권선동 1194-2번지","indutype":"레져용품 - 스포츠·레져용품","category":"other"},{"name":"영재","tel":"031-223-3698","addr":"경기도 수원시 권선구 권선동 1194-2번지 2층","indutype":"회원제형태 - 서적","category":"other"},{"name":"예삐뜨게방","tel":"031-224-9694","addr":"경기도 수원시 권선구 권선동 1194-2번지","indutype":"직물 - 침구·수예점","category":"other"}]},{"lat":"37.256103022","long":"127.0323138","imageIndex":17,"items":[{"name":"삼한테크","tel":"031-238-5416","addr":"경기도 수원시 권선구 권선동 1161-8번지","indutype":"유통업 영리 - 기타유통업","category":"other"}]},{"lat":"37.251419038","long":"127.0261239","imageIndex":17,"items":[{"name":"삼후종합주방","tel":"031-234-8469","addr":"경기도 수원시 권선구 권선동 1330번지 권선자이이편한세상 131동 703호","indutype":"주방용구 - 주방용구","category":"other"}]},{"lat":"37.259267231","long":"127.02499904","imageIndex":17,"items":[{"name":"상일리베가구","tel":"031-222-4809","addr":"경기도 수원시 권선구 권선동 1030-4번지 상대빌딩 2,3층","indutype":"가구 - 일반가구","category":"other"},{"name":"송림가구","tel":"031-239-8363","addr":"경기도 수원시 권선구 권선동 1030-4번지","indutype":"가구 - 일반가구","category":"other"}]},{"lat":"37.259853629","long":"127.02067045","imageIndex":17,"items":[{"name":"새한사무기기","tel":"031-306-6881","addr":"경기도 수원시 권선구 권선동 974-7번지 202호","indutype":"회원제형태 - 기타3","category":"other"}]},{"lat":"37.256771119","long":"127.02633972","imageIndex":17,"items":[{"name":"색연필","tel":"070-4521-7838","addr":"경기도 수원시 권선구 권선동 1046번지 1층 3호","indutype":"서적문구 - 문구용품","category":"other"},{"name":"제이세탁소","tel":"031-239-6914","addr":"경기도 수원시 권선구 권선동 1046번지","indutype":"수리서비스 - 세탁소","category":"other"}]},{"lat":"37.255519185","long":"127.02366783","imageIndex":17,"items":[{"name":"생활용품D.C 아울렛","tel":"031-295-4800","addr":"경기도 수원시 권선구 권선동 1061-7번지 한성빌딩 1층","indutype":"신변잡화 - 기타잡화","category":"other"},{"name":"투혼무에타이","tel":"031-233-1992","addr":"경기도 수원시 권선구 권선동 1061-7번지","indutype":"회원제형태 - 레져업소","category":"other"}]},{"lat":"37.262295313","long":"127.02136996","imageIndex":17,"items":[{"name":"샬롬문구점","tel":"031-217-6593","addr":"경기도 수원시 권선구 권선동 954-18번지","indutype":"서적문구 - 문구용품","category":"other"},{"name":"한국선물기획","tel":"031-225-2578","addr":"경기도 수원시 권선구 권선동 954-18번지","indutype":"신변잡화 - 기타잡화","category":"other"}]},{"lat":"37.259015103","long":"127.0241197","imageIndex":17,"items":[{"name":"서경전기","tel":"031-304-7369","addr":"경기도 수원시 권선구 권선동 1031번지 1층 좌측두번째","indutype":"전기제품 - 기타전기제품","category":"other"}]},{"lat":"37.253652571","long":"127.03085877","imageIndex":17,"items":[{"name":"서광까운","tel":"031-232-5149","addr":"경기도 수원시 권선구 권선동 1247번지 대원빌딩 101호","indutype":"의류 - 정장","category":"other"}]},{"lat":"37.250293339","long":"127.02288867","imageIndex":17,"items":[{"name":"서울퍼피권선점","tel":"031-233-1833","addr":"경기도 수원시 권선구 권선동 1191-2번지 금강타운 1층 109호","indutype":"문화.취미 - 애완동물","category":"other"},{"name":"씨유권선금강점","tel":"031-233-0961","addr":"경기도 수원시 권선구 권선동 1191-2번지 금강타운 101호","indutype":"유통업 영리 - 편 의 점","category":"other"},{"name":"에스에이치 (SH)모바일","tel":"","addr":"경기도 수원시 권선구 권선동 1191-2번지 금강타운 1층 105호","indutype":"사무통신 - 통신기기","category":"other"}]},{"lat":"37.254438146","long":"127.02250652","imageIndex":17,"items":[{"name":"서진상사","tel":"070-8735-3281","addr":"경기도 수원시 권선구 권선동 1060-3번지 103호","indutype":"서적문구 - 과학기자재","category":"other"},{"name":"파워텍","tel":"031-237-2685","addr":"경기도 수원시 권선구 권선동 1060-3번지 102호","indutype":"사무통신 - 사무용 OA기기","category":"other"}]},{"lat":"37.255627385","long":"127.02322824","imageIndex":17,"items":[{"name":"서현디자인","tel":"031-225-6992","addr":"경기도 수원시 권선구 권선동 1061-3번지 201호,L-TOWER","indutype":"용역 서비스 - 종합용역","category":"other"},{"name":"스마트한상상","tel":"031-222-6992","addr":"경기도 수원시 권선구 권선동 1061-3번지 L-Tower 101호","indutype":"용역 서비스 - 종합용역","category":"other"}]},{"lat":"37.252155073","long":"127.03760994","imageIndex":17,"items":[{"name":"선스튜디오","tel":"031-221-6466","addr":"경기도 수원시 권선구 권선동 1283-9번지","indutype":"광학제품 - 사진관","category":"other"}]},{"lat":"37.255131582","long":"127.02455822","imageIndex":17,"items":[{"name":"선진냉열시스템","tel":"031-224-4562","addr":"경기도 수원시 권선구 권선동 1062-11번지","indutype":"전기제품 - 기타전기제품","category":"other"},{"name":"유정피부관리","tel":"031-237-9135","addr":"경기도 수원시 권선구 권선동 1062-11번지","indutype":"회원제형태 - 기타4","category":"other"}]},{"lat":"37.25190566","long":"127.0257859","imageIndex":17,"items":[{"name":"선진물류","tel":"031-236-9946","addr":"경기도 수원시 권선구 권선동 1330번지 권선자이이편한세상 128동 204호","indutype":"용역 서비스 - 종합용역","category":"other"},{"name":"엘지휘센이엔지","tel":"031-226-5636","addr":"경기도 수원시 권선구 권선동 1330번지 권선자이이편한세상 128동 1301호","indutype":"용역 서비스 - 기타용역서비스","category":"other"}]},{"lat":"37.255401671","long":"127.0257306","imageIndex":17,"items":[{"name":"성15분칼라","tel":"031-236-4583","addr":"경기도 수원시 권선구 권선동 1049-12번지","indutype":"광학제품 - 사진관","category":"other"}]},{"lat":"37.252652864","long":"127.02894221","imageIndex":17,"items":[{"name":"성복에어컨","tel":"","addr":"경기도 수원시 권선구 권선동 1259번지 2층","indutype":"용역 서비스 - 기타용역서비스","category":"other"},{"name":"씨유권선맛고을점","tel":"031-225-5553","addr":"경기도 수원시 권선구 권선동 1259번지 1층","indutype":"유통업 영리 - 편 의 점","category":"other"}]},{"lat":"37.26079034","long":"127.02292526","imageIndex":17,"items":[{"name":"성실게이트","tel":"031-235-3414","addr":"경기도 수원시 권선구 권선동 958-10번지","indutype":"건축자재 - 보일러·펌프·샷시","category":"other"}]},{"lat":"37.261240953","long":"127.02233919","imageIndex":17,"items":[{"name":"성원소방","tel":"031-232-1766","addr":"경기도 수원시 권선구 권선동 957-11번지 1층","indutype":"기타 - 기타 전문점","category":"other"}]},{"lat":"37.257654584","long":"127.02391641","imageIndex":17,"items":[{"name":"성인카페","tel":"031-222-2590","addr":"경기도 수원시 권선구 권선동 1034-13번지 1층","indutype":"신변잡화 - 기타잡화","category":"other"}]},{"lat":"37.239049266","long":"127.0173072","imageIndex":17,"items":[{"name":"성일패널","tel":"031-8065-7077","addr":"경기도 수원시 권선구 권선동 901-4번지","indutype":"건축자재 - 기타건축자재","category":"other"}]},{"lat":"37.254770455","long":"127.02816517","imageIndex":17,"items":[{"name":"성진가구","tel":"031-237-7176","addr":"경기도 수원시 권선구 권선동 1043-9번지","indutype":"가구 - 일반가구","category":"other"},{"name":"아이앤지","tel":"031-225-4285","addr":"경기도 수원시 권선구 권선동 1043-9번지","indutype":"용역 서비스 - 종합용역","category":"other"}]},{"lat":"37.263430225","long":"127.02369255","imageIndex":17,"items":[{"name":"세무법인동해","tel":"031-244-1900","addr":"경기도 수원시 권선구 권선동 941번지 4층","indutype":"용역 서비스 - 법률회계서비스(법인)","category":"other"},{"name":"신병섭법무사사무소","tel":"031-214-4235","addr":"경기도 수원시 권선구 권선동 941번지 2층","indutype":"용역 서비스 - 법률회계서비스(개인)","category":"other"},{"name":"연지곤지한복대여점","tel":"031-236-5441","addr":"경기도 수원시 권선구 권선동 941번지","indutype":"의류 - 맞춤복점","category":"other"}]},{"lat":"37.252409082","long":"127.03114011","imageIndex":17,"items":[{"name":"세븐일레븐권선도서관점","tel":"","addr":"경기도 수원시 권선구 권선동 1257-1번지","indutype":"유통업 영리 - 편 의 점","category":"other"}]},{"lat":"37.256960623","long":"127.02484055","imageIndex":17,"items":[{"name":"세븐일레븐수원권선대천점","tel":"","addr":"경기도 수원시 권선구 권선동 1053-14번지","indutype":"유통업 영리 - 편 의 점","category":"other"}]},{"lat":"37.254130621","long":"127.02863838","imageIndex":17,"items":[{"name":"세잎클로버 (권선점)","tel":"070-8632-7070","addr":"경기도 수원시 권선구 권선동 1065-2번지 1층","indutype":"사무통신 - 통신기기","category":"other"},{"name":"후지냉동육절기","tel":"031-224-3351","addr":"경기도 수원시 권선구 권선동 1065-2번지","indutype":"기타 - 기타 전문점","category":"other"}]},{"lat":"37.256104821","long":"127.02385962","imageIndex":17,"items":[{"name":"세종 하우징","tel":"031-224-8071","addr":"경기도 수원시 권선구 권선동 1057-8번지 지하1층","indutype":"건축자재 - 인테리어전문","category":"other"},{"name":"엘마스튜디오","tel":"","addr":"경기도 수원시 권선구 권선동 1057-8번지 2층","indutype":"광학제품 - 사진관","category":"other"},{"name":"왕성기업","tel":"031-238-8876","addr":"경기도 수원시 권선구 권선동 1057-8번지 1층","indutype":"건축자재 - 인테리어전문","category":"other"}]},{"lat":"37.252740387","long":"127.03880501","imageIndex":17,"items":[{"name":"세한하이테크","tel":"031-213-3266","addr":"경기도 수원시 권선구 권선동 1282-9번지 1층","indutype":"사무통신 - 컴퓨터","category":"other"}]},{"lat":"37.259681374","long":"127.02670135","imageIndex":17,"items":[{"name":"소나무간병협회","tel":"031-227-5439","addr":"경기도 수원시 권선구 권선동 1020-1번지 정자빌딩 401호","indutype":"용역 서비스 - 종합용역","category":"other"},{"name":"소나무간병협회","tel":"031-210-0114","addr":"경기도 수원시 권선구 권선동 1020-1번지 정자빌딩 401호","indutype":"용역 서비스 - 종합용역","category":"other"},{"name":"어린이 교육신문","tel":"031-221-0714","addr":"경기도 수원시 권선구 권선동 1020-1번지 정자빌딩 4층 403호","indutype":"서적문구 - 정기간행물","category":"other"}]},{"lat":"37.257374053","long":"127.02989072","imageIndex":17,"items":[{"name":"소망상회","tel":"031-232-9889","addr":"경기도 수원시 권선구 권선동 1038-10번지 1층","indutype":"신변잡화 - 기타잡화","category":"other"}]},{"lat":"37.258987234","long":"127.02836948","imageIndex":17,"items":[{"name":"소품이예쁜집","tel":"031-222-1286","addr":"경기도 수원시 권선구 권선동 1021-11번지","indutype":"가구 - 일반가구","category":"other"}]},{"lat":"37.255653691","long":"127.02708333","imageIndex":17,"items":[{"name":"솔방공예연구소","tel":"031-213-4551","addr":"경기도 수원시 권선구 권선동 1048-17번지 103호","indutype":"문화.취미 - 민예·공예품","category":"other"}]},{"lat":"37.256986027","long":"127.03233669","imageIndex":17,"items":[{"name":"솜디자인","tel":"031-244-4761","addr":"경기도 수원시 권선구 권선동 1157번지 1층","indutype":"용역 서비스 - 사무서비스","category":"other"}]},{"lat":"37.257375238","long":"127.02406287","imageIndex":17,"items":[{"name":"수도유리","tel":"031-239-3978","addr":"경기도 수원시 권선구 권선동 1054-3번지","indutype":"건축자재 - 유리","category":"other"}]},{"lat":"37.251542509","long":"127.03713625","imageIndex":17,"items":[{"name":"수아브(SUAVE)","tel":"","addr":"경기도 수원시 권선구 권선동 1287-11번지 401호","indutype":"신변잡화 - 기타잡화","category":"other"}]},{"lat":"37.251517383","long":"127.02975337","imageIndex":17,"items":[{"name":"수원곡선동우체국","tel":"031-233-2434","addr":"경기도 수원시 권선구 권선동 1268-1번지","indutype":"용역 서비스 - 공공요금대행서비스/소","category":"other"}]},{"lat":"37.245382635","long":"127.02336074","imageIndex":17,"items":[{"name":"수원골프","tel":"","addr":"경기도 수원시 권선구 권선동 235번지 체력단련장내","indutype":"레져용품 - 스포츠·레져용품","category":"other"},{"name":"수원세븐","tel":"031-228-4599","addr":"경기도 수원시 권선구 권선동 235번지","indutype":"레져용품 - 골프용품 전문점","category":"other"}]},{"lat":"37.260294501","long":"127.02448079","imageIndex":17,"items":[{"name":"수원권선동우체국","tel":"031-224-2005","addr":"경기도 수원시 권선구 권선동 1008번지","indutype":"용역 서비스 - 공공요금대행서비스/소","category":"other"}]},{"lat":"37.262573747","long":"127.02636406","imageIndex":17,"items":[{"name":"수원꽃농원","tel":"031-235-4700","addr":"경기도 수원시 권선구 권선동 1011-4번지","indutype":"문화.취미 - 화원","category":"other"},{"name":"씨유수원미래사랑점","tel":"031-267-0835","addr":"경기도 수원시 권선구 권선동 1011-4 대우미래사랑 101-106","indutype":"유통업 영리 - 편 의 점","category":"other"}]},{"lat":"37.259123798","long":"127.02064774","imageIndex":17,"items":[{"name":"수원꽃직매장","tel":"031-222-6081","addr":"경기도 수원시 권선구 권선동 984번지","indutype":"문화.취미 - 화원","category":"other"}]},{"lat":"37.26006926","long":"127.02439054","imageIndex":17,"items":[{"name":"수원동부대우전자","tel":"070-8850-2403","addr":"경기도 수원시 권선구 권선동 1008-1번지","indutype":"수리서비스 - 가정용품수리","category":"other"},{"name":"이소진의꿈꾸는오후","tel":"031-239-3739","addr":"경기도 수원시 권선구 권선동 1008-1번지 501호","indutype":"회원제형태 - 기타4","category":"other"}]},{"lat":"37.250326501","long":"127.03578314","imageIndex":17,"items":[{"name":"수원레고활동센터","tel":"031-234-0020","addr":"경기도 수원시 권선구 권선동 1297-2번지 삼성프라자 402호","indutype":"서적문구 - 과학기자재","category":"other"},{"name":"씨유수원권선상록점","tel":"031-235-3367","addr":"경기도 수원시 권선구 권선동 1297-2번지 삼성프라자 106호","indutype":"유통업 영리 - 편 의 점","category":"other"},{"name":"이불마트","tel":"031-221-3228","addr":"경기도 수원시 권선구 권선동 1297-2번지 삼성프라자 107호","indutype":"직물 - 침구·수예점","category":"other"}]},{"lat":"37.238076153","long":"127.01728447","imageIndex":17,"items":[{"name":"수원상사","tel":"031-239-0266","addr":"경기도 수원시 권선구 권선동 908-7번지","indutype":"건축자재 - 기타건축자재","category":"other"}]},{"lat":"37.256826171","long":"127.0206472","imageIndex":17,"items":[{"name":"수원시옥외광고센터","tel":"031-222-6031","addr":"경기도 수원시 권선구 권선동 1002-1번지 2층","indutype":"건축자재 - 인테리어전문","category":"other"},{"name":"주식회사 마루애드","tel":"02-3473-5141","addr":"경기도 수원시 권선구 권선동 1002-1번지 2층","indutype":"용역 서비스 - 종합용역","category":"other"},{"name":"페인트 컬러하우스","tel":"031-236-7704","addr":"경기도 수원시 권선구 권선동 1002-1번지 1층","indutype":"건축자재 - 페인트","category":"other"}]},{"lat":"37.257851711","long":"127.0293949","imageIndex":17,"items":[{"name":"수원종합유통","tel":"031-236-1117","addr":"경기도 수원시 권선구 권선동 1027-24번지","indutype":"유통업 영리 - 기타유통업","category":"other"}]},{"lat":"37.257544829","long":"127.03167183","imageIndex":17,"items":[{"name":"수원종합주방","tel":"031-232-2239","addr":"경기도 수원시 권선구 권선동 1154-1번지","indutype":"주방용구 - 주방용구","category":"other"}]},{"lat":"37.253554644","long":"127.02527917","imageIndex":17,"items":[{"name":"수원하우징","tel":"","addr":"경기도 수원시 권선구 권선동 1330번지 권선자이이편한세상 115동 302호","indutype":"건축자재 - 기타건축자재","category":"other"}]},{"lat":"37.25788017","long":"127.0219776","imageIndex":17,"items":[{"name":"수지공구","tel":"031-236-0982","addr":"경기도 수원시 권선구 권선동 988-6번지","indutype":"기타 - 기계공구","category":"other"},{"name":"수지종합상사","tel":"031-236-0982","addr":"경기도 수원시 권선구 권선동 988-6번지","indutype":"기타 - 기계공구","category":"other"}]},{"lat":"37.254572361","long":"127.02753387","imageIndex":17,"items":[{"name":"슈샤인블루","tel":"031-890-3101","addr":"경기도 수원시 권선구 권선동 1064-1번지","indutype":"수리서비스 - 신변잡화수리","category":"other"}]},{"lat":"37.254879734","long":"127.02199939","imageIndex":17,"items":[{"name":"스마일","tel":"031-217-0404","addr":"경기도 수원시 권선구 권선동 1059-2번지 B동 102호","indutype":"건축자재 - 인테리어전문","category":"other"}]},{"lat":"37.25534798","long":"127.02372414","imageIndex":17,"items":[{"name":"스마트시스템공조","tel":"031-255-4132","addr":"경기도 수원시 권선구 권선동 1061-10번지","indutype":"용역 서비스 - 기타용역서비스","category":"other"},{"name":"양지건설","tel":"031-222-0143","addr":"경기도 수원시 권선구 권선동 1061-10번지 1층","indutype":"용역 서비스 - 기타용역서비스","category":"other"}]},{"lat":"37.259015409","long":"127.02233861","imageIndex":17,"items":[{"name":"스마트에어컨","tel":"","addr":"경기도 수원시 권선구 권선동 970-1번지 삼화그린빌라 2층 202호","indutype":"용역 서비스 - 기타용역서비스","category":"other"}]},{"lat":"37.263304594","long":"127.02053599","imageIndex":17,"items":[{"name":"스카이에어컨","tel":"070-4804-9942","addr":"경기도 수원시 권선구 권선동 950-18번지 삼영빌라 나동 102호","indutype":"회원제형태 - 기타4","category":"other"}]},{"lat":"37.252625801","long":"127.02908873","imageIndex":17,"items":[{"name":"스케치","tel":"031-232-7720","addr":"경기도 수원시 권선구 권선동 1259-1번지","indutype":"의류 - 아동의류","category":"other"}]},{"lat":"37.259096821","long":"127.020287","imageIndex":17,"items":[{"name":"스타일벼룩시장","tel":"031-224-4588","addr":"경기도 수원시 권선구 권선동 983-13번지","indutype":"의류 - 정장","category":"other"}]},{"lat":"37.263881034","long":"127.02194529","imageIndex":17,"items":[{"name":"스탭5(staff5)","tel":"031-267-4789","addr":"경기도 수원시 권선구 권선동 939-5번지 202호","indutype":"용역 서비스 - 종합용역","category":"other"},{"name":"정훈커뮤니케이션","tel":"031-234-0990","addr":"경기도 수원시 권선구 권선동 939-5번지 구름바다빌딩 202호","indutype":"서적문구 - 출판 및 인쇄물","category":"other"},{"name":"제이와이무역(주)","tel":"031-234-9990","addr":"경기도 수원시 권선구 권선동 939-5번지 3층","indutype":"주방용구 - 주방용구","category":"other"},{"name":"제이진코리아(주)","tel":"031-234-9990","addr":"경기도 수원시 권선구 권선동 939-5번지 3층","indutype":"용역 서비스 - 사무서비스","category":"other"}]},{"lat":"37.257015597","long":"127.01919311","imageIndex":17,"items":[{"name":"스튜디오에이스","tel":"031-233-2553","addr":"경기도 수원시 권선구 권선동 1000-5번지","indutype":"광학제품 - 사진관","category":"other"}]},{"lat":"37.250824818","long":"127.023644","imageIndex":17,"items":[{"name":"스피드컴119","tel":"031-304-3119","addr":"경기도 수원시 권선구 권선동 1195-1번지","indutype":"사무통신 - 컴퓨터","category":"other"}]},{"lat":"37.254743381","long":"127.02836806","imageIndex":17,"items":[{"name":"시간을 그리다 스튜디오","tel":"031-233-1110","addr":"경기도 수원시 권선구 권선동 1043-8번지 102호","indutype":"광학제품 - 사진관","category":"other"},{"name":"인계스튜디오","tel":"031-233-8649","addr":"경기도 수원시 권선구 권선동 1043-8번지","indutype":"광학제품 - 사진관","category":"other"}]},{"lat":"37.263790863","long":"127.02236239","imageIndex":17,"items":[{"name":"시대종합건축사사무소","tel":"031-237-6611","addr":"경기도 수원시 권선구 권선동 939-6","indutype":"용역 서비스 - 사무서비스","category":"other"}]},{"lat":"37.263015769","long":"127.02359097","imageIndex":17,"items":[{"name":"신도네트효원점","tel":"031-235-7272","addr":"경기도 수원시 권선구 권선동 944번지","indutype":"사무통신 - 사무용 OA기기","category":"other"},{"name":"신도네트효원점(특별할부)","tel":"031-235-7272","addr":"경기도 수원시 권선구 권선동 944번지","indutype":"사무통신 - 사무용 OA기기","category":"other"},{"name":"우림기획","tel":"031-224-3336","addr":"경기도 수원시 권선구 권선동 944번지","indutype":"서적문구 - 출판 및 인쇄물","category":"other"}]},{"lat":"37.256627933","long":"127.02072606","imageIndex":17,"items":[{"name":"신성산업","tel":"031-222-2471","addr":"경기도 수원시 권선구 권선동 1002-6번지","indutype":"건축자재 - 기타건축자재","category":"other"},{"name":"우주냉동","tel":"031-226-8010","addr":"경기도 수원시 권선구 권선동 1002-6번지","indutype":"전기제품 - 냉열기기","category":"other"},{"name":"진성공조산업","tel":"031-235-0183","addr":"경기도 수원시 권선구 권선동 1002-6번지","indutype":"건축자재 - 기타건축자재","category":"other"},{"name":"홍익광고","tel":"031-238-3363","addr":"경기도 수원시 권선구 권선동 1002-6","indutype":"용역 서비스 - 종합용역","category":"other"}]},{"lat":"37.260159794","long":"127.02186545","imageIndex":17,"items":[{"name":"신수원통신","tel":"031-231-2011","addr":"경기도 수원시 권선구 권선동 966-2번지","indutype":"사무통신 - 통신기기","category":"other"}]},{"lat":"37.25395919","long":"127.02969788","imageIndex":17,"items":[{"name":"신영종합주방","tel":"031-226-8388","addr":"경기도 수원시 권선구 권선동 1248번지","indutype":"주방용구 - 주방용구","category":"other"}]},{"lat":"37.251515436","long":"127.03728277","imageIndex":17,"items":[{"name":"신우냉열상사","tel":"031-234-1052","addr":"경기도 수원시 권선구 권선동 1287-10번지","indutype":"기타 - 기계공구","category":"other"}]},{"lat":"37.253149092","long":"127.02574119","imageIndex":17,"items":[{"name":"실버플라워","tel":"","addr":"경기도 수원시 권선구 권선동 1330번지 권선자이이편한세상 117동 5층 2호","indutype":"문화.취미 - 화원","category":"other"}]},{"lat":"37.256708008","long":"127.02653133","imageIndex":17,"items":[{"name":"싱그런공방 프래싱하우스","tel":"","addr":"경기도 수원시 권선구 권선동 1046-1번지 오가기린 3층 302호","indutype":"신변잡화 - 기타잡화","category":"other"},{"name":"어쿠스탱(acoustang)","tel":"","addr":"경기도 수원시 권선구 권선동 1046-1번지 3층 301호","indutype":"용역 서비스 - 사무서비스","category":"other"}]},{"lat":"37.259013806","long":"127.03042112","imageIndex":17,"items":[{"name":"싼동네","tel":"031-238-8795","addr":"경기도 수원시 권선구 권선동 1015-5 현은빌딩1층","indutype":"건축자재 - 목재·석재·철물","category":"other"},{"name":"싼동네","tel":"031-237-1344","addr":"경기도 수원시 권선구 권선동 1015-5번지 현은빌딩 1층","indutype":"기타 - 기계공구","category":"other"}]},{"lat":"37.25962796","long":"127.02322932","imageIndex":17,"items":[{"name":"쌤소나이트 수원점(HOS)","tel":"031-233-8472","addr":"경기도 수원시 권선구 권선동 968-1번지","indutype":"신변잡화 - 가방","category":"other"}]},{"lat":"37.261492679","long":"127.02550698","imageIndex":17,"items":[{"name":"쏠레이","tel":"","addr":"경기도 수원시 권선구 권선동 1011-13번지","indutype":"주방용구 - 주방용구","category":"other"}]},{"lat":"37.255402094","long":"127.02341981","imageIndex":17,"items":[{"name":"씨엘에이인터내셔널","tel":"031-898-7576","addr":"경기도 수원시 권선구 권선동 1061-12번지 B01호","indutype":"전기제품 - 기타전기제품","category":"other"}]},{"lat":"37.245048062","long":"127.02936787","imageIndex":17,"items":[{"name":"씨유권선아이파크점","tel":"031-231-8857","addr":"경기도 수원시 권선구 권선동 1361번지 수원아이파크시티2단지 상가 2동 116호","indutype":"유통업 영리 - 편 의 점","category":"other"},{"name":"현대I파크세탁소","tel":"031-267-0209","addr":"경기도 수원시 권선구 권선동 1361번지 권선동상가 2동 115호","indutype":"수리서비스 - 세탁소","category":"other"}]},{"lat":"37.257069604","long":"127.01958765","imageIndex":17,"items":[{"name":"씨유권선장대산점","tel":"031-221-0311","addr":"경기도 수원시 권선구 권선동 1001번지 1층","indutype":"유통업 영리 - 편 의 점","category":"other"}]},{"lat":"37.258933775","long":"127.02539348","imageIndex":17,"items":[{"name":"씨유권선한빛점","tel":"031-221-9458","addr":"경기도 수원시 권선구 권선동 1030-7번지 1층","indutype":"유통업 영리 - 편 의 점","category":"other"}]},{"lat":"37.262015695","long":"127.02319614","imageIndex":17,"items":[{"name":"씨유수원경수대로점","tel":"031-232-2316","addr":"경기도 수원시 권선구 권선동 944-8 1층 지층","indutype":"유통업 영리 - 편 의 점","category":"other"}]},{"lat":"37.259825821","long":"127.02525848","imageIndex":17,"items":[{"name":"씨유수원찬스돔점","tel":"031-222-6351","addr":"경기도 수원시 권선구 권선동 1019-9번지 1층","indutype":"유통업 영리 - 편 의 점","category":"other"}]},{"lat":"37.253652896","long":"127.02944979","imageIndex":17,"items":[{"name":"씨제이골프아카데미","tel":"031-222-0049","addr":"경기도 수원시 권선구 권선동 1250번지 위너스프라자401호~402호 401호","indutype":"회원제형태 - 레져업소","category":"other"}]},{"lat":"37.256958742","long":"127.03333992","imageIndex":17,"items":[{"name":"아그네스","tel":"","addr":"경기도 수원시 권선구 권선동 1165-17번지","indutype":"주방용구 - 주방용구","category":"other"}]},{"lat":"37.257167639","long":"127.02600167","imageIndex":17,"items":[{"name":"아낌없이주는나무","tel":"02-6340-5385","addr":"경기도 수원시 권선구 권선동 1035번지 권선SKVIEW 111동 104호","indutype":"문화.취미 - 애완동물","category":"other"}]},{"lat":"37.256960472","long":"127.02564089","imageIndex":17,"items":[{"name":"아뜨레디자인인테리어","tel":"031-238-0459","addr":"경기도 수원시 권선구 권선동 1053-5번지","indutype":"건축자재 - 인테리어전문","category":"other"}]},{"lat":"37.25532052","long":"127.02603492","imageIndex":17,"items":[{"name":"아람철물","tel":"031-238-6231","addr":"경기도 수원시 권선구 권선동 1049-11","indutype":"건축자재 - 목재·석재·철물","category":"other"},{"name":"용해글로벌","tel":"031-234-2211","addr":"경기도 수원시 권선구 권선동 1049-11번지 103호","indutype":"의류 - 정장","category":"other"},{"name":"인디안동수원점","tel":"031-226-4609","addr":"경기도 수원시 권선구 권선동 1049-11번지","indutype":"의류 - 정장","category":"other"}]},{"lat":"37.248326692","long":"127.03400144","imageIndex":17,"items":[{"name":"아르미 인테리어","tel":"031-222-9926","addr":"경기도 수원시 권선구 권선동 1312번지 권선3지구주공1단지 상가동 102호","indutype":"건축자재 - 인테리어전문","category":"other"}]},{"lat":"37.259628696","long":"127.01835948","imageIndex":17,"items":[{"name":"아름다운정원","tel":"031-234-2788","addr":"경기도 수원시 권선구 권선동 979-3번지 1층","indutype":"문화.취미 - 화원","category":"other"}]},{"lat":"37.250464525","long":"127.02294507","imageIndex":17,"items":[{"name":"아리랑","tel":"031-221-0311","addr":"경기도 수원시 권선구 권선동 1191-1번지 4층","indutype":"레져용품 - 스포츠·레져용품","category":"other"}]},{"lat":"37.25268644","long":"127.03842175","imageIndex":17,"items":[{"name":"아만","tel":"","addr":"경기도 수원시 권선구 권선동 1284-1번지","indutype":"용역 서비스 - 기타용역서비스","category":"other"}]},{"lat":"37.258437661","long":"127.02811003","imageIndex":17,"items":[{"name":"아모스사무용가구","tel":"070-8239-8073","addr":"경기도 수원시 권선구 권선동 1028-4번지","indutype":"가구 - 기타가구","category":"other"},{"name":"임마누엘가구장터","tel":"031-239-2898","addr":"경기도 수원시 권선구 권선동 1028-4번지","indutype":"가구 - 일반가구","category":"other"}]},{"lat":"37.256653913","long":"127.0267004","imageIndex":17,"items":[{"name":"아미고","tel":"031-231-0626","addr":"경기도 수원시 권선구 권선동 1046-2번지 1층","indutype":"의류 - 정장","category":"other"}]},{"lat":"37.256077146","long":"127.02723001","imageIndex":17,"items":[{"name":"아범이","tel":"031-000-0000","addr":"경기도 수원시 권선구 권선동 1047-18번지","indutype":"광학제품 - 사진관","category":"other"}]},{"lat":"37.251985637","long":"127.03097087","imageIndex":17,"items":[{"name":"아이러브슬라임(권선점)","tel":"031-225-2229","addr":"경기도 수원시 권선구 권선동 1257-4번지 2층","indutype":"문화.취미 - 문화취미기타","category":"other"}]},{"lat":"37.258519583","long":"127.02386029","imageIndex":17,"items":[{"name":"아이지에이마트 권선사거리점","tel":"031-768-0708","addr":"경기도 수원시 권선구 권선동 1032-1번지 1층","indutype":"유통업 영리 - 편 의 점","category":"other"}]},{"lat":"37.260402903","long":"127.02289134","imageIndex":17,"items":[{"name":"안디자인","tel":"031-222-4654","addr":"경기도 수원시 권선구 권선동 962-6번지 2층","indutype":"용역 서비스 - 종합용역","category":"other"},{"name":"에이투지 커피(ATOZ COFFEE)","tel":"031-681-5522","addr":"경기도 수원시 권선구 권선동 962-6번지","indutype":"주방용구 - 주방용구","category":"other"}]},{"lat":"37.25687853","long":"127.02969891","imageIndex":17,"items":[{"name":"알레르망(권선)","tel":"031-226-5949","addr":"경기도 수원시 권선구 권선동 1038-18번지","indutype":"직물 - 침구·수예점","category":"other"},{"name":"알레르망권선점","tel":"031-226-5949","addr":"경기도 수원시 권선구 권선동 1038-18번지 1층","indutype":"직물 - 침구·수예점","category":"other"}]},{"lat":"37.259321343","long":"127.02472851","imageIndex":17,"items":[{"name":"알베로까사(ALBEROCASA)","tel":"031-232-0083","addr":"경기도 수원시 권선구 권선동 1030-2번지","indutype":"가구 - 일반가구","category":"other"},{"name":"이편한가구","tel":"031-232-0083","addr":"경기도 수원시 권선구 권선동 1030-2번지","indutype":"가구 - 일반가구","category":"other"},{"name":"취업119","tel":"031-221-9294","addr":"경기도 수원시 권선구 권선동 1030-2번지 일룸가구빌딩 201호","indutype":"용역 서비스 - 기타용역서비스","category":"other"}]},{"lat":"37.250965735","long":"127.03753049","imageIndex":17,"items":[{"name":"애플인테리어","tel":"031-238-4397","addr":"경기도 수원시 권선구 권선동 1291-2번지 104호","indutype":"건축자재 - 인테리어전문","category":"other"},{"name":"주공열쇠","tel":"031-221-0231","addr":"경기도 수원시 권선구 권선동 1291-2번지 201호","indutype":"건축자재 - 목재·석재·철물","category":"other"}]},{"lat":"37.256823465","long":"127.0338133","imageIndex":17,"items":[{"name":"야구글러브중고나라","tel":"031-223-2204","addr":"경기도 수원시 권선구 권선동 1165-14번지 102호","indutype":"수리서비스 - 레져용품수리","category":"other"}]},{"lat":"37.255465196","long":"127.02325074","imageIndex":17,"items":[{"name":"야착사","tel":"070-4046-0330","addr":"경기도 수원시 권선구 권선동 1061-13 1","indutype":"레져용품 - 스포츠·레져용품","category":"other"}]},{"lat":"37.250569748","long":"127.03589596","imageIndex":17,"items":[{"name":"어라운드 스터디룸 수원권선점","tel":"031-222-1220","addr":"경기도 수원시 권선구 권선동 1297-1번지 5층","indutype":"용역 서비스 - 사무서비스","category":"other"}]},{"lat":"37.260826547","long":"127.02192198","imageIndex":17,"items":[{"name":"업싸이클드피플","tel":"031-000-0000","addr":"경기도 수원시 권선구 권선동 963-2번지 지층","indutype":"신변잡화 - 기타잡화","category":"other"},{"name":"진영","tel":"031-238-5877","addr":"경기도 수원시 권선구 권선동 963-2번지","indutype":"기타 - 기타 전문점","category":"other"}]},{"lat":"37.24926378","long":"127.03394547","imageIndex":17,"items":[{"name":"에덴메디여성병원산후조리원","tel":"031-224-2114","addr":"경기도 수원시 권선구 권선동 1311-1번지 3층","indutype":"기타의료기관 - 산후조리원","category":"other"}]},{"lat":"37.261348979","long":"127.02292541","imageIndex":17,"items":[{"name":"에스앤디주식회사","tel":"031-224-1482","addr":"경기도 수원시 권선구 권선동 958-4번지","indutype":"기타 - 기계공구","category":"other"}]},{"lat":"37.259961695","long":"127.02105376","imageIndex":17,"items":[{"name":"에스에이치(SH)종합상사","tel":"031-295-8114","addr":"경기도 수원시 권선구 권선동 973번지 101호","indutype":"신변잡화 - 기타잡화","category":"other"}]},{"lat":"37.253933726","long":"127.021537","imageIndex":17,"items":[{"name":"에스케이유압","tel":"031-223-9798","addr":"경기도 수원시 권선구 권선동 1185번지 신명상가 111호","indutype":"기타 - 기계공구","category":"other"},{"name":"이브자리","tel":"031-221-7171","addr":"경기도 수원시 권선구 권선동 1185번지 신명상가 101호","indutype":"직물 - 침구·수예점","category":"other"}]},{"lat":"37.258907331","long":"127.02205677","imageIndex":17,"items":[{"name":"에어렉스","tel":"031-232-8122","addr":"경기도 수원시 권선구 권선동 971-7번지","indutype":"기타 - 기타 전문점","category":"other"}]},{"lat":"37.257547397","long":"127.0177278","imageIndex":17,"items":[{"name":"에어컨시스템샵","tel":"031-223-6856","addr":"경기도 수원시 권선구 권선동 1000-1번지 1층","indutype":"수리서비스 - 가정용품수리","category":"other"}]},{"lat":"37.257403165","long":"127.01825758","imageIndex":17,"items":[{"name":"에어테크","tel":"031-372-0265","addr":"경기도 수원시 권선구 권선동 1000-10번지","indutype":"전기제품 - 가전제품","category":"other"}]},{"lat":"37.261520161","long":"127.02300437","imageIndex":17,"items":[{"name":"에이스인테리어","tel":"031-245-0654","addr":"경기도 수원시 권선구 권선동 958-2번지 202호","indutype":"건축자재 - 인테리어전문","category":"other"}]},{"lat":"37.257709537","long":"127.01808855","imageIndex":17,"items":[{"name":"에이치바이오램","tel":"031-268-4047","addr":"경기도 수원시 권선구 권선동 998-10번지 세종빌 206호","indutype":"서적문구 - 과학기자재","category":"other"}]},{"lat":"37.261763667","long":"127.02161784","imageIndex":17,"items":[{"name":"에이치앤씨","tel":"031-232-2834","addr":"경기도 수원시 권선구 권선동 955-13번지 103호","indutype":"전기제품 - 기타전기제품","category":"other"}]},{"lat":"37.255797432","long":"127.02907856","imageIndex":17,"items":[{"name":"엔씨네트워크(NCnetwork)","tel":"","addr":"경기도 수원시 권선구 권선동 1042-23번지 건택빌 B동 302호","indutype":"용역 서비스 - 기타용역서비스","category":"other"}]},{"lat":"37.260295036","long":"127.02131311","imageIndex":17,"items":[{"name":"엘이디(LED)장이 연조명","tel":"031-213-5799","addr":"경기도 수원시 권선구 권선동 966번지 1층","indutype":"건축자재 - 조명기구","category":"other"},{"name":"영디자인","tel":"031-237-0079","addr":"경기도 수원시 권선구 권선동 966번지","indutype":"용역 서비스 - 종합용역","category":"other"},{"name":"제이에스 양복점","tel":"031-221-8222","addr":"경기도 수원시 권선구 권선동 966번지 1층","indutype":"의류 - 맞춤복점","category":"other"},{"name":"제일도장","tel":"031-238-0477","addr":"경기도 수원시 권선구 권선동 966번지","indutype":"건축자재 - 페인트","category":"other"}]},{"lat":"37.259185632","long":"127.02755792","imageIndex":17,"items":[{"name":"엠케이-베드(MK-BED)","tel":"031-236-1084","addr":"경기도 수원시 권선구 권선동 1020-15번지","indutype":"가구 - 일반가구","category":"other"}]},{"lat":"37.258015516","long":"127.02074893","imageIndex":17,"items":[{"name":"영동귀금속","tel":"031-39-0872","addr":"경기도 수원시 권선구 권선동 993-8번지","indutype":"신변잡화 - 시계","category":"other"},{"name":"케미랩","tel":"","addr":"경기도 수원시 권선구 권선동 993-8번지","indutype":"서적문구 - 과학기자재","category":"other"}]},{"lat":"37.257571901","long":"127.03150275","imageIndex":17,"items":[{"name":"영동그릇백화점","tel":"031-232-2239","addr":"경기도 수원시 권선구 권선동 1154번지","indutype":"주방용구 - 주방용식기","category":"other"}]},{"lat":"37.258348609","long":"127.02256389","imageIndex":17,"items":[{"name":"영신상사 경동나비엔","tel":"031-226-5001","addr":"경기도 수원시 권선구 권선동 989-1,1,2층","indutype":"전기제품 - 냉열기기","category":"other"}]},{"lat":"37.254184572","long":"127.02914563","imageIndex":17,"items":[{"name":"영은쌍방울","tel":"031-222-4247","addr":"경기도 수원시 권선구 권선동 1249-1번지","indutype":"의류 - 내의판매","category":"other"},{"name":"해오름유니폼","tel":"031-224-5223","addr":"경기도 수원시 권선구 권선동 1249-1번지","indutype":"의류 - 정장","category":"other"}]},{"lat":"37.252571709","long":"127.02922397","imageIndex":17,"items":[{"name":"예쁘게 꾸미는 집","tel":"","addr":"경기도 수원시 권선구 권선동 1259-2번지 1층","indutype":"신변잡화 - 기타잡화","category":"other"}]},{"lat":"37.258240346","long":"127.02338676","imageIndex":17,"items":[{"name":"오월꿈산후조리원","tel":"031-225-7777","addr":"경기도 수원시 권선구 권선동 1006-4번지","indutype":"기타의료기관 - 산후조리원","category":"other"}]},{"lat":"37.252463484","long":"127.02967481","imageIndex":17,"items":[{"name":"오월의 집","tel":"031-224-2210","addr":"경기도 수원시 권선구 권선동 1259-5번지 1층","indutype":"의류 - 정장","category":"other"},{"name":"피부쉼터","tel":"031-237-5886","addr":"경기도 수원시 권선구 권선동 1259-5번지","indutype":"회원제형태 - 기타4","category":"other"}]},{"lat":"37.259493197","long":"127.02080564","imageIndex":17,"items":[{"name":"옥이s클로젯","tel":"031-294-3265","addr":"경기도 수원시 권선구 권선동 973-4번지 1층 101호","indutype":"의류 - 기타의류","category":"other"}]},{"lat":"37.255879554","long":"127.02391592","imageIndex":17,"items":[{"name":"온앤미","tel":"031-000-0000","addr":"경기도 수원시 권선구 권선동 1057-19번지 101호","indutype":"의류 - 정장","category":"other"}]},{"lat":"37.253519002","long":"127.0230586","imageIndex":17,"items":[{"name":"옷수선","tel":"","addr":"경기도 수원시 권선구 권선동 1185-1번지 권선삼성 상가 1층 107호","indutype":"수리서비스 - 세탁소","category":"other"}]},{"lat":"37.258599492","long":"127.02972207","imageIndex":17,"items":[{"name":"우드랜드","tel":"031-226-2700","addr":"경기도 수원시 권선구 권선동 1022-8번지","indutype":"가구 - 일반가구","category":"other"}]},{"lat":"37.255933216","long":"127.02605765","imageIndex":17,"items":[{"name":"우리동네요양원","tel":"031-235-6620","addr":"경기도 수원시 권선구 권선동 1048번지 세륜빌딩","indutype":"기타의료기관 - 기타의료기관 및 기타","category":"other"},{"name":"이웃동네요양원","tel":"031-235-6620","addr":"경기도 수원시 권선구 권선동 1048번지 세륜빌딩 4층","indutype":"기타의료기관 - 기타의료기관 및 기타","category":"other"},{"name":"폰마트통신","tel":"031-224-0789","addr":"경기도 수원시 권선구 권선동 1048번지 세륜빌딩 1층","indutype":"사무통신 - 통신기기","category":"other"}]},{"lat":"37.259763105","long":"127.02328572","imageIndex":17,"items":[{"name":"우리동네정신건강연구소","tel":"031-212-0229","addr":"경기도 수원시 권선구 권선동 968번지 2층","indutype":"용역 서비스 - 사무서비스","category":"other"}]},{"lat":"37.258040866","long":"127.02966551","imageIndex":17,"items":[{"name":"우리바이크","tel":"031-223-5353","addr":"경기도 수원시 권선구 권선동 1027-8번지","indutype":"레져용품 - 스포츠·레져용품","category":"other"}]},{"lat":"37.258159204","long":"127.02366855","imageIndex":17,"items":[{"name":"우리산업개발","tel":"031-221-3463","addr":"경기도 수원시 권선구 권선동 1033-12번지 B05호","indutype":"건축자재 - 인테리어전문","category":"other"}]},{"lat":"37.258628079","long":"127.02163961","imageIndex":17,"items":[{"name":"우리정보통신","tel":"031-225-8988","addr":"경기도 수원시 권선구 권선동 987-2번지 현성빌딩 3층","indutype":"사무통신 - 통신기기","category":"other"},{"name":"웅천세무회계","tel":"031-819-3393","addr":"경기도 수원시 권선구 권선동 987-2번지 현성빌딩 5층","indutype":"용역 서비스 - 법률회계서비스(개인)","category":"other"},{"name":"주들","tel":"031-302-1230","addr":"경기도 수원시 권선구 권선동 987-2번지 현성빌딩 3층","indutype":"용역 서비스 - 기타용역서비스","category":"other"}]},{"lat":"37.263241179","long":"127.02270045","imageIndex":17,"items":[{"name":"우림주방","tel":"031-8081-8887","addr":"경기도 수원시 권선구 권선동 947-11번지","indutype":"신변잡화 - 기타잡화","category":"other"}]},{"lat":"37.243480596","long":"127.02784583","imageIndex":17,"items":[{"name":"우씨에르(au ciel)","tel":"","addr":"경기도 수원시 권선구 권선동 1357번지 수원아이파크시티4단지 401동 1102호","indutype":"의류 - 정장","category":"other"},{"name":"재현공조","tel":"","addr":"경기도 수원시 권선구 권선동 1357번지 수원아이파크시티4단지 401동 1201호","indutype":"용역 서비스 - 기타용역서비스","category":"other"}]},{"lat":"37.259709784","long":"127.01839332","imageIndex":17,"items":[{"name":"우연홈패션","tel":"031-222-0399","addr":"경기도 수원시 권선구 권선동 979-2번지","indutype":"직물 - 침구·수예점","category":"other"}]},{"lat":"37.261430068","long":"127.02294798","imageIndex":17,"items":[{"name":"우주크린","tel":"","addr":"경기도 수원시 권선구 권선동 958-3번지 101호","indutype":"용역 서비스 - 종합용역","category":"other"}]},{"lat":"37.259015495","long":"127.0218088","imageIndex":17,"items":[{"name":"우진기획","tel":"031-234-3518","addr":"경기도 수원시 권선구 권선동 971-5번지 3층 301호","indutype":"서적문구 - 출판 및 인쇄물","category":"other"}]},{"lat":"37.257905865","long":"127.02897784","imageIndex":17,"items":[{"name":"우진정수","tel":"031-235-6030","addr":"경기도 수원시 권선구 권선동 1027-15번지 1층","indutype":"주방용구 - 정수기","category":"other"},{"name":"월드냉동공조","tel":"070-8887-1001","addr":"경기도 수원시 권선구 권선동 1027-15번지 1층 오른쪽 상가","indutype":"전기제품 - 냉열기기","category":"other"}]},{"lat":"37.256570784","long":"127.0352786","imageIndex":17,"items":[{"name":"원타일","tel":"031-223-9727","addr":"경기도 수원시 권선구 권선동 1166-2번지","indutype":"건축자재 - 건축용 요업제품","category":"other"}]},{"lat":"37.263935248","long":"127.0209758","imageIndex":17,"items":[{"name":"월드공조","tel":"","addr":"경기도 수원시 권선구 권선동 939-16번지 1층","indutype":"용역 서비스 - 기타용역서비스","category":"other"}]},{"lat":"37.260241355","long":"127.01867525","imageIndex":17,"items":[{"name":"월드보석","tel":"031-238-8520","addr":"경기도 수원시 권선구 권선동 978-6번지","indutype":"신변잡화 - 귀금속","category":"other"}]},{"lat":"37.251014014","long":"127.02375676","imageIndex":17,"items":[{"name":"월드종합설비","tel":"031-224-6003","addr":"경기도 수원시 권선구 권선동 1194-10번지 102호","indutype":"용역 서비스 - 기타용역서비스","category":"other"},{"name":"유진전산소모품","tel":"031-238-2945","addr":"경기도 수원시 권선구 권선동 1194-10번지 101호","indutype":"사무통신 - 기타 사무용품","category":"other"}]},{"lat":"37.259627456","long":"127.02597987","imageIndex":17,"items":[{"name":"웨딩갤러리","tel":"031-239-8091","addr":"경기도 수원시 권선구 권선동 1019-6번지","indutype":"직물 - 혼수전문점","category":"other"},{"name":"킹사무용업소용가구","tel":"031-256-9810","addr":"경기도 수원시 권선구 권선동 1019-6번지","indutype":"가구 - 일반가구","category":"other"}]},{"lat":"37.254265764","long":"127.02869478","imageIndex":17,"items":[{"name":"웰빙한성ENT","tel":"031-256-1711","addr":"경기도 수원시 권선구 권선동 1065-1번지 1층","indutype":"전기제품 - 냉열기기","category":"other"}]},{"lat":"37.25726705","long":"127.02442356","imageIndex":17,"items":[{"name":"위니아대우24크린샵권선점","tel":"02-1522-0092","addr":"경기도 수원시 권선구 권선동 1054-6번지 1층","indutype":"수리서비스 - 세탁소","category":"other"},{"name":"쿠로","tel":"031-000-0000","addr":"경기도 수원시 권선구 권선동 1054-6번지 1층","indutype":"신변잡화 - 기타잡화","category":"other"}]},{"lat":"37.261763426","long":"127.02308334","imageIndex":17,"items":[{"name":"윈드앤 케어","tel":"031-1899-6259","addr":"경기도 수원시 권선구 권선동 958번지 현대빌딩 지하1층","indutype":"용역 서비스 - 종합용역","category":"other"}]},{"lat":"37.25549225","long":"127.02311549","imageIndex":17,"items":[{"name":"윈시스템","tel":"070-8833-2527","addr":"경기도 수원시 권선구 권선동 1061-14번지 1층 101호","indutype":"용역 서비스 - 기타용역서비스","category":"other"}]},{"lat":"37.255103965","long":"127.02755659","imageIndex":17,"items":[{"name":"유갤러리","tel":"031-244-2315","addr":"경기도 수원시 권선구 권선동 1043-14번지 아트빌주택 1층 101호","indutype":"가구 - 일반가구","category":"other"}]},{"lat":"37.254906818","long":"127.02167251","imageIndex":17,"items":[{"name":"유용승세무사사무소","tel":"031-234-3408","addr":"경기도 수원시 권선구 권선동 1058-4번지 동산빌딩 2층","indutype":"용역 서비스 - 법률회계서비스(개인)","category":"other"},{"name":"정수기관리센타","tel":"031-226-6902","addr":"경기도 수원시 권선구 권선동 1058-4번지 1층","indutype":"주방용구 - 정수기","category":"other"}]},{"lat":"37.25890691","long":"127.02450294","imageIndex":17,"items":[{"name":"유진도배기계","tel":"031-236-4793","addr":"경기도 수원시 권선구 권선동 1031-2번지 1층 상가오른쪽","indutype":"기타 - 기계공구","category":"other"}]},{"lat":"37.255212982","long":"127.02281106","imageIndex":17,"items":[{"name":"유진문구","tel":"031-225-4655","addr":"경기도 수원시 권선구 권선동 1060-20번지","indutype":"서적문구 - 문구용품","category":"other"}]},{"lat":"37.263511752","long":"127.02105461","imageIndex":17,"items":[{"name":"윤빈공조","tel":"031-111-1111","addr":"경기도 수원시 권선구 권선동 949-19번지 1층","indutype":"용역 서비스 - 기타용역서비스","category":"other"}]},{"lat":"37.261520724","long":"127.01936317","imageIndex":17,"items":[{"name":"으뜸앵글","tel":"031-223-7076","addr":"경기도 수원시 권선구 권선동 964번지","indutype":"건축자재 - 목재·석재·철물","category":"other"}]},{"lat":"37.257186546","long":"127.02089528","imageIndex":17,"items":[{"name":"은성세차장","tel":"031-232-7264","addr":"경기도 수원시 권선구 권선동 992-7번지","indutype":"기타 - 기타 전문점","category":"other"}]},{"lat":"37.256048412","long":"127.03444423","imageIndex":17,"items":[{"name":"은주패션","tel":"","addr":"경기도 수원시 권선구 권선동 1167-10번지 B101호","indutype":"의류 - 내의판매","category":"other"}]},{"lat":"37.263349072","long":"127.02403073","imageIndex":17,"items":[{"name":"은하상사","tel":"031-224-2340","addr":"경기도 수원시 권선구 권선동 941-1번지 Eco city (B동)","indutype":"주방용구 - 정수기","category":"other"}]},{"lat":"37.253598783","long":"127.02967521","imageIndex":17,"items":[{"name":"음치기 박치기 행복노래교실","tel":"031-225-8180","addr":"경기도 수원시 권선구 권선동 1250-1번지 301호","indutype":"문화.취미 - 문화취미기타","category":"other"},{"name":"음치기박치기(U.B.ent)","tel":"031-255-5770","addr":"경기도 수원시 권선구 권선동 1250-1번지 소소리빌딩","indutype":"용역 서비스 - 종합용역","category":"other"}]},{"lat":"37.25537504","long":"127.02355507","imageIndex":17,"items":[{"name":"이레산업","tel":"031-233-0787","addr":"경기도 수원시 권선구 권선동 1061-11번지","indutype":"건축자재 - 건축용 요업제품","category":"other"}]},{"lat":"37.256402081","long":"127.02431059","imageIndex":17,"items":[{"name":"이레전기조명","tel":"031-234-2200","addr":"경기도 수원시 권선구 권선동 1056-7번지","indutype":"건축자재 - 조명기구","category":"other"}]},{"lat":"37.255878926","long":"127.02719613","imageIndex":17,"items":[{"name":"이마트24 수원세곡초점","tel":"","addr":"경기도 수원시 권선구 권선동 1047-5번지","indutype":"유통업 영리 - 편 의 점","category":"other"}]},{"lat":"37.252490548","long":"127.02952828","imageIndex":17,"items":[{"name":"이불개는남자","tel":"070-4219-0063","addr":"경기도 수원시 권선구 권선동 1259-4번지","indutype":"직물 - 침구·수예점","category":"other"}]},{"lat":"37.255374922","long":"127.02422012","imageIndex":17,"items":[{"name":"이브레끌림","tel":"031-221-2227","addr":"경기도 수원시 권선구 권선동 1062번지","indutype":"직물 - 침구·수예점","category":"other"}]},{"lat":"37.2566817","long":"127.022586","imageIndex":17,"items":[{"name":"이화상사","tel":"031-235-2020","addr":"경기도 수원시 권선구 권선동 1005-5번지","indutype":"건축자재 - 기타건축자재","category":"other"}]},{"lat":"37.258520305","long":"127.01928361","imageIndex":17,"items":[{"name":"인뉴데코","tel":"031-225-4984","addr":"경기도 수원시 권선구 권선동 996번지","indutype":"건축자재 - 기타건축자재","category":"other"}]},{"lat":"37.253127651","long":"127.03939133","imageIndex":17,"items":[{"name":"인덕특수운송","tel":"031-233-6897","addr":"경기도 수원시 권선구 권선동 3-2번지","indutype":"용역 서비스 - 가례서비스업","category":"other"}]},{"lat":"37.258104007","long":"127.02936117","imageIndex":17,"items":[{"name":"인터라켄","tel":"031-893-8217","addr":"경기도 수원시 권선구 권선동 1027-6번지 1층","indutype":"가구 - 일반가구","category":"other"}]},{"lat":"37.259015944","long":"127.0187539","imageIndex":17,"items":[{"name":"인포스","tel":"","addr":"경기도 수원시 권선구 권선동 980-2번지 지층","indutype":"사무통신 - 통신기기","category":"other"}]},{"lat":"37.255131137","long":"127.026869","imageIndex":17,"items":[{"name":"자연부동산","tel":"031-222-3371","addr":"경기도 수원시 권선구 권선동 1049-8번지 팔봉빌딩 1층 4호","indutype":"용역 서비스 - 부동산 중개·임대","category":"other"}]},{"lat":"37.242200939","long":"127.02873575","imageIndex":17,"items":[{"name":"자유상자","tel":"","addr":"경기도 수원시 권선구 권선동 1357번지 수원아이파크시티4단지 407동 703호","indutype":"용역 서비스 - 사무서비스","category":"other"}]},{"lat":"37.255599048","long":"127.02977736","imageIndex":17,"items":[{"name":"자유종 서점","tel":"031-222-6222","addr":"경기도 수원시 권선구 권선동 1041-7번지 1층","indutype":"서적문구 - 일반서적","category":"other"}]},{"lat":"37.262267614","long":"127.02524792","imageIndex":17,"items":[{"name":"장난감백화점","tel":"031-292-1949","addr":"경기도 수원시 권선구 권선동 1010-4번지 1층","indutype":"서적문구 - 문구용품","category":"other"}]},{"lat":"37.239328603","long":"127.01717201","imageIndex":17,"items":[{"name":"장원샷시상사","tel":"031-237-2291","addr":"경기도 수원시 권선구 권선동 901-3번지","indutype":"건축자재 - 보일러·펌프·샷시","category":"other"}]},{"lat":"37.258131068","long":"127.02922591","imageIndex":17,"items":[{"name":"장인가구수원점","tel":"031-238-7704","addr":"경기도 수원시 권선구 권선동 1027-5번지 지하1,2,3층","indutype":"가구 - 일반가구","category":"other"}]},{"lat":"37.255183861","long":"127.03275305","imageIndex":17,"items":[{"name":"전국특산물센타","tel":"031-235-6845","addr":"경기도 수원시 권선구 권선동 1230-9번지","indutype":"회원제형태 - 기타1","category":"other"}]},{"lat":"37.241498699","long":"127.02599688","imageIndex":17,"items":[{"name":"정동테크","tel":"","addr":"경기도 수원시 권선구 권선동 1359번지 수원아이파크시티3단지 314동 1203호","indutype":"용역 서비스 - 사무서비스","category":"other"}]},{"lat":"37.261790645","long":"127.02194477","imageIndex":17,"items":[{"name":"정수기아저씨","tel":"031-235-4323","addr":"경기도 수원시 권선구 권선동 956-2번지 1층","indutype":"주방용구 - 정수기","category":"other"}]},{"lat":"37.257319882","long":"127.03036414","imageIndex":17,"items":[{"name":"정일서적","tel":"031-224-5522","addr":"경기도 수원시 권선구 권선동 1039번지 1층","indutype":"회원제형태 - 서적","category":"other"}]},{"lat":"37.252436256","long":"127.03053144","imageIndex":17,"items":[{"name":"정피부관리","tel":"031-222-5608","addr":"경기도 수원시 권선구 권선동 1256-7번지 1층","indutype":"회원제형태 - 기타4","category":"other"}]},{"lat":"37.259070068","long":"127.01828046","imageIndex":17,"items":[{"name":"정화전기공사","tel":"031-221-5577","addr":"경기도 수원시 권선구 권선동 979-16번지","indutype":"용역 서비스 - 기타용역서비스","category":"other"}]},{"lat":"37.256041859","long":"127.02322835","imageIndex":17,"items":[{"name":"제로펫","tel":"031-227-1553","addr":"경기도 수원시 권선구 권선동 1057-13번지","indutype":"문화.취미 - 애완동물","category":"other"}]},{"lat":"37.262070249","long":"127.02008477","imageIndex":17,"items":[{"name":"제비표페인트(현성상사)","tel":"031-225-7771","addr":"경기도 수원시 권선구 권선동 952-3번지","indutype":"건축자재 - 인테리어전문","category":"other"}]},{"lat":"37.256769221","long":"127.03450089","imageIndex":17,"items":[{"name":"제이상사","tel":"031-223-7545","addr":"경기도 수원시 권선구 권선동 1165-8번지","indutype":"건축자재 - 페인트","category":"other"},{"name":"철물공간","tel":"031-224-8778","addr":"경기도 수원시 권선구 권선동 1165-8번지 1층","indutype":"건축자재 - 목재·석재·철물","category":"other"}]},{"lat":"37.261186724","long":"127.0233312","imageIndex":17,"items":[{"name":"제이플레이스 (JK)","tel":"031-213-5779","addr":"경기도 수원시 권선구 권선동 959-2번지 1층","indutype":"건축자재 - 인테리어전문","category":"other"}]},{"lat":"37.259294287","long":"127.02486377","imageIndex":17,"items":[{"name":"제일사무용가구","tel":"031-234-3692","addr":"경기도 수원시 권선구 권선동 1030-3번지","indutype":"가구 - 기타가구","category":"other"}]},{"lat":"37.255735585","long":"127.02277739","imageIndex":17,"items":[{"name":"제일시스템","tel":"031-236-0963","addr":"경기도 수원시 권선구 권선동 1061-1번지","indutype":"사무통신 - 컴퓨터","category":"other"}]},{"lat":"37.252355273","long":"127.030058","imageIndex":17,"items":[{"name":"조성산업","tel":"031-221-1810","addr":"경기도 수원시 권선구 권선동 1258-1번지 1층","indutype":"기타 - 기계공구","category":"other"}]},{"lat":"37.259293645","long":"127.02808777","imageIndex":17,"items":[{"name":"주식회사 건명","tel":"031-278-6006","addr":"경기도 수원시 권선구 권선동 1021번지 203,204호","indutype":"용역 서비스 - 사무서비스","category":"other"},{"name":"주식회사 프롬케이","tel":"031-291-4568","addr":"경기도 수원시 권선구 권선동 1021번지 2층 203호","indutype":"용역 서비스 - 종합용역","category":"other"},{"name":"주식회사프럼코리아","tel":"031-224-0011","addr":"경기도 수원시 권선구 권선동 1021번지 202호","indutype":"건축자재 - 기타건축자재","category":"other"}]},{"lat":"37.263213839","long":"127.02447035","imageIndex":17,"items":[{"name":"주식회사 경기매일신문","tel":"031-235-1111","addr":"경기도 수원시 권선구 권선동 941-4","indutype":"서적문구 - 정기간행물","category":"other"}]},{"lat":"37.256853079","long":"127.02144754","imageIndex":17,"items":[{"name":"주식회사 대양이엔씨 수원지점","tel":"02-3453-0708","addr":"경기도 수원시 권선구 권선동 991-9 1층상가, B01,B02,701,702,601,602,603호","indutype":"유통업 영리 - 편 의 점","category":"other"}]},{"lat":"37.259347932","long":"127.02700561","imageIndex":17,"items":[{"name":"주식회사 디자인하람","tel":"031-224-9949","addr":"경기도 수원시 권선구 권선동 1020-13번지 복빌딩","indutype":"가구 - 일반가구","category":"other"}]},{"lat":"37.259239734","long":"127.0273663","imageIndex":17,"items":[{"name":"주식회사 선한","tel":"031-232-7121","addr":"경기도 수원시 권선구 권선동 1020-8번지","indutype":"가구 - 일반가구","category":"other"}]},{"lat":"37.256988336","long":"127.0207825","imageIndex":17,"items":[{"name":"주식회사 세이프코리아원","tel":"031-1577-4112","addr":"경기도 수원시 권선구 권선동 992-9번지 2층","indutype":"용역 서비스 - 종합용역","category":"other"}]},{"lat":"37.260347491","long":"127.02972269","imageIndex":17,"items":[{"name":"주식회사 청학","tel":"031-237-7458","addr":"경기도 수원시 권선구 권선동 1013-10번지","indutype":"회원제형태 - 레져업소","category":"other"}]},{"lat":"37.259600238","long":"127.0269155","imageIndex":17,"items":[{"name":"주식회사거오조경","tel":"031-239-3001","addr":"경기도 수원시 권선구 권선동 1020-2번지 2층","indutype":"건축자재 - 인테리어전문","category":"other"}]},{"lat":"37.253238057","long":"127.0310277","imageIndex":17,"items":[{"name":"주식회사모두렌트카","tel":"031-234-6868","addr":"경기도 수원시 권선구 권선동 1251-3번지","indutype":"여행 - 렌터카","category":"other"}]},{"lat":"37.256158451","long":"127.02617044","imageIndex":17,"items":[{"name":"주식회사북클린","tel":"070-7565-4053","addr":"경기도 수원시 권선구 권선동 1047-9번지 5층 502호","indutype":"서적문구 - 일반서적","category":"other"},{"name":"토가 권선점","tel":"031-267-0320","addr":"경기도 수원시 권선구 권선동 1047-9번지 두성빌딩 5층 502호","indutype":"의류 - 기타의류","category":"other"}]},{"lat":"37.259158573","long":"127.02769318","imageIndex":17,"items":[{"name":"주식회사우드코","tel":"031-236-7779","addr":"경기도 수원시 권선구 권선동 1020-7번지","indutype":"가구 - 일반가구","category":"other"}]},{"lat":"37.256327275","long":"127.03611264","imageIndex":17,"items":[{"name":"주식회사청소박사","tel":"031-224-3104","addr":"경기도 수원시 권선구 권선동 1171-3번지","indutype":"용역 서비스 - 종합용역","category":"other"},{"name":"태양전기","tel":"031-236-0540","addr":"경기도 수원시 권선구 권선동 1171-3번지","indutype":"전기제품 - 기타전기제품","category":"other"}]},{"lat":"37.25682436","long":"127.03017233","imageIndex":17,"items":[{"name":"주식회사행복을만드는사람들","tel":"031-238-2456","addr":"경기도 수원시 권선구 권선동 1039-2번지","indutype":"여행 - 관광여행","category":"other"}]},{"lat":"37.258573114","long":"127.02666718","imageIndex":17,"items":[{"name":"중소기업가구 ( 동수원점)","tel":"031-222-2259","addr":"경기도 수원시 권선구 권선동 1029-4번지","indutype":"가구 - 일반가구","category":"other"}]},{"lat":"37.255545123","long":"127.02916865","imageIndex":17,"items":[{"name":"중앙꽃화원","tel":"031-221-8055","addr":"경기도 수원시 권선구 권선동 1042-13번지","indutype":"문화.취미 - 화원","category":"other"}]},{"lat":"37.252075838","long":"127.03055386","imageIndex":17,"items":[{"name":"중앙스포츠","tel":"031-111-1111","addr":"경기도 수원시 권선구 권선동 1258-6번지","indutype":"레져용품 - 스포츠·레져용품","category":"other"}]},{"lat":"37.252103148","long":"127.02933653","imageIndex":17,"items":[{"name":"중앙열쇠","tel":"031-225-8888","addr":"경기도 수원시 권선구 권선동 1262번지","indutype":"기타 - 기계공구","category":"other"},{"name":"필하우스","tel":"031-238-3999","addr":"경기도 수원시 권선구 권선동 1262번지 1층 상가좌측","indutype":"의류 - 정장","category":"other"}]},{"lat":"37.248850709","long":"127.02802794","imageIndex":17,"items":[{"name":"중원통신","tel":"031-238-6166","addr":"경기도 수원시 권선구 권선동 1265번지 유원상가 1층 102호","indutype":"사무통신 - 통신기기","category":"other"}]},{"lat":"37.258069318","long":"127.02239473","imageIndex":17,"items":[{"name":"지도닷컴","tel":"031-267-1553","addr":"경기도 수원시 권선구 권선동 989-3번지","indutype":"신변잡화 - 기타잡화","category":"other"},{"name":"하나산업","tel":"031-225-5621","addr":"경기도 수원시 권선구 권선동 989-3번지 세광빌딩 603호","indutype":"기타 - 기타 전문점","category":"other"}]},{"lat":"37.262881184","long":"127.02002859","imageIndex":17,"items":[{"name":"지에이컴바인","tel":"031-496-3895","addr":"경기도 수원시 권선구 권선동 950-13번지 삼산빌딩 2층","indutype":"광학제품 - 사진관","category":"other"},{"name":"해드림공인중개사사무소","tel":"031-245-6262","addr":"경기도 수원시 권선구 권선동 950-13번지 1층","indutype":"용역 서비스 - 부동산 중개·임대","category":"other"}]},{"lat":"37.262151088","long":"127.02175322","imageIndex":17,"items":[{"name":"진성세탁소","tel":"031-238-2014","addr":"경기도 수원시 권선구 권선동 955-16번지","indutype":"수리서비스 - 세탁소","category":"other"},{"name":"태성지업사","tel":"031-237-1628","addr":"경기도 수원시 권선구 권선동 955-16번지","indutype":"직물 - 카페트,커튼,천막,지물","category":"other"}]},{"lat":"37.259214048","long":"127.01964449","imageIndex":17,"items":[{"name":"진우화장품","tel":"070-8849-5959","addr":"경기도 수원시 권선구 권선동 982-3번지","indutype":"회원제형태 - 기타1","category":"other"}]},{"lat":"37.259240979","long":"127.02033213","imageIndex":17,"items":[{"name":"질경이","tel":"031-234-9818","addr":"경기도 수원시 권선구 권선동 983-14번지","indutype":"기타 - 기타 전문점","category":"other"}]},{"lat":"37.255465084","long":"127.02389326","imageIndex":17,"items":[{"name":"착한텔레콤","tel":"070-7543-4329","addr":"경기도 수원시 권선구 권선동 1061-8번지 1층","indutype":"사무통신 - 통신기기","category":"other"}]},{"lat":"37.249743742","long":"127.02269691","imageIndex":17,"items":[{"name":"참요가원","tel":"031-221-7270","addr":"경기도 수원시 권선구 권선동 1192-2번지 세일프라자 6층","indutype":"회원제형태 - 레져업소","category":"other"}]},{"lat":"37.259601312","long":"127.02086203","imageIndex":17,"items":[{"name":"창대산업","tel":"031-239-6662","addr":"경기도 수원시 권선구 권선동 973-3번지","indutype":"건축자재 - 기타건축자재","category":"other"}]},{"lat":"37.263845101","long":"127.02125761","imageIndex":17,"items":[{"name":"창대유리","tel":"031-234-8245","addr":"경기도 수원시 권선구 권선동 939-14번지","indutype":"건축자재 - 유리","category":"other"}]},{"lat":"37.252319332","long":"127.0296184","imageIndex":17,"items":[{"name":"창대철물전기","tel":"070-8263-7500","addr":"경기도 수원시 권선구 권선동 1259-6번지 좌측상가일부 1층","indutype":"건축자재 - 목재·석재·철물","category":"other"}]},{"lat":"37.255068465","long":"127.02480619","imageIndex":17,"items":[{"name":"창성시스템","tel":"031-225-7714","addr":"경기도 수원시 권선구 권선동 1062-10번지 101호","indutype":"전기제품 - 냉열기기","category":"other"}]},{"lat":"37.244039033","long":"127.02879273","imageIndex":17,"items":[{"name":"창의융합미래교육원","tel":"02-1600-5992","addr":"경기도 수원시 권선구 권선동 1361번지 수원아이파크 202동 304호","indutype":"서적문구 - 일반서적","category":"other"}]},{"lat":"37.255769274","long":"127.03375651","imageIndex":17,"items":[{"name":"창진유통","tel":"031-225-0263","addr":"경기도 수원시 권선구 권선동 1162-11번지","indutype":"유통업 영리 - 기타유통업","category":"other"}]},{"lat":"37.242570944","long":"127.02591832","imageIndex":17,"items":[{"name":"창천시스템","tel":"070-4191-4009","addr":"경기도 수원시 권선구 권선동 1359번지 수원아이파크시티3단지","indutype":"용역 서비스 - 기타용역서비스","category":"other"}]},{"lat":"37.259268309","long":"127.01816777","imageIndex":17,"items":[{"name":"천재정보통신","tel":"070-7572-1062","addr":"경기도 수원시 권선구 권선동 979-7번지 1층","indutype":"사무통신 - 통신기기","category":"other"}]},{"lat":"37.256156521","long":"127.03450064","imageIndex":17,"items":[{"name":"천천화원","tel":"031-248-5959","addr":"경기도 수원시 권선구 권선동 1167-11번지","indutype":"문화.취미 - 화원","category":"other"}]},{"lat":"37.258293382","long":"127.02863979","imageIndex":17,"items":[{"name":"첨단사무용가구","tel":"031-233-7342","addr":"경기도 수원시 권선구 권선동 1027-2번지","indutype":"가구 - 기타가구","category":"other"}]},{"lat":"37.26270901","long":"127.02581172","imageIndex":17,"items":[{"name":"최호선세무회계사무소","tel":"031-252-1100","addr":"경기도 수원시 권선구 권선동 1011번지 양윤빌딩 5층","indutype":"용역 서비스 - 법률회계서비스(개인)","category":"other"}]},{"lat":"37.257826728","long":"127.01763768","imageIndex":17,"items":[{"name":"출장 블랙박스","tel":"031-377-5672","addr":"경기도 수원시 권선구 권선동 999-10번지 301호","indutype":"용역 서비스 - 기타용역서비스","category":"other"}]},{"lat":"37.257049395","long":"127.03111929","imageIndex":17,"items":[{"name":"캡틴","tel":"031-226-7855","addr":"경기도 수원시 권선구 권선동 1040-7번지 2층","indutype":"회원제형태 - 기타4","category":"other"}]},{"lat":"37.248335613","long":"127.03433957","imageIndex":17,"items":[{"name":"컴퓨터마인드","tel":"","addr":"경기도 수원시 권선구 권선동 1312번지 권선3지구주공1단지 126동 902호","indutype":"사무통신 - 컴퓨터","category":"other"}]},{"lat":"37.250020191","long":"127.03563648","imageIndex":17,"items":[{"name":"케이씨씨토탈하우징","tel":"031-223-6578","addr":"경기도 수원시 권선구 권선동 1297-3번지 권선프라자 109호","indutype":"건축자재 - 인테리어전문","category":"other"},{"name":"트윈스","tel":"070-8744-5887","addr":"경기도 수원시 권선구 권선동 1297-3번지 권선프라자 107호","indutype":"의류 - 정장","category":"other"}]},{"lat":"37.263962299","long":"127.02084052","imageIndex":17,"items":[{"name":"케이에스관리","tel":"031-214-4839","addr":"경기도 수원시 권선구 권선동 939-17번지 103호","indutype":"용역 서비스 - 종합용역","category":"other"}]},{"lat":"37.261015736","long":"127.02209112","imageIndex":17,"items":[{"name":"케이피정보통신시스템","tel":"031-425-9198","addr":"경기도 수원시 권선구 권선동 957-8번지 102호","indutype":"사무통신 - 통신기기","category":"other"}]},{"lat":"37.250154196","long":"127.03955897","imageIndex":17,"items":[{"name":"코랄밤비","tel":"070-4191-8344","addr":"경기도 수원시 권선구 권선동 1304번지 주공3단지 1층 101호","indutype":"서적문구 - 완구점","category":"other"}]},{"lat":"37.245660363","long":"127.03110377","imageIndex":17,"items":[{"name":"코인파워","tel":"02-536-3697","addr":"경기도 수원시 권선구 권선동 1361번지 수원아이파크시티2단지 222동 1403호","indutype":"회원제형태 - 기타4","category":"other"}]},{"lat":"37.257130849","long":"127.02956373","imageIndex":17,"items":[{"name":"큐와이(QY)케어","tel":"","addr":"경기도 수원시 권선구 권선동 1038-1번지 명진빌라 202호","indutype":"용역 서비스 - 종합용역","category":"other"}]},{"lat":"37.255239356","long":"127.0263956","imageIndex":17,"items":[{"name":"크로커권선점","tel":"031-221-3223","addr":"경기도 수원시 권선구 권선동 1049-10번지","indutype":"레져용품 - 스포츠·레져용품","category":"other"}]},{"lat":"37.254184737","long":"127.02839041","imageIndex":17,"items":[{"name":"크린토피아수원권선자이점","tel":"031-224-0600","addr":"경기도 수원시 권선구 권선동 1065-4번지","indutype":"수리서비스 - 세탁소","category":"other"}]},{"lat":"37.260268078","long":"127.02083964","imageIndex":17,"items":[{"name":"킥복싱체육관","tel":"031-267-2322","addr":"경기도 수원시 권선구 권선동 965-17번지 2층","indutype":"회원제형태 - 레져업소","category":"other"}]},{"lat":"37.258348163","long":"127.02508895","imageIndex":17,"items":[{"name":"킹콩#","tel":"","addr":"경기도 수원시 권선구 권선동 1032-22번지 203호","indutype":"신변잡화 - 기타잡화","category":"other"}]},{"lat":"37.26006986","long":"127.02078323","imageIndex":17,"items":[{"name":"태광기업","tel":"031-244-7412","addr":"경기도 수원시 권선구 권선동 974-9번지","indutype":"용역 서비스 - 기타용역서비스","category":"other"}]},{"lat":"37.257932692","long":"127.02989092","imageIndex":17,"items":[{"name":"테라핏(TheraFit)운동센터","tel":"031-222-1106","addr":"경기도 수원시 권선구 권선동 1026번지 3층","indutype":"회원제형태 - 레져업소","category":"other"}]},{"lat":"37.259041363","long":"127.02805387","imageIndex":17,"items":[{"name":"템퍼코리아 수원점","tel":"031-225-3351","addr":"경기도 수원시 권선구 권선동 1021-12번지","indutype":"가구 - 일반가구","category":"other"},{"name":"현갤러리","tel":"031-222-7220","addr":"경기도 수원시 권선구 권선동 1021-12번지 청림갤러리 4층","indutype":"가구 - 일반가구","category":"other"}]},{"lat":"37.258239289","long":"127.02878632","imageIndex":17,"items":[{"name":"토탈중고사랑샵","tel":"031-238-8423","addr":"경기도 수원시 권선구 권선동 1027-3번지","indutype":"전기제품 - 가전제품","category":"other"}]},{"lat":"37.252987071","long":"127.02487321","imageIndex":17,"items":[{"name":"투민에어컨 서비스114","tel":"","addr":"경기도 수원시 권선구 권선동 1330번지 권선자이이편한세상 103동 801호","indutype":"수리서비스 - 가정용품수리","category":"other"}]},{"lat":"37.255707781","long":"127.02694809","imageIndex":17,"items":[{"name":"티피에스(TPS)","tel":"070-7583-3080","addr":"경기도 수원시 권선구 권선동 1048-5번지","indutype":"용역 서비스 - 기타용역서비스","category":"other"}]},{"lat":"37.250966273","long":"127.03563689","imageIndex":17,"items":[{"name":"파라다이스홈센타","tel":"031-226-0075","addr":"경기도 수원시 권선구 권선동 1295-4번지 102호","indutype":"기타 - 기계공구","category":"other"}]},{"lat":"37.250597556","long":"127.03297667","imageIndex":17,"items":[{"name":"파인그린","tel":"031-111-1111","addr":"경기도 수원시 권선구 권선동 1270번지 벽산아파트 411동 2층 204호","indutype":"용역 서비스 - 기타용역서비스","category":"other"},{"name":"풍경닮음피부샵","tel":"031-239-1510","addr":"경기도 수원시 권선구 권선동 1270번지 벽산 상가 412동 101호","indutype":"회원제형태 - 기타4","category":"other"}]},{"lat":"37.256904507","long":"127.03400496","imageIndex":17,"items":[{"name":"평화타일조명","tel":"031-223-0563","addr":"경기도 수원시 권선구 권선동 1165-4번지","indutype":"건축자재 - 건축용 요업제품","category":"other"}]},{"lat":"37.252463768","long":"127.02838983","imageIndex":17,"items":[{"name":"포시즌리빙데코","tel":"031-221-2281","addr":"경기도 수원시 권선구 권선동 1260-4번지","indutype":"가구 - 기타가구","category":"other"}]},{"lat":"37.258654727","long":"127.02391669","imageIndex":17,"items":[{"name":"포장백화점","tel":"031-242-7900","addr":"경기도 수원시 권선구 권선동 1032 101호~102호","indutype":"유통업 영리 - 기타유통업","category":"other"}]},{"lat":"37.258601432","long":"127.01903563","imageIndex":17,"items":[{"name":"포토프리","tel":"031-233-0674","addr":"경기도 수원시 권선구 권선동 997-10번지","indutype":"광학제품 - 사진관","category":"other"}]},{"lat":"37.263682674","long":"127.02275693","imageIndex":17,"items":[{"name":"포튼가먼트 수원점","tel":"031-223-5510","addr":"경기도 수원시 권선구 권선동 940-8번지 1층","indutype":"의류 - 맞춤복점","category":"other"}]},{"lat":"37.258104215","long":"127.02841428","imageIndex":17,"items":[{"name":"푸른솔교육","tel":"031-232-5172","addr":"경기도 수원시 권선구 권선동 1027-23번지 2층","indutype":"서적문구 - 일반서적","category":"other"}]},{"lat":"37.248659555","long":"127.03591767","imageIndex":17,"items":[{"name":"프로방스","tel":"031-226-5325","addr":"경기도 수원시 권선구 권선동 1311-8번지 권선종합프라자 1층 102호","indutype":"문화.취미 - 화원","category":"other"},{"name":"한국아이지에이마트 수원온수골점","tel":"031-304-6456","addr":"경기도 수원시 권선구 권선동 1311-8번지 권선동,권선종합프라자 110","indutype":"유통업 영리 - 편 의 점","category":"other"},{"name":"향기플라워","tel":"031-237-1350","addr":"경기도 수원시 권선구 권선동 1311-8번지 권선종합프라자 114호","indutype":"문화.취미 - 화원","category":"other"}]},{"lat":"37.238876897","long":"127.02492546","imageIndex":17,"items":[{"name":"프로세탁","tel":"031-202-5457","addr":"경기도 수원시 권선구 권선동 1355번지 수원아이파크시티5단지 상가 101호","indutype":"수리서비스 - 세탁소","category":"other"}]},{"lat":"37.262187156","long":"127.02158413","imageIndex":17,"items":[{"name":"피노키오문구사","tel":"031-234-6947","addr":"경기도 수원시 권선구 권선동 955번지","indutype":"서적문구 - 문구용품","category":"other"}]},{"lat":"37.251992798","long":"127.0379142","imageIndex":17,"items":[{"name":"필독(FEELDOG)","tel":"031-223-8988","addr":"경기도 수원시 권선구 권선동 1283-11번지 1층","indutype":"문화.취미 - 애완동물","category":"other"}]},{"lat":"37.250545375","long":"127.02433148","imageIndex":17,"items":[{"name":"핑크홀","tel":"070-4412-5678","addr":"경기도 수원시 권선구 권선동 1197-2번지 1층","indutype":"신변잡화 - 액세서리","category":"other"}]},{"lat":"37.25367189","long":"127.02468179","imageIndex":17,"items":[{"name":"하나로 나무시장","tel":"031-898-8916","addr":"경기도 수원시 권선구 권선동 1330번지 권선자이이편한세상 133동 1002호","indutype":"건축자재 - 인테리어전문","category":"other"}]},{"lat":"37.256573804","long":"127.02116566","imageIndex":17,"items":[{"name":"하나로씨스템","tel":"031-238-6044","addr":"경기도 수원시 권선구 권선동 1002-2번지","indutype":"건축자재 - 조명기구","category":"other"}]},{"lat":"37.259096091","long":"127.02469463","imageIndex":17,"items":[{"name":"하나산업","tel":"031-222-0170","addr":"경기도 수원시 권선구 권선동 1030-8번지 외2필지 한울빌","indutype":"주방용구 - 주방용구","category":"other"}]},{"lat":"37.250905802","long":"127.02425268","imageIndex":17,"items":[{"name":"하늘공연기획","tel":"031-7750-2274","addr":"경기도 수원시 권선구 권선동 1194-7번지","indutype":"회원제형태 - 기타4","category":"other"}]},{"lat":"37.256987528","long":"127.02550563","imageIndex":17,"items":[{"name":"하얀세탁소","tel":"031-232-1333","addr":"경기도 수원시 권선구 권선동 1053-4번지 1층","indutype":"수리서비스 - 세탁소","category":"other"}]},{"lat":"37.258817826","long":"127.01791968","imageIndex":17,"items":[{"name":"하이-홍","tel":"","addr":"경기도 수원시 권선구 권선동 999-1번지 1층","indutype":"의류 - 정장","category":"other"}]},{"lat":"37.261572775","long":"127.03023041","imageIndex":17,"items":[{"name":"하이마트서비스 수원센터","tel":"031-233-0020","addr":"경기도 수원시 권선구 권선동 1013-15번지 하이마트 5층","indutype":"수리서비스 - 가정용품수리","category":"other"}]},{"lat":"37.254599427","long":"127.0273648","imageIndex":17,"items":[{"name":"한미타올정원상사","tel":"031-267-4545","addr":"경기도 수원시 권선구 권선동 1064번지","indutype":"용역 서비스 - 종합용역","category":"other"}]},{"lat":"37.256354475","long":"127.03550395","imageIndex":17,"items":[{"name":"한빛꽃직매장","tel":"031-232-7200","addr":"경기도 수원시 권선구 권선동 1166-5번지 1층","indutype":"문화.취미 - 화원","category":"other"}]},{"lat":"37.255013791","long":"127.02789472","imageIndex":17,"items":[{"name":"한빛컴퓨터","tel":"031-225-0488","addr":"경기도 수원시 권선구 권선동 1043-3번지 102호","indutype":"사무통신 - 컴퓨터","category":"other"}]},{"lat":"37.257545126","long":"127.03042059","imageIndex":17,"items":[{"name":"한샘동수원키친프라자","tel":"031-238-4333","addr":"경기도 수원시 권선구 권선동 1025-11번지 1층","indutype":"주방용구 - 주방용구","category":"other"}]},{"lat":"37.251875809","long":"127.03741819","imageIndex":17,"items":[{"name":"한샘리하우스 햇살대리점","tel":"031-255-1888","addr":"경기도 수원시 권선구 권선동 1286-4번지 1층","indutype":"건축자재 - 인테리어전문","category":"other"}]},{"lat":"37.255573286","long":"127.0234424","imageIndex":17,"items":[{"name":"한샘아롬이","tel":"031-222-2217","addr":"경기도 수원시 권선구 권선동 1061-6번지","indutype":"회원제형태 - 서적","category":"other"}]},{"lat":"37.258655516","long":"127.01886655","imageIndex":17,"items":[{"name":"한솔크린테크","tel":"031-234-7346","addr":"경기도 수원시 권선구 권선동 997번지 1층 101호","indutype":"용역 서비스 - 종합용역","category":"other"},{"name":"홈테크","tel":"031-267-0174","addr":"경기도 수원시 권선구 권선동 997번지 1층 101호","indutype":"용역 서비스 - 기타용역서비스","category":"other"}]},{"lat":"37.250686695","long":"127.03656102","imageIndex":17,"items":[{"name":"한일인테리어","tel":"031-238-7951","addr":"경기도 수원시 권선구 권선동 1291-9번지","indutype":"건축자재 - 인테리어전문","category":"other"}]},{"lat":"37.255516395","long":"127.0359432","imageIndex":17,"items":[{"name":"행운하우스","tel":"031-222-1379","addr":"경기도 수원시 권선구 권선동 1172-2번지","indutype":"건축자재 - 목재·석재·철물","category":"other"},{"name":"현플라워","tel":"031-234-3939","addr":"경기도 수원시 권선구 권선동 1172-2번지 상가","indutype":"문화.취미 - 화원","category":"other"}]},{"lat":"37.258069676","long":"127.02008386","imageIndex":17,"items":[{"name":"현대꽃백화점","tel":"031-233-0608","addr":"경기도 수원시 권선구 권선동 994-1번지 현대빌라","indutype":"문화.취미 - 화원","category":"other"}]},{"lat":"37.260736489","long":"127.02164013","imageIndex":17,"items":[{"name":"현대사무용가구","tel":"031-267-0424","addr":"경기도 수원시 권선구 권선동 963-7번지 3층","indutype":"가구 - 일반가구","category":"other"}]},{"lat":"37.258961598","long":"127.02074915","imageIndex":17,"items":[{"name":"현성에코텍","tel":"031-8004-2011","addr":"경기도 수원시 권선구 권선동 984-13번지 1층","indutype":"사무통신 - 컴퓨터","category":"other"}]},{"lat":"37.260095931","long":"127.02628438","imageIndex":17,"items":[{"name":"협동조합 그곳","tel":"031-8043-1100","addr":"경기도 수원시 권선구 권선동 1018-7번지 3층","indutype":"용역 서비스 - 종합용역","category":"other"}]},{"lat":"37.256381369","long":"127.03599994","imageIndex":17,"items":[{"name":"형제씽크","tel":"031-234-4681","addr":"경기도 수원시 권선구 권선동 1171-2번지 1층","indutype":"주방용구 - 주방용구","category":"other"}]},{"lat":"37.261321776","long":"127.02391743","imageIndex":17,"items":[{"name":"홀리캣(HOLYCAT)","tel":"031-222-3141","addr":"경기도 수원시 권선구 권선동 960-1번지 2층","indutype":"문화.취미 - 애완동물","category":"other"}]},{"lat":"37.26309674","long":"127.02427867","imageIndex":17,"items":[{"name":"홀리페페 플라워스튜디오","tel":"031-111-1111","addr":"경기도 수원시 권선구 권선동 941-8번지 에코시티2 101호","indutype":"문화.취미 - 문화취미기타","category":"other"}]},{"lat":"37.258771307","long":"127.02683633","imageIndex":17,"items":[{"name":"홍대디자인가구","tel":"031-235-3044","addr":"경기도 수원시 권선구 권선동 1029-3번지","indutype":"가구 - 일반가구","category":"other"},{"name":"화인하우스","tel":"031-239-6841","addr":"경기도 수원시 권선구 권선동 1029-3번지","indutype":"가구 - 일반가구","category":"other"}]},{"lat":"37.252644647","long":"127.02504219","imageIndex":17,"items":[{"name":"홍빛내리","tel":"","addr":"경기도 수원시 권선구 권선동 1330번지 권선자이이편한세상 126동 803호","indutype":"용역 서비스 - 종합용역","category":"other"}]},{"lat":"37.256571405","long":"127.03292268","imageIndex":17,"items":[{"name":"홍앤하우스","tel":"070-4922-1261","addr":"경기도 수원시 권선구 권선동 1160-2번지 1층","indutype":"의류 - 정장","category":"other"}]},{"lat":"37.257680615","long":"127.02894394","imageIndex":17,"items":[{"name":"홍인패션","tel":"031-204-8192","addr":"경기도 수원시 권선구 권선동 1036번지 권선SKVIEW 211동 703호","indutype":"의류 - 정장","category":"other"}]},{"lat":"37.257709023","long":"127.0216732","imageIndex":17,"items":[{"name":"화성건업","tel":"031-238-5204","addr":"경기도 수원시 권선구 권선동 991번지","indutype":"건축자재 - 보일러·펌프·샷시","category":"other"}]},{"lat":"37.258601214","long":"127.02055743","imageIndex":17,"items":[{"name":"화성기업","tel":"031-233-4704","addr":"경기도 수원시 권선구 권선동 984-9번지","indutype":"용역 서비스 - 기타용역서비스","category":"other"}]},{"lat":"37.254960257","long":"127.02525704","imageIndex":17,"items":[{"name":"화양세탁소","tel":"031-236-2492","addr":"경기도 수원시 권선구 권선동 1062-6번지 1층","indutype":"수리서비스 - 세탁소","category":"other"}]},{"lat":"37.248047043","long":"127.03522987","imageIndex":17,"items":[{"name":"화이트세탁","tel":"031-221-3358","addr":"경기도 수원시 권선구 권선동 1314번지 권선3지구 주공1단지 101호","indutype":"수리서비스 - 세탁소","category":"other"},{"name":"화흥문구","tel":"031-232-1513","addr":"경기도 수원시 권선구 권선동 1314번지 주공1단지 상가 1층 103호","indutype":"서적문구 - 완구점","category":"other"}]},{"lat":"37.25698568","long":"127.03370064","imageIndex":17,"items":[{"name":"효원씽크","tel":"031-239-2200","addr":"경기도 수원시 권선구 권선동 1165-2번지","indutype":"주방용구 - 주방용구","category":"other"}]}]