[{"lat":"37.033711649","long":"126.96082458","imageIndex":17,"items":[{"name":"ID통상(ID International)","tel":"031-6684-0903","addr":"경기도 평택시 청북읍 토진리 403-10번지 102호","indutype":"건축자재 - 기타건축자재","category":"other"}]},{"lat":"37.037793664","long":"126.96137308","imageIndex":17,"items":[{"name":"국민서관평택차일드","tel":"031-663-7009","addr":"경기도 평택시 청북읍 토진리 447","indutype":"서적문구 - 전문서적","category":"other"}]},{"lat":"37.038460522","long":"126.96157504","imageIndex":17,"items":[{"name":"덕인체육산업","tel":"070-8832-3376","addr":"경기도 평택시 청북읍 토진리 466-1","indutype":"레져용품 - 스포츠·레져용품","category":"other"}]},{"lat":"37.031289502","long":"126.96598459","imageIndex":17,"items":[{"name":"세븐일레븐평택토진점","tel":"","addr":"경기도 평택시 청북읍 토진리 618-1번지","indutype":"유통업 영리 - 편 의 점","category":"other"}]},{"lat":"37.028712","long":"126.9645473","imageIndex":17,"items":[{"name":"엘리트산업","tel":"031-657-1757","addr":"경기도 평택시 청북읍 토진리 631번지","indutype":"건축자재 - 기타건축자재","category":"other"}]},{"lat":"37.046711249","long":"126.95367924","imageIndex":17,"items":[{"name":"영연도예","tel":"","addr":"경기도 평택시 청북읍 토진리 20-2번지 1층","indutype":"문화.취미 - 문화취미기타","category":"other"}]},{"lat":"37.035431409","long":"126.95737309","imageIndex":17,"items":[{"name":"용호상사","tel":"031-681-3246","addr":"경기도 평택시 청북읍 토진리 343-3번지 101호","indutype":"기타 - 기계공구","category":"other"}]},{"lat":"37.033457961","long":"126.95707081","imageIndex":17,"items":[{"name":"주식회사 태홍특수코팅기술","tel":"031-8054-7616","addr":"경기도 평택시 청북읍 토진리 315-31번지","indutype":"용역 서비스 - 기타용역서비스","category":"other"}]},{"lat":"37.041095464","long":"126.94871462","imageIndex":17,"items":[{"name":"평택시노인전문요양원및병설주.야간보호센","tel":"031-684-1677","addr":"경기도 평택시 청북읍 토진리 70-22번지","indutype":"기타의료기관 - 기타의료기관 및 기타","category":"other"}]},{"lat":"37.033653995","long":"126.95168708","imageIndex":7,"items":[{"name":"남서울제과","tel":"031-684-2692","addr":"경기도 평택시 청북읍 토진리 301-1번지","indutype":"음료식품 - 기타음료식품","category":"food"}]},{"lat":"37.039177492","long":"126.95162717","imageIndex":4,"items":[{"name":"농부네 화로구이","tel":"031-683-1757","addr":"경기도 평택시 청북읍 토진리 273-13번지","indutype":"음식점 - 한식","category":"restaurant"},{"name":"농부네화로구이","tel":"031-683-1805","addr":"경기도 평택시 청북읍 토진리 273-13","indutype":"일반휴게음식 - 일반한식","category":"restaurant"}]},{"lat":"37.031513973","long":"126.9635119","imageIndex":4,"items":[{"name":"시골집한식부페","tel":"031-618-1121","addr":"경기도 평택시 청북읍 토진리 757-17번지 1동","indutype":"일반휴게음식 - 일반한식","category":"restaurant"}]},{"lat":"37.035791804","long":"126.9572942","imageIndex":4,"items":[{"name":"영&푸드","tel":"031-658-8902","addr":"경기도 평택시 청북읍 토진리 359-6번지","indutype":"일반휴게음식 - 일반한식","category":"restaurant"}]},{"lat":"37.031289502","long":"126.96598459","imageIndex":4,"items":[{"name":"오봉산보신탕","tel":"031-683-9296","addr":"경기도 평택시 청북읍 토진리 618-1번지","indutype":"일반휴게음식 - 일반한식","category":"restaurant"}]},{"lat":"37.039905651","long":"126.94782749","imageIndex":4,"items":[{"name":"청북한옥집","tel":"031-683-8652","addr":"경기도 평택시 청북읍 토진리 213-36번지 외2필지","indutype":"일반휴게음식 - 일반한식","category":"restaurant"}]},{"lat":"37.031099731","long":"126.96426512","imageIndex":4,"items":[{"name":"큰집한식뷔페","tel":"031-684-3202","addr":"경기도 평택시 청북읍 토진리 622-1번지","indutype":"음식점 - 한식","category":"restaurant"},{"name":"큰집한식뷔페","tel":"031-683-5586","addr":"경기도 평택시 청북읍 토진리 622-1번지 1층","indutype":"일반휴게음식 - 일반한식","category":"restaurant"}]},{"lat":"37.033014263","long":"126.9517437","imageIndex":4,"items":[{"name":"해피라이스푸드","tel":"031-682-5138","addr":"경기도 평택시 청북읍 토진리 308-9","indutype":"일반휴게음식 - 일반한식","category":"restaurant"}]},{"lat":"37.032126746","long":"126.9636577","imageIndex":4,"items":[{"name":"황하루","tel":"031-683-4553","addr":"경기도 평택시 청북읍 토진리 424-84번지","indutype":"일반휴게음식 - 중국식","category":"restaurant"}]},{"lat":"37.032126746","long":"126.9636577","imageIndex":7,"items":[{"name":"블루베리","tel":"031-686-5001","addr":"경기도 평택시 청북읍 토진리 424-84 25/","indutype":"유통업 영리 - 슈퍼마켓","category":"mart"}]},{"lat":"37.033792665","long":"126.96059975","imageIndex":7,"items":[{"name":"지유25마트(GU 25 MART)","tel":"031-652-2335","addr":"경기도 평택시 청북읍 토진리 403-8번지","indutype":"유통업 영리 - 슈퍼마켓","category":"mart"}]},{"lat":"37.033792665","long":"126.96059975","imageIndex":0,"items":[{"name":"전진엘에스","tel":"031-686-6381","addr":"경기도 평택시 청북읍 토진리 403-8번지","indutype":"자동차정비 유지 - 윤활유 전문 판매","category":"car"}]},{"lat":"37.031790557","long":"126.95595915","imageIndex":0,"items":[{"name":"중앙부품센터","tel":"031-292-4180","addr":"경기도 평택시 청북읍 토진리 315-36번지 1동","indutype":"자동차정비 유지 - 중장비수리","category":"car"}]},{"lat":"37.036377248","long":"126.95665319","imageIndex":0,"items":[{"name":"한국타이어티비엑스청북점","tel":"031-692-4565","addr":"경기도 평택시 청북읍 토진리 362번지","indutype":"자동차정비 유지 - 자동차시트·타이어","category":"car"}]},{"lat":"37.036602439","long":"126.95646198","imageIndex":0,"items":[{"name":"한별자동차","tel":"031-668-1664","addr":"경기도 평택시 청북읍 토진리 363-11번지","indutype":"자동차정비 유지 - 자동차정비","category":"car"}]},{"lat":"37.042266395","long":"126.94773586","imageIndex":16,"items":[{"name":"청북중학교","tel":"031-683-5004","addr":"경기도 평택시 청북읍 토진리 70-5번지 청북중학교","indutype":"학원 - 초중고교육기관","category":"study"}]}]