[{"lat":"37.237912031","long":"127.17766108","imageIndex":0,"items":[{"name":"365타이어","tel":"031-322-8365","addr":"경기도 용인시 처인구 삼가동 241-35번지","indutype":"자동차정비 유지 - 자동차시트·타이어","category":"car"}]},{"lat":"37.24085882","long":"127.17115385","imageIndex":0,"items":[{"name":"NO.1 자동차피부과","tel":"031-323-5055","addr":"경기도 용인시 처인구 삼가동 198-13번지","indutype":"자동차정비 유지 - 카인테리어","category":"car"}]},{"lat":"37.242184594","long":"127.17026646","imageIndex":0,"items":[{"name":"대성 세차장","tel":"070-4667-1472","addr":"경기도 용인시 처인구 삼가동 217-3번지","indutype":"자동차정비 유지 - 세차장","category":"car"},{"name":"대성오토","tel":"031-321-0447","addr":"경기도 용인시 처인구 삼가동 217-3번지","indutype":"자동차정비 유지 - 자동차정비","category":"car"},{"name":"클로버","tel":"070-4195-6715","addr":"경기도 용인시 처인구 삼가동 217-3번지","indutype":"자동차정비 유지 - 세차장","category":"car"}]},{"lat":"37.237994291","long":"127.15737612","imageIndex":0,"items":[{"name":"레드커스텀","tel":"031-239-5990","addr":"경기도 용인시 처인구 삼가동 326번지","indutype":"자동차판매 - 이륜차판매","category":"car"}]},{"lat":"37.245129255","long":"127.16502087","imageIndex":0,"items":[{"name":"로드샵","tel":"031-338-5454","addr":"경기도 용인시 처인구 삼가동 128-5번지","indutype":"자동차정비 유지 - 카인테리어","category":"car"}]},{"lat":"37.244992116","long":"127.16646321","imageIndex":0,"items":[{"name":"루마썬팅 용인처인점","tel":"031-321-0900","addr":"경기도 용인시 처인구 삼가동 132번지","indutype":"자동차정비 유지 - 카인테리어","category":"car"},{"name":"카프로스","tel":"031-338-8203","addr":"경기도 용인시 처인구 삼가동 132번지 (1층일부뒷면(주자쪽))","indutype":"자동차정비 유지 - 자동차정비","category":"car"}]},{"lat":"37.241273997","long":"127.17065889","imageIndex":0,"items":[{"name":"부일카인테리어","tel":"031-337-0609","addr":"경기도 용인시 처인구 삼가동 200-8번지","indutype":"자동차정비 유지 - 자동차정비","category":"car"}]},{"lat":"37.241130263","long":"127.17035429","imageIndex":0,"items":[{"name":"샵","tel":"","addr":"경기도 용인시 처인구 삼가동 199-5번지 외 1필지 1층","indutype":"자동차정비 유지 - 카인테리어","category":"car"}]},{"lat":"37.247380805","long":"127.16576958","imageIndex":0,"items":[{"name":"세차넘버원","tel":"031-000-0000","addr":"경기도 용인시 처인구 삼가동 137-52번지 아데나팰리스 107동 201호","indutype":"자동차정비 유지 - 세차장","category":"car"}]},{"lat":"37.240768592","long":"127.17746482","imageIndex":0,"items":[{"name":"에코스팀세차장 효(  ) 사업","tel":"031-324-9303","addr":"경기도 용인시 처인구 삼가동 556번지 용인시청","indutype":"자동차정비 유지 - 세차장","category":"car"}]},{"lat":"37.245794871","long":"127.16585633","imageIndex":0,"items":[{"name":"용인나비","tel":"031-339-5521","addr":"경기도 용인시 처인구 삼가동 135-18번지 1층","indutype":"자동차정비 유지 - 자동차부품","category":"car"}]},{"lat":"37.226608742","long":"127.16812494","imageIndex":0,"items":[{"name":"용인운송사업","tel":"031-8020-3916","addr":"경기도 용인시 처인구 삼가동 470번지","indutype":"자동차정비 유지 - 자동차정비","category":"car"}]},{"lat":"37.241799103","long":"127.16887938","imageIndex":0,"items":[{"name":"용인전장","tel":"031-334-6380","addr":"경기도 용인시 처인구 삼가동 207-3번지","indutype":"자동차정비 유지 - 자동차부품","category":"car"}]},{"lat":"37.243684157","long":"127.1675198","imageIndex":0,"items":[{"name":"월드카용품","tel":"031-323-2364","addr":"경기도 용인시 처인구 삼가동 210번지 101호","indutype":"자동차정비 유지 - 카인테리어","category":"car"}]},{"lat":"37.245910433","long":"127.16699492","imageIndex":0,"items":[{"name":"정훈종합카써비스","tel":"031-338-5759","addr":"경기도 용인시 처인구 삼가동 117번지 비동103,104,105호","indutype":"자동차정비 유지 - 자동차정비","category":"car"}]},{"lat":"37.237857203","long":"127.17817936","imageIndex":0,"items":[{"name":"주식회사에스나비","tel":"031-321-0984","addr":"경기도 용인시 처인구 삼가동 241-5번지 신천빌딩 106호","indutype":"자동차정비 유지 - 자동차부품","category":"car"}]},{"lat":"37.239302032","long":"127.16974168","imageIndex":0,"items":[{"name":"카앤피플 용인처인구지점","tel":"031-000-0000","addr":"경기도 용인시 처인구 삼가동 564번지 용인행정타운두산위브3단지","indutype":"자동차정비 유지 - 세차장","category":"car"}]},{"lat":"37.241885592","long":"127.17143789","imageIndex":0,"items":[{"name":"현대출장광택","tel":"070-7018-5392","addr":"경기도 용인시 처인구 삼가동 217-45번지","indutype":"자동차정비 유지 - 카인테리어","category":"car"}]},{"lat":"37.239884874","long":"127.17173772","imageIndex":0,"items":[{"name":"현대하이카프라자용인점","tel":"031-339-3702","addr":"경기도 용인시 처인구 삼가동 197-8번지","indutype":"자동차정비 유지 - 자동차정비","category":"car"}]}]