[{"lat":"37.844916646","long":"127.05384853","imageIndex":0,"items":[{"name":"(주)경기북부자동차공업사","tel":"031-859-0472","addr":"경기도 양주시 회정동 46-21번지","indutype":"자동차정비 유지 - 자동차정비","category":"car"}]},{"lat":"37.838916177","long":"127.05432154","imageIndex":0,"items":[{"name":"DS정비","tel":"070-7797-6265","addr":"경기도 양주시 회정동 129번지 2동 201호","indutype":"자동차정비 유지 - 자동차부품","category":"car"}]},{"lat":"37.848358082","long":"127.05420311","imageIndex":0,"items":[{"name":"J.J프로카","tel":"031-859-1777","addr":"경기도 양주시 회정동 26-7번지","indutype":"자동차정비 유지 - 자동차부품","category":"car"}]},{"lat":"37.847610093","long":"127.05467979","imageIndex":0,"items":[{"name":"대성모터스","tel":"031-859-3928","addr":"경기도 양주시 회정동 60-9번지","indutype":"자동차정비 유지 - 자동차정비","category":"car"},{"name":"진터보","tel":"031-1111-1111","addr":"경기도 양주시 회정동 60-9번지","indutype":"자동차정비 유지 - 자동차부품","category":"car"}]},{"lat":"37.838005887","long":"127.0550934","imageIndex":0,"items":[{"name":"대원세차장","tel":"031-859-1701","addr":"경기도 양주시 회정동 125-6번지","indutype":"자동차정비 유지 - 세차장","category":"car"}]},{"lat":"37.833276766","long":"127.05320439","imageIndex":0,"items":[{"name":"덕계라이닝","tel":"031-859-1186","addr":"경기도 양주시 회정동 199-1번지","indutype":"자동차정비 유지 - 자동차부품","category":"car"},{"name":"양주대형부품","tel":"031-5223-8989","addr":"경기도 양주시 회정동 199-1번지","indutype":"자동차정비 유지 - 자동차부품","category":"car"},{"name":"양주타이어수리","tel":"031-857-0587","addr":"경기도 양주시 회정동 199-1번지","indutype":"자동차정비 유지 - 자동차시트·타이어","category":"car"}]},{"lat":"37.846835662","long":"127.05381577","imageIndex":0,"items":[{"name":"덕정자동차매매상사","tel":"031-858-4482","addr":"경기도 양주시 회정동 64-6번지","indutype":"자동차판매 - 중고자동차판매","category":"car"}]},{"lat":"37.850394095","long":"127.05445449","imageIndex":0,"items":[{"name":"루마썬팅","tel":"031-858-5001","addr":"경기도 양주시 회정동 17-9번지","indutype":"자동차정비 유지 - 자동차부품","category":"car"},{"name":"회정점현대자동차","tel":"031-864-8272","addr":"경기도 양주시 회정동 17-9번지","indutype":"자동차정비 유지 - 자동차정비","category":"car"}]},{"lat":"37.829699988","long":"127.05329284","imageIndex":0,"items":[{"name":"명신자동차공업사","tel":"031-864-0296","addr":"경기도 양주시 회정동 421-23번지","indutype":"자동차정비 유지 - 자동차정비","category":"car"}]},{"lat":"37.852168954","long":"127.054433","imageIndex":0,"items":[{"name":"별산카센타","tel":"031-858-7537","addr":"경기도 양주시 회정동 9-4번지","indutype":"자동차정비 유지 - 자동차정비","category":"car"}]},{"lat":"37.843474964","long":"127.05425654","imageIndex":0,"items":[{"name":"보쉬카서비스덕정점","tel":"031-843-1488","addr":"경기도 양주시 회정동 95-5번지","indutype":"자동차정비 유지 - 자동차정비","category":"car"}]},{"lat":"37.832222982","long":"127.05245396","imageIndex":0,"items":[{"name":"브랜뉴 모터스","tel":"","addr":"경기도 양주시 회정동 454-22번지","indutype":"자동차정비 유지 - 자동차부품","category":"car"},{"name":"셀프킹","tel":"031-868-3555","addr":"경기도 양주시 회정동 454-22번지","indutype":"자동차정비 유지 - 세차장","category":"car"}]},{"lat":"37.825889587","long":"127.05190453","imageIndex":0,"items":[{"name":"상용자동차매매상사","tel":"031-858-0524","addr":"경기도 양주시 회정동 321-10.321-6.321-11","indutype":"자동차판매 - 중고자동차판매","category":"car"}]},{"lat":"37.84691551","long":"127.05659941","imageIndex":0,"items":[{"name":"스컬존 셀프세차장","tel":"031-858-5298","addr":"경기도 양주시 회정동 521번지","indutype":"자동차정비 유지 - 세차장","category":"car"}]},{"lat":"37.832222567","long":"127.05343086","imageIndex":0,"items":[{"name":"스피드헌터","tel":"031-859-5953","addr":"경기도 양주시 회정동 434-2번지","indutype":"자동차정비 유지 - 자동차부품","category":"car"},{"name":"썬가드 양주점","tel":"031-866-7558","addr":"경기도 양주시 회정동 434-2번지 2층","indutype":"자동차정비 유지 - 카인테리어","category":"car"}]},{"lat":"37.83336667","long":"127.05364747","imageIndex":0,"items":[{"name":"썬가드양주점/맥과이어스","tel":"031-866-7558","addr":"경기도 양주시 회정동 448-5번지","indutype":"자동차정비 유지 - 자동차부품","category":"car"}]},{"lat":"37.827862207","long":"127.05296219","imageIndex":0,"items":[{"name":"양주블랙박스(스마트전자)","tel":"031-861-7522","addr":"경기도 양주시 회정동 349-2번지 1층","indutype":"자동차정비 유지 - 자동차부품","category":"car"},{"name":"양주전자","tel":"031-861-7522","addr":"경기도 양주시 회정동 349-2번지 1층","indutype":"자동차정비 유지 - 자동차부품","category":"car"}]},{"lat":"37.84747527","long":"127.05395255","imageIndex":0,"items":[{"name":"오토마스터","tel":"031-858-8583","addr":"경기도 양주시 회정동 61-2번지","indutype":"자동차정비 유지 - 자동차정비","category":"car"}]},{"lat":"37.827618345","long":"127.05437049","imageIndex":0,"items":[{"name":"오토오아시스 양주점","tel":"031-858-8112","addr":"경기도 양주시 회정동 868번지","indutype":"자동차정비 유지 - 자동차정비","category":"car"},{"name":"오토오아시스 양주점","tel":"031-859-4449","addr":"경기도 양주시 회정동 868번지","indutype":"자동차정비 유지 - 자동차정비","category":"car"}]},{"lat":"37.855475497","long":"127.05420805","imageIndex":0,"items":[{"name":"자동차복원달인(회정점)","tel":"","addr":"경기도 양주시 회정동 4-10번지","indutype":"자동차정비 유지 - 카인테리어","category":"car"}]},{"lat":"37.853754521","long":"127.05462727","imageIndex":0,"items":[{"name":"주식회사 대한자동차","tel":"031-866-7991","addr":"경기도 양주시 회정동 490번지","indutype":"자동차정비 유지 - 자동차부품","category":"car"}]},{"lat":"37.827420937","long":"127.05250754","imageIndex":0,"items":[{"name":"크린테크(양주점)","tel":"031-858-1777","addr":"경기도 양주시 회정동 351-2번지 3층","indutype":"자동차정비 유지 - 세차장","category":"car"}]},{"lat":"37.841943559","long":"127.0538124","imageIndex":0,"items":[{"name":"클린보이 양주점","tel":"031-859-5269","addr":"경기도 양주시 회정동 98번지 3층","indutype":"자동차정비 유지 - 세차장","category":"car"}]},{"lat":"37.845168909","long":"127.0538487","imageIndex":0,"items":[{"name":"타이어프로 덕정사거리점","tel":"031-843-2000","addr":"경기도 양주시 회정동 46-20번지","indutype":"자동차정비 유지 - 자동차시트·타이어","category":"car"}]},{"lat":"37.83227721","long":"127.05204506","imageIndex":0,"items":[{"name":"티티오토스","tel":"031-8222-7698","addr":"경기도 양주시 회정동 454-1번지","indutype":"자동차정비 유지 - 카인테리어","category":"car"}]},{"lat":"37.845754593","long":"127.05367869","imageIndex":0,"items":[{"name":"한국라이닝상사","tel":"031-858-5393","addr":"경기도 양주시 회정동 46-10번지","indutype":"자동차정비 유지 - 자동차부품","category":"car"}]},{"lat":"37.838915847","long":"127.05507132","imageIndex":0,"items":[{"name":"현대.기아 김반장","tel":"","addr":"경기도 양주시 회정동 128-3번지 C동","indutype":"자동차정비 유지 - 자동차정비","category":"car"}]},{"lat":"37.838006007","long":"127.05482075","imageIndex":0,"items":[{"name":"현대자동차정비공업사","tel":"031-859-5558","addr":"경기도 양주시 회정동 125-3번지","indutype":"자동차정비 유지 - 자동차정비","category":"car"}]}]