[{"lat":"37.028715632","long":"127.0727858","imageIndex":0,"items":[{"name":"대경광택","tel":"031-666-4565","addr":"경기도 평택시 모곡동 292-3번지","indutype":"자동차정비 유지 - 카인테리어","category":"car"},{"name":"한일 칼라덴트","tel":"031-657-0743","addr":"경기도 평택시 모곡동 292-3번지","indutype":"자동차정비 유지 - 카인테리어","category":"car"}]},{"lat":"37.029212173","long":"127.07114541","imageIndex":0,"items":[{"name":"대한적재함","tel":"031-656-1788","addr":"경기도 평택시 모곡동 303-23번지","indutype":"자동차정비 유지 - 자동차부품","category":"car"}]},{"lat":"37.036241245","long":"127.08422343","imageIndex":0,"items":[{"name":"라이트자동차","tel":"031-667-5874","addr":"경기도 평택시 모곡동 23-1번지","indutype":"자동차정비 유지 - 자동차정비","category":"car"}]},{"lat":"37.03632207","long":"127.0846169","imageIndex":0,"items":[{"name":"모터풀","tel":"031-611-0117","addr":"경기도 평택시 모곡동 23-3번지","indutype":"자동차정비 유지 - 자동차정비","category":"car"}]},{"lat":"37.035903672","long":"127.07683864","imageIndex":0,"items":[{"name":"본즈모터존","tel":"","addr":"경기도 평택시 모곡동 443-3번지 1층","indutype":"자동차정비 유지 - 세차장","category":"car"},{"name":"비앤비디테일링","tel":"","addr":"경기도 평택시 모곡동 443-3번지","indutype":"서비스업 - 자동차세차","category":"car"},{"name":"비앤비디테일링","tel":"070-8966-6992","addr":"경기도 평택시 모곡동 443-3번지","indutype":"자동차정비 유지 - 세차장","category":"car"},{"name":"오일스펙 (OIL SPEC)","tel":"031-666-5560","addr":"경기도 평택시 모곡동 443-3번지 103호","indutype":"자동차정비 유지 - 윤활유 전문 판매","category":"car"}]},{"lat":"37.028292814","long":"127.07161661","imageIndex":0,"items":[{"name":"주식회사현진모터스","tel":"031-652-3306","addr":"경기도 평택시 모곡동 304-1번지","indutype":"자동차판매 - 중고자동차판매","category":"car"}]},{"lat":"37.037573389","long":"127.07228812","imageIndex":0,"items":[{"name":"중앙자동차공업(주)","tel":"031-662-5501","addr":"경기도 평택시 모곡동 434번지","indutype":"자동차정비 유지 - 자동차정비","category":"car"}]},{"lat":"37.030852573","long":"127.07033768","imageIndex":0,"items":[{"name":"평택타이어","tel":"031-652-2280","addr":"경기도 평택시 모곡동 111-4번지","indutype":"자동차정비 유지 - 자동차시트·타이어","category":"car"}]}]