[{"lat":"37.497932359","long":"127.16706984","imageIndex":17,"items":[{"name":"골든레이쇼 클럽하우스","tel":"031-000-0000","addr":"경기도 하남시 감이동 260-1번지 이성대 2층","indutype":"레져용품 - 골프용품 전문점","category":"other"},{"name":"골프랜드이성대점","tel":"","addr":"경기도 하남시 감이동 260-1번지 캐슬렉스이성대연습장2층","indutype":"레져용품 - 스포츠·레져용품","category":"other"},{"name":"조이컬렉션","tel":"02-1111-1111","addr":"경기도 하남시 감이동 260-1번지 2층","indutype":"의류 - 정장","category":"other"},{"name":"캐슬렉스마사지","tel":"070-4270-4713","addr":"경기도 하남시 감이동 260-1번지 2층","indutype":"회원제형태 - 기타4","category":"other"}]},{"lat":"37.49810276","long":"127.16104278","imageIndex":17,"items":[{"name":"국민냉동산업","tel":"02-416-8006","addr":"경기도 하남시 감이동 299-11","indutype":"전기제품 - 냉열기기","category":"other"}]},{"lat":"37.507211641","long":"127.16115247","imageIndex":17,"items":[{"name":"그린디자인","tel":"02-472-2784","addr":"경기도 하남시 감이동 75-1","indutype":"건축자재 - 인테리어전문","category":"other"}]},{"lat":"37.487876378","long":"127.16112298","imageIndex":17,"items":[{"name":"나인스타","tel":"02-406-0662","addr":"경기도 하남시 감이동 374-24번지","indutype":"주방용구 - 주방용구","category":"other"},{"name":"리드상사","tel":"02-402-9695","addr":"경기도 하남시 감이동 374-24번지","indutype":"레져용품 - 스포츠·레져용품","category":"other"}]},{"lat":"37.507821763","long":"127.15625654","imageIndex":17,"items":[{"name":"늘사랑교회","tel":"02-401-3095","addr":"경기도 하남시 감이동 195-2","indutype":"기타 - 기타 전문점","category":"other"}]},{"lat":"37.509794354","long":"127.15670168","imageIndex":17,"items":[{"name":"니키코리아(주)","tel":"031-3410-8541","addr":"경기도 하남시 감이동 140번지","indutype":"직물 - 옷감·직물","category":"other"}]},{"lat":"37.508379434","long":"127.15698153","imageIndex":17,"items":[{"name":"다비드쇼파","tel":"032-624-7166","addr":"경기도 하남시 감이동 194-3","indutype":"가구 - 일반가구","category":"other"}]},{"lat":"37.504715492","long":"127.16145256","imageIndex":17,"items":[{"name":"대영상사","tel":"02-419-9903","addr":"경기도 하남시 감이동 250-1","indutype":"주방용구 - 주방용구","category":"other"}]},{"lat":"37.495354967","long":"127.16086736","imageIndex":17,"items":[{"name":"대운공조시스템","tel":"031-483-4148","addr":"경기도 하남시 감이동 421-13번지","indutype":"전기제품 - 냉열기기","category":"other"}]},{"lat":"37.51165266","long":"127.15495236","imageIndex":17,"items":[{"name":"동서울포장재","tel":"02-488-4027","addr":"경기도 하남시 감이동 128-6","indutype":"유통업 영리 - 기타유통업","category":"other"}]},{"lat":"37.508771107","long":"127.16059026","imageIndex":17,"items":[{"name":"동현벤딩","tel":"031-483-7836","addr":"경기도 하남시 감이동 93","indutype":"건축자재 - 목재·석재·철물","category":"other"},{"name":"원미실업","tel":"031-488-8909","addr":"경기도 하남시 감이동 93","indutype":"기타 - 기계공구","category":"other"}]},{"lat":"37.51099012","long":"127.15864953","imageIndex":17,"items":[{"name":"삼성데코","tel":"02-488-6335","addr":"경기도 하남시 감이동 143 ,142-3","indutype":"직물 - 카페트,커튼,천막,지물","category":"other"}]},{"lat":"37.505465458","long":"127.15984818","imageIndex":17,"items":[{"name":"세신창호","tel":"02-414-0500","addr":"경기도 하남시 감이동 240, 240-2","indutype":"건축자재 - 기타건축자재","category":"other"}]},{"lat":"37.503768145","long":"127.16242316","imageIndex":17,"items":[{"name":"신화텍스","tel":"02-471-6789","addr":"경기도 하남시 감이동 253","indutype":"직물 - 카페트,커튼,천막,지물","category":"other"}]},{"lat":"37.503715986","long":"127.16100938","imageIndex":17,"items":[{"name":"아스포스포츠","tel":"02-430-0170","addr":"경기도 하남시 감이동 279-1","indutype":"레져용품 - 스포츠·레져용품","category":"other"}]},{"lat":"37.492049837","long":"127.15972964","imageIndex":17,"items":[{"name":"에스에프&D","tel":"02-401-0541","addr":"경기도 하남시 감이동 361-9번지","indutype":"가구 - 일반가구","category":"other"}]},{"lat":"37.49809868","long":"127.16406214","imageIndex":17,"items":[{"name":"에이원플랜","tel":"02-400-1694","addr":"경기도 하남시 감이동 307-1","indutype":"신변잡화 - 기타잡화","category":"other"}]},{"lat":"37.503549032","long":"127.16453754","imageIndex":17,"items":[{"name":"워터플러스","tel":"02-488-6869","addr":"경기도 하남시 감이동 258-14","indutype":"유통업 영리 - 기타유통업","category":"other"}]},{"lat":"37.507854187","long":"127.15901624","imageIndex":17,"items":[{"name":"위니키즈","tel":"031-556-2291","addr":"경기도 하남시 감이동 160-2","indutype":"서적문구 - 문구용품","category":"other"}]},{"lat":"37.509547507","long":"127.15942694","imageIndex":17,"items":[{"name":"포인트앤마크(주)","tel":"050-5577-5000","addr":"경기도 하남시 감이동 106","indutype":"주방용구 - 주방용구","category":"other"}]},{"lat":"37.508435083","long":"127.16256881","imageIndex":17,"items":[{"name":"한양물류","tel":"02-407-4444","addr":"경기도 하남시 감이동 79-1","indutype":"유통업 영리 - 기타유통업","category":"other"}]},{"lat":"37.494157675","long":"127.1600959","imageIndex":17,"items":[{"name":"허니문온수매트","tel":"02-2043-8949","addr":"경기도 하남시 감이동 358번지","indutype":"전기제품 - 기타전기제품","category":"other"}]},{"lat":"37.508657571","long":"127.1578756","imageIndex":17,"items":[{"name":"현대가구","tel":"02-471-1945","addr":"경기도 하남시 감이동 149","indutype":"가구 - 기타가구","category":"other"}]}]