[{"lat":"37.633499898","long":"127.18169879","imageIndex":17,"items":[{"name":"(주) 에이케이상사","tel":"031-000-0000","addr":"경기도 남양주시 진건읍 배양리 361-4번지","indutype":"전기제품 - 냉열기기","category":"other"}]},{"lat":"37.635946786","long":"127.16561696","imageIndex":17,"items":[{"name":"(주)경기케이블","tel":"031-528-4377","addr":"경기도 남양주시 진건읍 배양리 483-4번지","indutype":"건축자재 - 조명기구","category":"other"}]},{"lat":"37.636137282","long":"127.16467704","imageIndex":17,"items":[{"name":"(주)글로리렌트여행사","tel":"031-573-7441","addr":"경기도 남양주시 진건읍 배양리 483-9","indutype":"여행 - 관광여행","category":"other"},{"name":"(주)글로리렌트여행사","tel":"02-2242-2520","addr":"경기도 남양주시 진건읍 배양리 483-9번지","indutype":"여행 - 렌터카","category":"other"},{"name":"명가시트","tel":"031-527-5594","addr":"경기도 남양주시 진건읍 배양리 483-9번지 1층","indutype":"회원제형태 - 기타3","category":"other"},{"name":"씨스페이스 배양리점","tel":"031-575-3984","addr":"경기도 남양주시 진건읍 배양리 483-9번지","indutype":"유통업 영리 - 편 의 점","category":"other"}]},{"lat":"37.635192774","long":"127.15681249","imageIndex":17,"items":[{"name":"(주)오쏘","tel":"031-574-5676","addr":"경기도 남양주시 진건읍 배양리 707-10번지","indutype":"신변잡화 - 신발","category":"other"}]},{"lat":"37.636447324","long":"127.16194731","imageIndex":17,"items":[{"name":"(주)훈디자인","tel":"031-575-6704","addr":"경기도 남양주시 진건읍 배양리 654번지","indutype":"건축자재 - 인테리어전문","category":"other"}]},{"lat":"37.635754252","long":"127.18042397","imageIndex":17,"items":[{"name":"(주)휠메이트","tel":"070-4652-1102","addr":"경기도 남양주시 진건읍 배양리 305-21번지","indutype":"레져용품 - 스포츠·레져용품","category":"other"}]},{"lat":"37.635222646","long":"127.18044537","imageIndex":17,"items":[{"name":"153SUS테크","tel":"031-591-1537","addr":"경기도 남양주시 진건읍 배양리 309-46번지","indutype":"주방용구 - 주방용식기","category":"other"}]},{"lat":"37.636477559","long":"127.16619592","imageIndex":17,"items":[{"name":"EMPIS","tel":"031-558-9069","addr":"경기도 남양주시 진건읍 배양리 483-1번지 1층","indutype":"사무통신 - 기타 사무용품","category":"other"}]},{"lat":"37.630692862","long":"127.18497734","imageIndex":17,"items":[{"name":"강북복사기 사업부","tel":"02-933-8250","addr":"경기도 남양주시 진건읍 배양리 110번지","indutype":"사무통신 - 사무용 OA기기","category":"other"}]},{"lat":"37.641777705","long":"127.18308958","imageIndex":17,"items":[{"name":"나래조경","tel":"031-529-3129","addr":"경기도 남양주시 진건읍 배양리 231번지","indutype":"문화.취미 - 화원","category":"other"}]},{"lat":"37.6308674","long":"127.17055648","imageIndex":17,"items":[{"name":"남북포장","tel":"02-966-9444","addr":"경기도 남양주시 진건읍 배양리 557번지","indutype":"유통업 영리 - 기타유통업","category":"other"}]},{"lat":"37.632442267","long":"127.16542806","imageIndex":17,"items":[{"name":"남양주화훼","tel":"031-573-1658","addr":"경기도 남양주시 진건읍 배양리 529","indutype":"문화.취미 - 화원","category":"other"},{"name":"푸른뜰협동조합","tel":"031-573-1658","addr":"경기도 남양주시 진건읍 배양리 529번지","indutype":"문화.취미 - 화원","category":"other"}]},{"lat":"37.637254032","long":"127.16500802","imageIndex":17,"items":[{"name":"다인","tel":"031-529-3169","addr":"경기도 남양주시 진건읍 배양리 661-4번지","indutype":"가구 - 일반가구","category":"other"}]},{"lat":"37.630612283","long":"127.17870113","imageIndex":17,"items":[{"name":"다플러스","tel":"","addr":"경기도 남양주시 진건읍 배양리 384-14번지","indutype":"신변잡화 - 기타잡화","category":"other"}]},{"lat":"37.633697355","long":"127.18219774","imageIndex":17,"items":[{"name":"대승공조시스템","tel":"","addr":"경기도 남양주시 진건읍 배양리 159-4번지","indutype":"용역 서비스 - 기타용역서비스","category":"other"}]},{"lat":"37.629666937","long":"127.16567124","imageIndex":17,"items":[{"name":"대현레이져","tel":"031-573-1552","addr":"경기도 남양주시 진건읍 배양리 569번지","indutype":"기타 - 기계공구","category":"other"},{"name":"리싸이클파파중고가전가구","tel":"02-111-1111","addr":"경기도 남양주시 진건읍 배양리 569번지","indutype":"가구 - 일반가구","category":"other"}]},{"lat":"37.632531397","long":"127.18461931","imageIndex":17,"items":[{"name":"도레미파라솔","tel":"031-575-9999","addr":"경기도 남양주시 진건읍 배양리 145-16번지","indutype":"신변잡화 - 기타잡화","category":"other"}]},{"lat":"37.635108875","long":"127.17820191","imageIndex":17,"items":[{"name":"라쿰(RACOOM)","tel":"031-528-6638","addr":"경기도 남양주시 진건읍 배양리 313-4번지 1층","indutype":"신변잡화 - 가방","category":"other"}]},{"lat":"37.633918054","long":"127.16673411","imageIndex":17,"items":[{"name":"미창","tel":"031-554-7289","addr":"경기도 남양주시 진건읍 배양리 537-1번지","indutype":"건축자재 - 인테리어전문","category":"other"}]},{"lat":"37.642891246","long":"127.18547166","imageIndex":17,"items":[{"name":"바두하이테크","tel":"031-829-5248","addr":"경기도 남양주시 진건읍 배양리 250-2번지","indutype":"기타 - 기계공구","category":"other"}]},{"lat":"37.635837366","long":"127.15992939","imageIndex":17,"items":[{"name":"사랑애화원","tel":"031-559-5905","addr":"경기도 남양주시 진건읍 배양리 645-3번지 2동","indutype":"문화.취미 - 화원","category":"other"},{"name":"플라워아띠","tel":"031-559-5905","addr":"경기도 남양주시 진건읍 배양리 645-3번지","indutype":"문화.취미 - 화원","category":"other"}]},{"lat":"37.63075296","long":"127.18689202","imageIndex":17,"items":[{"name":"서울방화문","tel":"02-3493-8371","addr":"경기도 남양주시 진건읍 배양리 102-2","indutype":"기타 - 기타 전문점","category":"other"}]},{"lat":"37.631777378","long":"127.17055852","imageIndex":17,"items":[{"name":"서울철망","tel":"031-557-7797","addr":"경기도 남양주시 진건읍 배양리 548-14번지","indutype":"건축자재 - 목재·석재·철물","category":"other"}]},{"lat":"37.634616721","long":"127.1819507","imageIndex":17,"items":[{"name":"성실가구","tel":"031-514-7707","addr":"경기도 남양주시 진건읍 배양리 309-24번지","indutype":"가구 - 일반가구","category":"other"}]},{"lat":"37.634391958","long":"127.15600647","imageIndex":17,"items":[{"name":"스마일농원","tel":"031-571-5353","addr":"경기도 남양주시 진건읍 배양리 702","indutype":"문화.취미 - 화원","category":"other"}]},{"lat":"37.638862301","long":"127.16822917","imageIndex":17,"items":[{"name":"스마트어항","tel":"031-571-7413","addr":"경기도 남양주시 진건읍 배양리 464-5번지","indutype":"문화.취미 - 수족관","category":"other"}]},{"lat":"37.640833249","long":"127.17602865","imageIndex":17,"items":[{"name":"스피드렌탈","tel":"02-1566-8872","addr":"경기도 남양주시 진건읍 배양리 446-2번지","indutype":"사무통신 - 사무용 OA기기","category":"other"}]},{"lat":"37.637139491","long":"127.16311573","imageIndex":17,"items":[{"name":"아르키","tel":"","addr":"경기도 남양주시 진건읍 배양리 664-2번지","indutype":"용역 서비스 - 기타용역서비스","category":"other"}]},{"lat":"37.633223157","long":"127.1675596","imageIndex":17,"items":[{"name":"아쿠아선두","tel":"031-556-9107","addr":"경기도 남양주시 진건읍 배양리 537-4번지","indutype":"문화.취미 - 수족관","category":"other"}]},{"lat":"37.633803605","long":"127.18342153","imageIndex":17,"items":[{"name":"에어컨 공조","tel":"031-000-0000","addr":"경기도 남양주시 진건읍 배양리 156-1번지","indutype":"용역 서비스 - 기타용역서비스","category":"other"},{"name":"유니크공조","tel":"","addr":"경기도 남양주시 진건읍 배양리 156-1번지 1층","indutype":"용역 서비스 - 기타용역서비스","category":"other"}]},{"lat":"37.637109301","long":"127.16542689","imageIndex":17,"items":[{"name":"오케이 편의점","tel":"031-574-0882","addr":"경기도 남양주시 진건읍 배양리 480-2번지 1층","indutype":"유통업 영리 - 편 의 점","category":"other"}]},{"lat":"37.635693407","long":"127.15978181","imageIndex":17,"items":[{"name":"오투","tel":"031-0000-0000","addr":"경기도 남양주시 진건읍 배양리 645번지 나동","indutype":"건축자재 - 기타건축자재","category":"other"}]},{"lat":"37.632058555","long":"127.18155939","imageIndex":17,"items":[{"name":"우미쇼파","tel":"031-1588-7190","addr":"경기도 남양주시 진건읍 배양리 380-1번지","indutype":"가구 - 일반가구","category":"other"}]},{"lat":"37.636780422","long":"127.16214063","imageIndex":17,"items":[{"name":"위너미디어","tel":"031-571-2441","addr":"경기도 남양주시 진건읍 배양리 669-2번지","indutype":"건축자재 - 목재·석재·철물","category":"other"}]},{"lat":"37.633331731","long":"127.1672313","imageIndex":17,"items":[{"name":"유피코리아","tel":"031-575-8323","addr":"경기도 남양주시 진건읍 배양리 538-2","indutype":"문화.취미 - 애완동물","category":"other"}]},{"lat":"37.637087471","long":"127.18645445","imageIndex":17,"items":[{"name":"은경테크","tel":"031-594-6744","addr":"경기도 남양주시 진건읍 배양리 204-2번지","indutype":"유통업 영리 - 기타유통업","category":"other"}]},{"lat":"37.632669872","long":"127.1824445","imageIndex":17,"items":[{"name":"정우공조시스템","tel":"031-528-5350","addr":"경기도 남양주시 진건읍 배양리 152-6번지","indutype":"전기제품 - 냉열기기","category":"other"}]},{"lat":"37.632392504","long":"127.16881527","imageIndex":17,"items":[{"name":"주식회사 대성공조","tel":"02-2248-4256","addr":"경기도 남양주시 진건읍 배양리 553-4","indutype":"용역 서비스 - 기타용역서비스","category":"other"}]},{"lat":"37.637031943","long":"127.16269631","imageIndex":17,"items":[{"name":"주식회사 에메트","tel":"031-571-1060","addr":"경기도 남양주시 진건읍 배양리 666-1번지","indutype":"사무통신 - 사무용 OA기기","category":"other"}]},{"lat":"37.634030248","long":"127.18250442","imageIndex":17,"items":[{"name":"주식회사 에코월드","tel":"031-575-2486","addr":"경기도 남양주시 진건읍 배양리 162번지 나동","indutype":"의류 - 정장","category":"other"}]},{"lat":"37.632367513","long":"127.17981549","imageIndex":17,"items":[{"name":"주식회사 우노스튜디오","tel":"031-529-5392","addr":"경기도 남양주시 진건읍 배양리 370-7번지","indutype":"용역 서비스 - 종합용역","category":"other"}]},{"lat":"37.64091372","long":"127.17644805","imageIndex":17,"items":[{"name":"주식회사 제이케이","tel":"031-1599-0921","addr":"경기도 남양주시 진건읍 배양리 277번지","indutype":"건축자재 - 기타건축자재","category":"other"}]},{"lat":"37.637948167","long":"127.16472628","imageIndex":17,"items":[{"name":"주식회사 진건합판종합목재","tel":"031-529-0829","addr":"경기도 남양주시 진건읍 배양리 474-8번지","indutype":"건축자재 - 목재·석재·철물","category":"other"}]},{"lat":"37.636803361","long":"127.16514299","imageIndex":17,"items":[{"name":"주식회사진솔에이앤씨","tel":"031-528-2030","addr":"경기도 남양주시 진건읍 배양리 480-13번지 1동","indutype":"사무통신 - 사무용 OA기기","category":"other"}]},{"lat":"37.634639292","long":"127.17892587","imageIndex":17,"items":[{"name":"준후유통","tel":"070-4465-7768","addr":"경기도 남양주시 진건읍 배양리 335-2번지 1층","indutype":"문화.취미 - 애완동물","category":"other"}]},{"lat":"37.631311596","long":"127.18687074","imageIndex":17,"items":[{"name":"중고가전 씨제이","tel":"070-8849-2880","addr":"경기도 남양주시 진건읍 배양리 99-1번지","indutype":"전기제품 - 가전제품","category":"other"}]},{"lat":"37.633777632","long":"127.18273039","imageIndex":17,"items":[{"name":"지후공조테크","tel":"031-572-6464","addr":"경기도 남양주시 진건읍 배양리 163-2번지","indutype":"전기제품 - 냉열기기","category":"other"}]},{"lat":"37.639865378","long":"127.17862096","imageIndex":17,"items":[{"name":"케이디자인","tel":"","addr":"경기도 남양주시 진건읍 배양리 261-3번지","indutype":"직물 - 카페트,커튼,천막,지물","category":"other"}]},{"lat":"37.633196626","long":"127.18558388","imageIndex":17,"items":[{"name":"콧수염아가씨","tel":"070-8260-3322","addr":"경기도 남양주시 진건읍 배양리 120-7번지","indutype":"의류 - 정장","category":"other"}]},{"lat":"37.636334546","long":"127.16536856","imageIndex":17,"items":[{"name":"태양공구","tel":"031-572-0984","addr":"경기도 남양주시 진건읍 배양리 482-1번지","indutype":"기타 - 기계공구","category":"other"}]},{"lat":"37.633248742","long":"127.16859059","imageIndex":17,"items":[{"name":"팔씨름 건설기계 정비업소","tel":"031-575-2328","addr":"경기도 남양주시 진건읍 배양리 541번지","indutype":"수리서비스 - 기타수리서비스","category":"other"}]},{"lat":"37.635638227","long":"127.16722505","imageIndex":17,"items":[{"name":"퍼니앳","tel":"031-571-2035","addr":"경기도 남양주시 진건읍 배양리 515번지","indutype":"가구 - 일반가구","category":"other"}]},{"lat":"37.635330507","long":"127.18061556","imageIndex":17,"items":[{"name":"피아노 아저씨","tel":"031-511-5119","addr":"경기도 남양주시 진건읍 배양리 309-21번지","indutype":"레져용품 - 피아노대리점","category":"other"}]},{"lat":"37.631026046","long":"127.18509144","imageIndex":17,"items":[{"name":"한솔제과기계","tel":"031-559-7763","addr":"경기도 남양주시 진건읍 배양리 109-3번지","indutype":"주방용구 - 주방용구","category":"other"}]},{"lat":"37.636975881","long":"127.16416903","imageIndex":17,"items":[{"name":"해시타일","tel":"031-572-7217","addr":"경기도 남양주시 진건읍 배양리 659-2번지 나동","indutype":"건축자재 - 건축용 요업제품","category":"other"}]},{"lat":"37.637333479","long":"127.16619779","imageIndex":17,"items":[{"name":"협성목재","tel":"031-557-0371","addr":"경기도 남양주시 진건읍 배양리 478-1 외2필지","indutype":"건축자재 - 목재·석재·철물","category":"other"}]},{"lat":"37.630196472","long":"127.18553123","imageIndex":17,"items":[{"name":"화개농산","tel":"031-551-6540","addr":"경기도 남양주시 진건읍 배양리 110-3번지","indutype":"농업 - 기타농업관련","category":"other"}]},{"lat":"37.632471864","long":"127.17003896","imageIndex":7,"items":[{"name":"(주) 케이에프몰","tel":"031-575-4475","addr":"경기도 남양주시 진건읍 배양리 546-1번지","indutype":"음료식품 - 농·축·수산품","category":"food"}]},{"lat":"37.632862926","long":"127.17989597","imageIndex":7,"items":[{"name":"(주)제이와이케이","tel":"","addr":"경기도 남양주시 진건읍 배양리 368-3번지","indutype":"음료식품 - 기타음료식품","category":"food"}]},{"lat":"37.634195157","long":"127.16830946","imageIndex":7,"items":[{"name":"경복수산","tel":"031-791-6883","addr":"경기도 남양주시 진건읍 배양리 542번지","indutype":"음료식품 - 농·축·수산품","category":"food"}]},{"lat":"37.631832792","long":"127.15631843","imageIndex":7,"items":[{"name":"남양주식품","tel":"031-552-0970","addr":"경기도 남양주시 진건읍 배양리 746","indutype":"음료식품 - 기타음료식품","category":"food"}]},{"lat":"37.636144212","long":"127.17872549","imageIndex":7,"items":[{"name":"내츄럴푸드","tel":"","addr":"경기도 남양주시 진건읍 배양리 292번지","indutype":"음료식품 - 정육점","category":"food"}]},{"lat":"37.635336633","long":"127.15703937","imageIndex":7,"items":[{"name":"묵동농원","tel":"031-573-9237","addr":"경기도 남양주시 진건읍 배양리 707-4","indutype":"음료식품 - 농·축·수산품","category":"food"}]},{"lat":"37.635194644","long":"127.16873086","imageIndex":7,"items":[{"name":"불로양봉자재","tel":"031-574-1403","addr":"경기도 남양주시 진건읍 배양리 511-1번지 블로양봉원 물류창고","indutype":"음료식품 - 기타음료식품","category":"food"}]},{"lat":"37.636448481","long":"127.16108628","imageIndex":7,"items":[{"name":"생명나무푸드","tel":"031-554-7010","addr":"경기도 남양주시 진건읍 배양리 670-3번지 1층","indutype":"음료식품 - 농·축·수산품","category":"food"}]},{"lat":"37.634529139","long":"127.18028511","imageIndex":7,"items":[{"name":"세영명품한우","tel":"031-575-8952","addr":"경기도 남양주시 진건읍 배양리 354-8","indutype":"음료식품 - 정육점","category":"food"}]},{"lat":"37.635837145","long":"127.18514851","imageIndex":7,"items":[{"name":"소문난","tel":"070-7690-8515","addr":"경기도 남양주시 진건읍 배양리 191-1번지","indutype":"음료식품 - 농·축·수산품","category":"food"}]},{"lat":"37.630811355","long":"127.15886526","imageIndex":7,"items":[{"name":"오피스굿즈","tel":"031-574-4616","addr":"경기도 남양주시 진건읍 배양리 754-1번지","indutype":"음료식품 - 기타음료식품","category":"food"}]},{"lat":"37.632587973","long":"127.18297676","imageIndex":7,"items":[{"name":"와인월드","tel":"02-1600-2468","addr":"경기도 남양주시 진건읍 배양리 146-1번지","indutype":"음료식품 - 주류 판매점","category":"food"}]},{"lat":"37.637502647","long":"127.16764835","imageIndex":7,"items":[{"name":"제이씨 인터내셔날","tel":"070-7640-8156","addr":"경기도 남양주시 진건읍 배양리 486-3번지","indutype":"음료식품 - 기타음료식품","category":"food"}]},{"lat":"37.634219658","long":"127.18236893","imageIndex":7,"items":[{"name":"주식회사 도담","tel":"031-000-0000","addr":"경기도 남양주시 진건읍 배양리 309-4번지","indutype":"음료식품 - 기타음료식품","category":"food"}]},{"lat":"37.633642624","long":"127.18263944","imageIndex":7,"items":[{"name":"주식회사 육공단지푸드","tel":"031-571-6093","addr":"경기도 남양주시 진건읍 배양리 160번지","indutype":"음료식품 - 기타음료식품","category":"food"}]},{"lat":"37.635526565","long":"127.16975124","imageIndex":7,"items":[{"name":"주식회사 티에스","tel":"02-972-9460","addr":"경기도 남양주시 진건읍 배양리 506-11번지","indutype":"음료식품 - 기타음료식품","category":"food"}]},{"lat":"37.633697355","long":"127.18219774","imageIndex":7,"items":[{"name":"주식회사 팍스푸드","tel":"031-573-6091","addr":"경기도 남양주시 진건읍 배양리 159-4번지","indutype":"음료식품 - 정육점","category":"food"},{"name":"팍스푸드","tel":"031-573-6091","addr":"경기도 남양주시 진건읍 배양리 159-4번지","indutype":"음료식품 - 정육점","category":"food"}]},{"lat":"37.639892383","long":"127.17248019","imageIndex":7,"items":[{"name":"하니랜드","tel":"","addr":"경기도 남양주시 진건읍 배양리 산58-5번지","indutype":"건강식품 - 기타건강식품","category":"food"}]},{"lat":"37.637614124","long":"127.16522406","imageIndex":7,"items":[{"name":"해농유통","tel":"031-529-8070","addr":"경기도 남양주시 진건읍 배양리 475-1번지","indutype":"음료식품 - 농·축·수산품","category":"food"}]},{"lat":"37.63592025","long":"127.17786393","imageIndex":7,"items":[{"name":"현대유통","tel":"","addr":"경기도 남양주시 진건읍 배양리 317번지","indutype":"음료식품 - 농·축·수산품","category":"food"}]},{"lat":"37.634086949","long":"127.18075988","imageIndex":7,"items":[{"name":"고재마트","tel":"031-516-4555","addr":"경기도 남양주시 진건읍 배양리 359번지","indutype":"유통업 영리 - 슈퍼마켓","category":"mart"}]},{"lat":"37.637109301","long":"127.16542689","imageIndex":13,"items":[{"name":"골프존파크 진건배양스크린","tel":"031-574-0882","addr":"경기도 남양주시 진건읍 배양리 480-2번지 2층","indutype":"레저업소 - 스크린골프","category":"leisure"}]},{"lat":"37.630414632","long":"127.16575217","imageIndex":13,"items":[{"name":"트램폴린","tel":"070-8031-4038","addr":"경기도 남양주시 진건읍 배양리 564-4번지","indutype":"레저업소 - 기타레져업소","category":"leisure"}]},{"lat":"37.637109301","long":"127.16542689","imageIndex":13,"items":[{"name":"다온뷰티","tel":"031-529-5942","addr":"경기도 남양주시 진건읍 배양리 480-2번지","indutype":"보건위생 - 피부미용실","category":"beauty"}]},{"lat":"37.640027349","long":"127.1787573","imageIndex":13,"items":[{"name":"싸니타스","tel":"","addr":"경기도 남양주시 진건읍 배양리 261-5번지","indutype":"보건위생 - 화장품","category":"beauty"}]},{"lat":"37.63183251","long":"127.18792559","imageIndex":13,"items":[{"name":"주식회사 컬프(KULF Co. Ltd)","tel":"031-528-0066","addr":"경기도 남양주시 진건읍 배양리 95번지","indutype":"보건위생 - 의료용품","category":"beauty"}]},{"lat":"37.634529139","long":"127.18028511","imageIndex":4,"items":[{"name":"대관령명품한우","tel":"031-575-8952","addr":"경기도 남양주시 진건읍 배양리 354-8","indutype":"일반휴게음식 - 일반한식","category":"restaurant"}]},{"lat":"37.636137282","long":"127.16467704","imageIndex":4,"items":[{"name":"배양리두루치기","tel":"031-571-2272","addr":"경기도 남양주시 진건읍 배양리 483-9번지","indutype":"일반휴게음식 - 일반한식","category":"restaurant"}]},{"lat":"37.63622214","long":"127.18083294","imageIndex":4,"items":[{"name":"배양리오리집","tel":"031-573-4428","addr":"경기도 남양주시 진건읍 배양리 305-6 외1필지","indutype":"일반휴게음식 - 일반한식","category":"restaurant"}]},{"lat":"37.634338778","long":"127.17498263","imageIndex":4,"items":[{"name":"송바우가든","tel":"031-573-8512","addr":"경기도 남양주시 진건읍 배양리 418번지","indutype":"일반휴게음식 - 일반한식","category":"restaurant"}]},{"lat":"37.637109301","long":"127.16542689","imageIndex":4,"items":[{"name":"예원호프","tel":"031-574-0882","addr":"경기도 남양주시 진건읍 배양리 480-2번지 1층 일부","indutype":"일반휴게음식 - 주점","category":"restaurant"}]},{"lat":"37.63694775","long":"127.16497336","imageIndex":4,"items":[{"name":"온달추어탕","tel":"031-573-9277","addr":"경기도 남양주시 진건읍 배양리 480-12번지 1층","indutype":"일반휴게음식 - 일반한식","category":"restaurant"}]},{"lat":"37.636748116","long":"127.16600391","imageIndex":4,"items":[{"name":"행복식당","tel":"031-575-7966","addr":"경기도 남양주시 진건읍 배양리 483-28번지 1층","indutype":"일반휴게음식 - 일반한식","category":"restaurant"}]},{"lat":"37.634893065","long":"127.18388866","imageIndex":8,"items":[{"name":"맥스케어","tel":"070-4258-0088","addr":"경기도 남양주시 진건읍 배양리 175-1번지","indutype":"약국 - 제약회사","category":"medical"}]},{"lat":"37.642859229","long":"127.18866675","imageIndex":8,"items":[{"name":"박용식 신경과의원","tel":"031-564-1175","addr":"경기도 남양주시 진건읍 배양리 4-5번지 신해센트럴타워상가 413~415호","indutype":"의원 - 의원","category":"medical"}]},{"lat":"37.639531699","long":"127.17883544","imageIndex":16,"items":[{"name":"비제이아카데미","tel":"031-3450-3403","addr":"경기도 남양주시 진건읍 배양리 261-4번지","indutype":"학원 - 예·체능계학원","category":"study"}]},{"lat":"37.635330507","long":"127.18061556","imageIndex":0,"items":[{"name":"온달","tel":"031-527-4479","addr":"경기도 남양주시 진건읍 배양리 309-21번지","indutype":"자동차정비 유지 - 자동차부품","category":"car"}]},{"lat":"37.639862645","long":"127.16803878","imageIndex":0,"items":[{"name":"장안모터스","tel":"031-527-6086","addr":"경기도 남양주시 진건읍 배양리 459번지","indutype":"자동차정비 유지 - 자동차부품","category":"car"}]},{"lat":"37.635033767","long":"127.18022966","imageIndex":0,"items":[{"name":"주식회사 대윤","tel":"070-8866-5194","addr":"경기도 남양주시 진건읍 배양리 310번지","indutype":"자동차정비 유지 - 윤활유 전문 판매","category":"car"}]},{"lat":"37.636385952","long":"127.16728334","imageIndex":0,"items":[{"name":"주안자동차","tel":"031-573-7758","addr":"경기도 남양주시 진건읍 배양리 501-3","indutype":"자동차정비 유지 - 자동차부품","category":"car"}]}]