[{"lat":"37.714473958","long":"127.50480159","imageIndex":7,"items":[{"name":"(주)현대그린푸드 청평연수원매점","tel":"","addr":"경기도 가평군 청평면 고성리 410-1번지 본관 1층","indutype":"음료식품 - 기타음료식품","category":"food"}]},{"lat":"37.709028127","long":"127.47750258","imageIndex":7,"items":[{"name":"라쿠나","tel":"031-585-7060","addr":"경기도 가평군 청평면 고성리 775-3번지","indutype":"음료식품 - 기타음료식품","category":"food"},{"name":"라쿠나","tel":"031-584-5709","addr":"경기도 가평군 청평면 고성리 775-3번지","indutype":"음료식품 - 기타음료식품","category":"food"}]},{"lat":"37.715029852","long":"127.49041324","imageIndex":7,"items":[{"name":"바오밥","tel":"031-584-8200","addr":"경기도 가평군 청평면 고성리 616-2번지","indutype":"음료식품 - 기타음료식품","category":"food"},{"name":"사막여우","tel":"031-584-8200","addr":"경기도 가평군 청평면 고성리 616-2번지","indutype":"음료식품 - 기타음료식품","category":"food"}]},{"lat":"37.715442215","long":"127.49091496","imageIndex":7,"items":[{"name":"본베이","tel":"031-111-1111","addr":"경기도 가평군 청평면 고성리 616번지","indutype":"음료식품 - 기타음료식품","category":"food"},{"name":"셰리스윗","tel":"","addr":"경기도 가평군 청평면 고성리 616번지 1층","indutype":"음료식품 - 기타음료식품","category":"food"},{"name":"올리브","tel":"031-585-8144","addr":"경기도 가평군 청평면 고성리 616번지 2층","indutype":"음료식품 - 기타음료식품","category":"food"}]},{"lat":"37.717196198","long":"127.5002266","imageIndex":7,"items":[{"name":"산모퉁이","tel":"031-585-6305","addr":"경기도 가평군 청평면 고성리 488-4번지","indutype":"음료식품 - 기타음료식품","category":"food"}]},{"lat":"37.714945202","long":"127.49127462","imageIndex":7,"items":[{"name":"수아유통","tel":"","addr":"경기도 가평군 청평면 고성리 615-2번지","indutype":"음료식품 - 기타음료식품","category":"food"},{"name":"오닭꼬치푸드","tel":"","addr":"경기도 가평군 청평면 고성리 615-2번지 1동 1층","indutype":"음료식품 - 기타음료식품","category":"food"},{"name":"제퍼커피 고성리점","tel":"","addr":"경기도 가평군 청평면 고성리 615-2번지","indutype":"음료식품 - 기타음료식품","category":"food"}]},{"lat":"37.711863083","long":"127.48930377","imageIndex":7,"items":[{"name":"알로하매점","tel":"031-585-6720","addr":"경기도 가평군 청평면 고성리 579-5번지","indutype":"음료식품 - 기타음료식품","category":"food"}]},{"lat":"37.700723893","long":"127.51146698","imageIndex":7,"items":[{"name":"어썸커피","tel":"031-584-2365","addr":"경기도 가평군 청평면 고성리 52번지 1층","indutype":"음료식품 - 기타음료식품","category":"food"}]},{"lat":"37.710189908","long":"127.48428031","imageIndex":7,"items":[{"name":"주식회사 캠프통","tel":"070-8857-1219","addr":"경기도 가평군 청평면 고성리 761-5번지 캠프통아일랜드","indutype":"음료식품 - 기타음료식품","category":"food"},{"name":"주식회사 캠프통","tel":"031-585-6000","addr":"경기도 가평군 청평면 고성리 761-5번지 캠프통아일랜드","indutype":"음료식품 - 기타음료식품","category":"food"}]},{"lat":"37.710578136","long":"127.48186727","imageIndex":7,"items":[{"name":"청평다감","tel":"031-585-4789","addr":"경기도 가평군 청평면 고성리 786-20번지","indutype":"음료식품 - 기타음료식품","category":"food"}]}]