[{"lat":"37.38986531","long":"127.2182361","imageIndex":7,"items":[{"name":"(주)로스팅멘토","tel":"070-4413-7750","addr":"경기도 광주시 태전동 536번지 1층","indutype":"음료식품 - 기타음료식품","category":"food"}]},{"lat":"37.38828361","long":"127.2159845","imageIndex":7,"items":[{"name":"(주)트랜스폼","tel":"031-765-1992","addr":"경기도 광주시 태전동 557-4번지","indutype":"음료식품 - 기타음료식품","category":"food"}]},{"lat":"37.39203328","long":"127.2297268","imageIndex":7,"items":[{"name":"HN유통","tel":"111-111-1111","addr":"경기도 광주시 태전동 261-5번지","indutype":"음료식품 - 농·축·수산품","category":"food"}]},{"lat":"37.38420092","long":"127.2356989","imageIndex":7,"items":[{"name":"The반찬","tel":"031-797-8890","addr":"경기도 광주시 태전동 143번지 1층","indutype":"음료식품 - 기타음료식품","category":"food"},{"name":"에쎄레돌체","tel":"","addr":"경기도 광주시 태전동 143번지 1층","indutype":"음료식품 - 기타음료식품","category":"food"}]},{"lat":"37.38500161","long":"127.2363111","imageIndex":7,"items":[{"name":"고기이야기","tel":"031-769-9615","addr":"경기도 광주시 태전동 7-5번지 상가동 지하1층 102호","indutype":"음료식품 - 정육점","category":"food"}]},{"lat":"37.38042081","long":"127.228924","imageIndex":7,"items":[{"name":"과일 트럭","tel":"031-405-4404","addr":"경기도 광주시 태전동 702번지 힐스테이트태전 1603동 902호","indutype":"음료식품 - 농·축·수산품","category":"food"}]},{"lat":"37.39286934","long":"127.2307005","imageIndex":7,"items":[{"name":"광주축산물도매센타","tel":"031-766-0998","addr":"경기도 광주시 태전동 269-9번지","indutype":"음료식품 - 정육점","category":"food"}]},{"lat":"37.39095136","long":"127.2300962","imageIndex":7,"items":[{"name":"꽃내음","tel":"031-797-3303","addr":"경기도 광주시 태전동 261-14번지","indutype":"음료식품 - 기타음료식품","category":"food"}]},{"lat":"37.39599999","long":"127.2138945","imageIndex":7,"items":[{"name":"녹원축산유통","tel":"031-764-8052","addr":"경기도 광주시 태전동 419-3번지","indutype":"음료식품 - 정육점","category":"food"}]},{"lat":"37.38592511","long":"127.2340331","imageIndex":7,"items":[{"name":"농업회사법인 굿농 (주) 태전지점","tel":"031-768-8691","addr":"경기도 광주시 태전동 158-2번지 태진프라자 1층 107호","indutype":"음료식품 - 농·축·수산품","category":"food"},{"name":"마미찬","tel":"","addr":"경기도 광주시 태전동 158-2번지 103호","indutype":"음료식품 - 기타음료식품","category":"food"}]},{"lat":"37.38831015","long":"127.2162555","imageIndex":7,"items":[{"name":"대경헤드","tel":"031-768-6466","addr":"경기도 광주시 태전동 580-5번지","indutype":"음료식품 - 기타음료식품","category":"food"}]},{"lat":"37.38656482","long":"127.234035","imageIndex":7,"items":[{"name":"던킨 광주 태전점/비알코리아(주)","tel":"031-768-6081","addr":"경기도 광주시 태전동 162-4번지 메디프라자 1층 102호","indutype":"음료식품 - 제과점","category":"food"},{"name":"빵델디아","tel":"031-766-0677","addr":"경기도 광주시 태전동 162-4번지 메디프라자 1층 108호","indutype":"음료식품 - 제과점","category":"food"},{"name":"하나로축산","tel":"031-766-8616","addr":"경기도 광주시 태전동 162-4번지 메디프라자 112호","indutype":"음료식품 - 정육점","category":"food"}]},{"lat":"37.39300078","long":"127.2182563","imageIndex":7,"items":[{"name":"롯데칠성음료 복정점","tel":"","addr":"경기도 광주시 태전동 520번지","indutype":"음료식품 - 기타음료식품","category":"food"}]},{"lat":"37.38861839","long":"127.2297617","imageIndex":7,"items":[{"name":"마카마카마카롱 태전동점","tel":"031-000-0000","addr":"경기도 광주시 태전동 628번지 성원프라자 121호","indutype":"음료식품 - 기타음료식품","category":"food"},{"name":"맛나반찬","tel":"031-769-0311","addr":"경기도 광주시 태전동 628번지 성원프라자 147호","indutype":"음료식품 - 기타음료식품","category":"food"},{"name":"바켄도르프과자점","tel":"031-797-2147","addr":"경기도 광주시 태전동 628번지 성원프라자 108호","indutype":"음료식품 - 제과점","category":"food"},{"name":"보드앤","tel":"031-765-0442","addr":"경기도 광주시 태전동 628번지 성원프라자 307호","indutype":"음료식품 - 기타음료식품","category":"food"},{"name":"블럭키드","tel":"031-765-2979","addr":"경기도 광주시 태전동 628번지 성원프라자 412,413호","indutype":"음료식품 - 기타음료식품","category":"food"},{"name":"오복떡집","tel":"031-762-9020","addr":"경기도 광주시 태전동 628번지 성원프라자 1층 148호","indutype":"음료식품 - 제과점","category":"food"},{"name":"하이축산","tel":"031-763-9198","addr":"경기도 광주시 태전동 628번지 성원프라자 101동 102호","indutype":"음료식품 - 정육점","category":"food"}]},{"lat":"37.39509121","long":"127.2182059","imageIndex":7,"items":[{"name":"만물상회","tel":"031-765-0774","addr":"경기도 광주시 태전동 502-2번지","indutype":"음료식품 - 농·축·수산품","category":"food"}]},{"lat":"37.39345057","long":"127.2235313","imageIndex":7,"items":[{"name":"미가상회(상사)","tel":"031-761-6702","addr":"경기도 광주시 태전동 363-3번지","indutype":"음료식품 - 농·축·수산품","category":"food"}]},{"lat":"37.39749988","long":"127.2165639","imageIndex":7,"items":[{"name":"버들유통","tel":"02-403-2009","addr":"경기도 광주시 태전동 428-19번지 아트리움 202동 201호","indutype":"음료식품 - 기타음료식품","category":"food"}]},{"lat":"37.39136658","long":"127.2297022","imageIndex":7,"items":[{"name":"부영수산","tel":"031-765-8995","addr":"경기도 광주시 태전동 261-60번지","indutype":"음료식품 - 농·축·수산품","category":"food"}]},{"lat":"37.39066996","long":"127.2311794","imageIndex":7,"items":[{"name":"빵델디아(Pan del dla)","tel":"070-4652-2867","addr":"경기도 광주시 태전동 677번지","indutype":"음료식품 - 제과점","category":"food"}]},{"lat":"37.39339421","long":"127.2247621","imageIndex":7,"items":[{"name":"생명의샘반찬","tel":"031-769-9258","addr":"경기도 광주시 태전동 367-12번지 1층","indutype":"음료식품 - 기타음료식품","category":"food"}]},{"lat":"37.3932537","long":"127.2275961","imageIndex":7,"items":[{"name":"수반찬","tel":"031-762-8525","addr":"경기도 광주시 태전동 282-1번지 티큐브 1층 101호","indutype":"음료식품 - 기타음료식품","category":"food"}]},{"lat":"37.39578135","long":"127.2201954","imageIndex":7,"items":[{"name":"영복청과","tel":"031-111-1111","addr":"경기도 광주시 태전동 502-93번지 성현빌리지1차","indutype":"음료식품 - 농·축·수산품","category":"food"}]},{"lat":"37.38455967","long":"127.2319287","imageIndex":7,"items":[{"name":"우렁각시","tel":"031-765-2274","addr":"경기도 광주시 태전동 699번지 힐스테이트태전 1536동 지하1층 106호","indutype":"음료식품 - 기타음료식품","category":"food"}]},{"lat":"37.38895491","long":"127.228114","imageIndex":7,"items":[{"name":"우리나라","tel":"031-322-6430","addr":"경기도 광주시 태전동 228번지 성원아파트","indutype":"음료식품 - 기타음료식품","category":"food"}]},{"lat":"37.39261615","long":"127.231174","imageIndex":7,"items":[{"name":"인삼마을","tel":"031-767-2811","addr":"경기도 광주시 태전동 267-1번지","indutype":"건강식품 - 인삼제품","category":"food"}]},{"lat":"37.39231222","long":"127.2299196","imageIndex":7,"items":[{"name":"자연내림","tel":"031-765-7936","addr":"경기도 광주시 태전동 261-4번지","indutype":"건강식품 - 기타건강식품","category":"food"}]},{"lat":"37.39506383","long":"127.2183978","imageIndex":7,"items":[{"name":"장순필 참과끼니","tel":"031-798-0237","addr":"경기도 광주시 태전동 502-8번지","indutype":"음료식품 - 기타음료식품","category":"food"}]},{"lat":"37.38614179","long":"127.2338079","imageIndex":7,"items":[{"name":"조은상 베이커리","tel":"","addr":"경기도 광주시 태전동 160-1번지 명성빌딩 104호","indutype":"음료식품 - 제과점","category":"food"}]},{"lat":"37.3939235","long":"127.2259833","imageIndex":7,"items":[{"name":"주경수산","tel":"070-4147-4498","addr":"경기도 광주시 태전동 289-1번지","indutype":"음료식품 - 농·축·수산품","category":"food"}]},{"lat":"37.39108554","long":"127.2210401","imageIndex":7,"items":[{"name":"주식회사 미단푸드","tel":"031-702-2503","addr":"경기도 광주시 태전동 313-2번지","indutype":"음료식품 - 정육점","category":"food"}]},{"lat":"37.38861919","long":"127.2293439","imageIndex":7,"items":[{"name":"주식회사세븐엘","tel":"031-768-8277","addr":"경기도 광주시 태전동 521-17성원프라자302","indutype":"건강식품 - 기타건강식품","category":"food"}]},{"lat":"37.3925084","long":"127.2262614","imageIndex":7,"items":[{"name":"천마유통","tel":"031-768-2208","addr":"경기도 광주시 태전동 276-7번지","indutype":"음료식품 - 기타음료식품","category":"food"}]},{"lat":"37.3938388","long":"127.2278915","imageIndex":7,"items":[{"name":"천애육 (태전본점)","tel":"031-763-6463","addr":"경기도 광주시 태전동 284번지 1층","indutype":"음료식품 - 정육점","category":"food"}]},{"lat":"37.38669975","long":"127.2341484","imageIndex":7,"items":[{"name":"청담떡방","tel":"031-763-2562","addr":"경기도 광주시 태전동 162-8번지 에듀프라자 102호","indutype":"음료식품 - 제과점","category":"food"}]},{"lat":"37.38386923","long":"127.230199","imageIndex":7,"items":[{"name":"커먼베이커리","tel":"031-904-1760","addr":"경기도 광주시 태전동 91-11번지 태전4지구 C3 태전아이파크상가동 102호","indutype":"음료식품 - 제과점","category":"food"}]},{"lat":"37.39270017","long":"127.2296498","imageIndex":7,"items":[{"name":"태전떡집방아간","tel":"031-767-0250","addr":"경기도 광주시 태전동 272-6번지","indutype":"음료식품 - 제과점","category":"food"},{"name":"태전무인카페 디셈버","tel":"031-111-1111","addr":"경기도 광주시 태전동 272-6번지 1층 105호","indutype":"음료식품 - 기타음료식품","category":"food"}]},{"lat":"37.39295246","long":"127.2248963","imageIndex":7,"items":[{"name":"태전로114/농업회사법인 100년축산(주)태전","tel":"031-797-1140","addr":"경기도 광주시 태전동 365-5번지 101호","indutype":"음료식품 - 정육점","category":"food"}]},{"lat":"37.39311539","long":"127.2292558","imageIndex":7,"items":[{"name":"파프리카 푸드","tel":"031-763-8079","addr":"경기도 광주시 태전동 270-1번지 1층","indutype":"음료식품 - 기타음료식품","category":"food"}]},{"lat":"37.39264387","long":"127.2260924","imageIndex":7,"items":[{"name":"프롬마더","tel":"02-521-1269","addr":"경기도 광주시 태전동 276-4번지 1층 102호","indutype":"음료식품 - 농·축·수산품","category":"food"}]},{"lat":"37.39050205","long":"127.219864","imageIndex":7,"items":[{"name":"한우대가","tel":"031-765-1666","addr":"경기도 광주시 태전동 317-2번지","indutype":"음료식품 - 정육점","category":"food"}]},{"lat":"37.38811397","long":"127.2388953","imageIndex":7,"items":[{"name":"행복커피패밀리","tel":"","addr":"경기도 광주시 태전동 690번지 쌍용스윗닷홈 303동 706호","indutype":"음료식품 - 기타음료식품","category":"food"}]}]