[{"lat":"37.546735419","long":"127.2428345","imageIndex":17,"items":[{"name":"(주)명스포츠월드","tel":"031-577-5579","addr":"경기도 남양주시 와부읍 팔당리 398-6번지 제가동호","indutype":"유통업 영리 - 편 의 점","category":"other"},{"name":"(주)명스포츠월드","tel":"031-577-5579","addr":"경기도 남양주시 와부읍 팔당리 398-6번지","indutype":"유통업 영리 - 편 의 점","category":"other"},{"name":"(주)명스포츠월드","tel":"031-577-5579","addr":"경기도 남양주시 와부읍 팔당리 398-6번지 제가동호","indutype":"레져용품 - 스포츠·레져용품","category":"other"},{"name":"(주)명스포츠월드","tel":"031-577-5579","addr":"경기도 남양주시 와부읍 팔당리 398-6번지","indutype":"레져용품 - 스포츠·레져용품","category":"other"},{"name":"명스포츠","tel":"031-577-5579","addr":"경기도 남양주시 와부읍 팔당리 398-6번지 가동 외1필지(398-11)","indutype":"레져용품 - 스포츠·레져용품","category":"other"}]},{"lat":"37.551120318","long":"127.23980442","imageIndex":17,"items":[{"name":"거성산업","tel":"031-795-6817","addr":"경기도 남양주시 와부읍 팔당리 448-6번지","indutype":"직물 - 카페트,커튼,천막,지물","category":"other"}]},{"lat":"37.550542669","long":"127.24031183","imageIndex":17,"items":[{"name":"괴테하우스","tel":"070-4400-8894","addr":"경기도 남양주시 와부읍 팔당리 476-4번지 1층","indutype":"가구 - 일반가구","category":"other"}]},{"lat":"37.551877752","long":"127.23950126","imageIndex":17,"items":[{"name":"김반장4435","tel":"02-1670-8059","addr":"경기도 남양주시 와부읍 팔당리 443-5번지 외 1필지","indutype":"건축자재 - 기타건축자재","category":"other"}]},{"lat":"37.546263681","long":"127.24441719","imageIndex":17,"items":[{"name":"남양주역사박물관","tel":"031-576-0558","addr":"경기도 남양주시 와부읍 팔당리 237-3번지","indutype":"문화.취미 - 티켓","category":"other"}]},{"lat":"37.553371761","long":"127.24030948","imageIndex":17,"items":[{"name":"대준전기(주)","tel":"031-577-3901","addr":"경기도 남양주시 와부읍 팔당리 607-1번지","indutype":"용역 서비스 - 기타용역서비스","category":"other"}]},{"lat":"37.548148596","long":"127.24350667","imageIndex":17,"items":[{"name":"동양칠기","tel":"031-000-0000","addr":"경기도 남양주시 와부읍 팔당리 367-1번지","indutype":"문화.취미 - 민예·공예품","category":"other"}]},{"lat":"37.560375783","long":"127.23406159","imageIndex":17,"items":[{"name":"럭센트(LUXENT)","tel":"","addr":"경기도 남양주시 와부읍 팔당리 704-6번지 (704-6,704-14)","indutype":"가구 - 일반가구","category":"other"}]},{"lat":"37.553343037","long":"127.23664274","imageIndex":17,"items":[{"name":"뮤지엄 한강","tel":"","addr":"경기도 남양주시 와부읍 팔당리 784번지","indutype":"용역 서비스 - 사무서비스","category":"other"},{"name":"주식회사 샵판다","tel":"02-1111-1111","addr":"경기도 남양주시 와부읍 팔당리 784번지 3층","indutype":"의류 - 정장","category":"other"}]},{"lat":"37.546545471","long":"127.24758653","imageIndex":17,"items":[{"name":"미주설비","tel":"031-521-0938","addr":"경기도 남양주시 와부읍 팔당리 195-2번지","indutype":"건축자재 - 인테리어전문","category":"other"}]},{"lat":"37.547593482","long":"127.24178486","imageIndex":17,"items":[{"name":"세본","tel":"031-557-4696","addr":"경기도 남양주시 와부읍 팔당리 391-6번지","indutype":"가구 - 일반가구","category":"other"}]},{"lat":"37.545766427","long":"127.24525295","imageIndex":17,"items":[{"name":"쉼갤러리","tel":"","addr":"경기도 남양주시 와부읍 팔당리 246-1번지 1층","indutype":"건축자재 - 인테리어전문","category":"other"},{"name":"팔당스포츠","tel":"031-977-6147","addr":"경기도 남양주시 와부읍 팔당리 246-1번지","indutype":"레져용품 - 스포츠·레져용품","category":"other"}]},{"lat":"37.539622733","long":"127.2576114","imageIndex":17,"items":[{"name":"시냇가에심은나무","tel":"031-577-7153","addr":"경기도 남양주시 와부읍 팔당리 59-1","indutype":"문화.취미 - 화원","category":"other"}]},{"lat":"37.553286823","long":"127.23772898","imageIndex":17,"items":[{"name":"씨유팔당로드점","tel":"031-578-1151","addr":"경기도 남양주시 와부읍 팔당리 814-6번지","indutype":"유통업 영리 - 편 의 점","category":"other"}]},{"lat":"37.551599671","long":"127.23888929","imageIndex":17,"items":[{"name":"엔틱정원","tel":"","addr":"경기도 남양주시 와부읍 팔당리 441-7번지 441-12","indutype":"문화.취미 - 골동품점","category":"other"}]},{"lat":"37.551017014","long":"127.24188632","imageIndex":17,"items":[{"name":"유니마스타서울","tel":"02-1522-4107","addr":"경기도 남양주시 와부읍 팔당리 532번지","indutype":"주방용구 - 주방용구","category":"other"},{"name":"클린스페이스","tel":"031-793-4904","addr":"경기도 남양주시 와부읍 팔당리 532번지","indutype":"주방용구 - 주방용구","category":"other"}]},{"lat":"37.545349813","long":"127.24630395","imageIndex":17,"items":[{"name":"유티엘(UTL)","tel":"031-577-0330","addr":"경기도 남양주시 와부읍 팔당리 256-4번지","indutype":"레져용품 - 스포츠·레져용품","category":"other"}]},{"lat":"37.552425166","long":"127.2405894","imageIndex":17,"items":[{"name":"이디스컴퍼니","tel":"031-576-1555","addr":"경기도 남양주시 와부읍 팔당리 617-4번지","indutype":"사무통신 - 사무용 OA기기","category":"other"}]},{"lat":"37.545711346","long":"127.24575066","imageIndex":17,"items":[{"name":"이지바이크","tel":"031-577-1527","addr":"경기도 남양주시 와부읍 팔당리 243-4번지","indutype":"레져용품 - 스포츠·레져용품","category":"other"},{"name":"카라반(EUROSTAR CARAVAN)","tel":"031-577-1527","addr":"경기도 남양주시 와부읍 팔당리 243-4번지 (팔당리243-4.243-15)","indutype":"레져용품 - 스포츠·레져용품","category":"other"}]},{"lat":"37.540512555","long":"127.25441232","imageIndex":17,"items":[{"name":"일진자전거","tel":"031-577-3352","addr":"경기도 남양주시 와부읍 팔당리 82-7번지","indutype":"레져용품 - 스포츠·레져용품","category":"other"}]},{"lat":"37.560231471","long":"127.23414037","imageIndex":17,"items":[{"name":"제일 하우징","tel":"031-576-4003","addr":"경기도 남양주시 와부읍 팔당리 704-2번지 나동","indutype":"직물 - 카페트,커튼,천막,지물","category":"other"}]},{"lat":"37.541042515","long":"127.2551722","imageIndex":17,"items":[{"name":"종점휴게점","tel":"031-577-8570","addr":"경기도 남양주시 와부읍 팔당리 85-3번지","indutype":"유통업 영리 - 편 의 점","category":"other"}]},{"lat":"37.553429447","long":"127.23849897","imageIndex":17,"items":[{"name":"주식회사 카부토코리아 팔당지점","tel":"070-4235-3741","addr":"경기도 남양주시 와부읍 팔당리 811-9번지","indutype":"레져용품 - 스포츠·레져용품","category":"other"}]},{"lat":"37.54456722","long":"127.24569037","imageIndex":17,"items":[{"name":"천마자전거","tel":"070-4217-6411","addr":"경기도 남양주시 와부읍 팔당리 349-20번지","indutype":"레져용품 - 스포츠·레져용품","category":"other"}]},{"lat":"37.546762643","long":"127.2471346","imageIndex":17,"items":[{"name":"치유공간힐링센타","tel":"031-576-0450","addr":"경기도 남양주시 와부읍 팔당리 193번지 팔당비전힐","indutype":"용역 서비스 - 부동산 중개·임대","category":"other"}]},{"lat":"37.551040454","long":"127.23919307","imageIndex":17,"items":[{"name":"탤런트 독 스쿨","tel":"031-577-3165","addr":"경기도 남양주시 와부읍 팔당리 434-9","indutype":"문화.취미 - 애완동물","category":"other"}]},{"lat":"37.544128477","long":"127.24872148","imageIndex":17,"items":[{"name":"형제마린","tel":"031-576-0337","addr":"경기도 남양주시 와부읍 팔당리 340-3번지","indutype":"기타 - 기계공구","category":"other"}]},{"lat":"37.539407742","long":"127.25703362","imageIndex":7,"items":[{"name":"(주)참한","tel":"","addr":"경기도 남양주시 와부읍 팔당리 55-10번지 1층","indutype":"음료식품 - 농·축·수산품","category":"food"}]},{"lat":"37.541795893","long":"127.25678148","imageIndex":7,"items":[{"name":"경서수산","tel":"","addr":"경기도 남양주시 와부읍 팔당리 24-3번지","indutype":"음료식품 - 농·축·수산품","category":"food"}]},{"lat":"37.544988278","long":"127.24685724","imageIndex":7,"items":[{"name":"동강수산","tel":"031-577-0977","addr":"경기도 남양주시 와부읍 팔당리 266-6번지","indutype":"음료식품 - 농·축·수산품","category":"food"}]},{"lat":"37.545571711","long":"127.24792281","imageIndex":7,"items":[{"name":"두용","tel":"031-577-8078","addr":"경기도 남양주시 와부읍 팔당리 275-1번지 202호","indutype":"음료식품 - 기타음료식품","category":"food"},{"name":"북촌","tel":"031-576-3323","addr":"경기도 남양주시 와부읍 팔당리 275-1번지 외2필지","indutype":"음료식품 - 농·축·수산품","category":"food"}]},{"lat":"37.540460716","long":"127.25758031","imageIndex":7,"items":[{"name":"라이더 빌","tel":"070-4120-4551","addr":"경기도 남양주시 와부읍 팔당리 41번지 1층","indutype":"음료식품 - 기타음료식품","category":"food"}]},{"lat":"37.553988707","long":"127.23817254","imageIndex":7,"items":[{"name":"선운산장어","tel":"031-577-3312","addr":"경기도 남양주시 와부읍 팔당리 811-1번지 일부호","indutype":"음료식품 - 농·축·수산품","category":"food"}]},{"lat":"37.552349154","long":"127.23805422","imageIndex":7,"items":[{"name":"신선한 day","tel":"031-553-8115","addr":"경기도 남양주시 와부읍 팔당리 816번지","indutype":"음료식품 - 농·축·수산품","category":"food"}]},{"lat":"37.560122911","long":"127.23436639","imageIndex":7,"items":[{"name":"아웃도어키친","tel":"031-576-5492","addr":"경기도 남양주시 와부읍 팔당리 704-7번지","indutype":"음료식품 - 정육점","category":"food"}]},{"lat":"37.552233444","long":"127.23734091","imageIndex":7,"items":[{"name":"주식회사 제이티","tel":"031-576-1750","addr":"경기도 남양주시 와부읍 팔당리 786번지 2층","indutype":"음료식품 - 기타음료식품","category":"food"}]},{"lat":"37.544264823","long":"127.24814484","imageIndex":7,"items":[{"name":"주식회사탐네커피(TOMNE COFFEE Co.,Ltd.)","tel":"031-524-1717","addr":"경기도 남양주시 와부읍 팔당리 337-1번지 2층","indutype":"음료식품 - 기타음료식품","category":"food"}]},{"lat":"37.555816041","long":"127.23900444","imageIndex":7,"items":[{"name":"팔당하우스","tel":"031-577-5748","addr":"경기도 남양주시 와부읍 팔당리 669-5번지","indutype":"음료식품 - 기타음료식품","category":"food"}]},{"lat":"37.557677476","long":"127.2362828","imageIndex":7,"items":[{"name":"한우짱","tel":"031-577-9295","addr":"경기도 남양주시 와부읍 팔당리 765번지","indutype":"음료식품 - 정육점","category":"food"}]},{"lat":"37.555902104","long":"127.23650361","imageIndex":4,"items":[{"name":"75닭갈비","tel":"031-000-0000","addr":"경기도 남양주시 와부읍 팔당리 760번지 3층","indutype":"일반휴게음식 - 일반한식","category":"restaurant"},{"name":"칠오","tel":"","addr":"경기도 남양주시 와부읍 팔당리 760번지 2층","indutype":"일반휴게음식 - 일반한식","category":"restaurant"}]},{"lat":"37.552459362","long":"127.23700211","imageIndex":4,"items":[{"name":"강변집","tel":"031-576-6155","addr":"경기도 남양주시 와부읍 팔당리 785번지","indutype":"일반휴게음식 - 일반한식","category":"restaurant"}]},{"lat":"37.539871316","long":"127.25513431","imageIndex":4,"items":[{"name":"강변회관","tel":"031-576-1919","addr":"경기도 남양주시 와부읍 팔당리 82-5번지","indutype":"일반휴게음식 - 일반한식","category":"restaurant"}]},{"lat":"37.550510999","long":"127.24260895","imageIndex":4,"items":[{"name":"다예린","tel":"031-576-7540","addr":"경기도 남양주시 와부읍 팔당리 521-1번지","indutype":"일반휴게음식 - 일반한식","category":"restaurant"}]},{"lat":"37.547045118","long":"127.24994186","imageIndex":4,"items":[{"name":"돌기와손두부","tel":"031-576-1217","addr":"경기도 남양주시 와부읍 팔당리 134-1번지 1층","indutype":"일반휴게음식 - 일반한식","category":"restaurant"}]},{"lat":"37.540871281","long":"127.25519425","imageIndex":4,"items":[{"name":"따따국수","tel":"031-576-7807","addr":"경기도 남양주시 와부읍 팔당리 79-1번지","indutype":"일반휴게음식 - 일반한식","category":"restaurant"}]},{"lat":"37.545349813","long":"127.24630395","imageIndex":4,"items":[{"name":"라운지","tel":"031-577-0330","addr":"경기도 남양주시 와부읍 팔당리 256-4번지","indutype":"일반휴게음식 - 서양음식","category":"restaurant"}]},{"lat":"37.540460716","long":"127.25758031","imageIndex":4,"items":[{"name":"라이더 빌","tel":"070-4120-4551","addr":"경기도 남양주시 와부읍 팔당리 41번지","indutype":"일반휴게음식 - 일반한식","category":"restaurant"}]},{"lat":"37.541320172","long":"127.25594256","imageIndex":4,"items":[{"name":"루트리","tel":"031-577-7440","addr":"경기도 남양주시 와부읍 팔당리 20-1번지 4층","indutype":"일반휴게음식 - 서양음식","category":"restaurant"},{"name":"짜홍루","tel":"031-577-7448","addr":"경기도 남양주시 와부읍 팔당리 20-1번지","indutype":"일반휴게음식 - 중국식","category":"restaurant"}]},{"lat":"37.540404124","long":"127.25455905","imageIndex":4,"items":[{"name":"면포도궁","tel":"031-521-0908","addr":"경기도 남양주시 와부읍 팔당리 82-8번지","indutype":"일반휴게음식 - 일반한식","category":"restaurant"}]},{"lat":"37.546156383","long":"127.24838867","imageIndex":4,"items":[{"name":"바뎅이","tel":"031-566-6791","addr":"경기도 남양주시 와부읍 팔당리 308번지 1층","indutype":"일반휴게음식 - 일반한식","category":"restaurant"}]},{"lat":"37.554730879","long":"127.23647732","imageIndex":4,"items":[{"name":"브레드쏭","tel":"031-576-8522","addr":"경기도 남양주시 와부읍 팔당리 798번지 2-3층","indutype":"일반휴게음식 - 서양음식","category":"restaurant"}]},{"lat":"37.555072219","long":"127.23699897","imageIndex":4,"items":[{"name":"빵내음 팔당점","tel":"","addr":"경기도 남양주시 와부읍 팔당리 801-1번지 1,2층","indutype":"일반휴게음식 - 서양음식","category":"restaurant"}]},{"lat":"37.555986684","long":"127.23927659","imageIndex":4,"items":[{"name":"산밑에집","tel":"031-576-7984","addr":"경기도 남양주시 와부읍 팔당리 669-4번지","indutype":"일반휴게음식 - 일반한식","category":"restaurant"}]},{"lat":"37.554178025","long":"127.23811655","imageIndex":4,"items":[{"name":"삼손민물장어","tel":"031-521-8484","addr":"경기도 남양주시 와부읍 팔당리 571-12번지 외 4필지","indutype":"일반휴게음식 - 일반한식","category":"restaurant"}]},{"lat":"37.545541694","long":"127.24500328","imageIndex":4,"items":[{"name":"삼시세끼","tel":"031-576-1007","addr":"경기도 남양주시 와부읍 팔당리 246-5번지 아벨커피 나동 1층","indutype":"일반휴게음식 - 일반한식","category":"restaurant"},{"name":"아벨","tel":"031-576-7201","addr":"경기도 남양주시 와부읍 팔당리 246-5번지","indutype":"일반휴게음식 - 서양음식","category":"restaurant"},{"name":"아벨","tel":"031-576-7201","addr":"경기도 남양주시 와부읍 팔당리 246-5번지","indutype":"일반휴게음식 - 서양음식","category":"restaurant"}]},{"lat":"37.555650546","long":"127.23614067","imageIndex":4,"items":[{"name":"선리버","tel":"031-577-2948","addr":"경기도 남양주시 와부읍 팔당리 775번지","indutype":"일반휴게음식 - 서양음식","category":"restaurant"}]},{"lat":"37.546794286","long":"127.24925077","imageIndex":4,"items":[{"name":"시월까페","tel":"","addr":"경기도 남양주시 와부읍 팔당리 300-5번지 1층","indutype":"일반휴게음식 - 서양음식","category":"restaurant"}]},{"lat":"37.53929003","long":"127.25730477","imageIndex":4,"items":[{"name":"에스티 칠구","tel":"031-577-7907","addr":"경기도 남양주시 와부읍 팔당리 63-3번지","indutype":"일반휴게음식 - 서양음식","category":"restaurant"}]},{"lat":"37.546981742","long":"127.25008876","imageIndex":4,"items":[{"name":"예봉산더덕집","tel":"031-521-4286","addr":"경기도 남양주시 와부읍 팔당리 134-5번지 1층","indutype":"일반휴게음식 - 일반한식","category":"restaurant"},{"name":"자연애","tel":"031-577-5208","addr":"경기도 남양주시 와부읍 팔당리 134-5번지","indutype":"일반휴게음식 - 일반한식","category":"restaurant"}]},{"lat":"37.545571711","long":"127.24792281","imageIndex":4,"items":[{"name":"예봉산만남의집","tel":"031-555-0042","addr":"경기도 남양주시 와부읍 팔당리 275-1번지","indutype":"일반휴게음식 - 일반한식","category":"restaurant"}]},{"lat":"37.546982901","long":"127.24953428","imageIndex":4,"items":[{"name":"예봉산은행나무집","tel":"031-576-6222","addr":"경기도 남양주시 와부읍 팔당리 134-2번지 1층","indutype":"일반휴게음식 - 일반한식","category":"restaurant"}]},{"lat":"37.54489839","long":"127.24675511","imageIndex":4,"items":[{"name":"예봉정","tel":"031-576-0164","addr":"경기도 남양주시 와부읍 팔당리 266-11번지 예봉정","indutype":"일반휴게음식 - 일반한식","category":"restaurant"}]},{"lat":"37.545597894","long":"127.24833026","imageIndex":4,"items":[{"name":"우리집팔당닭발","tel":"031-576-9788","addr":"경기도 남양주시 와부읍 팔당리 320번지","indutype":"일반휴게음식 - 일반한식","category":"restaurant"}]},{"lat":"37.539407742","long":"127.25703362","imageIndex":4,"items":[{"name":"참한간장게장 팔당직영점","tel":"031-577-7707","addr":"경기도 남양주시 와부읍 팔당리 55-10번지","indutype":"일반휴게음식 - 일반한식","category":"restaurant"}]},{"lat":"37.554703429","long":"127.24119644","imageIndex":4,"items":[{"name":"카페스토리","tel":"031-577-5004","addr":"경기도 남양주시 와부읍 팔당리 645번지","indutype":"일반휴게음식 - 서양음식","category":"restaurant"}]},{"lat":"37.540594703","long":"127.25391474","imageIndex":4,"items":[{"name":"타블도트리버사이드","tel":"","addr":"경기도 남양주시 와부읍 팔당리 82-15번지","indutype":"일반휴게음식 - 일반한식","category":"restaurant"}]},{"lat":"37.539597507","long":"127.25677403","imageIndex":4,"items":[{"name":"티나세","tel":"031-576-0037","addr":"경기도 남양주시 와부읍 팔당리 55-5번지 티나세","indutype":"일반휴게음식 - 서양음식","category":"restaurant"}]},{"lat":"37.553231277","long":"127.23847571","imageIndex":4,"items":[{"name":"팔당 남원추어탕(본점)","tel":"031-577-9307","addr":"경기도 남양주시 와부읍 팔당리 566번지","indutype":"일반휴게음식 - 일반한식","category":"restaurant"}]},{"lat":"37.545707562","long":"127.24758379","imageIndex":4,"items":[{"name":"팔당 성민네민물장어","tel":"031-576-1401","addr":"경기도 남양주시 와부읍 팔당리 276-1번지 1층","indutype":"일반휴게음식 - 일반한식","category":"restaurant"}]},{"lat":"37.552792567","long":"127.23708237","imageIndex":4,"items":[{"name":"팔당등대닭발","tel":"","addr":"경기도 남양주시 와부읍 팔당리 787번지 1층","indutype":"일반휴게음식 - 일반한식","category":"restaurant"}]},{"lat":"37.54459957","long":"127.24747833","imageIndex":4,"items":[{"name":"팔당막국수","tel":"031-577-1319","addr":"경기도 남양주시 와부읍 팔당리 332-3번지","indutype":"일반휴게음식 - 일반한식","category":"restaurant"}]},{"lat":"37.541233916","long":"127.25414318","imageIndex":4,"items":[{"name":"팔당만두골","tel":"031-576-4330","addr":"경기도 남양주시 와부읍 팔당리 91-6번지","indutype":"일반휴게음식 - 일반한식","category":"restaurant"}]},{"lat":"37.553286823","long":"127.23772898","imageIndex":4,"items":[{"name":"팔당반점","tel":"031-577-3552","addr":"경기도 남양주시 와부읍 팔당리 814-6번지","indutype":"일반휴게음식 - 중국식","category":"restaurant"}]},{"lat":"37.544761535","long":"127.24758069","imageIndex":4,"items":[{"name":"팔당원조불닭발","tel":"031-577-7890","addr":"경기도 남양주시 와부읍 팔당리 269-4번지","indutype":"일반휴게음식 - 일반한식","category":"restaurant"}]},{"lat":"37.544988278","long":"127.24685724","imageIndex":4,"items":[{"name":"팔당장어","tel":"02-1111-1111","addr":"경기도 남양주시 와부읍 팔당리 266-6번지 2,3층","indutype":"일반휴게음식 - 일반한식","category":"restaurant"}]},{"lat":"37.541043723","long":"127.25460646","imageIndex":4,"items":[{"name":"팔당초계국수","tel":"031-576-0330","addr":"경기도 남양주시 와부읍 팔당리 80-11번지","indutype":"일반휴게음식 - 일반한식","category":"restaurant"}]},{"lat":"37.545517253","long":"127.248115","imageIndex":4,"items":[{"name":"펠리체","tel":"031-576-5128","addr":"경기도 남양주시 와부읍 팔당리 321-7","indutype":"일반휴게음식 - 일반한식","category":"restaurant"}]},{"lat":"37.55637106","long":"127.23627873","imageIndex":4,"items":[{"name":"포러데이","tel":"031-000-0000","addr":"경기도 남양주시 와부읍 팔당리 774번지","indutype":"일반휴게음식 - 일반한식","category":"restaurant"}]},{"lat":"37.546762643","long":"127.2471346","imageIndex":13,"items":[{"name":"KOREA TA CENTER(한국교류분석센터)","tel":"031-553-5213","addr":"경기도 남양주시 와부읍 팔당리 193번지 지층1층 팔당지전힐","indutype":"보건위생 - 기타대인서비스","category":"beauty"}]},{"lat":"37.545571711","long":"127.24792281","imageIndex":7,"items":[{"name":"삼성슈퍼","tel":"031-576-9957","addr":"경기도 남양주시 와부읍 팔당리 275-1번지","indutype":"유통업 영리 - 슈퍼마켓","category":"mart"}]},{"lat":"37.546264265","long":"127.24850218","imageIndex":7,"items":[{"name":"예봉상회","tel":"031-577-0827","addr":"경기도 남양주시 와부읍 팔당리 307-1번지","indutype":"유통업 영리 - 슈퍼마켓","category":"mart"}]},{"lat":"37.545766427","long":"127.24525295","imageIndex":7,"items":[{"name":"좋은날","tel":"031-576-8779","addr":"경기도 남양주시 와부읍 팔당리 246-1번지","indutype":"유통업 영리 - 슈퍼마켓","category":"mart"}]},{"lat":"37.552738059","long":"127.23730854","imageIndex":0,"items":[{"name":"에니코리아","tel":"031-577-0220","addr":"경기도 남양주시 와부읍 팔당리 788-12번지 1층","indutype":"자동차판매 - 이륜차판매","category":"car"}]},{"lat":"37.544906488","long":"127.24719644","imageIndex":0,"items":[{"name":"엑스파트","tel":"","addr":"경기도 남양주시 와부읍 팔당리 268-6번지","indutype":"자동차정비 유지 - 자동차부품","category":"car"}]},{"lat":"37.553953884","long":"127.23756132","imageIndex":0,"items":[{"name":"주식회사 이륜관","tel":"031-1566-0951","addr":"경기도 남양주시 와부읍 팔당리 792번지","indutype":"자동차판매 - 이륜차판매","category":"car"}]},{"lat":"37.550371324","long":"127.2403905","imageIndex":0,"items":[{"name":"진바이크(JIN바이크)","tel":"031-577-1340","addr":"경기도 남양주시 와부읍 팔당리 477-7번지","indutype":"자동차판매 - 이륜차판매","category":"car"}]},{"lat":"37.554513321","long":"127.23714434","imageIndex":0,"items":[{"name":"효자바이크","tel":"031-576-5178","addr":"경기도 남양주시 와부읍 팔당리 793번지","indutype":"자동차판매 - 이륜차판매","category":"car"}]}]