[{"lat":"37.288304511","long":"127.62519103","imageIndex":4,"items":[{"name":"By The Pond(바이더폰드)","tel":"031-886-1115","addr":"경기도 여주시 교동 299-4번지","indutype":"일반휴게음식 - 서양음식","category":"restaurant"}]},{"lat":"37.269140828","long":"127.63691609","imageIndex":4,"items":[{"name":"곰식당","tel":"","addr":"경기도 여주시 교동 51-6번지","indutype":"일반휴게음식 - 일반한식","category":"restaurant"},{"name":"김영희 동태찜&코다리냉면","tel":"031-883-5529","addr":"경기도 여주시 교동 51-6번지","indutype":"일반휴게음식 - 일반한식","category":"restaurant"},{"name":"선우화로막창","tel":"031-882-8295","addr":"경기도 여주시 교동 51-6번지","indutype":"일반휴게음식 - 일반한식","category":"restaurant"},{"name":"양마담이 만드는 버거","tel":"070-7786-0903","addr":"경기도 여주시 교동 51-6번지","indutype":"일반휴게음식 - 서양음식","category":"restaurant"},{"name":"우리동네","tel":"","addr":"경기도 여주시 교동 51-6번지","indutype":"일반휴게음식 - 일반한식","category":"restaurant"},{"name":"즉석김밥마을 여주대분식","tel":"031-886-6990","addr":"경기도 여주시 교동 51-6번지","indutype":"일반휴게음식 - 스넥","category":"restaurant"},{"name":"커피마마","tel":"031-882-3053","addr":"경기도 여주시 교동 51-6번지","indutype":"일반휴게음식 - 일반한식","category":"restaurant"},{"name":"호프아프리칸","tel":"031-882-6477","addr":"경기도 여주시 교동 51-6번지","indutype":"일반휴게음식 - 일반한식","category":"restaurant"}]},{"lat":"37.270968535","long":"127.63716818","imageIndex":4,"items":[{"name":"교리여주쌀밥","tel":"031-884-9997","addr":"경기도 여주시 교동 50번지","indutype":"일반휴게음식 - 일반한식","category":"restaurant"}]},{"lat":"37.2752778137","long":"127.6350282691","imageIndex":4,"items":[{"name":"국시랑볶기랑","tel":"031-882-2229","addr":"경기도 여주시 교동 81번지 강남아파트","indutype":"일반휴게음식 - 일반한식","category":"restaurant"}]},{"lat":"37.269725434","long":"127.63711265","imageIndex":4,"items":[{"name":"김가네갈비탕&화로구이","tel":"031-886-6877","addr":"경기도 여주시 교동 46번지","indutype":"일반휴게음식 - 일반한식","category":"restaurant"},{"name":"김가네밥상&화로구이","tel":"031-882-6262","addr":"경기도 여주시 교동 46번지","indutype":"일반휴게음식 - 일반한식","category":"restaurant"},{"name":"불타는 꽃돼지 미스닭 미스터돈","tel":"031-882-4587","addr":"경기도 여주시 교동 46번지 2층","indutype":"일반휴게음식 - 일반한식","category":"restaurant"},{"name":"여주반점","tel":"031-884-3110","addr":"경기도 여주시 교동 46번지","indutype":"일반휴게음식 - 중국식","category":"restaurant"}]},{"lat":"37.274891208","long":"127.63655842","imageIndex":4,"items":[{"name":"대학로막창","tel":"031-885-7030","addr":"경기도 여주시 교동 75-6번지","indutype":"일반휴게음식 - 일반한식","category":"restaurant"},{"name":"장명달","tel":"031-882-0042","addr":"경기도 여주시 교동 75-6번지","indutype":"일반휴게음식 - 일반한식","category":"restaurant"},{"name":"훌랄라 참숯바베큐(여주대점)","tel":"031-883-9692","addr":"경기도 여주시 교동 75-6번지","indutype":"일반휴게음식 - 스넥","category":"restaurant"}]},{"lat":"37.271390059","long":"127.63753249","imageIndex":4,"items":[{"name":"더카페 이탈리아노(THE CAFE Italiano)","tel":"031-885-1530","addr":"경기도 여주시 교동 50-1번지 1층","indutype":"일반휴게음식 - 서양음식","category":"restaurant"}]},{"lat":"37.273526996","long":"127.63724601","imageIndex":4,"items":[{"name":"돈까스타운","tel":"031-881-2011","addr":"경기도 여주시 교동 60번지","indutype":"일반휴게음식 - 서양음식","category":"restaurant"}]},{"lat":"37.273805572","long":"127.63738365","imageIndex":4,"items":[{"name":"레츠그루","tel":"031-885-1683","addr":"경기도 여주시 교동 61-2번지 105호106호","indutype":"일반휴게음식 - 서양음식","category":"restaurant"},{"name":"아담한 고깃집","tel":"","addr":"경기도 여주시 교동 61-2번지 107호","indutype":"일반휴게음식 - 일반한식","category":"restaurant"}]},{"lat":"37.276382595","long":"127.63736017","imageIndex":4,"items":[{"name":"맛고을","tel":"031-883-5577","addr":"경기도 여주시 교동 84-3번지","indutype":"일반휴게음식 - 일반한식","category":"restaurant"}]},{"lat":"37.274776012","long":"127.63619666","imageIndex":4,"items":[{"name":"무한똥집숯불구이전문점","tel":"031-881-0511","addr":"경기도 여주시 교동 75-5번지","indutype":"일반휴게음식 - 칵테일바","category":"restaurant"}]},{"lat":"37.269749145","long":"127.63267086","imageIndex":4,"items":[{"name":"봄날","tel":"070-4220-2815","addr":"경기도 여주시 교동 454-4번지 여주대학교","indutype":"일반휴게음식 - 서양음식","category":"restaurant"},{"name":"용마분식","tel":"","addr":"경기도 여주시 교동 454-4번지 여주대학교 학생회관 1층","indutype":"일반휴게음식 - 스넥","category":"restaurant"},{"name":"주식회사통 Tong cafe","tel":"031-885-5749","addr":"경기도 여주시 교동 454-4번지","indutype":"일반휴게음식 - 스넥","category":"restaurant"}]},{"lat":"37.275690451","long":"127.64040988","imageIndex":4,"items":[{"name":"비에이치씨(BHC) 레귤러여주대점","tel":"031-883-5510","addr":"경기도 여주시 교동 23-3번지 지하1층","indutype":"일반휴게음식 - 스넥","category":"restaurant"}]},{"lat":"37.274913345","long":"127.63747187","imageIndex":4,"items":[{"name":"사월","tel":"","addr":"경기도 여주시 교동 68-4번지 2층","indutype":"일반휴게음식 - 서양음식","category":"restaurant"}]},{"lat":"37.284223449","long":"127.62680376","imageIndex":4,"items":[{"name":"서장금 한식부페","tel":"031-885-7230","addr":"경기도 여주시 교동 191-4번지 1동 1층 맛집","indutype":"일반휴게음식 - 일반한식","category":"restaurant"}]},{"lat":"37.273300846","long":"127.63741323","imageIndex":4,"items":[{"name":"설빙 여주대점","tel":"031-882-5945","addr":"경기도 여주시 교동 59-2번지 102호","indutype":"일반휴게음식 - 서양음식","category":"restaurant"},{"name":"채선당 여주점","tel":"031-881-2660","addr":"경기도 여주시 교동 59-2번지","indutype":"일반휴게음식 - 일반한식","category":"restaurant"},{"name":"초밥가든","tel":"031-882-2285","addr":"경기도 여주시 교동 59-2번지 로데오타운 108호","indutype":"일반휴게음식 - 일반한식","category":"restaurant"},{"name":"커피엔라떼","tel":"031-886-9180","addr":"경기도 여주시 교동 59-2번지 107호","indutype":"일반휴게음식 - 서양음식","category":"restaurant"}]},{"lat":"37.275888208","long":"127.6371418","imageIndex":4,"items":[{"name":"세종로248","tel":"031-884-2483","addr":"경기도 여주시 교동 84-16번지","indutype":"일반휴게음식 - 일반한식","category":"restaurant"}]},{"lat":"37.280047328","long":"127.63274537","imageIndex":4,"items":[{"name":"어울림카페 다온","tel":"070-4178-7948","addr":"경기도 여주시 교동 127번지 여주예일세띠앙 103동","indutype":"일반휴게음식 - 서양음식","category":"restaurant"}]},{"lat":"37.270580694","long":"127.63724384","imageIndex":4,"items":[{"name":"여주본갈비","tel":"031-885-6644","addr":"경기도 여주시 교동 48-2번지 1층","indutype":"일반휴게음식 - 일반한식","category":"restaurant"},{"name":"최가네행복한 집밥","tel":"031-885-0833","addr":"경기도 여주시 교동 48-2번지","indutype":"일반휴게음식 - 일반한식","category":"restaurant"}]},{"lat":"37.270138734","long":"127.63733033","imageIndex":4,"items":[{"name":"여주송탄부대찌개","tel":"031-881-2237","addr":"경기도 여주시 교동 47-2번지","indutype":"일반휴게음식 - 일반한식","category":"restaurant"}]},{"lat":"37.287388034","long":"127.6298295","imageIndex":4,"items":[{"name":"우준아빠의 하누야","tel":"033-881-6685","addr":"경기도 여주시 교동 211번지","indutype":"일반휴게음식 - 일반한식","category":"restaurant"}]},{"lat":"37.279965853","long":"127.63619503","imageIndex":4,"items":[{"name":"육대장","tel":"031-881-6447","addr":"경기도 여주시 교동 100-3번지 1층","indutype":"일반휴게음식 - 일반한식","category":"restaurant"}]},{"lat":"37.277938375","long":"127.63791445","imageIndex":4,"items":[{"name":"정가네숯불갈비","tel":"031-885-3222","addr":"경기도 여주시 교동 12번지","indutype":"일반휴게음식 - 일반한식","category":"restaurant"}]},{"lat":"37.275331706","long":"127.62997755","imageIndex":4,"items":[{"name":"제비골가든","tel":"031-884-0009","addr":"경기도 여주시 교동 441-2번지","indutype":"일반휴게음식 - 일반한식","category":"restaurant"}]},{"lat":"37.272110173","long":"127.63766255","imageIndex":4,"items":[{"name":"주막","tel":"031-885-9889","addr":"경기도 여주시 교동 50-2번지","indutype":"일반휴게음식 - 일반한식","category":"restaurant"}]},{"lat":"37.277385635","long":"127.63849611","imageIndex":4,"items":[{"name":"주문진물회","tel":"031-883-9807","addr":"경기도 여주시 교동 15번지","indutype":"일반휴게음식 - 일반한식","category":"restaurant"}]},{"lat":"37.274584576","long":"127.63661222","imageIndex":4,"items":[{"name":"즐겨찾기","tel":"031-885-9734","addr":"경기도 여주시 교동 484-3번지","indutype":"일반휴게음식 - 스넥","category":"restaurant"}]},{"lat":"37.287218759","long":"127.62946724","imageIndex":4,"items":[{"name":"지중해 수산","tel":"031-111-1111","addr":"경기도 여주시 교동 210-1번지 1층","indutype":"일반휴게음식 - 일반한식","category":"restaurant"}]},{"lat":"37.276248657","long":"127.63713355","imageIndex":4,"items":[{"name":"학사반점","tel":"031-886-2222","addr":"경기도 여주시 교동 84-6번지","indutype":"일반휴게음식 - 중국식","category":"restaurant"}]}]