[{"lat":"37.45947083","long":"127.330637","imageIndex":17,"items":[{"name":"(빛날)농원","tel":"070-8256-7799","addr":"경기도 광주시 퇴촌면 관음리 511-4번지 청산빌라 204호","indutype":"문화.취미 - 화원","category":"other"}]},{"lat":"37.45841459","long":"127.3248342","imageIndex":17,"items":[{"name":"(주)가함사","tel":"02-6397-5335","addr":"경기도 광주시 퇴촌면 관음리 699-12번지","indutype":"용역 서비스 - 부동산 중개·임대","category":"other"},{"name":"부동산차트연구소","tel":"031-761-1358","addr":"경기도 광주시 퇴촌면 관음리 699-12번지 명성그린빌 2동 201호","indutype":"회원제형태 - 기타4","category":"other"}]},{"lat":"37.4457482","long":"127.3588286","imageIndex":17,"items":[{"name":"(주)에스더블유","tel":"031-797-7774","addr":"경기도 광주시 퇴촌면 관음리 110번지","indutype":"레져용품 - 스포츠·레져용품","category":"other"}]},{"lat":"37.46315967","long":"127.3259962","imageIndex":17,"items":[{"name":"GS25퇴촌정임점","tel":"","addr":"경기도 광주시 퇴촌면 관음리 666-15번지 1층","indutype":"유통업 영리 - 상품권전문판매","category":"other"},{"name":"GS25퇴촌정임점","tel":"","addr":"경기도 광주시 퇴촌면 관음리 666-15번지 1층","indutype":"유통업 영리 - 편 의 점","category":"other"},{"name":"PC테크","tel":"031-766-0960","addr":"경기도 광주시 퇴촌면 관음리 666-15번지 정임빌딩 1층 107호","indutype":"수리서비스 - 사무·통신기기수리","category":"other"}]},{"lat":"37.45838859","long":"127.3277502","imageIndex":17,"items":[{"name":"N service(엔서비스)","tel":"","addr":"경기도 광주시 퇴촌면 관음리 477-14번지 삼성그린빌","indutype":"용역 서비스 - 종합용역","category":"other"}]},{"lat":"37.44933305","long":"127.365129","imageIndex":17,"items":[{"name":"S.Y공조","tel":"","addr":"경기도 광주시 퇴촌면 관음리 96-13번지 1층","indutype":"용역 서비스 - 기타용역서비스","category":"other"}]},{"lat":"37.46086524","long":"127.3281452","imageIndex":17,"items":[{"name":"Studio-Sosim","tel":"070-8787-0917","addr":"경기도 광주시 퇴촌면 관음리 533-6번지 파크빌리지 A동 302호","indutype":"신변잡화 - 액세서리","category":"other"},{"name":"애드 유어스 (Add yours )","tel":"031-797-9182","addr":"경기도 광주시 퇴촌면 관음리 533-6번지 파크빌리지","indutype":"신변잡화 - 액세서리","category":"other"}]},{"lat":"37.4527252","long":"127.3328566","imageIndex":17,"items":[{"name":"글로리(Glory)","tel":"070-8161-6891","addr":"경기도 광주시 퇴촌면 관음리 269-2 청송빌리지 101-102 4/","indutype":"회원제형태 - 기타4","category":"other"}]},{"lat":"37.46502797","long":"127.3248061","imageIndex":17,"items":[{"name":"더펫(퇴촌점)","tel":"070-4119-7808","addr":"경기도 광주시 퇴촌면 관음리 569-8번지","indutype":"문화.취미 - 애완동물","category":"other"}]},{"lat":"37.4610812","long":"127.3282478","imageIndex":17,"items":[{"name":"동광센타","tel":"031-767-4980","addr":"경기도 광주시 퇴촌면 관음리 540-4번지","indutype":"수리서비스 - 기타수리서비스","category":"other"}]},{"lat":"37.44505418","long":"127.3559098","imageIndex":17,"items":[{"name":"두레수정벌","tel":"031-761-2032","addr":"경기도 광주시 퇴촌면 관음리 113 5/","indutype":"회원제형태 - 기타1","category":"other"}]},{"lat":"37.46338575","long":"127.325692","imageIndex":17,"items":[{"name":"뜨락","tel":"","addr":"경기도 광주시 퇴촌면 관음리 666-2번지 1층","indutype":"의류 - 정장","category":"other"}]},{"lat":"37.45861134","long":"127.3319105","imageIndex":17,"items":[{"name":"라경애드","tel":"031-765-3711","addr":"경기도 광주시 퇴촌면 관음리 507-11번지","indutype":"용역 서비스 - 종합용역","category":"other"},{"name":"엠캐슬공방","tel":"","addr":"경기도 광주시 퇴촌면 관음리 507-11번지 BY-US","indutype":"신변잡화 - 액세서리","category":"other"}]},{"lat":"37.45280312","long":"127.3403612","imageIndex":17,"items":[{"name":"라인씨스템","tel":"031-769-3265","addr":"경기도 광주시 퇴촌면 관음리 240번지 1층 102호","indutype":"주방용구 - 주방용구","category":"other"}]},{"lat":"37.45843463","long":"127.3306551","imageIndex":17,"items":[{"name":"람사운드","tel":"","addr":"경기도 광주시 퇴촌면 관음리 496-17번지 서울그린빌라","indutype":"용역 서비스 - 종합용역","category":"other"}]},{"lat":"37.45524929","long":"127.322549","imageIndex":17,"items":[{"name":"멍이네","tel":"031-763-5568","addr":"경기도 광주시 퇴촌면 관음리 722-3번지","indutype":"문화.취미 - 애완동물","category":"other"}]},{"lat":"37.4590824","long":"127.330997","imageIndex":17,"items":[{"name":"명동세탁","tel":"031-798-1223","addr":"경기도 광주시 퇴촌면 관음리 504-6번지","indutype":"수리서비스 - 세탁소","category":"other"}]},{"lat":"37.46424917","long":"127.3295275","imageIndex":17,"items":[{"name":"모두커뮤니케이션","tel":"070-8828-4566","addr":"경기도 광주시 퇴촌면 관음리 564번지","indutype":"용역 서비스 - 종합용역","category":"other"}]},{"lat":"37.44769548","long":"127.361437","imageIndex":17,"items":[{"name":"물아당","tel":"031-764-7644","addr":"경기도 광주시 퇴촌면 관음리 64-2번지","indutype":"회원제형태 - 기타4","category":"other"}]},{"lat":"37.46194006","long":"127.3271891","imageIndex":17,"items":[{"name":"미래철물열쇠전기","tel":"031-761-7714","addr":"경기도 광주시 퇴촌면 관음리 540-7번지","indutype":"기타 - 기계공구","category":"other"}]},{"lat":"37.44899895","long":"127.359443","imageIndex":17,"items":[{"name":"북대골농장","tel":"","addr":"경기도 광주시 퇴촌면 관음리 42번지 1층","indutype":"문화.취미 - 화원","category":"other"}]},{"lat":"37.46421619","long":"127.3251304","imageIndex":17,"items":[{"name":"블랙9","tel":"070-8161-2389","addr":"경기도 광주시 퇴촌면 관음리 574-1번지 가동 3호","indutype":"의류 - 정장","category":"other"},{"name":"패셔너블 드림(The fashionable dream)","tel":"","addr":"경기도 광주시 퇴촌면 관음리 574-1번지 2동 101,102호","indutype":"의류 - 정장","category":"other"}]},{"lat":"37.45419112","long":"127.3338237","imageIndex":17,"items":[{"name":"서진인터내셔날","tel":"02-846-1211","addr":"경기도 광주시 퇴촌면 관음리 288-9번지 풍경채 202호","indutype":"서적문구 - 과학기자재","category":"other"}]},{"lat":"37.46082818","long":"127.328518","imageIndex":17,"items":[{"name":"씨유광주천진암점","tel":"02-1577-8007","addr":"경기도 광주시 퇴촌면 관음리 531번지","indutype":"유통업 영리 - 편 의 점","category":"other"}]},{"lat":"37.45977456","long":"127.3315765","imageIndex":17,"items":[{"name":"애니멀리퍼블릭","tel":"031-768-8360","addr":"경기도 광주시 퇴촌면 관음리 509-7번지","indutype":"문화.취미 - 애완동물","category":"other"}]},{"lat":"37.4592998","long":"127.3305798","imageIndex":17,"items":[{"name":"와이티상사","tel":"031-797-4399","addr":"경기도 광주시 퇴촌면 관음리 511-1번지","indutype":"농업 - 농기계","category":"other"}]},{"lat":"37.45680369","long":"127.3339369","imageIndex":17,"items":[{"name":"우리솜씨","tel":"","addr":"경기도 광주시 퇴촌면 관음리 372-1번지","indutype":"문화.취미 - 민예·공예품","category":"other"}]},{"lat":"37.46252919","long":"127.3259144","imageIndex":17,"items":[{"name":"원경아트","tel":"031-764-1851","addr":"경기도 광주시 퇴촌면 관음리 668번지 1층","indutype":"서적문구 - 일반서적","category":"other"}]},{"lat":"37.45899861","long":"127.3319687","imageIndex":17,"items":[{"name":"유비스(Ubis)","tel":"031-767-7380","addr":"경기도 광주시 퇴촌면 관음리 507-14번지","indutype":"회원제형태 - 기타4","category":"other"}]},{"lat":"37.45788363","long":"127.3246059","imageIndex":17,"items":[{"name":"정인","tel":"031-768-5604","addr":"경기도 광주시 퇴촌면 관음리 700-1번지","indutype":"문화.취미 - 민예·공예품","category":"other"}]},{"lat":"37.45378956","long":"127.3324318","imageIndex":17,"items":[{"name":"제스트스냅","tel":"070-8811-2440","addr":"경기도 광주시 퇴촌면 관음리 270-8번지 그린하우스 A동 401호","indutype":"광학제품 - 사진관","category":"other"}]},{"lat":"37.45378072","long":"127.3387721","imageIndex":17,"items":[{"name":"주식회사 이엠씨","tel":"031-798-9911","addr":"경기도 광주시 퇴촌면 관음리 229-2번지 1층","indutype":"회원제형태 - 기타3","category":"other"}]},{"lat":"37.45535612","long":"127.3230241","imageIndex":17,"items":[{"name":"지산도천방","tel":"031-767-7477","addr":"경기도 광주시 퇴촌면 관음리 734-3번지","indutype":"주방용구 - 주방용식기","category":"other"}]},{"lat":"37.46053098","long":"127.3284715","imageIndex":17,"items":[{"name":"차도남에어컨","tel":"031-799-5032","addr":"경기도 광주시 퇴촌면 관음리 533-6번지 파크빌리지","indutype":"용역 서비스 - 기타용역서비스","category":"other"}]},{"lat":"37.4591351","long":"127.3249391","imageIndex":17,"items":[{"name":"캣츠미","tel":"070-4134-3825","addr":"경기도 광주시 퇴촌면 관음리 688-3번지","indutype":"문화.취미 - 애완동물","category":"other"}]},{"lat":"37.46366666","long":"127.3251054","imageIndex":17,"items":[{"name":"클린컴&홈&카","tel":"","addr":"경기도 광주시 퇴촌면 관음리 662-2번지 1층 2호 오늘부대찌개옆쪽방","indutype":"수리서비스 - 사무·통신기기수리","category":"other"}]},{"lat":"37.45367507","long":"127.3379014","imageIndex":17,"items":[{"name":"평화마을","tel":"070-4922-1261","addr":"경기도 광주시 퇴촌면 관음리 226-5번지 행운리버빌","indutype":"건축자재 - 인테리어전문","category":"other"}]},{"lat":"37.46425085","long":"127.3189702","imageIndex":17,"items":[{"name":"핌프리저브드플라워","tel":"031-1111-1111","addr":"경기도 광주시 퇴촌면 관음리 604-5번지 1층","indutype":"문화.취미 - 화원","category":"other"}]},{"lat":"37.46019302","long":"127.3301316","imageIndex":17,"items":[{"name":"해경가전","tel":"02-1566-4806","addr":"경기도 광주시 퇴촌면 관음리 512-1번지 숲속의궁전 궁전동 103호","indutype":"전기제품 - 냉열기기","category":"other"}]}]