[{"lat":"37.266600521","long":"127.03022095","imageIndex":17,"items":[{"name":"(유)엘케이우리투어","tel":"031-222-7688","addr":"경기도 수원시 팔달구 인계동 1034-16번지 317호","indutype":"여행 - 관광여행","category":"other"},{"name":"(주) 오토밴드","tel":"031-613-8509","addr":"경기도 수원시 팔달구 인계동 1034-16번지 606호","indutype":"기타 - 기계공구","category":"other"},{"name":"경기코퍼레이션","tel":"031-233-1979","addr":"경기도 수원시 팔달구 인계동 1034-16번지 603호","indutype":"서적문구 - 출판 및 인쇄물","category":"other"},{"name":"국제상사","tel":"032-426-7300","addr":"경기도 수원시 팔달구 인계동 1034-16번지 422-10호","indutype":"신변잡화 - 기타잡화","category":"other"},{"name":"동수원김샘 서적","tel":"031-237-2266","addr":"경기도 수원시 팔달구 인계동 1034-16번지 635-17호","indutype":"서적문구 - 일반서적","category":"other"},{"name":"디자인+디자인","tel":"031-222-1513","addr":"경기도 수원시 팔달구 인계동 1034-16번지 5층 511호","indutype":"용역 서비스 - 종합용역","category":"other"},{"name":"무풍공조","tel":"","addr":"경기도 수원시 팔달구 인계동 1034-16번지 6층 619호","indutype":"용역 서비스 - 기타용역서비스","category":"other"},{"name":"솜씨가꽃피는날에","tel":"031-236-2606","addr":"경기도 수원시 팔달구 인계동 1034-16번지 6층 619호","indutype":"회원제형태 - 사무서비스","category":"other"},{"name":"에이앤티스토리 주식회사","tel":"050-5325-3355","addr":"경기도 수원시 팔달구 인계동 1034-16번지 635-9호","indutype":"용역 서비스 - 종합용역","category":"other"},{"name":"에이피컴","tel":"031-893-8010","addr":"경기도 수원시 팔달구 인계동 1034-16번지 422-4호","indutype":"용역 서비스 - 소프트웨어","category":"other"},{"name":"장안김샘서적","tel":"031-268-2366","addr":"경기도 수원시 팔달구 인계동 1034-16번지 533-11호","indutype":"서적문구 - 일반서적","category":"other"},{"name":"주.피플인커뮤니케이션즈","tel":"062-529-3090","addr":"경기도 수원시 팔달구 인계동 1034-16번지 라임빌딩 622호","indutype":"용역 서비스 - 종합용역","category":"other"},{"name":"주식회사 디모션","tel":"031-1522-6704","addr":"경기도 수원시 팔달구 인계동 1034-16번지 417호","indutype":"용역 서비스 - 소프트웨어","category":"other"},{"name":"카인드바이럴","tel":"02-1661-2847","addr":"경기도 수원시 팔달구 인계동 1034-16번지 422-18호","indutype":"용역 서비스 - 종합용역","category":"other"}]},{"lat":"37.273852645","long":"127.034835","imageIndex":17,"items":[{"name":"(재)수원시청소년육성재단(장안문화의집)","tel":"031-218-0484","addr":"경기도 수원시 팔달구 인계동 333번지","indutype":"문화.취미 - 문화취미기타","category":"other"},{"name":"(재)수원시청소년육성재단(청소년수련팀)","tel":"031-218-0484","addr":"경기도 수원시 팔달구 인계동 333번지","indutype":"기타 - 기타 전문점","category":"other"},{"name":"(재)수원시청소년육성재단/권선청소년수련","tel":"031-218-0484","addr":"경기도 수원시 팔달구 인계동 333번지 수원청소년문화센터","indutype":"문화.취미 - 문화취미기타","category":"other"},{"name":"(주)수원시청소년육성재단(영통문화의집)","tel":"031-218-0484","addr":"경기도 수원시 팔달구 인계동 333번지","indutype":"문화.취미 - 문화취미기타","category":"other"},{"name":"인계프로테크","tel":"070-5142-1740","addr":"경기도 수원시 팔달구 인계동 333번지 새천년수영장 1층","indutype":"레져용품 - 스포츠·레져용품","category":"other"},{"name":"재단법인수원시청소년육성재단/광교수련관","tel":"031-218-0483","addr":"경기도 수원시 팔달구 인계동 333번지","indutype":"문화.취미 - 문화취미기타","category":"other"}]},{"lat":"37.265934437","long":"127.02710917","imageIndex":17,"items":[{"name":"(주)광선렌트카","tel":"031-334-8251","addr":"경기도 수원시 팔달구 인계동 1024-11 3층","indutype":"여행 - 렌터카","category":"other"},{"name":"(주)광선렌트카","tel":"031-334-8251","addr":"경기도 수원시 팔달구 인계동 1024-11 3층","indutype":"여행 - 렌터카","category":"other"},{"name":"보스펫","tel":"070-4064-0614","addr":"경기도 수원시 팔달구 인계동 1024-11번지 101호","indutype":"문화.취미 - 애완동물","category":"other"},{"name":"영신기획","tel":"031-235-4545","addr":"경기도 수원시 팔달구 인계동 1024-11번지","indutype":"용역 서비스 - 종합용역","category":"other"},{"name":"영신문화사","tel":"031-239-1847","addr":"경기도 수원시 팔달구 인계동 1024-11번지","indutype":"서적문구 - 문구용품","category":"other"},{"name":"자람교육","tel":"031-257-3403","addr":"경기도 수원시 팔달구 인계동 1024-11번지 302호","indutype":"회원제형태 - 서적","category":"other"},{"name":"자람에듀","tel":"031-257-3403","addr":"경기도 수원시 팔달구 인계동 1024-11번지 302호","indutype":"회원제형태 - 서적","category":"other"}]},{"lat":"37.276043186","long":"127.03069793","imageIndex":17,"items":[{"name":"(주)나라여행사","tel":"031-222-4888","addr":"경기도 수원시 팔달구 인계동 942-6번지 신용빌딩 2층","indutype":"여행 - 관광여행","category":"other"},{"name":"(주)엔,에스시스템","tel":"031-235-7492","addr":"경기도 수원시 팔달구 인계동 942-6번지 신용빌딩 4층","indutype":"기타 - 기타 전문점","category":"other"},{"name":"리사이클시티수원인계점중고가전가구재활용","tel":"031-275-8425","addr":"경기도 수원시 팔달구 인계동 942-6번지 1층","indutype":"전기제품 - 가전제품","category":"other"}]},{"lat":"37.265321224","long":"127.02949898","imageIndex":17,"items":[{"name":"(주)네오건축사사무소","tel":"031-238-9066","addr":"경기도 수원시 팔달구 인계동 1032-15번지 광봉빌딩 5호","indutype":"용역 서비스 - 법률회계서비스(법인)","category":"other"},{"name":"세종","tel":"031-232-8024","addr":"경기도 수원시 팔달구 인계동 1032-15번지","indutype":"전기제품 - 가전제품","category":"other"}]},{"lat":"37.274989314","long":"127.02925433","imageIndex":17,"items":[{"name":"(주)다간(수원지점)","tel":"02-929-6842","addr":"경기도 수원시 팔달구 인계동 955-1번지 동수원빌딩 309호","indutype":"전기제품 - 기타전기제품","category":"other"},{"name":"로마여행사","tel":"031-236-8277","addr":"경기도 수원시 팔달구 인계동 955-1번지 401호내414호","indutype":"여행 - 관광여행","category":"other"},{"name":"메디코코(주)","tel":"031-258-2090","addr":"경기도 수원시 팔달구 인계동 955-1번지 동수원빌딩 301호","indutype":"기타의료기관 - 기타의료기관 및 기타","category":"other"},{"name":"민기획","tel":"031-221-5467","addr":"경기도 수원시 팔달구 인계동 955-1번지 동수원빌딩 402호","indutype":"유통업 영리 - 기타유통업","category":"other"},{"name":"주영아트","tel":"070-7640-2341","addr":"경기도 수원시 팔달구 인계동 955-1번지 동수원빌딩 4층 413호","indutype":"문화.취미 - 화랑","category":"other"},{"name":"키움정보통신","tel":"02-1544-4326","addr":"경기도 수원시 팔달구 인계동 955-1번지 동수원빌딩 4층 411호","indutype":"사무통신 - 통신기기","category":"other"},{"name":"태평세무회계사무소","tel":"031-237-4624","addr":"경기도 수원시 팔달구 인계동 955-1번지 동수원빌딩 307호","indutype":"용역 서비스 - 법률회계서비스(개인)","category":"other"}]},{"lat":"37.265708411","long":"127.03061521","imageIndex":17,"items":[{"name":"(주)대용건축사사무소","tel":"031-232-2944","addr":"경기도 수원시 팔달구 인계동 1040-9번지","indutype":"용역 서비스 - 법률회계서비스(법인)","category":"other"},{"name":"(주)천지토건중기","tel":"031-355-0304","addr":"경기도 수원시 팔달구 인계동 1040-9번지 우진빌딩","indutype":"기타 - 기계공구","category":"other"},{"name":"강일중기(우신건기)","tel":"031-893-4256","addr":"경기도 수원시 팔달구 인계동 1040-9번지","indutype":"기타 - 기계공구","category":"other"},{"name":"대진건설중기(무신건기)","tel":"031-333-6672","addr":"경기도 수원시 팔달구 인계동 1040-9번지","indutype":"기타 - 기계공구","category":"other"},{"name":"삼육건설중기","tel":"031-352-3604","addr":"경기도 수원시 팔달구 인계동 1040-9번지 우진빌딩","indutype":"기타 - 기계공구","category":"other"},{"name":"우신건기","tel":"031-267-0433","addr":"경기도 수원시 팔달구 인계동 1040-9번지","indutype":"기타 - 기타 전문점","category":"other"},{"name":"우신건기주식회사","tel":"031-233-3503","addr":"경기도 수원시 팔달구 인계동 1040-9번지","indutype":"기타 - 기타 전문점","category":"other"},{"name":"유림중기","tel":"031-235-8201","addr":"경기도 수원시 팔달구 인계동 1040-9번지","indutype":"기타 - 기계공구","category":"other"},{"name":"유알아이포토","tel":"031-238-5133","addr":"경기도 수원시 팔달구 인계동 1040-9번지 302호.202호","indutype":"광학제품 - 사진관","category":"other"},{"name":"인계리치안공인중개사사무소","tel":"031-232-8850","addr":"경기도 수원시 팔달구 인계동 1040-9번지 우진빌딩 102호","indutype":"용역 서비스 - 부동산 중개·임대","category":"other"}]},{"lat":"37.27098927","long":"127.02680638","imageIndex":17,"items":[{"name":"(주)대진기획","tel":"031-239-0441","addr":"경기도 수원시 팔달구 인계동 964-14번지","indutype":"용역 서비스 - 종합용역","category":"other"}]},{"lat":"37.26398893","long":"127.02330941","imageIndex":17,"items":[{"name":"(주)도스퍼니처탈렌토","tel":"031-233-9881","addr":"경기도 수원시 팔달구 인계동 1009-4번지","indutype":"가구 - 철제가구","category":"other"},{"name":"월풀가전수원대리점","tel":"031-238-8833","addr":"경기도 수원시 팔달구 인계동 1009-4번지","indutype":"전기제품 - 가전제품","category":"other"}]},{"lat":"37.277458217","long":"127.02886055","imageIndex":17,"items":[{"name":"(주)도시와공간","tel":"031-668-9700","addr":"경기도 수원시 팔달구 인계동 206번지 한라시그마팰리스 101동 2306호","indutype":"건축자재 - 부동산 분양","category":"other"},{"name":"노동법률사무소서린","tel":"031-215-1115","addr":"경기도 수원시 팔달구 인계동 206번지 한라시그마팰리스 101동 1303호","indutype":"용역 서비스 - 법률회계서비스(개인)","category":"other"},{"name":"늘조은유통","tel":"031-235-3552","addr":"경기도 수원시 팔달구 인계동 206번지 한라시그마팰리스 101동 607호","indutype":"의류 - 정장","category":"other"},{"name":"동광사(미용가구수리)","tel":"031-753-2507","addr":"경기도 수원시 팔달구 인계동 206번지 한라시그마팰리스101 503호","indutype":"수리서비스 - 기타수리서비스","category":"other"},{"name":"케이에이치바이오","tel":"031-238-6261","addr":"경기도 수원시 팔달구 인계동 206번지 한라시그마팰리스 101동 313호","indutype":"서적문구 - 과학기자재","category":"other"},{"name":"코너스톤","tel":"031-235-3756","addr":"경기도 수원시 팔달구 인계동 206번지 한라시그마팰리스 101동 7층 702호","indutype":"용역 서비스 - 소프트웨어","category":"other"}]},{"lat":"37.275044912","long":"127.0210912","imageIndex":17,"items":[{"name":"(주)도시정보통신","tel":"031-236-6019","addr":"경기도 수원시 팔달구 인계동 755-9번지","indutype":"사무통신 - 통신기기","category":"other"},{"name":"골드티켓","tel":"031-237-9889","addr":"경기도 수원시 팔달구 인계동 755-9번지","indutype":"신변잡화 - 귀금속","category":"other"}]},{"lat":"37.275206058","long":"127.02692046","imageIndex":17,"items":[{"name":"(주)동원이엠에스씨","tel":"031-252-0705","addr":"경기도 수원시 팔달구 인계동 247-10번지","indutype":"서적문구 - 과학기자재","category":"other"}]},{"lat":"37.273872283","long":"127.02813773","imageIndex":17,"items":[{"name":"(주)둘로스","tel":"031-223-6684","addr":"경기도 수원시 팔달구 인계동 957번지 동부프라자 408호","indutype":"여행 - 관광여행","category":"other"},{"name":"경기정보통신","tel":"031-222-5535","addr":"경기도 수원시 팔달구 인계동 957번지 동부프라자 709호","indutype":"사무통신 - 통신기기","category":"other"},{"name":"북수원로타리클럽","tel":"031-232-5671","addr":"경기도 수원시 팔달구 인계동 957번지 동부프라자 4층 404호","indutype":"기타 - 비영리/비대상","category":"other"},{"name":"사람과사람들","tel":"","addr":"경기도 수원시 팔달구 인계동 957번지 동부프라자 305호","indutype":"기타 - 비영리/비대상","category":"other"},{"name":"조민기획","tel":"031-252-0555","addr":"경기도 수원시 팔달구 인계동 957번지 동부빌딩 1층","indutype":"서적문구 - 출판 및 인쇄물","category":"other"}]},{"lat":"37.261238172","long":"127.03508895","imageIndex":17,"items":[{"name":"(주)라온영","tel":"031-304-8771","addr":"경기도 수원시 팔달구 인계동 1122-10번지 삼호파크타워 523호","indutype":"용역 서비스 - 사무서비스","category":"other"},{"name":"(주)지앤비여행사","tel":"031-898-7711","addr":"경기도 수원시 팔달구 인계동 1122-10번지 삼호파트타워 613호","indutype":"여행 - 관광여행","category":"other"},{"name":"GS25인계예술점","tel":"","addr":"경기도 수원시 팔달구 인계동 1122-10번지 삼호파크타워 105호","indutype":"유통업 영리 - 편 의 점","category":"other"},{"name":"가나지게차","tel":"031-291-2088","addr":"경기도 수원시 팔달구 인계동 1122-10번지 삼호파크타워 410호","indutype":"기타 - 기계공구","category":"other"},{"name":"계백포장건설","tel":"070-7848-9302","addr":"경기도 수원시 팔달구 인계동 1122-10번지 삼호파크타워 410호","indutype":"기타 - 기계공구","category":"other"},{"name":"다섯손가락(ART MUSIC)","tel":"031-209-2293","addr":"경기도 수원시 팔달구 인계동 1122-10번지 삼호파크타워 502호","indutype":"서적문구 - 일반서적","category":"other"},{"name":"더블엠 프로덕션","tel":"031-305-7985","addr":"경기도 수원시 팔달구 인계동 1122-10번지 삼호파크타워 706호","indutype":"용역 서비스 - 종합용역","category":"other"},{"name":"도곡지게차","tel":"031-682-7800","addr":"경기도 수원시 팔달구 인계동 1122-10번지 삼호파크타워 410호","indutype":"기타 - 기계공구","category":"other"},{"name":"디올레드주식회사","tel":"02-521-6330","addr":"경기도 수원시 팔달구 인계동 1122-10번지 삼호파크타워 101호","indutype":"전기제품 - 기타전기제품","category":"other"},{"name":"디지탈영상","tel":"031-214-3352","addr":"경기도 수원시 팔달구 인계동 1122-10번지 삼호타워 523호","indutype":"광학제품 - 사진관","category":"other"},{"name":"맘스초이스(MamsChoice)","tel":"031-225-9870","addr":"경기도 수원시 팔달구 인계동 1122-10번지 삼호파크타워 706호","indutype":"의류 - 아동의류","category":"other"},{"name":"백두종합중기","tel":"031-282-6866","addr":"경기도 수원시 팔달구 인계동 1122-10번지 삼호파크타워 410호","indutype":"기타 - 기계공구","category":"other"},{"name":"벽산시스텍","tel":"031-890-4311","addr":"경기도 수원시 팔달구 인계동 1122-10번지 삼호타워 701호","indutype":"건축자재 - 기타건축자재","category":"other"},{"name":"병점건설중기","tel":"031-225-5755","addr":"경기도 수원시 팔달구 인계동 1122-10번지 삼호파크타워 401호","indutype":"기타 - 기계공구","category":"other"},{"name":"병점포장중기","tel":"031-221-0411","addr":"경기도 수원시 팔달구 인계동 1122-10번지 삼호파크타워 410호","indutype":"기타 - 기계공구","category":"other"},{"name":"블루밍골프투어","tel":"031-222-2622","addr":"경기도 수원시 팔달구 인계동 1122-10번지 삼호파크타워 719호","indutype":"여행 - 관광여행","category":"other"},{"name":"서신지게차","tel":"031-356-7037","addr":"경기도 수원시 팔달구 인계동 1122-10번지 삼호파크타워 410호","indutype":"기타 - 기계공구","category":"other"},{"name":"송설","tel":"031-8003-8181","addr":"경기도 수원시 팔달구 인계동 1122-10번지 삼호파크타워 720호","indutype":"건축자재 - 부동산 분양","category":"other"},{"name":"양신규세무회계사무소","tel":"031-222-9720","addr":"경기도 수원시 팔달구 인계동 1122-10번지 삼호파크타워 6층 605호","indutype":"용역 서비스 - 법률회계서비스(개인)","category":"other"},{"name":"엑스블루","tel":"031-1566-3699","addr":"경기도 수원시 팔달구 인계동 1122-10번지 삼호파크타워 204호","indutype":"신변잡화 - 기타잡화","category":"other"},{"name":"영포장건설","tel":"031-797-0821","addr":"경기도 수원시 팔달구 인계동 1122-10번지 삼호파크타워 410호","indutype":"용역 서비스 - 기타용역서비스","category":"other"},{"name":"우리미니중기","tel":"070-7126-4616","addr":"경기도 수원시 팔달구 인계동 1122-10번지 삼호파크타워 410호","indutype":"기타 - 기계공구","category":"other"},{"name":"운터","tel":"063-241-5789","addr":"경기도 수원시 팔달구 인계동 1122-10번지 삼호파크타워 1904호","indutype":"용역 서비스 - 정보서비스","category":"other"},{"name":"윤병국세무회계사무소","tel":"031-239-5220","addr":"경기도 수원시 팔달구 인계동 1122-10번지 삼호파크타워 607호","indutype":"용역 서비스 - 법률회계서비스(개인)","category":"other"},{"name":"인텍코포레이션","tel":"031-237-1411","addr":"경기도 수원시 팔달구 인계동 1122-10번지 삼호파크타워 715호","indutype":"서적문구 - 과학기자재","category":"other"},{"name":"인텍코포레이션/원격지","tel":"031-237-1411","addr":"경기도 수원시 팔달구 인계동 1122-10","indutype":"기타 - 기타 전문점","category":"other"},{"name":"정우종합중기(주)","tel":"031-34-4180","addr":"경기도 수원시 팔달구 인계동 1122-10번지 삼호파크타워 410호","indutype":"기타 - 기타 전문점","category":"other"},{"name":"제니스","tel":"031-221-2778","addr":"경기도 수원시 팔달구 인계동 1122-10번지 삼호파크타워 207호","indutype":"의류 - 맞춤복점","category":"other"},{"name":"칼라뱅크","tel":"070-9694-2242","addr":"경기도 수원시 팔달구 인계동 1122-10번지 삼호파크타워 611호","indutype":"용역 서비스 - 사무서비스","category":"other"},{"name":"티지삼보서비스동수원센타","tel":"031-225-3582","addr":"경기도 수원시 팔달구 인계동 1122-10번지 삼호파크타워 211호","indutype":"수리서비스 - 사무·통신기기수리","category":"other"},{"name":"합동4륜지게차","tel":"031-262-0104","addr":"경기도 수원시 팔달구 인계동 1122-10번지 삼호파크타워 410호","indutype":"기타 - 기계공구","category":"other"}]},{"lat":"37.276403565","long":"127.03083336","imageIndex":17,"items":[{"name":"(주)리싸이클오피스수원점","tel":"031-1600-5293","addr":"경기도 수원시 팔달구 인계동 942-3번지","indutype":"가구 - 기타가구","category":"other"}]},{"lat":"37.264238914","long":"127.03391779","imageIndex":17,"items":[{"name":"(주)메타젠바이오","tel":"031-898-6117","addr":"경기도 수원시 팔달구 인계동 1119-10번지 영성빌딩 4층","indutype":"서적문구 - 과학기자재","category":"other"},{"name":"유앤짐","tel":"031-8007-3330","addr":"경기도 수원시 팔달구 인계동 1119-10번지 2층","indutype":"레져용품 - 스포츠·레져용품","category":"other"}]},{"lat":"37.267213736","long":"127.02788748","imageIndex":17,"items":[{"name":"(주)명성,연합건축사사무소","tel":"031-239-7439","addr":"경기도 수원시 팔달구 인계동 1020-3번지","indutype":"용역 서비스 - 법률회계서비스(법인)","category":"other"},{"name":"주식회사 창희렌트카","tel":"031-232-9200","addr":"경기도 수원시 팔달구 인계동 1020-3번지 3층","indutype":"여행 - 렌터카","category":"other"}]},{"lat":"37.267015574","long":"127.02758302","imageIndex":17,"items":[{"name":"(주)미래디자인","tel":"031-222-2504","addr":"경기도 수원시 팔달구 인계동 1020-1번지 수일빌딩 1층 101호","indutype":"건축자재 - 인테리어전문","category":"other"}]},{"lat":"37.276122782","long":"127.03647087","imageIndex":17,"items":[{"name":"(주)수원벤더/삼원FA(담배)","tel":"070-7524-5602","addr":"경기도 수원시 팔달구 인계동 163번지 선경 상가동","indutype":"기타 - 기타 전문점","category":"other"},{"name":"명유샵","tel":"031-211-1532","addr":"경기도 수원시 팔달구 인계동 163번지 선경1차아파트","indutype":"신변잡화 - 기타잡화","category":"other"},{"name":"선우쏠라에너지","tel":"031-217-5631","addr":"경기도 수원시 팔달구 인계동 163번지 상가동2층 203호","indutype":"용역 서비스 - 기타용역서비스","category":"other"},{"name":"수원누수","tel":"031-221-6404","addr":"경기도 수원시 팔달구 인계동 163번지 선경1차아파트 2층 204호","indutype":"용역 서비스 - 기타용역서비스","category":"other"},{"name":"타임스튜디오","tel":"031-214-5165","addr":"경기도 수원시 팔달구 인계동 163 선경상가2층107","indutype":"광학제품 - 사진관","category":"other"}]},{"lat":"37.26745665","long":"127.0295561","imageIndex":17,"items":[{"name":"(주)수원측량설계공사","tel":"031-898-0239","addr":"경기도 수원시 팔달구 인계동 1035번지 3층","indutype":"기타 - 기타 전문점","category":"other"},{"name":"(주)지온씨앤에스","tel":"0070-7510-2043","addr":"경기도 수원시 팔달구 인계동 1035번지 비와이씨빌딩 3층","indutype":"별도관리 - 자체물품대금","category":"other"},{"name":"그린비통신","tel":"0002-0877-9017","addr":"경기도 수원시 팔달구 인계동 1035번지 비와이씨사옥 3층","indutype":"별도관리 - 자체물품대금","category":"other"},{"name":"주식회사그린비통신","tel":"070-7101-0314","addr":"경기도 수원시 팔달구 인계동 1035번지 비와이씨사옥 3층","indutype":"사무통신 - 통신기기","category":"other"},{"name":"주식회사그린비통신","tel":"02-971-7018","addr":"경기도 수원시 팔달구 인계동 1035번지 비와이씨사옥 3층","indutype":"사무통신 - 통신기기","category":"other"},{"name":"주식회사그린비통신","tel":"031-932-8867","addr":"경기도 수원시 팔달구 인계동 1035번지 비와이씨사옥 3층","indutype":"사무통신 - 통신기기","category":"other"}]},{"lat":"37.267403072","long":"127.02731257","imageIndex":17,"items":[{"name":"(주)아롱엘텍","tel":"031-232-5180","addr":"경기도 수원시 팔달구 인계동 1017번지 수원센터 1003호","indutype":"전기제품 - 가전제품","category":"other"},{"name":"하진전자통신","tel":"031-239-5421","addr":"경기도 수원시 팔달구 인계동 1017번지 수원센터 905호","indutype":"기타 - 기타 전문점","category":"other"}]},{"lat":"37.266879443","long":"127.03188958","imageIndex":17,"items":[{"name":"(주)아이엠씨","tel":"031-224-1382","addr":"경기도 수원시 팔달구 인계동 1036-6번지 인계오피앙오피스텔 1413호","indutype":"기타 - 기타 전문점","category":"other"},{"name":"경남기획","tel":"031-253-3343","addr":"경기도 수원시 팔달구 인계동 1036-6번지 인계오피앙오피스텔 210호","indutype":"용역 서비스 - 종합용역","category":"other"},{"name":"스텝마이크로(step micro)","tel":"031-224-7240","addr":"경기도 수원시 팔달구 인계동 1036-6번지 오피앙 1315호","indutype":"전기제품 - 기타전기제품","category":"other"},{"name":"스텝마이크로(step micro)/원격지","tel":"031-274-7241","addr":"경기도 수원시 팔달구 인계동 1036-6번지 오피앙 1315호","indutype":"기타 - 기타 전문점","category":"other"},{"name":"씨유인계오피앙점","tel":"031-221-4847","addr":"경기도 수원시 팔달구 인계동 1036-6번지 인계오피앙오피스텔 102호","indutype":"유통업 영리 - 편 의 점","category":"other"},{"name":"아이폰놀이터 수원지점","tel":"070-4116-7788","addr":"경기도 수원시 팔달구 인계동 1036-6번지 인계오피앙오피스텔 210호","indutype":"신변잡화 - 기타잡화","category":"other"},{"name":"위드유","tel":"070-7487-2572","addr":"경기도 수원시 팔달구 인계동 1036-6번지 인계오피앙오피스텔 202호 201","indutype":"회원제형태 - 기타4","category":"other"},{"name":"위드유결혼정보회사","tel":"02-1599-2089","addr":"경기도 수원시 팔달구 인계동 1036-6번지 인계오피앙오피스텔 203호","indutype":"용역 서비스 - 혼례서비스","category":"other"},{"name":"주식회사 엑스코리아","tel":"031-221-9987","addr":"경기도 수원시 팔달구 인계동 1036-6번지 인계오피앙오피스텔 2층 202호","indutype":"전기제품 - 기타전기제품","category":"other"},{"name":"창광","tel":"031-237-0005","addr":"경기도 수원시 팔달구 인계동 1036-6번지 인계오피앙 208호","indutype":"회원제형태 - 기타1","category":"other"},{"name":"케인카운셀링센터","tel":"031-221-0655","addr":"경기도 수원시 팔달구 인계동 1036-6번지 인계오피앙오피스텔 1동 1층 105호","indutype":"의류 - 정장","category":"other"}]},{"lat":"37.265681162","long":"127.03152837","imageIndex":17,"items":[{"name":"(주)아이웍스","tel":"031-231-9200","addr":"경기도 수원시 팔달구 인계동 1040-3번지 신일빌딩 2층","indutype":"사무통신 - 사무용 OA기기","category":"other"},{"name":"이지라인","tel":"031-212-0026","addr":"경기도 수원시 팔달구 인계동 1040-3번지","indutype":"사무통신 - 통신기기","category":"other"}]},{"lat":"37.264484829","long":"127.02128031","imageIndex":17,"items":[{"name":"(주)애드아트","tel":"031-222-0904","addr":"경기도 수원시 팔달구 인계동 1008-17번지 광명빌딩 101호","indutype":"용역 서비스 - 종합용역","category":"other"},{"name":"21세기냉동","tel":"031-238-6881","addr":"경기도 수원시 팔달구 인계동 1008-17번지 광명빌딩 1층 102호","indutype":"전기제품 - 가전제품","category":"other"},{"name":"아진건설","tel":"031-233-7734","addr":"경기도 수원시 팔달구 인계동 1008-17번지","indutype":"건축자재 - 페인트","category":"other"},{"name":"애드아트","tel":"031-232-3210","addr":"경기도 수원시 팔달구 인계동 1008-17번지 광명빌딩 101호","indutype":"건축자재 - 인테리어전문","category":"other"},{"name":"오백제가구","tel":"031-238-2518","addr":"경기도 수원시 팔달구 인계동 1008-17번지","indutype":"가구 - 일반가구","category":"other"},{"name":"오케이비즈메카","tel":"031-232-2773","addr":"경기도 수원시 팔달구 인계동 1008-17번지","indutype":"사무통신 - 통신기기","category":"other"}]},{"lat":"37.265158271","long":"127.03272317","imageIndex":17,"items":[{"name":"(주)앤드엠에이치(And MH)","tel":"","addr":"경기도 수원시 팔달구 인계동 1038-3번지 6층 645호","indutype":"문화.취미 - 애완동물","category":"other"},{"name":"JAJU/(주)신세계인터내셔날","tel":"031-6979-1923","addr":"경기도 수원시 팔달구 인계동 1038-3번지 1층","indutype":"의류 - 기타의류","category":"other"},{"name":"경희 외국어번역 행정사사무소","tel":"","addr":"경기도 수원시 팔달구 인계동 1038-3번지 6층 625호","indutype":"용역 서비스 - 법률회계서비스(개인)","category":"other"},{"name":"김혁수세무회계사무소","tel":"031-221-7070","addr":"경기도 수원시 팔달구 인계동 1038-3번지 남현프라자 402호","indutype":"용역 서비스 - 법률회계서비스(개인)","category":"other"},{"name":"늘 (NEUL)","tel":"031-232-3400","addr":"경기도 수원시 팔달구 인계동 1038-3번지 6층 6902호","indutype":"가구 - 기타가구","category":"other"},{"name":"더블랙(THE BLACK)","tel":"","addr":"경기도 수원시 팔달구 인계동 1038-3번지 6층 666호","indutype":"용역 서비스 - 혼례서비스","category":"other"},{"name":"동일드방레(수원점)","tel":"031-221-8395","addr":"경기도 수원시 팔달구 인계동 1038-3번지 남현빌딩 1층","indutype":"레져용품 - 스포츠·레져용품","category":"other"},{"name":"디비랩301","tel":"","addr":"경기도 수원시 팔달구 인계동 1038-3번지 6층 671호","indutype":"용역 서비스 - 소프트웨어","category":"other"},{"name":"르호봇 수원시청 비즈니스센터","tel":"031-232-3400","addr":"경기도 수원시 팔달구 인계동 1038-3번지 6층","indutype":"용역 서비스 - 사무서비스","category":"other"},{"name":"비지테크","tel":"","addr":"경기도 수원시 팔달구 인계동 1038-3번지 6층 650호","indutype":"용역 서비스 - 종합용역","category":"other"},{"name":"유네스코투어 (주)","tel":"031-233-0639","addr":"경기도 수원시 팔달구 인계동 1038-3번지 6층 615호","indutype":"여행 - 관광여행","category":"other"},{"name":"테이크미디어(Takemedia)","tel":"031-8025-2255","addr":"경기도 수원시 팔달구 인계동 1038-3번지 6층 603호","indutype":"용역 서비스 - 종합용역","category":"other"}]},{"lat":"37.260410072","long":"127.03180819","imageIndex":17,"items":[{"name":"(주)여행하우스","tel":"031-898-8841","addr":"경기도 수원시 팔달구 인계동 1125-2번지 벽산그랜드코아 203호","indutype":"여행 - 관광여행","category":"other"},{"name":"LOCK&LOCK PLUS 수원 인계점","tel":"031-221-5014","addr":"경기도 수원시 팔달구 인계동 1125-2번지 벽산그랜드코아 1층 105-1호","indutype":"주방용구 - 주방용구","category":"other"},{"name":"모던결혼정보","tel":"031-234-1913","addr":"경기도 수원시 팔달구 인계동 1125-2번지 벽산그랜드코아 212호","indutype":"용역 서비스 - 혼례서비스","category":"other"},{"name":"보니드","tel":"031-232-7565","addr":"경기도 수원시 팔달구 인계동 1125-2번지 벽산그랜드코아 103호","indutype":"신변잡화 - 귀금속","category":"other"},{"name":"블리스(BLISS)","tel":"070-2782-0117","addr":"경기도 수원시 팔달구 인계동 1125-2번지 벽산그랜드코아 204호","indutype":"회원제형태 - 기타4","category":"other"},{"name":"세무사임태호사무소","tel":"031-236-0220","addr":"경기도 수원시 팔달구 인계동 1125-2번지 벽산그랜드코아 408호","indutype":"용역 서비스 - 법률회계서비스(개인)","category":"other"},{"name":"스마일에스테틱","tel":"031-890-6111","addr":"경기도 수원시 팔달구 인계동 1125-2번지 벽산그랜드코아 205호","indutype":"회원제형태 - 기타4","category":"other"},{"name":"아이엔텍","tel":"070-8803-8144","addr":"경기도 수원시 팔달구 인계동 1125-2번지 벽산그랜드코아 303호","indutype":"사무통신 - 통신기기","category":"other"},{"name":"아프리카폰수원점","tel":"031-221-7929","addr":"경기도 수원시 팔달구 인계동 1125-2번지 벽산그랜드코아 106호","indutype":"사무통신 - 통신기기","category":"other"},{"name":"유니테크","tel":"031-225-1920","addr":"경기도 수원시 팔달구 인계동 1125-2번지 벽산그랜드코아 219호","indutype":"사무통신 - 컴퓨터","category":"other"},{"name":"이명길메디컨설팅","tel":"031-308-7424","addr":"경기도 수원시 팔달구 인계동 1125-2번지 벽산그랜드코아 501-2, 501-3호","indutype":"용역 서비스 - 사무서비스","category":"other"},{"name":"캐드텍","tel":"031-221-0052","addr":"경기도 수원시 팔달구 인계동 1125-2번지 벽산그랜드코아 408호","indutype":"전기제품 - 기타전기제품","category":"other"},{"name":"해법수학 수원지사","tel":"031-221-9493","addr":"경기도 수원시 팔달구 인계동 1125-2번지 벽산그랜드코아빌딩 214호","indutype":"회원제형태 - 서적","category":"other"},{"name":"홍문사","tel":"031-239-7288","addr":"경기도 수원시 팔달구 인계동 1125-2벽산그랜드코아지하1층","indutype":"서적문구 - 문구용품","category":"other"},{"name":"화정예가","tel":"031-223-0094","addr":"경기도 수원시 팔달구 인계동 1125-2번지","indutype":"회원제형태 - 기타4","category":"other"},{"name":"힐링비선","tel":"031-224-5397","addr":"경기도 수원시 팔달구 인계동 1125-2번지 벽산그랜드코아 4층 413호","indutype":"회원제형태 - 기타4","category":"other"}]},{"lat":"37.272908171","long":"127.02819378","imageIndex":17,"items":[{"name":"(주)영일전기통신","tel":"031-253-5915","addr":"경기도 수원시 팔달구 인계동 959-6번지","indutype":"사무통신 - 기타 사무용품","category":"other"},{"name":"송죽화원","tel":"031-234-1431","addr":"경기도 수원시 팔달구 인계동 959-6번지","indutype":"문화.취미 - 화원","category":"other"}]},{"lat":"37.265321008","long":"127.03044596","imageIndex":17,"items":[{"name":"(주)예감","tel":"031-223-0088","addr":"경기도 수원시 팔달구 인계동 1041번지 대흥빌딩 5층","indutype":"용역 서비스 - 종합용역","category":"other"}]},{"lat":"37.266988817","long":"127.02623015","imageIndex":17,"items":[{"name":"(주)우리홈","tel":"031-238-4317","addr":"경기도 수원시 팔달구 인계동 979-4번지","indutype":"가구 - 일반가구","category":"other"}]},{"lat":"37.265681729","long":"127.02908198","imageIndex":17,"items":[{"name":"(주)원일건축사사무소","tel":"031-224-3521","addr":"경기도 수원시 팔달구 인계동 1032-2번지","indutype":"용역 서비스 - 법률회계서비스(법인)","category":"other"}]},{"lat":"37.267908201","long":"127.02447169","imageIndex":17,"items":[{"name":"(주)웰필드","tel":"031-232-2851","addr":"경기도 수원시 팔달구 인계동 983-11번지","indutype":"레져용품 - 스포츠·레져용품","category":"other"},{"name":"에스비(SB)스포츠","tel":"070-8882-7619","addr":"경기도 수원시 팔달구 인계동 983-11번지","indutype":"레져용품 - 스포츠·레져용품","category":"other"},{"name":"유비스포","tel":"070-7585-5894","addr":"경기도 수원시 팔달구 인계동 983-11번지 1층","indutype":"레져용품 - 스포츠·레져용품","category":"other"},{"name":"크린토피아 인계점","tel":"031-232-5894","addr":"경기도 수원시 팔달구 인계동 983-11번지 엘림빌딩 1층","indutype":"수리서비스 - 세탁소","category":"other"}]},{"lat":"37.271485023","long":"127.02585947","imageIndex":17,"items":[{"name":"(주)유성소방전기","tel":"031-224-4400","addr":"경기도 수원시 팔달구 인계동 969-9번지","indutype":"용역 서비스 - 기타용역서비스","category":"other"}]},{"lat":"37.264186836","long":"127.02509066","imageIndex":17,"items":[{"name":"(주)이노테크","tel":"02-866-7255","addr":"경기도 수원시 팔달구 인계동 994-8번지 권선빌딩 401호","indutype":"전기제품 - 기타전기제품","category":"other"},{"name":"주식회사신도건설","tel":"031-296-1573","addr":"경기도 수원시 팔달구 인계동 994-8번지 5층","indutype":"용역 서비스 - 기타용역서비스","category":"other"},{"name":"주식회사한스통상","tel":"031-212-7225","addr":"경기도 수원시 팔달구 인계동 994-8번지","indutype":"건축자재 - 기타건축자재","category":"other"},{"name":"피에스티 주식회사","tel":"031-111-1111","addr":"경기도 수원시 팔달구 인계동 994-8번지 동일빌딩 405호","indutype":"전기제품 - 가전제품","category":"other"}]},{"lat":"37.270430776","long":"127.02608464","imageIndex":17,"items":[{"name":"(주)이우그린","tel":"031-223-1881","addr":"경기도 수원시 팔달구 인계동 971-5번지 6층","indutype":"건축자재 - 인테리어전문","category":"other"},{"name":"씨씨티브이협동조합","tel":"031-1877-6620","addr":"경기도 수원시 팔달구 인계동 971-5번지 도일빌딩 3층","indutype":"전기제품 - 기타전기제품","category":"other"},{"name":"유신디자인","tel":"031-221-6404","addr":"경기도 수원시 팔달구 인계동 971-5번지 도일빌딩 2층","indutype":"건축자재 - 인테리어전문","category":"other"},{"name":"피엔(PN)정보통신","tel":"031-223-4576","addr":"경기도 수원시 팔달구 인계동 971-5번지 도일빌딩 4층","indutype":"사무통신 - 통신기기","category":"other"}]},{"lat":"37.25785084","long":"127.03303592","imageIndex":17,"items":[{"name":"(주)조이박스","tel":"031-238-0700","addr":"경기도 수원시 팔달구 인계동 1134-3번지 동양파라곤1단지 101동 202호","indutype":"수리서비스 - 세탁소","category":"other"},{"name":"건강채널","tel":"031-237-1666","addr":"경기도 수원시 팔달구 인계동 1134-3번지 동양파라곤1단지 101동 8층 801호","indutype":"신변잡화 - 기타잡화","category":"other"},{"name":"건강채널","tel":"031-267-1666","addr":"경기도 수원시 팔달구 인계동 1134-3번지 동양파라곤오피스텔 101동 8층 801호","indutype":"신변잡화 - 기타잡화","category":"other"},{"name":"에이티에스코리아","tel":"031-236-9780","addr":"경기도 수원시 팔달구 인계동 1134-3번지 동양파라곤오피스텔 101동 303호","indutype":"서적문구 - 과학기자재","category":"other"},{"name":"에이티에스코리아/원격지","tel":"031-236-9780","addr":"경기도 수원시 팔달구 인계동 1134-3번지 동양파라곤오피스텔 101동 303호","indutype":"기타 - 기타 전문점","category":"other"}]},{"lat":"37.262130549","long":"127.03374783","imageIndex":17,"items":[{"name":"(주)지지에이(GGA)","tel":"070-8886-0100","addr":"경기도 수원시 팔달구 인계동 1123-18번지 3층","indutype":"사무통신 - 통신기기","category":"other"}]},{"lat":"37.266708732","long":"127.02983768","imageIndex":17,"items":[{"name":"(주)케이씨에이","tel":"070-7789-0383","addr":"경기도 수원시 팔달구 인계동 1034-3번지 드라마시티 808호","indutype":"서적문구 - 출판 및 인쇄물","category":"other"},{"name":"Outlet24편의점","tel":"031-226-5751","addr":"경기도 수원시 팔달구 인계동 1034-3번지 외1필지 드라마시티 106호","indutype":"유통업 영리 - 편 의 점","category":"other"},{"name":"더씨티공인중개사사무소","tel":"031-223-0277","addr":"경기도 수원시 팔달구 인계동 1034-3번지 드라마시티 2층 205호","indutype":"용역 서비스 - 부동산 중개·임대","category":"other"},{"name":"드라마시티공인중개사사무소","tel":"031-222-1201","addr":"경기도 수원시 팔달구 인계동 1034-3번지 외1필지 드라마시티 107호","indutype":"용역 서비스 - 부동산 중개·임대","category":"other"},{"name":"맥간아트","tel":"070-7721-0651","addr":"경기도 수원시 팔달구 인계동 1034-3번지 드라마시티 2층 204호","indutype":"문화.취미 - 민예·공예품","category":"other"},{"name":"주식회사 엠엔씨렌트카","tel":"031-224-1184","addr":"경기도 수원시 팔달구 인계동 1034-3번지 드라마시티 418호","indutype":"여행 - 렌터카","category":"other"},{"name":"주식회사엠앤씨렌트카","tel":"031-224-1184","addr":"경기도 수원시 팔달구 인계동 1034-3번지 드라마시티 418호","indutype":"여행 - 렌터카","category":"other"}]},{"lat":"37.26368085","long":"127.03164034","imageIndex":17,"items":[{"name":"(주)크리아텍","tel":"031-222-0767","addr":"경기도 수원시 팔달구 인계동 1113-9번지 용하빌딩 6층 103-1","indutype":"기타 - 기계공구","category":"other"},{"name":"놀숲인계동점","tel":"031-235-8005","addr":"경기도 수원시 팔달구 인계동 1113-9번지 용화빌딩 4층","indutype":"서적문구 - 일반서적","category":"other"},{"name":"문화짱","tel":"","addr":"경기도 수원시 팔달구 인계동 1113-9번지 용화빌딩 6층","indutype":"서적문구 - 출판 및 인쇄물","category":"other"}]},{"lat":"37.260283296","long":"127.03428818","imageIndex":17,"items":[{"name":"(주)탭인터내셔널","tel":"031-890-1369","addr":"경기도 수원시 팔달구 인계동 1127-1번지 한화꿈에그린파크 101동 1001호","indutype":"용역 서비스 - 사무서비스","category":"other"},{"name":"덕천","tel":"031-890-1369","addr":"경기도 수원시 팔달구 인계동 1127-1번지 한화꿈에그린파크 101동 1001호","indutype":"문화.취미 - 화원","category":"other"}]},{"lat":"37.267682877","long":"127.02483239","imageIndex":17,"items":[{"name":"(주)특급","tel":"031-234-1979","addr":"경기도 수원시 팔달구 인계동 982-2번지 성엽빌딩 2층 202호","indutype":"건축자재 - 기타건축자재","category":"other"},{"name":"경기수원우만자활후견기관","tel":"031-231-9208","addr":"경기도 수원시 팔달구 인계동 982-2번지 성엽빌딩 8층","indutype":"기타 - 기타 전문점","category":"other"},{"name":"세민빌딩","tel":"031-267-1363","addr":"경기도 수원시 팔달구 인계동 982-2번지","indutype":"용역 서비스 - 부동산 중개·임대","category":"other"}]},{"lat":"37.265319668","long":"127.03569947","imageIndex":17,"items":[{"name":"(주)팝그린","tel":"031-223-3186","addr":"경기도 수원시 팔달구 인계동 1115번지 장원빌딩 401호","indutype":"회원제형태 - 기타4","category":"other"},{"name":"비움행정사합동사무소","tel":"031-8067-5770","addr":"경기도 수원시 팔달구 인계동 1115번지 2층","indutype":"용역 서비스 - 법률회계서비스(개인)","category":"other"}]},{"lat":"37.274963613","long":"127.02238781","imageIndex":17,"items":[{"name":"(주)하나고속관광","tel":"031-222-1117","addr":"경기도 수원시 팔달구 인계동 750-49번지","indutype":"여행 - 관광여행","category":"other"}]},{"lat":"37.262104068","long":"127.03156083","imageIndex":17,"items":[{"name":"(주)하나골드클럽","tel":"031-898-8845","addr":"경기도 수원시 팔달구 인계동 1046-19번지 수원프라자 1607호","indutype":"여행 - 관광여행","category":"other"},{"name":"네일메이드와이에이치","tel":"","addr":"경기도 수원시 팔달구 인계동 1046-19번지 수원프라자 602호","indutype":"문화.취미 - 문화취미기타","category":"other"},{"name":"버딩스바이오(buddings-bio)","tel":"031-305-9955","addr":"경기도 수원시 팔달구 인계동 1046-19번지 수원프라자 13층 6호","indutype":"서적문구 - 과학기자재","category":"other"},{"name":"스윗그린","tel":"","addr":"경기도 수원시 팔달구 인계동 1046-19번지 수원프라자 7층 707호","indutype":"문화.취미 - 문화취미기타","category":"other"},{"name":"아이픽스존 수원시청점 아이폰수리센터","tel":"070-7622-3154","addr":"경기도 수원시 팔달구 인계동 1046-19번지 수원프라자 1607호","indutype":"수리서비스 - 사무·통신기기수리","category":"other"},{"name":"아임스타 에스테틱","tel":"070-4739-1580","addr":"경기도 수원시 팔달구 인계동 1046-19번지 수원프라자 402호","indutype":"회원제형태 - 기타4","category":"other"},{"name":"아틀리에 라벨라(Atelier La''bella)","tel":"070-4238-8178","addr":"경기도 수원시 팔달구 인계동 1046-19번지 수원프라자 8층 808호","indutype":"신변잡화 - 기타잡화","category":"other"},{"name":"애플아이픽스","tel":"031-306-3177","addr":"경기도 수원시 팔달구 인계동 1046-19번지 수원프라자 602호","indutype":"수리서비스 - 사무·통신기기수리","category":"other"},{"name":"제이에스제이 디자인 인테리어","tel":"031-308-2200","addr":"경기도 수원시 팔달구 인계동 1046-19번지 수원프라자 1101호","indutype":"건축자재 - 인테리어전문","category":"other"},{"name":"주식회사에프원인터내셔널","tel":"031-225-5412","addr":"경기도 수원시 팔달구 인계동 1046-19번지 수원프라자 702호","indutype":"신변잡화 - 시계","category":"other"},{"name":"중고폰 매입판매 소녀폰 수원시청역점","tel":"031-222-2636","addr":"경기도 수원시 팔달구 인계동 1046-19번지 수원프라자 1002호","indutype":"사무통신 - 통신기기","category":"other"},{"name":"청사초롱 결혼정보 상담소","tel":"031-213-9954","addr":"경기도 수원시 팔달구 인계동 1046-19번지 수원프라자 1202호","indutype":"용역 서비스 - 혼례서비스","category":"other"},{"name":"치엘로스트링","tel":"","addr":"경기도 수원시 팔달구 인계동 1046-19번지 수원프라자 1608호","indutype":"레져용품 - 악기점","category":"other"},{"name":"피엔제이투어주식회사","tel":"031-236-9430","addr":"경기도 수원시 팔달구 인계동 1046-19번지 수원프라자오피스텔 605호","indutype":"여행 - 관광여행","category":"other"}]},{"lat":"37.263574005","long":"127.02577816","imageIndex":17,"items":[{"name":"(주)하이크루즈","tel":"031-1577-2106","addr":"경기도 수원시 팔달구 인계동 1015-3번지 마라톤빌딩 1207호","indutype":"여행 - 관광여행","category":"other"},{"name":"글로벌.CO","tel":"031-234-5203","addr":"경기도 수원시 팔달구 인계동 1015-3번지 삼호마라톤빌딩 1209호","indutype":"사무통신 - 기타 사무용품","category":"other"},{"name":"다올","tel":"070-7648-0709","addr":"경기도 수원시 팔달구 인계동 1015-3번지 DSD빌딩 3층 301호","indutype":"용역 서비스 - 소프트웨어","category":"other"},{"name":"셩스토이","tel":"","addr":"경기도 수원시 팔달구 인계동 1015-3번지 마라톤빌딩 3층 310호","indutype":"신변잡화 - 기타잡화","category":"other"},{"name":"주식회사 더로프","tel":"070-4001-4151","addr":"경기도 수원시 팔달구 인계동 1015-3번지 디에스빌딩 경기여성경제인협회 3층 308호","indutype":"의류 - 아동의류","category":"other"},{"name":"채림","tel":"031-222-4746","addr":"경기도 수원시 팔달구 인계동 1015-3번지 DSD빌딩 3층 303호","indutype":"서적문구 - 문구용품","category":"other"},{"name":"푸드스토리(Food Story)","tel":"031-221-0524","addr":"경기도 수원시 팔달구 인계동 1015-3번지 마라톤빌딩 (재)여성기업종합지원센터 경기센터 302호","indutype":"용역 서비스 - 사무서비스","category":"other"},{"name":"향기로 디자인하는 사람들","tel":"031-226-0845","addr":"경기도 수원시 팔달구 인계동 1015-3번지 마라톤빌딩 308호","indutype":"신변잡화 - 기타잡화","category":"other"},{"name":"혜성글씨공방","tel":"031-111-1111","addr":"경기도 수원시 팔달구 인계동 1015-3번지 DSD빌딩 310호","indutype":"문화.취미 - 문화취미기타","category":"other"}]},{"lat":"37.263103637","long":"127.03383841","imageIndex":17,"items":[{"name":"(주)한국온라인꽃배달네트워크/비씨","tel":"031-1666-3651","addr":"경기도 수원시 팔달구 인계동 1123-24번지 학영빌딩 2층","indutype":"별도관리 - 자체물품대금","category":"other"},{"name":"윤종신꽃배달365/에코머니","tel":"","addr":"경기도 수원시 팔달구 인계동 1123-24번지","indutype":"유통업 영리 - 통신판매업1","category":"other"}]},{"lat":"37.262707798","long":"127.03139196","imageIndex":17,"items":[{"name":"(주)한솔조경","tel":"070-4922-1261","addr":"경기도 수원시 팔달구 인계동 1046-6번지 두성플러스빌 603호","indutype":"건축자재 - 인테리어전문","category":"other"}]},{"lat":"37.274351121","long":"127.02109104","imageIndex":17,"items":[{"name":"(주)한여행","tel":"031-307-9202","addr":"경기도 수원시 팔달구 인계동 754-1번지 (2001아울렛6층)","indutype":"여행 - 관광여행","category":"other"},{"name":"뉴코아수원문화센타","tel":"031-230-5800","addr":"경기도 수원시 팔달구 인계동 754-1번지","indutype":"기타 - 비영리/비대상","category":"other"},{"name":"블록피아","tel":"031-230-7557","addr":"경기도 수원시 팔달구 인계동 754-1번지 (2001아울렛7층)","indutype":"서적문구 - 완구점","category":"other"}]},{"lat":"37.262185261","long":"127.03114376","imageIndex":17,"items":[{"name":"Alice(앨리스)","tel":"070-8237-3649","addr":"경기도 수원시 팔달구 인계동 1046-13번지 에스팝타워 15층 1508호","indutype":"서적문구 - 문구용품","category":"other"},{"name":"May","tel":"","addr":"경기도 수원시 팔달구 인계동 1046-13번지 에스팝타워 117-1호","indutype":"의류 - 정장","category":"other"},{"name":"다니엘수원시청점","tel":"031-267-0712","addr":"경기도 수원시 팔달구 인계동 1046-13번지 에스팝타워 117호","indutype":"신변잡화 - 기타잡화","category":"other"},{"name":"땡이의미술여행(수원장안지사)","tel":"031-252-8143","addr":"경기도 수원시 팔달구 인계동 1046-13번지 에스팝타워 1604호","indutype":"회원제형태 - 서적","category":"other"},{"name":"메이","tel":"070-8612-9729","addr":"경기도 수원시 팔달구 인계동 1046-13번지 에스팝타워 117-1호","indutype":"의류 - 정장","category":"other"},{"name":"반지마을&투링바이","tel":"031-236-4426","addr":"경기도 수원시 팔달구 인계동 1046-13번지 에스팝타워 3층 308호","indutype":"신변잡화 - 액세서리","category":"other"},{"name":"솔트론주식회사","tel":"031-222-3083","addr":"경기도 수원시 팔달구 인계동 1046-13번지 에스팝타워 614호","indutype":"사무통신 - 컴퓨터","category":"other"},{"name":"수원악기","tel":"031-242-0070","addr":"경기도 수원시 팔달구 인계동 1046-13번지 에스팝타워 215호","indutype":"레져용품 - 악기점","category":"other"}]},{"lat":"37.267267843","long":"127.02767329","imageIndex":17,"items":[{"name":"B-6 퍼스널트레이닝센터","tel":"031-234-9497","addr":"경기도 수원시 팔달구 인계동 1020번지 202호","indutype":"회원제형태 - 레져업소","category":"other"}]},{"lat":"37.257670457","long":"127.03372347","imageIndex":17,"items":[{"name":"BS(비에스)","tel":"031-232-5800","addr":"경기도 수원시 팔달구 인계동 1134-9번지 트윈파크 B동 112호","indutype":"건축자재 - 부동산 분양","category":"other"},{"name":"라이프통신","tel":"031-223-9990","addr":"경기도 수원시 팔달구 인계동 1134-9 트윈파크 비-107","indutype":"사무통신 - 통신기기","category":"other"},{"name":"러닝독","tel":"","addr":"경기도 수원시 팔달구 인계동 1134-9번지 트윈파크 B동 108호","indutype":"문화.취미 - 애완동물","category":"other"},{"name":"쥬앤미","tel":"031-248-0815","addr":"경기도 수원시 팔달구 인계동 1134-9번지 트윈파크 B동 1703호","indutype":"회원제형태 - 기타4","category":"other"}]},{"lat":"37.263878933","long":"127.03222664","imageIndex":17,"items":[{"name":"CGV 꽃방","tel":"031-235-3636","addr":"경기도 수원시 팔달구 인계동 1113-11번지 씨네파크 131호","indutype":"문화.취미 - 화원","category":"other"},{"name":"겟츠비","tel":"031-267-6760","addr":"경기도 수원시 팔달구 인계동 1113-11번지 606-1","indutype":"의류 - 정장","category":"other"},{"name":"드레스(DRESS)","tel":"070-7786-0044","addr":"경기도 수원시 팔달구 인계동 1113-11번지 씨네파크 123호","indutype":"의류 - 정장","category":"other"},{"name":"디어","tel":"031-236-7768","addr":"경기도 수원시 팔달구 인계동 1113-11번지 씨네파크 상가동 138호","indutype":"의류 - 정장","category":"other"},{"name":"로이드","tel":"031-238-5123","addr":"경기도 수원시 팔달구 인계동 1113-11번지 외1필지 씨네파크 116호","indutype":"신변잡화 - 시계","category":"other"},{"name":"메세지","tel":"031-221-4459","addr":"경기도 수원시 팔달구 인계동 1113-11번지 씨네파크 135호","indutype":"의류 - 정장","category":"other"},{"name":"못된고양이","tel":"070-4296-5965","addr":"경기도 수원시 팔달구 인계동 1113-11번지 109호 씨네파트","indutype":"신변잡화 - 액세서리","category":"other"},{"name":"삼성주얼리","tel":"031-222-5149","addr":"경기도 수원시 팔달구 인계동 1113-11번지 씨네파크 1층 137호","indutype":"신변잡화 - 액세서리","category":"other"},{"name":"아킬레스","tel":"031-232-5274","addr":"경기도 수원시 팔달구 인계동 1113-11번지 씨네파크 1층 125호","indutype":"의류 - 정장","category":"other"},{"name":"액세서리램","tel":"031-238-7767","addr":"경기도 수원시 팔달구 인계동 1113-11,12 씨네파크1층","indutype":"신변잡화 - 액세서리","category":"other"},{"name":"에메필 수원인계점","tel":"031-235-5825","addr":"경기도 수원시 팔달구 인계동 1113-11번지 씨네파크 112호","indutype":"의류 - 내의판매","category":"other"},{"name":"엣지걸","tel":"031-236-7092","addr":"경기도 수원시 팔달구 인계동 1113-11,12,씨네파크5층엠투쇼핑몰40","indutype":"의류 - 정장","category":"other"},{"name":"우연","tel":"031-267-7109","addr":"경기도 수원시 팔달구 인계동 1113-11번지 씨네파크 106호","indutype":"신변잡화 - 시계","category":"other"},{"name":"인디오","tel":"031-237-2088","addr":"경기도 수원시 팔달구 인계동 1113-11번지 씨네파크 12동 107호","indutype":"신변잡화 - 액세서리","category":"other"},{"name":"인스타일","tel":"031-235-3636","addr":"경기도 수원시 팔달구 인계동 1113-11번지 씨네파크 131호","indutype":"의류 - 정장","category":"other"},{"name":"잇템(ittem)","tel":"031-352-1958","addr":"경기도 수원시 팔달구 인계동 1113-11번지 씨네파크 130호","indutype":"의류 - 정장","category":"other"},{"name":"제시","tel":"031-236-0567","addr":"경기도 수원시 팔달구 인계동 1113-11번지 외필지씨네파크 128호","indutype":"의류 - 정장","category":"other"},{"name":"제이제이스토리","tel":"031-302-6276","addr":"경기도 수원시 팔달구 인계동 1113-11번지 씨네파크 136호","indutype":"의류 - 정장","category":"other"},{"name":"주식회사 22콜라루디아","tel":"031-204-7222","addr":"경기도 수원시 팔달구 인계동 1113-11번지 씨네파크 126호","indutype":"의류 - 정장","category":"other"},{"name":"주식회사 이육콜라산본","tel":"031-396-6999","addr":"경기도 수원시 팔달구 인계동 1113-11번지 씨네파크 111호","indutype":"의류 - 정장","category":"other"},{"name":"주식회사 인계런던콜라","tel":"031-111-1111","addr":"경기도 수원시 팔달구 인계동 1113-11번지 씨네파크 110호","indutype":"의류 - 정장","category":"other"},{"name":"주식회사인계104콜라","tel":"031-302-9917","addr":"경기도 수원시 팔달구 인계동 1113-11번지 씨네파크 104호","indutype":"의류 - 정장","category":"other"},{"name":"코코샵","tel":"031-226-6535","addr":"경기도 수원시 팔달구 인계동 1113-11번지 씨네파크 117호","indutype":"의류 - 정장","category":"other"},{"name":"피오니","tel":"031-305-4617","addr":"경기도 수원시 팔달구 인계동 1113-11번지","indutype":"의류 - 정장","category":"other"},{"name":"피터패트","tel":"","addr":"경기도 수원시 팔달구 인계동 1113-11번지 씨네파크 1층 129호","indutype":"의류 - 정장","category":"other"},{"name":"하이틴","tel":"031-224-3121","addr":"경기도 수원시 팔달구 인계동 1113-11.12씨네파크5층505호","indutype":"의류 - 정장","category":"other"}]},{"lat":"37.274954767","long":"127.02136178","imageIndex":17,"items":[{"name":"Co.Co","tel":"031-236-2091","addr":"경기도 수원시 팔달구 인계동 753-4번지","indutype":"의류 - 정장","category":"other"}]},{"lat":"37.273738547","long":"127.02025655","imageIndex":17,"items":[{"name":"GS25남문아울렛점","tel":"080-555-2525","addr":"경기도 수원시 팔달구 인계동 762-81번지","indutype":"유통업 영리 - 편 의 점","category":"other"}]},{"lat":"37.26481725","long":"127.02666914","imageIndex":17,"items":[{"name":"GS25수원다모아점","tel":"031-239-4174","addr":"경기도 수원시 팔달구 인계동 1026-9번지","indutype":"유통업 영리 - 편 의 점","category":"other"}]},{"lat":"37.267601195","long":"127.02780869","imageIndex":17,"items":[{"name":"GS25수원백성점","tel":"080-555-2525","addr":"경기도 수원시 팔달구 인계동 1019-11번지","indutype":"유통업 영리 - 편 의 점","category":"other"}]},{"lat":"37.271818733","long":"127.02408947","imageIndex":17,"items":[{"name":"GS25수원세지로점","tel":"","addr":"경기도 수원시 팔달구 인계동 820-6번지","indutype":"유통업 영리 - 편 의 점","category":"other"}]},{"lat":"37.276455955","long":"127.03719264","imageIndex":17,"items":[{"name":"GS25수원스타점","tel":"","addr":"경기도 수원시 팔달구 인계동 164번지","indutype":"유통업 영리 - 편 의 점","category":"other"}]},{"lat":"37.259013311","long":"127.03247275","imageIndex":17,"items":[{"name":"GS25수원프리점","tel":"","addr":"경기도 수원시 팔달구 인계동 1132번지 다우프리존 103호","indutype":"유통업 영리 - 편 의 점","category":"other"},{"name":"고관종합중기","tel":"031-443-6008","addr":"경기도 수원시 팔달구 인계동 1132번지 다우프리존 203호","indutype":"기타 - 기타 전문점","category":"other"},{"name":"고관종합중기","tel":"031-257-8358","addr":"경기도 수원시 팔달구 인계동 1132번지","indutype":"기타 - 기계공구","category":"other"},{"name":"고관지게차(동수원지게차)","tel":"031-225-2266","addr":"경기도 수원시 팔달구 인계동 1132번지 다우프리존 203호","indutype":"기타 - 기계공구","category":"other"},{"name":"고명지게차","tel":"070-4185-3685","addr":"경기도 수원시 팔달구 인계동 1132번지 다우프리존 203","indutype":"기타 - 기계공구","category":"other"},{"name":"나성중기","tel":"031-8003-9521","addr":"경기도 수원시 팔달구 인계동 1132번지 다우프리존 203호","indutype":"기타 - 기계공구","category":"other"},{"name":"대한중기","tel":"031-713-8220","addr":"경기도 수원시 팔달구 인계동 1132번지 다우프리존 203호","indutype":"기타 - 기계공구","category":"other"},{"name":"삼화지게차","tel":"031-377-7801","addr":"경기도 수원시 팔달구 인계동 1132번지 다우프리존 203호","indutype":"기타 - 기계공구","category":"other"},{"name":"서운지게차","tel":"031-677-3338","addr":"경기도 수원시 팔달구 인계동 1132번지 다우프리존 203호","indutype":"기타 - 기계공구","category":"other"},{"name":"양감지게차","tel":"031-352-3232","addr":"경기도 수원시 팔달구 인계동 1132번지 다우프리존 203호","indutype":"기타 - 기계공구","category":"other"},{"name":"엘에스크레인","tel":"031-225-6798","addr":"경기도 수원시 팔달구 인계동 1132번지 다우프리존 203호","indutype":"기타 - 기계공구","category":"other"}]},{"lat":"37.277350118","long":"127.02874776","imageIndex":17,"items":[{"name":"GS25수원한라점","tel":"","addr":"경기도 수원시 팔달구 인계동 206번지 한라시그마팰리스 103호","indutype":"유통업 영리 - 편 의 점","category":"other"},{"name":"손명재법무사사무소","tel":"031-215-0977","addr":"경기도 수원시 팔달구 인계동 206번지 한라시그마팰리스상가2층202B,202C","indutype":"용역 서비스 - 법률회계서비스(개인)","category":"other"},{"name":"크린시그마","tel":"031-898-8391","addr":"경기도 수원시 팔달구 인계동 206번지 한라시그마팰리스 상가 314호","indutype":"수리서비스 - 세탁소","category":"other"}]},{"lat":"37.269817505","long":"127.02883538","imageIndex":17,"items":[{"name":"GS25인계경수점","tel":"","addr":"경기도 수원시 팔달구 인계동 949-14번지 아띠하우스","indutype":"유통업 영리 - 편 의 점","category":"other"}]},{"lat":"37.276790908","long":"127.03125069","imageIndex":17,"items":[{"name":"GS25인계골드점","tel":"","addr":"경기도 수원시 팔달구 인계동 939-11번지 1층","indutype":"유통업 영리 - 편 의 점","category":"other"}]},{"lat":"37.273547392","long":"127.03047151","imageIndex":17,"items":[{"name":"GS25인계공원점","tel":"02-2006-2485","addr":"경기도 수원시 팔달구 인계동 313-7번지","indutype":"유통업 영리 - 편 의 점","category":"other"}]},{"lat":"37.267185949","long":"127.03124709","imageIndex":17,"items":[{"name":"GS25인계드라마점","tel":"","addr":"경기도 수원시 팔달구 인계동 1036번지 102~103호","indutype":"유통업 영리 - 편 의 점","category":"other"},{"name":"꽃과사람들","tel":"031-255-6577","addr":"경기도 수원시 팔달구 인계동 1036번지 수원미디어시티 111호","indutype":"문화.취미 - 화원","category":"other"}]},{"lat":"37.266708026","long":"127.03278015","imageIndex":17,"items":[{"name":"GS25인계리슈빌점","tel":"","addr":"경기도 수원시 팔달구 인계동 1037번지 105~106호","indutype":"유통업 영리 - 편 의 점","category":"other"},{"name":"제이에스(JS)테일러","tel":"031-267-2280","addr":"경기도 수원시 팔달구 인계동 1037번지 시안프라자 101호","indutype":"의류 - 맞춤복점","category":"other"}]},{"lat":"37.269097253","long":"127.02608423","imageIndex":17,"items":[{"name":"GS25인계복개천점","tel":"02-2006-2118","addr":"경기도 수원시 팔달구 인계동 967번지","indutype":"유통업 영리 - 편 의 점","category":"other"}]},{"lat":"37.267294588","long":"127.02900362","imageIndex":17,"items":[{"name":"GS25인계엘리시아점","tel":"","addr":"경기도 수원시 팔달구 인계동 1019-6번지 ELYSIA 105호","indutype":"유통업 영리 - 편 의 점","category":"other"},{"name":"강한철물","tel":"031-267-0012","addr":"경기도 수원시 팔달구 인계동 1019-6번지 ELYSIA 101호","indutype":"건축자재 - 목재·석재·철물","category":"other"}]},{"lat":"37.275295964","long":"127.0278676","imageIndex":17,"items":[{"name":"GS25인계원룸점","tel":"","addr":"경기도 수원시 팔달구 인계동 241-72번지","indutype":"유통업 영리 - 편 의 점","category":"other"}]},{"lat":"37.266629133","long":"127.02219401","imageIndex":17,"items":[{"name":"GS25인계제일점","tel":"","addr":"경기도 수원시 팔달구 인계동 1003-24번지 1층","indutype":"유통업 영리 - 편 의 점","category":"other"}]},{"lat":"37.268178488","long":"127.0245845","imageIndex":17,"items":[{"name":"GS25인계중앙점","tel":"031-245-9724","addr":"경기도 수원시 팔달구 인계동 983-13번지","indutype":"유통업 영리 - 편 의 점","category":"other"}]},{"lat":"37.259797432","long":"127.03155996","imageIndex":17,"items":[{"name":"JOON(준)","tel":"031-306-8145","addr":"경기도 수원시 팔달구 인계동 1131번지 쎄파월드 1층 45,46호","indutype":"의류 - 정장","category":"other"},{"name":"꽃을 든 남자","tel":"031-236-8391","addr":"경기도 수원시 팔달구 인계동 1131번지 선경리빙프라자 1층 14호 15호 25호","indutype":"의류 - 정장","category":"other"},{"name":"러브슈즈","tel":"031-273-4916","addr":"경기도 수원시 팔달구 인계동 1131번지 선경리빙프라자 904호","indutype":"신변잡화 - 신발","category":"other"},{"name":"제이엘산업","tel":"031-366-3150","addr":"경기도 수원시 팔달구 인계동 1131번지 쎄파월드지1층 105호","indutype":"건축자재 - 기타건축자재","category":"other"},{"name":"코코","tel":"070-4446-3126","addr":"경기도 수원시 팔달구 인계동 1131번지 선경리빙프라자 1층 48호","indutype":"의류 - 기타의류","category":"other"},{"name":"펄(Pearl)","tel":"031-224-0188","addr":"경기도 수원시 팔달구 인계동 1131번지 1층 8,9,24,34,43,44호","indutype":"의류 - 정장","category":"other"},{"name":"햇빛나라","tel":"031-221-2700","addr":"경기도 수원시 팔달구 인계동 1131번지 선경드림월드 3층","indutype":"의류 - 아동의류","category":"other"}]},{"lat":"37.263770536","long":"127.03330884","imageIndex":17,"items":[{"name":"Johns Design(존스 디자인)","tel":"031-222-0932","addr":"경기도 수원시 팔달구 인계동 1120번지 캐슬타워 101동 1605호","indutype":"건축자재 - 인테리어전문","category":"other"},{"name":"Maia House","tel":"070-7806-8406","addr":"경기도 수원시 팔달구 인계동 1120번지 캐슬타워 102동 607호","indutype":"회원제형태 - 기타1","category":"other"},{"name":"더로즈수원점","tel":"031-225-1582","addr":"경기도 수원시 팔달구 인계동 1120번지 캐슬타워오피스텔 101동 1504호","indutype":"회원제형태 - 기타4","category":"other"},{"name":"디어허니여행사","tel":"031-226-8551","addr":"경기도 수원시 팔달구 인계동 1120번지 캐슬타워 222호","indutype":"여행 - 관광여행","category":"other"},{"name":"디자인 이룸","tel":"031-224-2010","addr":"경기도 수원시 팔달구 인계동 1120번지 캐슬타워 102동 1310호","indutype":"서적문구 - 출판 및 인쇄물","category":"other"},{"name":"리케이온 동수원서적","tel":"031-216-8844","addr":"경기도 수원시 팔달구 인계동 1120번지 캐슬타워 101동 604호","indutype":"회원제형태 - 서적","category":"other"},{"name":"마리포사","tel":"031-212-0937","addr":"경기도 수원시 팔달구 인계동 1120번지 캐슬타워 102동 1003호","indutype":"회원제형태 - 기타1","category":"other"},{"name":"벽창호","tel":"031-224-3122","addr":"경기도 수원시 팔달구 인계동 1120번지 캐슬타워 1층 116호","indutype":"직물 - 카페트,커튼,천막,지물","category":"other"},{"name":"블럼","tel":"031-235-2582","addr":"경기도 수원시 팔달구 인계동 1120번지 캐슬타워 상가 110호","indutype":"의류 - 정장","category":"other"},{"name":"산소미인피부샵","tel":"031-224-1381","addr":"경기도 수원시 팔달구 인계동 1120번지 캐슬타워 102동 2004호","indutype":"회원제형태 - 기타4","category":"other"},{"name":"알마마르소","tel":"031-224-8122","addr":"경기도 수원시 팔달구 인계동 1120번지 캐슬타워 112호","indutype":"문화.취미 - 화원","category":"other"},{"name":"양키캔들 수원인계점","tel":"031-225-9879","addr":"경기도 수원시 팔달구 인계동 1120번지 캐슬타워 상가 126호","indutype":"신변잡화 - 기타잡화","category":"other"},{"name":"어뮤즈바이(amuseby)","tel":"070-4242-6310","addr":"경기도 수원시 팔달구 인계동 1120번지 캐슬타워 1층 111호","indutype":"문화.취미 - 화원","category":"other"},{"name":"에블린","tel":"031-898-9998","addr":"경기도 수원시 팔달구 인계동 1120번지 캐슬타워 120호","indutype":"의류 - 내의판매","category":"other"},{"name":"인디필름(indiefilm)","tel":"031-226-6222","addr":"경기도 수원시 팔달구 인계동 1120번지 캐슬타워 102동 1608호","indutype":"회원제형태 - 기타4","category":"other"},{"name":"종로피부관리(JR)","tel":"031-256-8485","addr":"경기도 수원시 팔달구 인계동 1120번지 캐슬타워 304호","indutype":"회원제형태 - 기타4","category":"other"},{"name":"찰스가먼트","tel":"031-221-4677","addr":"경기도 수원시 팔달구 인계동 1120번지 캐슬타워 상가동 213호","indutype":"의류 - 정장","category":"other"},{"name":"캐슬타워세탁소","tel":"031-239-4957","addr":"경기도 수원시 팔달구 인계동 1120번지 캐슬타워 310호","indutype":"수리서비스 - 세탁소","category":"other"},{"name":"프리스타일(free style)","tel":"031-223-5006","addr":"경기도 수원시 팔달구 인계동 1120번지 캐슬타워 제 1층 122호","indutype":"의류 - 정장","category":"other"},{"name":"피디엠앤컴퍼니","tel":"","addr":"경기도 수원시 팔달구 인계동 1120번지 캐슬타워 101동 1208호","indutype":"신변잡화 - 기타잡화","category":"other"}]},{"lat":"37.265123656","long":"127.0263874","imageIndex":17,"items":[{"name":"K.C공조","tel":"031-215-5115","addr":"경기도 수원시 팔달구 인계동 1016-2번지 현대하이엘오피스텔 409호","indutype":"수리서비스 - 가정용품수리","category":"other"},{"name":"KJ시스템","tel":"031-236-9472","addr":"경기도 수원시 팔달구 인계동 1016-2번지 현대하이엘 104동 706호","indutype":"기타 - 기타 전문점","category":"other"},{"name":"더끌리는","tel":"031-255-0214","addr":"경기도 수원시 팔달구 인계동 1016-2번지 현대하이엘오피스텔 1510호","indutype":"의류 - 정장","category":"other"},{"name":"더샵(THE #)","tel":"031-235-5849","addr":"경기도 수원시 팔달구 인계동 1016-2번지 현대하이엘 120,121호","indutype":"의류 - 정장","category":"other"},{"name":"리즈테라피","tel":"031-235-7102","addr":"경기도 수원시 팔달구 인계동 1016-2번지 현대하이엘오피스텔 1513호","indutype":"문화.취미 - 문화취미기타","category":"other"},{"name":"마루커뮤니케이션","tel":"031-245-8006","addr":"경기도 수원시 팔달구 인계동 1016-2번지 현대하이엘 503호","indutype":"신변잡화 - 기타잡화","category":"other"},{"name":"모아디자인","tel":"031-237-8822","addr":"경기도 수원시 팔달구 인계동 1016-2번지 현대하이엘 1302호","indutype":"용역 서비스 - 종합용역","category":"other"},{"name":"미전사","tel":"031-243-5941","addr":"경기도 수원시 팔달구 인계동 1016-2번지 현대하이엘 1423호","indutype":"용역 서비스 - 종합용역","category":"other"},{"name":"온오프","tel":"","addr":"경기도 수원시 팔달구 인계동 1016-2번지 현대하이엘 118호","indutype":"의류 - 정장","category":"other"},{"name":"옵티모 솔루션(Optimo Solution)","tel":"070-7735-7964","addr":"경기도 수원시 팔달구 인계동 1016-2번지 현대하이엘 1227호","indutype":"전기제품 - 기타전기제품","category":"other"},{"name":"인(IN)","tel":"031-225-5882","addr":"경기도 수원시 팔달구 인계동 1016-2번지 현대하이엘 상가 104호","indutype":"의류 - 정장","category":"other"},{"name":"주식회사 기린아디앤에스","tel":"02-6380-8881","addr":"경기도 수원시 팔달구 인계동 1016-2번지 현대하이엘 1동 533호","indutype":"용역 서비스 - 종합용역","category":"other"},{"name":"현대상사","tel":"031-238-9199","addr":"경기도 수원시 팔달구 인계동 1016-2번지 현대하이엘 328호","indutype":"사무통신 - 기타 사무용품","category":"other"},{"name":"현대세탁","tel":"031-233-9991","addr":"경기도 수원시 팔달구 인계동 1016-2번지 현대하이엘 상가 103호","indutype":"수리서비스 - 세탁소","category":"other"}]},{"lat":"37.264267456","long":"127.02748066","imageIndex":17,"items":[{"name":"LS건축구조사무소","tel":"031-233-7670","addr":"경기도 수원시 팔달구 인계동 1027-11번지 대한빌딩 402호","indutype":"용역 서비스 - 사무서비스","category":"other"},{"name":"세무회계이원백사무소","tel":"031-226-3434","addr":"경기도 수원시 팔달구 인계동 1027-11번지 대한빌딩 302호","indutype":"용역 서비스 - 법률회계서비스(개인)","category":"other"},{"name":"수원서장대로타리클럽","tel":"031-232-4070","addr":"경기도 수원시 팔달구 인계동 1027-11번지 대한빌딩 204호","indutype":"기타 - 비영리/비대상","category":"other"}]},{"lat":"37.270934751","long":"127.02897106","imageIndex":17,"items":[{"name":"OK목재합판","tel":"031-224-8508","addr":"경기도 수원시 팔달구 인계동 947-4번지","indutype":"건축자재 - 목재·석재·철물","category":"other"}]},{"lat":"37.265545441","long":"127.03378305","imageIndex":17,"items":[{"name":"PC&MAC","tel":"031-223-5355","addr":"경기도 수원시 팔달구 인계동 1114-9번지 영조아름다운나날오피스텔 808호","indutype":"용역 서비스 - 소프트웨어","category":"other"},{"name":"더감성","tel":"031-233-6588","addr":"경기도 수원시 팔달구 인계동 1114-9번지 영조아름다운나날 1002호","indutype":"문화.취미 - 문화취미기타","category":"other"},{"name":"리치","tel":"031-233-9178","addr":"경기도 수원시 팔달구 인계동 1114-9번지 영조아름다운나날 104호","indutype":"신변잡화 - 귀금속","category":"other"},{"name":"미더베스트","tel":"031-233-9994","addr":"경기도 수원시 팔달구 인계동 1114-9번지 영조아름다운나날 201호","indutype":"회원제형태 - 기타4","category":"other"},{"name":"바비슈아","tel":"031-216-7580","addr":"경기도 수원시 팔달구 인계동 1114-9번지 영조아름다운나날 105호","indutype":"문화.취미 - 화원","category":"other"}]},{"lat":"37.259130729","long":"127.03131171","imageIndex":17,"items":[{"name":"PETKOREA7","tel":"031-224-4032","addr":"경기도 수원시 팔달구 인계동 1132-12번지 킴스클럽 2층","indutype":"문화.취미 - 수족관","category":"other"},{"name":"애슐리웨딩","tel":"02-1111-1111","addr":"경기도 수원시 팔달구 인계동 1132-12번지 12층","indutype":"용역 서비스 - 혼례서비스","category":"other"},{"name":"주식회사 앙코르여행사","tel":"031-298-8888","addr":"경기도 수원시 팔달구 인계동 1132-12번지","indutype":"여행 - 관광여행","category":"other"}]},{"lat":"37.267682958","long":"127.0243927","imageIndex":17,"items":[{"name":"SM 공조시스템","tel":"070-4898-1948","addr":"경기도 수원시 팔달구 인계동 983-9번지","indutype":"용역 서비스 - 기타용역서비스","category":"other"}]},{"lat":"37.260743169","long":"127.03294689","imageIndex":17,"items":[{"name":"TBC(트레보유통사업)","tel":"031-238-1450","addr":"경기도 수원시 팔달구 인계동 1125번지 대원콤비프라자 11층","indutype":"레져용품 - 스포츠·레져용품","category":"other"},{"name":"굿타임편의점","tel":"031-239-6807","addr":"경기도 수원시 팔달구 인계동 1125번지 대원콤비프라자 104호","indutype":"유통업 영리 - 편 의 점","category":"other"},{"name":"데이지","tel":"031-239-4107","addr":"경기도 수원시 팔달구 인계동 1125번지 대원콤비프라자","indutype":"문화.취미 - 화원","category":"other"},{"name":"마고스킨케어","tel":"070-7569-1851","addr":"경기도 수원시 팔달구 인계동 1125번지 대원콤비프라자 B02호","indutype":"회원제형태 - 기타4","category":"other"},{"name":"사단법인 한국피트니스산업협회","tel":"031-8005-7256","addr":"경기도 수원시 팔달구 인계동 1125번지 대원콤비프라자 9층","indutype":"회원제형태 - 레져업소","category":"other"}]},{"lat":"37.270322716","long":"127.02575765","imageIndex":17,"items":[{"name":"Y.E.S.아카데미","tel":"031-236-9676","addr":"경기도 수원시 팔달구 인계동 971-8번지 3층","indutype":"직물 - 침구·수예점","category":"other"},{"name":"수원수성로타리클럽","tel":"031-221-0790","addr":"경기도 수원시 팔달구 인계동 971-8번지","indutype":"기타 - 비영리/대상","category":"other"}]},{"lat":"37.263653134","long":"127.03433467","imageIndex":17,"items":[{"name":"e포스정보","tel":"031-226-8800","addr":"경기도 수원시 팔달구 인계동 1120-5번지 백광빌딩 4층 402호","indutype":"사무통신 - 통신기기","category":"other"},{"name":"인계동사진관","tel":"031-223-7717","addr":"경기도 수원시 팔달구 인계동 1120-5번지 백광빌딩 402호","indutype":"광학제품 - 사진관","category":"other"}]},{"lat":"37.265457574","long":"127.02350145","imageIndex":17,"items":[{"name":"family25시편의점","tel":"031-234-1058","addr":"경기도 수원시 팔달구 인계동 999-15번지","indutype":"유통업 영리 - 편 의 점","category":"other"}]},{"lat":"37.264724745","long":"127.03656727","imageIndex":17,"items":[{"name":"waniwani(와니와니)","tel":"070-7410-2664","addr":"경기도 수원시 팔달구 인계동 1116-4번지 한화꿈에그린효원 102동 2002호","indutype":"의류 - 정장","category":"other"},{"name":"주식회사 삼정","tel":"031-222-2997","addr":"경기도 수원시 팔달구 인계동 1116-4번지 한화꿈에그린효원 102동 801호","indutype":"문화.취미 - 화원","category":"other"}]},{"lat":"37.263988137","long":"127.02748057","imageIndex":17,"items":[{"name":"가가건축사사무소","tel":"031-236-8108","addr":"경기도 수원시 팔달구 인계동 1027-6번지 서호빌딩 203호","indutype":"용역 서비스 - 법률회계서비스(개인)","category":"other"},{"name":"구영OA상사","tel":"031-221-6637","addr":"경기도 수원시 팔달구 인계동 1027-6,101번지","indutype":"사무통신 - 기타 사무용품","category":"other"},{"name":"바우사","tel":"031-224-1144","addr":"경기도 수원시 팔달구 인계동 1027-6번지 서호빌딩 105호","indutype":"건축자재 - 목재·석재·철물","category":"other"},{"name":"어반부동산 주식회사","tel":"031-237-0379","addr":"경기도 수원시 팔달구 인계동 1027-6번지","indutype":"용역 서비스 - 종합용역","category":"other"},{"name":"자야디자인","tel":"031-293-1111","addr":"경기도 수원시 팔달구 인계동 1027-6번지 서호빌딩 103호","indutype":"용역 서비스 - 사무서비스","category":"other"},{"name":"자유여행사 주식회사","tel":"031-233-2114","addr":"경기도 수원시 팔달구 인계동 1027-6번지 서호빌딩 301호","indutype":"여행 - 관광여행","category":"other"},{"name":"해피투어주식회사","tel":"031-251-9300","addr":"경기도 수원시 팔달구 인계동 1027-6번지 서호빌딩 202호","indutype":"여행 - 관광여행","category":"other"},{"name":"협동토목","tel":"031-221-3422","addr":"경기도 수원시 팔달구 인계동 1027-6번지","indutype":"건축자재 - 기타건축자재","category":"other"}]},{"lat":"37.266852699","long":"127.03069455","imageIndex":17,"items":[{"name":"가가소방방염","tel":"031-221-7119","addr":"경기도 수원시 팔달구 인계동 1035-7번지 우암빌딩 302호","indutype":"용역 서비스 - 기타용역서비스","category":"other"},{"name":"건축사사무소한울","tel":"031-236-2378","addr":"경기도 수원시 팔달구 인계동 1035-7번지 우암빌딩 303호","indutype":"용역 서비스 - 사무서비스","category":"other"}]},{"lat":"37.272432272","long":"127.01872289","imageIndex":17,"items":[{"name":"가교시스템에어컨","tel":"031-233-3693","addr":"경기도 수원시 팔달구 인계동 934번지","indutype":"전기제품 - 냉열기기","category":"other"},{"name":"문덕종합상사","tel":"031-239-0483","addr":"경기도 수원시 팔달구 인계동 934번지","indutype":"건축자재 - 기타건축자재","category":"other"},{"name":"삼성샤링","tel":"031-232-0683","addr":"경기도 수원시 팔달구 인계동 934번지","indutype":"수리서비스 - 기타수리서비스","category":"other"}]},{"lat":"37.27459456","long":"127.0200087","imageIndex":17,"items":[{"name":"가나안광고기획","tel":"031-244-2000","addr":"경기도 수원시 팔달구 인계동 766-1번지","indutype":"용역 서비스 - 종합용역","category":"other"},{"name":"대진철물","tel":"031-239-1145","addr":"경기도 수원시 팔달구 인계동 766-1 22","indutype":"건축자재 - 목재·석재·철물","category":"other"}]},{"lat":"37.265096311","long":"127.0279206","imageIndex":17,"items":[{"name":"가나트레인","tel":"031-355-5700","addr":"경기도 수원시 팔달구 인계동 1025-5번지","indutype":"기타 - 기타 전문점","category":"other"},{"name":"에이스중기","tel":"031-233-7177","addr":"경기도 수원시 팔달구 인계동 1025-5번지","indutype":"기타 - 기계공구","category":"other"},{"name":"우람아스텍건설","tel":"031-336-5885","addr":"경기도 수원시 팔달구 인계동 1025-5번지","indutype":"용역 서비스 - 기타용역서비스","category":"other"},{"name":"주식회사 지주","tel":"031-546-8284","addr":"경기도 수원시 팔달구 인계동 1025-5번지 경기도 재향군인회 402호","indutype":"건축자재 - 부동산 분양","category":"other"},{"name":"코리아제록스(주)네트워크","tel":"031-238-5179","addr":"경기도 수원시 팔달구 인계동 1025-5번지","indutype":"사무통신 - 사무용 OA기기","category":"other"},{"name":"코리아제록스(주)네트워크/특별","tel":"031-238-5179","addr":"경기도 수원시 팔달구 인계동 1025-5번지","indutype":"사무통신 - 사무용 OA기기","category":"other"},{"name":"현대제이-원","tel":"031-221-3036","addr":"경기도 수원시 팔달구 인계동 1025-5번지 경기도 재향군인회 3층 302호","indutype":"기타 - 기타 전문점","category":"other"}]},{"lat":"37.270158548","long":"127.03439374","imageIndex":17,"items":[{"name":"가람아트","tel":"","addr":"경기도 수원시 팔달구 인계동 359-27번지 101호","indutype":"건축자재 - 인테리어전문","category":"other"}]},{"lat":"37.267150621","long":"127.02809039","imageIndex":17,"items":[{"name":"가람종합환경","tel":"031-222-8287","addr":"경기도 수원시 팔달구 인계동 1020-4 대지빌딩 303","indutype":"건축자재 - 기타건축자재","category":"other"},{"name":"주식회사 이안구조엔지니어링","tel":"031-239-1113","addr":"경기도 수원시 팔달구 인계동 1020-4번지 대지빌딩 503호","indutype":"용역 서비스 - 사무서비스","category":"other"}]},{"lat":"37.264683055","long":"127.02128036","imageIndex":17,"items":[{"name":"가야냉열.냉동","tel":"031-223-1545","addr":"경기도 수원시 팔달구 인계동 1008-20번지","indutype":"전기제품 - 가전제품","category":"other"}]},{"lat":"37.26557413","long":"127.02659047","imageIndex":17,"items":[{"name":"가우디웨딩","tel":"031-239-7337","addr":"경기도 수원시 팔달구 인계동 1016-1번지 5층","indutype":"용역 서비스 - 혼례서비스","category":"other"}]},{"lat":"37.265294706","long":"127.02710897","imageIndex":17,"items":[{"name":"가인건축사사무소","tel":"031-236-9339","addr":"경기도 수원시 팔달구 인계동 1025-9번지 명진빌딩 2층 202호","indutype":"용역 서비스 - 사무서비스","category":"other"},{"name":"디자인웨이드","tel":"031-223-2285","addr":"경기도 수원시 팔달구 인계동 1025-9번지 명진빌딩 4층 402호","indutype":"서적문구 - 출판 및 인쇄물","category":"other"}]},{"lat":"37.266458354","long":"127.01944316","imageIndex":17,"items":[{"name":"갈렙유통","tel":"070-8796-4528","addr":"경기도 수원시 팔달구 인계동 559-75","indutype":"유통업 영리 - 기타유통업","category":"other"}]},{"lat":"37.276071317","long":"127.02553389","imageIndex":17,"items":[{"name":"갓 독","tel":"","addr":"경기도 수원시 팔달구 인계동 1170번지 102동 227호","indutype":"문화.취미 - 애완동물","category":"other"},{"name":"바이코디(By codi)","tel":"","addr":"경기도 수원시 팔달구 인계동 1170번지 인계한양수자인 상가 2동 23호","indutype":"의류 - 정장","category":"other"},{"name":"씨유인계한양점","tel":"02-1577-8007","addr":"경기도 수원시 팔달구 인계동 1170번지 인계한양수자인 상가 3동 1층 43호","indutype":"유통업 영리 - 편 의 점","category":"other"},{"name":"워시피플 셀프빨래방 수원 인계동점","tel":"","addr":"경기도 수원시 팔달구 인계동 1170번지 상가 103동 334-1호","indutype":"수리서비스 - 세탁소","category":"other"},{"name":"제이진 옴므 수원","tel":"031-546-0664","addr":"경기도 수원시 팔달구 인계동 1170번지 102동 218호","indutype":"의류 - 맞춤복점","category":"other"}]},{"lat":"37.268484697","long":"127.02533996","imageIndex":17,"items":[{"name":"강보석","tel":"031-236-5800","addr":"경기도 수원시 팔달구 인계동 976-1번지","indutype":"신변잡화 - 시계","category":"other"},{"name":"수원콜밴","tel":"031-205-8251","addr":"경기도 수원시 팔달구 인계동 976-1번지 우진빌딩 302호","indutype":"여행 - 기타교통수단","category":"other"}]},{"lat":"37.264401926","long":"127.03058091","imageIndex":17,"items":[{"name":"거미 내의류","tel":"031-8050-5254","addr":"경기도 수원시 팔달구 인계동 1042-14번지 301호","indutype":"의류 - 내의판매","category":"other"},{"name":"레이","tel":"02-501-1014","addr":"경기도 수원시 팔달구 인계동 1042-14번지 302호","indutype":"의류 - 정장","category":"other"}]},{"lat":"37.264935343","long":"127.02128042","imageIndex":17,"items":[{"name":"건강하개","tel":"031-8081-1071","addr":"경기도 수원시 팔달구 인계동 1003-9번지","indutype":"문화.취미 - 애완동물","category":"other"}]},{"lat":"37.27279266","long":"127.01889209","imageIndex":17,"items":[{"name":"건영닥트","tel":"031-267-1628","addr":"경기도 수원시 팔달구 인계동 773-15번지 1층","indutype":"용역 서비스 - 기타용역서비스","category":"other"},{"name":"남문볼트상사","tel":"031-237-8139","addr":"경기도 수원시 팔달구 인계동 773-15번지","indutype":"기타 - 기계공구","category":"other"},{"name":"대성기계","tel":"031-238-0181","addr":"경기도 수원시 팔달구 인계동 773-15번지 1층","indutype":"기타 - 기타 전문점","category":"other"}]},{"lat":"37.270792086","long":"127.02092106","imageIndex":17,"items":[{"name":"건이네다육놀이터","tel":"070-4106-0929","addr":"경기도 수원시 팔달구 인계동 909-31번지 107호","indutype":"문화.취미 - 화원","category":"other"}]},{"lat":"37.270935701","long":"127.02422451","imageIndex":17,"items":[{"name":"건축사사무소대민","tel":"031-221-5044","addr":"경기도 수원시 팔달구 인계동 821-6번지","indutype":"용역 서비스 - 사무서비스","category":"other"},{"name":"미소디자인","tel":"031-226-6336","addr":"경기도 수원시 팔달구 인계동 821-6 1층2칸","indutype":"건축자재 - 인테리어전문","category":"other"}]},{"lat":"37.265573269","long":"127.03055879","imageIndex":17,"items":[{"name":"건축사사무소우미랑","tel":"031-238-8031","addr":"경기도 수원시 팔달구 인계동 1040-10번지 삼호빌딩 3층","indutype":"용역 서비스 - 사무서비스","category":"other"},{"name":"씨유수원팔달점","tel":"031-221-5544","addr":"경기도 수원시 팔달구 인계동 1040-10번지","indutype":"유통업 영리 - 편 의 점","category":"other"}]},{"lat":"37.265069059","long":"127.02894649","imageIndex":17,"items":[{"name":"건축사사무소해암","tel":"031-221-3745","addr":"경기도 수원시 팔달구 인계동 1031-2번지 성지빌딩 8층","indutype":"용역 서비스 - 법률회계서비스(개인)","category":"other"},{"name":"그린건축사사무소","tel":"031-232-1009","addr":"경기도 수원시 팔달구 인계동 1031-2번지 성지빌딩 5층","indutype":"용역 서비스 - 법률회계서비스(개인)","category":"other"},{"name":"민병수세무회계사무소","tel":"031-233-4356","addr":"경기도 수원시 팔달구 인계동 1031-2번지 성지빌딩 9층","indutype":"용역 서비스 - 법률회계서비스(개인)","category":"other"}]},{"lat":"37.267457898","long":"127.02327652","imageIndex":17,"items":[{"name":"경기계기사","tel":"031-221-4668","addr":"경기도 수원시 팔달구 인계동 988-13번지 빌라델비아","indutype":"기타 - 기계공구","category":"other"}]},{"lat":"37.265097186","long":"127.02336607","imageIndex":17,"items":[{"name":"경기냉난방관리","tel":"031-233-3321","addr":"경기도 수원시 팔달구 인계동 1007-13번지","indutype":"용역 서비스 - 기타용역서비스","category":"other"},{"name":"경기실버케어재가센타","tel":"031-237-1315","addr":"경기도 수원시 팔달구 인계동 1007-13번지 2층 201호","indutype":"기타의료기관 - 기타의료기관 및 기타","category":"other"}]},{"lat":"37.263934024","long":"127.02772857","imageIndex":17,"items":[{"name":"경기디자인시스템주식회사","tel":"031-222-1340","addr":"경기도 수원시 팔달구 인계동 1027-5번지","indutype":"용역 서비스 - 사무서비스","category":"other"},{"name":"공인회계사박준배사무소","tel":"031-236-2626","addr":"경기도 수원시 팔달구 인계동 1027-5번지 덕수빌딩 403호","indutype":"용역 서비스 - 법률회계서비스(개인)","category":"other"},{"name":"미래문화사","tel":"031-239-0090","addr":"경기도 수원시 팔달구 인계동 1027-5번지 덕수빌딩 103호","indutype":"서적문구 - 문구용품","category":"other"},{"name":"법률사무소 민담","tel":"031-215-1139","addr":"경기도 수원시 팔달구 인계동 1027-5번지 덕수빌딩 4층 402호","indutype":"용역 서비스 - 법률회계서비스(개인)","category":"other"},{"name":"영광상사","tel":"031-235-1787","addr":"경기도 수원시 팔달구 인계동 1027-5번지","indutype":"서적문구 - 출판 및 인쇄물","category":"other"},{"name":"주식회사 비비엔터테인먼트","tel":"031-234-7428","addr":"경기도 수원시 팔달구 인계동 1027-5번지 덕수빌딩 201호","indutype":"회원제형태 - 기타4","category":"other"}]},{"lat":"37.276628822","long":"127.03083344","imageIndex":17,"items":[{"name":"경기레포츠","tel":"02-1855-0514","addr":"경기도 수원시 팔달구 인계동 942번지","indutype":"레져용품 - 스포츠·레져용품","category":"other"},{"name":"고양이를 사랑하는남자 (고사남)","tel":"02-111-1111","addr":"경기도 수원시 팔달구 인계동 942번지 106호","indutype":"문화.취미 - 애완동물","category":"other"},{"name":"사랑원예","tel":"031-238-5886","addr":"경기도 수원시 팔달구 인계동 942번지 보진빌딩 106호","indutype":"문화.취미 - 화원","category":"other"}]},{"lat":"37.268214234","long":"127.02614033","imageIndex":17,"items":[{"name":"경기실버빌","tel":"031-893-6588","addr":"경기도 수원시 팔달구 인계동 977-2번지 한우리빌딩 401호","indutype":"기타의료기관 - 기타의료기관 및 기타","category":"other"},{"name":"주식회사 굿캠핑","tel":"031-232-0505","addr":"경기도 수원시 팔달구 인계동 977-2번지 한우리빌딩 1층","indutype":"레져용품 - 스포츠·레져용품","category":"other"}]},{"lat":"37.263736471","long":"127.02427885","imageIndex":17,"items":[{"name":"경기재가센터","tel":"031-237-1315","addr":"경기도 수원시 팔달구 인계동 1013-6번지 401호","indutype":"기타의료기관 - 기타의료기관 및 기타","category":"other"},{"name":"미진인테리어","tel":"031-236-8864","addr":"경기도 수원시 팔달구 인계동 1013-6번지 효창빌딩 1층","indutype":"건축자재 - 인테리어전문","category":"other"}]},{"lat":"37.264403257","long":"127.02414375","imageIndex":17,"items":[{"name":"경기축기","tel":"031-267-4666","addr":"경기도 수원시 팔달구 인계동 1011-2번지","indutype":"기타 - 기계공구","category":"other"}]},{"lat":"37.27087314","long":"127.02116912","imageIndex":17,"items":[{"name":"경성환경기술","tel":"031-000-0000","addr":"경기도 수원시 팔달구 인계동 909-53번지","indutype":"용역 서비스 - 종합용역","category":"other"},{"name":"미래산업","tel":"031-233-5229","addr":"경기도 수원시 팔달구 인계동 909-53번지 101호","indutype":"건축자재 - 인테리어전문","category":"other"}]},{"lat":"37.272846439","long":"127.02086518","imageIndex":17,"items":[{"name":"경수감정평가사사무소","tel":"031-233-5613","addr":"경기도 수원시 팔달구 인계동 807-3번지 3층","indutype":"용역 서비스 - 사무서비스","category":"other"}]},{"lat":"37.272927807","long":"127.01894849","imageIndex":17,"items":[{"name":"경원상회","tel":"031-238-6791","addr":"경기도 수원시 팔달구 인계동 773-21번지","indutype":"문화.취미 - 골동품점","category":"other"}]},{"lat":"37.258238769","long":"127.03106337","imageIndex":17,"items":[{"name":"경인기획","tel":"031-8081-3530","addr":"경기도 수원시 팔달구 인계동 1135-8번지 삼부오피스텔 1111호","indutype":"용역 서비스 - 사무서비스","category":"other"},{"name":"고로롱","tel":"","addr":"경기도 수원시 팔달구 인계동 1135-8번지 삼부르네상스오피스텔 1층 101호","indutype":"문화.취미 - 애완동물","category":"other"},{"name":"딜라잇","tel":"031-898-5997","addr":"경기도 수원시 팔달구 인계동 1135-8 삼부르네상스204~206호","indutype":"신변잡화 - 기타잡화","category":"other"},{"name":"르네상스공인중개사사무소","tel":"031-222-2395","addr":"경기도 수원시 팔달구 인계동 1135-8 105-1","indutype":"용역 서비스 - 부동산 중개·임대","category":"other"},{"name":"벨라펫샵","tel":"031-232-9220","addr":"경기도 수원시 팔달구 인계동 1135-8번지 삼부르네상스오피스텔 1층 101호","indutype":"문화.취미 - 애완동물","category":"other"},{"name":"블루퀼트","tel":"","addr":"경기도 수원시 팔달구 인계동 1135-8번지 삼부르네상스 1112호","indutype":"직물 - 침구·수예점","category":"other"},{"name":"세븐일레븐/수원르네상스점","tel":"02-2127-5857","addr":"경기도 수원시 팔달구 인계동 1135-8번지 삼부르네상스 2동 107호","indutype":"유통업 영리 - 편 의 점","category":"other"},{"name":"싱크트론에어 주식회사","tel":"070-8221-2016","addr":"경기도 수원시 팔달구 인계동 1135-8번지 삼부르네상스오피스텔 824호","indutype":"용역 서비스 - 소프트웨어","category":"other"},{"name":"에스아이공조","tel":"031-222-3990","addr":"경기도 수원시 팔달구 인계동 1135-8번지 삼부르네상스오피스텔 506호","indutype":"전기제품 - 냉열기기","category":"other"},{"name":"온누리S","tel":"031-291-2098","addr":"경기도 수원시 팔달구 인계동 1135-8번지","indutype":"신변잡화 - 기타잡화","category":"other"}]},{"lat":"37.272684552","long":"127.01877932","imageIndex":17,"items":[{"name":"계양기계공구","tel":"031-225-0944","addr":"경기도 수원시 팔달구 인계동 773-17번지","indutype":"기타 - 기계공구","category":"other"},{"name":"미래정공","tel":"031-232-4437","addr":"경기도 수원시 팔달구 인계동 773-17","indutype":"기타 - 기계공구","category":"other"},{"name":"보성공업사","tel":"031-232-1096","addr":"경기도 수원시 팔달구 인계동 773-17번지","indutype":"건축자재 - 기타건축자재","category":"other"},{"name":"상일양행","tel":"031-221-4410","addr":"경기도 수원시 팔달구 인계동 773-17번지","indutype":"의류 - 기타의류","category":"other"}]},{"lat":"37.270322916","long":"127.02469786","imageIndex":17,"items":[{"name":"곡천물산(주)","tel":"031-237-4935","addr":"경기도 수원시 팔달구 인계동 972번지","indutype":"전기제품 - 기타전기제품","category":"other"}]},{"lat":"37.266574851","long":"127.02350176","imageIndex":17,"items":[{"name":"공간인테리어","tel":"031-224-7327","addr":"경기도 수원시 팔달구 인계동 989-7번지 1층","indutype":"직물 - 카페트,커튼,천막,지물","category":"other"}]},{"lat":"37.265625739","long":"127.03669168","imageIndex":17,"items":[{"name":"공인회계사김면기사무소","tel":"031-232-7711","addr":"경기도 수원시 팔달구 인계동 1116-1번지 경기문화재단 8층","indutype":"용역 서비스 - 법률회계서비스(개인)","category":"other"},{"name":"사단법인한국민족예술인총연합회경기지회","tel":"031-235-6155","addr":"경기도 수원시 팔달구 인계동 1116-1번지 6층","indutype":"문화.취미 - 티켓","category":"other"},{"name":"아이플라워","tel":"031-233-7397","addr":"경기도 수원시 팔달구 인계동 1116-1번지 경기문화재단 1층","indutype":"문화.취미 - 화원","category":"other"},{"name":"예원디자인","tel":"031-898-6755","addr":"경기도 수원시 팔달구 인계동 1116-1번지 경기문화재단사옥 9층","indutype":"서적문구 - 출판 및 인쇄물","category":"other"}]},{"lat":"37.264764191","long":"127.02099854","imageIndex":17,"items":[{"name":"광고나라","tel":"031-235-5747","addr":"경기도 수원시 팔달구 인계동 1008번지 1층","indutype":"서적문구 - 출판 및 인쇄물","category":"other"},{"name":"코리아소방 주식회사","tel":"031-267-2119","addr":"경기도 수원시 팔달구 인계동 1008번지 102호","indutype":"용역 서비스 - 기타용역서비스","category":"other"}]},{"lat":"37.272206895","long":"127.01959099","imageIndex":17,"items":[{"name":"광성사무기","tel":"031-238-5824","addr":"경기도 수원시 팔달구 인계동 779-1번지","indutype":"사무통신 - 사무용 OA기기","category":"other"}]},{"lat":"37.265935006","long":"127.02414419","imageIndex":17,"items":[{"name":"광윤전력 주식회사","tel":"031-252-8152","addr":"경기도 수원시 팔달구 인계동 997번지 현대콤비타운 230호","indutype":"용역 서비스 - 기타용역서비스","category":"other"},{"name":"남부전기기술단(주)","tel":"031-225-8152","addr":"경기도 수원시 팔달구 인계동 997번지 현대콤비타운 218호","indutype":"용역 서비스 - 기타용역서비스","category":"other"},{"name":"비비(BB)광고기획","tel":"","addr":"경기도 수원시 팔달구 인계동 997번지 현대콤비타운 2층 233호","indutype":"건축자재 - 인테리어전문","category":"other"},{"name":"주식회사 월드트레블","tel":"031-267-4567","addr":"경기도 수원시 팔달구 인계동 997번지 현비콤비타운 207호","indutype":"여행 - 관광여행","category":"other"},{"name":"지수엔지니어링(주)","tel":"031-234-5400","addr":"경기도 수원시 팔달구 인계동 997번지 현대콤비타운빌딩 206호","indutype":"기타 - 기타 전문점","category":"other"}]},{"lat":"37.271683027","long":"127.02697572","imageIndex":17,"items":[{"name":"교동화원","tel":"031-242-2608","addr":"경기도 수원시 팔달구 인계동 961-12번지","indutype":"문화.취미 - 화원","category":"other"},{"name":"춘추표구화랑","tel":"031-242-1717","addr":"경기도 수원시 팔달구 인계동 961-12번지","indutype":"문화.취미 - 화방·표구점","category":"other"}]},{"lat":"37.267790969","long":"127.02500153","imageIndex":17,"items":[{"name":"교원PC뱅크","tel":"031-225-3885","addr":"경기도 수원시 팔달구 인계동 982-1번지","indutype":"사무통신 - 컴퓨터","category":"other"}]},{"lat":"37.274791476","long":"127.02745026","imageIndex":17,"items":[{"name":"구성세탁소","tel":"031-237-7180","addr":"경기도 수원시 팔달구 인계동 238-4번지","indutype":"수리서비스 - 세탁소","category":"other"}]},{"lat":"37.271322738","long":"127.02636678","imageIndex":17,"items":[{"name":"국제라이온스협회 354-B지구","tel":"031-239-2020","addr":"경기도 수원시 팔달구 인계동 968-12번지","indutype":"기타 - 비영리/비대상","category":"other"},{"name":"라이온스기획","tel":"031-221-6121","addr":"경기도 수원시 팔달구 인계동 968-12번지 라이온스협회빌딩 1층","indutype":"용역 서비스 - 종합용역","category":"other"},{"name":"수원장안라이온스클럽","tel":"031-236-3839","addr":"경기도 수원시 팔달구 인계동 968-12번지","indutype":"기타 - 비영리/대상","category":"other"}]},{"lat":"37.259986338","long":"127.03281131","imageIndex":17,"items":[{"name":"국제로타리3750지구남수원로타리클럽","tel":"031-233-4417","addr":"경기도 수원시 팔달구 인계동 1126-11번지 와이엘빌딩 402호","indutype":"기타 - 비영리/대상","category":"other"},{"name":"남수원로타리클럽","tel":"031-223-4417","addr":"경기도 수원시 팔달구 인계동 1126-11번지 와이엘빌딩 402호","indutype":"기타 - 비영리/비대상","category":"other"},{"name":"라미","tel":"031-225-4656","addr":"경기도 수원시 팔달구 인계동 1126-11번지 와이엘빌딩 102호","indutype":"신변잡화 - 액세서리","category":"other"},{"name":"세무사권혁준사무소","tel":"031-222-7050","addr":"경기도 수원시 팔달구 인계동 1126-11번지 와이엘빌딩 5층","indutype":"용역 서비스 - 법률회계서비스(개인)","category":"other"},{"name":"세무사윤관일사무소","tel":"031-225-6565","addr":"경기도 수원시 팔달구 인계동 1126-11번지","indutype":"용역 서비스 - 법률회계서비스(개인)","category":"other"},{"name":"진성실업","tel":"031-238-0255","addr":"경기도 수원시 팔달구 인계동 1126-11번지 와이엘빌딩 4층","indutype":"용역 서비스 - 기타용역서비스","category":"other"},{"name":"최형호세무회계사무소","tel":"031-243-1300","addr":"경기도 수원시 팔달구 인계동 1126-11번지 와이엠빌딩 501호","indutype":"용역 서비스 - 법률회계서비스(개인)","category":"other"}]},{"lat":"37.273430971","long":"127.02722432","imageIndex":17,"items":[{"name":"국제로타리3750지구수원중앙로타리클럽","tel":"031-239-3009","addr":"경기도 수원시 팔달구 인계동 262-2번지 3층","indutype":"기타 - 비영리/대상","category":"other"}]},{"lat":"37.269511307","long":"127.02813627","imageIndex":17,"items":[{"name":"국제사이버대학교","tel":"031-229-6224","addr":"경기도 수원시 팔달구 인계동 950-12번지 국제사이버대학교 재무관리팀","indutype":"유통업 영리 - 인터넷 Mall","category":"other"},{"name":"국제사이버대학교","tel":"031-229-6200","addr":"경기도 수원시 팔달구 인계동 950-12번지 국제사이버대학교 재무관리팀","indutype":"유통업 영리 - 인터넷 Mall","category":"other"},{"name":"국제사이버대학교","tel":"031-229-6200","addr":"경기도 수원시 팔달구 인계동 950-12번지 국제사이버대학교 재무관리팀","indutype":"유통업 영리 - 인터넷 Mall","category":"other"}]},{"lat":"37.259211674","long":"127.03192046","imageIndex":17,"items":[{"name":"굿타이샵","tel":"031-898-7717","addr":"경기도 수원시 팔달구 인계동 1132-20번지 2층","indutype":"신변잡화 - 기타잡화","category":"other"},{"name":"졸리팜므","tel":"031-232-2773","addr":"경기도 수원시 팔달구 인계동 1132-20번지","indutype":"의류 - 정장","category":"other"}]},{"lat":"37.266710106","long":"127.02291556","imageIndex":17,"items":[{"name":"궁 노래","tel":"031-224-7844","addr":"경기도 수원시 팔달구 인계동 988-5번지 지하","indutype":"용역 서비스 - 종합용역","category":"other"}]},{"lat":"37.267349716","long":"127.02361471","imageIndex":17,"items":[{"name":"그린","tel":"031-223-5214","addr":"경기도 수원시 팔달구 인계동 989번지 노블하우스 404호","indutype":"건축자재 - 인테리어전문","category":"other"}]},{"lat":"37.27590614","long":"127.03783507","imageIndex":17,"items":[{"name":"그린라인","tel":"031-212-1170","addr":"경기도 수원시 팔달구 인계동 158-27번지 212호","indutype":"용역 서비스 - 종합용역","category":"other"},{"name":"닥터꼼꼼이","tel":"","addr":"경기도 수원시 팔달구 인계동 158-27번지 202호","indutype":"용역 서비스 - 종합용역","category":"other"},{"name":"예성안전","tel":"031-232-9321","addr":"경기도 수원시 팔달구 인계동 158-27번지","indutype":"기타 - 기계공구","category":"other"},{"name":"이은수피부관리실","tel":"031-212-5229","addr":"경기도 수원시 팔달구 인계동 158-27번지 외1필지","indutype":"회원제형태 - 기타4","category":"other"},{"name":"푸른기획","tel":"031-213-3251","addr":"경기도 수원시 팔달구 인계동 158-27번지","indutype":"용역 서비스 - 종합용역","category":"other"}]},{"lat":"37.267484786","long":"127.02408825","imageIndex":17,"items":[{"name":"그린정보통신","tel":"031-226-2929","addr":"경기도 수원시 팔달구 인계동 983-6번지 2층","indutype":"사무통신 - 통신기기","category":"other"},{"name":"더 트리","tel":"031-232-0008","addr":"경기도 수원시 팔달구 인계동 983-6번지 1층","indutype":"문화.취미 - 화원","category":"other"},{"name":"스타샵","tel":"","addr":"경기도 수원시 팔달구 인계동 983-6번지 1층","indutype":"신변잡화 - 기타잡화","category":"other"},{"name":"오케이비즈메카","tel":"0031-0232-2773","addr":"경기도 수원시 팔달구 인계동 983-6번지 2층","indutype":"별도관리 - 자체물품대금","category":"other"}]},{"lat":"37.274457058","long":"127.03202779","imageIndex":17,"items":[{"name":"그린케어협동조합","tel":"02-0000-0000","addr":"경기도 수원시 팔달구 인계동 319-6번지 두인빌딩 2층","indutype":"용역 서비스 - 종합용역","category":"other"},{"name":"보세닷컴","tel":"031-235-5182","addr":"경기도 수원시 팔달구 인계동 319-6한신상가B-17호","indutype":"의류 - 정장","category":"other"},{"name":"스톰티엔비","tel":"","addr":"경기도 수원시 팔달구 인계동 319-6번지 두인빌딩 2층","indutype":"신변잡화 - 기타잡화","category":"other"},{"name":"씨유인계한신점","tel":"02-1577-8007","addr":"경기도 수원시 팔달구 인계동 319-6번지 신반포아파트 상가동 지하층 001호","indutype":"유통업 영리 - 편 의 점","category":"other"},{"name":"엑스퍼트","tel":"031-239-0620","addr":"경기도 수원시 팔달구 인계동 319-6한신상가내16호","indutype":"사무통신 - 기타 사무용품","category":"other"},{"name":"이어센스","tel":"031-226-4703","addr":"경기도 수원시 팔달구 인계동 319-6한신상가15","indutype":"의류 - 내의판매","category":"other"},{"name":"태양","tel":"031-222-9683","addr":"경기도 수원시 팔달구 인계동 319-6번지 상가동지하20호","indutype":"신변잡화 - 기타잡화","category":"other"},{"name":"한신란제리","tel":"031-225-6282","addr":"경기도 수원시 팔달구 인계동 319-6번지 한신상가 지하 8호","indutype":"의류 - 내의판매","category":"other"},{"name":"한신보수","tel":"031-235-3422","addr":"경기도 수원시 팔달구 인계동 319-6번지 한신 상가 121동 122호","indutype":"건축자재 - 목재·석재·철물","category":"other"},{"name":"효경건설 주식회사","tel":"031-297-5538","addr":"경기도 수원시 팔달구 인계동 319-6번지 한신 상가 202호","indutype":"건축자재 - 인테리어전문","category":"other"}]},{"lat":"37.272512","long":"127.02684068","imageIndex":17,"items":[{"name":"극동광고기획","tel":"031-238-0123","addr":"경기도 수원시 팔달구 인계동 263번지","indutype":"용역 서비스 - 종합용역","category":"other"},{"name":"수원대형액자","tel":"031-232-3968","addr":"경기도 수원시 팔달구 인계동 263번지 1층","indutype":"문화.취미 - 화방·표구점","category":"other"}]},{"lat":"37.268268765","long":"127.02361496","imageIndex":17,"items":[{"name":"글로벌환경","tel":"031-223-9244","addr":"경기도 수원시 팔달구 인계동 985-15번지","indutype":"용역 서비스 - 종합용역","category":"other"}]},{"lat":"37.270762246","long":"127.03436017","imageIndex":17,"items":[{"name":"금단화원","tel":"031-215-9865","addr":"경기도 수원시 팔달구 인계동 359-11번지","indutype":"문화.취미 - 화원","category":"other"}]},{"lat":"37.269124102","long":"127.02699745","imageIndex":17,"items":[{"name":"금성정보통신","tel":"031-1577-0668","addr":"경기도 수원시 팔달구 인계동 966-9번지 지연빌딩 4층 402-1호","indutype":"사무통신 - 통신기기","category":"other"}]},{"lat":"37.269936018","long":"127.02150712","imageIndex":17,"items":[{"name":"금성판유리","tel":"031-232-7319","addr":"경기도 수원시 팔달구 인계동 908번지 A동 1층","indutype":"건축자재 - 유리","category":"other"},{"name":"운동화빨래방이불","tel":"031-235-8284","addr":"경기도 수원시 팔달구 인계동 908번지","indutype":"수리서비스 - 세탁소","category":"other"},{"name":"천지꽃도.소매","tel":"031-225-5294","addr":"경기도 수원시 팔달구 인계동 908번지 지하1층","indutype":"문화.취미 - 화원","category":"other"}]},{"lat":"37.272464091","long":"127.03825064","imageIndex":17,"items":[{"name":"금실","tel":"070-822-7008","addr":"경기도 수원시 팔달구 인계동 375-1번지","indutype":"의류 - 정장","category":"other"}]},{"lat":"37.269213989","long":"127.0280347","imageIndex":17,"items":[{"name":"김나은웨딩","tel":"031-233-0822","addr":"경기도 수원시 팔달구 인계동 950-6번지","indutype":"용역 서비스 - 혼례서비스","category":"other"},{"name":"비쥬앤블랑","tel":"031-233-0370","addr":"경기도 수원시 팔달구 인계동 950-6번지 1층","indutype":"용역 서비스 - 혼례서비스","category":"other"},{"name":"비쥬앤블랑","tel":"031-233-0370","addr":"경기도 수원시 팔달구 인계동 950-6번지 1층 2층","indutype":"용역 서비스 - 혼례서비스","category":"other"},{"name":"아르페지오 인계점","tel":"031-356-9067","addr":"경기도 수원시 팔달구 인계동 950-6번지 2층","indutype":"의류 - 맞춤복점","category":"other"},{"name":"케이브라이덜","tel":"031-233-0374","addr":"경기도 수원시 팔달구 인계동 950-6번지 1층","indutype":"용역 서비스 - 혼례서비스","category":"other"}]},{"lat":"37.267376439","long":"127.0253058","imageIndex":17,"items":[{"name":"김남주볼링","tel":"031-223-0923","addr":"경기도 수원시 팔달구 인계동 981-5번지 1층","indutype":"레져용품 - 스포츠·레져용품","category":"other"}]},{"lat":"37.25870728","long":"127.031165","imageIndex":17,"items":[{"name":"김태희에스테틱","tel":"031-233-1215","addr":"경기도 수원시 팔달구 인계동 1132-19번지 대웅빌딩 2층","indutype":"회원제형태 - 기타4","category":"other"}]},{"lat":"37.268655998","long":"127.0247763","imageIndex":17,"items":[{"name":"꼬리치는강아지","tel":"031-225-9808","addr":"경기도 수원시 팔달구 인계동 975-7번지 1층","indutype":"문화.취미 - 애완동물","category":"other"}]},{"lat":"37.269403856","long":"127.02475397","imageIndex":17,"items":[{"name":"꽃나라화원","tel":"031-235-5678","addr":"경기도 수원시 팔달구 인계동 974번지","indutype":"문화.취미 - 화원","category":"other"}]},{"lat":"37.269240111","long":"127.03200323","imageIndex":17,"items":[{"name":"꿈의공작소","tel":"031-216-5201","addr":"경기도 수원시 팔달구 인계동 468번지 KBS수원아트홀","indutype":"문화.취미 - 티켓","category":"other"},{"name":"세종법률사무소(경기중앙)","tel":"031-212-1040","addr":"경기도 수원시 팔달구 인계동 468번지 KBS수원방송센터 3층","indutype":"용역 서비스 - 법률회계서비스(개인)","category":"other"},{"name":"플로썸","tel":"070-8861-2727","addr":"경기도 수원시 팔달구 인계동 468번지","indutype":"문화.취미 - 티켓","category":"other"}]},{"lat":"37.268158428","long":"127.03377284","imageIndex":17,"items":[{"name":"나노닥터","tel":"031-212-4446","addr":"경기도 수원시 팔달구 인계동 465번지 래미안노블클래스 204동 1803호","indutype":"회원제형태 - 기타4","category":"other"}]},{"lat":"37.274566214","long":"127.02747273","imageIndex":17,"items":[{"name":"나노미디어","tel":"031-238-5988","addr":"경기도 수원시 팔달구 인계동 956-2번지","indutype":"전기제품 - 기타전기제품","category":"other"}]},{"lat":"37.273405302","long":"127.01930939","imageIndex":17,"items":[{"name":"나무이야기","tel":"031-233-3029","addr":"경기도 수원시 팔달구 인계동 770-9번지","indutype":"가구 - 일반가구","category":"other"},{"name":"이룸씽크공장.앵글","tel":"02-232-3972","addr":"경기도 수원시 팔달구 인계동 770-9번지","indutype":"건축자재 - 목재·석재·철물","category":"other"}]},{"lat":"37.265602003","long":"127.02192318","imageIndex":17,"items":[{"name":"나연시스템","tel":"031-2678-7789","addr":"경기도 수원시 팔달구 인계동 1004번지","indutype":"용역 서비스 - 기타용역서비스","category":"other"},{"name":"화홍자판기","tel":"031-224-6387","addr":"경기도 수원시 팔달구 인계동 1004번지","indutype":"기타 - 기타 전문점","category":"other"}]},{"lat":"37.269016279","long":"127.0254754","imageIndex":17,"items":[{"name":"날개통신","tel":"031-226-5947","addr":"경기도 수원시 팔달구 인계동 974-4번지 서림빌딩 103호","indutype":"사무통신 - 통신기기","category":"other"},{"name":"유신타이루상사","tel":"031-233-2541","addr":"경기도 수원시 팔달구 인계동 974-4번지","indutype":"건축자재 - 건축용 요업제품","category":"other"}]},{"lat":"37.267880935","long":"127.02572309","imageIndex":17,"items":[{"name":"남길공인중개사사무소","tel":"031-222-8949","addr":"경기도 수원시 팔달구 인계동 981-11번지 Home N 101호","indutype":"용역 서비스 - 부동산 중개·임대","category":"other"}]},{"lat":"37.273927521","long":"127.02183508","imageIndex":17,"items":[{"name":"너울여울","tel":"031-234-2551","addr":"경기도 수원시 팔달구 인계동 758-12번지 화성 상가 2동 1층 17호","indutype":"기타 - 비영리/비대상","category":"other"}]},{"lat":"37.271574888","long":"127.0270546","imageIndex":17,"items":[{"name":"노송로타리클럽","tel":"031-235-4488","addr":"경기도 수원시 팔달구 인계동 961-11번지 2층","indutype":"기타 - 비영리/대상","category":"other"},{"name":"리엔케이수원인계지사","tel":"031-225-7161","addr":"경기도 수원시 팔달구 인계동 961-11번지 2층","indutype":"신변잡화 - 기타잡화","category":"other"}]},{"lat":"37.271963419","long":"127.02094389","imageIndex":17,"items":[{"name":"뉴모드","tel":"031-307-5771","addr":"경기도 수원시 팔달구 인계동 859-37번지 1층","indutype":"용역 서비스 - 종합용역","category":"other"}]},{"lat":"37.266212078","long":"127.03425681","imageIndex":17,"items":[{"name":"뉴코아수선","tel":"031-236-0831","addr":"경기도 수원시 팔달구 인계동 1114-1번지 뉴코아 3층 수선실","indutype":"수리서비스 - 세탁소","category":"other"},{"name":"블럭버스 동수원점","tel":"031-231-6933","addr":"경기도 수원시 팔달구 인계동 1114-1번지 동수원뉴코아아울렛 9층","indutype":"서적문구 - 완구점","category":"other"},{"name":"에스앤비코리아주식회사/스킨포유동수원점","tel":"031-231-6955","addr":"경기도 수원시 팔달구 인계동 1114-1번지 9층","indutype":"회원제형태 - 기타1","category":"other"},{"name":"유현","tel":"031-224-3010","addr":"경기도 수원시 팔달구 인계동 1114-1 동수원뉴코아지하1층 휴대폰매장","indutype":"사무통신 - 통신기기","category":"other"},{"name":"정후디지털","tel":"031-226-0123","addr":"경기도 수원시 팔달구 인계동 1114-1번지 뉴코아빌딩 1층","indutype":"사무통신 - 통신기기","category":"other"}]},{"lat":"37.2636002","long":"127.02975766","imageIndex":17,"items":[{"name":"늘곁에 정보통신","tel":"031-238-8653","addr":"경기도 수원시 팔달구 인계동 1044번지 삼라빌딩 901호","indutype":"사무통신 - 통신기기","category":"other"},{"name":"복싱멘토스쿨","tel":"031-225-1239","addr":"경기도 수원시 팔달구 인계동 1044번지 삼라빌딩 402호","indutype":"회원제형태 - 레져업소","category":"other"},{"name":"세도나(SEDONA)","tel":"031-898-8772","addr":"경기도 수원시 팔달구 인계동 1044번지 삼라빌딩 905호","indutype":"전기제품 - 기타전기제품","category":"other"}]},{"lat":"37.273241196","long":"127.02980619","imageIndex":17,"items":[{"name":"다낭보물창고","tel":"070-8833-8770","addr":"경기도 수원시 팔달구 인계동 945번지 인계극동스타클래스 104동 101호","indutype":"여행 - 관광여행","category":"other"},{"name":"신세계퍼니쳐","tel":"031-302-5848","addr":"경기도 수원시 팔달구 인계동 945번지 인계극동스타클래스 102동 상가 2-1호","indutype":"가구 - 일반가구","category":"other"}]},{"lat":"37.271484588","long":"127.02800164","imageIndex":17,"items":[{"name":"다누 인테리어 디자인","tel":"031-224-3288","addr":"경기도 수원시 팔달구 인계동 962-4번지 1층","indutype":"건축자재 - 인테리어전문","category":"other"}]},{"lat":"37.266491945","long":"127.03211491","imageIndex":17,"items":[{"name":"다온 스튜디오","tel":"","addr":"경기도 수원시 팔달구 인계동 1036-9번지 B1층","indutype":"용역 서비스 - 사무서비스","category":"other"}]},{"lat":"37.277683197","long":"127.03008965","imageIndex":17,"items":[{"name":"다온컴퍼니","tel":"070-5010-7879","addr":"경기도 수원시 팔달구 인계동 952-8번지 201호","indutype":"신변잡화 - 가방","category":"other"}]},{"lat":"37.264103288","long":"127.03566512","imageIndex":17,"items":[{"name":"달:꽃(DAL:BLOOM)","tel":"","addr":"경기도 수원시 팔달구 인계동 1118-3번지 2층 9호","indutype":"신변잡화 - 액세서리","category":"other"},{"name":"미플러스 쥬얼리","tel":"070-7424-3156","addr":"경기도 수원시 팔달구 인계동 1118-3번지 2층 4호","indutype":"신변잡화 - 액세서리","category":"other"}]},{"lat":"37.263373911","long":"127.0339738","imageIndex":17,"items":[{"name":"달빛 사진관","tel":"031-221-3370","addr":"경기도 수원시 팔달구 인계동 1120-10번지 2층 202호 우측후면상가","indutype":"광학제품 - 사진관","category":"other"},{"name":"대성세무회계사무소","tel":"031-237-6958","addr":"경기도 수원시 팔달구 인계동 1120-10번지 3층 301호","indutype":"용역 서비스 - 법률회계서비스(개인)","category":"other"}]},{"lat":"37.264518376","long":"127.03336551","imageIndex":17,"items":[{"name":"대경솔루션","tel":"031-238-8257","addr":"경기도 수원시 팔달구 인계동 1119번지 샤르망 512호","indutype":"수리서비스 - 기타수리서비스","category":"other"},{"name":"럭시스","tel":"031-231-8849","addr":"경기도 수원시 팔달구 인계동 1119번지 인계사르망오피스텔 1층 101호","indutype":"신변잡화 - 기타잡화","category":"other"},{"name":"뮤즈","tel":"070-8612-9729","addr":"경기도 수원시 팔달구 인계동 1119번지 인계샤르망오피스텔 110호","indutype":"의류 - 정장","category":"other"},{"name":"밝은얼굴에스테틱","tel":"031-254-5800","addr":"경기도 수원시 팔달구 인계동 1119번지 샤르망빌딩","indutype":"회원제형태 - 기타4","category":"other"},{"name":"빛나다","tel":"","addr":"경기도 수원시 팔달구 인계동 1119번지 인계샤르망오피스텔 6층 622호","indutype":"신변잡화 - 액세서리","category":"other"},{"name":"샤르망세탁,수선","tel":"031-232-0193","addr":"경기도 수원시 팔달구 인계동 1119번지 샤르망 123호","indutype":"의류 - 정장","category":"other"},{"name":"에스제이트레이딩","tel":"031-225-8225","addr":"경기도 수원시 팔달구 인계동 1119번지 인계샤르망오피스텔 1110호","indutype":"용역 서비스 - 종합용역","category":"other"},{"name":"엔이테크","tel":"031-221-1344","addr":"경기도 수원시 팔달구 인계동 1119번지 인계샤르망오피스텔 310호","indutype":"건축자재 - 인테리어전문","category":"other"},{"name":"인계샤르망공인중개사사무소","tel":"031-235-0081","addr":"경기도 수원시 팔달구 인계동 1119번지 샤르망 상가 119호","indutype":"용역 서비스 - 부동산 중개·임대","category":"other"},{"name":"제시뉴욕 동수원점","tel":"031-237-0045","addr":"경기도 수원시 팔달구 인계동 1119번지 인계샤르망112,113","indutype":"의류 - 정장","category":"other"},{"name":"조이너스동수원점","tel":"031-226-9800","addr":"경기도 수원시 팔달구 인계동 1119번지 인계샤르망 1층 115호","indutype":"의류 - 정장","category":"other"},{"name":"트루젠동수원대리점","tel":"031-221-2377","addr":"경기도 수원시 팔달구 인계동 1119번지","indutype":"의류 - 정장","category":"other"},{"name":"트왕","tel":"031-233-5033","addr":"경기도 수원시 팔달구 인계동 1119번지 인계샤르망오피스텔 114호","indutype":"의류 - 정장","category":"other"},{"name":"한양기계공구","tel":"","addr":"경기도 수원시 팔달구 인계동 1119번지 인계샤르만오피스텔 1014호","indutype":"기타 - 기계공구","category":"other"},{"name":"한울세무회계사무소","tel":"031-223-7817","addr":"경기도 수원시 팔달구 인계동 1119번지 인계샤르망오피스텔 1218호","indutype":"용역 서비스 - 법률회계서비스(개인)","category":"other"}]},{"lat":"37.26624141","long":"127.02383988","imageIndex":17,"items":[{"name":"대광OA","tel":"031-234-6110","addr":"경기도 수원시 팔달구 인계동 999-10번지 입암빌딩 3층","indutype":"사무통신 - 컴퓨터","category":"other"},{"name":"삼성장식","tel":"031-222-2110","addr":"경기도 수원시 팔달구 인계동 999-10번지","indutype":"직물 - 카페트,커튼,천막,지물","category":"other"},{"name":"제이솔루션","tel":"031-454-5827","addr":"경기도 수원시 팔달구 인계동 999-10번지 3층","indutype":"사무통신 - 사무용 OA기기","category":"other"}]},{"lat":"37.268043236","long":"127.02511434","imageIndex":17,"items":[{"name":"대동전기상사","tel":"031-234-3727","addr":"경기도 수원시 팔달구 인계동 982-7번지 102호","indutype":"건축자재 - 조명기구","category":"other"},{"name":"대원전기공사","tel":"031-233-8213","addr":"경기도 수원시 팔달구 인계동 982-7번지","indutype":"용역 서비스 - 기타용역서비스","category":"other"}]},{"lat":"37.271872013","long":"127.02808069","imageIndex":17,"items":[{"name":"대륙건재","tel":"031-236-5158","addr":"경기도 수원시 팔달구 인계동 962-2번지","indutype":"건축자재 - 기타건축자재","category":"other"},{"name":"대륙조경","tel":"031-236-5158","addr":"경기도 수원시 팔달구 인계동 962-2번지","indutype":"건축자재 - 인테리어전문","category":"other"}]},{"lat":"37.276511901","long":"127.0299201","imageIndex":17,"items":[{"name":"대림소방","tel":"031-238-2886","addr":"경기도 수원시 팔달구 인계동 952-20번지 한신상사빌딩 대림소방","indutype":"기타 - 기타 전문점","category":"other"},{"name":"코디3","tel":"","addr":"경기도 수원시 팔달구 인계동 952-20번지 한신빌딩 B1층","indutype":"의류 - 정장","category":"other"},{"name":"황금타래우리옷","tel":"031-223-0515","addr":"경기도 수원시 팔달구 인계동 952-20번지 한신빌딩","indutype":"의류 - 맞춤복점","category":"other"},{"name":"훼미리스크린골프","tel":"031-221-7729","addr":"경기도 수원시 팔달구 인계동 952-20번지","indutype":"회원제형태 - 레져업소","category":"other"}]},{"lat":"37.269295805","long":"127.02435934","imageIndex":17,"items":[{"name":"대산금속","tel":"031-231-8904","addr":"경기도 수원시 팔달구 인계동 875-5번지","indutype":"건축자재 - 기타건축자재","category":"other"},{"name":"주식회사 타일루쏘","tel":"031-234-1603","addr":"경기도 수원시 팔달구 인계동 875-5번지","indutype":"건축자재 - 건축용 요업제품","category":"other"}]},{"lat":"37.273158201","long":"127.03716859","imageIndex":17,"items":[{"name":"대성합판목재상사","tel":"031-238-2738","addr":"경기도 수원시 팔달구 인계동 374-3번지","indutype":"건축자재 - 기타건축자재","category":"other"}]},{"lat":"37.261769835","long":"127.03488627","imageIndex":17,"items":[{"name":"대신정기화물","tel":"031-235-2838","addr":"경기도 수원시 팔달구 인계동 1122-5번지 1층","indutype":"용역 서비스 - 보관및 창고업","category":"other"},{"name":"참(sharm) 쥬얼리","tel":"","addr":"경기도 수원시 팔달구 인계동 1122-5번지","indutype":"신변잡화 - 귀금속","category":"other"},{"name":"코콜상사","tel":"031-251-4555","addr":"경기도 수원시 팔달구 인계동 1122-5번지 1층","indutype":"레져용품 - 스포츠·레져용품","category":"other"}]},{"lat":"37.269845151","long":"127.02585898","imageIndex":17,"items":[{"name":"대신통운","tel":"031-217-2767","addr":"경기도 수원시 팔달구 인계동 972-6번지 수영빌딩 4층","indutype":"여행 - 기타교통수단","category":"other"},{"name":"수영주얼리","tel":"031-238-6038","addr":"경기도 수원시 팔달구 인계동 972-6번지 수영빌딩","indutype":"신변잡화 - 액세서리","category":"other"}]},{"lat":"37.265961726","long":"127.0258127","imageIndex":17,"items":[{"name":"대양종합상사","tel":"031-226-6431","addr":"경기도 수원시 팔달구 인계동 979-9번지 1층","indutype":"신변잡화 - 기타잡화","category":"other"},{"name":"대유","tel":"031-221-0634","addr":"경기도 수원시 팔달구 인계동 979-9번지 1층","indutype":"신변잡화 - 기타잡화","category":"other"},{"name":"르몽드 스튜디오","tel":"","addr":"경기도 수원시 팔달구 인계동 979-9번지 4층","indutype":"광학제품 - 사진관","category":"other"},{"name":"제인상사","tel":"031-234-3651","addr":"경기도 수원시 팔달구 인계동 979-9번지","indutype":"건축자재 - 보일러·펌프·샷시","category":"other"},{"name":"주식회사 새아침","tel":"031-212-1218","addr":"경기도 수원시 팔달구 인계동 979-9번지 삼웅빌딩","indutype":"유통업 영리 - 기타유통업","category":"other"}]},{"lat":"37.265682493","long":"127.02536167","imageIndex":17,"items":[{"name":"대영상사","tel":"031-235-8544","addr":"경기도 수원시 팔달구 인계동 995-12","indutype":"건축자재 - 기타건축자재","category":"other"}]},{"lat":"37.270431571","long":"127.02158617","imageIndex":17,"items":[{"name":"대영천막공업사","tel":"031-232-5115","addr":"경기도 수원시 팔달구 인계동 864-1번지","indutype":"직물 - 카페트,커튼,천막,지물","category":"other"}]},{"lat":"37.259680196","long":"127.03197701","imageIndex":17,"items":[{"name":"대우마이홈세탁소","tel":"031-224-8818","addr":"경기도 수원시 팔달구 인계동 1131-1번지 대우마이홈 108호","indutype":"수리서비스 - 세탁소","category":"other"},{"name":"엘독(L.DOG)","tel":"031-225-1829","addr":"경기도 수원시 팔달구 인계동 1131-1번지 대우마이홈 103호","indutype":"문화.취미 - 애완동물","category":"other"},{"name":"오에스메디칼","tel":"031-226-4113","addr":"경기도 수원시 팔달구 인계동 1131-1번지 대우마이홈 414호","indutype":"기타의료기관 - 기타의료기관 및 기타","category":"other"}]},{"lat":"37.267818217","long":"127.02380649","imageIndex":17,"items":[{"name":"대한공사","tel":"031-243-4171","addr":"경기도 수원시 팔달구 인계동 984-10번지 1층","indutype":"건축자재 - 보일러·펌프·샷시","category":"other"}]},{"lat":"37.270710143","long":"127.02583669","imageIndex":17,"items":[{"name":"대한민국프로덕션","tel":"031-207-6102","addr":"경기도 수원시 팔달구 인계동 968-11번지 101호","indutype":"광학제품 - 사진관","category":"other"},{"name":"미디어뱅크","tel":"031-898-6123","addr":"경기도 수원시 팔달구 인계동 968-11번지 103호","indutype":"광학제품 - 사진관","category":"other"}]},{"lat":"37.272043507","long":"127.02663759","imageIndex":17,"items":[{"name":"대형유리","tel":"031-234-1894","addr":"경기도 수원시 팔달구 인계동 267-5번지","indutype":"건축자재 - 유리","category":"other"},{"name":"동남아크릴","tel":"031-223-4933","addr":"경기도 수원시 팔달구 인계동 267-5번지","indutype":"건축자재 - 기타건축자재","category":"other"}]},{"lat":"37.26621351","long":"127.02828173","imageIndex":17,"items":[{"name":"대화정보통신","tel":"031-222-3393","addr":"경기도 수원시 팔달구 인계동 1023-5번지 2층","indutype":"사무통신 - 통신기기","category":"other"}]},{"lat":"37.26920564","long":"127.02469754","imageIndex":17,"items":[{"name":"더나은","tel":"031-232-7791","addr":"경기도 수원시 팔달구 인계동 974-9번지 중앙빌딩 1층 3호","indutype":"유통업 영리 - 기타유통업","category":"other"},{"name":"한솔시스템","tel":"031-223-8586","addr":"경기도 수원시 팔달구 인계동 974-9번지","indutype":"전기제품 - 가전제품","category":"other"}]},{"lat":"37.258518115","long":"127.03095075","imageIndex":17,"items":[{"name":"더마스터짐(The-Master Gym)","tel":"031-1599-7497","addr":"경기도 수원시 팔달구 인계동 1135-6번지 두오빌딩 2층","indutype":"레져용품 - 스포츠·레져용품","category":"other"}]},{"lat":"37.271629121","long":"127.02619775","imageIndex":17,"items":[{"name":"더블에이치","tel":"055-221-7507","addr":"경기도 수원시 팔달구 인계동 968-1번지 1층","indutype":"의류 - 정장","category":"other"}]},{"lat":"37.258679655","long":"127.03355479","imageIndex":17,"items":[{"name":"더블유(W)웨딩","tel":"031-267-3164","addr":"경기도 수원시 팔달구 인계동 1133-7번지","indutype":"의류 - 기타의류","category":"other"},{"name":"더엘르교육스튜디오","tel":"031-222-2727","addr":"경기도 수원시 팔달구 인계동 1133-7번지 1층 3호","indutype":"광학제품 - 사진관","category":"other"},{"name":"영신","tel":"031-223-7332","addr":"경기도 수원시 팔달구 인계동 1133-7번지","indutype":"회원제형태 - 기타4","category":"other"}]},{"lat":"37.266933552","long":"127.03169795","imageIndex":17,"items":[{"name":"더스퀘어","tel":"031-221-0343","addr":"경기도 수원시 팔달구 인계동 1036-5번지","indutype":"용역 서비스 - 부동산 중개·임대","category":"other"},{"name":"우리토지정보 주식회사","tel":"031-267-4933","addr":"경기도 수원시 팔달구 인계동 1036-5번지 써드아이빌딩 5층","indutype":"건축자재 - 부동산 분양","category":"other"},{"name":"우리토지정보주식회사","tel":"031-267-4933","addr":"경기도 수원시 팔달구 인계동 1036-5번지 써드아이빌딩 5층","indutype":"건축자재 - 부동산 분양","category":"other"},{"name":"우리토지정보주식회사","tel":"031-234-3358","addr":"경기도 수원시 팔달구 인계동 1036-5번지 써드아이빌딩 5층","indutype":"건축자재 - 부동산 분양","category":"other"},{"name":"주식회사수원일보사","tel":"031-223-3633","addr":"경기도 수원시 팔달구 인계동 1036-5번지 서원빌딩 4층","indutype":"용역 서비스 - 종합용역","category":"other"}]},{"lat":"37.276843912","long":"127.03536621","imageIndex":17,"items":[{"name":"더한&의자애","tel":"070-4137-1613","addr":"경기도 수원시 팔달구 인계동 1169번지 상가동 117,129-1,2,3,4,5,6","indutype":"가구 - 일반가구","category":"other"},{"name":"디에리스(D.ERIS)","tel":"031-241-0434","addr":"경기도 수원시 팔달구 인계동 1169번지 수원인계푸르지오 118호","indutype":"의류 - 맞춤복점","category":"other"},{"name":"수원 제이게임","tel":"070-8243-4152","addr":"경기도 수원시 팔달구 인계동 1169번지 수원인계푸르지오 상가동 131호","indutype":"서적문구 - 완구점","category":"other"},{"name":"스마트 동수원점","tel":"031-212-3012","addr":"경기도 수원시 팔달구 인계동 1169번지 수원인계푸르지오 117호","indutype":"레져용품 - 스포츠·레져용품","category":"other"},{"name":"크린위드 인계푸르지오","tel":"031-216-3655","addr":"경기도 수원시 팔달구 인계동 1169번지 수원인계푸르지오 상가동 123호","indutype":"수리서비스 - 세탁소","category":"other"},{"name":"키움브레인센터","tel":"070-7717-6952","addr":"경기도 수원시 팔달구 인계동 1169번지 수원인계푸르지오 상가동 124호","indutype":"서적문구 - 기타서적문구","category":"other"},{"name":"푸르지오마트","tel":"031-232-6169","addr":"경기도 수원시 팔달구 인계동 1169번지 수원인계푸르지오 상가동 지하1층 105호","indutype":"유통업 영리 - 편 의 점","category":"other"},{"name":"혜한복","tel":"070-8782-6016","addr":"경기도 수원시 팔달구 인계동 1169번지 제상가동 수원인계푸르지오 112호","indutype":"의류 - 맞춤복점","category":"other"}]},{"lat":"37.264042246","long":"127.02725512","imageIndex":17,"items":[{"name":"덕성디지털스튜디오","tel":"031-236-7836","addr":"경기도 수원시 팔달구 인계동 1027-7번지","indutype":"광학제품 - 사진관","category":"other"},{"name":"마샤전자담배인계점","tel":"031-236-1025","addr":"경기도 수원시 팔달구 인계동 1027-7번지","indutype":"기타 - 기타 전문점","category":"other"},{"name":"서원속기사무소","tel":"031-223-1117","addr":"경기도 수원시 팔달구 인계동 1027-7번지 3층 303호","indutype":"용역 서비스 - 사무서비스","category":"other"},{"name":"윤덕원법무사사무소","tel":"031-214-8008","addr":"경기도 수원시 팔달구 인계동 1027-7번지 대일빌딩 302호","indutype":"용역 서비스 - 법률회계서비스(개인)","category":"other"},{"name":"은광건축사사무소","tel":"031-238-2526","addr":"경기도 수원시 팔달구 인계동 1027-7번지 대일빌딩","indutype":"용역 서비스 - 사무서비스","category":"other"},{"name":"진성기획","tel":"031-291-8092","addr":"경기도 수원시 팔달구 인계동 1027-7번지 대일빌딩 2층 203호","indutype":"용역 서비스 - 종합용역","category":"other"}]},{"lat":"37.271845189","long":"127.02708851","imageIndex":17,"items":[{"name":"데일리유니크","tel":"031-238-8838","addr":"경기도 수원시 팔달구 인계동 961-22번지 구산빌딩 4층","indutype":"광학제품 - 사진관","category":"other"},{"name":"트윈스 포토","tel":"031-8081-0920","addr":"경기도 수원시 팔달구 인계동 961-22번지 구산빌딩 4층","indutype":"광학제품 - 사진관","category":"other"}]},{"lat":"37.275260896","long":"127.02272614","imageIndex":17,"items":[{"name":"도깨비수입코너","tel":"070-3014-3695","addr":"경기도 수원시 팔달구 인계동 749-7번지 1층 1호","indutype":"의류 - 정장","category":"other"},{"name":"동진설비","tel":"031-235-0767","addr":"경기도 수원시 팔달구 인계동 749-7번지","indutype":"건축자재 - 보일러·펌프·샷시","category":"other"}]},{"lat":"37.270818086","long":"127.02674995","imageIndex":17,"items":[{"name":"도움을드리는법무사정용일","tel":"031-223-5072","addr":"경기도 수원시 팔달구 인계동 964-31번지 태광빌딩 2층","indutype":"용역 서비스 - 법률회계서비스(개인)","category":"other"},{"name":"법무사 윤재춘","tel":"031-223-5075","addr":"경기도 수원시 팔달구 인계동 964-31번지 태광빌딩 2층","indutype":"용역 서비스 - 법률회계서비스(개인)","category":"other"}]},{"lat":"37.261373464","long":"127.03458173","imageIndex":17,"items":[{"name":"동가옥","tel":"031-234-8659","addr":"경기도 수원시 팔달구 인계동 1122-11번지 103호","indutype":"신변잡화 - 귀금속","category":"other"},{"name":"미니스톱 수원하이엔드점","tel":"031-1577-9621","addr":"경기도 수원시 팔달구 인계동 1122-11번지","indutype":"유통업 영리 - 편 의 점","category":"other"},{"name":"법무법인정운수원분사무소","tel":"031-226-3937","addr":"경기도 수원시 팔달구 인계동 1122-11번지 경인일보하이앤드호텔빌딩 107호","indutype":"용역 서비스 - 법률회계서비스(법인)","category":"other"}]},{"lat":"37.269214494","long":"127.02553183","imageIndex":17,"items":[{"name":"동대문 의류","tel":"031-221-5438","addr":"경기도 수원시 팔달구 인계동 974-3번지 1층","indutype":"의류 - 정장","category":"other"}]},{"lat":"37.265880329","long":"127.02733463","imageIndex":17,"items":[{"name":"동수원로타리클럽","tel":"031-238-7822","addr":"경기도 수원시 팔달구 인계동 1024-10번지 2층","indutype":"기타 - 비영리/대상","category":"other"},{"name":"씨유수원인계성호점","tel":"031-203-2331","addr":"경기도 수원시 팔달구 인계동 1024-10번지 에코원 101호","indutype":"유통업 영리 - 편 의 점","category":"other"}]},{"lat":"37.275602225","long":"127.02828488","imageIndex":17,"items":[{"name":"동신빌딩","tel":"070-4922-1261","addr":"경기도 수원시 팔달구 인계동 954-22번지","indutype":"문화.취미 - 화원","category":"other"}]},{"lat":"37.270350307","long":"127.02264594","imageIndex":17,"items":[{"name":"동양안전","tel":"031-234-1236","addr":"경기도 수원시 팔달구 인계동 865-10번지 파밀리에 상가동 101호","indutype":"기타 - 기타 전문점","category":"other"},{"name":"수원전자담배멀티샵","tel":"031-232-8882","addr":"경기도 수원시 팔달구 인계동 865-10번지 인계파밀리에 104호 상가","indutype":"기타 - 기타 전문점","category":"other"},{"name":"태극열쇠금고","tel":"031-223-1377","addr":"경기도 수원시 팔달구 인계동 865-10번지 신동아파밀리에단지 상가 103호","indutype":"기타 - 기계공구","category":"other"}]},{"lat":"37.271322639","long":"127.02686286","imageIndex":17,"items":[{"name":"동해철물건재","tel":"031-235-5627","addr":"경기도 수원시 팔달구 인계동 964-11번지","indutype":"기타 - 기계공구","category":"other"}]},{"lat":"37.267573882","long":"127.02911646","imageIndex":17,"items":[{"name":"두리방건축사사무소","tel":"031-221-4902","addr":"경기도 수원시 팔달구 인계동 1019-5번지","indutype":"용역 서비스 - 사무서비스","category":"other"},{"name":"사단법인 재한외국인지원협회","tel":"031-305-2666","addr":"경기도 수원시 팔달구 인계동 1019-5번지","indutype":"기타 - 비영리/비대상","category":"other"},{"name":"세븐일레븐수원KBS드라마점","tel":"031-1577-0711","addr":"경기도 수원시 팔달구 인계동 1019-5번지 1층 105호","indutype":"유통업 영리 - 편 의 점","category":"other"},{"name":"피비홈푸드중평떡볶이 주식회사","tel":"","addr":"경기도 수원시 팔달구 인계동 1019-5번지 1층 105호","indutype":"주방용구 - 주방용식기","category":"other"}]},{"lat":"37.263429017","long":"127.02970123","imageIndex":17,"items":[{"name":"드림에이앤아이 주식회사","tel":"031-898-6114","addr":"경기도 수원시 팔달구 인계동 1044-1번지 홍제빌딩 401호","indutype":"건축자재 - 부동산 분양","category":"other"},{"name":"선웅엔지니어링기술사사무소","tel":"031-238-3438","addr":"경기도 수원시 팔달구 인계동 1044-1번지 홍제빌딩 402호","indutype":"용역 서비스 - 기타용역서비스","category":"other"},{"name":"수원인계동 전자담배","tel":"02-1899-3272","addr":"경기도 수원시 팔달구 인계동 1044-1번지 홍제빌딩 1층 104호","indutype":"기타 - 기타 전문점","category":"other"},{"name":"신영CS","tel":"031-213-3453","addr":"경기도 수원시 팔달구 인계동 1044-1번지 중문빌딩 3층 305호","indutype":"건축자재 - 기타건축자재","category":"other"}]},{"lat":"37.26893554","long":"127.02353622","imageIndex":17,"items":[{"name":"디아고날","tel":"031-238-8112","addr":"경기도 수원시 팔달구 인계동 975-1번지 105호","indutype":"서적문구 - 출판 및 인쇄물","category":"other"},{"name":"향원플라워","tel":"031-223-0979","addr":"경기도 수원시 팔달구 인계동 975-1번지","indutype":"문화.취미 - 화원","category":"other"}]},{"lat":"37.276962941","long":"127.02750734","imageIndex":17,"items":[{"name":"디아이엠(DIM)","tel":"031-236-0701","addr":"경기도 수원시 팔달구 인계동 208-5번지","indutype":"사무통신 - 통신기기","category":"other"},{"name":"빈센트노인복지센터","tel":"032-565-8119","addr":"경기도 수원시 팔달구 인계동 208-5번지 풍림빌딩 4층","indutype":"기타의료기관 - 기타의료기관 및 기타","category":"other"},{"name":"엠케이(MK)365","tel":"031-891-4558","addr":"경기도 수원시 팔달구 인계동 208-5번지 풍림빌딩 1층","indutype":"신변잡화 - 신발","category":"other"},{"name":"오후2시","tel":"031-237-0050","addr":"경기도 수원시 팔달구 인계동 208-5번지 풍림빌딩 201호","indutype":"광학제품 - 사진관","category":"other"}]},{"lat":"37.266430777","long":"127.02297185","imageIndex":17,"items":[{"name":"디자이너","tel":"031-267-0741","addr":"경기도 수원시 팔달구 인계동 1001-12번지","indutype":"용역 서비스 - 종합용역","category":"other"}]},{"lat":"37.263934829","long":"127.02353486","imageIndex":17,"items":[{"name":"디자인바꿈","tel":"031-236-8859","addr":"경기도 수원시 팔달구 인계동 1009-3번지 2층","indutype":"건축자재 - 인테리어전문","category":"other"}]},{"lat":"37.264736798","long":"127.02323069","imageIndex":17,"items":[{"name":"디자인소풍","tel":"031-239-5249","addr":"경기도 수원시 팔달구 인계동 1007-10번지","indutype":"용역 서비스 - 종합용역","category":"other"}]},{"lat":"37.267124129","long":"127.02541847","imageIndex":17,"items":[{"name":"디자인수첩","tel":"031-237-3373","addr":"경기도 수원시 팔달구 인계동 981-14번지","indutype":"용역 서비스 - 종합용역","category":"other"}]},{"lat":"37.267214059","long":"127.02630913","imageIndex":17,"items":[{"name":"디자인올","tel":"031-237-5571","addr":"경기도 수원시 팔달구 인계동 979-3번지 현대빌딩 502호","indutype":"용역 서비스 - 사무서비스","category":"other"},{"name":"신용메디칼","tel":"031-224-3487","addr":"경기도 수원시 팔달구 인계동 979-3번지 현대빌딩 301호","indutype":"기타의료기관 - 기타의료기관 및 기타","category":"other"},{"name":"애플펫","tel":"031-221-7098","addr":"경기도 수원시 팔달구 인계동 979-3번지 현대빌딩 1층","indutype":"문화.취미 - 애완동물","category":"other"}]},{"lat":"37.264187292","long":"127.02250904","imageIndex":17,"items":[{"name":"디자인하이","tel":"031-234-1172","addr":"경기도 수원시 팔달구 인계동 1008-10번지 1층","indutype":"용역 서비스 - 사무서비스","category":"other"},{"name":"비엠에스(BMS)","tel":"031-221-5450","addr":"경기도 수원시 팔달구 인계동 1008-10번지","indutype":"유통업 영리 - 기타유통업","category":"other"}]},{"lat":"37.266456783","long":"127.02830436","imageIndex":17,"items":[{"name":"디자인한울","tel":"031-255-1595","addr":"경기도 수원시 팔달구 인계동 1023-14번지 1층","indutype":"용역 서비스 - 종합용역","category":"other"},{"name":"효원오에이","tel":"031-256-1012","addr":"경기도 수원시 팔달구 인계동 1023-14번지 성보빌딩 101호","indutype":"사무통신 - 사무용 OA기기","category":"other"}]},{"lat":"37.264374582","long":"127.03188862","imageIndex":17,"items":[{"name":"디팍스홀릭(DPARKS x HOLIC)","tel":"070-1111-1111","addr":"경기도 수원시 팔달구 인계동 1113-5번지 109호","indutype":"신변잡화 - 액세서리","category":"other"},{"name":"백송이 전문점","tel":"031-225-3771","addr":"경기도 수원시 팔달구 인계동 1113-5번지 1층 106호","indutype":"문화.취미 - 화원","category":"other"},{"name":"백송이 전문점 드라이플라워","tel":"031-238-3771","addr":"경기도 수원시 팔달구 인계동 1113-5번지 태산W타워 112호","indutype":"문화.취미 - 화원","category":"other"},{"name":"씨유인계태산점","tel":"080-080-3663","addr":"경기도 수원시 팔달구 인계동 1113-5번지 태산W타워 1층 103,104호","indutype":"유통업 영리 - 편 의 점","category":"other"},{"name":"이마트24 수원인계로데오점","tel":"031-000-0000","addr":"경기도 수원시 팔달구 인계동 1113-5번지 태산M타워 1층 103, 104호","indutype":"유통업 영리 - 편 의 점","category":"other"}]},{"lat":"37.274621538","long":"127.0203695","imageIndex":17,"items":[{"name":"라라케이","tel":"070-8292-5321","addr":"경기도 수원시 팔달구 인계동 762-16번지 1층 우측 2호","indutype":"사무통신 - 통신기기","category":"other"},{"name":"해피펫클럽","tel":"031-234-2001","addr":"경기도 수원시 팔달구 인계동 762-16번지 1동 101층","indutype":"문화.취미 - 애완동물","category":"other"}]},{"lat":"37.277628831","long":"127.03138631","imageIndex":17,"items":[{"name":"라보떼","tel":"031-221-6747","addr":"경기도 수원시 팔달구 인계동 939번지 신동아파스텔","indutype":"회원제형태 - 기타1","category":"other"},{"name":"사스미가죽공방","tel":"","addr":"경기도 수원시 팔달구 인계동 939번지 신동아파스텔 105호","indutype":"문화.취미 - 문화취미기타","category":"other"},{"name":"산트","tel":"031-235-7139","addr":"경기도 수원시 팔달구 인계동 939번지 신동아파스텔 1동 1407호","indutype":"기타 - 기계공구","category":"other"},{"name":"신동아파스텔솔로몬공인중개사사무소","tel":"031-239-1363","addr":"경기도 수원시 팔달구 인계동 939 신동아파스텔 103-1","indutype":"용역 서비스 - 부동산 중개·임대","category":"other"},{"name":"씨유동수원사거리점","tel":"031-234-5211","addr":"경기도 수원시 팔달구 인계동 939번지 신동아파스텔 1층 101-2호","indutype":"유통업 영리 - 편 의 점","category":"other"},{"name":"잇플렉스","tel":"","addr":"경기도 수원시 팔달구 인계동 939번지 신동아파스텔 1315호","indutype":"신변잡화 - 기타잡화","category":"other"},{"name":"콤파스인터내셔널","tel":"070-4633-1769","addr":"경기도 수원시 팔달구 인계동 939번지 신동아파스텔 1동 1524호","indutype":"서적문구 - 과학기자재","category":"other"}]},{"lat":"37.273792709","long":"127.01955752","imageIndex":17,"items":[{"name":"램프나라","tel":"031-225-9989","addr":"경기도 수원시 팔달구 인계동 769-8번지","indutype":"건축자재 - 조명기구","category":"other"}]},{"lat":"37.264124188","long":"127.02270068","imageIndex":17,"items":[{"name":"러블리핑크","tel":"031-235-0770","addr":"경기도 수원시 팔달구 인계동 1008-9번지 (1층왼쪽2번째1칸상가)","indutype":"의류 - 기타의류","category":"other"},{"name":"한성상사","tel":"031-238-1045","addr":"경기도 수원시 팔달구 인계동 1008-9번지 1층 101호","indutype":"건축자재 - 페인트","category":"other"}]},{"lat":"37.277962492","long":"127.03019123","imageIndex":17,"items":[{"name":"레이백뮤직연습실","tel":"031-222-4870","addr":"경기도 수원시 팔달구 인계동 952-1번지 영안빌딩 201호","indutype":"용역 서비스 - 사무서비스","category":"other"}]},{"lat":"37.269376162","long":"127.02809113","imageIndex":17,"items":[{"name":"레이체스튜디오","tel":"031-247-7612","addr":"경기도 수원시 팔달구 인계동 950-7번지 디지털대학교 3층","indutype":"광학제품 - 사진관","category":"other"},{"name":"백년돌침대","tel":"031-232-8363","addr":"경기도 수원시 팔달구 인계동 950-7번지","indutype":"가구 - 일반가구","category":"other"}]},{"lat":"37.264241391","long":"127.02228359","imageIndex":17,"items":[{"name":"로나요양원","tel":"031-223-2330","addr":"경기도 수원시 팔달구 인계동 1008-11번지","indutype":"기타의료기관 - 기타의료기관 및 기타","category":"other"}]},{"lat":"37.271572716","long":"127.03602914","imageIndex":17,"items":[{"name":"로뎀플라워","tel":"031-213-7372","addr":"경기도 수원시 팔달구 인계동 368번지 성우프라자","indutype":"문화.취미 - 화원","category":"other"}]},{"lat":"37.275071901","long":"127.02136181","imageIndex":17,"items":[{"name":"로엠","tel":"031-236-2213","addr":"경기도 수원시 팔달구 인계동 753-5번지","indutype":"의류 - 정장","category":"other"}]},{"lat":"37.266601915","long":"127.02331011","imageIndex":17,"items":[{"name":"로티에","tel":"031-235-3315","addr":"경기도 수원시 팔달구 인계동 989-6번지","indutype":"신변잡화 - 신발","category":"other"}]},{"lat":"37.275404986","long":"127.02316591","imageIndex":17,"items":[{"name":"리","tel":"031-232-0455","addr":"경기도 수원시 팔달구 인계동 749-10번지 1층 102호","indutype":"신변잡화 - 신발","category":"other"},{"name":"우리옷미단","tel":"031-267-3133","addr":"경기도 수원시 팔달구 인계동 749-10번지 1층","indutype":"의류 - 맞춤복점","category":"other"}]},{"lat":"37.263679663","long":"127.03617224","imageIndex":17,"items":[{"name":"리더스스튜디오","tel":"031-225-2581","addr":"경기도 수원시 팔달구 인계동 1118-7번지 장성빌딩 2층","indutype":"광학제품 - 사진관","category":"other"},{"name":"싸인피플","tel":"031-898-6672","addr":"경기도 수원시 팔달구 인계동 1118-7번지 장성빌딩 1층","indutype":"서적문구 - 출판 및 인쇄물","category":"other"}]},{"lat":"37.274153093","long":"127.01974927","imageIndex":17,"items":[{"name":"리안인테리어","tel":"031-232-2240","addr":"경기도 수원시 팔달구 인계동 767-10번지","indutype":"건축자재 - 인테리어전문","category":"other"}]},{"lat":"37.264293691","long":"127.03105436","imageIndex":17,"items":[{"name":"리체버빌딩","tel":"031-222-7230","addr":"경기도 수원시 팔달구 인계동 1042-6번지","indutype":"용역 서비스 - 부동산 중개·임대","category":"other"}]},{"lat":"37.270817961","long":"127.02735877","imageIndex":17,"items":[{"name":"리틀블라썸","tel":"031-222-6414","addr":"경기도 수원시 팔달구 인계동 963-8번지","indutype":"문화.취미 - 문화취미기타","category":"other"}]},{"lat":"37.265457749","long":"127.02247555","imageIndex":17,"items":[{"name":"린나이냉열","tel":"031-225-3888","addr":"경기도 수원시 팔달구 인계동 1005-8번지","indutype":"건축자재 - 보일러·펌프·샷시","category":"other"}]},{"lat":"37.27789967","long":"127.02908621","imageIndex":17,"items":[{"name":"릴립","tel":"031-9078-7988","addr":"경기도 수원시 팔달구 인계동 204-12번지 1층","indutype":"의류 - 정장","category":"other"}]},{"lat":"37.257877679","long":"127.03377991","imageIndex":17,"items":[{"name":"마당광고","tel":"031-236-3366","addr":"경기도 수원시 팔달구 인계동 1134-4번지 트윈파크 211호","indutype":"건축자재 - 인테리어전문","category":"other"},{"name":"미니스톱수원예술점","tel":"031-340-4261","addr":"경기도 수원시 팔달구 인계동 1134-4번지 트윈파크 104호","indutype":"유통업 영리 - 편 의 점","category":"other"},{"name":"애견샵","tel":"070-8810-1809","addr":"경기도 수원시 팔달구 인계동 1134-4번지 트윈파크 110호","indutype":"문화.취미 - 애완동물","category":"other"}]},{"lat":"37.26512115","long":"127.03673655","imageIndex":17,"items":[{"name":"마스터골프","tel":"031-898-8833","addr":"경기도 수원시 팔달구 인계동 1116-3번지 한화꿈에그린효원 101동 103호","indutype":"레져용품 - 골프용품 전문점","category":"other"},{"name":"플라워제이제이","tel":"031-237-9702","addr":"경기도 수원시 팔달구 인계동 1116-3번지 한화꿈에그린효원 101동 101호","indutype":"문화.취미 - 화원","category":"other"}]},{"lat":"37.266511476","long":"127.02517026","imageIndex":17,"items":[{"name":"맑은 물소리","tel":"","addr":"경기도 수원시 팔달구 인계동 992-10번지 B02호","indutype":"주방용구 - 정수기","category":"other"}]},{"lat":"37.266212354","long":"127.03319708","imageIndex":17,"items":[{"name":"맘스휴","tel":"031-232-4788","addr":"경기도 수원시 팔달구 인계동 1037-3번지 동수원메디뷰 801호","indutype":"회원제형태 - 기타4","category":"other"},{"name":"전자담배갤러리(인계점)","tel":"070-7787-3857","addr":"경기도 수원시 팔달구 인계동 1037-3번지 동수원메디뷰 102호","indutype":"기타 - 기타 전문점","category":"other"},{"name":"테힐라 한복 수원점","tel":"031-234-5563","addr":"경기도 수원시 팔달구 인계동 1037-3번지 동수원메디뷰 403호","indutype":"의류 - 맞춤복점","category":"other"},{"name":"핸드폰나라(인계)","tel":"031-238-3867","addr":"경기도 수원시 팔달구 인계동 1037-3번지 동수원메디뷰빌딩 102호","indutype":"사무통신 - 통신기기","category":"other"},{"name":"효사랑요양원","tel":"031-237-3331","addr":"경기도 수원시 팔달구 인계동 1037-3번지 701(701호~704호)","indutype":"기타의료기관 - 기타의료기관 및 기타","category":"other"}]},{"lat":"37.275484083","long":"127.03261449","imageIndex":17,"items":[{"name":"매드스핀MADSPIN","tel":"070-7514-5486","addr":"경기도 수원시 팔달구 인계동 323-33번지 지하","indutype":"레져용품 - 스포츠·레져용품","category":"other"}]},{"lat":"37.268430756","long":"127.02469732","imageIndex":17,"items":[{"name":"머클린 코리아(MERKLINE KOREA)","tel":"031-233-2225","addr":"경기도 수원시 팔달구 인계동 975-20번지 201호","indutype":"의류 - 내의판매","category":"other"}]},{"lat":"37.264374856","long":"127.03075","imageIndex":17,"items":[{"name":"메디콜","tel":"031-415-1702","addr":"경기도 수원시 팔달구 인계동 1042-7번지 302호","indutype":"유통업 영리 - 기타유통업","category":"other"},{"name":"주식회사 융지유엘씨","tel":"070-5143-1603","addr":"경기도 수원시 팔달구 인계동 1042-7번지 302호","indutype":"사무통신 - 통신기기","category":"other"}]},{"lat":"37.268348936","long":"127.02833882","imageIndex":17,"items":[{"name":"메리브라이드","tel":"031-223-2225","addr":"경기도 수원시 팔달구 인계동 951-7번지 3층","indutype":"용역 서비스 - 혼례서비스","category":"other"},{"name":"해리슨테일러 수원","tel":"031-222-0994","addr":"경기도 수원시 팔달구 인계동 951-7번지 201호","indutype":"의류 - 맞춤복점","category":"other"}]},{"lat":"37.276043916","long":"127.02739429","imageIndex":17,"items":[{"name":"메이저크리닝","tel":"031-215-6030","addr":"경기도 수원시 팔달구 인계동 241-14번지 1층","indutype":"수리서비스 - 세탁소","category":"other"}]},{"lat":"37.264988881","long":"127.02439194","imageIndex":17,"items":[{"name":"메이트전산","tel":"031-223-7636","addr":"경기도 수원시 팔달구 인계동 1011번지 입지빌딩 1층","indutype":"사무통신 - 기타 사무용품","category":"other"},{"name":"지원시스템","tel":"031-243-1098","addr":"경기도 수원시 팔달구 인계동 1011번지","indutype":"사무통신 - 사무용 OA기기","category":"other"}]},{"lat":"37.269908729","long":"127.02308552","imageIndex":17,"items":[{"name":"메인메세지바이브레스앤코","tel":"070-8785-7135","addr":"경기도 수원시 팔달구 인계동 865-10번지 인계파밀리에 101동 103호","indutype":"회원제형태 - 기타4","category":"other"}]},{"lat":"37.261742666","long":"127.03539354","imageIndex":17,"items":[{"name":"메종프랑세즈동수원점","tel":"031-232-1101","addr":"경기도 수원시 팔달구 인계동 1122-9번지","indutype":"가구 - 일반가구","category":"other"}]},{"lat":"37.273628599","long":"127.02997545","imageIndex":17,"items":[{"name":"메카트론/원격지","tel":"011-***-****","addr":"경기도 수원시 팔달구 인계동 945번지 인계극동스타클래스 101동 1104호","indutype":"기타 - 기타 전문점","category":"other"}]},{"lat":"37.275071974","long":"127.02088826","imageIndex":17,"items":[{"name":"명관화방문구센터","tel":"031-233-1931","addr":"경기도 수원시 팔달구 인계동 756-4번지","indutype":"서적문구 - 문구용품","category":"other"},{"name":"우일전자","tel":"031-238-5011","addr":"경기도 수원시 팔달구 인계동 756-4번지","indutype":"사무통신 - 통신기기","category":"other"}]},{"lat":"37.270738243","long":"127.01942155","imageIndex":17,"items":[{"name":"명보이엔지","tel":"031-223-5214","addr":"경기도 수원시 팔달구 인계동 924-4번지 1층","indutype":"건축자재 - 조명기구","category":"other"},{"name":"씨제이에스공조","tel":"","addr":"경기도 수원시 팔달구 인계동 924-4번지 201호","indutype":"용역 서비스 - 기타용역서비스","category":"other"}]},{"lat":"37.274295264","long":"127.03039286","imageIndex":17,"items":[{"name":"명세무회계사무소","tel":"031-222-5033","addr":"경기도 수원시 팔달구 인계동 944-2번지 평온빌딩 405호","indutype":"용역 서비스 - 법률회계서비스(개인)","category":"other"},{"name":"베스트공조","tel":"031-981-0484","addr":"경기도 수원시 팔달구 인계동 944-2번지 평은빌딩 609호","indutype":"용역 서비스 - 기타용역서비스","category":"other"},{"name":"세무사 염광민 사무소","tel":"031-1661-0207","addr":"경기도 수원시 팔달구 인계동 944-2번지 409호","indutype":"용역 서비스 - 법률회계서비스(개인)","category":"other"},{"name":"스카이공인중개사사무소","tel":"02-1111-1111","addr":"경기도 수원시 팔달구 인계동 944-2번지 1층 101호","indutype":"용역 서비스 - 부동산 중개·임대","category":"other"},{"name":"주식회사 경인조경개발","tel":"031-238-5837","addr":"경기도 수원시 팔달구 인계동 944-2번지 507호","indutype":"건축자재 - 인테리어전문","category":"other"},{"name":"케이엠모티브","tel":"031-223-7260","addr":"경기도 수원시 팔달구 인계동 944-2번지","indutype":"전기제품 - 기타전기제품","category":"other"},{"name":"한문교육연구회(한자박사)","tel":"031-683-8482","addr":"경기도 수원시 팔달구 인계동 944-2번지 평은빌딩 2층 204호","indutype":"서적문구 - 전문서적","category":"other"}]},{"lat":"37.274207098","long":"127.02014391","imageIndex":17,"items":[{"name":"명일","tel":"031-234-6777","addr":"경기도 수원시 팔달구 인계동 762-54번지","indutype":"건축자재 - 인테리어전문","category":"other"}]},{"lat":"37.275736447","long":"127.03231016","imageIndex":17,"items":[{"name":"명품도배","tel":"031-234-2244","addr":"경기도 수원시 팔달구 인계동 941-12번지","indutype":"직물 - 카페트,커튼,천막,지물","category":"other"}]},{"lat":"37.260878513","long":"127.03219165","imageIndex":17,"items":[{"name":"명품수선실","tel":"031-223-0996","addr":"경기도 수원시 팔달구 인계동 1125-1번지 갤러리아백화점 2층","indutype":"수리서비스 - 세탁소","category":"other"}]},{"lat":"37.271098662","long":"127.01936526","imageIndex":17,"items":[{"name":"모던쇼파","tel":"031-293-5900","addr":"경기도 수원시 팔달구 인계동 922-1번지","indutype":"가구 - 일반가구","category":"other"},{"name":"연재","tel":"031-245-6012","addr":"경기도 수원시 팔달구 인계동 922-1번지","indutype":"의류 - 정장","category":"other"}]},{"lat":"37.277043209","long":"127.03119441","imageIndex":17,"items":[{"name":"모라도","tel":"031-232-3693","addr":"경기도 수원시 팔달구 인계동 939-5번지 코스모골드 1동 1101호","indutype":"용역 서비스 - 종합용역","category":"other"}]},{"lat":"37.264735888","long":"127.02797685","imageIndex":17,"items":[{"name":"모아건축사사무소","tel":"031-239-4572","addr":"경기도 수원시 팔달구 인계동 1026-3번지","indutype":"용역 서비스 - 법률회계서비스(개인)","category":"other"}]},{"lat":"37.271124685","long":"127.02547603","imageIndex":17,"items":[{"name":"모아기획","tel":"","addr":"경기도 수원시 팔달구 인계동 969-17번지 2층","indutype":"용역 서비스 - 종합용역","category":"other"}]},{"lat":"37.276735481","long":"127.03647114","imageIndex":17,"items":[{"name":"모아데코빌","tel":"031-215-0116","addr":"경기도 수원시 팔달구 인계동 167-3번지","indutype":"건축자재 - 인테리어전문","category":"other"},{"name":"히스뮤직","tel":"031-211-4778","addr":"경기도 수원시 팔달구 인계동 167-3번지 ,2,3층","indutype":"용역 서비스 - 종합용역","category":"other"}]},{"lat":"37.264680877","long":"127.03211421","imageIndex":17,"items":[{"name":"모아디자인","tel":"031-225-6636","addr":"경기도 수원시 팔달구 인계동 1038-18번지 신광빌딩 403호","indutype":"용역 서비스 - 사무서비스","category":"other"},{"name":"미니스톱 수원무비점","tel":"","addr":"경기도 수원시 팔달구 인계동 1038-18번지 1층","indutype":"유통업 영리 - 편 의 점","category":"other"},{"name":"제3750지구수원창용로타리클럽","tel":"031-898-6355","addr":"경기도 수원시 팔달구 인계동 1038-18번지 604호","indutype":"기타 - 비영리/대상","category":"other"},{"name":"청년공방","tel":"","addr":"경기도 수원시 팔달구 인계동 1038-18번지 4층","indutype":"문화.취미 - 문화취미기타","category":"other"}]},{"lat":"37.262679932","long":"127.03467246","imageIndex":17,"items":[{"name":"목민산업(주)","tel":"031-226-2502","addr":"경기도 수원시 팔달구 인계동 1123-1번지 비봉빌딩 407호","indutype":"건축자재 - 기타건축자재","category":"other"},{"name":"우리두리사랑 결혼정보회사","tel":"031-253-9916","addr":"경기도 수원시 팔달구 인계동 1123-1번지 비봉빌딩 3층 305호","indutype":"용역 서비스 - 혼례서비스","category":"other"},{"name":"주식회사 알프스","tel":"02-1522-1893","addr":"경기도 수원시 팔달구 인계동 1123-1번지 비봉빌딩 4층 402호","indutype":"건축자재 - 기타건축자재","category":"other"}]},{"lat":"37.264456822","long":"127.02674795","imageIndex":17,"items":[{"name":"뭉개뭉개","tel":"","addr":"경기도 수원시 팔달구 인계동 1027-2번지 1층 101호","indutype":"문화.취미 - 애완동물","category":"other"}]},{"lat":"37.268214348","long":"127.02555408","imageIndex":17,"items":[{"name":"미니스톱 인계복개천점","tel":"031-1577-9621","addr":"경기도 수원시 팔달구 인계동 977-10번지 대양빌딩 101호","indutype":"유통업 영리 - 편 의 점","category":"other"}]},{"lat":"37.266294434","long":"127.02905965","imageIndex":17,"items":[{"name":"미니스톱수원인계3호점","tel":"031-1577-9621","addr":"경기도 수원시 팔달구 인계동 1033번지 삼호빌딩 1층","indutype":"유통업 영리 - 편 의 점","category":"other"},{"name":"영스타일(Young Style)","tel":"","addr":"경기도 수원시 팔달구 인계동 1033번지 삼화빌딩 4층 411호","indutype":"신변잡화 - 액세서리","category":"other"},{"name":"태영건축사사무소","tel":"031-234-7110","addr":"경기도 수원시 팔달구 인계동 1033번지","indutype":"용역 서비스 - 법률회계서비스(개인)","category":"other"}]},{"lat":"37.264151115","long":"127.02330945","imageIndex":17,"items":[{"name":"미니스톱인계베스트점","tel":"031-1577-9621","addr":"경기도 수원시 팔달구 인계동 1009번지 1층","indutype":"유통업 영리 - 편 의 점","category":"other"},{"name":"베이스볼 워크숍","tel":"070-8256-2133","addr":"경기도 수원시 팔달구 인계동 1009번지 지하1층","indutype":"레져용품 - 스포츠·레져용품","category":"other"}]},{"lat":"37.265348807","long":"127.02691733","imageIndex":17,"items":[{"name":"미니스톱인계하이엘점","tel":"031-223-4302","addr":"경기도 수원시 팔달구 인계동 1025-10번지","indutype":"유통업 영리 - 편 의 점","category":"other"}]},{"lat":"37.265601077","long":"127.0270076","imageIndex":17,"items":[{"name":"미다스합동공인중개사사무소","tel":"070-4686-9412","addr":"경기도 수원시 팔달구 인계동 1025번지 더올리브 301호","indutype":"용역 서비스 - 부동산 중개·임대","category":"other"}]},{"lat":"37.270710955","long":"127.02116908","imageIndex":17,"items":[{"name":"미래광고","tel":"031-223-8629","addr":"경기도 수원시 팔달구 인계동 909-50번지","indutype":"서적문구 - 출판 및 인쇄물","category":"other"}]},{"lat":"37.275683037","long":"127.029559","imageIndex":17,"items":[{"name":"미래노인요양원","tel":"031-225-7824","addr":"경기도 수원시 팔달구 인계동 953-4번지 3,4,5층","indutype":"기타의료기관 - 기타의료기관 및 기타","category":"other"}]},{"lat":"37.27690704","long":"127.03516328","imageIndex":17,"items":[{"name":"미래투어주식회사","tel":"031-377-0217","addr":"경기도 수원시 팔달구 인계동 172-1 101","indutype":"여행 - 관광여행","category":"other"}]},{"lat":"37.268791457","long":"127.02306267","imageIndex":17,"items":[{"name":"미송","tel":"","addr":"경기도 수원시 팔달구 인계동 975-16번지","indutype":"건축자재 - 기타건축자재","category":"other"},{"name":"서진창호","tel":"031-226-3810","addr":"경기도 수원시 팔달구 인계동 975-16번지","indutype":"건축자재 - 보일러·펌프·샷시","category":"other"}]},{"lat":"37.264572658","long":"127.03249747","imageIndex":17,"items":[{"name":"민채정보통신","tel":"070-8844-1555","addr":"경기도 수원시 팔달구 인계동 1038-5번지 대한제분빌딩 1층","indutype":"사무통신 - 통신기기","category":"other"},{"name":"법무사김종철사무소","tel":"031-238-1881","addr":"경기도 수원시 팔달구 인계동 1038-5번지","indutype":"용역 서비스 - 법률회계서비스(개인)","category":"other"}]},{"lat":"37.267763451","long":"127.02747052","imageIndex":17,"items":[{"name":"바라봄(BaRaBom)","tel":"031-222-5613","addr":"경기도 수원시 팔달구 인계동 1018-1번지 1층","indutype":"용역 서비스 - 혼례서비스","category":"other"}]},{"lat":"37.276573151","long":"127.03697846","imageIndex":17,"items":[{"name":"바바코리아(Baa-baa Korea)","tel":"031-211-1475","addr":"경기도 수원시 팔달구 인계동 167-8번지","indutype":"직물 - 침구·수예점","category":"other"},{"name":"컴테크","tel":"031-216-0318","addr":"경기도 수원시 팔달구 인계동 167-8번지","indutype":"사무통신 - 컴퓨터","category":"other"}]},{"lat":"37.260157413","long":"127.03328484","imageIndex":17,"items":[{"name":"바스","tel":"031-111-1111","addr":"경기도 수원시 팔달구 인계동 1126-3번지 3층","indutype":"건축자재 - 기타건축자재","category":"other"},{"name":"아인스킨케어","tel":"031-237-9096","addr":"경기도 수원시 팔달구 인계동 1126-3번지","indutype":"회원제형태 - 기타4","category":"other"}]},{"lat":"37.262797525","long":"127.03291388","imageIndex":17,"items":[{"name":"바이브로스 (BY BROS)","tel":"02-1111-1111","addr":"경기도 수원시 팔달구 인계동 1124-1번지 수원인계자이오피스텔 101호","indutype":"의류 - 정장","category":"other"},{"name":"시엘엠코리아","tel":"070-8877-0469","addr":"경기도 수원시 팔달구 인계동 1124-1번지 자이오피스텔 1408호","indutype":"용역 서비스 - 사무서비스","category":"other"},{"name":"위드미 수원인계자이점","tel":"031-000-0000","addr":"경기도 수원시 팔달구 인계동 1124-1번지 자이오피스텔 상가 103호","indutype":"유통업 영리 - 편 의 점","category":"other"},{"name":"찰스아카데미","tel":"031-224-0914","addr":"경기도 수원시 팔달구 인계동 1124-1번지 수원인계자이오피스텔 지하1층 B103~B110호","indutype":"회원제형태 - 레져업소","category":"other"},{"name":"풋&샵","tel":"031-238-9999","addr":"경기도 수원시 팔달구 인계동 1124-1번지 자이오피스텔 115호","indutype":"회원제형태 - 기타4","category":"other"},{"name":"한국금은방","tel":"031-222-1655","addr":"경기도 수원시 팔달구 인계동 1124-1번지 수원인계자이오피스텔 210호","indutype":"신변잡화 - 귀금속","category":"other"},{"name":"화성과학사","tel":"031-251-1096","addr":"경기도 수원시 팔달구 인계동 1124-1번지 수원인계자이오피스텔 1층 102호","indutype":"서적문구 - 과학기자재","category":"other"}]},{"lat":"37.271014503","long":"127.03447302","imageIndex":17,"items":[{"name":"바이씨클원(bicycleone)","tel":"031-214-7436","addr":"경기도 수원시 팔달구 인계동 359-7번지 2층","indutype":"레져용품 - 스포츠·레져용품","category":"other"}]},{"lat":"37.273098718","long":"127.02092161","imageIndex":17,"items":[{"name":"반석공인중개사사무소","tel":"031-222-4411","addr":"경기도 수원시 팔달구 인계동 810-3번지 1층","indutype":"용역 서비스 - 부동산 중개·임대","category":"other"}]},{"lat":"37.274179803","long":"127.02186897","imageIndex":17,"items":[{"name":"반석인테리어","tel":"031-234-2978","addr":"경기도 수원시 팔달구 인계동 750-74번지","indutype":"직물 - 카페트,커튼,천막,지물","category":"other"}]},{"lat":"37.267763268","long":"127.02833862","imageIndex":17,"items":[{"name":"백성매점","tel":"031-233-2822","addr":"경기도 수원시 팔달구 인계동 1019-2번지 1층","indutype":"유통업 영리 - 편 의 점","category":"other"}]},{"lat":"37.264159257","long":"127.02784138","imageIndex":17,"items":[{"name":"백운사무기(특별할부)","tel":"031-222-2363","addr":"경기도 수원시 팔달구 인계동 1027-4번지 대광빌딩 105호","indutype":"사무통신 - 사무용 OA기기","category":"other"}]},{"lat":"37.272765437","long":"127.02025633","imageIndex":17,"items":[{"name":"백호꽃도매","tel":"031-236-9990","addr":"경기도 수원시 팔달구 인계동 809-12번지","indutype":"문화.취미 - 화원","category":"other"}]},{"lat":"37.270266553","long":"127.03483349","imageIndex":17,"items":[{"name":"버블버블","tel":"070-8977-2895","addr":"경기도 수원시 팔달구 인계동 361번지 3층","indutype":"문화.취미 - 애완동물","category":"other"}]},{"lat":"37.274268915","long":"127.02728096","imageIndex":17,"items":[{"name":"범우유통","tel":"031-232-2715","addr":"경기도 수원시 팔달구 인계동 956-6번지","indutype":"주방용구 - 주방용식기","category":"other"}]},{"lat":"37.267880498","long":"127.0278877","imageIndex":17,"items":[{"name":"법무사 문행래","tel":"031-238-0428","addr":"경기도 수원시 팔달구 인계동 1019번지 3층","indutype":"용역 서비스 - 법률회계서비스(개인)","category":"other"}]},{"lat":"37.265824969","long":"127.03297145","imageIndex":17,"items":[{"name":"법무사정성학사무소","tel":"031-232-4341","addr":"경기도 수원시 팔달구 인계동 1038-1번지","indutype":"용역 서비스 - 법률회계서비스(개인)","category":"other"}]},{"lat":"37.264185255","long":"127.03233949","imageIndex":17,"items":[{"name":"베스트문구센터","tel":"031-233-0383","addr":"경기도 수원시 팔달구 인계동 1113번지 대성빌딩","indutype":"서적문구 - 문구용품","category":"other"}]},{"lat":"37.271043251","long":"127.027201","imageIndex":17,"items":[{"name":"베이비콜","tel":"031-221-3483","addr":"경기도 수원시 팔달구 인계동 964-18번지 1층","indutype":"의류 - 아동의류","category":"other"}]},{"lat":"37.264131688","long":"127.03027643","imageIndex":17,"items":[{"name":"베이프갱스터 인계점","tel":"","addr":"경기도 수원시 팔달구 인계동 1043-14번지 101호","indutype":"기타 - 기타 전문점","category":"other"}]},{"lat":"37.258076343","long":"127.0320553","imageIndex":17,"items":[{"name":"벨로시티편의점","tel":"070-7572-2833","addr":"경기도 수원시 팔달구 인계동 1135-1번지 벨로시티오피스텔 상가 113호","indutype":"유통업 영리 - 편 의 점","category":"other"},{"name":"아이엔티","tel":"031-238-4561","addr":"경기도 수원시 팔달구 인계동 1135-1번지 벨로시티 1224호","indutype":"서적문구 - 과학기자재","category":"other"},{"name":"애플몬","tel":"031-234-2881","addr":"경기도 수원시 팔달구 인계동 1135-1번지 벨로시티오피스텔 516호","indutype":"수리서비스 - 사무·통신기기수리","category":"other"},{"name":"제일정보통신안양점","tel":"031-1688-8242","addr":"경기도 수원시 팔달구 인계동 1135 벨로시티 518 1/","indutype":"사무통신 - 통신기기","category":"other"},{"name":"주식회사 경인애드","tel":"031-893-7801","addr":"경기도 수원시 팔달구 인계동 1135-1번지 벨로시티 903호","indutype":"용역 서비스 - 종합용역","category":"other"},{"name":"주식회사원의그린","tel":"031-255-2368","addr":"경기도 수원시 팔달구 인계동 1135-1번지 벨로시티 307호","indutype":"문화.취미 - 화원","category":"other"}]},{"lat":"37.273566187","long":"127.02691994","imageIndex":17,"items":[{"name":"보광씨엔아이","tel":"031-203-4771","addr":"경기도 수원시 팔달구 인계동 261-1 3층","indutype":"건축자재 - 인테리어전문","category":"other"}]},{"lat":"37.274377977","long":"127.02219599","imageIndex":17,"items":[{"name":"보물창고","tel":"","addr":"경기도 수원시 팔달구 인계동 750-31번지","indutype":"전기제품 - 가전제품","category":"other"},{"name":"합자회사동남환경개발","tel":"031-225-4634","addr":"경기도 수원시 팔달구 인계동 750-31번지","indutype":"용역 서비스 - 기타용역서비스","category":"other"}]},{"lat":"37.274711256","long":"127.02280493","imageIndex":17,"items":[{"name":"봄빛요양센터","tel":"031-236-2288","addr":"경기도 수원시 팔달구 인계동 747-5번지","indutype":"기타의료기관 - 기타의료기관 및 기타","category":"other"}]},{"lat":"37.26848422","long":"127.02773006","imageIndex":17,"items":[{"name":"브라이덜 휘","tel":"031-222-5613","addr":"경기도 수원시 팔달구 인계동 951-10번지 , 4,5층","indutype":"용역 서비스 - 혼례서비스","category":"other"},{"name":"선우앤엘","tel":"031-898-5885","addr":"경기도 수원시 팔달구 인계동 951-10번지","indutype":"주방용구 - 주방용구","category":"other"},{"name":"아르스노바(Arsnova)","tel":"031-232-3130","addr":"경기도 수원시 팔달구 인계동 951-10번지 1층 106호","indutype":"의류 - 맞춤복점","category":"other"}]},{"lat":"37.264681725","long":"127.02845032","imageIndex":17,"items":[{"name":"블랑 (BLANC)","tel":"031-000-0000","addr":"경기도 수원시 팔달구 인계동 1030번지 1충 101호","indutype":"의류 - 정장","category":"other"}]},{"lat":"37.271178279","long":"127.02780987","imageIndex":17,"items":[{"name":"블랙스토어","tel":"02-565-7036","addr":"경기도 수원시 팔달구 인계동 963번지 정수빌딩 1층","indutype":"용역 서비스 - 소프트웨어","category":"other"}]},{"lat":"37.257769672","long":"127.03332897","imageIndex":17,"items":[{"name":"비고(VIGO)","tel":"031-236-0604","addr":"경기도 수원시 팔달구 인계동 1134-10번지 동양파라곤오피스텔 201동 101호","indutype":"의류 - 정장","category":"other"},{"name":"사과나무","tel":"031-241-8793","addr":"경기도 수원시 팔달구 인계동 1134-10번지 동양파라곤 201동 803호","indutype":"용역 서비스 - 종합용역","category":"other"},{"name":"오성유통","tel":"031-241-1665","addr":"경기도 수원시 팔달구 인계동 1134-11번지 동양파라곤2단지 201동 1903호","indutype":"신변잡화 - 기타잡화","category":"other"},{"name":"주식회사 한스브릿지코리아","tel":"031-233-5155","addr":"경기도 수원시 팔달구 인계동 1134-11번지 동양파라곤2단지 201동 6층 601호","indutype":"레져용품 - 스포츠·레져용품","category":"other"}]},{"lat":"37.258166163","long":"127.03318259","imageIndex":17,"items":[{"name":"비비드코","tel":"","addr":"경기도 수원시 팔달구 인계동 1134-3번지 동양파라곤 102동 104호","indutype":"의류 - 정장","category":"other"},{"name":"비제이투컴퍼니","tel":"","addr":"경기도 수원시 팔달구 인계동 1134-3번지 동양파라곤1단지 102동 1104호","indutype":"용역 서비스 - 정보서비스","category":"other"},{"name":"주식회사 비앤씨","tel":"031-1544-6986","addr":"경기도 수원시 팔달구 인계동 1134-3번지 동양파라곤1단지 102동 2층","indutype":"용역 서비스 - 종합용역","category":"other"},{"name":"주식회사 조이라커","tel":"031-238-0700","addr":"경기도 수원시 팔달구 인계동 1134-3번지 동양파라곤1단지 102동 106호","indutype":"가구 - 철제가구","category":"other"}]},{"lat":"37.257976778","long":"127.03383632","imageIndex":17,"items":[{"name":"비오티스트링","tel":"031-898-8399","addr":"경기도 수원시 팔달구 인계동 1134-4번지 트윈파크 A동 111호","indutype":"레져용품 - 악기점","category":"other"},{"name":"수피아 플라워","tel":"031-223-0212","addr":"경기도 수원시 팔달구 인계동 1134-4번지 트윈파크 A동 113호","indutype":"문화.취미 - 화원","category":"other"},{"name":"씨피엘","tel":"","addr":"경기도 수원시 팔달구 인계동 1134-4번지 트윈파크에이동 16층 1610호","indutype":"서적문구 - 출판 및 인쇄물","category":"other"},{"name":"엘비엔토","tel":"031-232-5086","addr":"경기도 수원시 팔달구 인계동 1134-4번지 트윈파크 에이동 1층 102호","indutype":"레져용품 - 스포츠·레져용품","category":"other"}]},{"lat":"37.276538995","long":"127.02963823","imageIndex":17,"items":[{"name":"비유에스","tel":"031-232-6260","addr":"경기도 수원시 팔달구 인계동 952-37번지 지하1층","indutype":"서적문구 - 과학기자재","category":"other"}]},{"lat":"37.268097628","long":"127.02327669","imageIndex":17,"items":[{"name":"비쥬얼웍스(VISUALWORKS)","tel":"070-7573-5112","addr":"경기도 수원시 팔달구 인계동 985-4번지","indutype":"용역 서비스 - 사무서비스","category":"other"}]},{"lat":"37.275376695","long":"127.02952507","imageIndex":17,"items":[{"name":"비트짐(BEAT GYM)","tel":"031-224-3597","addr":"경기도 수원시 팔달구 인계동 953-5번지 3층","indutype":"회원제형태 - 레져업소","category":"other"}]},{"lat":"37.269430933","long":"127.02450594","imageIndex":17,"items":[{"name":"빚나리산업","tel":"031-232-6575","addr":"경기도 수원시 팔달구 인계동 875-8번지","indutype":"주방용구 - 주방용구","category":"other"}]},{"lat":"37.272629946","long":"127.02242104","imageIndex":17,"items":[{"name":"사단법인 한국전통민족종교총연합회 자비암","tel":"031-234-8097","addr":"경기도 수원시 팔달구 인계동 847-76번지","indutype":"기타 - 비영리/대상","category":"other"}]},{"lat":"37.259625963","long":"127.03266462","imageIndex":17,"items":[{"name":"사단법인 한국티씨협회","tel":"02-816-8608","addr":"경기도 수원시 팔달구 인계동 1130-1번지 2층","indutype":"회원제형태 - 기타4","category":"other"}]},{"lat":"37.271511943","long":"127.02642321","imageIndex":17,"items":[{"name":"사단법인 행복한캄보디아모임","tel":"031-224-5977","addr":"경기도 수원시 팔달구 인계동 968번지 성와빌딩 2층","indutype":"기타 - 비영리/비대상","category":"other"}]},{"lat":"37.275960899","long":"127.03538838","imageIndex":17,"items":[{"name":"사단법인국제요가협회","tel":"031-255-9796","addr":"경기도 수원시 팔달구 인계동 326-9번지 이레빌딩","indutype":"회원제형태 - 레져업소","category":"other"}]},{"lat":"37.266789914","long":"127.02944313","imageIndex":17,"items":[{"name":"사랑드림","tel":"031-898-9201","addr":"경기도 수원시 팔달구 인계동 1034-2번지 8층","indutype":"용역 서비스 - 종합용역","category":"other"}]},{"lat":"37.266655666","long":"127.02503502","imageIndex":17,"items":[{"name":"삼성샤링","tel":"031-232-6246","addr":"경기도 수원시 팔달구 인계동 992-3번지","indutype":"건축자재 - 기타건축자재","category":"other"}]},{"lat":"37.275457387","long":"127.03125019","imageIndex":17,"items":[{"name":"삼성유통","tel":"031-237-3077","addr":"경기도 수원시 팔달구 인계동 226-1번지","indutype":"유통업 영리 - 기타유통업","category":"other"},{"name":"케이비세무회계(KB세무회계)","tel":"031-235-8060","addr":"경기도 수원시 팔달구 인계동 226-1번지 2층","indutype":"용역 서비스 - 법률회계서비스(개인)","category":"other"}]},{"lat":"37.269150702","long":"127.02902681","imageIndex":17,"items":[{"name":"삼성정보통신","tel":"031-233-4855","addr":"경기도 수원시 팔달구 인계동 949-4번지 외1필지","indutype":"사무통신 - 통신기기","category":"other"}]},{"lat":"37.270845237","long":"127.02614114","imageIndex":17,"items":[{"name":"삼양유리인테리어","tel":"031-232-5579","addr":"경기도 수원시 팔달구 인계동 968-6번지 인계베스트빌 101동 1005호","indutype":"용역 서비스 - 기타용역서비스","category":"other"}]},{"lat":"37.266294687","long":"127.02788717","imageIndex":17,"items":[{"name":"삼일공업고등학교총동문회","tel":"0502-311-313","addr":"경기도 수원시 팔달구 인계동 1023-8번지 동방빌딩 303호","indutype":"기타 - 비영리/비대상","category":"other"}]},{"lat":"37.271655906","long":"127.02741542","imageIndex":17,"items":[{"name":"삼화상사","tel":"031-232-9562","addr":"경기도 수원시 팔달구 인계동 961-4번지","indutype":"유통업 영리 - 기타유통업","category":"other"}]},{"lat":"37.266654287","long":"127.03147237","imageIndex":17,"items":[{"name":"상록공인중개사사무소","tel":"031-222-7810","addr":"경기도 수원시 팔달구 인계동 1036-12번지 702호","indutype":"용역 서비스 - 부동산 중개·임대","category":"other"}]},{"lat":"37.265014354","long":"127.03171977","imageIndex":17,"items":[{"name":"새롬정보서비스","tel":"031-233-2004","addr":"경기도 수원시 팔달구 인계동 1041-12번지 3층","indutype":"사무통신 - 통신기기","category":"other"}]},{"lat":"37.272485611","long":"127.02342445","imageIndex":17,"items":[{"name":"새색시화장품","tel":"031-226-8755","addr":"경기도 수원시 팔달구 인계동 820-3번지","indutype":"회원제형태 - 기타4","category":"other"}]},{"lat":"37.274043618","long":"127.02747256","imageIndex":17,"items":[{"name":"새수원로타리클럽","tel":"031-237-6880","addr":"경기도 수원시 팔달구 인계동 956-9번지","indutype":"기타 - 비영리/대상","category":"other"}]},{"lat":"37.272296188","long":"127.02458568","imageIndex":17,"items":[{"name":"생각키우기","tel":"031-223-8095","addr":"경기도 수원시 팔달구 인계동 822-1번지","indutype":"서적문구 - 출판 및 인쇄물","category":"other"}]},{"lat":"37.270602776","long":"127.02152984","imageIndex":17,"items":[{"name":"서민에어컨","tel":"031-1899-2153","addr":"경기도 수원시 팔달구 인계동 861-15번지","indutype":"용역 서비스 - 기타용역서비스","category":"other"}]},{"lat":"37.265375654","long":"127.02780796","imageIndex":17,"items":[{"name":"서수원로타리클럽","tel":"031-238-7007","addr":"경기도 수원시 팔달구 인계동 1025-13번지 4층","indutype":"기타 - 비영리/대상","category":"other"}]},{"lat":"37.264070084","long":"127.02294868","imageIndex":17,"items":[{"name":"서울전기조명","tel":"031-222-9252","addr":"경기도 수원시 팔달구 인계동 1008-8번지 1층","indutype":"건축자재 - 조명기구","category":"other"},{"name":"유아월드","tel":"031-253-1492","addr":"경기도 수원시 팔달구 인계동 1008-8번지","indutype":"의류 - 아동의류","category":"other"}]},{"lat":"37.275152842","long":"127.02230894","imageIndex":17,"items":[{"name":"서유펫 수원점","tel":"031-236-8808","addr":"경기도 수원시 팔달구 인계동 750-82번지 1층","indutype":"문화.취미 - 애완동물","category":"other"},{"name":"해피데이꽃","tel":"031-221-4667","addr":"경기도 수원시 팔달구 인계동 750-82번지 1층","indutype":"문화.취미 - 화원","category":"other"}]},{"lat":"37.265989494","long":"127.02161889","imageIndex":17,"items":[{"name":"석진전설","tel":"031-111-1111","addr":"경기도 수원시 팔달구 인계동 1003-37번지","indutype":"용역 서비스 - 기타용역서비스","category":"other"}]},{"lat":"37.273261141","long":"127.01928681","imageIndex":17,"items":[{"name":"선진ENG","tel":"031-226-3881","addr":"경기도 수원시 팔달구 인계동 937-1번지","indutype":"기타 - 기계공구","category":"other"}]},{"lat":"37.266457909","long":"127.02236307","imageIndex":17,"items":[{"name":"설래기획","tel":"031-222-6887","addr":"경기도 수원시 팔달구 인계동 1002-1번지 101호","indutype":"신변잡화 - 기타잡화","category":"other"}]},{"lat":"37.262797947","long":"127.03120035","imageIndex":17,"items":[{"name":"성보빌딩","tel":"031-236-5822","addr":"경기도 수원시 팔달구 인계동 1046-8,9","indutype":"용역 서비스 - 부동산 중개·임대","category":"other"}]},{"lat":"37.272557542","long":"127.02428134","imageIndex":17,"items":[{"name":"성인종합장식","tel":"031-221-9762","addr":"경기도 수원시 팔달구 인계동 819-2번지 금성연립 A동 102호","indutype":"직물 - 카페트,커튼,천막,지물","category":"other"}]},{"lat":"37.265736089","long":"127.02769534","imageIndex":17,"items":[{"name":"성호종합인쇄","tel":"031-233-1553","addr":"경기도 수원시 팔달구 인계동 1024-15","indutype":"서적문구 - 출판 및 인쇄물","category":"other"}]},{"lat":"37.268547812","long":"127.02511449","imageIndex":17,"items":[{"name":"세가지 행복","tel":"070-8837-3388","addr":"경기도 수원시 팔달구 인계동 976번지 대륜빌딩 105호","indutype":"신변잡화 - 기타잡화","category":"other"},{"name":"신도제일사무기","tel":"031-232-8344","addr":"경기도 수원시 팔달구 인계동 976번지 대륜빌딩 1층 102호","indutype":"사무통신 - 사무용 OA기기","category":"other"},{"name":"신도제일사무기(특별할부)","tel":"031-232-8344","addr":"경기도 수원시 팔달구 인계동 976번지 대륜빌딩 1층 102호","indutype":"사무통신 - 사무용 OA기기","category":"other"},{"name":"인켈수원서비스센타","tel":"031-238-0561","addr":"경기도 수원시 팔달구 인계동 976번지 대륜빌딩 201호","indutype":"수리서비스 - 가정용품수리","category":"other"},{"name":"화창토탈싸인","tel":"031-231-9252","addr":"경기도 수원시 팔달구 인계동 976번지 대륜빌딩 1층","indutype":"기타 - 기타 전문점","category":"other"}]},{"lat":"37.267214447","long":"127.02425728","imageIndex":17,"items":[{"name":"세븐일레븐수원인계로점","tel":"","addr":"경기도 수원시 팔달구 인계동 990-16번지 가람주택 101호","indutype":"유통업 영리 - 편 의 점","category":"other"}]},{"lat":"37.266213018","long":"127.03048011","imageIndex":17,"items":[{"name":"세븐일레븐수원인계타운점","tel":"031-1577-0711","addr":"경기도 수원시 팔달구 인계동 1034-7번지 1층","indutype":"유통업 영리 - 편 의 점","category":"other"}]},{"lat":"37.265464592","long":"127.03283603","imageIndex":17,"items":[{"name":"세영기획","tel":"031-211-6104","addr":"경기도 수원시 팔달구 인계동 1038-2번지 지하1층","indutype":"유통업 영리 - 기타유통업","category":"other"}]},{"lat":"37.272873515","long":"127.02056077","imageIndex":17,"items":[{"name":"세잎클로버","tel":"000-1566-3129","addr":"경기도 수원시 팔달구 인계동 809-8번지 수인프라자 205호","indutype":"용역 서비스 - 종합용역","category":"other"}]},{"lat":"37.273296445","long":"127.02394331","imageIndex":17,"items":[{"name":"세종교육","tel":"031-255-8826","addr":"경기도 수원시 팔달구 인계동 254-1번지","indutype":"서적문구 - 전문서적","category":"other"}]},{"lat":"37.266789962","long":"127.02922892","imageIndex":17,"items":[{"name":"세진건축사사무소","tel":"031-222-7541","addr":"경기도 수원시 팔달구 인계동 1034-1번지 유석빌딩 402호","indutype":"용역 서비스 - 사무서비스","category":"other"},{"name":"영주건물관리","tel":"031-223-6543","addr":"경기도 수원시 팔달구 인계동 1034-1번지 유석빌딩 1동 4층 전체호","indutype":"용역 서비스 - 사무서비스","category":"other"}]},{"lat":"37.264457662","long":"127.02213709","imageIndex":17,"items":[{"name":"센추리상일냉열","tel":"031-226-7556","addr":"경기도 수원시 팔달구 인계동 1008-23번지","indutype":"전기제품 - 냉열기기","category":"other"},{"name":"키스종합무역","tel":"031-222-2460","addr":"경기도 수원시 팔달구 인계동 1008-23번지","indutype":"의류 - 정장","category":"other"}]},{"lat":"37.2627978","long":"127.03180911","imageIndex":17,"items":[{"name":"솔사진관","tel":"031-238-3815","addr":"경기도 수원시 팔달구 인계동 1046-2지하층","indutype":"광학제품 - 사진관","category":"other"}]},{"lat":"37.25967968","long":"127.03400611","imageIndex":17,"items":[{"name":"송악 냉난방 시스템","tel":"031-223-1919","addr":"경기도 수원시 팔달구 인계동 1127-5번지 지하","indutype":"전기제품 - 가전제품","category":"other"}]},{"lat":"37.26254552","long":"127.03177519","imageIndex":17,"items":[{"name":"수리야요가","tel":"031-226-9330","addr":"경기도 수원시 팔달구 인계동 1046-17번지 기양빌딩 5층","indutype":"회원제형태 - 레져업소","category":"other"}]},{"lat":"37.268268626","long":"127.02439287","imageIndex":17,"items":[{"name":"수성종합상사","tel":"031-235-9694","addr":"경기도 수원시 팔달구 인계동 983-17번지","indutype":"기타 - 기타 전문점","category":"other"}]},{"lat":"37.27184554","long":"127.02530713","imageIndex":17,"items":[{"name":"수원 분양 용인 편백 숲소품마을 목공방","tel":"031-233-2258","addr":"경기도 수원시 팔달구 인계동 970번지 지하1층","indutype":"가구 - 일반가구","category":"other"}]},{"lat":"37.275045062","long":"127.02008772","imageIndex":17,"items":[{"name":"수원 스튜디오","tel":"031-232-8905","addr":"경기도 수원시 팔달구 인계동 765-12번지 2층","indutype":"광학제품 - 사진관","category":"other"},{"name":"올","tel":"031-38-2388","addr":"경기도 수원시 팔달구 인계동 765-12번지","indutype":"신변잡화 - 가방","category":"other"}]},{"lat":"37.270296633","long":"127.02016556","imageIndex":17,"items":[{"name":"수원건설기계","tel":"031-238-0942","addr":"경기도 수원시 팔달구 인계동 909-2","indutype":"기타 - 기계공구","category":"other"}]},{"lat":"37.268601266","long":"127.02814724","imageIndex":17,"items":[{"name":"수원대동","tel":"031-236-1851","addr":"경기도 수원시 팔달구 인계동 951-2번지","indutype":"의류 - 기타의류","category":"other"}]},{"lat":"37.270070445","long":"127.02566738","imageIndex":17,"items":[{"name":"수원로타리클럽","tel":"031-226-3750","addr":"경기도 수원시 팔달구 인계동 972-3번지","indutype":"기타 - 비영리/대상","category":"other"}]},{"lat":"37.264962042","long":"127.02330967","imageIndex":17,"items":[{"name":"수원보일러할인마트","tel":"031-237-8320","addr":"경기도 수원시 팔달구 인계동 1007-12번지 101호","indutype":"전기제품 - 냉열기기","category":"other"}]},{"lat":"37.26932231","long":"127.02708771","imageIndex":17,"items":[{"name":"수원서비스","tel":"031-251-7961","addr":"경기도 수원시 팔달구 인계동 966-6번지 삼익빌딩 1층","indutype":"전기제품 - 가전제품","category":"other"}]},{"lat":"37.268736342","long":"127.02850806","imageIndex":17,"items":[{"name":"수원시광고협회","tel":"031-239-1800","addr":"경기도 수원시 팔달구 인계동 949-9번지 신성빌딩 501호","indutype":"기타 - 비영리/대상","category":"other"},{"name":"지성건축사사무소","tel":"031-233-5995","addr":"경기도 수원시 팔달구 인계동 949-9번지","indutype":"용역 서비스 - 사무서비스","category":"other"}]},{"lat":"37.263375203","long":"127.02858516","imageIndex":17,"items":[{"name":"수원시청편의점","tel":"031-228-2778","addr":"경기도 수원시 팔달구 인계동 1111번지 수원시청 별관 7층","indutype":"유통업 영리 - 편 의 점","category":"other"}]},{"lat":"37.274296951","long":"127.0217788","imageIndex":17,"items":[{"name":"수원유통","tel":"031-236-7974","addr":"경기도 수원시 팔달구 인계동 750-16번지","indutype":"직물 - 카페트,커튼,천막,지물","category":"other"}]},{"lat":"37.263131485","long":"127.03053535","imageIndex":17,"items":[{"name":"수원전자담배멀티샵","tel":"031-232-0027","addr":"경기도 수원시 팔달구 인계동 1044-13번지","indutype":"기타 - 기타 전문점","category":"other"}]},{"lat":"37.273098902","long":"127.01967011","imageIndex":17,"items":[{"name":"수원조립식앵글산업사","tel":"031-211-0010","addr":"경기도 수원시 팔달구 인계동 754-18번지","indutype":"건축자재 - 목재·석재·철물","category":"other"}]},{"lat":"37.270322554","long":"127.02658068","imageIndex":17,"items":[{"name":"수원화산로타리클럽","tel":"031-225-0007","addr":"경기도 수원시 팔달구 인계동 965-18번지 3층","indutype":"기타 - 비영리/비대상","category":"other"},{"name":"이-타임25","tel":"031-239-5807","addr":"경기도 수원시 팔달구 인계동 965-18번지","indutype":"유통업 영리 - 편 의 점","category":"other"},{"name":"화서로타리클럽","tel":"031-225-0007","addr":"경기도 수원시 팔달구 인계동 965-18번지","indutype":"기타 - 비영리/비대상","category":"other"}]},{"lat":"37.267430604","long":"127.0247534","imageIndex":17,"items":[{"name":"수인나무병원 주식회사","tel":"031-257-9355","addr":"경기도 수원시 팔달구 인계동 982-11번지 장문빌딩 309호","indutype":"용역 서비스 - 종합용역","category":"other"}]},{"lat":"37.275017924","long":"127.02080932","imageIndex":17,"items":[{"name":"수일목공소","tel":"031-233-0162","addr":"경기도 수원시 팔달구 인계동 757-29번지 지하1층","indutype":"용역 서비스 - 기타용역서비스","category":"other"}]},{"lat":"37.273016222","long":"127.02853206","imageIndex":17,"items":[{"name":"쉬즈메디산후조리원","tel":"031-235-7337","addr":"경기도 수원시 팔달구 인계동 959-1번지","indutype":"기타의료기관 - 산후조리원","category":"other"}]},{"lat":"37.269322875","long":"127.02414514","imageIndex":17,"items":[{"name":"스튜디오 틸(STUDIO TEAL)","tel":"","addr":"경기도 수원시 팔달구 인계동 875-7번지 201호","indutype":"용역 서비스 - 사무서비스","category":"other"},{"name":"에이치(H)솔루션","tel":"031-236-3033","addr":"경기도 수원시 팔달구 인계동 875-7번지 B101호","indutype":"사무통신 - 사무용 OA기기","category":"other"}]},{"lat":"37.25804918","long":"127.0325851","imageIndex":17,"items":[{"name":"신나는세탁","tel":"031-235-2054","addr":"경기도 수원시 팔달구 인계동 1134-7번지 엠하스빌","indutype":"수리서비스 - 세탁소","category":"other"}]},{"lat":"37.26426766","long":"127.02647732","imageIndex":17,"items":[{"name":"신도네트수원중앙점(특별할부)","tel":"031-235-6377","addr":"경기도 수원시 팔달구 인계동 1027-10번지 삼원빌딩","indutype":"사무통신 - 사무용 OA기기","category":"other"}]},{"lat":"37.264097005","long":"127.02359127","imageIndex":17,"items":[{"name":"신바람영상음악제작","tel":"031-234-5959","addr":"경기도 수원시 팔달구 인계동 1009-2번지","indutype":"용역 서비스 - 종합용역","category":"other"}]},{"lat":"37.26879076","long":"127.02680568","imageIndex":17,"items":[{"name":"신성기획","tel":"031-236-1552","addr":"경기도 수원시 팔달구 인계동 967-2번지 교보생명수원사옥 4층","indutype":"서적문구 - 문구용품","category":"other"}]},{"lat":"37.272963696","long":"127.02003088","imageIndex":17,"items":[{"name":"신풍기계","tel":"031-233-3186","addr":"경기도 수원시 팔달구 인계동 774-22번지","indutype":"회원제형태 - 기타4","category":"other"}]},{"lat":"37.274288227","long":"127.01989588","imageIndex":17,"items":[{"name":"신한금속","tel":"031-238-2757","addr":"경기도 수원시 팔달구 인계동 766-8번지","indutype":"건축자재 - 기타건축자재","category":"other"}]},{"lat":"37.270538771","long":"127.02672732","imageIndex":17,"items":[{"name":"싸인과사람들","tel":"031-238-1049","addr":"경기도 수원시 팔달구 인계동 964-29번지","indutype":"용역 서비스 - 종합용역","category":"other"}]},{"lat":"37.260409298","long":"127.03481805","imageIndex":17,"items":[{"name":"씨앤피테크","tel":"031-222-2235","addr":"경기도 수원시 팔달구 인계동 1127-1번지 한화꿈에그린파크 103동 2004호","indutype":"회원제형태 - 기타1","category":"other"}]},{"lat":"37.276295829","long":"127.02914203","imageIndex":17,"items":[{"name":"씨유수원경서점","tel":"031-222-2153","addr":"경기도 수원시 팔달구 인계동 218-6번지 1층","indutype":"유통업 영리 - 편 의 점","category":"other"}]},{"lat":"37.27162848","long":"127.02925316","imageIndex":17,"items":[{"name":"씨유수원드라마점","tel":"031-221-7589","addr":"경기도 수원시 팔달구 인계동 946-2번지 J타워 102호","indutype":"유통업 영리 - 편 의 점","category":"other"}]},{"lat":"37.273376603","long":"127.02866748","imageIndex":17,"items":[{"name":"씨유수원쉬즈메디병원점","tel":"031-898-6568","addr":"경기도 수원시 팔달구 인계동 959번지","indutype":"유통업 영리 - 편 의 점","category":"other"}]},{"lat":"37.2657899","long":"127.02886782","imageIndex":17,"items":[{"name":"씨유수원인계보첼리점","tel":"031-267-2331","addr":"경기도 수원시 팔달구 인계동 1032번지 1층","indutype":"유통업 영리 - 편 의 점","category":"other"}]},{"lat":"37.257571358","long":"127.03366706","imageIndex":17,"items":[{"name":"씨유수원트윈파크점","tel":"031-224-6132","addr":"경기도 수원시 팔달구 인계동 1134-9번지 트윈파크비동 1층 101,102호","indutype":"유통업 영리 - 편 의 점","category":"other"}]},{"lat":"37.26015711","long":"127.03444594","imageIndex":17,"items":[{"name":"씨유수원효원로점","tel":"031-224-8144","addr":"경기도 수원시 팔달구 인계동 1127-1번지 105호 106호 한화꿈에그린파크상가","indutype":"유통업 영리 - 편 의 점","category":"other"},{"name":"어반테일러(Urban Tailor)","tel":"031-223-5321","addr":"경기도 수원시 팔달구 인계동 1127-1번지 한화꿈에그린파크 121호 상가","indutype":"의류 - 맞춤복점","category":"other"},{"name":"크레스코(cresco)","tel":"031-304-0508","addr":"경기도 수원시 팔달구 인계동 1127-1번지 한화꿈에그린파크 1층 107호","indutype":"사무통신 - 통신기기","category":"other"}]},{"lat":"37.275844802","long":"127.03136309","imageIndex":17,"items":[{"name":"씨유인계골드점","tel":"02-1577-8007","addr":"경기도 수원시 팔달구 인계동 227-1번지","indutype":"유통업 영리 - 편 의 점","category":"other"},{"name":"엘림기독서점","tel":"031-236-6920","addr":"경기도 수원시 팔달구 인계동 227-1번지","indutype":"서적문구 - 전문서적","category":"other"}]},{"lat":"37.267043171","long":"127.02469692","imageIndex":17,"items":[{"name":"씨유인계복개천점","tel":"031-267-2680","addr":"경기도 수원시 팔달구 인계동 991-12번지","indutype":"유통업 영리 - 편 의 점","category":"other"}]},{"lat":"37.274540238","long":"127.02172248","imageIndex":17,"items":[{"name":"씨유인계아울렛점","tel":"031-898-6567","addr":"경기도 수원시 팔달구 인계동 751-9번지","indutype":"유통업 영리 - 편 의 점","category":"other"}]},{"lat":"37.263880609","long":"127.02442544","imageIndex":17,"items":[{"name":"씨유인계우리점","tel":"031-212-5357","addr":"경기도 수원시 팔달구 인계동 1013-3번지 1층 일부","indutype":"유통업 영리 - 편 의 점","category":"other"}]},{"lat":"37.277070988","long":"127.02786819","imageIndex":17,"items":[{"name":"아기누리","tel":"031-233-4709","addr":"경기도 수원시 팔달구 인계동 208-6번지","indutype":"의류 - 아동의류","category":"other"}]},{"lat":"37.273205425","long":"127.0285885","imageIndex":17,"items":[{"name":"아람북스","tel":"031-232-5900","addr":"경기도 수원시 팔달구 인계동 959-9번지 연합뉴스빌딩 1층","indutype":"서적문구 - 일반서적","category":"other"}]},{"lat":"37.276296407","long":"127.02639087","imageIndex":17,"items":[{"name":"아름꽃화원","tel":"031-236-3253","addr":"경기도 수원시 팔달구 인계동 241-49번지","indutype":"문화.취미 - 화원","category":"other"},{"name":"엄마속옷","tel":"031-217-3560","addr":"경기도 수원시 팔달구 인계동 241-49번지","indutype":"의류 - 내의판매","category":"other"}]},{"lat":"37.273737051","long":"127.02849848","imageIndex":17,"items":[{"name":"아이러브유블리","tel":"031-225-4860","addr":"경기도 수원시 팔달구 인계동 958-3번지 1층","indutype":"의류 - 정장","category":"other"}]},{"lat":"37.261680119","long":"127.03342073","imageIndex":17,"items":[{"name":"아이리스 웨딩 뷰티샵","tel":"031-238-2588","addr":"경기도 수원시 팔달구 인계동 1124-5번지","indutype":"용역 서비스 - 혼례서비스","category":"other"}]},{"lat":"37.270098124","long":"127.02200323","imageIndex":17,"items":[{"name":"아이맘(까꿍)","tel":"031-239-0949","addr":"경기도 수원시 팔달구 인계동 863-5번지 1호","indutype":"의류 - 정장","category":"other"},{"name":"전국산업","tel":"031-239-5581","addr":"경기도 수원시 팔달구 인계동 863-5번지 5,6호","indutype":"용역 서비스 - 기타용역서비스","category":"other"}]},{"lat":"37.274629987","long":"127.02383093","imageIndex":17,"items":[{"name":"아이미래로","tel":"","addr":"경기도 수원시 팔달구 인계동 743-83번지 506호","indutype":"용역 서비스 - 종합용역","category":"other"},{"name":"엠제이시스템공조","tel":"032-681-5783","addr":"경기도 수원시 팔달구 인계동 743-83번지EM오피스텔709호","indutype":"용역 서비스 - 기타용역서비스","category":"other"},{"name":"체크도어","tel":"031-898-6940","addr":"경기도 수원시 팔달구 인계동 743-83번지 이엠오피스텔 701호","indutype":"용역 서비스 - 기타용역서비스","category":"other"}]},{"lat":"37.271764904","long":"127.02274778","imageIndex":17,"items":[{"name":"아이솔루텍","tel":"031-8001-2119","addr":"경기도 수원시 팔달구 인계동 846-19번지","indutype":"기타 - 기계공구","category":"other"}]},{"lat":"37.271268161","long":"127.02883588","imageIndex":17,"items":[{"name":"아주산업","tel":"031-214-0205","addr":"경기도 수원시 팔달구 인계동 947-15번지","indutype":"전기제품 - 냉열기기","category":"other"}]},{"lat":"37.270097313","long":"127.02650169","imageIndex":17,"items":[{"name":"아주플라워","tel":"031-217-7755","addr":"경기도 수원시 팔달구 인계동 965-16번지","indutype":"문화.취미 - 화원","category":"other"}]},{"lat":"37.27299009","long":"127.02397705","imageIndex":17,"items":[{"name":"아침향기화원","tel":"031-898-9311","addr":"경기도 수원시 팔달구 인계동 818-2번지","indutype":"문화.취미 - 화원","category":"other"}]},{"lat":"37.270484886","long":"127.02583662","imageIndex":17,"items":[{"name":"안심직업소개소","tel":"031-236-9101","addr":"경기도 수원시 팔달구 인계동 971-3번지 2층","indutype":"용역 서비스 - 종합용역","category":"other"},{"name":"엔젤정보통신","tel":"031-257-6699","addr":"경기도 수원시 팔달구 인계동 971-3번지","indutype":"사무통신 - 통신기기","category":"other"}]},{"lat":"37.262347313","long":"127.0316962","imageIndex":17,"items":[{"name":"알파상사","tel":"031-238-4435","addr":"경기도 수원시 팔달구 인계동 1046-18번지","indutype":"서적문구 - 문구용품","category":"other"},{"name":"풀잎문화센터","tel":"031-224-3467","addr":"경기도 수원시 팔달구 인계동 1046-18번지 보성빌딩 303호","indutype":"문화.취미 - 문화취미기타","category":"other"}]},{"lat":"37.262706777","long":"127.03536014","imageIndex":17,"items":[{"name":"앙띠끄","tel":"","addr":"경기도 수원시 팔달구 인계동 1122-14번지 103호","indutype":"의류 - 정장","category":"other"}]},{"lat":"37.269602258","long":"127.02378444","imageIndex":17,"items":[{"name":"액자클럽,예술","tel":"031-224-5274","addr":"경기도 수원시 팔달구 인계동 871-5번지 지하1층","indutype":"문화.취미 - 화방·표구점","category":"other"}]},{"lat":"37.269845845","long":"127.0219468","imageIndex":17,"items":[{"name":"앰사운드","tel":"031-234-7894","addr":"경기도 수원시 팔달구 인계동 864-5번지","indutype":"용역 서비스 - 사무서비스","category":"other"}]},{"lat":"37.263347733","long":"127.03053543","imageIndex":17,"items":[{"name":"언프러그드","tel":"031-237-2269","addr":"경기도 수원시 팔달구 인계동 1044-10번지 정우빌딩 지하","indutype":"용역 서비스 - 종합용역","category":"other"},{"name":"종로커플링마을","tel":"031-111-1111","addr":"경기도 수원시 팔달구 인계동 1044-10번지 정우빌딩 402호","indutype":"신변잡화 - 기타잡화","category":"other"}]},{"lat":"37.272151441","long":"127.02756215","imageIndex":17,"items":[{"name":"에스더블유이엔피","tel":"031-239-1411","addr":"경기도 수원시 팔달구 인계동 961-1번지","indutype":"용역 서비스 - 종합용역","category":"other"}]},{"lat":"37.260544728","long":"127.033781","imageIndex":17,"items":[{"name":"에스띠아인","tel":"031-221-3434","addr":"경기도 수원시 팔달구 인계동 1127번지 1층","indutype":"의류 - 기타의류","category":"other"},{"name":"플로렌스","tel":"031-222-2319","addr":"경기도 수원시 팔달구 인계동 1127번지 128호 한화꿈에그린파크상업시설","indutype":"의류 - 정장","category":"other"}]},{"lat":"37.277404246","long":"127.02844334","imageIndex":17,"items":[{"name":"에스씨씨(SCC)","tel":"070-4274-9985","addr":"경기도 수원시 팔달구 인계동 206번지 한라시그마팰리스 102동 605호","indutype":"용역 서비스 - 사무서비스","category":"other"},{"name":"월드애드","tel":"031-1111-1111","addr":"경기도 수원시 팔달구 인계동 206번지 한라시그마팰리스 102동 1203호","indutype":"용역 서비스 - 종합용역","category":"other"}]},{"lat":"37.26429304","long":"127.0336698","imageIndex":17,"items":[{"name":"에이블(able)","tel":"031-8025-2997","addr":"경기도 수원시 팔달구 인계동 1119-11 BSL프라자 102호","indutype":"의류 - 정장","category":"other"}]},{"lat":"37.266961232","long":"127.02889077","imageIndex":17,"items":[{"name":"에이원렌트카주식회사","tel":"031-221-7743","addr":"경기도 수원시 팔달구 인계동 1022-3번지","indutype":"여행 - 렌터카","category":"other"}]},{"lat":"37.26642917","long":"127.03088604","imageIndex":17,"items":[{"name":"에이치갤러리","tel":"031-223-6610","addr":"경기도 수원시 팔달구 인계동 1039번지 1층","indutype":"의류 - 정장","category":"other"}]},{"lat":"37.272963635","long":"127.02044804","imageIndex":17,"items":[{"name":"에펠","tel":"031-234-7220","addr":"경기도 수원시 팔달구 인계동 809-2","indutype":"신변잡화 - 제화","category":"other"}]},{"lat":"37.271575253","long":"127.0251943","imageIndex":17,"items":[{"name":"엔젤하우스","tel":"031-215-0035","addr":"경기도 수원시 팔달구 인계동 970-1번지 세명프라임빌","indutype":"주방용구 - 정수기","category":"other"}]},{"lat":"37.272539626","long":"127.02369505","imageIndex":17,"items":[{"name":"엘2디조명","tel":"031-234-2420","addr":"경기도 수원시 팔달구 인계동 819-9번지 1층","indutype":"건축자재 - 조명기구","category":"other"}]},{"lat":"37.263987405","long":"127.03078368","imageIndex":17,"items":[{"name":"엘엔제이미디어","tel":"031-222-8373","addr":"경기도 수원시 팔달구 인계동 1043-1번지 정민빌딩 406호","indutype":"용역 서비스 - 종합용역","category":"other"}]},{"lat":"37.266484865","long":"127.02281403","imageIndex":17,"items":[{"name":"연세공인중개사사무소","tel":"031-237-7730","addr":"경기도 수원시 팔달구 인계동 1001번지 1층","indutype":"용역 서비스 - 부동산 중개·임대","category":"other"}]},{"lat":"37.264321288","long":"127.02856293","imageIndex":17,"items":[{"name":"연세엔지니어링(주)","tel":"031-221-6822","addr":"경기도 수원시 팔달구 인계동 1030-9번지","indutype":"전기제품 - 기타전기제품","category":"other"},{"name":"파워하이텍","tel":"031-233-8302","addr":"경기도 수원시 팔달구 인계동 1030-9번지","indutype":"기타 - 기타 전문점","category":"other"}]},{"lat":"37.270404652","long":"127.0208646","imageIndex":17,"items":[{"name":"연우","tel":"031-225-1204","addr":"경기도 수원시 팔달구 인계동 910-3번지","indutype":"기타 - 기계공구","category":"other"}]},{"lat":"37.265241341","long":"127.02342248","imageIndex":17,"items":[{"name":"열쇠박사","tel":"031-232-1380","addr":"경기도 수원시 팔달구 인계동 1007-14번지 101호","indutype":"건축자재 - 목재·석재·철물","category":"other"}]},{"lat":"37.26565614","long":"127.0214497","imageIndex":17,"items":[{"name":"영광자전거","tel":"031-234-8875","addr":"경기도 수원시 팔달구 인계동 1003-7번지 1층","indutype":"레져용품 - 스포츠·레져용품","category":"other"}]},{"lat":"37.273377767","long":"127.0226129","imageIndex":17,"items":[{"name":"영구크린이사203호점","tel":"031-217-7000","addr":"경기도 수원시 팔달구 인계동 813-23번지 307호","indutype":"용역 서비스 - 종합용역","category":"other"}]},{"lat":"37.264601434","long":"127.02441437","imageIndex":17,"items":[{"name":"영이공구","tel":"031-237-0209","addr":"경기도 수원시 팔달구 인계동 1011-6번지","indutype":"건축자재 - 목재·석재·철물","category":"other"}]},{"lat":"37.266374674","long":"127.03266728","imageIndex":17,"items":[{"name":"예문건축사사무소","tel":"031-239-0680","addr":"경기도 수원시 팔달구 인계동 1037-1번지","indutype":"용역 서비스 - 법률회계서비스(개인)","category":"other"}]},{"lat":"37.2632397","long":"127.03014083","imageIndex":17,"items":[{"name":"오뚝이법무사사무소","tel":"070-5159-0209","addr":"경기도 수원시 팔달구 인계동 1044-2번지 3층","indutype":"용역 서비스 - 법률회계서비스(개인)","category":"other"}]},{"lat":"37.265040924","long":"127.03355737","imageIndex":17,"items":[{"name":"오라클코스메틱","tel":"031-224-5727","addr":"경기도 수원시 팔달구 인계동 1114-7번지 우암빌딩 4층","indutype":"회원제형태 - 기타4","category":"other"},{"name":"제이카리스인계점","tel":"031-238-6405","addr":"경기도 수원시 팔달구 인계동 1114-7번지 1층","indutype":"의류 - 정장","category":"other"}]},{"lat":"37.263265617","long":"127.03461634","imageIndex":17,"items":[{"name":"오블리제","tel":"031-234-0474","addr":"경기도 수원시 팔달구 인계동 1121-12번지","indutype":"의류 - 맞춤복점","category":"other"}]},{"lat":"37.272459063","long":"127.02042537","imageIndex":17,"items":[{"name":"오블리클 (oblicle)","tel":"","addr":"경기도 수원시 팔달구 인계동 807-11번지 102호","indutype":"용역 서비스 - 사무서비스","category":"other"}]},{"lat":"37.272927773","long":"127.01919654","imageIndex":17,"items":[{"name":"오엔","tel":"031-233-6000","addr":"경기도 수원시 팔달구 인계동 774-4번지 1층","indutype":"용역 서비스 - 사무서비스","category":"other"}]},{"lat":"37.268880428","long":"127.02886888","imageIndex":17,"items":[{"name":"와이엔아이컴퍼니","tel":"070-5118-2236","addr":"경기도 수원시 팔달구 인계동 949-23번지 드라마빌라 B02호","indutype":"용역 서비스 - 종합용역","category":"other"}]},{"lat":"37.268293673","long":"127.0334234","imageIndex":17,"items":[{"name":"요런컴퍼니","tel":"031-212-7023","addr":"경기도 수원시 팔달구 인계동 465번지 래미안노블클래스 206동 202호","indutype":"신변잡화 - 기타잡화","category":"other"}]},{"lat":"37.270016336","long":"127.0259154","imageIndex":17,"items":[{"name":"우림디자인","tel":"031-226-9006","addr":"경기도 수원시 팔달구 인계동 972-5번지","indutype":"서적문구 - 출판 및 인쇄물","category":"other"},{"name":"월드종합전자","tel":"031-225-4449","addr":"경기도 수원시 팔달구 인계동 972-5번지","indutype":"전기제품 - 기타전기제품","category":"other"}]},{"lat":"37.265881029","long":"127.02367067","imageIndex":17,"items":[{"name":"우성후렘","tel":"031-238-8078","addr":"경기도 수원시 팔달구 인계동 999-7번지","indutype":"용역 서비스 - 종합용역","category":"other"}]},{"lat":"37.266322582","long":"127.02338895","imageIndex":17,"items":[{"name":"우인미디어테크","tel":"","addr":"경기도 수원시 팔달구 인계동 1000-12번지 201호","indutype":"건축자재 - 조명기구","category":"other"},{"name":"피오나","tel":"031-222-9656","addr":"경기도 수원시 팔달구 인계동 1000-12 1층피오나 9/2","indutype":"회원제형태 - 기타4","category":"other"}]},{"lat":"37.273125964","long":"127.01944462","imageIndex":17,"items":[{"name":"우진공사","tel":"031-293-0412","addr":"경기도 수원시 팔달구 인계동 774-3번지","indutype":"건축자재 - 기타건축자재","category":"other"}]},{"lat":"37.275574678","long":"127.030585","imageIndex":17,"items":[{"name":"우청물산","tel":"031-224-2046","addr":"경기도 수원시 팔달구 인계동 942-9번지 삼성생명 지하층","indutype":"서적문구 - 문구용품","category":"other"}]},{"lat":"37.2727653","long":"127.02116958","imageIndex":17,"items":[{"name":"원광C&C","tel":"031-221-9375","addr":"경기도 수원시 팔달구 인계동 850-4번지 2층","indutype":"사무통신 - 컴퓨터","category":"other"}]},{"lat":"37.270268602","long":"127.02602822","imageIndex":17,"items":[{"name":"원스토어","tel":"","addr":"경기도 수원시 팔달구 인계동 971-6번지","indutype":"사무통신 - 사무용 OA기기","category":"other"}]},{"lat":"37.264157403","long":"127.03547349","imageIndex":17,"items":[{"name":"원일베네스트","tel":"031-236-0100","addr":"경기도 수원시 팔달구 인계동 1118-2번지","indutype":"회원제형태 - 레져업소","category":"other"}]},{"lat":"37.266844997","long":"127.02441501","imageIndex":17,"items":[{"name":"월드음향시스템","tel":"031-296-8139","addr":"경기도 수원시 팔달구 인계동 991-2번지","indutype":"수리서비스 - 가정용품수리","category":"other"}]},{"lat":"37.27737728","long":"127.0281389","imageIndex":17,"items":[{"name":"월드플라워빈센트점","tel":"031-898-9016","addr":"경기도 수원시 팔달구 인계동 207-8번지","indutype":"문화.취미 - 화원","category":"other"}]},{"lat":"37.272151951","long":"127.02498026","imageIndex":17,"items":[{"name":"월풀빨래방","tel":"031-235-9767","addr":"경기도 수원시 팔달구 인계동 822-17번지 1층","indutype":"수리서비스 - 세탁소","category":"other"}]},{"lat":"37.263095346","long":"127.03095245","imageIndex":17,"items":[{"name":"위멤버스튜디오","tel":"070-8849-0852","addr":"경기도 수원시 팔달구 인계동 1044-24번지 2 (3층성운빌딩)","indutype":"광학제품 - 사진관","category":"other"}]},{"lat":"37.273871789","long":"127.03035888","imageIndex":17,"items":[{"name":"유성권투체육관","tel":"031-234-9980","addr":"경기도 수원시 팔달구 인계동 944-8번지 2층","indutype":"회원제형태 - 레져업소","category":"other"}]},{"lat":"37.26526743","long":"127.02828141","imageIndex":17,"items":[{"name":"유신고15회동창회","tel":"031-267-0025","addr":"경기도 수원시 팔달구 인계동 1025-3번지 송덕빌딩 102호","indutype":"기타 - 비영리/비대상","category":"other"}]},{"lat":"37.266573107","long":"127.0318331","imageIndex":17,"items":[{"name":"윤아트홀","tel":"","addr":"경기도 수원시 팔달구 인계동 1036-11번지 계성빌딩","indutype":"문화.취미 - 티켓","category":"other"}]},{"lat":"37.271457633","long":"127.02764084","imageIndex":17,"items":[{"name":"이노정보통신","tel":"031-221-6404","addr":"경기도 수원시 팔달구 인계동 962-8번지 2층","indutype":"사무통신 - 통신기기","category":"other"},{"name":"이노정보통신","tel":"031-221-6404","addr":"경기도 수원시 팔달구 인계동 962-8번지 2층","indutype":"사무통신 - 통신기기","category":"other"},{"name":"제이&정","tel":"031-276-3341","addr":"경기도 수원시 팔달구 인계동 962-8번지 2층","indutype":"의류 - 정장","category":"other"}]},{"lat":"37.26582474","long":"127.03386208","imageIndex":17,"items":[{"name":"이마트24 수원인계뉴코아점","tel":"031-000-0000","addr":"경기도 수원시 팔달구 인계동 1114-10번지 인송빌딩 1층 109호","indutype":"유통업 영리 - 편 의 점","category":"other"},{"name":"지니텔레콤 인계점","tel":"070-8873-4582","addr":"경기도 수원시 팔달구 인계동 1114-10번지 인송빌딩 106호","indutype":"사무통신 - 통신기기","category":"other"}]},{"lat":"37.26374283","long":"127.03583406","imageIndex":17,"items":[{"name":"이마트24나혜석거리점","tel":"","addr":"경기도 수원시 팔달구 인계동 1118-8번지 103호","indutype":"유통업 영리 - 편 의 점","category":"other"},{"name":"이마트24나혜석거리점","tel":"031-000-0000","addr":"경기도 수원시 팔달구 인계동 1118-8번지 103호","indutype":"유통업 영리 - 편 의 점","category":"other"}]},{"lat":"37.264763143","long":"127.0268946","imageIndex":17,"items":[{"name":"이상건축사사무소","tel":"031-222-9950","addr":"경기도 수원시 팔달구 인계동 1026-8번지","indutype":"용역 서비스 - 법률회계서비스(개인)","category":"other"}]},{"lat":"37.264905505","long":"127.03456066","imageIndex":17,"items":[{"name":"인계독(INGYEDOG)","tel":"","addr":"경기도 수원시 팔달구 인계동 1115-20번지 3층 302호","indutype":"문화.취미 - 애완동물","category":"other"}]},{"lat":"37.270233384","long":"127.02133808","imageIndex":17,"items":[{"name":"인계동주민자치위원회","tel":"031-228-7982","addr":"경기도 수원시 팔달구 인계동 909-69번지 인계길91","indutype":"문화.취미 - 문화취미기타","category":"other"}]},{"lat":"37.271962557","long":"127.02591599","imageIndex":17,"items":[{"name":"인계문구사","tel":"031-233-1107","addr":"경기도 수원시 팔달구 인계동 257-9번지","indutype":"서적문구 - 문구용품","category":"other"}]},{"lat":"37.273071716","long":"127.02072994","imageIndex":17,"items":[{"name":"인계전기공구","tel":"031-236-0993","addr":"경기도 수원시 팔달구 인계동 809-3번지","indutype":"기타 - 기계공구","category":"other"}]},{"lat":"37.263347868","long":"127.02994922","imageIndex":17,"items":[{"name":"인스크리에이티브","tel":"031-466-2270","addr":"경기도 수원시 팔달구 인계동 1044-21번지 경일빌딩 402호","indutype":"서적문구 - 출판 및 인쇄물","category":"other"}]},{"lat":"37.270963414","long":"127.02003042","imageIndex":17,"items":[{"name":"일광사","tel":"","addr":"경기도 수원시 팔달구 인계동 916-35번지","indutype":"기타 - 비영리/대상","category":"other"}]},{"lat":"37.267935159","long":"127.02486628","imageIndex":17,"items":[{"name":"일광전기상사","tel":"031-238-8289","addr":"경기도 수원시 팔달구 인계동 982-9번지","indutype":"전기제품 - 기타전기제품","category":"other"}]},{"lat":"37.263040117","long":"127.03550683","imageIndex":17,"items":[{"name":"일년열두달","tel":"031-238-9266","addr":"경기도 수원시 팔달구 인계동 1121-8번지","indutype":"문화.취미 - 화원","category":"other"}]},{"lat":"37.26151776","long":"127.03408577","imageIndex":17,"items":[{"name":"일신세무회계사무소","tel":"031-217-8866","addr":"경기도 수원시 팔달구 인계동 1122-12번지 새마을회 8층","indutype":"용역 서비스 - 법률회계서비스(개인)","category":"other"}]},{"lat":"37.268539165","long":"127.02308515","imageIndex":17,"items":[{"name":"정수기 아줌마","tel":"031-235-4323","addr":"경기도 수원시 팔달구 인계동 986-40번지","indutype":"주방용구 - 정수기","category":"other"}]},{"lat":"37.264185807","long":"127.03002843","imageIndex":17,"items":[{"name":"정조환경(주)","tel":"031-255-5544","addr":"경기도 수원시 팔달구 인계동 1043-13번지 조훈빌딩 3층","indutype":"기타 - 기타 전문점","category":"other"}]},{"lat":"37.258076077","long":"127.03311492","imageIndex":17,"items":[{"name":"정훈크리닝수원점","tel":"031-237-2770","addr":"경기도 수원시 팔달구 인계동 1134-3번지 동양파라곤 106호","indutype":"수리서비스 - 세탁소","category":"other"}]},{"lat":"37.265349536","long":"127.02300539","imageIndex":17,"items":[{"name":"제이에스공조기","tel":"031-236-5775","addr":"경기도 수원시 팔달구 인계동 1006-12번지","indutype":"전기제품 - 가전제품","category":"other"}]},{"lat":"37.265960454","long":"127.03164121","imageIndex":17,"items":[{"name":"제이에스에너지(JS에너지)","tel":"031-226-0208","addr":"경기도 수원시 팔달구 인계동 1039-6번지 화인빌딩 4층 401호","indutype":"건축자재 - 보일러·펌프·샷시","category":"other"},{"name":"캐리스토리","tel":"070-7732-0305","addr":"경기도 수원시 팔달구 인계동 1039-6번지 화인빌딩 401호","indutype":"회원제형태 - 서적","category":"other"}]},{"lat":"37.275710468","long":"127.02772116","imageIndex":17,"items":[{"name":"제이와앤스튜디오","tel":"","addr":"경기도 수원시 팔달구 인계동 241-68번지 드림하우스2 1001호","indutype":"광학제품 - 사진관","category":"other"}]},{"lat":"37.266655466","long":"127.02608348","imageIndex":17,"items":[{"name":"제일마크사","tel":"031-233-1921","addr":"경기도 수원시 팔달구 인계동 979-6번지 삼광빌딩","indutype":"직물 - 침구·수예점","category":"other"}]},{"lat":"37.264601767","long":"127.02249788","imageIndex":17,"items":[{"name":"제일이앤지","tel":"031-225-0228","addr":"경기도 수원시 팔달구 인계동 1006-5번지","indutype":"용역 서비스 - 기타용역서비스","category":"other"}]},{"lat":"37.274991005","long":"127.02005389","imageIndex":17,"items":[{"name":"제일조류수족관","tel":"031-233-0358","addr":"경기도 수원시 팔달구 인계동 765-4번지","indutype":"문화.취미 - 애완동물","category":"other"}]},{"lat":"37.276043418","long":"127.02969443","imageIndex":17,"items":[{"name":"젠소나에스테틱","tel":"031-238-9996","addr":"경기도 수원시 팔달구 인계동 953-1번지 4층","indutype":"회원제형태 - 기타4","category":"other"}]},{"lat":"37.271205516","long":"127.02680645","imageIndex":17,"items":[{"name":"종합꽃도매(굿천사)","tel":"031-232-6297","addr":"경기도 수원시 팔달구 인계동 964-12번지","indutype":"문화.취미 - 화원","category":"other"},{"name":"홀릭","tel":"031-000-0000","addr":"경기도 수원시 팔달구 인계동 964-12번지 1층 102호","indutype":"의류 - 정장","category":"other"}]},{"lat":"37.269935323","long":"127.02549823","imageIndex":17,"items":[{"name":"주성테크","tel":"031-257-0458","addr":"경기도 수원시 팔달구 인계동 972-9번지 1층 전체","indutype":"전기제품 - 기타전기제품","category":"other"}]},{"lat":"37.265151185","long":"127.02372684","imageIndex":17,"items":[{"name":"주식회사 다함","tel":"031-232-4701","addr":"경기도 수원시 팔달구 인계동 1010번지 태봉빌딩 203호","indutype":"전기제품 - 가전제품","category":"other"}]},{"lat":"37.263158171","long":"127.03197834","imageIndex":17,"items":[{"name":"주식회사 더나눔","tel":"031-233-0021","addr":"경기도 수원시 팔달구 인계동 1046-20번지 육성건설빌딩 6층 일부","indutype":"용역 서비스 - 사무서비스","category":"other"}]},{"lat":"37.275152861","long":"127.02219619","imageIndex":17,"items":[{"name":"주식회사 벅스모바일","tel":"070-7736-5555","addr":"경기도 수원시 팔달구 인계동 750-77번지","indutype":"사무통신 - 통신기기","category":"other"}]},{"lat":"37.263853302","long":"127.02589098","imageIndex":17,"items":[{"name":"주식회사 비단꽃길","tel":"031-225-0770","addr":"경기도 수원시 팔달구 인계동 1015-2번지 동보빌딩 3층 302호","indutype":"용역 서비스 - 가례서비스업","category":"other"}]},{"lat":"37.264268324","long":"127.02286982","imageIndex":17,"items":[{"name":"주식회사 삼원환경","tel":"031-226-2435","addr":"경기도 수원시 팔달구 인계동 1008-7번지 삼일빌딩 301호","indutype":"용역 서비스 - 종합용역","category":"other"}]},{"lat":"37.263544905","long":"127.03472919","imageIndex":17,"items":[{"name":"주식회사 신선푸드코리아","tel":"070-4109-0429","addr":"경기도 수원시 팔달구 인계동 1121번지 2층","indutype":"용역 서비스 - 사무서비스","category":"other"}]},{"lat":"37.270320274","long":"127.03607369","imageIndex":17,"items":[{"name":"주식회사 애드월드컴퍼니","tel":"070-8865-2060","addr":"경기도 수원시 팔달구 인계동 384번지 래미안노블클래스 103동 1502호","indutype":"서적문구 - 출판 및 인쇄물","category":"other"}]},{"lat":"37.264346355","long":"127.03642055","imageIndex":17,"items":[{"name":"주식회사 오가오","tel":"031-226-5955","addr":"경기도 수원시 팔달구 인계동 1116-5번지 인계동삼환아르누보파크 1403호","indutype":"유통업 영리 - 기타유통업","category":"other"},{"name":"코디","tel":"031-221-8833","addr":"경기도 수원시 팔달구 인계동 1116-5번지 인계동삼환아르누보파크 101호","indutype":"의류 - 정장","category":"other"}]},{"lat":"37.271268433","long":"127.02756186","imageIndex":17,"items":[{"name":"주식회사 윤플래닝","tel":"031-271-5300","addr":"경기도 수원시 팔달구 인계동 963-2번지 3층","indutype":"용역 서비스 - 종합용역","category":"other"}]},{"lat":"37.271845597","long":"127.02500272","imageIndex":17,"items":[{"name":"주식회사 인계건설","tel":"031-239-2412","addr":"경기도 수원시 팔달구 인계동 822-24","indutype":"용역 서비스 - 기타용역서비스","category":"other"}]},{"lat":"37.271825265","long":"127.03508219","imageIndex":17,"items":[{"name":"주식회사 하빅","tel":"031-216-1561","addr":"경기도 수원시 팔달구 인계동 369-6번지 2층","indutype":"건축자재 - 조명기구","category":"other"}]},{"lat":"37.264123389","long":"127.02700713","imageIndex":17,"items":[{"name":"주식회사 한솔교육수원","tel":"031-225-5100","addr":"경기도 수원시 팔달구 인계동 1027-8번지 동림빌딩","indutype":"서적문구 - 전문서적","category":"other"},{"name":"중앙행정심판 행정사사무소","tel":"031-222-6177","addr":"경기도 수원시 팔달구 인계동 1027-8번지 동림빌딩 2층","indutype":"용역 서비스 - 법률회계서비스(개인)","category":"other"}]},{"lat":"37.264430603","long":"127.02230618","imageIndex":17,"items":[{"name":"주식회사 휴먼컨스","tel":"031-223-6996","addr":"경기도 수원시 팔달구 인계동 1008-24번지","indutype":"건축자재 - 인테리어전문","category":"other"}]},{"lat":"37.263653952","long":"127.03108794","imageIndex":17,"items":[{"name":"주식회사에이와이씨지","tel":"031-304-9114","addr":"경기도 수원시 팔달구 인계동 1043-2번지 명일빌딩 503호","indutype":"용역 서비스 - 종합용역","category":"other"},{"name":"한창균세무회계사무소","tel":"031-233-0226","addr":"경기도 수원시 팔달구 인계동 1043-2번지","indutype":"용역 서비스 - 법률회계서비스(개인)","category":"other"}]},{"lat":"37.258157524","long":"127.03169461","imageIndex":17,"items":[{"name":"주식회사오담기획","tel":"031-230-2203","addr":"경기도 수원시 팔달구 인계동 1135번지 LD그린토피아","indutype":"서적문구 - 출판 및 인쇄물","category":"other"},{"name":"펫준애견방문훈련 강아지호텔 유치원","tel":"","addr":"경기도 수원시 팔달구 인계동 1135번지 LD그린토피아 B01호","indutype":"문화.취미 - 애완동물","category":"other"}]},{"lat":"37.271122265","long":"127.03580346","imageIndex":17,"items":[{"name":"주식회사윤스","tel":"031-239-0011","addr":"경기도 수원시 팔달구 인계동 365번지 3층","indutype":"서적문구 - 일반서적","category":"other"}]},{"lat":"37.273963751","long":"127.0206174","imageIndex":17,"items":[{"name":"지구촌여행사","tel":"031-232-1222","addr":"경기도 수원시 팔달구 인계동 762-27번지 1층","indutype":"여행 - 관광여행","category":"other"}]},{"lat":"37.272988921","long":"127.02974972","imageIndex":17,"items":[{"name":"지호플러스","tel":"070-4681-2318","addr":"경기도 수원시 팔달구 인계동 945번지 인계극동스타클래스 103동 204호","indutype":"용역 서비스 - 종합용역","category":"other"}]},{"lat":"37.264736613","long":"127.02427913","imageIndex":17,"items":[{"name":"진성네비게이션","tel":"031-235-8688","addr":"경기도 수원시 팔달구 인계동 1011-1번지 나동","indutype":"회원제형태 - 기타3","category":"other"}]},{"lat":"37.277764214","long":"127.03041667","imageIndex":17,"items":[{"name":"쭈쭈베베","tel":"031-238-7004","addr":"경기도 수원시 팔달구 인계동 952-3번지 10층","indutype":"의류 - 아동의류","category":"other"},{"name":"펫존&견생컷","tel":"031-222-4947","addr":"경기도 수원시 팔달구 인계동 952-3번지 세아빌딩 1층","indutype":"문화.취미 - 애완동물","category":"other"}]},{"lat":"37.272683605","long":"127.02472109","imageIndex":17,"items":[{"name":"창의교육","tel":"070-8170-4626","addr":"경기도 수원시 팔달구 인계동 255-24번지 지하-102","indutype":"서적문구 - 기타서적문구","category":"other"}]},{"lat":"37.269376966","long":"127.02397604","imageIndex":17,"items":[{"name":"천냥백화점","tel":"031-212-3063","addr":"경기도 수원시 팔달구 인계동 873-4번지 창현빌딩","indutype":"신변잡화 - 기타잡화","category":"other"}]},{"lat":"37.272710923","long":"127.02310882","imageIndex":17,"items":[{"name":"천신사","tel":"","addr":"경기도 수원시 팔달구 인계동 818-38번지","indutype":"기타 - 비영리/대상","category":"other"}]},{"lat":"37.272512677","long":"127.02322151","imageIndex":17,"items":[{"name":"천일사","tel":"031-232-1893","addr":"경기도 수원시 팔달구 인계동 847-35번지 1층","indutype":"기타 - 비영리/대상","category":"other"}]},{"lat":"37.276737201","long":"127.0297285","imageIndex":17,"items":[{"name":"천지전력","tel":"031-233-2068","addr":"경기도 수원시 팔달구 인계동 952-21번지","indutype":"용역 서비스 - 기타용역서비스","category":"other"}]},{"lat":"37.268844538","long":"127.02816987","imageIndex":17,"items":[{"name":"청죽건설","tel":"031-234-4067","addr":"경기도 수원시 팔달구 인계동 950-14번지 경인빌딩 202호","indutype":"건축자재 - 인테리어전문","category":"other"}]},{"lat":"37.26504007","long":"127.03669142","imageIndex":17,"items":[{"name":"칠보북스","tel":"070-8630-8218","addr":"경기도 수원시 팔달구 인계동 1116-3번지 한화꿈에그린효원 5층 504호","indutype":"서적문구 - 일반서적","category":"other"}]},{"lat":"37.26518649","long":"127.02755987","imageIndex":17,"items":[{"name":"카오스네지던스","tel":"02-000-0000","addr":"경기도 수원시 팔달구 인계동 1025-7번지","indutype":"건축자재 - 부동산 분양","category":"other"},{"name":"투윈네지던스","tel":"02-000-0000","addr":"경기도 수원시 팔달구 인계동 1025-7번지","indutype":"건축자재 - 부동산 분양","category":"other"}]},{"lat":"37.275852029","long":"127.03800418","imageIndex":17,"items":[{"name":"캐드텍/원격지","tel":"031-211-1891","addr":"경기도 수원시 팔달구 인계동 158-17번지 1층","indutype":"기타 - 기타 전문점","category":"other"}]},{"lat":"37.265592488","long":"127.02484306","imageIndex":17,"items":[{"name":"커들리(CUDDLY))","tel":"","addr":"경기도 수원시 팔달구 인계동 996-6번지 동수원아트빌라 C동 B04호","indutype":"신변잡화 - 기타잡화","category":"other"}]},{"lat":"37.265492572","long":"127.02881135","imageIndex":17,"items":[{"name":"커튼콜스튜디오","tel":"","addr":"경기도 수원시 팔달구 인계동 1032-12번지 조은프라자 402호","indutype":"용역 서비스 - 사무서비스","category":"other"}]},{"lat":"37.271071405","long":"127.02092113","imageIndex":17,"items":[{"name":"컴사랑","tel":"031-236-1192","addr":"경기도 수원시 팔달구 인계동 909-30번지 1층 102호","indutype":"사무통신 - 컴퓨터","category":"other"}]},{"lat":"37.271070539","long":"127.02591572","imageIndex":17,"items":[{"name":"케이공조시스템","tel":"031-267-2865","addr":"경기도 수원시 팔달구 인계동 968-7번지","indutype":"전기제품 - 냉열기기","category":"other"},{"name":"토탈공방","tel":"031-234-0044","addr":"경기도 수원시 팔달구 인계동 968-7번지 203호","indutype":"용역 서비스 - 가례서비스업","category":"other"}]},{"lat":"37.265574945","long":"127.02209228","imageIndex":17,"items":[{"name":"케이에스텍","tel":"031-212-2005","addr":"경기도 수원시 팔달구 인계동 1004-12번지 101호","indutype":"전기제품 - 기타전기제품","category":"other"}]},{"lat":"37.271015898","long":"127.02872305","imageIndex":17,"items":[{"name":"케이조명마트","tel":"031-224-9181","addr":"경기도 수원시 팔달구 인계동 947-13번지 1층","indutype":"건축자재 - 조명기구","category":"other"}]},{"lat":"37.26853681","long":"127.03396465","imageIndex":17,"items":[{"name":"코너스톤 미디어 그룹(cornerstone media g","tel":"","addr":"경기도 수원시 팔달구 인계동 465번지 래미안노블클래스 203동 204호","indutype":"용역 서비스 - 사무서비스","category":"other"}]},{"lat":"37.268376004","long":"127.02816971","imageIndex":17,"items":[{"name":"코오롱정수기","tel":"031-224-2234","addr":"경기도 수원시 팔달구 인계동 951-8번지","indutype":"주방용구 - 정수기","category":"other"}]},{"lat":"37.262707853","long":"127.0311665","imageIndex":17,"items":[{"name":"크로스핏핫플레이스","tel":"031-225-3571","addr":"경기도 수원시 팔달구 인계동 1046-9번지 성보빌딩 지하2층","indutype":"회원제형태 - 레져업소","category":"other"}]},{"lat":"37.271016703","long":"127.02472061","imageIndex":17,"items":[{"name":"크린라이프","tel":"031-235-7315","addr":"경기도 수원시 팔달구 인계동 823-17번지","indutype":"수리서비스 - 세탁소","category":"other"}]},{"lat":"37.269269097","long":"127.02249909","imageIndex":17,"items":[{"name":"크린코리아","tel":"031-258-3444","addr":"경기도 수원시 팔달구 인계동 865-4 1층","indutype":"용역 서비스 - 기타용역서비스","category":"other"}]},{"lat":"37.275374584","long":"127.0376657","imageIndex":17,"items":[{"name":"클린온 주식회사","tel":"031-1833-6293","addr":"경기도 수원시 팔달구 인계동 158-30번지 선경2차아파트 지하 01호","indutype":"용역 서비스 - 종합용역","category":"other"}]},{"lat":"37.264212526","long":"127.03135871","imageIndex":17,"items":[{"name":"타투라이프","tel":"070-7531-5850","addr":"경기도 수원시 팔달구 인계동 1042-11번지 서울빌딩 401호","indutype":"용역 서비스 - 사무서비스","category":"other"}]},{"lat":"37.271962958","long":"127.02375127","imageIndex":17,"items":[{"name":"태흥공조","tel":"031-222-7064","addr":"경기도 수원시 팔달구 인계동 820-9번지","indutype":"전기제품 - 냉열기기","category":"other"}]},{"lat":"37.275185884","long":"127.0358616","imageIndex":17,"items":[{"name":"트루손(TRUSON)","tel":"031-213-8766","addr":"경기도 수원시 팔달구 인계동 159번지 선경상가 B층 02호","indutype":"레져용품 - 스포츠·레져용품","category":"other"}]},{"lat":"37.269935143","long":"127.02642272","imageIndex":17,"items":[{"name":"파라다이스헬스","tel":"031-235-3929","addr":"경기도 수원시 팔달구 인계동 965-14번지","indutype":"회원제형태 - 레져업소","category":"other"}]},{"lat":"37.273927626","long":"127.02116986","imageIndex":17,"items":[{"name":"팔달구 재활용센터","tel":"031-221-8666","addr":"경기도 수원시 팔달구 인계동 754-15번지","indutype":"전기제품 - 가전제품","category":"other"}]},{"lat":"37.267042074","long":"127.03000691","imageIndex":17,"items":[{"name":"팩트 컴퍼니","tel":"031-0304-5507","addr":"경기도 수원시 팔달구 인계동 1035-10번지 문영빌딩 406호","indutype":"수리서비스 - 사무·통신기기수리","category":"other"}]},{"lat":"37.275296899","long":"127.02295166","imageIndex":17,"items":[{"name":"펠리칸","tel":"031-222-3282","addr":"경기도 수원시 팔달구 인계동 749-9번지 올터리더스 1층 102호","indutype":"신변잡화 - 기념품점","category":"other"}]},{"lat":"37.268908064","long":"127.02594888","imageIndex":17,"items":[{"name":"평화전기조명","tel":"031-236-9881","addr":"경기도 수원시 팔달구 인계동 967-6번지","indutype":"건축자재 - 조명기구","category":"other"}]},{"lat":"37.266375625","long":"127.02860872","imageIndex":17,"items":[{"name":"포시즌","tel":"031-232-1872","addr":"경기도 수원시 팔달구 인계동 1023-2번지 포시즌빌딩","indutype":"회원제형태 - 레져업소","category":"other"}]},{"lat":"37.268710302","long":"127.02342342","imageIndex":17,"items":[{"name":"포토스타일","tel":"031-267-3175","addr":"경기도 수원시 팔달구 인계동 975-15 다림@ 702 55/1","indutype":"광학제품 - 사진관","category":"other"}]},{"lat":"37.26937381","long":"127.03741491","imageIndex":17,"items":[{"name":"폰 세상","tel":"","addr":"경기도 수원시 팔달구 인계동 384번지 래미안노블클래스 110동 1802호","indutype":"신변잡화 - 기타잡화","category":"other"}]},{"lat":"37.264962404","long":"127.02108878","imageIndex":17,"items":[{"name":"폰세사리","tel":"070-7789-6244","addr":"경기도 수원시 팔달구 인계동 1003-8번지","indutype":"신변잡화 - 기타잡화","category":"other"}]},{"lat":"37.273071945","long":"127.01914019","imageIndex":17,"items":[{"name":"풍년농자재백화점","tel":"031-232-5475","addr":"경기도 수원시 팔달구 인계동 773-11번지","indutype":"농업 - 비료,사료,종자","category":"other"}]},{"lat":"37.263931929","long":"127.03625126","imageIndex":17,"items":[{"name":"프레듀","tel":"070-8182-0379","addr":"경기도 수원시 팔달구 인계동 1118-6번지 BK오피스텔 806호","indutype":"서적문구 - 일반서적","category":"other"},{"name":"프레듀","tel":"031-111-1111","addr":"경기도 수원시 팔달구 인계동 1118-6번지 BK오피스텔 806호","indutype":"서적문구 - 일반서적","category":"other"}]},{"lat":"37.275431901","long":"127.02383115","imageIndex":17,"items":[{"name":"프로미디어","tel":"031-237-8662","addr":"경기도 수원시 팔달구 인계동 740-9번지 2층","indutype":"사무통신 - 컴퓨터","category":"other"}]},{"lat":"37.26968271","long":"127.02714419","imageIndex":17,"items":[{"name":"한국요양원","tel":"031-235-7975","addr":"경기도 수원시 팔달구 인계동 966-2번지","indutype":"기타의료기관 - 기타의료기관 및 기타","category":"other"}]},{"lat":"37.266545743","long":"127.0331634","imageIndex":17,"items":[{"name":"한국화장실협회","tel":"02-776-1053","addr":"경기도 수원시 팔달구 인계동 1037-2번지 중소기업은행 3층","indutype":"용역 서비스 - 사무서비스","category":"other"}]},{"lat":"37.275845204","long":"127.02963799","imageIndex":17,"items":[{"name":"한길 시스템","tel":"031-441-9595","addr":"경기도 수원시 팔달구 인계동 953-2번지 현대빌딩 304호","indutype":"사무통신 - 컴퓨터","category":"other"}]},{"lat":"37.267268593","long":"127.0237838","imageIndex":17,"items":[{"name":"한내장","tel":"031-239-0753","addr":"경기도 수원시 팔달구 인계동 989-17번지 102호","indutype":"건축자재 - 인테리어전문","category":"other"}]},{"lat":"37.263185574","long":"127.03042264","imageIndex":17,"items":[{"name":"한림세탁소","tel":"031-8003-8680","addr":"경기도 수원시 팔달구 인계동 1044-12번지","indutype":"수리서비스 - 세탁소","category":"other"}]},{"lat":"37.265043303","long":"127.02230634","imageIndex":17,"items":[{"name":"한빛정보통신","tel":"031-221-5617","addr":"경기도 수원시 팔달구 인계동 1005-10 1층 56/3","indutype":"전기제품 - 기타전기제품","category":"other"}]},{"lat":"37.274988984","long":"127.03069754","imageIndex":17,"items":[{"name":"한신플라워","tel":"031-233-1004","addr":"경기도 수원시 팔달구 인계동 943번지 한신농원","indutype":"문화.취미 - 화원","category":"other"}]},{"lat":"37.274378334","long":"127.01986207","imageIndex":17,"items":[{"name":"한양천막사","tel":"031-254-7822","addr":"경기도 수원시 팔달구 인계동 767-6번지","indutype":"직물 - 카페트,커튼,천막,지물","category":"other"}]},{"lat":"37.27459433","long":"127.02153082","imageIndex":17,"items":[{"name":"한원전업사","tel":"031-232-4632","addr":"경기도 수원시 팔달구 인계동 752-9번지","indutype":"건축자재 - 조명기구","category":"other"}]},{"lat":"37.264682683","long":"127.02353506","imageIndex":17,"items":[{"name":"한일테크","tel":"","addr":"경기도 수원시 팔달구 인계동 1010-13번지 대광빌딩 1층 101호","indutype":"수리서비스 - 기타수리서비스","category":"other"}]},{"lat":"37.274234181","long":"127.01978311","imageIndex":17,"items":[{"name":"한일펌프","tel":"031-248-3333","addr":"경기도 수원시 팔달구 인계동 766-12번지","indutype":"전기제품 - 기타전기제품","category":"other"}]},{"lat":"37.270350769","long":"127.01964695","imageIndex":17,"items":[{"name":"한일펌프","tel":"031-234-0077","addr":"경기도 수원시 팔달구 인계동 925번지 1층 상가","indutype":"전기제품 - 기타전기제품","category":"other"}]},{"lat":"37.273873789","long":"127.01964774","imageIndex":17,"items":[{"name":"한일펌프상사","tel":"031-255-7401","addr":"경기도 수원시 팔달구 인계동 769-12번지","indutype":"전기제품 - 기타전기제품","category":"other"}]},{"lat":"37.264265656","long":"127.03500006","imageIndex":17,"items":[{"name":"해빛(Have it)","tel":"031-235-3015","addr":"경기도 수원시 팔달구 인계동 1118번지 1층","indutype":"유통업 영리 - 편 의 점","category":"other"}]},{"lat":"37.266430517","long":"127.02444872","imageIndex":17,"items":[{"name":"해성상사","tel":"031-239-9990","addr":"경기도 수원시 팔달구 인계동 991-8번지","indutype":"기타 - 기계공구","category":"other"}]},{"lat":"37.274097754","long":"127.02711178","imageIndex":17,"items":[{"name":"행복제작소","tel":"031-253-1175","addr":"경기도 수원시 팔달구 인계동 237-5번지 2층","indutype":"건축자재 - 인테리어전문","category":"other"}]},{"lat":"37.271518875","long":"127.03522863","imageIndex":17,"items":[{"name":"행복한강아지","tel":"031-212-7582","addr":"경기도 수원시 팔달구 인계동 369-2번지 2필지 2층","indutype":"문화.취미 - 애완동물","category":"other"}]},{"lat":"37.272016965","long":"127.0240557","imageIndex":17,"items":[{"name":"행복한인테리어","tel":"031-233-6366","addr":"경기도 수원시 팔달구 인계동 820-5번지 103호","indutype":"건축자재 - 인테리어전문","category":"other"}]},{"lat":"37.270404875","long":"127.01933128","imageIndex":17,"items":[{"name":"현대광고기획","tel":"031-239-1116","addr":"경기도 수원시 팔달구 인계동 924-9","indutype":"건축자재 - 인테리어전문","category":"other"}]},{"lat":"37.271905716","long":"127.03735969","imageIndex":17,"items":[{"name":"현대철물","tel":"070-7530-2061","addr":"경기도 수원시 팔달구 인계동 375-8 1-3호","indutype":"건축자재 - 목재·석재·철물","category":"other"}]},{"lat":"37.2718999","long":"127.02367233","imageIndex":17,"items":[{"name":"형제쟌넬네온","tel":"031-223-4335","addr":"경기도 수원시 팔달구 인계동 846-1번지","indutype":"용역 서비스 - 종합용역","category":"other"}]},{"lat":"37.26576371","long":"127.02469655","imageIndex":17,"items":[{"name":"호성도어","tel":"031-244-9028","addr":"경기도 수원시 팔달구 인계동 996 1층","indutype":"건축자재 - 유리","category":"other"}]},{"lat":"37.268241216","long":"127.02638837","imageIndex":17,"items":[{"name":"화성조명","tel":"031-232-8378","addr":"경기도 수원시 팔달구 인계동 977-4번지","indutype":"건축자재 - 조명기구","category":"other"}]},{"lat":"37.265600247","long":"127.03078428","imageIndex":17,"items":[{"name":"희망본부","tel":"031-221-9094","addr":"경기도 수원시 팔달구 인계동 1040-8번지 대원빌딩 401호","indutype":"서적문구 - 출판 및 인쇄물","category":"other"}]}]