[{"lat":"37.79880557","long":"126.71035271","imageIndex":17,"items":[{"name":"(주)미사일골프코리아","tel":"031-942-2441","addr":"경기도 파주시 탄현면 금산리 101-1","indutype":"레져용품 - 골프용품 전문점","category":"other"}]},{"lat":"37.802776071","long":"126.69863029","imageIndex":17,"items":[{"name":"금성기업","tel":"031-942-4505","addr":"경기도 파주시 탄현면 금산리 345-2","indutype":"기타 - 기계공구","category":"other"}]},{"lat":"37.804831979","long":"126.70998829","imageIndex":17,"items":[{"name":"더피플","tel":"031-944-7943","addr":"경기도 파주시 탄현면 금산리 121-4번지","indutype":"가구 - 일반가구","category":"other"}]},{"lat":"37.802670967","long":"126.70332023","imageIndex":17,"items":[{"name":"뜰에가득한나무와꽃","tel":"031-947-2505","addr":"경기도 파주시 탄현면 금산리 315-4","indutype":"문화.취미 - 화원","category":"other"}]},{"lat":"37.802085221","long":"126.69974588","imageIndex":17,"items":[{"name":"신아케미칼","tel":"031-942-2684","addr":"경기도 파주시 탄현면 금산리 345-15번지","indutype":"서적문구 - 과학기자재","category":"other"}]},{"lat":"37.801778523","long":"126.69959952","imageIndex":17,"items":[{"name":"에브랏 테크","tel":"031-935-5355","addr":"경기도 파주시 탄현면 금산리 345-16번지","indutype":"기타 - 기계공구","category":"other"}]},{"lat":"37.80033773","long":"126.69987792","imageIndex":17,"items":[{"name":"인쇄공방","tel":"070-4271-6392","addr":"경기도 파주시 탄현면 금산리 344-4번지","indutype":"서적문구 - 출판 및 인쇄물","category":"other"}]},{"lat":"37.799885432","long":"126.70268428","imageIndex":17,"items":[{"name":"주식회사 다담교육젤로스","tel":"02-000-0000","addr":"경기도 파주시 탄현면 금산리 331-5번지","indutype":"서적문구 - 일반서적","category":"other"}]},{"lat":"37.802972971","long":"126.70162714","imageIndex":17,"items":[{"name":"카스피시스템","tel":"031-943-0541","addr":"경기도 파주시 탄현면 금산리 315-15번지","indutype":"서적문구 - 과학기자재","category":"other"}]},{"lat":"37.804972231","long":"126.70130108","imageIndex":17,"items":[{"name":"한결공방","tel":"031-111-1111","addr":"경기도 파주시 탄현면 금산리 303-2번지","indutype":"문화.취미 - 문화취미기타","category":"other"}]},{"lat":"37.801803327","long":"126.69873647","imageIndex":17,"items":[{"name":"휴먼스토리","tel":"070-4229-0621","addr":"경기도 파주시 탄현면 금산리 345-10번지","indutype":"회원제형태 - 서적","category":"other"}]},{"lat":"37.808167298","long":"126.71438109","imageIndex":4,"items":[{"name":"금산식당","tel":"031-949-5947","addr":"경기도 파주시 탄현면 금산리 37-31번지","indutype":"일반휴게음식 - 일반한식","category":"restaurant"},{"name":"억순이보신탕","tel":"031-944-1189","addr":"경기도 파주시 탄현면 금산리 37-10 외1필지","indutype":"일반휴게음식 - 일반한식","category":"restaurant"}]},{"lat":"37.813780708","long":"126.7073296","imageIndex":4,"items":[{"name":"덕주골","tel":"031-942-4407","addr":"경기도 파주시 탄현면 금산리 219-1번지","indutype":"일반휴게음식 - 일반한식","category":"restaurant"}]},{"lat":"37.808638975","long":"126.71568515","imageIndex":4,"items":[{"name":"등촌칼국수","tel":"031-944-2205","addr":"경기도 파주시 탄현면 금산리 37-9번지","indutype":"일반휴게음식 - 일반한식","category":"restaurant"}]},{"lat":"37.811584423","long":"126.70813328","imageIndex":4,"items":[{"name":"삼도메기","tel":"","addr":"경기도 파주시 탄현면 금산리 206번지","indutype":"일반휴게음식 - 일반한식","category":"restaurant"}]},{"lat":"37.811944512","long":"126.70801829","imageIndex":4,"items":[{"name":"이태원부대찌개","tel":"031-941-5249","addr":"경기도 파주시 탄현면 금산리 208-2번지","indutype":"일반휴게음식 - 일반한식","category":"restaurant"},{"name":"이태원부대찌개","tel":"031-941-5249","addr":"경기도 파주시 탄현면 금산리 208-2번지","indutype":"일반휴게음식 - 일반한식","category":"restaurant"}]},{"lat":"37.800778985","long":"126.71049253","imageIndex":7,"items":[{"name":"농업회사법인 탄현농장주식회사","tel":"031-942-1240","addr":"경기도 파주시 탄현면 금산리 산60-1번지","indutype":"음료식품 - 농·축·수산품","category":"food"}]},{"lat":"37.80441769","long":"126.7100467","imageIndex":13,"items":[{"name":"플레이팡팡","tel":"031-945-8007","addr":"경기도 파주시 탄현면 금산리 119-5번지","indutype":"레저업소 - 기타레져업소","category":"leisure"}]},{"lat":"37.799140986","long":"126.7075696","imageIndex":16,"items":[{"name":"헤이리체험농원","tel":"031-942-5599","addr":"경기도 파주시 탄현면 금산리 산45-1","indutype":"학원 - 기타 교육기관","category":"study"}]}]