[{"lat":"37.729011473","long":"126.73409716","imageIndex":0,"items":[{"name":"(주)건웅종합관리_아이온프라자","tel":"032-543-5951","addr":"경기도 파주시 목동동 937번지","indutype":"자동차정비 유지 - 주차장","category":"car"},{"name":"더존하우징","tel":"031-946-8950","addr":"경기도 파주시 목동동 937번지","indutype":"자동차정비 유지 - 주차장","category":"car"}]},{"lat":"37.726770507","long":"126.74321382","imageIndex":0,"items":[{"name":"뉴본크로스","tel":"031-813-4799","addr":"경기도 파주시 목동동 2-117번지 해솔마을2단지월드메르디앙","indutype":"자동차정비 유지 - 윤활유 전문 판매","category":"car"}]},{"lat":"37.732818188","long":"126.73615937","imageIndex":0,"items":[{"name":"다율점현대자동차","tel":"031-943-8571","addr":"경기도 파주시 목동동 885번지","indutype":"자동차정비 유지 - 자동차정비","category":"car"}]},{"lat":"37.731675215","long":"126.73670798","imageIndex":0,"items":[{"name":"레인보우팩토리","tel":"","addr":"경기도 파주시 목동동 872-2번지","indutype":"자동차정비 유지 - 카인테리어","category":"car"}]},{"lat":"37.730651491","long":"126.74635383","imageIndex":0,"items":[{"name":"로터리워시클럽(Rotary wash club)","tel":"031-941-7743","addr":"경기도 파주시 목동동 767번지","indutype":"자동차정비 유지 - 세차장","category":"car"}]},{"lat":"37.727761796","long":"126.73132257","imageIndex":0,"items":[{"name":"망고씨","tel":"","addr":"경기도 파주시 목동동 911번지 산내마을3단지","indutype":"자동차정비 유지 - 자동차부품","category":"car"}]},{"lat":"37.729258519","long":"126.73576377","imageIndex":0,"items":[{"name":"매직터치 파주운정점","tel":"070-7583-7935","addr":"경기도 파주시 목동동 929번지","indutype":"자동차정비 유지 - 카인테리어","category":"car"}]},{"lat":"37.719039367","long":"126.73873804","imageIndex":0,"items":[{"name":"보쉬카서비스 운정점","tel":"031-947-5115","addr":"경기도 파주시 목동동 1112-4번지","indutype":"자동차정비 유지 - 자동차정비","category":"car"}]},{"lat":"37.719370045","long":"126.73754595","imageIndex":0,"items":[{"name":"스팀보이 파주운정점","tel":"031-0000-0000","addr":"경기도 파주시 목동동 1125번지","indutype":"자동차정비 유지 - 세차장","category":"car"}]},{"lat":"37.727840904","long":"126.73837782","imageIndex":0,"items":[{"name":"스피드메이트운정신도시점","tel":"031-949-2529","addr":"경기도 파주시 목동동 986번지","indutype":"자동차정비 유지 - 자동차정비","category":"car"}]},{"lat":"37.728757939","long":"126.73354225","imageIndex":0,"items":[{"name":"엠디프라자관리단","tel":"031-941-1713","addr":"경기도 파주시 목동동 949번지","indutype":"자동차정비 유지 - 주차장","category":"car"}]},{"lat":"37.719985263","long":"126.73868931","imageIndex":0,"items":[{"name":"오토트러스","tel":"031-946-7182","addr":"경기도 파주시 목동동 1103-1번지","indutype":"자동차정비 유지 - 카인테리어","category":"car"}]},{"lat":"37.73300713","long":"126.73604525","imageIndex":0,"items":[{"name":"운정자동차","tel":"031-946-6995","addr":"경기도 파주시 목동동 881번지 201호","indutype":"자동차정비 유지 - 자동차정비","category":"car"}]},{"lat":"37.723981153","long":"126.74077352","imageIndex":0,"items":[{"name":"운정점 현대자동차","tel":"031-963-7773","addr":"경기도 파주시 목동동 1054-5번지","indutype":"자동차정비 유지 - 자동차부품","category":"car"}]},{"lat":"37.728787838","long":"126.73480126","imageIndex":0,"items":[{"name":"운정포인트프라자 상가관리위원회","tel":"","addr":"경기도 파주시 목동동 937-3번지","indutype":"자동차정비 유지 - 주차장","category":"car"}]},{"lat":"37.731041362","long":"126.74748687","imageIndex":0,"items":[{"name":"워시뱅크","tel":"031-000-0000","addr":"경기도 파주시 목동동 754-6번지","indutype":"자동차정비 유지 - 세차장","category":"car"}]},{"lat":"37.727678587","long":"126.73432884","imageIndex":0,"items":[{"name":"월드타워 3차 운영위원회","tel":"031-948-6681","addr":"경기도 파주시 목동동 939-4번지","indutype":"자동차정비 유지 - 주차장","category":"car"}]},{"lat":"37.729428078","long":"126.73504851","imageIndex":0,"items":[{"name":"주식회사 월드베스트","tel":"031-946-2210","addr":"경기도 파주시 목동동 935-2번지","indutype":"자동차정비 유지 - 주차장","category":"car"}]},{"lat":"37.720316042","long":"126.73754258","imageIndex":0,"items":[{"name":"진영오토랜드","tel":"031-943-6650","addr":"경기도 파주시 목동동 1105번지","indutype":"자동차정비 유지 - 자동차정비","category":"car"}]},{"lat":"37.727983424","long":"126.73765134","imageIndex":0,"items":[{"name":"차나라운정점","tel":"031-943-0903","addr":"경기도 파주시 목동동 977-1번지","indutype":"자동차정비 유지 - 세차장","category":"car"}]},{"lat":"37.725006402","long":"126.73593784","imageIndex":0,"items":[{"name":"카르디아","tel":"031-916-9096","addr":"경기도 파주시 목동동 1022-1번지","indutype":"자동차정비 유지 - 자동차정비","category":"car"}]},{"lat":"37.732415655","long":"126.73744269","imageIndex":0,"items":[{"name":"카앤피플 경기파주4호점","tel":"","addr":"경기도 파주시 목동동 114-37번지 산내마을8단지","indutype":"자동차정비 유지 - 세차장","category":"car"}]},{"lat":"37.725206885","long":"126.74920834","imageIndex":0,"items":[{"name":"카앤피플 파주점","tel":"031-941-1687","addr":"경기도 파주시 목동동 2-110번지 해솔마을3단지운정현대아파트","indutype":"자동차정비 유지 - 세차장","category":"car"}]},{"lat":"37.725394129","long":"126.74830027","imageIndex":0,"items":[{"name":"틴하우스","tel":"031-942-9953","addr":"경기도 파주시 목동동 2-110번지 해솔마을3단지운정현대아파트","indutype":"자동차정비 유지 - 카인테리어","category":"car"}]},{"lat":"37.728593153","long":"126.73635602","imageIndex":0,"items":[{"name":"현대메디칼프라자 관리단","tel":"031-111-1111","addr":"경기도 파주시 목동동 933번지","indutype":"자동차정비 유지 - 주차장","category":"car"}]}]