[{"lat":"37.280908203","long":"127.43965436","imageIndex":5,"items":[{"name":"계림여인숙","tel":"031-638-2838","addr":"경기도 이천시 관고동 10-23번지","indutype":"숙박업 - 여관/기타숙박업","category":"hotel"},{"name":"재림여관","tel":"","addr":"경기도 이천시 관고동 10-23번지","indutype":"숙박업 - 여관/기타숙박업","category":"hotel"}]},{"lat":"37.282244386","long":"127.43892913","imageIndex":5,"items":[{"name":"모텔테마","tel":"031-633-3522","addr":"경기도 이천시 관고동 4-3번지 외5필지","indutype":"숙박업 - 여관/기타숙박업","category":"hotel"}]},{"lat":"37.281074247","long":"127.43860666","imageIndex":5,"items":[{"name":"선화여관","tel":"031-635-3430","addr":"경기도 이천시 관고동 15-5번지","indutype":"숙박업 - 여관/기타숙박업","category":"hotel"}]},{"lat":"37.281492022","long":"127.44015387","imageIndex":5,"items":[{"name":"우리여인숙","tel":"031-634-1414","addr":"경기도 이천시 관고동 9-4번지","indutype":"숙박업 - 여관/기타숙박업","category":"hotel"}]},{"lat":"37.281497842","long":"127.43857527","imageIndex":5,"items":[{"name":"은혜여관","tel":"031-636-1160","addr":"경기도 이천시 관고동 14-10번지","indutype":"숙박업 - 여관/기타숙박업","category":"hotel"}]},{"lat":"37.280993157","long":"127.43860619","imageIndex":5,"items":[{"name":"태화모텔","tel":"031-635-1156","addr":"경기도 이천시 관고동 15-6번지","indutype":"숙박업 - 여관/기타숙박업","category":"hotel"}]},{"lat":"37.279357894","long":"127.43735645","imageIndex":5,"items":[{"name":"호수장여관","tel":"031-635-7073","addr":"경기도 이천시 관고동 25-4번지","indutype":"숙박업 - 여관/기타숙박업","category":"hotel"},{"name":"호수장여관(호수대중목욕탕)","tel":"031-635-7073","addr":"경기도 이천시 관고동 25-4번지","indutype":"숙박업 - 여관/기타숙박업","category":"hotel"}]},{"lat":"37.279354497","long":"127.43335358","imageIndex":5,"items":[{"name":"호텔얌 이천설봉호수점","tel":"031-637-2081","addr":"경기도 이천시 관고동 237번지","indutype":"숙박업 - 여관/기타숙박업","category":"hotel"}]},{"lat":"37.281021225","long":"127.43832446","imageIndex":5,"items":[{"name":"힐링","tel":"031-636-8897","addr":"경기도 이천시 관고동 15-25번지","indutype":"숙박업 - 여관/기타숙박업","category":"hotel"}]}]