[{"lat":"37.245211767","long":"126.9844207","imageIndex":4,"items":[{"name":"(주)다올푸드(세경하이테크)/주식회사 다올","tel":"02-1544-0837","addr":"경기도 수원시 권선구 고색동 1022번지 4층","indutype":"일반휴게음식 - 위탁급식업","category":"restaurant"}]},{"lat":"37.238354051","long":"126.97956518","imageIndex":4,"items":[{"name":"(주)이룸/이룸푸드","tel":"031-296-0311","addr":"경기도 수원시 권선구 고색동 988-4번지","indutype":"일반휴게음식 - 일반한식","category":"restaurant"},{"name":"신 고색동, 커피","tel":"031-663-0447","addr":"경기도 수원시 권선구 고색동 988-4번지 103호","indutype":"일반휴게음식 - 서양음식","category":"restaurant"}]},{"lat":"37.243659303","long":"126.97161792","imageIndex":4,"items":[{"name":"(카페)금강","tel":"031-223-5214","addr":"경기도 수원시 권선구 고색동 907-17번지","indutype":"일반휴게음식 - 서양음식","category":"restaurant"}]},{"lat":"37.251933448","long":"126.98431762","imageIndex":4,"items":[{"name":"59피자","tel":"031-291-5922","addr":"경기도 수원시 권선구 고색동 39-5번지","indutype":"일반휴게음식 - 서양음식","category":"restaurant"},{"name":"산마을꼬치","tel":"031-291-8436","addr":"경기도 수원시 권선구 고색동 39-5번지","indutype":"일반휴게음식 - 칵테일바","category":"restaurant"}]},{"lat":"37.248041449","long":"126.98750828","imageIndex":4,"items":[{"name":"가마솥김치찌개","tel":"031-295-5666","addr":"경기도 수원시 권선구 고색동 281-19번지 1층","indutype":"일반휴게음식 - 일반한식","category":"restaurant"}]},{"lat":"37.250157564","long":"126.97950518","imageIndex":4,"items":[{"name":"가시버시","tel":"031-294-2200","addr":"경기도 수원시 권선구 고색동 381-6번지","indutype":"일반휴게음식 - 일반한식","category":"restaurant"},{"name":"명가분식","tel":"031-293-4796","addr":"경기도 수원시 권선구 고색동 381-6번지 1층","indutype":"일반휴게음식 - 스넥","category":"restaurant"}]},{"lat":"37.250906399","long":"126.98514069","imageIndex":4,"items":[{"name":"가은이네집","tel":"031-296-2268","addr":"경기도 수원시 권선구 고색동 42-12번지","indutype":"일반휴게음식 - 일반한식","category":"restaurant"},{"name":"나그네실비집","tel":"031-227-7819","addr":"경기도 수원시 권선구 고색동 42-12번지","indutype":"일반휴게음식 - 일반한식","category":"restaurant"}]},{"lat":"37.252762817","long":"126.98722552","imageIndex":4,"items":[{"name":"강원도정선먹거리","tel":"031-294-8415","addr":"경기도 수원시 권선구 고색동 26-6번지","indutype":"일반휴게음식 - 칵테일바","category":"restaurant"},{"name":"강원도정선먹거리","tel":"031-294-8415","addr":"경기도 수원시 권선구 고색동 26-6","indutype":"일반휴게음식 - 스넥","category":"restaurant"}]},{"lat":"37.255213324","long":"126.98511713","imageIndex":4,"items":[{"name":"건강밥상","tel":"02-1111-1111","addr":"경기도 수원시 권선구 고색동 986번지 수원종합공구단지 B03호","indutype":"일반휴게음식 - 일반한식","category":"restaurant"},{"name":"국수집","tel":"","addr":"경기도 수원시 권선구 고색동 986번지 수원종합공구단지 지원 상가동 B01호","indutype":"일반휴게음식 - 일반한식","category":"restaurant"},{"name":"대디스커피","tel":"070-8239-7902","addr":"경기도 수원시 권선구 고색동 986번지 수원종합공구단지지원 상가동 107호","indutype":"일반휴게음식 - 서양음식","category":"restaurant"}]},{"lat":"37.242355447","long":"126.9841171","imageIndex":4,"items":[{"name":"경원푸드","tel":"031-405-4404","addr":"경기도 수원시 권선구 고색동 1094번지 DH테트타워 2층214~226호","indutype":"일반휴게음식 - 일반한식","category":"restaurant"},{"name":"메가엠지씨커피 수원산업단지점","tel":"031-295-1867","addr":"경기도 수원시 권선구 고색동 1094번지 DH테크타워 1층 106호","indutype":"일반휴게음식 - 서양음식","category":"restaurant"},{"name":"브릭스9(Brix9)","tel":"","addr":"경기도 수원시 권선구 고색동 1094번지 DH테크타워 135,136호","indutype":"일반휴게음식 - 서양음식","category":"restaurant"},{"name":"잇또라멘","tel":"031-227-7455","addr":"경기도 수원시 권선구 고색동 1094번지 DH테크타워 131,132호","indutype":"일반휴게음식 - 일식·회집","category":"restaurant"},{"name":"카페티버즈","tel":"","addr":"경기도 수원시 권선구 고색동 1094번지 DH테크타워 1층 109호","indutype":"일반휴게음식 - 서양음식","category":"restaurant"}]},{"lat":"37.250130163","long":"126.97770178","imageIndex":4,"items":[{"name":"계절포차","tel":"031-294-1190","addr":"경기도 수원시 권선구 고색동 390-2번지 1층 106호","indutype":"일반휴게음식 - 일반한식","category":"restaurant"},{"name":"항아리보쌈","tel":"031-278-7789","addr":"경기도 수원시 권선구 고색동 390-2번지 103,104호","indutype":"일반휴게음식 - 일반한식","category":"restaurant"}]},{"lat":"37.251158385","long":"126.98322447","imageIndex":4,"items":[{"name":"고대곱창","tel":"031-291-9199","addr":"경기도 수원시 권선구 고색동 49-10번지","indutype":"일반휴게음식 - 일반한식","category":"restaurant"},{"name":"딱조아치킨","tel":"031-295-0881","addr":"경기도 수원시 권선구 고색동 49-10번지 1층","indutype":"일반휴게음식 - 서양음식","category":"restaurant"}]},{"lat":"37.250960042","long":"126.98253696","imageIndex":4,"items":[{"name":"고색반점","tel":"031-292-5001","addr":"경기도 수원시 권선구 고색동 49-8번지","indutype":"일반휴게음식 - 중국식","category":"restaurant"},{"name":"먹거리촌","tel":"","addr":"경기도 수원시 권선구 고색동 49-8번지 1층","indutype":"일반휴게음식 - 주점","category":"restaurant"}]},{"lat":"37.248986252","long":"126.97965207","imageIndex":4,"items":[{"name":"고색소머리국밥","tel":"031-278-2129","addr":"경기도 수원시 권선구 고색동 377-27번지 1층","indutype":"일반휴게음식 - 일반한식","category":"restaurant"}]},{"lat":"37.251933033","long":"126.98183786","imageIndex":4,"items":[{"name":"고색수원족발","tel":"031-278-1702","addr":"경기도 수원시 권선구 고색동 890-72번지 1층","indutype":"일반휴게음식 - 일반한식","category":"restaurant"}]},{"lat":"37.245660093","long":"126.97356692","imageIndex":4,"items":[{"name":"고색점 반값소","tel":"031-227-2250","addr":"경기도 수원시 권선구 고색동 914-18번지","indutype":"일반휴게음식 - 일반한식","category":"restaurant"}]},{"lat":"37.252041563","long":"126.98426123","imageIndex":4,"items":[{"name":"고색중앙식당","tel":"031-296-2504","addr":"경기도 수원시 권선구 고색동 39-10번지","indutype":"일반휴게음식 - 일반한식","category":"restaurant"}]},{"lat":"37.247185764","long":"126.98997678","imageIndex":4,"items":[{"name":"고색향토문화전시관카페","tel":"031-292-2161","addr":"경기도 수원시 권선구 고색동 249번지","indutype":"일반휴게음식 - 서양음식","category":"restaurant"}]},{"lat":"37.242993043","long":"126.9735905","imageIndex":4,"items":[{"name":"고집","tel":"031-233-0080","addr":"경기도 수원시 권선구 고색동 912-13번지 1층","indutype":"일반휴게음식 - 일반한식","category":"restaurant"}]},{"lat":"37.252762727","long":"126.98656049","imageIndex":4,"items":[{"name":"고창식당","tel":"031-223-5214","addr":"경기도 수원시 권선구 고색동 29-11번지 1층 101호","indutype":"일반휴게음식 - 일반한식","category":"restaurant"}]},{"lat":"37.241435256","long":"126.97795261","imageIndex":4,"items":[{"name":"골든식당","tel":"031-278-0774","addr":"경기도 수원시 권선구 고색동 950번지 골든프라자 116호","indutype":"일반휴게음식 - 일반한식","category":"restaurant"},{"name":"골든치킨호프","tel":"031-278-0774","addr":"경기도 수원시 권선구 고색동 950번지 골든프라자 116호","indutype":"일반휴게음식 - 주점","category":"restaurant"},{"name":"나누리","tel":"031-291-4599","addr":"경기도 수원시 권선구 고색동 950번지 골든프라자 117-2","indutype":"일반휴게음식 - 일반한식","category":"restaurant"},{"name":"돈가네돼지김치찌개","tel":"070-000-0000","addr":"경기도 수원시 권선구 고색동 950번지 골든프라자 122호","indutype":"일반휴게음식 - 일반한식","category":"restaurant"},{"name":"맛있게듬뿍 (고색점)","tel":"031-297-9090","addr":"경기도 수원시 권선구 고색동 950번지 골든프라자 1층 108,109호","indutype":"일반휴게음식 - 스넥","category":"restaurant"},{"name":"백가네화로구이","tel":"031-227-6675","addr":"경기도 수원시 권선구 고색동 950번지 골든프라자 101호","indutype":"일반휴게음식 - 일반한식","category":"restaurant"},{"name":"본가부대찌개","tel":"031-227-5880","addr":"경기도 수원시 권선구 고색동 950번지 골든프라자 112호","indutype":"일반휴게음식 - 일반한식","category":"restaurant"},{"name":"상하이","tel":"031-298-7756","addr":"경기도 수원시 권선구 고색동 950번지 골든프라자 119호","indutype":"일반휴게음식 - 중국식","category":"restaurant"},{"name":"성원칼국수","tel":"031-298-5950","addr":"경기도 수원시 권선구 고색동 950번지 골든프라자 1층 128호","indutype":"일반휴게음식 - 일반한식","category":"restaurant"},{"name":"양평해장국 고색점","tel":"031-298-0594","addr":"경기도 수원시 권선구 고색동 950번지 골든프라자 1층 123호","indutype":"일반휴게음식 - 일반한식","category":"restaurant"},{"name":"엄마부엌","tel":"031-296-8104","addr":"경기도 수원시 권선구 고색동 950번지 골든프라자 130호","indutype":"일반휴게음식 - 일반한식","category":"restaurant"},{"name":"옛장터가마솥순대국","tel":"031-213-5199","addr":"경기도 수원시 권선구 고색동 950 골든프라자 126호~127호","indutype":"일반휴게음식 - 일반한식","category":"restaurant"},{"name":"이룸푸드","tel":"","addr":"경기도 수원시 권선구 고색동 950번지 골든프라자 104,105호","indutype":"일반휴게음식 - 일반한식","category":"restaurant"},{"name":"카페우","tel":"","addr":"경기도 수원시 권선구 고색동 950번지 골든프라자 110호","indutype":"일반휴게음식 - 일반한식","category":"restaurant"},{"name":"카페인홀릭","tel":"031-297-0130","addr":"경기도 수원시 권선구 고색동 950번지 골든프라자 1층 121호","indutype":"일반휴게음식 - 서양음식","category":"restaurant"},{"name":"팬더쿡(PANDACOOK)","tel":"031-293-8292","addr":"경기도 수원시 권선구 고색동 950번지 골든프라자 111호","indutype":"일반휴게음식 - 중국식","category":"restaurant"}]},{"lat":"37.249652791","long":"126.97853601","imageIndex":4,"items":[{"name":"공이동순대국","tel":"031-292-5482","addr":"경기도 수원시 권선구 고색동 389-15번지","indutype":"일반휴게음식 - 일반한식","category":"restaurant"}]},{"lat":"37.238382227","long":"126.98637201","imageIndex":4,"items":[{"name":"교동두부","tel":"070-8020-2741","addr":"경기도 수원시 권선구 고색동 1152번지 수원벤처밸리 A동 112,113호","indutype":"일반휴게음식 - 일반한식","category":"restaurant"},{"name":"더마실","tel":"02-1111-1111","addr":"경기도 수원시 권선구 고색동 1152번지 1층 A-116호","indutype":"일반휴게음식 - 서양음식","category":"restaurant"},{"name":"바다고등어구이","tel":"031-5182-8192","addr":"경기도 수원시 권선구 고색동 1152번지 수원벤처밸리II B동 104호","indutype":"일반휴게음식 - 일반한식","category":"restaurant"},{"name":"어부의선","tel":"031-5182-8088","addr":"경기도 수원시 권선구 고색동 1152번지 수원벤처밸리II B동 101호","indutype":"일반휴게음식 - 일반한식","category":"restaurant"},{"name":"육콩(벤처밸리점)","tel":"031-2222-2222","addr":"경기도 수원시 권선구 고색동 1152번지 수원벤처밸리2 B동 102호","indutype":"일반휴게음식 - 일반한식","category":"restaurant"},{"name":"헤이즈밸리","tel":"031-5182-8298","addr":"경기도 수원시 권선구 고색동 1152번지 수원벤처밸리2 A동 115호","indutype":"일반휴게음식 - 일반한식","category":"restaurant"}]},{"lat":"37.24390323","long":"126.97417621","imageIndex":4,"items":[{"name":"교동짬뽕중화요리","tel":"031-278-0562","addr":"경기도 수원시 권선구 고색동 913-6번지","indutype":"일반휴게음식 - 중국식","category":"restaurant"}]},{"lat":"37.25213176","long":"126.98486988","imageIndex":4,"items":[{"name":"교촌치킨 고색점","tel":"031-292-0050","addr":"경기도 수원시 권선구 고색동 31-4번지","indutype":"일반휴게음식 - 스넥","category":"restaurant"}]},{"lat":"37.247103051","long":"126.97942723","imageIndex":4,"items":[{"name":"기네스","tel":"031-293-7767","addr":"경기도 수원시 권선구 고색동 373-20번지 대우프라자 2층 201호","indutype":"일반휴게음식 - 주점","category":"restaurant"},{"name":"순이감자바우","tel":"031-296-5184","addr":"경기도 수원시 권선구 고색동 373-20번지 대우프라자 103호","indutype":"일반휴게음식 - 스넥","category":"restaurant"}]},{"lat":"37.255123657","long":"126.98830716","imageIndex":4,"items":[{"name":"길림성","tel":"031-227-2356","addr":"경기도 수원시 권선구 고색동 12-2번지","indutype":"일반휴게음식 - 중국식","category":"restaurant"}]},{"lat":"37.248490506","long":"126.97876181","imageIndex":4,"items":[{"name":"나그네길","tel":"031-298-9252","addr":"경기도 수원시 권선구 고색동 395-9번지","indutype":"일반휴게음식 - 일반한식","category":"restaurant"}]},{"lat":"37.241716155","long":"126.98714892","imageIndex":4,"items":[{"name":"나눔푸드","tel":"031-292-1211","addr":"경기도 수원시 권선구 고색동 1102번지 203,204,205호","indutype":"일반휴게음식 - 일반한식","category":"restaurant"},{"name":"마론블랑코(marron blanco)","tel":"031-111-1111","addr":"경기도 수원시 권선구 고색동 1102번지 DM프라자 111(일부)호","indutype":"일반휴게음식 - 서양음식","category":"restaurant"},{"name":"이디야커피 수원고색산업단지점 (EDIYA COF","tel":"031-291-2589","addr":"경기도 수원시 권선구 고색동 1102번지 디엠프라자 107,108호","indutype":"일반휴게음식 - 서양음식","category":"restaurant"},{"name":"주식회사 정","tel":"031-111-1111","addr":"경기도 수원시 권선구 고색동 1102번지 102,103호","indutype":"일반휴게음식 - 일반한식","category":"restaurant"},{"name":"청년떡볶이(고색산업단지점)","tel":"031-227-4918","addr":"경기도 수원시 권선구 고색동 1102번지 DM프라자 1층 109호","indutype":"일반휴게음식 - 일반한식","category":"restaurant"}]},{"lat":"37.238101784","long":"126.97967795","imageIndex":4,"items":[{"name":"나래한식뷔페","tel":"031-292-6996","addr":"경기도 수원시 권선구 고색동 988-5번지 1층","indutype":"일반휴게음식 - 일반한식","category":"restaurant"}]},{"lat":"37.248463571","long":"126.9792352","imageIndex":4,"items":[{"name":"네네치킨 고색오목점","tel":"031-291-6630","addr":"경기도 수원시 권선구 고색동 375-4번지 102호","indutype":"일반휴게음식 - 스넥","category":"restaurant"}]},{"lat":"37.248850555","long":"126.9770372","imageIndex":4,"items":[{"name":"노가리앤비어","tel":"","addr":"경기도 수원시 권선구 고색동 405-1번지","indutype":"일반휴게음식 - 주점","category":"restaurant"}]},{"lat":"37.250040342","long":"126.97906564","imageIndex":4,"items":[{"name":"노가리천냥호프","tel":"031-291-7778","addr":"경기도 수원시 권선구 고색동 387-7번지 1층","indutype":"일반휴게음식 - 주점","category":"restaurant"}]},{"lat":"37.253096135","long":"126.98675204","imageIndex":4,"items":[{"name":"노루궁뎅이","tel":"031-296-2877","addr":"경기도 수원시 권선구 고색동 27-1번지","indutype":"일반휴게음식 - 일반한식","category":"restaurant"},{"name":"예거다방","tel":"070-7614-3579","addr":"경기도 수원시 권선구 고색동 27-1번지 중앙스포츠랜드 제1동 105,106호","indutype":"일반휴게음식 - 일반한식","category":"restaurant"},{"name":"옛수원설렁탕","tel":"031-291-2901","addr":"경기도 수원시 권선구 고색동 27-1번지","indutype":"일반휴게음식 - 일반한식","category":"restaurant"},{"name":"한우회관","tel":"031-227-5776","addr":"경기도 수원시 권선구 고색동 27-1번지","indutype":"일반휴게음식 - 일반한식","category":"restaurant"}]},{"lat":"37.248347692","long":"126.9866967","imageIndex":4,"items":[{"name":"늘맛나","tel":"031-295-9192","addr":"경기도 수원시 권선구 고색동 282-53번지","indutype":"일반휴게음식 - 일반한식","category":"restaurant"}]},{"lat":"37.242876766","long":"126.97728719","imageIndex":4,"items":[{"name":"다모아분식","tel":"031-8007-2808","addr":"경기도 수원시 권선구 고색동 958번지 고색동첨단벤처밸리 107호","indutype":"일반휴게음식 - 스넥","category":"restaurant"},{"name":"웰빙푸드","tel":"031-297-8105","addr":"경기도 수원시 권선구 고색동 958번지 수원첨단벤처밸리 B07호","indutype":"일반휴게음식 - 일반한식","category":"restaurant"},{"name":"웰빙푸드","tel":"031-297-8105","addr":"경기도 수원시 권선구 고색동 958번지 수원첨단벤처밸리 B07호","indutype":"일반휴게음식 - 일반한식","category":"restaurant"},{"name":"커피뮤지엄(Museum)","tel":"031-216-3357","addr":"경기도 수원시 권선구 고색동 958번지 고색동첨단벤처밸리 107호","indutype":"일반휴게음식 - 서양음식","category":"restaurant"},{"name":"쿡앤푸드","tel":"031-737-2222","addr":"경기도 수원시 권선구 고색동 958번지 고색동첨단벤처밸리 101,102,103호","indutype":"일반휴게음식 - 일반한식","category":"restaurant"}]},{"lat":"37.249905142","long":"126.97884025","imageIndex":4,"items":[{"name":"달봉감자","tel":"031-291-3222","addr":"경기도 수원시 권선구 고색동 388-6번지 1층","indutype":"일반휴게음식 - 주점","category":"restaurant"},{"name":"치킨포차","tel":"031-293-9282","addr":"경기도 수원시 권선구 고색동 388-6번지 1층 좌측 치킨포차","indutype":"일반휴게음식 - 주점","category":"restaurant"}]},{"lat":"37.245519101","long":"126.99247915","imageIndex":4,"items":[{"name":"대하전어축제","tel":"031-111-1111","addr":"경기도 수원시 권선구 고색동 138-1번지","indutype":"일반휴게음식 - 일반한식","category":"restaurant"}]},{"lat":"37.251960435","long":"126.98403582","imageIndex":4,"items":[{"name":"더 치킨","tel":"031-292-2712","addr":"경기도 수원시 권선구 고색동 39-12번지 102호","indutype":"일반휴게음식 - 주점","category":"restaurant"},{"name":"분식플러스","tel":"0312-295-0330","addr":"경기도 수원시 권선구 고색동 39-12번지 1층 101호","indutype":"일반휴게음식 - 스넥","category":"restaurant"}]},{"lat":"37.248743037","long":"126.97997901","imageIndex":4,"items":[{"name":"덤이네","tel":"031-296-6959","addr":"경기도 수원시 권선구 고색동 376-11번지","indutype":"일반휴게음식 - 일반한식","category":"restaurant"},{"name":"시골풍경","tel":"031-294-6677","addr":"경기도 수원시 권선구 고색동 376-11번지 1층","indutype":"일반휴게음식 - 일반한식","category":"restaurant"}]},{"lat":"37.251600178","long":"126.98503908","imageIndex":4,"items":[{"name":"돈가돈","tel":"031-293-7947","addr":"경기도 수원시 권선구 고색동 36-6번지","indutype":"일반휴게음식 - 일반한식","category":"restaurant"}]},{"lat":"37.255130123","long":"126.97434103","imageIndex":4,"items":[{"name":"돈까스여행","tel":"031-297-6655","addr":"경기도 수원시 권선구 고색동 886-5번지","indutype":"일반휴게음식 - 일반한식","category":"restaurant"}]},{"lat":"37.251735045","long":"126.98322432","imageIndex":4,"items":[{"name":"돈천년","tel":"031-295-5556","addr":"경기도 수원시 권선구 고색동 890-169번지","indutype":"일반휴게음식 - 일반한식","category":"restaurant"}]},{"lat":"37.245435804","long":"126.97778223","imageIndex":4,"items":[{"name":"돌고래수산","tel":"031-297-4988","addr":"경기도 수원시 권선구 고색동 432-1번지","indutype":"일반휴게음식 - 일식·회집","category":"restaurant"}]},{"lat":"37.255600569","long":"126.98384329","imageIndex":4,"items":[{"name":"동네식당","tel":"031-296-6863","addr":"경기도 수원시 권선구 고색동 889-68번지","indutype":"일반휴게음식 - 일반한식","category":"restaurant"}]},{"lat":"37.248599193","long":"126.98170353","imageIndex":4,"items":[{"name":"딱막걸리한되","tel":"031-404-6484","addr":"경기도 수원시 권선구 고색동 72-1번지","indutype":"일반휴게음식 - 일반한식","category":"restaurant"}]},{"lat":"37.248770359","long":"126.98153442","imageIndex":4,"items":[{"name":"또래오래 (고색점)","tel":"031-293-7789","addr":"경기도 수원시 권선구 고색동 72-6번지 1층","indutype":"일반휴게음식 - 스넥","category":"restaurant"}]},{"lat":"37.247320073","long":"126.98373266","imageIndex":4,"items":[{"name":"똘똘이네M카페","tel":"031-278-5081","addr":"경기도 수원시 권선구 고색동 299-8번지 1층","indutype":"일반휴게음식 - 일반한식","category":"restaurant"}]},{"lat":"37.251653911","long":"126.98297637","imageIndex":4,"items":[{"name":"뜨락","tel":"031-294-2970","addr":"경기도 수원시 권선구 고색동 890-154번지","indutype":"일반휴게음식 - 주점","category":"restaurant"},{"name":"미스터짬뽕","tel":"031-233-5678","addr":"경기도 수원시 권선구 고색동 890-154번지 1층","indutype":"일반휴게음식 - 중국식","category":"restaurant"},{"name":"오사카","tel":"","addr":"경기도 수원시 권선구 고색동 890-154번지 1층","indutype":"일반휴게음식 - 주점","category":"restaurant"}]},{"lat":"37.249931793","long":"126.97703683","imageIndex":4,"items":[{"name":"로젠라이브","tel":"031-291-6088","addr":"경기도 수원시 권선구 고색동 408-15번지 2층","indutype":"일반휴게음식 - 주점","category":"restaurant"},{"name":"심양양꼬치","tel":"031-294-6992","addr":"경기도 수원시 권선구 고색동 408-15번지 1층","indutype":"일반휴게음식 - 주점","category":"restaurant"}]},{"lat":"37.249544427","long":"126.97739765","imageIndex":4,"items":[{"name":"로티맘코리아고색점","tel":"031-237-5237","addr":"경기도 수원시 권선구 고색동 408-31번지","indutype":"일반휴게음식 - 일반한식","category":"restaurant"},{"name":"장모족발","tel":"031-291-9254","addr":"경기도 수원시 권선구 고색동 408-31번지","indutype":"일반휴게음식 - 일반한식","category":"restaurant"},{"name":"주나닭발","tel":"031-293-0727","addr":"경기도 수원시 권선구 고색동 408-31번지 1층","indutype":"일반휴게음식 - 일반한식","category":"restaurant"}]},{"lat":"37.25093264","long":"126.98048556","imageIndex":4,"items":[{"name":"롯데리아 고색점","tel":"031-295-9265","addr":"경기도 수원시 권선구 고색동 384-8번지","indutype":"일반휴게음식 - 서양음식","category":"restaurant"}]},{"lat":"37.248958671","long":"126.97700335","imageIndex":4,"items":[{"name":"마리스커피","tel":"031-241-8216","addr":"경기도 수원시 권선구 고색동 406-6번지","indutype":"일반휴게음식 - 서양음식","category":"restaurant"}]},{"lat":"37.25149199","long":"126.98462206","imageIndex":4,"items":[{"name":"만두세상","tel":"031-295-5315","addr":"경기도 수원시 권선구 고색동 42-15번지","indutype":"일반휴게음식 - 스넥","category":"restaurant"}]},{"lat":"37.250933463","long":"126.98536611","imageIndex":4,"items":[{"name":"매일푸드","tel":"031-293-0007","addr":"경기도 수원시 권선구 고색동 36-16번지 1층 외1필지","indutype":"일반휴게음식 - 일반한식","category":"restaurant"}]},{"lat":"37.249571507","long":"126.97762306","imageIndex":4,"items":[{"name":"명인족발","tel":"","addr":"경기도 수원시 권선구 고색동 408-23번지","indutype":"일반휴게음식 - 일반한식","category":"restaurant"},{"name":"미진훠궈&중국요리전문점","tel":"","addr":"경기도 수원시 권선구 고색동 408-23번지","indutype":"일반휴게음식 - 일반한식","category":"restaurant"}]},{"lat":"37.255762589","long":"126.98284002","imageIndex":4,"items":[{"name":"목향","tel":"031-227-5279","addr":"경기도 수원시 권선구 고색동 889-3번지 1층","indutype":"일반휴게음식 - 일반한식","category":"restaurant"}]},{"lat":"37.246048375","long":"126.97717341","imageIndex":4,"items":[{"name":"무한장어 고색점","tel":"031-297-9283","addr":"경기도 수원시 권선구 고색동 431-15번지","indutype":"일반휴게음식 - 일반한식","category":"restaurant"}]},{"lat":"37.251158102","long":"126.9815901","imageIndex":4,"items":[{"name":"미가멸치국수","tel":"031-291-2391","addr":"경기도 수원시 권선구 고색동 56-1번지 1층","indutype":"일반휴게음식 - 일반한식","category":"restaurant"}]},{"lat":"37.2471031","long":"126.97967519","imageIndex":4,"items":[{"name":"미가분식","tel":"031-291-2389","addr":"경기도 수원시 권선구 고색동 373-19번지 1층","indutype":"일반휴게음식 - 일반한식","category":"restaurant"},{"name":"양지식당","tel":"031-293-9171","addr":"경기도 수원시 권선구 고색동 373-19번지","indutype":"일반휴게음식 - 일반한식","category":"restaurant"}]},{"lat":"37.24562718","long":"126.99198323","imageIndex":4,"items":[{"name":"미락민물장어","tel":"031-292-9233","addr":"경기도 수원시 권선구 고색동 245-4번지 1~2층","indutype":"일반휴게음식 - 일반한식","category":"restaurant"}]},{"lat":"37.248409986","long":"126.98175994","imageIndex":4,"items":[{"name":"미진양꼬치","tel":"031-242-6668","addr":"경기도 수원시 권선구 고색동 74-14번지","indutype":"일반휴게음식 - 일반한식","category":"restaurant"},{"name":"정가네김밥,반찬","tel":"031-291-1665","addr":"경기도 수원시 권선구 고색동 74-14번지","indutype":"일반휴게음식 - 일반한식","category":"restaurant"}]},{"lat":"37.252041623","long":"126.98464447","imageIndex":4,"items":[{"name":"미향해장국","tel":"031-306-9006","addr":"경기도 수원시 권선구 고색동 38-4번지","indutype":"일반휴게음식 - 일반한식","category":"restaurant"}]},{"lat":"37.249626328","long":"126.98147782","imageIndex":4,"items":[{"name":"바이킹","tel":"031-291-0990","addr":"경기도 수원시 권선구 고색동 62-7번지 1층","indutype":"일반휴게음식 - 일반한식","category":"restaurant"},{"name":"카페르와","tel":"031-297-2321","addr":"경기도 수원시 권선구 고색동 62-7번지 1층","indutype":"일반휴게음식 - 서양음식","category":"restaurant"}]},{"lat":"37.249653916","long":"126.98481411","imageIndex":4,"items":[{"name":"밥풀푸드","tel":"031-257-5050","addr":"경기도 수원시 권선구 고색동 88-5번지","indutype":"일반휴게음식 - 일반한식","category":"restaurant"}]},{"lat":"37.249797599","long":"126.98189481","imageIndex":4,"items":[{"name":"배터지는생동까스","tel":"031-293-4881","addr":"경기도 수원시 권선구 고색동 60-4번지","indutype":"일반휴게음식 - 일반한식","category":"restaurant"},{"name":"전주최가네","tel":"031-294-4437","addr":"경기도 수원시 권선구 고색동 60-4번지 103호","indutype":"일반휴게음식 - 일반한식","category":"restaurant"}]},{"lat":"37.252681223","long":"126.98381021","imageIndex":4,"items":[{"name":"백년손님","tel":"031-405-4404","addr":"경기도 수원시 권선구 고색동 890-185번지 1층","indutype":"일반휴게음식 - 일반한식","category":"restaurant"}]},{"lat":"37.250932561","long":"126.98006852","imageIndex":4,"items":[{"name":"버디통닭 수원고색점","tel":"031-297-7987","addr":"경기도 수원시 권선구 고색동 385-3번지","indutype":"일반휴게음식 - 스넥","category":"restaurant"}]},{"lat":"37.250518989","long":"126.98536621","imageIndex":4,"items":[{"name":"번지없는 주막","tel":"031-295-2460","addr":"경기도 수원시 권선구 고색동 89-2번지","indutype":"일반휴게음식 - 주점","category":"restaurant"},{"name":"짜투리","tel":"031-295-4045","addr":"경기도 수원시 권선구 고색동 89-2번지","indutype":"일반휴게음식 - 일반한식","category":"restaurant"}]},{"lat":"37.247464454","long":"126.98511895","imageIndex":4,"items":[{"name":"복학생","tel":"031-294-6560","addr":"경기도 수원시 권선구 고색동 306-15번지","indutype":"일반휴게음식 - 일반한식","category":"restaurant"},{"name":"이박사양념숯불소갈비살","tel":"031-292-1426","addr":"경기도 수원시 권선구 고색동 306-15번지","indutype":"일반휴게음식 - 일반한식","category":"restaurant"}]},{"lat":"37.250851418","long":"126.9798093","imageIndex":4,"items":[{"name":"본가김밥","tel":"031-296-4577","addr":"경기도 수원시 권선구 고색동 385-4번지","indutype":"일반휴게음식 - 일반한식","category":"restaurant"},{"name":"예츠피자","tel":"031-293-4345","addr":"경기도 수원시 권선구 고색동 385-4번지","indutype":"일반휴게음식 - 서양음식","category":"restaurant"}]},{"lat":"37.250905639","long":"126.98064337","imageIndex":4,"items":[{"name":"본죽","tel":"031-278-6288","addr":"경기도 수원시 권선구 고색동 384-14번지 1층","indutype":"일반휴게음식 - 일반한식","category":"restaurant"}]},{"lat":"37.250410025","long":"126.98039555","imageIndex":4,"items":[{"name":"북문해물탕","tel":"031-291-7939","addr":"경기도 수원시 권선구 고색동 383-14번지","indutype":"일반휴게음식 - 일반한식","category":"restaurant"}]},{"lat":"37.25268105","long":"126.98276193","imageIndex":4,"items":[{"name":"북카페","tel":"031-293-2877","addr":"경기도 수원시 권선구 고색동 890-191번지","indutype":"일반휴게음식 - 서양음식","category":"restaurant"}]},{"lat":"37.251040851","long":"126.98094766","imageIndex":4,"items":[{"name":"비비큐고색행복점","tel":"031-293-6446","addr":"경기도 수원시 권선구 고색동 384-5번지","indutype":"일반휴게음식 - 스넥","category":"restaurant"}]},{"lat":"37.25154558","long":"126.98178161","imageIndex":4,"items":[{"name":"산천추어탕칡냉면","tel":"031-293-8971","addr":"경기도 수원시 권선구 고색동 890-53번지","indutype":"일반휴게음식 - 일반한식","category":"restaurant"}]},{"lat":"37.25121248","long":"126.98342734","imageIndex":4,"items":[{"name":"삼겹살무한리필","tel":"031-294-6980","addr":"경기도 수원시 권선구 고색동 46-5번지 2층","indutype":"일반휴게음식 - 일반한식","category":"restaurant"}]},{"lat":"37.245688088","long":"126.97775961","imageIndex":4,"items":[{"name":"삼교리동치미막국수","tel":"031-297-0025","addr":"경기도 수원시 권선구 고색동 431-3번지 1층","indutype":"일반휴게음식 - 일반한식","category":"restaurant"},{"name":"칠보순대국","tel":"031-278-9994","addr":"경기도 수원시 권선구 고색동 431-3번지","indutype":"일반휴게음식 - 일반한식","category":"restaurant"}]},{"lat":"37.249959359","long":"126.97961796","imageIndex":4,"items":[{"name":"삽교두리곱창","tel":"031-291-1626","addr":"경기도 수원시 권선구 고색동 381-1번지","indutype":"일반휴게음식 - 일반한식","category":"restaurant"}]},{"lat":"37.249715851","long":"126.97847963","imageIndex":4,"items":[{"name":"상무네닭발","tel":"031-295-4796","addr":"경기도 수원시 권선구 고색동 389-10번지","indutype":"일반휴게음식 - 일반한식","category":"restaurant"}]},{"lat":"37.23535444","long":"126.98425407","imageIndex":4,"items":[{"name":"새롬한식부페","tel":"031-298-8889","addr":"경기도 수원시 권선구 고색동 1143번지 1층","indutype":"일반휴게음식 - 일반한식","category":"restaurant"}]},{"lat":"37.25018465","long":"126.97978696","imageIndex":4,"items":[{"name":"샌드리아(고색점)","tel":"031-298-5220","addr":"경기도 수원시 권선구 고색동 381-14번지 1층","indutype":"일반휴게음식 - 스넥","category":"restaurant"}]},{"lat":"37.246742395","long":"126.97823263","imageIndex":4,"items":[{"name":"서수원분식","tel":"031-000-0000","addr":"경기도 수원시 권선구 고색동 365-6번지","indutype":"일반휴게음식 - 스넥","category":"restaurant"},{"name":"즉석-장터치킨","tel":"031-297-9533","addr":"경기도 수원시 권선구 고색동 365-6번지","indutype":"일반휴게음식 - 스넥","category":"restaurant"}]},{"lat":"37.25465277","long":"126.97515279","imageIndex":4,"items":[{"name":"서촌본갈비","tel":"031-292-1717","addr":"경기도 수원시 권선구 고색동 886-15번지 1층","indutype":"일반휴게음식 - 일반한식","category":"restaurant"}]},{"lat":"37.242633304","long":"126.97645327","imageIndex":4,"items":[{"name":"설현 한식 뷔페","tel":"031-223-5214","addr":"경기도 수원시 권선구 고색동 959번지 휴먼스카이밸리 104호","indutype":"일반휴게음식 - 일반한식","category":"restaurant"},{"name":"카페서로","tel":"02-2619-3510","addr":"경기도 수원시 권선구 고색동 959번지 휴먼스카이밸리 103-1","indutype":"일반휴게음식 - 서양음식","category":"restaurant"}]},{"lat":"37.244407767","long":"126.97400696","imageIndex":4,"items":[{"name":"소문난팔당냉면","tel":"031-227-9114","addr":"경기도 수원시 권선구 고색동 914-25번지","indutype":"일반휴게음식 - 일반한식","category":"restaurant"}]},{"lat":"37.24957164","long":"126.97825425","imageIndex":4,"items":[{"name":"솔대밥상","tel":"031-258-5225","addr":"경기도 수원시 권선구 고색동 390-12번지 1층","indutype":"일반휴게음식 - 일반한식","category":"restaurant"}]},{"lat":"37.251131331","long":"126.98308922","imageIndex":4,"items":[{"name":"송부자","tel":"031-293-4999","addr":"경기도 수원시 권선구 고색동 49-7번지 ,1,2층","indutype":"일반휴게음식 - 일반한식","category":"restaurant"}]},{"lat":"37.25237545","long":"126.98781173","imageIndex":4,"items":[{"name":"송탄부대찌개최네집 수원서부점","tel":"031-294-1144","addr":"경기도 수원시 권선구 고색동 151-1번지 2층","indutype":"일반휴게음식 - 일반한식","category":"restaurant"}]},{"lat":"37.256598757","long":"126.97414884","imageIndex":4,"items":[{"name":"송하남원추어탕","tel":"031-295-3366","addr":"경기도 수원시 권선구 고색동 894-14번지","indutype":"일반휴게음식 - 일반한식","category":"restaurant"}]},{"lat":"37.251960286","long":"126.98312282","imageIndex":4,"items":[{"name":"순이네","tel":"","addr":"경기도 수원시 권선구 고색동 890-242번지 1층","indutype":"일반휴게음식 - 일반한식","category":"restaurant"}]},{"lat":"37.250905577","long":"126.9803165","imageIndex":4,"items":[{"name":"슛돌이비어캐빈","tel":"031-256-2002","addr":"경기도 수원시 권선구 고색동 384-9번지","indutype":"일반휴게음식 - 주점","category":"restaurant"}]},{"lat":"37.250293744","long":"126.98545643","imageIndex":4,"items":[{"name":"아리성","tel":"031-291-8881","addr":"경기도 수원시 권선구 고색동 89-4번지","indutype":"일반휴게음식 - 중국식","category":"restaurant"}]},{"lat":"37.249905169","long":"126.97897551","imageIndex":4,"items":[{"name":"아지트PUB","tel":"031-8701-6935","addr":"경기도 수원시 권선구 고색동 380-1번지 2층","indutype":"일반휴게음식 - 주점","category":"restaurant"},{"name":"착한코다리","tel":"031-227-2399","addr":"경기도 수원시 권선구 고색동 380-1번지","indutype":"일반휴게음식 - 일반한식","category":"restaurant"},{"name":"헤븐방방카페","tel":"031-8081-1037","addr":"경기도 수원시 권선구 고색동 380-1번지 4층","indutype":"일반휴게음식 - 서양음식","category":"restaurant"}]},{"lat":"37.244435154","long":"126.97550592","imageIndex":4,"items":[{"name":"악어토스트앤커피","tel":"031-297-2286","addr":"경기도 수원시 권선구 고색동 484-31번지 1층","indutype":"일반휴게음식 - 서양음식","category":"restaurant"}]},{"lat":"37.252742692","long":"126.97561563","imageIndex":4,"items":[{"name":"양가네 송탄부대찌개","tel":"031-291-8080","addr":"경기도 수원시 권선구 고색동 886-50번지 1층","indutype":"일반휴게음식 - 일반한식","category":"restaurant"}]},{"lat":"37.249679856","long":"126.97870507","imageIndex":4,"items":[{"name":"양푼이동태탕찜전문","tel":"070-7539-0017","addr":"경기도 수원시 권선구 고색동 380-12번지","indutype":"일반휴게음식 - 일반한식","category":"restaurant"}]},{"lat":"37.242518461","long":"126.99039457","imageIndex":4,"items":[{"name":"양해옥","tel":"031-294-9555","addr":"경기도 수원시 권선구 고색동 327-1번지 327-7 2필지","indutype":"일반휴게음식 - 일반한식","category":"restaurant"}]},{"lat":"37.244299923","long":"126.97517913","imageIndex":4,"items":[{"name":"엔제리너스","tel":"031-294-3388","addr":"경기도 수원시 권선구 고색동 484-3번지 외1필지","indutype":"일반휴게음식 - 서양음식","category":"restaurant"}]},{"lat":"37.242461414","long":"126.97351181","imageIndex":4,"items":[{"name":"영장어","tel":"031-293-8880","addr":"경기도 수원시 권선구 고색동 912-15번지 2층","indutype":"일반휴게음식 - 일반한식","category":"restaurant"}]},{"lat":"37.242127957","long":"126.97320765","imageIndex":4,"items":[{"name":"오월의꽃수저","tel":"031-204-1001","addr":"경기도 수원시 권선구 고색동 911-14번지","indutype":"일반휴게음식 - 일반한식","category":"restaurant"}]},{"lat":"37.251627186","long":"126.98489254","imageIndex":4,"items":[{"name":"올포치킨강정","tel":"031-296-5131","addr":"경기도 수원시 권선구 고색동 36-13번지","indutype":"일반휴게음식 - 스넥","category":"restaurant"}]},{"lat":"37.242652867","long":"126.98462419","imageIndex":4,"items":[{"name":"요거프레소 (고색산단점)","tel":"031-297-8972","addr":"경기도 수원시 권선구 고색동 1097번지 101호","indutype":"일반휴게음식 - 서양음식","category":"restaurant"},{"name":"힘쎈푸드한식부페","tel":"031-298-1285","addr":"경기도 수원시 권선구 고색동 1097번지 201호","indutype":"일반휴게음식 - 일반한식","category":"restaurant"}]},{"lat":"37.2521317","long":"126.98447537","imageIndex":4,"items":[{"name":"용가네","tel":"031-295-9293","addr":"경기도 수원시 권선구 고색동 38-12번지 1층","indutype":"일반휴게음식 - 일반한식","category":"restaurant"}]},{"lat":"37.246743275","long":"126.98289876","imageIndex":4,"items":[{"name":"우성토종순대국","tel":"","addr":"경기도 수원시 권선구 고색동 659-2번지 스타빌딩 1층","indutype":"일반휴게음식 - 일반한식","category":"restaurant"},{"name":"태양식당","tel":"031-291-8858","addr":"경기도 수원시 권선구 고색동 659-2번지 스타빌딩 101호","indutype":"일반휴게음식 - 일반한식","category":"restaurant"}]},{"lat":"37.24399342","long":"126.97453683","imageIndex":4,"items":[{"name":"우소반","tel":"031-278-5673","addr":"경기도 수원시 권선구 고색동 913-7번지","indutype":"일반휴게음식 - 일반한식","category":"restaurant"}]},{"lat":"37.247437395","long":"126.98492735","imageIndex":4,"items":[{"name":"월출산흑염소탕","tel":"031-278-3550","addr":"경기도 수원시 권선구 고색동 306-16번지","indutype":"일반휴게음식 - 일반한식","category":"restaurant"}]},{"lat":"37.250797415","long":"126.98011364","imageIndex":4,"items":[{"name":"이디야커피 수원고색점","tel":"031-293-9770","addr":"경기도 수원시 권선구 고색동 384-6번지 1층","indutype":"일반휴게음식 - 서양음식","category":"restaurant"}]},{"lat":"37.251734772","long":"126.9816463","imageIndex":4,"items":[{"name":"인형과스넥","tel":"031-295-4275","addr":"경기도 수원시 권선구 고색동 890-47번지","indutype":"일반휴게음식 - 스넥","category":"restaurant"}]},{"lat":"37.255571194","long":"126.97259368","imageIndex":4,"items":[{"name":"입안에바다","tel":"031-293-3700","addr":"경기도 수원시 권선구 고색동 1177-1번지","indutype":"일반휴게음식 - 일반한식","category":"restaurant"},{"name":"입안에바다포장마차","tel":"031-291-0019","addr":"경기도 수원시 권선구 고색동 1177-1번지","indutype":"일반휴게음식 - 일반한식","category":"restaurant"}]},{"lat":"37.244596978","long":"126.97398434","imageIndex":4,"items":[{"name":"자성화 맛집 코다리네","tel":"031-292-8988","addr":"경기도 수원시 권선구 고색동 914-24번지","indutype":"일반휴게음식 - 일반한식","category":"restaurant"}]},{"lat":"37.242019756","long":"126.97290339","imageIndex":4,"items":[{"name":"전주25시감자탕","tel":"031-297-4013","addr":"경기도 수원시 권선구 고색동 911-17번지 1층","indutype":"일반휴게음식 - 일반한식","category":"restaurant"}]},{"lat":"37.248824481","long":"126.98187254","imageIndex":4,"items":[{"name":"정가네밥상","tel":"031-292-1665","addr":"경기도 수원시 권선구 고색동 71-28번지","indutype":"일반휴게음식 - 일반한식","category":"restaurant"}]},{"lat":"37.248600417","long":"126.99028086","imageIndex":4,"items":[{"name":"정우식당","tel":"031-291-2523","addr":"경기도 수원시 권선구 고색동 237-1번지","indutype":"일반휴게음식 - 일반한식","category":"restaurant"}]},{"lat":"37.239605918","long":"126.9768375","imageIndex":4,"items":[{"name":"진양구내식당","tel":"031-298-0737","addr":"경기도 수원시 권선구 고색동 938번지 1층","indutype":"일반휴게음식 - 위탁급식업","category":"restaurant"}]},{"lat":"37.252103144","long":"126.97642742","imageIndex":4,"items":[{"name":"차가있는 건강카페 샘","tel":"070-8825-0877","addr":"경기도 수원시 권선구 고색동 886-70번지","indutype":"일반휴게음식 - 일반한식","category":"restaurant"}]},{"lat":"37.249798025","long":"126.9844534","imageIndex":4,"items":[{"name":"차이나궁","tel":"031-292-0935","addr":"경기도 수원시 권선구 고색동 81-21번지","indutype":"일반휴게음식 - 중국식","category":"restaurant"}]},{"lat":"37.253158743","long":"126.98364101","imageIndex":4,"items":[{"name":"철기시대","tel":"031-278-9522","addr":"경기도 수원시 권선구 고색동 888-166번지 1층","indutype":"일반휴게음식 - 일반한식","category":"restaurant"}]},{"lat":"37.254823805","long":"126.97447641","imageIndex":4,"items":[{"name":"청석골갈비","tel":"031-294-7011","addr":"경기도 수원시 권선구 고색동 886-11번지","indutype":"일반휴게음식 - 일반한식","category":"restaurant"}]},{"lat":"37.244155673","long":"126.97481853","imageIndex":4,"items":[{"name":"청풍남원추어탕","tel":"031-297-8866","addr":"경기도 수원시 권선구 고색동 913-2번지","indutype":"일반휴게음식 - 일반한식","category":"restaurant"}]},{"lat":"37.248770148","long":"126.98039603","imageIndex":4,"items":[{"name":"청해반점","tel":"031-295-4174","addr":"경기도 수원시 권선구 고색동 376-1번지","indutype":"일반휴게음식 - 중국식","category":"restaurant"}]},{"lat":"37.250599076","long":"126.97953886","imageIndex":4,"items":[{"name":"추억82 꽈배기","tel":"031-292-1833","addr":"경기도 수원시 권선구 고색동 386-10번지 1층","indutype":"일반휴게음식 - 서양음식","category":"restaurant"}]},{"lat":"37.251770874","long":"126.98198444","imageIndex":4,"items":[{"name":"치킨동네","tel":"031-278-5558","addr":"경기도 수원시 권선구 고색동 890-130번지 1층","indutype":"일반휴게음식 - 스넥","category":"restaurant"}]},{"lat":"37.251409362","long":"126.97648402","imageIndex":4,"items":[{"name":"치킨마루 수여성병원","tel":"031-895-8111","addr":"경기도 수원시 권선구 고색동 886-125번지 1층 103호","indutype":"일반휴게음식 - 스넥","category":"restaurant"},{"name":"카페(CAFE)수앤루","tel":"","addr":"경기도 수원시 권선구 고색동 886-125번지 103호","indutype":"일반휴게음식 - 서양음식","category":"restaurant"}]},{"lat":"37.254573849","long":"126.9869208","imageIndex":4,"items":[{"name":"칠보순대국","tel":"031-278-9994","addr":"경기도 수원시 권선구 고색동 7-74번지 1층","indutype":"일반휴게음식 - 일반한식","category":"restaurant"}]},{"lat":"37.251266583","long":"126.9836753","imageIndex":4,"items":[{"name":"카페 엔젤","tel":"031-294-7575","addr":"경기도 수원시 권선구 고색동 45-19번지 신병원 1층","indutype":"일반휴게음식 - 서양음식","category":"restaurant"}]},{"lat":"37.248076075","long":"126.97897609","imageIndex":4,"items":[{"name":"카페 오로시","tel":"031-302-7647","addr":"경기도 수원시 권선구 고색동 397-6번지 주안빌라 1층","indutype":"일반휴게음식 - 서양음식","category":"restaurant"}]},{"lat":"37.251437456","long":"126.98178164","imageIndex":4,"items":[{"name":"커피이일(COFFEE21)","tel":"031-223-5214","addr":"경기도 수원시 권선구 고색동 890-15번지 1층","indutype":"일반휴게음식 - 서양음식","category":"restaurant"}]},{"lat":"37.250374873","long":"126.98570438","imageIndex":4,"items":[{"name":"켄터키치킨","tel":"031-296-3526","addr":"경기도 수원시 권선구 고색동 143-10번지","indutype":"일반휴게음식 - 주점","category":"restaurant"}]},{"lat":"37.247464014","long":"126.98239138","imageIndex":4,"items":[{"name":"코리아캐터링(주)일양평택물류센타","tel":"031-298-2490","addr":"경기도 수원시 권선구 고색동 290-45번지","indutype":"일반휴게음식 - 위탁급식업","category":"restaurant"}]},{"lat":"37.251771123","long":"126.98344974","imageIndex":4,"items":[{"name":"큰맘할매순대국(수원고색점)","tel":"031-295-6699","addr":"경기도 수원시 권선구 고색동 40-1번지 남영빌딩 104,105호","indutype":"일반휴게음식 - 일반한식","category":"restaurant"},{"name":"퍼주네 생막창","tel":"031-292-0304","addr":"경기도 수원시 권선구 고색동 40-1번지 남영빌딩 102호","indutype":"일반휴게음식 - 일반한식","category":"restaurant"}]},{"lat":"37.251375829","long":"126.99272632","imageIndex":4,"items":[{"name":"큰손오리샤브샤브","tel":"031-293-8995","addr":"경기도 수원시 권선구 고색동 218-5번지","indutype":"일반휴게음식 - 일반한식","category":"restaurant"}]},{"lat":"37.25034691","long":"126.98017014","imageIndex":4,"items":[{"name":"키스일레븐커피","tel":"031-227-1353","addr":"경기도 수원시 권선구 고색동 383-10번지","indutype":"일반휴게음식 - 서양음식","category":"restaurant"}]},{"lat":"37.252907019","long":"126.98750729","imageIndex":4,"items":[{"name":"터미널보신탕","tel":"031-227-7726","addr":"경기도 수원시 권선구 고색동 10-3번지","indutype":"일반휴게음식 - 일반한식","category":"restaurant"}]},{"lat":"37.251131047","long":"126.98145485","imageIndex":4,"items":[{"name":"팔도포차","tel":"031-296-9122","addr":"경기도 수원시 권선구 고색동 56-5번지 1층","indutype":"일반휴게음식 - 일반한식","category":"restaurant"}]},{"lat":"37.246716215","long":"126.98272971","imageIndex":4,"items":[{"name":"평사리감자탕수육국밥","tel":"031-294-3880","addr":"경기도 수원시 권선구 고색동 659-3번지 1층","indutype":"일반휴게음식 - 일반한식","category":"restaurant"}]},{"lat":"37.250492159","long":"126.98678641","imageIndex":4,"items":[{"name":"피노","tel":"","addr":"경기도 수원시 권선구 고색동 141-16번지 1층","indutype":"일반휴게음식 - 서양음식","category":"restaurant"}]},{"lat":"37.247688483","long":"126.97825487","imageIndex":4,"items":[{"name":"피자스쿨(고색점)","tel":"031-297-8955","addr":"경기도 수원시 권선구 고색동 915번지 우림필유 상가동 104호","indutype":"일반휴게음식 - 서양음식","category":"restaurant"}]},{"lat":"37.249769843","long":"126.97814148","imageIndex":4,"items":[{"name":"한가네 숯불닭갈비","tel":"031-292-6733","addr":"경기도 수원시 권선구 고색동 389-7번지","indutype":"일반휴게음식 - 일반한식","category":"restaurant"}]},{"lat":"37.243408321","long":"126.97703906","imageIndex":4,"items":[{"name":"한두레","tel":"","addr":"경기도 수원시 권선구 고색동 957번지 1층","indutype":"일반휴게음식 - 위탁급식업","category":"restaurant"}]},{"lat":"37.249075801","long":"126.97698077","imageIndex":4,"items":[{"name":"화산목장","tel":"031-278-1555","addr":"경기도 수원시 권선구 고색동 406-5번지","indutype":"일반휴게음식 - 일반한식","category":"restaurant"}]},{"lat":"37.248959565","long":"126.98147801","imageIndex":4,"items":[{"name":"힐링생고기 (최희연)","tel":"031-227-9234","addr":"경기도 수원시 권선구 고색동 66-10번지","indutype":"일반휴게음식 - 일반한식","category":"restaurant"}]}]