[{"lat":"37.223079717","long":"127.07527454","imageIndex":17,"items":[{"name":"CRAZY GOLF(크레이지골프)","tel":"031-237-7111","addr":"경기도 화성시 석우동 16-4번지","indutype":"레져용품 - 골프용품 전문점","category":"other"}]},{"lat":"37.223854572","long":"127.07533162","imageIndex":17,"items":[{"name":"GS25동탄IT점","tel":"02-2006-2485","addr":"경기도 화성시 석우동 13-7번지","indutype":"유통업 영리 - 편 의 점","category":"other"}]},{"lat":"37.209742271","long":"127.0786414","imageIndex":17,"items":[{"name":"GS25동탄대우점","tel":"02-2006-2485","addr":"경기도 화성시 석우동 49 동탄예당마을푸르지오@104호","indutype":"유통업 영리 - 편 의 점","category":"other"},{"name":"대우세탁","tel":"031-613-3747","addr":"경기도 화성시 석우동 49 대우푸르지오상가102호","indutype":"수리서비스 - 세탁소","category":"other"}]},{"lat":"37.218130244","long":"127.07969758","imageIndex":17,"items":[{"name":"GS25동탄블루체점","tel":"","addr":"경기도 화성시 석우동 33-2번지 석진블루체오피스텔 101호","indutype":"유통업 영리 - 편 의 점","category":"other"},{"name":"근일산업","tel":"","addr":"경기도 화성시 석우동 33-2번지 404호","indutype":"용역 서비스 - 기타용역서비스","category":"other"}]},{"lat":"37.216580287","long":"127.0799664","imageIndex":17,"items":[{"name":"GS25동탄성심병원점","tel":"","addr":"경기도 화성시 석우동 40번지 B1층","indutype":"유통업 영리 - 편 의 점","category":"other"}]},{"lat":"37.208221348","long":"127.07572222","imageIndex":17,"items":[{"name":"GS25동탄예당점","tel":"","addr":"경기도 화성시 석우동 56번지 상가동 101, 102호","indutype":"유통업 영리 - 편 의 점","category":"other"}]},{"lat":"37.22482896","long":"127.07322551","imageIndex":17,"items":[{"name":"GS25삼성DSR점","tel":"","addr":"경기도 화성시 석우동 3-1번지 RD스테이션 110호","indutype":"유통업 영리 - 편 의 점","category":"other"},{"name":"주식회사 새인네이처","tel":"070-4492-3946","addr":"경기도 화성시 석우동 3-1번지 301호","indutype":"유통업 영리 - 기타유통업","category":"other"},{"name":"쥴리(Juuli)전자담배","tel":"","addr":"경기도 화성시 석우동 3-1번지 108호","indutype":"기타 - 기타 전문점","category":"other"}]},{"lat":"37.215914089","long":"127.07908696","imageIndex":17,"items":[{"name":"GS25화성그루터기점","tel":"","addr":"경기도 화성시 석우동 41-5번지 1층 101-1호","indutype":"유통업 영리 - 편 의 점","category":"other"},{"name":"동탄성심산후조리원","tel":"031-8015-9999","addr":"경기도 화성시 석우동 41-5번지 동탄성심프라자5,6,7층 석우동","indutype":"기타의료기관 - 산후조리원","category":"other"}]},{"lat":"37.218662487","long":"127.07871792","imageIndex":17,"items":[{"name":"GS25화성석우점","tel":"","addr":"경기도 화성시 석우동 32-4번지 프리언스오피스텔 112호","indutype":"유통업 영리 - 편 의 점","category":"other"},{"name":"프리언스","tel":"031-613-1409","addr":"경기도 화성시 석우동 32-4번지 프리언스오피스텔 106호","indutype":"수리서비스 - 세탁소","category":"other"}]},{"lat":"37.224746782","long":"127.07502825","imageIndex":17,"items":[{"name":"가온트레이드","tel":"070-4922-1261","addr":"경기도 화성시 석우동 9-6번지 지하1층","indutype":"레져용품 - 스포츠·레져용품","category":"other"}]},{"lat":"37.21615773","long":"127.07852389","imageIndex":17,"items":[{"name":"꽃담","tel":"","addr":"경기도 화성시 석우동 42-3번지 1층","indutype":"의류 - 정장","category":"other"},{"name":"똑소리문화센타","tel":"031-8015-9906","addr":"경기도 화성시 석우동 42-3번지 지하1층문화센타 석우동","indutype":"문화.취미 - 문화취미기타","category":"other"}]},{"lat":"37.212193955","long":"127.0772807","imageIndex":17,"items":[{"name":"넥스트정보통신","tel":"031-374-3011","addr":"경기도 화성시 석우동 53번지 동탄예당마을우미린제일풍경채","indutype":"사무통신 - 통신기기","category":"other"},{"name":"씨유동탄우미린점","tel":"070-4250-2321","addr":"경기도 화성시 석우동 53번지 동탄 예당마을 우미린제일풍경채 상가동 1층 201호 석우동","indutype":"유통업 영리 - 편 의 점","category":"other"},{"name":"어썸디자인(AWESOME DESIGN)","tel":"","addr":"경기도 화성시 석우동 53번지 단지 상가 105호","indutype":"건축자재 - 인테리어전문","category":"other"},{"name":"크린토피아 동탄예당우미린점","tel":"031-8003-3393","addr":"경기도 화성시 석우동 53번지 동탄예당마을우미린제일풍경채 상가동 203호","indutype":"수리서비스 - 세탁소","category":"other"}]},{"lat":"37.215328524","long":"127.07891737","imageIndex":17,"items":[{"name":"다원통신","tel":"031-8015-5116","addr":"경기도 화성시 석우동 43번지 새정인디안타워 206호","indutype":"사무통신 - 통신기기","category":"other"},{"name":"주식회사원시스템컴퍼니","tel":"070-4655-1305","addr":"경기도 화성시 석우동 43번지 새정인디안타워 206호","indutype":"용역 서비스 - 종합용역","category":"other"}]},{"lat":"37.215968476","long":"127.07858003","imageIndex":17,"items":[{"name":"동탄제일프리미엄산후조리원","tel":"031-266-3535","addr":"경기도 화성시 석우동 42-4번지 5,6,7층","indutype":"기타의료기관 - 산후조리원","category":"other"}]},{"lat":"37.216743209","long":"127.07882866","imageIndex":17,"items":[{"name":"라팡파스텔(동탄점)","tel":"031-8003-3178","addr":"경기도 화성시 석우동 41-1번지 5층,6층","indutype":"광학제품 - 사진관","category":"other"},{"name":"씨유화성동탄한림점","tel":"031-8003-6658","addr":"경기도 화성시 석우동 41-1번지","indutype":"유통업 영리 - 편 의 점","category":"other"}]},{"lat":"37.218131442","long":"127.07782733","imageIndex":17,"items":[{"name":"마뉴 (MANU Studio)","tel":"031-000-0000","addr":"경기도 화성시 석우동 31-2번지 디지털스테이션 7층 702호","indutype":"광학제품 - 사진관","category":"other"},{"name":"엘엠아이","tel":"031-8003-9690","addr":"경기도 화성시 석우동 31-2 디지털스테이션409,509,510호","indutype":"서적문구 - 과학기자재","category":"other"},{"name":"주식회사 사진관봄날애","tel":"070-8970-4016","addr":"경기도 화성시 석우동 31-2번지 7층 701-1호","indutype":"광학제품 - 사진관","category":"other"},{"name":"쥴리","tel":"","addr":"경기도 화성시 석우동 31-2번지 디지털스테이션 1층 113호","indutype":"기타 - 기타 전문점","category":"other"},{"name":"합자회사 리치안","tel":"","addr":"경기도 화성시 석우동 31-2번지 디지털스테이션 407호","indutype":"건축자재 - 부동산 분양","category":"other"},{"name":"합자회사 리치안","tel":"031-8003-6400","addr":"경기도 화성시 석우동 31-2번지 디지털스테이션 407호","indutype":"건축자재 - 부동산 분양","category":"other"}]},{"lat":"37.217328737","long":"127.07905458","imageIndex":17,"items":[{"name":"맘스케어","tel":"031-891-4798","addr":"경기도 화성시 석우동 36-1번지","indutype":"회원제형태 - 기타1","category":"other"},{"name":"주식회사모노(Mono Co.Ltd)","tel":"031-613-0755","addr":"경기도 화성시 석우동 36-1번지 동탄삼성쉐르빌 914호","indutype":"용역 서비스 - 종합용역","category":"other"}]},{"lat":"37.217689735","long":"127.07814235","imageIndex":17,"items":[{"name":"세븐일레븐동탄석우점","tel":"","addr":"경기도 화성시 석우동 이너매스플래티늄오피스텔 107호","indutype":"유통업 영리 - 편 의 점","category":"other"}]},{"lat":"37.218491556","long":"127.07830088","imageIndex":17,"items":[{"name":"세븐일레븐동탄한림점","tel":"031-1577-0711","addr":"경기도 화성시 석우동 32-5번지 108호","indutype":"유통업 영리 - 편 의 점","category":"other"}]},{"lat":"37.207075852","long":"127.07761363","imageIndex":17,"items":[{"name":"세븐일레븐동탄호수공원점","tel":"031-1577-0711","addr":"경기도 화성시 석우동 59-5번지 동탄산타플러스 104호","indutype":"유통업 영리 - 편 의 점","category":"other"}]},{"lat":"37.22299809","long":"127.07614205","imageIndex":17,"items":[{"name":"씨유동탄석우원룸점","tel":"031-898-6569","addr":"경기도 화성시 석우동 11-19번지 101호","indutype":"유통업 영리 - 편 의 점","category":"other"}]},{"lat":"37.225297844","long":"127.07264003","imageIndex":17,"items":[{"name":"씨유동탄캐슬점","tel":"031-613-7211","addr":"경기도 화성시 석우동 1-9번지 원희캐슬삼성 1층 101호","indutype":"유통업 영리 - 편 의 점","category":"other"},{"name":"아이소잉","tel":"","addr":"경기도 화성시 석우동 1-9번지 원희캐슬동탄 407호","indutype":"문화.취미 - 문화취미기타","category":"other"}]},{"lat":"37.21632866","long":"127.07894091","imageIndex":17,"items":[{"name":"아가방 동탄제일점","tel":"031-8015-5104","addr":"경기도 화성시 석우동 41-3번지 성심제일프라자 1층 102호","indutype":"의류 - 아동의류","category":"other"}]},{"lat":"37.207545819","long":"127.07531603","imageIndex":17,"items":[{"name":"에듀바비경기화성반송지점","tel":"02-1522-0701","addr":"경기도 화성시 석우동 56번지 동탄예당마을신일유토빌 136동 1802호","indutype":"용역 서비스 - 사무서비스","category":"other"}]},{"lat":"37.225386483","long":"127.07508519","imageIndex":17,"items":[{"name":"엘리스빌","tel":"031-831-5579","addr":"경기도 화성시 석우동 8-3번지 1층","indutype":"신변잡화 - 기타잡화","category":"other"}]},{"lat":"37.212932621","long":"127.07757434","imageIndex":17,"items":[{"name":"엠디(MD)638","tel":"02-511-1308","addr":"경기도 화성시 석우동 53번지 예당마을우미린제일풍경채 115동 1801호","indutype":"회원제형태 - 기타1","category":"other"}]},{"lat":"37.218824384","long":"127.07916875","imageIndex":17,"items":[{"name":"주식회사 에스앤제이컴퍼니(S.J company)","tel":"031-8003-8003","addr":"경기도 화성시 석우동 32-3번지 풍산리치안 1104호","indutype":"용역 서비스 - 사무서비스","category":"other"}]},{"lat":"37.221935704","long":"127.07477769","imageIndex":17,"items":[{"name":"카피친구","tel":"031-613-0755","addr":"경기도 화성시 석우동 18-4번지 114호","indutype":"용역 서비스 - 사무서비스","category":"other"}]},{"lat":"37.212527873","long":"127.07642483","imageIndex":17,"items":[{"name":"칼의부활(서산태안점)","tel":"070-8624-9330","addr":"경기도 화성시 석우동 53번지 동탄예당마을우미린제일풍경채 117동 2402호","indutype":"수리서비스 - 기타수리서비스","category":"other"}]},{"lat":"37.217275137","long":"127.07833347","imageIndex":17,"items":[{"name":"해강상사","tel":"","addr":"경기도 화성시 석우동 31-6번지 석진파아란오피스텔 102호","indutype":"신변잡화 - 기타잡화","category":"other"}]}]