[{"lat":"37.659133696","long":"127.15515064","imageIndex":0,"items":[{"name":"도경유리","tel":"031-574-6260","addr":"경기도 남양주시 진건읍 신월리 540-9번지 1층","indutype":"자동차정비 유지 - 자동차부품","category":"car"}]},{"lat":"37.663660352","long":"127.17219424","imageIndex":0,"items":[{"name":"마이스터자동차공업사","tel":"031-572-2990","addr":"경기도 남양주시 진건읍 신월리 52-2번지 유성빌딩 1층","indutype":"자동차정비 유지 - 자동차정비","category":"car"}]},{"lat":"37.66122107","long":"127.17055672","imageIndex":0,"items":[{"name":"아이언빌드 언더케어","tel":"","addr":"경기도 남양주시 진건읍 신월리 343번지","indutype":"자동차정비 유지 - 카인테리어","category":"car"}]},{"lat":"37.660224405","long":"127.15473354","imageIndex":0,"items":[{"name":"앤트워크","tel":"031-574-7974","addr":"경기도 남양주시 진건읍 신월리 604-1번지","indutype":"자동차정비 유지 - 자동차부품","category":"car"},{"name":"우리렉카","tel":"031-527-4444","addr":"경기도 남양주시 진건읍 신월리 604-1번지","indutype":"자동차정비 유지 - 자동차부품","category":"car"}]},{"lat":"37.659195296","long":"127.15628405","imageIndex":0,"items":[{"name":"에이치디 타이어 (HD TIRE)","tel":"031-528-0909","addr":"경기도 남양주시 진건읍 신월리 558-1번지","indutype":"자동차정비 유지 - 자동차시트·타이어","category":"car"}]},{"lat":"37.659910462","long":"127.15364494","imageIndex":0,"items":[{"name":"위드휠&타이어(with Wheel&Tire)","tel":"031-573-9507","addr":"경기도 남양주시 진건읍 신월리 544-94번지","indutype":"자동차정비 유지 - 자동차시트·타이어","category":"car"}]},{"lat":"37.677773979","long":"127.16902963","imageIndex":0,"items":[{"name":"제일상사","tel":"031-575-2951","addr":"경기도 남양주시 진건읍 신월리 307-2번지","indutype":"자동차정비 유지 - 자동차정비","category":"car"}]},{"lat":"37.660249919","long":"127.16270073","imageIndex":0,"items":[{"name":"티에스 오토파트","tel":"031-573-9175","addr":"경기도 남양주시 진건읍 신월리 457번지 티에스 오토파트","indutype":"자동차정비 유지 - 자동차부품","category":"car"}]},{"lat":"37.662279363","long":"127.15414839","imageIndex":0,"items":[{"name":"혜주파(HEJUPA)","tel":"031-529-9257","addr":"경기도 남양주시 진건읍 신월리 587번지","indutype":"자동차정비 유지 - 자동차부품","category":"car"}]}]