[{"lat":"37.50384191","long":"126.77326777","imageIndex":7,"items":[{"name":"(주)대담시스템","tel":"032-327-0610","addr":"경기도 부천시 중동 1058-2번지 중동프라자","indutype":"음료식품 - 기타음료식품","category":"food"}]},{"lat":"37.502840186","long":"126.77243396","imageIndex":7,"items":[{"name":"(주)부천유통","tel":"031-359-9892","addr":"경기도 부천시 중동 1141번지 코스모폴리탄 1724호","indutype":"음료식품 - 정육점","category":"food"},{"name":"과일전문점","tel":"032-1111-1111","addr":"경기도 부천시 중동 1141번지 코스모폴리탄 102호","indutype":"음료식품 - 농·축·수산품","category":"food"},{"name":"식빵이맛있는집네모(중동점)","tel":"032-325-1577","addr":"경기도 부천시 중동 1141번지 코스모폴리탄 102호","indutype":"음료식품 - 제과점","category":"food"},{"name":"와이에스농산","tel":"032-326-8721","addr":"경기도 부천시 중동 1141번지 코스모폴리탄 1723호","indutype":"음료식품 - 농·축·수산품","category":"food"},{"name":"주식회사기원시스템","tel":"032-327-0506","addr":"경기도 부천시 중동 1141번지 코스모폴리탄 303호","indutype":"음료식품 - 기타음료식품","category":"food"}]},{"lat":"37.503149224","long":"126.77851738","imageIndex":7,"items":[{"name":"(주)에치엘에스","tel":"032-324-9501","addr":"경기도 부천시 중동 1080번지 상도타운 801호","indutype":"음료식품 - 기타음료식품","category":"food"}]},{"lat":"37.503318042","long":"126.77727286","imageIndex":7,"items":[{"name":"(주)이롬미트","tel":"032-329-9092","addr":"경기도 부천시 중동 1079번지 뉴월드타운 2층 210호","indutype":"음료식품 - 정육점","category":"food"}]},{"lat":"37.504977809","long":"126.76449941","imageIndex":7,"items":[{"name":"(주)제이에스인터푸드","tel":"080-327-5885","addr":"경기도 부천시 중동 1033-3굿모닝프라자501.502호","indutype":"음료식품 - 기타음료식품","category":"food"}]},{"lat":"37.494318466","long":"126.76419405","imageIndex":7,"items":[{"name":"HS코스메틱","tel":"032-614-7373","addr":"경기도 부천시 중동 734-13번지 1층","indutype":"음료식품 - 미곡상","category":"food"},{"name":"소망과일촌","tel":"032-657-7712","addr":"경기도 부천시 중동 734-13번지 1층","indutype":"음료식품 - 농·축·수산품","category":"food"},{"name":"우리생협(중동시장점)","tel":"032-654-5159","addr":"경기도 부천시 중동 734-13번지 1층","indutype":"음료식품 - 농·축·수산품","category":"food"}]},{"lat":"37.494985424","long":"126.76430501","imageIndex":7,"items":[{"name":"가은청과","tel":"032-655-5148","addr":"경기도 부천시 중동 725-9번지","indutype":"음료식품 - 농·축·수산품","category":"food"},{"name":"초원정육점","tel":"032-664-1279","addr":"경기도 부천시 중동 725-9번지 1층","indutype":"음료식품 - 정육점","category":"food"}]},{"lat":"37.499980271","long":"126.77513423","imageIndex":7,"items":[{"name":"가자(KAJA)S.J","tel":"032-328-5447","addr":"경기도 부천시 중동 1134-1번지 상지프라자 105호","indutype":"음료식품 - 기타음료식품","category":"food"},{"name":"마리웨일마카롱","tel":"032-612-5597","addr":"경기도 부천시 중동 1134-1번지 상지프라자 103호","indutype":"음료식품 - 제과점","category":"food"}]},{"lat":"37.495264844","long":"126.76436066","imageIndex":7,"items":[{"name":"감초고을흑염소","tel":"032-663-6179","addr":"경기도 부천시 중동 708-7번지","indutype":"건강식품 - 기타건강식품","category":"food"},{"name":"중동방앗간","tel":"","addr":"경기도 부천시 중동 708-7번지 1층","indutype":"음료식품 - 기타음료식품","category":"food"}]},{"lat":"37.504009939","long":"126.77629817","imageIndex":7,"items":[{"name":"강남웰빙디포","tel":"032-000-0000","addr":"경기도 부천시 중동 1062-2번지 메디타워 901호","indutype":"회원제형태 - 건강식품","category":"food"},{"name":"안소아과의원(건강식품)","tel":"032-322-8763","addr":"경기도 부천시 중동 1062-2번지 메디타워 502호","indutype":"건강식품 - 기타건강식품","category":"food"}]},{"lat":"37.500958667","long":"126.77791326","imageIndex":7,"items":[{"name":"강남총각네부천5호점","tel":"032-655-8449","addr":"경기도 부천시 중동 1107번지 상가위브더스테이트 2동 123호","indutype":"음료식품 - 농·축·수산품","category":"food"}]},{"lat":"37.494345998","long":"126.76444274","imageIndex":7,"items":[{"name":"강인수산","tel":"070-1111-1111","addr":"경기도 부천시 중동 736번지 1층 일부","indutype":"음료식품 - 농·축·수산품","category":"food"},{"name":"세경농산","tel":"032-663-3516","addr":"경기도 부천시 중동 736번지","indutype":"음료식품 - 농·축·수산품","category":"food"}]},{"lat":"37.500895357","long":"126.77310716","imageIndex":7,"items":[{"name":"건강한녀석들","tel":"031-424-1555","addr":"경기도 부천시 중동 1144-3번지 디아뜨갤러리3 A동 1층 109호","indutype":"음료식품 - 농·축·수산품","category":"food"},{"name":"코코호도과자중동롯데점","tel":"032-325-5506","addr":"경기도 부천시 중동 1144-3번지 디아뜨갤러리3차 A동 107호","indutype":"음료식품 - 제과점","category":"food"}]},{"lat":"37.494070182","long":"126.77071949","imageIndex":7,"items":[{"name":"건국우유","tel":"032-652-5281","addr":"경기도 부천시 중동 1207-5번지 102호","indutype":"음료식품 - 기타음료식품","category":"food"}]},{"lat":"37.503425101","long":"126.77671838","imageIndex":7,"items":[{"name":"경기 중동점(신)","tel":"032-215-0303","addr":"경기도 부천시 중동 1062-4번지 로얄프라자","indutype":"건강식품 - 홍삼제품","category":"food"},{"name":"막 퍼주는 집","tel":"032-321-3469","addr":"경기도 부천시 중동 1062-4번지 로얄프라자 111호","indutype":"음료식품 - 농·축·수산품","category":"food"},{"name":"정관장 중동점","tel":"032-215-0303","addr":"경기도 부천시 중동 1062-4번지 로얄프라자 102호","indutype":"건강식품 - 홍삼제품","category":"food"}]},{"lat":"37.495930111","long":"126.76363482","imageIndex":7,"items":[{"name":"계림농산","tel":"032-653-3232","addr":"경기도 부천시 중동 705-1번지 1층","indutype":"음료식품 - 미곡상","category":"food"}]},{"lat":"37.500762513","long":"126.774295","imageIndex":7,"items":[{"name":"고려당바이오한방","tel":"032-348-6710","addr":"경기도 부천시 중동 1135번지 대야하이빌2 305호","indutype":"건강식품 - 기타건강식품","category":"food"}]},{"lat":"37.502342463","long":"126.76230251","imageIndex":7,"items":[{"name":"고향축산","tel":"032-326-0369","addr":"경기도 부천시 중동 1161-3번지 일신빌딩 102호","indutype":"음료식품 - 정육점","category":"food"},{"name":"더달달 부천 중동점&홍베이팡 부천 중동점","tel":"032-326-0365","addr":"경기도 부천시 중동 1161-3번지 일신빌딩 1층 103호","indutype":"음료식품 - 기타음료식품","category":"food"},{"name":"던킨도너츠중앙공원점","tel":"032-328-1611","addr":"경기도 부천시 중동 1161-3번지 일신빌딩 105호 113호","indutype":"음료식품 - 제과점","category":"food"},{"name":"슈가난리","tel":"070-8802-9508","addr":"경기도 부천시 중동 1161-3번지 일신빌딩 207호","indutype":"음료식품 - 제과점","category":"food"}]},{"lat":"37.501317616","long":"126.77715448","imageIndex":7,"items":[{"name":"과일사무소 2호점","tel":"","addr":"경기도 부천시 중동 1106번지 위브더스테이트 제상가 1동 1층 121호","indutype":"음료식품 - 농·축·수산품","category":"food"},{"name":"미소반","tel":"032-620-3980","addr":"경기도 부천시 중동 1106번지 위브더스테이트 상가 1동 129호","indutype":"음료식품 - 기타음료식품","category":"food"},{"name":"빵장수 단팥빵 부천점","tel":"032-621-7904","addr":"경기도 부천시 중동 1106번지 위브더스테이트 상가 1동 112호","indutype":"음료식품 - 제과점","category":"food"},{"name":"식빵전문점 오늘","tel":"","addr":"경기도 부천시 중동 1106번지 위브더스테이트 상가동 129호","indutype":"음료식품 - 제과점","category":"food"},{"name":"제이피컴퍼니(J.P COMPANY)","tel":"070-8225-5171","addr":"경기도 부천시 중동 1106번지 위브더스테이트 상가 1동 218호","indutype":"음료식품 - 기타음료식품","category":"food"},{"name":"최고다 푸줏간","tel":"032-655-8284","addr":"경기도 부천시 중동 1106번지 위브더스테이트 상가 1동 107호","indutype":"음료식품 - 정육점","category":"food"}]},{"lat":"37.493872911","long":"126.78058055","imageIndex":7,"items":[{"name":"국민간식333","tel":"","addr":"경기도 부천시 중동 1118-1번지 301동 지108-2호","indutype":"음료식품 - 기타음료식품","category":"food"},{"name":"꽃핌케이크","tel":"","addr":"경기도 부천시 중동 1118-1번지 스타팰리움 301동 1-212호","indutype":"음료식품 - 제과점","category":"food"},{"name":"더(THE)반찬가게","tel":"032-613-6233","addr":"경기도 부천시 중동 1118-1번지 스타팰리움 101동 110호","indutype":"음료식품 - 기타음료식품","category":"food"},{"name":"더플러스 아이스크림할인점","tel":"","addr":"경기도 부천시 중동 1118-1번지 스타팰리움 301동 1-104호","indutype":"음료식품 - 기타음료식품","category":"food"},{"name":"밤산책공방","tel":"","addr":"경기도 부천시 중동 1118-1번지 스타팰리움 301동 1층 107호","indutype":"음료식품 - 기타음료식품","category":"food"},{"name":"스몰럭(smallucke)","tel":"","addr":"경기도 부천시 중동 1118-1번지 스타팰리움 301동 2층 1-203호","indutype":"음료식품 - 기타음료식품","category":"food"}]},{"lat":"37.502537491","long":"126.76074122","imageIndex":7,"items":[{"name":"국선생 부천시청점","tel":"032-321-9455","addr":"경기도 부천시 중동 1168-2번지 베네피아오피스텔 104호","indutype":"음료식품 - 기타음료식품","category":"food"},{"name":"달콤한오후","tel":"032-324-5404","addr":"경기도 부천시 중동 1168-2번지 베네피아오피스텔 1층 106호","indutype":"음료식품 - 제과점","category":"food"}]},{"lat":"37.494038978","long":"126.76410448","imageIndex":7,"items":[{"name":"궁중떡집","tel":"032-654-7986","addr":"경기도 부천시 중동 735-9번지 1층","indutype":"음료식품 - 제과점","category":"food"},{"name":"신영식품","tel":"032-611-4506","addr":"경기도 부천시 중동 735-9번지 1층","indutype":"음료식품 - 기타음료식품","category":"food"},{"name":"황토축산","tel":"032-613-2938","addr":"경기도 부천시 중동 735-9번지 1층","indutype":"음료식품 - 정육점","category":"food"}]},{"lat":"37.505514498","long":"126.77624838","imageIndex":7,"items":[{"name":"그린","tel":"070-7358-0904","addr":"경기도 부천시 중동 1068-17번지 1층","indutype":"건강식품 - 기타건강식품","category":"food"}]},{"lat":"37.493958392","long":"126.76435351","imageIndex":7,"items":[{"name":"그린수산","tel":"032-668-2877","addr":"경기도 부천시 중동 736-20번지 1층","indutype":"음료식품 - 농·축·수산품","category":"food"},{"name":"부평상회","tel":"032-423-8914","addr":"경기도 부천시 중동 736-20번지 1층","indutype":"음료식품 - 농·축·수산품","category":"food"}]},{"lat":"37.487012555","long":"126.76927145","imageIndex":7,"items":[{"name":"금산홍삼직거래장","tel":"032-326-7791","addr":"경기도 부천시 중동 858-1번지 1층","indutype":"건강식품 - 홍삼제품","category":"food"}]},{"lat":"37.501456884","long":"126.77460953","imageIndex":7,"items":[{"name":"김오곤다이어트","tel":"","addr":"경기도 부천시 중동 1138번지 호정프라자 502호내 S-17호","indutype":"건강식품 - 기타건강식품","category":"food"}]},{"lat":"37.501011384","long":"126.75907242","imageIndex":7,"items":[{"name":"김포쌀직판장","tel":"032-325-4885","addr":"경기도 부천시 중동 1170번지 삼보상가지하 43호","indutype":"음료식품 - 미곡상","category":"food"},{"name":"농협쌀","tel":"032-325-3744","addr":"경기도 부천시 중동 1170삼보상가B21호","indutype":"음료식품 - 미곡상","category":"food"},{"name":"다도수산","tel":"032-325-0500","addr":"경기도 부천시 중동 1170번지 삼보상가지1층B28호","indutype":"음료식품 - 농·축·수산품","category":"food"},{"name":"밀&미과자점","tel":"032-321-0472","addr":"경기도 부천시 중동 1170번지 삼보상가117,지하B18호","indutype":"음료식품 - 제과점","category":"food"},{"name":"진미즉석반찬","tel":"032-322-5934","addr":"경기도 부천시 중동 1170번지 삼모종합상가 B층 47,48호","indutype":"음료식품 - 기타음료식품","category":"food"},{"name":"태산유통","tel":"032-226-9959","addr":"경기도 부천시 중동 1170번지 포도마을 삼보,영남아파트","indutype":"음료식품 - 농·축·수산품","category":"food"},{"name":"하늘청과","tel":"032-321-0145","addr":"경기도 부천시 중동 1170 포도마을삼보상가 119","indutype":"음료식품 - 농·축·수산품","category":"food"},{"name":"한우일번가","tel":"032-325-0537","addr":"경기도 부천시 중동 1170삼보상가지층24호","indutype":"음료식품 - 정육점","category":"food"}]},{"lat":"37.508041664","long":"126.77385434","imageIndex":7,"items":[{"name":"꿈빛","tel":"","addr":"경기도 부천시 중동 1051-8번지 지하1층","indutype":"음료식품 - 기타음료식품","category":"food"}]},{"lat":"37.494814169","long":"126.76427163","imageIndex":7,"items":[{"name":"낙원떡집","tel":"032-668-8080","addr":"경기도 부천시 중동 725-11번지","indutype":"음료식품 - 제과점","category":"food"}]},{"lat":"37.505206811","long":"126.7709112","imageIndex":7,"items":[{"name":"낙원방아간","tel":"032-322-0664","addr":"경기도 부천시 중동 1055","indutype":"음료식품 - 제과점","category":"food"},{"name":"부천영농채소","tel":"032-328-8850","addr":"경기도 부천시 중동 1055 중흥마을신동아영남상가지하4호","indutype":"음료식품 - 농·축·수산품","category":"food"}]},{"lat":"37.492095418","long":"126.76991146","imageIndex":7,"items":[{"name":"네이처 녹즙","tel":"031-000-0000","addr":"경기도 부천시 중동 775-25번지 1층","indutype":"건강식품 - 기타건강식품","category":"food"}]},{"lat":"37.501513666","long":"126.77602299","imageIndex":7,"items":[{"name":"농협홍삼중동점","tel":"070-7725-0406","addr":"경기도 부천시 중동 1140-3번지 트리플타워 B동 108호","indutype":"건강식품 - 기타건강식품","category":"food"}]},{"lat":"37.504339059","long":"126.7694889","imageIndex":7,"items":[{"name":"늘푸른건강식품","tel":"032-326-1361","addr":"경기도 부천시 중동 1056번지 중동제일프라자 104호","indutype":"건강식품 - 기타건강식품","category":"food"},{"name":"파리바게뜨부천중흥마을","tel":"032-321-0868","addr":"경기도 부천시 중동 1056번지 제일프라자 105호","indutype":"음료식품 - 제과점","category":"food"}]},{"lat":"37.497729828","long":"126.77619275","imageIndex":7,"items":[{"name":"다사랑","tel":"032-328-2000","addr":"경기도 부천시 중동 1130-8번지 금강프라자 104호","indutype":"음료식품 - 정육점","category":"food"}]},{"lat":"37.493264358","long":"126.76422002","imageIndex":7,"items":[{"name":"다온청과","tel":"032-111-1111","addr":"경기도 부천시 중동 768번지","indutype":"음료식품 - 농·축·수산품","category":"food"},{"name":"미성유통","tel":"032-655-4843","addr":"경기도 부천시 중동 768번지 1층","indutype":"음료식품 - 정육점","category":"food"},{"name":"부여상회","tel":"02-0000-0000","addr":"경기도 부천시 중동 768번지","indutype":"음료식품 - 농·축·수산품","category":"food"},{"name":"신용쌀상회","tel":"032-664-7784","addr":"경기도 부천시 중동 768번지","indutype":"음료식품 - 미곡상","category":"food"},{"name":"직거래상회 농산물","tel":"","addr":"경기도 부천시 중동 768번지","indutype":"음료식품 - 농·축·수산품","category":"food"}]},{"lat":"37.494147667","long":"126.76438683","imageIndex":7,"items":[{"name":"닭이랑","tel":"032-612-5014","addr":"경기도 부천시 중동 736-7번지","indutype":"음료식품 - 농·축·수산품","category":"food"}]},{"lat":"37.498899288","long":"126.77996629","imageIndex":7,"items":[{"name":"담아담아 부천점","tel":"070-7872-4298","addr":"경기도 부천시 중동 1102번지","indutype":"음료식품 - 제과점","category":"food"}]},{"lat":"37.492904009","long":"126.76424378","imageIndex":7,"items":[{"name":"대농건강원","tel":"032-655-2626","addr":"경기도 부천시 중동 769-13번지","indutype":"건강식품 - 기타건강식품","category":"food"}]},{"lat":"37.49486873","long":"126.76452023","imageIndex":7,"items":[{"name":"대박수산","tel":"032-661-5362","addr":"경기도 부천시 중동 724번지 103호 코너","indutype":"음료식품 - 농·축·수산품","category":"food"},{"name":"중동건어물","tel":"032-654-8362","addr":"경기도 부천시 중동 724.1층102호","indutype":"음료식품 - 농·축·수산품","category":"food"}]},{"lat":"37.509844704","long":"126.76083072","imageIndex":7,"items":[{"name":"대박웰빙야채","tel":"032-324-9742","addr":"경기도 부천시 중동 1027번지 한라마을주공3차아파트","indutype":"음료식품 - 농·축·수산품","category":"food"},{"name":"양파창고","tel":"","addr":"경기도 부천시 중동 1027번지 한라마을주공3차아파트","indutype":"음료식품 - 농·축·수산품","category":"food"}]},{"lat":"37.502340299","long":"126.7702189","imageIndex":7,"items":[{"name":"대성유통","tel":"032-327-6664","addr":"경기도 부천시 중동 1150-9번지 삼성프라자 지하 01호","indutype":"음료식품 - 기타음료식품","category":"food"}]},{"lat":"37.486766341","long":"126.77235896","imageIndex":7,"items":[{"name":"대우부동산","tel":"032-652-8955","addr":"경기도 부천시 중동 794-5번지","indutype":"음료식품 - 기타음료식품","category":"food"}]},{"lat":"37.494264841","long":"126.76440907","imageIndex":7,"items":[{"name":"대원어묵","tel":"031-0000-000","addr":"경기도 부천시 중동 736-6번지 1층 일부","indutype":"음료식품 - 기타음료식품","category":"food"},{"name":"현대한우","tel":"032-662-8020","addr":"경기도 부천시 중동 736-6번지","indutype":"음료식품 - 정육점","category":"food"}]},{"lat":"37.502760463","long":"126.77313537","imageIndex":7,"items":[{"name":"대지상회","tel":"032-323-0090","addr":"경기도 부천시 중동 1141-2번지 프리머스부천타워 1층 118호","indutype":"음료식품 - 농·축·수산품","category":"food"}]},{"lat":"37.509623704","long":"126.76291251","imageIndex":7,"items":[{"name":"대흥유통","tel":"","addr":"경기도 부천시 중동 1028번지 한라마을주공1,2단지","indutype":"음료식품 - 농·축·수산품","category":"food"},{"name":"웰빙건강원","tel":"032-325-0606","addr":"경기도 부천시 중동 1028번지 한라 상가 106호","indutype":"건강식품 - 기타건강식품","category":"food"}]},{"lat":"37.502590761","long":"126.76035653","imageIndex":7,"items":[{"name":"더건강한반찬","tel":"032-321-8851","addr":"경기도 부천시 중동 1168-1번지 디아뜨 1층 114호","indutype":"음료식품 - 기타음료식품","category":"food"}]},{"lat":"37.50128608","long":"126.77018825","imageIndex":7,"items":[{"name":"더마시쩡(중동점)","tel":"032-325-8877","addr":"경기도 부천시 중동 1152-3번지 메트로팰리스 B동 1층 104호","indutype":"음료식품 - 기타음료식품","category":"food"}]},{"lat":"37.504118309","long":"126.76721639","imageIndex":7,"items":[{"name":"더베이크부천시청역점","tel":"032-321-3323","addr":"경기도 부천시 중동 1243번지 부천시청역 1층 1002호","indutype":"음료식품 - 제과점","category":"food"}]},{"lat":"37.495009456","long":"126.7765176","imageIndex":7,"items":[{"name":"덕유산한우","tel":"032-321-9200","addr":"경기도 부천시 중동 1122번지 1층 103호","indutype":"음료식품 - 정육점","category":"food"},{"name":"부천희망나르미","tel":"032-653-6121","addr":"경기도 부천시 중동 1122번지 403호","indutype":"음료식품 - 미곡상","category":"food"}]},{"lat":"37.493678972","long":"126.76429786","imageIndex":7,"items":[{"name":"델리퀸부천중동시장점","tel":"032-254-0063","addr":"경기도 부천시 중동 756-1번지 1층","indutype":"음료식품 - 정육점","category":"food"},{"name":"수라찬반","tel":"02-000-0000","addr":"경기도 부천시 중동 756-1번지 1층 점포 한칸","indutype":"음료식품 - 기타음료식품","category":"food"}]},{"lat":"37.494458139","long":"126.76644389","imageIndex":7,"items":[{"name":"동해수산","tel":"","addr":"경기도 부천시 중동 719-14번지","indutype":"음료식품 - 농·축·수산품","category":"food"},{"name":"동해수산","tel":"","addr":"경기도 부천시 중동 719-14번지","indutype":"음료식품 - 농·축·수산품","category":"food"}]},{"lat":"37.506981485","long":"126.77076999","imageIndex":7,"items":[{"name":"동화청과","tel":"032-325-3743","addr":"경기도 부천시 중동 1052-3번지 중흥마을주공 상가 102호","indutype":"음료식품 - 농·축·수산품","category":"food"}]},{"lat":"37.501117624","long":"126.77157977","imageIndex":7,"items":[{"name":"두총각네축산","tel":"032-323-2728","addr":"경기도 부천시 중동 1145-2번지 네이버시티빌딩 1동 101호","indutype":"음료식품 - 정육점","category":"food"},{"name":"파리바게뜨중동미리내점","tel":"032-582-0404","addr":"경기도 부천시 중동 1145-2 네이버시티빌딩105호,113호","indutype":"음료식품 - 제과점","category":"food"},{"name":"행복축산","tel":"032-324-6680","addr":"경기도 부천시 중동 1145-2번지 네이버시티빌딩 103호","indutype":"음료식품 - 정육점","category":"food"},{"name":"허브영양다이어트체험관","tel":"032-322-6897","addr":"경기도 부천시 중동 1145-2번지 네이버시티빌딩 2층 204호","indutype":"회원제형태 - 건강식품","category":"food"}]},{"lat":"37.506839876","long":"126.77207106","imageIndex":7,"items":[{"name":"두총각네축산","tel":"032-323-1282","addr":"경기도 부천시 중동 1052-2번지 103호","indutype":"음료식품 - 정육점","category":"food"}]},{"lat":"37.496508826","long":"126.7784694","imageIndex":7,"items":[{"name":"디떡","tel":"032-620-3765","addr":"경기도 부천시 중동 1114번지 두산더스테이트 상가 9동 212호","indutype":"음료식품 - 제과점","category":"food"}]},{"lat":"37.504568984","long":"126.77652267","imageIndex":7,"items":[{"name":"디유도네(DIEUDONNE)","tel":"","addr":"경기도 부천시 중동 1065번지","indutype":"음료식품 - 제과점","category":"food"}]},{"lat":"37.494904336","long":"126.76430527","imageIndex":7,"items":[{"name":"땅스부대찌개","tel":"031-111-1111","addr":"경기도 부천시 중동 725-10번지 5호","indutype":"음료식품 - 기타음료식품","category":"food"},{"name":"싱싱","tel":"031-977-7026","addr":"경기도 부천시 중동 725-10번지 1층","indutype":"음료식품 - 농·축·수산품","category":"food"}]},{"lat":"37.494452264","long":"126.76352646","imageIndex":7,"items":[{"name":"떡고을","tel":"032-665-6921","addr":"경기도 부천시 중동 734-7번지","indutype":"음료식품 - 제과점","category":"food"}]},{"lat":"37.497428254","long":"126.76938601","imageIndex":7,"items":[{"name":"떡보의하루(중동점)","tel":"032-223-1582","addr":"경기도 부천시 중동 1182번지 그린타운 102호 상가동","indutype":"음료식품 - 제과점","category":"food"}]},{"lat":"37.496673974","long":"126.76168743","imageIndex":7,"items":[{"name":"뚜레쥬르 부천순천향","tel":"032-662-8808","addr":"경기도 부천시 중동 679-5번지","indutype":"음료식품 - 제과점","category":"food"}]},{"lat":"37.505199849","long":"126.76291536","imageIndex":7,"items":[{"name":"뚜레쥬르 부천은하","tel":"032-321-0450","addr":"경기도 부천시 중동 1031-3번지","indutype":"음료식품 - 제과점","category":"food"}]},{"lat":"37.503895001","long":"126.77276999","imageIndex":7,"items":[{"name":"뚜레쥬르 부천중흥마을","tel":"032-323-6428","addr":"경기도 부천시 중동 1058-1.106.107호","indutype":"음료식품 - 제과점","category":"food"},{"name":"이슬로","tel":"032-327-2017","addr":"경기도 부천시 중동 1058-1번지 신명타운 304호","indutype":"음료식품 - 농·축·수산품","category":"food"}]},{"lat":"37.500901054","long":"126.7807972","imageIndex":7,"items":[{"name":"뚜레쥬르 중동꿈마을(3)","tel":"032-613-6145","addr":"경기도 부천시 중동 1089-7번지 1층","indutype":"음료식품 - 제과점","category":"food"}]},{"lat":"37.507983458","long":"126.77637664","imageIndex":7,"items":[{"name":"뚜레쥬르 중동래미안","tel":"032-674-7973","addr":"경기도 부천시 중동 1293-1 래미안부천중동 113동103,104호","indutype":"음료식품 - 제과점","category":"food"},{"name":"알콩달콩반찬","tel":"032-683-2900","addr":"경기도 부천시 중동 1293-1번지 래미안부천중동 113동 112호","indutype":"음료식품 - 기타음료식품","category":"food"}]},{"lat":"37.492486177","long":"126.76704941","imageIndex":7,"items":[{"name":"뚜레쥬르 중동팰리스카운티점","tel":"032-665-0092","addr":"경기도 부천시 중동 773-20번지 1층","indutype":"음료식품 - 제과점","category":"food"}]},{"lat":"37.501758518","long":"126.77218848","imageIndex":7,"items":[{"name":"뚱아재","tel":"","addr":"경기도 부천시 중동 1143번지 신일아르디세 804호","indutype":"음료식품 - 기타음료식품","category":"food"},{"name":"착한사랑가게 중동점","tel":"032-666-1288","addr":"경기도 부천시 중동 1143번지 푸르지오 상가 1층 107호","indutype":"건강식품 - 기타건강식품","category":"food"}]},{"lat":"37.502786833","long":"126.77279601","imageIndex":7,"items":[{"name":"라메짜루나 부천점","tel":"032-322-8540","addr":"경기도 부천시 중동 1141-1번지 무광오피스빌딩 103호","indutype":"음료식품 - 제과점","category":"food"}]},{"lat":"37.502979205","long":"126.76085288","imageIndex":7,"items":[{"name":"레드버켓","tel":"031-742-7249","addr":"경기도 부천시 중동 1167-3번지 파크리움 104호","indutype":"음료식품 - 기타음료식품","category":"food"},{"name":"장독대 파크리움상가점","tel":"032-323-0330","addr":"경기도 부천시 중동 1167-3번지 파크리움 상가 102호","indutype":"음료식품 - 기타음료식품","category":"food"}]},{"lat":"37.494952503","long":"126.76585431","imageIndex":7,"items":[{"name":"로데로과일","tel":"032-0000-0000","addr":"경기도 부천시 중동 715-1번지","indutype":"음료식품 - 농·축·수산품","category":"food"}]},{"lat":"37.501428015","long":"126.77365967","imageIndex":7,"items":[{"name":"롤링핀(부천중동점)","tel":"032-324-9779","addr":"경기도 부천시 중동 1143-4번지 중동파크타운 1층 107호","indutype":"음료식품 - 제과점","category":"food"}]},{"lat":"37.505235199","long":"126.76257596","imageIndex":7,"items":[{"name":"롯데리아부천시청역점","tel":"032-321-7704","addr":"경기도 부천시 중동 1031-2번지 골든벨타워 107호~109호","indutype":"음료식품 - 제과점","category":"food"}]},{"lat":"37.502680385","long":"126.77365584","imageIndex":7,"items":[{"name":"릴리롱","tel":"","addr":"경기도 부천시 중동 1141-3번지 헤리움메트로타워 1층 121호","indutype":"음료식품 - 기타음료식품","category":"food"},{"name":"서민반찬","tel":"032-329-0949","addr":"경기도 부천시 중동 1141-3번지 신중동역헤리움메트로타워 115호","indutype":"음료식품 - 기타음료식품","category":"food"}]},{"lat":"37.497374503","long":"126.7788513","imageIndex":7,"items":[{"name":"마인츠돔부천더스테이트몰점","tel":"032-621-8836","addr":"경기도 부천시 중동 1112번지 위브더스테이트 8동 101호","indutype":"음료식품 - 제과점","category":"food"},{"name":"주식회사 마르튀스컴퍼니","tel":"031-1111-1111","addr":"경기도 부천시 중동 1112번지 위브더스테이트 상가 8동 310호","indutype":"음료식품 - 기타음료식품","category":"food"}]},{"lat":"37.500006925","long":"126.77965766","imageIndex":7,"items":[{"name":"만나 반찬","tel":"032-327-4334","addr":"경기도 부천시 중동 1103번지 111호","indutype":"음료식품 - 기타음료식품","category":"food"}]},{"lat":"37.494182036","long":"126.76805048","imageIndex":7,"items":[{"name":"만석농산","tel":"032-342-9809","addr":"경기도 부천시 중동 1186번지 복사골마을 건영아이숲,건영캐스빌아파트","indutype":"음료식품 - 농·축·수산품","category":"food"}]},{"lat":"37.49898527","long":"126.77779478","imageIndex":7,"items":[{"name":"맘앤팜","tel":"070-4155-8592","addr":"경기도 부천시 중동 1110번지 제상가 5동 124호","indutype":"음료식품 - 정육점","category":"food"},{"name":"사도락","tel":"070-8181-6272","addr":"경기도 부천시 중동 1110번지","indutype":"음료식품 - 기타음료식품","category":"food"},{"name":"수라찬방","tel":"032-620-5590","addr":"경기도 부천시 중동 1110번지 위브더스테이트 상가5동 224호 2층","indutype":"음료식품 - 기타음료식품","category":"food"},{"name":"파리바게뜨 중동위브점","tel":"032-621-8204","addr":"경기도 부천시 중동 1110번지 위브더스테이트 상가 5동 112호","indutype":"음료식품 - 제과점","category":"food"},{"name":"현미랑깜밥이랑","tel":"032-325-9587","addr":"경기도 부천시 중동 1110번지 위브더스테이트 5동 221호","indutype":"음료식품 - 기타음료식품","category":"food"}]},{"lat":"37.49406651","long":"126.76435316","imageIndex":7,"items":[{"name":"맛있는반찬이야기","tel":"032-611-7455","addr":"경기도 부천시 중동 736-2번지 1층","indutype":"음료식품 - 기타음료식품","category":"food"},{"name":"완도건어물","tel":"032-657-4102","addr":"경기도 부천시 중동 736-2번지","indutype":"음료식품 - 농·축·수산품","category":"food"}]},{"lat":"37.500011877","long":"126.77752029","imageIndex":7,"items":[{"name":"메종블랑제","tel":"032-621-7009","addr":"경기도 부천시 중동 1109번지 위브더스테이트 제상가 3동 101호","indutype":"음료식품 - 제과점","category":"food"},{"name":"설송원 부천중동위브점","tel":"032-620-5998","addr":"경기도 부천시 중동 1109번지 위브더스테이트제상가 3동 114호","indutype":"음료식품 - 제과점","category":"food"}]},{"lat":"37.494286684","long":"126.76185342","imageIndex":7,"items":[{"name":"모녀부각","tel":"070-4001-5696","addr":"경기도 부천시 중동 733-5번지","indutype":"음료식품 - 기타음료식품","category":"food"}]},{"lat":"37.495094432","long":"126.76474568","imageIndex":7,"items":[{"name":"모아카레","tel":"","addr":"경기도 부천시 중동 709-6번지 지하1층 일부","indutype":"음료식품 - 기타음료식품","category":"food"},{"name":"신앙촌상회 중동점","tel":"032-324-1440","addr":"경기도 부천시 중동 709-6번지 1층","indutype":"음료식품 - 기타음료식품","category":"food"}]},{"lat":"37.501126194","long":"126.78073999","imageIndex":7,"items":[{"name":"미니(mini)","tel":"","addr":"경기도 부천시 중동 1089-5번지","indutype":"음료식품 - 기타음료식품","category":"food"}]},{"lat":"37.500869031","long":"126.77346912","imageIndex":7,"items":[{"name":"미당떡전문점","tel":"032-323-8545","addr":"경기도 부천시 중동 1144-4번지 탑프라자 106호","indutype":"음료식품 - 제과점","category":"food"},{"name":"임현정끌리메뷰티테라피","tel":"032-323-7666","addr":"경기도 부천시 중동 1144-4번지 탑프라자 3층 303호","indutype":"건강식품 - 기타건강식품","category":"food"},{"name":"태림티앤씨 (태림T&C)","tel":"032-321-0311","addr":"경기도 부천시 중동 1144-4번지 탑프라자 706-1호","indutype":"음료식품 - 정육점","category":"food"}]},{"lat":"37.500259001","long":"126.77021405","imageIndex":7,"items":[{"name":"미리내방앗간","tel":"032-323-4543","addr":"경기도 부천시 중동 1178","indutype":"음료식품 - 제과점","category":"food"}]},{"lat":"37.495761162","long":"126.76474356","imageIndex":7,"items":[{"name":"믿음야채","tel":"032-653-9582","addr":"경기도 부천시 중동 712-6번지","indutype":"음료식품 - 농·축·수산품","category":"food"},{"name":"중동떡집","tel":"032-655-7752","addr":"경기도 부천시 중동 712-6번지","indutype":"음료식품 - 제과점","category":"food"},{"name":"파리바게트","tel":"032-656-5150","addr":"경기도 부천시 중동 712-6번지 1층","indutype":"음료식품 - 제과점","category":"food"}]},{"lat":"37.495562786","long":"126.76466503","imageIndex":7,"items":[{"name":"믿음종합유통","tel":"032-321-3044","addr":"경기도 부천시 중동 711번지 동양빌라 앞포장건물 가동 202호","indutype":"음료식품 - 농·축·수산품","category":"food"},{"name":"조아수산","tel":"032-652-2243","addr":"경기도 부천시 중동 711번지 동양빌라 가동 101호","indutype":"음료식품 - 농·축·수산품","category":"food"}]},{"lat":"37.489847322","long":"126.76757784","imageIndex":7,"items":[{"name":"바를정육점","tel":"","addr":"경기도 부천시 중동 1289번지 110호","indutype":"음료식품 - 정육점","category":"food"},{"name":"반찬에반하다","tel":"02-1111-1111","addr":"경기도 부천시 중동 1289번지 대림정문 상가동 105호","indutype":"음료식품 - 기타음료식품","category":"food"},{"name":"주식회사 떡구름","tel":"070-0000-0000","addr":"경기도 부천시 중동 1289번지 현대아이파크 상가 2층 212호","indutype":"음료식품 - 제과점","category":"food"},{"name":"중동유통","tel":"070-4313-1631","addr":"경기도 부천시 중동 1289번지 팰리스카운티 114동 301호","indutype":"음료식품 - 미곡상","category":"food"}]},{"lat":"37.501541353","long":"126.77171417","imageIndex":7,"items":[{"name":"반듯한찬거리","tel":"032-652-0671","addr":"경기도 부천시 중동 1146-4번지 무광프라자 101호","indutype":"음료식품 - 기타음료식품","category":"food"},{"name":"빈스로그(Beanslog)","tel":"032-665-3343","addr":"경기도 부천시 중동 1146-4번지 무광프라자 305호","indutype":"음료식품 - 기타음료식품","category":"food"},{"name":"한국인삼열매공사(주)","tel":"032-327-2304","addr":"경기도 부천시 중동 1146-4번지 무광프라자 201호","indutype":"건강식품 - 기타건강식품","category":"food"},{"name":"한우랑돼지랑","tel":"032-326-8066","addr":"경기도 부천시 중동 1146-4번지 무광프라자","indutype":"음료식품 - 정육점","category":"food"}]},{"lat":"37.502093835","long":"126.76410145","imageIndex":7,"items":[{"name":"백련농산","tel":"","addr":"경기도 부천시 중동 1160-3번지 필레오트윈파크2동 803호","indutype":"음료식품 - 농·축·수산품","category":"food"},{"name":"뺑드파르크","tel":"032-322-4800","addr":"경기도 부천시 중동 1160-3번지 필레오트윈파크2동 109호","indutype":"음료식품 - 제과점","category":"food"},{"name":"한입의축복","tel":"","addr":"경기도 부천시 중동 1160-3번지 필레오트윈파크2동 114호","indutype":"음료식품 - 기타음료식품","category":"food"}]},{"lat":"37.503036612","long":"126.76249254","imageIndex":7,"items":[{"name":"베스킨라빈스","tel":"032-327-3155","addr":"경기도 부천시 중동 1162-4,5중동프라자108,109,116호","indutype":"음료식품 - 제과점","category":"food"}]},{"lat":"37.5001251696","long":"126.7755182914","imageIndex":7,"items":[{"name":"베스킨라빈스중동점","tel":"032-325-0041","addr":"경기도 부천시 중동 1133-13,14번지 107","indutype":"음료식품 - 제과점","category":"food"}]},{"lat":"37.487487725","long":"126.76808274","imageIndex":7,"items":[{"name":"본가 Food","tel":"","addr":"경기도 부천시 중동 802번지 A동 1층 9호","indutype":"음료식품 - 농·축·수산품","category":"food"}]},{"lat":"37.502845183","long":"126.76585198","imageIndex":7,"items":[{"name":"부천시청직장금고","tel":"032-625-8368","addr":"경기도 부천시 중동 1156번지","indutype":"음료식품 - 기타음료식품","category":"food"},{"name":"엠에스리테일 주식회사(부천지점)","tel":"032-625-8364","addr":"경기도 부천시 중동 1156번지 부천시청 지하1층 휴게마당","indutype":"음료식품 - 기타음료식품","category":"food"},{"name":"전국민주공무원노동조합 경기지역본부 부천","tel":"032-625-3600","addr":"경기도 부천시 중동 1156번지 부천시청","indutype":"음료식품 - 기타음료식품","category":"food"}]},{"lat":"37.513506506","long":"126.76268518","imageIndex":7,"items":[{"name":"부천체육관 매점","tel":"","addr":"경기도 부천시 중동 1024번지","indutype":"음료식품 - 기타음료식품","category":"food"}]},{"lat":"37.503342003","long":"126.78040546","imageIndex":7,"items":[{"name":"부천한우직판장","tel":"032-327-1414","addr":"경기도 부천시 중동 1085-8번지 1층","indutype":"음료식품 - 정육점","category":"food"}]},{"lat":"37.503231003","long":"126.76957151","imageIndex":7,"items":[{"name":"블루밍스토리","tel":"","addr":"경기도 부천시 중동 1149번지 1층 105B호","indutype":"음료식품 - 기타음료식품","category":"food"},{"name":"스윗 플래닛","tel":"","addr":"경기도 부천시 중동 1149번지 부천중동리슈빌엔클래스 105-B호","indutype":"음료식품 - 기타음료식품","category":"food"}]},{"lat":"37.493066027","long":"126.76416411","imageIndex":7,"items":[{"name":"빛고을수산","tel":"032-611-7158","addr":"경기도 부천시 중동 769-10번지 1층","indutype":"음료식품 - 농·축·수산품","category":"food"}]},{"lat":"37.487952584","long":"126.76624956","imageIndex":7,"items":[{"name":"뻥튀기뻥사랑","tel":"03-254-8764","addr":"경기도 부천시 중동 807번지 1층 32호","indutype":"음료식품 - 기타음료식품","category":"food"},{"name":"소백농산","tel":"032-715-5154","addr":"경기도 부천시 중동 807번지 1층 2호","indutype":"음료식품 - 농·축·수산품","category":"food"},{"name":"종합가판점","tel":"032-655-4879","addr":"경기도 부천시 중동 807번지","indutype":"음료식품 - 기타음료식품","category":"food"}]},{"lat":"37.498315818","long":"126.7626886","imageIndex":7,"items":[{"name":"사랑의집","tel":"","addr":"경기도 부천시 중동 1174번지 순천향대학교부천병원","indutype":"음료식품 - 기타음료식품","category":"food"},{"name":"파리바게뜨 부천순천향","tel":"032-322-6061","addr":"경기도 부천시 중동 1174번지 순천향대학교부천병원 지하1층","indutype":"음료식품 - 제과점","category":"food"}]},{"lat":"37.504400875","long":"126.76885538","imageIndex":7,"items":[{"name":"사랑찬","tel":"032-323-7778","addr":"경기도 부천시 중동 1035-3번지 중동메디칼 102,103호","indutype":"음료식품 - 기타음료식품","category":"food"}]},{"lat":"37.503761787","long":"126.77376563","imageIndex":7,"items":[{"name":"사르르르랩(Sarrr-LAB)","tel":"","addr":"경기도 부천시 중동 1058-4번지 서호빌딩 104호","indutype":"음료식품 - 제과점","category":"food"}]},{"lat":"37.497119297","long":"126.76357449","imageIndex":7,"items":[{"name":"새미래","tel":"032-611-2245","addr":"경기도 부천시 중동 590-14번지","indutype":"음료식품 - 기타음료식품","category":"food"}]},{"lat":"37.492846571","long":"126.76704828","imageIndex":7,"items":[{"name":"새부천","tel":"032-661-2600","addr":"경기도 부천시 중동 772번지 유림빌딩 6층","indutype":"건강식품 - 기타건강식품","category":"food"}]},{"lat":"37.495014967","long":"126.77941244","imageIndex":7,"items":[{"name":"생강부엌","tel":"","addr":"경기도 부천시 중동 1116번지 리첸시아 1층 102호","indutype":"음료식품 - 기타음료식품","category":"food"}]},{"lat":"37.501401623","long":"126.76938495","imageIndex":7,"items":[{"name":"생고기정육도매센타","tel":"032-328-4592","addr":"경기도 부천시 중동 1152-1번지 루미아트클래식 112호","indutype":"음료식품 - 정육점","category":"food"},{"name":"생고기정육도매센타","tel":"032-328-4592","addr":"경기도 부천시 중동 1152-1루미아트클래식112-2호","indutype":"음료식품 - 정육점","category":"food"},{"name":"주식회사 콜포유","tel":"02-1877-1057","addr":"경기도 부천시 중동 1152-1번지 루미아트클래식 205호","indutype":"음료식품 - 기타음료식품","category":"food"}]},{"lat":"37.4988992882","long":"126.7799662926","imageIndex":7,"items":[{"name":"생생정육점","tel":"032-611-2656","addr":"경기도 부천시 중동 1102번지 102호","indutype":"음료식품 - 정육점","category":"food"}]},{"lat":"37.493844809","long":"126.7616626","imageIndex":7,"items":[{"name":"서울우유부천중동대리점","tel":"032-665-4945","addr":"경기도 부천시 중동 761-19번지","indutype":"음료식품 - 기타음료식품","category":"food"}]},{"lat":"37.495735089","long":"126.76521858","imageIndex":7,"items":[{"name":"설악산건강원","tel":"032-654-6184","addr":"경기도 부천시 중동 712번지","indutype":"건강식품 - 기타건강식품","category":"food"}]},{"lat":"37.494819842","long":"126.77165573","imageIndex":7,"items":[{"name":"성모 수 비타민","tel":"032-661-7588","addr":"경기도 부천시 중동 1208-4번지 202호","indutype":"건강식품 - 기타건강식품","category":"food"}]},{"lat":"37.507478892","long":"126.76716059","imageIndex":7,"items":[{"name":"세계과일","tel":"032-000-0000","addr":"경기도 부천시 중동 1039-1번지 은하상가 1층 102호 뒤편","indutype":"음료식품 - 농·축·수산품","category":"food"},{"name":"우리동네식빵","tel":"","addr":"경기도 부천시 중동 1039-1번지 102호","indutype":"음료식품 - 제과점","category":"food"},{"name":"풍년정육점","tel":"032-324-5780","addr":"경기도 부천시 중동 1039-1번지","indutype":"음료식품 - 정육점","category":"food"}]},{"lat":"37.50373202","long":"126.77702281","imageIndex":7,"items":[{"name":"세노야","tel":"","addr":"경기도 부천시 중동 1063-4번지 1층","indutype":"음료식품 - 주류 판매점","category":"food"}]},{"lat":"37.496569763","long":"126.7773497","imageIndex":7,"items":[{"name":"슈어라이프","tel":"032-664-6414","addr":"경기도 부천시 중동 1125.103","indutype":"음료식품 - 기타음료식품","category":"food"}]},{"lat":"37.501674705","long":"126.77079773","imageIndex":7,"items":[{"name":"슈퍼펩","tel":"032-325-4962","addr":"경기도 부천시 중동 1146-7번지 신풍프라자 3층","indutype":"건강식품 - 기타건강식품","category":"food"}]},{"lat":"37.498450921","long":"126.77634889","imageIndex":7,"items":[{"name":"스타푸드","tel":"032-503-5250","addr":"경기도 부천시 중동 1130-14번지 3층 12-3호","indutype":"음료식품 - 기타음료식품","category":"food"},{"name":"주식회사 스타에프앤비","tel":"032-503-5250","addr":"경기도 부천시 중동 1130-14번지 3층 9-4호","indutype":"음료식품 - 기타음료식품","category":"food"},{"name":"커피샴바(COFFEE SHAMBA)","tel":"032-566-4212","addr":"경기도 부천시 중동 1130-14번지 3층 301호일부 15-7","indutype":"음료식품 - 기타음료식품","category":"food"},{"name":"해피실버트리","tel":"","addr":"경기도 부천시 중동 1130-14번지 3층","indutype":"음료식품 - 기타음료식품","category":"food"}]},{"lat":"37.497260773","long":"126.77591146","imageIndex":7,"items":[{"name":"시원달콤","tel":"02-1111-1111","addr":"경기도 부천시 중동 1128번지 그린프라자 107호","indutype":"음료식품 - 기타음료식품","category":"food"},{"name":"정감 떡방","tel":"032-327-8585","addr":"경기도 부천시 중동 1128번지 그린프라자 106호","indutype":"음료식품 - 제과점","category":"food"}]},{"lat":"37.494008528","long":"126.76688631","imageIndex":7,"items":[{"name":"신나는점핑다이어트","tel":"032-652-2464","addr":"경기도 부천시 중동 749-16번지 3층","indutype":"건강식품 - 기타건강식품","category":"food"}]},{"lat":"37.501206148","long":"126.77077656","imageIndex":7,"items":[{"name":"신라명과부천중동점","tel":"032-321-0880","addr":"경기도 부천시 중동 1145번지 메트로펠리스 2-A동 110호","indutype":"음료식품 - 제과점","category":"food"},{"name":"아부찌부대찌개신중동점","tel":"032-322-0232","addr":"경기도 부천시 중동 1145번지 매트로펠리스II-A 1층 107호","indutype":"음료식품 - 기타음료식품","category":"food"}]},{"lat":"37.50290235","long":"126.77197009","imageIndex":7,"items":[{"name":"신영상사","tel":"","addr":"경기도 부천시 중동 1148-2번지 108,109호","indutype":"음료식품 - 기타음료식품","category":"food"},{"name":"참다한 홍삼 부천중동점","tel":"032-321-0203","addr":"경기도 부천시 중동 1148-2번지 중동대우마이빌2 1층 111호","indutype":"건강식품 - 홍삼제품","category":"food"}]},{"lat":"37.503151942","long":"126.76161004","imageIndex":7,"items":[{"name":"신중동건강생활","tel":"032-322-9223","addr":"경기도 부천시 중동 1162-1번지 화이트밸리 8층 805호","indutype":"건강식품 - 기타건강식품","category":"food"},{"name":"주식회사 휴이엠컴퍼니","tel":"032-328-2244","addr":"경기도 부천시 중동 1162-1번지 602호 ,603,505호","indutype":"음료식품 - 기타음료식품","category":"food"}]},{"lat":"37.495424481","long":"126.76310496","imageIndex":7,"items":[{"name":"신토불이건강원","tel":"032-653-8843","addr":"경기도 부천시 중동 684-11번지","indutype":"건강식품 - 기타건강식품","category":"food"}]},{"lat":"37.508843692","long":"126.76932784","imageIndex":7,"items":[{"name":"쏠레이유부엌","tel":"032-329-9933","addr":"경기도 부천시 중동 1040-6번지 광석센터 104호","indutype":"음료식품 - 기타음료식품","category":"food"}]},{"lat":"37.499620095","long":"126.77524841","imageIndex":7,"items":[{"name":"아기얌얌","tel":"070-8820-2626","addr":"경기도 부천시 중동 1134-2번지 골드존타워 1층 118호","indutype":"음료식품 - 기타음료식품","category":"food"}]},{"lat":"37.495788648","long":"126.76496963","imageIndex":7,"items":[{"name":"아성슈퍼","tel":"032-654-0584","addr":"경기도 부천시 중동 712-4번지","indutype":"음료식품 - 기타음료식품","category":"food"}]},{"lat":"37.499814745","long":"126.7734045","imageIndex":7,"items":[{"name":"앙금이야기","tel":"032-816-9930","addr":"경기도 부천시 중동 1179번지 미리내마을 상가동 202호","indutype":"음료식품 - 제과점","category":"food"}]},{"lat":"37.487730272","long":"126.76772016","imageIndex":7,"items":[{"name":"야채과일집","tel":"032-662-1582","addr":"경기도 부천시 중동 805-2번지 1층 101호","indutype":"음료식품 - 농·축·수산품","category":"food"},{"name":"한우촌","tel":"032-611-5185","addr":"경기도 부천시 중동 805-2번지 104호","indutype":"음료식품 - 정육점","category":"food"}]},{"lat":"37.50192314","long":"126.77344328","imageIndex":7,"items":[{"name":"에스제이컴퍼니","tel":"032-323-9865","addr":"경기도 부천시 중동 1142-14번지 월드코아 3층 303호","indutype":"음료식품 - 정육점","category":"food"}]},{"lat":"37.48779262","long":"126.76735814","imageIndex":7,"items":[{"name":"엔제이","tel":"032-203-1103","addr":"경기도 부천시 중동 805-1번지 3층 304호","indutype":"건강식품 - 기타건강식품","category":"food"}]},{"lat":"37.496121802","long":"126.76937877","imageIndex":7,"items":[{"name":"연세e소아청소년과케어샵","tel":"032-819-5700","addr":"경기도 부천시 중동 1183번지 한신그린타운 1316동 1902호","indutype":"회원제형태 - 건강식품","category":"food"},{"name":"홍성토종한우","tel":"032-329-4188","addr":"경기도 부천시 중동 1183번지 그린타운 한신상가-104","indutype":"음료식품 - 정육점","category":"food"}]},{"lat":"37.492651884","long":"126.76882419","imageIndex":7,"items":[{"name":"연세대학우유부천대리점","tel":"032-663-7790","addr":"경기도 부천시 중동 774-4","indutype":"음료식품 - 기타음료식품","category":"food"}]},{"lat":"37.493202179","long":"126.76466122","imageIndex":7,"items":[{"name":"연세우유경인특판","tel":"032-612-1175","addr":"경기도 부천시 중동 768-12번지","indutype":"음료식품 - 기타음료식품","category":"food"}]},{"lat":"37.4965397898","long":"126.7805500271","imageIndex":7,"items":[{"name":"연화흑염소","tel":"032-613-4464","addr":"경기도 부천시 중동 1100번지 102호","indutype":"건강식품 - 기타건강식품","category":"food"}]},{"lat":"37.501152844","long":"126.77116123","imageIndex":7,"items":[{"name":"영양사가 차려주는 밥상","tel":"","addr":"경기도 부천시 중동 1145-1번지 매트로펠리스II 107호","indutype":"음료식품 - 기타음료식품","category":"food"}]},{"lat":"37.495626803","long":"126.77426542","imageIndex":7,"items":[{"name":"영지정육점","tel":"032-223-5178","addr":"경기도 부천시 중동 1185-2번지 그린타운한양상가지하6호","indutype":"음료식품 - 정육점","category":"food"}]},{"lat":"37.495346481","long":"126.7646318","imageIndex":7,"items":[{"name":"옛추억민속제과","tel":"070-8140-8351","addr":"경기도 부천시 중동 709-1번지 1층 일부","indutype":"음료식품 - 기타음료식품","category":"food"},{"name":"장터반찬","tel":"032-668-3491","addr":"경기도 부천시 중동 709-1번지 1층","indutype":"음료식품 - 기타음료식품","category":"food"},{"name":"한우고향","tel":"032-653-6320","addr":"경기도 부천시 중동 709-1번지","indutype":"음료식품 - 정육점","category":"food"}]},{"lat":"37.490455763","long":"126.76546146","imageIndex":7,"items":[{"name":"오븐스프링","tel":"032-322-0542","addr":"경기도 부천시 중동 1288번지 팰리스카운티 107호","indutype":"음료식품 - 제과점","category":"food"},{"name":"제이나인","tel":"","addr":"경기도 부천시 중동 1288번지 푸르지오 상가동 2층 214호","indutype":"음료식품 - 기타음료식품","category":"food"},{"name":"카카롱","tel":"032-111-1111","addr":"경기도 부천시 중동 1288번지 팰리스카운티 122호","indutype":"음료식품 - 제과점","category":"food"},{"name":"코코로브래드","tel":"02-2242-0062","addr":"경기도 부천시 중동 1288번지 팰리스카운티 107,108호","indutype":"음료식품 - 제과점","category":"food"}]},{"lat":"37.501429606","long":"126.77918976","imageIndex":7,"items":[{"name":"오엔엔푸드","tel":"032-664-7692","addr":"경기도 부천시 중동 1104번지 꿈마을 삼환,한진아파트","indutype":"음료식품 - 기타음료식품","category":"food"}]},{"lat":"37.496898244","long":"126.77480434","imageIndex":7,"items":[{"name":"오피스커피","tel":"","addr":"경기도 부천시 중동 1184-6번지 그린타운우성2차아파트","indutype":"음료식품 - 기타음료식품","category":"food"}]},{"lat":"37.498541025","long":"126.75827755","imageIndex":7,"items":[{"name":"옥천의물","tel":"032-324-5057","addr":"경기도 부천시 중동 1172번지 보람마을아주아파트","indutype":"음료식품 - 기타음료식품","category":"food"}]},{"lat":"37.504622816","long":"126.76719219","imageIndex":7,"items":[{"name":"올스본&쉔픽스","tel":"032-323-1739","addr":"경기도 부천시 중동 1034-5번지 씨티오피스 401호","indutype":"회원제형태 - 건강식품","category":"food"},{"name":"핫바디 점핑다이어트","tel":"","addr":"경기도 부천시 중동 1034-5번지 씨티오피스 3층 306호","indutype":"건강식품 - 기타건강식품","category":"food"}]},{"lat":"37.495598415","long":"126.76446137","imageIndex":7,"items":[{"name":"옹가네야채","tel":"032-612-1727","addr":"경기도 부천시 중동 707-12번지","indutype":"음료식품 - 농·축·수산품","category":"food"}]},{"lat":"37.4961261156","long":"126.7762202153","imageIndex":7,"items":[{"name":"우리","tel":"032-323-2422","addr":"경기도 부천시 중동 1123-1 10층 사우나내","indutype":"음료식품 - 기타음료식품","category":"food"}]},{"lat":"37.493951795","long":"126.76110817","imageIndex":7,"items":[{"name":"우리농산물유통","tel":"070-7862-1697","addr":"경기도 부천시 중동 762-6번지 1층","indutype":"음료식품 - 농·축·수산품","category":"food"}]},{"lat":"37.494896102","long":"126.76468977","imageIndex":7,"items":[{"name":"우리떡집","tel":"032-655-6676","addr":"경기도 부천시 중동 724-1번지 1층","indutype":"음료식품 - 제과점","category":"food"}]},{"lat":"37.496369274","long":"126.77616294","imageIndex":7,"items":[{"name":"우리스넥","tel":"032-323-2422","addr":"경기도 부천시 중동 1123번지 금호프라자 9층","indutype":"음료식품 - 기타음료식품","category":"food"},{"name":"파리바게뜨 중동그린타운","tel":"032-324-0922","addr":"경기도 부천시 중동 1123번지 금호프라자 1층 111호,112호","indutype":"음료식품 - 제과점","category":"food"}]},{"lat":"37.507401411","long":"126.76446908","imageIndex":7,"items":[{"name":"우리아이쿠킹연구소(우아쿡)","tel":"031-111-1111","addr":"경기도 부천시 중동 1038번지 은하마을주공2단지아파트","indutype":"음료식품 - 기타음료식품","category":"food"}]},{"lat":"37.501228797","long":"126.78260567","imageIndex":7,"items":[{"name":"우리홈마트정육","tel":"032-655-2081","addr":"경기도 부천시 중동 1092-3번지 1층","indutype":"음료식품 - 정육점","category":"food"}]},{"lat":"37.493147161","long":"126.76418647","imageIndex":7,"items":[{"name":"웰빙선식&견과류","tel":"02-111-1111","addr":"경기도 부천시 중동 768-17번지 1층","indutype":"음료식품 - 기타음료식품","category":"food"}]},{"lat":"37.501342325","long":"126.7806828","imageIndex":7,"items":[{"name":"웰빙증류건강원","tel":"032-329-4050","addr":"경기도 부천시 중동 1089-3번지 1층","indutype":"건강식품 - 기타건강식품","category":"food"}]},{"lat":"37.493818863","long":"126.76219415","imageIndex":7,"items":[{"name":"웰빙하우스","tel":"032-655-2014","addr":"경기도 부천시 중동 761-8번지 현대시티파크 101호","indutype":"건강식품 - 기타건강식품","category":"food"}]},{"lat":"37.493673801","long":"126.77537954","imageIndex":7,"items":[{"name":"유일물류","tel":"032-667-8839","addr":"경기도 부천시 중동 1216번지 1층","indutype":"음료식품 - 기타음료식품","category":"food"}]},{"lat":"37.504845519","long":"126.77980159","imageIndex":7,"items":[{"name":"은혜유통","tel":"032-676-6155","addr":"경기도 부천시 중동 1073-14번지 지하","indutype":"음료식품 - 기타음료식품","category":"food"}]},{"lat":"37.494070715","long":"126.77099088","imageIndex":7,"items":[{"name":"이슬상회","tel":"","addr":"경기도 부천시 중동 1206-17번지 1층","indutype":"음료식품 - 농·축·수산품","category":"food"}]},{"lat":"37.506236565","long":"126.77691347","imageIndex":7,"items":[{"name":"인프루트","tel":"","addr":"경기도 부천시 중동 1071-6번지 1층","indutype":"음료식품 - 농·축·수산품","category":"food"}]},{"lat":"37.494706712","long":"126.7645999","imageIndex":7,"items":[{"name":"잡곡마을","tel":"032-655-0318","addr":"경기도 부천시 중동 724-7번지 1층","indutype":"음료식품 - 미곡상","category":"food"}]},{"lat":"37.492704418","long":"126.76805511","imageIndex":7,"items":[{"name":"장원유통","tel":"","addr":"경기도 부천시 중동 772-2번지 현대아파트 1층","indutype":"음료식품 - 정육점","category":"food"}]},{"lat":"37.495682075","long":"126.76573893","imageIndex":7,"items":[{"name":"정관장서부중동시장점","tel":"032-668-2323","addr":"경기도 부천시 중동 712-10번지","indutype":"건강식품 - 홍삼제품","category":"food"},{"name":"정관장중동시장점","tel":"032-668-2323","addr":"경기도 부천시 중동 712-10번지","indutype":"건강식품 - 홍삼제품","category":"food"}]},{"lat":"37.493232992","long":"126.76208296","imageIndex":7,"items":[{"name":"제이브라우니","tel":"070-7529-9801","addr":"경기도 부천시 중동 765-16번지 1층","indutype":"음료식품 - 제과점","category":"food"}]},{"lat":"37.493981593","long":"126.76246502","imageIndex":7,"items":[{"name":"제이에스유통","tel":"032-653-6004","addr":"경기도 부천시 중동 760-12번지 대원스마트빌 101호","indutype":"음료식품 - 기타음료식품","category":"food"}]},{"lat":"37.493401466","long":"126.76519205","imageIndex":7,"items":[{"name":"제일상회","tel":"032-611-2819","addr":"경기도 부천시 중동 757-3번지 가인빌 하이","indutype":"음료식품 - 기타음료식품","category":"food"}]},{"lat":"37.486704741","long":"126.76852616","imageIndex":7,"items":[{"name":"좋은 양조장","tel":"","addr":"경기도 부천시 중동 852-3번지 1층","indutype":"음료식품 - 주류 판매점","category":"food"}]},{"lat":"37.505759237","long":"126.7770167","imageIndex":7,"items":[{"name":"좋은농장","tel":"02-1111-1111","addr":"경기도 부천시 중동 1069-7번지","indutype":"음료식품 - 농·축·수산품","category":"food"}]},{"lat":"37.500709","long":"126.77457788","imageIndex":7,"items":[{"name":"주니아(Junia)","tel":"032-322-9996","addr":"경기도 부천시 중동 1135-1번지 제일프라자 103호","indutype":"음료식품 - 제과점","category":"food"},{"name":"한스하임","tel":"032-324-6656","addr":"경기도 부천시 중동 1135-1번지 제일프라자 104호","indutype":"음료식품 - 제과점","category":"food"}]},{"lat":"37.504704868","long":"126.77690678","imageIndex":7,"items":[{"name":"주식회사 신세계미트","tel":"032-672-3134","addr":"경기도 부천시 중동 1066-9번지 지하1층","indutype":"음료식품 - 정육점","category":"food"}]},{"lat":"37.502042685","long":"126.77007281","imageIndex":7,"items":[{"name":"주식회사 휴캐스트","tel":"032-321-4822","addr":"경기도 부천시 중동 1151-2번지 천마프라자 1층","indutype":"건강식품 - 기타건강식품","category":"food"}]},{"lat":"37.501399205","long":"126.77274373","imageIndex":7,"items":[{"name":"주식회사백아바이오","tel":"032-325-4888","addr":"경기도 부천시 중동 1143-6번지 신풍프라자 901호","indutype":"건강식품 - 기타건강식품","category":"food"}]},{"lat":"37.501594814","long":"126.77140866","imageIndex":7,"items":[{"name":"줄라이","tel":"032-328-3500","addr":"경기도 부천시 중동 1146-5번지 103호","indutype":"음료식품 - 제과점","category":"food"}]},{"lat":"37.493094106","long":"126.76468418","imageIndex":7,"items":[{"name":"중동반찬젓갈","tel":"031-747-8744","addr":"경기도 부천시 중동 768번지 14호","indutype":"음료식품 - 농·축·수산품","category":"food"}]},{"lat":"37.495121189","long":"126.76460989","imageIndex":7,"items":[{"name":"중동청과","tel":"032-664-7050","addr":"경기도 부천시 중동 709-25번지","indutype":"음료식품 - 농·축·수산품","category":"food"}]},{"lat":"37.503622552","long":"126.76263768","imageIndex":7,"items":[{"name":"중동한의원","tel":"032-327-5800","addr":"경기도 부천시 중동 1163-6번지","indutype":"건강식품 - 기타건강식품","category":"food"}]},{"lat":"37.494508176","long":"126.76444222","imageIndex":7,"items":[{"name":"지행이네","tel":"032-663-2417","addr":"경기도 부천시 중동 724-4번지","indutype":"음료식품 - 정육점","category":"food"}]},{"lat":"37.498650005","long":"126.77680063","imageIndex":7,"items":[{"name":"진수성찬","tel":"032-322-8211","addr":"경기도 부천시 중동 1131-2번지 미림프라자오피스텔일층 106호","indutype":"음료식품 - 기타음료식품","category":"food"},{"name":"태봉","tel":"032-721-7771","addr":"경기도 부천시 중동 1131-2번지 미림프라자오피스텔 4층 404호","indutype":"음료식품 - 기타음료식품","category":"food"}]},{"lat":"37.500423787","long":"126.78093432","imageIndex":7,"items":[{"name":"진이찬방 중동옥산점","tel":"032-000-0000","addr":"경기도 부천시 중동 1096-2번지 1층","indutype":"음료식품 - 기타음료식품","category":"food"}]},{"lat":"37.49286927","long":"126.76488843","imageIndex":7,"items":[{"name":"착한수제담배","tel":"032-322-0402","addr":"경기도 부천시 중동 769-4번지 하이트뷰 102호","indutype":"음료식품 - 기타음료식품","category":"food"}]},{"lat":"37.494873037","long":"126.77121456","imageIndex":7,"items":[{"name":"착한축산","tel":"","addr":"경기도 부천시 중동 1208-2번지","indutype":"음료식품 - 정육점","category":"food"}]},{"lat":"37.493597837","long":"126.7642755","imageIndex":7,"items":[{"name":"찰떡궁합","tel":"032-463-6527","addr":"경기도 부천시 중동 757-12번지 1층","indutype":"음료식품 - 제과점","category":"food"}]},{"lat":"37.497652499","long":"126.77816065","imageIndex":7,"items":[{"name":"청우축산","tel":"032-668-2820","addr":"경기도 부천시 중동 1113번지 위브더스테이트 7동 122호 상가","indutype":"음료식품 - 정육점","category":"food"}]},{"lat":"37.501816725","long":"126.76971162","imageIndex":7,"items":[{"name":"초심","tel":"031-1588-1789","addr":"경기도 부천시 중동 1151-6번지","indutype":"건강식품 - 기타건강식품","category":"food"}]},{"lat":"37.506624464","long":"126.77716112","imageIndex":7,"items":[{"name":"카스 리프팜","tel":"","addr":"경기도 부천시 중동 3-34번지 상가1층 105,106호","indutype":"음료식품 - 기타음료식품","category":"food"}]},{"lat":"37.503343131","long":"126.76258203","imageIndex":7,"items":[{"name":"코코케이크(부천시청점)","tel":"","addr":"경기도 부천시 중동 1163-8번지 대신프라자 106호","indutype":"음료식품 - 제과점","category":"food"}]},{"lat":"37.503844567","long":"126.76105366","imageIndex":7,"items":[{"name":"크레인스테이션","tel":"032-329-7792","addr":"경기도 부천시 중동 1166-4번지 영플러스3차 1층 103호","indutype":"음료식품 - 기타음료식품","category":"food"}]},{"lat":"37.498320074","long":"126.77390665","imageIndex":7,"items":[{"name":"테크자판기","tel":"032-663-1640","addr":"경기도 부천시 중동 1180-1 지층15-1호","indutype":"음료식품 - 기타음료식품","category":"food"}]},{"lat":"37.488041663","long":"126.76574047","imageIndex":7,"items":[{"name":"파리바게뜨중동역북부점","tel":"032-666-4505","addr":"경기도 부천시 중동 808번지 1층","indutype":"음료식품 - 제과점","category":"food"}]},{"lat":"37.505040192","long":"126.76415992","imageIndex":7,"items":[{"name":"파리바게트 중동프라자점","tel":"032-328-7252","addr":"경기도 부천시 중동 1033-2번지 금영프라자2차 101호","indutype":"음료식품 - 제과점","category":"food"}]},{"lat":"37.503649167","long":"126.76243402","imageIndex":7,"items":[{"name":"파리바게트부천시청점","tel":"032-328-8204","addr":"경기도 부천시 중동 1163-5번지 조유빌딩 1층 101,102호","indutype":"음료식품 - 제과점","category":"food"}]},{"lat":"37.500792291","long":"126.77571983","imageIndex":7,"items":[{"name":"파리바게트중동점","tel":"032-321-0882","addr":"경기도 부천시 중동 1136-3번지 대호빌딩 105동 107호","indutype":"음료식품 - 제과점","category":"food"}]},{"lat":"37.498539478","long":"126.77554572","imageIndex":7,"items":[{"name":"파스타바코 부천점","tel":"032-346-0077","addr":"경기도 부천시 중동 1129-1번지 센타프라자 108,109호","indutype":"음료식품 - 기타음료식품","category":"food"}]},{"lat":"37.495202597","long":"126.76476795","imageIndex":7,"items":[{"name":"포크블랙","tel":"000-0000-0000","addr":"경기도 부천시 중동 709-5번지 2층","indutype":"음료식품 - 기타음료식품","category":"food"}]},{"lat":"37.493674869","long":"126.76674036","imageIndex":7,"items":[{"name":"포크빌부천점","tel":"032-613-1111","addr":"경기도 부천시 중동 750번지 태양프라자","indutype":"음료식품 - 정육점","category":"food"}]},{"lat":"37.503172789","long":"126.75860172","imageIndex":7,"items":[{"name":"푸릇&Fruit","tel":"","addr":"경기도 부천시 중동 1169-1번지 KT전화국 4층 일부","indutype":"음료식품 - 기타음료식품","category":"food"}]},{"lat":"37.493264586","long":"126.7643331","imageIndex":7,"items":[{"name":"풍년상회","tel":"032-655-7333","addr":"경기도 부천시 중동 768-19번지 1층","indutype":"음료식품 - 농·축·수산품","category":"food"}]},{"lat":"37.495760546","long":"126.76443824","imageIndex":7,"items":[{"name":"풍천상회","tel":"032-613-6033","addr":"경기도 부천시 중동 707-2번지","indutype":"음료식품 - 농·축·수산품","category":"food"}]},{"lat":"37.502147162","long":"126.76373939","imageIndex":7,"items":[{"name":"피플","tel":"032-326-7200","addr":"경기도 부천시 중동 1160-2번지 필레오트윈파크1 1212호","indutype":"음료식품 - 기타음료식품","category":"food"}]},{"lat":"37.49348064","long":"126.76424195","imageIndex":7,"items":[{"name":"한우야한우야","tel":"032-655-1113","addr":"경기도 부천시 중동 757-13번지","indutype":"음료식품 - 정육점","category":"food"}]},{"lat":"37.495147716","long":"126.76436103","imageIndex":7,"items":[{"name":"한우한돈장터정육점","tel":"032-653-2116","addr":"경기도 부천시 중동 708-16번지 1층","indutype":"음료식품 - 정육점","category":"food"}]},{"lat":"37.49634461","long":"126.76365612","imageIndex":7,"items":[{"name":"핫 플레이스(HOT PLACE)","tel":"02-1111-1111","addr":"경기도 부천시 중동 675-15번지 지층","indutype":"건강식품 - 기타건강식품","category":"food"}]},{"lat":"37.500928329","long":"126.77618308","imageIndex":7,"items":[{"name":"햇살가게","tel":"","addr":"경기도 부천시 중동 1140-5번지 노점판매대","indutype":"음료식품 - 농·축·수산품","category":"food"}]},{"lat":"37.502618346","long":"126.77418756","imageIndex":7,"items":[{"name":"행복요양협동조합","tel":"070-1111-1111","addr":"경기도 부천시 중동 1141-5번지 다운타운 505호","indutype":"음료식품 - 기타음료식품","category":"food"}]},{"lat":"37.500928403","long":"126.78096675","imageIndex":7,"items":[{"name":"혜민건강원","tel":"032-664-3646","addr":"경기도 부천시 중동 1089-8번지","indutype":"건강식품 - 기타건강식품","category":"food"}]},{"lat":"37.505951989","long":"126.76505048","imageIndex":7,"items":[{"name":"환축산","tel":"032-323-5292","addr":"경기도 부천시 중동 1037번지 은하마을 103호 상가","indutype":"음료식품 - 정육점","category":"food"}]},{"lat":"37.493679245","long":"126.76443355","imageIndex":7,"items":[{"name":"후레쉬마켓","tel":"032-543-9775","addr":"경기도 부천시 중동 756-2번지","indutype":"음료식품 - 농·축·수산품","category":"food"}]},{"lat":"37.508367266","long":"126.77449801","imageIndex":7,"items":[{"name":"힐링하우스","tel":"032-678-5230","addr":"경기도 부천시 중동 3-75번지 한일빌딩 201호 중동알프스타워","indutype":"건강식품 - 기타건강식품","category":"food"}]}]