[{"lat":"37.616452488","long":"127.27235969","imageIndex":4,"items":[{"name":"COFFEE SUN","tel":"031-576-3737","addr":"경기도 남양주시 와부읍 월문리 187-1번지 1층","indutype":"일반휴게음식 - 서양음식","category":"restaurant"}]},{"lat":"37.622310882","long":"127.25929783","imageIndex":4,"items":[{"name":"고을산장","tel":"031-576-1625","addr":"경기도 남양주시 와부읍 월문리 344-4번지","indutype":"일반휴게음식 - 일반한식","category":"restaurant"}]},{"lat":"37.595007448","long":"127.22572161","imageIndex":4,"items":[{"name":"고창풍천장어","tel":"031-521-9752","addr":"경기도 남양주시 와부읍 월문리 1245-11번지","indutype":"일반휴게음식 - 일반한식","category":"restaurant"}]},{"lat":"37.594673447","long":"127.22606031","imageIndex":4,"items":[{"name":"교감막국수","tel":"031-576-4627","addr":"경기도 남양주시 와부읍 월문리 1252-19번지","indutype":"일반휴게음식 - 일반한식","category":"restaurant"}]},{"lat":"37.619003976","long":"127.26761165","imageIndex":4,"items":[{"name":"그린가든","tel":"031-521-3331","addr":"경기도 남양주시 와부읍 월문리 205-2번지 1층","indutype":"일반휴게음식 - 일반한식","category":"restaurant"}]},{"lat":"37.612779572","long":"127.2670233","imageIndex":4,"items":[{"name":"금강보리밥","tel":"031-576-0047","addr":"경기도 남양주시 와부읍 월문리 155-1번지 1층","indutype":"일반휴게음식 - 일반한식","category":"restaurant"}]},{"lat":"37.620923575","long":"127.2633255","imageIndex":4,"items":[{"name":"금토일","tel":"070-7768-7460","addr":"경기도 남양주시 와부읍 월문리 234-2번지","indutype":"일반휴게음식 - 일반한식","category":"restaurant"}]},{"lat":"37.616864522","long":"127.27341453","imageIndex":4,"items":[{"name":"기사식당 한식부페","tel":"02-1577-0000","addr":"경기도 남양주시 와부읍 월문리 117-7번지 1층","indutype":"일반휴게음식 - 일반한식","category":"restaurant"}]},{"lat":"37.616785094","long":"127.27268936","imageIndex":4,"items":[{"name":"길손집","tel":"031-576-7583","addr":"경기도 남양주시 와부읍 월문리 119-2번지 1층","indutype":"일반휴게음식 - 일반한식","category":"restaurant"}]},{"lat":"37.618981176","long":"127.26572","imageIndex":4,"items":[{"name":"나들이","tel":"031-577-5250","addr":"경기도 남양주시 와부읍 월문리 238번지","indutype":"일반휴게음식 - 일반한식","category":"restaurant"}]},{"lat":"37.614754403","long":"127.27026955","imageIndex":4,"items":[{"name":"남주막국수","tel":"031-521-0071","addr":"경기도 남양주시 와부읍 월문리 168-4번지","indutype":"일반휴게음식 - 일반한식","category":"restaurant"}]},{"lat":"37.601534442","long":"127.24653218","imageIndex":4,"items":[{"name":"더고트","tel":"","addr":"경기도 남양주시 와부읍 월문리 424-8번지 1,2층","indutype":"일반휴게음식 - 일반한식","category":"restaurant"}]},{"lat":"37.600894043","long":"127.24247608","imageIndex":4,"items":[{"name":"더로키","tel":"","addr":"경기도 남양주시 와부읍 월문리 511-1번지 1층","indutype":"일반휴게음식 - 서양음식","category":"restaurant"}]},{"lat":"37.594119295","long":"127.22369215","imageIndex":4,"items":[{"name":"덕소한우사랑","tel":"031-577-2488","addr":"경기도 남양주시 와부읍 월문리 1246-17번지","indutype":"일반휴게음식 - 일반한식","category":"restaurant"}]},{"lat":"37.592199702","long":"127.22872508","imageIndex":4,"items":[{"name":"덕소해장","tel":"031-576-9915","addr":"경기도 남양주시 와부읍 월문리 1054-1번지","indutype":"일반휴게음식 - 일반한식","category":"restaurant"}]},{"lat":"37.617088932","long":"127.27377779","imageIndex":4,"items":[{"name":"돈킴 덕소점","tel":"031-567-8889","addr":"경기도 남양주시 와부읍 월문리 117-15번지 1층","indutype":"일반휴게음식 - 일반한식","category":"restaurant"}]},{"lat":"37.592478526","long":"127.22897503","imageIndex":4,"items":[{"name":"두꺼비","tel":"031-576-5104","addr":"경기도 남양주시 와부읍 월문리 1082번지","indutype":"일반휴게음식 - 일반한식","category":"restaurant"}]},{"lat":"37.593641928","long":"127.22361148","imageIndex":4,"items":[{"name":"라브륀느","tel":"031-521-2525","addr":"경기도 남양주시 와부읍 월문리 1247-4번지 1층","indutype":"일반휴게음식 - 일반한식","category":"restaurant"}]},{"lat":"37.6073379","long":"127.25874813","imageIndex":4,"items":[{"name":"랑랑이네 정원","tel":"031-577-0726","addr":"경기도 남양주시 와부읍 월문리 317-37번지","indutype":"일반휴게음식 - 서양음식","category":"restaurant"}]},{"lat":"37.606281226","long":"127.25574343","imageIndex":4,"items":[{"name":"로프트317","tel":"031-511-9175","addr":"경기도 남양주시 와부읍 월문리 317-28번지 1층","indutype":"일반휴게음식 - 서양음식","category":"restaurant"}]},{"lat":"37.590675083","long":"127.22975082","imageIndex":4,"items":[{"name":"마당","tel":"031-521-9277","addr":"경기도 남양주시 와부읍 월문리 1049번지","indutype":"일반휴게음식 - 일반한식","category":"restaurant"}]},{"lat":"37.596757468","long":"127.28002253","imageIndex":4,"items":[{"name":"맨윗집","tel":"031-576-8658","addr":"경기도 남양주시 와부읍 월문리 1357번지","indutype":"일반휴게음식 - 일반한식","category":"restaurant"}]},{"lat":"37.614197275","long":"127.27357476","imageIndex":4,"items":[{"name":"맨첫집","tel":"031-576-9252","addr":"경기도 남양주시 와부읍 월문리 127-1번지","indutype":"일반휴게음식 - 일반한식","category":"restaurant"}]},{"lat":"37.616478507","long":"127.27280151","imageIndex":4,"items":[{"name":"묘적식당","tel":"031-576-6878","addr":"경기도 남양주시 와부읍 월문리 182-1번지","indutype":"일반휴게음식 - 일반한식","category":"restaurant"}]},{"lat":"37.616641328","long":"127.27251894","imageIndex":4,"items":[{"name":"민가네 어탕국수","tel":"031-576-1533","addr":"경기도 남양주시 와부읍 월문리 119-3번지 1층","indutype":"일반휴게음식 - 일반한식","category":"restaurant"}]},{"lat":"37.595005391","long":"127.22680863","imageIndex":4,"items":[{"name":"바람에포차","tel":"","addr":"경기도 남양주시 와부읍 월문리 1254-2번지 1층","indutype":"일반휴게음식 - 일반한식","category":"restaurant"},{"name":"지민수산","tel":"","addr":"경기도 남양주시 와부읍 월문리 1254-2번지","indutype":"일반휴게음식 - 일반한식","category":"restaurant"}]},{"lat":"37.592615857","long":"127.22783184","imageIndex":4,"items":[{"name":"밥한상","tel":"031-577-1199","addr":"경기도 남양주시 와부읍 월문리 1261-1번지","indutype":"일반휴게음식 - 일반한식","category":"restaurant"}]},{"lat":"37.610141056","long":"127.26235922","imageIndex":4,"items":[{"name":"백봉꿀갈비","tel":"031-576-5868","addr":"경기도 남양주시 와부읍 월문리 251-17번지","indutype":"일반휴게음식 - 일반한식","category":"restaurant"}]},{"lat":"37.601814799","long":"127.24160708","imageIndex":4,"items":[{"name":"복이네한정식","tel":"031-577-5218","addr":"경기도 남양주시 와부읍 월문리 538-5번지","indutype":"일반휴게음식 - 일반한식","category":"restaurant"}]},{"lat":"37.618725295","long":"127.27132583","imageIndex":4,"items":[{"name":"산약초이야기건강촌","tel":"031-577-2500","addr":"경기도 남양주시 와부읍 월문리 200-1번지","indutype":"일반휴게음식 - 일반한식","category":"restaurant"}]},{"lat":"37.60186574","long":"127.24752978","imageIndex":4,"items":[{"name":"수레짬뽕","tel":"031-573-7970","addr":"경기도 남양주시 와부읍 월문리 430-1번지 2층","indutype":"일반휴게음식 - 중국식","category":"restaurant"}]},{"lat":"37.608398754","long":"127.259805","imageIndex":4,"items":[{"name":"신혼방","tel":"031-577-2074","addr":"경기도 남양주시 와부읍 월문리 269-11번지 1층","indutype":"일반휴게음식 - 서양음식","category":"restaurant"}]},{"lat":"37.602560119","long":"127.2472263","imageIndex":4,"items":[{"name":"아란밥상","tel":"031-577-3738","addr":"경기도 남양주시 와부읍 월문리 407-2번지 1층","indutype":"일반휴게음식 - 일반한식","category":"restaurant"}]},{"lat":"37.622112299","long":"127.26357885","imageIndex":4,"items":[{"name":"아르페지오","tel":"031-576-5868","addr":"경기도 남양주시 와부읍 월문리 218-2번지","indutype":"일반휴게음식 - 일반한식","category":"restaurant"}]},{"lat":"37.5962808","long":"127.22889594","imageIndex":4,"items":[{"name":"옹기종기","tel":"031-521-7287","addr":"경기도 남양주시 와부읍 월문리 1141-11번지 1층","indutype":"일반휴게음식 - 일반한식","category":"restaurant"}]},{"lat":"37.601645821","long":"127.24494716","imageIndex":4,"items":[{"name":"외할머니집","tel":"031-521-7701","addr":"경기도 남양주시 와부읍 월문리 427-8번지","indutype":"일반휴게음식 - 일반한식","category":"restaurant"},{"name":"해마루흑두부","tel":"031-521-2080","addr":"경기도 남양주시 와부읍 월문리 427-8번지","indutype":"일반휴게음식 - 일반한식","category":"restaurant"}]},{"lat":"37.595004703","long":"127.22717097","imageIndex":4,"items":[{"name":"월문식당","tel":"031-521-9666","addr":"경기도 남양주시 와부읍 월문리 1255-2번지 1층","indutype":"일반휴게음식 - 일반한식","category":"restaurant"}]},{"lat":"37.596424543","long":"127.22911152","imageIndex":4,"items":[{"name":"월문한식부페","tel":"031-576-0606","addr":"경기도 남양주시 와부읍 월문리 1141-2번지 외2필지","indutype":"일반휴게음식 - 일반한식","category":"restaurant"}]},{"lat":"37.591006362","long":"127.2261173","imageIndex":4,"items":[{"name":"육개보감","tel":"031-576-4006","addr":"경기도 남양주시 와부읍 월문리 1278-1번지","indutype":"일반휴게음식 - 일반한식","category":"restaurant"}]},{"lat":"37.595426111","long":"127.22824794","imageIndex":4,"items":[{"name":"육대장","tel":"031-577-9772","addr":"경기도 남양주시 와부읍 월문리 1138-2번지 1층","indutype":"일반휴게음식 - 일반한식","category":"restaurant"}]},{"lat":"37.615894974","long":"127.27188197","imageIndex":4,"items":[{"name":"이플렛","tel":"","addr":"경기도 남양주시 와부읍 월문리 184-1번지 1층 일부","indutype":"일반휴게음식 - 서양음식","category":"restaurant"}]},{"lat":"37.593839676","long":"127.22386117","imageIndex":4,"items":[{"name":"자성화 코다리네 덕소점","tel":"031-555-1967","addr":"경기도 남양주시 와부읍 월문리 1247-7번지","indutype":"일반휴게음식 - 일반한식","category":"restaurant"}]},{"lat":"37.606173983","long":"127.25533537","imageIndex":4,"items":[{"name":"장원불고기","tel":"031-7191-7581","addr":"경기도 남양주시 와부읍 월문리 317-30번지","indutype":"일반휴게음식 - 일반한식","category":"restaurant"}]},{"lat":"37.596455935","long":"127.23152349","imageIndex":4,"items":[{"name":"제주은갈치","tel":"031-521-1999","addr":"경기도 남양주시 와부읍 월문리 1115번지","indutype":"일반휴게음식 - 일반한식","category":"restaurant"}]},{"lat":"37.609614636","long":"127.27991167","imageIndex":4,"items":[{"name":"제주종갓집","tel":"031-576-1616","addr":"경기도 남양주시 와부읍 월문리 62-4번지","indutype":"일반휴게음식 - 일반한식","category":"restaurant"}]},{"lat":"37.601704667","long":"127.24699702","imageIndex":4,"items":[{"name":"천서리막국수남양주점","tel":"031-521-2055","addr":"경기도 남양주시 와부읍 월문리 425-1번지","indutype":"일반휴게음식 - 일반한식","category":"restaurant"}]},{"lat":"37.613616481","long":"127.26746797","imageIndex":4,"items":[{"name":"청기와","tel":"031-576-0711","addr":"경기도 남양주시 와부읍 월문리 161-1번지","indutype":"일반휴게음식 - 일반한식","category":"restaurant"}]},{"lat":"37.612176344","long":"127.26277402","imageIndex":4,"items":[{"name":"카페더뷰","tel":"031-577-4679","addr":"경기도 남양주시 와부읍 월문리 249-2번지","indutype":"일반휴게음식 - 서양음식","category":"restaurant"}]},{"lat":"37.601032487","long":"127.24527357","imageIndex":4,"items":[{"name":"카페라움","tel":"031-521-7739","addr":"경기도 남양주시 와부읍 월문리 434-7번지 1층","indutype":"일반휴게음식 - 서양음식","category":"restaurant"}]},{"lat":"37.592480819","long":"127.22777482","imageIndex":4,"items":[{"name":"카페비요","tel":"031-510-5219","addr":"경기도 남양주시 와부읍 월문리 1059-6번지 1층","indutype":"일반휴게음식 - 서양음식","category":"restaurant"}]},{"lat":"37.592089892","long":"127.22960792","imageIndex":4,"items":[{"name":"카페언더힐 (cafe nuder hill)","tel":"031-521-7395","addr":"경기도 남양주시 와부읍 월문리 1089-2번지 2층","indutype":"일반휴게음식 - 서양음식","category":"restaurant"},{"name":"함박웃음양평해장국","tel":"031-576-2225","addr":"경기도 남양주시 와부읍 월문리 1089-2번지 1층","indutype":"일반휴게음식 - 일반한식","category":"restaurant"}]},{"lat":"37.59186645","long":"127.22866746","imageIndex":4,"items":[{"name":"커피쓰담","tel":"070-8817-9723","addr":"경기도 남양주시 와부읍 월문리 1054-2번지","indutype":"일반휴게음식 - 서양음식","category":"restaurant"}]},{"lat":"37.608200358","long":"127.2798045","imageIndex":4,"items":[{"name":"케이나인 아우름의식탁","tel":"031-521-9041","addr":"경기도 남양주시 와부읍 월문리 56-5번지","indutype":"일반휴게음식 - 일반한식","category":"restaurant"}]},{"lat":"37.592009326","long":"127.22933593","imageIndex":4,"items":[{"name":"코다리명가별당","tel":"031-577-7709","addr":"경기도 남양주시 와부읍 월문리 1087-1번지","indutype":"일반휴게음식 - 일반한식","category":"restaurant"}]},{"lat":"37.592314482","long":"127.22994829","imageIndex":4,"items":[{"name":"팔당집","tel":"031-576-4511","addr":"경기도 남양주시 와부읍 월문리 1091-1번지","indutype":"일반휴게음식 - 일반한식","category":"restaurant"}]},{"lat":"37.590588756","long":"127.22778045","imageIndex":4,"items":[{"name":"팽현숙의 옛날순대국","tel":"031-521-8377","addr":"경기도 남양주시 와부읍 월문리 1052-6번지 2층","indutype":"일반휴게음식 - 일반한식","category":"restaurant"}]},{"lat":"37.616920239","long":"127.27268984","imageIndex":4,"items":[{"name":"풍성한전원식당","tel":"031-576-1861","addr":"경기도 남양주시 와부읍 월문리 119-1번지","indutype":"일반휴게음식 - 일반한식","category":"restaurant"}]},{"lat":"37.600815623","long":"127.28602798","imageIndex":4,"items":[{"name":"피터패트(PIT A PAT)","tel":"031-000-0000","addr":"경기도 남양주시 와부읍 월문리 1292번지","indutype":"일반휴게음식 - 서양음식","category":"restaurant"}]},{"lat":"37.590642339","long":"127.22802971","imageIndex":4,"items":[{"name":"한마음정육식당","tel":"031-521-3957","addr":"경기도 남양주시 와부읍 월문리 1052-10번지","indutype":"일반휴게음식 - 일반한식","category":"restaurant"}]},{"lat":"37.614834899","long":"127.27053034","imageIndex":4,"items":[{"name":"한우플러스나주곰탕","tel":"031-576-7411","addr":"경기도 남양주시 와부읍 월문리 168-3번지","indutype":"일반휴게음식 - 일반한식","category":"restaurant"}]},{"lat":"37.60095456","long":"127.28444314","imageIndex":4,"items":[{"name":"해넘이 숲속마을","tel":"031-576-3117","addr":"경기도 남양주시 와부읍 월문리 26번지","indutype":"일반휴게음식 - 일반한식","category":"restaurant"}]},{"lat":"37.59361511","long":"127.22349817","imageIndex":4,"items":[{"name":"허니포크","tel":"031-576-0477","addr":"경기도 남양주시 와부읍 월문리 1247-12번지","indutype":"일반휴게음식 - 일반한식","category":"restaurant"}]},{"lat":"37.61872946","long":"127.26546993","imageIndex":4,"items":[{"name":"황제능이백숙","tel":"02-2679-6605","addr":"경기도 남양주시 와부읍 월문리 237번지 1층","indutype":"일반휴게음식 - 일반한식","category":"restaurant"}]}]