[{"lat":"37.012327746","long":"126.99962352","imageIndex":4,"items":[{"name":"(주)종가이엔티","tel":"031-651-2292","addr":"경기도 평택시 오성면 신리 105번지","indutype":"일반휴게음식 - 일반한식","category":"restaurant"}]},{"lat":"37.006794951","long":"127.01103885","imageIndex":4,"items":[{"name":"봉평장터","tel":"031-681-7511","addr":"경기도 평택시 오성면 신리 76-8","indutype":"일반휴게음식 - 일반한식","category":"restaurant"}]},{"lat":"37.01274225","long":"127.00012913","imageIndex":4,"items":[{"name":"얼큰칼국수랑시골밥상","tel":"031-686-7358","addr":"경기도 평택시 오성면 신리 104번지 1층","indutype":"일반휴게음식 - 일반한식","category":"restaurant"}]},{"lat":"37.008489237","long":"127.00207304","imageIndex":7,"items":[{"name":"(주)초록마을","tel":"031-683-1888","addr":"경기도 평택시 오성면 신리 148-6번지","indutype":"음료식품 - 농·축·수산품","category":"food"},{"name":"농업회사법인 신리황금뜰 주식회사","tel":"031-683-1888","addr":"경기도 평택시 오성면 신리 148-6번지 1동","indutype":"음료식품 - 농·축·수산품","category":"food"}]},{"lat":"37.002162656","long":"127.01890261","imageIndex":7,"items":[{"name":"명품유통","tel":"031-686-8710","addr":"경기도 평택시 오성면 신리 12번지","indutype":"음료식품 - 농·축·수산품","category":"food"}]},{"lat":"37.010570707","long":"127.00232021","imageIndex":17,"items":[{"name":"그린마을","tel":"031-655-8044","addr":"경기도 평택시 오성면 신리 100-7","indutype":"기타 - 기계공구","category":"other"}]},{"lat":"37.004217569","long":"127.01486969","imageIndex":17,"items":[{"name":"명일퍼니처","tel":"031-663-2642","addr":"경기도 평택시 오성면 신리 46-25번지","indutype":"주방용구 - 주방용구","category":"other"},{"name":"주식회사 명일퍼니처","tel":"031-663-2642","addr":"경기도 평택시 오성면 신리 46-25번지","indutype":"주방용구 - 주방용구","category":"other"}]},{"lat":"37.006767585","long":"127.01495997","imageIndex":17,"items":[{"name":"삼경레져낚시용품","tel":"031-681-7088","addr":"경기도 평택시 오성면 신리 69-1번지 101호","indutype":"레져용품 - 스포츠·레져용품","category":"other"}]},{"lat":"37.005821991","long":"127.00739855","imageIndex":17,"items":[{"name":"성광엔지니어링","tel":"","addr":"경기도 평택시 오성면 신리 90-29번지","indutype":"농업 - 기타농업관련","category":"other"}]},{"lat":"37.008489237","long":"127.00207304","imageIndex":17,"items":[{"name":"초록미소마을","tel":"031-681-4014","addr":"경기도 평택시 오성면 신리 148-6번지","indutype":"소매업 - 농산물","category":"other"}]},{"lat":"37.008101708","long":"127.00703914","imageIndex":17,"items":[{"name":"태평목재,목공","tel":"031-681-7271","addr":"경기도 평택시 오성면 신리 127-4번지","indutype":"건축자재 - 목재·석재·철물","category":"other"}]},{"lat":"37.011795998","long":"126.9966797","imageIndex":5,"items":[{"name":"모텔인","tel":"031-681-5142","addr":"경기도 평택시 오성면 신리 106-13번지","indutype":"숙박업 - 여관/기타숙박업","category":"hotel"}]},{"lat":"37.006767585","long":"127.01495997","imageIndex":7,"items":[{"name":"삼경휴게소","tel":"031-684-7725","addr":"경기도 평택시 오성면 신리 69-1번지","indutype":"유통업 영리 - 슈퍼마켓","category":"mart"}]},{"lat":"37.003938783","long":"127.00662323","imageIndex":16,"items":[{"name":"창신초등학교","tel":"031-681-3908","addr":"경기도 평택시 오성면 신리 59-1번지 창신초등학교","indutype":"학원 - 초중고교육기관","category":"study"},{"name":"창신초등학교병설유치원[아이행복]","tel":"031-682-7010","addr":"경기도 평택시 오성면 신리 59-1번지 창신초등학교","indutype":"학원 - 유치원","category":"study"}]},{"lat":"37.005127632","long":"127.01503836","imageIndex":0,"items":[{"name":"하이엘테크","tel":"070-4655-6861","addr":"경기도 평택시 오성면 신리 29-7번지","indutype":"자동차정비 유지 - 자동차부품","category":"car"}]}]