[{"lat":"38.158273913","long":"127.2469582","imageIndex":17,"items":[{"name":"건영건축","tel":"031-533-1570","addr":"경기도 포천시 관인면 초과리 2-12번지 1층","indutype":"용역 서비스 - 기타용역서비스","category":"other"}]},{"lat":"38.152827907","long":"127.24484082","imageIndex":17,"items":[{"name":"관인면주민자치센터","tel":"538-4698","addr":"경기도 포천시 관인면 초과리 127번지","indutype":"주민자치센터 - 주민자치센터","category":"other"}]},{"lat":"38.152331176","long":"127.24104006","imageIndex":17,"items":[{"name":"광진건업","tel":"031-455-1237","addr":"경기도 포천시 관인면 초과리 108-10번지","indutype":"건축자재 - 인테리어전문","category":"other"}]},{"lat":"38.150910959","long":"127.23946107","imageIndex":17,"items":[{"name":"대명타일","tel":"535-8540","addr":"경기도 포천시 관인면 초과리 87-2번지","indutype":"도소매 - 타일,위생기","category":"other"}]},{"lat":"38.158074151","long":"127.24771057","imageIndex":17,"items":[{"name":"빛나리","tel":"031-533-1148","addr":"경기도 포천시 관인면 초과리 1-24번지","indutype":"회원제형태 - 기타1","category":"other"}]},{"lat":"38.159381193","long":"127.24734982","imageIndex":17,"items":[{"name":"솔부엌가구","tel":"031-543-6926","addr":"경기도 포천시 관인면 초과리 4-2번지","indutype":"주방용구 - 주방용구","category":"other"}]},{"lat":"38.154276259","long":"127.2458496","imageIndex":17,"items":[{"name":"조흥철물 종합건자재","tel":"031-533-1035","addr":"경기도 포천시 관인면 초과리 14번지 1층","indutype":"건축자재 - 목재·석재·철물","category":"other"},{"name":"조흥철물종합건자재","tel":"533-1035","addr":"경기도 포천시 관인면 초과리 14번지","indutype":"도소매 - 철물,건재","category":"other"}]},{"lat":"38.142993308","long":"127.24331398","imageIndex":17,"items":[{"name":"풍림농장","tel":"031-533-1477","addr":"경기도 포천시 관인면 초과리 348-1","indutype":"문화.취미 - 화원","category":"other"}]}]