[{"lat":"37.312621011","long":"127.07991769","imageIndex":8,"items":[{"name":"24시 사람앤동물메디컬센터","tel":"031-262-0306","addr":"경기도 용인시 수지구 성복동 67-6번지 성복스퀘어 201동 2층 208호","indutype":"기타의료기관 - 동물병원","category":"medical"},{"name":"김수연정신건강의학과의원","tel":"031-264-1147","addr":"경기도 용인시 수지구 성복동 67-6번지 성복스퀘어/근린생활시설 302호","indutype":"의원 - 의원","category":"medical"},{"name":"미즈유 영상의학과의원","tel":"031-896-9040","addr":"경기도 용인시 수지구 성복동 67-6번지 성복스퀘어 409호","indutype":"의원 - 의원","category":"medical"},{"name":"비전안과","tel":"031-548-1614","addr":"경기도 용인시 수지구 성복동 67-6번지 성복스퀘어/근린생활시설 3층","indutype":"의원 - 의원","category":"medical"},{"name":"서강흠내과","tel":"031-548-0142","addr":"경기도 용인시 수지구 성복동 67-6번지 성복스퀘어 4층 414,415,416호","indutype":"의원 - 의원","category":"medical"},{"name":"수지예치과","tel":"031-1833-2828","addr":"경기도 용인시 수지구 성복동 67-6번지 커널유니크상가 5층 405-408,501-508호","indutype":"의원 - 치과의원","category":"medical"},{"name":"열린이비인후과의원","tel":"031-261-5075","addr":"경기도 용인시 수지구 성복동 67-6번지 성복스퀘어,근린생활시설 3층 306~308호","indutype":"의원 - 의원","category":"medical"},{"name":"지니여성의원","tel":"","addr":"경기도 용인시 수지구 성복동 67-6번지 성복스퀘어 314동 316호","indutype":"의원 - 의원","category":"medical"}]},{"lat":"37.310710047","long":"127.08113402","imageIndex":8,"items":[{"name":"가람한의원","tel":"031-889-5549","addr":"경기도 용인시 수지구 성복동 33-1번지 수지골드프라자 103호","indutype":"의원 - 한의원","category":"medical"},{"name":"수지골드대웅한의원","tel":"031-889-5549","addr":"경기도 용인시 수지구 성복동 33-1번지 수지골드프라자 103호","indutype":"의원 - 한의원","category":"medical"},{"name":"일원메디텍","tel":"","addr":"경기도 용인시 수지구 성복동 33-1번지 골드프라자1 107호","indutype":"약국 - 제약회사","category":"medical"},{"name":"주식회사 지수리오단약품","tel":"070-7760-7335","addr":"경기도 용인시 수지구 성복동 33-1번지 골드프라자1 지하 123호","indutype":"약국 - 제약회사","category":"medical"},{"name":"지수약품","tel":"070-7547-7335","addr":"경기도 용인시 수지구 성복동 33-1번지 수지골드프라자 지하층 123호","indutype":"약국 - 제약회사","category":"medical"},{"name":"한지윤피부과","tel":"031-889-8071","addr":"경기도 용인시 수지구 성복동 33-1번지 수지골드프라자 1동 111호","indutype":"의원 - 의원","category":"medical"}]},{"lat":"37.31812169","long":"127.07274827","imageIndex":8,"items":[{"name":"가족애 치과","tel":"031-264-2124","addr":"경기도 용인시 수지구 성복동 726번지 성동마을엘지빌리지3차 205호","indutype":"의원 - 치과의원","category":"medical"},{"name":"김광호치과의원","tel":"031-897-8228","addr":"경기도 용인시 수지구 성복동 726번지 LG빌리지3차APT상가 2층","indutype":"의원 - 치과의원","category":"medical"},{"name":"수지우리약국","tel":"031-276-0561","addr":"경기도 용인시 수지구 성복동 726번지 성동마을LG빌리지3차상가 118호","indutype":"약국 - 약국","category":"medical"}]},{"lat":"37.312955023","long":"127.0789366","imageIndex":8,"items":[{"name":"경희올한의원","tel":"031-265-2652","addr":"경기도 용인시 수지구 성복동 70-1번지 데이파크 C동 209호~ 211호","indutype":"의원 - 한의원","category":"medical"},{"name":"서울성복치과의원","tel":"031-272-2828","addr":"경기도 용인시 수지구 성복동 70-1번지 2층 203호 204호","indutype":"의원 - 치과의원","category":"medical"},{"name":"연세예본치과","tel":"031-889-7528","addr":"경기도 용인시 수지구 성복동 70-1번지 모던프라자이스트파크 307호","indutype":"의원 - 치과의원","category":"medical"}]},{"lat":"37.315958826","long":"127.0734457","imageIndex":8,"items":[{"name":"경희회복한의원","tel":"031-262-5077","addr":"경기도 용인시 수지구 성복동 129-1번지 플러스클리닉수지센터 3층 301호","indutype":"의원 - 한의원","category":"medical"},{"name":"꿈에동물병원","tel":"031-264-1997","addr":"경기도 용인시 수지구 성복동 129-1번지 플러스클리닉수지센터 111호","indutype":"기타의료기관 - 동물병원","category":"medical"},{"name":"옳치과","tel":"031-276-5275","addr":"경기도 용인시 수지구 성복동 129-1번지 플러스클리닉 208호","indutype":"의원 - 치과의원","category":"medical"},{"name":"주식회사서울팜","tel":"031-896-6207","addr":"경기도 용인시 수지구 성복동 129-1번지 플러스클리닉수지센터 209호","indutype":"약국 - 제약회사","category":"medical"},{"name":"플러스약국","tel":"031-264-1531","addr":"경기도 용인시 수지구 성복동 129-1번지 플러스클리닉수지센터 122호","indutype":"약국 - 약국","category":"medical"},{"name":"플러스약국","tel":"031-264-1531","addr":"경기도 용인시 수지구 성복동 129-1번지 플러스클리닉 121동 122호","indutype":"약국 - 약국","category":"medical"}]},{"lat":"37.314620813","long":"127.08063043","imageIndex":8,"items":[{"name":"그린약국","tel":"031-263-9660","addr":"경기도 용인시 수지구 성복동 748-2번지 신봉브이샤르망 102호","indutype":"약국 - 약국","category":"medical"}]},{"lat":"37.316673619","long":"127.0682457","imageIndex":8,"items":[{"name":"김용한내과의원","tel":"031-896-2767","addr":"경기도 용인시 수지구 성복동 278-1번지 벽산프라자 301호","indutype":"의원 - 의원","category":"medical"},{"name":"바른뜸한의원","tel":"031-261-1475","addr":"경기도 용인시 수지구 성복동 278-1번지 벽산프라자 102호~103호","indutype":"의원 - 한의원","category":"medical"},{"name":"삼성하이덴치과의원","tel":"031-264-2100","addr":"경기도 용인시 수지구 성복동 276-1벽산프라자2층206호,207호","indutype":"의원 - 의원","category":"medical"},{"name":"이화약국","tel":"031-276-9872","addr":"경기도 용인시 수지구 성복동 278-1번지 외5필지 지하층 B04호","indutype":"약국 - 약국","category":"medical"},{"name":"이화약국","tel":"031-276-9872","addr":"경기도 용인시 수지구 성복동 278-1번지 외5필지 지하층 B04호","indutype":"약국 - 약국","category":"medical"},{"name":"해담은동물병원","tel":"031-892-7775","addr":"경기도 용인시 수지구 성복동 278-1번지 벽산프라자 1층 107호","indutype":"기타의료기관 - 동물병원","category":"medical"}]},{"lat":"37.312512586","long":"127.08038008","imageIndex":8,"items":[{"name":"남다른재활의학과의원","tel":"031-262-7585","addr":"경기도 용인시 수지구 성복동 66-10번지 2층 201호","indutype":"의원 - 의원","category":"medical"},{"name":"더공감정신건강의학과의원","tel":"031-261-0323","addr":"경기도 용인시 수지구 성복동 66-10번지 5층 B","indutype":"의원 - 의원","category":"medical"},{"name":"미소치과의원","tel":"031-896-2727","addr":"경기도 용인시 수지구 성복동 66-10번지 3층","indutype":"의원 - 치과의원","category":"medical"},{"name":"성복역 우리약국","tel":"031-265-7654","addr":"경기도 용인시 수지구 성복동 66-10번지 107호","indutype":"약국 - 약국","category":"medical"}]},{"lat":"37.313234586","long":"127.07855334","imageIndex":8,"items":[{"name":"단아한미인의원","tel":"031-263-2260","addr":"경기도 용인시 수지구 성복동 89번지 B동 211호 212","indutype":"의원 - 의원","category":"medical"},{"name":"수지경희한의원","tel":"031-889-9881","addr":"경기도 용인시 수지구 성복동 89번지 Y.K타운 B동 404호","indutype":"의원 - 한의원","category":"medical"},{"name":"태광약국","tel":"031-889-3054","addr":"경기도 용인시 수지구 성복동 89번지 303호 , 데이파크에이동","indutype":"약국 - 약국","category":"medical"}]},{"lat":"37.310926","long":"127.08157418","imageIndex":8,"items":[{"name":"더조은내과의원","tel":"031-898-2820","addr":"경기도 용인시 수지구 성복동 33-5번지 B128,139,140","indutype":"의원 - 의원","category":"medical"},{"name":"성복약국","tel":"031-889-6630","addr":"경기도 용인시 수지구 성복동 33-5번지 아이조움빌딩 B동 205호","indutype":"약국 - 약국","category":"medical"}]},{"lat":"37.31310868","long":"127.07818095","imageIndex":8,"items":[{"name":"데이파크약국","tel":"031-889-5525","addr":"경기도 용인시 수지구 성복동 89 와이케이타운B동1층120","indutype":"약국 - 약국","category":"medical"},{"name":"맑은한의원","tel":"031-889-5335","addr":"경기도 용인시 수지구 성복동 89 데이파크B동312호~313호","indutype":"의원 - 한의원","category":"medical"},{"name":"빌리지연세치과의원","tel":"031-897-2875","addr":"경기도 용인시 수지구 성복동 89-1번지 데이파크 B동 407호~408호","indutype":"의원 - 치과의원","category":"medical"},{"name":"선피부비뇨기과","tel":"031-276-8112","addr":"경기도 용인시 수지구 성복동 89번지 와이케이타운 B동 405호","indutype":"의원 - 의원","category":"medical"},{"name":"수지어린이치과의원","tel":"031-895-5275","addr":"경기도 용인시 수지구 성복동 89데이파크B동203호~204호","indutype":"의원 - 치과의원","category":"medical"},{"name":"신통재활의학과의원","tel":"031-889-4647","addr":"경기도 용인시 수지구 성복동 89 YK타운 B동306.307호","indutype":"의원 - 의원","category":"medical"},{"name":"좋은약국","tel":"031-889-9858","addr":"경기도 용인시 수지구 성복동 89번지 와이케이타운 B동 314호","indutype":"약국 - 약국","category":"medical"},{"name":"편한이비인후과의원","tel":"031-898-2789","addr":"경기도 용인시 수지구 성복동 89번지 데이파크 B동 305호","indutype":"의원 - 의원","category":"medical"}]},{"lat":"37.315931165","long":"127.07449482","imageIndex":8,"items":[{"name":"리&홍위즈의원","tel":"031-896-5577","addr":"경기도 용인시 수지구 성복동 139번지 301호 웰스톤갤러리","indutype":"의원 - 의원","category":"medical"},{"name":"보스톤서울치과","tel":"031-266-2985","addr":"경기도 용인시 수지구 성복동 139번지 웰스톤갤러리 303,304호","indutype":"의원 - 치과의원","category":"medical"},{"name":"보스톤서울치과의원","tel":"031-266-2985","addr":"경기도 용인시 수지구 성복동 139번지 303호 웰스톤갤러리","indutype":"의원 - 치과의원","category":"medical"},{"name":"보스톤서울치과의원","tel":"031-266-2985","addr":"경기도 용인시 수지구 성복동 139번지 웰스톤갤러리 303동 304호","indutype":"의원 - 치과의원","category":"medical"},{"name":"보스톤서울치과의원","tel":"031-266-2985","addr":"경기도 용인시 수지구 성복동 139번지 외10필지웰스톤갤러리303 304호","indutype":"의원 - 치과의원","category":"medical"},{"name":"성복서울아산소아청소년과","tel":"031-276-7475","addr":"경기도 용인시 수지구 성복동 139번지 웰스톤갤러리 2츠으 201호 ,외10필지","indutype":"의원 - 의원","category":"medical"},{"name":"성복이안소아청소년과의원","tel":"031-264-6001","addr":"경기도 용인시 수지구 성복동 139번지 웰스톤갤러리 302호","indutype":"의원 - 의원","category":"medical"},{"name":"성복한의원","tel":"031-264-3060","addr":"경기도 용인시 수지구 성복동 139번지 웰스톤밸러리 104호 105호","indutype":"의원 - 한의원","category":"medical"}]},{"lat":"37.319902491","long":"127.06213378","imageIndex":8,"items":[{"name":"미리본의원","tel":"031-889-3399","addr":"경기도 용인시 수지구 성복동 409-1번지 202호","indutype":"의원 - 의원","category":"medical"},{"name":"소망정형외과의원","tel":"031-889-7582","addr":"경기도 용인시 수지구 성복동 409-1번지 301호","indutype":"의원 - 의원","category":"medical"},{"name":"수지성서약국","tel":"031-896-9300","addr":"경기도 용인시 수지구 성복동 409-1번지 성복빌딩 106호","indutype":"약국 - 약국","category":"medical"},{"name":"수지탑치과의원","tel":"031-276-2875","addr":"경기도 용인시 수지구 성복동 409-1번지 302호","indutype":"의원 - 치과의원","category":"medical"}]},{"lat":"37.313792346","long":"127.0799076","imageIndex":8,"items":[{"name":"미시간피부과의원","tel":"031-266-7589","addr":"경기도 용인시 수지구 성복동 74번지 세호빌딩 201호","indutype":"의원 - 의원","category":"medical"},{"name":"연세바른신경외과의원","tel":"031-261-8922","addr":"경기도 용인시 수지구 성복동 74번지 2층","indutype":"의원 - 의원","category":"medical"}]},{"lat":"37.31225842","long":"127.08319998","imageIndex":8,"items":[{"name":"비타민약국","tel":"","addr":"경기도 용인시 수지구 성복동 789번지 지하1층 롯데몰수지점","indutype":"약국 - 약국","category":"medical"},{"name":"웰니스 동물병원","tel":"031-898-1911","addr":"경기도 용인시 수지구 성복동 789번지 성복역롯데캐슬골드타운 지하1층","indutype":"기타의료기관 - 동물병원","category":"medical"}]},{"lat":"37.31711949","long":"127.07616559","imageIndex":8,"items":[{"name":"서울가정의학과의원","tel":"031-266-1191","addr":"경기도 용인시 수지구 성복동 155번지 1차단지 상가 304호","indutype":"의원 - 의원","category":"medical"}]},{"lat":"37.315152267","long":"127.0808566","imageIndex":8,"items":[{"name":"서울지혜치과의원","tel":"031-262-2008","addr":"경기도 용인시 수지구 성복동 740-1번지 드림타워 309호","indutype":"의원 - 치과의원","category":"medical"},{"name":"성복동물병원","tel":"031-263-3575","addr":"경기도 용인시 수지구 성복동 2-1드림타워B101","indutype":"기타의료기관 - 동물병원","category":"medical"},{"name":"오대경희한의원","tel":"031-272-5080","addr":"경기도 용인시 수지구 성복동 740-1번지 드림타워 209호","indutype":"의원 - 한의원","category":"medical"}]},{"lat":"37.313540221","long":"127.07965917","imageIndex":8,"items":[{"name":"성복365괜추나한의원","tel":"031-272-3650","addr":"경기도 용인시 수지구 성복동 74-6번지 세훈빌딩 2층","indutype":"의원 - 한의원","category":"medical"},{"name":"성복온누리약국","tel":"031-272-3952","addr":"경기도 용인시 수지구 성복동 74-6번지","indutype":"약국 - 약국","category":"medical"},{"name":"참좋은치과의원","tel":"031-261-2804","addr":"경기도 용인시 수지구 성복동 74-6번지 3층","indutype":"의원 - 치과의원","category":"medical"}]},{"lat":"37.318952222","long":"127.06999632","imageIndex":8,"items":[{"name":"성복본한의원","tel":"031-896-8028","addr":"경기도 용인시 수지구 성복동 731번지 성동마을엘지빌리지6차 307호","indutype":"의원 - 한의원","category":"medical"},{"name":"안종인치과","tel":"031-265-7665","addr":"경기도 용인시 수지구 성복동 731성동마을엘지빌리지상가동301,302","indutype":"의원 - 치과의원","category":"medical"},{"name":"원약국","tel":"031-272-2351","addr":"경기도 용인시 수지구 성복동 731번지 엘지빌리지6차 상가동 105호","indutype":"약국 - 약국","category":"medical"}]},{"lat":"37.314702045","long":"127.08041617","imageIndex":8,"items":[{"name":"수지그린정형외과","tel":"031-266-2792","addr":"경기도 용인시 수지구 성복동 748-1신봉브이샤르망2,201호~202호","indutype":"의원 - 의원","category":"medical"}]},{"lat":"37.314288265","long":"127.07935534","imageIndex":8,"items":[{"name":"수지이다치과의원","tel":"031-263-2825","addr":"경기도 용인시 수지구 성복동 76번지","indutype":"의원 - 치과의원","category":"medical"}]},{"lat":"37.312486151","long":"127.07946632","imageIndex":8,"items":[{"name":"애이치 한의원","tel":"031-897-0005","addr":"경기도 용인시 수지구 성복동 68-1번지 3층","indutype":"의원 - 한의원","category":"medical"},{"name":"온누리치과","tel":"031-261-1455","addr":"경기도 용인시 수지구 성복동 68-1번지 커널유니크상가 4층 402호","indutype":"의원 - 치과의원","category":"medical"}]},{"lat":"37.315542043","long":"127.07722448","imageIndex":8,"items":[{"name":"엘지약국","tel":"031-266-6151","addr":"경기도 용인시 수지구 성복동 98-10번지 LG빌리지1차상가 105호","indutype":"약국 - 약국","category":"medical"},{"name":"예향치과의원","tel":"031-266-8275","addr":"경기도 용인시 수지구 성복동 98-10번지 엘지빌리지단지 상가 307호","indutype":"의원 - 치과의원","category":"medical"}]},{"lat":"37.315399006","long":"127.07540809","imageIndex":8,"items":[{"name":"예담가족한의원","tel":"031-265-7337","addr":"경기도 용인시 수지구 성복동 162-2 예반아이엔프라자303호,304호","indutype":"의원 - 한의원","category":"medical"},{"name":"즐거운동물병원","tel":"031-272-7583","addr":"경기도 용인시 수지구 성복동 162-2번지 예반아이엔프라자 113호","indutype":"기타의료기관 - 동물병원","category":"medical"}]},{"lat":"37.313423648","long":"127.07879043","imageIndex":8,"items":[{"name":"힐링의원","tel":"031-263-7800","addr":"경기도 용인시 수지구 성복동 89번지 데이파크 A동 301호","indutype":"의원 - 의원","category":"medical"}]}]