[{"lat":"37.275377923","long":"126.98242892","imageIndex":17,"items":[{"name":"(사단)한국토양비료학회","tel":"031-295-7335","addr":"경기도 수원시 권선구 서둔동 249","indutype":"기타 - 비영리/대상","category":"other"},{"name":"[지로](사단)한국토양비료학회","tel":"031-295-7335","addr":"경기도 수원시 권선구 서둔동 249","indutype":"유통업 영리 - 인터넷 Mall","category":"other"},{"name":"사단법인한국농약과학회","tel":"031-296-4088","addr":"경기도 수원시 권선구 서둔동 249번지","indutype":"기타 - 비영리/비대상","category":"other"}]},{"lat":"37.271043904","long":"126.98200166","imageIndex":17,"items":[{"name":"(주) 지앤피와함께","tel":"031-298-3033","addr":"경기도 수원시 권선구 서둔동 186-4번지 대성빌딩 205호","indutype":"신변잡화 - 기타잡화","category":"other"}]},{"lat":"37.270071209","long":"126.98450483","imageIndex":17,"items":[{"name":"(주)경기동아애드넷","tel":"031-251-0871","addr":"경기도 수원시 권선구 서둔동 134-2번지 1층","indutype":"용역 서비스 - 종합용역","category":"other"}]},{"lat":"37.267296315","long":"126.9863657","imageIndex":17,"items":[{"name":"(주)블루비에스","tel":"031-292-1447","addr":"경기도 수원시 권선구 서둔동 103-2번지 서울대농생명과학창업지원센터 2동 202호","indutype":"기타 - 기계공구","category":"other"},{"name":"(주)에이피디/원격지","tel":"031-278-4880","addr":"경기도 수원시 권선구 서둔동 103-2번지 서울대학교농업생명과학대학 3동 103호","indutype":"기타 - 기타 전문점","category":"other"},{"name":"(주)지이오플랜트","tel":"031-278-6808","addr":"경기도 수원시 권선구 서둔동 103-2번지 서울대농생명과확창업지원센터 2동 204호","indutype":"서적문구 - 과학기자재","category":"other"},{"name":"주식회사 새길","tel":"02-838-4500","addr":"경기도 수원시 권선구 서둔동 103-2번지 서울대학교농업생명과학대학 5동 106호","indutype":"건축자재 - 기타건축자재","category":"other"},{"name":"주식회사 새길조경","tel":"02-838-4500","addr":"경기도 수원시 권선구 서둔동 103-2번지 서울대학교농업생명과학대학 1동204호.5동106호","indutype":"건축자재 - 인테리어전문","category":"other"},{"name":"주식회사 투비그린","tel":"031-769-3679","addr":"경기도 수원시 권선구 서둔동 103-2번지 서울대농생명과학창업지원센터 2동 201호","indutype":"사무통신 - 통신기기","category":"other"},{"name":"주식회사 플랜티움","tel":"031-294-2283","addr":"경기도 수원시 권선구 서둔동 103-2번지 서울대학교농업생명과학대학 4동 211호","indutype":"건축자재 - 인테리어전문","category":"other"},{"name":"주식회사녹색식물연구소","tel":"031-281-1904","addr":"경기도 수원시 권선구 서둔동 103-2번지 농생명과학창업보육센터 2동 205호","indutype":"회원제형태 - 기타4","category":"other"},{"name":"주식회사큐브라인","tel":"031-291-5840","addr":"경기도 수원시 권선구 서둔동 103-2번지 서울대농업생명과학대학 201호","indutype":"건축자재 - 기타건축자재","category":"other"},{"name":"주식회사퍼피랑키티랑(Puppyrang Kittyrang","tel":"031-227-2575","addr":"경기도 수원시 권선구 서둔동 103-2번지 서울대학교농업생명과학대학 4동 203호","indutype":"문화.취미 - 애완동물","category":"other"},{"name":"중앙바이오팜주식회사","tel":"031-293-5580","addr":"경기도 수원시 권선구 서둔동 103-2번지 창업지원센터 1동 313호","indutype":"농업 - 비료,사료,종자","category":"other"}]},{"lat":"37.263017073","long":"126.9919469","imageIndex":17,"items":[{"name":"(주)이엔비/원격지","tel":"031-295-0331","addr":"경기도 수원시 권선구 서둔동 31-21번지","indutype":"기타 - 기타 전문점","category":"other"}]},{"lat":"37.266071858","long":"126.99583589","imageIndex":17,"items":[{"name":"AMSINTERNATIONAL TRADING","tel":"031-255-1951","addr":"경기도 수원시 권선구 서둔동 320-15번지","indutype":"의류 - 정장","category":"other"},{"name":"건영기업","tel":"031-232-7480","addr":"경기도 수원시 권선구 서둔동 320-15번지","indutype":"용역 서비스 - 기타용역서비스","category":"other"}]},{"lat":"37.26309794","long":"126.98972605","imageIndex":17,"items":[{"name":"DK시스템","tel":"031-000-0000","addr":"경기도 수원시 권선구 서둔동 27-133번지 에스엠 113동 403호","indutype":"용역 서비스 - 기타용역서비스","category":"other"}]},{"lat":"37.279566999","long":"126.97870679","imageIndex":17,"items":[{"name":"E존레포츠","tel":"031-292-5967","addr":"경기도 수원시 권선구 서둔동 260-99번지","indutype":"레져용품 - 스포츠·레져용품","category":"other"},{"name":"하나통신","tel":"070-8249-2799","addr":"경기도 수원시 권선구 서둔동 260-99번지 1층","indutype":"사무통신 - 통신기기","category":"other"},{"name":"한결게이트볼","tel":"031-292-5967","addr":"경기도 수원시 권선구 서둔동 260-99번지","indutype":"레져용품 - 스포츠·레져용품","category":"other"}]},{"lat":"37.278683985","long":"126.97867324","imageIndex":17,"items":[{"name":"GS25수원서둔점","tel":"","addr":"경기도 수원시 권선구 서둔동 260-29번지","indutype":"유통업 영리 - 편 의 점","category":"other"},{"name":"디자인코드","tel":"031-292-3323","addr":"경기도 수원시 권선구 서둔동 260-29번지 2층","indutype":"용역 서비스 - 종합용역","category":"other"}]},{"lat":"37.26707169","long":"126.99178848","imageIndex":17,"items":[{"name":"YG솔루션","tel":"","addr":"경기도 수원시 권선구 서둔동 45-42번지 201호","indutype":"건축자재 - 인테리어전문","category":"other"}]},{"lat":"37.266233733","long":"126.9917886","imageIndex":17,"items":[{"name":"sienamom","tel":"070-8639-9648","addr":"경기도 수원시 권선구 서둔동 17-358번지 1층","indutype":"의류 - 아동의류","category":"other"}]},{"lat":"37.266657378","long":"126.99367127","imageIndex":17,"items":[{"name":"가나종합인테리어","tel":"031-292-8704","addr":"경기도 수원시 권선구 서둔동 17-114번지 나이스밸 103호","indutype":"직물 - 카페트,커튼,천막,지물","category":"other"}]},{"lat":"37.269376578","long":"126.97972473","imageIndex":17,"items":[{"name":"가능실업","tel":"031-226-5621","addr":"경기도 수원시 권선구 서둔동 157-3번지","indutype":"용역 서비스 - 기타용역서비스","category":"other"},{"name":"가능환경(청소대행)","tel":"031-224-3928","addr":"경기도 수원시 권선구 서둔동 157-3번지","indutype":"용역 서비스 - 기타용역서비스","category":"other"},{"name":"웃는아이 이벤트","tel":"","addr":"경기도 수원시 권선구 서둔동 157-3번지","indutype":"용역 서비스 - 종합용역","category":"other"},{"name":"웃는아이이벤트","tel":"","addr":"경기도 수원시 권선구 서둔동 157-3번지 2층","indutype":"용역 서비스 - 종합용역","category":"other"}]},{"lat":"37.266963609","long":"126.99225072","imageIndex":17,"items":[{"name":"가람냉.난방","tel":"031-242-5244","addr":"경기도 수원시 권선구 서둔동 17-6번지 예일어린이집 지하층 102호","indutype":"전기제품 - 냉열기기","category":"other"}]},{"lat":"37.264098671","long":"126.99706488","imageIndex":17,"items":[{"name":"가린(GARIN)","tel":"070-0000-0000","addr":"경기도 수원시 권선구 서둔동 381번지 롯데몰수원 2층","indutype":"신변잡화 - 액세서리","category":"other"},{"name":"명품수선실","tel":"031-000-0000","addr":"경기도 수원시 권선구 서둔동 381번지 롯데백화점수원점 6층","indutype":"수리서비스 - 세탁소","category":"other"},{"name":"주식회사 누리여행사","tel":"031-8066-1870","addr":"경기도 수원시 권선구 서둔동 381번지 롯데몰수원점 3층","indutype":"여행 - 관광여행","category":"other"}]},{"lat":"37.26935135","long":"126.9924195","imageIndex":17,"items":[{"name":"거미특수인쇄","tel":"031-257-2266","addr":"경기도 수원시 권선구 서둔동 14-17번지","indutype":"서적문구 - 출판 및 인쇄물","category":"other"},{"name":"주식회사미래덴한","tel":"031-357-0958","addr":"경기도 수원시 권선구 서둔동 14-17번지","indutype":"농업 - 기타농업관련","category":"other"}]},{"lat":"37.262431653","long":"126.9950922","imageIndex":17,"items":[{"name":"경기시스템에어컨","tel":"031-1599-3644","addr":"경기도 수원시 권선구 서둔동 333-3번지 5호","indutype":"전기제품 - 냉열기기","category":"other"}]},{"lat":"37.278873189","long":"126.9786168","imageIndex":17,"items":[{"name":"경은도예","tel":"","addr":"경기도 수원시 권선구 서둔동 260-18번지 1층 공방","indutype":"문화.취미 - 문화취미기타","category":"other"},{"name":"성일용기","tel":"031-296-9269","addr":"경기도 수원시 권선구 서둔동 260-18번지","indutype":"직물 - 침구·수예점","category":"other"}]},{"lat":"37.270818861","long":"126.98325318","imageIndex":17,"items":[{"name":"경화광고","tel":"031-238-7977","addr":"경기도 수원시 권선구 서둔동 200-47번지 1층","indutype":"용역 서비스 - 종합용역","category":"other"}]},{"lat":"37.278981386","long":"126.97897759","imageIndex":17,"items":[{"name":"고품격명품천연청소","tel":"031-295-9282","addr":"경기도 수원시 권선구 서둔동 260-24번지 우신빌라","indutype":"용역 서비스 - 종합용역","category":"other"}]},{"lat":"37.263124995","long":"126.98995151","imageIndex":17,"items":[{"name":"공감 인테리어필름","tel":"","addr":"경기도 수원시 권선구 서둔동 27-134번지 삼익리베리움 501동 302호","indutype":"건축자재 - 인테리어전문","category":"other"}]},{"lat":"37.267792217","long":"126.98898115","imageIndex":17,"items":[{"name":"광일문화사","tel":"031-291-8084","addr":"경기도 수원시 권선구 서둔동 51-8번지","indutype":"서적문구 - 출판 및 인쇄물","category":"other"}]},{"lat":"37.270845614","long":"126.98164093","imageIndex":17,"items":[{"name":"광하우징","tel":"031-234-2917","addr":"경기도 수원시 권선구 서둔동 184-11번지 부성리치빌 102호","indutype":"건축자재 - 인테리어전문","category":"other"}]},{"lat":"37.264485671","long":"126.99111245","imageIndex":17,"items":[{"name":"국민에어컨","tel":"031-8639-9722","addr":"경기도 수원시 권선구 서둔동 27-122번지 다동 501호","indutype":"용역 서비스 - 기타용역서비스","category":"other"}]},{"lat":"37.269540877","long":"126.99689535","imageIndex":17,"items":[{"name":"굿에너지","tel":"070-4202-8204","addr":"경기도 수원시 권선구 서둔동 288-2번지 4층","indutype":"건축자재 - 조명기구","category":"other"},{"name":"다인에스(DaIn에스)","tel":"031-248-1483","addr":"경기도 수원시 권선구 서둔동 288-2번지 3층","indutype":"수리서비스 - 가정용품수리","category":"other"}]},{"lat":"37.267657332","long":"126.99150654","imageIndex":17,"items":[{"name":"글로리아","tel":"070-8964-3453","addr":"경기도 수원시 권선구 서둔동 45-13번지 202호","indutype":"회원제형태 - 기타4","category":"other"}]},{"lat":"37.268045063","long":"126.9950578","imageIndex":17,"items":[{"name":"금강세탁소","tel":"031-278-3636","addr":"경기도 수원시 권선구 서둔동 371번지 센트라우스 상가동 105호","indutype":"수리서비스 - 세탁소","category":"other"},{"name":"금강세탁소","tel":"031-278-3636","addr":"경기도 수원시 권선구 서둔동 371번지 센트라우스 상가 105호","indutype":"수리서비스 - 세탁소","category":"other"}]},{"lat":"37.270431287","long":"126.98247535","imageIndex":17,"items":[{"name":"금성주방","tel":"031-296-1588","addr":"경기도 수원시 권선구 서둔동 149-17번지","indutype":"수리서비스 - 가정용품수리","category":"other"}]},{"lat":"37.26923442","long":"126.99505768","imageIndex":17,"items":[{"name":"기반유통","tel":"031-204-4115","addr":"경기도 수원시 권선구 서둔동 17-148번지 동서아트빌라","indutype":"전기제품 - 가전제품","category":"other"}]},{"lat":"37.266484881","long":"126.98306265","imageIndex":17,"items":[{"name":"꿈길자사회적협동조합","tel":"031-242-8359","addr":"경기도 수원시 권선구 서둔동 103-25번지 경기상상캠퍼스 1990동 211호","indutype":"용역 서비스 - 사무서비스","category":"other"},{"name":"디자인 홍조","tel":"","addr":"경기도 수원시 권선구 서둔동 103-25번지 경기상상캠퍼스 청년1981동 1층 101호","indutype":"용역 서비스 - 사무서비스","category":"other"},{"name":"락희공방","tel":"070-8875-3783","addr":"경기도 수원시 권선구 서둔동 103-25번지 경기상상캠퍼스 손살이공방 1층 2호","indutype":"문화.취미 - 문화취미기타","category":"other"},{"name":"바이냥","tel":"031-000-0000","addr":"경기도 수원시 권선구 서둔동 103-25번지 경기상상캠퍼스 청년1981 101호","indutype":"문화.취미 - 애완동물","category":"other"},{"name":"썬스코 (SUNSCO)","tel":"","addr":"경기도 수원시 권선구 서둔동 103-25번지","indutype":"문화.취미 - 문화취미기타","category":"other"},{"name":"에스비디자인(Sb.design)","tel":"","addr":"경기도 수원시 권선구 서둔동 103-25번지 경기상상캠퍼스 생활 1980동 3층 303호","indutype":"용역 서비스 - 사무서비스","category":"other"},{"name":"유주디자인","tel":"031-422-2426","addr":"경기도 수원시 권선구 서둔동 103-25번지 3동 301층 경기상상캠퍼스생활1980 301호","indutype":"직물 - 침구·수예점","category":"other"},{"name":"짓거리연구소","tel":"","addr":"경기도 수원시 권선구 서둔동 103-25번지 경기상상캠퍼스 청년 1981동 2층 206호","indutype":"용역 서비스 - 종합용역","category":"other"}]},{"lat":"37.268792753","long":"126.99289309","imageIndex":17,"items":[{"name":"나노뷰","tel":"031-278-5384","addr":"경기도 수원시 권선구 서둔동 17-20번지","indutype":"건축자재 - 조명기구","category":"other"}]},{"lat":"37.269513624","long":"126.99347926","imageIndex":17,"items":[{"name":"낚해낚시점","tel":"031-238-8438","addr":"경기도 수원시 권선구 서둔동 9-36번지 길전빌딩 2층","indutype":"레져용품 - 스포츠·레져용품","category":"other"},{"name":"주식회사 편안들","tel":"031-296-8989","addr":"경기도 수원시 권선구 서둔동 9-36번지 길전빌딩","indutype":"농업 - 기타농업관련","category":"other"}]},{"lat":"37.274810679","long":"126.98490958","imageIndex":17,"items":[{"name":"농촌진흥청/삼원(담배)","tel":"","addr":"경기도 수원시 권선구 서둔동 250","indutype":"기타 - 기타 전문점","category":"other"},{"name":"사단법인한국토종연구회","tel":"031-299-1814","addr":"경기도 수원시 권선구 서둔동 250","indutype":"기타 - 기타 전문점","category":"other"},{"name":"후생식당","tel":"031-292-4370","addr":"경기도 수원시 권선구 서둔동 250번지","indutype":"유통업 비영리 - 공무원 연금 매점","category":"other"}]},{"lat":"37.262323138","long":"126.99050404","imageIndex":17,"items":[{"name":"다모아에스티엠(STM)","tel":"031-296-8272","addr":"경기도 수원시 권선구 서둔동 27-24번지","indutype":"회원제형태 - 기타1","category":"other"}]},{"lat":"37.270764581","long":"126.98197919","imageIndex":17,"items":[{"name":"다솜꽃방","tel":"031-295-8531","addr":"경기도 수원시 권선구 서둔동 185-1번지","indutype":"문화.취미 - 화원","category":"other"}]},{"lat":"37.279377771","long":"126.97865047","imageIndex":17,"items":[{"name":"단미","tel":"031-298-8550","addr":"경기도 수원시 권선구 서둔동 260-10번지 1층 101호","indutype":"의류 - 정장","category":"other"}]},{"lat":"37.268152846","long":"126.99097659","imageIndex":17,"items":[{"name":"대성인테리어","tel":"031-218-4022","addr":"경기도 수원시 권선구 서둔동 45-163번지","indutype":"건축자재 - 인테리어전문","category":"other"}]},{"lat":"37.271260032","long":"126.9813364","imageIndex":17,"items":[{"name":"대성철물","tel":"031-297-2822","addr":"경기도 수원시 권선구 서둔동 187-9번지","indutype":"건축자재 - 목재·석재·철물","category":"other"}]},{"lat":"37.268935107","long":"126.97989397","imageIndex":17,"items":[{"name":"대영정보통신","tel":"031-223-9158","addr":"경기도 수원시 권선구 서둔동 156-16번지 2층 202호","indutype":"사무통신 - 통신기기","category":"other"}]},{"lat":"37.268017695","long":"126.99101043","imageIndex":17,"items":[{"name":"대우발전기","tel":"031-205-8788","addr":"경기도 수원시 권선구 서둔동 45-92번지","indutype":"기타 - 기계공구","category":"other"}]},{"lat":"37.269099098","long":"126.99283668","imageIndex":17,"items":[{"name":"대진공조","tel":"031-294-1052","addr":"경기도 수원시 권선구 서둔동 14-5번지 1층","indutype":"전기제품 - 냉열기기","category":"other"}]},{"lat":"37.276954098","long":"126.97909099","imageIndex":17,"items":[{"name":"동남종합목재","tel":"","addr":"경기도 수원시 권선구 서둔동 243-63번지","indutype":"건축자재 - 목재·석재·철물","category":"other"}]},{"lat":"37.269072184","long":"126.9943136","imageIndex":17,"items":[{"name":"동명농기계","tel":"031-292-2388","addr":"경기도 수원시 권선구 서둔동 17-163번지","indutype":"농업 - 농기계","category":"other"}]},{"lat":"37.261539599","long":"126.99458501","imageIndex":17,"items":[{"name":"동양샷시건축공사","tel":"02-1111-1111","addr":"경기도 수원시 권선구 서둔동 333-37번지","indutype":"용역 서비스 - 기타용역서비스","category":"other"}]},{"lat":"37.26884669","long":"126.99150637","imageIndex":17,"items":[{"name":"동양후레임","tel":"","addr":"경기도 수원시 권선구 서둔동 14-19번지 1층,2층","indutype":"용역 서비스 - 종합용역","category":"other"}]},{"lat":"37.263404671","long":"126.9937844","imageIndex":17,"items":[{"name":"디바이디인테리어","tel":"","addr":"경기도 수원시 권선구 서둔동 23-8번지","indutype":"건축자재 - 인테리어전문","category":"other"}]},{"lat":"37.268098719","long":"126.99034525","imageIndex":17,"items":[{"name":"디자인 봄","tel":"031-236-3883","addr":"경기도 수원시 권선구 서둔동 45-171번지 2층","indutype":"서적문구 - 출판 및 인쇄물","category":"other"}]},{"lat":"37.268459315","long":"126.99222797","imageIndex":17,"items":[{"name":"라미야수원점","tel":"031-291-1070","addr":"경기도 수원시 권선구 서둔동 17-29번지","indutype":"기타 - 기타 전문점","category":"other"},{"name":"잉크몬스터","tel":"031-291-1070","addr":"경기도 수원시 권선구 서둔동 17-29번지","indutype":"사무통신 - 기타 사무용품","category":"other"}]},{"lat":"37.270540792","long":"126.99342276","imageIndex":17,"items":[{"name":"라인테크","tel":"031-292-2280","addr":"경기도 수원시 권선구 서둔동 14-53번지","indutype":"수리서비스 - 가정용품수리","category":"other"},{"name":"서원전자","tel":"031-292-2280","addr":"경기도 수원시 권선구 서둔동 14-53번지","indutype":"전기제품 - 가전제품","category":"other"}]},{"lat":"37.270990174","long":"126.9839747","imageIndex":17,"items":[{"name":"럭셔리패션","tel":"031-295-4465","addr":"경기도 수원시 권선구 서둔동 199-8번지","indutype":"의류 - 정장","category":"other"},{"name":"황성희패션","tel":"031-295-4465","addr":"경기도 수원시 권선구 서둔동 199-8번지","indutype":"의류 - 정장","category":"other"}]},{"lat":"37.267567194","long":"126.99114579","imageIndex":17,"items":[{"name":"로멕스코리아(ROMAX KOREA)","tel":"02-1111-1111","addr":"경기도 수원시 권선구 서둔동 45-136번지 2동 202호","indutype":"수리서비스 - 기타수리서비스","category":"other"}]},{"lat":"37.277098216","long":"126.97886543","imageIndex":17,"items":[{"name":"로샤 채원","tel":"","addr":"경기도 수원시 권선구 서둔동 243-1번지 1층","indutype":"의류 - 내의판매","category":"other"},{"name":"전기온돌판넬,필름총판(창성전기)","tel":"031-255-0494","addr":"경기도 수원시 권선구 서둔동 243-1번지","indutype":"건축자재 - 기타건축자재","category":"other"},{"name":"화씨낙시","tel":"","addr":"경기도 수원시 권선구 서둔동 243-1번지 1층","indutype":"레져용품 - 스포츠·레져용품","category":"other"},{"name":"훈스(HUN''S)드럼","tel":"","addr":"경기도 수원시 권선구 서둔동 243-1번지 B1층","indutype":"용역 서비스 - 사무서비스","category":"other"}]},{"lat":"37.270989729","long":"126.9813703","imageIndex":17,"items":[{"name":"루리아트","tel":"","addr":"경기도 수원시 권선구 서둔동 183-3번지 B1층","indutype":"문화.취미 - 화랑","category":"other"}]},{"lat":"37.264017262","long":"126.99245406","imageIndex":17,"items":[{"name":"리라렌터카(수원영업소)","tel":"031-227-6005","addr":"경기도 수원시 권선구 서둔동 31-2번지 101호","indutype":"여행 - 렌터카","category":"other"}]},{"lat":"37.271403805","long":"126.9792844","imageIndex":17,"items":[{"name":"명에어컨","tel":"031-293-6111","addr":"경기도 수원시 권선구 서둔동 179-12번지 1층","indutype":"전기제품 - 가전제품","category":"other"}]},{"lat":"37.271296839","long":"126.98606041","imageIndex":17,"items":[{"name":"물고랑수족관","tel":"031-296-0246","addr":"경기도 수원시 권선구 서둔동 207-7번지","indutype":"문화.취미 - 수족관","category":"other"},{"name":"주식회사 디오디","tel":"031-291-2491","addr":"경기도 수원시 권선구 서둔동 207-7번지 1층, 2층","indutype":"직물 - 옷감·직물","category":"other"},{"name":"한성","tel":"031-296-0538","addr":"경기도 수원시 권선구 서둔동 207-7번지 3층","indutype":"용역 서비스 - 기타용역서비스","category":"other"}]},{"lat":"37.264098356","long":"126.9924766","imageIndex":17,"items":[{"name":"미니스톱 서둔연화점","tel":"031-1577-9621","addr":"경기도 수원시 권선구 서둔동 33-4번지 1층 지하층","indutype":"유통업 영리 - 편 의 점","category":"other"}]},{"lat":"37.270990284","long":"126.98467372","imageIndex":17,"items":[{"name":"미래LED조명","tel":"031-278-2286","addr":"경기도 수원시 권선구 서둔동 199-2번지 1층","indutype":"건축자재 - 조명기구","category":"other"}]},{"lat":"37.267738389","long":"126.99114577","imageIndex":17,"items":[{"name":"미샵(연이네)","tel":"031-333-5356","addr":"경기도 수원시 권선구 서둔동 45-141번지 1층","indutype":"의류 - 정장","category":"other"}]},{"lat":"37.261296266","long":"126.99384102","imageIndex":17,"items":[{"name":"미스터싸인","tel":"031-293-1224","addr":"경기도 수원시 권선구 서둔동 24-30,13-39,13-183","indutype":"용역 서비스 - 종합용역","category":"other"}]},{"lat":"37.270765139","long":"126.98541789","imageIndex":17,"items":[{"name":"보금당","tel":"031-248-8004","addr":"경기도 수원시 권선구 서둔동 106-17번지 103호","indutype":"신변잡화 - 귀금속","category":"other"}]},{"lat":"37.262124897","long":"126.99036879","imageIndex":17,"items":[{"name":"봄꽃집","tel":"","addr":"경기도 수원시 권선구 서둔동 27-31번지","indutype":"문화.취미 - 화원","category":"other"}]},{"lat":"37.269899935","long":"126.9840088","imageIndex":17,"items":[{"name":"비쥬플래닝","tel":"070-4090-0277","addr":"경기도 수원시 권선구 서둔동 146-18번지 1층","indutype":"의류 - 정장","category":"other"},{"name":"주식회사 대호전기관리공사","tel":"031-227-8227","addr":"경기도 수원시 권선구 서둔동 146-18번지 1층","indutype":"용역 서비스 - 종합용역","category":"other"}]},{"lat":"37.278568056","long":"126.98552884","imageIndex":17,"items":[{"name":"사단법인한국육종학회","tel":"031-296-6898","addr":"경기도 수원시 권선구 서둔동 225-1번지 농촌진흥청국립식량과학원내 중부작물부","indutype":"기타 - 비영리/대상","category":"other"},{"name":"사단법인한국작물학회","tel":"0502-258-1962","addr":"경기도 수원시 권선구 서둔동 225-1번지","indutype":"기타 - 비영리/대상","category":"other"}]},{"lat":"37.271152674","long":"126.98606044","imageIndex":17,"items":[{"name":"삼원건설","tel":"031-293-1263","addr":"경기도 수원시 권선구 서둔동 207-9번지 1층","indutype":"건축자재 - 인테리어전문","category":"other"}]},{"lat":"37.266233969","long":"126.99467468","imageIndex":17,"items":[{"name":"삼원알미늄","tel":"070-8966-6066","addr":"경기도 수원시 권선구 서둔동 20-10번지 102호","indutype":"용역 서비스 - 기타용역서비스","category":"other"}]},{"lat":"37.272323995","long":"126.98594744","imageIndex":17,"items":[{"name":"서둔동주민자치위원회","tel":"031-228-6646","addr":"경기도 수원시 권선구 서둔동 207-13번지","indutype":"문화.취미 - 문화취미기타","category":"other"}]},{"lat":"37.270990266","long":"126.98456098","imageIndex":17,"items":[{"name":"서둔바이크","tel":"031-291-8946","addr":"경기도 수원시 권선구 서둔동 199-11번지","indutype":"수리서비스 - 레져용품수리","category":"other"}]},{"lat":"37.270792121","long":"126.98509092","imageIndex":17,"items":[{"name":"서호보석","tel":"031-295-5537","addr":"경기도 수원시 권선구 서둔동 143-1번지","indutype":"신변잡화 - 시계","category":"other"}]},{"lat":"37.270737883","long":"126.98395222","imageIndex":17,"items":[{"name":"성광지업사","tel":"031-297-1316","addr":"경기도 수원시 권선구 서둔동 200-39번지","indutype":"건축자재 - 인테리어전문","category":"other"}]},{"lat":"37.265900423","long":"126.99256654","imageIndex":17,"items":[{"name":"세븐일레븐수원서둔중앙점","tel":"031-1577-0711","addr":"경기도 수원시 권선구 서둔동 17-276번지","indutype":"유통업 영리 - 편 의 점","category":"other"}]},{"lat":"37.271017285","long":"126.98448205","imageIndex":17,"items":[{"name":"세탁나라","tel":"031-296-8207","addr":"경기도 수원시 권선구 서둔동 199-12번지","indutype":"수리서비스 - 세탁소","category":"other"}]},{"lat":"37.271593487","long":"126.98175347","imageIndex":17,"items":[{"name":"세한설비(열쇠)","tel":"","addr":"경기도 수원시 권선구 서둔동 187-4번지","indutype":"용역 서비스 - 기타용역서비스","category":"other"}]},{"lat":"37.266566887","long":"126.98959016","imageIndex":17,"items":[{"name":"소잉룸 도담","tel":"031-233-5851","addr":"경기도 수원시 권선구 서둔동 39-37번지 1층","indutype":"문화.취미 - 문화취미기타","category":"other"}]},{"lat":"37.271070787","long":"126.98117861","imageIndex":17,"items":[{"name":"수원메디팜","tel":"031-294-8411","addr":"경기도 수원시 권선구 서둔동 183-1번지","indutype":"기타의료기관 - 기타의료기관 및 기타","category":"other"}]},{"lat":"37.267018041","long":"126.99784256","imageIndex":17,"items":[{"name":"스탈보드(stall boards)","tel":"031-292-5939","addr":"경기도 수원시 권선구 서둔동 296-3번지 1층 102호 수원역세권 9-1블럭","indutype":"레져용품 - 스포츠·레져용품","category":"other"}]},{"lat":"37.269628857","long":"126.97967955","imageIndex":17,"items":[{"name":"신원건재","tel":"031-292-6766","addr":"경기도 수원시 권선구 서둔동 158-2번지","indutype":"건축자재 - 기타건축자재","category":"other"}]},{"lat":"37.270791886","long":"126.98359142","imageIndex":17,"items":[{"name":"썬컴퓨터","tel":"","addr":"경기도 수원시 권선구 서둔동 200-41번지","indutype":"사무통신 - 컴퓨터","category":"other"}]},{"lat":"37.266350965","long":"126.99289342","imageIndex":17,"items":[{"name":"씨앤제이(C&J)","tel":"031-893-5977","addr":"경기도 수원시 권선구 서둔동 17-451번지","indutype":"전기제품 - 냉열기기","category":"other"}]},{"lat":"37.269045212","long":"126.99517044","imageIndex":17,"items":[{"name":"씨에스(CS)컴퍼니","tel":"031-893-5062","addr":"경기도 수원시 권선구 서둔동 17-436번지 1층","indutype":"수리서비스 - 기타수리서비스","category":"other"}]},{"lat":"37.268297016","long":"126.99103294","imageIndex":17,"items":[{"name":"씨유수원서둔스카이점","tel":"031-294-1912","addr":"경기도 수원시 권선구 서둔동 46-4번지 1층","indutype":"유통업 영리 - 편 의 점","category":"other"}]},{"lat":"37.270377786","long":"126.98603807","imageIndex":17,"items":[{"name":"씨유수원서둔점","tel":"031-292-0092","addr":"경기도 수원시 권선구 서둔동 106-8번지","indutype":"유통업 영리 - 편 의 점","category":"other"}]},{"lat":"37.270926718","long":"126.98170855","imageIndex":17,"items":[{"name":"씨유수원하이플러스점","tel":"031-296-9602","addr":"경기도 수원시 권선구 서둔동 184-11번지 부성리치빌 107동 101호","indutype":"유통업 영리 - 편 의 점","category":"other"}]},{"lat":"37.269350059","long":"126.98250947","imageIndex":17,"items":[{"name":"아미스토어","tel":"070-8841-0634","addr":"경기도 수원시 권선구 서둔동 150-3번지 101호","indutype":"신변잡화 - 기타잡화","category":"other"}]},{"lat":"37.27768385","long":"126.97869611","imageIndex":17,"items":[{"name":"아지트편의점","tel":"031-000-0000","addr":"경기도 수원시 권선구 서둔동 243-6번지 엔프라자 2층","indutype":"유통업 영리 - 편 의 점","category":"other"}]},{"lat":"37.269593741","long":"126.98501228","imageIndex":17,"items":[{"name":"에스시스템","tel":"070-8286-7610","addr":"경기도 수원시 권선구 서둔동 108-5번지","indutype":"전기제품 - 냉열기기","category":"other"}]},{"lat":"37.26532384","long":"126.99347978","imageIndex":17,"items":[{"name":"에어콘 나라","tel":"031-292-7532","addr":"경기도 수원시 권선구 서둔동 22번지","indutype":"용역 서비스 - 기타용역서비스","category":"other"}]},{"lat":"37.271124564","long":"126.97967909","imageIndex":17,"items":[{"name":"엔테크(N-Tech)","tel":"031-1111-1111","addr":"경기도 수원시 권선구 서둔동 179-15번지 101호","indutype":"서적문구 - 과학기자재","category":"other"}]},{"lat":"37.267296891","long":"126.9912022","imageIndex":17,"items":[{"name":"엘라인","tel":"070-4121-1364","addr":"경기도 수원시 권선구 서둔동 45-52번지 1동","indutype":"건축자재 - 조명기구","category":"other"}]},{"lat":"37.272062162","long":"126.98255383","imageIndex":17,"items":[{"name":"엘지에어컨공조(KID)","tel":"","addr":"경기도 수원시 권선구 서둔동 188-2번지 청한파크맨션 7동 109호","indutype":"용역 서비스 - 기타용역서비스","category":"other"}]},{"lat":"37.27053927","long":"126.98167484","imageIndex":17,"items":[{"name":"엘지유통","tel":"031-309-1882","addr":"경기도 수원시 권선구 서둔동 185-14 제2층 202호","indutype":"유통업 영리 - 기타유통업","category":"other"}]},{"lat":"37.266458996","long":"126.99184494","imageIndex":17,"items":[{"name":"여름n에어컨","tel":"","addr":"경기도 수원시 권선구 서둔동 17-351번지 1층","indutype":"용역 서비스 - 기타용역서비스","category":"other"}]},{"lat":"37.271071482","long":"126.98537272","imageIndex":17,"items":[{"name":"여인여인사진관","tel":"031-291-2058","addr":"경기도 수원시 권선구 서둔동 202-2번지","indutype":"광학제품 - 사진관","category":"other"}]},{"lat":"37.271044045","long":"126.98281342","imageIndex":17,"items":[{"name":"영광종합공사","tel":"031-295-4705","addr":"경기도 수원시 권선구 서둔동 200-50번지","indutype":"용역 서비스 - 기타용역서비스","category":"other"}]},{"lat":"37.265711128","long":"126.99169849","imageIndex":17,"items":[{"name":"영희피부관리","tel":"031-246-1558","addr":"경기도 수원시 권선구 서둔동 36번지","indutype":"회원제형태 - 기타4","category":"other"}]},{"lat":"37.278179382","long":"126.9785381","imageIndex":17,"items":[{"name":"예쁜옷수선집","tel":"031-296-4710","addr":"경기도 수원시 권선구 서둔동 243-51번지","indutype":"수리서비스 - 세탁소","category":"other"}]},{"lat":"37.271233711","long":"126.98567709","imageIndex":17,"items":[{"name":"오세요철물공구","tel":"031-239-3642","addr":"경기도 수원시 권선구 서둔동 207-15번지","indutype":"건축자재 - 목재·석재·철물","category":"other"}]},{"lat":"37.27062982","long":"126.98433557","imageIndex":17,"items":[{"name":"오컨설팅(OH Consulting)","tel":"070-4133-8109","addr":"경기도 수원시 권선구 서둔동 200-35번지 3층 301호","indutype":"용역 서비스 - 소프트웨어","category":"other"}]},{"lat":"37.263764763","long":"126.99028961","imageIndex":17,"items":[{"name":"위드미 수원서둔삼익점","tel":"","addr":"경기도 수원시 권선구 서둔동 27-138번지 삼익리베리움 310동 101호","indutype":"유통업 영리 - 편 의 점","category":"other"},{"name":"위드미 수원서둔삼익점","tel":"","addr":"경기도 수원시 권선구 서둔동 27-138번지 삼익리베리움 310동 101호","indutype":"유통업 영리 - 편 의 점","category":"other"}]},{"lat":"37.263846454","long":"126.99875591","imageIndex":17,"items":[{"name":"위드미 수원환승센터점","tel":"031-323-6016","addr":"경기도 수원시 권선구 서둔동 296-108번지 101호","indutype":"유통업 영리 - 편 의 점","category":"other"}]},{"lat":"37.271430885","long":"126.97953243","imageIndex":17,"items":[{"name":"유화설비","tel":"031-291-3613","addr":"경기도 수원시 권선구 서둔동 179-10번지","indutype":"용역 서비스 - 기타용역서비스","category":"other"}]},{"lat":"37.270538992","long":"126.98017535","imageIndex":17,"items":[{"name":"이디케이코퍼레이션","tel":"031-292-3327","addr":"경기도 수원시 권선구 서둔동 173번지","indutype":"서적문구 - 기타서적문구","category":"other"}]},{"lat":"37.266792147","long":"126.98961267","imageIndex":17,"items":[{"name":"이마트24 수원서둔점","tel":"031-000-0000","addr":"경기도 수원시 권선구 서둔동 39-19번지","indutype":"유통업 영리 - 편 의 점","category":"other"},{"name":"이마트24 수원서둔점","tel":"","addr":"경기도 수원시 권선구 서둔동 39-19번지","indutype":"유통업 영리 - 편 의 점","category":"other"}]},{"lat":"37.264900245","long":"126.9921721","imageIndex":17,"items":[{"name":"이환솔루션","tel":"031-293-2979","addr":"경기도 수원시 권선구 서둔동 17-239번지","indutype":"사무통신 - 기타 사무용품","category":"other"}]},{"lat":"37.263963118","long":"126.99156347","imageIndex":17,"items":[{"name":"자연애 공방","tel":"","addr":"경기도 수원시 권선구 서둔동 32-6번지 1층","indutype":"신변잡화 - 기타잡화","category":"other"}]},{"lat":"37.264179396","long":"126.99189037","imageIndex":17,"items":[{"name":"정호이엔지","tel":"031-278-4874","addr":"경기도 수원시 권선구 서둔동 33-1번지","indutype":"용역 서비스 - 기타용역서비스","category":"other"}]},{"lat":"37.266594162","long":"126.9919802","imageIndex":17,"items":[{"name":"제이난방","tel":"","addr":"경기도 수원시 권선구 서둔동 17-343번지","indutype":"수리서비스 - 기타수리서비스","category":"other"}]},{"lat":"37.26656694","long":"126.99006366","imageIndex":17,"items":[{"name":"제이케이배관","tel":"031-296-3160","addr":"경기도 수원시 권선구 서둔동 39-43번지","indutype":"건축자재 - 보일러·펌프·샷시","category":"other"}]},{"lat":"37.270180354","long":"126.99308457","imageIndex":17,"items":[{"name":"주식회사 경일정보","tel":"031-235-6920","addr":"경기도 수원시 권선구 서둔동 14-44번지 1동","indutype":"사무통신 - 통신기기","category":"other"},{"name":"주식회사 다우에프엔씨","tel":"031-278-0295","addr":"경기도 수원시 권선구 서둔동 14-44번지","indutype":"레져용품 - 스포츠·레져용품","category":"other"}]},{"lat":"37.264152326","long":"126.99147325","imageIndex":17,"items":[{"name":"주식회사 예찬","tel":"031-831-8687","addr":"경기도 수원시 권선구 서둔동 31-95번지 2층","indutype":"용역 서비스 - 종합용역","category":"other"}]},{"lat":"37.271205716","long":"126.97998348","imageIndex":17,"items":[{"name":"주식회사 태경전력","tel":"031-253-2141","addr":"경기도 수원시 권선구 서둔동 180-1번지","indutype":"용역 서비스 - 기타용역서비스","category":"other"}]},{"lat":"37.27472864","long":"126.97949759","imageIndex":17,"items":[{"name":"주식회사 하나환경개발","tel":"031-295-9550","addr":"경기도 수원시 권선구 서둔동 377번지 서수원울트라참누리파크 2층 201호","indutype":"용역 서비스 - 종합용역","category":"other"}]},{"lat":"37.269684053","long":"126.98645537","imageIndex":17,"items":[{"name":"주식회사에텔바이오","tel":"031-548-1680","addr":"경기도 수원시 권선구 서둔동 103-7번지 2층","indutype":"서적문구 - 과학기자재","category":"other"}]},{"lat":"37.262206359","long":"126.99456239","imageIndex":17,"items":[{"name":"진성기획","tel":"070-8991-0151","addr":"경기도 수원시 권선구 서둔동 333-22번지 1층 101호","indutype":"용역 서비스 - 종합용역","category":"other"}]},{"lat":"37.264963116","long":"126.99014285","imageIndex":17,"items":[{"name":"진솔기획","tel":"031-293-0383","addr":"경기도 수원시 권선구 서둔동 40-7번지","indutype":"서적문구 - 출판 및 인쇄물","category":"other"}]},{"lat":"37.268179843","long":"126.99064964","imageIndex":17,"items":[{"name":"진흥전자","tel":"031-295-2190","addr":"경기도 수원시 권선구 서둔동 45-10번지","indutype":"수리서비스 - 가정용품수리","category":"other"}]},{"lat":"37.264206613","long":"126.9941225","imageIndex":17,"items":[{"name":"천마골재수원점","tel":"031-293-9035","addr":"경기도 수원시 권선구 서둔동 323-66번지 정면좌측","indutype":"건축자재 - 기타건축자재","category":"other"}]},{"lat":"37.270755446","long":"126.98128017","imageIndex":17,"items":[{"name":"친절한 낙화씨","tel":"070-4242-8987","addr":"경기도 수원시 권선구 서둔동 184-5번지 부성리치빌 104동 B02호","indutype":"문화.취미 - 화랑","category":"other"}]},{"lat":"37.268324404","long":"126.99540727","imageIndex":17,"items":[{"name":"쿡 앤 베이크","tel":"","addr":"경기도 수원시 권선구 서둔동 371번지 센트라우스 113동 202호","indutype":"문화.취미 - 문화취미기타","category":"other"}]},{"lat":"37.266792463","long":"126.99281444","imageIndex":17,"items":[{"name":"크린워터","tel":"031-226-1347","addr":"경기도 수원시 권선구 서둔동 17-597번지 가동 106호","indutype":"용역 서비스 - 종합용역","category":"other"}]},{"lat":"37.266630375","long":"126.99403203","imageIndex":17,"items":[{"name":"크린토피아센트라우스점","tel":"031-291-7755","addr":"경기도 수원시 권선구 서둔동 17-65번지 정안빌딩 101호","indutype":"수리서비스 - 세탁소","category":"other"}]},{"lat":"37.268430782","long":"126.98122447","imageIndex":17,"items":[{"name":"퍼스트 건축설비","tel":"","addr":"경기도 수원시 권선구 서둔동 95-54번지","indutype":"용역 서비스 - 기타용역서비스","category":"other"}]},{"lat":"37.270404773","long":"126.98573365","imageIndex":17,"items":[{"name":"푸른정보통신","tel":"031-203-8057","addr":"경기도 수원시 권선구 서둔동 107-1번지 2층","indutype":"사무통신 - 통신기기","category":"other"}]},{"lat":"37.27079201","long":"126.98436936","imageIndex":17,"items":[{"name":"프렌즈","tel":"031-293-3620","addr":"경기도 수원시 권선구 서둔동 200-38번지 102호","indutype":"의류 - 정장","category":"other"}]},{"lat":"37.269072049","long":"126.99262248","imageIndex":17,"items":[{"name":"한국계기","tel":"031-295-3431","addr":"경기도 수원시 권선구 서둔동 14-6번지","indutype":"기타 - 기타 전문점","category":"other"}]},{"lat":"37.268873959","long":"126.99433617","imageIndex":17,"items":[{"name":"한국공원조경주식회사","tel":"031-267-1211","addr":"경기도 수원시 권선구 서둔동 17-161번지","indutype":"건축자재 - 인테리어전문","category":"other"}]},{"lat":"37.269296495","long":"126.98564371","imageIndex":17,"items":[{"name":"한국기계공구","tel":"031-254-5050","addr":"경기도 수원시 권선구 서둔동 103-10번지","indutype":"기타 - 기계공구","category":"other"}]},{"lat":"37.272377754","long":"126.98395181","imageIndex":17,"items":[{"name":"한국잡초학회","tel":"031-290-0565","addr":"경기도 수원시 권선구 서둔동 209번지","indutype":"기타 - 비영리/대상","category":"other"}]},{"lat":"37.261872998","long":"126.99484425","imageIndex":17,"items":[{"name":"한양목재","tel":"031-238-3953","addr":"경기도 수원시 권선구 서둔동 333-36번지","indutype":"건축자재 - 기타건축자재","category":"other"}]},{"lat":"37.267792248","long":"126.98925173","imageIndex":17,"items":[{"name":"형민사","tel":"031-292-0100","addr":"경기도 수원시 권선구 서둔동 51-2번지","indutype":"서적문구 - 출판 및 인쇄물","category":"other"}]},{"lat":"37.267143578","long":"126.98988318","imageIndex":17,"items":[{"name":"화성과일상회","tel":"031-303-9686","addr":"경기도 수원시 권선구 서둔동 39-51번지 세종하이빌 107동 201호","indutype":"회원제형태 - 기타1","category":"other"}]},{"lat":"37.267296315","long":"126.9863657","imageIndex":7,"items":[{"name":"(주) 더플랜잇","tel":"031-000-0000","addr":"경기도 수원시 권선구 서둔동 103-2번지 서울대학교농업생명과학대학 1동 2층 207B호","indutype":"음료식품 - 기타음료식품","category":"food"},{"name":"(주)네오리젠바이오텍","tel":"031-292-0732","addr":"경기도 수원시 권선구 서둔동 103-2번지 서울대학교농업생명과학대학 2동 1층 101호","indutype":"건강식품 - 기타건강식품","category":"food"},{"name":"농업회사법인 수정바이오팜 주식회사","tel":"031-222-8497","addr":"경기도 수원시 권선구 서둔동 103-2번지 서울대학교 창업지원센터 농업생명과학","indutype":"건강식품 - 기타건강식품","category":"food"},{"name":"스페이스젤리","tel":"","addr":"경기도 수원시 권선구 서둔동 103-2번지 서울대학교농업생명과학대학 1동 309호","indutype":"음료식품 - 농·축·수산품","category":"food"}]},{"lat":"37.270791348","long":"126.98053605","imageIndex":7,"items":[{"name":"개성상인","tel":"070-4849-0627","addr":"경기도 수원시 권선구 서둔동 175-4","indutype":"건강식품 - 홍삼제품","category":"food"},{"name":"신수원대리점","tel":"070-7608-1273","addr":"경기도 수원시 권선구 서둔동 175-4번지","indutype":"음료식품 - 기타음료식품","category":"food"}]},{"lat":"37.279260631","long":"126.97861668","imageIndex":7,"items":[{"name":"고향떡방앗간","tel":"031-293-4505","addr":"경기도 수원시 권선구 서둔동 260-13번지","indutype":"음료식품 - 제과점","category":"food"}]},{"lat":"37.278179382","long":"126.9785381","imageIndex":7,"items":[{"name":"구움새애","tel":"031-0000-0000","addr":"경기도 수원시 권선구 서둔동 243-51번지 1층 1호","indutype":"음료식품 - 기타음료식품","category":"food"}]},{"lat":"37.271043904","long":"126.98200166","imageIndex":7,"items":[{"name":"농업회사법인주식회사바이오맥연구소","tel":"031-892-6644","addr":"경기도 수원시 권선구 서둔동 186-4번지","indutype":"음료식품 - 미곡상","category":"food"}]},{"lat":"37.270990201","long":"126.98414382","imageIndex":7,"items":[{"name":"다농정육점","tel":"031-296-9466","addr":"경기도 수원시 권선구 서둔동 199-6번지","indutype":"음료식품 - 정육점","category":"food"}]},{"lat":"37.264512519","long":"126.98939887","imageIndex":7,"items":[{"name":"다정초밥","tel":"","addr":"경기도 수원시 권선구 서둔동 27-63번지 105동 202호","indutype":"음료식품 - 기타음료식품","category":"food"}]},{"lat":"37.270989944","long":"126.98258794","imageIndex":7,"items":[{"name":"더썬1982","tel":"070-997-9970","addr":"경기도 수원시 권선구 서둔동 200-58번지 1층 2호","indutype":"음료식품 - 기타음료식품","category":"food"}]},{"lat":"37.270845614","long":"126.98164093","imageIndex":7,"items":[{"name":"동호유통","tel":"031-000-0000","addr":"경기도 수원시 권선구 서둔동 184-11번지 부성리치빌 102호","indutype":"음료식품 - 농·축·수산품","category":"food"}]},{"lat":"37.269045212","long":"126.99517044","imageIndex":7,"items":[{"name":"디아이푸드","tel":"031-293-1025","addr":"경기도 수원시 권선구 서둔동 17-436번지","indutype":"음료식품 - 정육점","category":"food"}]},{"lat":"37.266484881","long":"126.98306265","imageIndex":7,"items":[{"name":"레츠비","tel":"0507-1312-2361","addr":"경기도 수원시 권선구 서둔동 103-25번지 1층손살이공방4호","indutype":"건강식품 - 기타건강식품","category":"food"}]},{"lat":"37.26635084","long":"126.99150674","imageIndex":7,"items":[{"name":"사강닭집","tel":"031-292-3673","addr":"경기도 수원시 권선구 서둔동 42-5번지","indutype":"음료식품 - 정육점","category":"food"}]},{"lat":"37.279026705","long":"126.98034193","imageIndex":7,"items":[{"name":"상도유통","tel":"","addr":"경기도 수원시 권선구 서둔동 260-122번지 동명빌라 나동 301호","indutype":"음료식품 - 농·축·수산품","category":"food"}]},{"lat":"37.271017087","long":"126.98325313","imageIndex":7,"items":[{"name":"새서울떡방앗간","tel":"031-294-3611","addr":"경기도 수원시 권선구 서둔동 200-65번지","indutype":"음료식품 - 제과점","category":"food"}]},{"lat":"37.266485992","long":"126.99148417","imageIndex":7,"items":[{"name":"서둔풍년떡방앗간","tel":"031-297-0843","addr":"경기도 수원시 권선구 서둔동 42-18번지","indutype":"음료식품 - 제과점","category":"food"}]},{"lat":"37.266269712","long":"126.99114599","imageIndex":7,"items":[{"name":"선화몰","tel":"","addr":"경기도 수원시 권선구 서둔동 42-14번지 명진주택 201호","indutype":"음료식품 - 기타음료식품","category":"food"}]},{"lat":"37.263539708","long":"126.99236394","imageIndex":7,"items":[{"name":"수원과일","tel":"","addr":"경기도 수원시 권선구 서둔동 31-143번지 101호","indutype":"음료식품 - 농·축·수산품","category":"food"}]},{"lat":"37.260295157","long":"126.98526248","imageIndex":7,"items":[{"name":"수원유스호스텔 매점","tel":"031-278-7828","addr":"경기도 수원시 권선구 서둔동 79-1번지 1층 캠핑동","indutype":"음료식품 - 기타음료식품","category":"food"}]},{"lat":"37.264179464","long":"126.99264569","imageIndex":7,"items":[{"name":"식자재전문유통 좋은날","tel":"031-238-0182","addr":"경기도 수원시 권선구 서둔동 34-9번지 1층","indutype":"음료식품 - 농·축·수산품","category":"food"}]},{"lat":"37.270765139","long":"126.98541789","imageIndex":7,"items":[{"name":"아이스타임 (Icetime)","tel":"070-4220-6507","addr":"경기도 수원시 권선구 서둔동 106-17번지 1층 104호","indutype":"음료식품 - 기타음료식품","category":"food"}]},{"lat":"37.271846017","long":"126.98315144","imageIndex":7,"items":[{"name":"엘키토산","tel":"031-8002-6348","addr":"경기도 수원시 권선구 서둔동 195번지","indutype":"음료식품 - 기타음료식품","category":"food"}]},{"lat":"37.268872347","long":"126.98156257","imageIndex":7,"items":[{"name":"오색소반김치총판","tel":"031-297-5550","addr":"경기도 수원시 권선구 서둔동 98-2번지","indutype":"음료식품 - 기타음료식품","category":"food"}]},{"lat":"37.266657468","long":"126.99490011","imageIndex":7,"items":[{"name":"왓다점핑 허브다이어트","tel":"031-292-4300","addr":"경기도 수원시 권선구 서둔동 17-552번지 2층","indutype":"건강식품 - 기타건강식품","category":"food"},{"name":"웰빙반찬","tel":"031-243-6464","addr":"경기도 수원시 권선구 서둔동 17-552번지","indutype":"음료식품 - 기타음료식품","category":"food"}]},{"lat":"37.27299018","long":"126.98231681","imageIndex":7,"items":[{"name":"우양수산","tel":"031-298-3860","addr":"경기도 수원시 권선구 서둔동 188-2청한파크맨션1-305","indutype":"음료식품 - 농·축·수산품","category":"food"}]},{"lat":"37.266233733","long":"126.9917886","imageIndex":7,"items":[{"name":"욱일정육점","tel":"031-291-3721","addr":"경기도 수원시 권선구 서둔동 17-358번지","indutype":"음료식품 - 정육점","category":"food"}]},{"lat":"37.270963337","long":"126.98522617","imageIndex":7,"items":[{"name":"장수마을건강원","tel":"031-297-3341","addr":"경기도 수원시 권선구 서둔동 201-1번지 1층","indutype":"건강식품 - 기타건강식품","category":"food"}]},{"lat":"37.267098705","long":"126.99161937","imageIndex":7,"items":[{"name":"주식회사 부자농부","tel":"031-8081-2210","addr":"경기도 수원시 권선구 서둔동 45-38번지","indutype":"음료식품 - 농·축·수산품","category":"food"}]},{"lat":"37.270791864","long":"126.98345613","imageIndex":7,"items":[{"name":"즙마트","tel":"070-8630-0995","addr":"경기도 수원시 권선구 서둔동 200-46번지","indutype":"음료식품 - 기타음료식품","category":"food"}]},{"lat":"37.270926718","long":"126.98170855","imageIndex":7,"items":[{"name":"참 농수산마트","tel":"031-399-8200","addr":"경기도 수원시 권선구 서둔동 184-11번지 부성리치빌 107동 102호","indutype":"음료식품 - 농·축·수산품","category":"food"}]},{"lat":"37.267657332","long":"126.99150654","imageIndex":7,"items":[{"name":"청명축산유통","tel":"031-890-9046","addr":"경기도 수원시 권선구 서둔동 45-13번지","indutype":"음료식품 - 정육점","category":"food"}]},{"lat":"37.266432119","long":"126.99364875","imageIndex":7,"items":[{"name":"팔도상사","tel":"02-1577-0000","addr":"경기도 수원시 권선구 서둔동 17-473번지 102호","indutype":"음료식품 - 농·축·수산품","category":"food"}]},{"lat":"37.27768385","long":"126.97869611","imageIndex":7,"items":[{"name":"팡스베이커리","tel":"031-278-7599","addr":"경기도 수원시 권선구 서둔동 243-6번지 엔프라자 1층","indutype":"음료식품 - 제과점","category":"food"}]},{"lat":"37.269540877","long":"126.99689535","imageIndex":7,"items":[{"name":"하네농산","tel":"031-254-5185","addr":"경기도 수원시 권선구 서둔동 288-2번지","indutype":"음료식품 - 농·축·수산품","category":"food"}]},{"lat":"37.270658104","long":"126.99600458","imageIndex":7,"items":[{"name":"한국교통안전공단 매점","tel":"031-294-0666","addr":"경기도 수원시 권선구 서둔동 9-19번지 서수원자동차검사소","indutype":"음료식품 - 기타음료식품","category":"food"}]},{"lat":"37.267296315","long":"126.9863657","imageIndex":13,"items":[{"name":"(주)네오리젠바이오텍","tel":"031-292-0732","addr":"경기도 수원시 권선구 서둔동 103-2번지 서울대학교농업생명과학대학 2동 1층 101호","indutype":"보건위생 - 화장품","category":"beauty"}]},{"lat":"37.270431287","long":"126.98247535","imageIndex":13,"items":[{"name":"가위클럽","tel":"031-296-5951","addr":"경기도 수원시 권선구 서둔동 149-17번지","indutype":"보건위생 - 미용원","category":"beauty"}]},{"lat":"37.270990174","long":"126.9839747","imageIndex":13,"items":[{"name":"규리미용실","tel":"031-295-5449","addr":"경기도 수원시 권선구 서둔동 199-8번지","indutype":"보건위생 - 미용원","category":"beauty"}]},{"lat":"37.270404773","long":"126.98573365","imageIndex":13,"items":[{"name":"그린덴탈","tel":"031-297-2804","addr":"경기도 수원시 권선구 서둔동 107-1번지 삼진프라자 302호","indutype":"보건위생 - 의료용품","category":"beauty"}]},{"lat":"37.27079201","long":"126.98436936","imageIndex":13,"items":[{"name":"그린안경원","tel":"031-294-1150","addr":"경기도 수원시 권선구 서둔동 200-38번지","indutype":"보건위생 - 안경","category":"beauty"},{"name":"헤어체크","tel":"031-291-3078","addr":"경기도 수원시 권선구 서둔동 200-38번지","indutype":"보건위생 - 미용원","category":"beauty"}]},{"lat":"37.279260631","long":"126.97861668","imageIndex":13,"items":[{"name":"노블헤어","tel":"031-298-7969","addr":"경기도 수원시 권선구 서둔동 260-13번지 1층","indutype":"보건위생 - 미용원","category":"beauty"}]},{"lat":"37.270629148","long":"126.98045718","imageIndex":13,"items":[{"name":"뉴영미용실","tel":"031-292-1924","addr":"경기도 수원시 권선구 서둔동 175-2번지","indutype":"보건위생 - 미용원","category":"beauty"}]},{"lat":"37.267738389","long":"126.99114577","imageIndex":13,"items":[{"name":"린 헤어","tel":"031-278-1917","addr":"경기도 수원시 권선구 서둔동 45-141번지 1층","indutype":"보건위생 - 미용원","category":"beauty"}]},{"lat":"37.271016995","long":"126.98270068","imageIndex":13,"items":[{"name":"마법의손길","tel":"","addr":"경기도 수원시 권선구 서둔동 200-51번지 1층","indutype":"보건위생 - 피부미용실","category":"beauty"}]},{"lat":"37.279566999","long":"126.97870679","imageIndex":13,"items":[{"name":"마샬미용실","tel":"031-291-8275","addr":"경기도 수원시 권선구 서둔동 260-99번지","indutype":"보건위생 - 미용원","category":"beauty"}]},{"lat":"37.264179396","long":"126.99189037","imageIndex":13,"items":[{"name":"머리손질헤어샵","tel":"031-292-2308","addr":"경기도 수원시 권선구 서둔동 33-1번지","indutype":"보건위생 - 미용원","category":"beauty"}]},{"lat":"37.266566927","long":"126.98995092","imageIndex":13,"items":[{"name":"머리쟁이","tel":"031-292-8530","addr":"경기도 수원시 권선구 서둔동 39-42번지","indutype":"보건위생 - 미용원","category":"beauty"}]},{"lat":"37.279125477","long":"126.97861672","imageIndex":13,"items":[{"name":"모던헤어플러스","tel":"031-291-8250","addr":"경기도 수원시 권선구 서둔동 260-14번지","indutype":"보건위생 - 미용원","category":"beauty"}]},{"lat":"37.265179616","long":"126.99275829","imageIndex":13,"items":[{"name":"별s헤어","tel":"070-4090-0828","addr":"경기도 수원시 권선구 서둔동 17-209번지","indutype":"보건위생 - 미용원","category":"beauty"}]},{"lat":"37.265377757","long":"126.99181128","imageIndex":13,"items":[{"name":"사계절","tel":"031-295-3236","addr":"경기도 수원시 권선구 서둔동 17-73번지","indutype":"보건위생 - 화장품","category":"beauty"}]},{"lat":"37.266323833","long":"126.99175477","imageIndex":13,"items":[{"name":"세븐핑글","tel":"031-000-0000","addr":"경기도 수원시 권선구 서둔동 17-359번지","indutype":"보건위생 - 화장품","category":"beauty"}]},{"lat":"37.266657378","long":"126.99367127","imageIndex":13,"items":[{"name":"솔리헤어(SOLI HAIR)","tel":"031-291-3278","addr":"경기도 수원시 권선구 서둔동 17-114번지 나이스밸 101호","indutype":"보건위생 - 미용원","category":"beauty"}]},{"lat":"37.271071208","long":"126.9836139","imageIndex":13,"items":[{"name":"쉭스헤어","tel":"","addr":"경기도 수원시 권선구 서둔동 198-15번지 1층","indutype":"보건위생 - 미용원","category":"beauty"}]},{"lat":"37.270655978","long":"126.97941993","imageIndex":13,"items":[{"name":"여진헤어샵","tel":"031-225-2419","addr":"경기도 수원시 권선구 서둔동 171-28번지 1층 102호","indutype":"보건위생 - 미용원","category":"beauty"}]},{"lat":"37.266657468","long":"126.99490011","imageIndex":13,"items":[{"name":"오땡큐","tel":"031-295-1339","addr":"경기도 수원시 권선구 서둔동 17-552번지 101호","indutype":"보건위생 - 화장품","category":"beauty"}]},{"lat":"37.278873189","long":"126.9786168","imageIndex":13,"items":[{"name":"올가드림뷰티(서수원구운점)","tel":"","addr":"경기도 수원시 권선구 서둔동 260-18번지 1층","indutype":"보건위생 - 피부미용실","category":"beauty"}]},{"lat":"37.266540238","long":"126.99359237","imageIndex":13,"items":[{"name":"우렁각시머리방","tel":"031-296-2880","addr":"경기도 수원시 권선구 서둔동 17-465번지","indutype":"보건위생 - 미용원","category":"beauty"}]},{"lat":"37.28104476","long":"126.9790897","imageIndex":13,"items":[{"name":"유한회사 에스윈","tel":"031-297-2086","addr":"경기도 수원시 권선구 서둔동 361-1번지 상가동 지층","indutype":"보건위생 - 미용재료","category":"beauty"}]},{"lat":"37.270963398","long":"126.98564333","imageIndex":13,"items":[{"name":"이레헤어","tel":"031-207-3582","addr":"경기도 수원시 권선구 서둔동 207-20번지 1층","indutype":"보건위생 - 미용원","category":"beauty"}]},{"lat":"37.270711143","long":"126.98586888","imageIndex":13,"items":[{"name":"정미용실","tel":"031-292-5107","addr":"경기도 수원시 권선구 서둔동 105-12번지","indutype":"보건위생 - 미용원","category":"beauty"},{"name":"청하","tel":"070-4320-5876","addr":"경기도 수원시 권선구 서둔동 105-12번지 1층","indutype":"보건위생 - 피부미용실","category":"beauty"}]},{"lat":"37.278179382","long":"126.9785381","imageIndex":13,"items":[{"name":"정희헤어샵","tel":"031-293-3053","addr":"경기도 수원시 권선구 서둔동 243-51번지 1층","indutype":"보건위생 - 미용원","category":"beauty"}]},{"lat":"37.277098216","long":"126.97886543","imageIndex":13,"items":[{"name":"진화장품","tel":"031-292-0302","addr":"경기도 수원시 권선구 서둔동 243-1번지","indutype":"보건위생 - 화장품","category":"beauty"}]},{"lat":"37.269045212","long":"126.99517044","imageIndex":13,"items":[{"name":"컬러하우스","tel":"031-234-4191","addr":"경기도 수원시 권선구 서둔동 17-436번지 1층","indutype":"보건위생 - 화장품","category":"beauty"}]},{"lat":"37.270765053","long":"126.98484289","imageIndex":13,"items":[{"name":"코코헤어샵","tel":"031-292-3705","addr":"경기도 수원시 권선구 서둔동 144-3번지 1층","indutype":"보건위생 - 미용원","category":"beauty"}]},{"lat":"37.264098671","long":"126.99706488","imageIndex":13,"items":[{"name":"토탈뮤직","tel":"031-8067-4067","addr":"경기도 수원시 권선구 서둔동 381번지 3층 롯데몰수원점","indutype":"보건위생 - 기타대인서비스","category":"beauty"},{"name":"투아이즈안경","tel":"031-8067-4022","addr":"경기도 수원시 권선구 서둔동 381번지 롯데마트수원점 2층 안경코너","indutype":"보건위생 - 안경","category":"beauty"}]},{"lat":"37.266657435","long":"126.99442661","imageIndex":13,"items":[{"name":"프리티헤어","tel":"031-294-4645","addr":"경기도 수원시 권선구 서둔동 17-27번지 탑빌딩 103호","indutype":"보건위생 - 미용원","category":"beauty"}]},{"lat":"37.278566836","long":"126.97859435","imageIndex":13,"items":[{"name":"하나로코스메틱","tel":"031-278-6774","addr":"경기도 수원시 권선구 서둔동 260-32번지","indutype":"보건위생 - 화장품","category":"beauty"}]},{"lat":"37.266071553","long":"126.991845","imageIndex":13,"items":[{"name":"하이얀미용실","tel":"031-291-0146","addr":"경기도 수원시 권선구 서둔동 17-279번지","indutype":"보건위생 - 미용원","category":"beauty"}]},{"lat":"37.267071656","long":"126.99142772","imageIndex":13,"items":[{"name":"한빛미용실","tel":"031-296-8812","addr":"경기도 수원시 권선구 서둔동 45-46번지","indutype":"보건위생 - 미용원","category":"beauty"}]},{"lat":"37.271043904","long":"126.98200166","imageIndex":13,"items":[{"name":"해피클럽M","tel":"031-297-9004","addr":"경기도 수원시 권선구 서둔동 186-4번지 1층","indutype":"보건위생 - 미용원","category":"beauty"}]},{"lat":"37.27472864","long":"126.97949759","imageIndex":13,"items":[{"name":"헤어샵제이오","tel":"031-227-2587","addr":"경기도 수원시 권선구 서둔동 377번지 서수원울트라참누리파크 103호","indutype":"보건위생 - 미용원","category":"beauty"}]},{"lat":"37.270791128","long":"126.97939733","imageIndex":13,"items":[{"name":"헤어짱","tel":"031-292-4696","addr":"경기도 수원시 권선구 서둔동 171-27번지","indutype":"보건위생 - 미용원","category":"beauty"}]},{"lat":"37.260349585","long":"126.98792287","imageIndex":0,"items":[{"name":"(주)세일카","tel":"031-291-1045","addr":"경기도 수원시 권선구 서둔동 79-9번지 210호","indutype":"자동차판매 - 중고자동차판매","category":"car"},{"name":"(주)카오션","tel":"031-278-3454","addr":"경기도 수원시 권선구 서둔동 79-9번지 수원오토컬렉션 208호","indutype":"자동차판매 - 중고자동차판매","category":"car"},{"name":"(주)카파인더","tel":"031-278-8300","addr":"경기도 수원시 권선구 서둔동 79-9번지 214호","indutype":"자동차판매 - 중고자동차판매","category":"car"},{"name":"(주)하나오토","tel":"031-278-1100","addr":"경기도 수원시 권선구 서둔동 79-9번지 215호","indutype":"자동차판매 - 중고자동차판매","category":"car"},{"name":"다인모터스 주식회사","tel":"031-296-0053","addr":"경기도 수원시 권선구 서둔동 79-9번지 303호","indutype":"자동차판매 - 중고자동차판매","category":"car"},{"name":"마이카","tel":"031-298-1789","addr":"경기도 수원시 권선구 서둔동 79-9번지 지하1층 13호 외4필지","indutype":"자동차정비 유지 - 자동차정비","category":"car"},{"name":"블루오토","tel":"031-295-7333","addr":"경기도 수원시 권선구 서둔동 79-9번지 2층 221호","indutype":"자동차판매 - 중고자동차판매","category":"car"},{"name":"오토큐브","tel":"031-111-1111","addr":"경기도 수원시 권선구 서둔동 79-9번지 202호","indutype":"자동차판매 - 중고자동차판매","category":"car"},{"name":"자동차마을","tel":"031-298-8945","addr":"경기도 수원시 권선구 서둔동 79-9번지 200호","indutype":"자동차판매 - 중고자동차판매","category":"car"},{"name":"주식회사 메리트모터스","tel":"031-227-8411","addr":"경기도 수원시 권선구 서둔동 79-9번지 2층 211호","indutype":"자동차판매 - 중고자동차판매","category":"car"},{"name":"주식회사 성진모터스","tel":"031-291-7770","addr":"경기도 수원시 권선구 서둔동 79-9번지 3층 308호","indutype":"자동차판매 - 중고자동차판매","category":"car"},{"name":"주식회사 으뜸자동차","tel":"031-278-4433","addr":"경기도 수원시 권선구 서둔동 79-9번지 403호 수원오토컬렉션","indutype":"자동차판매 - 중고자동차판매","category":"car"},{"name":"주식회사 정이모터스","tel":"031-292-6242","addr":"경기도 수원시 권선구 서둔동 79-9번지 2층 204호","indutype":"자동차판매 - 중고자동차판매","category":"car"},{"name":"주식회사 카온","tel":"031-278-8819","addr":"경기도 수원시 권선구 서둔동 79-9번지 212,213호","indutype":"자동차판매 - 중고자동차판매","category":"car"},{"name":"주식회사 탑코리아","tel":"031-294-6002","addr":"경기도 수원시 권선구 서둔동 79-9번지 4층 400호","indutype":"자동차판매 - 중고자동차판매","category":"car"},{"name":"주식회사엠에스이노베이션","tel":"031-293-3343","addr":"경기도 수원시 권선구 서둔동 79-9번지 지하1층","indutype":"자동차정비 유지 - 자동차정비","category":"car"},{"name":"주식회사유성디엔엠","tel":"031-227-1238","addr":"경기도 수원시 권선구 서둔동 79-9번지 321호","indutype":"자동차판매 - 중고자동차판매","category":"car"},{"name":"차벤처스 (주)지점","tel":"031-292-8933","addr":"경기도 수원시 권선구 서둔동 79-9번지 4층 404호","indutype":"자동차판매 - 중고자동차판매","category":"car"},{"name":"차벤처스주식회사","tel":"031-292-8933","addr":"경기도 수원시 권선구 서둔동 79-9번지 404호","indutype":"자동차판매 - 중고자동차판매","category":"car"},{"name":"차칸썬팅","tel":"","addr":"경기도 수원시 권선구 서둔동 79-9번지 B1층 B109호","indutype":"자동차정비 유지 - 자동차부품","category":"car"},{"name":"터보모터스(주)","tel":"031-298-9777","addr":"경기도 수원시 권선구 서둔동 79-9번지 201호","indutype":"자동차판매 - 중고자동차판매","category":"car"},{"name":"트라이브중고차 주식회사","tel":"031-295-3130","addr":"경기도 수원시 권선구 서둔동 79-9번지 207호 수원오토컬렉션","indutype":"자동차판매 - 중고자동차판매","category":"car"},{"name":"티에스모터스","tel":"031-278-6655","addr":"경기도 수원시 권선구 서둔동 79-9번지 218호","indutype":"자동차판매 - 중고자동차판매","category":"car"}]},{"lat":"37.266792463","long":"126.99281444","imageIndex":0,"items":[{"name":"KDS자동차외형복원","tel":"031-294-7282","addr":"경기도 수원시 권선구 서둔동 17-597번지 가동103,104호","indutype":"자동차정비 유지 - 카인테리어","category":"car"},{"name":"스피드메이트 진흥청점","tel":"031-292-0708","addr":"경기도 수원시 권선구 서둔동 17-597번지","indutype":"자동차정비 유지 - 자동차정비","category":"car"}]},{"lat":"37.262431653","long":"126.9950922","imageIndex":0,"items":[{"name":"광장타이어(중고)","tel":"031-298-8943","addr":"경기도 수원시 권선구 서둔동 333-3","indutype":"자동차정비 유지 - 자동차시트·타이어","category":"car"},{"name":"이지모터스","tel":"031-296-7886","addr":"경기도 수원시 권선구 서둔동 333-3번지","indutype":"자동차정비 유지 - 자동차정비","category":"car"}]},{"lat":"37.270540792","long":"126.99342276","imageIndex":0,"items":[{"name":"네비나라","tel":"031-292-2282","addr":"경기도 수원시 권선구 서둔동 14-53번지 1층","indutype":"자동차정비 유지 - 자동차부품","category":"car"}]},{"lat":"37.268297016","long":"126.99103294","imageIndex":0,"items":[{"name":"대명카크리닝","tel":"031-291-6636","addr":"경기도 수원시 권선구 서둔동 46-4번지","indutype":"자동차정비 유지 - 세차장","category":"car"}]},{"lat":"37.266657378","long":"126.99367127","imageIndex":0,"items":[{"name":"대흥라지에타","tel":"031-296-8806","addr":"경기도 수원시 권선구 서둔동 17-114번지","indutype":"자동차정비 유지 - 자동차부품","category":"car"}]},{"lat":"37.270820025","long":"126.99239675","imageIndex":0,"items":[{"name":"더 카웨이","tel":"031-292-8881","addr":"경기도 수원시 권선구 서둔동 8-20번지","indutype":"자동차판매 - 중고자동차판매","category":"car"},{"name":"두꺼비중고차","tel":"031-291-0211","addr":"경기도 수원시 권선구 서둔동 8-20번지 2층","indutype":"자동차판매 - 중고자동차판매","category":"car"},{"name":"서호카크리닝","tel":"031-000-0000","addr":"경기도 수원시 권선구 서둔동 8-20번지","indutype":"자동차정비 유지 - 세차장","category":"car"},{"name":"선한모터스","tel":"031-294-7600","addr":"경기도 수원시 권선구 서둔동 8-20번지","indutype":"자동차판매 - 중고자동차판매","category":"car"},{"name":"신대명모터스","tel":"031-278-4422","addr":"경기도 수원시 권선구 서둔동 8-20번지","indutype":"자동차판매 - 중고자동차판매","category":"car"},{"name":"주식회사 소유","tel":"031-227-0237","addr":"경기도 수원시 권선구 서둔동 8-20번지 지층","indutype":"자동차판매 - 중고자동차판매","category":"car"},{"name":"주식회사다카마트","tel":"031-349-7400","addr":"경기도 수원시 권선구 서둔동 8-20번지","indutype":"자동차판매 - 중고자동차판매","category":"car"}]},{"lat":"37.269540736","long":"126.99456158","imageIndex":0,"items":[{"name":"동명자동차공업사","tel":"031-295-7442","addr":"경기도 수원시 권선구 서둔동 9-30번지","indutype":"자동차정비 유지 - 자동차정비","category":"car"}]},{"lat":"37.269351571","long":"126.99531697","imageIndex":0,"items":[{"name":"레드튠(RED TUNE)","tel":"031-221-4030","addr":"경기도 수원시 권선구 서둔동 13-2번지 1층","indutype":"자동차정비 유지 - 자동차부품","category":"car"}]},{"lat":"37.2692075","long":"126.99695175","imageIndex":0,"items":[{"name":"만수카정비","tel":"031-254-0457","addr":"경기도 수원시 권선구 서둔동 291-6번지","indutype":"자동차정비 유지 - 자동차정비","category":"car"}]},{"lat":"37.268567531","long":"126.99331026","imageIndex":0,"items":[{"name":"블랙박스왕도매","tel":"","addr":"경기도 수원시 권선구 서둔동 17-214번지 101호","indutype":"자동차정비 유지 - 자동차부품","category":"car"}]},{"lat":"37.271404871","long":"126.98542901","imageIndex":0,"items":[{"name":"삼성테크","tel":"031-292-7686","addr":"경기도 수원시 권선구 서둔동 205-1번지","indutype":"자동차정비 유지 - 자동차부품","category":"car"}]},{"lat":"37.262963219","long":"126.99448339","imageIndex":0,"items":[{"name":"삼영카플러스매니져","tel":"","addr":"경기도 수원시 권선구 서둔동 323-51번지 지하1층","indutype":"자동차정비 유지 - 세차장","category":"car"},{"name":"오토오아시스 롯데몰 수원","tel":"031-8066-1508","addr":"경기도 수원시 권선구 서둔동 323-51번지","indutype":"자동차정비 유지 - 자동차정비","category":"car"}]},{"lat":"37.26237756","long":"126.99464128","imageIndex":0,"items":[{"name":"새빛MOTORS","tel":"031-8013-7687","addr":"경기도 수원시 권선구 서둔동 323-86번지","indutype":"자동차정비 유지 - 자동차정비","category":"car"}]},{"lat":"37.27159409","long":"126.98545152","imageIndex":0,"items":[{"name":"서둔카 서비스","tel":"031-295-6822","addr":"경기도 수원시 권선구 서둔동 203-1번지","indutype":"자동차정비 유지 - 자동차정비","category":"car"}]},{"lat":"37.270658104","long":"126.99600458","imageIndex":0,"items":[{"name":"서수원자동차서비스","tel":"031-000-0000","addr":"경기도 수원시 권선구 서둔동 9-19번지","indutype":"자동차정비 유지 - 자동차정비","category":"car"}]},{"lat":"37.269288369","long":"126.99350183","imageIndex":0,"items":[{"name":"선일밧데리","tel":"031-224-1053","addr":"경기도 수원시 권선구 서둔동 9-42번지","indutype":"자동차정비 유지 - 카인테리어","category":"car"}]},{"lat":"37.271099546","long":"126.99500111","imageIndex":0,"items":[{"name":"수원 태평양(개인택시 차량 관리소)","tel":"031-291-1148","addr":"경기도 수원시 권선구 서둔동 9-17번지","indutype":"자동차정비 유지 - 자동차정비","category":"car"}]},{"lat":"37.270621867","long":"126.99319726","imageIndex":0,"items":[{"name":"수원중고타이어","tel":"031-291-8252","addr":"경기도 수원시 권선구 서둔동 14-46번지","indutype":"자동차정비 유지 - 자동차정비","category":"car"}]},{"lat":"37.263935687","long":"126.98795598","imageIndex":0,"items":[{"name":"에스에이씨광택(SAC광택)","tel":"031-278-0900","addr":"경기도 수원시 권선구 서둔동 61-2번지 15,16호","indutype":"자동차정비 유지 - 카인테리어","category":"car"}]},{"lat":"37.27562072","long":"126.97981301","imageIndex":0,"items":[{"name":"에이큐(AQ)","tel":"031-296-6758","addr":"경기도 수원시 권선구 서둔동 247-21번지","indutype":"자동차정비 유지 - 자동차정비","category":"car"}]},{"lat":"37.269071969","long":"126.99173182","imageIndex":0,"items":[{"name":"에코모터스정비(주)","tel":"031-297-2627","addr":"경기도 수원시 권선구 서둔동 14-15번지","indutype":"자동차정비 유지 - 자동차정비","category":"car"}]},{"lat":"37.269178358","long":"126.97975861","imageIndex":0,"items":[{"name":"영동오토바이","tel":"031-296-4360","addr":"경기도 수원시 권선구 서둔동 156-13번지","indutype":"자동차판매 - 이륜차판매","category":"car"}]},{"lat":"37.269153089","long":"126.99203621","imageIndex":0,"items":[{"name":"영주모터스","tel":"031-297-6633","addr":"경기도 수원시 권선구 서둔동 14-62번지","indutype":"자동차판매 - 중고자동차판매","category":"car"},{"name":"중앙모터스","tel":"031-302-6699","addr":"경기도 수원시 권선구 서둔동 14-62번지","indutype":"자동차판매 - 중고자동차판매","category":"car"}]},{"lat":"37.278323597","long":"126.97878611","imageIndex":0,"items":[{"name":"유진카센타","tel":"031-293-5151","addr":"경기도 수원시 권선구 서둔동 260-36번지","indutype":"자동차정비 유지 - 자동차정비","category":"car"}]},{"lat":"37.270099415","long":"126.99517033","imageIndex":0,"items":[{"name":"주식회사그린에너지","tel":"031-227-1720","addr":"경기도 수원시 권선구 서둔동 9-67번지","indutype":"자동차정비 유지 - 자동차정비","category":"car"}]},{"lat":"37.274737915","long":"126.98087314","imageIndex":0,"items":[{"name":"진흥모터샵","tel":"031-295-5000","addr":"경기도 수원시 권선구 서둔동 235-2번지","indutype":"자동차판매 - 이륜차판매","category":"car"},{"name":"타이어코리아","tel":"031-298-8077","addr":"경기도 수원시 권선구 서둔동 235-2번지","indutype":"자동차정비 유지 - 자동차시트·타이어","category":"car"}]},{"lat":"37.270874049","long":"126.99197959","imageIndex":0,"items":[{"name":"청호세차장","tel":"","addr":"경기도 수원시 권선구 서둔동 8-22번지","indutype":"자동차정비 유지 - 세차장","category":"car"}]},{"lat":"37.261764885","long":"126.99500209","imageIndex":0,"items":[{"name":"카스토리","tel":"031-291-6566","addr":"경기도 수원시 권선구 서둔동 333-40번지","indutype":"자동차정비 유지 - 자동차부품","category":"car"}]},{"lat":"37.267990852","long":"126.99306231","imageIndex":0,"items":[{"name":"카워시180 수원역점","tel":"031-227-9988","addr":"경기도 수원시 권선구 서둔동 17-25번지 외2필지","indutype":"자동차정비 유지 - 세차장","category":"car"}]},{"lat":"37.264206613","long":"126.9941225","imageIndex":0,"items":[{"name":"타이어타운(수원역점)","tel":"031-278-2550","addr":"경기도 수원시 권선구 서둔동 323-66번지","indutype":"자동차정비 유지 - 자동차시트·타이어","category":"car"}]},{"lat":"37.265990636","long":"126.99391937","imageIndex":0,"items":[{"name":"한국전지상사","tel":"031-298-1222","addr":"경기도 수원시 권선구 서둔동 17-503번지","indutype":"자동차정비 유지 - 자동차부품","category":"car"}]},{"lat":"37.269180341","long":"126.99478711","imageIndex":0,"items":[{"name":"현대카정비센타","tel":"031-217-5117","addr":"경기도 수원시 권선구 서둔동 17-150번지","indutype":"자동차정비 유지 - 자동차정비","category":"car"}]},{"lat":"37.269405464","long":"126.9930283","imageIndex":13,"items":[{"name":"SK스크린골프연습장","tel":"031-291-8207","addr":"경기도 수원시 권선구 서둔동 14-3번지 3층","indutype":"레저업소 - 스크린골프","category":"leisure"}]},{"lat":"37.267657332","long":"126.99150654","imageIndex":13,"items":[{"name":"기분전환노래연습장","tel":"031-297-4987","addr":"경기도 수원시 권선구 서둔동 45-13번지","indutype":"레저업소 - 노 래 방","category":"leisure"}]},{"lat":"37.270990347","long":"126.98509088","imageIndex":13,"items":[{"name":"뉴욕노래방","tel":"031-296-0056","addr":"경기도 수원시 권선구 서둔동 201-5번지","indutype":"레저업소 - 노 래 방","category":"leisure"}]},{"lat":"37.270990284","long":"126.98467372","imageIndex":13,"items":[{"name":"송학노래연습장","tel":"","addr":"경기도 수원시 권선구 서둔동 199-2번지","indutype":"레저업소 - 노 래 방","category":"leisure"}]},{"lat":"37.278179382","long":"126.9785381","imageIndex":13,"items":[{"name":"스타노래연습장","tel":"031-294-4606","addr":"경기도 수원시 권선구 서둔동 243-51번지 지층","indutype":"레저업소 - 노 래 방","category":"leisure"}]},{"lat":"37.27768385","long":"126.97869611","imageIndex":13,"items":[{"name":"아지트볼링센타","tel":"031-291-2913","addr":"경기도 수원시 권선구 서둔동 243-6번지 N프라자 2층","indutype":"레저업소 - 볼 링 장","category":"leisure"}]},{"lat":"37.275125","long":"126.97903519","imageIndex":13,"items":[{"name":"탑(TOP)축구교실","tel":"031-293-1727","addr":"경기도 수원시 권선구 서둔동 240-5번지","indutype":"레저업소 - 기타레져업소","category":"leisure"}]},{"lat":"37.263791906","long":"126.99139439","imageIndex":9,"items":[{"name":"가가에너지","tel":"031-282-7405","addr":"경기도 수원시 권선구 서둔동 31-123번지","indutype":"연료판매점 - 유류판매","category":"oil"}]},{"lat":"37.26884669","long":"126.99150637","imageIndex":9,"items":[{"name":"서둔주유소","tel":"031-297-5151","addr":"경기도 수원시 권선구 서둔동 14-19번지","indutype":"연료판매점 - 주유소","category":"oil"}]},{"lat":"37.270296418","long":"126.98420036","imageIndex":9,"items":[{"name":"세기석유","tel":"031-294-7784","addr":"경기도 수원시 권선구 서둔동 146-31번지","indutype":"연료판매점 - 유류판매","category":"oil"},{"name":"세기석유","tel":"031-294-7784","addr":"경기도 수원시 권선구 서둔동 146-31번지","indutype":"연료판매점 - 유류판매","category":"oil"}]},{"lat":"37.271099546","long":"126.99500111","imageIndex":9,"items":[{"name":"수원태평양충전소","tel":"031-278-7878","addr":"경기도 수원시 권선구 서둔동 9-17번지","indutype":"연료판매점 - E1가스충전소","category":"oil"}]},{"lat":"37.269513624","long":"126.99347926","imageIndex":4,"items":[{"name":"가람푸드","tel":"031-227-6297","addr":"경기도 수원시 권선구 서둔동 9-36번지 길전빌딩 1층","indutype":"일반휴게음식 - 일반한식","category":"restaurant"}]},{"lat":"37.270989944","long":"126.98258794","imageIndex":4,"items":[{"name":"가마솥소머리설렁탕","tel":"031-291-5515","addr":"경기도 수원시 권선구 서둔동 200-58번지","indutype":"일반휴게음식 - 일반한식","category":"restaurant"}]},{"lat":"37.269792153","long":"126.98628623","imageIndex":4,"items":[{"name":"고기비비고쓱싹비빔밥","tel":"","addr":"경기도 수원시 권선구 서둔동 106-14번지 1층","indutype":"일반휴게음식 - 일반한식","category":"restaurant"}]},{"lat":"37.270820025","long":"126.99239675","imageIndex":4,"items":[{"name":"고봉옥","tel":"031-296-6653","addr":"경기도 수원시 권선구 서둔동 8-20번지","indutype":"일반휴게음식 - 일반한식","category":"restaurant"},{"name":"서호회관","tel":"031-246-2922","addr":"경기도 수원시 권선구 서둔동 8-20번지","indutype":"일반휴게음식 - 일반한식","category":"restaurant"}]},{"lat":"37.265990573","long":"126.99311894","imageIndex":4,"items":[{"name":"고산감자탕","tel":"031-297-8834","addr":"경기도 수원시 권선구 서둔동 17-434번지 1층","indutype":"일반휴게음식 - 일반한식","category":"restaurant"}]},{"lat":"37.277098216","long":"126.97886543","imageIndex":4,"items":[{"name":"고술비/농업회사법인(주)퀸미트푸드","tel":"031-227-1177","addr":"경기도 수원시 권선구 서둔동 243-1번지 1층","indutype":"일반휴게음식 - 일반한식","category":"restaurant"}]},{"lat":"37.265936372","long":"126.99156317","imageIndex":4,"items":[{"name":"굴다리왕족발","tel":"031-278-7333","addr":"경기도 수원시 권선구 서둔동 42-9번지","indutype":"일반휴게음식 - 일반한식","category":"restaurant"}]},{"lat":"37.262628457","long":"126.98295093","imageIndex":4,"items":[{"name":"굿따복카페","tel":"070-4550-5270","addr":"경기도 수원시 권선구 서둔동 92-6번지 1층","indutype":"일반휴게음식 - 서양음식","category":"restaurant"}]},{"lat":"37.267873373","long":"126.98953356","imageIndex":4,"items":[{"name":"그때그집순대국","tel":"031-292-0934","addr":"경기도 수원시 권선구 서둔동 45-9번지","indutype":"일반휴게음식 - 일반한식","category":"restaurant"}]},{"lat":"37.266071553","long":"126.991845","imageIndex":4,"items":[{"name":"금상첨화맛집","tel":"031-294-9288","addr":"경기도 수원시 권선구 서둔동 17-279번지 1층","indutype":"일반휴게음식 - 일반한식","category":"restaurant"}]},{"lat":"37.268601791","long":"126.9802323","imageIndex":4,"items":[{"name":"길모퉁이","tel":"031-291-0322","addr":"경기도 수원시 권선구 서둔동 96-1번지","indutype":"일반휴게음식 - 일반한식","category":"restaurant"}]},{"lat":"37.270990347","long":"126.98509088","imageIndex":4,"items":[{"name":"김밥나라","tel":"031-298-5551","addr":"경기도 수원시 권선구 서둔동 201-5번지","indutype":"일반휴게음식 - 스넥","category":"restaurant"}]},{"lat":"37.270711143","long":"126.98586888","imageIndex":4,"items":[{"name":"깜","tel":"070-7529-0334","addr":"경기도 수원시 권선구 서둔동 105-12번지 지하1층","indutype":"일반휴게음식 - 주점","category":"restaurant"},{"name":"알지오막창","tel":"031-293-2459","addr":"경기도 수원시 권선구 서둔동 105-12번지","indutype":"일반휴게음식 - 일반한식","category":"restaurant"}]},{"lat":"37.266657435","long":"126.99442661","imageIndex":4,"items":[{"name":"꾸스꾸스","tel":"031-293-8184","addr":"경기도 수원시 권선구 서둔동 17-27번지 TOP빌딩 105호","indutype":"일반휴게음식 - 주점","category":"restaurant"}]},{"lat":"37.269540877","long":"126.99689535","imageIndex":4,"items":[{"name":"남원추어탕","tel":"031-278-2522","addr":"경기도 수원시 권선구 서둔동 288-2번지 2층","indutype":"일반휴게음식 - 일반한식","category":"restaurant"}]},{"lat":"37.27768385","long":"126.97869611","imageIndex":4,"items":[{"name":"노포우동","tel":"031-227-2978","addr":"경기도 수원시 권선구 서둔동 243-6번지 1층","indutype":"일반휴게음식 - 일반한식","category":"restaurant"}]},{"lat":"37.274810679","long":"126.98490958","imageIndex":4,"items":[{"name":"농촌진흥청/농촌인적자원개발센터","tel":"031-290-6934","addr":"경기도 수원시 권선구 서둔동 250","indutype":"일반휴게음식 - 위탁급식업","category":"restaurant"}]},{"lat":"37.260349585","long":"126.98792287","imageIndex":4,"items":[{"name":"늘봄한식분식","tel":"031-111-1111","addr":"경기도 수원시 권선구 서둔동 79-9번지","indutype":"일반휴게음식 - 일반한식","category":"restaurant"},{"name":"다올","tel":"031-234-6126","addr":"경기도 수원시 권선구 서둔동 79-9번지 115호,116호,117호","indutype":"일반휴게음식 - 일반한식","category":"restaurant"},{"name":"오늘.하루","tel":"031-296-9797","addr":"경기도 수원시 권선구 서둔동 79-9번지 1층 106호","indutype":"일반휴게음식 - 서양음식","category":"restaurant"}]},{"lat":"37.270990201","long":"126.98414382","imageIndex":4,"items":[{"name":"다농정육식당","tel":"031-278-5837","addr":"경기도 수원시 권선구 서둔동 199-6번지 101호","indutype":"일반휴게음식 - 일반한식","category":"restaurant"}]},{"lat":"37.270818706","long":"126.98233995","imageIndex":4,"items":[{"name":"닭&호프","tel":"031-297-6055","addr":"경기도 수원시 권선구 서둔동 200-45번지 1층","indutype":"일반휴게음식 - 스넥","category":"restaurant"}]},{"lat":"37.270926718","long":"126.98170855","imageIndex":4,"items":[{"name":"대구반야월막창","tel":"031-292-5962","addr":"경기도 수원시 권선구 서둔동 184-11번지 부성리치빌 107동 101호","indutype":"일반휴게음식 - 일반한식","category":"restaurant"}]},{"lat":"37.278568056","long":"126.98552884","imageIndex":4,"items":[{"name":"더함사랑방/에코버튼 주식회사","tel":"031-295-1023","addr":"경기도 수원시 권선구 서둔동 225-1번지","indutype":"일반휴게음식 - 일반한식","category":"restaurant"}]},{"lat":"37.268792753","long":"126.99289309","imageIndex":4,"items":[{"name":"도성 묵은지 김치찜","tel":"031-296-0759","addr":"경기도 수원시 권선구 서둔동 17-20번지 104호,105호","indutype":"일반휴게음식 - 일반한식","category":"restaurant"},{"name":"비에이치씨(BHC) 탑동점","tel":"031-293-9989","addr":"경기도 수원시 권선구 서둔동 17-20번지 101호","indutype":"일반휴게음식 - 스넥","category":"restaurant"}]},{"lat":"37.270738085","long":"126.98526005","imageIndex":4,"items":[{"name":"등마루","tel":"031-227-7547","addr":"경기도 수원시 권선구 서둔동 141-1번지 1층","indutype":"일반휴게음식 - 일반한식","category":"restaurant"},{"name":"오양만두","tel":"031-291-6652","addr":"경기도 수원시 권선구 서둔동 141-1번지","indutype":"일반휴게음식 - 일반한식","category":"restaurant"}]},{"lat":"37.279125477","long":"126.97861672","imageIndex":4,"items":[{"name":"또봉이통닭","tel":"031-298-3117","addr":"경기도 수원시 권선구 서둔동 260-14번지","indutype":"일반휴게음식 - 일반한식","category":"restaurant"}]},{"lat":"37.270404773","long":"126.98573365","imageIndex":4,"items":[{"name":"마술피리","tel":"031-291-5566","addr":"경기도 수원시 권선구 서둔동 107-1번지","indutype":"일반휴게음식 - 주점","category":"restaurant"},{"name":"맏며느리부페","tel":"031-295-7673","addr":"경기도 수원시 권선구 서둔동 107-1번지","indutype":"일반휴게음식 - 일반한식","category":"restaurant"}]},{"lat":"37.266765386","long":"126.99228457","imageIndex":4,"items":[{"name":"만나하우스","tel":"031-0000-0000","addr":"경기도 수원시 권선구 서둔동 17-337번지 1층","indutype":"일반휴게음식 - 스넥","category":"restaurant"}]},{"lat":"37.270791975","long":"126.98414387","imageIndex":4,"items":[{"name":"만두사랑","tel":"031-294-2224","addr":"경기도 수원시 권선구 서둔동 200-37번지","indutype":"일반휴게음식 - 스넥","category":"restaurant"},{"name":"모여라","tel":"031-293-0833","addr":"경기도 수원시 권선구 서둔동 200-37번지 1층","indutype":"일반휴게음식 - 주점","category":"restaurant"}]},{"lat":"37.270792054","long":"126.98465122","imageIndex":4,"items":[{"name":"맛있는집","tel":"031-291-8852","addr":"경기도 수원시 권선구 서둔동 144-7번지 1층","indutype":"일반휴게음식 - 일반한식","category":"restaurant"}]},{"lat":"37.265179536","long":"126.99186767","imageIndex":4,"items":[{"name":"몽마르뜨","tel":"031-291-2281","addr":"경기도 수원시 권선구 서둔동 17-241번지 1층","indutype":"일반휴게음식 - 서양음식","category":"restaurant"}]},{"lat":"37.264152326","long":"126.99147325","imageIndex":4,"items":[{"name":"문 (MOON)치킨","tel":"070-3948-5585","addr":"경기도 수원시 권선구 서둔동 31-95번지 1층","indutype":"일반휴게음식 - 스넥","category":"restaurant"}]},{"lat":"37.267018041","long":"126.99784256","imageIndex":4,"items":[{"name":"민유","tel":"","addr":"경기도 수원시 권선구 서둔동 296-3번지 1층","indutype":"일반휴게음식 - 서양음식","category":"restaurant"},{"name":"수원에는뜰(커피)이있다","tel":"070-4694-1104","addr":"경기도 수원시 권선구 서둔동 296-3번지 301호","indutype":"일반휴게음식 - 서양음식","category":"restaurant"},{"name":"카페앤테이크아웃","tel":"070-1111-1111","addr":"경기도 수원시 권선구 서둔동 296-3번지 201호","indutype":"일반휴게음식 - 서양음식","category":"restaurant"}]},{"lat":"37.264098671","long":"126.99706488","imageIndex":4,"items":[{"name":"백미당 롯데시네마수원점","tel":"02-1111-1111","addr":"경기도 수원시 권선구 서둔동 381번지 5층 롯데몰수원점","indutype":"일반휴게음식 - 서양음식","category":"restaurant"}]},{"lat":"37.270989729","long":"126.9813703","imageIndex":4,"items":[{"name":"범이네","tel":"031-295-3838","addr":"경기도 수원시 권선구 서둔동 183-3번지","indutype":"일반휴게음식 - 일반한식","category":"restaurant"}]},{"lat":"37.267657332","long":"126.99150654","imageIndex":4,"items":[{"name":"본치밥","tel":"031-292-9635","addr":"경기도 수원시 권선구 서둔동 45-13번지 1층","indutype":"일반휴게음식 - 일반한식","category":"restaurant"},{"name":"초인종호프","tel":"031-293-3095","addr":"경기도 수원시 권선구 서둔동 45-13번지","indutype":"일반휴게음식 - 주점","category":"restaurant"}]},{"lat":"37.270990304","long":"126.98480901","imageIndex":4,"items":[{"name":"봉덕이네밥상","tel":"031-000-0000","addr":"경기도 수원시 권선구 서둔동 199-1번지 1층","indutype":"일반휴게음식 - 일반한식","category":"restaurant"},{"name":"사또치킨","tel":"031-291-8003","addr":"경기도 수원시 권선구 서둔동 199-1번지","indutype":"일반휴게음식 - 스넥","category":"restaurant"}]},{"lat":"37.266484881","long":"126.98306265","imageIndex":4,"items":[{"name":"산업예비군","tel":"031-232-2774","addr":"경기도 수원시 권선구 서둔동 103-25번지 1층","indutype":"일반휴게음식 - 서양음식","category":"restaurant"},{"name":"슬로비","tel":"031-293-0858","addr":"경기도 수원시 권선구 서둔동 103-25번지 경기청년문화창작소 1층","indutype":"일반휴게음식 - 일반한식","category":"restaurant"},{"name":"어테이블","tel":"031-000-0000","addr":"경기도 수원시 권선구 서둔동 103-25번지","indutype":"일반휴게음식 - 일반한식","category":"restaurant"}]},{"lat":"37.267792248","long":"126.98925173","imageIndex":4,"items":[{"name":"상록식당","tel":"031-292-4242","addr":"경기도 수원시 권선구 서둔동 51-2번지 104호","indutype":"일반휴게음식 - 일반한식","category":"restaurant"}]},{"lat":"37.270458863","long":"126.9859253","imageIndex":4,"items":[{"name":"서둔식당","tel":"031-253-9263","addr":"경기도 수원시 권선구 서둔동 106-6번지 1층","indutype":"일반휴게음식 - 일반한식","category":"restaurant"}]},{"lat":"37.271376878","long":"126.97981431","imageIndex":4,"items":[{"name":"서호수산","tel":"031-291-6888","addr":"경기도 수원시 권선구 서둔동 179-6번지","indutype":"일반휴게음식 - 일반한식","category":"restaurant"}]},{"lat":"37.263846454","long":"126.99875591","imageIndex":4,"items":[{"name":"서호정","tel":"070-5022-4846","addr":"경기도 수원시 권선구 서둔동 296-108번지 201호","indutype":"일반휴게음식 - 일반한식","category":"restaurant"},{"name":"요거프레소 (수원롯데몰점)","tel":"031-278-3390","addr":"경기도 수원시 권선구 서둔동 296-108번지 101호","indutype":"일반휴게음식 - 서양음식","category":"restaurant"},{"name":"청춘쭈꾸미","tel":"031-298-1254","addr":"경기도 수원시 권선구 서둔동 296-108번지 수원역세권8-2블럭 1층 102호","indutype":"일반휴게음식 - 일반한식","category":"restaurant"}]},{"lat":"37.266657378","long":"126.99367127","imageIndex":4,"items":[{"name":"선데이오프(Sunday off)","tel":"031-000-0000","addr":"경기도 수원시 권선구 서둔동 17-114번지 나이스밸 102호","indutype":"일반휴게음식 - 서양음식","category":"restaurant"}]},{"lat":"37.2712059","long":"126.98095309","imageIndex":4,"items":[{"name":"소담소담","tel":"031-294-9927","addr":"경기도 수원시 권선구 서둔동 182-1번지","indutype":"일반휴게음식 - 일반한식","category":"restaurant"}]},{"lat":"37.268403623","long":"126.98053676","imageIndex":4,"items":[{"name":"소문난대구왕뽈찜(서둔점)","tel":"031-291-1270","addr":"경기도 수원시 권선구 서둔동 95-26번지","indutype":"일반휴게음식 - 일반한식","category":"restaurant"}]},{"lat":"37.27135084","long":"126.98564324","imageIndex":4,"items":[{"name":"송죽식당","tel":"031-291-2747","addr":"경기도 수원시 권선구 서둔동 207-14번지","indutype":"일반휴게음식 - 일반한식","category":"restaurant"}]},{"lat":"37.262206359","long":"126.99456239","imageIndex":4,"items":[{"name":"시골집","tel":"031-291-8923","addr":"경기도 수원시 권선구 서둔동 333-22번지","indutype":"일반휴게음식 - 일반한식","category":"restaurant"}]},{"lat":"37.275125","long":"126.97903519","imageIndex":4,"items":[{"name":"신가옥","tel":"031-293-2550","addr":"경기도 수원시 권선구 서둔동 240-5번지 2층","indutype":"일반휴게음식 - 일반한식","category":"restaurant"},{"name":"청마루뼈다귀(감자탕)","tel":"031-292-8768","addr":"경기도 수원시 권선구 서둔동 240-5번지","indutype":"일반휴게음식 - 일반한식","category":"restaurant"}]},{"lat":"37.265711128","long":"126.99169849","imageIndex":4,"items":[{"name":"실크로드","tel":"031-292-9886","addr":"경기도 수원시 권선구 서둔동 36번지","indutype":"일반휴게음식 - 중국식","category":"restaurant"}]},{"lat":"37.270655978","long":"126.97941993","imageIndex":4,"items":[{"name":"아싸가오리포차","tel":"031-227-1988","addr":"경기도 수원시 권선구 서둔동 171-28번지 1층 일부","indutype":"일반휴게음식 - 주점","category":"restaurant"}]},{"lat":"37.270765139","long":"126.98541789","imageIndex":4,"items":[{"name":"아이디어분식","tel":"","addr":"경기도 수원시 권선구 서둔동 106-17번지 1층 101호","indutype":"일반휴게음식 - 일반한식","category":"restaurant"},{"name":"코코넛클럽","tel":"031-294-9119","addr":"경기도 수원시 권선구 서둔동 106-17번지 1층 102호","indutype":"일반휴게음식 - 일반한식","category":"restaurant"}]},{"lat":"37.279017354","long":"126.97861676","imageIndex":4,"items":[{"name":"알찜을아구아구(성공컴퍼니)","tel":"031-291-2999","addr":"경기도 수원시 권선구 서둔동 260-17번지 1층","indutype":"일반휴게음식 - 일반한식","category":"restaurant"}]},{"lat":"37.278404651","long":"126.9785944","imageIndex":4,"items":[{"name":"암소한마리","tel":"031-296-3838","addr":"경기도 수원시 권선구 서둔동 260-35번지","indutype":"일반휴게음식 - 일반한식","category":"restaurant"}]},{"lat":"37.270791864","long":"126.98345613","imageIndex":4,"items":[{"name":"엄마손치킨","tel":"031-297-7706","addr":"경기도 수원시 권선구 서둔동 200-46번지","indutype":"일반휴게음식 - 서양음식","category":"restaurant"}]},{"lat":"37.264098686","long":"126.99736927","imageIndex":4,"items":[{"name":"엔제리너스 수원롯데","tel":"031-8066-0718","addr":"경기도 수원시 권선구 서둔동 296-77 롯데백화점7층","indutype":"일반휴게음식 - 서양음식","category":"restaurant"}]},{"lat":"37.270792235","long":"126.98586886","imageIndex":4,"items":[{"name":"엠카롱(M카롱)","tel":"02-1111-1111","addr":"경기도 수원시 권선구 서둔동 207-39번지 ,1,2층","indutype":"일반휴게음식 - 서양음식","category":"restaurant"}]},{"lat":"37.267846505","long":"126.99106683","imageIndex":4,"items":[{"name":"우리샘","tel":"031-226-4430","addr":"경기도 수원시 권선구 서둔동 45-94번지","indutype":"일반휴게음식 - 일반한식","category":"restaurant"}]},{"lat":"37.270152556","long":"126.98622978","imageIndex":4,"items":[{"name":"우향","tel":"031-296-0346","addr":"경기도 수원시 권선구 서둔동 106-13번지","indutype":"일반휴게음식 - 일반한식","category":"restaurant"}]},{"lat":"37.27472864","long":"126.97949759","imageIndex":4,"items":[{"name":"이름없는카페","tel":"031-111-1111","addr":"경기도 수원시 권선구 서둔동 377번지 서수원울트라참누리파크 101호","indutype":"일반휴게음식 - 일반한식","category":"restaurant"},{"name":"장수마을밥상","tel":"031-291-7311","addr":"경기도 수원시 권선구 서둔동 377번지 서수원울트라 상가 102호","indutype":"일반휴게음식 - 일반한식","category":"restaurant"}]},{"lat":"37.267567194","long":"126.99114579","imageIndex":4,"items":[{"name":"차기주흑오리","tel":"","addr":"경기도 수원시 권선구 서둔동 45-136번지","indutype":"일반휴게음식 - 일반한식","category":"restaurant"}]},{"lat":"37.278566836","long":"126.97859435","imageIndex":4,"items":[{"name":"청년푸드","tel":"031-893-1980","addr":"경기도 수원시 권선구 서둔동 260-32번지 101호","indutype":"일반휴게음식 - 일반한식","category":"restaurant"},{"name":"해봄","tel":"031-291-0284","addr":"경기도 수원시 권선구 서둔동 260-32번지 1층 102호","indutype":"일반휴게음식 - 주점","category":"restaurant"}]},{"lat":"37.26696354","long":"126.99150665","imageIndex":4,"items":[{"name":"춘향원","tel":"031-296-5582","addr":"경기도 수원시 권선구 서둔동 45-36번지","indutype":"일반휴게음식 - 중국식","category":"restaurant"}]},{"lat":"37.266594399","long":"126.99494522","imageIndex":4,"items":[{"name":"카페벌터","tel":"","addr":"경기도 수원시 권선구 서둔동 17-491번지 101호","indutype":"일반휴게음식 - 서양음식","category":"restaurant"}]},{"lat":"37.269351571","long":"126.99531697","imageIndex":4,"items":[{"name":"피자에땅서수원점","tel":"031-278-3650","addr":"경기도 수원시 권선구 서둔동 13-2번지","indutype":"일반휴게음식 - 서양음식","category":"restaurant"}]},{"lat":"37.270792211","long":"126.98569974","imageIndex":4,"items":[{"name":"하루","tel":"031-362-6001","addr":"경기도 수원시 권선구 서둔동 105-5번지 1층","indutype":"일반휴게음식 - 서양음식","category":"restaurant"}]},{"lat":"37.279260631","long":"126.97861668","imageIndex":4,"items":[{"name":"하우스콜","tel":"031-294-7288","addr":"경기도 수원시 권선구 서둔동 260-13번지","indutype":"일반휴게음식 - 서양음식","category":"restaurant"}]},{"lat":"37.264512918","long":"126.99353625","imageIndex":4,"items":[{"name":"하이엔젤","tel":"070-4649-1101","addr":"경기도 수원시 권선구 서둔동 22-8번지 1층","indutype":"일반휴게음식 - 일반한식","category":"restaurant"}]},{"lat":"37.269484697","long":"126.97970214","imageIndex":4,"items":[{"name":"홍콩반점","tel":"031-295-4033","addr":"경기도 수원시 권선구 서둔동 157-1번지 1층","indutype":"일반휴게음식 - 중국식","category":"restaurant"}]},{"lat":"37.265377778","long":"126.99203675","imageIndex":4,"items":[{"name":"황금분식","tel":"031-890-5959","addr":"경기도 수원시 권선구 서둔동 17-237번지 1층","indutype":"일반휴게음식 - 스넥","category":"restaurant"}]},{"lat":"37.270927381","long":"126.98581245","imageIndex":4,"items":[{"name":"훌랄라참숯바베큐치킨","tel":"031-296-1540","addr":"경기도 수원시 권선구 서둔동 207-18번지","indutype":"일반휴게음식 - 주점","category":"restaurant"}]},{"lat":"37.282513532","long":"126.97958539","imageIndex":8,"items":[{"name":"광동한의원","tel":"031-298-7555","addr":"경기도 수원시 권선구 서둔동 361번지 동남아파트","indutype":"의원 - 한의원","category":"medical"}]},{"lat":"37.266657435","long":"126.99442661","imageIndex":8,"items":[{"name":"금강약국","tel":"031-295-1962","addr":"경기도 수원시 권선구 서둔동 17-27번지 탑빌딩 101호","indutype":"약국 - 약국","category":"medical"},{"name":"한승태가정의원","tel":"031-296-8253","addr":"경기도 수원시 권선구 서둔동 17-27번지 TOP빌딩 201호","indutype":"의원 - 의원","category":"medical"}]},{"lat":"37.270404773","long":"126.98573365","imageIndex":8,"items":[{"name":"김한의원","tel":"031-292-7897","addr":"경기도 수원시 권선구 서둔동 107-1번지 삼진프라자 3호 종","indutype":"의원 - 한의원","category":"medical"},{"name":"정혜치과의원","tel":"031-293-8828","addr":"경기도 수원시 권선구 서둔동 107-1번지","indutype":"의원 - 치과의원","category":"medical"}]},{"lat":"37.266594131","long":"126.99164199","imageIndex":8,"items":[{"name":"대동온누리약국","tel":"031-294-2551","addr":"경기도 수원시 권선구 서둔동 45-131번지","indutype":"약국 - 약국","category":"medical"},{"name":"성심내과의원","tel":"031-292-1678","addr":"경기도 수원시 권선구 서둔동 45-131번지","indutype":"의원 - 의원","category":"medical"}]},{"lat":"37.271043904","long":"126.98200166","imageIndex":8,"items":[{"name":"부민약국","tel":"031-291-5385","addr":"경기도 수원시 권선구 서둔동 186-4번지","indutype":"약국 - 약국","category":"medical"}]},{"lat":"37.27768385","long":"126.97869611","imageIndex":8,"items":[{"name":"서수원프라자약국","tel":"031-292-5588","addr":"경기도 수원시 권선구 서둔동 243-6번지 엔프라자 1층","indutype":"약국 - 약국","category":"medical"},{"name":"혜민의원","tel":"031-292-7364","addr":"경기도 수원시 권선구 서둔동 243-6번지 엔프라자 1층","indutype":"의원 - 의원","category":"medical"}]},{"lat":"37.264098671","long":"126.99706488","imageIndex":8,"items":[{"name":"소나무약국","tel":"031-8067-4021","addr":"경기도 수원시 권선구 서둔동 381번지 2층","indutype":"약국 - 약국","category":"medical"},{"name":"연세패밀리의원","tel":"031-8067-4005","addr":"경기도 수원시 권선구 서둔동 381번지 2층","indutype":"의원 - 의원","category":"medical"}]},{"lat":"37.27537749","long":"126.98006114","imageIndex":8,"items":[{"name":"유화약국","tel":"031-293-4658","addr":"경기도 수원시 권선구 서둔동 247-25번지","indutype":"약국 - 약국","category":"medical"}]},{"lat":"37.270818706","long":"126.98233995","imageIndex":8,"items":[{"name":"이마트약국","tel":"031-292-6445","addr":"경기도 수원시 권선구 서둔동 200-45번지","indutype":"약국 - 약국","category":"medical"}]},{"lat":"37.267296315","long":"126.9863657","imageIndex":8,"items":[{"name":"주식회사 벡스퍼트","tel":"031-292-8061","addr":"경기도 수원시 권선구 서둔동 103-2번지 서울대학교농업생명과학대학 수의대 1호관 1층","indutype":"약국 - 제약회사","category":"medical"}]},{"lat":"37.270791724","long":"126.98262182","imageIndex":8,"items":[{"name":"한마음가정의원","tel":"031-296-8904","addr":"경기도 수원시 권선구 서둔동 200-24번지 1층","indutype":"의원 - 의원","category":"medical"}]},{"lat":"37.279377771","long":"126.97865047","imageIndex":16,"items":[{"name":"구운청산학원","tel":"031-292-7793","addr":"경기도 수원시 권선구 서둔동 260-10번지","indutype":"학원 - 보습학원","category":"study"},{"name":"레몬음악학원","tel":"031-295-1778","addr":"경기도 수원시 권선구 서둔동 260-10번지 2층","indutype":"학원 - 예·체능계학원","category":"study"}]},{"lat":"37.266765204","long":"126.99042439","imageIndex":16,"items":[{"name":"나이팅게일어린이집[아이행복]","tel":"031-296-0365","addr":"경기도 수원시 권선구 서둔동 39-30번지","indutype":"학원 - 유아원","category":"study"},{"name":"나이팅게일어린이집[아이행복]","tel":"031-296-0365","addr":"경기도 수원시 권선구 서둔동 39-30번지","indutype":"학원 - 유아원","category":"study"}]},{"lat":"37.278568056","long":"126.98552884","imageIndex":16,"items":[{"name":"농촌진흥청어린이집[아이행복]","tel":"031-299-2925","addr":"경기도 수원시 권선구 서둔동 225-1번지","indutype":"학원 - 유아원","category":"study"},{"name":"수원시 지속가능 도시재단","tel":"031-218-0372","addr":"경기도 수원시 권선구 서둔동 225-1번지 2층","indutype":"학원 - 기타 교육기관","category":"study"}]},{"lat":"37.266566927","long":"126.98995092","imageIndex":16,"items":[{"name":"다라음악전문학원","tel":"031-227-2089","addr":"경기도 수원시 권선구 서둔동 39-42번지 2층","indutype":"학원 - 예·체능계학원","category":"study"}]},{"lat":"37.278873189","long":"126.9786168","imageIndex":16,"items":[{"name":"대성제넥스까치보습학원","tel":"031-294-5877","addr":"경기도 수원시 권선구 서둔동 260-18번지","indutype":"학원 - 기타 교육기관","category":"study"}]},{"lat":"37.269405464","long":"126.9930283","imageIndex":16,"items":[{"name":"대원평생교육원","tel":"031-291-6110","addr":"경기도 수원시 권선구 서둔동 14-3번지 2층 201호","indutype":"학원 - 기타 교육기관","category":"study"}]},{"lat":"37.264098671","long":"126.99706488","imageIndex":16,"items":[{"name":"똑똑블럭 수원역사점","tel":"031-8067-4049","addr":"경기도 수원시 권선구 서둔동 381번지 3층","indutype":"학원 - 기타 교육기관","category":"study"}]},{"lat":"37.266484881","long":"126.98306265","imageIndex":16,"items":[{"name":"부엉이공방","tel":"","addr":"경기도 수원시 권선구 서둔동 103-25번지","indutype":"학원 - 기타 교육기관","category":"study"},{"name":"비엔아이 스포에듀 (BNI SPOEDU)","tel":"070-7756-3231","addr":"경기도 수원시 권선구 서둔동 103-25번지 경기상상캠퍼스 청년 1981동 1층 102호","indutype":"학원 - 기타 교육기관","category":"study"}]},{"lat":"37.278648237","long":"126.98015036","imageIndex":16,"items":[{"name":"사랑어린이집[아이행복]","tel":"031-293-9724","addr":"경기도 수원시 권선구 서둔동 260-90번지","indutype":"학원 - 유아원","category":"study"}]},{"lat":"37.266990584","long":"126.99164193","imageIndex":16,"items":[{"name":"새예일어린이집[아이행복]","tel":"031-291-8406","addr":"경기도 수원시 권선구 서둔동 45-39번지","indutype":"학원 - 유아원","category":"study"}]},{"lat":"37.268045063","long":"126.9950578","imageIndex":16,"items":[{"name":"생각하는영어교습소","tel":"","addr":"경기도 수원시 권선구 서둔동 371번지 센트라우스 상가동 201호","indutype":"학원 - 외국어학원","category":"study"}]},{"lat":"37.270927381","long":"126.98581245","imageIndex":16,"items":[{"name":"서둔주니어보습학원","tel":"031-295-8411","addr":"경기도 수원시 권선구 서둔동 207-18,2층,3층","indutype":"학원 - 보습학원","category":"study"}]},{"lat":"37.268207365","long":"126.99708711","imageIndex":16,"items":[{"name":"서평초등학교","tel":"031-296-6771","addr":"경기도 수원시 권선구 서둔동 294-3번지 서평초등학교","indutype":"학원 - 초중고교육기관","category":"study"},{"name":"서평초등학교_수업료","tel":"031-2966-771","addr":"경기도 수원시 권선구 서둔동 294-3번지 서평초등학교","indutype":"학원 - 초중고교육기관","category":"study"}]},{"lat":"37.266071119","long":"126.98789919","imageIndex":16,"items":[{"name":"서호중학교","tel":"031-293-5207","addr":"경기도 수원시 권선구 서둔동 103-22번지 서호중학교","indutype":"학원 - 초중고교육기관","category":"study"}]},{"lat":"37.265765048","long":"126.99028927","imageIndex":16,"items":[{"name":"서호초등학교","tel":"031-547-3005","addr":"경기도 수원시 권선구 서둔동 39-7번지 서호초등학교","indutype":"학원 - 초중고교육기관","category":"study"}]},{"lat":"37.275125","long":"126.97903519","imageIndex":16,"items":[{"name":"아이앤제이스포츠아카데미","tel":"031-278-1279","addr":"경기도 수원시 권선구 서둔동 240-5번지","indutype":"학원 - 예·체능계학원","category":"study"}]},{"lat":"37.270260224","long":"126.98325333","imageIndex":16,"items":[{"name":"에덴어린이집[아이행복]","tel":"031-294-6311","addr":"경기도 수원시 권선구 서둔동 148-1번지","indutype":"학원 - 유아원","category":"study"}]},{"lat":"37.271070436","long":"126.97934088","imageIndex":16,"items":[{"name":"에벤에셀음악학원","tel":"031-293-5777","addr":"경기도 수원시 권선구 서둔동 171-1번지","indutype":"학원 - 예·체능계학원","category":"study"}]},{"lat":"37.267792248","long":"126.98925173","imageIndex":16,"items":[{"name":"연강학원","tel":"031-296-5665","addr":"경기도 수원시 권선구 서둔동 51-2번지 2층","indutype":"학원 - 보습학원","category":"study"}]},{"lat":"37.266963609","long":"126.99225072","imageIndex":16,"items":[{"name":"예일어린이집[아이행복]","tel":"031-291-8405","addr":"경기도 수원시 권선구 서둔동 17-6번지","indutype":"학원 - 유아원","category":"study"}]},{"lat":"37.266566887","long":"126.98959016","imageIndex":16,"items":[{"name":"용인대 서호태권도장","tel":"031-291-7404","addr":"경기도 수원시 권선구 서둔동 39-37번지","indutype":"학원 - 예·체능계학원","category":"study"}]},{"lat":"37.28104476","long":"126.9790897","imageIndex":16,"items":[{"name":"용인대한호태권도장","tel":"031-292-6541","addr":"경기도 수원시 권선구 서둔동 361-1번지 용인대한태권도장","indutype":"학원 - 예·체능계학원","category":"study"}]},{"lat":"37.266657435","long":"126.99442661","imageIndex":16,"items":[{"name":"이해법수학뮤엠영어플러스학원","tel":"031-293-7905","addr":"경기도 수원시 권선구 서둔동 17-27번지 TOP빌딩 301호","indutype":"학원 - 보습학원","category":"study"},{"name":"이해법수학뮤엠영어플러스학원","tel":"031-293-7905","addr":"경기도 수원시 권선구 서둔동 17-27번지 TOP빌딩 301호","indutype":"학원 - 보습학원","category":"study"}]},{"lat":"37.27459343","long":"126.97921575","imageIndex":16,"items":[{"name":"중앙어린이집[아이행복]","tel":"031-298-6682","addr":"경기도 수원시 권선구 서둔동 377번지 서수원울트라참누리파크 201동 101호","indutype":"학원 - 유아원","category":"study"}]},{"lat":"37.267233658","long":"126.98966896","imageIndex":16,"items":[{"name":"진흥교육아카데미어린이집","tel":"031-291-8605","addr":"경기도 수원시 권선구 서둔동 39-55번지","indutype":"학원 - 유아원","category":"study"},{"name":"포근안어린이집[아이행복]","tel":"031-291-8605","addr":"경기도 수원시 권선구 서둔동 39-55번지","indutype":"학원 - 유아원","category":"study"}]},{"lat":"37.278071344","long":"126.97895533","imageIndex":16,"items":[{"name":"창조역량연구소 (CES)","tel":"031-296-6900","addr":"경기도 수원시 권선구 서둔동 260-48번지","indutype":"학원 - 기타 교육기관","category":"study"}]},{"lat":"37.268576741","long":"126.99621898","imageIndex":16,"items":[{"name":"토마토어린이집[아이행복]","tel":"031-297-7338","addr":"경기도 수원시 권선구 서둔동 371번지 센트라우스 115동 102호","indutype":"학원 - 유아원","category":"study"}]},{"lat":"37.274737915","long":"126.98087314","imageIndex":16,"items":[{"name":"팩토리스포츠","tel":"070-8263-0390","addr":"경기도 수원시 권선구 서둔동 235-2번지 1층","indutype":"학원 - 기타 교육기관","category":"study"}]},{"lat":"37.266630375","long":"126.99403203","imageIndex":16,"items":[{"name":"평동경희대태권도장","tel":"031-292-5162","addr":"경기도 수원시 권선구 서둔동 17-65번지 정안빌딩 4층","indutype":"학원 - 예·체능계학원","category":"study"}]},{"lat":"37.269045212","long":"126.99517044","imageIndex":16,"items":[{"name":"플로라음악학원","tel":"031-293-9443","addr":"경기도 수원시 권선구 서둔동 17-436번지","indutype":"학원 - 예·체능계학원","category":"study"}]},{"lat":"37.26935135","long":"126.9924195","imageIndex":16,"items":[{"name":"현대직업전문학교 주식회사","tel":"031-294-5511","addr":"경기도 수원시 권선구 서둔동 14-17번지 2층","indutype":"학원 - 기능학원","category":"study"}]},{"lat":"37.267657332","long":"126.99150654","imageIndex":7,"items":[{"name":"굿모닝마트","tel":"031-292-2005","addr":"경기도 수원시 권선구 서둔동 45-13번지 1층","indutype":"유통업 영리 - 슈퍼마켓","category":"mart"}]},{"lat":"37.266630375","long":"126.99403203","imageIndex":7,"items":[{"name":"금강마트","tel":"031-293-2636","addr":"경기도 수원시 권선구 서둔동 17-65번지","indutype":"유통업 영리 - 슈퍼마켓","category":"mart"}]},{"lat":"37.269205898","long":"126.98253205","imageIndex":7,"items":[{"name":"금강상회","tel":"031-297-2438","addr":"경기도 수원시 권선구 서둔동 97-57번지","indutype":"유통업 영리 - 슈퍼마켓","category":"mart"}]},{"lat":"37.268045063","long":"126.9950578","imageIndex":7,"items":[{"name":"금강홈마트","tel":"031-298-8599","addr":"경기도 수원시 권선구 서둔동 371번지 센트라우스 상가동 1층 101호","indutype":"유통업 영리 - 슈퍼마켓","category":"mart"}]},{"lat":"37.270990327","long":"126.98495558","imageIndex":7,"items":[{"name":"금곡쇼핑","tel":"031-291-8638","addr":"경기도 수원시 권선구 서둔동 201-2번지","indutype":"유통업 영리 - 슈퍼마켓","category":"mart"}]},{"lat":"37.266044503","long":"126.99164207","imageIndex":7,"items":[{"name":"대흥슈퍼","tel":"031-291-2080","addr":"경기도 수원시 권선구 서둔동 17-383번지","indutype":"유통업 영리 - 슈퍼마켓","category":"mart"}]},{"lat":"37.266594113","long":"126.99145034","imageIndex":7,"items":[{"name":"새진흥슈퍼","tel":"031-296-3307","addr":"경기도 수원시 권선구 서둔동 42-15번지","indutype":"유통업 영리 - 슈퍼마켓","category":"mart"}]},{"lat":"37.26262978","long":"126.99370558","imageIndex":7,"items":[{"name":"서둔상회","tel":"031-292-5582","addr":"경기도 수원시 권선구 서둔동 17-126번지","indutype":"유통업 영리 - 슈퍼마켓","category":"mart"}]},{"lat":"37.28104476","long":"126.9790897","imageIndex":7,"items":[{"name":"성일마트","tel":"031-292-4329","addr":"경기도 수원시 권선구 서둔동 361-1번지 성일아파트 상가동 1층 3호","indutype":"유통업 영리 - 슈퍼마켓","category":"mart"}]},{"lat":"37.265071413","long":"126.99186769","imageIndex":7,"items":[{"name":"송이할인마트","tel":"031-293-2898","addr":"경기도 수원시 권선구 서둔동 17-242번지 1층","indutype":"유통업 영리 - 슈퍼마켓","category":"mart"}]},{"lat":"37.260349585","long":"126.98792287","imageIndex":7,"items":[{"name":"싼마트","tel":"031-278-7337","addr":"경기도 수원시 권선구 서둔동 79-9번지 오토콜렉션 1층 103호","indutype":"유통업 영리 - 슈퍼마켓","category":"mart"}]},{"lat":"37.264963047","long":"126.98951153","imageIndex":7,"items":[{"name":"애플마트(APPLE마트)","tel":"031-293-0960","addr":"경기도 수원시 권선구 서둔동 27-49번지 서호파크","indutype":"유통업 영리 - 슈퍼마켓","category":"mart"}]},{"lat":"37.264098356","long":"126.9924766","imageIndex":7,"items":[{"name":"착한정육마트","tel":"031-292-0040","addr":"경기도 수원시 권선구 서둔동 33-4번지","indutype":"유통업 영리 - 슈퍼마켓","category":"mart"}]},{"lat":"37.268901004","long":"126.9945391","imageIndex":7,"items":[{"name":"햇살할인마트","tel":"070-8260-3322","addr":"경기도 수원시 권선구 서둔동 17-160번지","indutype":"유통업 영리 - 슈퍼마켓","category":"mart"}]}]