[{"lat":"37.677656075","long":"126.80689894","imageIndex":4,"items":[{"name":"(주)에스씨에프엔비/할리스커피일산동국대","tel":"031-967-0995","addr":"경기도 고양시 일산동구 식사동 814-9번지","indutype":"일반휴게음식 - 서양음식","category":"restaurant"}]},{"lat":"37.675966718","long":"126.81517825","imageIndex":4,"items":[{"name":"60계 식사동점","tel":"031-968-7778","addr":"경기도 고양시 일산동구 식사동 1558-3번지","indutype":"일반휴게음식 - 스넥","category":"restaurant"}]},{"lat":"37.684045442","long":"126.80782307","imageIndex":4,"items":[{"name":"Beer Bugs(비벅)","tel":"031-967-7331","addr":"경기도 고양시 일산동구 식사동 1481-6번지","indutype":"일반휴게음식 - 서양음식","category":"restaurant"}]},{"lat":"37.675964237","long":"126.8136253","imageIndex":4,"items":[{"name":"Sous main (수망)","tel":"070-8851-6864","addr":"경기도 고양시 일산동구 식사동 1548-2번지","indutype":"일반휴게음식 - 서양음식","category":"restaurant"},{"name":"신쉐프누들떡볶이","tel":"031-965-9888","addr":"경기도 고양시 일산동구 식사동 1548-2번지","indutype":"일반휴게음식 - 스넥","category":"restaurant"}]},{"lat":"37.677267357","long":"126.81159291","imageIndex":4,"items":[{"name":"bhc치킨식사점","tel":"031-968-9259","addr":"경기도 고양시 일산동구 식사동 1533번지 위시티휴먼빌","indutype":"일반휴게음식 - 일반한식","category":"restaurant"},{"name":"그랜드마(Grand ma)","tel":"070-7782-2237","addr":"경기도 고양시 일산동구 식사동 1533번지 위시티휴먼빌","indutype":"일반휴게음식 - 서양음식","category":"restaurant"},{"name":"맘스터치(식사점)","tel":"031-963-7277","addr":"경기도 고양시 일산동구 식사동 1533번지 위시티휴먼빌","indutype":"일반휴게음식 - 일반한식","category":"restaurant"},{"name":"봉쥬르화로양대창","tel":"","addr":"경기도 고양시 일산동구 식사동 1533번지 위시티휴먼빌","indutype":"일반휴게음식 - 일반한식","category":"restaurant"},{"name":"서가원","tel":"031-968-8280","addr":"경기도 고양시 일산동구 식사동 1533번지 위시티휴먼빌","indutype":"일반휴게음식 - 일반한식","category":"restaurant"},{"name":"아리가토우","tel":"031-965-9112","addr":"경기도 고양시 일산동구 식사동 1533번지 위시티휴먼빌","indutype":"일반휴게음식 - 일식·회집","category":"restaurant"},{"name":"오물오물(식사점)","tel":"","addr":"경기도 고양시 일산동구 식사동 1533번지 위시티휴먼빌","indutype":"일반휴게음식 - 주점","category":"restaurant"},{"name":"윙스일레븐 (식사점)","tel":"031-963-9298","addr":"경기도 고양시 일산동구 식사동 1533번지 위시티휴먼빌","indutype":"일반휴게음식 - 일반한식","category":"restaurant"},{"name":"이안설농탕","tel":"031-966-3657","addr":"경기도 고양시 일산동구 식사동 1533번지 위시티휴먼빌","indutype":"일반휴게음식 - 일반한식","category":"restaurant"},{"name":"이차돌 일산식사점","tel":"031-965-6699","addr":"경기도 고양시 일산동구 식사동 1533번지 위시티휴먼빌","indutype":"일반휴게음식 - 일반한식","category":"restaurant"},{"name":"일공공 키친","tel":"031-963-8100","addr":"경기도 고양시 일산동구 식사동 1533번지 위시티휴먼빌","indutype":"일반휴게음식 - 일반한식","category":"restaurant"},{"name":"주식회사 비원더","tel":"031-969-0222","addr":"경기도 고양시 일산동구 식사동 1533번지 위시티휴먼빌","indutype":"일반휴게음식 - 서양음식","category":"restaurant"},{"name":"한우궁","tel":"031-111-1111","addr":"경기도 고양시 일산동구 식사동 1533번지 위시티휴먼빌","indutype":"일반휴게음식 - 일반한식","category":"restaurant"}]},{"lat":"37.677652334","long":"126.81009561","imageIndex":4,"items":[{"name":"tomoru(토모루)","tel":"031-965-5815","addr":"경기도 고양시 일산동구 식사동 1521-2번지","indutype":"일반휴게음식 - 일반한식","category":"restaurant"}]},{"lat":"37.667161621","long":"126.81351165","imageIndex":4,"items":[{"name":"가배상점","tel":"031-966-5111","addr":"경기도 고양시 일산동구 식사동 573-1번지","indutype":"일반휴게음식 - 서양음식","category":"restaurant"}]},{"lat":"37.678458476","long":"126.81273477","imageIndex":4,"items":[{"name":"가장맛있는족발 일산식사지구점","tel":"031-967-9595","addr":"경기도 고양시 일산동구 식사동 1529번지 위시티일산자이주상복합","indutype":"일반휴게음식 - 일반한식","category":"restaurant"},{"name":"김뿌라(일산위시티점)","tel":"031-966-2235","addr":"경기도 고양시 일산동구 식사동 1529번지 위시티일산자이주상복합","indutype":"일반휴게음식 - 일식·회집","category":"restaurant"},{"name":"깐부치킨","tel":"031-962-9255","addr":"경기도 고양시 일산동구 식사동 1529번지 위시티일산자이주상복합","indutype":"일반휴게음식 - 스넥","category":"restaurant"},{"name":"남도의맛호프랑소주랑","tel":"031-968-4343","addr":"경기도 고양시 일산동구 식사동 1529번지 위시티일산자이주상복합","indutype":"일반휴게음식 - 주점","category":"restaurant"},{"name":"더(THE)가미","tel":"031-965-8331","addr":"경기도 고양시 일산동구 식사동 1529번지 위시티일산자이주상복합","indutype":"일반휴게음식 - 서양음식","category":"restaurant"},{"name":"롯데리아일산식사점","tel":"031-962-3040","addr":"경기도 고양시 일산동구 식사동 1529번지 위시티일산자이주상복합","indutype":"일반휴게음식 - 서양음식","category":"restaurant"},{"name":"명동면옥","tel":"031-968-5570","addr":"경기도 고양시 일산동구 식사동 1529번지 위시티일산자이주상복합","indutype":"일반휴게음식 - 일반한식","category":"restaurant"},{"name":"몽몽이펍","tel":"02-6952-3352","addr":"경기도 고양시 일산동구 식사동 1529번지 위시티일산자이주상복합","indutype":"일반휴게음식 - 일반한식","category":"restaurant"},{"name":"미소야","tel":"031-967-0740","addr":"경기도 고양시 일산동구 식사동 1529번지 위시티일산자이주상복합","indutype":"일반휴게음식 - 일반한식","category":"restaurant"},{"name":"미즈양","tel":"031-962-2289","addr":"경기도 고양시 일산동구 식사동 1529번지 위시티일산자이주상복합","indutype":"일반휴게음식 - 일반한식","category":"restaurant"},{"name":"바글즈 (식사지구)","tel":"031-968-3217","addr":"경기도 고양시 일산동구 식사동 1529번지 위시티일산자이주상복합","indutype":"일반휴게음식 - 일반한식","category":"restaurant"},{"name":"별난코다리","tel":"031-965-3557","addr":"경기도 고양시 일산동구 식사동 1529번지 위시티일산자이주상복합","indutype":"일반휴게음식 - 일반한식","category":"restaurant"},{"name":"소담촌","tel":"031-966-7797","addr":"경기도 고양시 일산동구 식사동 1529번지 위시티일산자이주상복합","indutype":"일반휴게음식 - 일반한식","category":"restaurant"},{"name":"스시웨이식사점","tel":"031-963-3774","addr":"경기도 고양시 일산동구 식사동 1529번지 위시티일산자이주상복합","indutype":"일반휴게음식 - 일반한식","category":"restaurant"},{"name":"신씨화로","tel":"070-8860-8592","addr":"경기도 고양시 일산동구 식사동 1529번지 위시티일산자이주상복합","indutype":"일반휴게음식 - 일반한식","category":"restaurant"},{"name":"이디야커피 위시티점","tel":"070-4197-1060","addr":"경기도 고양시 일산동구 식사동 1529번지 위시티일산자이주상복합","indutype":"일반휴게음식 - 서양음식","category":"restaurant"},{"name":"크래이지맨떡볶이","tel":"031-969-3447","addr":"경기도 고양시 일산동구 식사동 1529번지 위시티일산자이주상복합","indutype":"일반휴게음식 - 스넥","category":"restaurant"},{"name":"피자알볼로","tel":"031-968-8495","addr":"경기도 고양시 일산동구 식사동 1529번지 위시티일산자이주상복합","indutype":"일반휴게음식 - 서양음식","category":"restaurant"},{"name":"황씨포차","tel":"031-967-9494","addr":"경기도 고양시 일산동구 식사동 1529번지 위시티일산자이주상복합","indutype":"일반휴게음식 - 일반한식","category":"restaurant"}]},{"lat":"37.675488206","long":"126.80899035","imageIndex":4,"items":[{"name":"강호동치킨678일산식사점","tel":"031-966-0678","addr":"경기도 고양시 일산동구 식사동 1582번지","indutype":"일반휴게음식 - 스넥","category":"restaurant"}]},{"lat":"37.673322302","long":"126.80681966","imageIndex":4,"items":[{"name":"개성집(일산동구점)","tel":"031-967-7088","addr":"경기도 고양시 일산동구 식사동 1591-5번지","indutype":"일반휴게음식 - 일반한식","category":"restaurant"},{"name":"커피아리(coffeeari)","tel":"031-901-8056","addr":"경기도 고양시 일산동구 식사동 1591-5번지","indutype":"일반휴게음식 - 서양음식","category":"restaurant"}]},{"lat":"37.673880294","long":"126.80645546","imageIndex":4,"items":[{"name":"거기솥뚜껑삼겹살","tel":"031-968-7798","addr":"경기도 고양시 일산동구 식사동 1591-2번지","indutype":"일반휴게음식 - 일반한식","category":"restaurant"}]},{"lat":"37.68256294","long":"126.81590984","imageIndex":4,"items":[{"name":"고봉민김밥인(  )식사점","tel":"031-966-7799","addr":"경기도 고양시 일산동구 식사동 1498번지 위시티일산자이2단지아파트","indutype":"일반휴게음식 - 스넥","category":"restaurant"}]},{"lat":"37.677187536","long":"126.81237528","imageIndex":4,"items":[{"name":"고종의뜰","tel":"","addr":"경기도 고양시 일산동구 식사동 1537번지","indutype":"일반휴게음식 - 서양음식","category":"restaurant"},{"name":"로사벨라","tel":"02-336-1838","addr":"경기도 고양시 일산동구 식사동 1537번지","indutype":"일반휴게음식 - 일반한식","category":"restaurant"},{"name":"바보스(식사점)","tel":"031-991-7701","addr":"경기도 고양시 일산동구 식사동 1537번지","indutype":"일반휴게음식 - 일반한식","category":"restaurant"},{"name":"중전금고기","tel":"031-962-9270","addr":"경기도 고양시 일산동구 식사동 1537번지","indutype":"일반휴게음식 - 일반한식","category":"restaurant"},{"name":"포시엘(four ciel)","tel":"","addr":"경기도 고양시 일산동구 식사동 1537번지","indutype":"일반휴게음식 - 서양음식","category":"restaurant"},{"name":"향담주","tel":"","addr":"경기도 고양시 일산동구 식사동 1537번지","indutype":"일반휴게음식 - 주점","category":"restaurant"}]},{"lat":"37.6766329","long":"126.79859268","imageIndex":4,"items":[{"name":"고향옥","tel":"031-969-6700","addr":"경기도 고양시 일산동구 식사동 833-5번지","indutype":"일반휴게음식 - 일반한식","category":"restaurant"}]},{"lat":"37.677908342","long":"126.8123961","imageIndex":4,"items":[{"name":"공차 일산식사점","tel":"031-964-9897","addr":"경기도 고양시 일산동구 식사동 1531번지","indutype":"일반휴게음식 - 서양음식","category":"restaurant"},{"name":"다이꼬지","tel":"032-966-0598","addr":"경기도 고양시 일산동구 식사동 1531번지","indutype":"일반휴게음식 - 일반한식","category":"restaurant"},{"name":"더고기창고","tel":"031-979-1237","addr":"경기도 고양시 일산동구 식사동 1531번지","indutype":"일반휴게음식 - 일반한식","category":"restaurant"},{"name":"사월의동경","tel":"031-938-1066","addr":"경기도 고양시 일산동구 식사동 1531번지","indutype":"일반휴게음식 - 주점","category":"restaurant"},{"name":"식사역전","tel":"","addr":"경기도 고양시 일산동구 식사동 1531번지","indutype":"일반휴게음식 - 일반한식","category":"restaurant"},{"name":"엉클스치킨(위시티점)","tel":"031-963-4520","addr":"경기도 고양시 일산동구 식사동 1531번지","indutype":"일반휴게음식 - 스넥","category":"restaurant"},{"name":"정성한줄 일산식사점","tel":"031-967-8253","addr":"경기도 고양시 일산동구 식사동 1531번지","indutype":"일반휴게음식 - 일반한식","category":"restaurant"},{"name":"펀비어킹 위시티점","tel":"031-963-7715","addr":"경기도 고양시 일산동구 식사동 1531번지","indutype":"일반휴게음식 - 주점","category":"restaurant"}]},{"lat":"37.677071435","long":"126.81301037","imageIndex":4,"items":[{"name":"교슈","tel":"031-979-2701","addr":"경기도 고양시 일산동구 식사동 1537-1번지","indutype":"일반휴게음식 - 일반한식","category":"restaurant"},{"name":"나폴리회관","tel":"031-966-6185","addr":"경기도 고양시 일산동구 식사동 1537-1번지","indutype":"일반휴게음식 - 서양음식","category":"restaurant"},{"name":"사쿠라","tel":"031-966-9700","addr":"경기도 고양시 일산동구 식사동 1537-1번지","indutype":"일반휴게음식 - 일반한식","category":"restaurant"},{"name":"참이맛감자탕 위시티점","tel":"031-962-4777","addr":"경기도 고양시 일산동구 식사동 1537-1번지","indutype":"일반휴게음식 - 일반한식","category":"restaurant"},{"name":"호박치킨","tel":"031-963-6292","addr":"경기도 고양시 일산동구 식사동 1537-1번지","indutype":"일반휴게음식 - 스넥","category":"restaurant"}]},{"lat":"37.676408284","long":"126.80965675","imageIndex":4,"items":[{"name":"굽네막창엔곱창","tel":"031-938-8004","addr":"경기도 고양시 일산동구 식사동","indutype":"일반휴게음식 - 일반한식","category":"restaurant"},{"name":"뭉치우동&돈까스","tel":"031-964-2266","addr":"경기도 고양시 일산동구 식사동 662-5번지","indutype":"일반휴게음식 - 일반한식","category":"restaurant"},{"name":"우리동네떡볶이","tel":"031-962-9595","addr":"경기도 고양시 일산동구 식사동 662-5번지","indutype":"일반휴게음식 - 스넥","category":"restaurant"},{"name":"하루일족","tel":"031-962-4981","addr":"경기도 고양시 일산동구 식사동 662-5번지","indutype":"일반휴게음식 - 일반한식","category":"restaurant"}]},{"lat":"37.674549491","long":"126.81348154","imageIndex":4,"items":[{"name":"굽네치킨 일산식사점","tel":"031-962-9492","addr":"경기도 고양시 일산동구 식사동 1574-1번지","indutype":"일반휴게음식 - 스넥","category":"restaurant"},{"name":"달콤타르트","tel":"031-965-8901","addr":"경기도 고양시 일산동구 식사동 1574-1번지","indutype":"일반휴게음식 - 서양음식","category":"restaurant"}]},{"lat":"37.678075069","long":"126.80423393","imageIndex":4,"items":[{"name":"그남자의모밀소바,손만두전골","tel":"031-966-7668","addr":"경기도 고양시 일산동구 식사동 809-9번지","indutype":"일반휴게음식 - 일반한식","category":"restaurant"}]},{"lat":"37.664965212","long":"126.81472994","imageIndex":4,"items":[{"name":"그린하우스","tel":"031-966-7960","addr":"경기도 고양시 일산동구 식사동 515번지","indutype":"일반휴게음식 - 일반한식","category":"restaurant"}]},{"lat":"37.674485614","long":"126.8074627","imageIndex":4,"items":[{"name":"금사돈","tel":"031-966-8050","addr":"경기도 고양시 일산동구 식사동 1588번지","indutype":"일반휴게음식 - 일반한식","category":"restaurant"},{"name":"동하수산","tel":"031-967-8222","addr":"경기도 고양시 일산동구 식사동 1588번지","indutype":"일반휴게음식 - 일반한식","category":"restaurant"},{"name":"미복(식사점)","tel":"031-969-1239","addr":"경기도 고양시 일산동구 식사동 1588번지","indutype":"일반휴게음식 - 일반한식","category":"restaurant"}]},{"lat":"37.677687514","long":"126.79887318","imageIndex":4,"items":[{"name":"긴자 일산점 (주)신화푸드","tel":"031-968-9340","addr":"경기도 고양시 일산동구 식사동 833-14번지","indutype":"일반휴게음식 - 일식·회집","category":"restaurant"},{"name":"블루가든 일산점","tel":"031-968-9816","addr":"경기도 고양시 일산동구 식사동 833-14번지","indutype":"일반휴게음식 - 서양음식","category":"restaurant"},{"name":"우설화 일산점 (주)신화푸드","tel":"031-968-9401","addr":"경기도 고양시 일산동구 식사동 833-14번지","indutype":"일반휴게음식 - 일반한식","category":"restaurant"},{"name":"천지연 일산점 (주)신화푸드","tel":"031-968-9816","addr":"경기도 고양시 일산동구 식사동 833-14번지","indutype":"일반휴게음식 - 일반한식","category":"restaurant"},{"name":"하인선생 일산점 (주)신화푸드","tel":"031-968-9819","addr":"경기도 고양시 일산동구 식사동 833-14번지","indutype":"일반휴게음식 - 중국식","category":"restaurant"}]},{"lat":"37.671682684","long":"126.80690331","imageIndex":4,"items":[{"name":"김가네김밥","tel":"031-964-0031","addr":"경기도 고양시 일산동구 식사동 859-2번지","indutype":"일반휴게음식 - 스넥","category":"restaurant"}]},{"lat":"37.67804093","long":"126.8108201","imageIndex":4,"items":[{"name":"김밥나라","tel":"031-913-0277","addr":"경기도 고양시 일산동구 식사동 1522번지","indutype":"일반휴게음식 - 일반한식","category":"restaurant"},{"name":"봉구비어 식사점","tel":"031-968-0984","addr":"경기도 고양시 일산동구 식사동 1522번지","indutype":"일반휴게음식 - 주점","category":"restaurant"},{"name":"쉐프 온 테라스","tel":"031-967-5877","addr":"경기도 고양시 일산동구 식사동 1522번지","indutype":"일반휴게음식 - 서양음식","category":"restaurant"},{"name":"스마일찹쌀꽈배기","tel":"031-962-8221","addr":"경기도 고양시 일산동구 식사동 1522번지","indutype":"일반휴게음식 - 스넥","category":"restaurant"},{"name":"연평수산","tel":"031-969-8858","addr":"경기도 고양시 일산동구 식사동 1522번지","indutype":"일반휴게음식 - 일반한식","category":"restaurant"},{"name":"쥬씨 식사점","tel":"031-964-5050","addr":"경기도 고양시 일산동구 식사동 1522번지","indutype":"일반휴게음식 - 서양음식","category":"restaurant"},{"name":"하이꼬꼬(식사동점)","tel":"031-966-9960","addr":"경기도 고양시 일산동구 식사동 1522번지","indutype":"일반휴게음식 - 주점","category":"restaurant"}]},{"lat":"37.679131867","long":"126.81129339","imageIndex":4,"items":[{"name":"김숙희반찬포유","tel":"070-8757-0187","addr":"경기도 고양시 일산동구 식사동 670-27번지","indutype":"일반휴게음식 - 서양음식","category":"restaurant"},{"name":"열날개","tel":"031-966-8992","addr":"경기도 고양시 일산동구 식사동 670-27번지","indutype":"일반휴게음식 - 일반한식","category":"restaurant"},{"name":"코피노스 수제도시락","tel":"031-967-2850","addr":"경기도 고양시 일산동구 식사동 670-27번지","indutype":"일반휴게음식 - 일반한식","category":"restaurant"},{"name":"투썸플레이스","tel":"031-966-3277","addr":"경기도 고양시 일산동구 식사동 670-27번지","indutype":"일반휴게음식 - 서양음식","category":"restaurant"},{"name":"폰다방","tel":"031-966-4737","addr":"경기도 고양시 일산동구 식사동 670-27번지","indutype":"일반휴게음식 - 서양음식","category":"restaurant"}]},{"lat":"37.676541342","long":"126.8139299","imageIndex":4,"items":[{"name":"김프로의 작업실","tel":"","addr":"경기도 고양시 일산동구 식사동 1540-1번지","indutype":"일반휴게음식 - 일반한식","category":"restaurant"},{"name":"반값소","tel":"031-1600-8399","addr":"경기도 고양시 일산동구 식사동 1540-1번지","indutype":"일반휴게음식 - 일반한식","category":"restaurant"}]},{"lat":"37.676629288","long":"126.81259208","imageIndex":4,"items":[{"name":"깨비야","tel":"031-967-0664","addr":"경기도 고양시 일산동구 식사동 1543-4번지","indutype":"일반휴게음식 - 일반한식","category":"restaurant"},{"name":"오늘은 쭈꾸미","tel":"031-962-7755","addr":"경기도 고양시 일산동구 식사동 1543-4번지","indutype":"일반휴게음식 - 일반한식","category":"restaurant"}]},{"lat":"37.68343956","long":"126.81196251","imageIndex":4,"items":[{"name":"꼬만디","tel":"031-963-8787","addr":"경기도 고양시 일산동구 식사동 1487번지 위시티일산자이1단지아파트","indutype":"일반휴게음식 - 서양음식","category":"restaurant"},{"name":"복&찬","tel":"031-903-0761","addr":"경기도 고양시 일산동구 식사동 1487번지 위시티일산자이1단지아파트","indutype":"일반휴게음식 - 일반한식","category":"restaurant"}]},{"lat":"37.678823881","long":"126.81587388","imageIndex":4,"items":[{"name":"난리피자","tel":"031-963-9610","addr":"경기도 고양시 일산동구 식사동 1504번지 위시티일산자이4단지아파트","indutype":"일반휴게음식 - 서양음식","category":"restaurant"}]},{"lat":"37.688381619","long":"126.82067958","imageIndex":4,"items":[{"name":"남경","tel":"031-965-6544","addr":"경기도 고양시 일산동구 식사동 249-4번지","indutype":"일반휴게음식 - 중국식","category":"restaurant"}]},{"lat":"37.689236584","long":"126.82006527","imageIndex":4,"items":[{"name":"남원본가추어탕","tel":"031-967-0999","addr":"경기도 고양시 일산동구 식사동 263번지","indutype":"일반휴게음식 - 일반한식","category":"restaurant"},{"name":"남원본가추어탕","tel":"031-967-0999","addr":"경기도 고양시 일산동구 식사동 263번지","indutype":"일반휴게음식 - 일반한식","category":"restaurant"}]},{"lat":"37.67620949","long":"126.81487158","imageIndex":4,"items":[{"name":"네네치킨식사동점","tel":"031-963-4414","addr":"경기도 고양시 일산동구 식사동 1555-1번지","indutype":"일반휴게음식 - 스넥","category":"restaurant"},{"name":"원플레이트","tel":"02-1234-1234","addr":"경기도 고양시 일산동구 식사동 1555-1번지","indutype":"일반휴게음식 - 일반한식","category":"restaurant"}]},{"lat":"37.688742598","long":"126.82106417","imageIndex":4,"items":[{"name":"노가네 가마솥 소머리국밥","tel":"031-968-7530","addr":"경기도 고양시 일산동구 식사동 249-1번지","indutype":"일반휴게음식 - 일반한식","category":"restaurant"},{"name":"예원본가본점","tel":"031-969-8969","addr":"경기도 고양시 일산동구 식사동 249-1번지","indutype":"일반휴게음식 - 일반한식","category":"restaurant"}]},{"lat":"37.676405486","long":"126.80795643","imageIndex":4,"items":[{"name":"당초육","tel":"031-966-0031","addr":"경기도 고양시 일산동구 식사동 662-12번지","indutype":"일반휴게음식 - 중국식","category":"restaurant"}]},{"lat":"37.686236071","long":"126.81986857","imageIndex":4,"items":[{"name":"대고기사식당","tel":"031-968-9876","addr":"경기도 고양시 일산동구 식사동 1161-3번지","indutype":"일반휴게음식 - 일반한식","category":"restaurant"},{"name":"올리브8038 (owllive8038)","tel":"051-000-0000","addr":"경기도 고양시 일산동구 식사동 1161-3번지","indutype":"일반휴게음식 - 서양음식","category":"restaurant"}]},{"lat":"37.676624737","long":"126.80979221","imageIndex":4,"items":[{"name":"대박전집","tel":"031-967-3815","addr":"경기도 고양시 일산동구 식사동 663번지","indutype":"일반휴게음식 - 주점","category":"restaurant"},{"name":"물건너온 고기","tel":"031-967-5038","addr":"경기도 고양시 일산동구 식사동 663번지","indutype":"일반휴게음식 - 일반한식","category":"restaurant"},{"name":"퀸라이브","tel":"031-111-1111","addr":"경기도 고양시 일산동구 식사동 663번지","indutype":"일반휴게음식 - 서양음식","category":"restaurant"}]},{"lat":"37.675378297","long":"126.80790244","imageIndex":4,"items":[{"name":"대장금옛날불고기","tel":"031-966-1699","addr":"경기도 고양시 일산동구 식사동 662-26번지","indutype":"일반휴게음식 - 일반한식","category":"restaurant"},{"name":"본도시락일산동국대병원점","tel":"031-963-4282","addr":"경기도 고양시 일산동구 식사동 662-26번지","indutype":"일반휴게음식 - 일반한식","category":"restaurant"}]},{"lat":"37.676575505","long":"126.81276225","imageIndex":4,"items":[{"name":"돈화","tel":"031-967-6092","addr":"경기도 고양시 일산동구 식사동 1543-3번지","indutype":"일반휴게음식 - 일반한식","category":"restaurant"}]},{"lat":"37.675350631","long":"126.80751711","imageIndex":4,"items":[{"name":"동국한식기사부페","tel":"031-965-1788","addr":"경기도 고양시 일산동구 식사동","indutype":"일반휴게음식 - 일반한식","category":"restaurant"}]},{"lat":"37.675855263","long":"126.80757246","imageIndex":4,"items":[{"name":"라이스누들","tel":"031-574-0022","addr":"경기도 고양시 일산동구 식사동 662-11번지","indutype":"일반휴게음식 - 일반한식","category":"restaurant"},{"name":"쉐프의 부대찌개","tel":"031-965-1100","addr":"경기도 고양시 일산동구 식사동 662-11번지","indutype":"일반휴게음식 - 일반한식","category":"restaurant"}]},{"lat":"37.676493485","long":"126.81218435","imageIndex":4,"items":[{"name":"라트빅(rattvik)","tel":"031-967-7631","addr":"경기도 고양시 일산동구 식사동 1546번지","indutype":"일반휴게음식 - 일반한식","category":"restaurant"},{"name":"킹부대찌개테이크아웃 식사점","tel":"031-967-5053","addr":"경기도 고양시 일산동구 식사동 1546번지","indutype":"일반휴게음식 - 일반한식","category":"restaurant"},{"name":"퐁타이","tel":"031-965-8879","addr":"경기도 고양시 일산동구 식사동 1546번지","indutype":"일반휴게음식 - 서양음식","category":"restaurant"}]},{"lat":"37.675660608","long":"126.81531505","imageIndex":4,"items":[{"name":"레이든풍경","tel":"031-966-7080","addr":"경기도 고양시 일산동구 식사동 1558-6번지","indutype":"일반휴게음식 - 스넥","category":"restaurant"}]},{"lat":"37.676568988","long":"126.81431523","imageIndex":4,"items":[{"name":"로보티즈키즈랩 체험관 식사점","tel":"031-967-7735","addr":"경기도 고양시 일산동구 식사동 1541번지","indutype":"일반휴게음식 - 일반한식","category":"restaurant"},{"name":"알마센식사점","tel":"070-8667-6677","addr":"경기도 고양시 일산동구 식사동 1541번지","indutype":"일반휴게음식 - 서양음식","category":"restaurant"},{"name":"청춘감성쌀핫도그 일산식사점","tel":"031-000-0000","addr":"경기도 고양시 일산동구 식사동 1541번지","indutype":"일반휴게음식 - 일반한식","category":"restaurant"},{"name":"컵&쿡","tel":"031-966-3369","addr":"경기도 고양시 일산동구 식사동 1541번지","indutype":"일반휴게음식 - 일반한식","category":"restaurant"}]},{"lat":"37.674879492","long":"126.80593141","imageIndex":4,"items":[{"name":"마노(MANO)","tel":"031-966-9992","addr":"경기도 고양시 일산동구 식사동 817-4번지","indutype":"일반휴게음식 - 일반한식","category":"restaurant"},{"name":"준우수산","tel":"031-966-9992","addr":"경기도 고양시 일산동구 식사동 817-4번지","indutype":"일반휴게음식 - 일반한식","category":"restaurant"}]},{"lat":"37.676908147","long":"126.81231931","imageIndex":4,"items":[{"name":"마리올라","tel":"031-967-1545","addr":"경기도 고양시 일산동구 식사동 1543번지","indutype":"일반휴게음식 - 서양음식","category":"restaurant"}]},{"lat":"37.676684503","long":"126.80778567","imageIndex":4,"items":[{"name":"마마스떼끼","tel":"031-965-2505","addr":"경기도 고양시 일산동구 식사동 662-9번지","indutype":"일반휴게음식 - 서양음식","category":"restaurant"},{"name":"명동면옥","tel":"031-966-7845","addr":"경기도 고양시 일산동구 식사동 662-9번지","indutype":"일반휴게음식 - 일반한식","category":"restaurant"},{"name":"설빙 (일산식사점)","tel":"031-965-3590","addr":"경기도 고양시 일산동구 식사동 662-9번지","indutype":"일반휴게음식 - 서양음식","category":"restaurant"}]},{"lat":"37.676931064","long":"126.80979142","imageIndex":4,"items":[{"name":"마시펍","tel":"031-968-7717","addr":"경기도 고양시 일산동구 식사동 814-78번지","indutype":"일반휴게음식 - 서양음식","category":"restaurant"},{"name":"보드람치킨(식사점)","tel":"031-966-8805","addr":"경기도 고양시 일산동구 식사동 814-78번지","indutype":"일반휴게음식 - 스넥","category":"restaurant"},{"name":"본정손만두","tel":"031-964-8355","addr":"경기도 고양시 일산동구 식사동 814-78번지","indutype":"일반휴게음식 - 일반한식","category":"restaurant"},{"name":"신촌삼계탕 본점","tel":"031-966-2080","addr":"경기도 고양시 일산동구 식사동 814-78번지","indutype":"일반휴게음식 - 일반한식","category":"restaurant"},{"name":"제주근고기","tel":"031-967-9284","addr":"경기도 고양시 일산동구 식사동 814-78번지","indutype":"일반휴게음식 - 일반한식","category":"restaurant"}]},{"lat":"37.676048021","long":"126.81531407","imageIndex":4,"items":[{"name":"마헨(MAHLEN)","tel":"031-962-2009","addr":"경기도 고양시 일산동구 식사동 1555-3번지","indutype":"일반휴게음식 - 일반한식","category":"restaurant"}]},{"lat":"37.675576002","long":"126.80759587","imageIndex":4,"items":[{"name":"맛깔참죽(일산동국대병원점)","tel":"","addr":"경기도 고양시 일산동구 식사동 662-20번지","indutype":"일반휴게음식 - 일반한식","category":"restaurant"},{"name":"이디야 동국대일산병원점","tel":"070-8866-4316","addr":"경기도 고양시 일산동구 식사동 662-20번지","indutype":"일반휴게음식 - 서양음식","category":"restaurant"},{"name":"화정모밀","tel":"031-963-6869","addr":"경기도 고양시 일산동구 식사동 662-20번지","indutype":"일반휴게음식 - 일반한식","category":"restaurant"}]},{"lat":"37.675711521","long":"126.80782222","imageIndex":4,"items":[{"name":"멕시카나 (풍동식사점)","tel":"02-000-0000","addr":"경기도 고양시 일산동구 식사동 662-17번지","indutype":"일반휴게음식 - 스넥","category":"restaurant"},{"name":"스시하루","tel":"031-967-0504","addr":"경기도 고양시 일산동구 식사동 662-17번지","indutype":"일반휴게음식 - 일식·회집","category":"restaurant"}]},{"lat":"37.673021309","long":"126.80462146","imageIndex":4,"items":[{"name":"바람난오리궁뎅이","tel":"","addr":"경기도 고양시 일산동구 식사동 1064번지","indutype":"일반휴게음식 - 일반한식","category":"restaurant"},{"name":"일산조개창고","tel":"031-000-0000","addr":"경기도 고양시 일산동구 식사동 1064번지","indutype":"일반휴게음식 - 일반한식","category":"restaurant"},{"name":"코다리밥상일산식사점","tel":"031-967-5553","addr":"경기도 고양시 일산동구 식사동 1064번지","indutype":"일반휴게음식 - 일반한식","category":"restaurant"}]},{"lat":"37.676321861","long":"126.80642636","imageIndex":4,"items":[{"name":"바푸리숯불김밥&포 동국대일산병원점","tel":"031-961-9196","addr":"경기도 고양시 일산동구 식사동 814번지","indutype":"일반휴게음식 - 일반한식","category":"restaurant"},{"name":"빨라쪼델프레도","tel":"031-961-9186","addr":"경기도 고양시 일산동구 식사동 814번지","indutype":"일반휴게음식 - 일반한식","category":"restaurant"}]},{"lat":"37.677958845","long":"126.81020818","imageIndex":4,"items":[{"name":"봉새우","tel":"","addr":"경기도 고양시 일산동구 식사동 1521번지","indutype":"일반휴게음식 - 일반한식","category":"restaurant"}]},{"lat":"37.67401687","long":"126.80731658","imageIndex":4,"items":[{"name":"블랙롤스","tel":"031-969-2271","addr":"경기도 고양시 일산동구 식사동 1586-2번지","indutype":"일반휴게음식 - 일반한식","category":"restaurant"}]},{"lat":"37.681093928","long":"126.81004136","imageIndex":4,"items":[{"name":"비비큐(BBQ)식사지구점","tel":"031-966-9279","addr":"경기도 고양시 일산동구 식사동 1510번지 위시티블루밍3단지아파트","indutype":"일반휴게음식 - 스넥","category":"restaurant"},{"name":"아딸","tel":"031-966-0702","addr":"경기도 고양시 일산동구 식사동 1510번지 위시티블루밍3단지아파트","indutype":"일반휴게음식 - 스넥","category":"restaurant"}]},{"lat":"37.677382767","long":"126.8105384","imageIndex":4,"items":[{"name":"비엔나핫도그 식사점","tel":"031-962-8285","addr":"경기도 고양시 일산동구 식사동 1525번지","indutype":"일반휴게음식 - 일반한식","category":"restaurant"},{"name":"임실치즈피자통닭","tel":"031-967-7555","addr":"경기도 고양시 일산동구 식사동 1525번지","indutype":"일반휴게음식 - 일반한식","category":"restaurant"},{"name":"홍루이젠일산위시티점","tel":"031-994-1066","addr":"경기도 고양시 일산동구 식사동 1525번지","indutype":"일반휴게음식 - 서양음식","category":"restaurant"}]},{"lat":"37.675321341","long":"126.80615695","imageIndex":4,"items":[{"name":"빠삐용낙지","tel":"031-967-0345","addr":"경기도 고양시 일산동구 식사동 817-1번지","indutype":"일반휴게음식 - 일반한식","category":"restaurant"},{"name":"송하정","tel":"031-967-9192","addr":"경기도 고양시 일산동구 식사동 817-1번지","indutype":"일반휴게음식 - 일반한식","category":"restaurant"}]},{"lat":"37.664934308","long":"126.81231593","imageIndex":4,"items":[{"name":"사계절","tel":"031-969-8958","addr":"경기도 고양시 일산동구 식사동 549-1번지","indutype":"일반휴게음식 - 일반한식","category":"restaurant"}]},{"lat":"37.675819805","long":"126.80792396","imageIndex":4,"items":[{"name":"삼계탕집장수옥","tel":"","addr":"경기도 고양시 일산동구 식사동 662-16번지","indutype":"일반휴게음식 - 일반한식","category":"restaurant"}]},{"lat":"37.669462944","long":"126.81593137","imageIndex":4,"items":[{"name":"삼교리동치미막국수일산점","tel":"031-969-3951","addr":"경기도 고양시 일산동구 식사동 471-1번지","indutype":"일반휴게음식 - 일반한식","category":"restaurant"}]},{"lat":"37.676126151","long":"126.80793449","imageIndex":4,"items":[{"name":"삼백집(식사동위시티점)","tel":"031-901-1355","addr":"경기도 고양시 일산동구 식사동 662-14번지","indutype":"일반휴게음식 - 일반한식","category":"restaurant"}]},{"lat":"37.676875183","long":"126.80868068","imageIndex":4,"items":[{"name":"서일순대국","tel":"031-966-1012","addr":"경기도 고양시 일산동구 식사동","indutype":"일반휴게음식 - 일반한식","category":"restaurant"}]},{"lat":"37.676660556","long":"126.79895534","imageIndex":4,"items":[{"name":"서창 서서갈비 일산점","tel":"031-967-8427","addr":"경기도 고양시 일산동구 식사동 833-31번지","indutype":"일반휴게음식 - 일반한식","category":"restaurant"},{"name":"짬뽕타임 식사점","tel":"031-963-7701","addr":"경기도 고양시 일산동구 식사동 833-31번지","indutype":"일반휴게음식 - 중국식","category":"restaurant"}]},{"lat":"37.664321214","long":"126.81204549","imageIndex":4,"items":[{"name":"셀프장어","tel":"031-968-0592","addr":"경기도 고양시 일산동구 식사동 538-4번지","indutype":"일반휴게음식 - 일반한식","category":"restaurant"}]},{"lat":"37.674549956","long":"126.80823333","imageIndex":4,"items":[{"name":"소미뷔페","tel":"031-969-5979","addr":"경기도 고양시 일산동구 식사동 1580-4번지","indutype":"일반휴게음식 - 일반한식","category":"restaurant"}]},{"lat":"37.665877005","long":"126.81587236","imageIndex":4,"items":[{"name":"쉐프의손만두","tel":"031-965-1723","addr":"경기도 고양시 일산동구 식사동 504-1번지","indutype":"일반휴게음식 - 일반한식","category":"restaurant"}]},{"lat":"37.68790849","long":"126.82353773","imageIndex":4,"items":[{"name":"시골한식부페","tel":"031-966-1505","addr":"경기도 고양시 일산동구 식사동 253번지","indutype":"일반휴게음식 - 일반한식","category":"restaurant"}]},{"lat":"37.676436041","long":"126.79937537","imageIndex":4,"items":[{"name":"식사동 숯불닭갈비","tel":"031-964-0929","addr":"경기도 고양시 일산동구 식사동 833-2번지","indutype":"일반휴게음식 - 일반한식","category":"restaurant"}]},{"lat":"37.683877309","long":"126.82100803","imageIndex":4,"items":[{"name":"신선식당","tel":"031-967-0875","addr":"경기도 고양시 일산동구 식사동 194-3번지","indutype":"일반휴게음식 - 일반한식","category":"restaurant"}]},{"lat":"37.675936949","long":"126.80793498","imageIndex":4,"items":[{"name":"어랑생선구이","tel":"031-932-4462","addr":"경기도 고양시 일산동구 식사동 662-15번지","indutype":"일반휴게음식 - 일반한식","category":"restaurant"},{"name":"어랑생선구이","tel":"031-932-4462","addr":"경기도 고양시 일산동구 식사동 662-15번지","indutype":"일반휴게음식 - 일반한식","category":"restaurant"}]},{"lat":"37.677410775","long":"126.80567533","imageIndex":4,"items":[{"name":"어울림","tel":"031-963-7117","addr":"경기도 고양시 일산동구 식사동 809-13번지","indutype":"일반휴게음식 - 일반한식","category":"restaurant"}]},{"lat":"37.676576672","long":"126.81348772","imageIndex":4,"items":[{"name":"에이징스테이크하우스/(주)지오씨컨설팅","tel":"031-963-5453","addr":"경기도 고양시 일산동구 식사동 1545-1번지","indutype":"일반휴게음식 - 일반한식","category":"restaurant"}]},{"lat":"37.674910078","long":"126.80807369","imageIndex":4,"items":[{"name":"연안식당 식사점","tel":"031-967-2311","addr":"경기도 고양시 일산동구 식사동 1582-4번지","indutype":"일반휴게음식 - 일반한식","category":"restaurant"}]},{"lat":"37.671294025","long":"126.80615624","imageIndex":4,"items":[{"name":"연우족발","tel":"031-966-2121","addr":"경기도 고양시 일산동구 식사동 857번지","indutype":"일반휴게음식 - 일반한식","category":"restaurant"}]},{"lat":"37.672742202","long":"126.80473555","imageIndex":4,"items":[{"name":"옛골할머니감자탕","tel":"031-965-3366","addr":"경기도 고양시 일산동구 식사동 1065번지","indutype":"일반휴게음식 - 일반한식","category":"restaurant"},{"name":"전주팔미콩나물국밥 (식사직영점)","tel":"031-918-0011","addr":"경기도 고양시 일산동구 식사동 1065번지","indutype":"일반휴게음식 - 일반한식","category":"restaurant"},{"name":"지호한방삼계탕","tel":"031-968-3325","addr":"경기도 고양시 일산동구 식사동 1065번지","indutype":"일반휴게음식 - 일반한식","category":"restaurant"},{"name":"탑골가든/주식회사 백야에프엔비","tel":"031-963-9595","addr":"경기도 고양시 일산동구 식사동 1065번지","indutype":"일반휴게음식 - 일반한식","category":"restaurant"},{"name":"투카페(Two Caffe)","tel":"031-917-8282","addr":"경기도 고양시 일산동구 식사동 1065번지","indutype":"일반휴게음식 - 서양음식","category":"restaurant"}]},{"lat":"37.674577065","long":"126.81382152","imageIndex":4,"items":[{"name":"오단지후문","tel":"031-966-4717","addr":"경기도 고양시 일산동구 식사동 1575번지","indutype":"일반휴게음식 - 서양음식","category":"restaurant"}]},{"lat":"37.687235714","long":"126.81959402","imageIndex":4,"items":[{"name":"올터국수마을","tel":"031-965-0032","addr":"경기도 고양시 일산동구 식사동 1155-3번지","indutype":"일반휴게음식 - 일반한식","category":"restaurant"}]},{"lat":"37.666987257","long":"126.80606561","imageIndex":4,"items":[{"name":"요리왕","tel":"031-901-4711","addr":"경기도 고양시 일산동구 식사동 937-9번지","indutype":"일반휴게음식 - 중국식","category":"restaurant"}]},{"lat":"37.676403737","long":"126.81239995","imageIndex":4,"items":[{"name":"우기미","tel":"031-966-1008","addr":"경기도 고양시 일산동구 식사동 1546-1번지","indutype":"일반휴게음식 - 일반한식","category":"restaurant"},{"name":"캐드콥개발(주)","tel":"031-966-8363","addr":"경기도 고양시 일산동구 식사동 1546-1번지","indutype":"일반휴게음식 - 일반한식","category":"restaurant"},{"name":"케그9(Keg9)","tel":"031-1600-2337","addr":"경기도 고양시 일산동구 식사동 1546-1번지","indutype":"일반휴게음식 - 일반한식","category":"restaurant"}]},{"lat":"37.68798809","long":"126.82256253","imageIndex":4,"items":[{"name":"우드커피","tel":"","addr":"경기도 고양시 일산동구 식사동 220-8번지","indutype":"일반휴게음식 - 서양음식","category":"restaurant"}]},{"lat":"37.675429396","long":"126.81159763","imageIndex":4,"items":[{"name":"위시티블루밍5단지 입주자대표회의","tel":"031-962-0818","addr":"경기도 고양시 일산동구 식사동 1565번지 위시티블루밍5단지아파트","indutype":"일반휴게음식 - 서양음식","category":"restaurant"}]},{"lat":"37.675293707","long":"126.80579429","imageIndex":4,"items":[{"name":"유명해물찜최고집칼국수","tel":"031-966-7957","addr":"경기도 고양시 일산동구 식사동 817-5번지","indutype":"일반휴게음식 - 일반한식","category":"restaurant"}]},{"lat":"37.685317918","long":"126.82040365","imageIndex":4,"items":[{"name":"유성식당","tel":"031-963-9778","addr":"경기도 고양시 일산동구 식사동 198-6번지","indutype":"일반휴게음식 - 일반한식","category":"restaurant"}]},{"lat":"37.688104207","long":"126.82190469","imageIndex":4,"items":[{"name":"으뜸한식부페","tel":"031-969-8547","addr":"경기도 고양시 일산동구 식사동 249-16번지","indutype":"일반휴게음식 - 일반한식","category":"restaurant"}]},{"lat":"37.676154818","long":"126.81448631","imageIndex":4,"items":[{"name":"응급실 국물떡볶이 (식사점)","tel":"031-963-6077","addr":"경기도 고양시 일산동구 식사동 1557번지","indutype":"일반휴게음식 - 스넥","category":"restaurant"}]},{"lat":"37.684659954","long":"126.82023522","imageIndex":4,"items":[{"name":"의정부부대찌개","tel":"031-966-1551","addr":"경기도 고양시 일산동구 식사동 1169번지","indutype":"일반휴게음식 - 일반한식","category":"restaurant"}]},{"lat":"37.676350045","long":"126.8126268","imageIndex":4,"items":[{"name":"이길호의파파돈가스","tel":"031-962-3335","addr":"경기도 고양시 일산동구 식사동 1546-2번지","indutype":"일반휴게음식 - 일반한식","category":"restaurant"}]},{"lat":"37.668488981","long":"126.80976796","imageIndex":4,"items":[{"name":"이룸피앤피(이룸PNP)","tel":"","addr":"경기도 고양시 일산동구 식사동 602-11번지","indutype":"일반휴게음식 - 서양음식","category":"restaurant"}]},{"lat":"37.673684258","long":"126.81329104","imageIndex":4,"items":[{"name":"이식당","tel":"031-963-4717","addr":"경기도 고양시 일산동구 식사동 1575-7번지","indutype":"일반휴게음식 - 일반한식","category":"restaurant"}]},{"lat":"37.674041908","long":"126.81723476","imageIndex":4,"items":[{"name":"일산화덕불고기","tel":"031-965-5252","addr":"경기도 고양시 일산동구 식사동 425-18번지","indutype":"일반휴게음식 - 일반한식","category":"restaurant"}]},{"lat":"37.688100389","long":"126.81943317","imageIndex":4,"items":[{"name":"자매식당","tel":"031-968-8838","addr":"경기도 고양시 일산동구 식사동 1152-3번지","indutype":"일반휴게음식 - 일반한식","category":"restaurant"}]},{"lat":"37.688068586","long":"126.82217687","imageIndex":4,"items":[{"name":"장안식당","tel":"031-964-5490","addr":"경기도 고양시 일산동구 식사동 249-17번지","indutype":"일반휴게음식 - 일반한식","category":"restaurant"}]},{"lat":"37.685603369","long":"126.81856638","imageIndex":4,"items":[{"name":"정밥집","tel":"031-967-5458","addr":"경기도 고양시 일산동구 식사동 287-3번지","indutype":"일반휴게음식 - 일반한식","category":"restaurant"}]},{"lat":"37.672431404","long":"126.80745675","imageIndex":4,"items":[{"name":"정읍어머니밥상","tel":"031-967-0877","addr":"경기도 고양시 일산동구 식사동 619-7번지","indutype":"일반휴게음식 - 일반한식","category":"restaurant"}]},{"lat":"37.67663042","long":"126.81329488","imageIndex":4,"items":[{"name":"족발3시30분","tel":"031-962-0333","addr":"경기도 고양시 일산동구 식사동 1545번지","indutype":"일반휴게음식 - 일반한식","category":"restaurant"},{"name":"칠성식당 식사점","tel":"031-963-4292","addr":"경기도 고양시 일산동구 식사동 1545번지","indutype":"일반휴게음식 - 일반한식","category":"restaurant"}]},{"lat":"37.677625712","long":"126.81034507","imageIndex":4,"items":[{"name":"진칼국수","tel":"031-913-7979","addr":"경기도 고양시 일산동구 식사동 1521-4번지","indutype":"일반휴게음식 - 일반한식","category":"restaurant"}]},{"lat":"37.66127014","long":"126.81403661","imageIndex":4,"items":[{"name":"진할매닭한마리","tel":"000-000-0000","addr":"경기도 고양시 일산동구 식사동 526-3번지","indutype":"일반휴게음식 - 일반한식","category":"restaurant"}]},{"lat":"37.688265683","long":"126.8214508","imageIndex":4,"items":[{"name":"짜글이찌개마을","tel":"031-962-5528","addr":"경기도 고양시 일산동구 식사동 249-6번지","indutype":"일반휴게음식 - 일반한식","category":"restaurant"}]},{"lat":"37.677572265","long":"126.80526682","imageIndex":4,"items":[{"name":"천지천","tel":"031-964-8828","addr":"경기도 고양시 일산동구 식사동 809-48번지","indutype":"일반휴게음식 - 중국식","category":"restaurant"}]},{"lat":"37.679180856","long":"126.80281399","imageIndex":4,"items":[{"name":"칠형제 감자탕","tel":"031-916-7707","addr":"경기도 고양시 일산동구 식사동 1013번지","indutype":"일반휴게음식 - 일반한식","category":"restaurant"}]},{"lat":"37.68093814","long":"126.81398676","imageIndex":4,"items":[{"name":"카페띠아모","tel":"031-969-2302","addr":"경기도 고양시 일산동구 식사동","indutype":"일반휴게음식 - 스넥","category":"restaurant"}]},{"lat":"37.676128711","long":"126.81506449","imageIndex":4,"items":[{"name":"카페모노그램","tel":"031-977-1281","addr":"경기도 고양시 일산동구 식사동 1555-2번지","indutype":"일반휴게음식 - 주점","category":"restaurant"}]},{"lat":"37.675632296","long":"126.81451031","imageIndex":4,"items":[{"name":"카페플로렌","tel":"031-966-4725","addr":"경기도 고양시 일산동구 식사동 1560번지","indutype":"일반휴게음식 - 일반한식","category":"restaurant"}]},{"lat":"37.6762366","long":"126.80935114","imageIndex":4,"items":[{"name":"커피사촌","tel":"","addr":"경기도 고양시 일산동구 식사동 662-2번지","indutype":"일반휴게음식 - 서양음식","category":"restaurant"}]},{"lat":"37.683714735","long":"126.80401484","imageIndex":4,"items":[{"name":"커피샵","tel":"031-966-1148","addr":"경기도 고양시 일산동구 식사동 741번지","indutype":"일반휴게음식 - 서양음식","category":"restaurant"}]},{"lat":"37.676098798","long":"126.81326223","imageIndex":4,"items":[{"name":"코너(corner)","tel":"031-963-1693","addr":"경기도 고양시 일산동구 식사동 1548-1번지","indutype":"일반휴게음식 - 서양음식","category":"restaurant"}]},{"lat":"37.681850493","long":"126.80446193","imageIndex":4,"items":[{"name":"털랭이매운탕","tel":"031-965-7773","addr":"경기도 고양시 일산동구 식사동 790-4번지","indutype":"일반휴게음식 - 일반한식","category":"restaurant"}]},{"lat":"37.676351195","long":"126.81334093","imageIndex":4,"items":[{"name":"토브(TOV)","tel":"070-4185-2064","addr":"경기도 고양시 일산동구 식사동 1545-4번지","indutype":"일반휴게음식 - 서양음식","category":"restaurant"}]},{"lat":"37.67585008","long":"126.8154846","imageIndex":4,"items":[{"name":"파파블랑쉐","tel":"","addr":"경기도 고양시 일산동구 식사동 1558-5번지","indutype":"일반휴게음식 - 서양음식","category":"restaurant"}]},{"lat":"37.676351832","long":"126.81373767","imageIndex":4,"items":[{"name":"페로페라","tel":"031-969-8586","addr":"경기도 고양시 일산동구 식사동 1545-2번지","indutype":"일반휴게음식 - 일반한식","category":"restaurant"}]},{"lat":"37.674071453","long":"126.81315403","imageIndex":4,"items":[{"name":"프레셔스원스(Precious Ones)","tel":"","addr":"경기도 고양시 일산동구 식사동 1574-4번지","indutype":"일반휴게음식 - 서양음식","category":"restaurant"}]},{"lat":"37.68432427","long":"126.80753892","imageIndex":4,"items":[{"name":"피아티하우스","tel":"","addr":"경기도 고양시 일산동구 식사동 1481-2번지","indutype":"일반휴게음식 - 일반한식","category":"restaurant"}]},{"lat":"37.682073571","long":"126.80318033","imageIndex":4,"items":[{"name":"필리스(FIILIS)","tel":"","addr":"경기도 고양시 일산동구 식사동 749-6번지","indutype":"일반휴게음식 - 서양음식","category":"restaurant"}]},{"lat":"37.677824108","long":"126.81045791","imageIndex":4,"items":[{"name":"홀즈인터내셔널","tel":"070-7771-7704","addr":"경기도 고양시 일산동구 식사동 1521-5번지","indutype":"일반휴게음식 - 서양음식","category":"restaurant"}]},{"lat":"37.683183745","long":"126.82112308","imageIndex":4,"items":[{"name":"효성닭갈비","tel":"031-967-6987","addr":"경기도 고양시 일산동구 식사동 183번지","indutype":"일반휴게음식 - 일반한식","category":"restaurant"}]},{"lat":"37.672016172","long":"126.80698178","imageIndex":4,"items":[{"name":"훈장골 보약한첩","tel":"031-965-2223","addr":"경기도 고양시 일산동구 식사동 861-15번지","indutype":"일반휴게음식 - 일반한식","category":"restaurant"}]},{"lat":"37.675964636","long":"126.81387468","imageIndex":4,"items":[{"name":"휘카페(식사점)","tel":"02-1522-6991","addr":"경기도 고양시 일산동구 식사동 1550-1번지","indutype":"일반휴게음식 - 서양음식","category":"restaurant"}]}]