[{"lat":"37.89966844","long":"127.52396361","imageIndex":5,"items":[{"name":"TELLEM (텔렘)","tel":"","addr":"경기도 가평군 북면 제령리 510-1번지","indutype":"숙박업 - 여관/기타숙박업","category":"hotel"}]},{"lat":"37.900753887","long":"127.51060046","imageIndex":5,"items":[{"name":"가인풀빌라","tel":"02-111-1111","addr":"경기도 가평군 북면 제령리 636-9번지","indutype":"숙박업 - 여관/기타숙박업","category":"hotel"}]},{"lat":"37.895888841","long":"127.53707949","imageIndex":5,"items":[{"name":"가평놀이터가자펜션","tel":"","addr":"경기도 가평군 북면 제령리 산34-8번지 2층","indutype":"숙박업 - 여관/기타숙박업","category":"hotel"}]},{"lat":"37.887365422","long":"127.53921187","imageIndex":5,"items":[{"name":"구름계곡민박","tel":"031-581-8998","addr":"경기도 가평군 북면 제령리 219-4","indutype":"숙박업 - 여관/기타숙박업","category":"hotel"}]},{"lat":"37.896033397","long":"127.53698959","imageIndex":5,"items":[{"name":"놀이터가자펜션","tel":"031-111-1111","addr":"경기도 가평군 북면 제령리 108-12번지 1층","indutype":"숙박업 - 여관/기타숙박업","category":"hotel"}]},{"lat":"37.89833423","long":"127.50127234","imageIndex":5,"items":[{"name":"늘 솔길 펜션","tel":"031-581-8720","addr":"경기도 가평군 북면 제령리 647-1번지","indutype":"숙박업 - 여관/기타숙박업","category":"hotel"}]},{"lat":"37.901032113","long":"127.5191297","imageIndex":5,"items":[{"name":"다솜","tel":"031-111-1111","addr":"경기도 가평군 북면 제령리 569-3번지","indutype":"숙박업 - 여관/기타숙박업","category":"hotel"}]},{"lat":"37.898083922","long":"127.52371368","imageIndex":5,"items":[{"name":"달그린","tel":"031-581-4311","addr":"경기도 가평군 북면 제령리 552-1번지","indutype":"숙박업 - 여관/기타숙박업","category":"hotel"}]},{"lat":"37.895499664","long":"127.52745858","imageIndex":5,"items":[{"name":"더웰리스펜션","tel":"031-582-1950","addr":"경기도 가평군 북면 제령리 532-3번지","indutype":"숙박업 - 여관/기타숙박업","category":"hotel"}]},{"lat":"37.89742437","long":"127.50759886","imageIndex":5,"items":[{"name":"도그더왈츠","tel":"","addr":"경기도 가평군 북면 제령리 624-12번지","indutype":"숙박업 - 여관/기타숙박업","category":"hotel"}]},{"lat":"37.897389158","long":"127.52191245","imageIndex":5,"items":[{"name":"디노펜션","tel":"","addr":"경기도 가평군 북면 제령리 544-8번지","indutype":"숙박업 - 여관/기타숙박업","category":"hotel"}]},{"lat":"37.897476245","long":"127.52463031","imageIndex":5,"items":[{"name":"뜨레모아","tel":"031-582-1345","addr":"경기도 가평군 북면 제령리 534-16","indutype":"숙박업 - 여관/기타숙박업","category":"hotel"}]},{"lat":"37.899165725","long":"127.52151562","imageIndex":5,"items":[{"name":"루체른펜션","tel":"031-582-7492","addr":"경기도 가평군 북면 제령리 556-3번지","indutype":"숙박업 - 여관/기타숙박업","category":"hotel"}]},{"lat":"37.897474045","long":"127.52104899","imageIndex":5,"items":[{"name":"륀느","tel":"031-000-0000","addr":"경기도 가평군 북면 제령리 544번지","indutype":"숙박업 - 여관/기타숙박업","category":"hotel"}]},{"lat":"37.898368877","long":"127.52243095","imageIndex":5,"items":[{"name":"메아리가든 쇼콜라펜션","tel":"031-582-5780","addr":"경기도 가평군 북면 제령리 555-3번지","indutype":"숙박업 - 여관/기타숙박업","category":"hotel"}]},{"lat":"37.902138031","long":"127.51344108","imageIndex":5,"items":[{"name":"미라몬티펜션","tel":"","addr":"경기도 가평군 북면 제령리 596-13번지","indutype":"숙박업 - 여관/기타숙박업","category":"hotel"}]},{"lat":"37.886947456","long":"127.5419598","imageIndex":5,"items":[{"name":"바하계곡펜션","tel":"","addr":"경기도 가평군 북면 제령리 225-5번지","indutype":"숙박업 - 여관/기타숙박업","category":"hotel"}]},{"lat":"37.900277394","long":"127.51660037","imageIndex":5,"items":[{"name":"보쏭","tel":"031-581-2961","addr":"경기도 가평군 북면 제령리 611-2번지","indutype":"숙박업 - 여관/기타숙박업","category":"hotel"}]},{"lat":"37.900921311","long":"127.51974289","imageIndex":5,"items":[{"name":"봄","tel":"031-582-2833","addr":"경기도 가평군 북면 제령리 569번지","indutype":"숙박업 - 여관/기타숙박업","category":"hotel"}]},{"lat":"37.900587369","long":"127.53802303","imageIndex":5,"items":[{"name":"사랑그리기","tel":"031-581-6743","addr":"경기도 가평군 북면 제령리 69번지","indutype":"숙박업 - 여관/기타숙박업","category":"hotel"}]},{"lat":"37.899722616","long":"127.53799403","imageIndex":5,"items":[{"name":"사랑만들기","tel":"031-581-6743","addr":"경기도 가평군 북면 제령리 92-2번지","indutype":"숙박업 - 여관/기타숙박업","category":"hotel"}]},{"lat":"37.89778495","long":"127.52205166","imageIndex":5,"items":[{"name":"사랑방","tel":"","addr":"경기도 가평군 북면 제령리 545-2번지","indutype":"숙박업 - 여관/기타숙박업","category":"hotel"}]},{"lat":"37.90027926","long":"127.53043724","imageIndex":5,"items":[{"name":"산내천","tel":"031-581-7801","addr":"경기도 가평군 북면 제령리 364-4번지","indutype":"숙박업 - 여관/기타숙박업","category":"hotel"}]},{"lat":"37.900170725","long":"127.5162699","imageIndex":5,"items":[{"name":"샘물둥지","tel":"031-581-2961","addr":"경기도 가평군 북면 제령리 611-4번지","indutype":"숙박업 - 여관/기타숙박업","category":"hotel"}]},{"lat":"37.895533638","long":"127.52993725","imageIndex":5,"items":[{"name":"수펜션","tel":"031-582-7413","addr":"경기도 가평군 북면 제령리 323-5번지","indutype":"숙박업 - 여관/기타숙박업","category":"hotel"}]},{"lat":"37.89422668","long":"127.53007572","imageIndex":5,"items":[{"name":"시크릿뷰","tel":"031-581-7582","addr":"경기도 가평군 북면 제령리 291번지","indutype":"숙박업 - 여관/기타숙박업","category":"hotel"}]},{"lat":"37.896836962","long":"127.52454621","imageIndex":5,"items":[{"name":"아모르 미오","tel":"031-585-0608","addr":"경기도 가평군 북면 제령리 515-10번지","indutype":"숙박업 - 여관/기타숙박업","category":"hotel"}]},{"lat":"37.897279509","long":"127.52429921","imageIndex":5,"items":[{"name":"아모르루시","tel":"031-582-3288","addr":"경기도 가평군 북면 제령리 515-15번지","indutype":"숙박업 - 여관/기타숙박업","category":"hotel"}]},{"lat":"37.896784579","long":"127.50341065","imageIndex":5,"items":[{"name":"아일랜드코쿤","tel":"031-581-4112","addr":"경기도 가평군 북면 제령리 656번지","indutype":"숙박업 - 여관/기타숙박업","category":"hotel"}]},{"lat":"37.896754017","long":"127.52496628","imageIndex":5,"items":[{"name":"앙팡티엔풀빌라","tel":"031-000-0000","addr":"경기도 가평군 북면 제령리 534-2번지 1,2동","indutype":"숙박업 - 여관/기타숙박업","category":"hotel"}]},{"lat":"37.899173381","long":"127.52182265","imageIndex":5,"items":[{"name":"엥겔베르그","tel":"031-581-1135","addr":"경기도 가평군 북면 제령리 554-3번지","indutype":"숙박업 - 여관/기타숙박업","category":"hotel"}]},{"lat":"37.899008068","long":"127.5245729","imageIndex":5,"items":[{"name":"여행하기좋은날","tel":"031-581-7557","addr":"경기도 가평군 북면 제령리 513-1","indutype":"숙박업 - 여관/기타숙박업","category":"hotel"}]},{"lat":"37.897308163","long":"127.50316407","imageIndex":5,"items":[{"name":"연제하우스","tel":"031-581-4112","addr":"경기도 가평군 북면 제령리 654번지 D동","indutype":"숙박업 - 여관/기타숙박업","category":"hotel"}]},{"lat":"37.897756983","long":"127.52430258","imageIndex":5,"items":[{"name":"월화수목","tel":"031-581-1567","addr":"경기도 가평군 북면 제령리 514-3번지","indutype":"숙박업 - 여관/기타숙박업","category":"hotel"},{"name":"월화수목펜션","tel":"031-581-1567","addr":"경기도 가평군 북면 제령리 514-3번지","indutype":"숙박업 - 여관/기타숙박업","category":"hotel"}]},{"lat":"37.896892879","long":"127.52412595","imageIndex":5,"items":[{"name":"은하눌펜션","tel":"","addr":"경기도 가평군 북면 제령리 535-2번지","indutype":"숙박업 - 여관/기타숙박업","category":"hotel"}]},{"lat":"37.897723742","long":"127.52163057","imageIndex":5,"items":[{"name":"카사레스 펜션","tel":"","addr":"경기도 가평군 북면 제령리 544-8번지","indutype":"숙박업 - 여관/기타숙박업","category":"hotel"}]},{"lat":"37.897891854","long":"127.52232527","imageIndex":5,"items":[{"name":"테라피펜션","tel":"","addr":"경기도 가평군 북면 제령리 548-1번지","indutype":"숙박업 - 여관/기타숙박업","category":"hotel"}]},{"lat":"37.896619493","long":"127.53688013","imageIndex":5,"items":[{"name":"파티데이 펜션","tel":"031-581-9763","addr":"경기도 가평군 북면 제령리 107-2번지","indutype":"숙박업 - 여관/기타숙박업","category":"hotel"}]},{"lat":"37.893808753","long":"127.53085718","imageIndex":5,"items":[{"name":"펜션아리","tel":"032-581-0044","addr":"경기도 가평군 북면 제령리 292-1번지","indutype":"숙박업 - 여관/기타숙박업","category":"hotel"}]},{"lat":"37.895563587","long":"127.52726577","imageIndex":5,"items":[{"name":"펜션웰리스","tel":"031-582-1950","addr":"경기도 가평군 북면 제령리 532","indutype":"숙박업 - 여관/기타숙박업","category":"hotel"}]},{"lat":"37.935775644","long":"127.488546","imageIndex":17,"items":[{"name":"가평명지산명품잣","tel":"","addr":"경기도 가평군 북면 제령리 562번지","indutype":"잣","category":"other"},{"name":"째즈","tel":"","addr":"경기도 가평군 북면 제령리 48-1번지","indutype":"-","category":"other"}]},{"lat":"37.894506708","long":"127.53987759","imageIndex":17,"items":[{"name":"가평월드레져","tel":"","addr":"경기도 가평군 북면 제령리 145번지","indutype":"레져용품 - 스포츠·레져용품","category":"other"}]},{"lat":"37.900557656","long":"127.52049075","imageIndex":17,"items":[{"name":"면지농원","tel":"031-582-1448","addr":"경기도 가평군 북면 제령리 562번지","indutype":"농업 - 비료,사료,종자","category":"other"}]},{"lat":"37.898117299","long":"127.50987745","imageIndex":17,"items":[{"name":"미켈리 에이치","tel":"031-581-7812","addr":"경기도 가평군 북면 제령리 628-5번지 1층","indutype":"가구 - 일반가구","category":"other"}]},{"lat":"37.894172237","long":"127.54012527","imageIndex":17,"items":[{"name":"부부농원","tel":"070-4117-7251","addr":"경기도 가평군 북면 제령리 145-3번지","indutype":"회원제형태 - 기타1","category":"other"}]},{"lat":"37.901087263","long":"127.51887995","imageIndex":17,"items":[{"name":"세븐일레븐가평제령리점","tel":"031-1577-0711","addr":"경기도 가평군 북면 제령리 569-10번지","indutype":"유통업 영리 - 편 의 점","category":"other"}]},{"lat":"37.89563971","long":"127.50568806","imageIndex":17,"items":[{"name":"이모네집","tel":"031-581-1256","addr":"경기도 가평군 북면 제령리 615-10번지","indutype":"신변잡화 - 기타잡화","category":"other"}]},{"lat":"37.900557656","long":"127.52049075","imageIndex":7,"items":[{"name":"가평명지산잣","tel":"031-582-1448","addr":"경기도 가평군 북면 제령리 562","indutype":"음료식품 - 농·축·수산품","category":"food"}]},{"lat":"37.89794928","long":"127.52563414","imageIndex":7,"items":[{"name":"애플농원","tel":"070-4268-7172","addr":"경기도 가평군 북면 제령리 517번지","indutype":"음료식품 - 농·축·수산품","category":"food"}]},{"lat":"37.89586397","long":"127.52657439","imageIndex":7,"items":[{"name":"오하브베이커리/(주)혜성","tel":"031-111-1111","addr":"경기도 가평군 북면 제령리 533-1번지 1층","indutype":"음료식품 - 제과점","category":"food"}]},{"lat":"37.89095103","long":"127.54512661","imageIndex":7,"items":[{"name":"일등농원","tel":"031-581-1007","addr":"경기도 가평군 북면 제령리 229-2번지 1층","indutype":"음료식품 - 농·축·수산품","category":"food"}]},{"lat":"37.896697573","long":"127.52954763","imageIndex":7,"items":[{"name":"진모농원","tel":"031-582-0201","addr":"경기도 가평군 북면 제령리 337번지","indutype":"음료식품 - 농·축·수산품","category":"food"}]},{"lat":"37.896534826","long":"127.52563551","imageIndex":7,"items":[{"name":"파스텔","tel":"031-581-3006","addr":"경기도 가평군 북면 제령리 534-3번지 1층","indutype":"음료식품 - 기타음료식품","category":"food"},{"name":"파스텔","tel":"031-581-3006","addr":"경기도 가평군 북면 제령리 534-3번지","indutype":"음료식품 - 기타음료식품","category":"food"}]},{"lat":"37.897503637","long":"127.52859836","imageIndex":7,"items":[{"name":"해담농원","tel":"031-582-6024","addr":"경기도 가평군 북면 제령리 495-9번지","indutype":"음료식품 - 농·축·수산품","category":"food"}]},{"lat":"37.886307769","long":"127.5419665","imageIndex":7,"items":[{"name":"화랑캠핑장매점","tel":"031-734-8977","addr":"경기도 가평군 북면 제령리 225-6번지 가평화랑유원지","indutype":"음료식품 - 기타음료식품","category":"food"}]},{"lat":"37.897305708","long":"127.51005379","imageIndex":4,"items":[{"name":"가평펜션","tel":"031-581-1429","addr":"경기도 가평군 북면 제령리 622-10번지","indutype":"일반휴게음식 - 일반한식","category":"restaurant"}]},{"lat":"37.896446996","long":"127.5391527","imageIndex":4,"items":[{"name":"골짜구니 엄낭구","tel":"031-582-0264","addr":"경기도 가평군 북면 제령리 137-1번지","indutype":"일반휴게음식 - 일반한식","category":"restaurant"}]},{"lat":"37.89563971","long":"127.50568806","imageIndex":4,"items":[{"name":"구나무촌","tel":"031-581-8474","addr":"경기도 가평군 북면 제령리 615-10","indutype":"일반휴게음식 - 일반한식","category":"restaurant"},{"name":"박은자 맛사랑 가평점","tel":"031-581-9285","addr":"경기도 가평군 북면 제령리 615-10번지","indutype":"일반휴게음식 - 일반한식","category":"restaurant"}]},{"lat":"37.901087263","long":"127.51887995","imageIndex":4,"items":[{"name":"명지반점","tel":"031-581-8989","addr":"경기도 가평군 북면 제령리 569-10번지","indutype":"일반휴게음식 - 중국식","category":"restaurant"},{"name":"풍천가","tel":"031-582-1861","addr":"경기도 가평군 북면 제령리 569-10번지","indutype":"일반휴게음식 - 일반한식","category":"restaurant"}]},{"lat":"37.896836962","long":"127.52454621","imageIndex":4,"items":[{"name":"아모르","tel":"031-582-0218","addr":"경기도 가평군 북면 제령리 515-10번지","indutype":"일반휴게음식 - 일반한식","category":"restaurant"}]},{"lat":"37.897308163","long":"127.50316407","imageIndex":4,"items":[{"name":"아일랜드코쿤","tel":"031-581-4112","addr":"경기도 가평군 북면 제령리 654번지","indutype":"일반휴게음식 - 일반한식","category":"restaurant"}]},{"lat":"37.896532752","long":"127.52812532","imageIndex":4,"items":[{"name":"일품양평해장국 제령점","tel":"031-581-5236","addr":"경기도 가평군 북면 제령리 523-6번지 작은여행 1동","indutype":"일반휴게음식 - 일반한식","category":"restaurant"}]},{"lat":"37.901087263","long":"127.51887995","imageIndex":13,"items":[{"name":"리버사이드노래연습장","tel":"031-582-1861","addr":"경기도 가평군 북면 제령리 569-10번지 2층","indutype":"레저업소 - 노 래 방","category":"leisure"}]}]