[{"lat":"37.30098817","long":"127.06575076","imageIndex":8,"items":[{"name":"(의)현당의료재단 늘봄요양병원","tel":"031-8005-1470","addr":"경기도 용인시 수지구 상현동 1186번지 광교복합의료센터 201호","indutype":"병원 - 병원","category":"medical"}]},{"lat":"37.296985546","long":"127.06954823","imageIndex":8,"items":[{"name":"JK서울안과","tel":"031-216-0050","addr":"경기도 용인시 수지구 상현동 1131-6번지 301.302호","indutype":"의원 - 의원","category":"medical"},{"name":"광교고운꿈피부과","tel":"031-217-7555","addr":"경기도 용인시 수지구 상현동 1131-6번지 미주프라자 4층 401호","indutype":"의원 - 의원","category":"medical"},{"name":"광교팜약국","tel":"031-217-9986","addr":"경기도 용인시 수지구 상현동 1131-6번지 105호","indutype":"약국 - 약국","category":"medical"},{"name":"우리맘정신건강의학과","tel":"031-217-0076","addr":"경기도 용인시 수지구 상현동 1131-6번지 501호","indutype":"의원 - 의원","category":"medical"}]},{"lat":"37.302125423","long":"127.07785418","imageIndex":8,"items":[{"name":"U-그린치과의원","tel":"031-276-2801","addr":"경기도 용인시 수지구 상현동 830번지 성진프라자 201호","indutype":"의원 - 치과의원","category":"medical"},{"name":"U-그린치과의원","tel":"031-276-2801","addr":"경기도 용인시 수지구 상현동 830번지 성진프라자 2층 201호","indutype":"의원 - 치과의원","category":"medical"},{"name":"서원약국","tel":"031-266-5146","addr":"경기도 용인시 수지구 상현동 341-25번지 성진프라자 102호","indutype":"약국 - 약국","category":"medical"},{"name":"우리들내과의원","tel":"031-266-5430","addr":"경기도 용인시 수지구 상현동 830번지 성진프라자 2층 204호","indutype":"의원 - 의원","category":"medical"}]},{"lat":"37.308761086","long":"127.08519283","imageIndex":8,"items":[{"name":"가람약국","tel":"031-266-9460","addr":"경기도 용인시 수지구 상현동 66-9상현종합프라자201-2","indutype":"약국 - 약국","category":"medical"},{"name":"경희명한의원","tel":"031-276-1075","addr":"경기도 용인시 수지구 상현동 66-9번지 상현종합상가 302호","indutype":"의원 - 한의원","category":"medical"},{"name":"꾸러기소아과의원","tel":"031-896-2228","addr":"경기도 용인시 수지구 상현동 66-9번지 상현종합프라자 201호","indutype":"의원 - 의원","category":"medical"},{"name":"보스턴  치과의원","tel":"031-896-0022","addr":"경기도 용인시 수지구 상현동 66-9번지 상현종합상가 301호","indutype":"의원 - 치과의원","category":"medical"},{"name":"서울예지치과의원","tel":"031-276-2754","addr":"경기도 용인시 수지구 상현동 66-9번지 상현종합상가 3층 309호","indutype":"의원 - 치과의원","category":"medical"}]},{"lat":"37.307094407","long":"127.08488646","imageIndex":8,"items":[{"name":"갤러리치과","tel":"031-266-7855","addr":"경기도 용인시 수지구 상현동 254-1번지 만현프라자 302호","indutype":"의원 - 치과의원","category":"medical"},{"name":"보스톤치과","tel":"043-535-7528","addr":"경기도 용인시 수지구 상현동 254-1번지 만현프라자 302호","indutype":"의원 - 치과의원","category":"medical"}]},{"lat":"37.297598147","long":"127.06971795","imageIndex":8,"items":[{"name":"경희누리한의원","tel":"031-212-2125","addr":"경기도 용인시 수지구 상현동 1131-3번지 산업프라자 302호","indutype":"의원 - 한의원","category":"medical"}]},{"lat":"37.30845495","long":"127.08488794","imageIndex":8,"items":[{"name":"경희보라한의원","tel":"031-265-1075","addr":"경기도 용인시 수지구 상현동 257-1번지 IT프라자 207호 208호","indutype":"의원 - 한의원","category":"medical"},{"name":"척척정형외과","tel":"031-266-7800","addr":"경기도 용인시 수지구 상현동 257-1번지 IT프라자 401~418호","indutype":"의원 - 의원","category":"medical"},{"name":"청호 한약국","tel":"031-266-7700","addr":"경기도 용인시 수지구 상현동 257-1번지 IT프라자 1동 114호","indutype":"약국 - 약국","category":"medical"},{"name":"청호한한약국","tel":"070-4948-7824","addr":"경기도 용인시 수지구 상현동 257-1번지 IT프라자 302호","indutype":"약국 - 약국","category":"medical"},{"name":"현진약국","tel":"031-889-8727","addr":"경기도 용인시 수지구 상현동 257-1번지 IT프라자 116호","indutype":"약국 - 약국","category":"medical"}]},{"lat":"37.298427463","long":"127.06905324","imageIndex":8,"items":[{"name":"경희차이한의원","tel":"031-217-7275","addr":"경기도 용인시 수지구 상현동 1117번지 502호","indutype":"의원 - 한의원","category":"medical"},{"name":"광교미소바른치과","tel":"031-202-8275","addr":"경기도 용인시 수지구 상현동 1117번지 광교스타천 4층 402호","indutype":"의원 - 치과의원","category":"medical"},{"name":"우영한의원","tel":"031-893-5555","addr":"경기도 용인시 수지구 상현동 1117번지 광교스타천 201호","indutype":"의원 - 한의원","category":"medical"}]},{"lat":"37.306734287","long":"127.08446872","imageIndex":8,"items":[{"name":"경희탑한의원","tel":"031-261-1075","addr":"경기도 용인시 수지구 상현동 254-14번지 원희캐슬프라자 제에이- 203호","indutype":"의원 - 한의원","category":"medical"},{"name":"경희토비한의원","tel":"031-264-2264","addr":"경기도 용인시 수지구 상현동 254-14번지 원희캐슬프라자 A동 305호","indutype":"의원 - 한의원","category":"medical"},{"name":"노블산부인과","tel":"031-261-3550","addr":"경기도 용인시 수지구 상현동 254-14번지","indutype":"의원 - 의원","category":"medical"},{"name":"늘고운의원","tel":"031-265-1212","addr":"경기도 용인시 수지구 상현동 254-14번지 원희캐슬프라자에이601-602호 601호","indutype":"의원 - 의원","category":"medical"},{"name":"메디미의원","tel":"031-264-2800","addr":"경기도 용인시 수지구 상현동 254-14번지 원희캐슬프라자 A동 304호","indutype":"의원 - 의원","category":"medical"},{"name":"메디미의원","tel":"031-264-2800","addr":"경기도 용인시 수지구 상현동 254-14번지 원희캐슬프라자 A동 304호","indutype":"의원 - 의원","category":"medical"},{"name":"명문내과의원","tel":"031-265-7585","addr":"경기도 용인시 수지구 상현동 254-14번지 원희캐슬프라자 A동 302호","indutype":"의원 - 의원","category":"medical"},{"name":"미래약국","tel":"031-265-1255","addr":"경기도 용인시 수지구 상현동 254-14번지 외6필지 원희캐슬프라자 A-407호","indutype":"약국 - 약국","category":"medical"},{"name":"서울삼성치과","tel":"031-272-2870","addr":"경기도 용인시 수지구 상현동 254-14번지 외6필지원희캐슬프라자 A동 204호","indutype":"의원 - 치과의원","category":"medical"},{"name":"선이고운 여성의원","tel":"031-265-1212","addr":"경기도 용인시 수지구 상현동 254-14번지 에이동 601~602호","indutype":"의원 - 의원","category":"medical"},{"name":"소미치과","tel":"031-262-2828","addr":"경기도 용인시 수지구 상현동 254-14번지 원희캐슬 A동 201호","indutype":"병원 - 치과병원","category":"medical"},{"name":"수지맑은피부과","tel":"031-264-5664","addr":"경기도 용인시 수지구 상현동 254-14번지 원희캐슬프라자 A동 403호","indutype":"의원 - 의원","category":"medical"},{"name":"수지서울안과","tel":"031-276-4177","addr":"경기도 용인시 수지구 상현동 254-14번지 캐슬프라자 A동 404호","indutype":"의원 - 의원","category":"medical"},{"name":"수지하나이비인후과의원","tel":"031-266-8875","addr":"경기도 용인시 수지구 상현동 254-14번지 원희캐슬프라자 A동 202호","indutype":"의원 - 의원","category":"medical"},{"name":"연세수지아이들치과","tel":"031-265-2858","addr":"경기도 용인시 수지구 상현동 254-14번지 원희캐슬프라자 B동 304-1호","indutype":"의원 - 치과의원","category":"medical"},{"name":"원희온누리약국","tel":"031-897-7856","addr":"경기도 용인시 수지구 상현동 254-14 원희캐슬프라자B111-2GH","indutype":"약국 - 약국","category":"medical"},{"name":"원희캐슬약국","tel":"031-272-9482","addr":"경기도 용인시 수지구 상현동 254-14번지 원희캐슬프라자 304-1호","indutype":"약국 - 약국","category":"medical"},{"name":"원희캐슬약국","tel":"031-272-9482","addr":"경기도 용인시 수지구 상현동 254-14번지 외1필지원희캐슬프라 자비동 304호","indutype":"약국 - 약국","category":"medical"},{"name":"이영은소아과의원","tel":"031-265-7146","addr":"경기도 용인시 수지구 상현동 254-14번지 원일캐슬프라자 A동 405호","indutype":"의원 - 의원","category":"medical"},{"name":"이호선이비인후과","tel":"031-261-3800","addr":"경기도 용인시 수지구 상현동 254-14번지 원희캐슬프라자 A동 301호","indutype":"의원 - 의원","category":"medical"},{"name":"지쎄븐(G7)치과의원","tel":"031-263-2275","addr":"경기도 용인시 수지구 상현동 254-14번지 원희캐슬프라자 A동 401호 402호","indutype":"의원 - 치과의원","category":"medical"},{"name":"참누리동물병원","tel":"031-264-7525","addr":"경기도 용인시 수지구 상현동 254-14번지 원희캐슬프라자 A동 112호","indutype":"기타의료기관 - 동물병원","category":"medical"},{"name":"캐슬프라자약국","tel":"031-272-9481","addr":"경기도 용인시 수지구 상현동 254-14번지 원희캐슬프라자 A-303A호","indutype":"약국 - 약국","category":"medical"},{"name":"한가정약국","tel":"031-272-8485","addr":"경기도 용인시 수지구 상현동 254-14번지 원희캐슬프라자 A동 106호","indutype":"약국 - 약국","category":"medical"},{"name":"한솔병인한의원","tel":"031-282-3567","addr":"경기도 용인시 수지구 상현동 254-14번지 원회캐슬프라자 A동 306호","indutype":"의원 - 한의원","category":"medical"}]},{"lat":"37.30942744","long":"127.08576885","imageIndex":8,"items":[{"name":"경희푸른솔한의원","tel":"031-265-7111","addr":"경기도 용인시 수지구 상현동 66-2,18헤르메스빌딩304","indutype":"의원 - 한의원","category":"medical"},{"name":"믿음찬 내과의원","tel":"031-000-0000","addr":"경기도 용인시 수지구 상현동 66-2번지 헤르메스상가 4층 404호","indutype":"의원 - 의원","category":"medical"},{"name":"수약국","tel":"","addr":"경기도 용인시 수지구 상현동 66-2번지 4층 404-1호","indutype":"약국 - 약국","category":"medical"},{"name":"이튼치과","tel":"031-262-1871","addr":"경기도 용인시 수지구 상현동 66-2번지 헤르메스빌딩 306호","indutype":"의원 - 치과의원","category":"medical"},{"name":"지음마취통증의학과 의원","tel":"031-261-3917","addr":"경기도 용인시 수지구 상현동 66-2번지 301,302-1호","indutype":"의원 - 의원","category":"medical"}]},{"lat":"37.31403879","long":"127.08841364","imageIndex":8,"items":[{"name":"고려가정의원","tel":"031-264-1504","addr":"경기도 용인시 수지구 상현동 3-4번지 성산빌딩 401호","indutype":"의원 - 의원","category":"medical"},{"name":"재일약국","tel":"031-265-5120","addr":"경기도 용인시 수지구 상현동 3-4번지 성산빌딩 101호","indutype":"약국 - 약국","category":"medical"}]},{"lat":"37.306761029","long":"127.0848861","imageIndex":8,"items":[{"name":"고운비한의원","tel":"031-263-8878","addr":"경기도 용인시 수지구 상현동 254-14번지 원희캐슬프라자 B동 305호","indutype":"의원 - 한의원","category":"medical"},{"name":"상현정형외과","tel":"031-272-7775","addr":"경기도 용인시 수지구 상현동 254-14번지 원희캐슬프라자 B동 301호","indutype":"의원 - 의원","category":"medical"},{"name":"인의한의원","tel":"031-261-7511","addr":"경기도 용인시 수지구 상현동 254-14번지 원희캐슬프라자 B동 303호","indutype":"의원 - 한의원","category":"medical"},{"name":"자연약국","tel":"031-263-5218","addr":"경기도 용인시 수지구 상현동 254-14번지 원희캐슬프라자 B동 304호","indutype":"약국 - 약국","category":"medical"},{"name":"참사랑치과의원","tel":"031-262-7528","addr":"경기도 용인시 수지구 상현동 254-14번지 원희캐슬프라자 B동 404호","indutype":"의원 - 치과의원","category":"medical"}]},{"lat":"37.298211249","long":"127.06899666","imageIndex":8,"items":[{"name":"고은e치과","tel":"031-231-2080","addr":"경기도 용인시 수지구 상현동 1117-1번지 광교티타워 204호","indutype":"의원 - 치과의원","category":"medical"}]},{"lat":"37.297676361","long":"127.07463541","imageIndex":8,"items":[{"name":"광교 호수 동물병원","tel":"031-212-7515","addr":"경기도 용인시 수지구 상현동 1130-2번지 신우프라자 102호 103호","indutype":"기타의료기관 - 동물병원","category":"medical"}]},{"lat":"37.297264832","long":"127.06960487","imageIndex":8,"items":[{"name":"광교그린산부인과의원","tel":"031-211-0095","addr":"경기도 용인시 수지구 상현동 1131-5번지 광교에스타워 301호","indutype":"의원 - 의원","category":"medical"},{"name":"광교바른이치과","tel":"031-211-2885","addr":"경기도 용인시 수지구 상현동 1131-5번지 S타워 401호","indutype":"의원 - 치과의원","category":"medical"},{"name":"광교으뜸정형외과의원","tel":"031-216-8875","addr":"경기도 용인시 수지구 상현동 1131-5번지 (302~303호)","indutype":"의원 - 의원","category":"medical"},{"name":"광교푸른약국","tel":"031-891-1214","addr":"경기도 용인시 수지구 상현동 1131-5번지 에스타워 305호","indutype":"약국 - 약국","category":"medical"},{"name":"미올한의원","tel":"031-217-2170","addr":"경기도 용인시 수지구 상현동 1131-5번지 202호","indutype":"의원 - 한의원","category":"medical"},{"name":"봉원당한의원","tel":"031-217-7579","addr":"경기도 용인시 수지구 상현동 1131-5번지 S타워 502호","indutype":"의원 - 한의원","category":"medical"},{"name":"헬로닥터원의원","tel":"031-213-1980","addr":"경기도 용인시 수지구 상현동 1131-5번지 405호","indutype":"의원 - 의원","category":"medical"}]},{"lat":"37.296877935","long":"127.06863459","imageIndex":8,"items":[{"name":"광교미소모아내과의원","tel":"031-212-1475","addr":"경기도 용인시 수지구 상현동 1117-7번지 403호","indutype":"의원 - 의원","category":"medical"},{"name":"웃음꽃피는치과의원","tel":"031-216-2872","addr":"경기도 용인시 수지구 상현동 1117-7번지 드림타워 3층 302,303호","indutype":"의원 - 치과의원","category":"medical"}]},{"lat":"37.297509505","long":"127.06707872","imageIndex":8,"items":[{"name":"광교서울이비인후과의원","tel":"031-282-8200","addr":"경기도 용인시 수지구 상현동 1115번지 광교택지개발지구주23-1에스비타운 403호","indutype":"의원 - 의원","category":"medical"}]},{"lat":"37.298291827","long":"127.06991029","imageIndex":8,"items":[{"name":"광교수약국","tel":"031-215-7611","addr":"경기도 용인시 수지구 상현동 1131번지 303호","indutype":"약국 - 약국","category":"medical"},{"name":"광교한의원","tel":"031-217-7975","addr":"경기도 용인시 수지구 상현동 1131번지 701호","indutype":"의원 - 한의원","category":"medical"},{"name":"김병연소아청소년과","tel":"031-214-1600","addr":"경기도 용인시 수지구 상현동 504-5 (광교스타지빌딩302호)","indutype":"의원 - 의원","category":"medical"},{"name":"김유진정신건강의학과","tel":"031-213-1575","addr":"경기도 용인시 수지구 상현동 1131번지","indutype":"의원 - 의원","category":"medical"},{"name":"밝은약국","tel":"031-217-8081","addr":"경기도 용인시 수지구 상현동 1131번지 503호","indutype":"약국 - 약국","category":"medical"},{"name":"연세스마트치과","tel":"031-217-5991","addr":"경기도 용인시 수지구 상현동 504-5번지 광교스타지빌딩 401호","indutype":"의원 - 치과의원","category":"medical"}]},{"lat":"37.298066616","long":"127.06983114","imageIndex":8,"items":[{"name":"광교약국","tel":"031-212-6615","addr":"경기도 용인시 수지구 상현동 1131-1번지 광교씨티하임 102호","indutype":"약국 - 약국","category":"medical"},{"name":"서울S치과","tel":"031-889-2875","addr":"경기도 용인시 수지구 상현동 1131-1번지 킴앤코시티하임 402호","indutype":"의원 - 치과의원","category":"medical"},{"name":"송한의원","tel":"031-214-3356","addr":"경기도 용인시 수지구 상현동 1131-1번지 킴엔코시티하임 401호","indutype":"의원 - 한의원","category":"medical"},{"name":"수지햇살약국","tel":"031-217-0990","addr":"경기도 용인시 수지구 상현동 1131-1번지","indutype":"약국 - 약국","category":"medical"}]},{"lat":"37.297814361","long":"127.06977453","imageIndex":8,"items":[{"name":"광교윤하약국","tel":"070-8259-3291","addr":"경기도 용인시 수지구 상현동 1131-2번지 세현빌딩 104호","indutype":"약국 - 약국","category":"medical"},{"name":"광교제이씨(JC)정형외과의원","tel":"031-217-4700","addr":"경기도 용인시 수지구 상현동 1131-2번지 세현빌딩 401,402,403호","indutype":"의원 - 의원","category":"medical"},{"name":"더아이비의원","tel":"031-281-2881","addr":"경기도 용인시 수지구 상현동 1131-2번지 세현빌딩 5층","indutype":"의원 - 의원","category":"medical"}]},{"lat":"37.297733782","long":"127.0688609","imageIndex":8,"items":[{"name":"광교이사랑치과","tel":"031-213-2810","addr":"경기도 용인시 수지구 상현동 1117-3번지 우리상가 402호","indutype":"의원 - 치과의원","category":"medical"},{"name":"광교참좋은요양병원","tel":"031-216-9887","addr":"경기도 용인시 수지구 상현동 1117-3번지 희성빌딩 4층~9층","indutype":"병원 - 병원","category":"medical"}]},{"lat":"37.296039642","long":"127.06924288","imageIndex":8,"items":[{"name":"광교인내과의원","tel":"031-212-3082","addr":"경기도 용인시 수지구 상현동 1133번지 301호,303호","indutype":"의원 - 의원","category":"medical"},{"name":"광교치과","tel":"031-211-2835","addr":"경기도 용인시 수지구 상현동 1133번지 엘리치안 302호","indutype":"의원 - 치과의원","category":"medical"},{"name":"다온약국","tel":"031-8001-3177","addr":"경기도 용인시 수지구 상현동 1133번지 1층","indutype":"약국 - 약국","category":"medical"},{"name":"다온약국","tel":"031-8001-3177","addr":"경기도 용인시 수지구 상현동 1133번지 변호사빌딩 108호","indutype":"약국 - 약국","category":"medical"},{"name":"하버드신경과의원","tel":"031-225-3080","addr":"경기도 용인시 수지구 상현동 1133번지 엘리치안빌딩 3층 304호","indutype":"의원 - 의원","category":"medical"}]},{"lat":"37.309262257","long":"127.07668813","imageIndex":8,"items":[{"name":"그루치과의원","tel":"031-264-2275","addr":"경기도 용인시 수지구 상현동 107-4 성진빌딩 2층","indutype":"의원 - 치과의원","category":"medical"}]},{"lat":"37.29806625","long":"127.07047402","imageIndex":8,"items":[{"name":"김구한의원","tel":"031-546-2966","addr":"경기도 용인시 수지구 상현동 1132번지 203호","indutype":"의원 - 한의원","category":"medical"},{"name":"상현프라임치과","tel":"031-216-3528","addr":"경기도 용인시 수지구 상현동 1132번지 광교택지개발지구내주23블럭1로트에스타운3층304호","indutype":"의원 - 치과의원","category":"medical"},{"name":"온누리기분좋은약국","tel":"031-212-7004","addr":"경기도 용인시 수지구 상현동 1132번지 에스비타운 110호","indutype":"약국 - 약국","category":"medical"}]},{"lat":"37.300397486","long":"127.0745816","imageIndex":8,"items":[{"name":"나준한의원","tel":"031-213-1075","addr":"경기도 용인시 수지구 상현동 1129번지 파크프라자 2층 204호","indutype":"의원 - 한의원","category":"medical"}]},{"lat":"37.307292263","long":"127.08541683","imageIndex":8,"items":[{"name":"다사랑약국","tel":"031-272-5005","addr":"경기도 용인시 수지구 상현동 259번지 한길프라자 106호","indutype":"약국 - 약국","category":"medical"},{"name":"미래여성한의원","tel":"031-265-5678","addr":"경기도 용인시 수지구 상현동 259번지 한길프라자 404호","indutype":"의원 - 한의원","category":"medical"},{"name":"미서울치과의원","tel":"031-276-5335","addr":"경기도 용인시 수지구 상현동 259번지 한길프라자 403호","indutype":"의원 - 치과의원","category":"medical"},{"name":"연세이비인후과의원","tel":"031-261-0275","addr":"경기도 용인시 수지구 상현동 259번지 한길프라자 401호","indutype":"의원 - 의원","category":"medical"},{"name":"이승복내과의원","tel":"031-272-0082","addr":"경기도 용인시 수지구 상현동 259번지 한길프라자 301호","indutype":"의원 - 의원","category":"medical"}]},{"lat":"37.308901883","long":"127.07663138","imageIndex":8,"items":[{"name":"단아한의원","tel":"031-261-8217","addr":"경기도 용인시 수지구 상현동 107-14번지 중앙프라자 201호","indutype":"의원 - 한의원","category":"medical"},{"name":"단아한의원","tel":"031-261-8217","addr":"경기도 용인시 수지구 상현동 107-14번지 중앙프라자 201호","indutype":"의원 - 한의원","category":"medical"}]},{"lat":"37.306508413","long":"127.08535957","imageIndex":8,"items":[{"name":"동의보감한의원","tel":"031-272-7290","addr":"경기도 용인시 수지구 상현동 263번지 미래프라자 406호","indutype":"의원 - 한의원","category":"medical"},{"name":"동의보감한의원","tel":"031-272-7290","addr":"경기도 용인시 수지구 상현동 263번지 미래프라자 406호","indutype":"의원 - 한의원","category":"medical"},{"name":"미래연세내과소아과","tel":"031-265-9413","addr":"경기도 용인시 수지구 상현동 236미래프라자402호,403호","indutype":"의원 - 의원","category":"medical"},{"name":"솔약국","tel":"031-261-5958","addr":"경기도 용인시 수지구 상현동 263외6필지미래프라자106","indutype":"약국 - 약국","category":"medical"}]},{"lat":"37.294898944","long":"127.07827558","imageIndex":8,"items":[{"name":"라파엘한의원","tel":"031-215-6490","addr":"경기도 용인시 수지구 상현동 1137번지 A102~103호","indutype":"의원 - 한의원","category":"medical"}]},{"lat":"37.300537364","long":"127.06630305","imageIndex":8,"items":[{"name":"린병원","tel":"031-8005-1371","addr":"경기도 용인시 수지구 상현동 1186-1번지","indutype":"병원 - 병원","category":"medical"}]},{"lat":"37.306094444","long":"127.08463722","imageIndex":8,"items":[{"name":"명주치과","tel":"031-266-2827","addr":"경기도 용인시 수지구 상현동 252번지 SR프라자 507호","indutype":"의원 - 치과의원","category":"medical"},{"name":"심훈치과의원","tel":"031-898-1308","addr":"경기도 용인시 수지구 상현동 252번지 SR프라자 308호","indutype":"의원 - 치과의원","category":"medical"},{"name":"오송한약국","tel":"031-889-9112","addr":"경기도 용인시 수지구 상현동 252번지 외2필지 에스알프라자 111호","indutype":"약국 - 약국","category":"medical"},{"name":"정동물병원","tel":"031-898-2298","addr":"경기도 용인시 수지구 상현동 252번지 SR프라자 112호","indutype":"기타의료기관 - 동물병원","category":"medical"}]},{"lat":"37.307761335","long":"127.08463903","imageIndex":8,"items":[{"name":"상현경희한의원","tel":"031-272-2777","addr":"경기도 용인시 수지구 상현동 257-22번지 외2필지","indutype":"의원 - 한의원","category":"medical"},{"name":"상현메디칼약국","tel":"031-272-8805","addr":"경기도 용인시 수지구 상현동 257-22번지 거묵프라자 203호 일부","indutype":"약국 - 약국","category":"medical"},{"name":"상현서울치과","tel":"031-262-0275","addr":"경기도 용인시 수지구 상현동 257-22번지 거묵프라자 208호","indutype":"의원 - 치과의원","category":"medical"},{"name":"상현연세내과의원","tel":"031-261-8275","addr":"경기도 용인시 수지구 상현동 257-22번지 거묵프라자 2층 202호","indutype":"의원 - 의원","category":"medical"},{"name":"함께하는치과의원","tel":"031-272-6543","addr":"경기도 용인시 수지구 상현동 257-22번지 거묵프라자 2층 205호","indutype":"의원 - 치과의원","category":"medical"}]},{"lat":"37.30287177","long":"127.08018972","imageIndex":8,"items":[{"name":"상현수 치과의원","tel":"031-266-4717","addr":"경기도 용인시 수지구 상현동 832번지 금호베스트빌 2단지상가 302호","indutype":"의원 - 치과의원","category":"medical"}]},{"lat":"37.30826248","long":"127.07611187","imageIndex":8,"items":[{"name":"수지21세기의원","tel":"031-272-8995","addr":"경기도 용인시 수지구 상현동 193-1번지","indutype":"의원 - 의원","category":"medical"},{"name":"정성가득미소치과","tel":"031-272-7528","addr":"경기도 용인시 수지구 상현동 193-1번지","indutype":"의원 - 치과의원","category":"medical"}]},{"lat":"37.309929544","long":"127.07583148","imageIndex":8,"items":[{"name":"수지동물의료원","tel":"031-365-3375","addr":"경기도 용인시 수지구 상현동 106-8번지 힐프라자 101호","indutype":"기타의료기관 - 동물병원","category":"medical"},{"name":"수지본내과의원","tel":"031-261-6888","addr":"경기도 용인시 수지구 상현동 106-8번지 힐프라자 201호","indutype":"의원 - 의원","category":"medical"}]},{"lat":"37.296238501","long":"127.06810396","imageIndex":8,"items":[{"name":"쎈(cen)한의원","tel":"031-216-0677","addr":"경기도 용인시 수지구 상현동 1118번지 광교유-타워","indutype":"의원 - 한의원","category":"medical"}]},{"lat":"37.305598788","long":"127.08477204","imageIndex":8,"items":[{"name":"어울림한의원","tel":"031-264-5775","addr":"경기도 용인시 수지구 상현동 251-3 자이프라자 303.304호","indutype":"의원 - 한의원","category":"medical"}]},{"lat":"37.296733304","long":"127.06946906","imageIndex":8,"items":[{"name":"엘 한의원","tel":"031-214-9898","addr":"경기도 용인시 수지구 상현동 1131-7번지 블루스퀘어 1동 2층 203호","indutype":"의원 - 한의원","category":"medical"},{"name":"웰동물병원","tel":"031-213-7522","addr":"경기도 용인시 수지구 상현동 1131-7번지 광교지구블루스퀘어 101호","indutype":"기타의료기관 - 동물병원","category":"medical"},{"name":"이지 재활의학과의원","tel":"031-548-1095","addr":"경기도 용인시 수지구 상현동 1131-7번지 401-403호","indutype":"의원 - 의원","category":"medical"}]},{"lat":"37.307094773","long":"127.08435631","imageIndex":8,"items":[{"name":"이레한의원","tel":"031-276-0017","addr":"경기도 용인시 수지구 상현동 254-9번지 나래빌딩 6층","indutype":"의원 - 한의원","category":"medical"}]}]