[{"lat":"37.834942006","long":"126.9752664","imageIndex":4,"items":[{"name":"(주)란싸와디명타이","tel":"031-836-1117","addr":"경기도 양주시 광적면 석우리 464-24","indutype":"일반휴게음식 - 일반한식","category":"restaurant"}]},{"lat":"37.840804593","long":"126.96599394","imageIndex":4,"items":[{"name":"7856부대","tel":"031-855-3054","addr":"경기도 양주시 광적면 석우리 701-7번지","indutype":"일반휴게음식 - 서양음식","category":"restaurant"}]},{"lat":"37.827222418","long":"126.98257283","imageIndex":4,"items":[{"name":"BBQ양주광적점","tel":"031-837-9291","addr":"경기도 양주시 광적면 석우리 714-4번지 동성빌딩 102호","indutype":"일반휴게음식 - 일반한식","category":"restaurant"},{"name":"숯겹살집","tel":"031-855-6698","addr":"경기도 양주시 광적면 석우리 714-4번지 동성빌딩","indutype":"일반휴게음식 - 일반한식","category":"restaurant"},{"name":"한가람","tel":"","addr":"경기도 양주시 광적면 석우리 714-4번지 동성빌딩 1층 101호","indutype":"일반휴게음식 - 일반한식","category":"restaurant"}]},{"lat":"37.826528449","long":"126.98121","imageIndex":4,"items":[{"name":"가래비대구뽈찜","tel":"031-836-1321","addr":"경기도 양주시 광적면 석우리 716-3번지","indutype":"일반휴게음식 - 일반한식","category":"restaurant"},{"name":"신(  )쭈꾸123","tel":"031-855-0990","addr":"경기도 양주시 광적면 석우리 716-3번지 1층","indutype":"일반휴게음식 - 일반한식","category":"restaurant"}]},{"lat":"37.828915839","long":"126.98063001","imageIndex":4,"items":[{"name":"곁두리농가까페","tel":"031-498-6087","addr":"경기도 양주시 광적면 석우리 392번지 1층","indutype":"일반휴게음식 - 일반한식","category":"restaurant"},{"name":"원두막메기메운탕","tel":"031-855-1812","addr":"경기도 양주시 광적면 석우리 392번지 B동 1층","indutype":"일반휴게음식 - 일반한식","category":"restaurant"}]},{"lat":"37.828168035","long":"126.98051664","imageIndex":4,"items":[{"name":"김가네찌개맛집","tel":"031-877-6246","addr":"경기도 양주시 광적면 석우리 711-1번지","indutype":"일반휴게음식 - 서양음식","category":"restaurant"}]},{"lat":"37.827006118","long":"126.98215262","imageIndex":4,"items":[{"name":"남원추어탕(가래비점)","tel":"031-836-7676","addr":"경기도 양주시 광적면 석우리 715-1번지 당성빌딩 103호","indutype":"일반휴게음식 - 일반한식","category":"restaurant"},{"name":"어수정국수집(광적점)","tel":"031-856-8639","addr":"경기도 양주시 광적면 석우리 715-1번지 101호","indutype":"일반휴게음식 - 일반한식","category":"restaurant"}]},{"lat":"37.826834759","long":"126.98115312","imageIndex":4,"items":[{"name":"대패삼겹살전문","tel":"031-878-0291","addr":"경기도 양주시 광적면 석우리 716-1번지","indutype":"일반휴게음식 - 일반한식","category":"restaurant"}]},{"lat":"37.827393587","long":"126.98251599","imageIndex":4,"items":[{"name":"도리돈","tel":"031-877-7782","addr":"경기도 양주시 광적면 석우리 714-2번지 1층","indutype":"일반휴게음식 - 일반한식","category":"restaurant"}]},{"lat":"37.831527967","long":"126.97763039","imageIndex":4,"items":[{"name":"돈돈두루치기전문점(광적점)","tel":"031-829-3393","addr":"경기도 양주시 광적면 석우리 433-4번지 나동","indutype":"일반휴게음식 - 일반한식","category":"restaurant"}]},{"lat":"37.830140932","long":"126.97965276","imageIndex":4,"items":[{"name":"동화","tel":"031-836-3232","addr":"경기도 양주시 광적면 석우리 382-7번지","indutype":"일반휴게음식 - 중국식","category":"restaurant"}]},{"lat":"37.827339564","long":"126.9827091","imageIndex":4,"items":[{"name":"돼지네","tel":"031-829-8892","addr":"경기도 양주시 광적면 석우리 714-6번지","indutype":"일반휴게음식 - 일반한식","category":"restaurant"},{"name":"우가네곱창이야기","tel":"031-855-4419","addr":"경기도 양주시 광적면 석우리 714-6","indutype":"일반휴게음식 - 일반한식","category":"restaurant"}]},{"lat":"37.834672043","long":"126.97666374","imageIndex":4,"items":[{"name":"땡큐로드","tel":"031-855-4946","addr":"경기도 양주시 광적면 석우리 441-7번지","indutype":"일반휴게음식 - 서양음식","category":"restaurant"}]},{"lat":"37.830699458","long":"126.97935725","imageIndex":4,"items":[{"name":"만선쭈꾸미","tel":"031-829-3639","addr":"경기도 양주시 광적면 석우리 368-3번지","indutype":"일반휴게음식 - 일반한식","category":"restaurant"}]},{"lat":"37.837560263","long":"126.96309872","imageIndex":4,"items":[{"name":"먹골농장","tel":"031-855-7180","addr":"경기도 양주시 광적면 석우리 695번지","indutype":"일반휴게음식 - 일반한식","category":"restaurant"}]},{"lat":"37.831861462","long":"126.97832319","imageIndex":4,"items":[{"name":"명동식당","tel":"031-837-1983","addr":"경기도 양주시 광적면 석우리 364-1번지","indutype":"일반휴게음식 - 일반한식","category":"restaurant"}]},{"lat":"37.827420473","long":"126.98170952","imageIndex":4,"items":[{"name":"모모라","tel":"070-8839-3546","addr":"경기도 양주시 광적면 석우리 712-5번지 1층 일부","indutype":"일반휴게음식 - 서양음식","category":"restaurant"},{"name":"미소가","tel":"031-855-3777","addr":"경기도 양주시 광적면 석우리 712-5번지 1층","indutype":"일반휴게음식 - 중국식","category":"restaurant"}]},{"lat":"37.835696998","long":"126.96843885","imageIndex":4,"items":[{"name":"모심푸드","tel":"070-7780-8542","addr":"경기도 양주시 광적면 석우리 633-1","indutype":"일반휴게음식 - 위탁급식업","category":"restaurant"}]},{"lat":"37.826420618","long":"126.98280021","imageIndex":4,"items":[{"name":"밥도둑한정식부페","tel":"031-829-0520","addr":"경기도 양주시 광적면 석우리 719-6번지 1층","indutype":"일반휴게음식 - 일반한식","category":"restaurant"},{"name":"앗싸곱창","tel":"031-836-6670","addr":"경기도 양주시 광적면 석우리 719-6번지","indutype":"일반휴게음식 - 일반한식","category":"restaurant"},{"name":"흑산도","tel":"031-836-9963","addr":"경기도 양주시 광적면 석우리 719-6번지","indutype":"일반휴게음식 - 일식·회집","category":"restaurant"}]},{"lat":"37.826113975","long":"126.98099432","imageIndex":4,"items":[{"name":"빠박이껍데기","tel":"031-535-0825","addr":"경기도 양주시 광적면 석우리 717-4번지","indutype":"일반휴게음식 - 일반한식","category":"restaurant"}]},{"lat":"37.83644591","long":"126.97255081","imageIndex":4,"items":[{"name":"뼈다귀천국","tel":"031-877-6486","addr":"경기도 양주시 광적면 석우리 474-2번지","indutype":"일반휴게음식 - 일반한식","category":"restaurant"}]},{"lat":"37.835581322","long":"126.97380074","imageIndex":4,"items":[{"name":"상명밥먹는집","tel":"031-855-5801","addr":"경기도 양주시 광적면 석우리 464-16번지 1층 3호","indutype":"일반휴게음식 - 일반한식","category":"restaurant"}]},{"lat":"37.83608541","long":"126.97207384","imageIndex":4,"items":[{"name":"석우식당","tel":"031-871-0789","addr":"경기도 양주시 광적면 석우리 639-5번지 1층","indutype":"일반휴게음식 - 일반한식","category":"restaurant"}]},{"lat":"37.840525745","long":"126.96743687","imageIndex":4,"items":[{"name":"송가네해장국","tel":"031-836-8787","addr":"경기도 양주시 광적면 석우리 578-2번지","indutype":"일반휴게음식 - 일반한식","category":"restaurant"}]},{"lat":"37.828636884","long":"126.98249293","imageIndex":4,"items":[{"name":"수니비어","tel":"","addr":"경기도 양주시 광적면 석우리 708-1번지 양주가납주공아파트 103호","indutype":"일반휴게음식 - 주점","category":"restaurant"}]},{"lat":"37.835887353","long":"126.97265328","imageIndex":4,"items":[{"name":"실비식당","tel":"031-855-9498","addr":"경기도 양주시 광적면 석우리 470-3번지","indutype":"일반휴게음식 - 일반한식","category":"restaurant"}]},{"lat":"37.827276363","long":"126.98193673","imageIndex":4,"items":[{"name":"양주뒷고기","tel":"031-875-7277","addr":"경기도 양주시 광적면 석우리 712-4번지","indutype":"일반휴게음식 - 일반한식","category":"restaurant"}]},{"lat":"37.829448253","long":"126.98576406","imageIndex":4,"items":[{"name":"양주뜰에모아","tel":"031-855-5888","addr":"경기도 양주시 광적면 석우리 94-2번지","indutype":"일반휴게음식 - 일반한식","category":"restaurant"}]},{"lat":"37.839642979","long":"126.96795988","imageIndex":4,"items":[{"name":"양주식당","tel":"031-821-6761","addr":"경기도 양주시 광적면 석우리 586-1번지","indutype":"일반휴게음식 - 일반한식","category":"restaurant"}]},{"lat":"37.823250164","long":"126.98876399","imageIndex":4,"items":[{"name":"오닉스","tel":"031-000-0000","addr":"경기도 양주시 광적면 석우리 66-17번지 1층","indutype":"일반휴게음식 - 서양음식","category":"restaurant"}]},{"lat":"37.8273934","long":"126.98145964","imageIndex":4,"items":[{"name":"우리칼국수","tel":"031-879-8727","addr":"경기도 양주시 광적면 석우리 712-6번지","indutype":"일반휴게음식 - 일반한식","category":"restaurant"}]},{"lat":"37.836643773","long":"126.97124433","imageIndex":4,"items":[{"name":"우정식당","tel":"031-855-6441","addr":"경기도 양주시 광적면 석우리 638-5번지","indutype":"일반휴게음식 - 일반한식","category":"restaurant"}]},{"lat":"37.833726182","long":"126.97724342","imageIndex":4,"items":[{"name":"자연밥상","tel":"031-836-8145","addr":"경기도 양주시 광적면 석우리 445-2번지","indutype":"일반휴게음식 - 일반한식","category":"restaurant"}]},{"lat":"37.833169343","long":"126.98718314","imageIndex":4,"items":[{"name":"장수감자탕","tel":"031-845-5531","addr":"경기도 양주시 광적면 석우리 129-12번지","indutype":"일반휴게음식 - 일반한식","category":"restaurant"}]},{"lat":"37.831366003","long":"126.97860733","imageIndex":4,"items":[{"name":"장수식당","tel":"031-836-6353","addr":"경기도 양주시 광적면 석우리 372-1번지","indutype":"일반휴게음식 - 일반한식","category":"restaurant"}]},{"lat":"37.826447461","long":"126.98174387","imageIndex":4,"items":[{"name":"젠라쿠(ZENRAKU)","tel":"031-836-1124","addr":"경기도 양주시 광적면 석우리 719-4번지","indutype":"일반휴게음식 - 주점","category":"restaurant"}]},{"lat":"37.83433873","long":"126.9768229","imageIndex":4,"items":[{"name":"조가네약선순대국","tel":"031-855-0858","addr":"경기도 양주시 광적면 석우리 449-2번지","indutype":"일반휴게음식 - 일반한식","category":"restaurant"}]},{"lat":"37.834861177","long":"126.97637968","imageIndex":4,"items":[{"name":"토마토도시락 양주광적점(석우리주유소)","tel":"031-855-8554","addr":"경기도 양주시 광적면 석우리 441-9번지","indutype":"일반휴게음식 - 일반한식","category":"restaurant"}]},{"lat":"37.835394773","long":"126.98798921","imageIndex":4,"items":[{"name":"한우리한식기사뷔페","tel":"031-855-3123","addr":"경기도 양주시 광적면 석우리 131-1번지","indutype":"일반휴게음식 - 일반한식","category":"restaurant"}]},{"lat":"37.841417683","long":"126.96745917","imageIndex":4,"items":[{"name":"홍아네칼국수","tel":"031-855-0744","addr":"경기도 양주시 광적면 석우리 575-2번지","indutype":"일반휴게음식 - 일반한식","category":"restaurant"}]},{"lat":"37.839806659","long":"126.97349235","imageIndex":7,"items":[{"name":"(주)미진식품","tel":"02-1111-1111","addr":"경기도 양주시 광적면 석우리 491번지","indutype":"음료식품 - 기타음료식품","category":"food"}]},{"lat":"37.834609224","long":"126.97779973","imageIndex":7,"items":[{"name":"꿈담교육농장","tel":"031-855-9733","addr":"경기도 양주시 광적면 석우리 451-4번지","indutype":"음료식품 - 농·축·수산품","category":"food"}]},{"lat":"37.826942949","long":"126.98157335","imageIndex":7,"items":[{"name":"로즈비 점핑쉐이킹 광적점","tel":"","addr":"경기도 양주시 광적면 석우리 715-3번지 1층 일부","indutype":"건강식품 - 기타건강식품","category":"food"}]},{"lat":"37.835835323","long":"126.98199111","imageIndex":7,"items":[{"name":"서경유통","tel":"031-829-0188","addr":"경기도 양주시 광적면 석우리 295-4","indutype":"음료식품 - 기타음료식품","category":"food"}]},{"lat":"37.825861722","long":"126.98105118","imageIndex":7,"items":[{"name":"아워마켓","tel":"031-948-7640","addr":"경기도 양주시 광적면 석우리 717-5번지 1층","indutype":"음료식품 - 농·축·수산품","category":"food"}]},{"lat":"37.838448457","long":"126.98441011","imageIndex":7,"items":[{"name":"양주호야팜","tel":"","addr":"경기도 양주시 광적면 석우리 198번지","indutype":"음료식품 - 농·축·수산품","category":"food"}]},{"lat":"37.826222328","long":"126.98232322","imageIndex":7,"items":[{"name":"초당식품","tel":"031-877-1020","addr":"경기도 양주시 광적면 석우리 403-6번지 선경아트빌라","indutype":"음료식품 - 기타음료식품","category":"food"}]},{"lat":"37.839781841","long":"126.98435298","imageIndex":17,"items":[{"name":"(주)스페이스","tel":"031-855-7600","addr":"경기도 양주시 광적면 석우리 212-2번지","indutype":"직물 - 침구·수예점","category":"other"}]},{"lat":"37.82911415","long":"126.98118653","imageIndex":17,"items":[{"name":"365DECO","tel":"031-879-8608","addr":"경기도 양주시 광적면 석우리 398-3번지 삼성그린 201호","indutype":"직물 - 카페트,커튼,천막,지물","category":"other"}]},{"lat":"37.828060163","long":"126.98182292","imageIndex":17,"items":[{"name":"C&T 테크","tel":"","addr":"경기도 양주시 광적면 석우리 709-13번지 32호","indutype":"기타 - 기계공구","category":"other"}]},{"lat":"37.82597895","long":"126.98163042","imageIndex":17,"items":[{"name":"EM engineering","tel":"031-855-3233","addr":"경기도 양주시 광적면 석우리 718-3","indutype":"전기제품 - 기타전기제품","category":"other"}]},{"lat":"37.829807624","long":"126.97985733","imageIndex":17,"items":[{"name":"GS25양주석우점","tel":"080-555-2525","addr":"경기도 양주시 광적면 석우리 382-2번지","indutype":"유통업 영리 - 편 의 점","category":"other"}]},{"lat":"37.834728101","long":"126.98818246","imageIndex":17,"items":[{"name":"GS25양주유명점","tel":"","addr":"경기도 양주시 광적면 석우리 133-4번지","indutype":"유통업 영리 - 편 의 점","category":"other"}]},{"lat":"37.838860432","long":"126.97254982","imageIndex":17,"items":[{"name":"SMC (에스엠씨)","tel":"031-829-7663","addr":"경기도 양주시 광적면 석우리 485-3번지","indutype":"신변잡화 - 기타잡화","category":"other"}]},{"lat":"37.836832904","long":"126.97099433","imageIndex":17,"items":[{"name":"경원콤프레샤","tel":"031-855-9986","addr":"경기도 양주시 광적면 석우리 613-3번지","indutype":"기타 - 기계공구","category":"other"},{"name":"천성전기공구","tel":"031-837-0945","addr":"경기도 양주시 광적면 석우리 613-3번지","indutype":"건축자재 - 목재·석재·철물","category":"other"}]},{"lat":"37.827060366","long":"126.98326574","imageIndex":17,"items":[{"name":"곰세마리","tel":"070-4007-0548","addr":"경기도 양주시 광적면 석우리 721-2번지 대림홈타운 4동 202호","indutype":"의류 - 정장","category":"other"}]},{"lat":"37.825196074","long":"126.98774138","imageIndex":17,"items":[{"name":"공항스카이투어 주식회사","tel":"031-877-8259","addr":"경기도 양주시 광적면 석우리 69-1번지","indutype":"여행 - 관광여행","category":"other"}]},{"lat":"37.825421428","long":"126.98868407","imageIndex":17,"items":[{"name":"광적정밀","tel":"031-836-9817","addr":"경기도 양주시 광적면 석우리 73-3번지","indutype":"기타 - 기계공구","category":"other"}]},{"lat":"37.827186522","long":"126.98341337","imageIndex":17,"items":[{"name":"꽁양","tel":"031-553-8113","addr":"경기도 양주시 광적면 석우리 721-2번지 대림홈타운 3동 203호","indutype":"의류 - 정장","category":"other"}]},{"lat":"37.835997399","long":"126.98146851","imageIndex":17,"items":[{"name":"나라상사","tel":"031-848-2547","addr":"경기도 양주시 광적면 석우리 296-11번지","indutype":"기타 - 기타 전문점","category":"other"}]},{"lat":"37.83427763","long":"126.98818255","imageIndex":17,"items":[{"name":"나로앤텍","tel":"031-829-7893","addr":"경기도 양주시 광적면 석우리 129-32번지","indutype":"농업 - 농기계","category":"other"}]},{"lat":"37.838139621","long":"126.97232291","imageIndex":17,"items":[{"name":"다에뉴","tel":"031-855-3367","addr":"경기도 양주시 광적면 석우리 611-5번지","indutype":"신변잡화 - 신발","category":"other"}]},{"lat":"37.838282772","long":"126.96868757","imageIndex":17,"items":[{"name":"대동머신","tel":"031-855-8000","addr":"경기도 양주시 광적면 석우리 618-2번지 가동 ,나동","indutype":"기타 - 기타 전문점","category":"other"},{"name":"태웅건업","tel":"070-8813-7370","addr":"경기도 양주시 광적면 석우리 618-2번지 1층","indutype":"건축자재 - 기타건축자재","category":"other"}]},{"lat":"37.837220141","long":"126.97038072","imageIndex":17,"items":[{"name":"대운정밀테크","tel":"031-838-5692","addr":"경기도 양주시 광적면 석우리 615-3번지","indutype":"기타 - 기계공구","category":"other"}]},{"lat":"37.840746591","long":"126.98990808","imageIndex":17,"items":[{"name":"대일전기","tel":"031-877-2886","addr":"경기도 양주시 광적면 석우리 12-7번지","indutype":"전기제품 - 기타전기제품","category":"other"},{"name":"동양건축","tel":"031-862-5785","addr":"경기도 양주시 광적면 석우리 12-7번지","indutype":"용역 서비스 - 기타용역서비스","category":"other"}]},{"lat":"37.825889758","long":"126.98741185","imageIndex":17,"items":[{"name":"대진 산업기계","tel":"070-4131-0596","addr":"경기도 양주시 광적면 석우리 71-1번지","indutype":"기타 - 기계공구","category":"other"}]},{"lat":"37.830645218","long":"126.9784599","imageIndex":17,"items":[{"name":"대한볼트","tel":"031-855-9594","addr":"경기도 양주시 광적면 석우리 376-3번지 광장빌딩","indutype":"기타 - 기계공구","category":"other"}]},{"lat":"37.837275774","long":"126.97670826","imageIndex":17,"items":[{"name":"더디자인","tel":"031-965-3325","addr":"경기도 양주시 광적면 석우리 509번지","indutype":"가구 - 일반가구","category":"other"}]},{"lat":"37.829609458","long":"126.98007321","imageIndex":17,"items":[{"name":"디자림","tel":"031-876-0154","addr":"경기도 양주시 광적면 석우리 382-21번지","indutype":"건축자재 - 인테리어전문","category":"other"}]},{"lat":"37.835968827","long":"126.97420955","imageIndex":17,"items":[{"name":"디지털랜드","tel":"","addr":"경기도 양주시 광적면 석우리 464-4번지 1동","indutype":"전기제품 - 가전제품","category":"other"}]},{"lat":"37.838779441","long":"126.97291338","imageIndex":17,"items":[{"name":"레인악기","tel":"031-871-6662","addr":"경기도 양주시 광적면 석우리 485-8번지 2층","indutype":"레져용품 - 악기점","category":"other"}]},{"lat":"37.839303234","long":"126.978298","imageIndex":17,"items":[{"name":"명도종합정비기기","tel":"031-852-0988","addr":"경기도 양주시 광적면 석우리 525-1","indutype":"기타 - 기계공구","category":"other"}]},{"lat":"37.827276441","long":"126.98237972","imageIndex":17,"items":[{"name":"미니스톱양주가래비점","tel":"031-1577-9621","addr":"경기도 양주시 광적면 석우리 714-3번지 1층","indutype":"유통업 영리 - 편 의 점","category":"other"}]},{"lat":"37.828555494","long":"126.98080049","imageIndex":17,"items":[{"name":"미래인쇄","tel":"0031-829-3327","addr":"경기도 양주시 광적면 석우리 395-1번지 (3호)","indutype":"서적문구 - 출판 및 인쇄물","category":"other"},{"name":"창성기획인쇄.대산공인중개사사무소","tel":"031-878-6660","addr":"경기도 양주시 광적면 석우리 395-1번지","indutype":"서적문구 - 출판 및 인쇄물","category":"other"},{"name":"천가유리","tel":"031-855-5483","addr":"경기도 양주시 광적면 석우리 395-1번지","indutype":"건축자재 - 유리","category":"other"}]},{"lat":"37.834167137","long":"126.97501678","imageIndex":17,"items":[{"name":"바움","tel":"031-532-3880","addr":"경기도 양주시 광적면 석우리 464-60번지 2층","indutype":"건축자재 - 기타건축자재","category":"other"}]},{"lat":"37.837969077","long":"126.97487903","imageIndex":17,"items":[{"name":"삼성테크롤","tel":"02-2679-6605","addr":"경기도 양주시 광적면 석우리 500-1번지","indutype":"직물 - 기타직물","category":"other"}]},{"lat":"37.83250052","long":"126.9755513","imageIndex":17,"items":[{"name":"삼우기업(주)","tel":"031-855-8053","addr":"경기도 양주시 광적면 석우리 437-4","indutype":"신변잡화 - 가방","category":"other"}]},{"lat":"37.824862866","long":"126.98887727","imageIndex":17,"items":[{"name":"삼인타공","tel":"031-855-0176","addr":"경기도 양주시 광적면 석우리 66-3","indutype":"건축자재 - 목재·석재·철물","category":"other"}]},{"lat":"37.828168035","long":"126.98051664","imageIndex":17,"items":[{"name":"상원전기콘트롤주식회사","tel":"031-837-1470","addr":"경기도 양주시 광적면 석우리 711-1번지 4호","indutype":"전기제품 - 기타전기제품","category":"other"}]},{"lat":"37.828393473","long":"126.98160701","imageIndex":17,"items":[{"name":"성일코퍼레이션","tel":"031-855-8226","addr":"경기도 양주시 광적면 석우리 401-6번지 1층","indutype":"용역 서비스 - 종합용역","category":"other"}]},{"lat":"37.826861933","long":"126.98195957","imageIndex":17,"items":[{"name":"세진인쇄사","tel":"031-836-4707","addr":"경기도 양주시 광적면 석우리 715-9번지","indutype":"서적문구 - 출판 및 인쇄물","category":"other"}]},{"lat":"37.826474336","long":"126.98090334","imageIndex":17,"items":[{"name":"세탁풍경","tel":"031-855-0026","addr":"경기도 양주시 광적면 석우리 717-3번지 1층","indutype":"수리서비스 - 세탁소","category":"other"}]},{"lat":"37.831556191","long":"126.98401426","imageIndex":17,"items":[{"name":"수미플랜","tel":"031-713-2096","addr":"경기도 양주시 광적면 석우리 350-14번지","indutype":"건축자재 - 인테리어전문","category":"other"}]},{"lat":"37.833500934","long":"126.9771867","imageIndex":17,"items":[{"name":"신한농자재","tel":"031-876-1002","addr":"경기도 양주시 광적면 석우리 444번지","indutype":"농업 - 기타농업관련","category":"other"}]},{"lat":"37.834085577","long":"126.97307432","imageIndex":17,"items":[{"name":"씨앤피케미칼","tel":"031-855-7242","addr":"경기도 양주시 광적면 석우리 646-6번지","indutype":"건축자재 - 페인트","category":"other"}]},{"lat":"37.837112548","long":"126.97232334","imageIndex":17,"items":[{"name":"씨오엘(COL)","tel":"","addr":"경기도 양주시 광적면 석우리 474-1번지","indutype":"건축자재 - 조명기구","category":"other"}]},{"lat":"37.827276363","long":"126.98193673","imageIndex":17,"items":[{"name":"씨유양주석우리점","tel":"031-829-3018","addr":"경기도 양주시 광적면 석우리 712-4번지","indutype":"유통업 영리 - 편 의 점","category":"other"}]},{"lat":"37.823340139","long":"126.98779855","imageIndex":17,"items":[{"name":"씨유양주석우중앙점","tel":"031-836-0338","addr":"경기도 양주시 광적면 석우리 67-16번지","indutype":"유통업 영리 - 편 의 점","category":"other"}]},{"lat":"37.839337792","long":"126.97201569","imageIndex":17,"items":[{"name":"양주몰드레이져","tel":"031-829-0407","addr":"경기도 양주시 광적면 석우리 606-1번지 1층","indutype":"기타 - 기계공구","category":"other"}]},{"lat":"37.837697516","long":"126.96993746","imageIndex":17,"items":[{"name":"에어테크","tel":"031-845-0240","addr":"경기도 양주시 광적면 석우리 621-7번지","indutype":"기타 - 기계공구","category":"other"}]},{"lat":"37.834942006","long":"126.9752664","imageIndex":17,"items":[{"name":"에이치에스이앤지","tel":"031-829-1017","addr":"경기도 양주시 광적면 석우리 464-24번지","indutype":"건축자재 - 기타건축자재","category":"other"}]},{"lat":"37.832942913","long":"126.97991315","imageIndex":17,"items":[{"name":"에이프럴 트리(April Tree)","tel":"031-826-5563","addr":"경기도 양주시 광적면 석우리 338-6번지","indutype":"가구 - 기타가구","category":"other"},{"name":"케이티지(KTG)","tel":"032-836-0390","addr":"경기도 양주시 광적면 석우리 338-6번지","indutype":"전기제품 - 기타전기제품","category":"other"}]},{"lat":"37.829664721","long":"126.98751329","imageIndex":17,"items":[{"name":"엠앤에이","tel":"070-8810-8774","addr":"경기도 양주시 광적면 석우리 95-2번지","indutype":"유통업 영리 - 기타유통업","category":"other"}]},{"lat":"37.829969842","long":"126.98010718","imageIndex":17,"items":[{"name":"우성산업","tel":"031-855-4915","addr":"경기도 양주시 광적면 석우리 382-1","indutype":"기타 - 기계공구","category":"other"}]},{"lat":"37.841249143","long":"126.97771796","imageIndex":17,"items":[{"name":"월드네오","tel":"031-879-2530","addr":"경기도 양주시 광적면 석우리 525-12번지","indutype":"전기제품 - 기타전기제품","category":"other"}]},{"lat":"37.827249522","long":"126.9830158","imageIndex":17,"items":[{"name":"이지스마트팜","tel":"","addr":"경기도 양주시 광적면 석우리 721-1번지 대림홈타운 6동 302호","indutype":"용역 서비스 - 소프트웨어","category":"other"}]},{"lat":"37.83947456","long":"126.97901365","imageIndex":17,"items":[{"name":"정화산업","tel":"031-879-7292","addr":"경기도 양주시 광적면 석우리 266-6번지","indutype":"주방용구 - 주방용구","category":"other"}]},{"lat":"37.837804845","long":"126.96724505","imageIndex":17,"items":[{"name":"제이 디 블루","tel":"031-111-1111","addr":"경기도 양주시 광적면 석우리 620-22번지","indutype":"문화.취미 - 화원","category":"other"}]},{"lat":"37.842309354","long":"126.96660668","imageIndex":17,"items":[{"name":"중고재활용센터 땡큐","tel":"","addr":"경기도 양주시 광적면 석우리 702-4번지","indutype":"가구 - 일반가구","category":"other"}]},{"lat":"37.824304285","long":"126.98891145","imageIndex":17,"items":[{"name":"카스전자저울경기북부점","tel":"031-963-9455","addr":"경기도 양주시 광적면 석우리 66-9","indutype":"주방용구 - 주방용구","category":"other"}]},{"lat":"37.827474342","long":"126.98068723","imageIndex":17,"items":[{"name":"케이엠(KM)바이오서비스","tel":"","addr":"경기도 양주시 광적면 석우리 711-3번지 인창더파크뷰 102동 602호","indutype":"수리서비스 - 기타수리서비스","category":"other"}]},{"lat":"37.838473658","long":"126.97510604","imageIndex":17,"items":[{"name":"한국ENG","tel":"031-836-4252","addr":"경기도 양주시 광적면 석우리 515-1번지","indutype":"건축자재 - 기타건축자재","category":"other"}]},{"lat":"37.838727442","long":"126.98254695","imageIndex":17,"items":[{"name":"한꽃담","tel":"","addr":"경기도 양주시 광적면 석우리 233-2번지","indutype":"용역 서비스 - 사무서비스","category":"other"}]},{"lat":"37.842444478","long":"126.96654981","imageIndex":17,"items":[{"name":"현기획&타이어프린터","tel":"031-829-8193","addr":"경기도 양주시 광적면 석우리 702-1번지","indutype":"용역 서비스 - 기타용역서비스","category":"other"}]},{"lat":"37.837499175","long":"126.96946042","imageIndex":17,"items":[{"name":"형제산소","tel":"031-836-3848","addr":"경기도 양주시 광적면 석우리 624-13번지","indutype":"기타 - 기타 전문점","category":"other"}]},{"lat":"37.835031725","long":"126.97371008","imageIndex":0,"items":[{"name":"(주)제일테크","tel":"02-747-5645","addr":"경기도 양주시 광적면 석우리 464-21번지","indutype":"자동차정비 유지 - 주차장","category":"car"}]},{"lat":"37.832834139","long":"126.97674391","imageIndex":0,"items":[{"name":"1급강남자동차공업사","tel":"031-829-5589","addr":"경기도 양주시 광적면 석우리 443-7번지","indutype":"자동차정비 유지 - 자동차정비","category":"car"},{"name":"1급강남자동차공업사","tel":"031-836-5588","addr":"경기도 양주시 광적면 석우리 443-7번지","indutype":"자동차정비 유지 - 자동차정비","category":"car"}]},{"lat":"37.834861177","long":"126.97637968","imageIndex":0,"items":[{"name":"JW모터스","tel":"031-826-5541","addr":"경기도 양주시 광적면 석우리 441-9번지","indutype":"자동차정비 유지 - 자동차정비","category":"car"}]},{"lat":"37.842138294","long":"126.96699303","imageIndex":0,"items":[{"name":"광적공업사","tel":"031-847-5363","addr":"경기도 양주시 광적면 석우리 573번지","indutype":"자동차정비 유지 - 자동차정비","category":"car"}]},{"lat":"37.826780922","long":"126.98237985","imageIndex":0,"items":[{"name":"광적서부점현대자동차","tel":"031-855-0408","addr":"경기도 양주시 광적면 석우리 719-1번지","indutype":"자동차정비 유지 - 자동차정비","category":"car"}]},{"lat":"37.839165423","long":"126.96776698","imageIndex":0,"items":[{"name":"대승모터스","tel":"","addr":"경기도 양주시 광적면 석우리 584-2번지","indutype":"자동차정비 유지 - 자동차정비","category":"car"}]},{"lat":"37.838058429","long":"126.97191398","imageIndex":0,"items":[{"name":"대종산업","tel":"031-855-3373","addr":"경기도 양주시 광적면 석우리 611번지 1층","indutype":"자동차정비 유지 - 자동차부품","category":"car"}]},{"lat":"37.82622323","long":"126.98837724","imageIndex":0,"items":[{"name":"상아카센타","tel":"031-836-1124","addr":"경기도 양주시 광적면 석우리 72-8번지","indutype":"자동차정비 유지 - 자동차부품","category":"car"},{"name":"주식회사 뉴대흥관광여행사","tel":"031-836-1280","addr":"경기도 양주시 광적면 석우리 72-8번지","indutype":"자동차판매 - 중고자동차판매","category":"car"}]},{"lat":"37.826942949","long":"126.98157335","imageIndex":0,"items":[{"name":"용명카오디오","tel":"031-855-5158","addr":"경기도 양주시 광적면 석우리 715-3번지","indutype":"자동차정비 유지 - 자동차부품","category":"car"}]},{"lat":"37.828888602","long":"126.97955093","imageIndex":0,"items":[{"name":"키움윤활유상사","tel":"031-836-5189","addr":"경기도 양주시 광적면 석우리 417-5번지 1동 4호","indutype":"자동차정비 유지 - 윤활유 전문 판매","category":"car"}]},{"lat":"37.828222203","long":"126.98110728","imageIndex":0,"items":[{"name":"포인트세차장","tel":"031-829-0333","addr":"경기도 양주시 광적면 석우리 709-4번지 1층","indutype":"자동차정비 유지 - 세차장","category":"car"}]},{"lat":"37.838392196","long":"126.97354972","imageIndex":0,"items":[{"name":"플러스원","tel":"070-8161-1243","addr":"경기도 양주시 광적면 석우리 496-4번지","indutype":"자동차정비 유지 - 자동차부품","category":"car"}]},{"lat":"37.838580066","long":"126.96863064","imageIndex":0,"items":[{"name":"하루특장","tel":"031-876-3500","addr":"경기도 양주시 광적면 석우리 581-4, 581-6, 581-7","indutype":"자동차정비 유지 - 자동차부품","category":"car"}]},{"lat":"37.830645218","long":"126.9784599","imageIndex":0,"items":[{"name":"현대자동차공업사","tel":"031-837-7722","addr":"경기도 양주시 광적면 석우리 376-3번지 1층","indutype":"자동차정비 유지 - 자동차정비","category":"car"}]},{"lat":"37.828754848","long":"126.98812685","imageIndex":0,"items":[{"name":"황제카공업사","tel":"031-855-9647","addr":"경기도 양주시 광적면 석우리 82-7번지","indutype":"자동차정비 유지 - 자동차정비","category":"car"}]},{"lat":"37.826528449","long":"126.98121","imageIndex":13,"items":[{"name":"7080노래연습장","tel":"031-877-7083","addr":"경기도 양주시 광적면 석우리 716-3번지 2층","indutype":"레저업소 - 노 래 방","category":"leisure"}]},{"lat":"37.827222418","long":"126.98257283","imageIndex":13,"items":[{"name":"가래비 당구장","tel":"031-857-3022","addr":"경기도 양주시 광적면 석우리 714-4번지 동성빌딩","indutype":"레저업소 - 당 구 장","category":"leisure"},{"name":"돼지노래연습장","tel":"031-829-8892","addr":"경기도 양주시 광적면 석우리 714-4번지 동성빌딩 3층","indutype":"레저업소 - 노 래 방","category":"leisure"}]},{"lat":"37.826168329","long":"126.98265262","imageIndex":13,"items":[{"name":"영 당구장","tel":"070-7435-3993","addr":"경기도 양주시 광적면 석우리 719-7번지","indutype":"레저업소 - 당 구 장","category":"leisure"}]},{"lat":"37.826609885","long":"126.98320907","imageIndex":13,"items":[{"name":"해동검도광적본관","tel":"031-836-5739","addr":"경기도 양주시 광적면 석우리 720-5","indutype":"레저업소 - 기타레져업소","category":"leisure"}]},{"lat":"37.82597895","long":"126.98163042","imageIndex":16,"items":[{"name":"E.Q음악학원","tel":"031-836-2665","addr":"경기도 양주시 광적면 석우리 718-3번지 302호","indutype":"학원 - 예·체능계학원","category":"study"},{"name":"스카이보습학원","tel":"031-836-2666","addr":"경기도 양주시 광적면 석우리 718-3","indutype":"학원 - 보습학원","category":"study"}]},{"lat":"37.826609885","long":"126.98320907","imageIndex":16,"items":[{"name":"광적합기도화랑관","tel":"031-855-3177","addr":"경기도 양주시 광적면 석우리 720-5번지 용제빌딩 201호","indutype":"회원제형태 - 학원","category":"study"},{"name":"진성보습학원","tel":"031-837-2011","addr":"경기도 양주시 광적면 석우리 720-5번지 301호","indutype":"학원 - 보습학원","category":"study"}]},{"lat":"37.827834907","long":"126.9817094","imageIndex":16,"items":[{"name":"인뮤직실용음악학원","tel":"02-326-1071","addr":"경기도 양주시 광적면 석우리 709-6번지 2층","indutype":"회원제형태 - 학원","category":"study"}]},{"lat":"37.826609885","long":"126.98320907","imageIndex":8,"items":[{"name":"고려한의원","tel":"031-855-7510","addr":"경기도 양주시 광적면 석우리 720-5번지 용제빌딩 101호","indutype":"의원 - 한의원","category":"medical"},{"name":"장내과병원","tel":"031-829-9981","addr":"경기도 양주시 광적면 석우리 720-5번지 202호","indutype":"병원 - 병원","category":"medical"}]},{"lat":"37.826834759","long":"126.98115312","imageIndex":13,"items":[{"name":"다옴헤어","tel":"070-7792-7330","addr":"경기도 양주시 광적면 석우리 716-1번지 1층 102호","indutype":"보건위생 - 미용원","category":"beauty"},{"name":"마임,양주광적지사","tel":"031-855-6256","addr":"경기도 양주시 광적면 석우리 716-1번지 2층","indutype":"보건위생 - 화장품","category":"beauty"}]},{"lat":"37.828636884","long":"126.98249293","imageIndex":7,"items":[{"name":"주공마트","tel":"031-836-5678","addr":"경기도 양주시 광적면 석우리 708-1 상가 104호","indutype":"유통업 영리 - 슈퍼마켓","category":"mart"}]}]