[{"lat":"37.702352829","long":"127.19805678","imageIndex":4,"items":[{"name":"24시 원조해장국","tel":"031-573-2325","addr":"경기도 남양주시 오남읍 양지리 498-5번지 103호","indutype":"일반휴게음식 - 일반한식","category":"restaurant"}]},{"lat":"37.699246269","long":"127.20239146","imageIndex":4,"items":[{"name":"60계 남양주오남점","tel":"031-529-1160","addr":"경기도 남양주시 오남읍 양지리 101-15번지 102호","indutype":"일반휴게음식 - 스넥","category":"restaurant"},{"name":"오즈즉석떡볶이 닭발","tel":"031-571-3375","addr":"경기도 남양주시 오남읍 양지리 101-15번지 1층","indutype":"일반휴게음식 - 일반한식","category":"restaurant"},{"name":"찹찹팬","tel":"031-111-1111","addr":"경기도 남양주시 오남읍 양지리 101-15번지 라임프라자 B동 1층 1호","indutype":"일반휴게음식 - 서양음식","category":"restaurant"},{"name":"커피에반하다(남양주오남점)","tel":"","addr":"경기도 남양주시 오남읍 양지리 101-15번지 라임프라자 1층","indutype":"일반휴게음식 - 서양음식","category":"restaurant"}]},{"lat":"37.705214424","long":"127.19467365","imageIndex":4,"items":[{"name":"69호프","tel":"031-573-6777","addr":"경기도 남양주시 오남읍 양지리 414-8번지 1층 102호","indutype":"일반휴게음식 - 주점","category":"restaurant"},{"name":"황금성","tel":"031-528-2757","addr":"경기도 남양주시 오남읍 양지리 414-8번지 101호","indutype":"일반휴게음식 - 중국식","category":"restaurant"}]},{"lat":"37.704384047","long":"127.19559004","imageIndex":4,"items":[{"name":"7179춘천닭갈비","tel":"031-529-7772","addr":"경기도 남양주시 오남읍 양지리 417-9번지 1층","indutype":"일반휴게음식 - 일반한식","category":"restaurant"},{"name":"작은음악회","tel":"031-574-3080","addr":"경기도 남양주시 오남읍 양지리 417-9번지","indutype":"일반휴게음식 - 주점","category":"restaurant"}]},{"lat":"37.699828266","long":"127.20452477","imageIndex":4,"items":[{"name":"GC바베큐시스템","tel":"031-528-5055","addr":"경기도 남양주시 오남읍 양지리 126번지","indutype":"일반휴게음식 - 일반한식","category":"restaurant"}]},{"lat":"37.705746531","long":"127.19981203","imageIndex":4,"items":[{"name":"e짝태이야기","tel":"070-8955-9233","addr":"경기도 남양주시 오남읍 양지리 195-3번지","indutype":"일반휴게음식 - 일반한식","category":"restaurant"}]},{"lat":"37.706634628","long":"127.1911392","imageIndex":4,"items":[{"name":"가보자순대국오남점","tel":"031-573-1331","addr":"경기도 남양주시 오남읍 양지리 690-6번지 유한프라자 1층","indutype":"일반휴게음식 - 일반한식","category":"restaurant"},{"name":"포트커피","tel":"031-528-2851","addr":"경기도 남양주시 오남읍 양지리 690-6번지 유한프라자 1층","indutype":"일반휴게음식 - 서양음식","category":"restaurant"}]},{"lat":"37.701579018","long":"127.19744243","imageIndex":4,"items":[{"name":"가은이네생고기집","tel":"031-574-0776","addr":"경기도 남양주시 오남읍 양지리 487번지 A동 1호","indutype":"일반휴게음식 - 일반한식","category":"restaurant"},{"name":"꼬기요","tel":"031-575-8121","addr":"경기도 남양주시 오남읍 양지리 487번지 A동 1층 6호","indutype":"일반휴게음식 - 일반한식","category":"restaurant"},{"name":"노가리 골뱅이","tel":"031-527-5128","addr":"경기도 남양주시 오남읍 양지리 487번지 A동 8호, 9호","indutype":"일반휴게음식 - 주점","category":"restaurant"},{"name":"대물숯불구이곰장어","tel":"031-527-0288","addr":"경기도 남양주시 오남읍 양지리 487","indutype":"일반휴게음식 - 일반한식","category":"restaurant"},{"name":"디블랑","tel":"031-575-1021","addr":"경기도 남양주시 오남읍 양지리 487번지 1층 6호","indutype":"일반휴게음식 - 일반한식","category":"restaurant"},{"name":"수산시장","tel":"031-562-5949","addr":"경기도 남양주시 오남읍 양지리 487번지 B동 8,9호","indutype":"일반휴게음식 - 일식·회집","category":"restaurant"},{"name":"오!곱창","tel":"031-527-9955","addr":"경기도 남양주시 오남읍 양지리 487번지 A동 1층 5호","indutype":"일반휴게음식 - 일반한식","category":"restaurant"},{"name":"우대감돈장군","tel":"031-574-1811","addr":"경기도 남양주시 오남읍 양지리 487번지","indutype":"일반휴게음식 - 일반한식","category":"restaurant"},{"name":"행복한밥상날개돋친닭","tel":"031-529-5526","addr":"경기도 남양주시 오남읍 양지리 487번지 1층 4호","indutype":"일반휴게음식 - 일반한식","category":"restaurant"},{"name":"호우양꼬치","tel":"031-527-2369","addr":"경기도 남양주시 오남읍 양지리 487번지 B동 4호","indutype":"일반휴게음식 - 중국식","category":"restaurant"}]},{"lat":"37.697133433","long":"127.2050844","imageIndex":4,"items":[{"name":"가장 맛있는 족발","tel":"031-527-4875","addr":"경기도 남양주시 오남읍 양지리 94-1번지 선일프라자 109호 110호","indutype":"일반휴게음식 - 일반한식","category":"restaurant"},{"name":"국수나무오남점","tel":"031-528-8282","addr":"경기도 남양주시 오남읍 양지리 94-1번지 선일프라자 105호","indutype":"일반휴게음식 - 스넥","category":"restaurant"},{"name":"노가리앤비어","tel":"031-573-1221","addr":"경기도 남양주시 오남읍 양지리 94-1번지 선일프라자 106호","indutype":"일반휴게음식 - 서양음식","category":"restaurant"},{"name":"놀부부대찌개철판구이","tel":"031-527-8891","addr":"경기도 남양주시 오남읍 양지리 94-1번지 선일프라자","indutype":"일반휴게음식 - 일반한식","category":"restaurant"},{"name":"바이킹 피자","tel":"070-7684-6769","addr":"경기도 남양주시 오남읍 양지리 94-1번지 선일프라자 1층 116호","indutype":"일반휴게음식 - 서양음식","category":"restaurant"},{"name":"바이킹피자","tel":"031-571-7010","addr":"경기도 남양주시 오남읍 양지리 94-1번지 선일프라자 116호","indutype":"일반휴게음식 - 중국식","category":"restaurant"},{"name":"불닭발동대문엽기떡볶이","tel":"031-529-8591","addr":"경기도 남양주시 오남읍 양지리 94-1번지 선일프라자 107호","indutype":"일반휴게음식 - 일반한식","category":"restaurant"},{"name":"아리","tel":"031-571-6010","addr":"경기도 남양주시 오남읍 양지리 94-1번지 선일프라자 116호","indutype":"일반휴게음식 - 중국식","category":"restaurant"},{"name":"우리김밥천국","tel":"031-573-6636","addr":"경기도 남양주시 오남읍 양지리 94-1번지 선일프라자 115호","indutype":"일반휴게음식 - 스넥","category":"restaurant"},{"name":"이디야 커피","tel":"031-575-2020","addr":"경기도 남양주시 오남읍 양지리 94-1번지 선일프라자 1층 111호","indutype":"일반휴게음식 - 서양음식","category":"restaurant"}]},{"lat":"37.70113309","long":"127.19466314","imageIndex":4,"items":[{"name":"광릉불고기","tel":"031-575-3474","addr":"경기도 남양주시 오남읍 양지리 469-7번지 1층","indutype":"일반휴게음식 - 일반한식","category":"restaurant"}]},{"lat":"37.697495774","long":"127.20394018","imageIndex":4,"items":[{"name":"굿모닝먹거리","tel":"031-528-7978","addr":"경기도 남양주시 오남읍 양지리 95-23번지","indutype":"일반휴게음식 - 일반한식","category":"restaurant"},{"name":"온더밥","tel":"031-529-2522","addr":"경기도 남양주시 오남읍 양지리 95-23번지 2층","indutype":"일반휴게음식 - 일반한식","category":"restaurant"}]},{"lat":"37.709299089","long":"127.19814304","imageIndex":4,"items":[{"name":"길포차","tel":"031-575-0924","addr":"경기도 남양주시 오남읍 양지리 354-9번지 102호","indutype":"일반휴게음식 - 일반한식","category":"restaurant"},{"name":"어죽대부","tel":"031-527-0173","addr":"경기도 남양주시 오남읍 양지리 354-9번지 1층 3호","indutype":"일반휴게음식 - 일반한식","category":"restaurant"}]},{"lat":"37.698131377","long":"127.20102782","imageIndex":4,"items":[{"name":"김가네김밥","tel":"031-527-5517","addr":"경기도 남양주시 오남읍 양지리 106-3번지 106호","indutype":"일반휴게음식 - 스넥","category":"restaurant"},{"name":"동의명가칼국수","tel":"02-1833-9406","addr":"경기도 남양주시 오남읍 양지리 106-3번지 108호 일부","indutype":"일반휴게음식 - 일식·회집","category":"restaurant"},{"name":"사능우리소머리국밥1호점","tel":"031-529-7488","addr":"경기도 남양주시 오남읍 양지리 106-3번지 108호","indutype":"일반휴게음식 - 일반한식","category":"restaurant"},{"name":"우리호프치킨","tel":"031-571-5288","addr":"경기도 남양주시 오남읍 양지리 106-3번지 107-1호","indutype":"일반휴게음식 - 주점","category":"restaurant"},{"name":"키키스","tel":"070-7447-3372","addr":"경기도 남양주시 오남읍 양지리 106-3번지 107-2호","indutype":"일반휴게음식 - 서양음식","category":"restaurant"}]},{"lat":"37.698046901","long":"127.20303456","imageIndex":4,"items":[{"name":"김밥천국 양지점","tel":"031-575-2155","addr":"경기도 남양주시 오남읍 양지리 96번지 양지빌딩 105호","indutype":"일반휴게음식 - 스넥","category":"restaurant"}]},{"lat":"37.698602115","long":"127.19969108","imageIndex":4,"items":[{"name":"꼬꼬의외출","tel":"031-527-6169","addr":"경기도 남양주시 오남읍 양지리 110번지","indutype":"일반휴게음식 - 주점","category":"restaurant"},{"name":"샤브담남양주오남점","tel":"031-573-0056","addr":"경기도 남양주시 오남읍 양지리 110번지 1층 좌측 3호","indutype":"일반휴게음식 - 일반한식","category":"restaurant"},{"name":"소주생각","tel":"","addr":"경기도 남양주시 오남읍 양지리 110번지 1층 일부호","indutype":"일반휴게음식 - 주점","category":"restaurant"},{"name":"옹기종기 손칼국수","tel":"031-575-5677","addr":"경기도 남양주시 오남읍 양지리 110","indutype":"일반휴게음식 - 일반한식","category":"restaurant"},{"name":"육공판 정육식당","tel":"031-574-9233","addr":"경기도 남양주시 오남읍 양지리 110번지","indutype":"일반휴게음식 - 일반한식","category":"restaurant"}]},{"lat":"37.698911664","long":"127.19221955","imageIndex":4,"items":[{"name":"꽃돼지","tel":"031-572-8943","addr":"경기도 남양주시 오남읍 양지리 614-9번지 2,3,4호","indutype":"일반휴게음식 - 일반한식","category":"restaurant"},{"name":"호세야바베큐","tel":"031-574-5293","addr":"경기도 남양주시 오남읍 양지리 614-9번지 101호","indutype":"일반휴게음식 - 주점","category":"restaurant"}]},{"lat":"37.69885782","long":"127.20300272","imageIndex":4,"items":[{"name":"날개브라더스","tel":"031-572-2535","addr":"경기도 남양주시 오남읍 양지리 102-1번지 1층 102호","indutype":"일반휴게음식 - 스넥","category":"restaurant"},{"name":"봉구스밥버거 남양주 양지점","tel":"031-575-0319","addr":"경기도 남양주시 오남읍 양지리 102-1번지 105호","indutype":"일반휴게음식 - 일반한식","category":"restaurant"},{"name":"이모네곱창","tel":"031-527-5891","addr":"경기도 남양주시 오남읍 양지리 102-1번지 106호","indutype":"일반휴게음식 - 일반한식","category":"restaurant"},{"name":"쥬씨 (오남점)","tel":"031-513-5829","addr":"경기도 남양주시 오남읍 양지리 102-1번지 104호","indutype":"일반휴게음식 - 서양음식","category":"restaurant"},{"name":"함바식당","tel":"031-528-6263","addr":"경기도 남양주시 오남읍 양지리 102-1번지 107호","indutype":"일반휴게음식 - 일반한식","category":"restaurant"}]},{"lat":"37.705691602","long":"127.20033352","imageIndex":4,"items":[{"name":"네오카페","tel":"031-000-0000","addr":"경기도 남양주시 오남읍 양지리 195번지 103호","indutype":"일반휴게음식 - 서양음식","category":"restaurant"}]},{"lat":"37.697604391","long":"127.20364566","imageIndex":4,"items":[{"name":"누나홀닭(오남점)","tel":"031-574-5876","addr":"경기도 남양주시 오남읍 양지리 95-5번지","indutype":"일반휴게음식 - 스넥","category":"restaurant"}]},{"lat":"37.699020646","long":"127.20261764","imageIndex":4,"items":[{"name":"니뽕 내뽕 오남점","tel":"031-574-7744","addr":"경기도 남양주시 오남읍 양지리 101-16번지 1층 6호, 7호","indutype":"일반휴게음식 - 중국식","category":"restaurant"},{"name":"맘스터치 오남양지점","tel":"031-574-7503","addr":"경기도 남양주시 오남읍 양지리 101-16번지 1층 1호","indutype":"일반휴게음식 - 서양음식","category":"restaurant"},{"name":"스시신","tel":"031-575-2929","addr":"경기도 남양주시 오남읍 양지리 101-16번지 새솔프라자 1층 105호","indutype":"일반휴게음식 - 일반한식","category":"restaurant"},{"name":"족발야시장오남점","tel":"02-111-1111","addr":"경기도 남양주시 오남읍 양지리 101-16번지 새솔프라자 1층 102호1/2,103호","indutype":"일반휴게음식 - 일반한식","category":"restaurant"}]},{"lat":"37.699989359","long":"127.18872985","imageIndex":4,"items":[{"name":"대대울식당","tel":"031-529-8124","addr":"경기도 남양주시 오남읍 양지리 648-6번지","indutype":"일반휴게음식 - 일반한식","category":"restaurant"}]},{"lat":"37.705299013","long":"127.19803048","imageIndex":4,"items":[{"name":"대마족발 오남점","tel":"031-575-5509","addr":"경기도 남양주시 오남읍 양지리 402번지","indutype":"일반휴게음식 - 일반한식","category":"restaurant"}]},{"lat":"37.697413391","long":"127.20469965","imageIndex":4,"items":[{"name":"대박왕꼼장어","tel":"","addr":"경기도 남양주시 오남읍 양지리 93-2번지 우일빌딩","indutype":"일반휴게음식 - 일반한식","category":"restaurant"},{"name":"미소분식","tel":"031-526-0232","addr":"경기도 남양주시 오남읍 양지리 93-2번지","indutype":"일반휴게음식 - 스넥","category":"restaurant"}]},{"lat":"37.699245673","long":"127.19181219","imageIndex":4,"items":[{"name":"더래빗","tel":"070-4065-5457","addr":"경기도 남양주시 오남읍 양지리 660-5번지 1층 105호, 106호","indutype":"일반휴게음식 - 서양음식","category":"restaurant"},{"name":"또래오래오남지구점","tel":"031-558-7057","addr":"경기도 남양주시 오남읍 양지리 660-5번지 101호","indutype":"일반휴게음식 - 스넥","category":"restaurant"},{"name":"마미","tel":"031-572-9669","addr":"경기도 남양주시 오남읍 양지리 660-5번지 1층 일부호","indutype":"일반휴게음식 - 서양음식","category":"restaurant"}]},{"lat":"37.704241483","long":"127.19461445","imageIndex":4,"items":[{"name":"동태랑황태가맛있는집","tel":"031-527-0788","addr":"경기도 남양주시 오남읍 양지리 441-8번지 외2필지","indutype":"일반휴게음식 - 일반한식","category":"restaurant"},{"name":"소문난감자탕 해장국","tel":"031-575-1057","addr":"경기도 남양주시 오남읍 양지리 441-8번지 1층","indutype":"일반휴게음식 - 일반한식","category":"restaurant"}]},{"lat":"37.704965021","long":"127.19841516","imageIndex":4,"items":[{"name":"두꺼비포차","tel":"031-574-7877","addr":"경기도 남양주시 오남읍 양지리 426-7번지","indutype":"일반휴게음식 - 일반한식","category":"restaurant"},{"name":"삼해회수산","tel":"031-574-4006","addr":"경기도 남양주시 오남읍 양지리 426-7","indutype":"일반휴게음식 - 일반한식","category":"restaurant"},{"name":"새능골","tel":"031-575-4233","addr":"경기도 남양주시 오남읍 양지리 426-7번지 101호","indutype":"일반휴게음식 - 일반한식","category":"restaurant"}]},{"lat":"37.709936896","long":"127.20460886","imageIndex":4,"items":[{"name":"라온한식부페","tel":"031-576-5545","addr":"경기도 남양주시 오남읍 양지리 15-20번지 1동 1층","indutype":"일반휴게음식 - 일반한식","category":"restaurant"}]},{"lat":"37.698886848","long":"127.19083614","imageIndex":4,"items":[{"name":"로커스치킨","tel":"031-529-7251","addr":"경기도 남양주시 오남읍 양지리 622-1번지 101,102호","indutype":"일반휴게음식 - 일반한식","category":"restaurant"}]},{"lat":"37.698524851","long":"127.20277505","imageIndex":4,"items":[{"name":"롯데리아 오남점","tel":"031-575-7721","addr":"경기도 남양주시 오남읍 양지리 97-5번지 1층","indutype":"일반휴게음식 - 서양음식","category":"restaurant"}]},{"lat":"37.705386067","long":"127.1943906","imageIndex":4,"items":[{"name":"마이마이치킨","tel":"031-575-4949","addr":"경기도 남양주시 오남읍 양지리 408-12번지","indutype":"일반휴게음식 - 스넥","category":"restaurant"}]},{"lat":"37.708912503","long":"127.19764304","imageIndex":4,"items":[{"name":"만이갈비","tel":"031-572-5688","addr":"경기도 남양주시 오남읍 양지리 356-1번지 주건축물제1동 1층 일부호","indutype":"일반휴게음식 - 일반한식","category":"restaurant"}]},{"lat":"37.701912914","long":"127.19711446","imageIndex":4,"items":[{"name":"머구리","tel":"031-574-3839","addr":"경기도 남양주시 오남읍 양지리 490-1번지","indutype":"일반휴게음식 - 일반한식","category":"restaurant"},{"name":"원시쪽갈비오남점","tel":"031-575-7776","addr":"경기도 남양주시 오남읍 양지리 490-1번지","indutype":"일반휴게음식 - 일반한식","category":"restaurant"},{"name":"주전자","tel":"031-527-6241","addr":"경기도 남양주시 오남읍 양지리 490-1번지","indutype":"일반휴게음식 - 일반한식","category":"restaurant"}]},{"lat":"37.698353669","long":"127.20277459","imageIndex":4,"items":[{"name":"메가엠지씨커피 남양주양지점","tel":"","addr":"경기도 남양주시 오남읍 양지리 97-14번지 1층 일부","indutype":"일반휴게음식 - 서양음식","category":"restaurant"},{"name":"해운식당","tel":"031-574-8332","addr":"경기도 남양주시 오남읍 양지리 97-14번지","indutype":"일반휴게음식 - 일반한식","category":"restaurant"},{"name":"화떡남오남점","tel":"031-573-1296","addr":"경기도 남양주시 오남읍 양지리 97-14번지","indutype":"일반휴게음식 - 일반한식","category":"restaurant"}]},{"lat":"37.706380123","long":"127.198056","imageIndex":4,"items":[{"name":"메이에르","tel":"","addr":"경기도 남양주시 오남읍 양지리 380번지 이레캐슬3차 1층 101,102","indutype":"일반휴게음식 - 서양음식","category":"restaurant"}]},{"lat":"37.705577803","long":"127.19833739","imageIndex":4,"items":[{"name":"명가감자탕 맛군","tel":"","addr":"경기도 남양주시 오남읍 양지리 421-1번지 예그리나 2층","indutype":"일반휴게음식 - 일반한식","category":"restaurant"},{"name":"치킨뱅이 오남점","tel":"","addr":"경기도 남양주시 오남읍 양지리 421-1번지","indutype":"일반휴게음식 - 스넥","category":"restaurant"}]},{"lat":"37.69716298","long":"127.20361046","imageIndex":4,"items":[{"name":"명동칼국수","tel":"031-573-5398","addr":"경기도 남양주시 오남읍 양지리 106-8번지","indutype":"일반휴게음식 - 일반한식","category":"restaurant"},{"name":"짱이네분식","tel":"","addr":"경기도 남양주시 오남읍 양지리 106-8번지 나동일부","indutype":"일반휴게음식 - 스넥","category":"restaurant"}]},{"lat":"37.70410827","long":"127.19342343","imageIndex":4,"items":[{"name":"명성","tel":"031-527-3995","addr":"경기도 남양주시 오남읍 양지리 708-2번지","indutype":"일반휴게음식 - 일반한식","category":"restaurant"},{"name":"오남찐빵만두","tel":"031-527-0741","addr":"경기도 남양주시 오남읍 양지리 708-2번지","indutype":"일반휴게음식 - 일반한식","category":"restaurant"},{"name":"종로야채곱창","tel":"031-527-3082","addr":"경기도 남양주시 오남읍 양지리 708-2번지","indutype":"일반휴게음식 - 일반한식","category":"restaurant"},{"name":"할매밥줘","tel":"031-529-3302","addr":"경기도 남양주시 오남읍 양지리 708-2번지 외1필지","indutype":"일반휴게음식 - 일반한식","category":"restaurant"}]},{"lat":"37.704936985","long":"127.19352761","imageIndex":4,"items":[{"name":"명자짬뽕","tel":"031-574-4422","addr":"경기도 남양주시 오남읍 양지리 443번지 101동 102호","indutype":"일반휴게음식 - 중국식","category":"restaurant"},{"name":"쏘맥","tel":"031-528-6263","addr":"경기도 남양주시 오남읍 양지리 443번지 1층 103호","indutype":"일반휴게음식 - 주점","category":"restaurant"},{"name":"양계장집 아들","tel":"031-528-7339","addr":"경기도 남양주시 오남읍 양지리 443번지 1층 104호 양지하나빌딩","indutype":"일반휴게음식 - 스넥","category":"restaurant"},{"name":"종가집보쌈","tel":"031-575-4832","addr":"경기도 남양주시 오남읍 양지리 443번지 1층 106호","indutype":"일반휴게음식 - 일반한식","category":"restaurant"}]},{"lat":"37.707686978","long":"127.19777592","imageIndex":4,"items":[{"name":"미마루퓨전한식","tel":"031-527-8218","addr":"경기도 남양주시 오남읍 양지리 361번지 1층","indutype":"일반휴게음식 - 일반한식","category":"restaurant"}]},{"lat":"37.698797894","long":"127.20114298","imageIndex":4,"items":[{"name":"미스사이공 오남점","tel":"031-529-0420","addr":"경기도 남양주시 오남읍 양지리 100-7번지 다인빌딩 1층 105호","indutype":"일반휴게음식 - 스넥","category":"restaurant"},{"name":"주식회사","tel":"","addr":"경기도 남양주시 오남읍 양지리 100-7번지 1층 일부","indutype":"일반휴게음식 - 서양음식","category":"restaurant"}]},{"lat":"37.705135873","long":"127.19310855","imageIndex":4,"items":[{"name":"민들레영토","tel":"031-574-1063","addr":"경기도 남양주시 오남읍 양지리 696-1번지","indutype":"일반휴게음식 - 일반한식","category":"restaurant"},{"name":"섬돌모루기사식당","tel":"031-575-3816","addr":"경기도 남양주시 오남읍 양지리 696-1번지 나동 1층","indutype":"일반휴게음식 - 일반한식","category":"restaurant"},{"name":"투다리(양지점)","tel":"031-529-5792","addr":"경기도 남양주시 오남읍 양지리 696-1번지 나동 1층","indutype":"일반휴게음식 - 주점","category":"restaurant"}]},{"lat":"37.698608178","long":"127.20144863","imageIndex":4,"items":[{"name":"바글바글떡볶이","tel":"031-576-8936","addr":"경기도 남양주시 오남읍 양지리 100-16번지 1층 7호","indutype":"일반휴게음식 - 일반한식","category":"restaurant"},{"name":"옛날통닭&흥부찜닭&삼겹본능","tel":"031-529-5255","addr":"경기도 남양주시 오남읍 양지리 100-16번지 1층 2호","indutype":"일반휴게음식 - 일반한식","category":"restaurant"},{"name":"와우곱창","tel":"031-573-2070","addr":"경기도 남양주시 오남읍 양지리 100-16번지 1층 1호","indutype":"일반휴게음식 - 일반한식","category":"restaurant"},{"name":"울타리","tel":"031-528-3304","addr":"경기도 남양주시 오남읍 양지리 100-16번지 2층 좌측","indutype":"일반휴게음식 - 일반한식","category":"restaurant"},{"name":"제이더블유푸드(JW푸드)","tel":"031-527-9088","addr":"경기도 남양주시 오남읍 양지리 100-16번지 1층 8호","indutype":"일반휴게음식 - 일반한식","category":"restaurant"},{"name":"커피프렌즈","tel":"031-528-6263","addr":"경기도 남양주시 오남읍 양지리 100-16번지 1층 3호","indutype":"일반휴게음식 - 서양음식","category":"restaurant"}]},{"lat":"37.698885563","long":"127.1916412","imageIndex":4,"items":[{"name":"바글바글오남점","tel":"031-527-1981","addr":"경기도 남양주시 오남읍 양지리 660-3번지 (양지빌딩B동4호)","indutype":"일반휴게음식 - 스넥","category":"restaurant"},{"name":"장수국밥","tel":"031-574-2190","addr":"경기도 남양주시 오남읍 양지리 660-3번지","indutype":"일반휴게음식 - 일반한식","category":"restaurant"}]},{"lat":"37.711297668","long":"127.20441975","imageIndex":4,"items":[{"name":"백운면옥","tel":"031-573-4798","addr":"경기도 남양주시 오남읍 양지리 248-14번지 1층","indutype":"일반휴게음식 - 일반한식","category":"restaurant"}]},{"lat":"37.711911183","long":"127.19855816","imageIndex":4,"items":[{"name":"보물선","tel":"","addr":"경기도 남양주시 오남읍 양지리 281-3번지 1층","indutype":"일반휴게음식 - 일반한식","category":"restaurant"}]},{"lat":"37.708238638","long":"127.19095047","imageIndex":4,"items":[{"name":"보얀트(VOYANT)","tel":"","addr":"경기도 남양주시 오남읍 양지리 742번지","indutype":"일반휴게음식 - 서양음식","category":"restaurant"}]},{"lat":"37.696156584","long":"127.19105601","imageIndex":4,"items":[{"name":"봉바위","tel":"031-000-0000","addr":"경기도 남양주시 오남읍 양지리 592-8번지","indutype":"일반휴게음식 - 일반한식","category":"restaurant"}]},{"lat":"37.705244355","long":"127.19839322","imageIndex":4,"items":[{"name":"불타는 연탄구이","tel":"031-572-0145","addr":"경기도 남양주시 오남읍 양지리 193-7번지 가동 101호","indutype":"일반휴게음식 - 일반한식","category":"restaurant"},{"name":"피자가닭치네","tel":"031-573-8201","addr":"경기도 남양주시 오남읍 양지리 193-7번지 (가동1층)","indutype":"일반휴게음식 - 서양음식","category":"restaurant"}]},{"lat":"37.698577193","long":"127.20378435","imageIndex":4,"items":[{"name":"브리즈스토리","tel":"031-575-9935","addr":"경기도 남양주시 오남읍 양지리 97-13번지 1층","indutype":"일반휴게음식 - 서양음식","category":"restaurant"}]},{"lat":"37.698596711","long":"127.19198063","imageIndex":4,"items":[{"name":"빅스타피자 (오남진접점)","tel":"031-574-1082","addr":"경기도 남양주시 오남읍 양지리 613번지 가동 102호","indutype":"일반휴게음식 - 서양음식","category":"restaurant"},{"name":"양지리전선생","tel":"031-528-6690","addr":"경기도 남양주시 오남읍 양지리 613번지 가동 1층 103호","indutype":"일반휴게음식 - 일반한식","category":"restaurant"}]},{"lat":"37.695714807","long":"127.19124765","imageIndex":4,"items":[{"name":"삭다니식당","tel":"031-574-9797","addr":"경기도 남양주시 오남읍 양지리 598-8","indutype":"일반휴게음식 - 일반한식","category":"restaurant"}]},{"lat":"37.705803229","long":"127.19822458","imageIndex":4,"items":[{"name":"슈퍼맵짱떡볶이","tel":"031-529-1700","addr":"경기도 남양주시 오남읍 양지리 384-5번지","indutype":"일반휴게음식 - 스넥","category":"restaurant"}]},{"lat":"37.701882778","long":"127.19349711","imageIndex":4,"items":[{"name":"심마니산약초백숙","tel":"031-529-7080","addr":"경기도 남양주시 오남읍 양지리 468-4번지 1층","indutype":"일반휴게음식 - 일반한식","category":"restaurant"}]},{"lat":"37.708579879","long":"127.1971999","imageIndex":4,"items":[{"name":"싱싱분식","tel":"031-575-8716","addr":"경기도 남양주시 오남읍 양지리 365번지 5호","indutype":"일반휴게음식 - 일반한식","category":"restaurant"}]},{"lat":"37.70174352","long":"127.19602544","imageIndex":4,"items":[{"name":"아마꾸루 양지점","tel":"031-573-2777","addr":"경기도 남양주시 오남읍 양지리 474-1번지 1층 101호, 102호","indutype":"일반휴게음식 - 서양음식","category":"restaurant"},{"name":"오란다파우키친","tel":"070-8692-6098","addr":"경기도 남양주시 오남읍 양지리 474-1번지 103호","indutype":"일반휴게음식 - 서양음식","category":"restaurant"},{"name":"청학족발","tel":"031-529-1789","addr":"경기도 남양주시 오남읍 양지리 474-1번지","indutype":"일반휴게음식 - 일반한식","category":"restaurant"}]},{"lat":"37.703882627","long":"127.19367233","imageIndex":4,"items":[{"name":"양지식당","tel":"031-575-8363","addr":"경기도 남양주시 오남읍 양지리 706-4","indutype":"일반휴게음식 - 일반한식","category":"restaurant"},{"name":"풍양식당","tel":"031-575-3081","addr":"경기도 남양주시 오남읍 양지리 706-4번지","indutype":"일반휴게음식 - 일반한식","category":"restaurant"}]},{"lat":"37.71146852","long":"127.20461301","imageIndex":4,"items":[{"name":"언덕위에 커피나무","tel":"","addr":"경기도 남양주시 오남읍 양지리 248-1번지","indutype":"일반휴게음식 - 서양음식","category":"restaurant"}]},{"lat":"37.69713452","long":"127.20444944","imageIndex":4,"items":[{"name":"영 라이브 카페","tel":"031-527-1878","addr":"경기도 남양주시 오남읍 양지리 95-9번지","indutype":"일반휴게음식 - 일반한식","category":"restaurant"}]},{"lat":"37.699019434","long":"127.20333199","imageIndex":4,"items":[{"name":"오성찜요리전문점","tel":"031-527-3355","addr":"경기도 남양주시 오남읍 양지리 102-2번지 1층 2,3호","indutype":"일반휴게음식 - 일반한식","category":"restaurant"},{"name":"크리스마스스페셜티커피/몬스터주식회사","tel":"","addr":"경기도 남양주시 오남읍 양지리 102-2번지","indutype":"일반휴게음식 - 서양음식","category":"restaurant"}]},{"lat":"37.709302072","long":"127.20174933","imageIndex":4,"items":[{"name":"이모밥줘","tel":"031-528-9212","addr":"경기도 남양주시 오남읍 양지리 238-2번지 1층 좌측 1호","indutype":"일반휴게음식 - 일반한식","category":"restaurant"}]},{"lat":"37.698713763","long":"127.19202628","imageIndex":4,"items":[{"name":"족발보쌈 맛있는 집","tel":"031-575-8292","addr":"경기도 남양주시 오남읍 양지리 614-10번지 104호","indutype":"일반휴게음식 - 일반한식","category":"restaurant"},{"name":"진우네옛날통닭양지점","tel":"031-572-5534","addr":"경기도 남양주시 오남읍 양지리 614-10번지 103호","indutype":"일반휴게음식 - 스넥","category":"restaurant"},{"name":"카페레드","tel":"070-4112-8789","addr":"경기도 남양주시 오남읍 양지리 614-10번지","indutype":"일반휴게음식 - 서양음식","category":"restaurant"}]},{"lat":"37.700690666","long":"127.20069445","imageIndex":4,"items":[{"name":"진로스장어시대","tel":"031-556-9933","addr":"경기도 남양주시 오남읍 양지리 119-6번지","indutype":"일반휴게음식 - 일반한식","category":"restaurant"}]},{"lat":"37.709907904","long":"127.20044678","imageIndex":4,"items":[{"name":"진접한우식당","tel":"031-529-5558","addr":"경기도 남양주시 오남읍 양지리 244-7번지 244-13","indutype":"일반휴게음식 - 일반한식","category":"restaurant"}]},{"lat":"37.704684259","long":"127.19381046","imageIndex":4,"items":[{"name":"짱이네맛집","tel":"031-528-6777","addr":"경기도 남양주시 오남읍 양지리 444-2번지","indutype":"일반휴게음식 - 일반한식","category":"restaurant"},{"name":"최강푸드(왕실.돼발이)","tel":"031-573-4793","addr":"경기도 남양주시 오남읍 양지리 444-2번지 101호,102호","indutype":"일반휴게음식 - 일반한식","category":"restaurant"}]},{"lat":"37.70840866","long":"127.19722213","imageIndex":4,"items":[{"name":"참치공작소","tel":"031-572-0006","addr":"경기도 남양주시 오남읍 양지리 365-1번지 다동 1층","indutype":"일반휴게음식 - 일식·회집","category":"restaurant"}]},{"lat":"37.70110295","long":"127.20197689","imageIndex":4,"items":[{"name":"청포해물찜","tel":"031-529-5979","addr":"경기도 남양주시 오남읍 양지리 152-1번지","indutype":"일반휴게음식 - 일반한식","category":"restaurant"}]},{"lat":"37.703326424","long":"127.19771914","imageIndex":4,"items":[{"name":"청풍면옥","tel":"031-529-4399","addr":"경기도 남양주시 오남읍 양지리 434-2번지 상가좌측 1-5호","indutype":"일반휴게음식 - 일반한식","category":"restaurant"}]},{"lat":"37.704351949","long":"127.19316324","imageIndex":4,"items":[{"name":"초연식당","tel":"031-573-5551","addr":"경기도 남양주시 오남읍 양지리 706-1번지","indutype":"일반휴게음식 - 일반한식","category":"restaurant"}]},{"lat":"37.70280287","long":"127.19280776","imageIndex":4,"items":[{"name":"카페,그늘집","tel":"031-573-0164","addr":"경기도 남양주시 오남읍 양지리 667번지 1층","indutype":"일반휴게음식 - 서양음식","category":"restaurant"}]},{"lat":"37.704711563","long":"127.19364044","imageIndex":4,"items":[{"name":"카페나즈","tel":"","addr":"경기도 남양주시 오남읍 양지리 444-12번지","indutype":"일반휴게음식 - 서양음식","category":"restaurant"}]},{"lat":"37.697656998","long":"127.20449621","imageIndex":4,"items":[{"name":"카페이서","tel":"","addr":"경기도 남양주시 오남읍 양지리 93번지","indutype":"일반휴게음식 - 서양음식","category":"restaurant"}]},{"lat":"37.705323809","long":"127.19389148","imageIndex":4,"items":[{"name":"케이비에스육공칠공팔공","tel":"031-573-5073","addr":"경기도 남양주시 오남읍 양지리 411번지 2층","indutype":"일반휴게음식 - 주점","category":"restaurant"},{"name":"코리엔탈 깻잎 두마리치킨","tel":"","addr":"경기도 남양주시 오남읍 양지리 411번지 외2필지","indutype":"일반휴게음식 - 스넥","category":"restaurant"},{"name":"행순네닭한마리","tel":"031-555-7050","addr":"경기도 남양주시 오남읍 양지리 411","indutype":"일반휴게음식 - 일반한식","category":"restaurant"}]},{"lat":"37.707852507","long":"127.2011671","imageIndex":4,"items":[{"name":"큰별생선구이전문점","tel":"031-573-6106","addr":"경기도 남양주시 오남읍 양지리 220번지","indutype":"일반휴게음식 - 일반한식","category":"restaurant"}]},{"lat":"37.69788023","long":"127.20035816","imageIndex":4,"items":[{"name":"토큰시연호프","tel":"031-575-0665","addr":"경기도 남양주시 오남읍 양지리 108번지 2층","indutype":"일반휴게음식 - 주점","category":"restaurant"},{"name":"향촌칡냉면","tel":"031-575-8841","addr":"경기도 남양주시 오남읍 양지리 108번지 1층","indutype":"일반휴게음식 - 일반한식","category":"restaurant"}]},{"lat":"37.700135177","long":"127.19333389","imageIndex":4,"items":[{"name":"풍천장어촌","tel":"031-510-9994","addr":"경기도 남양주시 오남읍 양지리 469-11번지 1층","indutype":"일반휴게음식 - 일반한식","category":"restaurant"}]},{"lat":"37.703414221","long":"127.19361443","imageIndex":4,"items":[{"name":"피자또올","tel":"031-528-4848","addr":"경기도 남양주시 오남읍 양지리 707-4","indutype":"일반휴게음식 - 서양음식","category":"restaurant"}]},{"lat":"37.698886921","long":"127.2017782","imageIndex":4,"items":[{"name":"한방전주콩나물국밥","tel":"","addr":"경기도 남양주시 오남읍 양지리 100-15번지 1층 106호,107호","indutype":"일반휴게음식 - 일반한식","category":"restaurant"}]},{"lat":"37.703795783","long":"127.19719875","imageIndex":4,"items":[{"name":"행복한밥상","tel":"031-575-7174","addr":"경기도 남양주시 오남읍 양지리 434-1번지","indutype":"일반휴게음식 - 일반한식","category":"restaurant"}]}]