[{"lat":"37.116977599","long":"126.91135036","imageIndex":13,"items":[{"name":"Breton 당구장","tel":"","addr":"경기도 화성시 향남읍 하길리 1465번지 3층","indutype":"레저업소 - 당 구 장","category":"leisure"},{"name":"점핑하이향남점 점핑홀릭","tel":"031-1111-1111","addr":"경기도 화성시 향남읍 하길리 1465번지 탑스프라자 6층 609호 1","indutype":"레저업소 - 헬스클럽","category":"leisure"},{"name":"타이혼체육관","tel":"031-353-7772","addr":"경기도 화성시 향남읍 하길리 1465번지 탑스프라자 제1동 505호,506호","indutype":"레저업소 - 헬스클럽","category":"leisure"},{"name":"탑스바디","tel":"031-352-0854","addr":"경기도 화성시 향남읍 하길리 1465번지 502,503호","indutype":"레저업소 - 헬스클럽","category":"leisure"},{"name":"헬로방방 (향남점)","tel":"031-8059-7885","addr":"경기도 화성시 향남읍 하길리 1465번지 701,702호","indutype":"레저업소 - 기타레져업소","category":"leisure"}]},{"lat":"37.115528181","long":"126.91301731","imageIndex":13,"items":[{"name":"JS플라잉&요가","tel":"031-000-0000","addr":"경기도 화성시 향남읍 하길리 1467-2번지 505, 506호","indutype":"레저업소 - 헬스클럽","category":"leisure"}]},{"lat":"37.114868381","long":"126.91037404","imageIndex":13,"items":[{"name":"골프존파크센타스크린점","tel":"","addr":"경기도 화성시 향남읍 하길리 1472번지 901동 906호","indutype":"레저업소 - 스크린골프","category":"leisure"},{"name":"향남본주짓수","tel":"031-352-4881","addr":"경기도 화성시 향남읍 하길리 1472번지 센타프라자 7층 701,702호","indutype":"레저업소 - 헬스클럽","category":"leisure"}]},{"lat":"37.115616367","long":"126.9105194","imageIndex":13,"items":[{"name":"굿짐","tel":"031-354-4419","addr":"경기도 화성시 향남읍 하길리 1472-2번지 7층 701호","indutype":"레저업소 - 헬스클럽","category":"leisure"},{"name":"굿짐","tel":"031-354-4419","addr":"경기도 화성시 향남읍 하길리 1472-2번지 연세메디칼프라자 제1동 7층 705호,706호","indutype":"레저업소 - 헬스클럽","category":"leisure"},{"name":"굿짐 (Good Gym)","tel":"031-354-4419","addr":"경기도 화성시 향남읍 하길리 1472-2번지 1동 연세프라자 703호,704호","indutype":"레저업소 - 헬스클럽","category":"leisure"},{"name":"베가스향남점","tel":"","addr":"경기도 화성시 향남읍 하길리 1472-2번지 1동 4층 404호","indutype":"레저업소 - 기타레져업소","category":"leisure"}]},{"lat":"37.114807041","long":"126.91262437","imageIndex":13,"items":[{"name":"그려당구장","tel":"031-353-0882","addr":"경기도 화성시 향남읍 하길리 1470-4번지 6층 602호","indutype":"레저업소 - 당 구 장","category":"leisure"},{"name":"다부짐","tel":"031-354-2649","addr":"경기도 화성시 향남읍 하길리 1470-4번지 406호 ,407호, 408호","indutype":"레저업소 - 헬스클럽","category":"leisure"},{"name":"루시드VR 향남점","tel":"031-353-2511","addr":"경기도 화성시 향남읍 하길리 1470-4번지 케이티시네마 2동 309호","indutype":"레저업소 - 기타레져업소","category":"leisure"},{"name":"뮤직스타코인노래연습장","tel":"031-353-8815","addr":"경기도 화성시 향남읍 하길리 1470-4번지 204호","indutype":"레저업소 - 노 래 방","category":"leisure"},{"name":"바디앤소울2호점","tel":"031-353-7783","addr":"경기도 화성시 향남읍 하길리 1470-4번지 5층 509호","indutype":"레저업소 - 헬스클럽","category":"leisure"},{"name":"세인트복싱","tel":"031-366-1262","addr":"경기도 화성시 향남읍 하길리 1470-4번지 604호,605호","indutype":"레저업소 - 헬스클럽","category":"leisure"}]},{"lat":"37.116393632","long":"126.91360136","imageIndex":13,"items":[{"name":"누 필라테스","tel":"","addr":"경기도 화성시 향남읍 하길리 1467번지 키움프라자 1동 604호","indutype":"레저업소 - 헬스클럽","category":"leisure"},{"name":"몽노래연습장","tel":"031-353-9681","addr":"경기도 화성시 향남읍 하길리 1467번지 3층 304호","indutype":"레저업소 - 노 래 방","category":"leisure"},{"name":"에스짐","tel":"","addr":"경기도 화성시 향남읍 하길리 1467번지 10층 1001-1003호","indutype":"레저업소 - 헬스클럽","category":"leisure"},{"name":"키움골프존","tel":"031-353-8561","addr":"경기도 화성시 향남읍 하길리 1467번지 7층 2,3,4호","indutype":"레저업소 - 스크린골프","category":"leisure"},{"name":"키움볼링센터","tel":"031-8059-8860","addr":"경기도 화성시 향남읍 하길리 1467번지 키움빌딩 9층","indutype":"레저업소 - 볼 링 장","category":"leisure"},{"name":"퍼니팝pc방","tel":"031-123-4567","addr":"경기도 화성시 향남읍 하길리 1467번지 8층 804,805호","indutype":"레저업소 - 기타레져업소","category":"leisure"},{"name":"히트당구클럽","tel":"031-111-1111","addr":"경기도 화성시 향남읍 하길리 1467번지 키움프라자 1동 802호 801,802호","indutype":"레저업소 - 당 구 장","category":"leisure"}]},{"lat":"37.116643871","long":"126.91091195","imageIndex":13,"items":[{"name":"다온","tel":"","addr":"경기도 화성시 향남읍 하길리 1465-1번지 탑스프라자 6층 601,602,603,604호","indutype":"레저업소 - 스크린골프","category":"leisure"}]},{"lat":"37.115283667","long":"126.91140866","imageIndex":13,"items":[{"name":"당구타임","tel":"031-353-6441","addr":"경기도 화성시 향남읍 하길리 1472-5번지 6층 601,602호","indutype":"레저업소 - 당 구 장","category":"leisure"},{"name":"입술노래연습장","tel":"031-503-8018","addr":"경기도 화성시 향남읍 하길리 1472-5번지 205호","indutype":"레저업소 - 노 래 방","category":"leisure"},{"name":"향남 쇼타임PC","tel":"","addr":"경기도 화성시 향남읍 하길리 1472-5번지 1동 504호","indutype":"레저업소 - 기타레져업소","category":"leisure"}]},{"lat":"37.115618073","long":"126.91273592","imageIndex":13,"items":[{"name":"더캠프 PC","tel":"","addr":"경기도 화성시 향남읍 하길리 1467-3번지 603호 602호,603호","indutype":"레저업소 - 기타레져업소","category":"leisure"},{"name":"리안짐","tel":"031-359-9016","addr":"경기도 화성시 향남읍 하길리 1467-3번지 메인탑프라자 202호,203호","indutype":"레저업소 - 헬스클럽","category":"leisure"},{"name":"샤인짐 향남2지구점","tel":"031-8059-4277","addr":"경기도 화성시 향남읍 하길리 1467-3번지 메인탑프라자 203호","indutype":"레저업소 - 헬스클럽","category":"leisure"}]},{"lat":"37.115337557","long":"126.91118356","imageIndex":13,"items":[{"name":"디에스 당구장","tel":"031-000-0000","addr":"경기도 화성시 향남읍 하길리 1472-4번지 4층 401호 ,402,403호","indutype":"레저업소 - 당 구 장","category":"leisure"},{"name":"사이다노래연습장","tel":"031-354-7735","addr":"경기도 화성시 향남읍 하길리 1472-4번지 한울프라자 202,203호","indutype":"레저업소 - 노 래 방","category":"leisure"}]},{"lat":"37.087477443","long":"126.91180199","imageIndex":13,"items":[{"name":"라일당구클럽","tel":"031-353-2848","addr":"경기도 화성시 향남읍 하길리 1410-2번지 2층 203호","indutype":"레저업소 - 당 구 장","category":"leisure"}]},{"lat":"37.115032012","long":"126.91224155","imageIndex":13,"items":[{"name":"리버스이스케이프","tel":"031-357-0505","addr":"경기도 화성시 향남읍 하길리 1470-2번지 6층, 611,612호 (케이티시네마원)","indutype":"레저업소 - 기타레져업소","category":"leisure"},{"name":"월드","tel":"070-9101-0221","addr":"경기도 화성시 향남읍 하길리 1470-2번지 제1동 5층 501,502호","indutype":"레저업소 - 헬스클럽","category":"leisure"}]},{"lat":"37.115779945","long":"126.91231942","imageIndex":13,"items":[{"name":"리얼야구존 향남점","tel":"031-351-1915","addr":"경기도 화성시 향남읍 하길리 1467-4번지 6층 601호, 602호","indutype":"레저업소 - 기타레져업소","category":"leisure"},{"name":"스트라이크존 향남구장","tel":"031-352-8399","addr":"경기도 화성시 향남읍 하길리 1467-4번지 5층 501,502호","indutype":"레저업소 - 기타레져업소","category":"leisure"}]},{"lat":"37.115952058","long":"126.91352312","imageIndex":13,"items":[{"name":"벌툰 화성향남점","tel":"031-366-3354","addr":"경기도 화성시 향남읍 하길리 1467-1번지 4층 401호","indutype":"레저업소 - 기타레져업소","category":"leisure"},{"name":"쎄이 (Saay)빌리아드클럽","tel":"031-353-6950","addr":"경기도 화성시 향남읍 하길리 1467-1번지 로데오프라자 501동 504호","indutype":"레저업소 - 당 구 장","category":"leisure"},{"name":"아이비스PC 화성향남","tel":"","addr":"경기도 화성시 향남읍 하길리 1467-1번지 7층","indutype":"레저업소 - 기타레져업소","category":"leisure"},{"name":"팝스타코인노래연습장","tel":"031-0000-0000","addr":"경기도 화성시 향남읍 하길리 1467-1번지 로데오프라자 1동 202호","indutype":"레저업소 - 노 래 방","category":"leisure"},{"name":"후니트니(HUNI YNNY)","tel":"","addr":"경기도 화성시 향남읍 하길리 1467-1번지 8층","indutype":"레저업소 - 헬스클럽","category":"leisure"}]},{"lat":"37.112645047","long":"126.91332449","imageIndex":13,"items":[{"name":"보니타 필라테스","tel":"031-855-2521","addr":"경기도 화성시 향남읍 하길리 1473번지 서봉마을모아엘가 802동 1604호","indutype":"레저업소 - 헬스클럽","category":"leisure"}]},{"lat":"37.115950679","long":"126.91171164","imageIndex":13,"items":[{"name":"소울PC카페","tel":"070-7738-1701","addr":"경기도 화성시 향남읍 하길리 1465-5번지 601호","indutype":"레저업소 - 기타레져업소","category":"leisure"},{"name":"카니발 노래연습장","tel":"031-366-2984","addr":"경기도 화성시 향남읍 하길리 1465-5번지 3층 303호","indutype":"레저업소 - 노 래 방","category":"leisure"},{"name":"큐노래연습장","tel":"031-352-0212","addr":"경기도 화성시 향남읍 하길리 1465-5번지 402호","indutype":"레저업소 - 노 래 방","category":"leisure"},{"name":"탑(TOP)노래연습장","tel":"031-352-6985","addr":"경기도 화성시 향남읍 하길리 1465-5번지 3층 302호","indutype":"레저업소 - 노 래 방","category":"leisure"}]},{"lat":"37.114697662","long":"126.91099307","imageIndex":13,"items":[{"name":"심심푸리","tel":"031-8059-4993","addr":"경기도 화성시 향남읍 하길리 1471-4번지 7층 710호","indutype":"레저업소 - 기타레져업소","category":"leisure"},{"name":"이로운PC","tel":"","addr":"경기도 화성시 향남읍 하길리 1471-4번지 4층 410,411호","indutype":"레저업소 - 기타레져업소","category":"leisure"}]},{"lat":"37.116175281","long":"126.91085626","imageIndex":13,"items":[{"name":"윈썸필라앤핏(WINSOME PILA&FIT)","tel":"","addr":"경기도 화성시 향남읍 하길리 1465-2번지 8층 805호","indutype":"레저업소 - 헬스클럽","category":"leisure"},{"name":"향남락볼링장","tel":"031-111-1111","addr":"경기도 화성시 향남읍 하길리 1465-2번지 9층","indutype":"레저업소 - 볼 링 장","category":"leisure"},{"name":"현주 Billiards","tel":"031-353-8810","addr":"경기도 화성시 향남읍 하길리 1465-2번지 7층","indutype":"레저업소 - 당 구 장","category":"leisure"}]},{"lat":"37.11456368","long":"126.91252339","imageIndex":13,"items":[{"name":"유후점핑클럽","tel":"031-352-6428","addr":"경기도 화성시 향남읍 하길리 1470-5번지 시티프라자 7층 1,2,3호","indutype":"레저업소 - 기타레져업소","category":"leisure"}]},{"lat":"37.114311317","long":"126.91243368","imageIndex":13,"items":[{"name":"킹콩점프 향남2지구","tel":"031-354-7926","addr":"경기도 화성시 향남읍 하길리 1470-6번지 대성프라자 8층 801호","indutype":"레저업소 - 기타레져업소","category":"leisure"}]},{"lat":"37.11597752","long":"126.91146408","imageIndex":13,"items":[{"name":"폭스노래연습장","tel":"031-1111-1111","addr":"경기도 화성시 향남읍 하길리 1465-4번지 4층 401호","indutype":"레저업소 - 노 래 방","category":"leisure"}]},{"lat":"37.116500536","long":"126.91199227","imageIndex":13,"items":[{"name":"필굿ems","tel":"","addr":"경기도 화성시 향남읍 하길리 1466번지 플러스타워 1동 2층 205호","indutype":"레저업소 - 헬스클럽","category":"leisure"},{"name":"필라테스 쎄라비","tel":"","addr":"경기도 화성시 향남읍 하길리 1466번지 플러스타워 1층 140호","indutype":"레저업소 - 헬스클럽","category":"leisure"}]}]