[{"lat":"37.737897241","long":"126.84489306","imageIndex":4,"items":[{"name":"고래식당","tel":"031-941-4896","addr":"경기도 파주시 조리읍 장곡리 598-17번지","indutype":"일반휴게음식 - 일반한식","category":"restaurant"}]},{"lat":"37.729096368","long":"126.83936477","imageIndex":4,"items":[{"name":"꼬꼬네수제치킨","tel":"031-942-2220","addr":"경기도 파주시 조리읍 장곡리 499-5번지","indutype":"일반휴게음식 - 일반한식","category":"restaurant"}]},{"lat":"37.738090208","long":"126.84772887","imageIndex":4,"items":[{"name":"대성식당","tel":"031-941-0375","addr":"경기도 파주시 조리읍 장곡리 603-23","indutype":"일반휴게음식 - 일반한식","category":"restaurant"}]},{"lat":"37.750260735","long":"126.84003305","imageIndex":4,"items":[{"name":"더(The) 담다","tel":"031-365-4702","addr":"경기도 파주시 조리읍 장곡리 113-2번지","indutype":"일반휴게음식 - 일반한식","category":"restaurant"}]},{"lat":"37.750782486","long":"126.83945322","imageIndex":4,"items":[{"name":"버팀목","tel":"031-945-5344","addr":"경기도 파주시 조리읍 장곡리 127번지","indutype":"일반휴게음식 - 일반한식","category":"restaurant"}]},{"lat":"37.738763867","long":"126.8461732","imageIndex":4,"items":[{"name":"사계절한식부페","tel":"031-943-3945","addr":"경기도 파주시 조리읍 장곡리 598-193번지","indutype":"일반휴게음식 - 일반한식","category":"restaurant"}]},{"lat":"37.738342729","long":"126.84792121","imageIndex":4,"items":[{"name":"성일식당","tel":"070-1111-1111","addr":"경기도 파주시 조리읍 장곡리 603-9번지","indutype":"일반휴게음식 - 일반한식","category":"restaurant"}]},{"lat":"37.760198777","long":"126.83400803","imageIndex":4,"items":[{"name":"숲속지기","tel":"031-584-8548","addr":"경기도 파주시 조리읍 장곡리 321-2번지","indutype":"일반휴게음식 - 일반한식","category":"restaurant"}]},{"lat":"37.755840141","long":"126.835391","imageIndex":4,"items":[{"name":"쌍둥이매운탕","tel":"031-941-8006","addr":"경기도 파주시 조리읍 장곡리 352","indutype":"일반휴게음식 - 일반한식","category":"restaurant"}]},{"lat":"37.750954546","long":"126.84008827","imageIndex":4,"items":[{"name":"어와우가든","tel":"031-000-0000","addr":"경기도 파주시 조리읍 장곡리 128-16번지","indutype":"일반휴게음식 - 일반한식","category":"restaurant"}]},{"lat":"37.730093338","long":"126.83715055","imageIndex":4,"items":[{"name":"엄마미역","tel":"031-111-1111","addr":"경기도 파주시 조리읍 장곡리 754-1번지","indutype":"일반휴게음식 - 일반한식","category":"restaurant"}]},{"lat":"37.75101105","long":"126.8418696","imageIndex":4,"items":[{"name":"이일이(212)","tel":"","addr":"경기도 파주시 조리읍 장곡리 134번지","indutype":"일반휴게음식 - 서양음식","category":"restaurant"}]},{"lat":"37.749707076","long":"126.84364251","imageIndex":4,"items":[{"name":"전주식당","tel":"031-942-3789","addr":"경기도 파주시 조리읍 장곡리 99-5번지","indutype":"일반휴게음식 - 일반한식","category":"restaurant"}]},{"lat":"37.7335416","long":"126.84191878","imageIndex":4,"items":[{"name":"착한한식부페","tel":"031-941-0523","addr":"경기도 파주시 조리읍 장곡리 658-1번지","indutype":"일반휴게음식 - 일반한식","category":"restaurant"}]},{"lat":"37.751207391","long":"126.84050755","imageIndex":4,"items":[{"name":"청마루","tel":"031-941-9791","addr":"경기도 파주시 조리읍 장곡리 128-1번지","indutype":"일반휴게음식 - 일반한식","category":"restaurant"}]},{"lat":"37.752343354","long":"126.84106107","imageIndex":4,"items":[{"name":"텃골명태나라","tel":"031-947-4578","addr":"경기도 파주시 조리읍 장곡리 166-7번지","indutype":"일반휴게음식 - 일반한식","category":"restaurant"}]},{"lat":"37.749784121","long":"126.84736406","imageIndex":4,"items":[{"name":"포레스트제이","tel":"070-7123-2215","addr":"경기도 파주시 조리읍 장곡리 47-1번지","indutype":"일반휴게음식 - 일반한식","category":"restaurant"}]},{"lat":"37.751425224","long":"126.84167581","imageIndex":4,"items":[{"name":"푸른집","tel":"031-945-2787","addr":"경기도 파주시 조리읍 장곡리 136-1번지","indutype":"일반휴게음식 - 일반한식","category":"restaurant"}]},{"lat":"37.753288369","long":"126.84034414","imageIndex":4,"items":[{"name":"한두레매운탕","tel":"031-944-5807","addr":"경기도 파주시 조리읍 장곡리 177번지","indutype":"일반휴게음식 - 일반한식","category":"restaurant"}]},{"lat":"37.730372075","long":"126.8367529","imageIndex":4,"items":[{"name":"한방전주콩나물국밥","tel":"031-953-8305","addr":"경기도 파주시 조리읍 장곡리 754번지","indutype":"일반휴게음식 - 일반한식","category":"restaurant"}]},{"lat":"37.751900892","long":"126.84700787","imageIndex":4,"items":[{"name":"한창구내식당","tel":"031-977-2839","addr":"경기도 파주시 조리읍 장곡리 52-3번지","indutype":"일반휴게음식 - 일반한식","category":"restaurant"}]}]