[{"lat":"37.752450519","long":"126.77978653","imageIndex":0,"items":[{"name":"T모터스","tel":"031-943-4622","addr":"경기도 파주시 금릉동 439-10번지","indutype":"자동차정비 유지 - 세차장","category":"car"}]},{"lat":"37.754392276","long":"126.78228847","imageIndex":0,"items":[{"name":"규원테크","tel":"031-949-4401","addr":"경기도 파주시 금릉동 213-24번지","indutype":"자동차정비 유지 - 자동차부품","category":"car"},{"name":"파주드라이브","tel":"032-949-4401","addr":"경기도 파주시 금릉동 213-24번지","indutype":"자동차정비 유지 - 자동차부품","category":"car"}]},{"lat":"37.754308955","long":"126.78109725","imageIndex":0,"items":[{"name":"메트로프라자상가관리단","tel":"02-0000-0000","addr":"경기도 파주시 금릉동 211-5번지","indutype":"자동차정비 유지 - 주차장","category":"car"},{"name":"자동차밧데리전문할인매장","tel":"031-944-0605","addr":"경기도 파주시 금릉동 211-5번지","indutype":"자동차정비 유지 - 자동차부품","category":"car"}]},{"lat":"37.751060755","long":"126.79325945","imageIndex":0,"items":[{"name":"스피드메이트 서경점","tel":"031-948-4800","addr":"경기도 파주시 금릉동 23-2번지","indutype":"자동차정비 유지 - 자동차정비","category":"car"}]},{"lat":"37.754284736","long":"126.78259517","imageIndex":0,"items":[{"name":"신도시오토바이금촌점JJ모터스","tel":"031-946-1126","addr":"경기도 파주시 금릉동 213-3번지","indutype":"자동차판매 - 이륜차판매","category":"car"}]},{"lat":"37.75478916","long":"126.78253694","imageIndex":0,"items":[{"name":"차사랑카공업사","tel":"031-945-3511","addr":"경기도 파주시 금릉동 216-8번지","indutype":"자동차정비 유지 - 자동차정비","category":"car"}]},{"lat":"37.752122923","long":"126.77807411","imageIndex":0,"items":[{"name":"행복한자동차마을","tel":"031-946-7488","addr":"경기도 파주시 금릉동 434-4번지","indutype":"자동차정비 유지 - 자동차정비","category":"car"}]},{"lat":"37.750567109","long":"126.77956525","imageIndex":0,"items":[{"name":"현대자동차공업사","tel":"031-946-1969","addr":"경기도 파주시 금릉동 446-3번지","indutype":"자동차정비 유지 - 자동차정비","category":"car"}]}]