[{"lat":"37.331810445","long":"126.86407186","imageIndex":16,"items":[{"name":"(재)기독교대한감리회부암교","tel":"031-501-0196","addr":"경기도 안산시 상록구 부곡동 540-2번지","indutype":"학원 - 유치원","category":"study"}]},{"lat":"37.327950061","long":"126.8606828","imageIndex":16,"items":[{"name":"21세기태권도","tel":"031-419-7987","addr":"경기도 안산시 상록구 부곡동 620번지 2층","indutype":"학원 - 예·체능계학원","category":"study"},{"name":"해법수학영어전문학원","tel":"031-417-2242","addr":"경기도 안산시 상록구 부곡동 620번지 3층","indutype":"회원제형태 - 학원","category":"study"}]},{"lat":"37.324920584","long":"126.85898485","imageIndex":16,"items":[{"name":"ABC어린이집[아이행복]","tel":"031-416-0773","addr":"경기도 안산시 상록구 부곡동 690-2번지","indutype":"학원 - 유아원","category":"study"}]},{"lat":"37.33373119","long":"126.85787351","imageIndex":16,"items":[{"name":"강해법수학","tel":"031-461-6641","addr":"경기도 안산시 상록구 부곡동 734-6번지 101호","indutype":"회원제형태 - 학원","category":"study"}]},{"lat":"37.323398741","long":"126.85970981","imageIndex":16,"items":[{"name":"교동태권도","tel":"051-555-0075","addr":"경기도 안산시 상록구 부곡동 605-9번지 하나파크빌 4층","indutype":"학원 - 예·체능계학원","category":"study"}]},{"lat":"37.325174222","long":"126.86010133","imageIndex":16,"items":[{"name":"그루터기","tel":"070-8031-4038","addr":"경기도 안산시 상록구 부곡동 610-11번지 201호","indutype":"학원 - 기타 교육기관","category":"study"}]},{"lat":"37.32931107","long":"126.86107514","imageIndex":16,"items":[{"name":"그림동화미술교습소","tel":"031-417-9792","addr":"경기도 안산시 상록구 부곡동 674-3번지","indutype":"학원 - 예·체능계학원","category":"study"},{"name":"재능음악학원","tel":"","addr":"경기도 안산시 상록구 부곡동 674-3번지","indutype":"학원 - 예·체능계학원","category":"study"}]},{"lat":"37.33611812","long":"126.86476356","imageIndex":16,"items":[{"name":"김선희어학원","tel":"031-408-9704","addr":"경기도 안산시 상록구 부곡동 649-12번지 2층","indutype":"회원제형태 - 학원","category":"study"}]},{"lat":"37.33528398","long":"126.86037559","imageIndex":16,"items":[{"name":"꿈이자라는어린이집[아이행복]","tel":"031-439-8778","addr":"경기도 안산시 상록구 부곡동 723-13번지","indutype":"학원 - 유아원","category":"study"}]},{"lat":"37.334561392","long":"126.85891004","imageIndex":16,"items":[{"name":"노스(Noh''s)태권도","tel":"031-475-9503","addr":"경기도 안산시 상록구 부곡동 728-7번지 3층","indutype":"학원 - 예·체능계학원","category":"study"}]},{"lat":"37.334809366","long":"126.86282511","imageIndex":16,"items":[{"name":"누리예능어린이집[아이행복]","tel":"031-416-0366","addr":"경기도 안산시 상록구 부곡동 660번지","indutype":"학원 - 유아원","category":"study"}]},{"lat":"37.331730462","long":"126.86501983","imageIndex":16,"items":[{"name":"동화사랑어린이집[아이행복]","tel":"031-418-2282","addr":"경기도 안산시 상록구 부곡동 541-7번지","indutype":"학원 - 유아원","category":"study"}]},{"lat":"37.32575942","long":"126.85971662","imageIndex":16,"items":[{"name":"드림태권아카데미","tel":"031-408-8972","addr":"경기도 안산시 상록구 부곡동 612번지 2층","indutype":"학원 - 예·체능계학원","category":"study"}]},{"lat":"37.336534589","long":"126.8588837","imageIndex":16,"items":[{"name":"리틀베이비어린이집[아이행복]","tel":"031-486-0190","addr":"경기도 안산시 상록구 부곡동 720-9번지 102호","indutype":"학원 - 유아원","category":"study"}]},{"lat":"37.329564057","long":"126.86166139","imageIndex":16,"items":[{"name":"명품학원","tel":"031-000-0000","addr":"경기도 안산시 상록구 부곡동 623번지 201호","indutype":"학원 - 보습학원","category":"study"},{"name":"뮤엠영어부곡교습소","tel":"031-111-1111","addr":"경기도 안산시 상록구 부곡동 623번지 3층","indutype":"학원 - 외국어학원","category":"study"}]},{"lat":"37.337000905","long":"126.85707732","imageIndex":16,"items":[{"name":"미예뜰어린이집","tel":"031-439-5566","addr":"경기도 안산시 상록구 부곡동 713-5번지","indutype":"학원 - 유치원","category":"study"},{"name":"미예뜰어린이집[아이행복]","tel":"031-439-5566","addr":"경기도 안산시 상록구 부곡동 713-5번지","indutype":"학원 - 유아원","category":"study"}]},{"lat":"37.331279775","long":"126.8573479","imageIndex":16,"items":[{"name":"부곡고등학교","tel":"031-363-0254","addr":"경기도 안산시 상록구 부곡동 446-3번지","indutype":"학원 - 초중고교육기관","category":"study"},{"name":"부곡고등학교_수업료","tel":"031-363-0254","addr":"경기도 안산시 상록구 부곡동 446-3번지 부곡고등학교","indutype":"학원 - 초중고교육기관","category":"study"}]},{"lat":"37.328752602","long":"126.86121159","imageIndex":16,"items":[{"name":"부곡아이네트학원","tel":"031-416-0006","addr":"경기도 안산시 상록구 부곡동 622-14번지 2층","indutype":"학원 - 보습학원","category":"study"}]},{"lat":"37.331168431","long":"126.86213229","imageIndex":16,"items":[{"name":"부곡유치원[아이행복]","tel":"031-418-5708","addr":"경기도 안산시 상록구 부곡동 670-6번지","indutype":"학원 - 유치원","category":"study"}]},{"lat":"37.328057816","long":"126.86037795","imageIndex":16,"items":[{"name":"부곡윤피아노음악학원","tel":"031-417-6657","addr":"경기도 안산시 상록구 부곡동 682-7번지","indutype":"학원 - 예·체능계학원","category":"study"}]},{"lat":"37.3330631883","long":"126.8643516514","imageIndex":16,"items":[{"name":"부곡태권도,피아노,속셈학원","tel":"031-417-4146","addr":"경기도 안산시 상록구 부곡동 533-4번지","indutype":"교육서비스업 - 피아노,속셈학원,태권","category":"study"}]},{"lat":"37.333063188","long":"126.86435165","imageIndex":16,"items":[{"name":"부곡피아노.속셈학원","tel":"031-417-4146","addr":"경기도 안산시 상록구 부곡동 533-4번지 부곡시장상가 602호","indutype":"학원 - 기타 교육기관","category":"study"}]},{"lat":"37.325173745","long":"126.85970645","imageIndex":16,"items":[{"name":"부곡한수위학원","tel":"031-408-2601","addr":"경기도 안산시 상록구 부곡동 612-9번지 2층","indutype":"학원 - 보습학원","category":"study"}]},{"lat":"37.331945928","long":"126.8643537","imageIndex":16,"items":[{"name":"부암어린이집[아이행복]","tel":"031-501-0196","addr":"경기도 안산시 상록구 부곡동 540-1번지","indutype":"학원 - 유아원","category":"study"}]},{"lat":"37.333948023","long":"126.86592977","imageIndex":16,"items":[{"name":"뿌리유치원","tel":"031-415-5400","addr":"경기도 안산시 상록구 부곡동 639-6번지","indutype":"학원 - 유치원","category":"study"}]},{"lat":"37.332368199","long":"126.86332612","imageIndex":16,"items":[{"name":"삼성고시텔","tel":"031-437-5917","addr":"경기도 안산시 상록구 부곡동 538-5번지 삼성타워","indutype":"학원 - 독서실","category":"study"}]},{"lat":"37.336639803","long":"126.85651381","imageIndex":16,"items":[{"name":"삼성영어교습소","tel":"031-401-9648","addr":"경기도 안산시 상록구 부곡동 717번지 101호","indutype":"학원 - 외국어학원","category":"study"}]},{"lat":"37.327869308","long":"126.86096502","imageIndex":16,"items":[{"name":"새꾸러기어린이집[아이행복]","tel":"031-416-0605","addr":"경기도 안산시 상록구 부곡동 620-2번지","indutype":"학원 - 유아원","category":"study"},{"name":"새꾸러기어린이집[아이행복]","tel":"031-416-0605","addr":"경기도 안산시 상록구 부곡동 620-2번지","indutype":"학원 - 유아원","category":"study"}]},{"lat":"37.331060201","long":"126.86204223","imageIndex":16,"items":[{"name":"새별나라어린이집[아이행복]","tel":"031-418-5708","addr":"경기도 안산시 상록구 부곡동 670-7번지","indutype":"학원 - 유아원","category":"study"}]},{"lat":"37.335145287","long":"126.86499102","imageIndex":16,"items":[{"name":"서울홍익어린이집","tel":"031-484-5917","addr":"경기도 안산시 상록구 부곡동 644번지","indutype":"학원 - 유치원","category":"study"},{"name":"서울홍익어린이집[아이행복]","tel":"031-438-5604","addr":"경기도 안산시 상록구 부곡동 644번지","indutype":"학원 - 유아원","category":"study"}]},{"lat":"37.3345055646","long":"126.8574658016","imageIndex":16,"items":[{"name":"성신음악전문학원","tel":"031-414-7358","addr":"경기도 안산시 상록구 부곡동 733-12번지","indutype":"교육서비스업 - 예체능계 학원","category":"study"}]},{"lat":"37.334505565","long":"126.8574658","imageIndex":16,"items":[{"name":"성신피아노학원","tel":"031-414-7358","addr":"경기도 안산시 상록구 부곡동 733-12번지","indutype":"학원 - 예·체능계학원","category":"study"}]},{"lat":"37.33611636","long":"126.85582649","imageIndex":16,"items":[{"name":"시랑초등학교","tel":"","addr":"경기도 안산시 상록구 부곡동 719-3번지 시랑초등학교","indutype":"학원 - 초중고교육기관","category":"study"},{"name":"시랑초등학교병설유치원[아이행복]","tel":"031-439-2964","addr":"경기도 안산시 상록구 부곡동 719-3번지 시랑초등학교","indutype":"학원 - 유치원","category":"study"}]},{"lat":"37.333948831","long":"126.86662936","imageIndex":16,"items":[{"name":"시립부곡어린이집[아이행복]","tel":"031-416-0012","addr":"경기도 안산시 상록구 부곡동 638-5번지 시립부곡어린이집","indutype":"학원 - 유아원","category":"study"}]},{"lat":"37.324921064","long":"126.85937973","imageIndex":16,"items":[{"name":"신화태권도","tel":"031-416-5123","addr":"경기도 안산시 상록구 부곡동 692-1번지 3층","indutype":"학원 - 예·체능계학원","category":"study"}]},{"lat":"37.333669034","long":"126.86621237","imageIndex":16,"items":[{"name":"아기별사랑어린이집[아이행복]","tel":"031-417-3533","addr":"경기도 안산시 상록구 부곡동 638-14번지 해성빌라 102호","indutype":"학원 - 유아원","category":"study"}]},{"lat":"37.33620322","long":"126.86054311","imageIndex":16,"items":[{"name":"안산공업고등학교","tel":"031-486-4295","addr":"경기도 안산시 상록구 부곡동 722번지 안산공업고등학교","indutype":"학원 - 초중고교육기관","category":"study"}]},{"lat":"37.323586611","long":"126.85860379","imageIndex":16,"items":[{"name":"안산부곡중학교","tel":"031-487-2238","addr":"경기도 안산시 상록구 부곡동 693번지","indutype":"학원 - 초중고교육기관","category":"study"}]},{"lat":"37.328949456","long":"126.86007162","imageIndex":16,"items":[{"name":"안산부곡초등학교","tel":"031-487-7293","addr":"경기도 안산시 상록구 부곡동 680번지 안산부곡초등학교","indutype":"학원 - 초중고교육기관","category":"study"}]},{"lat":"37.336642298","long":"126.85854497","imageIndex":16,"items":[{"name":"엄마사랑어린이집","tel":"031-486-1803","addr":"경기도 안산시 상록구 부곡동 714-10번지","indutype":"학원 - 유아원","category":"study"},{"name":"엄마사랑어린이집[아이행복]","tel":"031-486-1803","addr":"경기도 안산시 상록구 부곡동 714-10번지","indutype":"학원 - 유아원","category":"study"}]},{"lat":"37.328644412","long":"126.86115538","imageIndex":16,"items":[{"name":"에밀리해법영어교습소","tel":"031-501-0519","addr":"경기도 안산시 상록구 부곡동 622-13번지 102호","indutype":"학원 - 보습학원","category":"study"}]},{"lat":"37.33486935","long":"126.86024096","imageIndex":16,"items":[{"name":"열두샘 피아노학원","tel":"031-487-1541","addr":"경기도 안산시 상록구 부곡동 725-11번지 1층","indutype":"학원 - 예·체능계학원","category":"study"}]},{"lat":"37.333728827","long":"126.86340259","imageIndex":16,"items":[{"name":"영미미술학원","tel":"031-406-7829","addr":"경기도 안산시 상록구 부곡동 661-9번지 2층","indutype":"학원 - 예·체능계학원","category":"study"},{"name":"제이엠음악학원","tel":"031-406-7578","addr":"경기도 안산시 상록구 부곡동 661-9번지","indutype":"학원 - 예·체능계학원","category":"study"}]},{"lat":"37.3337288266","long":"126.8634025882","imageIndex":16,"items":[{"name":"영미미술학원","tel":"031-406-7829","addr":"경기도 안산시 상록구 부곡동 661-9번지","indutype":"교육서비스업 - 학원","category":"study"},{"name":"제이엠음악학원","tel":"031-406-7578","addr":"경기도 안산시 상록구 부곡동 661-9번지","indutype":"교육서비스업 - 학원","category":"study"}]},{"lat":"37.325173349","long":"126.85937925","imageIndex":16,"items":[{"name":"영사모","tel":"031-419-4471","addr":"경기도 안산시 상록구 부곡동 686-11번지","indutype":"회원제형태 - 학원","category":"study"}]},{"lat":"37.333117117","long":"126.86423872","imageIndex":16,"items":[{"name":"영재해법학원","tel":"031-413-2096","addr":"경기도 안산시 상록구 부곡동 533-3번지 3층","indutype":"학원 - 보습학원","category":"study"}]},{"lat":"37.331814781","long":"126.86781799","imageIndex":16,"items":[{"name":"우리아이어린이집[아이행복]","tel":"031-416-0601","addr":"경기도 안산시 상록구 부곡동 548-3번지","indutype":"학원 - 유아원","category":"study"}]},{"lat":"37.334923207","long":"126.8600716","imageIndex":16,"items":[{"name":"유쌤 손부림","tel":"","addr":"경기도 안산시 상록구 부곡동 725-12번지 502호","indutype":"학원 - 기타 교육기관","category":"study"}]},{"lat":"37.329753432","long":"126.86179644","imageIndex":16,"items":[{"name":"윤선생보습학원","tel":"031-416-5747","addr":"경기도 안산시 상록구 부곡동 624-7번지 2층","indutype":"학원 - 보습학원","category":"study"}]},{"lat":"37.33617326","long":"126.85812835","imageIndex":16,"items":[{"name":"은별어린이집[아이행복]","tel":"031-402-2408","addr":"경기도 안산시 상록구 부곡동 715-8번지 장수그린빌 101호","indutype":"학원 - 유아원","category":"study"},{"name":"한울어린이집[아이행복]","tel":"031-403-2408","addr":"경기도 안산시 상록구 부곡동 715-8번지 102호","indutype":"학원 - 유아원","category":"study"}]},{"lat":"37.323533893","long":"126.85970956","imageIndex":16,"items":[{"name":"이든샘어린이집[아이행복]","tel":"031-415-9330","addr":"경기도 안산시 상록구 부곡동 605-10번지","indutype":"학원 - 유아원","category":"study"},{"name":"이든샘어린이집[아이행복]","tel":"031-415-9330","addr":"경기도 안산시 상록구 부곡동 605-10번지","indutype":"학원 - 유아원","category":"study"}]},{"lat":"37.334002515","long":"126.858708","imageIndex":16,"items":[{"name":"자연을 닮은 어린이집[아이행복]","tel":"031-482-5655","addr":"경기도 안산시 상록구 부곡동 731-11번지","indutype":"학원 - 유아원","category":"study"}]},{"lat":"37.338091028","long":"126.86448912","imageIndex":16,"items":[{"name":"정재초등학교","tel":"031-487-4152","addr":"경기도 안산시 상록구 부곡동 225-5번지 정재초등학교","indutype":"학원 - 초중고교육기관","category":"study"}]},{"lat":"37.328120752","long":"126.860265","imageIndex":16,"items":[{"name":"친절한꿈나무미술학원","tel":"031-417-9733","addr":"경기도 안산시 상록구 부곡동 682-6번지 101호","indutype":"학원 - 예·체능계학원","category":"study"}]},{"lat":"37.329644676","long":"126.86126633","imageIndex":16,"items":[{"name":"태룡관총본관","tel":"031-416-1204","addr":"경기도 안산시 상록구 부곡동 674-1번지","indutype":"학원 - 예·체능계학원","category":"study"}]},{"lat":"37.336864511","long":"126.85607329","imageIndex":16,"items":[{"name":"파랑새보습학원","tel":"031-480-2128","addr":"경기도 안산시 상록구 부곡동 713-14번지 101호","indutype":"학원 - 보습학원","category":"study"},{"name":"한샘태권도장","tel":"031-410-5077","addr":"경기도 안산시 상록구 부곡동 713-14번지","indutype":"학원 - 예·체능계학원","category":"study"}]},{"lat":"37.3368645111","long":"126.8560732867","imageIndex":16,"items":[{"name":"파랑새학원","tel":"031-480-2128","addr":"경기도 안산시 상록구 부곡동 713-14번지","indutype":"교육서비스업 - 보습학원","category":"study"}]},{"lat":"37.336035958","long":"126.86384969","imageIndex":16,"items":[{"name":"퍼니키즈","tel":"032-466-0428","addr":"경기도 안산시 상록구 부곡동 655-2번지 신진쎈스빌 302호","indutype":"학원 - 기타 교육기관","category":"study"}]},{"lat":"37.333394891","long":"126.86292929","imageIndex":16,"items":[{"name":"플러스영수전문학원","tel":"","addr":"경기도 안산시 상록구 부곡동 662-9번지 201호","indutype":"학원 - 보습학원","category":"study"}]},{"lat":"37.326283816","long":"126.86121622","imageIndex":16,"items":[{"name":"하나린i어린이집[아이행복]","tel":"031-417-2332","addr":"경기도 안산시 상록구 부곡동 614-14번지","indutype":"학원 - 유아원","category":"study"}]},{"lat":"37.326446093","long":"126.8612949","imageIndex":16,"items":[{"name":"하나린어린이집[아이행복]","tel":"031-417-2332","addr":"경기도 안산시 상록구 부곡동 614번지","indutype":"학원 - 유아원","category":"study"}]},{"lat":"37.329870065","long":"126.86137874","imageIndex":16,"items":[{"name":"하늘아이학원","tel":"031-407-3508","addr":"경기도 안산시 상록구 부곡동 673-10번지 3층","indutype":"학원 - 보습학원","category":"study"}]},{"lat":"37.327696511","long":"126.85963396","imageIndex":16,"items":[{"name":"하하호호","tel":"031-8044-4328","addr":"경기도 안산시 상록구 부곡동 683-6번지","indutype":"학원 - 예·체능계학원","category":"study"}]},{"lat":"37.33336862","long":"126.86357251","imageIndex":16,"items":[{"name":"학사태권도전문체육관","tel":"031-417-6626","addr":"경기도 안산시 상록구 부곡동 662-4번지 3층","indutype":"학원 - 예·체능계학원","category":"study"}]},{"lat":"37.333056517","long":"126.85876622","imageIndex":16,"items":[{"name":"한솔플러스 수학교실","tel":"031-475-7110","addr":"경기도 안산시 상록구 부곡동 735-12번지 보강팰리스 401호","indutype":"학원 - 보습학원","category":"study"}]},{"lat":"37.332585293","long":"126.86404787","imageIndex":16,"items":[{"name":"헬로우영어학원","tel":"070-7581-6993","addr":"경기도 안산시 상록구 부곡동 539번지 부곡쇼핑 402호","indutype":"회원제형태 - 학원","category":"study"}]}]