[{"lat":"37.677276795","long":"127.48236725","imageIndex":17,"items":[{"name":"(주)제이에스투어","tel":"031-3394-8500","addr":"경기도 가평군 설악면 선촌리 459번지","indutype":"여행 - 고속버스","category":"other"}]},{"lat":"37.677892981","long":"127.47253187","imageIndex":17,"items":[{"name":"Deepsurfer (딥서퍼)","tel":"","addr":"경기도 가평군 설악면 선촌리 548-1번지 1층","indutype":"레져용품 - 스포츠·레져용품","category":"other"}]},{"lat":"37.677727681","long":"127.48447858","imageIndex":17,"items":[{"name":"대성우드","tel":"031-585-8292","addr":"경기도 가평군 설악면 선촌리 368-4번지","indutype":"건축자재-기타건축자재","category":"other"},{"name":"설악원판넬","tel":"031-584-8937","addr":"경기도 가평군 설악면 선촌리 368번지 설악막국수 춘천닭갈비 서관 가동 4호","indutype":"건축자재 - 기타건축자재","category":"other"},{"name":"신선종합인테리어","tel":"070-4405-4228","addr":"경기도 가평군 설악면 선촌리 368","indutype":"직물 - 카페트,커튼,천막,지물","category":"other"},{"name":"신선종합인테리어","tel":"070-4405-4228","addr":"경기도 가평군 설악면 선촌리 368번지","indutype":"직물 - 카페트,커튼,천막,지물","category":"other"},{"name":"신우종합공구","tel":"031-584-5209","addr":"경기도 가평군 설악면 선촌리 368","indutype":"농업 - 농기계","category":"other"},{"name":"현대종합건축설비","tel":"031-585-3649","addr":"경기도 가평군 설악면 선촌리 368번지","indutype":"건축자재 - 인테리어전문","category":"other"}]},{"lat":"37.677722094","long":"127.4836397","imageIndex":17,"items":[{"name":"대성우드","tel":"031-585-8292","addr":"경기도 가평군 설악면 선촌리 368-4번지","indutype":"건축자재 - 기타건축자재","category":"other"}]},{"lat":"37.676694351","long":"127.4793596","imageIndex":17,"items":[{"name":"동남건축설비","tel":"031-585-3997","addr":"경기도 가평군 설악면 선촌리 424","indutype":"용역 서비스 - 기타용역서비스","category":"other"}]},{"lat":"37.677110496","long":"127.48116461","imageIndex":17,"items":[{"name":"명성석재","tel":"031-585-4889","addr":"경기도 가평군 설악면 선촌리 470-3번지","indutype":"건축자재 - 목재·석재·철물","category":"other"}]},{"lat":"37.675532191","long":"127.47934084","imageIndex":17,"items":[{"name":"물사랑","tel":"031-585-6345","addr":"경기도 가평군 설악면 선촌리 419-3","indutype":"수리서비스 - 레져용품수리","category":"other"}]},{"lat":"37.677193442","long":"127.48733168","imageIndex":17,"items":[{"name":"설악농원 종합조경","tel":"031-584-6858","addr":"경기도 가평군 설악면 선촌리 371-1","indutype":"문화.취미 - 화원","category":"other"}]},{"lat":"37.683790301","long":"127.49987878","imageIndex":17,"items":[{"name":"설악에어컨","tel":"","addr":"경기도 가평군 설악면 선촌리 25-1번지 청아빌라2차 105동 307호","indutype":"용역 서비스 - 기타용역서비스","category":"other"}]},{"lat":"37.686751077","long":"127.48988797","imageIndex":17,"items":[{"name":"씨유설악청아점","tel":"031-584-4221","addr":"경기도 가평군 설악면 선촌리 79-1번지","indutype":"유통업 영리 - 편 의 점","category":"other"}]},{"lat":"37.676529112","long":"127.48011802","imageIndex":17,"items":[{"name":"전원공인중개사","tel":"031-584-8444","addr":"경기도 가평군 설악면 선촌리 440-1번지","indutype":"용역 서비스 - 부동산 중개·임대","category":"other"}]},{"lat":"37.684029518","long":"127.49439347","imageIndex":17,"items":[{"name":"좋은농산","tel":"031-584-1548","addr":"경기도 가평군 설악면 선촌리 143-43번지 청림빌라 A동 201호","indutype":"농업 - 비료,사료,종자","category":"other"}]},{"lat":"37.684724529","long":"127.49624594","imageIndex":17,"items":[{"name":"주식회사 프라임큐브","tel":"031-000-0000","addr":"경기도 가평군 설악면 선촌리 143-4번지 1층","indutype":"용역 서비스 - 사무서비스","category":"other"}]},{"lat":"37.686366612","long":"127.49352461","imageIndex":17,"items":[{"name":"헤몬건업","tel":"031-585-6760","addr":"경기도 가평군 설악면 선촌리 41-7번지","indutype":"건축자재 - 인테리어전문","category":"other"}]}]