[{"lat":"37.303377615","long":"127.44504037","imageIndex":7,"items":[{"name":"강남농원","tel":"070-4138-8177","addr":"경기도 이천시 신둔면 도암리 1027번지","indutype":"음료식품 - 농·축·수산품","category":"food"}]},{"lat":"37.320239482","long":"127.43668912","imageIndex":7,"items":[{"name":"느와드 코코 퓨어(PREMIUM)","tel":"031-633-6855","addr":"경기도 이천시 신둔면 도암리 282-7번지","indutype":"음료식품 - 농·축·수산품","category":"food"}]},{"lat":"37.319242065","long":"127.44084628","imageIndex":7,"items":[{"name":"도암떡","tel":"031-638-1346","addr":"경기도 이천시 신둔면 도암리 343-3번지 1층 5호","indutype":"음료식품 - 제과점","category":"food"}]},{"lat":"37.310545751","long":"127.44368359","imageIndex":7,"items":[{"name":"미방푸드","tel":"02-1111-1111","addr":"경기도 이천시 신둔면 도암리 632번지","indutype":"음료식품 - 제과점","category":"food"}]},{"lat":"37.307041901","long":"127.43851957","imageIndex":7,"items":[{"name":"쌀사랑","tel":"02-745-0153","addr":"경기도 이천시 신둔면 도암리 857-2번지","indutype":"음료식품 - 미곡상","category":"food"}]},{"lat":"37.310519513","long":"127.44104385","imageIndex":7,"items":[{"name":"예지식품","tel":"031-637-3360","addr":"경기도 이천시 신둔면 도암리 621-2번지","indutype":"음료식품 - 기타음료식품","category":"food"}]},{"lat":"37.320291547","long":"127.43477152","imageIndex":7,"items":[{"name":"원일코퍼레이션","tel":"031-631-3275","addr":"경기도 이천시 신둔면 도암리 266번지","indutype":"음료식품 - 기타음료식품","category":"food"}]},{"lat":"37.310431098","long":"127.44301738","imageIndex":7,"items":[{"name":"으뜸푸드","tel":"031-632-4562","addr":"경기도 이천시 신둔면 도암리 628-7번지","indutype":"음료식품 - 기타음료식품","category":"food"}]}]