[{"lat":"37.526143807","long":"126.80443387","imageIndex":13,"items":[{"name":"(주)태평양부천영업소김태옥","tel":"032-657-2214","addr":"경기도 부천시 원종동 229-5번지 대광빌딩 2층","indutype":"보건위생 - 화장품","category":"beauty"},{"name":"(주)태평양오정(특)영업소김애자","tel":"032-671-2175","addr":"경기도 부천시 원종동 229-5번지 웅진빌딩","indutype":"보건위생 - 화장품","category":"beauty"},{"name":"굿모닝보청기 명품의료기","tel":"032-673-5505","addr":"경기도 부천시 원종동 229-5번지 대광빌딩 2층","indutype":"보건위생 - 의료용품","category":"beauty"},{"name":"아모레","tel":"032-671-2175","addr":"경기도 부천시 원종동 229-5번지 대광빌딩 2층","indutype":"보건위생 - 화장품","category":"beauty"},{"name":"아모레","tel":"032-671-2175","addr":"경기도 부천시 원종동 229-5번지 대광빌딩 2층","indutype":"보건위생 - 화장품","category":"beauty"},{"name":"아모레","tel":"032-671-2175","addr":"경기도 부천시 원종동 229-5번지 대광빌딩 2층","indutype":"보건위생 - 화장품","category":"beauty"},{"name":"아모레외판","tel":"032-671-2175","addr":"경기도 부천시 원종동 229-5번지 대광빌딩 2층","indutype":"보건위생 - 화장품","category":"beauty"},{"name":"아모레카운셀러","tel":"032-671-2175","addr":"경기도 부천시 원종동 229-5번지 대광빌딩 2층","indutype":"보건위생 - 화장품","category":"beauty"},{"name":"아모레카운셀러","tel":"032-671-2175","addr":"경기도 부천시 원종동 229-5번지 대광빌딩 2층","indutype":"보건위생 - 화장품","category":"beauty"},{"name":"아모레카운셀러","tel":"032-671-2175","addr":"경기도 부천시 원종동 229-5번지","indutype":"보건위생 - 화장품","category":"beauty"},{"name":"아모레카운셀러","tel":"032-671-2175","addr":"경기도 부천시 원종동 229-5번지 대광빌딩 2층","indutype":"보건위생 - 화장품","category":"beauty"},{"name":"아모레카운셀러","tel":"032-671-2175","addr":"경기도 부천시 원종동 229-5번지 대광빌딩 2층","indutype":"보건위생 - 화장품","category":"beauty"},{"name":"아모레카운셀러","tel":"032-671-2175","addr":"경기도 부천시 원종동 229-5번지 대광빌딩 2층","indutype":"보건위생 - 화장품","category":"beauty"},{"name":"아모레카운셀러","tel":"032-671-2175","addr":"경기도 부천시 원종동 229-5번지","indutype":"보건위생 - 화장품","category":"beauty"},{"name":"아모레카운셀러","tel":"032-671-2175","addr":"경기도 부천시 원종동 229-5번지 대광빌딩 2층","indutype":"보건위생 - 화장품","category":"beauty"},{"name":"아모레카운셀러","tel":"032-671-2175","addr":"경기도 부천시 원종동 229-5번지 대광빌딩 2층","indutype":"보건위생 - 화장품","category":"beauty"},{"name":"아모레카운셀러","tel":"032-671-2175","addr":"경기도 부천시 원종동 229-5번지 대광빌딩 2층","indutype":"보건위생 - 화장품","category":"beauty"},{"name":"아모레카운셀러","tel":"032-671-2175","addr":"경기도 부천시 원종동 229-5번지 대광빌딩 2층","indutype":"보건위생 - 화장품","category":"beauty"},{"name":"아모레카운셀러","tel":"032-671-2175","addr":"경기도 부천시 원종동 229-5번지 대광빌딩 2층","indutype":"보건위생 - 화장품","category":"beauty"},{"name":"아모레카운셀터","tel":"032-671-2175","addr":"경기도 부천시 원종동 229-5번지 대광빌딩 2층","indutype":"보건위생 - 화장품","category":"beauty"},{"name":"아모레카운셀터","tel":"032-671-2175","addr":"경기도 부천시 원종동 229-5번지 대광빌딩 2층","indutype":"보건위생 - 화장품","category":"beauty"},{"name":"아모레카운셀터","tel":"032-671-2175","addr":"경기도 부천시 원종동 229-5번지 대광빌딩 2층","indutype":"보건위생 - 화장품","category":"beauty"},{"name":"아모레카운셀터","tel":"032-671-2175","addr":"경기도 부천시 원종동 229-5번지 대광빌딩 2층","indutype":"보건위생 - 화장품","category":"beauty"},{"name":"아모레카운셀터","tel":"032-671-2175","addr":"경기도 부천시 원종동 229-5번지 대광빌딩 2층","indutype":"보건위생 - 화장품","category":"beauty"},{"name":"아모레카운셀터","tel":"032-671-2175","addr":"경기도 부천시 원종동 229-5번지 대광빌딩 2층","indutype":"보건위생 - 화장품","category":"beauty"},{"name":"아모레카운셀터","tel":"032-671-2175","addr":"경기도 부천시 원종동 229-5번지 대광빌딩 2층","indutype":"보건위생 - 화장품","category":"beauty"},{"name":"아모레카운셀터","tel":"032-671-2175","addr":"경기도 부천시 원종동 229-5번지 대광빌딩 2층","indutype":"보건위생 - 화장품","category":"beauty"},{"name":"아모레카운셀터","tel":"032-671-2175","addr":"경기도 부천시 원종동 229-5번지 대광빌딩 2층","indutype":"보건위생 - 화장품","category":"beauty"},{"name":"아모레카운셀터","tel":"032-671-2175","addr":"경기도 부천시 원종동 229-5번지 대광빌딩 2층","indutype":"보건위생 - 화장품","category":"beauty"},{"name":"아모레카운셀터","tel":"032-671-2175","addr":"경기도 부천시 원종동 229-5번지 대광빌딩 2층","indutype":"보건위생 - 화장품","category":"beauty"},{"name":"아모레카운셀터","tel":"032-671-2175","addr":"경기도 부천시 원종동 229-5번지 대광빌딩 2층","indutype":"보건위생 - 화장품","category":"beauty"}]},{"lat":"37.527843015","long":"126.80226858","imageIndex":13,"items":[{"name":"807번가미용실","tel":"032-675-0604","addr":"경기도 부천시 원종동 129-51번지 107호","indutype":"보건위생 - 미용원","category":"beauty"},{"name":"유니샵","tel":"","addr":"경기도 부천시 원종동 129-51번지 1층 102호","indutype":"보건위생 - 피부미용실","category":"beauty"}]},{"lat":"37.525813798","long":"126.8010975","imageIndex":13,"items":[{"name":"H헤어","tel":"070-7383-1077","addr":"경기도 부천시 원종동 138-23번지 1층 일부","indutype":"보건위생 - 미용원","category":"beauty"}]},{"lat":"37.523979975","long":"126.79829696","imageIndex":13,"items":[{"name":"K헤어","tel":"032-676-1888","addr":"경기도 부천시 원종동 148-7번지 1층","indutype":"보건위생 - 미용원","category":"beauty"}]},{"lat":"37.524484761","long":"126.79843134","imageIndex":13,"items":[{"name":"The 예쁨","tel":"","addr":"경기도 부천시 원종동 148-23번지 황금하우스 1층 101호","indutype":"보건위생 - 미용원","category":"beauty"}]},{"lat":"37.518564922","long":"126.8089107","imageIndex":13,"items":[{"name":"가위클럽","tel":"032-677-2626","addr":"경기도 부천시 원종동 348-6번지 J팰리스빌 101호","indutype":"보건위생 - 미용원","category":"beauty"}]},{"lat":"37.526150636","long":"126.80854037","imageIndex":13,"items":[{"name":"경민헤어","tel":"032-678-1478","addr":"경기도 부천시 원종동 270-6번지 1층","indutype":"보건위생 - 미용원","category":"beauty"}]},{"lat":"37.526202134","long":"126.80699039","imageIndex":13,"items":[{"name":"고영옥미용실","tel":"032-3956-6596","addr":"경기도 부천시 원종동 278-20번지","indutype":"보건위생 - 미용원","category":"beauty"}]},{"lat":"37.519894022","long":"126.80627162","imageIndex":13,"items":[{"name":"공감미용실","tel":"032-681-6091","addr":"경기도 부천시 원종동 365-14번지","indutype":"보건위생 - 미용원","category":"beauty"}]},{"lat":"37.518729844","long":"126.8051322","imageIndex":13,"items":[{"name":"광천여성전용사우나","tel":"032-681-5622","addr":"경기도 부천시 원종동 372-5번지 지하1층","indutype":"보건위생 - 사우나","category":"beauty"},{"name":"네가꿈꾸는일상","tel":"032-677-4109","addr":"경기도 부천시 원종동 372-5번지","indutype":"보건위생 - 화장품","category":"beauty"},{"name":"대신메디칼","tel":"032-675-1275","addr":"경기도 부천시 원종동 372-5번지 1층 3호","indutype":"보건위생 - 의료용품","category":"beauty"},{"name":"최우영헤어라인","tel":"032-671-9650","addr":"경기도 부천시 원종동 372-5번지","indutype":"보건위생 - 미용원","category":"beauty"}]},{"lat":"37.51964368","long":"126.80743738","imageIndex":13,"items":[{"name":"구  호","tel":"032-684-5864","addr":"경기도 부천시 원종동 361-22번지 102호","indutype":"보건위생 - 미용원","category":"beauty"}]},{"lat":"37.526087363","long":"126.80301993","imageIndex":13,"items":[{"name":"구피샵 염색방","tel":"032-677-0919","addr":"경기도 부천시 원종동 219-1번지 1층","indutype":"보건위생 - 미용원","category":"beauty"}]},{"lat":"37.530231793","long":"126.80834877","imageIndex":13,"items":[{"name":"권인희헤어씨티","tel":"032-682-0664","addr":"경기도 부천시 원종동 335-4번지","indutype":"보건위생 - 미용원","category":"beauty"}]},{"lat":"37.517592804","long":"126.8094901","imageIndex":13,"items":[{"name":"그레이스프로젝트","tel":"","addr":"경기도 부천시 원종동 349-7번지 꿈에그린 501호","indutype":"보건위생 - 화장품","category":"beauty"}]},{"lat":"37.519955316","long":"126.80520815","imageIndex":13,"items":[{"name":"글라스스토리안경원","tel":"032-677-3039","addr":"경기도 부천시 원종동 373-10번지","indutype":"보건위생 - 안경","category":"beauty"},{"name":"대은목욕탕","tel":"032-673-6777","addr":"경기도 부천시 원종동 373-10번지 지층","indutype":"보건위생 - 사우나","category":"beauty"}]},{"lat":"37.522559755","long":"126.80023523","imageIndex":13,"items":[{"name":"금호영미용실","tel":"032-672-5841","addr":"경기도 부천시 원종동 198-17번지 산들애 102호","indutype":"보건위생 - 미용원","category":"beauty"}]},{"lat":"37.519615638","long":"126.80682662","imageIndex":13,"items":[{"name":"김승남미용실","tel":"032-671-3060","addr":"경기도 부천시 원종동 366-1번지","indutype":"보건위생 - 미용원","category":"beauty"}]},{"lat":"37.52420532","long":"126.80362451","imageIndex":13,"items":[{"name":"김원상미용실","tel":"032-671-0999","addr":"경기도 부천시 원종동 221-13번지 1층","indutype":"보건위생 - 미용원","category":"beauty"},{"name":"북경황실","tel":"032-683-8840","addr":"경기도 부천시 원종동 221-13번지 2층 일부","indutype":"보건위생 - 기타대인서비스","category":"beauty"}]},{"lat":"37.520619762","long":"126.80926736","imageIndex":13,"items":[{"name":"김종선헤어사랑","tel":"032-678-3706","addr":"경기도 부천시 원종동 346-17번지","indutype":"보건위생 - 미용원","category":"beauty"}]},{"lat":"37.520450725","long":"126.80512766","imageIndex":13,"items":[{"name":"깔롱헤어","tel":"070-4244-9774","addr":"경기도 부천시 원종동 373-12번지 제이디스카이빌 102호","indutype":"보건위생 - 미용원","category":"beauty"}]},{"lat":"37.525171959","long":"126.80516045","imageIndex":13,"items":[{"name":"꼬물네일","tel":"070-4300-0236","addr":"경기도 부천시 원종동 277번지 301호","indutype":"보건위생 - 피부미용실","category":"beauty"}]},{"lat":"37.522037611","long":"126.8004855","imageIndex":13,"items":[{"name":"꾸안꾸헤어","tel":"02-111-1111","addr":"경기도 부천시 원종동 198-34번지","indutype":"보건위생 - 미용원","category":"beauty"}]},{"lat":"37.52534588","long":"126.80680031","imageIndex":13,"items":[{"name":"나이스가이","tel":"032-668-2040","addr":"경기도 부천시 원종동 268-15번지 1층 101호","indutype":"보건위생 - 미용원","category":"beauty"}]},{"lat":"37.524179148","long":"126.80413363","imageIndex":13,"items":[{"name":"남경","tel":"032-611-6779","addr":"경기도 부천시 원종동 228-4번지 지하1층","indutype":"보건위생 - 화장품","category":"beauty"},{"name":"살롱드프롬 부천원종점","tel":"032-262-9080","addr":"경기도 부천시 원종동 228-4번지 2층","indutype":"보건위생 - 미용원","category":"beauty"},{"name":"이니스프리부천원종점","tel":"032-679-3025","addr":"경기도 부천시 원종동 228-4번지","indutype":"보건위생 - 화장품","category":"beauty"}]},{"lat":"37.523895514","long":"126.80157779","imageIndex":13,"items":[{"name":"네일유(nail U)빛이나","tel":"070-7518-8515","addr":"경기도 부천시 원종동 212-3번지 2층","indutype":"보건위생 - 피부미용실","category":"beauty"}]},{"lat":"37.527700698","long":"126.80335501","imageIndex":13,"items":[{"name":"네일포유(Nail.4U)","tel":"032-675-0898","addr":"경기도 부천시 원종동 132-6번지 1층","indutype":"보건위생 - 피부미용실","category":"beauty"}]},{"lat":"37.525395477","long":"126.80413041","imageIndex":13,"items":[{"name":"누가의료기","tel":"031-441-8335","addr":"경기도 부천시 원종동 229-10번지 송림빌딩 2층","indutype":"보건위생 - 의료용품","category":"beauty"},{"name":"두손","tel":"032-672-3799","addr":"경기도 부천시 원종동 229-10번지 송암빌딩 202호","indutype":"보건위생 - 화장품","category":"beauty"}]},{"lat":"37.519926997","long":"126.80443902","imageIndex":13,"items":[{"name":"눈데렐라&아이뷰티","tel":"033-000-0000","addr":"경기도 부천시 원종동 374-4번지 2층","indutype":"보건위생 - 화장품","category":"beauty"},{"name":"실로암안경","tel":"032-111-1111","addr":"경기도 부천시 원종동 374-4번지 1층 7,8호","indutype":"보건위생 - 안경","category":"beauty"}]},{"lat":"37.526812392","long":"126.80554075","imageIndex":13,"items":[{"name":"다연 샵","tel":"","addr":"경기도 부천시 원종동 232-7번지 승진빌라 102호","indutype":"보건위생 - 피부미용실","category":"beauty"}]},{"lat":"37.526728742","long":"126.80401374","imageIndex":13,"items":[{"name":"더,가꿈헤어","tel":"032-673-7300","addr":"경기도 부천시 원종동 230-6번지 대창스페이스 1층 101호","indutype":"보건위생 - 미용원","category":"beauty"}]},{"lat":"37.523426983","long":"126.80156773","imageIndex":13,"items":[{"name":"더뷰티스토리","tel":"070-4178-7576","addr":"경기도 부천시 원종동 212-30번지 미도주택 201호","indutype":"보건위생 - 화장품","category":"beauty"}]},{"lat":"37.52386985","long":"126.80238104","imageIndex":13,"items":[{"name":"더블비헤어","tel":"032-000-0000","addr":"경기도 부천시 원종동 212-23번지 1층 일부호","indutype":"보건위생 - 미용원","category":"beauty"}]},{"lat":"37.518593387","long":"126.80435206","imageIndex":13,"items":[{"name":"더헤어샵","tel":"032-683-9062","addr":"경기도 부천시 원종동 375-9번지","indutype":"보건위생 - 미용원","category":"beauty"}]},{"lat":"37.523838483","long":"126.80515265","imageIndex":13,"items":[{"name":"동방치과기공소","tel":"","addr":"경기도 부천시 원종동 280번지 목천빌딩","indutype":"보건위생 - 의료용품","category":"beauty"}]},{"lat":"37.525061446","long":"126.80373535","imageIndex":13,"items":[{"name":"디셀로 백작부인","tel":"032-000-0000","addr":"경기도 부천시 원종동 221-18번지 송여빌딩 3층","indutype":"보건위생 - 화장품","category":"beauty"}]},{"lat":"37.528928036","long":"126.80453962","imageIndex":13,"items":[{"name":"디아르떼보스헤어 원종점","tel":"032-672-7399","addr":"경기도 부천시 원종동 157-4번지 2층","indutype":"보건위생 - 미용원","category":"beauty"},{"name":"큐뷰티네일","tel":"032-671-9963","addr":"경기도 부천시 원종동 157-4번지 2층","indutype":"보건위생 - 피부미용실","category":"beauty"}]},{"lat":"37.522345941","long":"126.80701178","imageIndex":13,"items":[{"name":"라헬미용실","tel":"032-674-8635","addr":"경기도 부천시 원종동 283-10번지","indutype":"보건위생 - 미용원","category":"beauty"},{"name":"피부미인","tel":"070-4200-6280","addr":"경기도 부천시 원종동 283-10번지","indutype":"보건위생 - 화장품","category":"beauty"}]},{"lat":"37.518593672","long":"126.80452173","imageIndex":13,"items":[{"name":"런앤런(run and run)","tel":"032-000-0000","addr":"경기도 부천시 원종동 375-8번지 성산빌딩 1층 102호","indutype":"보건위생 - 화장품","category":"beauty"},{"name":"런헤어샵","tel":"032-676-5056","addr":"경기도 부천시 원종동 375-8번지 성산빌딩 201호","indutype":"보건위생 - 미용원","category":"beauty"},{"name":"서울안경","tel":"032-678-2019","addr":"경기도 부천시 원종동 375-8번지","indutype":"보건위생 - 안경","category":"beauty"},{"name":"태닝by네일","tel":"032-713-9949","addr":"경기도 부천시 원종동 375-8번지 성산빌딩 2층 2호","indutype":"보건위생 - 화장품","category":"beauty"}]},{"lat":"37.525366059","long":"126.80271641","imageIndex":13,"items":[{"name":"로즈헤어샵","tel":"032-343-5888","addr":"경기도 부천시 원종동 219-14번지 1층 일부","indutype":"보건위생 - 미용원","category":"beauty"}]},{"lat":"37.522816868","long":"126.8030739","imageIndex":13,"items":[{"name":"리치헤어","tel":"032-677-8334","addr":"경기도 부천시 원종동 217-24번지 J펠리스빌 101호","indutype":"보건위생 - 미용원","category":"beauty"}]},{"lat":"37.525373513","long":"126.80180007","imageIndex":13,"items":[{"name":"마로니헤어라인","tel":"032-000-0000","addr":"경기도 부천시 원종동 208-18번지 1층","indutype":"보건위생 - 미용원","category":"beauty"}]},{"lat":"37.520731749","long":"126.8061563","imageIndex":13,"items":[{"name":"마루옵틱","tel":"032-205-0155","addr":"경기도 부천시 원종동 364-9번지 하나팰리스","indutype":"보건위생 - 안경","category":"beauty"}]},{"lat":"37.519955884","long":"126.8055475","imageIndex":13,"items":[{"name":"마임부천여월미소","tel":"032-684-4800","addr":"경기도 부천시 원종동 373-9번지 2층 일부","indutype":"보건위생 - 화장품","category":"beauty"},{"name":"마임여월축복지사","tel":"","addr":"경기도 부천시 원종동 373-9번지 2층","indutype":"보건위생 - 화장품","category":"beauty"},{"name":"오땡큐","tel":"032-675-8198","addr":"경기도 부천시 원종동 373-9번지 1층 일부","indutype":"보건위생 - 미용원","category":"beauty"}]},{"lat":"37.523171755","long":"126.80515441","imageIndex":13,"items":[{"name":"마임원종동부지사","tel":"032-684-8916","addr":"경기도 부천시 원종동 280-12번지 7층","indutype":"보건위생 - 화장품","category":"beauty"}]},{"lat":"37.523868812","long":"126.80177017","imageIndex":13,"items":[{"name":"머리잘Hair","tel":"070-8742-3058","addr":"경기도 부천시 원종동 212-28번지 1층","indutype":"보건위생 - 미용원","category":"beauty"}]},{"lat":"37.523756181","long":"126.80442888","imageIndex":13,"items":[{"name":"명공사안경","tel":"032-674-2272","addr":"경기도 부천시 원종동 227-1번지","indutype":"보건위생 - 안경","category":"beauty"}]},{"lat":"37.526476327","long":"126.80935404","imageIndex":13,"items":[{"name":"모헤어(MO HAIR)","tel":"032-213-8745","addr":"경기도 부천시 원종동 294-1번지 남양주택 1층","indutype":"보건위생 - 미용원","category":"beauty"}]},{"lat":"37.529540005","long":"126.80954977","imageIndex":13,"items":[{"name":"몽자네","tel":"","addr":"경기도 부천시 원종동 336-20번지 굿모닝빌라 103동 502호","indutype":"보건위생 - 기타대인서비스","category":"beauty"}]},{"lat":"37.526755314","long":"126.80374216","imageIndex":13,"items":[{"name":"뮤즈스킨&꽈샤","tel":"032-202-8482","addr":"경기도 부천시 원종동 134-7번지 수정상가 108호","indutype":"보건위생 - 화장품","category":"beauty"},{"name":"케이엘(KL)헤어","tel":"032-324-8864","addr":"경기도 부천시 원종동 134-7번지 1층 4호","indutype":"보건위생 - 미용원","category":"beauty"}]},{"lat":"37.523872757","long":"126.80410051","imageIndex":13,"items":[{"name":"미랑컬헤어원종점","tel":"032-673-1492","addr":"경기도 부천시 원종동 227번지 2층","indutype":"보건위생 - 미용원","category":"beauty"}]},{"lat":"37.519678541","long":"126.80137419","imageIndex":13,"items":[{"name":"미루헤어","tel":"032-671-1312","addr":"경기도 부천시 원종동 388번지 1층","indutype":"보건위생 - 미용원","category":"beauty"}]},{"lat":"37.518534775","long":"126.80702175","imageIndex":13,"items":[{"name":"미성헤어라인","tel":"032-679-6361","addr":"경기도 부천시 원종동 366-5번지","indutype":"보건위생 - 미용원","category":"beauty"}]},{"lat":"37.526480062","long":"126.8008242","imageIndex":13,"items":[{"name":"미스코리아헤어아트","tel":"032-681-5841","addr":"경기도 부천시 원종동 138-32번지 1층","indutype":"보건위생 - 미용원","category":"beauty"}]},{"lat":"37.523840579","long":"126.80640832","imageIndex":13,"items":[{"name":"미용재료은복사","tel":"032-671-0555","addr":"경기도 부천시 원종동 467-1번지","indutype":"보건위생 - 미용재료","category":"beauty"}]},{"lat":"37.528088773","long":"126.80915756","imageIndex":13,"items":[{"name":"미인나라","tel":"032-673-1305","addr":"경기도 부천시 원종동 299-2번지 금홍빌딩 102호","indutype":"보건위생 - 화장품","category":"beauty"}]},{"lat":"37.517012653","long":"126.80735375","imageIndex":13,"items":[{"name":"미즈","tel":"032-671-5733","addr":"경기도 부천시 원종동 352외3필지","indutype":"보건위생 - 미용원","category":"beauty"}]},{"lat":"37.527036712","long":"126.81043863","imageIndex":13,"items":[{"name":"밀라노헤어컬렉션","tel":"070-7302-4876","addr":"경기도 부천시 원종동 339-27번지","indutype":"보건위생 - 미용원","category":"beauty"},{"name":"빈스네일","tel":"032-000-0000","addr":"경기도 부천시 원종동 339-27번지 1층 일부","indutype":"보건위생 - 피부미용실","category":"beauty"}]},{"lat":"37.525065785","long":"126.80632592","imageIndex":13,"items":[{"name":"바른체형원","tel":"032-657-8280","addr":"경기도 부천시 원종동 275-2번지 한울팰리스 3층 303호","indutype":"보건위생 - 기타대인서비스","category":"beauty"},{"name":"이미정헤어라인","tel":"032-681-3079","addr":"경기도 부천시 원종동 275-2번지 한울팰리스 104호","indutype":"보건위생 - 미용원","category":"beauty"}]},{"lat":"37.527900881","long":"126.80996127","imageIndex":13,"items":[{"name":"박갑례미용실","tel":"032-676-1921","addr":"경기도 부천시 원종동 296-1번지1층14","indutype":"보건위생 - 미용원","category":"beauty"}]},{"lat":"37.529090678","long":"126.81026366","imageIndex":13,"items":[{"name":"박수경미용실","tel":"031-539-0751","addr":"경기도 부천시 원종동 301-6번지 1층","indutype":"보건위생 - 미용원","category":"beauty"}]},{"lat":"37.527284252","long":"126.80217958","imageIndex":13,"items":[{"name":"박종림&파마걸","tel":"032-684-1097","addr":"경기도 부천시 원종동 131-4번지","indutype":"보건위생 - 미용원","category":"beauty"}]},{"lat":"37.523679172","long":"126.80687255","imageIndex":13,"items":[{"name":"백두산대중목욕탕","tel":"032-682-2813","addr":"경기도 부천시 원종동 313-10번지 부천프라자 지하2층 1","indutype":"보건위생 - 사우나","category":"beauty"}]},{"lat":"37.522810204","long":"126.80446532","imageIndex":13,"items":[{"name":"부천원종 미샤점","tel":"032-674-4633","addr":"경기도 부천시 원종동 227-5번지","indutype":"보건위생 - 화장품","category":"beauty"}]},{"lat":"37.524923809","long":"126.80226509","imageIndex":13,"items":[{"name":"부흥화장품","tel":"032-673-2726","addr":"경기도 부천시 원종동 209-5번지 31호","indutype":"보건위생 - 화장품","category":"beauty"}]},{"lat":"37.523288883","long":"126.8051541","imageIndex":13,"items":[{"name":"북경","tel":"032-672-6361","addr":"경기도 부천시 원종동 280-13번지 우진빌딩 5층 2호","indutype":"보건위생 - 기타대인서비스","category":"beauty"}]},{"lat":"37.524733852","long":"126.80182441","imageIndex":13,"items":[{"name":"불로미용실","tel":"032-674-0836","addr":"경기도 부천시 원종동 209-8번지","indutype":"보건위생 - 미용원","category":"beauty"},{"name":"새꿈마음 심리상담센터","tel":"032-677-0675","addr":"경기도 부천시 원종동 209-8번지 성심빌딩 2층","indutype":"보건위생 - 기타대인서비스","category":"beauty"}]},{"lat":"37.524170557","long":"126.80438253","imageIndex":13,"items":[{"name":"뷰티","tel":"032-683-1866","addr":"경기도 부천시 원종동 228-6번지","indutype":"보건위생 - 화장품","category":"beauty"}]},{"lat":"37.522235349","long":"126.81099395","imageIndex":13,"items":[{"name":"뷰티by보블리","tel":"","addr":"경기도 부천시 원종동 345-10번지 미소더테라스 104호","indutype":"보건위생 - 피부미용실","category":"beauty"},{"name":"사파이어에스테틱","tel":"","addr":"경기도 부천시 원종동 345-10번지 미소더테라스 105호","indutype":"보건위생 - 피부미용실","category":"beauty"}]},{"lat":"37.525928483","long":"126.81043017","imageIndex":13,"items":[{"name":"뷰티스토리","tel":"070-8744-8369","addr":"경기도 부천시 원종동 340-36번지","indutype":"보건위생 - 화장품","category":"beauty"},{"name":"빠마#","tel":"031-903-9300","addr":"경기도 부천시 원종동 340-36번지 1층 일부","indutype":"보건위생 - 미용원","category":"beauty"}]},{"lat":"37.524173389","long":"126.80073992","imageIndex":13,"items":[{"name":"뷰티홀릭","tel":"070-7396-0077","addr":"경기도 부천시 원종동 206-3번지","indutype":"보건위생 - 화장품","category":"beauty"},{"name":"진선미인","tel":"032-672-0697","addr":"경기도 부천시 원종동 206-3번지 1층","indutype":"보건위생 - 미용원","category":"beauty"}]},{"lat":"37.522040018","long":"126.80726145","imageIndex":13,"items":[{"name":"브가디헤어샵","tel":"032-681-3310","addr":"경기도 부천시 원종동 287-25번지 정든마을 205동 102호","indutype":"보건위생 - 미용원","category":"beauty"},{"name":"제이에이치피 (한라)","tel":"032-671-4951","addr":"경기도 부천시 원종동 287-25번지 정든마을","indutype":"보건위생 - 의료용품","category":"beauty"}]},{"lat":"37.52378201","long":"126.80371613","imageIndex":13,"items":[{"name":"블루클럽(원종점)","tel":"032-673-7949","addr":"경기도 부천시 원종동 222-2번지 주학빌딩 1층","indutype":"보건위생 - 미용원","category":"beauty"}]},{"lat":"37.526200796","long":"126.80084758","imageIndex":13,"items":[{"name":"비비헤어","tel":"032-673-2692","addr":"경기도 부천시 원종동 139-13번지 제1층가동102호-103호 가동 102호","indutype":"보건위생 - 미용원","category":"beauty"}]},{"lat":"37.52584404","long":"126.80298664","imageIndex":13,"items":[{"name":"빛난다그손","tel":"032-671-8666","addr":"경기도 부천시 원종동 219-7번지 S.H스위트홈 1층 101호","indutype":"보건위생 - 피부미용실","category":"beauty"}]},{"lat":"37.522757739","long":"126.80009894","imageIndex":13,"items":[{"name":"빨간머리앤","tel":"032-677-1689","addr":"경기도 부천시 원종동 199-4번지","indutype":"보건위생 - 미용원","category":"beauty"}]},{"lat":"37.527534481","long":"126.80631944","imageIndex":13,"items":[{"name":"뽀글이헤어","tel":"032-684-1143","addr":"경기도 부천시 원종동 265-3번지 1층","indutype":"보건위생 - 미용원","category":"beauty"}]},{"lat":"37.519897008","long":"126.80268577","imageIndex":13,"items":[{"name":"뽀끌레미용실","tel":"032-678-5336","addr":"경기도 부천시 원종동 383-13번지 대림베스트타운 1층","indutype":"보건위생 - 미용원","category":"beauty"},{"name":"카이로경혈경락원","tel":"032-679-4487","addr":"경기도 부천시 원종동 383-13번지 대림베스트타운 102호","indutype":"보건위생 - 기타대인서비스","category":"beauty"}]},{"lat":"37.523229018","long":"126.80707735","imageIndex":13,"items":[{"name":"쁘띠헤어포즈","tel":"032-674-3507","addr":"경기도 부천시 원종동 308-5번지","indutype":"보건위생 - 미용원","category":"beauty"}]},{"lat":"37.519595319","long":"126.80544664","imageIndex":13,"items":[{"name":"사라화장품","tel":"","addr":"경기도 부천시 원종동 372-11번지 효성빌라 가동 B02호","indutype":"보건위생 - 화장품","category":"beauty"}]},{"lat":"37.528144239","long":"126.8100172","imageIndex":13,"items":[{"name":"서부유통","tel":"032-681-8752","addr":"경기도 부천시 원종동 300-3번지 삼오 상가 106호","indutype":"보건위생 - 화장품","category":"beauty"}]},{"lat":"37.522506745","long":"126.80618557","imageIndex":13,"items":[{"name":"서프라이즈","tel":"032-676-6090","addr":"경기도 부천시 원종동 283-3번지 서원렉스빌 1층","indutype":"보건위생 - 미용재료","category":"beauty"}]},{"lat":"37.525064956","long":"126.80582817","imageIndex":13,"items":[{"name":"세종미용실","tel":"032-679-8841","addr":"경기도 부천시 원종동 275번지","indutype":"보건위생 - 미용원","category":"beauty"},{"name":"행복","tel":"","addr":"경기도 부천시 원종동 275번지 한덕빌딩 2층","indutype":"보건위생 - 미용재료","category":"beauty"}]},{"lat":"37.522561671","long":"126.80135513","imageIndex":13,"items":[{"name":"센스미용실","tel":"032-667-0196","addr":"경기도 부천시 원종동 214-2번지","indutype":"보건위생 - 미용원","category":"beauty"}]},{"lat":"37.530337104","long":"126.80665149","imageIndex":13,"items":[{"name":"수산나헤어샵","tel":"032-673-1863","addr":"경기도 부천시 원종동 178번지","indutype":"보건위생 - 미용원","category":"beauty"}]},{"lat":"37.525006833","long":"126.80340743","imageIndex":13,"items":[{"name":"수성빌딩","tel":"032-674-2122","addr":"경기도 부천시 원종동 221번지","indutype":"보건위생 - 사우나","category":"beauty"}]},{"lat":"37.519895914","long":"126.802041","imageIndex":13,"items":[{"name":"수헤어","tel":"032-656-6700","addr":"경기도 부천시 원종동 387-15번지","indutype":"보건위생 - 미용원","category":"beauty"}]},{"lat":"37.527509882","long":"126.80240523","imageIndex":13,"items":[{"name":"수헤어샵","tel":"032-677-7358","addr":"경기도 부천시 원종동 132번지 1층 일부","indutype":"보건위생 - 미용원","category":"beauty"}]},{"lat":"37.518533572","long":"126.80629781","imageIndex":13,"items":[{"name":"슈가","tel":"032-208-5551","addr":"경기도 부천시 원종동 366-20번지 이루미아 28호","indutype":"보건위생 - 미용원","category":"beauty"}]},{"lat":"37.517457994","long":"126.80426457","imageIndex":13,"items":[{"name":"스위트","tel":"032-684-1519","addr":"경기도 부천시 원종동 376-7번지 1층","indutype":"보건위생 - 화장품","category":"beauty"},{"name":"희야화장품","tel":"032-676-0335","addr":"경기도 부천시 원종동 376-7번지 지하1층 9호","indutype":"보건위생 - 화장품","category":"beauty"}]},{"lat":"37.523812626","long":"126.80585409","imageIndex":13,"items":[{"name":"스카이(sky)헤어존","tel":"032-677-6701","addr":"경기도 부천시 원종동 297-3번지 1층","indutype":"보건위생 - 미용원","category":"beauty"},{"name":"위키드네일","tel":"070-4101-1999","addr":"경기도 부천시 원종동 297-3번지 2층","indutype":"보건위생 - 피부미용실","category":"beauty"}]},{"lat":"37.528199642","long":"126.80537872","imageIndex":13,"items":[{"name":"신은섭헤어필","tel":"032-674-7916","addr":"경기도 부천시 원종동 254-5번지 성주빌딩 1층 3호","indutype":"보건위생 - 미용원","category":"beauty"}]},{"lat":"37.530614656","long":"126.80559862","imageIndex":13,"items":[{"name":"신화유통","tel":"032-671-4154","addr":"경기도 부천시 원종동 69번지 동화빌딩 2층","indutype":"보건위생 - 미용재료","category":"beauty"}]},{"lat":"37.524927479","long":"126.80443709","imageIndex":13,"items":[{"name":"실로암안경원","tel":"032-678-9956","addr":"경기도 부천시 원종동 228-2번지 한강빌딩","indutype":"보건위생 - 안경","category":"beauty"}]},{"lat":"37.524340754","long":"126.80379383","imageIndex":13,"items":[{"name":"쌩얼짱","tel":"032-678-7975","addr":"경기도 부천시 원종동 221-11번지","indutype":"보건위생 - 화장품","category":"beauty"}]},{"lat":"37.522312517","long":"126.80859557","imageIndex":13,"items":[{"name":"써니헤어","tel":"","addr":"경기도 부천시 원종동 326-6번지 한촌빌리지 101호","indutype":"보건위생 - 이용원","category":"beauty"}]},{"lat":"37.518593102","long":"126.80418239","imageIndex":13,"items":[{"name":"써니헤어","tel":"032-678-7976","addr":"경기도 부천시 원종동 375-10번지 1층","indutype":"보건위생 - 미용원","category":"beauty"}]},{"lat":"37.523843856","long":"126.80299197","imageIndex":13,"items":[{"name":"쎄라노헤어","tel":"032-681-7521","addr":"경기도 부천시 원종동 217-1번지","indutype":"보건위생 - 미용원","category":"beauty"}]},{"lat":"37.525566574","long":"126.80950346","imageIndex":13,"items":[{"name":"아로하미용실","tel":"032-673-4893","addr":"경기도 부천시 원종동 294-6번지 진주연립 A동 1층","indutype":"보건위생 - 미용원","category":"beauty"}]},{"lat":"37.522200466","long":"126.80088099","imageIndex":13,"items":[{"name":"아름다운스킨케어","tel":"032-673-1400","addr":"경기도 부천시 원종동 214-31번지 중앙리더스빌 101호","indutype":"보건위생 - 피부미용실","category":"beauty"}]},{"lat":"37.526956455","long":"126.80548381","imageIndex":13,"items":[{"name":"아리스타타","tel":"","addr":"경기도 부천시 원종동 232-5번지 송림그린빌 1층 102호","indutype":"보건위생 - 피부미용실","category":"beauty"}]},{"lat":"37.525594245","long":"126.80445795","imageIndex":13,"items":[{"name":"아모레","tel":"032-671-2175","addr":"경기도 부천시 원종동 229-8 뉴월드프라자501,502호","indutype":"보건위생 - 화장품","category":"beauty"},{"name":"아모레 카운셀러","tel":"032-671-2175","addr":"경기도 부천시 원종동 229-8번지 뉴월드프라자 5층","indutype":"보건위생 - 화장품","category":"beauty"},{"name":"아모레 카운셀러","tel":"032-671-2175","addr":"경기도 부천시 원종동 229-8번지 뉴월드프라자 501,502호","indutype":"보건위생 - 화장품","category":"beauty"},{"name":"아모레 카운셀러","tel":"032-671-2175","addr":"경기도 부천시 원종동 229-8번지 뉴월드프라자 501,502호","indutype":"보건위생 - 화장품","category":"beauty"},{"name":"아모레 카운셀러","tel":"032-671-2175","addr":"경기도 부천시 원종동 229-8번지 뉴월드프라자 501동 502호","indutype":"보건위생 - 화장품","category":"beauty"},{"name":"아모레 카운셀러","tel":"032-671-2175","addr":"경기도 부천시 원종동 229-8번지 뉴월드프라자 501호","indutype":"보건위생 - 화장품","category":"beauty"},{"name":"아모레외판","tel":"032-671-2175","addr":"경기도 부천시 원종동 229-8번지 뉴월드프라자 501동 502호","indutype":"보건위생 - 화장품","category":"beauty"},{"name":"아모레외판","tel":"032-671-2175","addr":"경기도 부천시 원종동 229-8 뉴월드프라자501.502호","indutype":"보건위생 - 화장품","category":"beauty"},{"name":"아모레카운셀러","tel":"032-671-2175","addr":"경기도 부천시 원종동 229-8번지 뉴월드프라자 501,502호","indutype":"보건위생 - 화장품","category":"beauty"},{"name":"아모레카운셀러","tel":"032-671-2175","addr":"경기도 부천시 원종동 229-8번지 뉴월드프라자 5층","indutype":"보건위생 - 화장품","category":"beauty"},{"name":"아모레카운셀러","tel":"032-671-2175","addr":"경기도 부천시 원종동 229-8번지 뉴월드프라자 5층","indutype":"보건위생 - 화장품","category":"beauty"},{"name":"아모레카운셀러","tel":"032-671-2175","addr":"경기도 부천시 원종동 229-8번지 뉴월드프라자 5층","indutype":"보건위생 - 화장품","category":"beauty"},{"name":"아모레카운셀러","tel":"032-671-2175","addr":"경기도 부천시 원종동 229-8번지 뉴월드프라자 501,502호","indutype":"보건위생 - 화장품","category":"beauty"},{"name":"아모레카운셀러","tel":"032-671-2175","addr":"경기도 부천시 원종동 229-8번지 뉴월드프라자 5층","indutype":"보건위생 - 화장품","category":"beauty"},{"name":"아모레카운셀러","tel":"032-671-2175","addr":"경기도 부천시 원종동 229-8번지 뉴월드프라자 501, 502호","indutype":"보건위생 - 화장품","category":"beauty"},{"name":"아모레카운셀러","tel":"032-671-2175","addr":"경기도 부천시 원종동 229-8번지 501호,502호","indutype":"보건위생 - 화장품","category":"beauty"},{"name":"아모레카운셀러","tel":"032-671-2175","addr":"경기도 부천시 원종동 229-8번지 뉴월드프라자 5층","indutype":"보건위생 - 화장품","category":"beauty"},{"name":"아모레카운셀러","tel":"032-671-2175","addr":"경기도 부천시 원종동 229-8번지 뉴월드프라자 5층","indutype":"보건위생 - 화장품","category":"beauty"},{"name":"아모레카운셀러","tel":"032-671-2175","addr":"경기도 부천시 원종동 229-8번지 뉴월드프라자 5층","indutype":"보건위생 - 화장품","category":"beauty"},{"name":"아모레카운셀러","tel":"032-671-2175","addr":"경기도 부천시 원종동 229-8번지 뉴월드프라자 501호","indutype":"보건위생 - 화장품","category":"beauty"},{"name":"아모레카운셀러","tel":"032-671-2175","addr":"경기도 부천시 원종동 229-8번지 뉴월드프라자 5층","indutype":"보건위생 - 화장품","category":"beauty"},{"name":"아모레카운셀러","tel":"032-671-2175","addr":"경기도 부천시 원종동 229-8번지 뉴월드프라자 501동 502호","indutype":"보건위생 - 화장품","category":"beauty"},{"name":"아모레카운셀러","tel":"032-671-2175","addr":"경기도 부천시 원종동 229-8번지 501,502호","indutype":"보건위생 - 화장품","category":"beauty"},{"name":"아모레카운셀러","tel":"032-671-2175","addr":"경기도 부천시 원종동 229-8 뉴월드프라자 501","indutype":"보건위생 - 화장품","category":"beauty"},{"name":"아모레카운셀러","tel":"032-671-2175","addr":"경기도 부천시 원종동 229-8번지 뉴월드프라자 501호 502","indutype":"보건위생 - 화장품","category":"beauty"},{"name":"아모레카운셀러","tel":"032-671-2175","addr":"경기도 부천시 원종동 229-8번지 뉴월드프라자 501,502호","indutype":"보건위생 - 화장품","category":"beauty"},{"name":"아모레카운셀러","tel":"032-671-2175","addr":"경기도 부천시 원종동 229-8번지 뉴월드프라자 5층","indutype":"보건위생 - 화장품","category":"beauty"},{"name":"아모레카운셀러","tel":"032-671-2175","addr":"경기도 부천시 원종동 229-8번지 뉴월드프라자 501,502호","indutype":"보건위생 - 화장품","category":"beauty"},{"name":"아모레카운셀러","tel":"032-671-2175","addr":"경기도 부천시 원종동 229-8번지 뉴월드프라자 제501,502호","indutype":"보건위생 - 화장품","category":"beauty"},{"name":"아모레카운셀러","tel":"032-671-2175","addr":"경기도 부천시 원종동 229-8번지 뉴월드프라자 501,502호","indutype":"보건위생 - 화장품","category":"beauty"},{"name":"아모레카운셀러","tel":"032-671-2175","addr":"경기도 부천시 원종동 229-8번지 뉴월드프라자 5층","indutype":"보건위생 - 화장품","category":"beauty"},{"name":"아모레카운셀러","tel":"032-671-2175","addr":"경기도 부천시 원종동 229-8번지 뉴월드프라자 5층","indutype":"보건위생 - 화장품","category":"beauty"},{"name":"아모레카운셀러","tel":"032-671-2175","addr":"경기도 부천시 원종동 229-8번지 뉴월드프라자 5층 501호,502호","indutype":"보건위생 - 화장품","category":"beauty"},{"name":"아모레카운셀러","tel":"032-671-2175","addr":"경기도 부천시 원종동 229-8번지 뉴월드프라자 501호","indutype":"보건위생 - 화장품","category":"beauty"},{"name":"아모레카운셀러","tel":"032-671-2175","addr":"경기도 부천시 원종동 229-8번지 뉴월드프라자 501호","indutype":"보건위생 - 화장품","category":"beauty"},{"name":"아모레카운셀러","tel":"032-671-2175","addr":"경기도 부천시 원종동 229-8번지 뉴월드프라자 501동 502호","indutype":"보건위생 - 화장품","category":"beauty"},{"name":"아모레카운셀러","tel":"032-671-2175","addr":"경기도 부천시 원종동 229-8 뉴월드프라자 501.502호","indutype":"보건위생 - 화장품","category":"beauty"},{"name":"아모레카운셀러","tel":"032-671-2175","addr":"경기도 부천시 원종동 229-8번지 뉴월드프라자 501호","indutype":"보건위생 - 화장품","category":"beauty"},{"name":"아모레카운셀러","tel":"032-671-2175","addr":"경기도 부천시 원종동 229-8번지 뉴월드프라자 501호","indutype":"보건위생 - 화장품","category":"beauty"},{"name":"아모레카운셀러","tel":"032-671-2175","addr":"경기도 부천시 원종동 229-8번지 뉴월드프라자 501동 502호","indutype":"보건위생 - 화장품","category":"beauty"},{"name":"아모레카운셀러","tel":"032-671-2175","addr":"경기도 부천시 원종동 229-8 뉴월드프라자501.502호","indutype":"보건위생 - 화장품","category":"beauty"},{"name":"아모레카운셀러","tel":"032-671-2175","addr":"경기도 부천시 원종동 229-8 뉴월드프라자 501.502호","indutype":"보건위생 - 화장품","category":"beauty"},{"name":"아모레카운셀러","tel":"032-671-2175","addr":"경기도 부천시 원종동 229-8번지 뉴월드프라자 501호","indutype":"보건위생 - 화장품","category":"beauty"},{"name":"아모레카운셀러","tel":"032-671-2175","addr":"경기도 부천시 원종동 229-8번지 뉴월드프라자 501호","indutype":"보건위생 - 화장품","category":"beauty"},{"name":"아모레카운셀러","tel":"032-671-2175","addr":"경기도 부천시 원종동 229-8번지 뉴월드프라자 501호","indutype":"보건위생 - 화장품","category":"beauty"},{"name":"아모레카운셀러","tel":"032-671-2175","addr":"경기도 부천시 원종동 229-8번지 뉴월드프라자 501호","indutype":"보건위생 - 화장품","category":"beauty"},{"name":"아모레카운셀러","tel":"032-671-2175","addr":"경기도 부천시 원종동 229-8번지 뉴월드프라자 501호","indutype":"보건위생 - 화장품","category":"beauty"},{"name":"아모레카운셀러","tel":"032-671-2175","addr":"경기도 부천시 원종동 229-8번지 뉴월드프라자 501호","indutype":"보건위생 - 화장품","category":"beauty"},{"name":"아모레카운셀러","tel":"032-671-2175","addr":"경기도 부천시 원종동 229-8 뉴월드프라자 501.502호","indutype":"보건위생 - 화장품","category":"beauty"},{"name":"아모레카운셀러","tel":"032-671-2175","addr":"경기도 부천시 원종동 229-8번지 501,502호","indutype":"보건위생 - 화장품","category":"beauty"},{"name":"아모레카운셀러","tel":"032-671-2175","addr":"경기도 부천시 원종동 229-8번지 뉴월드프라자 5층","indutype":"보건위생 - 화장품","category":"beauty"},{"name":"아모레카운셀러","tel":"032-671-2175","addr":"경기도 부천시 원종동 229-8번지 뉴월드프라자 5층","indutype":"보건위생 - 화장품","category":"beauty"},{"name":"아모레카운셀러","tel":"02-671-2175","addr":"경기도 부천시 원종동 229-8번지 뉴월드프라자 501,502호","indutype":"보건위생 - 화장품","category":"beauty"},{"name":"아모레카운셀러","tel":"032-671-2175","addr":"경기도 부천시 원종동 229-8번지 뉴월드프라자 5층","indutype":"보건위생 - 화장품","category":"beauty"},{"name":"아모레카운셀러","tel":"032-671-2175","addr":"경기도 부천시 원종동 229-8번지 뉴월드프라자 5층 501호","indutype":"보건위생 - 화장품","category":"beauty"},{"name":"아모레카운셀러","tel":"032-671-2175","addr":"경기도 부천시 원종동 229-8번지 뉴월드프라자 501호","indutype":"보건위생 - 화장품","category":"beauty"},{"name":"아모레카운셀러","tel":"032-671-2175","addr":"경기도 부천시 원종동 229-8번지 뉴월드프라자 501,502호","indutype":"보건위생 - 화장품","category":"beauty"},{"name":"아모레카운셀러","tel":"032-671-2175","addr":"경기도 부천시 원종동 229-8번지 뉴월드프라자 501,502호","indutype":"보건위생 - 화장품","category":"beauty"}]},{"lat":"37.524144126","long":"126.79943907","imageIndex":13,"items":[{"name":"아이쉬즈헤어9호","tel":"032-684-6990","addr":"경기도 부천시 원종동 141-3번지 중앙프라자 104호","indutype":"보건위생 - 미용원","category":"beauty"}]},{"lat":"37.51945067","long":"126.80515292","imageIndex":13,"items":[{"name":"아이패밀리 원종점","tel":"032-683-6062","addr":"경기도 부천시 원종동 372번지 1층 12,13호","indutype":"보건위생 - 안경","category":"beauty"},{"name":"지노헤어","tel":"032-677-3493","addr":"경기도 부천시 원종동 372번지 2층 3호","indutype":"보건위생 - 미용원","category":"beauty"}]},{"lat":"37.522234674","long":"126.80512295","imageIndex":13,"items":[{"name":"안경박사렌즈미원종사거리점","tel":"032-682-8484","addr":"경기도 부천시 원종동 281-6번지 103,104호","indutype":"보건위생 - 안경","category":"beauty"}]},{"lat":"37.525643846","long":"126.80182197","imageIndex":13,"items":[{"name":"앤","tel":"032-674-4945","addr":"경기도 부천시 원종동 208-16번지 1층","indutype":"보건위생 - 화장품","category":"beauty"}]},{"lat":"37.525366519","long":"126.80298791","imageIndex":13,"items":[{"name":"야긴앤보아즈","tel":"","addr":"경기도 부천시 원종동 219-2번지 대풍빌딩 1층","indutype":"보건위생 - 피부미용실","category":"beauty"},{"name":"영 미용실","tel":"031-000-0000","addr":"경기도 부천시 원종동 219-2번지 대풍빌딩 1층","indutype":"보건위생 - 미용원","category":"beauty"}]},{"lat":"37.518872236","long":"126.80407984","imageIndex":13,"items":[{"name":"야한여자미용실","tel":"032-678-7772","addr":"경기도 부천시 원종동 375-12번지 황상연립 가동 104호","indutype":"보건위생 - 미용원","category":"beauty"}]},{"lat":"37.525121275","long":"126.80182337","imageIndex":13,"items":[{"name":"얼밥스킨샵","tel":"032-679-3777","addr":"경기도 부천시 원종동 209-4번지","indutype":"보건위생 - 화장품","category":"beauty"},{"name":"헤라네일","tel":"0505-991-1472","addr":"경기도 부천시 원종동 209-4번지 1층","indutype":"보건위생 - 피부미용실","category":"beauty"}]},{"lat":"37.523595218","long":"126.80515329","imageIndex":13,"items":[{"name":"에뛰드하우스원종사거리점","tel":"032-682-4577","addr":"경기도 부천시 원종동 280-15번지 한성빌딩 104호","indutype":"보건위생 - 화장품","category":"beauty"}]},{"lat":"37.5282468225","long":"126.8066569648","imageIndex":13,"items":[{"name":"에벤에셀미용실","tel":"032-683-9973","addr":"경기도 부천시 원종동 253-5번지 대화그린타운 3동 1층 101호","indutype":"보건위생 - 미용원","category":"beauty"}]},{"lat":"37.525482209","long":"126.80751265","imageIndex":13,"items":[{"name":"에스떼뷰","tel":"070-4228-2229","addr":"경기도 부천시 원종동 269-2번지 태양아파트","indutype":"보건위생 - 화장품","category":"beauty"}]},{"lat":"37.527701309","long":"126.80371702","imageIndex":13,"items":[{"name":"에스쁘아미용실","tel":"032-684-6065","addr":"경기도 부천시 원종동 132-3번지","indutype":"보건위생 - 미용원","category":"beauty"}]},{"lat":"37.525122736","long":"126.80268312","imageIndex":13,"items":[{"name":"에스엠지(SMG)부천점","tel":"032-675-5659","addr":"경기도 부천시 원종동 218번지 만호빌딩 2층","indutype":"보건위생 - 의료용품","category":"beauty"}]},{"lat":"37.524116511","long":"126.79909977","imageIndex":13,"items":[{"name":"엘리시엔","tel":"032-683-1159","addr":"경기도 부천시 원종동 141-4번지 수정 상가 1층 11호","indutype":"보건위생 - 화장품","category":"beauty"},{"name":"예원미장","tel":"032-679-3126","addr":"경기도 부천시 원종동 141-4번지 1층 6호상가","indutype":"보건위생 - 미용원","category":"beauty"}]},{"lat":"37.527810684","long":"126.80446339","imageIndex":13,"items":[{"name":"여기서 헤어","tel":"032-677-8381","addr":"경기도 부천시 원종동 230-1번지 1층 일부호","indutype":"보건위생 - 미용원","category":"beauty"}]},{"lat":"37.526844412","long":"126.80854988","imageIndex":13,"items":[{"name":"여우머리","tel":"032-000-0000","addr":"경기도 부천시 원종동 248-16번지 102호","indutype":"보건위생 - 미용원","category":"beauty"},{"name":"조앤리헤어클럽","tel":"031-676-8321","addr":"경기도 부천시 원종동 248-16번지 1층","indutype":"보건위생 - 미용원","category":"beauty"}]},{"lat":"37.519725423","long":"126.80783308","imageIndex":13,"items":[{"name":"연애하는날헤어","tel":"032-327-3839","addr":"경기도 부천시 원종동 361-8번지 노블리아 1동 101호","indutype":"보건위생 - 미용원","category":"beauty"}]},{"lat":"37.522262914","long":"126.80584685","imageIndex":13,"items":[{"name":"연희헤어","tel":"","addr":"경기도 부천시 원종동 283-20번지 허브빌 101호","indutype":"보건위생 - 미용원","category":"beauty"}]},{"lat":"37.528067733","long":"126.8073249","imageIndex":13,"items":[{"name":"염색나라","tel":"032-679-7008","addr":"경기도 부천시 원종동 246번지 보강그린빌라 1층","indutype":"보건위생 - 미용원","category":"beauty"}]},{"lat":"37.518311306","long":"126.80809693","imageIndex":13,"items":[{"name":"예건메디칼","tel":"070-4135-1075","addr":"경기도 부천시 원종동 359번지","indutype":"보건위생 - 의료용품","category":"beauty"}]},{"lat":"37.526754034","long":"126.80298421","imageIndex":13,"items":[{"name":"예쁘다 눈","tel":"","addr":"경기도 부천시 원종동 133-7번지 1층","indutype":"보건위생 - 피부미용실","category":"beauty"}]},{"lat":"37.525151372","long":"126.8036333","imageIndex":13,"items":[{"name":"오늘더예쁜눈(오늘The예쁜눈)","tel":"032-676-8154","addr":"경기도 부천시 원종동 221-1번지 1층 1호","indutype":"보건위생 - 피부미용실","category":"beauty"}]},{"lat":"37.522064603","long":"126.80579081","imageIndex":13,"items":[{"name":"오헤어","tel":"032-876-9938","addr":"경기도 부천시 원종동 282번지 1층","indutype":"보건위생 - 미용원","category":"beauty"}]},{"lat":"37.520116204","long":"126.80443852","imageIndex":13,"items":[{"name":"오휘컨설턴트","tel":"032-675-6052","addr":"경기도 부천시 원종동 374-3번지 관우프라자 202호","indutype":"보건위생 - 화장품","category":"beauty"},{"name":"오휘컨설턴트","tel":"032-675-6052","addr":"경기도 부천시 원종동 374-3번지 관우프라자 202호","indutype":"보건위생 - 화장품","category":"beauty"},{"name":"오휘컨설턴트","tel":"032-675-6052","addr":"경기도 부천시 원종동 374-3번지 관우프라자 202호","indutype":"보건위생 - 화장품","category":"beauty"},{"name":"오휘컨설턴트","tel":"032-675-6052","addr":"경기도 부천시 원종동 374-3번지 관우프라자 202호","indutype":"보건위생 - 화장품","category":"beauty"}]},{"lat":"37.528928928","long":"126.80507134","imageIndex":13,"items":[{"name":"온누리헬스케어원종점","tel":"032-673-2228","addr":"경기도 부천시 원종동 262-2번지 3층","indutype":"보건위생 - 의료용품","category":"beauty"}]},{"lat":"37.519254398","long":"126.80631854","imageIndex":13,"items":[{"name":"왁싱고양이","tel":"032-673-3932","addr":"경기도 부천시 원종동 367-30번지 대우빌라 B동 201호","indutype":"보건위생 - 화장품","category":"beauty"}]},{"lat":"37.518592873","long":"126.80404665","imageIndex":13,"items":[{"name":"용성메디칼","tel":"070-4118-1228","addr":"경기도 부천시 원종동 375-11번지","indutype":"보건위생 - 의료용품","category":"beauty"},{"name":"이종분헤어필","tel":"032-684-0678","addr":"경기도 부천시 원종동 375-11번지","indutype":"보건위생 - 미용원","category":"beauty"}]},{"lat":"37.519533251","long":"126.80604633","imageIndex":13,"items":[{"name":"원종사우나","tel":"02-678-9760","addr":"경기도 부천시 원종동 367번지 지층 1,2,3,4,호","indutype":"보건위생 - 사우나","category":"beauty"}]},{"lat":"37.519593062","long":"126.80410055","imageIndex":13,"items":[{"name":"웰라헤어","tel":"032-677-7893","addr":"경기도 부천시 원종동 375번지 1층","indutype":"보건위생 - 미용원","category":"beauty"}]},{"lat":"37.51853393","long":"126.80651273","imageIndex":13,"items":[{"name":"윈드헤어","tel":"032-677-7975","addr":"경기도 부천시 원종동 366-9번지","indutype":"보건위생 - 미용원","category":"beauty"}]},{"lat":"37.522562139","long":"126.80698859","imageIndex":13,"items":[{"name":"유림헤어모드","tel":"032-674-0487","addr":"경기도 부천시 원종동 283-9번지 청구그린빌 1층 102호","indutype":"보건위생 - 미용원","category":"beauty"}]},{"lat":"37.526730008","long":"126.81021316","imageIndex":13,"items":[{"name":"유헤어샵","tel":"032-684-7302","addr":"경기도 부천시 원종동 296-28번지 선진그린빌라 일부 1층","indutype":"보건위생 - 미용원","category":"beauty"}]},{"lat":"37.528670285","long":"126.80665586","imageIndex":13,"items":[{"name":"윤스네일 (Yoons nail)","tel":"031-000-0000","addr":"경기도 부천시 원종동 245-5번지 1층","indutype":"보건위생 - 피부미용실","category":"beauty"}]},{"lat":"37.529063203","long":"126.80455058","imageIndex":13,"items":[{"name":"은혜미용실","tel":"032-671-5886","addr":"경기도 부천시 원종동 166-8번지","indutype":"보건위생 - 미용원","category":"beauty"}]},{"lat":"37.519643942","long":"126.80759575","imageIndex":13,"items":[{"name":"이가이","tel":"032-683-2818","addr":"경기도 부천시 원종동 361-23번지 노블리아","indutype":"보건위생 - 미용원","category":"beauty"}]},{"lat":"37.527371569","long":"126.80587867","imageIndex":13,"items":[{"name":"이루다 (IRuDa)","tel":"032-675-5336","addr":"경기도 부천시 원종동 266-1번지 1층","indutype":"보건위생 - 미용원","category":"beauty"}]},{"lat":"37.524510623","long":"126.80301282","imageIndex":13,"items":[{"name":"이브2니펌앤컷","tel":"032-671-6700","addr":"경기도 부천시 원종동 218-7번지 1층","indutype":"보건위생 - 미용원","category":"beauty"}]},{"lat":"37.526421187","long":"126.80329054","imageIndex":13,"items":[{"name":"이석렬뷰티클럽","tel":"032-243-3140","addr":"경기도 부천시 원종동 134-9번지","indutype":"보건위생 - 미용원","category":"beauty"}]},{"lat":"37.524173529","long":"126.80615857","imageIndex":13,"items":[{"name":"이화미용실","tel":"032-673-3485","addr":"경기도 부천시 원종동 276-6번지1층-3","indutype":"보건위생 - 미용원","category":"beauty"}]},{"lat":"37.526700254","long":"126.80855026","imageIndex":13,"items":[{"name":"이희숙헤어닥터","tel":"032-672-8250","addr":"경기도 부천시 원종동 235-15번지 1층 일부","indutype":"보건위생 - 미용원","category":"beauty"}]},{"lat":"37.522229281","long":"126.80729489","imageIndex":13,"items":[{"name":"임헤어(Lim Hair)","tel":"032-677-3356","addr":"경기도 부천시 원종동 286-7번지 대성쉐르빌 101호","indutype":"보건위생 - 미용원","category":"beauty"}]},{"lat":"37.527171435","long":"126.81017809","imageIndex":13,"items":[{"name":"장명자헤어","tel":"032-1111-1111","addr":"경기도 부천시 원종동 296-23번지 1층","indutype":"보건위생 - 미용원","category":"beauty"}]},{"lat":"37.532657973","long":"126.80445055","imageIndex":13,"items":[{"name":"장수암","tel":"","addr":"경기도 부천시 원종동 9-61번지 럭키빌라 4동 401호","indutype":"보건위생 - 기타대인서비스","category":"beauty"}]},{"lat":"37.524732618","long":"126.80110041","imageIndex":13,"items":[{"name":"정다운미용실","tel":"032-682-4013","addr":"경기도 부천시 원종동 209-19번지 1층","indutype":"보건위생 - 미용원","category":"beauty"}]},{"lat":"37.519595395","long":"126.80549189","imageIndex":13,"items":[{"name":"정은혜헤어라인","tel":"032-676-8126","addr":"경기도 부천시 원종동 372-1번지","indutype":"보건위생 - 미용원","category":"beauty"}]},{"lat":"37.525369873","long":"126.8104316","imageIndex":13,"items":[{"name":"제이미용실","tel":"031-682-1716","addr":"경기도 부천시 원종동 340-19번지 1층 일부","indutype":"보건위생 - 미용원","category":"beauty"}]},{"lat":"37.526115043","long":"126.80340448","imageIndex":13,"items":[{"name":"제이헤어하우스","tel":"","addr":"경기도 부천시 원종동 220번지 102호","indutype":"보건위생 - 미용원","category":"beauty"}]},{"lat":"37.528564934","long":"126.80293412","imageIndex":13,"items":[{"name":"조아","tel":"032-684-3037","addr":"경기도 부천시 원종동 470번지 원종동금호어울림 301동 205호","indutype":"보건위생 - 화장품","category":"beauty"},{"name":"프롬제이(From:J)","tel":"032-682-7474","addr":"경기도 부천시 원종동 470번지 원종동금호어울림 301동 104호","indutype":"보건위생 - 미용원","category":"beauty"}]},{"lat":"37.527865801","long":"126.81054963","imageIndex":13,"items":[{"name":"주현미용실","tel":"032-673-0505","addr":"경기도 부천시 원종동 339번지 대림베스트타운","indutype":"보건위생 - 미용원","category":"beauty"}]},{"lat":"37.522845673","long":"126.80412586","imageIndex":13,"items":[{"name":"쥴리헤어","tel":"032-671-0108","addr":"경기도 부천시 원종동 227-6번지 1층","indutype":"보건위생 - 미용원","category":"beauty"}]},{"lat":"37.526929066","long":"126.80526894","imageIndex":13,"items":[{"name":"지영복헤어샵","tel":"","addr":"경기도 부천시 원종동 232-1번지","indutype":"보건위생 - 미용원","category":"beauty"}]},{"lat":"37.522561903","long":"126.80149087","imageIndex":13,"items":[{"name":"진헤어","tel":"032-674-3629","addr":"경기도 부천시 원종동 214-3번지 1층","indutype":"보건위생 - 미용원","category":"beauty"}]},{"lat":"37.525922631","long":"126.80151578","imageIndex":13,"items":[{"name":"진헤어","tel":"032-672-3639","addr":"경기도 부천시 원종동 138-30번지 상가동 1층 104호","indutype":"보건위생 - 미용원","category":"beauty"}]},{"lat":"37.527845415","long":"126.80910162","imageIndex":13,"items":[{"name":"천연누리","tel":"032-673-8648","addr":"경기도 부천시 원종동 298번지 라동 102호","indutype":"보건위생 - 화장품","category":"beauty"}]},{"lat":"37.529675586","long":"126.80437926","imageIndex":13,"items":[{"name":"천지랜드여탕세신","tel":"032-677-1436","addr":"경기도 부천시 원종동 163번지","indutype":"보건위생 - 기타대인서비스","category":"beauty"}]},{"lat":"37.53003946","long":"126.80645994","imageIndex":13,"items":[{"name":"체스헤어","tel":"032-000-0000","addr":"경기도 부천시 원종동 69-6번지 제이파크빌 101동 1층 101호","indutype":"보건위생 - 미용원","category":"beauty"}]},{"lat":"37.519921973","long":"126.80682582","imageIndex":13,"items":[{"name":"최가이헤어리더","tel":"02-845-7508","addr":"경기도 부천시 원종동 365-10번지 101호","indutype":"보건위생 - 미용원","category":"beauty"}]},{"lat":"37.526449723","long":"126.80418417","imageIndex":13,"items":[{"name":"최선영헤어","tel":"032-678-0441","addr":"경기도 부천시 원종동 229-21 성진그린타운1층 3-101","indutype":"보건위생 - 미용원","category":"beauty"}]},{"lat":"37.525344808","long":"126.8061555","imageIndex":13,"items":[{"name":"최성심헤어스케치","tel":"032-677-8418","addr":"경기도 부천시 원종동 236-23번지","indutype":"보건위생 - 미용원","category":"beauty"}]},{"lat":"37.52619968","long":"126.81098379","imageIndex":13,"items":[{"name":"최정현헤어","tel":"000-0000-0000","addr":"경기도 부천시 원종동 340-15번지 우성빌라 101호","indutype":"보건위생 - 미용원","category":"beauty"}]},{"lat":"37.523868195","long":"126.80140817","imageIndex":13,"items":[{"name":"케이(K)헤어","tel":"032-674-7317","addr":"경기도 부천시 원종동 212-15번지 1층","indutype":"보건위생 - 미용원","category":"beauty"}]},{"lat":"37.528976394","long":"126.8065193","imageIndex":13,"items":[{"name":"켈리헤어","tel":"032-682-5103","addr":"경기도 부천시 원종동 244-5번지 성지빌라트 101동 101호","indutype":"보건위생 - 미용원","category":"beauty"}]},{"lat":"37.525678747","long":"126.80115443","imageIndex":13,"items":[{"name":"코코헤어","tel":"032-675-8865","addr":"경기도 부천시 원종동 138-25번지 1층","indutype":"보건위생 - 미용원","category":"beauty"}]},{"lat":"37.523813034","long":"126.80076352","imageIndex":13,"items":[{"name":"퀸즈","tel":"032-672-6729","addr":"경기도 부천시 원종동 200-1번지 오성파크아파트","indutype":"보건위생 - 화장품","category":"beauty"}]},{"lat":"37.51962414","long":"126.80652118","imageIndex":13,"items":[{"name":"타임헤어샵","tel":"","addr":"경기도 부천시 원종동 366-20번지 이루미아 1층 101호","indutype":"보건위생 - 미용원","category":"beauty"}]},{"lat":"37.522476783","long":"126.80443227","imageIndex":13,"items":[{"name":"토리헤어 (원종점)","tel":"032-677-6766","addr":"경기도 부천시 원종동 224-1번지 202호","indutype":"보건위생 - 미용원","category":"beauty"}]},{"lat":"37.523727601","long":"126.79824109","imageIndex":13,"items":[{"name":"펌&컷 헤어","tel":"032-672-3380","addr":"경기도 부천시 원종동 150-2번지 1층","indutype":"보건위생 - 미용원","category":"beauty"}]},{"lat":"37.529256243","long":"126.80684664","imageIndex":13,"items":[{"name":"평안헤어컬렉션","tel":"032-683-8500","addr":"경기도 부천시 원종동 242-1번지 다솔하이빌 1층 2호","indutype":"보건위생 - 미용원","category":"beauty"}]},{"lat":"37.518845796","long":"126.80443057","imageIndex":13,"items":[{"name":"프리티네일","tel":"032-676-2542","addr":"경기도 부천시 원종동 375-6번지 1층","indutype":"보건위생 - 피부미용실","category":"beauty"}]},{"lat":"37.527065649","long":"126.80612835","imageIndex":13,"items":[{"name":"핑크","tel":"032-676-6773","addr":"경기도 부천시 원종동 274-4번지 몽주그린힐타운 1층 102호","indutype":"보건위생 - 화장품","category":"beauty"}]},{"lat":"37.528038353","long":"126.80591085","imageIndex":13,"items":[{"name":"한국불교태고종 보덕사","tel":"032-683-9518","addr":"경기도 부천시 원종동 253-7번지","indutype":"보건위생 - 기타대인서비스","category":"beauty"}]},{"lat":"37.527537983","long":"126.80843495","imageIndex":13,"items":[{"name":"한솔불한증막사우나","tel":"032-683-8114","addr":"경기도 부천시 원종동 237-13번지 동일빌딩 301,401,501","indutype":"보건위생 - 사우나","category":"beauty"}]},{"lat":"37.51920619","long":"126.80442962","imageIndex":13,"items":[{"name":"한스INC","tel":"070-7317-2957","addr":"경기도 부천시 원종동 375-3번지 그린메디칼프라자 402호","indutype":"보건위생 - 화장품","category":"beauty"}]},{"lat":"37.519007326","long":"126.80404555","imageIndex":13,"items":[{"name":"할매배미장원","tel":"070-0000-0000","addr":"경기도 부천시 원종동 375-13번지","indutype":"보건위생 - 미용원","category":"beauty"}]},{"lat":"37.525428552","long":"126.80237686","imageIndex":13,"items":[{"name":"헤라","tel":"032-682-6642","addr":"경기도 부천시 원종동 208-6번지 삼성주택","indutype":"보건위생 - 화장품","category":"beauty"}]},{"lat":"37.526979596","long":"126.80857216","imageIndex":13,"items":[{"name":"헤어 미 메시지","tel":"","addr":"경기도 부천시 원종동 237-11번지 1층 일부호","indutype":"보건위생 - 미용원","category":"beauty"}]},{"lat":"37.523873382","long":"126.79917962","imageIndex":13,"items":[{"name":"헤어뉴스","tel":"032-675-6465","addr":"경기도 부천시 원종동 151-1번지 1층","indutype":"보건위생 - 미용원","category":"beauty"}]},{"lat":"37.526479028","long":"126.80554163","imageIndex":13,"items":[{"name":"헤어스토리","tel":"032-677-4642","addr":"경기도 부천시 원종동 233-2번지 1층","indutype":"보건위생 - 미용원","category":"beauty"}]},{"lat":"37.524116415","long":"126.80976739","imageIndex":13,"items":[{"name":"헤어스토리","tel":"032-672-1766","addr":"경기도 부천시 원종동 292-6번지 르네상스아파트3차","indutype":"보건위생 - 미용원","category":"beauty"}]},{"lat":"37.52383822","long":"126.79968877","imageIndex":13,"items":[{"name":"헤어스토리 반하다","tel":"032-216-0913","addr":"경기도 부천시 원종동 199번지 1층","indutype":"보건위생 - 미용원","category":"beauty"}]},{"lat":"37.528837405","long":"126.8096534","imageIndex":13,"items":[{"name":"헤어코디","tel":"032-675-7537","addr":"경기도 부천시 원종동 301-10번지","indutype":"보건위생 - 미용원","category":"beauty"}]},{"lat":"37.51853329","long":"126.80612814","imageIndex":13,"items":[{"name":"헤어프렌즈","tel":"032-674-4331","addr":"경기도 부천시 원종동 367-9번지 1층","indutype":"보건위생 - 미용원","category":"beauty"}]},{"lat":"37.526565019","long":"126.80309784","imageIndex":13,"items":[{"name":"현헤어","tel":"032-233-5953","addr":"경기도 부천시 원종동 134번지 102호","indutype":"보건위생 - 미용원","category":"beauty"}]},{"lat":"37.523590964","long":"126.80801533","imageIndex":13,"items":[{"name":"화지사","tel":"032-348-2676","addr":"경기도 부천시 원종동 319번지 계남랑데뷰 902호","indutype":"보건위생 - 화장품","category":"beauty"}]}]