[{"lat":"37.301121217","long":"126.8987321","imageIndex":0,"items":[{"name":"과천써머","tel":"031-437-2232","addr":"경기도 안산시 상록구 건건동 941-11번지","indutype":"자동차정비 유지 - 자동차정비","category":"car"}]},{"lat":"37.306171175","long":"126.90365437","imageIndex":0,"items":[{"name":"대성모터스","tel":"031-408-0858","addr":"경기도 안산시 상록구 건건동 662번지 비동호","indutype":"자동차정비 유지 - 자동차정비","category":"car"}]},{"lat":"37.304204442","long":"126.90071303","imageIndex":0,"items":[{"name":"대성오토바이","tel":"031-437-0062","addr":"경기도 안산시 상록구 건건동 632-6번지","indutype":"자동차판매 - 이륜차판매","category":"car"}]},{"lat":"37.308955236","long":"126.90353791","imageIndex":0,"items":[{"name":"대진카센타","tel":"031-437-0825","addr":"경기도 안산시 상록구 건건동 553-2번지","indutype":"자동차정비 유지 - 자동차정비","category":"car"}]},{"lat":"37.303700723","long":"126.90170629","imageIndex":0,"items":[{"name":"동호카센타","tel":"031-437-5959","addr":"경기도 안산시 상록구 건건동 927-7번지","indutype":"자동차정비 유지 - 자동차정비","category":"car"}]},{"lat":"37.302955214","long":"126.90448198","imageIndex":0,"items":[{"name":"반월점 현대자동차","tel":"031-501-0093","addr":"경기도 안산시 상록구 건건동 895-7번지","indutype":"자동차정비 유지 - 자동차정비","category":"car"}]},{"lat":"37.30128479","long":"126.90032221","imageIndex":0,"items":[{"name":"베이티브","tel":"070-8225-1042","addr":"경기도 안산시 상록구 건건동 940-18번지","indutype":"자동차정비 유지 - 카인테리어","category":"car"}]},{"lat":"37.301177028","long":"126.90073968","imageIndex":0,"items":[{"name":"상록종합카센타","tel":"031-437-4389","addr":"경기도 안산시 상록구 건건동 940-29번지","indutype":"자동차정비 유지 - 자동차정비","category":"car"}]},{"lat":"37.310758023","long":"126.90442669","imageIndex":0,"items":[{"name":"아이루브(i-Lube)","tel":"031-437-1273","addr":"경기도 안산시 상록구 건건동 536-52번지 1층","indutype":"자동차정비 유지 - 윤활유 전문 판매","category":"car"}]},{"lat":"37.303179914","long":"126.90381621","imageIndex":0,"items":[{"name":"애니카랜드 반월점","tel":"031-502-0083","addr":"경기도 안산시 상록구 건건동 908-2번지","indutype":"자동차정비 유지 - 자동차정비","category":"car"}]},{"lat":"37.302036424","long":"126.90478771","imageIndex":0,"items":[{"name":"에스포자동차용품","tel":"031-437-3660","addr":"경기도 안산시 상록구 건건동 894-10번지 인정프린스아파트 인정상가 B동","indutype":"자동차정비 유지 - 자동차부품","category":"car"}]},{"lat":"37.304902206","long":"126.90542692","imageIndex":0,"items":[{"name":"예일카센터","tel":"031-448-8988","addr":"경기도 안산시 상록구 건건동 680-1번지 3 12/1","indutype":"자동차정비 유지 - 자동차정비","category":"car"}]},{"lat":"37.312675087","long":"126.91309903","imageIndex":0,"items":[{"name":"주식회사 타이어친구","tel":"031-417-7797","addr":"경기도 안산시 상록구 건건동 428번지 104호","indutype":"자동차정비 유지 - 자동차시트·타이어","category":"car"}]},{"lat":"37.31406172","long":"126.90082378","imageIndex":0,"items":[{"name":"튠업 개러지","tel":"","addr":"경기도 안산시 상록구 건건동 243번지","indutype":"자동차정비 유지 - 자동차시트·타이어","category":"car"}]},{"lat":"37.301230943","long":"126.90057042","imageIndex":0,"items":[{"name":"하이카프라자(건건점)","tel":"031-501-1399","addr":"경기도 안산시 상록구 건건동 940-28번지","indutype":"자동차정비 유지 - 자동차정비","category":"car"}]}]