[{"lat":"37.300760844","long":"127.01614596","imageIndex":8,"items":[{"name":"42좋은치과","tel":"031-213-4242","addr":"경기도 수원시 장안구 조원동 734-23번지 2층","indutype":"의원 - 치과의원","category":"medical"}]},{"lat":"37.303068095","long":"127.00803659","imageIndex":8,"items":[{"name":"JY피부과","tel":"031-303-1002","addr":"경기도 수원시 장안구 조원동 894번지 일호골든타워 401호","indutype":"의원 - 의원","category":"medical"},{"name":"더공감 정신건강의학과의원","tel":"031-8109-8300","addr":"경기도 수원시 장안구 조원동 894번지 일호골든타워 3층 314호","indutype":"의원 - 의원","category":"medical"},{"name":"더공감 정신건강의학과의원","tel":"031-8019-8300","addr":"경기도 수원시 장안구 조원동 894번지 일호골든타워 3층 314호","indutype":"의원 - 의원","category":"medical"},{"name":"맥 한의원","tel":"031-303-0033","addr":"경기도 수원시 장안구 조원동 894번지 일호골든타워 303호","indutype":"의원 - 한의원","category":"medical"},{"name":"밝은세상의원","tel":"031-303-1919","addr":"경기도 수원시 장안구 조원동 894번지 일호골든타워 301호","indutype":"의원 - 의원","category":"medical"},{"name":"보성약국","tel":"031-303-1566","addr":"경기도 수원시 장안구 조원동 894번지 일호골든타워 3층 312호","indutype":"약국 - 약국","category":"medical"},{"name":"서울선치과의원","tel":"031-243-0028","addr":"경기도 수원시 장안구 조원동 894번지 일호골든타워 304호","indutype":"의원 - 치과의원","category":"medical"},{"name":"연세안과","tel":"031-303-1001","addr":"경기도 수원시 장안구 조원동 894번지 일호골든타워 4층","indutype":"의원 - 의원","category":"medical"},{"name":"인사랑치과","tel":"031-303-0028","addr":"경기도 수원시 장안구 조원동 894번지 일호골든타워 305호","indutype":"의원 - 치과의원","category":"medical"},{"name":"장안성모정형외과","tel":"031-303-1777","addr":"경기도 수원시 장안구 조원동 894번지 일호골든타워 404호","indutype":"의원 - 의원","category":"medical"}]},{"lat":"37.295292172","long":"127.00972777","imageIndex":8,"items":[{"name":"경기동물영상센터","tel":"031-242-8277","addr":"경기도 수원시 장안구 조원동 675-2번지 2층","indutype":"기타의료기관 - 동물병원","category":"medical"}]},{"lat":"37.299905024","long":"127.01470213","imageIndex":8,"items":[{"name":"경희튼튼한약국","tel":"031-242-1075","addr":"경기도 수원시 장안구 조원동 766-12번지 1층 3호","indutype":"약국 - 약국","category":"medical"}]},{"lat":"37.302383243","long":"127.00951411","imageIndex":8,"items":[{"name":"고구려한의원","tel":"031-256-1275","addr":"경기도 수원시 장안구 조원동 898-2번지 예가플러스 B동 305호","indutype":"의원 - 한의원","category":"medical"}]},{"lat":"37.302067904","long":"127.00917571","imageIndex":8,"items":[{"name":"김형주비뇨기과의원","tel":"031-268-3020","addr":"경기도 수원시 장안구 조원동 898-1번지","indutype":"의원 - 의원","category":"medical"},{"name":"메가약국","tel":"031-257-7727","addr":"경기도 수원시 장안구 조원동 898-1번지 메가플러스 상가 501호","indutype":"약국 - 약국","category":"medical"},{"name":"박소아과","tel":"031-246-3375","addr":"경기도 수원시 장안구 조원동 898-1번지 매가플러스Ⅲ 304호","indutype":"의원 - 의원","category":"medical"},{"name":"밝은의원","tel":"031-257-2442","addr":"경기도 수원시 장안구 조원동 898-1번지 메가플러스 A동 403-1호","indutype":"의원 - 의원","category":"medical"},{"name":"봄빛약국","tel":"031-268-7707","addr":"경기도 수원시 장안구 조원동 898-1번지 메가플러스2차 402호","indutype":"약국 - 약국","category":"medical"},{"name":"서울한치과","tel":"031-243-2835","addr":"경기도 수원시 장안구 조원동 898-1번지 매가플러스2차 201호","indutype":"의원 - 치과의원","category":"medical"},{"name":"수담한의원","tel":"031-248-8285","addr":"경기도 수원시 장안구 조원동 898-1번지 매가플러스 3차 201호","indutype":"의원 - 한의원","category":"medical"},{"name":"아주하나내과의원","tel":"031-256-2293","addr":"경기도 수원시 장안구 조원동 898-1번지 메가플러스 303호","indutype":"의원 - 의원","category":"medical"},{"name":"연세류내과","tel":"031-241-2171","addr":"경기도 수원시 장안구 조원동 898-1번지 메가플러스2차 203호","indutype":"의원 - 의원","category":"medical"},{"name":"오렌지약국","tel":"031-268-9004","addr":"경기도 수원시 장안구 조원동 898-1번지 메가플러스2차 4층 405호","indutype":"약국 - 약국","category":"medical"},{"name":"이룸치과","tel":"031-256-7528","addr":"경기도 수원시 장안구 조원동 898-1번지 메가플러스2차 405동 1호","indutype":"의원 - 치과의원","category":"medical"},{"name":"장안365이비인후과","tel":"031-244-0075","addr":"경기도 수원시 장안구 조원동 898-1번지 메가플러스 501-1호","indutype":"의원 - 의원","category":"medical"},{"name":"장안동물병원","tel":"031-245-8961","addr":"경기도 수원시 장안구 조원동 898-1번지 매가플러스3차 111호,112호","indutype":"기타의료기관 - 동물병원","category":"medical"},{"name":"한일신경외과","tel":"031-258-5577","addr":"경기도 수원시 장안구 조원동 898-1번지 메가플러스 4층 1호","indutype":"의원 - 의원","category":"medical"},{"name":"행복마음의원","tel":"031-253-7553","addr":"경기도 수원시 장안구 조원동 898-1번지 메가플러스2차 5층 501호","indutype":"의원 - 의원","category":"medical"},{"name":"현진약국","tel":"031-251-0234","addr":"경기도 수원시 장안구 조원동 898-1번지 메가플러스 304호","indutype":"약국 - 약국","category":"medical"}]},{"lat":"37.301563303","long":"127.00967194","imageIndex":8,"items":[{"name":"노블클래식의원","tel":"031-892-8165","addr":"경기도 수원시 장안구 조원동 752-18번지","indutype":"의원 - 의원","category":"medical"},{"name":"더채움치과의원","tel":"031-305-7528","addr":"경기도 수원시 장안구 조원동 752-18번지 4층","indutype":"의원 - 치과의원","category":"medical"}]},{"lat":"37.29739948","long":"127.02034093","imageIndex":8,"items":[{"name":"동양부재당한약방","tel":"031-211-3496","addr":"경기도 수원시 장안구 조원동 519-13번지","indutype":"약국 - 한약방","category":"medical"}]},{"lat":"37.30170746","long":"127.00978475","imageIndex":8,"items":[{"name":"명리한약국","tel":"031-254-8600","addr":"경기도 수원시 장안구 조원동 752-19번지 1층 좌측호","indutype":"약국 - 한약방","category":"medical"}]},{"lat":"37.299346091","long":"127.01738637","imageIndex":8,"items":[{"name":"박영부내과의원","tel":"031-247-5032","addr":"경기도 수원시 장안구 조원동 740-1번지","indutype":"의원 - 의원","category":"medical"}]},{"lat":"37.305428761","long":"127.00836386","imageIndex":8,"items":[{"name":"새이치과","tel":"031-255-9010","addr":"경기도 수원시 장안구 조원동 881번지 한일타운 상가 202동 302호","indutype":"의원 - 치과의원","category":"medical"}]},{"lat":"37.304428422","long":"127.01172506","imageIndex":8,"items":[{"name":"서울S한의원","tel":"031-248-2378","addr":"경기도 수원시 장안구 조원동 288-7번지 조원빌딩 2층","indutype":"의원 - 한의원","category":"medical"},{"name":"조원홈플러스치과","tel":"031-242-7528","addr":"경기도 수원시 장안구 조원동 288-7조원빌딩2층6","indutype":"의원 - 치과의원","category":"medical"}]},{"lat":"37.300121027","long":"127.01692409","imageIndex":8,"items":[{"name":"소명온누리약국","tel":"031-253-9682","addr":"경기도 수원시 장안구 조원동 734-17번지","indutype":"약국 - 약국","category":"medical"},{"name":"옥돌치과","tel":"031-256-1960","addr":"경기도 수원시 장안구 조원동 734-17번지","indutype":"의원 - 치과의원","category":"medical"}]},{"lat":"37.303067126","long":"127.01888722","imageIndex":8,"items":[{"name":"아가페약국","tel":"031-268-4711","addr":"경기도 수원시 장안구 조원동 861번지 주공뉴타운 상가 101호","indutype":"약국 - 약국","category":"medical"},{"name":"튼튼사랑소아청소년과의원","tel":"031-253-7572","addr":"경기도 수원시 장안구 조원동 861번지 주공뉴타운 201,202호","indutype":"의원 - 의원","category":"medical"},{"name":"하나치과의원","tel":"031-256-5823","addr":"경기도 수원시 장안구 조원동 861번지 주공뉴타운 제가상가동 2층 207호","indutype":"의원 - 치과의원","category":"medical"}]},{"lat":"37.30265359","long":"127.00875843","imageIndex":8,"items":[{"name":"올리브치과의원","tel":"031-259-8087","addr":"경기도 수원시 장안구 조원동 896번지 4층","indutype":"의원 - 치과의원","category":"medical"}]},{"lat":"37.300896068","long":"127.01550309","imageIndex":8,"items":[{"name":"우리내과소아과의원","tel":"031-252-7510","addr":"경기도 수원시 장안구 조원동 743-5번지","indutype":"의원 - 의원","category":"medical"}]},{"lat":"37.302761178","long":"127.01558235","imageIndex":8,"items":[{"name":"우리들약국","tel":"031-255-9659","addr":"경기도 수원시 장안구 조원동 731-1번지 그린프라자 1층 101호","indutype":"약국 - 약국","category":"medical"},{"name":"좋은미래의원","tel":"031-256-8828","addr":"경기도 수원시 장안구 조원동 731-1번지 그린프라자 105호","indutype":"의원 - 의원","category":"medical"}]},{"lat":"37.300707252","long":"127.01092382","imageIndex":8,"items":[{"name":"이용기외과의원","tel":"031-207-5551","addr":"경기도 수원시 장안구 조원동 753-15번지 2층","indutype":"의원 - 의원","category":"medical"}]},{"lat":"37.300868995","long":"127.01588656","imageIndex":8,"items":[{"name":"이지치과의원","tel":"031-246-2872","addr":"경기도 수원시 장안구 조원동 734-25번지 2층","indutype":"의원 - 치과의원","category":"medical"}]},{"lat":"37.293426972","long":"127.01097944","imageIndex":8,"items":[{"name":"이필연치과의원","tel":"031-241-2838","addr":"경기도 수원시 장안구 조원동 676-12번지","indutype":"의원 - 치과의원","category":"medical"}]},{"lat":"37.299814703","long":"127.01672101","imageIndex":8,"items":[{"name":"인성약국","tel":"031-245-9190","addr":"경기도 수원시 장안구 조원동 742-7번지","indutype":"약국 - 약국","category":"medical"}]},{"lat":"37.300202133","long":"127.01681131","imageIndex":8,"items":[{"name":"조원동물병원","tel":"031-244-7975","addr":"경기도 수원시 장안구 조원동 734-18번지 1층","indutype":"기타의료기관 - 동물병원","category":"medical"}]},{"lat":"37.299598367","long":"127.01747665","imageIndex":8,"items":[{"name":"조원약국","tel":"031-254-6028","addr":"경기도 수원시 장안구 조원동 739-28번지 1층","indutype":"약국 - 약국","category":"medical"}]},{"lat":"37.299815173","long":"127.01183731","imageIndex":8,"items":[{"name":"조원하나약국","tel":"031-254-9789","addr":"경기도 수원시 장안구 조원동 762-17번지 1층","indutype":"약국 - 약국","category":"medical"}]},{"lat":"37.301319604","long":"127.01497304","imageIndex":8,"items":[{"name":"조원한의원","tel":"031-252-7588","addr":"경기도 수원시 장안구 조원동 743-1번지 1층","indutype":"의원 - 한의원","category":"medical"}]},{"lat":"37.304590231","long":"127.01580825","imageIndex":8,"items":[{"name":"조은부부한의원","tel":"031-268-5982","addr":"경기도 수원시 장안구 조원동 855번지 주공뉴타운B상가 401호","indutype":"의원 - 한의원","category":"medical"}]},{"lat":"37.309510255","long":"127.01081196","imageIndex":8,"items":[{"name":"차서한의원","tel":"070-4825-7440","addr":"경기도 수원시 장안구 조원동 119-3번지 2층","indutype":"의원 - 한의원","category":"medical"}]},{"lat":"37.302085922","long":"127.00922082","imageIndex":8,"items":[{"name":"최원주산부인과","tel":"031-244-6655","addr":"경기도 수원시 장안구 조원동 898-1번지 메가플러스 A동 301호","indutype":"의원 - 의원","category":"medical"}]},{"lat":"37.300679804","long":"127.01567223","imageIndex":8,"items":[{"name":"코코의원","tel":"031-256-7582","addr":"경기도 수원시 장안구 조원동 742번지 2층 201호","indutype":"의원 - 의원","category":"medical"},{"name":"푸름약국","tel":"","addr":"경기도 수원시 장안구 조원동 742번지","indutype":"약국 - 약국","category":"medical"}]},{"lat":"37.300652706","long":"127.01628129","imageIndex":8,"items":[{"name":"태양한의원","tel":"031-245-7585","addr":"경기도 수원시 장안구 조원동 734-22번지","indutype":"의원 - 한의원","category":"medical"}]},{"lat":"37.301346588","long":"127.01542421","imageIndex":8,"items":[{"name":"푸른한의원","tel":"031-245-3923","addr":"경기도 수원시 장안구 조원동 733-14번지 평안빌딩 301호","indutype":"의원 - 한의원","category":"medical"}]},{"lat":"37.305176209","long":"127.012526","imageIndex":8,"items":[{"name":"한명화 한의원","tel":"031-256-0256","addr":"경기도 수원시 장안구 조원동 101-4번지 조원대간타워 7층 701호","indutype":"의원 - 한의원","category":"medical"}]},{"lat":"37.30201379","long":"127.01008931","imageIndex":8,"items":[{"name":"행복사랑동물병원","tel":"031-255-7975","addr":"경기도 수원시 장안구 조원동 752번지 101호,102호,201호,202호","indutype":"기타의료기관 - 동물병원","category":"medical"}]},{"lat":"37.303400889","long":"127.01572909","imageIndex":8,"items":[{"name":"향기기있는치과의원","tel":"031-246-8020","addr":"경기도 수원시 장안구 조원동 857.3층301호","indutype":"의원 - 치과의원","category":"medical"}]}]