[{"lat":"37.122508949","long":"126.99314866","imageIndex":13,"items":[{"name":"DS당구클럽","tel":"070-8200-8040","addr":"경기도 화성시 향남읍 수직리 114-12번지 3층","indutype":"레저업소 - 당 구 장","category":"leisure"},{"name":"향남골프스크린","tel":"031-366-6024","addr":"경기도 화성시 향남읍 수직리 114-12번지 2층","indutype":"레저업소 - 스크린골프","category":"leisure"}]},{"lat":"37.12211252","long":"126.99356505","imageIndex":13,"items":[{"name":"궁전노래연습장","tel":"031-8059-1410","addr":"경기도 화성시 향남읍 수직리 117-2번지","indutype":"레저업소 - 노 래 방","category":"leisure"}]},{"lat":"37.12259013","long":"126.99426264","imageIndex":13,"items":[{"name":"삼삼오오노래연습장","tel":"","addr":"경기도 화성시 향남읍 수직리 100-4번지 2층","indutype":"레저업소 - 노 래 방","category":"leisure"}]},{"lat":"37.12211252","long":"126.99356505","imageIndex":4,"items":[{"name":"궁전호프","tel":"031-8059-1598","addr":"경기도 화성시 향남읍 수직리 117-2번지","indutype":"일반휴게음식 - 주점","category":"restaurant"}]},{"lat":"37.122698124","long":"126.99259727","imageIndex":4,"items":[{"name":"부처네왕돈까스","tel":"031-8059-6412","addr":"경기도 화성시 향남읍 수직리 114-27 108호,109호","indutype":"일반휴게음식 - 일반한식","category":"restaurant"}]},{"lat":"37.11917481","long":"126.99048239","imageIndex":4,"items":[{"name":"석정","tel":"031-354-7175","addr":"경기도 화성시 향남읍 수직리 129-6번지","indutype":"일반휴게음식 - 중국식","category":"restaurant"}]},{"lat":"37.122508949","long":"126.99314866","imageIndex":4,"items":[{"name":"설준해장국","tel":"031-8059-9990","addr":"경기도 화성시 향남읍 수직리 114-12번지","indutype":"일반휴게음식 - 일반한식","category":"restaurant"},{"name":"전주콩나루콩나물국밥","tel":"031-8059-4534","addr":"경기도 화성시 향남읍 수직리 114-12번지 101호 102","indutype":"일반휴게음식 - 일반한식","category":"restaurant"},{"name":"향원","tel":"031-354-0419","addr":"경기도 화성시 향남읍 수직리 114-12번지 103호","indutype":"일반휴게음식 - 중국식","category":"restaurant"}]},{"lat":"37.122868577","long":"126.98607082","imageIndex":4,"items":[{"name":"소담한식뷔페","tel":"031-8059-3110","addr":"경기도 화성시 향남읍 수직리 303-16번지 3동 1층","indutype":"일반휴게음식 - 일반한식","category":"restaurant"}]},{"lat":"37.122536032","long":"126.99379004","imageIndex":4,"items":[{"name":"엄마밥상","tel":"031-353-5657","addr":"경기도 화성시 향남읍 수직리 114-6번지 1층","indutype":"일반휴게음식 - 일반한식","category":"restaurant"}]},{"lat":"37.119310045","long":"126.99123624","imageIndex":4,"items":[{"name":"유가네한우맑은곰탕","tel":"031-359-8588","addr":"경기도 화성시 향남읍 수직리 128번지 1층","indutype":"일반휴게음식 - 일반한식","category":"restaurant"},{"name":"진한아구찜","tel":"031-359-8588","addr":"경기도 화성시 향남읍 수직리 128번지","indutype":"일반휴게음식 - 일반한식","category":"restaurant"}]},{"lat":"37.121896253","long":"126.99337379","imageIndex":4,"items":[{"name":"케이제이 (KJ)카페","tel":"031-2400-1768","addr":"경기도 화성시 향남읍 수직리 118-1번지 2층 일부","indutype":"일반휴게음식 - 서양음식","category":"restaurant"}]},{"lat":"37.122842216","long":"126.99176457","imageIndex":4,"items":[{"name":"향남얼큰칼국수","tel":"031-366-5581","addr":"경기도 화성시 향남읍 수직리 114-5번지 1층","indutype":"일반휴게음식 - 일반한식","category":"restaurant"}]},{"lat":"37.122139567","long":"126.99375634","imageIndex":4,"items":[{"name":"화남식당","tel":"031-354-0741","addr":"경기도 화성시 향남읍 수직리 117-1번지","indutype":"일반휴게음식 - 일반한식","category":"restaurant"}]},{"lat":"37.122003178","long":"126.98351673","imageIndex":4,"items":[{"name":"화인푸드","tel":"031-354-4761","addr":"경기도 화성시 향남읍 수직리 310번지","indutype":"일반휴게음식 - 일반한식","category":"restaurant"}]},{"lat":"37.122698124","long":"126.99259727","imageIndex":17,"items":[{"name":"금성공구","tel":"031-8059-8909","addr":"경기도 화성시 향남읍 수직리 114-27번지 A동 107호","indutype":"기타 - 기계공구","category":"other"},{"name":"기경종합상사","tel":"031-8059-6555","addr":"경기도 화성시 향남읍 수직리 114-27번지","indutype":"기타 - 기계공구","category":"other"},{"name":"기경종합상사","tel":"031-8059-6555","addr":"경기도 화성시 향남읍 수직리 114-27번지","indutype":"기타 - 기계공구","category":"other"},{"name":"성신콤프레샤","tel":"031-352-5317","addr":"경기도 화성시 향남읍 수직리 114-27","indutype":"기타 - 기계공구","category":"other"},{"name":"에어컨플러스","tel":"031-352-5319","addr":"경기도 화성시 향남읍 수직리 114-27번지 103호","indutype":"전기제품 - 냉열기기","category":"other"},{"name":"한빛시스템","tel":"031-353-3345","addr":"경기도 화성시 향남읍 수직리 114-27","indutype":"사무통신 - 사무용 OA기기","category":"other"}]},{"lat":"37.125535908","long":"126.98770189","imageIndex":17,"items":[{"name":"산천","tel":"031-353-4955","addr":"경기도 화성시 향남읍 수직리 239번지 **연번지 245","indutype":"문화.취미 - 화원","category":"other"}]},{"lat":"37.121229422","long":"126.99273249","imageIndex":17,"items":[{"name":"신도화성 사무기","tel":"070-8699-4531","addr":"경기도 화성시 향남읍 수직리 120-3번지","indutype":"사무통신 - 사무용 OA기기","category":"other"}]},{"lat":"37.119310045","long":"126.99123624","imageIndex":17,"items":[{"name":"씨스페이스 향남점","tel":"","addr":"경기도 화성시 향남읍 수직리 128번지","indutype":"유통업 영리 - 편 의 점","category":"other"}]},{"lat":"37.122508949","long":"126.99314866","imageIndex":17,"items":[{"name":"주식회사 디엠스컴퍼니","tel":"031-353-9220","addr":"경기도 화성시 향남읍 수직리 114-12번지 B동 103호","indutype":"기타 - 기계공구","category":"other"}]},{"lat":"37.122139567","long":"126.99375634","imageIndex":17,"items":[{"name":"진한철물","tel":"031-352-4702","addr":"경기도 화성시 향남읍 수직리 117-1번지","indutype":"기타 - 기계공구","category":"other"}]},{"lat":"37.122030254","long":"126.98378678","imageIndex":17,"items":[{"name":"크린스피드(병점센터)","tel":"031-239-3500","addr":"경기도 화성시 향남읍 수직리 310-3번지","indutype":"수리서비스 - 세탁소","category":"other"}]},{"lat":"37.122535967","long":"126.99297987","imageIndex":17,"items":[{"name":"평택아크릴","tel":"031-8059-7730","addr":"경기도 화성시 향남읍 수직리 114-26 B","indutype":"용역 서비스 - 종합용역","category":"other"}]},{"lat":"37.126058875","long":"126.99081885","imageIndex":17,"items":[{"name":"한국비쥬얼사이언스 연구소","tel":"070-8755-7045","addr":"경기도 화성시 향남읍 수직리 173-13번지","indutype":"문화.취미 - 티켓","category":"other"}]},{"lat":"37.125256354","long":"126.98601403","imageIndex":17,"items":[{"name":"해피플랜트","tel":"031-8059-4440","addr":"경기도 화성시 향남읍 수직리 235-4번지","indutype":"문화.취미 - 화원","category":"other"}]},{"lat":"37.125806825","long":"126.99350833","imageIndex":0,"items":[{"name":"덴트콜화성향남","tel":"070-7769-8624","addr":"경기도 화성시 향남읍 수직리 67-8번지","indutype":"자동차정비 유지 - 세차장","category":"car"}]},{"lat":"37.127139497","long":"126.98565351","imageIndex":0,"items":[{"name":"솔산카센타","tel":"031-366-2014","addr":"경기도 화성시 향남읍 수직리 272번지","indutype":"자동차정비 유지 - 자동차정비","category":"car"}]},{"lat":"37.122842216","long":"126.99176457","imageIndex":0,"items":[{"name":"윤창상사","tel":"031-366-5616","addr":"경기도 화성시 향남읍 수직리 114-5번지","indutype":"자동차정비 유지 - 자동차부품","category":"car"}]},{"lat":"37.123175625","long":"126.99197832","imageIndex":0,"items":[{"name":"한신모터스","tel":"031-353-7541","addr":"경기도 화성시 향남읍 수직리 114-1번지","indutype":"자동차정비 유지 - 자동차정비","category":"car"}]},{"lat":"37.121896253","long":"126.99337379","imageIndex":8,"items":[{"name":"성신약국","tel":"031-353-9065","addr":"경기도 화성시 향남읍 수직리 118-1번지","indutype":"약국 - 약국","category":"medical"}]},{"lat":"37.121229422","long":"126.99273249","imageIndex":7,"items":[{"name":"식자재창고형할인마트","tel":"031-354-7005","addr":"경기도 화성시 향남읍 수직리 120-3번지","indutype":"유통업 영리 - 슈퍼마켓","category":"mart"}]},{"lat":"37.123419333","long":"126.99859477","imageIndex":7,"items":[{"name":"안먹으면안파는집","tel":"031-8059-3657","addr":"경기도 화성시 향남읍 수직리 97번지 창고","indutype":"음료식품 - 농·축·수산품","category":"food"}]},{"lat":"37.12259013","long":"126.99426264","imageIndex":7,"items":[{"name":"원마트","tel":"031-1111-1111","addr":"경기도 화성시 향남읍 수직리 100-4번지 원마트정육점","indutype":"음료식품 - 정육점","category":"food"}]},{"lat":"37.123175625","long":"126.99197832","imageIndex":7,"items":[{"name":"천안 명불허전 진 호두과자","tel":"031-352-9105","addr":"경기도 화성시 향남읍 수직리 114-1번지","indutype":"음료식품 - 제과점","category":"food"}]},{"lat":"37.127806962","long":"126.99131371","imageIndex":16,"items":[{"name":"하길유치원[아이행복]","tel":"031-354-3905","addr":"경기도 화성시 향남읍 수직리 62-3번지","indutype":"학원 - 유치원","category":"study"}]}]