[{"lat":"37.323507974","long":"127.10074464","imageIndex":7,"items":[{"name":"(주)하루에프엔비","tel":"031-263-9333","addr":"경기도 용인시 수지구 풍덕천동 1195번지 수지푸르지오월드마크 108호","indutype":"음료식품 - 농·축·수산품","category":"food"},{"name":"퐈퐈네","tel":"070-4123-5858","addr":"경기도 용인시 수지구 풍덕천동 1195번지 103동 112호","indutype":"음료식품 - 농·축·수산품","category":"food"}]},{"lat":"37.325454659","long":"127.10016046","imageIndex":7,"items":[{"name":"가월가물치","tel":"031-264-2370","addr":"경기도 용인시 수지구 풍덕천동 730-1번지","indutype":"건강식품 - 기타건강식품","category":"food"}]},{"lat":"37.316655763","long":"127.09507255","imageIndex":7,"items":[{"name":"과일사랑","tel":"031-979-3434","addr":"경기도 용인시 수지구 풍덕천동 1167번지 진산마을삼성래미안5차아파트","indutype":"음료식품 - 농·축·수산품","category":"food"}]},{"lat":"37.324034424","long":"127.09596159","imageIndex":7,"items":[{"name":"광명수산도소매","tel":"031-264-3133","addr":"경기도 용인시 수지구 풍덕천동 711-3번지 1층","indutype":"음료식품 - 농·축·수산품","category":"food"}]},{"lat":"37.324458943","long":"127.09463079","imageIndex":7,"items":[{"name":"김종화푸른소아과","tel":"031-266-3010","addr":"경기도 용인시 수지구 풍덕천동 707번지 한길타운 3층","indutype":"건강식품 - 기타건강식품","category":"food"},{"name":"에스오에스수지웰빙","tel":"031-262-7588","addr":"경기도 용인시 수지구 풍덕천동 707번지 한길타운 5층","indutype":"건강식품 - 기타건강식품","category":"food"},{"name":"주식회사 에스에이치에프앤비","tel":"031-000-0000","addr":"경기도 용인시 수지구 풍덕천동 707번지 한길타운 지하 1호","indutype":"음료식품 - 기타음료식품","category":"food"},{"name":"주식회사수지문고/나뚜루","tel":"031-265-4031","addr":"경기도 용인시 수지구 풍덕천동 707번지 한길타운비01호","indutype":"음료식품 - 제과점","category":"food"}]},{"lat":"37.323728007","long":"127.09605147","imageIndex":7,"items":[{"name":"나은웰빙","tel":"031-1522-5384","addr":"경기도 용인시 수지구 풍덕천동 713-1번지 3층","indutype":"음료식품 - 기타음료식품","category":"food"}]},{"lat":"37.324286665","long":"127.09601831","imageIndex":7,"items":[{"name":"낙원떡집","tel":"031-266-3860","addr":"경기도 용인시 수지구 풍덕천동 711-2번지","indutype":"음료식품 - 제과점","category":"food"}]},{"lat":"37.324927043","long":"127.0951842","imageIndex":7,"items":[{"name":"농민축산","tel":"031-266-9249","addr":"경기도 용인시 수지구 풍덕천동 706-2번지 101호","indutype":"음료식품 - 정육점","category":"food"},{"name":"이:두부야","tel":"031-266-2369","addr":"경기도 용인시 수지구 풍덕천동 706-2번지 102호","indutype":"음료식품 - 기타음료식품","category":"food"}]},{"lat":"37.315401807","long":"127.08491804","imageIndex":7,"items":[{"name":"농업회사법인(주) 벅스마켓","tel":"","addr":"경기도 용인시 수지구 풍덕천동 1209번지 e편한세상 수지","indutype":"음료식품 - 농·축·수산품","category":"food"},{"name":"미트미트","tel":"031-276-3623","addr":"경기도 용인시 수지구 풍덕천동 1209번지 e편한세상 수지","indutype":"음료식품 - 정육점","category":"food"}]},{"lat":"37.321315445","long":"127.09325056","imageIndex":7,"items":[{"name":"대경기획","tel":"031-889-8484","addr":"경기도 용인시 수지구 풍덕천동 1093-1번지 102호","indutype":"음료식품 - 제과점","category":"food"}]},{"lat":"37.315562454","long":"127.08710675","imageIndex":7,"items":[{"name":"대흥제분소","tel":"031-262-1500","addr":"경기도 용인시 수지구 풍덕천동 554-6번지","indutype":"음료식품 - 제과점","category":"food"}]},{"lat":"37.32531396","long":"127.09585034","imageIndex":7,"items":[{"name":"도토리반찬","tel":"","addr":"경기도 용인시 수지구 풍덕천동 705-1번지 1층","indutype":"음료식품 - 기타음료식품","category":"food"}]},{"lat":"37.331361536","long":"127.09361238","imageIndex":7,"items":[{"name":"드림유통","tel":"031-755-1586","addr":"경기도 용인시 수지구 풍덕천동 663-1번지 수지4차삼성래미안","indutype":"음료식품 - 농·축·수산품","category":"food"}]},{"lat":"37.321647929","long":"127.09441301","imageIndex":7,"items":[{"name":"디어필립","tel":"070-4407-4030","addr":"경기도 용인시 수지구 풍덕천동 1080-16번지 화강빌딩 1층 101호","indutype":"음료식품 - 제과점","category":"food"},{"name":"수지중앙건강생활","tel":"031-262-7070","addr":"경기도 용인시 수지구 풍덕천동 1080-16번지 화강빌딩 502호","indutype":"회원제형태 - 건강식품","category":"food"}]},{"lat":"37.322369474","long":"127.09346619","imageIndex":7,"items":[{"name":"뚜레쥬르 수지구청역점","tel":"031-896-9166","addr":"경기도 용인시 수지구 풍덕천동 1070-5번지 1층 일부","indutype":"음료식품 - 제과점","category":"food"}]},{"lat":"37.322347659","long":"127.09829491","imageIndex":7,"items":[{"name":"마당정육점","tel":"031-266-9119","addr":"경기도 용인시 수지구 풍덕천동 724번지 1층","indutype":"음료식품 - 정육점","category":"food"}]},{"lat":"37.327201326","long":"127.10174231","imageIndex":7,"items":[{"name":"명품유통","tel":"031-264-7006","addr":"경기도 용인시 수지구 풍덕천동 739-8번지","indutype":"음료식품 - 미곡상","category":"food"}]},{"lat":"37.332428391","long":"127.10034999","imageIndex":7,"items":[{"name":"미금농산","tel":"031-266-7414","addr":"경기도 용인시 수지구 풍덕천동 671-6번지 101호","indutype":"음료식품 - 제과점","category":"food"}]},{"lat":"37.323008171","long":"127.09479826","imageIndex":7,"items":[{"name":"미담원","tel":"031-000-0000","addr":"경기도 용인시 수지구 풍덕천동 1078번지 로얄스포츠센터 123호","indutype":"음료식품 - 기타음료식품","category":"food"},{"name":"숨바이오","tel":"031-896-7171","addr":"경기도 용인시 수지구 풍덕천동 1078번지 로얄스포츠센터 301호 일부","indutype":"건강식품 - 기타건강식품","category":"food"},{"name":"우먼스라이프","tel":"031-261-8383","addr":"경기도 용인시 수지구 풍덕천동 1078번지 로얄스포츠센터 304호","indutype":"건강식품 - 기타건강식품","category":"food"},{"name":"유앤항메디칼","tel":"031-261-2226","addr":"경기도 용인시 수지구 풍덕천동 1078번지","indutype":"건강식품 - 기타건강식품","category":"food"}]},{"lat":"37.332591773","long":"127.09888333","imageIndex":7,"items":[{"name":"미르유통","tel":"070-4388-1835","addr":"경기도 용인시 수지구 풍덕천동 668번지","indutype":"음료식품 - 기타음료식품","category":"food"}]},{"lat":"37.33220395","long":"127.09935675","imageIndex":7,"items":[{"name":"미존떡볶이","tel":"","addr":"경기도 용인시 수지구 풍덕천동 680번지 1층","indutype":"음료식품 - 기타음료식품","category":"food"}]},{"lat":"37.322953193","long":"127.09597154","imageIndex":7,"items":[{"name":"베스킨라빈스","tel":"031-264-1878","addr":"경기도 용인시 수지구 풍덕천동 719번지 1층","indutype":"음료식품 - 제과점","category":"food"}]},{"lat":"37.331979464","long":"127.09840864","imageIndex":7,"items":[{"name":"분당우유주식회사","tel":"031-265-5507","addr":"경기도 용인시 수지구 풍덕천동 667-6번지","indutype":"음료식품 - 기타음료식품","category":"food"}]},{"lat":"37.32567386","long":"127.0964939","imageIndex":7,"items":[{"name":"브래드스토리","tel":"031-266-0080","addr":"경기도 용인시 수지구 풍덕천동 704번지 현대프라자 108호","indutype":"음료식품 - 제과점","category":"food"},{"name":"시골머슴","tel":"02-1577-0000","addr":"경기도 용인시 수지구 풍덕천동 704번지 현대프라자빌딩 103호","indutype":"음료식품 - 농·축·수산품","category":"food"}]},{"lat":"37.319147698","long":"127.0882502","imageIndex":7,"items":[{"name":"블랑제리 디종","tel":"070-8808-3591","addr":"경기도 용인시 수지구 풍덕천동 1051-1번지 성운코아 101호","indutype":"음료식품 - 제과점","category":"food"},{"name":"우리동네장터","tel":"000-0000-0000","addr":"경기도 용인시 수지구 풍덕천동 1051-1번지 성운코아 104호","indutype":"음료식품 - 농·축·수산품","category":"food"},{"name":"즐거운 한우","tel":"","addr":"경기도 용인시 수지구 풍덕천동 1051-1번지 성운코아 107호","indutype":"음료식품 - 정육점","category":"food"}]},{"lat":"37.323818745","long":"127.09523925","imageIndex":7,"items":[{"name":"블럭제빵소 수지구청점","tel":"031-263-1008","addr":"경기도 용인시 수지구 풍덕천동 712번지 오성빌딩 1층 102호","indutype":"음료식품 - 제과점","category":"food"}]},{"lat":"37.324455633","long":"127.09880528","imageIndex":7,"items":[{"name":"선미포차","tel":"031-262-4447","addr":"경기도 용인시 수지구 풍덕천동 716-17번지 1층","indutype":"음료식품 - 기타음료식품","category":"food"}]},{"lat":"37.321898982","long":"127.0959928","imageIndex":7,"items":[{"name":"성원식품","tel":"031-265-4669","addr":"경기도 용인시 수지구 풍덕천동 1080-20번지 중수프라자 1층 109호","indutype":"음료식품 - 기타음료식품","category":"food"},{"name":"소백산","tel":"031-276-3390","addr":"경기도 용인시 수지구 풍덕천동 1080-20번지 중수프라자 107호","indutype":"음료식품 - 정육점","category":"food"}]},{"lat":"37.332842989","long":"127.10019256","imageIndex":7,"items":[{"name":"수지방앗간","tel":"031-263-0032","addr":"경기도 용인시 수지구 풍덕천동 669-8번지","indutype":"음료식품 - 제과점","category":"food"}]},{"lat":"37.324340353","long":"127.09649224","imageIndex":7,"items":[{"name":"수지생그린","tel":"031-264-1011","addr":"경기도 용인시 수지구 풍덕천동 710-4번지","indutype":"건강식품 - 기타건강식품","category":"food"},{"name":"주식회사 팔팔구구케어","tel":"031-262-5961","addr":"경기도 용인시 수지구 풍덕천동 710-4번지 동림빌딩 5층","indutype":"건강식품 - 기타건강식품","category":"food"}]},{"lat":"37.326728186","long":"127.09632596","imageIndex":7,"items":[{"name":"수지점핑 다이어트","tel":"","addr":"경기도 용인시 수지구 풍덕천동 29-10번지 에덴프라자 2층 5호","indutype":"건강식품 - 기타건강식품","category":"food"},{"name":"오늘우리집반찬","tel":"070-1111-1111","addr":"경기도 용인시 수지구 풍덕천동 29-10번지 에덴프라자 110호","indutype":"음료식품 - 기타음료식품","category":"food"}]},{"lat":"37.315423995","long":"127.09163032","imageIndex":7,"items":[{"name":"순복음수지교회","tel":"070-8220-5787","addr":"경기도 용인시 수지구 풍덕천동 1150-4번지","indutype":"음료식품 - 기타음료식품","category":"food"}]},{"lat":"37.330784633","long":"127.09393891","imageIndex":7,"items":[{"name":"슈가라즈베리","tel":"070-4237-2605","addr":"경기도 용인시 수지구 풍덕천동 663-1번지 수지삼성아파트 상가 110호","indutype":"음료식품 - 제과점","category":"food"},{"name":"은이당","tel":"031-264-9781","addr":"경기도 용인시 수지구 풍덕천동 663-1번지 수지4차삼성래미안 109호","indutype":"음료식품 - 기타음료식품","category":"food"}]},{"lat":"37.322430956","long":"127.09551961","imageIndex":7,"items":[{"name":"슈케익하우스","tel":"","addr":"경기도 용인시 수지구 풍덕천동 1080-9번지 하나로프라자 상가동 212호","indutype":"음료식품 - 제과점","category":"food"}]},{"lat":"37.321729299","long":"127.09405208","imageIndex":7,"items":[{"name":"시온빵집","tel":"031-263-5259","addr":"경기도 용인시 수지구 풍덕천동 1080-1번지 수석빌딩 101호","indutype":"음료식품 - 제과점","category":"food"},{"name":"참다한흑홍삼(용인수지점)","tel":"031-272-3690","addr":"경기도 용인시 수지구 풍덕천동 1080-1번지 수석빌딩 105 참다한홍삼","indutype":"건강식품 - 홍삼제품","category":"food"}]},{"lat":"37.331563729","long":"127.09996524","imageIndex":7,"items":[{"name":"신수지대리점","tel":"031-266-5233","addr":"경기도 용인시 수지구 풍덕천동 679-13번지","indutype":"음료식품 - 기타음료식품","category":"food"}]},{"lat":"37.332096213","long":"127.0988827","imageIndex":7,"items":[{"name":"신한식품","tel":"031-889-5450","addr":"경기도 용인시 수지구 풍덕천동 668-5번지","indutype":"음료식품 - 제과점","category":"food"}]},{"lat":"37.319896047","long":"127.08755158","imageIndex":7,"items":[{"name":"아이스월드","tel":"031-235-8576","addr":"경기도 용인시 수지구 풍덕천동 1047-1번지 101호 거묵상가","indutype":"음료식품 - 기타음료식품","category":"food"},{"name":"연세소아청소년과(건강)","tel":"031-261-1002","addr":"경기도 용인시 수지구 풍덕천동 1047-1번지 거묵 상가 303호","indutype":"건강식품 - 기타건강식품","category":"food"}]},{"lat":"37.331789482","long":"127.09935622","imageIndex":7,"items":[{"name":"앤키친","tel":"02-1111-1111","addr":"경기도 용인시 수지구 풍덕천동 680-4번지","indutype":"음료식품 - 기타음료식품","category":"food"},{"name":"키친콤마","tel":"031-000-0000","addr":"경기도 용인시 수지구 풍덕천동 680-4번지 1층 우측","indutype":"음료식품 - 기타음료식품","category":"food"}]},{"lat":"37.326507193","long":"127.09076329","imageIndex":7,"items":[{"name":"에이치앤비네이처","tel":"031-261-2443","addr":"경기도 용인시 수지구 풍덕천동 692번지 토월마을보원아파트","indutype":"음료식품 - 기타음료식품","category":"food"}]},{"lat":"37.319211719","long":"127.09877606","imageIndex":7,"items":[{"name":"에이치케이푸드","tel":"02-443-9383","addr":"경기도 용인시 수지구 풍덕천동 1168-2번지 진산마을삼성래미안6차아파트","indutype":"음료식품 - 농·축·수산품","category":"food"}]},{"lat":"37.323484071","long":"127.09688606","imageIndex":7,"items":[{"name":"여수바다 먹거리","tel":"031-263-9011","addr":"경기도 용인시 수지구 풍덕천동 718-5번지","indutype":"음료식품 - 농·축·수산품","category":"food"}]},{"lat":"37.332428298","long":"127.10046283","imageIndex":7,"items":[{"name":"연세우유 수지대리점","tel":"031-292-6264","addr":"경기도 용인시 수지구 풍덕천동 671-7번지 1층","indutype":"음료식품 - 기타음료식품","category":"food"}]},{"lat":"37.332285289","long":"127.09905219","imageIndex":7,"items":[{"name":"영히의 그래놀라","tel":"","addr":"경기도 용인시 수지구 풍덕천동 668-10번지 1층","indutype":"음료식품 - 기타음료식품","category":"food"}]},{"lat":"37.320075012","long":"127.08926661","imageIndex":7,"items":[{"name":"오륙도수산","tel":"031-735-9709","addr":"경기도 용인시 수지구 풍덕천동 1060번지 신정마을7단지아파트","indutype":"음료식품 - 농·축·수산품","category":"food"}]},{"lat":"37.325061692","long":"127.09582747","imageIndex":7,"items":[{"name":"용인동부키즈","tel":"031-889-2141","addr":"경기도 용인시 수지구 풍덕천동 705-4번지 덕원빌딩 404호","indutype":"음료식품 - 기타음료식품","category":"food"}]},{"lat":"37.32298189","long":"127.09382795","imageIndex":7,"items":[{"name":"우리농산물","tel":"031-223-5214","addr":"경기도 용인시 수지구 풍덕천동 1074-2번지 403호","indutype":"음료식품 - 농·축·수산품","category":"food"}]},{"lat":"37.323264147","long":"127.10140997","imageIndex":7,"items":[{"name":"웰빙나라","tel":"031-896-7600","addr":"경기도 용인시 수지구 풍덕천동 85-30번지 1층","indutype":"음료식품 - 기타음료식품","category":"food"}]},{"lat":"37.331562347","long":"127.10163519","imageIndex":7,"items":[{"name":"유니코니(Uniconi)","tel":"","addr":"경기도 용인시 수지구 풍덕천동 676-15번지 101호","indutype":"음료식품 - 기타음료식품","category":"food"}]},{"lat":"37.32395198","long":"127.09766513","imageIndex":7,"items":[{"name":"이박사정육","tel":"031-263-3151","addr":"경기도 용인시 수지구 풍덕천동 717-5번지","indutype":"음료식품 - 정육점","category":"food"}]},{"lat":"37.319733507","long":"127.08804779","imageIndex":7,"items":[{"name":"이지점핑다이어트","tel":"031-264-0777","addr":"경기도 용인시 수지구 풍덕천동 1047-3번지 504호일부,505호","indutype":"건강식품 - 기타건강식품","category":"food"},{"name":"타이니베이커리","tel":"031-262-0093","addr":"경기도 용인시 수지구 풍덕천동 1047-3번지 거묵상가2 106호","indutype":"음료식품 - 제과점","category":"food"}]},{"lat":"37.330985422","long":"127.10196166","imageIndex":7,"items":[{"name":"일신푸드시스템","tel":"031-263-2621","addr":"경기도 용인시 수지구 풍덕천동 684-4번지 103호","indutype":"음료식품 - 정육점","category":"food"}]},{"lat":"37.324257928","long":"127.09816194","imageIndex":7,"items":[{"name":"임박사축산물센타","tel":"031-276-0060","addr":"경기도 용인시 수지구 풍덕천동 716-3번지","indutype":"음료식품 - 정육점","category":"food"}]},{"lat":"37.32231511","long":"127.093861","imageIndex":7,"items":[{"name":"장독대","tel":"031-896-5289","addr":"경기도 용인시 수지구 풍덕천동 1075-1번지 지층 B02호","indutype":"음료식품 - 기타음료식품","category":"food"}]},{"lat":"37.332080846","long":"127.09555402","imageIndex":7,"items":[{"name":"장성수산","tel":"070-2711-4068","addr":"경기도 용인시 수지구 풍덕천동 664번지 동아.삼익.풍림아파트","indutype":"음료식품 - 농·축·수산품","category":"food"}]},{"lat":"37.327093203","long":"127.10174217","imageIndex":7,"items":[{"name":"전라도 차여사 반찬","tel":"031-8061-7900","addr":"경기도 용인시 수지구 풍덕천동 739-9번지 102호","indutype":"음료식품 - 기타음료식품","category":"food"}]},{"lat":"37.320041222","long":"127.09807764","imageIndex":7,"items":[{"name":"정갈한 반찬","tel":"031-261-5679","addr":"경기도 용인시 수지구 풍덕천동 193-8번지 훼미리빌딩 113호","indutype":"음료식품 - 기타음료식품","category":"food"},{"name":"파리바게트","tel":"031-272-4722","addr":"경기도 용인시 수지구 풍덕천동 193-8훼미리빌딩상가동101,102호","indutype":"음료식품 - 제과점","category":"food"}]},{"lat":"37.323458162","long":"127.09546446","imageIndex":7,"items":[{"name":"정관장홍삼풍덕천점","tel":"031-264-2304","addr":"경기도 용인시 수지구 풍덕천동 712-2번지 수지코아빌딩 1층","indutype":"건강식품 - 홍삼제품","category":"food"}]},{"lat":"37.323286835","long":"127.09563348","imageIndex":7,"items":[{"name":"정관장홍삼풍덕천점","tel":"031-264-2304","addr":"경기도 용인시 수지구 풍덕천동 712-3번지","indutype":"건강식품 - 홍삼제품","category":"food"}]},{"lat":"37.314619179","long":"127.0830784","imageIndex":7,"items":[{"name":"정평낙원방앗간","tel":"031-263-8282","addr":"경기도 용인시 수지구 풍덕천동 582-8번지","indutype":"음료식품 - 제과점","category":"food"}]},{"lat":"37.323176751","long":"127.09810416","imageIndex":7,"items":[{"name":"조선닭집","tel":"031-262-5030","addr":"경기도 용인시 수지구 풍덕천동 725번지","indutype":"음료식품 - 정육점","category":"food"}]},{"lat":"37.332618694","long":"127.09901877","imageIndex":7,"items":[{"name":"종로건강원","tel":"031-276-3795","addr":"경기도 용인시 수지구 풍덕천동 668-7번지","indutype":"건강식품 - 기타건강식품","category":"food"}]},{"lat":"37.315679313","long":"127.08749044","imageIndex":7,"items":[{"name":"주몽동명","tel":"","addr":"경기도 용인시 수지구 풍덕천동 239-3번지 중앙빌딩 1층","indutype":"음료식품 - 기타음료식품","category":"food"}]},{"lat":"37.319673304","long":"127.09619313","imageIndex":7,"items":[{"name":"주식회사트윈트리코리아","tel":"031-263-2960","addr":"경기도 용인시 수지구 풍덕천동 1165번지 수지샤르망오피스텔 239호","indutype":"음료식품 - 기타음료식품","category":"food"}]},{"lat":"37.32478809","long":"127.09993396","imageIndex":7,"items":[{"name":"중국식품","tel":"031-264-4333","addr":"경기도 용인시 수지구 풍덕천동 69-131번지 엘케이하우스 101호","indutype":"음료식품 - 기타음료식품","category":"food"},{"name":"중국식품","tel":"031-264-4333","addr":"경기도 용인시 수지구 풍덕천동 69-131번지 LK하우스 1층 101호","indutype":"음료식품 - 기타음료식품","category":"food"}]},{"lat":"37.319346109","long":"127.08799095","imageIndex":7,"items":[{"name":"찬찬","tel":"031-4246-5949","addr":"경기도 용인시 수지구 풍덕천동 1049-3번지 103호","indutype":"음료식품 - 기타음료식품","category":"food"},{"name":"파리바게트 수지신정마을점","tel":"031-276-5464","addr":"경기도 용인시 수지구 풍덕천동 1049-3번지 101호","indutype":"음료식품 - 제과점","category":"food"}]},{"lat":"37.324923492","long":"127.0996295","imageIndex":7,"items":[{"name":"충남방앗간","tel":"031-262-7489","addr":"경기도 용인시 수지구 풍덕천동 729-16번지","indutype":"음료식품 - 제과점","category":"food"}]},{"lat":"37.316314083","long":"127.09415836","imageIndex":7,"items":[{"name":"커스텀커피(수지점)","tel":"031-263-2007","addr":"경기도 용인시 수지구 풍덕천동 1167번지 진산마을삼성래미안5차 1동 101호","indutype":"음료식품 - 제과점","category":"food"}]},{"lat":"37.328840747","long":"127.09087884","imageIndex":7,"items":[{"name":"파리바게뜨 수지중앙점","tel":"031-266-0056","addr":"경기도 용인시 수지구 풍덕천동 690번지 동문A상가 114~117호 상가","indutype":"음료식품 - 제과점","category":"food"}]},{"lat":"37.32218013","long":"127.09363519","imageIndex":7,"items":[{"name":"파리바게뜨(풍덕천점)","tel":"031-264-9050","addr":"경기도 용인시 수지구 풍덕천동 1070-7번지 103동 104호","indutype":"음료식품 - 제과점","category":"food"}]},{"lat":"37.32472903","long":"127.09491318","imageIndex":7,"items":[{"name":"파리바게뜨수지점","tel":"031-262-4245","addr":"경기도 용인시 수지구 풍덕천동 706번지 한빛빌딩 1층","indutype":"음료식품 - 제과점","category":"food"}]},{"lat":"37.331176698","long":"127.09946827","imageIndex":7,"items":[{"name":"파스퇴르 수지대리점","tel":"031-261-7882","addr":"경기도 용인시 수지구 풍덕천동 681-7번지","indutype":"음료식품 - 기타음료식품","category":"food"}]},{"lat":"37.316840703","long":"127.08877781","imageIndex":7,"items":[{"name":"풍덕고등학교매점","tel":"031-754-2523","addr":"경기도 용인시 수지구 풍덕천동 1121번지 풍덕고등학교","indutype":"음료식품 - 기타음료식품","category":"food"}]},{"lat":"37.323978276","long":"127.09857903","imageIndex":7,"items":[{"name":"풍덕제분소","tel":"031-262-0997","addr":"경기도 용인시 수지구 풍덕천동 728-4번지 1층","indutype":"음료식품 - 제과점","category":"food"}]},{"lat":"37.323870308","long":"127.09838709","imageIndex":7,"items":[{"name":"풍성국제통상","tel":"","addr":"경기도 용인시 수지구 풍덕천동 728-2번지 라인빌 1층 104호","indutype":"음료식품 - 기타음료식품","category":"food"}]},{"lat":"37.31731921","long":"127.08743587","imageIndex":7,"items":[{"name":"프루티","tel":"070-7787-2085","addr":"경기도 용인시 수지구 풍덕천동 1116-5번지","indutype":"음료식품 - 기타음료식품","category":"food"}]},{"lat":"37.32123412","long":"127.09355508","imageIndex":7,"items":[{"name":"하구영 베이커리","tel":"031-261-1090","addr":"경기도 용인시 수지구 풍덕천동 1091-17번지 1층 및 좌측 지","indutype":"음료식품 - 제과점","category":"food"}]},{"lat":"37.333235402","long":"127.09394186","imageIndex":7,"items":[{"name":"한국한방명가","tel":"031-266-7782","addr":"경기도 용인시 수지구 풍덕천동 661-8번지 1층","indutype":"건강식품 - 기타건강식품","category":"food"}]},{"lat":"37.324872735","long":"127.09550004","imageIndex":7,"items":[{"name":"한성한우촌마을","tel":"031-266-7122","addr":"경기도 용인시 수지구 풍덕천동 706-7번지","indutype":"음료식품 - 정육점","category":"food"}]},{"lat":"37.320819096","long":"127.09427662","imageIndex":7,"items":[{"name":"한스케익","tel":"031-272-8121","addr":"경기도 용인시 수지구 풍덕천동 1089-7번지 1층 1호","indutype":"음료식품 - 제과점","category":"food"}]},{"lat":"37.323236862","long":"127.10171456","imageIndex":7,"items":[{"name":"희망","tel":"031-262-1804","addr":"경기도 용인시 수지구 풍덕천동 85-29번지","indutype":"음료식품 - 농·축·수산품","category":"food"}]}]