[{"lat":"37.634448146","long":"127.31148741","imageIndex":0,"items":[{"name":"글로벌모터스","tel":"031-594-4334","addr":"경기도 남양주시 화도읍 창현리 190-2번지","indutype":"자동차정비 유지 - 자동차정비","category":"car"},{"name":"글로벌모터스","tel":"031-594-4334","addr":"경기도 남양주시 화도읍 창현리 190-2번지","indutype":"자동차정비 유지 - 자동차정비","category":"car"}]},{"lat":"37.640866933","long":"127.30299374","imageIndex":0,"items":[{"name":"노루너머카센타","tel":"031-593-2679","addr":"경기도 남양주시 화도읍 창현리 694-1번지","indutype":"자동차정비 유지 - 자동차정비","category":"car"}]},{"lat":"37.644060417","long":"127.30843393","imageIndex":0,"items":[{"name":"마석 차바닥","tel":"031-591-0029","addr":"경기도 남양주시 화도읍 창현리 379-4번지 1층","indutype":"자동차정비 유지 - 자동차부품","category":"car"}]},{"lat":"37.645000459","long":"127.30374687","imageIndex":0,"items":[{"name":"베가모터스","tel":"031-559-5867","addr":"경기도 남양주시 화도읍 창현리 600-6","indutype":"자동차정비 유지 - 자동차정비","category":"car"},{"name":"학사","tel":"031-591-1671","addr":"경기도 남양주시 화도읍 창현리 600-6번지 1층","indutype":"자동차정비 유지 - 세차장","category":"car"}]},{"lat":"37.641811469","long":"127.30357539","imageIndex":0,"items":[{"name":"블루마켓","tel":"031-595-2050","addr":"경기도 남양주시 화도읍 창현리 642-1번지 1층","indutype":"자동차정비 유지 - 카인테리어","category":"car"},{"name":"태후로켓트밧데리","tel":"031-593-8484","addr":"경기도 남양주시 화도읍 창현리 642-1번지","indutype":"자동차정비 유지 - 자동차부품","category":"car"}]},{"lat":"37.635389637","long":"127.31321335","imageIndex":0,"items":[{"name":"블루텍정공 (주)","tel":"031-591-1108","addr":"경기도 남양주시 화도읍 창현리 190-1번지","indutype":"자동차판매 - 기타운송","category":"car"}]},{"lat":"37.65164075","long":"127.303683","imageIndex":0,"items":[{"name":"세진세차장","tel":"031-594-6228","addr":"경기도 남양주시 화도읍 창현리 497-17번지","indutype":"자동차정비 유지 - 세차장","category":"car"}]},{"lat":"37.65075013","long":"127.30315816","imageIndex":0,"items":[{"name":"신성자동차유리","tel":"031-575-4345","addr":"경기도 남양주시 화도읍 창현리 733-1번지 월드 403호","indutype":"자동차정비 유지 - 자동차정비","category":"car"}]},{"lat":"37.641724025","long":"127.30954605","imageIndex":0,"items":[{"name":"신화도렉카","tel":"031-593-5700","addr":"경기도 남양주시 화도읍 창현리 366-19번지","indutype":"자동차정비 유지 - 견인서비스","category":"car"}]},{"lat":"37.649198016","long":"127.30762779","imageIndex":0,"items":[{"name":"오일플레이스","tel":"031-511-1810","addr":"경기도 남양주시 화도읍 창현리 438-10번지","indutype":"자동차정비 유지 - 자동차부품","category":"car"},{"name":"제트에프 존","tel":"031-593-3414","addr":"경기도 남양주시 화도읍 창현리 438-10번지 1층","indutype":"자동차정비 유지 - 윤활유 전문 판매","category":"car"}]},{"lat":"37.64794916","long":"127.30627428","imageIndex":0,"items":[{"name":"웰스포빌딩","tel":"070-4495-5200","addr":"경기도 남양주시 화도읍 창현리 551-1번지","indutype":"자동차정비 유지 - 주차장","category":"car"}]},{"lat":"37.648256708","long":"127.30579962","imageIndex":0,"items":[{"name":"자동차마을","tel":"031-511-3331","addr":"경기도 남양주시 화도읍 창현리 547-1 자동차마을","indutype":"자동차정비 유지 - 자동차정비","category":"car"}]},{"lat":"37.634308039","long":"127.31337879","imageIndex":0,"items":[{"name":"지금 특장 냉동차","tel":"031-591-4562","addr":"경기도 남양주시 화도읍 창현리 193-2번지","indutype":"자동차판매 - 기타운송","category":"car"}]},{"lat":"37.643615377","long":"127.30280085","imageIndex":0,"items":[{"name":"천광카센타","tel":"031-594-0728","addr":"경기도 남양주시 화도읍 창현리 631번지","indutype":"자동차정비 유지 - 자동차부품","category":"car"}]},{"lat":"37.635084978","long":"127.31257765","imageIndex":0,"items":[{"name":"큰별 타이어","tel":"","addr":"경기도 남양주시 화도읍 창현리 190-35번지","indutype":"자동차정비 유지 - 자동차시트·타이어","category":"car"},{"name":"큰별공업사","tel":"031-593-2941","addr":"경기도 남양주시 화도읍 창현리 190-35번지","indutype":"자동차정비 유지 - 자동차정비","category":"car"}]},{"lat":"37.651276224","long":"127.30530196","imageIndex":0,"items":[{"name":"타이어아울렛","tel":"031-511-0957","addr":"경기도 남양주시 화도읍 창현리 482-11번지 외2필지","indutype":"자동차정비 유지 - 자동차시트·타이어","category":"car"}]},{"lat":"37.642506564","long":"127.30304566","imageIndex":0,"items":[{"name":"타이어코리아TK화도점","tel":"031-559-4477","addr":"경기도 남양주시 화도읍 창현리 641-1번지","indutype":"자동차정비 유지 - 자동차시트·타이어","category":"car"}]},{"lat":"37.649893296","long":"127.30351731","imageIndex":0,"items":[{"name":"퍼펙트광택","tel":"031-593-5882","addr":"경기도 남양주시 화도읍 창현리 727-7번지 201호","indutype":"자동차정비 유지 - 카인테리어","category":"car"}]},{"lat":"37.649783989","long":"127.3074942","imageIndex":0,"items":[{"name":"평창카센타","tel":"031-594-8000","addr":"경기도 남양주시 화도읍 창현리 457-1","indutype":"자동차정비 유지 - 자동차정비","category":"car"}]},{"lat":"37.650001815","long":"127.30335911","imageIndex":0,"items":[{"name":"현대자동차화도점","tel":"031-594-0500","addr":"경기도 남양주시 화도읍 창현리 727-1번지","indutype":"자동차정비 유지 - 자동차정비","category":"car"}]}]