[{"lat":"37.420578027","long":"126.99225162","imageIndex":16,"items":[{"name":"(주)과천청산학원","tel":"02-507-0501","addr":"경기도 과천시 원문동 4번지 래미안슈르 4074~4080호","indutype":"회원제형태 - 학원","category":"study"},{"name":"감성실용음악학원","tel":"02-507-5079","addr":"경기도 과천시 원문동 4번지","indutype":"학원 - 예·체능계학원","category":"study"},{"name":"과천청산학원","tel":"02-507-0541","addr":"경기도 과천시 원문동 4번지 상가동 4061,4062,4063,4064호","indutype":"학원 - 보습학원","category":"study"},{"name":"김동수음악학원","tel":"02-503-3237","addr":"경기도 과천시 원문동 4번지 래미안슈르 상가 A동 4층 4004-17호 ,18,19호","indutype":"학원 - 예·체능계학원","category":"study"},{"name":"김재훈 태권도장","tel":"02-507-2210","addr":"경기도 과천시 원문동 4번지 래미안슈르 상가 D동 4001~4005호","indutype":"학원 - 예·체능계학원","category":"study"},{"name":"대치엠에스학원","tel":"02-504-3007","addr":"경기도 과천시 원문동 4번지 4003,4004","indutype":"학원 - 보습학원","category":"study"},{"name":"리드앤톡영어학원","tel":"","addr":"경기도 과천시 원문동 4번지 3023호,3024호","indutype":"학원 - 외국어학원","category":"study"},{"name":"리쌤주산암산수학교습소","tel":"","addr":"경기도 과천시 원문동 4번지 래미안슈르 상가동 2층 2029호","indutype":"학원 - 보습학원","category":"study"},{"name":"미술나라 미술교습소","tel":"02-507-2833","addr":"경기도 과천시 원문동 4번지 래미안 슈르 상가 A동 4004-14호","indutype":"학원 - 예·체능계학원","category":"study"},{"name":"바짝독서실","tel":"02-504-0912","addr":"경기도 과천시 원문동 4번지 래미안슈르 4층 4004호","indutype":"학원 - 독서실","category":"study"},{"name":"바탕소창작소","tel":"02-502-5885","addr":"경기도 과천시 원문동 4 래미안슈르 상가-2056","indutype":"학원 - 예·체능계학원","category":"study"},{"name":"별영어원서학원","tel":"02-504-1149","addr":"경기도 과천시 원문동 4번지 래미안슈르상가동 B동4049-4052호","indutype":"학원 - 보습학원","category":"study"},{"name":"서울음악학원","tel":"02-502-5540","addr":"경기도 과천시 원문동 4 래미안슈르상가동2055,2056호","indutype":"학원 - 예·체능계학원","category":"study"},{"name":"슈르 음악학원","tel":"02-502-7458","addr":"경기도 과천시 원문동 4번지 래미안슈르상가동 B동 2055,2056호","indutype":"학원 - 예·체능계학원","category":"study"},{"name":"슈르어린이집[아이행복]","tel":"02-3678-6262","addr":"경기도 과천시 원문동 4번지","indutype":"학원 - 유아원","category":"study"},{"name":"슈르케이학원","tel":"02-502-0579","addr":"경기도 과천시 원문동 4번지 래미안슈르 상가동 4층 4046호,4047호","indutype":"학원 - 보습학원","category":"study"},{"name":"아트스토리중앙미술학원","tel":"02-503-0941","addr":"경기도 과천시 원문동 4번지 래미안슈르 상가동 2042호, 2043호, 2044호","indutype":"학원 - 예·체능계학원","category":"study"},{"name":"엠일공팔스터디클럽","tel":"070-8248-3515","addr":"경기도 과천시 원문동 4번지 래미안슈르상가동2001호~2002호 2001호","indutype":"회원제형태 - 학원","category":"study"},{"name":"열두달작은강의국어교습소","tel":"02-470-2078","addr":"경기도 과천시 원문동 4번지 래미안슈르 상가동 1074호","indutype":"회원제형태 - 학원","category":"study"},{"name":"위즈음악교습소","tel":"031-504-3332","addr":"경기도 과천시 원문동 4번지 래미안슈르 4005호","indutype":"학원 - 예·체능계학원","category":"study"},{"name":"입시스토리학원","tel":"02-573-0137","addr":"경기도 과천시 원문동 4번지 레미안슈르C 상가 상가동 4001호,4002호","indutype":"학원 - 외국어학원","category":"study"},{"name":"케이매쓰수학학원","tel":"02-503-3845","addr":"경기도 과천시 원문동 4번지 상가 4003-4,4003-5, 4003-6","indutype":"학원 - 보습학원","category":"study"},{"name":"케이지아발레하우스학원","tel":"02-507-8255","addr":"경기도 과천시 원문동 4번지 래미안 슈르 2001호","indutype":"학원 - 예·체능계학원","category":"study"},{"name":"케이지이학원","tel":"02-3418-1236","addr":"경기도 과천시 원문동 4번지 래미안슈르제상가 2009호,2010호,2011호,2012호","indutype":"학원 - 보습학원","category":"study"},{"name":"크라스플러스 과천독서실","tel":"02-3679-8209","addr":"경기도 과천시 원문동 4번지 래미안슈르 상가동 2층 2001-2007호","indutype":"학원 - 독서실","category":"study"},{"name":"플레이팩토수학교습소","tel":"02-503-6382","addr":"경기도 과천시 원문동 4번지 래미안슈르 상가동 4048호","indutype":"학원 - 보습학원","category":"study"},{"name":"핏 스튜디오(Fit studio)","tel":"02-503-3033","addr":"경기도 과천시 원문동 4번지 래미안 슈르 상가 A동 2층 2037호","indutype":"학원 - 기능학원","category":"study"}]},{"lat":"37.452218998","long":"127.02829926","imageIndex":16,"items":[{"name":"과천청산학원","tel":"02-507-0501","addr":"경기도 과천시 원문동 4번지 래미안슈르 상가동 4061,4062,4063,4064호","indutype":"교육서비스업 - 학원","category":"study"}]},{"lat":"37.425803854","long":"126.99222829","imageIndex":16,"items":[{"name":"리드앤톡영어학원","tel":"02-503-3750","addr":"경기도 과천시 원문동 4번지 래미안 슈르 3024호 3023호, 3024호","indutype":"교육서비스업 - 영어학원","category":"study"}]},{"lat":"37.421533258","long":"126.99428495","imageIndex":16,"items":[{"name":"미래클 가정 어린이집[아이행복]","tel":"02-503-6730","addr":"경기도 과천시 원문동 4번지 래미안슈르 328동 102호","indutype":"학원 - 유아원","category":"study"}]},{"lat":"37.460850212","long":"127.0299411","imageIndex":16,"items":[{"name":"슈르 음악학원","tel":"02-502-7458","addr":"경기도 과천시 원문동 4번지 래미안슈르 상가동 B동 2055,2056호","indutype":"교육서비스업 - 음악학원","category":"study"}]},{"lat":"37.427686932","long":"126.99200206","imageIndex":16,"items":[{"name":"케이지아발레하우스학원","tel":"02-507-8255","addr":"경기도 과천시 원문동 4번지 래미안 슈르 2001호","indutype":"교육서비스업 - 발레학원","category":"study"}]},{"lat":"37.42891224","long":"126.99139179","imageIndex":16,"items":[{"name":"케이지이학원","tel":"02-3418-1236","addr":"경기도 과천시 원문동 4번지 래미안슈르제상가 2009호, 2010호, 2011호, 2012호","indutype":"교육서비스업 - 학원","category":"study"}]}]