[{"lat":"37.328538229","long":"126.92021104","imageIndex":7,"items":[{"name":"(주)이담네트워크","tel":"","addr":"경기도 군포시 대야미동 652-3번지 청담팰리스 101호","indutype":"건강식품 - 기타건강식품","category":"food"}]},{"lat":"37.326509694","long":"126.91845316","imageIndex":7,"items":[{"name":"굿모닝베이커리","tel":"031-437-7907","addr":"경기도 군포시 대야미동 662-2번지 1층 103호","indutype":"음료식품 - 제과점","category":"food"}]},{"lat":"37.31936415","long":"126.9178181","imageIndex":7,"items":[{"name":"농원시무언","tel":"031-502-9336","addr":"경기도 군포시 대야미동 496-4번지","indutype":"음료식품 - 농·축·수산품","category":"food"}]},{"lat":"37.330309946","long":"126.91562808","imageIndex":7,"items":[{"name":"달콤","tel":"","addr":"경기도 군포시 대야미동 636-8번지","indutype":"음료식품 - 기타음료식품","category":"food"}]},{"lat":"37.326842594","long":"126.9177871","imageIndex":7,"items":[{"name":"대야정육점","tel":"031-502-8885","addr":"경기도 군포시 대야미동 660-1번지 대야빌딩 108호","indutype":"음료식품 - 정육점","category":"food"},{"name":"슬림핏점핑다이어트3호점","tel":"031-418-8177","addr":"경기도 군포시 대야미동 660-1번지 대야빌딩 201호","indutype":"건강식품 - 기타건강식품","category":"food"}]},{"lat":"37.326724497","long":"126.91645587","imageIndex":7,"items":[{"name":"라라케이","tel":"","addr":"경기도 군포시 대야미동 666-2번지 개방프라자 1층","indutype":"음료식품 - 제과점","category":"food"}]},{"lat":"37.321010695","long":"126.91464602","imageIndex":7,"items":[{"name":"민호양곡직매장","tel":"031-396-9890","addr":"경기도 군포시 대야미동 527-1번지","indutype":"음료식품 - 미곡상","category":"food"}]},{"lat":"37.335397686","long":"126.92417552","imageIndex":7,"items":[{"name":"부자농장","tel":"070-9652-4721","addr":"경기도 군포시 대야미동 16번지 외1필지","indutype":"음료식품 - 농·축·수산품","category":"food"}]},{"lat":"37.331976521","long":"126.91520866","imageIndex":7,"items":[{"name":"쎌레스티얼","tel":"031-438-3330","addr":"경기도 군포시 대야미동 636-3번지 센트럴아이파크 제상가동 제지1층 109호","indutype":"음료식품 - 기타음료식품","category":"food"}]},{"lat":"37.329564939","long":"126.91956678","imageIndex":7,"items":[{"name":"주식회사 소나무","tel":"031-502-2207","addr":"경기도 군포시 대야미동 249-6번지","indutype":"음료식품 - 기타음료식품","category":"food"}]},{"lat":"37.330256711","long":"126.91675647","imageIndex":7,"items":[{"name":"착한정육점","tel":"031-0000-0000","addr":"경기도 군포시 대야미동 642-7번지 천봉프라자 114호","indutype":"음료식품 - 정육점","category":"food"}]},{"lat":"37.326311767","long":"126.91887084","imageIndex":7,"items":[{"name":"행운편의점(복권)","tel":"031-479-4349","addr":"경기도 군포시 대야미동 664-2번지 현대팰리스 101호","indutype":"음료식품 - 농·축·수산품","category":"food"}]}]