[{"lat":"37.298046554","long":"127.63499319","imageIndex":16,"items":[{"name":"K 영어학원","tel":"031-8051-1836","addr":"경기도 여주시 하동 224-12번지 2층","indutype":"학원 - 보습학원","category":"study"},{"name":"알곡학원","tel":"031-884-0330","addr":"경기도 여주시 하동 224-12번지","indutype":"학원 - 보습학원","category":"study"},{"name":"정윤교MathMaster","tel":"031-884-1536","addr":"경기도 여주시 하동 224-12번지","indutype":"회원제형태 - 학원","category":"study"}]},{"lat":"37.297078202","long":"127.63410539","imageIndex":16,"items":[{"name":"T.O.P독서실","tel":"031-883-7923","addr":"경기도 여주시 하동 272번지","indutype":"학원 - 독서실","category":"study"},{"name":"미래탑클라스학원","tel":"031-884-3073","addr":"경기도 여주시 하동 272번지","indutype":"학원 - 보습학원","category":"study"}]},{"lat":"37.297742873","long":"127.6344944","imageIndex":16,"items":[{"name":"강남수학교습소","tel":"","addr":"경기도 여주시 하동 231-3번지","indutype":"학원 - 보습학원","category":"study"}]},{"lat":"37.298163499","long":"127.635028","imageIndex":16,"items":[{"name":"건강한 미래교육센터","tel":"031-885-0333","addr":"경기도 여주시 하동 224-11번지 2층","indutype":"학원 - 기타 교육기관","category":"study"},{"name":"샘(SAM)수학학원","tel":"03-111-1111","addr":"경기도 여주시 하동 224-11번지","indutype":"학원 - 보습학원","category":"study"}]},{"lat":"37.298858882","long":"127.62793969","imageIndex":16,"items":[{"name":"경기보습학원","tel":"031-884-9530","addr":"경기도 여주시 하동 132-22번지","indutype":"학원 - 기타 교육기관","category":"study"}]},{"lat":"37.29776901","long":"127.6295773","imageIndex":16,"items":[{"name":"김연옥","tel":"","addr":"경기도 여주시 하동 137-3번지 2층","indutype":"학원 - 기타 교육기관","category":"study"}]},{"lat":"37.2993296624","long":"127.6343046591","imageIndex":16,"items":[{"name":"리드업영어어학원","tel":"031-883-1478","addr":"경기도 여주시 하동 203-2번지","indutype":"회원제형태 - 학원","category":"study"}]},{"lat":"37.298745089","long":"127.62730715","imageIndex":16,"items":[{"name":"미카수학교습소","tel":"","addr":"경기도 여주시 하동 132-17번지 1층","indutype":"학원 - 보습학원","category":"study"}]},{"lat":"37.2966022511","long":"127.6338081817","imageIndex":16,"items":[{"name":"백합어린이집[아이행복]","tel":"031-885-0691","addr":"경기도 여주시 하동 284번지","indutype":"학원 - 유아원","category":"study"}]},{"lat":"37.299853342","long":"127.62730504","imageIndex":16,"items":[{"name":"샛별어린이집[아이행복]","tel":"031-885-3007","addr":"경기도 여주시 하동 130-7번지","indutype":"학원 - 유아원","category":"study"}]},{"lat":"37.2958315063","long":"127.6296401686","imageIndex":16,"items":[{"name":"서희경무용학원","tel":"031-886-3157","addr":"경기도 여주시 하동 411-2번지","indutype":"학원 - 예·체능계학원","category":"study"}]},{"lat":"37.297217915","long":"127.63324941","imageIndex":16,"items":[{"name":"숙명 바이올린교습소","tel":"031-885-1823","addr":"경기도 여주시 하동 257-8번지","indutype":"학원 - 예·체능계학원","category":"study"}]},{"lat":"37.299742195","long":"127.62958239","imageIndex":16,"items":[{"name":"여주리빙텔","tel":"031-885-6100","addr":"경기도 여주시 하동 127-13번지","indutype":"학원 - 독서실","category":"study"}]},{"lat":"37.299467755","long":"127.63375317","imageIndex":16,"items":[{"name":"여주시청직장어린이집[아이행복]","tel":"031-882-1788","addr":"경기도 여주시 하동 202-3번지","indutype":"학원 - 유아원","category":"study"}]},{"lat":"37.2954152679","long":"127.6299750531","imageIndex":16,"items":[{"name":"여주유치원[아이행복]","tel":"031-883-7773","addr":"경기도 여주시 하동 411-7번지","indutype":"학원 - 유치원","category":"study"}]},{"lat":"37.297305188","long":"127.63378022","imageIndex":16,"items":[{"name":"유앤아이학원","tel":"031-883-3652","addr":"경기도 여주시 하동 263-4번지 3층","indutype":"학원 - 보습학원","category":"study"}]},{"lat":"37.297136107","long":"127.63338407","imageIndex":16,"items":[{"name":"큰샘학원","tel":"031-883-5155","addr":"경기도 여주시 하동 278-1번지","indutype":"학원 - 보습학원","category":"study"}]},{"lat":"37.290583409","long":"127.63719747","imageIndex":16,"items":[{"name":"피아노마을음악학원","tel":"031-884-7576","addr":"경기도 여주시 하동 232번지","indutype":"학원 - 예·체능계학원","category":"study"}]},{"lat":"37.29740892","long":"127.63291266","imageIndex":16,"items":[{"name":"하이젠수학학원","tel":"031-883-9998","addr":"경기도 여주시 하동 250-4번지","indutype":"학원 - 보습학원","category":"study"}]},{"lat":"37.296998437","long":"127.6338566","imageIndex":16,"items":[{"name":"한나피아노교습소","tel":"031-881-6577","addr":"경기도 여주시 하동 277-5번지","indutype":"학원 - 예·체능계학원","category":"study"}]},{"lat":"37.300937375","long":"127.62505825","imageIndex":16,"items":[{"name":"해와달심리발달센터","tel":"031-881-3739","addr":"경기도 여주시 하동 417-2번지","indutype":"학원 - 기타 교육기관","category":"study"}]}]