[{"lat":"37.9884563","long":"127.0801977","imageIndex":4,"items":[{"name":"고려설렁탕","tel":"031-835-2102","addr":"경기도 연천군 청산면 초성리 116-1번지","indutype":"일반휴게음식 - 일반한식","category":"restaurant"}]},{"lat":"37.97826618","long":"127.0663695","imageIndex":4,"items":[{"name":"남양가든","tel":"031-835-1651","addr":"경기도 연천군 청산면 초성리 498번지","indutype":"일반휴게음식 - 일반한식","category":"restaurant"},{"name":"초성가든","tel":"031-835-7211","addr":"경기도 연천군 청산면 초성리 498번지","indutype":"일반휴게음식 - 일반한식","category":"restaurant"}]},{"lat":"37.98298543","long":"127.0691964","imageIndex":4,"items":[{"name":"다빈카페","tel":"031-535-0825","addr":"경기도 연천군 청산면 초성리 448-2번지 1층","indutype":"일반휴게음식 - 서양음식","category":"restaurant"}]},{"lat":"37.98762688","long":"127.0810619","imageIndex":4,"items":[{"name":"대복관","tel":"031-835-0702","addr":"경기도 연천군 청산면 초성리 70-2번지","indutype":"일반휴게음식 - 중국식","category":"restaurant"}]},{"lat":"37.97854477","long":"127.0676445","imageIndex":4,"items":[{"name":"대청마루","tel":"031-835-5315","addr":"경기도 연천군 청산면 초성리 492-3","indutype":"일반휴게음식 - 일반한식","category":"restaurant"}]},{"lat":"37.98934115","long":"127.0902844","imageIndex":4,"items":[{"name":"도원가든","tel":"031-835-2757","addr":"경기도 연천군 청산면 초성리 8-6번지","indutype":"일반휴게음식 - 일반한식","category":"restaurant"}]},{"lat":"37.98798776","long":"127.0929465","imageIndex":4,"items":[{"name":"디미방","tel":"031-833-5528","addr":"경기도 연천군 청산면 초성리 7-16번지","indutype":"일반휴게음식 - 일반한식","category":"restaurant"}]},{"lat":"37.9879606","long":"127.0931172","imageIndex":4,"items":[{"name":"뜨락","tel":"031-835-8003","addr":"경기도 연천군 청산면 초성리 7-17번지","indutype":"일반휴게음식 - 일반한식","category":"restaurant"}]},{"lat":"37.98945783","long":"127.0908651","imageIndex":4,"items":[{"name":"민아 올갱이랑 매운탕","tel":"031-832-3518","addr":"경기도 연천군 청산면 초성리 11번지","indutype":"일반휴게음식 - 일반한식","category":"restaurant"}]},{"lat":"37.98678771","long":"127.0953127","imageIndex":4,"items":[{"name":"밀사랑 보리밥","tel":"031-835-1258","addr":"경기도 연천군 청산면 초성리 7-20번지","indutype":"일반휴게음식 - 일반한식","category":"restaurant"}]},{"lat":"37.98681511","long":"127.0948346","imageIndex":4,"items":[{"name":"바위소리","tel":"031-835-8588","addr":"경기도 연천군 청산면 초성리 산29번지","indutype":"일반휴게음식 - 일반한식","category":"restaurant"}]},{"lat":"37.98762733","long":"127.0930257","imageIndex":4,"items":[{"name":"버섯마루대지","tel":"031-835-1180","addr":"경기도 연천군 청산면 초성리 7-4번지","indutype":"일반휴게음식 - 일반한식","category":"restaurant"}]},{"lat":"37.98762633","long":"127.0818929","imageIndex":4,"items":[{"name":"소망식당","tel":"031-835-9081","addr":"경기도 연천군 청산면 초성리 62-1번지","indutype":"일반휴게음식 - 일반한식","category":"restaurant"}]},{"lat":"37.9970113","long":"127.0716681","imageIndex":4,"items":[{"name":"순보네대박집","tel":"","addr":"경기도 연천군 청산면 초성리 214-20번지","indutype":"일반휴게음식 - 일반한식","category":"restaurant"}]},{"lat":"37.99539962","long":"127.0700045","imageIndex":4,"items":[{"name":"연천도가니탕","tel":"070-8816-6209","addr":"경기도 연천군 청산면 초성리 188-8번지","indutype":"일반휴게음식 - 일반한식","category":"restaurant"}]},{"lat":"37.98768173","long":"127.0925818","imageIndex":4,"items":[{"name":"올리브","tel":"031-853-1198","addr":"경기도 연천군 청산면 초성리 7-30번지","indutype":"일반휴게음식 - 일반한식","category":"restaurant"}]},{"lat":"37.98801495","long":"127.0927302","imageIndex":4,"items":[{"name":"우렁이랑 쌈사랑 애","tel":"031-000-0000","addr":"경기도 연천군 청산면 초성리 7-6번지","indutype":"일반휴게음식 - 일반한식","category":"restaurant"}]},{"lat":"37.98412","long":"127.0702333","imageIndex":4,"items":[{"name":"이모네감자탕","tel":"031-833-1218","addr":"경기도 연천군 청산면 초성리 456-1번지","indutype":"일반휴게음식 - 일반한식","category":"restaurant"}]},{"lat":"37.99754256","long":"127.0721468","imageIndex":4,"items":[{"name":"자유시간","tel":"031-835-1080","addr":"경기도 연천군 청산면 초성리 212-4","indutype":"일반휴게음식 - 주점","category":"restaurant"}]},{"lat":"37.98393091","long":"127.0700624","imageIndex":4,"items":[{"name":"진짜백반","tel":"031-835-4132","addr":"경기도 연천군 청산면 초성리 456-2번지","indutype":"일반휴게음식 - 일반한식","category":"restaurant"}]},{"lat":"37.98745549","long":"127.0938906","imageIndex":4,"items":[{"name":"청산녹수","tel":"031-835-3480","addr":"경기도 연천군 청산면 초성리 산29-4번지","indutype":"일반휴게음식 - 일반한식","category":"restaurant"}]},{"lat":"37.99465088","long":"127.0717001","imageIndex":4,"items":[{"name":"청산흑가마","tel":"031-835-4950","addr":"경기도 연천군 청산면 초성리 179-1번지","indutype":"일반휴게음식 - 일반한식","category":"restaurant"}]},{"lat":"37.99742533","long":"127.0723402","imageIndex":4,"items":[{"name":"초성식당","tel":"031-835-3577","addr":"경기도 연천군 청산면 초성리 222-11번지","indutype":"일반휴게음식 - 일반한식","category":"restaurant"}]},{"lat":"38.00181615","long":"127.0663898","imageIndex":4,"items":[{"name":"카페콩피","tel":"031-832-9505","addr":"경기도 연천군 청산면 초성리 335-1번지","indutype":"일반휴게음식 - 서양음식","category":"restaurant"}]},{"lat":"37.98081439","long":"127.0688985","imageIndex":4,"items":[{"name":"풍천장어","tel":"031-835-0292","addr":"경기도 연천군 청산면 초성리 487-7번지","indutype":"일반휴게음식 - 일반한식","category":"restaurant"}]},{"lat":"37.989343","long":"127.0877572","imageIndex":4,"items":[{"name":"할머니청국장보리밥","tel":"031-835-2987","addr":"경기도 연천군 청산면 초성리 23-6","indutype":"일반휴게음식 - 일반한식","category":"restaurant"}]},{"lat":"37.98901068","long":"127.0863339","imageIndex":4,"items":[{"name":"해장국마을","tel":"031-833-1233","addr":"경기도 연천군 청산면 초성리 27-16번지 1층","indutype":"일반휴게음식 - 일반한식","category":"restaurant"}]}]