[{"lat":"37.307735118","long":"126.9933053","imageIndex":16,"items":[{"name":"관인푸른내음악학원","tel":"031-322-6621","addr":"경기도 수원시 장안구 파장동 579-10번지 2층","indutype":"학원 - 예·체능계학원","category":"study"}]},{"lat":"37.307311581","long":"126.99263984","imageIndex":16,"items":[{"name":"그림방미술학원","tel":"031-241-5008","addr":"경기도 수원시 장안구 파장동 579-36번지 3층","indutype":"학원 - 예·체능계학원","category":"study"}]},{"lat":"37.310708738","long":"126.99708385","imageIndex":16,"items":[{"name":"꾸러기동산어린이집[아이행복]","tel":"031-271-4599","addr":"경기도 수원시 장안구 파장동 291번지","indutype":"학원 - 유아원","category":"study"},{"name":"꾸러기숲어린이집[아이행복]","tel":"031-271-4599","addr":"경기도 수원시 장안구 파장동 291번지","indutype":"학원 - 유아원","category":"study"},{"name":"꾸러기숲유치원[아이행복]","tel":"031-271-4599","addr":"경기도 수원시 장안구 파장동 291번지","indutype":"학원 - 유치원","category":"study"}]},{"lat":"37.305591014","long":"126.99919353","imageIndex":16,"items":[{"name":"꾸러기세상어린이집[아이행복]","tel":"031-246-2518","addr":"경기도 수원시 장안구 파장동 603-5번지","indutype":"학원 - 유아원","category":"study"},{"name":"꾸러기세상어린이집[아이행복]","tel":"031-256-4599","addr":"경기도 수원시 장안구 파장동 603-5번지","indutype":"학원 - 유아원","category":"study"}]},{"lat":"37.306455624","long":"126.99280915","imageIndex":16,"items":[{"name":"뉴홍익학원","tel":"031-246-4861","addr":"경기도 수원시 장안구 파장동 581번지","indutype":"학원 - 기타 교육기관","category":"study"}]},{"lat":"37.3082851","long":"127.00025372","imageIndex":16,"items":[{"name":"단비학원","tel":"031-8002-5840","addr":"경기도 수원시 장안구 파장동 422-38번지","indutype":"학원 - 보습학원","category":"study"}]},{"lat":"37.305680911","long":"126.99500878","imageIndex":16,"items":[{"name":"로고스영어학원","tel":"031-241-0579","addr":"경기도 수원시 장안구 파장동 591-12번지 3층","indutype":"학원 - 외국어학원","category":"study"}]},{"lat":"37.304257397","long":"126.9967234","imageIndex":16,"items":[{"name":"마루스터디센터마루독서실","tel":"031-000-0000","addr":"경기도 수원시 장안구 파장동 495-24번지 4층및 5층 전체","indutype":"학원 - 독서실","category":"study"},{"name":"한국인재개발평생교육원","tel":"031-244-6062","addr":"경기도 수원시 장안구 파장동 495-24번지","indutype":"회원제형태 - 학원","category":"study"}]},{"lat":"37.309924203","long":"126.98923284","imageIndex":16,"items":[{"name":"명지어린이집[아이행복]","tel":"031-269-5771","addr":"경기도 수원시 장안구 파장동 568-1번지 122-104호 이목로 24SK스카이뷰","indutype":"학원 - 유아원","category":"study"}]},{"lat":"37.308374892","long":"126.99392562","imageIndex":16,"items":[{"name":"미래클어린이집[아이행복]","tel":"031-247-2290","addr":"경기도 수원시 장안구 파장동 577-8번지","indutype":"학원 - 유아원","category":"study"}]},{"lat":"37.309897945","long":"127.0009756","imageIndex":16,"items":[{"name":"박종진태권도장","tel":"031-246-5606","addr":"경기도 수원시 장안구 파장동 413-12번지 2층","indutype":"학원 - 예·체능계학원","category":"study"},{"name":"수일이레음악학원","tel":"031-255-6758","addr":"경기도 수원시 장안구 파장동 413-12번지 1층","indutype":"학원 - 예·체능계학원","category":"study"}]},{"lat":"37.309177119","long":"127.00055826","imageIndex":16,"items":[{"name":"별사탕어린이집[아이행복]","tel":"031-242-0124","addr":"경기도 수원시 장안구 파장동 422-8번지","indutype":"학원 - 유아원","category":"study"},{"name":"별사탕어린이집[아이행복]","tel":"031-242-0124","addr":"경기도 수원시 장안구 파장동 422-8번지","indutype":"학원 - 유아원","category":"study"}]},{"lat":"37.306897018","long":"126.99161343","imageIndex":16,"items":[{"name":"보석고시원","tel":"031-241-6561","addr":"경기도 수원시 장안구 파장동 572-40번지 3층","indutype":"학원 - 독서실","category":"study"}]},{"lat":"37.307762128","long":"126.99305713","imageIndex":16,"items":[{"name":"본음악학원","tel":"031-241-0885","addr":"경기도 수원시 장안구 파장동 579-1번지","indutype":"학원 - 예·체능계학원","category":"study"},{"name":"재현경희태권도장","tel":"031-246-4178","addr":"경기도 수원시 장안구 파장동 579-1번지 3층","indutype":"학원 - 예·체능계학원","category":"study"}]},{"lat":"37.308618247","long":"126.99503104","imageIndex":16,"items":[{"name":"사단법인 보듬자리","tel":"031-892-9587","addr":"경기도 수원시 장안구 파장동 584-1 101","indutype":"학원 - 기타 교육기관","category":"study"}]},{"lat":"37.307284803","long":"126.99614788","imageIndex":16,"items":[{"name":"사람과자연협동조합","tel":"031-271-6778","addr":"경기도 수원시 장안구 파장동 593-2번지 대흥빌 301호","indutype":"학원 - 기능학원","category":"study"}]},{"lat":"37.307563887","long":"126.9928654","imageIndex":16,"items":[{"name":"새은파음악학원","tel":"031-256-9301","addr":"경기도 수원시 장안구 파장동 579-3번지 2층","indutype":"학원 - 예·체능계학원","category":"study"}]},{"lat":"37.308014262","long":"126.9913651","imageIndex":16,"items":[{"name":"센트럴피아노학원","tel":"031-243-3764","addr":"경기도 수원시 장안구 파장동 572-13번지 1층","indutype":"학원 - 예·체능계학원","category":"study"}]},{"lat":"37.309717732","long":"127.00050184","imageIndex":16,"items":[{"name":"송샘의해법논술교습소","tel":"031-247-7355","addr":"경기도 수원시 장안구 파장동 409-6번지 장원빌라 3동 402호","indutype":"학원 - 보습학원","category":"study"}]},{"lat":"37.309843682","long":"126.99573029","imageIndex":16,"items":[{"name":"수원공동육아달팽이어린이집[아이행복]","tel":"031-251-3210","addr":"경기도 수원시 장안구 파장동 269-1번지","indutype":"학원 - 유아원","category":"study"}]},{"lat":"37.309843897","long":"127.00219387","imageIndex":16,"items":[{"name":"수일중학교","tel":"031-246-6112","addr":"경기도 수원시 장안구 파장동 414-1번지 수원수일중학교","indutype":"학원 - 초중고교육기관","category":"study"}]},{"lat":"37.310645787","long":"127.00061461","imageIndex":16,"items":[{"name":"수일초등학교","tel":"031-242-5932","addr":"경기도 수원시 장안구 파장동 411번지 수일초등학교","indutype":"학원 - 초중고교육기관","category":"study"}]},{"lat":"37.310150048","long":"126.99603482","imageIndex":16,"items":[{"name":"아랑어린이집[아이행복]","tel":"031-252-0641","addr":"경기도 수원시 장안구 파장동 275-2번지","indutype":"학원 - 유아원","category":"study"}]},{"lat":"37.308564061","long":"126.99333903","imageIndex":16,"items":[{"name":"영수공감교습소","tel":"031-271-5301","addr":"경기도 수원시 장안구 파장동 575-25번지 2층","indutype":"학원 - 보습학원","category":"study"}]},{"lat":"37.307149412","long":"126.99280906","imageIndex":16,"items":[{"name":"유타스학원","tel":"031-246-7230","addr":"경기도 수원시 장안구 파장동 579-38번지 3층","indutype":"학원 - 보습학원","category":"study"}]},{"lat":"37.307816407","long":"126.9961704","imageIndex":16,"items":[{"name":"이해법셀파수학곡선초점교습소","tel":"","addr":"경기도 수원시 장안구 파장동 585-9번지 착한빌 201호","indutype":"학원 - 보습학원","category":"study"}]},{"lat":"37.315177949","long":"127.00281428","imageIndex":16,"items":[{"name":"인영아동상담소","tel":"031-271-2019","addr":"경기도 수원시 장안구 파장동 342-7번지","indutype":"학원 - 기타 교육기관","category":"study"}]},{"lat":"37.307537157","long":"126.99747889","imageIndex":16,"items":[{"name":"주식회사데우스","tel":"031-269-3939","addr":"경기도 수원시 장안구 파장동 594-2번지 에스씨씨빌딩 6층","indutype":"회원제형태 - 학원","category":"study"}]},{"lat":"37.308564119","long":"126.99408352","imageIndex":16,"items":[{"name":"즐거운음악학원","tel":"031-245-1356","addr":"경기도 수원시 장안구 파장동 577-6번지","indutype":"학원 - 예·체능계학원","category":"study"}]},{"lat":"37.30884375","long":"127.00108843","imageIndex":16,"items":[{"name":"차일드푸드 아동요리교실","tel":"","addr":"경기도 수원시 장안구 파장동 418-5번지","indutype":"학원 - 기타 교육기관","category":"study"}]},{"lat":"37.306708215","long":"126.99744511","imageIndex":16,"items":[{"name":"참빛어린이집[아이행복]","tel":"031-245-7495","addr":"경기도 수원시 장안구 파장동 596-14번지","indutype":"학원 - 유아원","category":"study"}]},{"lat":"37.303869964","long":"126.99687007","imageIndex":16,"items":[{"name":"콕콕수학학원","tel":"031-242-9016","addr":"경기도 수원시 장안구 파장동 495-27번지 2층","indutype":"학원 - 보습학원","category":"study"}]},{"lat":"37.308068458","long":"126.99284278","imageIndex":16,"items":[{"name":"튼튼영어마스터클럽장안파장학원","tel":"031-269-5605","addr":"경기도 수원시 장안구 파장동 573-26번지 1,2층","indutype":"학원 - 외국어학원","category":"study"}]},{"lat":"37.308816262","long":"126.99233507","imageIndex":16,"items":[{"name":"파장유치원[아이행복]","tel":"031-269-1932","addr":"경기도 수원시 장안구 파장동 574번지 파장초등학교","indutype":"학원 - 유치원","category":"study"},{"name":"파장초등학교","tel":"031-244-6901","addr":"경기도 수원시 장안구 파장동 574번지 파장초등학교","indutype":"학원 - 초중고교육기관","category":"study"}]},{"lat":"37.307176844","long":"127.00033272","imageIndex":16,"items":[{"name":"플레이더피아노","tel":"031-251-6227","addr":"경기도 수원시 장안구 파장동 627-5번지 4층","indutype":"학원 - 예·체능계학원","category":"study"}]},{"lat":"37.30734803","long":"126.99997176","imageIndex":16,"items":[{"name":"하얀음악학원","tel":"031-255-5758","addr":"경기도 수원시 장안구 파장동 627-3번지 3층","indutype":"학원 - 예·체능계학원","category":"study"}]},{"lat":"37.320258896","long":"126.9890279","imageIndex":16,"items":[{"name":"한국보건복지평생교육원","tel":"031-254-2691","addr":"경기도 수원시 장안구 파장동 89-2번지","indutype":"학원 - 기타 교육기관","category":"study"}]},{"lat":"37.30895111","long":"126.98933454","imageIndex":16,"items":[{"name":"한국체육사관학교교육원","tel":"031-269-1504","addr":"경기도 수원시 장안구 파장동 570-22번지 102호","indutype":"회원제형태 - 학원","category":"study"}]},{"lat":"37.304509713","long":"126.99733247","imageIndex":16,"items":[{"name":"한빛어린이집[아이행복]","tel":"031-251-0888","addr":"경기도 수원시 장안구 파장동 501-17번지","indutype":"학원 - 유아원","category":"study"}]},{"lat":"37.307843225","long":"126.99311352","imageIndex":16,"items":[{"name":"해법영어수학파장탑학원","tel":"031-269-0841","addr":"경기도 수원시 장안구 파장동 579번지 2층","indutype":"학원 - 보습학원","category":"study"}]},{"lat":"37.305618051","long":"126.99941912","imageIndex":16,"items":[{"name":"행복한피아노","tel":"031-251-6227","addr":"경기도 수원시 장안구 파장동 603-3번지 수원성 101호","indutype":"학원 - 예·체능계학원","category":"study"}]},{"lat":"37.308347882","long":"126.99419634","imageIndex":16,"items":[{"name":"헬스플러스","tel":"031-252-5995","addr":"경기도 수원시 장안구 파장동 577-2번지 영림프라자 3층 301호","indutype":"회원제형태 - 학원","category":"study"}]}]