[{"lat":"37.705481518","long":"126.73149459","imageIndex":13,"items":[{"name":"2002노래연습장","tel":"031-946-2075","addr":"경기도 파주시 동패동 303-5번지","indutype":"레저업소 - 노 래 방","category":"leisure"}]},{"lat":"37.725702388","long":"126.71766178","imageIndex":13,"items":[{"name":"K팝스타 코인노래연습장","tel":"031-947-0116","addr":"경기도 파주시 동패동 1695-3번지 미소시티","indutype":"레저업소 - 노 래 방","category":"leisure"},{"name":"mindbody (마인드버디)","tel":"031-941-1074","addr":"경기도 파주시 동패동 1695-3번지 미소시티","indutype":"레저업소 - 헬스클럽","category":"leisure"},{"name":"진플로우명상요가","tel":"031-943-0644","addr":"경기도 파주시 동패동 1695-3번지 미소시티","indutype":"레저업소 - 헬스클럽","category":"leisure"},{"name":"킹당구클럽","tel":"070-4540-5331","addr":"경기도 파주시 동패동 1695-3번지 미소시티","indutype":"레저업소 - 당 구 장","category":"leisure"}]},{"lat":"37.70664827","long":"126.73346352","imageIndex":13,"items":[{"name":"VIP노래연습장","tel":"031-946-2031","addr":"경기도 파주시 동패동 291-1","indutype":"레저업소 - 노 래 방","category":"leisure"}]},{"lat":"37.725845279","long":"126.72088265","imageIndex":13,"items":[{"name":"강재영줄넘기학교","tel":"031-856-0262","addr":"경기도 파주시 동패동 1698번지","indutype":"레저업소 - 기타레져업소","category":"leisure"}]},{"lat":"37.706374686","long":"126.73202432","imageIndex":13,"items":[{"name":"교하 탁구클럽","tel":"031-939-1700","addr":"경기도 파주시 동패동 285-1번지","indutype":"레저업소 - 기타레져업소","category":"leisure"}]},{"lat":"37.724594277","long":"126.71768871","imageIndex":13,"items":[{"name":"교하에이스탁구","tel":"070-8865-2120","addr":"경기도 파주시 동패동 1694-2번지","indutype":"레저업소 - 기타레져업소","category":"leisure"},{"name":"라이또 PC 파주 동패점","tel":"070-7261-7797","addr":"경기도 파주시 동패동 1694-2번지","indutype":"레저업소 - 기타레져업소","category":"leisure"},{"name":"매니아당구클럽","tel":"031-942-3949","addr":"경기도 파주시 동패동 1694-2번지","indutype":"레저업소 - 당 구 장","category":"leisure"},{"name":"슈퍼키즈스카이방방","tel":"031-948-1575","addr":"경기도 파주시 동패동 1694-2번지","indutype":"레저업소 - 기타레져업소","category":"leisure"},{"name":"타임노래연습장","tel":"031-946-9390","addr":"경기도 파주시 동패동 1694-2번지","indutype":"레저업소 - 노 래 방","category":"leisure"}]},{"lat":"37.724981685","long":"126.71768723","imageIndex":13,"items":[{"name":"노랑풍선","tel":"031-8071-2259","addr":"경기도 파주시 동패동 1694-1,트리플메디칼타워4층405호,406호","indutype":"레저업소 - 기타레져업소","category":"leisure"},{"name":"몬드필라테스","tel":"","addr":"경기도 파주시 동패동 1694-1번지","indutype":"레저업소 - 헬스클럽","category":"leisure"},{"name":"커브스 교하 클럽","tel":"031-945-9930","addr":"경기도 파주시 동패동 1694-1번지","indutype":"레저업소 - 헬스클럽","category":"leisure"},{"name":"쿨세븐노래연습장","tel":"031-949-9782","addr":"경기도 파주시 동패동 1694-1번지","indutype":"레저업소 - 노 래 방","category":"leisure"}]},{"lat":"37.725235238","long":"126.71821937","imageIndex":13,"items":[{"name":"달노래연습장","tel":"031-942-7034","addr":"경기도 파주시 동패동 1696-2번지 외1필지210,211호","indutype":"레저업소 - 노 래 방","category":"leisure"},{"name":"로커스당구장","tel":"031-945-4939","addr":"경기도 파주시 동패동 1696-2번지 외1필지,601,602호","indutype":"레저업소 - 당 구 장","category":"leisure"},{"name":"이지탁구교실","tel":"031-111-1111","addr":"경기도 파주시 동패동 1696-2번지","indutype":"레저업소 - 기타레져업소","category":"leisure"},{"name":"파우 PC방","tel":"","addr":"경기도 파주시 동패동 1696-2번지","indutype":"레저업소 - 기타레져업소","category":"leisure"},{"name":"퍼스트짐","tel":"031-941-0801","addr":"경기도 파주시 동패동 1696-2번지","indutype":"레저업소 - 헬스클럽","category":"leisure"},{"name":"펀치레이디","tel":"031-947-8287","addr":"경기도 파주시 동패동 1696-2번지","indutype":"레저업소 - 헬스클럽","category":"leisure"}]},{"lat":"37.711952394","long":"126.74441097","imageIndex":13,"items":[{"name":"더엠 휘트니스","tel":"031-944-8883","addr":"경기도 파주시 동패동 1758번지","indutype":"레저업소 - 헬스클럽","category":"leisure"},{"name":"사이조은노래연습장","tel":"031-944-4838","addr":"경기도 파주시 동패동 1758번지","indutype":"레저업소 - 노 래 방","category":"leisure"},{"name":"애스트로맨","tel":"031-944-6262","addr":"경기도 파주시 동패동 1758번지","indutype":"레저업소 - 기타레져업소","category":"leisure"}]},{"lat":"37.705649134","long":"126.75015953","imageIndex":13,"items":[{"name":"드림스포츠","tel":"031-944-5946","addr":"경기도 파주시 동패동 39-34번지","indutype":"레저업소 - 기타레져업소","category":"leisure"}]},{"lat":"37.72554156","long":"126.7182182","imageIndex":13,"items":[{"name":"라임노래연습장","tel":"031-000-0000","addr":"경기도 파주시 동패동 1696-1번지","indutype":"레저업소 - 노 래 방","category":"leisure"}]},{"lat":"37.725450177","long":"126.71768543","imageIndex":13,"items":[{"name":"럭셔리비노래연습장","tel":"031-946-0232","addr":"경기도 파주시 동패동 1695-4번지","indutype":"레저업소 - 노 래 방","category":"leisure"},{"name":"스타당구장","tel":"070-8242-8253","addr":"경기도 파주시 동패동 1695-4번지","indutype":"레저업소 - 당 구 장","category":"leisure"}]},{"lat":"37.726036999","long":"126.71818227","imageIndex":13,"items":[{"name":"리베르필라테스","tel":"","addr":"경기도 파주시 동패동 1695-1번지","indutype":"레저업소 - 헬스클럽","category":"leisure"},{"name":"수노래연습장","tel":"02-948-3093","addr":"경기도 파주시 동패동 1695-1번지","indutype":"레저업소 - 노 래 방","category":"leisure"},{"name":"스마일리수 베스트코칭","tel":"031-941-0524","addr":"경기도 파주시 동패동 1695-1번지","indutype":"레저업소 - 헬스클럽","category":"leisure"},{"name":"어우러짐(GYM)","tel":"031-949-5333","addr":"경기도 파주시 동패동 1695-1번지","indutype":"레저업소 - 헬스클럽","category":"leisure"},{"name":"홀릭PC방","tel":"070-8816-1183","addr":"경기도 파주시 동패동 1695-1번지","indutype":"레저업소 - 기타레져업소","category":"leisure"}]},{"lat":"37.711649145","long":"126.74581828","imageIndex":13,"items":[{"name":"리체필라테스","tel":"031-1111-1111","addr":"경기도 파주시 동패동 1759-4번지","indutype":"레저업소 - 헬스클럽","category":"leisure"}]},{"lat":"37.711184493","long":"126.74346101","imageIndex":13,"items":[{"name":"리틀스타레포츠","tel":"031-925-7529","addr":"경기도 파주시 동패동 1753번지 휴먼시아한울마을","indutype":"레저업소 - 기타레져업소","category":"leisure"}]},{"lat":"37.710953356","long":"126.74487941","imageIndex":13,"items":[{"name":"몸에 봄을 피우다","tel":"031-945-8437","addr":"경기도 파주시 동패동 1761-4번지","indutype":"레저업소 - 헬스클럽","category":"leisure"},{"name":"에스에스당구클럽","tel":"031-946-4030","addr":"경기도 파주시 동패동 1761-4번지","indutype":"레저업소 - 당 구 장","category":"leisure"}]},{"lat":"37.711011466","long":"126.73857374","imageIndex":13,"items":[{"name":"바운스 당구장","tel":"031-948-0907","addr":"경기도 파주시 동패동 1901번지","indutype":"레저업소 - 당 구 장","category":"leisure"},{"name":"에이스노래연습장","tel":"031-947-8915","addr":"경기도 파주시 동패동 1901번지","indutype":"레저업소 - 노 래 방","category":"leisure"}]},{"lat":"37.705596154","long":"126.74648557","imageIndex":13,"items":[{"name":"베스트골프존","tel":"031-949-0744","addr":"경기도 파주시 동패동 22-5번지","indutype":"레저업소 - 스크린골프","category":"leisure"}]},{"lat":"37.725981873","long":"126.71774011","imageIndex":13,"items":[{"name":"뷰티클30+","tel":"031-957-7765","addr":"경기도 파주시 동패동 1695-2 센타프라자 304","indutype":"레저업소 - 헬스클럽","category":"leisure"},{"name":"샤넬노래연습장","tel":"031-947-3348","addr":"경기도 파주시 동패동 1695-2 센타프라자301","indutype":"레저업소 - 노 래 방","category":"leisure"},{"name":"센스노래연습장","tel":"031-947-3348","addr":"경기도 파주시 동패동 1695-2번지","indutype":"레저업소 - 노 래 방","category":"leisure"},{"name":"차정환짐(GYM)","tel":"070-7420-0780","addr":"경기도 파주시 동패동 1695-2번지","indutype":"레저업소 - 헬스클럽","category":"leisure"},{"name":"캐롬가브리엘클럽","tel":"031-946-4939","addr":"경기도 파주시 동패동 1695-2번지","indutype":"레저업소 - 당 구 장","category":"leisure"}]},{"lat":"37.711315743","long":"126.74579675","imageIndex":13,"items":[{"name":"블럭킹","tel":"031-948-1880","addr":"경기도 파주시 동패동 1759-5번지","indutype":"레저업소 - 기타레져업소","category":"leisure"},{"name":"팀 에이스","tel":"031-944-3248","addr":"경기도 파주시 동패동 1759-5번지","indutype":"레저업소 - 헬스클럽","category":"leisure"},{"name":"한빛노래연습장","tel":"031-943-8889","addr":"경기도 파주시 동패동 1759-5번지","indutype":"레저업소 - 노 래 방","category":"leisure"}]},{"lat":"37.711982274","long":"126.74571507","imageIndex":13,"items":[{"name":"비어드짐(Beard gym)","tel":"031-948-0911","addr":"경기도 파주시 동패동 1759-2번지","indutype":"레저업소 - 헬스클럽","category":"leisure"}]},{"lat":"37.705762403","long":"126.73218531","imageIndex":13,"items":[{"name":"삽다리노래연습장","tel":"031-946-1049","addr":"경기도 파주시 동패동 301-1번지","indutype":"레저업소 - 노 래 방","category":"leisure"}]},{"lat":"37.711154881","long":"126.73824435","imageIndex":13,"items":[{"name":"스위티PC방","tel":"031-812-1287","addr":"경기도 파주시 동패동 1899-1번지","indutype":"레저업소 - 기타레져업소","category":"leisure"},{"name":"프라임VIP","tel":"031-943-9633","addr":"경기도 파주시 동패동 1899-1번지","indutype":"레저업소 - 헬스클럽","category":"leisure"}]},{"lat":"37.711682034","long":"126.74437788","imageIndex":13,"items":[{"name":"시네마4PC방","tel":"","addr":"경기도 파주시 동패동 1758-1번지","indutype":"레저업소 - 기타레져업소","category":"leisure"}]},{"lat":"37.711205622","long":"126.74487853","imageIndex":13,"items":[{"name":"에이치짐(HGYU)2호점","tel":"031-948-0116","addr":"경기도 파주시 동패동 1761-5번지","indutype":"레저업소 - 헬스클럽","category":"leisure"}]},{"lat":"37.711430935","long":"126.74491177","imageIndex":13,"items":[{"name":"요가트리","tel":"031-948-7569","addr":"경기도 파주시 동패동 1761-6번지","indutype":"레저업소 - 헬스클럽","category":"leisure"},{"name":"준짐(JUN GYM)","tel":"070-8990-5231","addr":"경기도 파주시 동패동 1761-6번지","indutype":"레저업소 - 헬스클럽","category":"leisure"}]},{"lat":"37.710988226","long":"126.74434627","imageIndex":13,"items":[{"name":"운정 에이스 스크린","tel":"031-948-7879","addr":"경기도 파주시 동패동 1758-4번지","indutype":"레저업소 - 스크린골프","category":"leisure"},{"name":"챌린저PC방","tel":"02-222-2222","addr":"경기도 파주시 동패동 1758-4번지","indutype":"레저업소 - 기타레져업소","category":"leisure"},{"name":"타우짐","tel":"070-4137-0055","addr":"경기도 파주시 동패동 1758-4번지","indutype":"레저업소 - 헬스클럽","category":"leisure"}]},{"lat":"37.710982391","long":"126.74579791","imageIndex":13,"items":[{"name":"인디고PC방 운정신도시점","tel":"","addr":"경기도 파주시 동패동 1759-6번지","indutype":"레저업소 - 기타레져업소","category":"leisure"},{"name":"커브스 운정클럽","tel":"031-942-1363","addr":"경기도 파주시 동패동 1759-6번지","indutype":"레저업소 - 헬스클럽","category":"leisure"}]},{"lat":"37.710954149","long":"126.74524231","imageIndex":13,"items":[{"name":"줄리엣노래연습장","tel":"031-948-6605","addr":"경기도 파주시 동패동 1761-3번지","indutype":"레저업소 - 노 래 방","category":"leisure"}]},{"lat":"37.724478168","long":"126.71810884","imageIndex":13,"items":[{"name":"케이탑PC방(교하점),케이탑푸드(동패점)","tel":"02-988-6886","addr":"경기도 파주시 동패동 1694-3번지","indutype":"레저업소 - 기타레져업소","category":"leisure"}]},{"lat":"37.711342832","long":"126.73768798","imageIndex":13,"items":[{"name":"큐이디 스크린골프죤","tel":"031-944-5011","addr":"경기도 파주시 동패동 1898번지","indutype":"레저업소 - 스크린골프","category":"leisure"}]}]