[{"lat":"36.979804331","long":"127.07491992","imageIndex":17,"items":[{"name":"㈜해들촌 농업회사법인","tel":"","addr":"경기도 평택시 팽성읍 신궁리 104번지","indutype":"제조업 - 고춧가루","category":"other"}]},{"lat":"36.984220353","long":"127.07364363","imageIndex":17,"items":[{"name":"루소코리아","tel":"041-622-2285","addr":"경기도 평택시 팽성읍 신궁리 146-9번지 1층","indutype":"주방용구 - 주방용구","category":"other"}]},{"lat":"36.981603885","long":"127.06342044","imageIndex":17,"items":[{"name":"박정순샐러드삼","tel":"","addr":"경기도 평택시 팽성읍 신궁리 664-1번지","indutype":"소매업 - 농산물","category":"other"}]},{"lat":"36.980554405","long":"127.07122547","imageIndex":17,"items":[{"name":"선경씽크","tel":"031-691-6763","addr":"경기도 평택시 팽성읍 신궁리 143-16번지 1층","indutype":"주방용구 - 주방용구","category":"other"}]},{"lat":"36.983635281","long":"127.07258729","imageIndex":17,"items":[{"name":"세종마대산업","tel":"031-657-7037","addr":"경기도 평택시 팽성읍 신궁리 146-25번지","indutype":"유통업 영리 - 기타유통업","category":"other"}]},{"lat":"36.981581127","long":"127.07209123","imageIndex":17,"items":[{"name":"에이스(ACE)/원격지","tel":"031-618-6771","addr":"경기도 평택시 팽성읍 신궁리 144-30번지 공장 B동","indutype":"기타 - 기타 전문점","category":"other"}]},{"lat":"36.98468937","long":"127.07286906","imageIndex":17,"items":[{"name":"용성상사","tel":"031-655-9429","addr":"경기도 평택시 팽성읍 신궁리 164-7번지","indutype":"건축자재 - 기타건축자재","category":"other"}]},{"lat":"36.978190112","long":"127.07702985","imageIndex":17,"items":[{"name":"유성산업","tel":"031-658-6000","addr":"경기도 평택시 팽성읍 신궁리 57-2번지","indutype":"건축자재 - 보일러·펌프·샷시","category":"other"}]},{"lat":"36.978383468","long":"127.07008919","imageIndex":17,"items":[{"name":"청전에프엔비","tel":"031-691-7402","addr":"경기도 평택시 팽성읍 신궁리 193번지","indutype":"소매업 - 꿀","category":"other"}]},{"lat":"36.981910591","long":"127.0785385","imageIndex":17,"items":[{"name":"카스저울","tel":"031-653-0202","addr":"경기도 평택시 팽성읍 신궁리 11-152번지","indutype":"주방용구 - 주방용구","category":"other"},{"name":"카스저울","tel":"031-656-3100","addr":"경기도 평택시 팽성읍 신궁리 11-152번지","indutype":"서적문구 - 과학기자재","category":"other"}]},{"lat":"36.977246262","long":"127.07328902","imageIndex":17,"items":[{"name":"평택과수농협  농산물관리유통센터","tel":"031-653-1425","addr":"경기도 평택시 팽성읍 신궁리 140번지","indutype":"도소매업 - 농산물","category":"other"}]},{"lat":"36.981190068","long":"127.0780099","imageIndex":17,"items":[{"name":"하이테크냉동기계","tel":"031-691-3467","addr":"경기도 평택시 팽성읍 신궁리 26-2","indutype":"용역 서비스 - 기타용역서비스","category":"other"}]}]