[{"lat":"37.838175327","long":"127.20091331","imageIndex":4,"items":[{"name":"거북이생고기식당","tel":"031-541-4841","addr":"경기도 포천시 가산면 금현리 303-7번지","indutype":"일반휴게음식 - 일반한식","category":"restaurant"},{"name":"거북이생고기식당","tel":"541-4841","addr":"경기도 포천시 가산면 금현리 303-7번지","indutype":"음식 - 한식","category":"restaurant"},{"name":"고인돌치킨","tel":"541-8901","addr":"경기도 포천시 가산면 금현리 303-7번지","indutype":"음식 - 치킨","category":"restaurant"},{"name":"고인돌치킨","tel":"031-541-8901","addr":"경기도 포천시 가산면 금현리 303-7번지","indutype":"일반휴게음식 - 스넥","category":"restaurant"},{"name":"용수식당","tel":"02-2283-1345","addr":"경기도 포천시 가산면 금현리 303-7번지","indutype":"일반휴게음식 - 일반한식","category":"restaurant"},{"name":"용수식당","tel":"541-5829","addr":"경기도 포천시 가산면 금현리 303-7번지","indutype":"음식 - 한식","category":"restaurant"}]},{"lat":"37.838064722","long":"127.20238984","imageIndex":4,"items":[{"name":"김춘성가마솥곰탕","tel":"031-541-9759","addr":"경기도 포천시 가산면 금현리 304-12번지 1층","indutype":"일반휴게음식 - 일반한식","category":"restaurant"}]},{"lat":"37.827036508","long":"127.20280313","imageIndex":4,"items":[{"name":"다래식당","tel":"031-533-7984","addr":"경기도 포천시 가산면 금현리 158-3번지","indutype":"일반휴게음식 - 일반한식","category":"restaurant"},{"name":"다래식당","tel":"533-7983","addr":"경기도 포천시 가산면 금현리 158-3번지","indutype":"음식 - 한식","category":"restaurant"}]},{"lat":"37.837754493","long":"127.19935585","imageIndex":4,"items":[{"name":"다올한식부페","tel":"031-544-2094","addr":"경기도 포천시 가산면 금현리 350-5번지","indutype":"일반휴게음식 - 일반한식","category":"restaurant"}]},{"lat":"37.837480286","long":"127.2016953","imageIndex":4,"items":[{"name":"대박한식뷔페","tel":"031-544-8321","addr":"경기도 포천시 가산면 금현리 277-4번지","indutype":"일반휴게음식 - 일반한식","category":"restaurant"},{"name":"대박한식뷔페","tel":"","addr":"경기도 포천시 가산면 금현리 277-4번지","indutype":"음식 - 한식","category":"restaurant"}]},{"lat":"37.83837054","long":"127.20268603","imageIndex":4,"items":[{"name":"무대리 강남동태찜,탕","tel":"031-543-3426","addr":"경기도 포천시 가산면 금현리 314","indutype":"일반휴게음식 - 일반한식","category":"restaurant"}]},{"lat":"37.838111707","long":"127.20124259","imageIndex":4,"items":[{"name":"백담능이 한식뷔페","tel":"","addr":"경기도 포천시 가산면 금현리 303-2번지","indutype":"일반휴게음식 - 일반한식","category":"restaurant"},{"name":"백담능이백숙","tel":"","addr":"경기도 포천시 가산면 금현리 303-2번지","indutype":"음식 - 한식","category":"restaurant"},{"name":"백담능이백숙","tel":"031-541-9100","addr":"경기도 포천시 가산면 금현리 303-2번지","indutype":"일반휴게음식 - 일반한식","category":"restaurant"},{"name":"백담한식부페","tel":"541-5370","addr":"경기도 포천시 가산면 금현리 303-2번지","indutype":"음식 - 한식","category":"restaurant"}]},{"lat":"37.828839998","long":"127.20185386","imageIndex":4,"items":[{"name":"벤도궁","tel":"031-544-5951","addr":"경기도 포천시 가산면 금현리 179-15번지 B동 1층","indutype":"일반휴게음식 - 일반한식","category":"restaurant"}]},{"lat":"37.839474674","long":"127.19972394","imageIndex":4,"items":[{"name":"보현각","tel":"031-544-8820","addr":"경기도 포천시 가산면 금현리 296-4번지","indutype":"일반휴게음식 - 중국식","category":"restaurant"},{"name":"보현각","tel":"544-8820","addr":"경기도 포천시 가산면 금현리 296-4번지","indutype":"음식 - 중식","category":"restaurant"}]},{"lat":"37.828398538","long":"127.19644593","imageIndex":4,"items":[{"name":"산촌한식부페","tel":"544-1124","addr":"경기도 포천시 가산면 금현리 422번지","indutype":"음식 - 한식","category":"restaurant"},{"name":"산촌한식부페","tel":"031-544-1123","addr":"경기도 포천시 가산면 금현리 422번지 1층","indutype":"일반휴게음식 - 일반한식","category":"restaurant"}]},{"lat":"37.832394547","long":"127.19896678","imageIndex":4,"items":[{"name":"신명인식당","tel":"031-543-3745","addr":"경기도 포천시 가산면 금현리 379-5번지","indutype":"일반휴게음식 - 일반한식","category":"restaurant"}]},{"lat":"37.814951772","long":"127.18816589","imageIndex":4,"items":[{"name":"아하!그밥집","tel":"","addr":"경기도 포천시 가산면 금현리 726-5번지","indutype":"일반휴게음식 - 일반한식","category":"restaurant"}]},{"lat":"37.837728167","long":"127.20427472","imageIndex":4,"items":[{"name":"에바다식당","tel":"031-544-8996","addr":"경기도 포천시 가산면 금현리 319-7번지","indutype":"일반휴게음식 - 일반한식","category":"restaurant"}]},{"lat":"37.826641557","long":"127.20193883","imageIndex":4,"items":[{"name":"용식당","tel":"543-2151","addr":"경기도 포천시 가산면 금현리 158-14번지","indutype":"음식 - 한식","category":"restaurant"},{"name":"용식당","tel":"031-543-2151","addr":"경기도 포천시 가산면 금현리 158-14번지","indutype":"일반휴게음식 - 일반한식","category":"restaurant"}]},{"lat":"37.820421353","long":"127.19327907","imageIndex":4,"items":[{"name":"우리식당","tel":"031-543-0544","addr":"경기도 포천시 가산면 금현리 786-3번지","indutype":"일반휴게음식 - 일반한식","category":"restaurant"}]},{"lat":"37.815032499","long":"127.18839322","imageIndex":4,"items":[{"name":"이모랑고모랑","tel":"031-542-8800","addr":"경기도 포천시 가산면 금현리 724-1번지 가동","indutype":"일반휴게음식 - 일반한식","category":"restaurant"}]},{"lat":"37.837778437","long":"127.20119626","imageIndex":4,"items":[{"name":"행복식당","tel":"031-543-4599","addr":"경기도 포천시 가산면 금현리 277-10번지","indutype":"일반휴게음식 - 일반한식","category":"restaurant"},{"name":"행복식당","tel":"543-4599","addr":"경기도 포천시 가산면 금현리 277-10번지","indutype":"음식 - 한식","category":"restaurant"}]},{"lat":"37.837697926","long":"127.20085524","imageIndex":4,"items":[{"name":"행운","tel":"031-544-8488","addr":"경기도 포천시 가산면 금현리 279-4번지","indutype":"일반휴게음식 - 일반한식","category":"restaurant"},{"name":"행운","tel":"544-8488","addr":"경기도 포천시 가산면 금현리 279-4번지","indutype":"음식 - 한식","category":"restaurant"}]},{"lat":"37.822510941","long":"127.19913371","imageIndex":4,"items":[{"name":"혜원식당","tel":"031-544-0338","addr":"경기도 포천시 가산면 금현리 490-5번지","indutype":"일반휴게음식 - 일반한식","category":"restaurant"}]},{"lat":"37.838667463","long":"127.20291404","imageIndex":4,"items":[{"name":"흑염소요리전문점","tel":"031-543-1275","addr":"경기도 포천시 가산면 금현리 311-2번지 1층","indutype":"일반휴게음식 - 일반한식","category":"restaurant"},{"name":"흑염소요리전문점","tel":"543-1275","addr":"경기도 포천시 가산면 금현리 311-2번지 1층","indutype":"음식 - 한식","category":"restaurant"}]}]