[{"lat":"37.353087079","long":"126.74732814","imageIndex":17,"items":[{"name":"(A) 마터피아-시흥","tel":"031-481-8070","addr":"경기도 시흥시 정왕동 2314-23번지 201호","indutype":"개인서비스업 - 바우처,산모도우미","category":"other"},{"name":"경기 퀸스맘","tel":"031-482-5508","addr":"경기도 시흥시 정왕동 2314-23번지 2층 202호","indutype":"개인서비스업 - 산후도우미","category":"other"}]},{"lat":"37.344420333","long":"126.73555298","imageIndex":17,"items":[{"name":"(주)한벗정보통신","tel":"031-433-1700","addr":"경기도 시흥시 정왕동 1742-4번지 창신시화빌딩 101호","indutype":"소매업 - 통신기기","category":"other"}]},{"lat":"37.347635873","long":"126.75149982","imageIndex":17,"items":[{"name":"1ST카센타","tel":"031-497-8250","addr":"경기도 시흥시 정왕동 1163-9번지","indutype":"개인서비스업 - 카센타","category":"other"}]},{"lat":"37.370083292","long":"126.72860939","imageIndex":17,"items":[{"name":"1프로 (1%)","tel":"","addr":"경기도 시흥시 정왕동 2515번지 배곧프라자 402호","indutype":"스포츠및여가관련서비스업 - 체력단력장","category":"other"},{"name":"나인노래연습장","tel":"","addr":"경기도 시흥시 정왕동 2515번지 배곧프라자 306호","indutype":"개인서비스업 - 노래연습장","category":"other"},{"name":"별별룸카페","tel":"070-4639-1010","addr":"경기도 시흥시 정왕동 2515번지 배곧프라자 609호","indutype":"개인서비스업 - 공간임대","category":"other"},{"name":"용인대학교 배곧체육관","tel":"031-431-1579","addr":"경기도 시흥시 정왕동 2515번지 배곧프라자 4층 408호","indutype":"교육서비스업 - 합기도","category":"other"},{"name":"주식회사 블루밍필라테스 배곧점","tel":"","addr":"경기도 시흥시 정왕동 2515번지 배곧프라자 406호","indutype":"스포츠및여가관련서비스업 - 필라테스","category":"other"},{"name":"탠슈가링","tel":"031-319-6205","addr":"경기도 시흥시 정왕동 2515번지 배곧프라자 508호","indutype":"소매업 - 화장품","category":"other"}]},{"lat":"37.347194345","long":"126.7472804","imageIndex":17,"items":[{"name":"21세기열쇠","tel":"","addr":"경기도 시흥시 정왕동 1184-6번지 102호","indutype":"소매업 - 열쇠","category":"other"}]},{"lat":"37.377969464","long":"126.72574678","imageIndex":17,"items":[{"name":"79레더하우스","tel":"031-498-7605","addr":"경기도 시흥시 정왕동 2473-2번지 그랜드프라자 507호","indutype":"소매업 - 가죽공방","category":"other"},{"name":"㈜배곧여행사","tel":"031-497-3579","addr":"경기도 시흥시 정왕동 2473-2번지 그랜드프라자 209호","indutype":"개인서비스업 - 여행사","category":"other"},{"name":"꼬꼬네일","tel":"031-432-5560","addr":"경기도 시흥시 정왕동 2473-2번지 208호","indutype":"개인서비스업 - 네일아트","category":"other"},{"name":"스피드노래연습장","tel":"","addr":"경기도 시흥시 정왕동 2473-2번지 그랜드프라자 3층 304호","indutype":"개인서비스업 - 노래방","category":"other"},{"name":"프린트뷰","tel":"031-433-1525","addr":"경기도 시흥시 정왕동 2473-2번지 그랜드프라자 111호","indutype":"제조업 - 복사,제본","category":"other"}]},{"lat":"37.377861106","long":"126.72564556","imageIndex":17,"items":[{"name":"BTR","tel":"","addr":"경기도 시흥시 정왕동 2476-2번지 광장프라자 118호","indutype":"소매업 - 의류","category":"other"}]},{"lat":"37.346890997","long":"126.73241807","imageIndex":17,"items":[{"name":"BYC 시화점","tel":"031-433-0864","addr":"경기도 시흥시 정왕동 1728-9번지 수인프라자 1층 103호","indutype":"소매업 - 내의","category":"other"},{"name":"우석사진관","tel":"031-497-3213","addr":"경기도 시흥시 정왕동 1728-9번지","indutype":"개인서비스업 - 사진관","category":"other"}]},{"lat":"37.345973274","long":"126.74928209","imageIndex":17,"items":[{"name":"BYC 정왕마트점(은혜유통)","tel":"031-433-7811","addr":"경기도 시흥시 정왕동 1189-11번지","indutype":"소매업 - 속옷,의류","category":"other"},{"name":"한중약국","tel":"031-499-9185","addr":"경기도 시흥시 정왕동 1189-11번지","indutype":"보건업 - 양약,한약","category":"other"}]},{"lat":"37.343946485","long":"126.73719104","imageIndex":17,"items":[{"name":"FILA 시화점","tel":"031-499-7978","addr":"경기도 시흥시 정왕동 1737-21번지 지성빌딩 1층 101,102,108호 일부","indutype":"소매업 - 스포츠의류및용품","category":"other"},{"name":"별당구장","tel":"","addr":"경기도 시흥시 정왕동 1737-21번지 지성빌딩 3층 301,2,3호","indutype":"스포츠및여가관련서비스업 - 당구장","category":"other"}]},{"lat":"37.377773858","long":"126.72686525","imageIndex":17,"items":[{"name":"FIT 60+(핏 식스티 플러스)","tel":"031-8042-6060","addr":"경기도 시흥시 정왕동 2475-1번지 배곧타운2 306,307호","indutype":"스포츠및여가관련서비스업 - 헬스장","category":"other"},{"name":"길마루","tel":"","addr":"경기도 시흥시 정왕동 2475-1번지 배곧타운2 2층 214호","indutype":"기타 - 도배, 실내장식 등","category":"other"},{"name":"독수리수학학원","tel":"031-434-0901","addr":"경기도 시흥시 정왕동 2475-1번지 배곧타운2 3층 305호","indutype":"교육서비스업 - 보습","category":"other"},{"name":"또바기사진","tel":"031-499-1327","addr":"경기도 시흥시 정왕동 2475-1번지 배곧타운2 202호 또바기사진","indutype":"개인서비스업 - 사진","category":"other"},{"name":"리딩비 영어독서 학원","tel":"031-432-7989","addr":"경기도 시흥시 정왕동 2475-1번지 배곧타운2 309호","indutype":"교육서비스업 - 영어","category":"other"},{"name":"마스터스피치학원","tel":"031-434-3845","addr":"경기도 시흥시 정왕동 2475-1번지 배곧타운2 405호","indutype":"교육서비스업 - 스피치","category":"other"},{"name":"배곧창조 태권도장","tel":"031-431-1009","addr":"경기도 시흥시 정왕동 2475-1번지 배곧타운2 4층 406~7호","indutype":"교육서비스업 - 태권도","category":"other"},{"name":"배곧탁구클럽","tel":"","addr":"경기도 시흥시 정왕동 2475-1번지 503~506호","indutype":"스포츠및여가관련서비스업 - 탁구장","category":"other"},{"name":"아이보람 배곧신도시센터","tel":"031-319-8919","addr":"경기도 시흥시 정왕동 2475-1번지 배곧타운2 4층 408호","indutype":"교육서비스업 - 교육컨설팅","category":"other"},{"name":"인선떡집","tel":"031-319-5581","addr":"경기도 시흥시 정왕동 2475-1번지 배곧타운2 124호","indutype":"소매업 - 떡류","category":"other"},{"name":"행복한 요가","tel":"031-319-0777","addr":"경기도 시흥시 정왕동 2475-1번지 501,502호","indutype":"개인서비스업 - 요가","category":"other"}]},{"lat":"37.353192425","long":"126.72224871","imageIndex":17,"items":[{"name":"GAM당구장(GAM Billiard당구장)","tel":"","addr":"경기도 시흥시 정왕동 1859-10번지 301,302호","indutype":"개인서비스업 - 당구장","category":"other"}]},{"lat":"37.344388865","long":"126.73758447","imageIndex":17,"items":[{"name":"JDX","tel":"","addr":"경기도 시흥시 정왕동 1738-3번지 1층 106~108호","indutype":"소매업 - 의류","category":"other"},{"name":"루이까스텔","tel":"031-319-9637","addr":"경기도 시흥시 정왕동 1738-3번지 128호","indutype":"소매업 - 의류","category":"other"}]},{"lat":"37.338666173","long":"126.7535835","imageIndex":17,"items":[{"name":"LG 세탁소","tel":"031-433-6327","addr":"경기도 시흥시 정왕동 1420-20번지","indutype":"개인서비스업 - 세탁","category":"other"}]},{"lat":"37.362859961","long":"126.72980965","imageIndex":17,"items":[{"name":"LO.N","tel":"031-431-2254","addr":"경기도 시흥시 정왕동 1884-7번지 한양코아빌딩 114호","indutype":"소매업 - 의류, 잡회","category":"other"},{"name":"알파오이도점","tel":"031-319-7550","addr":"경기도 시흥시 정왕동 1884-7번지","indutype":"소매업 - 문구잡화","category":"other"}]},{"lat":"37.34475447","long":"126.73589036","imageIndex":17,"items":[{"name":"LPGA 시화점","tel":"031-434-0022","addr":"경기도 시흥시 정왕동 1737-7번지 동신빌딩 1층 105~106호","indutype":"소매업 - 골프의류, 스포츠용품","category":"other"}]},{"lat":"37.345476872","long":"126.74888877","imageIndex":17,"items":[{"name":"LTE 통신 ","tel":"","addr":"경기도 시흥시 정왕동 1202번지","indutype":"소매업 - 전화기","category":"other"},{"name":"눈편한안경마을","tel":"031-319-2480","addr":"경기도 시흥시 정왕동 1202번지","indutype":"소매업 - 안경","category":"other"},{"name":"슈즈뱅크","tel":"031-499-1769","addr":"경기도 시흥시 정왕동 1202번지 정왕시장 112호","indutype":"소매업 - 신발","category":"other"},{"name":"정왕헬스","tel":"031-496-9688","addr":"경기도 시흥시 정왕동 1202번지 정왕시장 301호","indutype":"소매업 - 헬스보충제","category":"other"}]},{"lat":"37.352779407","long":"126.72285973","imageIndex":17,"items":[{"name":"ORG 정왕점","tel":"031-497-1075","addr":"경기도 시흥시 정왕동 1859-6번지 신우프라자 1층 104호","indutype":"소매업 - 귀금속","category":"other"}]},{"lat":"37.352777238","long":"126.73755495","imageIndex":17,"items":[{"name":"PC마트","tel":"031-504-7578","addr":"경기도 시흥시 정왕동 2305-12번지 효성빌딩 102호","indutype":"소매업 - 컴퓨터및 주변기기","category":"other"}]},{"lat":"37.344332421","long":"126.73652384","imageIndex":17,"items":[{"name":"SBS노래방","tel":"031-432-4441","addr":"경기도 시흥시 정왕동 1737-17번지 401호 402호","indutype":"개인서비스업 - 노래방","category":"other"},{"name":"오렌즈 시흥점","tel":"031-499-3684","addr":"경기도 시흥시 정왕동 1737-17번지 센타프라자 107호","indutype":"소매업 - 안경,콘택트렌즈","category":"other"}]},{"lat":"37.351304604","long":"126.73980613","imageIndex":17,"items":[{"name":"SM갤러리","tel":"031-316-1133","addr":"경기도 시흥시 정왕동 876-311번지","indutype":"소매업 - 화훼,생화","category":"other"},{"name":"두메산골","tel":"","addr":"경기도 시흥시 정왕동 876-311번지 107호","indutype":"소매업 - 화훼","category":"other"}]},{"lat":"37.377080139","long":"126.72689037","imageIndex":17,"items":[{"name":"WH34D 피부샵","tel":"","addr":"경기도 시흥시 정왕동 2477-3번지 304호","indutype":"개인서비스업 - 피부샵","category":"other"},{"name":"맨하튼음악학원","tel":"031-431-0103","addr":"경기도 시흥시 정왕동 2477-3번지 406호","indutype":"교육서비스업 - 음악","category":"other"},{"name":"생고기랜드","tel":"031-497-5168","addr":"경기도 시흥시 정왕동 2477-3번지 2층 207호","indutype":"소매업 - 한식","category":"other"},{"name":"세종라라무용학원","tel":"031-434-1022","addr":"경기도 시흥시 정왕동 2477-3번지 301,302호","indutype":"교육서비스업 - 발레","category":"other"},{"name":"아임짐","tel":"031-433-0217","addr":"경기도 시흥시 정왕동 2477-3번지 407호","indutype":"스포츠및여가관련서비스업 - 기타 스포","category":"other"},{"name":"오월의 식탁","tel":"031-434-5341","addr":"경기도 시흥시 정왕동 2477-3번지 1층 106호","indutype":"소매업 - 반찬가게","category":"other"},{"name":"키즈MMA짐","tel":"","addr":"경기도 시흥시 정왕동 2477-3번지 2층 205호","indutype":"교육서비스업 - 태권도장","category":"other"}]},{"lat":"37.353387341","long":"126.72466335","imageIndex":17,"items":[{"name":"e-만물상","tel":"031-498-5957","addr":"경기도 시흥시 정왕동 1861-7번지","indutype":"소매업 - 화장품,생활용품","category":"other"},{"name":"시화피카소안경","tel":"031-431-7655","addr":"경기도 시흥시 정왕동 1861-7번지","indutype":"소매업 - 안경점","category":"other"}]},{"lat":"37.370329609","long":"126.733858","imageIndex":17,"items":[{"name":"e해법공부방","tel":"","addr":"경기도 시흥시 정왕동 2503번지 호반베르디움센트로하임아파트","indutype":"교육서비스업 - 공부방","category":"other"},{"name":"성문공인중개사사무소","tel":"031-319-2944","addr":"경기도 시흥시 정왕동 2503번지 호반베르디움센트로하임아파트 정문상가 1층 102호","indutype":"개인서비스업 - 부동산중개업","category":"other"},{"name":"씽크앤아트 배곧 미술교습소","tel":"031-498-3343","addr":"경기도 시흥시 정왕동 2503번지 호반베르디움센트로하임 근린생활시설2 1145동 203호","indutype":"교육서비스업 - 미술 교습소","category":"other"},{"name":"윤선생 우리집앞 영어교실 시흥배곧호반3차 공부방  ","tel":"","addr":"경기도 시흥시 정왕동 2503번지 호반베르디움 센트로하임","indutype":"교육서비스업 - 영어","category":"other"},{"name":"착한한우정육점 호반배곧점","tel":"031-319-0088","addr":"경기도 시흥시 정왕동 2503번지 정문상가 1144동 1층 103호","indutype":"소매업 - 정육점","category":"other"}]},{"lat":"37.36302909","long":"126.72891727","imageIndex":17,"items":[{"name":"ing스튜디오","tel":"031-433-7942","addr":"경기도 시흥시 정왕동 1883-3번지 정왕프라자 302호","indutype":"개인서비스업 - 사진관","category":"other"}]},{"lat":"37.352579875","long":"126.72230743","imageIndex":17,"items":[{"name":"k바디GYM(K바디짐)","tel":"031-499-2557","addr":"경기도 시흥시 정왕동 1855-4번지 해진빌딩 5층","indutype":"스포츠및여가관련서비스업 - 체력단련업","category":"other"},{"name":"베스트탁구교실","tel":"031-432-7331","addr":"경기도 시흥시 정왕동 1855-4번지 3층","indutype":"스포츠및여가관련서비스업 - 탁구장","category":"other"}]},{"lat":"37.382384189","long":"126.72952433","imageIndex":17,"items":[{"name":"ok세탁소","tel":"031-431-3362","addr":"경기도 시흥시 정왕동 2383번지 시흥배곧신도시이지더원1차더퍼스트 1상가 1층 118호","indutype":"개인서비스업 - 세탁","category":"other"},{"name":"네일더예쁨","tel":"","addr":"경기도 시흥시 정왕동 2383번지 시흥배곧신도시이지더원1차더퍼스트 2동 108호","indutype":"개인서비스업 - 네일","category":"other"},{"name":"리틀바하음악교습소","tel":"","addr":"경기도 시흥시 정왕동 2383번지 시흥배곧신도시 이지더원1차 더 퍼스트 2동 120호","indutype":"교육서비스업 - 음악교습소","category":"other"},{"name":"이지부동산 공인중개사사무소","tel":"","addr":"경기도 시흥시 정왕동 2383번지 시흥배곧신도시 이지더원1차 더 퍼스트 상가동-1동 1층 101호","indutype":"개인서비스업 - 중개업,컨설팅","category":"other"},{"name":"해송푸줏간","tel":"031-432-2941","addr":"경기도 시흥시 정왕동 2383번지 시흥배곧신도시이지더원1차더퍼스트 2동 1층 109호","indutype":"소매업 - 정육점","category":"other"}]},{"lat":"37.346305872","long":"126.74891983","imageIndex":17,"items":[{"name":"㈜룸데코","tel":"031-433-3314","addr":"경기도 시흥시 정왕동 1188-12번지 1층","indutype":"소매업 - 전기기구, 조명기구","category":"other"}]},{"lat":"37.368024793","long":"126.73069404","imageIndex":17,"items":[{"name":"㈜베니스골프아카데미","tel":"031-496-9996","addr":"경기도 시흥시 정왕동 2537-2번지 서영베니스스퀘어 5층 509-518호","indutype":"스포츠및여가관련서비스업 - 골프연습장","category":"other"},{"name":"굿샵 배곧신도시 베니스스퀘어점","tel":"031-433-6990","addr":"경기도 시흥시 정왕동 2537-2번지 서영베니스스퀘어 제1층 T동 14호","indutype":"소매업 - 편의점","category":"other"},{"name":"네일더 예쁘게","tel":"031-432-4055","addr":"경기도 시흥시 정왕동 2537-2번지 서영베니스스퀘어 2층 228호","indutype":"개인서비스업 - 네일아트","category":"other"},{"name":"다꿈컴퓨터교습소","tel":"031-434-7967","addr":"경기도 시흥시 정왕동 2537-2번지 서영베니스퀘어 431-1호","indutype":"교육서비스업 - 컴퓨터교육","category":"other"},{"name":"더끌림","tel":"","addr":"경기도 시흥시 정왕동 2537-2번지 서영베니스스퀘어 2층 277호","indutype":"소매업 - 인테리어소품&식물","category":"other"},{"name":"디앤브이(D&V) ","tel":"031-503-8875","addr":"경기도 시흥시 정왕동 2537-2번지 서영베니스스퀘어 305호","indutype":"소매업 - 애견용품","category":"other"},{"name":"멍멍까까","tel":"","addr":"경기도 시흥시 정왕동 2537-2번지 서영베니스스퀘어 307호","indutype":"제조업 - 동물사료제조","category":"other"},{"name":"메이크썸","tel":"031-432-5839","addr":"경기도 시흥시 정왕동 2537-2번지 서영베니스스퀘어 351호","indutype":"소매업 - 공방","category":"other"},{"name":"멜리매일","tel":"070-7543-8857","addr":"경기도 시흥시 정왕동 2537-2번지 서영베니스스퀘어 1층 C-31호","indutype":"소매업 - 의류","category":"other"},{"name":"몽키바나나(Monkey Banana)","tel":"031-497-2984","addr":"경기도 시흥시 정왕동 2537-2번지 베니스스퀘어 T11호","indutype":"소매업 - 의류","category":"other"},{"name":"배곧 고운이 치과의원","tel":"031-432-2878","addr":"경기도 시흥시 정왕동 2537-2번지 서영베니스스퀘어 230~232호","indutype":"보건업 - 치과","category":"other"},{"name":"배곧커튼 창&미","tel":"031-499-3325","addr":"경기도 시흥시 정왕동 2537-2번지 서영베니스스퀘어 278호","indutype":"소매업 - 인테리어","category":"other"},{"name":"베니스 옵티컬","tel":"031-497-2412","addr":"경기도 시흥시 정왕동 2537-2번지 서영베니스스퀘어 1층 C14,15호","indutype":"소매업 - 안경","category":"other"},{"name":"스윗캥거루(시흥배곧점)","tel":"","addr":"경기도 시흥시 정왕동 2537-2번지 서영베니스스퀘어 405호","indutype":"소매업 - 의류","category":"other"},{"name":"아이러브제이 배곧점","tel":"031-431-1214","addr":"경기도 시흥시 정왕동 2537-2번지 서영베니스스퀘어 1층A7호","indutype":"소매업 - 유아용의류","category":"other"},{"name":"에플","tel":"031-433-9296","addr":"경기도 시흥시 정왕동 2537-2번지 서영베니스스퀘어 4층 405호","indutype":"소매업 - 아동복","category":"other"},{"name":"오왠","tel":"031-496-0313","addr":"경기도 시흥시 정왕동 2537-2번지 서영베니스스퀘어 1층 A26호","indutype":"소매업 - 의류","category":"other"},{"name":"이리온","tel":"","addr":"경기도 시흥시 정왕동 2537-2번지 서영베니스스퀘어 3층 306호","indutype":"소매업 - 의류","category":"other"},{"name":"일라일라(illa illa)","tel":"","addr":"경기도 시흥시 정왕동 2537-2번지 서영베니스스퀘어 2층 213호","indutype":"소매업 - 의류","category":"other"},{"name":"제이엔코드(JNCODE)","tel":"","addr":"경기도 시흥시 정왕동 2537-2번지 서영베니스스퀘어 C-32호","indutype":"소매업 - 남성의류","category":"other"},{"name":"청년공방","tel":"","addr":"경기도 시흥시 정왕동 2537-2번지 베니스스퀘어 6층 619호","indutype":"개인서비스업 - 공방","category":"other"},{"name":"카카오 스크린 골프","tel":"031-431-0753","addr":"경기도 시흥시 정왕동 2537-2번지 서영베니스스퀘어 5층 519-1~2,520-1~2,521-1~2,522-1~2호","indutype":"스포츠및여가관련서비스업 - 스크린골프","category":"other"},{"name":"케이크홀릭","tel":"","addr":"경기도 시흥시 정왕동 2537-2번지 서영베니스스퀘어 265호","indutype":"제조업 - 빵, 공예교육","category":"other"},{"name":"탄앤쿠키","tel":"070-7765-9702","addr":"경기도 시흥시 정왕동 2537-2번지 서영베니스스퀘어 309호","indutype":"제조업 - 동물사료제조","category":"other"},{"name":"탑 농구교실","tel":"031-419-0022","addr":"경기도 시흥시 정왕동 2537-2번지 베니스스퀘어 803호","indutype":"교육서비스업 - 농구수업","category":"other"},{"name":"탑텐(TOPTEN)배곧점","tel":"","addr":"경기도 시흥시 정왕동 2537-2번지 서영베니스스퀘어 에스-13~5호","indutype":"소매업 - 의류","category":"other"},{"name":"패리스하우스배곧점","tel":"031-432-3314","addr":"경기도 시흥시 정왕동 2537-2번지 서영베니스스퀘어 2층 233호","indutype":"소매업 - 애완용품","category":"other"},{"name":"플랜시(PLAN.C)","tel":"","addr":"경기도 시흥시 정왕동 2537-2번지 서영베니스스퀘어 A동 23호","indutype":"소매업 - 의류","category":"other"},{"name":"플러스픽(Plus Pick)","tel":"","addr":"경기도 시흥시 정왕동 2537-2번지 서영베니스스퀘어 2층 210호","indutype":"소매업 - 의류, 잡화","category":"other"},{"name":"플레이그라운드 풀스&닌텐도","tel":"031-431-5795","addr":"경기도 시흥시 정왕동 2537-2번지 베니스스퀘어 282호","indutype":"소매업 - 소매업게임기기","category":"other"},{"name":"피앤피","tel":"","addr":"경기도 시흥시 정왕동 2537-2번지 베니스스퀘어 342호","indutype":"소매업 - 반려동물사료및간식","category":"other"},{"name":"핑크피그 주식회사","tel":"","addr":"경기도 시흥시 정왕동 2537-2번지 서영베니스스퀘어 1층 S-5호","indutype":"소매업 - 정육점","category":"other"},{"name":"행운공인중개사사무소","tel":"031-432-1616","addr":"경기도 시흥시 정왕동 2537-2번지 S-1","indutype":"개인서비스업 - 부동산중개업","category":"other"},{"name":"허그맘허그인 심리상담센터 시흥점","tel":"031-498-6255","addr":"경기도 시흥시 정왕동 2537-2번지 시흥 배곧 베니스스퀘어 4층 433-1,433-2,432-1,432-2호","indutype":"개인서비스업 - 교육심리,상담치료","category":"other"}]},{"lat":"37.336974631","long":"126.73808448","imageIndex":17,"items":[{"name":"㈜씨알","tel":"","addr":"경기도 시흥시 정왕동 2122-1번지 경기과학기술대학교 제2중소기업관 213호","indutype":"소매업 - 농업,배양식물","category":"other"}]},{"lat":"37.340081931","long":"126.73355968","imageIndex":17,"items":[{"name":"㈜에프엔제이","tel":"031-432-8654","addr":"경기도 시흥시 정왕동 2121-1번지 한국산업기술대학교 P동 302호","indutype":"제조업 - 소프트웨어개발, 교육서비스","category":"other"},{"name":"일광서적, 문구","tel":"031-8041-1203","addr":"경기도 시흥시 정왕동 2121-1번지 TIP 104","indutype":"소매업 - 서적,복사,문구","category":"other"}]},{"lat":"37.377944389","long":"126.72658236","imageIndex":17,"items":[{"name":"㈜유얼리 (유얼리발달센터)","tel":"031-497-9370","addr":"경기도 시흥시 정왕동 2475번지 에이플러스 4층 403호","indutype":"개인서비스업 - 발달,심리상담 및 지","category":"other"},{"name":"네일스케치","tel":"031-319-4840","addr":"경기도 시흥시 정왕동 2475번지 배곧에이플러스 1층 110호","indutype":"개인서비스업 - 네일아트","category":"other"}]},{"lat":"37.365863326","long":"126.76010868","imageIndex":17,"items":[{"name":"㈜정다운식품","tel":"070-7778-4775","addr":"경기도 시흥시 정왕동 281-3번지 1층","indutype":"제조업 - 농산물","category":"other"}]},{"lat":"37.333755174","long":"126.74086032","imageIndex":17,"items":[{"name":"가구랑","tel":"031-499-4250","addr":"경기도 시흥시 정왕동 1290-14번지 동양타워지식산업센터 201호","indutype":"소매업 - 가구, 인테리어","category":"other"}]},{"lat":"37.36669497","long":"126.72838466","imageIndex":17,"items":[{"name":"가구마다방문요양센터","tel":"031-499-3683","addr":"경기도 시흥시 정왕동 2549번지 배곧헤리움어반크로스2차 A동 517호","indutype":"개인서비스업 - 방문요양","category":"other"},{"name":"골프존파크정왕중앙배곧점","tel":"","addr":"경기도 시흥시 정왕동 2536-1번지 725~730호","indutype":"개인서비스업 - 스크린골프","category":"other"},{"name":"드림약국","tel":"031-498-5955","addr":"경기도 시흥시 정왕동 2535번지 에스프라자 107호","indutype":"보건업 - 의약품","category":"other"},{"name":"레오 피씨 카페 (REO PC CAF?)","tel":"031-497-7015","addr":"경기도 시흥시 정왕동 2535번지 701~5호","indutype":"개인서비스업 - PC방","category":"other"},{"name":"루미","tel":"031-432-8181","addr":"경기도 시흥시 정왕동 2549번지 배곧헤리움어반크로스2차 A동 310호","indutype":"소매업 - 전자상거래업(인테리어소품,","category":"other"},{"name":"모유사랑","tel":"","addr":"경기도 시흥시 정왕동 2549번지 헤리움2차 B동 1520호","indutype":"개인서비스업 - 육아, 모유수유상담","category":"other"},{"name":"문 당구클럽","tel":"031-431-3949","addr":"경기도 시흥시 정왕동 2535번지 에스프라자 5층 501~5호","indutype":"스포츠및여가관련서비스업 - 당구장","category":"other"},{"name":"엔에스컴퍼니(NS company)","tel":"031-499-9608","addr":"경기도 시흥시 정왕동 2536-1번지 배곧중앙프라자 127호","indutype":"개인서비스업 - 프로그램개발, 홈페이","category":"other"},{"name":"킹(King)공인중개사사무소","tel":"031-364-8001","addr":"경기도 시흥시 정왕동 2536-1번지 배곧중앙프라자 135호","indutype":"개인서비스업 - 중개업,컨설팅","category":"other"}]},{"lat":"37.345720017","long":"126.74466714","imageIndex":17,"items":[{"name":"가나전기조명","tel":"031-432-2308","addr":"경기도 시흥시 정왕동 1576번지","indutype":"소매업 - 조명기구","category":"other"},{"name":"모든 종합 장식","tel":"031-433-1888","addr":"경기도 시흥시 정왕동 1576번지 1층","indutype":"기타 - 인테리어","category":"other"}]},{"lat":"37.345719319","long":"126.74850424","imageIndex":17,"items":[{"name":"강경상회","tel":"","addr":"경기도 시흥시 정왕동 1203번지 정왕시장 1층 211호","indutype":"소매업 - 김치,반찬,젓갈","category":"other"},{"name":"건영상회","tel":"031-434-4152","addr":"경기도 시흥시 정왕동 1203번지 101-33~4호, 34-1호,40~42호","indutype":"소매업 - 농산물","category":"other"},{"name":"남부식품","tel":"031-434-2275","addr":"경기도 시흥시 정왕동 1203번지 정왕시장 226호","indutype":"소매업 - 건어물","category":"other"},{"name":"노리파크","tel":"031-431-4398","addr":"경기도 시흥시 정왕동 1203번지 정왕시장 204호 일부","indutype":"개인서비스업 - 키즈카페","category":"other"},{"name":"대복식품","tel":"031-434-5739","addr":"경기도 시흥시 정왕동 1203번지 정왕시장조합101-35호","indutype":"소매업 - 반찬, 족발","category":"other"},{"name":"백옥청과","tel":"","addr":"경기도 시흥시 정왕동 1203번지 정왕시장 상가동 1층 17호","indutype":"소매업 - 과일","category":"other"},{"name":"스파리스 휘트니스","tel":"","addr":"경기도 시흥시 정왕동 1203번지","indutype":"스포츠및여가관련서비스업 - 헬스","category":"other"},{"name":"신건영축산","tel":"031-434-1235","addr":"경기도 시흥시 정왕동 1203번지 정왕시장 1층","indutype":"소매업 - 식육","category":"other"},{"name":"신화화장품","tel":"031-431-1821","addr":"경기도 시흥시 정왕동 1203번지 정왕시장 102호","indutype":"소매업 - 화장품","category":"other"},{"name":"양지수산","tel":"031-434-3997","addr":"경기도 시흥시 정왕동 1203번지","indutype":"소매업 - 생선","category":"other"},{"name":"엄마손반찬","tel":"","addr":"경기도 시흥시 정왕동 1203번지 29-1","indutype":"소매업 - 반찬","category":"other"},{"name":"에스지모바일","tel":"070-7696-3001","addr":"경기도 시흥시 정왕동 1203번지 정왕시장 105호","indutype":"소매업 - 휴대폰","category":"other"},{"name":"친정엄마 반찬점","tel":"031-433-3766","addr":"경기도 시흥시 정왕동 1203번지 정왕시장 103호","indutype":"소매업 - 반찬","category":"other"},{"name":"하나축산","tel":"031-498-5152","addr":"경기도 시흥시 정왕동 1203번지","indutype":"소매업 - 식육","category":"other"},{"name":"형제청과","tel":"031-434-3957","addr":"경기도 시흥시 정왕동 1203번지 정왕시장조합내","indutype":"소매업 - 청과","category":"other"}]},{"lat":"37.345357611","long":"126.68803758","imageIndex":17,"items":[{"name":"강경젖갈","tel":"","addr":"경기도 시흥시 정왕동 2003-12번지 1동 5호 B동 103호","indutype":"소매업 - 젖갈","category":"other"},{"name":"진주수산","tel":"031-433-3329","addr":"경기도 시흥시 정왕동 2003-12번지","indutype":"소매업 - 수산물","category":"other"}]},{"lat":"37.374132072","long":"126.73394603","imageIndex":17,"items":[{"name":"강의하는 아이들 학원","tel":"","addr":"경기도 시흥시 정왕동 1772-31번지 지음프라자 5층 501호","indutype":"교육서비스업 - 수학","category":"other"},{"name":"노리터","tel":"070-7576-0222","addr":"경기도 시흥시 정왕동 1772-31번지 지음프라자 103호","indutype":"개인서비스업 - 공방","category":"other"},{"name":"배곧자전거","tel":"031-498-2808","addr":"경기도 시흥시 정왕동 1772-31번지 지음프라자 102호","indutype":"소매업 - 자전거","category":"other"},{"name":"세사리빙 배곧","tel":"","addr":"경기도 시흥시 정왕동 1772-31번지 104, 105호","indutype":"소매업 - 침구류","category":"other"},{"name":"잉글루영어코어수학학원","tel":"031-497-0579","addr":"경기도 시흥시 정왕동 1772-31번지 지음프라자 3층 301호","indutype":"교육서비스업 - 영어, 수학","category":"other"},{"name":"키즈블럭","tel":"031-488-9815","addr":"경기도 시흥시 정왕동 1772-31번지 지음프라자 601호","indutype":"개인서비스업 - 레고대여","category":"other"},{"name":"프라임스피치","tel":"031-433-3546","addr":"경기도 시흥시 정왕동 1772-31번지 지음프라자 602호","indutype":"교육서비스업 - 스피티, 논술","category":"other"}]},{"lat":"37.371801371","long":"126.73127874","imageIndex":17,"items":[{"name":"개인과외","tel":"","addr":"경기도 시흥시 정왕동 2502번지 시흥배곧한신더휴","indutype":"교육서비스업 - 과외교습","category":"other"}]},{"lat":"37.344610742","long":"126.73608272","imageIndex":17,"items":[{"name":"거복당","tel":"031-431-7002","addr":"경기도 시흥시 정왕동 1737-6번지","indutype":"소매업 - 금은보석","category":"other"},{"name":"지프","tel":"031-499-0180","addr":"경기도 시흥시 정왕동 1737-6번지 108~109호","indutype":"소매업 - 스포츠의류, 용품","category":"other"},{"name":"짱만화","tel":"031-432-0550","addr":"경기도 시흥시 정왕동 1737-6번지 진명프라자 402호","indutype":"개인서비스업 - 도서대여","category":"other"}]},{"lat":"37.370302119","long":"126.72972623","imageIndex":17,"items":[{"name":"건강해 GYM","tel":"031-499-2468","addr":"경기도 시흥시 정왕동 2513-1번지 센터프라자2 605,606호","indutype":"스포츠및여가관련서비스업 - 헬스장","category":"other"},{"name":"본(BON books)","tel":"031-434-0105","addr":"경기도 시흥시 정왕동 2513-1번지 센터프라자2 704호","indutype":"개인서비스업 - 출판","category":"other"},{"name":"킹골프존","tel":"031-434-4005","addr":"경기도 시흥시 정왕동 2513-1번지 센터플라자2) 701호","indutype":"스포츠및여가관련서비스업 - 스크린골프","category":"other"},{"name":"해와달떡","tel":"031-499-6696","addr":"경기도 시흥시 정왕동 2513-1번지 센타프라자2 104호","indutype":"제조업 - 떡","category":"other"}]},{"lat":"37.351167361","long":"126.73091292","imageIndex":17,"items":[{"name":"건영문구","tel":"031-503-3838","addr":"경기도 시흥시 정왕동 1871-5번지 서촌마을건영아파트 상가동 1층 104호","indutype":"소매업 - 문구점","category":"other"}]},{"lat":"37.339811125","long":"126.7454773","imageIndex":17,"items":[{"name":"건영세탁소","tel":"","addr":"경기도 시흥시 정왕동 1785-1번지 건영아파트 1층 108호","indutype":"개인서비스업 - 세탁업","category":"other"},{"name":"경희대제일태권도장","tel":"","addr":"경기도 시흥시 정왕동 1785-1번지 달월신협 정왕지점 205호","indutype":"스포츠및여가관련서비스업 - 태권도","category":"other"},{"name":"두산합기도장","tel":"031-431-4909","addr":"경기도 시흥시 정왕동 1785-1번지 지하 101,103,104","indutype":"개인서비스업 - 합기도","category":"other"}]},{"lat":"37.379381603","long":"126.7364451","imageIndex":17,"items":[{"name":"경기도주식회사 바라지마켓","tel":"031-5171-5160","addr":"경기도 시흥시 정왕동 1772-46번지 3층 3351","indutype":"소매업 - 상품종합","category":"other"}]},{"lat":"37.354473697","long":"126.75535971","imageIndex":17,"items":[{"name":"경기시흥장작","tel":"031-498-5750","addr":"경기도 시흥시 정왕동 561-1","indutype":"소매업 - 참나무장작,땔감,농산물","category":"other"}]},{"lat":"37.34330336","long":"126.73969862","imageIndex":17,"items":[{"name":"경희대경일용문태권도","tel":"031-431-0588","addr":"경기도 시흥시 정왕동 1789번지 금강아파트","indutype":"교육서비스업 - 태권도","category":"other"},{"name":"멋을 아는 여우","tel":"031-413-3004","addr":"경기도 시흥시 정왕동 1789번지 금강아파트 상가동 105호","indutype":"개인서비스업 - 의류수선, 세탁","category":"other"}]},{"lat":"37.354419529","long":"126.72297779","imageIndex":17,"items":[{"name":"경희대박사태권도","tel":"","addr":"경기도 시흥시 정왕동 1861-1번지 세종월드빌딩 501호","indutype":"교육서비스업 - 태권도","category":"other"},{"name":"속사랑내과","tel":"031-496-9737","addr":"경기도 시흥시 정왕동 1861-1번지 세종월드프라자 203호","indutype":"보건업 - 내과","category":"other"},{"name":"시화연합약국","tel":"031-499-5221","addr":"경기도 시흥시 정왕동 1861-1번지 세종월드빌딩 109호","indutype":"보건업 - 의약품","category":"other"},{"name":"아리따움 시흥옥구점","tel":"031-432-7597","addr":"경기도 시흥시 정왕동 1861-1번지 세종월드빌딩 106호","indutype":"소매업 - 화장품","category":"other"},{"name":"아이패밀리","tel":"031-499-0909","addr":"경기도 시흥시 정왕동 1861-1번지 세종월드빌딩 102호","indutype":"소매업 - 안경","category":"other"},{"name":"이니스프리 옥구대리점","tel":"031-432-0987","addr":"경기도 시흥시 정왕동 1861-1번지 세종월드빌딩 101호","indutype":"소매업 - 화장품","category":"other"},{"name":"젊은사람들","tel":"031-433-6329","addr":"경기도 시흥시 정왕동 1861-1번지 세종월드프라자 206호","indutype":"소매업 - 컴퓨터 및 주변기기","category":"other"}]},{"lat":"37.348115467","long":"126.72811373","imageIndex":17,"items":[{"name":"경희대박사태권도","tel":"","addr":"경기도 시흥시 정왕동 1848-4번지 202,208,209,210호","indutype":"교육서비스업 - 태권도","category":"other"},{"name":"플러스문구편의점","tel":"031-431-0079","addr":"경기도 시흥시 정왕동 1848-4번지 1층","indutype":"소매업 - 문구류","category":"other"}]},{"lat":"37.360554112","long":"126.72625105","imageIndex":17,"items":[{"name":"경희대박사태권도","tel":"","addr":"경기도 시흥시 정왕동 1886-4번지 서해아파트 308호","indutype":"교육서비스업 - 태권도","category":"other"}]},{"lat":"37.382053572","long":"126.73466295","imageIndex":17,"items":[{"name":"경희대석사누리태권도장","tel":"031-499-0416","addr":"경기도 시흥시 정왕동 2393번지 더프리미엄타워 5층 502호","indutype":"교육서비스업 - 태권도","category":"other"},{"name":"레인보우 음악학원","tel":"031-307-0777","addr":"경기도 시흥시 정왕동 2393번지 더프리미엄타워 501호","indutype":"교육서비스업 - 피아노","category":"other"},{"name":"주식회사 에디플레이","tel":"031-431-0520","addr":"경기도 시흥시 정왕동 2393번지 더프리미엄타워 601호","indutype":"교육서비스업 - 놀이교육","category":"other"}]},{"lat":"37.362667209","long":"126.71317165","imageIndex":17,"items":[{"name":"경희대석사한라태권도","tel":"031-319-2555","addr":"경기도 시흥시 정왕동 2566번지 상가2동 3층 303~304호","indutype":"교육서비스업 - 태권도","category":"other"},{"name":"비발디 음악교습소","tel":"031-503-6066","addr":"경기도 시흥시 정왕동 2566번지 한라비발디캠퍼스 2동 3층 301호","indutype":"교육서비스업 - 음악교습소","category":"other"},{"name":"아이피플","tel":"031-319-0174","addr":"경기도 시흥시 정왕동 2566번지 한라비발디캠퍼스 301동 112호","indutype":"소매업 - 안경","category":"other"},{"name":"얼룩빼기이박사 ㈜크린화이트","tel":"031-499-1919","addr":"경기도 시흥시 정왕동 2566번지 한라비발디상가1차 301동 107호","indutype":"개인서비스업 - 세탁중개업","category":"other"},{"name":"한라 공인중개사사무소","tel":"031-498-0077","addr":"경기도 시흥시 정왕동 2566번지 한라비발디캠퍼스 302동 1층 101,102호","indutype":"개인서비스업 - 부동산 중개","category":"other"},{"name":"한라 세탁소","tel":"031-417-0999","addr":"경기도 시흥시 정왕동 2566번지 상가3동 1층 112, 113호","indutype":"개인서비스업 - 세탁소","category":"other"}]},{"lat":"37.350920101","long":"126.73708746","imageIndex":17,"items":[{"name":"경희야생화","tel":"031-499-9770","addr":"경기도 시흥시 정왕동 876-279번지","indutype":"소매업 - 꽃집","category":"other"}]},{"lat":"37.347974497","long":"126.73341863","imageIndex":17,"items":[{"name":"고객사랑안경랜드","tel":"031-496-0609","addr":"경기도 시흥시 정왕동 1726-1번지 광개토빌딩1 107호","indutype":"소매업 - 안경점","category":"other"},{"name":"나마네","tel":"031-498-5959","addr":"경기도 시흥시 정왕동 1726-1번지","indutype":"소매업 - 구두,신발","category":"other"},{"name":"야불과오불","tel":"031-319-5365","addr":"경기도 시흥시 정왕동 1726-1번지 광개토빌딩 119동 120호","indutype":"소매업 - 한식","category":"other"}]},{"lat":"37.362442842","long":"126.71353373","imageIndex":17,"items":[{"name":"고기곳간","tel":"031-319-8386","addr":"경기도 시흥시 정왕동 2564번지 한라비발디캠퍼스2차 1동 104호","indutype":"소매업 - 정육","category":"other"},{"name":"국선생","tel":"031-431-9991","addr":"경기도 시흥시 정왕동 2564번지 한라상가 2차 1동 109B","indutype":"소매업 - 반찬가게","category":"other"},{"name":"꿈드림 피아노 교습소","tel":"","addr":"경기도 시흥시 정왕동 2564번지 한라비발디캠퍼스2차 상가동 208호","indutype":"교육서비스업 - 피아노교습소","category":"other"},{"name":"다미찬","tel":"031-432-5989","addr":"경기도 시흥시 정왕동 2564번지 한라비발디캠퍼스2차 402동 107호","indutype":"소매업 - 잡화","category":"other"},{"name":"띵크와이즈","tel":"","addr":"경기도 시흥시 정왕동 2564번지 한라비발디캠퍼스2차","indutype":"교육서비스업 - 개인과외","category":"other"},{"name":"배곧한라길 공인중개사무소","tel":"","addr":"경기도 시흥시 정왕동 2564번지 한라비발디캠퍼스2차 1동 108호","indutype":"개인서비스업 - 부동산중개","category":"other"},{"name":"배곧한라음악교습소","tel":"031-348-5606","addr":"경기도 시흥시 정왕동 2564번지 한라비발디캠퍼스2차 1동 202호","indutype":"교육서비스업 - 음악교습소","category":"other"},{"name":"서연농산","tel":"031-499-8230","addr":"경기도 시흥시 정왕동 2564번지 한라비발디캠퍼스2차 상가2동 104비호","indutype":"소매업 - 과일","category":"other"},{"name":"수학의달인(개인과외)","tel":"","addr":"경기도 시흥시 정왕동 2564번지 한라비발디캠퍼스2차","indutype":"교육서비스업 - 개인과외","category":"other"},{"name":"에이프릴앤줄라이(April&July)","tel":"","addr":"경기도 시흥시 정왕동 2564번지 한라비발디캠퍼스2차 202동 806호","indutype":"소매업 - 천연비누,캔들","category":"other"},{"name":"예당정육점","tel":"031-431-7839","addr":"경기도 시흥시 정왕동 2564번지 한라비발디캠퍼스2차 상가2동 106에이호","indutype":"소매업 - 식육","category":"other"},{"name":"오늘반찬","tel":"","addr":"경기도 시흥시 정왕동 2564번지 한라비발디캠퍼스2차 2동 1층 107호","indutype":"소매업 - 반찬가게","category":"other"},{"name":"조은약국","tel":"031-8044-0901","addr":"경기도 시흥시 정왕동 2564번지 한라비발디캠퍼스2차 상가 401동 103비호","indutype":"보건업 - 의약품","category":"other"},{"name":"초록나무공방","tel":"","addr":"경기도 시흥시 정왕동 2564번지 한라비발디캠퍼스2차 205동 1202호","indutype":"소매업 - 제작판매및강습","category":"other"},{"name":"캠퍼스 치과의원","tel":"031-433-7528","addr":"경기도 시흥시 정왕동 2564번지 한라비발디캠퍼스2차 1동 206호","indutype":"보건업 - 치과","category":"other"},{"name":"품 태권도장","tel":"031-431-0077","addr":"경기도 시흥시 정왕동 2564번지 한라비발디캠퍼스2차 4동 211,212호","indutype":"교육서비스업 - 태권도장","category":"other"},{"name":"한쉐프의 만찬","tel":"031-433-6177","addr":"경기도 시흥시 정왕동 2564번지 한라비발디 상가 2동 105호","indutype":"소매업 - 반찬","category":"other"}]},{"lat":"37.356051433","long":"126.73116619","imageIndex":17,"items":[{"name":"고기명장","tel":"031-319-8945","addr":"경기도 시흥시 정왕동 1873-3번지","indutype":"소매업 - 정육점","category":"other"},{"name":"골드방앗간","tel":"031-432-3632","addr":"경기도 시흥시 정왕동 1873-3번지","indutype":"제조업 - 제조업","category":"other"},{"name":"남대문안경.콘택트","tel":"031-431-3423","addr":"경기도 시흥시 정왕동 1873-3번지 월드상가","indutype":"소매업 - 안경점","category":"other"}]},{"lat":"37.337932985","long":"126.72382889","imageIndex":17,"items":[{"name":"고려종합포장","tel":"031-430-1874~5","addr":"경기도 시흥시 정왕동 1364번지 시화공구상가 33동 107호","indutype":"소매업 - 비닐포장재 등","category":"other"}]},{"lat":"37.346891086","long":"126.68869704","imageIndex":17,"items":[{"name":"고프리 오이도점","tel":"031-434-0205","addr":"경기도 시흥시 정왕동 1973-12번지","indutype":"소매업 - 스포츠용품","category":"other"}]},{"lat":"37.376083849","long":"126.73244877","imageIndex":17,"items":[{"name":"골드클래스공인중개사사무소","tel":"031-497-9900","addr":"경기도 시흥시 정왕동 2456번지 시흥배곧신도시골드클래스 상가동 105호","indutype":"개인서비스업 - 부동산업","category":"other"},{"name":"더맑음","tel":"","addr":"경기도 시흥시 정왕동 2456번지 시흥배곧신도시골드클래스 상가동 202호","indutype":"개인서비스업 - 효소방","category":"other"},{"name":"더프라임영어교습소","tel":"031-433-6612","addr":"경기도 시흥시 정왕동 2456번지 골드클래스 상가 206호","indutype":"교육서비스업 - 영어교습소","category":"other"},{"name":"뮤엠영어골드클래스교습소","tel":"031-319-1105","addr":"경기도 시흥시 정왕동 2456번지 시흥배곧신도시골드클래스 상가동 205호","indutype":"교육서비스업 - 영어교습소","category":"other"},{"name":"배곧골드리치부동산","tel":"031-319-1214","addr":"경기도 시흥시 정왕동 2456번지 시흥배곧신도시골드클래스 204호(골드클래스A 상가)","indutype":"개인서비스업 - 부동산중개업","category":"other"},{"name":"배곧펠리체음악학원","tel":"031-431-0003","addr":"경기도 시흥시 정왕동 2456번지 시흥배곧신도시골드클래스 306,307,308호","indutype":"교육서비스업 - 음악교육","category":"other"},{"name":"생각하는수학교습소","tel":"031-319-5512","addr":"경기도 시흥시 정왕동 2456번지 골드클래스 상가 207호","indutype":"교육서비스업 - 수학교습소","category":"other"},{"name":"윤선생 우리집앞 영어교실 배곧 골드클래스 공부방","tel":"031-245-8491","addr":"경기도 시흥시 정왕동 2456번지 시흥배곧신도시골드클래스 104동 203호","indutype":"교육서비스업 - 영어","category":"other"},{"name":"주가화개인과외교습","tel":"","addr":"경기도 시흥시 정왕동 2456번지 시흥배곧신도시골드클래스","indutype":"교육서비스업 - 개인과외","category":"other"}]},{"lat":"37.362857009","long":"126.72853409","imageIndex":17,"items":[{"name":"골프카페 정원스크린","tel":"","addr":"경기도 시흥시 정왕동 1885-2번지","indutype":"스포츠및여가관련서비스업 - 스크린골프","category":"other"}]},{"lat":"37.357198142","long":"126.73222307","imageIndex":17,"items":[{"name":"공간수족관","tel":"031-498-3892","addr":"경기도 시흥시 정왕동 1873-2번지","indutype":"소매업 - 수족관","category":"other"}]},{"lat":"37.329727023","long":"126.73655284","imageIndex":17,"items":[{"name":"광덕","tel":"031-432-4224","addr":"경기도 시흥시 정왕동 1288-2번지 동우디지탈파크 A동 113호","indutype":"소매업 - 작업복,안전용품","category":"other"},{"name":"드림디포 시화점","tel":"031-434-0033","addr":"경기도 시흥시 정왕동 1288-2번지 동우디지털파크 B동 108호","indutype":"소매업 - 문구","category":"other"},{"name":"아프리카정비센터","tel":"031-432-0953","addr":"경기도 시흥시 정왕동 1288-2번지 동우디지털파크 B동 147호","indutype":"개인서비스업 - 카센터","category":"other"}]},{"lat":"37.345781443","long":"126.68817124","imageIndex":17,"items":[{"name":"광일호수산","tel":"","addr":"경기도 시흥시 정왕동 2003-8번지 오이도수산물직판장 A-24","indutype":"소매업 - 활어","category":"other"},{"name":"금강산","tel":"","addr":"경기도 시흥시 정왕동 2003-8번지","indutype":"소매업 - 패류","category":"other"},{"name":"동해수산","tel":"031-319-1939","addr":"경기도 시흥시 정왕동 2003-8번지","indutype":"소매업 - 수산물","category":"other"},{"name":"성은네","tel":"031-433-5884","addr":"경기도 시흥시 정왕동 2003-8번지","indutype":"소매업 - 활어","category":"other"},{"name":"우리수산","tel":"031-431-8983","addr":"경기도 시흥시 정왕동 2003-8번지 A동 21호","indutype":"소매업 - 수산물","category":"other"},{"name":"자매젓갈","tel":"031-434-1050","addr":"경기도 시흥시 정왕동 2003-8번지","indutype":"소매업 - 젖갈","category":"other"},{"name":"태풍수산","tel":"","addr":"경기도 시흥시 정왕동 2003-8번지","indutype":"소매업 - 활어","category":"other"}]},{"lat":"37.341973864","long":"126.74561662","imageIndex":17,"items":[{"name":"광천그릇탑주방산업","tel":"031-319-1444","addr":"경기도 시흥시 정왕동 1437-12번지","indutype":"소매업 - 그릇,주방설비","category":"other"}]},{"lat":"37.35099703","long":"126.74332856","imageIndex":17,"items":[{"name":"구슬치기","tel":"070-8817-6101","addr":"경기도 시흥시 정왕동 2326-2번지 201호","indutype":"개인서비스업 - 당구장","category":"other"}]},{"lat":"37.363221248","long":"126.73019214","imageIndex":17,"items":[{"name":"국가대표 태권스쿨(점핑클럽)","tel":"031-432-8801","addr":"경기도 시흥시 정왕동 1882-4번지 세종프라자 405,406,407호","indutype":"교육서비스업 - 체육도장업","category":"other"},{"name":"낙원복떡집","tel":"031-433-4466","addr":"경기도 시흥시 정왕동 1882-4번지","indutype":"제조업 - 방앗간","category":"other"},{"name":"달콤한네일","tel":"031-431-4401","addr":"경기도 시흥시 정왕동 1882-4번지 124-2","indutype":"개인서비스업 - 네일아트","category":"other"},{"name":"로드복싱짐","tel":"031-319-5433","addr":"경기도 시흥시 정왕동 1882-4번지 5층 501, 502-1~2, 503-1~2호","indutype":"스포츠및여가관련서비스업 - 복싱","category":"other"},{"name":"시화청과","tel":"031-433-5277","addr":"경기도 시흥시 정왕동 1882-4번지 세종프라자 121-5","indutype":"소매업 - 과일","category":"other"},{"name":"아리따움 시흥정왕점","tel":"","addr":"경기도 시흥시 정왕동 1882-4번지 세종프라자 114호","indutype":"소매업 - 화장품","category":"other"},{"name":"어게인","tel":"031-431-8936","addr":"경기도 시흥시 정왕동 1882-4번지 세종프라자 111호","indutype":"소매업 - 의류","category":"other"}]},{"lat":"37.376666205","long":"126.72711769","imageIndex":17,"items":[{"name":"국가대표줄넘기클럽YJR","tel":"031-497-0160","addr":"경기도 시흥시 정왕동 2477-4번지 골든프라자 302호","indutype":"교육서비스업 - 줄넘기","category":"other"},{"name":"돌고래약국","tel":"031-431-2018","addr":"경기도 시흥시 정왕동 2477-4번지 골든프라자 108호","indutype":"보건업 - 양약,기타의료기기","category":"other"},{"name":"모닝글로리 배곧점","tel":"031-434-0989","addr":"경기도 시흥시 정왕동 2477-4번지 글든프라자 105호","indutype":"소매업 - 문구","category":"other"},{"name":"배곧 효 태권도장","tel":"031-498-0002","addr":"경기도 시흥시 정왕동 2477-4번지 골든프라자 403호","indutype":"교육서비스업 - 태권도","category":"other"},{"name":"소피의세계 국어논술학원","tel":"031-498-0305","addr":"경기도 시흥시 정왕동 2477-4번지 골든프라자 401호","indutype":"교육서비스업 - 논술","category":"other"},{"name":"정직한정육점","tel":"","addr":"경기도 시흥시 정왕동 2477-4번지 골든프라자 101호","indutype":"소매업 - 식육","category":"other"},{"name":"킴스요가필라테스","tel":"031-499-4785","addr":"경기도 시흥시 정왕동 2477-4번지 골든프라자 503호","indutype":"스포츠및여가관련서비스업 - 요가&필라","category":"other"}]},{"lat":"37.374412075","long":"126.73424986","imageIndex":17,"items":[{"name":"국선생배곧신도시점","tel":"031-432-7455","addr":"경기도 시흥시 정왕동 2468번지 솔로몬프라자 1층 102호","indutype":"소매업 - 즉석판매제조가공업","category":"other"},{"name":"대박축산","tel":"031-497-4974","addr":"경기도 시흥시 정왕동 2468번지 솔로몬프라자 103호","indutype":"소매업 - 정육점","category":"other"},{"name":"배곧에듀컴","tel":"","addr":"경기도 시흥시 정왕동 2468번지 솔로몬프라자 5층 505호","indutype":"교육서비스업 - 컴퓨터","category":"other"},{"name":"아싸비어 배곧신도시점","tel":"070-8688-5281","addr":"경기도 시흥시 정왕동 2468번지 솔로몬프라자 104호","indutype":"소매업 - 음,식료품","category":"other"},{"name":"윤선미 피부샵","tel":"031-319-2220","addr":"경기도 시흥시 정왕동 2468번지 솔로몬프라자 303호","indutype":"개인서비스업 - 피부샵","category":"other"},{"name":"윤이네떡","tel":"031-360-5576","addr":"경기도 시흥시 정왕동 2468번지 솔로몬프라자 1층 105호","indutype":"제조업 - 떡류","category":"other"},{"name":"힐링 더블샵","tel":"","addr":"경기도 시흥시 정왕동 2468번지 솔로몬 프라자 3층 304호","indutype":"개인서비스업 - 체형관리(관리)","category":"other"}]},{"lat":"37.337946244","long":"126.7540034","imageIndex":17,"items":[{"name":"군자카모터스","tel":"031-433-0870","addr":"경기도 시흥시 정왕동 1425-1번지 산경빌딩 1층","indutype":"개인서비스업 - 카센타","category":"other"}]},{"lat":"37.370444608","long":"126.7290032","imageIndex":17,"items":[{"name":"궁스크린골프존","tel":"031-433-0753","addr":"경기도 시흥시 정왕동 2513번지 센타프라자1 607호","indutype":"스포츠및여가관련서비스업 - 골프연습장","category":"other"},{"name":"꿈나무소아청소년과","tel":"031-503-2288","addr":"경기도 시흥시 정왕동 2513번지 센터프라자1차 405호","indutype":"보건업 - 소아청소년과","category":"other"},{"name":"센타당구클럽","tel":"","addr":"경기도 시흥시 정왕동 2513번지 센터프라자 701호","indutype":"스포츠및여가관련서비스업 - 당구장","category":"other"},{"name":"제닉스아레나PC방","tel":"070-7854-5893","addr":"경기도 시흥시 정왕동 2513번지 센터프라자 407호","indutype":"개인서비스업 - pc방","category":"other"},{"name":"탑플라이트 스터디 배곧센타","tel":"","addr":"경기도 시흥시 정왕동 2513번지 센터프라자 305호","indutype":"개인서비스업 - 공간임대","category":"other"},{"name":"한울노래연습장","tel":"","addr":"경기도 시흥시 정왕동 2513번지 센터프라자 703호","indutype":"개인서비스업 - 노래연습장","category":"other"}]},{"lat":"37.369861331","long":"126.73003263","imageIndex":17,"items":[{"name":"글라스스토리(배곧신도시점)","tel":"031-433-0880","addr":"경기도 시흥시 정왕동 2514번지 M-플러스 132호","indutype":"소매업 - 안경","category":"other"},{"name":"뉴턴전자담배","tel":"","addr":"경기도 시흥시 정왕동 2514번지 M-플러스 1층 126호","indutype":"소매업 - 전자담배","category":"other"},{"name":"렌즈미","tel":"031-433-0886","addr":"경기도 시흥시 정왕동 2514번지 M-플러스 133호","indutype":"소매업 - 안경","category":"other"},{"name":"바른이치과의원","tel":"031-499-2875","addr":"경기도 시흥시 정왕동 2514번지 M-플러스 409호","indutype":"보건업 - 치과","category":"other"},{"name":"배곧 본 주짓수","tel":"031-488-8225","addr":"경기도 시흥시 정왕동 2514번지 M-플러스 306호","indutype":"교육서비스업 - 주짓수","category":"other"},{"name":"배곧정형외과","tel":"031-432-1230","addr":"경기도 시흥시 정왕동 2514번지 M-플러스 509~11호","indutype":"보건업 - 정형외과","category":"other"},{"name":"아리따움 시흥배곧점","tel":"","addr":"경기도 시흥시 정왕동 2514번지 M-플러스 1층 121호","indutype":"소매업 - 화장품","category":"other"},{"name":"아이러브플랫 배곧신도시점","tel":"031-432-4425","addr":"경기도 시흥시 정왕동 2514번지 엠플러스 1층 141호","indutype":"소매업 - 기성화, 구두및캐주얼화","category":"other"},{"name":"아이젠트리 경기배곧점","tel":"031-431-0880","addr":"경기도 시흥시 정왕동 2514번지 M-플러스 5층 506호","indutype":"소매업 - 안경","category":"other"},{"name":"엠플 당구장","tel":"031-434-4046","addr":"경기도 시흥시 정왕동 2514번지 M-플러스 4층 403,404호","indutype":"스포츠및여가관련서비스업 - 당구장","category":"other"},{"name":"케이제이통신","tel":"070-8872-9060","addr":"경기도 시흥시 정왕동 2514번지 정왕엠플러스 120호","indutype":"소매업 - 핸드폰","category":"other"},{"name":"파티클","tel":"","addr":"경기도 시흥시 정왕동 2514번지 M-플러스 308호","indutype":"개인서비스업 - 키즈카페","category":"other"}]},{"lat":"37.3588571","long":"126.72878569","imageIndex":17,"items":[{"name":"글리솝","tel":"","addr":"경기도 시흥시 정왕동 1875-2번지 미주아파트 106동 501호","indutype":"개인서비스업 - 비누공방","category":"other"}]},{"lat":"37.346885778","long":"126.75044146","imageIndex":17,"items":[{"name":"금메달태권도장","tel":"031-432-3726","addr":"경기도 시흥시 정왕동 1180-2번지 2층","indutype":"교육서비스업 - 태권도","category":"other"}]},{"lat":"37.342531308","long":"126.68912146","imageIndex":17,"items":[{"name":"금산청과","tel":"031-431-8688","addr":"경기도 시흥시 정왕동 2025-7번지","indutype":"소매업 - 과일","category":"other"}]},{"lat":"37.377940293","long":"126.72869368","imageIndex":17,"items":[{"name":"기분 좋은 날","tel":"","addr":"경기도 시흥시 정왕동 2441-1번지 103호","indutype":"소매업 - 화분,꽃","category":"other"},{"name":"더(The)가득","tel":"","addr":"경기도 시흥시 정왕동 2441-1번지 102호","indutype":"소매업 - 과일","category":"other"},{"name":"프리실라(글로리아)","tel":"","addr":"경기도 시흥시 정왕동 2441-1번지","indutype":"소매업 - 속옷","category":"other"}]},{"lat":"37.35113851","long":"126.74210914","imageIndex":17,"items":[{"name":"기분좋은안경","tel":"031-431-7007","addr":"경기도 시흥시 정왕동 2327-5번지","indutype":"소매업 - 안경","category":"other"}]},{"lat":"37.344447215","long":"126.75193929","imageIndex":17,"items":[{"name":"기예당구장","tel":"","addr":"경기도 시흥시 정왕동 1195-9번지","indutype":"스포츠및여가관련서비스업 - 당구장","category":"other"},{"name":"세원약국","tel":"031-433-3208","addr":"경기도 시흥시 정왕동 1195-9번지","indutype":"보건업 - 양약","category":"other"}]},{"lat":"37.350913135","long":"126.71486463","imageIndex":17,"items":[{"name":"기프트디자인","tel":"031-509-9191","addr":"경기도 시흥시 정왕동 2164-8번지 105호","indutype":"소매업 - 인쇄물, 판촉물","category":"other"}]},{"lat":"37.368196494","long":"126.72702451","imageIndex":17,"items":[{"name":"꽃갈피","tel":"031-434-0315","addr":"경기도 시흥시 정왕동 2534-1번지 다인 로얄팰리스 배곧8차 1층 101호","indutype":"소매업 - 꽃(화훼)","category":"other"},{"name":"바름네일","tel":"031-433-1202","addr":"경기도 시흥시 정왕동 2531-1번지 해든트윈스오피스텔 2층 217호","indutype":"개인서비스업 - 네일아트","category":"other"}]},{"lat":"37.35091692","long":"126.73969462","imageIndex":17,"items":[{"name":"꽃과나무가있는집","tel":"031-432-1593","addr":"경기도 시흥시 정왕동 876-315번지","indutype":"소매업 - 생화","category":"other"},{"name":"꽃뜨락","tel":"031-498-3450","addr":"경기도 시흥시 정왕동 876-315번지","indutype":"소매업 - 화원","category":"other"},{"name":"러브꽃방","tel":"","addr":"경기도 시흥시 정왕동 876-315번지","indutype":"소매업 - 화원","category":"other"},{"name":"백만송이플라워","tel":"031-434-8985","addr":"경기도 시흥시 정왕동 876-315번지","indutype":"소매업 - 꽃,나무","category":"other"},{"name":"송현주플라워","tel":"031-498-4433","addr":"경기도 시흥시 정왕동 876-315번지","indutype":"소매업 - 생화","category":"other"}]},{"lat":"37.351560449","long":"126.73736736","imageIndex":17,"items":[{"name":"꽃숲","tel":"031-496-9522","addr":"경기도 시흥시 정왕동 876-374번지 비닐하우스 6호","indutype":"소매업 - 화훼","category":"other"},{"name":"뿌리깊은 나무","tel":"031-319-8374","addr":"경기도 시흥시 정왕동 876-374번지 뿌리깊은나무 4호","indutype":"소매업 - 생화","category":"other"},{"name":"행운을전하는꽃집","tel":"031-431-6922","addr":"경기도 시흥시 정왕동 876-374번지","indutype":"소매업 - 화원","category":"other"}]},{"lat":"37.345250788","long":"126.73622717","imageIndex":17,"items":[{"name":"꿈꾸는앤","tel":"031-404-5552","addr":"경기도 시흥시 정왕동 1736-3번지 한강프라자 105호","indutype":"기타 - 원목소품","category":"other"},{"name":"모이몰른 시화점","tel":"","addr":"경기도 시흥시 정왕동 1736-3번지 한강프라자 102호","indutype":"소매업 - 유아복","category":"other"},{"name":"카페공방 조물락","tel":"031-433-8771","addr":"경기도 시흥시 정왕동 1736-3번지 한강프라자 2층 204호","indutype":"기타 - 공예품,디저트,음료등","category":"other"}]},{"lat":"37.354058139","long":"126.72256152","imageIndex":17,"items":[{"name":"나래연한복","tel":"070-7889-8522","addr":"경기도 시흥시 정왕동 1857-1번지","indutype":"소매업 - 한복","category":"other"},{"name":"삼성종합철물","tel":"031-433-2802","addr":"경기도 시흥시 정왕동 1857-1번지","indutype":"소매업 - 철물, 건재","category":"other"}]},{"lat":"37.361665718","long":"126.72769183","imageIndex":17,"items":[{"name":"낙원떡집 (정왕동)","tel":"031-433-4991","addr":"경기도 시흥시 정왕동 1886-3번지 서해 상가 지하 2호","indutype":"제조업 - 떡","category":"other"},{"name":"미벨라","tel":"031-431-6347","addr":"경기도 시흥시 정왕동 1886-3번지 서해아파트 상가동 1층 104호","indutype":"소매업 - 화장품,잡화","category":"other"}]},{"lat":"37.345695624","long":"126.68978543","imageIndex":17,"items":[{"name":"내눈에 안경","tel":"031-432-0323","addr":"경기도 시흥시 정왕동 1999-4번지 102호","indutype":"소매업 - 안경","category":"other"}]},{"lat":"37.344693116","long":"126.74894783","imageIndex":17,"items":[{"name":"내멋대로","tel":"031-433-8503","addr":"경기도 시흥시 정왕동 1213-5번지","indutype":"소매업 - 여성의류","category":"other"}]},{"lat":"37.347254051","long":"126.73357921","imageIndex":17,"items":[{"name":"네일리","tel":"031-498-0412","addr":"경기도 시흥시 정왕동 1728-1번지 두원프라자 1층 110호","indutype":"개인서비스업 - 네일, 메이크업","category":"other"}]},{"lat":"37.34386372","long":"126.7364465","imageIndex":17,"items":[{"name":"네파(시화점)","tel":"031-433-0997","addr":"경기도 시흥시 정왕동 1742-13번지 명성프라자 1층","indutype":"소매업 - 등산,아웃도어","category":"other"},{"name":"파크랜드시화점","tel":"031-431-8477","addr":"경기도 시흥시 정왕동 1742-13번지","indutype":"소매업 - 의류수탁판매","category":"other"}]},{"lat":"37.348001042","long":"126.74533648","imageIndex":17,"items":[{"name":"놀러와PC방","tel":"","addr":"경기도 시흥시 정왕동 1824-2번지","indutype":"개인서비스업 - PC방","category":"other"}]},{"lat":"37.369105243","long":"126.73036276","imageIndex":17,"items":[{"name":"놀숲 배곧신도시점","tel":"031-319-2300","addr":"경기도 시흥시 정왕동 2519번지 4층","indutype":"개인서비스업 - 임대업,도서대여","category":"other"},{"name":"배곧서울정형외과의원","tel":"031-365-3413","addr":"경기도 시흥시 정왕동 2519번지 403호","indutype":"보건업 - 정형외과","category":"other"},{"name":"블록 팡팡","tel":"031-431-5388","addr":"경기도 시흥시 정왕동 2519번지 502호","indutype":"개인서비스업 - 블럭방","category":"other"},{"name":"설송원망개떡 시흥본점","tel":"031-434-0788","addr":"경기도 시흥시 정왕동 2519번지 스타타워 115호","indutype":"제조업 - 망개떡","category":"other"},{"name":"스타일노리터시흥배곧신도시점","tel":"031-496-0505","addr":"경기도 시흥시 정왕동 2519번지 1층 110호","indutype":"소매업 - 의류(아동)","category":"other"},{"name":"스펙타클","tel":"031-434-1659","addr":"경기도 시흥시 정왕동 2519번지 1층 105호","indutype":"소매업 - 안경","category":"other"},{"name":"오렌즈배곧신도시점","tel":"031-433-5550","addr":"경기도 시흥시 정왕동 2519번지 1층 104호","indutype":"소매업 - 안경","category":"other"},{"name":"조은오피스(알파문구시흥배곧점)","tel":"031-432-1949","addr":"경기도 시흥시 정왕동 2519번지 2층 204호","indutype":"소매업 - 사무용품,광고기획","category":"other"}]},{"lat":"37.342719669","long":"126.73655211","imageIndex":17,"items":[{"name":"누리봄사회적협동조합","tel":"031-498-1261","addr":"경기도 시흥시 정왕동 1744-7번지 제일빌딩 301호","indutype":"소매업 - 누룽지","category":"other"}]},{"lat":"37.346747352","long":"126.7326443","imageIndex":17,"items":[{"name":"누벨마리플라워","tel":"031-433-5430","addr":"경기도 시흥시 정왕동 1728-7번지","indutype":"소매업 - 꽃","category":"other"},{"name":"유성 공인중개사","tel":"031-498-9448","addr":"경기도 시흥시 정왕동 1728-7번지 진성프라자 101호","indutype":"개인서비스업 - 부동산중개","category":"other"}]},{"lat":"37.344859259","long":"126.73841794","imageIndex":17,"items":[{"name":"눈안경원","tel":"031-506-2002","addr":"경기도 시흥시 정왕동 1734-7번지 제일프라자 108,109호","indutype":"소매업 - 안경","category":"other"},{"name":"동아약국","tel":"031-504-4477","addr":"경기도 시흥시 정왕동 1734-7번지 제일프라자 105호","indutype":"소매업 - 양약","category":"other"}]},{"lat":"37.343998439","long":"126.73625417","imageIndex":17,"items":[{"name":"뉴발란스 시화점","tel":"","addr":"경기도 시흥시 정왕동 1742-12번지 상록프라자 101~104호","indutype":"소매업 - 신발,의류,스포츠용품","category":"other"}]},{"lat":"37.34527787","long":"126.74027858","imageIndex":17,"items":[{"name":"늑대와 여우 컴퓨터","tel":"031-433-6001","addr":"경기도 시흥시 정왕동 1621-9번지","indutype":"소매업 - 컴퓨터 및 주변기기","category":"other"}]},{"lat":"37.346919145","long":"126.74502417","imageIndex":17,"items":[{"name":"님프만","tel":"031-499-7062","addr":"경기도 시흥시 정왕동 1838-10번지","indutype":"소매업 - 이불","category":"other"}]},{"lat":"37.348526761","long":"126.73858565","imageIndex":17,"items":[{"name":"다듬","tel":"","addr":"경기도 시흥시 정왕동 1800-3번지 501~4호","indutype":"제조업 - 제조","category":"other"},{"name":"키위(KEYWE)","tel":"","addr":"경기도 시흥시 정왕동 1800-3번지 서부경기문화창조허브 5층 501-9호","indutype":"제조업 - 보드게임,모바일게임","category":"other"}]},{"lat":"37.345449442","long":"126.73641832","imageIndex":17,"items":[{"name":"다비치안경 시흥정왕점","tel":"031-499-3579","addr":"경기도 시흥시 정왕동 1736-2번지 우성프라자 101, 201호","indutype":"소매업 - 안경","category":"other"},{"name":"주식회사 남대문안경원채움","tel":"031-433-5977","addr":"경기도 시흥시 정왕동 1736-2번지 우성프라자 103호","indutype":"소매업 - 안경","category":"other"}]},{"lat":"37.344362915","long":"126.69008439","imageIndex":17,"items":[{"name":"다산 정육점","tel":"031-434-4409","addr":"경기도 시흥시 정왕동 2014-3번지","indutype":"소매업 - 식육","category":"other"}]},{"lat":"37.353198846","long":"126.72496879","imageIndex":17,"items":[{"name":"다올(BYC)","tel":"","addr":"경기도 시흥시 정왕동 1861-8번지 트윈프라자 119호","indutype":"소매업 - 속옷,의류","category":"other"},{"name":"예진산부인과","tel":"031-431-1134","addr":"경기도 시흥시 정왕동 1861-8번지 트윈프라자 B동 308~010호","indutype":"보건업 - 산부인과","category":"other"}]},{"lat":"37.33736551","long":"126.72774666","imageIndex":17,"items":[{"name":"다원","tel":"031-498-2666","addr":"경기도 시흥시 정왕동 1366-13번지 1층","indutype":"소매업 - 매점, 커피숍","category":"other"}]},{"lat":"37.374473194","long":"126.73339161","imageIndex":17,"items":[{"name":"닥스서적","tel":"031-503-0579","addr":"경기도 시흥시 정왕동 2470-1번지 베스트프라자 6층 608호 일부","indutype":"소매업 - 서적,잡지 및 신문 도매업","category":"other"},{"name":"라인골프존파크","tel":"","addr":"경기도 시흥시 정왕동 2470-1번지 베스트프라자 306호","indutype":"스포츠및여가관련서비스업 - 실내스크린","category":"other"},{"name":"밝은눈안경","tel":"031-497-9229","addr":"경기도 시흥시 정왕동 2470-1번지 베스트프라자 112호","indutype":"소매업 - 안경","category":"other"},{"name":"배곧파워점핑클럽","tel":"","addr":"경기도 시흥시 정왕동 2470-1번지 베스트프라자 5층 506호","indutype":"스포츠및여가관련서비스업 - 줄넘기","category":"other"},{"name":"캠브리지영어학원","tel":"031-365-5125","addr":"경기도 시흥시 정왕동 2470-1번지 베스트프라자 609호","indutype":"교육서비스업 - 교육서비스 영어","category":"other"},{"name":"허브정보통신","tel":"031-319-7421","addr":"경기도 시흥시 정왕동 2470-1번지 베스트프라자 106호","indutype":"소매업 - 통신","category":"other"}]},{"lat":"37.338220669","long":"126.75168918","imageIndex":17,"items":[{"name":"닥터맘산모도우미안산시흥지점","tel":"031-406-4006","addr":"경기도 시흥시 정왕동 1427-14번지 104호","indutype":"보건업 - 산모도우미","category":"other"}]},{"lat":"37.351389871","long":"126.74169067","imageIndex":17,"items":[{"name":"단편사진관","tel":"031-432-1425","addr":"경기도 시흥시 정왕동 2327-2번지","indutype":"소매업 - 사진","category":"other"},{"name":"시화휴대폰유통도매센터","tel":"031-431-3010","addr":"경기도 시흥시 정왕동 2327-2번지 롯데시네마 시화점 3층 301호","indutype":"소매업 - 휴대폰","category":"other"}]},{"lat":"37.36132923","long":"126.71875303","imageIndex":17,"items":[{"name":"달콤핸드메이드","tel":"","addr":"경기도 시흥시 정왕동 2558번지 한라캠퍼스3차 301동 301호","indutype":"개인서비스업 - 비누공방","category":"other"},{"name":"마켓홀릭","tel":"","addr":"경기도 시흥시 정왕동 2558번지 한라비발디캠퍼스3차 4동 1층 108호","indutype":"소매업 - 편의점","category":"other"},{"name":"준스터디 영어수학학원","tel":"031-497-9663","addr":"경기도 시흥시 정왕동 2558번지 한라비발디캠퍼스3차 상가 203호","indutype":"교육서비스업 - 영어수학교습","category":"other"},{"name":"하나음악학원","tel":"031-499-4991","addr":"경기도 시흥시 정왕동 2558번지 한라비발디캠퍼스3차 상가 206호","indutype":"교육서비스업 - 음악교육","category":"other"}]},{"lat":"37.344699905","long":"126.75641877","imageIndex":17,"items":[{"name":"대건공조","tel":"031-499-8191","addr":"경기도 시흥시 정왕동 1524-1번지","indutype":"소매업 - 라디에터카에어콘","category":"other"}]},{"lat":"37.344227129","long":"126.75013437","imageIndex":17,"items":[{"name":"대복농축산","tel":"","addr":"경기도 시흥시 정왕동 1198-9번지 103호","indutype":"소매업 - 식육,채소","category":"other"}]},{"lat":"37.342375054","long":"126.6982856","imageIndex":17,"items":[{"name":"대원종합상사","tel":"031-8041-9909","addr":"경기도 시흥시 정왕동 2211번지 시화오이도철강단지 1동 110호","indutype":"소매업 - 철만물, 공구","category":"other"}]},{"lat":"37.362580076","long":"126.72956232","imageIndex":17,"items":[{"name":"대창오피스","tel":"031-319-2488","addr":"경기도 시흥시 정왕동 1884-9번지 101~102호","indutype":"소매업 - 문구","category":"other"}]},{"lat":"37.344276682","long":"126.7357792","imageIndex":17,"items":[{"name":"대한전기조명","tel":"031-499-8262","addr":"경기도 시흥시 정왕동 1742-5번지","indutype":"소매업 - 조명기구및전기용품","category":"other"}]},{"lat":"37.346830984","long":"126.74591605","imageIndex":17,"items":[{"name":"더네일뷰티","tel":"031-433-3344","addr":"경기도 시흥시 정왕동 1209-8번지 102호","indutype":"개인서비스업 - 네일아트","category":"other"}]},{"lat":"37.369802828","long":"126.72811368","imageIndex":17,"items":[{"name":"더엑스PC 배곧신도시점","tel":"","addr":"경기도 시흥시 정왕동 2515-1번지 605호 606호","indutype":"개인서비스업 - PC방","category":"other"}]},{"lat":"37.373800009","long":"126.734523","imageIndex":17,"items":[{"name":"더튼튼약국","tel":"031-834-8106","addr":"경기도 시흥시 정왕동 2471-2번지 대경프라자 108호","indutype":"보건업 - 의약품","category":"other"},{"name":"블랙벨트 태권도장","tel":"031-434-4999","addr":"경기도 시흥시 정왕동 2471-2번지 4층 401,402호","indutype":"교육서비스업 - 태권도장","category":"other"},{"name":"삼성영어쎈수학라온학원","tel":"031-433-3405","addr":"경기도 시흥시 정왕동 2471-2번지 대경프라자 504호","indutype":"교육서비스업 - 영어,수학","category":"other"}]},{"lat":"37.354024581","long":"126.72361132","imageIndex":17,"items":[{"name":"도깨비반찬","tel":"031-499-2766","addr":"경기도 시흥시 정왕동 1861-3번지","indutype":"소매업 - 반찬가게","category":"other"},{"name":"변사또열쇠","tel":"","addr":"경기도 시흥시 정왕동 1861-3번지","indutype":"소매업 - 열쇠,도장,철물","category":"other"},{"name":"손뜨개 여왕의 뜨개질 공방","tel":"031-433-4860","addr":"경기도 시흥시 정왕동 1861-3번지 메가쇼핑 1층 132호","indutype":"소매업 - 뜨개질용품","category":"other"},{"name":"정관장 정왕점","tel":"031-434-2788","addr":"경기도 시흥시 정왕동 1861-3번지 메기상가 110호","indutype":"소매업 - 홍삼","category":"other"},{"name":"정왕문고","tel":"031-432-7900","addr":"경기도 시흥시 정왕동 1861-3번지 205호","indutype":"소매업 - 서적,음반,도서관용역","category":"other"},{"name":"채플린노래연습장","tel":"031-433-7195","addr":"경기도 시흥시 정왕동 1861-3번지","indutype":"스포츠및여가관련서비스업 - 노래방","category":"other"},{"name":"캣츠","tel":"031-497-1205","addr":"경기도 시흥시 정왕동 1861-3번지","indutype":"소매업 - 의류및잡화","category":"other"},{"name":"태후사랑 정왕점","tel":"031-431-1547","addr":"경기도 시흥시 정왕동 1861-3번지 메가쇼핑몰 1층 133호","indutype":"개인서비스업 - 염색","category":"other"},{"name":"피크닉앤팩","tel":"070-8745-9486","addr":"경기도 시흥시 정왕동 1861-3번지 메가쇼핑몰 131호","indutype":"소매업 - 잡화","category":"other"},{"name":"한우백년","tel":"031-319-3525","addr":"경기도 시흥시 정왕동 1861-3번지 메가쇼핑몰 1층 104호","indutype":"소매업 - 식육","category":"other"}]},{"lat":"37.321920022","long":"126.71550556","imageIndex":17,"items":[{"name":"도원테크","tel":"","addr":"경기도 시흥시 정왕동 2180-6번지 화공단 3바 813호","indutype":"제조업 - 금속구조물","category":"other"}]},{"lat":"37.343087224","long":"126.74382976","imageIndex":17,"items":[{"name":"돌하우스(Doll House)","tel":"","addr":"경기도 시흥시 정왕동 1595-11번지 203호","indutype":"개인서비스업 - 토탈공예,인형 제조","category":"other"}]},{"lat":"37.346835144","long":"126.74369274","imageIndex":17,"items":[{"name":"동서가구정왕점","tel":"031-497-2120","addr":"경기도 시흥시 정왕동 1598-6번지","indutype":"소매업 - 가구","category":"other"}]},{"lat":"37.344058629","long":"126.74305902","imageIndex":17,"items":[{"name":"동의세란약국","tel":"031-319-2539","addr":"경기도 시흥시 정왕동 1593-6번지 1층","indutype":"보건업 - 양약","category":"other"},{"name":"안경공작소","tel":"031-433-1005","addr":"경기도 시흥시 정왕동 1593-6번지 1층","indutype":"소매업 - 안경점","category":"other"}]},{"lat":"37.348140268","long":"126.74307881","imageIndex":17,"items":[{"name":"동협바이크","tel":"","addr":"경기도 시흥시 정왕동 1830-10번지","indutype":"소매업 - 자전거","category":"other"}]},{"lat":"37.338366088","long":"126.74391368","imageIndex":17,"items":[{"name":"두산형제세탁소","tel":"031-431-1113","addr":"경기도 시흥시 정왕동 1786번지 두산아파트","indutype":"개인서비스업 - 세탁업","category":"other"},{"name":"세반한우정육점","tel":"031-498-2221","addr":"경기도 시흥시 정왕동 1786번지 두산상가 A호","indutype":"소매업 - 정육점","category":"other"},{"name":"해법수학교습소","tel":"031-509-7900","addr":"경기도 시흥시 정왕동 1786번지 두산아파트","indutype":"교육서비스업 - 교습소","category":"other"}]},{"lat":"37.359024913","long":"126.75588657","imageIndex":17,"items":[{"name":"두손산업","tel":"031-491-7795","addr":"경기도 시흥시 정왕동 2256-5번지 1층","indutype":"소매업 - 샤시,창호","category":"other"}]},{"lat":"37.37741501","long":"126.72753269","imageIndex":17,"items":[{"name":"드림가 (시흥, 안산, 광명지사)","tel":"1670-0726","addr":"경기도 시흥시 정왕동 2475-3번지 배곧타운 306호","indutype":"개인서비스업 - 산모,신생아 지원사업","category":"other"},{"name":"솔내음 태권도장","tel":"","addr":"경기도 시흥시 정왕동 2475-3번지 배곧타운 ㅣ 503호","indutype":"교육서비스업 - 체육도장업","category":"other"},{"name":"한별나라 도서관","tel":"031-434-1319","addr":"경기도 시흥시 정왕동 2475-3번지 배곧타운 ㅣ 4층 409호","indutype":"교육서비스업 - 도서관,교육상담","category":"other"}]},{"lat":"37.35030266","long":"126.74306008","imageIndex":17,"items":[{"name":"드림오피스","tel":"031-434-7735","addr":"경기도 시흥시 정왕동 1811-2번지 신용빌딩 1층","indutype":"소매업 - 문구","category":"other"}]},{"lat":"37.364359032","long":"126.73128299","imageIndex":17,"items":[{"name":"드림탁구교실","tel":"","addr":"경기도 시흥시 정왕동 1880-8번지 4층 401,402호","indutype":"스포츠및여가관련서비스업 - 탁구","category":"other"}]},{"lat":"37.335084463","long":"126.72711179","imageIndex":17,"items":[{"name":"디자인신일","tel":"031-430-5121","addr":"경기도 시흥시 정왕동 1367-1번지","indutype":"소매업 - 간판디자인,판촉물","category":"other"},{"name":"창성전업","tel":"031-430-6608","addr":"경기도 시흥시 정왕동 1367-1번지 (공구상가20동 104,204,304)","indutype":"소매업 - 전기자재,안전용품","category":"other"}]},{"lat":"37.343866408","long":"126.73764273","imageIndex":17,"items":[{"name":"떡고을","tel":"031-497-2234","addr":"경기도 시흥시 정왕동 1739-6번지","indutype":"제조업 - 떡류","category":"other"}]},{"lat":"37.35391363","long":"126.72241533","imageIndex":17,"items":[{"name":"라온PC방","tel":"","addr":"경기도 시흥시 정왕동 1857-2번지 21세기프라자 2층 201호","indutype":"개인서비스업 - pc방","category":"other"}]},{"lat":"37.36230758","long":"126.72861511","imageIndex":17,"items":[{"name":"라온스포츠","tel":"","addr":"경기도 시흥시 정왕동 1886-2번지 대승프라자 115호","indutype":"소매업 - 배드민턴용품","category":"other"},{"name":"용이앤티타일","tel":"031-434-1688","addr":"경기도 시흥시 정왕동 1886-2번지 116호","indutype":"소매업 - 타일","category":"other"},{"name":"정직한정육점","tel":"031-497-0225","addr":"경기도 시흥시 정왕동 1886-2번지 대승프라자 101호","indutype":"소매업 - 식육","category":"other"},{"name":"크린토피아 정왕4동점","tel":"031-433-4888","addr":"경기도 시흥시 정왕동 1886-2번지 113호","indutype":"개인서비스업 - 세탁중개업","category":"other"},{"name":"플라워 샵","tel":"031-499-6423","addr":"경기도 시흥시 정왕동 1886-2번지 114호","indutype":"소매업 - 꽃, 화훼","category":"other"}]},{"lat":"37.343417168","long":"126.74639038","imageIndex":17,"items":[{"name":"레드구제샵","tel":"","addr":"경기도 시흥시 정왕동 1583-8번지","indutype":"소매업 - 의류,잡화","category":"other"}]},{"lat":"37.344999243","long":"126.73655534","imageIndex":17,"items":[{"name":"렌즈미시흥점","tel":"031-498-5887","addr":"경기도 시흥시 정왕동 1737-3번지 금강프라자 105호","indutype":"소매업 - 콘텍트렌즈,안경","category":"other"},{"name":"행복한서적","tel":"031-433-2280","addr":"경기도 시흥시 정왕동 1737-3번지 금강프라자 지하1층 102호","indutype":"소매업 - 서적및인쇄물","category":"other"}]},{"lat":"37.344862158","long":"126.73569813","imageIndex":17,"items":[{"name":"룩(look)","tel":"031-319-2207","addr":"경기도 시흥시 정왕동 1737-9번지 로얄빌딩 101호","indutype":"소매업 - 의류","category":"other"}]},{"lat":"37.342021236","long":"126.7384956","imageIndex":17,"items":[{"name":"리본부띠끄","tel":"","addr":"경기도 시흥시 정왕동 1790번지 영남6차아파트 604동 901호","indutype":"개인서비스업 - 악세사리공방","category":"other"}]},{"lat":"37.343585347","long":"126.73686504","imageIndex":17,"items":[{"name":"마리노래연습장","tel":"032-432-9145","addr":"경기도 시흥시 정왕동 1742-16번지 4층","indutype":"개인서비스업 - 노래방","category":"other"},{"name":"휠라인티모 시화점","tel":"031-497-4976","addr":"경기도 시흥시 정왕동 1742-16번지 동산빌딩 101호","indutype":"소매업 - 속옷,스포츠내의","category":"other"}]},{"lat":"37.363502352","long":"126.73097001","imageIndex":17,"items":[{"name":"마임","tel":"031-319-6333","addr":"경기도 시흥시 정왕동 1881-8번지 미성프라자 305호","indutype":"소매업 - 화장품","category":"other"},{"name":"시카고치과의원","tel":"031-433-2275","addr":"경기도 시흥시 정왕동 1881-8번지 미성프라자 302,303호","indutype":"보건업 - 치과","category":"other"}]},{"lat":"37.345306455","long":"126.74925048","imageIndex":17,"items":[{"name":"머피애견","tel":"031-497-9464","addr":"경기도 시흥시 정왕동 1201-13번지 상가 1층 102호","indutype":"개인서비스업 - 애견용품","category":"other"},{"name":"쭈니베베","tel":"","addr":"경기도 시흥시 정왕동 1201-13번지 상가 101호","indutype":"소매업 - 아동복매장","category":"other"}]},{"lat":"37.352030133","long":"126.71475878","imageIndex":17,"items":[{"name":"메가 세탁소","tel":"","addr":"경기도 시흥시 정왕동 2164-2번지 메가폴리스 C동 127호","indutype":"개인서비스업 - 세탁소","category":"other"},{"name":"컴마트","tel":"031-430-4000","addr":"경기도 시흥시 정왕동 2164-2번지 메가폴리스 C동 113호","indutype":"소매업 - 컴퓨터및소모품","category":"other"}]},{"lat":"37.364495891","long":"126.73202753","imageIndex":17,"items":[{"name":"메리그루밍","tel":"","addr":"경기도 시흥시 정왕동 1879-5번지 세계로교회 105호","indutype":"소매업 - 애견용품","category":"other"}]},{"lat":"37.360086066","long":"126.73427835","imageIndex":17,"items":[{"name":"메이비플라워케이크","tel":"","addr":"경기도 시흥시 정왕동 1874-1번지 신한아파트 상가동 104호","indutype":"개인서비스업 - 공방","category":"other"},{"name":"브리앙뜨 플라워","tel":"","addr":"경기도 시흥시 정왕동 1874-1번지 신한아파트 상가동 1층 108호","indutype":"소매업 - 꽃집","category":"other"},{"name":"소문난과일","tel":"031-431-6768","addr":"경기도 시흥시 정왕동 1874-1번지 신한아파트","indutype":"소매업 - 과실","category":"other"}]},{"lat":"37.369138781","long":"126.72927888","imageIndex":17,"items":[{"name":"명품옷수선","tel":"031-433-6317","addr":"경기도 시흥시 정왕동 2518-1번지 다인로얄팰리스배곧2차 2층 206호","indutype":"개인서비스업 - 옷수선","category":"other"}]},{"lat":"37.36366391","long":"126.73069851","imageIndex":17,"items":[{"name":"모닝아이안경 시화점","tel":"031-497-1662","addr":"경기도 시흥시 정왕동 1881-9번지 굿모닝프라자 111호","indutype":"소매업 - 안경","category":"other"},{"name":"미가스튜디오","tel":"031-433-0013","addr":"경기도 시흥시 정왕동 1881-9번지 굿모닝프라자 302호","indutype":"개인서비스업 - 사진,스튜디오","category":"other"},{"name":"반찬전선생","tel":"031-432-7006","addr":"경기도 시흥시 정왕동 1881-9번지 굿모닝프라자 104호","indutype":"소매업 - 반찬, 김치류","category":"other"}]},{"lat":"37.346307377","long":"126.73331173","imageIndex":17,"items":[{"name":"무지개어르신재가복지센터","tel":"","addr":"경기도 시흥시 정왕동 1728-17번지 금성프라자 406호","indutype":"보건업 - 재가복지","category":"other"},{"name":"사회적협동조합 품마을","tel":"031-431-7821","addr":"경기도 시흥시 정왕동 1728-17번지 금성프라자 402호","indutype":"개인서비스업 - 고용창출","category":"other"},{"name":"전담멀티샵","tel":"031-319-0802","addr":"경기도 시흥시 정왕동 1728-17번지 금성프라자 107호","indutype":"소매업 - 전자담배, 잡화","category":"other"},{"name":"참다한 홍삼 정왕점","tel":"031-499-5003","addr":"경기도 시흥시 정왕동 1728-17번지 금성프라자 106호","indutype":"소매업 - 홍삼","category":"other"},{"name":"크레오","tel":"031-431-1616","addr":"경기도 시흥시 정왕동 1728-17번지 금성빌딩 105호","indutype":"개인서비스업 - 화장품","category":"other"}]},{"lat":"37.345802615","long":"126.75377434","imageIndex":17,"items":[{"name":"미래종합기획","tel":"031-497-8879","addr":"경기도 시흥시 정왕동 1500-10번지","indutype":"제조업 - 인쇄, 판촉","category":"other"}]},{"lat":"37.347696187","long":"126.73385977","imageIndex":17,"items":[{"name":"미소지우약국","tel":"031-499-6550","addr":"경기도 시흥시 정왕동 1726-2번지 광개토빌딩2 1층 117호","indutype":"보건업 - 의약품","category":"other"},{"name":"싸커라인","tel":"031-520-0022","addr":"경기도 시흥시 정왕동 1726-2번지 광개토빌딩2 103호","indutype":"소매업 - 운동용품","category":"other"},{"name":"자연빛깔","tel":"031-503-5355","addr":"경기도 시흥시 정왕동 1726-2번지 광개토빌딩2차 110호","indutype":"소매업 - 소매","category":"other"}]},{"lat":"37.350222114","long":"126.74330865","imageIndex":17,"items":[{"name":"미용재료 삼미사","tel":"031-498-2878","addr":"경기도 시흥시 정왕동 1811-4번지 102호","indutype":"소매업 - 화장품,가발","category":"other"}]},{"lat":"37.340839264","long":"126.75011186","imageIndex":17,"items":[{"name":"미천사","tel":"","addr":"경기도 시흥시 정왕동 1412-17번지","indutype":"소매업 - 의류","category":"other"}]},{"lat":"37.348525858","long":"126.74636171","imageIndex":17,"items":[{"name":"밀알 공인중개사무소","tel":"031-498-9471","addr":"경기도 시흥시 정왕동 1820-5번지","indutype":"개인서비스업 - 부동산중개","category":"other"}]},{"lat":"37.345026878","long":"126.68903208","imageIndex":17,"items":[{"name":"바다수산","tel":"","addr":"경기도 시흥시 정왕동 2004-3번지","indutype":"소매업 - 수산물","category":"other"}]},{"lat":"37.375831334","long":"126.72458047","imageIndex":17,"items":[{"name":"박해경 개인과외","tel":"031-317-3398","addr":"경기도 시흥시 정왕동 2483번지 시흥배곧 에스케이뷰","indutype":"교육서비스업 - 한글,수학,한자,칠교","category":"other"},{"name":"열린축산","tel":"031-496-0014","addr":"경기도 시흥시 정왕동 2483번지 시흥배곧에스케이뷰 상가동 103호","indutype":"소매업 - 식육","category":"other"}]},{"lat":"37.373970507","long":"126.73421756","imageIndex":17,"items":[{"name":"반찬스토리","tel":"031-319-2525","addr":"경기도 시흥시 정왕동 2471-1번지 로얄페스타 106호","indutype":"소매업 - 반찬류","category":"other"},{"name":"배곧문고","tel":"031-432-9770","addr":"경기도 시흥시 정왕동 2471-1번지 로얄페스타 206호","indutype":"소매업 - 도서","category":"other"},{"name":"배곧아동발달센터","tel":"031-431-1714","addr":"경기도 시흥시 정왕동 2471-1번지 로얄페스타 301호","indutype":"개인서비스업 - 아동심리상담","category":"other"},{"name":"봄날약국","tel":"031-432-7912","addr":"경기도 시흥시 정왕동 2471-1번지 로얄페스타 109호","indutype":"보건업 - 의약품","category":"other"},{"name":"알레르망 배곧점","tel":"031-433-8981","addr":"경기도 시흥시 정왕동 2471-1번지 111~112호","indutype":"소매업 - 침구류","category":"other"},{"name":"와이케이 (YK) 태권도","tel":"","addr":"경기도 시흥시 정왕동 2471-1번지 로얄페스타 504,505호","indutype":"교육서비스업 - 태권도","category":"other"},{"name":"커튼데코창 배곧직영점","tel":"031-433-0116","addr":"경기도 시흥시 정왕동 2471-1번지 로얄페스타 107호","indutype":"소매업 - 커튼,블라인","category":"other"},{"name":"크리아트배곧학원","tel":"031-497-4486","addr":"경기도 시흥시 정왕동 2471-1번지 로얄페스타 502호","indutype":"개인서비스업 - 미술","category":"other"},{"name":"해법중국어 배곧학원","tel":"031-319-5181","addr":"경기도 시흥시 정왕동 2471-1번지 로얄페스트 407호","indutype":"교육서비스업 - 중국어","category":"other"}]},{"lat":"37.363836502","long":"126.73130745","imageIndex":17,"items":[{"name":"반찬이야기","tel":"031-432-2884","addr":"경기도 시흥시 정왕동 1881-5번지 현대프라자 1층 103호","indutype":"소매업 - 김치,찬,반찬","category":"other"}]},{"lat":"37.34699994","long":"126.74488847","imageIndex":17,"items":[{"name":"방배침장","tel":"","addr":"경기도 시흥시 정왕동 1838-11번지","indutype":"소매업 - 이불외","category":"other"}]},{"lat":"37.382135429","long":"126.73500139","imageIndex":17,"items":[{"name":"배곧금강태권도 효교육관","tel":"","addr":"경기도 시흥시 정왕동 2393-1번지 스타프렉스 5층 502~504호","indutype":"교육서비스업 - 태권도","category":"other"},{"name":"점프스쿨 줄넘기센터","tel":"031-319-1577","addr":"경기도 시흥시 정왕동 2393-1번지 스타플렉스 404호","indutype":"스포츠및여가관련서비스업 - 줄넘기","category":"other"},{"name":"파이시스어린이수영장","tel":"031-319-2015","addr":"경기도 시흥시 정왕동 2393-1번지 스타플렉스 601호","indutype":"개인서비스업 - 간이수영장","category":"other"}]},{"lat":"37.35913442","long":"126.71283531","imageIndex":17,"items":[{"name":"배곧농축산물","tel":"031-499-2860","addr":"경기도 시흥시 정왕동 2575번지 시흥배곧신도시이지더원2차에듀그린 502동 113~114호","indutype":"소매업 - 식육","category":"other"},{"name":"이지 세탁소","tel":"","addr":"경기도 시흥시 정왕동 2575번지 시흥배곧신도시이지더원2차에듀그린 501동 지층 106호","indutype":"개인서비스업 - 세탁소","category":"other"},{"name":"잉글리쉬아이","tel":"031-8050-8771","addr":"경기도 시흥시 정왕동 2575번지 시흥배곧신도시 이지더원2차 에듀그린","indutype":"교육서비스업 - 교습","category":"other"},{"name":"클린홈디자인","tel":"031-434-3835","addr":"경기도 시흥시 정왕동 2575번지 이지더원2차 116호","indutype":"소매업 - 커튼,블라인드","category":"other"}]},{"lat":"37.3747515","long":"126.73295031","imageIndex":17,"items":[{"name":"배곧청록태권도장2","tel":"031-431-1193","addr":"경기도 시흥시 정왕동 2470번지 아이프라자 301,302,303호","indutype":"교육서비스업 - 태권도서비스","category":"other"},{"name":"점프노리 배곧신도시점","tel":"031-319-4568","addr":"경기도 시흥시 정왕동 2470번지 아이프라자 305호,307호","indutype":"개인서비스업 - 키즈카페","category":"other"},{"name":"청록고수 태권도장","tel":"","addr":"경기도 시흥시 정왕동 2470번지 3층 301~3호","indutype":"교육서비스업 - 태권도","category":"other"},{"name":"하루애 사진관","tel":"031-434-2977","addr":"경기도 시흥시 정왕동 2470번지 아이프라자 2층 203호","indutype":"개인서비스업 - 사진관","category":"other"}]},{"lat":"37.351610318","long":"126.7395229","imageIndex":17,"items":[{"name":"뱅라이팅","tel":"031-498-1045","addr":"경기도 시흥시 정왕동 876-310번지 선명주방씽크공장 나동","indutype":"소매업 - 조명기구","category":"other"}]},{"lat":"37.363969159","long":"126.73022329","imageIndex":17,"items":[{"name":"베누스에스테틱","tel":"031-431-3055","addr":"경기도 시흥시 정왕동 1881-11번지 화신프라자 203호","indutype":"개인서비스업 - 피부관리","category":"other"},{"name":"운동화빠는날","tel":"031-319-0804","addr":"경기도 시흥시 정왕동 1881-11번지 화신프라자 114호","indutype":"개인서비스업 - 운동화세탁","category":"other"},{"name":"화인명품가","tel":"031-497-2978","addr":"경기도 시흥시 정왕동 1881-11번지 화신프라자 1층 110호","indutype":"소매업 -","category":"other"},{"name":"효성사무기","tel":"031-499-1991","addr":"경기도 시흥시 정왕동 1881-11번지 화신프라자 3층 304호","indutype":"소매업 - 사무기기,가전 등","category":"other"}]},{"lat":"37.34597321","long":"126.74508384","imageIndex":17,"items":[{"name":"베스트리싸이클샵(리사이클)","tel":"031-434-0660","addr":"경기도 시흥시 정왕동 1575-1번지 1층","indutype":"기타 - 중고가구,가전","category":"other"}]},{"lat":"37.358331713","long":"126.72757984","imageIndex":17,"items":[{"name":"베이비핑크","tel":"","addr":"경기도 시흥시 정왕동 1875-1번지 영남아파트","indutype":"소매업 - 액세서리 및 잡화","category":"other"},{"name":"지영플라워","tel":"031-504-9223","addr":"경기도 시흥시 정왕동 1875-1번지 영남아파트 101호","indutype":"소매업 - 꽃,화분,화환","category":"other"}]},{"lat":"37.345335654","long":"126.74607914","imageIndex":17,"items":[{"name":"보루네오가구시흥정왕점","tel":"031-319-7305","addr":"경기도 시흥시 정왕동 1573-7번지","indutype":"소매업 - 가구","category":"other"}]},{"lat":"37.361942904","long":"126.73461038","imageIndex":17,"items":[{"name":"보성세탁소","tel":"031-431-5459","addr":"경기도 시흥시 정왕동 1877-5번지 보성아파트 106호","indutype":"개인서비스업 - 세탁업","category":"other"},{"name":"보성이발소","tel":"","addr":"경기도 시흥시 정왕동 1877-5번지 보성아파트 상가동 202호","indutype":"개인서비스업 - 이용업","category":"other"},{"name":"시화보성아파트입주자대표회의","tel":"031-431-6808","addr":"경기도 시흥시 정왕동 1877-5번지 보성아파트","indutype":"개인서비스업 - 광고,재활용매각","category":"other"},{"name":"천지인","tel":"031-432-3716","addr":"경기도 시흥시 정왕동 1877-5번지 보성아파트 상가동 104호","indutype":"개인서비스업 - 인테리어","category":"other"}]},{"lat":"37.360613415","long":"126.73241398","imageIndex":17,"items":[{"name":"부성세탁소","tel":"031-433-1223","addr":"경기도 시흥시 정왕동 1876-3번지 부성파스텔아파트 113호","indutype":"개인서비스업 - 세탁","category":"other"}]},{"lat":"37.345051874","long":"126.69167278","imageIndex":17,"items":[{"name":"비바체음악전문교습소","tel":"","addr":"경기도 시흥시 정왕동 1990-4번지 상가동 102호","indutype":"개인서비스업 - 음악교습소","category":"other"}]},{"lat":"37.347859773","long":"126.7466687","imageIndex":17,"items":[{"name":"비젼라이프","tel":"031-319-3157","addr":"경기도 시흥시 정왕동 1182-8번지","indutype":"소매업 - 생활가전수리","category":"other"}]},{"lat":"37.337087099","long":"126.74827381","imageIndex":17,"items":[{"name":"비젼목욕탕","tel":"031-431-2566","addr":"경기도 시흥시 정왕동 1625-6번지","indutype":"개인서비스업 - 목욕업","category":"other"}]},{"lat":"37.344054175","long":"126.73699881","imageIndex":17,"items":[{"name":"빅헬스클럽","tel":"031-433-4935","addr":"경기도 시흥시 정왕동 1737-20번지 영창빌딩 5층","indutype":"스포츠및여가관련서비스업 - 헬스장","category":"other"}]},{"lat":"37.362968342","long":"126.72992213","imageIndex":17,"items":[{"name":"쁄라","tel":"","addr":"경기도 시흥시 정왕동 1884-6번지 신도프라자 104호","indutype":"소매업 - 의류,잡화","category":"other"}]},{"lat":"37.35136476","long":"126.72666851","imageIndex":17,"items":[{"name":"사랑태권도장","tel":"031-497-5542","addr":"경기도 시흥시 정왕동 1850번지 요진 상가 2층","indutype":"교육서비스업 - 태권도","category":"other"},{"name":"아이코어스터디","tel":"","addr":"경기도 시흥시 정왕동 1850번지 요진아파트","indutype":"교육서비스업 - 개인과외","category":"other"},{"name":"요진세탁소","tel":"031-497-1585","addr":"경기도 시흥시 정왕동 1850번지 요진@ 상가동 B101","indutype":"개인서비스업 - 세탁소","category":"other"},{"name":"요진어린이집","tel":"031-499-7340","addr":"경기도 시흥시 정왕동 1850번지 요진아파트 관리동","indutype":"교육서비스업 - 어린이집","category":"other"}]},{"lat":"37.337520143","long":"126.72451877","imageIndex":17,"items":[{"name":"삼성테크","tel":"031-434-2829","addr":"경기도 시흥시 정왕동 1364번지 유통상가 28동 103호","indutype":"소매업 - 무인장비","category":"other"}]},{"lat":"37.350306766","long":"126.74083667","imageIndex":17,"items":[{"name":"새로고침인테리어","tel":"031-434-3237","addr":"경기도 시흥시 정왕동 1802-9번지","indutype":"소매업 - 벽지및바닥재","category":"other"}]},{"lat":"37.369415134","long":"126.72800221","imageIndex":17,"items":[{"name":"새롬온누리약국","tel":"031-433-7573","addr":"경기도 시흥시 정왕동 2515-2번지 새롬프라자2 1층 111호","indutype":"보건업 - 양약","category":"other"},{"name":"올리다학원","tel":"031-432-3275","addr":"경기도 시흥시 정왕동 2515-2번지 새롬프라자2 7층 706호","indutype":"교육서비스업 - 심리상담","category":"other"},{"name":"킴스요가필라테스 배곧2호점","tel":"031-434-4111","addr":"경기도 시흥시 정왕동 2515-2번지 새롬프라자2 607호","indutype":"개인서비스업 - 요가","category":"other"},{"name":"팀맥짐","tel":"031-433-6077","addr":"경기도 시흥시 정왕동 2515-2번지 새롬프라자2 6층 603호","indutype":"스포츠및여가관련서비스업 - 복싱","category":"other"},{"name":"해동검도","tel":"031-509-2222","addr":"경기도 시흥시 정왕동 2515-2번지 새롬프라자2 8층 803호","indutype":"교육서비스업 - 해동검도","category":"other"}]},{"lat":"37.351191616","long":"126.72583395","imageIndex":17,"items":[{"name":"생각이크는아이들","tel":"031-434-1130","addr":"경기도 시흥시 정왕동 1850번지 요진아파트 121동 101호","indutype":"교육서비스업 - 어린이집","category":"other"}]},{"lat":"37.374386302","long":"126.72696798","imageIndex":17,"items":[{"name":"서연농산","tel":"031-498-8230","addr":"경기도 시흥시 정왕동 2485번지 시흥배곧신도시호반베르디움센트럴파크 2동 103호","indutype":"소매업 - 과일","category":"other"},{"name":"써니영어","tel":"","addr":"경기도 시흥시 정왕동 2485번지 시흥배곧신도시 호반베르디움센트럴파크","indutype":"교육서비스업 - 과외","category":"other"}]},{"lat":"37.37722269","long":"126.72620114","imageIndex":17,"items":[{"name":"서울수현치과의원","tel":"031-498-2820","addr":"경기도 시흥시 정왕동 2477-1번지 3층 307호","indutype":"보건업 - 치과","category":"other"},{"name":"엔젤크루키즈스위밍","tel":"031-504-0007","addr":"경기도 시흥시 정왕동 2477-1번지 SK월드프라자 2층 202호","indutype":"스포츠및여가관련서비스업 - 수영장,생","category":"other"},{"name":"청춘약국","tel":"031-499-2218","addr":"경기도 시흥시 정왕동 2477-1번지 1층 117호","indutype":"보건업 - 양약,의료기기","category":"other"}]},{"lat":"37.341582462","long":"126.75216324","imageIndex":17,"items":[{"name":"서울우유시화서부대리점","tel":"031-432-3120","addr":"경기도 시흥시 정왕동 1498-8번지 1층","indutype":"소매업 - 우유","category":"other"}]},{"lat":"37.358029309","long":"126.75374522","imageIndex":17,"items":[{"name":"성보금호자동차공업사","tel":"031-433-6753","addr":"경기도 시흥시 정왕동 2249-10번지","indutype":"개인서비스업 - 타이어, 카센타","category":"other"}]},{"lat":"37.351617565","long":"126.71553913","imageIndex":17,"items":[{"name":"성준종합건축","tel":"031-477-1123","addr":"경기도 시흥시 정왕동 2164-2번지 메가폴리스 A동 107호","indutype":"소매업 - 철물,잡화,인테리어","category":"other"}]},{"lat":"37.378219289","long":"126.72855718","imageIndex":17,"items":[{"name":"세라워크","tel":"031-499-7660","addr":"경기도 시흥시 정왕동 2435번지 103호","indutype":"소매업 - 도자기","category":"other"}]},{"lat":"37.358080645","long":"126.72425097","imageIndex":17,"items":[{"name":"세란피아노교습소","tel":"031-432-0647","addr":"경기도 시흥시 정왕동 1865번지 한일아파트 106호","indutype":"교육서비스업 - 피아노교습소","category":"other"}]},{"lat":"37.342221119","long":"126.75594162","imageIndex":17,"items":[{"name":"세탁마을","tel":"031-431-7948","addr":"경기도 시흥시 정왕동 1543-4번지","indutype":"개인서비스업 - 세탁","category":"other"}]},{"lat":"37.382190231","long":"126.73532864","imageIndex":17,"items":[{"name":"소문난축산","tel":"031-432-3336","addr":"경기도 시흥시 정왕동 2393-2번지 지음프라자2 106호","indutype":"소매업 - 식육즉석판매가공업","category":"other"}]},{"lat":"37.348055745","long":"126.68958377","imageIndex":17,"items":[{"name":"소양강회집","tel":"031-497-7773","addr":"경기도 시흥시 정왕동 1972-2번지","indutype":"소매업 - 활어","category":"other"}]},{"lat":"37.364251921","long":"126.73172362","imageIndex":17,"items":[{"name":"스마일노래연습장","tel":"","addr":"경기도 시흥시 정왕동 1881-1번지 고려빌딩 B102호","indutype":"개인서비스업 - 노래방","category":"other"}]},{"lat":"37.362527162","long":"126.73005919","imageIndex":17,"items":[{"name":"스마트서점","tel":"031-319-8855","addr":"경기도 시흥시 정왕동 1882-10번지","indutype":"소매업 - 서점","category":"other"},{"name":"합격독서실","tel":"031-434-0781","addr":"경기도 시흥시 정왕동 1882-10번지 3층 일부","indutype":"개인서비스업 - 독서실","category":"other"}]},{"lat":"37.339692734","long":"126.75760874","imageIndex":17,"items":[{"name":"스매쉬스포츠","tel":"031-508-0222","addr":"경기도 시흥시 정왕동 2158번지","indutype":"소매업 - 운동용품","category":"other"}]},{"lat":"37.342777951","long":"126.75508212","imageIndex":17,"items":[{"name":"스피드세탁소","tel":"","addr":"경기도 시흥시 정왕동 1544-4번지","indutype":"개인서비스업 - 세탁소","category":"other"}]},{"lat":"37.350999289","long":"126.72836281","imageIndex":17,"items":[{"name":"시립정왕2동어린이집","tel":"031-432-0660","addr":"경기도 시흥시 정왕동 1849-8번지","indutype":"교육서비스업 - 어린이집","category":"other"}]},{"lat":"37.349892739","long":"126.72522927","imageIndex":17,"items":[{"name":"시화 자동차 배터리 할인매장","tel":"031-499-5024","addr":"경기도 시흥시 정왕동 1851번지 대림아파트 105호","indutype":"소매업 - 배터리","category":"other"},{"name":"해뜨는 어린이집","tel":"031-432-7272","addr":"경기도 시흥시 정왕동 1851번지 대림아파트 관리동","indutype":"교육서비스업 - 어린이집","category":"other"}]},{"lat":"37.362807098","long":"126.73032909","imageIndex":17,"items":[{"name":"시화BYC","tel":"031-433-3690","addr":"경기도 시흥시 정왕동 1882-7번지 금강빌딩 1층","indutype":"소매업 - 내의","category":"other"}]},{"lat":"37.347281858","long":"126.7545256","imageIndex":17,"items":[{"name":"시화계량소","tel":"031-431-7961","addr":"경기도 시흥시 정왕동 1164-13번지","indutype":"개인서비스업 - 서비스업","category":"other"}]},{"lat":"37.344220908","long":"126.75144349","imageIndex":17,"items":[{"name":"시화떡방앗간","tel":"031-498-6780","addr":"경기도 시흥시 정왕동 1196-15번지","indutype":"제조업 - 곡물","category":"other"}]},{"lat":"37.346998679","long":"126.73222582","imageIndex":17,"items":[{"name":"시화라성약국","tel":"031-498-8704","addr":"경기도 시흥시 정왕동 1728-10번지","indutype":"보건업 - 양약조제","category":"other"}]},{"lat":"37.347616677","long":"126.75094687","imageIndex":17,"items":[{"name":"시화모터스","tel":"031-497-3984","addr":"경기도 시흥시 정왕동 1163-5번지 102호","indutype":"개인서비스업 - 밋션, 차량재제부품","category":"other"}]},{"lat":"37.337583508","long":"126.72850191","imageIndex":17,"items":[{"name":"시화사랑약국","tel":"031-434-9570","addr":"경기도 시흥시 정왕동 1366-14번지 파인오피스텔 108, 109, 110호","indutype":"보건업 - 의약품,의료기기","category":"other"},{"name":"파인힐당구클럽","tel":"031-432-7255","addr":"경기도 시흥시 정왕동 1366-14번지 1층 102,103호","indutype":"스포츠및여가관련서비스업 - 당구장","category":"other"},{"name":"한나약국","tel":"031-319-4100","addr":"경기도 시흥시 정왕동 1366-14번지 파인힐오피스텔 107호","indutype":"보건업 - 양약","category":"other"}]},{"lat":"37.357969007","long":"126.7507994","imageIndex":17,"items":[{"name":"시화샷다","tel":"","addr":"경기도 시흥시 정왕동 2237-1번지","indutype":"기타 -","category":"other"}]},{"lat":"37.347670194","long":"126.74650006","imageIndex":17,"items":[{"name":"시화체육관(태권도)","tel":"031-499-3575","addr":"경기도 시흥시 정왕동 1182-6번지 정산빌딩 3층","indutype":"교육서비스업 - 태권도","category":"other"}]},{"lat":"37.334255956","long":"126.72729536","imageIndex":17,"items":[{"name":"시화펌프모터","tel":"031-430-1100","addr":"경기도 시흥시 정왕동 1367-1번지 시화유통상가 8동 128호","indutype":"소매업 - 펌프,모터","category":"other"}]},{"lat":"37.353362758","long":"126.7218869","imageIndex":17,"items":[{"name":"시화편백원","tel":"031-432-0801","addr":"경기도 시흥시 정왕동 1857-7번지 메인프라자 5층","indutype":"개인서비스업 - 웰빙건강체험","category":"other"}]},{"lat":"37.34519498","long":"126.68786898","imageIndex":17,"items":[{"name":"시흥꿈상회 오이도","tel":"070-7797-4989","addr":"경기도 시흥시 정왕동 2003-16번지 빨간등대 1층 바라지상회 오이도","indutype":"소매업 - 선물용품,민예품 소매업","category":"other"}]},{"lat":"37.355223416","long":"126.70533322","imageIndex":17,"items":[{"name":"시흥시청(한울공원해수풀장)","tel":"031-310-3863","addr":"경기도 시흥시 정왕동 2590번지","indutype":"스포츠및여가관련서비스업 - 체육시설","category":"other"},{"name":"한울공원편의점","tel":"","addr":"경기도 시흥시 정왕동 2590번지","indutype":"소매업 - 개인편의점","category":"other"}]},{"lat":"37.353557815","long":"126.72435798","imageIndex":17,"items":[{"name":"시흥아쉬탕가요가","tel":"031-433-7772","addr":"경기도 시흥시 정왕동 1861-6번지 뉴스타프라자 4층 407호","indutype":"개인서비스업 - 요가","category":"other"}]},{"lat":"37.344748127","long":"126.74111555","imageIndex":17,"items":[{"name":"시흥양봉협동조합","tel":"070-7769-7173","addr":"경기도 시흥시 정왕동 1620-10번지","indutype":"소매업 - 양봉, 꿀","category":"other"}]},{"lat":"37.336898978","long":"126.72474674","imageIndex":17,"items":[{"name":"시흥월드","tel":"031-430-4959","addr":"경기도 시흥시 정왕동 1364번지 공구상가 26동 122호","indutype":"소매업 - 용접,전기 등","category":"other"}]},{"lat":"37.343279486","long":"126.73708053","imageIndex":17,"items":[{"name":"시흥하나의료소비자생활협동조합(이사랑치과)","tel":"031-491-2875","addr":"경기도 시흥시 정왕동 1744-2번지 나라빌딩 2층","indutype":"보건업 - 치과","category":"other"}]},{"lat":"37.341831545","long":"126.73828185","imageIndex":17,"items":[{"name":"썬파워로빅","tel":"","addr":"경기도 시흥시 정왕동 1790번지 영남6차A상가 지하 106호","indutype":"스포츠및여가관련서비스업 - 에어로빅","category":"other"},{"name":"영남녹십자약국","tel":"031-497-4544","addr":"경기도 시흥시 정왕동 1790번지 영남6차 상가 112호","indutype":"보건업 - 양약","category":"other"},{"name":"정가정의학과의원","tel":"031-319-6854","addr":"경기도 시흥시 정왕동 1790번지 영남6차 상가 207,208호","indutype":"보건업 - 소아과,내과","category":"other"},{"name":"착한비누더솝","tel":"","addr":"경기도 시흥시 정왕동 1790번지 영남6차지하b14호","indutype":"소매업 - 천연비누","category":"other"}]},{"lat":"37.345969359","long":"126.73128153","imageIndex":17,"items":[{"name":"씨스터즈diy","tel":"031-319-0879","addr":"경기도 시흥시 정왕동 1730-5번지","indutype":"개인서비스업 - 공방","category":"other"}]},{"lat":"37.345862454","long":"126.73577358","imageIndex":17,"items":[{"name":"씨채널안경원","tel":"031-431-3424","addr":"경기도 시흥시 정왕동 1735-1번지","indutype":"소매업 - 안경,선글라스","category":"other"}]},{"lat":"37.369418745","long":"126.72956009","imageIndex":17,"items":[{"name":"아나이스","tel":"031-433-2789","addr":"경기도 시흥시 정왕동 2518번지 로얄팰리스1차 101호","indutype":"소매업 - 침구류","category":"other"}]},{"lat":"37.345446429","long":"126.74316709","imageIndex":17,"items":[{"name":"아름드리알뜰매장","tel":"","addr":"경기도 시흥시 정왕동 1606-3번지 101호, 102호","indutype":"소매업 - 중고의류","category":"other"}]},{"lat":"37.345587317","long":"126.73364159","imageIndex":17,"items":[{"name":"아모레카운셀러","tel":"031-432-3764","addr":"경기도 시흥시 정왕동 1731-16번지 시화태원프라자 303호","indutype":"소매업 - 화장품,잡화","category":"other"},{"name":"아모레카운셀러","tel":"","addr":"경기도 시흥시 정왕동 1731-16번지 시화태원프라자 303호","indutype":"소매업 - 화장품,잡화","category":"other"},{"name":"아모레카운셀러","tel":"031-432-3764","addr":"경기도 시흥시 정왕동 1731-16번지 시화태원프라자 303호","indutype":"소매업 - 화장품,잡화","category":"other"}]},{"lat":"37.346002345","long":"126.73388839","imageIndex":17,"items":[{"name":"아미목욕탕(아미사우나)","tel":"031-432-0088","addr":"경기도 시흥시 정왕동 1728-20번지","indutype":"개인서비스업 - 목욕탕","category":"other"}]},{"lat":"37.343414967","long":"126.73722676","imageIndex":17,"items":[{"name":"아이더 정왕점","tel":"031-433-3373","addr":"경기도 시흥시 정왕동 1744-1번지 E1빌딩 104호","indutype":"소매업 - 스포츠의류","category":"other"}]},{"lat":"37.353216919","long":"126.72499129","imageIndex":17,"items":[{"name":"아이피플","tel":"031-319-1009","addr":"경기도 시흥시 정왕동 1861-8번지 트윈프라자 B동 120호","indutype":"소매업 - 안경점","category":"other"},{"name":"예진산후조리원","tel":"031-431-1134","addr":"경기도 시흥시 정왕동 1861-8번지 트윈프라자 B동 4층","indutype":"보건업 - 산후조리원","category":"other"}]},{"lat":"37.353276564","long":"126.73522813","imageIndex":17,"items":[{"name":"아주세탁소","tel":"031-499-6191","addr":"경기도 시흥시 정왕동 1394번지 아주아파트 상가 117호","indutype":"개인서비스업 - 세탁소","category":"other"}]},{"lat":"37.353055692","long":"126.72158331","imageIndex":17,"items":[{"name":"아카데미라운지 정왕독서실","tel":"031-364-8322","addr":"경기도 시흥시 정왕동 1853-1번지 4층 401호","indutype":"개인서비스업 - 독서실","category":"other"},{"name":"아카데미라운지 정왕모임센터","tel":"031-364-8322","addr":"경기도 시흥시 정왕동 1853-1번지 4층 402호","indutype":"개인서비스업 - 공간임대,잡화,음료","category":"other"}]},{"lat":"37.345636769","long":"126.73558253","imageIndex":17,"items":[{"name":"안경나라 시흥시화점","tel":"031-433-7877","addr":"경기도 시흥시 정왕동 1735-2번지 대하빌딩 103호","indutype":"소매업 - 안경","category":"other"}]},{"lat":"37.347472555","long":"126.74264097","imageIndex":17,"items":[{"name":"안산가구백화점","tel":"031-434-3333","addr":"경기도 시흥시 정왕동 1599-5번지","indutype":"소매업 - 가구,주방용품","category":"other"},{"name":"유젠드, 모든오피스 시흥점","tel":"031-494-2883","addr":"경기도 시흥시 정왕동 1599-5번지 1층","indutype":"소매업 - 사무용품","category":"other"}]},{"lat":"37.370665926","long":"126.72730899","imageIndex":17,"items":[{"name":"알톤스포즈 배곧본점","tel":"031-434-6664","addr":"경기도 시흥시 정왕동 2511번지 c1 B동 122호","indutype":"소매업 - 자전거","category":"other"}]},{"lat":"37.358135858","long":"126.7529999","imageIndex":17,"items":[{"name":"애니오토","tel":"031-497-7070","addr":"경기도 시흥시 정왕동 2249-1번지","indutype":"개인서비스업 - 밋션차량 재제조부품","category":"other"},{"name":"장군밋션","tel":"031-319-2109","addr":"경기도 시흥시 정왕동 2249-1번지","indutype":"소매업 - 밋션차량재제부품","category":"other"}]},{"lat":"37.351940417","long":"126.71491714","imageIndex":17,"items":[{"name":"애니원365 메가점","tel":"031-319-6064","addr":"경기도 시흥시 정왕동 2164-2번지 메가폴리스 D동 113호","indutype":"소매업 - 편의점","category":"other"}]},{"lat":"37.346501884","long":"126.74789217","imageIndex":17,"items":[{"name":"앵콜노래연습장","tel":"031-432-6668","addr":"경기도 시흥시 정왕동 1205번지 정왕빌딩 지하","indutype":"개인서비스업 - 노래연습장","category":"other"}]},{"lat":"37.343052332","long":"126.68853247","imageIndex":17,"items":[{"name":"에스엠아트텍","tel":"","addr":"경기도 시흥시 정왕동 2027-2번지 2층","indutype":"제조업 - 제조","category":"other"},{"name":"지역브랜드창작협동조합짬","tel":"031-509-4552","addr":"경기도 시흥시 정왕동 2027-2번지 2층","indutype":"교육서비스업 - 기념품및기념품만들기체","category":"other"}]},{"lat":"37.34472182","long":"126.74144292","imageIndex":17,"items":[{"name":"에스엠천사","tel":"031-433-6876","addr":"경기도 시흥시 정왕동 1620-5번지 104호","indutype":"보건업 - 산모도우미","category":"other"}]},{"lat":"37.347636472","long":"126.75178196","imageIndex":17,"items":[{"name":"에이스하드웨어","tel":"","addr":"경기도 시흥시 정왕동 1163-11번지","indutype":"소매업 - 철물, 번호키","category":"other"}]},{"lat":"37.378139092","long":"126.72508002","imageIndex":17,"items":[{"name":"에이톰(A-TOM)배곧","tel":"031-498-0203","addr":"경기도 시흥시 정왕동 2476번지 파크뷰2 1층 105호","indutype":"소매업 - 전동제품","category":"other"}]},{"lat":"37.3729144002","long":"126.7294458041","imageIndex":17,"items":[{"name":"에임하이영어교실","tel":"","addr":"경기도 시흥시 정왕동 2501번지 호반베르디움더프라임","indutype":"교육서비스업 - 개인과외","category":"other"}]},{"lat":"37.346894089","long":"126.75011414","imageIndex":17,"items":[{"name":"열린공인중개사무소","tel":"031-498-9044","addr":"경기도 시흥시 정왕동 1180-21번지 103호","indutype":"개인서비스업 - 부동산중개","category":"other"}]},{"lat":"37.362391673","long":"126.72991294","imageIndex":17,"items":[{"name":"열린축산","tel":"031-498-2664","addr":"경기도 시흥시 정왕동 1882-11번지","indutype":"소매업 - 식육","category":"other"},{"name":"유민통신","tel":"031-432-9966","addr":"경기도 시흥시 정왕동 1882-11번지 홍익프라자 104호","indutype":"소매업 - 휴대폰","category":"other"},{"name":"해피점핑","tel":"","addr":"경기도 시흥시 정왕동 1882-11번지 홍익프라자 4층 401호","indutype":"스포츠및여가관련서비스업 - 점핑운동방","category":"other"}]},{"lat":"37.344969845","long":"126.73550589","imageIndex":17,"items":[{"name":"영광열쇠","tel":"","addr":"경기도 시흥시 정왕동 1737-10번지","indutype":"소매업 - 열쇠","category":"other"}]},{"lat":"37.347861946","long":"126.74353121","imageIndex":17,"items":[{"name":"예가토탈인테리어","tel":"031-499-0066","addr":"경기도 시흥시 정왕동 1831-14번지 1층","indutype":"소매업 - 인테리어자재","category":"other"}]},{"lat":"37.34769639","long":"126.7419969","imageIndex":17,"items":[{"name":"예손지물장식","tel":"031-432-9504","addr":"경기도 시흥시 정왕동 1599-12번지","indutype":"소매업 - 벽지및장판지","category":"other"}]},{"lat":"37.377858102","long":"126.72821978","imageIndex":17,"items":[{"name":"오렌지펫","tel":"031-432-5115","addr":"경기도 시흥시 정왕동 2435-3번지 1층","indutype":"소매업 - 애완용품","category":"other"}]},{"lat":"37.374861319","long":"126.73369505","imageIndex":17,"items":[{"name":"오아시스 휘트니스","tel":"031-496-9683","addr":"경기도 시흥시 정왕동 2467번지 현대프라자 4층 402호","indutype":"스포츠및여가관련서비스업 - 휘트니스","category":"other"}]},{"lat":"37.344218605","long":"126.69002856","imageIndex":17,"items":[{"name":"오이도 인포","tel":"031-498-0366","addr":"경기도 시흥시 정왕동 2014-10번지","indutype":"개인서비스업 - 인쇄물기획","category":"other"}]},{"lat":"37.341831468","long":"126.68684481","imageIndex":17,"items":[{"name":"오이도자전거","tel":"","addr":"경기도 시흥시 정왕동 2031-7번지 1층 일부","indutype":"소매업 - 자전거수리,용품","category":"other"}]},{"lat":"37.347364019","long":"126.73439139","imageIndex":17,"items":[{"name":"오피스넥스","tel":"031-432-0010","addr":"경기도 시흥시 정왕동 1726-4번지 한성타운 지하1층","indutype":"소매업 - 사무용품,인쇄","category":"other"},{"name":"정왕스포츠백화점","tel":"031-432-8741","addr":"경기도 시흥시 정왕동 1726-4번지 한성빌딩 102호","indutype":"소매업 - 스포츠용품","category":"other"}]},{"lat":"37.363692082","long":"126.73119509","imageIndex":17,"items":[{"name":"옥스포드 독서실","tel":"031-431-7172","addr":"경기도 시흥시 정왕동 1881-6번지 5층독서실","indutype":"교육서비스업 - 독서실","category":"other"}]},{"lat":"37.344889545","long":"126.69161702","imageIndex":17,"items":[{"name":"옥터문구","tel":"031-433-9068","addr":"경기도 시흥시 정왕동 1990-5번지 102호","indutype":"소매업 - 문구, 완구 및 청소용품","category":"other"}]},{"lat":"37.363634172","long":"126.72952463","imageIndex":17,"items":[{"name":"온네일","tel":"","addr":"경기도 시흥시 정왕동 1882-1번지 1층 일부호","indutype":"개인서비스업 - 네일샵","category":"other"}]},{"lat":"37.351666394","long":"126.74452262","imageIndex":17,"items":[{"name":"올라스튜디오","tel":"031-505-3321","addr":"경기도 시흥시 정왕동 2323-2번지 장안빌딩 101호","indutype":"개인서비스업 - 사진관","category":"other"}]},{"lat":"37.369696959","long":"126.72908494","imageIndex":17,"items":[{"name":"올리브네일","tel":"031-496-8558","addr":"경기도 시흥시 정왕동 2517번지 다인로얄팰리스배곧3차 203호","indutype":"개인서비스업 - 네일","category":"other"},{"name":"킹화장품나라","tel":"031-499-1254","addr":"경기도 시흥시 정왕동 2517번지 다인로얄팰리스배곧3차 307호","indutype":"소매업 - 화장품","category":"other"}]},{"lat":"37.346281146","long":"126.75424675","imageIndex":17,"items":[{"name":"우리중고타이어휠전문","tel":"","addr":"경기도 시흥시 정왕동 1500-14번지 101호","indutype":"개인서비스업 - 타이어","category":"other"}]},{"lat":"37.348194105","long":"126.74297705","imageIndex":17,"items":[{"name":"우성버티컬","tel":"031-499-0065","addr":"경기도 시흥시 정왕동 1830-11번지 우성버티컬","indutype":"소매업 - 커튼, 버티컬","category":"other"}]},{"lat":"37.35630348","long":"126.72716963","imageIndex":17,"items":[{"name":"우촌고기백화점","tel":"031-433-6556","addr":"경기도 시흥시 정왕동 1866-6번지 영남5차아파트","indutype":"소매업 - 식육","category":"other"}]},{"lat":"37.34505649","long":"126.75033473","imageIndex":17,"items":[{"name":"원DC","tel":"031-433-9081","addr":"경기도 시흥시 정왕동 1199번지","indutype":"소매업 - 생활용품","category":"other"}]},{"lat":"37.345197702","long":"126.75318949","imageIndex":17,"items":[{"name":"원건축주택사무소","tel":"031-431-0100","addr":"경기도 시흥시 정왕동 1510번지 102호","indutype":"제조업 - 내장공사","category":"other"}]},{"lat":"37.344948731","long":"126.75050437","imageIndex":17,"items":[{"name":"원문구","tel":"031-433-9089","addr":"경기도 시흥시 정왕동 1199-1번지 103호","indutype":"소매업 - 문구","category":"other"}]},{"lat":"37.344365956","long":"126.75186057","imageIndex":17,"items":[{"name":"원이불전자","tel":"031-433-9088","addr":"경기도 시흥시 정왕동 1195-10번지","indutype":"소매업 - 이불, 전자제품","category":"other"},{"name":"태성당","tel":"031-497-1819","addr":"경기도 시흥시 정왕동 1195-10번지","indutype":"소매업 - 귀금속, 시계","category":"other"}]},{"lat":"37.343720066","long":"126.73667271","imageIndex":17,"items":[{"name":"웰메이드 시화점","tel":"031-499-1213","addr":"경기도 시흥시 정왕동 1742-15번지 영남빌딩 1층 103~104호","indutype":"소매업 - 의류","category":"other"}]},{"lat":"37.364168394","long":"126.73066282","imageIndex":17,"items":[{"name":"유일치과의원","tel":"031-432-2080","addr":"경기도 시흥시 정왕동 1880-5번지 4층","indutype":"보건업 - 치과,치아미백","category":"other"}]},{"lat":"37.358913991","long":"126.7339439","imageIndex":17,"items":[{"name":"이든토스영어교습소","tel":"031-434-3517","addr":"경기도 시흥시 정왕동 1874-2번지 화성아파트 상가","indutype":"교육서비스업 - 영어교육","category":"other"},{"name":"파이데이아 논술교습소","tel":"","addr":"경기도 시흥시 정왕동 1874-2번지 2층 203호 일부","indutype":"교육서비스업 - 교습소","category":"other"}]},{"lat":"37.345362029","long":"126.7376149","imageIndex":17,"items":[{"name":"이브자리","tel":"031-319-4549","addr":"경기도 시흥시 정왕동 1734-5번지 우리빌딩 102호","indutype":"소매업 - 이불,커튼등","category":"other"}]},{"lat":"37.345865384","long":"126.74521963","imageIndex":17,"items":[{"name":"이태리가구","tel":"031-433-2266","addr":"경기도 시흥시 정왕동 1575-3번지","indutype":"소매업 - 가구","category":"other"}]},{"lat":"37.362662625","long":"126.73019416","imageIndex":17,"items":[{"name":"일공공일 안경원","tel":"031-432-0990","addr":"경기도 시흥시 정왕동 1882-8번지 신도빌딩 104호","indutype":"소매업 - 안경","category":"other"}]},{"lat":"37.345443876","long":"126.75031086","imageIndex":17,"items":[{"name":"자매떡집","tel":"031-431-8813","addr":"경기도 시흥시 정왕동 1191-7번지","indutype":"소매업 - 떡","category":"other"}]},{"lat":"37.378973295","long":"126.72733505","imageIndex":17,"items":[{"name":"자전거총판(삼천리자전거배곧점)","tel":"031-312-3002","addr":"경기도 시흥시 정왕동 2432번지","indutype":"소매업 - 자전거스포츠용품","category":"other"}]},{"lat":"37.336309161","long":"126.75105235","imageIndex":17,"items":[{"name":"재스퍼","tel":"","addr":"경기도 시흥시 정왕동 1628번지 유천아파트 101호","indutype":"개인서비스업 - 네일","category":"other"}]},{"lat":"37.353836089","long":"126.72391676","imageIndex":17,"items":[{"name":"정강축산","tel":"031-319-3391","addr":"경기도 시흥시 정왕동 1861-4번지 로얄타운 117호","indutype":"소매업 - 식육","category":"other"},{"name":"트라이패밀리 정왕점","tel":"031-433-8905","addr":"경기도 시흥시 정왕동 1861-4번지 로얄빌딩 115호","indutype":"소매업 - 일반내의","category":"other"}]},{"lat":"37.36536132","long":"126.73222762","imageIndex":17,"items":[{"name":"정왕4동주민자치위원회","tel":"031-434-2633","addr":"경기도 시흥시 정왕동 1878-13번지","indutype":"기타 - 주민자치위원회","category":"other"}]},{"lat":"37.349219217","long":"126.74616749","imageIndex":17,"items":[{"name":"정왕본동 주민자치위원회","tel":"031-433-4537","addr":"경기도 시흥시 정왕동 2149-3번지 정왕본동주민자치센타","indutype":"기타 - 주민자치회","category":"other"}]},{"lat":"37.342693633","long":"126.75785854","imageIndex":17,"items":[{"name":"정왕본동송변전설비주변지역사회적협동조합","tel":"","addr":"경기도 시흥시 정왕동 1536-1번지","indutype":"개인서비스업 - 서비스업","category":"other"}]},{"lat":"37.347001679","long":"126.74986549","imageIndex":17,"items":[{"name":"정왕세탁소","tel":"031-319-0121","addr":"경기도 시흥시 정왕동 1181-4번지","indutype":"개인서비스업 - 세탁업","category":"other"}]},{"lat":"37.345671081","long":"126.74702599","imageIndex":17,"items":[{"name":"정왕컴net","tel":"031-319-5119","addr":"경기도 시흥시 정왕동 1212-16번지","indutype":"개인서비스업 - 컴퓨터수리","category":"other"}]},{"lat":"37.350142305","long":"126.73981019","imageIndex":17,"items":[{"name":"정음악기","tel":"031-433-4833","addr":"경기도 시흥시 정왕동 1802-1번지 상가 101호","indutype":"소매업 - 악기, 중고피아노","category":"other"}]},{"lat":"37.354829516","long":"126.72109135","imageIndex":17,"items":[{"name":"제이 잉글리쉬","tel":"","addr":"경기도 시흥시 정왕동 1863번지 대림아파트","indutype":"교육서비스업 - 과외교습자","category":"other"}]},{"lat":"37.344249219","long":"126.74783208","imageIndex":17,"items":[{"name":"조아이불할인매장","tel":"031-319-8821","addr":"경기도 시흥시 정왕동 1557-1번지 1층","indutype":"소매업 - 이불,타올","category":"other"}]},{"lat":"37.353805242","long":"126.72230287","imageIndex":17,"items":[{"name":"종로떡방앗간","tel":"031-499-8633","addr":"경기도 시흥시 정왕동 1857-3번지 삼아빌딩 101호","indutype":"제조업 - 떡방앗간","category":"other"}]},{"lat":"37.330810946","long":"126.73775633","imageIndex":17,"items":[{"name":"주식회사 프로컴 정보기술","tel":"031-488-9944","addr":"경기도 시흥시 정왕동 1289-6번지 코포모테크노센터 2","indutype":"소매업 - 컴퓨터 및 주변기기","category":"other"}]},{"lat":"37.377277516","long":"126.72652835","imageIndex":17,"items":[{"name":"중대킨더음악학원","tel":"031-497-2300","addr":"경기도 시흥시 정왕동 2477-2번지 배곧 로자벨 405호","indutype":"교육서비스업 - 음악","category":"other"},{"name":"품태권도&줄넘기클럽","tel":"031-431-0110","addr":"경기도 시흥시 정왕동 2477-2번지 504~507호","indutype":"교육서비스업 - 태권도장","category":"other"}]},{"lat":"37.346026975","long":"126.74494823","imageIndex":17,"items":[{"name":"창&방(창앤방)","tel":"031-499-8252","addr":"경기도 시흥시 정왕동 1575번지 101호","indutype":"소매업 - 커튼, 침구류","category":"other"}]},{"lat":"37.346830833","long":"126.7542788","imageIndex":17,"items":[{"name":"채널큐24정왕점","tel":"031-433-5755","addr":"경기도 시흥시 정왕동 1167-4번지","indutype":"소매업 - 편의점","category":"other"}]},{"lat":"37.344860141","long":"126.73480658","imageIndex":17,"items":[{"name":"초록지붕의 앤","tel":"031-499-0526","addr":"경기도 시흥시 정왕동 1740-1번지 한라프라자 302호","indutype":"개인서비스업 - 공방","category":"other"}]},{"lat":"37.340645039","long":"126.74777656","imageIndex":17,"items":[{"name":"충남종합철물점","tel":"031-499-6075","addr":"경기도 시흥시 정왕동 1439-10번지 1층","indutype":"소매업 - 철물및건재","category":"other"}]},{"lat":"37.336807934","long":"126.72820006","imageIndex":17,"items":[{"name":"커피베이 시흥센트럴병원점","tel":"031-509-5502","addr":"경기도 시흥시 정왕동 1366-11번지 센트럴병원 내 별관1층","indutype":"보건업 - 카페","category":"other"}]},{"lat":"37.346163731","long":"126.75411171","imageIndex":17,"items":[{"name":"컴넷TREE","tel":"031-319-3638","addr":"경기도 시흥시 정왕동 1500-13번지","indutype":"소매업 - 컴퓨터및주변기기","category":"other"}]},{"lat":"37.349746583","long":"126.74422447","imageIndex":17,"items":[{"name":"크린코리아","tel":"031-432-1604","addr":"경기도 시흥시 정왕동 1812-3번지","indutype":"개인서비스업 - 세탁","category":"other"}]},{"lat":"37.356635627","long":"126.72281154","imageIndex":17,"items":[{"name":"크린코리아세탁","tel":"","addr":"경기도 시흥시 정왕동 1864번지 주공아파트 상가 105호","indutype":"개인서비스업 - 세탁업","category":"other"}]},{"lat":"37.347252662","long":"126.73296978","imageIndex":17,"items":[{"name":"크린토피아 시흥정왕지사","tel":"031-433-3822","addr":"경기도 시흥시 정왕동 1727-3번지 1층","indutype":"개인서비스업 - 세탁","category":"other"}]},{"lat":"37.357777801","long":"126.7296136","imageIndex":17,"items":[{"name":"크린화이트세탁소","tel":"031-496-9990","addr":"경기도 시흥시 정왕동 1875-5번지 건영2차아파트 1층 103호","indutype":"개인서비스업 - 세탁업, 수선","category":"other"},{"name":"합기도 검도 완무관","tel":"031-433-8802","addr":"경기도 시흥시 정왕동 1875-5번지 건영2차라파트 상가동 지하층 105~7호","indutype":"교육서비스업 - 합기도","category":"other"}]},{"lat":"37.346278622","long":"126.73255569","imageIndex":17,"items":[{"name":"크림왁싱","tel":"","addr":"경기도 시흥시 정왕동 1731-5번지 원프라자 403호","indutype":"개인서비스업 - 왁싱","category":"other"}]},{"lat":"37.377887607","long":"126.72541966","imageIndex":17,"items":[{"name":"키즈플레이","tel":"031-778-7757","addr":"경기도 시흥시 정왕동 2476-1번지 파크뷰 1차동 5층 501~505호","indutype":"교육서비스업 - 실내놀이터","category":"other"}]},{"lat":"37.347969646","long":"126.74333898","imageIndex":17,"items":[{"name":"키카험멜스포츠","tel":"031-498-8688","addr":"경기도 시흥시 정왕동 1830-8번지 상가102호","indutype":"소매업 - 체육용품","category":"other"}]},{"lat":"37.346748238","long":"126.74105218","imageIndex":17,"items":[{"name":"타이어테크플러스 기능사카센터","tel":"031-432-9009","addr":"경기도 시흥시 정왕동 1608번지","indutype":"개인서비스업 - 카센터, 타이어","category":"other"}]},{"lat":"37.346413205","long":"126.73230693","imageIndex":17,"items":[{"name":"태림이불DC마트","tel":"031-319-4149","addr":"경기도 시흥시 정왕동 1731-4번지 세은프라자 104호","indutype":"소매업 - 침구류","category":"other"}]},{"lat":"37.340837201","long":"126.75338448","imageIndex":17,"items":[{"name":"태형시스템","tel":"031-498-2227","addr":"경기도 시흥시 정왕동 1395-5번지","indutype":"소매업 - 간판,인쇄판촉물","category":"other"}]},{"lat":"37.34478092","long":"126.69142562","imageIndex":17,"items":[{"name":"토탈 솔류션","tel":"031-434-4343","addr":"경기도 시흥시 정왕동 1990-7번지 현대빌라트 1층 104호","indutype":"소매업 - 컴퓨터 등","category":"other"}]},{"lat":"37.343721917","long":"126.73749653","imageIndex":17,"items":[{"name":"티엔티주니어보습학원","tel":"031-497-0584","addr":"경기도 시흥시 정왕동 1739-7번지 이송빌딩 5층","indutype":"교육서비스업 - 교습확원","category":"other"},{"name":"한우리 정보통신","tel":"031-497-5133","addr":"경기도 시흥시 정왕동 1739-7번지 이송빌딩 104호","indutype":"소매업 - 휴대폰","category":"other"}]},{"lat":"37.344949542","long":"126.74668987","imageIndex":17,"items":[{"name":"파란들가구","tel":"031-431-5394","addr":"경기도 시흥시 정왕동 1571-7번지","indutype":"제조업 - 가구","category":"other"}]},{"lat":"37.347469367","long":"126.73317215","imageIndex":17,"items":[{"name":"팔마오피스","tel":"031-319-4708","addr":"경기도 시흥시 정왕동 1727-2번지 명지프라자","indutype":"소매업 - 문구","category":"other"}]},{"lat":"37.344998471","long":"126.74433104","imageIndex":17,"items":[{"name":"팝콘디자인","tel":"031-432-5881","addr":"경기도 시흥시 정왕동 1579-3번지 102호","indutype":"기타 - 스크린인쇄, 실사인쇄","category":"other"}]},{"lat":"37.37882882","long":"126.7272001","imageIndex":17,"items":[{"name":"퍼펙트사운드","tel":"031-319-0430","addr":"경기도 시흥시 정왕동 2432-1번지","indutype":"소매업 - 카오디오","category":"other"}]},{"lat":"37.376855216","long":"126.73092181","imageIndex":17,"items":[{"name":"펫마루 (PET MARU)","tel":"031-433-0102","addr":"경기도 시흥시 정왕동 2450-3번지 1층","indutype":"소매업 - 애완용품","category":"other"}]},{"lat":"37.346691509","long":"126.74808339","imageIndex":17,"items":[{"name":"폰토피아","tel":"031-319-4496","addr":"경기도 시흥시 정왕동 1186-10번지","indutype":"소매업 - 폰케이스","category":"other"}]},{"lat":"37.344608342","long":"126.7514422","imageIndex":17,"items":[{"name":"폴햄정왕점","tel":"031-433-9989","addr":"경기도 시흥시 정왕동 1194-10번지 1층","indutype":"소매업 - 의류","category":"other"}]},{"lat":"37.345420017","long":"126.73535759","imageIndex":17,"items":[{"name":"푸른솔 법률사무소","tel":"031-319-7654","addr":"경기도 시흥시 정왕동 1735-4번지 대하빌딩 201호","indutype":"개인서비스업 - 변호사","category":"other"}]},{"lat":"37.344137317","long":"126.73791263","imageIndex":17,"items":[{"name":"핑(ping)","tel":"","addr":"경기도 시흥시 정왕동 1739-3번지","indutype":"소매업 - 의류","category":"other"}]},{"lat":"37.374744702","long":"126.73392127","imageIndex":17,"items":[{"name":"하람언어심리연구소","tel":"031-432-4690","addr":"경기도 시흥시 정왕동 2467-1번지 제일프라자 5층 501,502호","indutype":"개인서비스업 - 아동심리상담","category":"other"}]},{"lat":"37.3789724","long":"126.72695118","imageIndex":17,"items":[{"name":"하이베베","tel":"031-503-0114","addr":"경기도 시흥시 정왕동 2428-1번지 101호","indutype":"소매업 - 의류","category":"other"}]},{"lat":"37.353552012","long":"126.74155902","imageIndex":17,"items":[{"name":"한국자전거유통","tel":"031-433-3655","addr":"경기도 시흥시 정왕동 2297-3번지","indutype":"소매업 - 자전거스포츠용품","category":"other"}]},{"lat":"37.343532379","long":"126.68947843","imageIndex":17,"items":[{"name":"한솔 공인중개사사무소","tel":"031-319-7800","addr":"경기도 시흥시 정왕동 2011-7번지 1층","indutype":"개인서비스업 - 부동산중개업","category":"other"}]},{"lat":"37.35555188","long":"126.73335768","imageIndex":17,"items":[{"name":"한신공인중개사사무소","tel":"031-498-9955","addr":"경기도 시흥시 정왕동 1872-6번지 한신아파트 107호","indutype":"개인서비스업 - 부동산업","category":"other"},{"name":"한신뱅크공인중개사사무소","tel":"031-497-2242","addr":"경기도 시흥시 정왕동 1872-6번지 한신아파트 104호","indutype":"개인서비스업 - 부동산업","category":"other"}]},{"lat":"37.363971963","long":"126.73144242","imageIndex":17,"items":[{"name":"한우마을정육점","tel":"031-319-3589","addr":"경기도 시흥시 정왕동 1881-4번지","indutype":"소매업 - 정육점","category":"other"}]},{"lat":"37.352443824","long":"126.74158544","imageIndex":17,"items":[{"name":"한우직판장","tel":"031-434-0705","addr":"경기도 시흥시 정왕동 2320-6번지 101,102호","indutype":"소매업 - 식육즉석판매업","category":"other"}]},{"lat":"37.335666607","long":"126.72947932","imageIndex":17,"items":[{"name":"한주토피스","tel":"031-435-9800","addr":"경기도 시흥시 정왕동 1366-8번지","indutype":"소매업 - 문구,전산용품","category":"other"}]},{"lat":"37.319922936","long":"126.72436932","imageIndex":17,"items":[{"name":"한창시스템","tel":"031-509-9991","addr":"경기도 시흥시 정왕동 2192-1번지 우영산업내 신성2층 한창시스템","indutype":"개인서비스업 - 가정제품 수리 등","category":"other"}]},{"lat":"37.3729144","long":"126.7294458","imageIndex":17,"items":[{"name":"해법네잎클로버교실","tel":"","addr":"경기도 시흥시 정왕동 2501번지 호반베르디움더프라임","indutype":"교육서비스업 - 개인과외","category":"other"},{"name":"호반세탁소","tel":"031-498-1275","addr":"경기도 시흥시 정왕동 2501번지 호반더프라임 상가 1동 201호","indutype":"개인서비스업 - 세탁소","category":"other"}]},{"lat":"37.344643465","long":"126.7346155","imageIndex":17,"items":[{"name":"해인세무법인","tel":"031-434-6060","addr":"경기도 시흥시 정왕동 1740-2번지 한일프라자 403호","indutype":"개인서비스업 - 세무사, 세무회계","category":"other"}]},{"lat":"37.345194707","long":"126.75605602","imageIndex":17,"items":[{"name":"현대중기상사","tel":"031-499-4238","addr":"경기도 시흥시 정왕동 1503-10번지","indutype":"소매업 - 중기부품및수리","category":"other"}]},{"lat":"37.345166695","long":"126.7429762","imageIndex":17,"items":[{"name":"형제셀프세차장","tel":"","addr":"경기도 시흥시 정왕동 1617번지","indutype":"개인서비스업 - 세차업","category":"other"}]},{"lat":"37.353330372","long":"126.71964097","imageIndex":17,"items":[{"name":"형제유통","tel":"031-431-3873","addr":"경기도 시흥시 정왕동 1862번지 상가-108호","indutype":"소매업 - 음, 식자재","category":"other"}]},{"lat":"37.352139873","long":"126.73860684","imageIndex":17,"items":[{"name":"화인인테리어","tel":"031-496-8801","addr":"경기도 시흥시 정왕동 2305-35번지 홍익빌딩 101호","indutype":"소매업 - 리모델링","category":"other"}]}]