[{"lat":"37.31242676","long":"127.13626428","imageIndex":0,"items":[{"name":"(주)케이씨씨 중앙연구소","tel":"031-288-3227","addr":"경기도 용인시 기흥구 마북동 83번지","indutype":"자동차정비 유지 - 주차장","category":"car"}]},{"lat":"37.298092426","long":"127.10857282","imageIndex":0,"items":[{"name":"(주)타이어트리","tel":"031-284-0648","addr":"경기도 용인시 기흥구 마북동 475-10번지 3층","indutype":"자동차정비 유지 - 자동차시트·타이어","category":"car"}]},{"lat":"37.294989599","long":"127.11221128","imageIndex":0,"items":[{"name":"1호카센타","tel":"031-286-9987","addr":"경기도 용인시 기흥구 마북동 370-6번지 1층","indutype":"자동차정비 유지 - 자동차정비","category":"car"}]},{"lat":"37.298399736","long":"127.10749051","imageIndex":0,"items":[{"name":"A.GPOWER","tel":"031-283-2950","addr":"경기도 용인시 기흥구 마북동 508번지","indutype":"자동차정비 유지 - 자동차부품","category":"car"}]},{"lat":"37.295040133","long":"127.11596694","imageIndex":0,"items":[{"name":"강산세차장","tel":"031-283-0578","addr":"경기도 용인시 기흥구 마북동 316번지","indutype":"자동차정비 유지 - 세차장","category":"car"}]},{"lat":"37.304205627","long":"127.12299646","imageIndex":0,"items":[{"name":"골드오토자동차공업사","tel":"031-286-0881","addr":"경기도 용인시 기흥구 마북동 180-3번지","indutype":"자동차정비 유지 - 자동차정비","category":"car"}]},{"lat":"37.301762111","long":"127.10571307","imageIndex":0,"items":[{"name":"그린카서비스","tel":"031-285-8999","addr":"경기도 용인시 기흥구 마북동 502-140번지","indutype":"자동차정비 유지 - 자동차정비","category":"car"}]},{"lat":"37.291901569","long":"127.10948892","imageIndex":0,"items":[{"name":"넥센타이어 (주)타이어테크 마북점","tel":"031-281-5989","addr":"경기도 용인시 기흥구 마북동 426-8번지 1층","indutype":"자동차정비 유지 - 자동차시트·타이어","category":"car"}]},{"lat":"37.297624287","long":"127.1081323","imageIndex":0,"items":[{"name":"대영모터스","tel":"031-284-1924","addr":"경기도 용인시 기흥구 마북동 477-2번지 대영모터스","indutype":"자동차정비 유지 - 자동차정비","category":"car"}]},{"lat":"37.299241474","long":"127.11324379","imageIndex":0,"items":[{"name":"대용","tel":"02-2202-3114","addr":"경기도 용인시 기흥구 마북동 629번지 삼성래미안1차아파트","indutype":"자동차정비 유지 - 주차장","category":"car"}]},{"lat":"37.295210374","long":"127.10719286","imageIndex":0,"items":[{"name":"드림텍","tel":"031-283-4626","addr":"경기도 용인시 기흥구 마북동 502-32번지","indutype":"자동차정비 유지 - 자동차부품","category":"car"}]},{"lat":"37.297902606","long":"127.10924926","imageIndex":0,"items":[{"name":"디스워시","tel":"031-284-6950","addr":"경기도 용인시 기흥구 마북동 517번지","indutype":"자동차정비 유지 - 카인테리어","category":"car"}]},{"lat":"37.303509681","long":"127.10618918","imageIndex":0,"items":[{"name":"마북점기아오토큐","tel":"031-284-0004","addr":"경기도 용인시 기흥구 마북동 554-1번지","indutype":"자동차정비 유지 - 자동차정비","category":"car"}]},{"lat":"37.292179577","long":"127.11093285","imageIndex":0,"items":[{"name":"매직핑거","tel":"031-282-5005","addr":"경기도 용인시 기흥구 마북동 415-8번지 모빌월드 세차동 네비게이션","indutype":"자동차정비 유지 - 자동차부품","category":"car"},{"name":"주식회사 모빌월드모터스","tel":"031-284-5300","addr":"경기도 용인시 기흥구 마북동 415-8번지","indutype":"자동차정비 유지 - 자동차정비","category":"car"}]},{"lat":"37.296623558","long":"127.10879633","imageIndex":0,"items":[{"name":"명진자동차공업사","tel":"031-275-0700","addr":"경기도 용인시 기흥구 마북동 482-10번지 외2필지","indutype":"자동차정비 유지 - 자동차정비","category":"car"}]},{"lat":"37.296013822","long":"127.10543457","imageIndex":0,"items":[{"name":"브로스컨테이너","tel":"","addr":"경기도 용인시 기흥구 마북동 502-233번지 105호","indutype":"자동차정비 유지 - 카인테리어","category":"car"},{"name":"에스엠모터스","tel":"031-8005-6147","addr":"경기도 용인시 기흥구 마북동 502-233번지","indutype":"자동차정비 유지 - 자동차부품","category":"car"}]},{"lat":"37.292153855","long":"127.10948927","imageIndex":0,"items":[{"name":"브이쿨기흥점","tel":"031-8811-6921","addr":"경기도 용인시 기흥구 마북동 502-129번지 7호","indutype":"자동차정비 유지 - 자동차부품","category":"car"},{"name":"에이치케이멀티샵","tel":"","addr":"경기도 용인시 기흥구 마북동 502-129번지","indutype":"자동차정비 유지 - 카인테리어","category":"car"},{"name":"오일메카","tel":"031-284-1710","addr":"경기도 용인시 기흥구 마북동 502-129번지 일부","indutype":"자동차정비 유지 - 자동차부품","category":"car"},{"name":"오토엔젤 용인점","tel":"031-000-0000","addr":"경기도 용인시 기흥구 마북동 502-129번지 1층","indutype":"자동차정비 유지 - 카인테리어","category":"car"},{"name":"워시메카","tel":"031-286-3111","addr":"경기도 용인시 기흥구 마북동 502-129번지","indutype":"자동차정비 유지 - 세차장","category":"car"},{"name":"워시메카플러스","tel":"031-286-3111","addr":"경기도 용인시 기흥구 마북동 502-129번지","indutype":"자동차정비 유지 - 세차장","category":"car"}]},{"lat":"37.304374813","long":"127.12495935","imageIndex":0,"items":[{"name":"새차만들기","tel":"070-7746-3700","addr":"경기도 용인시 기흥구 마북동 187-4번지","indutype":"자동차정비 유지 - 세차장","category":"car"}]},{"lat":"37.305454152","long":"127.12677711","imageIndex":0,"items":[{"name":"샤인","tel":"","addr":"경기도 용인시 기흥구 마북동 143번지 교동마을신창아파트","indutype":"자동차정비 유지 - 세차장","category":"car"}]},{"lat":"37.298652042","long":"127.1074683","imageIndex":0,"items":[{"name":"스피드메이트 구성신도시점","tel":"031-287-0154","addr":"경기도 용인시 기흥구 마북동 507번지","indutype":"자동차정비 유지 - 자동차정비","category":"car"}]},{"lat":"37.303375808","long":"127.10471141","imageIndex":0,"items":[{"name":"스피드메이트 구성주유소점","tel":"031-286-5999","addr":"경기도 용인시 기흥구 마북동 502-142번지 1층","indutype":"자동차정비 유지 - 자동차정비","category":"car"}]},{"lat":"37.294621853","long":"127.11038372","imageIndex":0,"items":[{"name":"스피드메이트에스케이구성점","tel":"031-285-7022","addr":"경기도 용인시 기흥구 마북동 502-152번지","indutype":"자동차정비 유지 - 자동차정비","category":"car"}]},{"lat":"37.294652037","long":"127.10685375","imageIndex":0,"items":[{"name":"엘모터스(L MOTORS)","tel":"02-1111-1111","addr":"경기도 용인시 기흥구 마북동 502-412번지","indutype":"자동차정비 유지 - 자동차정비","category":"car"}]},{"lat":"37.297821746","long":"127.10898974","imageIndex":0,"items":[{"name":"엠씨모터스(MC.motors)","tel":"031-282-6147","addr":"경기도 용인시 기흥구 마북동 517-8번지","indutype":"자동차정비 유지 - 카인테리어","category":"car"},{"name":"탑모터스(TOP MOTORS)","tel":"031-285-5881","addr":"경기도 용인시 기흥구 마북동 517-8번지 외1필지","indutype":"자동차정비 유지 - 자동차부품","category":"car"}]},{"lat":"37.308485843","long":"127.1312377","imageIndex":0,"items":[{"name":"유한카써비스","tel":"031-283-0656","addr":"경기도 용인시 기흥구 마북동 115-2번지","indutype":"자동차정비 유지 - 자동차정비","category":"car"}]},{"lat":"37.302722741","long":"127.12802462","imageIndex":0,"items":[{"name":"일광세차","tel":"031-287-1440","addr":"경기도 용인시 기흥구 마북동 621번지 교동마을쌍용아파트","indutype":"자동차정비 유지 - 세차장","category":"car"}]},{"lat":"37.294598976","long":"127.11560539","imageIndex":0,"items":[{"name":"제일덴트칼라","tel":"031-283-1268","addr":"경기도 용인시 기흥구 마북동 321-4번지","indutype":"자동차정비 유지 - 카인테리어","category":"car"}]},{"lat":"37.299595893","long":"127.11949272","imageIndex":0,"items":[{"name":"좋아자동차","tel":"031-285-5541","addr":"경기도 용인시 기흥구 마북동 254-2번지 대왕빌딩 109호","indutype":"자동차정비 유지 - 자동차정비","category":"car"}]},{"lat":"37.29498634","long":"127.11568491","imageIndex":0,"items":[{"name":"주식회사 카프로","tel":"031-284-8297","addr":"경기도 용인시 기흥구 마북동 339번지","indutype":"자동차정비 유지 - 자동차정비","category":"car"}]},{"lat":"37.299626034","long":"127.12533515","imageIndex":0,"items":[{"name":"주식회사유엔아이시스템","tel":"031-287-1861","addr":"경기도 용인시 기흥구 마북동 630번지 교동마을현대홈타운 110동 601호","indutype":"자동차정비 유지 - 자동차부품","category":"car"}]},{"lat":"37.294704025","long":"127.10918837","imageIndex":0,"items":[{"name":"주식회사한독서비스","tel":"031-275-3786","addr":"경기도 용인시 기흥구 마북동 502-108번지","indutype":"자동차정비 유지 - 자동차정비","category":"car"},{"name":"한독서비스","tel":"031-275-3786","addr":"경기도 용인시 기흥구 마북동 502-108번지","indutype":"자동차정비 유지 - 자동차정비","category":"car"}]},{"lat":"37.29615586","long":"127.10785958","imageIndex":0,"items":[{"name":"지지모터스","tel":"031-274-3344","addr":"경기도 용인시 기흥구 마북동 502-14번지","indutype":"자동차정비 유지 - 자동차부품","category":"car"}]},{"lat":"37.302567229","long":"127.11218841","imageIndex":0,"items":[{"name":"창성산업","tel":"031-716-5807","addr":"경기도 용인시 기흥구 마북동 550-4","indutype":"자동차정비 유지 - 자동차부품","category":"car"}]},{"lat":"37.302481863","long":"127.12573455","imageIndex":0,"items":[{"name":"카앤피플 용인 수지점","tel":"070-4117-1114","addr":"경기도 용인시 기흥구 마북동 204-5번지 교동마을정광아파트","indutype":"자동차정비 유지 - 세차장","category":"car"}]},{"lat":"37.297650623","long":"127.10891055","imageIndex":0,"items":[{"name":"타이어싼집","tel":"000-1899-9996","addr":"경기도 용인시 기흥구 마북동 475-4번지","indutype":"자동차정비 유지 - 자동차시트·타이어","category":"car"}]},{"lat":"37.303404027","long":"127.12269064","imageIndex":0,"items":[{"name":"태인모터스","tel":"031-285-0951","addr":"경기도 용인시 기흥구 마북동 175-22번지 1층 1호","indutype":"자동차정비 유지 - 자동차정비","category":"car"}]},{"lat":"37.299317918","long":"127.10846174","imageIndex":0,"items":[{"name":"한국지엠기흥바로서비스","tel":"031-283-5244","addr":"경기도 용인시 기흥구 마북동 520-17번지 외1필지","indutype":"자동차정비 유지 - 자동차정비","category":"car"}]},{"lat":"37.308287227","long":"127.13159832","imageIndex":0,"items":[{"name":"현대카프라자","tel":"031-284-7244","addr":"경기도 용인시 기흥구 마북동 113-4번지","indutype":"자동차정비 유지 - 자동차정비","category":"car"}]},{"lat":"37.302906095","long":"127.10607557","imageIndex":0,"items":[{"name":"황제윤활유","tel":"031-287-1313","addr":"경기도 용인시 기흥구 마북동 554-10","indutype":"자동차정비 유지 - 윤활유 전문 판매","category":"car"}]}]