[{"lat":"37.753068004","long":"126.88184131","imageIndex":17,"items":[{"name":"(주) 서울환경","tel":"031-948-7679","addr":"경기도 파주시 광탄면 분수리 8-14번지","indutype":"건축자재 - 기타건축자재","category":"other"}]},{"lat":"37.767622543","long":"126.85400017","imageIndex":17,"items":[{"name":"(주)명진특수고무","tel":"031-966-1195","addr":"경기도 파주시 광탄면 분수리 436-5번지","indutype":"건축자재 - 기타건축자재","category":"other"}]},{"lat":"37.755172171","long":"126.87794569","imageIndex":17,"items":[{"name":"(주)삼원유리","tel":"031-949-6289","addr":"경기도 파주시 광탄면 분수리 94-14번지","indutype":"건축자재 - 유리","category":"other"}]},{"lat":"37.764032943","long":"126.8581724","imageIndex":17,"items":[{"name":"GS25분수대박점","tel":"","addr":"경기도 파주시 광탄면 분수리 390-8번지","indutype":"유통업 영리 - 편 의 점","category":"other"}]},{"lat":"37.751534944","long":"126.88044813","imageIndex":17,"items":[{"name":"광진가구","tel":"031-975-7745","addr":"경기도 파주시 광탄면 분수리 41-7번지","indutype":"가구 - 일반가구","category":"other"},{"name":"세광","tel":"031-948-6984","addr":"경기도 파주시 광탄면 분수리 41-7번지 A동","indutype":"가구 - 일반가구","category":"other"}]},{"lat":"37.760704498","long":"126.87014006","imageIndex":17,"items":[{"name":"깜삐노 (CAM PI NO)","tel":"070-8810-4569","addr":"경기도 파주시 광탄면 분수리 221-5번지","indutype":"가구 - 일반가구","category":"other"}]},{"lat":"37.765587416","long":"126.84780764","imageIndex":17,"items":[{"name":"대명분체","tel":"031-943-1057","addr":"경기도 파주시 광탄면 분수리 458번지","indutype":"건축자재 - 목재·석재·철물","category":"other"}]},{"lat":"37.754201562","long":"126.88025084","imageIndex":17,"items":[{"name":"대우산업","tel":"031-947-6180","addr":"경기도 파주시 광탄면 분수리 77번지","indutype":"건축자재 - 목재·석재·철물","category":"other"}]},{"lat":"37.759262349","long":"126.86958658","imageIndex":17,"items":[{"name":"대화정밀","tel":"031-946-2217","addr":"경기도 파주시 광탄면 분수리 219-2번지","indutype":"기타 - 기계공구","category":"other"}]},{"lat":"37.753081487","long":"126.88627805","imageIndex":17,"items":[{"name":"디자인첼로","tel":"031-957-0211","addr":"경기도 파주시 광탄면 분수리 31-1번지","indutype":"가구 - 일반가구","category":"other"}]},{"lat":"37.771006184","long":"126.85091755","imageIndex":17,"items":[{"name":"르호봇가구","tel":"031-947-9771","addr":"경기도 파주시 광탄면 분수리 476-1번지","indutype":"가구 - 일반가구","category":"other"}]},{"lat":"37.750566667","long":"126.88511327","imageIndex":17,"items":[{"name":"리빈디자인","tel":"031-942-7427","addr":"경기도 파주시 광탄면 분수리 50-3번지","indutype":"가구 - 일반가구","category":"other"}]},{"lat":"37.756369374","long":"126.87694508","imageIndex":17,"items":[{"name":"리채가구","tel":"","addr":"경기도 파주시 광탄면 분수리 99-27번지","indutype":"가구 - 일반가구","category":"other"}]},{"lat":"37.758285619","long":"126.87436583","imageIndex":17,"items":[{"name":"모아모아퍼니처","tel":"070-7747-3939","addr":"경기도 파주시 광탄면 분수리 178-3번지","indutype":"가구 - 일반가구","category":"other"}]},{"lat":"37.754757706","long":"126.88672932","imageIndex":17,"items":[{"name":"사회복지법인정원노인요양원","tel":"031-943-7001","addr":"경기도 파주시 광탄면 분수리 28-15번지","indutype":"기타의료기관 - 기타의료기관 및 기타","category":"other"}]},{"lat":"37.761948104","long":"126.86261374","imageIndex":17,"items":[{"name":"삼진철물상사","tel":"031-949-3360","addr":"경기도 파주시 광탄면 분수리 290-8번지","indutype":"건축자재 - 목재·석재·철물","category":"other"}]},{"lat":"37.754706707","long":"126.88084007","imageIndex":17,"items":[{"name":"세광시스템","tel":"031-942-0261","addr":"경기도 파주시 광탄면 분수리 78-3번지","indutype":"사무통신 - 기타 사무용품","category":"other"}]},{"lat":"37.767504788","long":"126.85350103","imageIndex":17,"items":[{"name":"송수공예사","tel":"031-947-3669","addr":"경기도 파주시 광탄면 분수리 436-2","indutype":"문화.취미 - 민예·공예품","category":"other"}]},{"lat":"37.749762437","long":"126.88275443","imageIndex":17,"items":[{"name":"수민전기조명","tel":"031-947-3023","addr":"경기도 파주시 광탄면 분수리 55-13번지 2층","indutype":"전기제품 - 기타전기제품","category":"other"},{"name":"종합인테리어장식","tel":"031-947-1662","addr":"경기도 파주시 광탄면 분수리 55-13","indutype":"건축자재 - 인테리어전문","category":"other"}]},{"lat":"37.751373313","long":"126.88097036","imageIndex":17,"items":[{"name":"수지필름재단","tel":"031-8071-0522","addr":"경기도 파주시 광탄면 분수리 58-3","indutype":"유통업 영리 - 기타유통업","category":"other"}]},{"lat":"37.753901443","long":"126.87758471","imageIndex":17,"items":[{"name":"신흥깔판","tel":"031-943-4603","addr":"경기도 파주시 광탄면 분수리 67-6번지","indutype":"가구 - 일반가구","category":"other"}]},{"lat":"37.768372599","long":"126.84875518","imageIndex":17,"items":[{"name":"씨엔씨 팩토리(CNC FACTORY)","tel":"031-957-8841","addr":"경기도 파주시 광탄면 분수리 455-7번지","indutype":"용역 서비스 - 종합용역","category":"other"}]},{"lat":"37.751034833","long":"126.88478347","imageIndex":17,"items":[{"name":"앤드인테리어","tel":"031-000-0000","addr":"경기도 파주시 광탄면 분수리 48-23번지","indutype":"건축자재 - 인테리어전문","category":"other"},{"name":"이광교구","tel":"031-943-3125","addr":"경기도 파주시 광탄면 분수리 48-23","indutype":"서적문구 - 과학기자재","category":"other"}]},{"lat":"37.760010292","long":"126.86972141","imageIndex":17,"items":[{"name":"에이원","tel":"","addr":"경기도 파주시 광탄면 분수리 142-5번지","indutype":"건축자재 - 기타건축자재","category":"other"}]},{"lat":"37.75953185","long":"126.86889385","imageIndex":17,"items":[{"name":"엘로이 편의점","tel":"070-8860-8212","addr":"경기도 파주시 광탄면 분수리 219-10번지","indutype":"유통업 영리 - 편 의 점","category":"other"}]},{"lat":"37.762371064","long":"126.8622044","imageIndex":17,"items":[{"name":"원스쇼케이스","tel":"031-947-5300","addr":"경기도 파주시 광탄면 분수리 286-12","indutype":"가구 - 일반가구","category":"other"}]},{"lat":"37.770258294","long":"126.85083963","imageIndex":17,"items":[{"name":"이마트24광탄으뜸점","tel":"","addr":"경기도 파주시 광탄면 분수리 467-12번지","indutype":"유통업 영리 - 편 의 점","category":"other"}]},{"lat":"37.757677882","long":"126.87895144","imageIndex":17,"items":[{"name":"이화산업","tel":"070-5031-0327","addr":"경기도 파주시 광탄면 분수리 90-1번지","indutype":"기타 - 기계공구","category":"other"}]},{"lat":"37.754093164","long":"126.87997868","imageIndex":17,"items":[{"name":"정금기계","tel":"031-945-2652","addr":"경기도 파주시 광탄면 분수리 76-1","indutype":"기타 - 기계공구","category":"other"}]},{"lat":"37.753956071","long":"126.88694617","imageIndex":17,"items":[{"name":"정원치매노인요양센터","tel":"031-943-7001","addr":"경기도 파주시 광탄면 분수리 28-16","indutype":"기타의료기관 - 기타의료기관 및 기타","category":"other"}]},{"lat":"37.760870529","long":"126.87361237","imageIndex":17,"items":[{"name":"제이아이코퍼레이션","tel":"031-944-3679","addr":"경기도 파주시 광탄면 분수리 165-1번지","indutype":"신변잡화 - 제화","category":"other"},{"name":"주식회사 나은","tel":"070-4184-2333","addr":"경기도 파주시 광탄면 분수리 165-1번지","indutype":"기타 - 기계공구","category":"other"}]},{"lat":"37.756235065","long":"126.87772829","imageIndex":17,"items":[{"name":"제일S.G.D","tel":"031-957-2460","addr":"경기도 파주시 광탄면 분수리 101-4번지","indutype":"건축자재 - 유리","category":"other"}]},{"lat":"37.770727153","long":"126.85112242","imageIndex":17,"items":[{"name":"제일샤링","tel":"031-944-0013","addr":"경기도 파주시 광탄면 분수리 475-1","indutype":"건축자재 - 목재·석재·철물","category":"other"}]},{"lat":"37.756983504","long":"126.87833981","imageIndex":17,"items":[{"name":"조은나무주식회사","tel":"031-942-4371","addr":"경기도 파주시 광탄면 분수리 102-8번지","indutype":"건축자재 - 목재·석재·철물","category":"other"}]},{"lat":"37.757899712","long":"126.87575095","imageIndex":17,"items":[{"name":"주식회사 동산아이엔지","tel":"031-957-4660","addr":"경기도 파주시 광탄면 분수리 111-6번지","indutype":"레져용품 - 스포츠·레져용품","category":"other"}]},{"lat":"37.756757797","long":"126.87789763","imageIndex":17,"items":[{"name":"주식회사 두림금속","tel":"031-942-8011","addr":"경기도 파주시 광탄면 분수리 102-17번지","indutype":"기타 - 기계공구","category":"other"}]},{"lat":"37.764483181","long":"126.85797859","imageIndex":17,"items":[{"name":"주식회사 만수돌침대","tel":"031-1577-0205","addr":"경기도 파주시 광탄면 분수리 390-3번지","indutype":"가구 - 일반가구","category":"other"}]},{"lat":"37.752449828","long":"126.88528049","imageIndex":17,"items":[{"name":"주식회사 백세나노바이오","tel":"031-944-5409","addr":"경기도 파주시 광탄면 분수리 32-15번지","indutype":"전기제품 - 기타전기제품","category":"other"}]},{"lat":"37.749374285","long":"126.88202888","imageIndex":17,"items":[{"name":"주식회사 별과하늘","tel":"031-943-4292","addr":"경기도 파주시 광탄면 분수리 55-2번지","indutype":"건축자재 - 인테리어전문","category":"other"}]},{"lat":"37.749619745","long":"126.88419569","imageIndex":17,"items":[{"name":"주식회사 신영기계","tel":"031-947-6083","addr":"경기도 파주시 광탄면 분수리 54-13번지","indutype":"기타 - 기계공구","category":"other"}]},{"lat":"37.761505601","long":"126.86948041","imageIndex":17,"items":[{"name":"주식회사 이레패키지","tel":"031-946-4116","addr":"경기도 파주시 광탄면 분수리 136-20번지","indutype":"유통업 영리 - 기타유통업","category":"other"}]},{"lat":"37.758679402","long":"126.87197071","imageIndex":17,"items":[{"name":"주식회사 제이앤피산업","tel":"031-944-3414","addr":"경기도 파주시 광탄면 분수리 159번지","indutype":"유통업 영리 - 기타유통업","category":"other"}]},{"lat":"37.762345133","long":"126.87094288","imageIndex":17,"items":[{"name":"진영","tel":"031-946-5547","addr":"경기도 파주시 광탄면 분수리 137-15번지","indutype":"레져용품 - 스포츠·레져용품","category":"other"}]},{"lat":"37.759980049","long":"126.87495301","imageIndex":17,"items":[{"name":"청도산업(주)","tel":"031-949-5112","addr":"경기도 파주시 광탄면 분수리 170-3","indutype":"가구 - 일반가구","category":"other"}]},{"lat":"37.761234801","long":"126.86902696","imageIndex":17,"items":[{"name":"퍼시픽그린코리아","tel":"031-943-9947","addr":"경기도 파주시 광탄면 분수리 136-12번지","indutype":"가구 - 일반가구","category":"other"}]},{"lat":"37.762728023","long":"126.85936655","imageIndex":17,"items":[{"name":"한신콤프레샤","tel":"031-949-3014","addr":"경기도 파주시 광탄면 분수리 306-1번지","indutype":"기타 - 기계공구","category":"other"}]},{"lat":"37.75934267","long":"126.87708756","imageIndex":17,"items":[{"name":"해인물류장비","tel":"","addr":"경기도 파주시 광탄면 분수리 116-1번지","indutype":"기타 - 기계공구","category":"other"}]},{"lat":"37.759567668","long":"126.86870087","imageIndex":4,"items":[{"name":"고향의맛","tel":"031-957-4649","addr":"경기도 파주시 광탄면 분수리 219-9번지","indutype":"일반휴게음식 - 일반한식","category":"restaurant"}]},{"lat":"37.767146126","long":"126.85486367","imageIndex":4,"items":[{"name":"낙지대장","tel":"031-942-4934","addr":"경기도 파주시 광탄면 분수리 414-6번지","indutype":"일반휴게음식 - 일반한식","category":"restaurant"}]},{"lat":"37.760733608","long":"126.87200114","imageIndex":4,"items":[{"name":"뚱이네치킨호프","tel":"031-943-3020","addr":"경기도 파주시 광탄면 분수리 139-3","indutype":"일반휴게음식 - 주점","category":"restaurant"}]},{"lat":"37.761813717","long":"126.86324952","imageIndex":4,"items":[{"name":"미미한식뷔페","tel":"031-941-3738","addr":"경기도 파주시 광탄면 분수리 291-26번지","indutype":"일반휴게음식 - 일반한식","category":"restaurant"},{"name":"자연의밥상","tel":"031-941-3738","addr":"경기도 파주시 광탄면 분수리 291-26번지","indutype":"일반휴게음식 - 일반한식","category":"restaurant"}]},{"lat":"37.763510699","long":"126.85842309","imageIndex":4,"items":[{"name":"밥집","tel":"031-942-0552","addr":"경기도 파주시 광탄면 분수리 387-17번지","indutype":"일반휴게음식 - 일반한식","category":"restaurant"}]},{"lat":"37.760729765","long":"126.86858529","imageIndex":4,"items":[{"name":"분수리카페휴","tel":"031-942-9886","addr":"경기도 파주시 광탄면 분수리 225-16번지","indutype":"일반휴게음식 - 서양음식","category":"restaurant"}]},{"lat":"37.761976294","long":"126.85616771","imageIndex":4,"items":[{"name":"새싹보리","tel":"031-947-7029","addr":"경기도 파주시 광탄면 분수리 344-5번지","indutype":"일반휴게음식 - 일반한식","category":"restaurant"}]},{"lat":"37.752176596","long":"126.88236473","imageIndex":4,"items":[{"name":"웰빙한식부페행복밥상","tel":"031-945-6624","addr":"경기도 파주시 광탄면 분수리 44-2번지","indutype":"일반휴게음식 - 일반한식","category":"restaurant"}]},{"lat":"37.76639213","long":"126.85711232","imageIndex":4,"items":[{"name":"장군순대국","tel":"031-947-4522","addr":"경기도 파주시 광탄면 분수리 403번지","indutype":"일반휴게음식 - 일반한식","category":"restaurant"}]},{"lat":"37.755928741","long":"126.87772881","imageIndex":4,"items":[{"name":"주은한식부페","tel":"031-947-6736","addr":"경기도 파주시 광탄면 분수리 99-5번지","indutype":"일반휴게음식 - 일반한식","category":"restaurant"}]},{"lat":"37.754706707","long":"126.88084007","imageIndex":4,"items":[{"name":"태양식당","tel":"031-943-4567","addr":"경기도 파주시 광탄면 분수리 78-3번지","indutype":"일반휴게음식 - 일반한식","category":"restaurant"}]},{"lat":"37.749645429","long":"126.88286809","imageIndex":4,"items":[{"name":"토마토식당","tel":"031-943-1530","addr":"경기도 파주시 광탄면 분수리 55-14번지","indutype":"일반휴게음식 - 일반한식","category":"restaurant"}]},{"lat":"37.770258294","long":"126.85083963","imageIndex":4,"items":[{"name":"파주된장국밥","tel":"031-944-9285","addr":"경기도 파주시 광탄면 분수리 467-12번지","indutype":"일반휴게음식 - 일반한식","category":"restaurant"}]},{"lat":"37.758563946","long":"126.8734802","imageIndex":4,"items":[{"name":"포천식당","tel":"031-946-2174","addr":"경기도 파주시 광탄면 분수리 156-7번지","indutype":"일반휴게음식 - 일반한식","category":"restaurant"}]},{"lat":"37.761062365","long":"126.86792648","imageIndex":4,"items":[{"name":"한독식당","tel":"031-948-4051","addr":"경기도 파주시 광탄면 분수리 136-14","indutype":"일반휴게음식 - 일반한식","category":"restaurant"}]},{"lat":"37.766149224","long":"126.85739653","imageIndex":4,"items":[{"name":"혜음감자탕","tel":"031-948-7740","addr":"경기도 파주시 광탄면 분수리 400번지","indutype":"일반휴게음식 - 일반한식","category":"restaurant"}]},{"lat":"37.761755094","long":"126.85944787","imageIndex":4,"items":[{"name":"혜음로 854","tel":"031-945-7471","addr":"경기도 파주시 광탄면 분수리 298-1번지","indutype":"일반휴게음식 - 일반한식","category":"restaurant"}]},{"lat":"37.752644976","long":"126.8822505","imageIndex":4,"items":[{"name":"황우식당","tel":"031-957-9070","addr":"경기도 파주시 광탄면 분수리 11-4번지","indutype":"일반휴게음식 - 일반한식","category":"restaurant"}]},{"lat":"37.770257428","long":"126.85017","imageIndex":0,"items":[{"name":"골드모터스","tel":"","addr":"경기도 파주시 광탄면 분수리 464-1번지","indutype":"자동차정비 유지 - 자동차정비","category":"car"},{"name":"한결1급자동차정비공장","tel":"031-948-4279","addr":"경기도 파주시 광탄면 분수리 464-1번지","indutype":"자동차정비 유지 - 자동차정비","category":"car"}]},{"lat":"37.769923208","long":"126.84950105","imageIndex":0,"items":[{"name":"광탄자동차공업사","tel":"031-946-8278","addr":"경기도 파주시 광탄면 분수리 460-12번지","indutype":"자동차정비 유지 - 자동차정비","category":"car"}]},{"lat":"37.764870492","long":"126.85789839","imageIndex":0,"items":[{"name":"서울모터스","tel":"031-947-7084","addr":"경기도 파주시 광탄면 분수리 390-1번지","indutype":"자동차정비 유지 - 자동차정비","category":"car"}]},{"lat":"37.756900278","long":"126.8763314","imageIndex":0,"items":[{"name":"이레카모터스","tel":"031-948-2772","addr":"경기도 파주시 광탄면 분수리 99-4번지","indutype":"자동차정비 유지 - 자동차정비","category":"car"}]},{"lat":"37.755426856","long":"126.88024881","imageIndex":0,"items":[{"name":"진모터스","tel":"031-944-4486","addr":"경기도 파주시 광탄면 분수리 83번지","indutype":"자동차정비 유지 - 자동차부품","category":"car"}]},{"lat":"37.756900704","long":"126.87672857","imageIndex":7,"items":[{"name":"네오케미칼","tel":"031-943-1965","addr":"경기도 파주시 광탄면 분수리 99-30번지 가동","indutype":"건강식품 - 기타건강식품","category":"food"}]},{"lat":"37.762870816","long":"126.8582541","imageIndex":7,"items":[{"name":"만복상회","tel":"031-947-0628","addr":"경기도 파주시 광탄면 분수리 379-4번지","indutype":"음료식품 - 기타음료식품","category":"food"}]},{"lat":"37.770258294","long":"126.85083963","imageIndex":7,"items":[{"name":"분수리건강제작소","tel":"031-944-9955","addr":"경기도 파주시 광탄면 분수리 467-12번지","indutype":"음료식품 - 기타음료식품","category":"food"},{"name":"분수리청과","tel":"031-796-2554","addr":"경기도 파주시 광탄면 분수리 467-12번지","indutype":"음료식품 - 농·축·수산품","category":"food"}]},{"lat":"37.761702287","long":"126.86814094","imageIndex":7,"items":[{"name":"빛고을푸드 주식회사","tel":"031-949-3595","addr":"경기도 파주시 광탄면 분수리 233-45번지","indutype":"음료식품 - 기타음료식품","category":"food"}]},{"lat":"37.754231219","long":"126.88280395","imageIndex":7,"items":[{"name":"주식회사 온누리식품","tel":"031-943-4828","addr":"경기도 파주시 광탄면 분수리 5-4번지","indutype":"음료식품 - 정육점","category":"food"}]},{"lat":"37.762728023","long":"126.85936655","imageIndex":9,"items":[{"name":"대양윤활유","tel":"070-8210-6456","addr":"경기도 파주시 광탄면 분수리 306-1","indutype":"연료판매점 - 유류판매","category":"oil"}]},{"lat":"37.761428206","long":"126.86486172","imageIndex":9,"items":[{"name":"오성특수가스기업사","tel":"02-355-5380","addr":"경기도 파주시 광탄면 분수리 291-17번지","indutype":"연료판매점 - 기타연료","category":"oil"},{"name":"오성특수가스기업사","tel":"031-872-1369","addr":"경기도 파주시 광탄면 분수리 291-17","indutype":"연료판매점 - 기타연료","category":"oil"},{"name":"오성특수가스기업사","tel":"070-7664-5775","addr":"경기도 파주시 광탄면 분수리 291-17번지","indutype":"연료판매점 - 기타연료","category":"oil"},{"name":"오성특수가스기업사","tel":"02-403-4172","addr":"경기도 파주시 광탄면 분수리 291-17번지","indutype":"연료판매점 - 기타연료","category":"oil"},{"name":"오성특수가스기업사","tel":"031-944-0366","addr":"경기도 파주시 광탄면 분수리 291-17번지","indutype":"연료판매점 - LPG 취급점","category":"oil"}]}]