[{"lat":"37.3462509383","long":"126.9755367076","imageIndex":0,"items":[{"name":"대화자동차정비공업사","tel":"031-458-4300","addr":"경기도 의왕시 왕곡동 597-4번지","indutype":"자동차정비 유지 - 자동차정비","category":"car"},{"name":"미스터카","tel":"02-6340-5385","addr":"경기도 의왕시 왕곡동 597-4번지","indutype":"자동차정비 유지 - 자동차부품","category":"car"}]},{"lat":"37.3465303364","long":"126.9758977501","imageIndex":0,"items":[{"name":"르노삼성왕곡점","tel":"031-429-9983","addr":"경기도 의왕시 왕곡동 596-2번지","indutype":"자동차정비 유지 - 자동차정비","category":"car"}]},{"lat":"37.3465842752","long":"126.9753673004","imageIndex":0,"items":[{"name":"보쉬카의왕점","tel":"031-453-0333","addr":"경기도 의왕시 왕곡동 597-2번지 1층","indutype":"자동차정비 유지 - 자동차정비","category":"car"}]},{"lat":"37.3465034055","long":"126.9763379036","imageIndex":0,"items":[{"name":"삼성카센타","tel":"031-453-2078","addr":"경기도 의왕시 왕곡동 594-1번지","indutype":"자동차정비 유지 - 자동차정비","category":"car"}]},{"lat":"37.3463260284","long":"126.9968666798","imageIndex":0,"items":[{"name":"신영공조","tel":"031-309-3133","addr":"경기도 의왕시 왕곡동 23번지 비동","indutype":"자동차정비 유지 - 자동차부품","category":"car"}]},{"lat":"37.3454221166","long":"126.9760335737","imageIndex":0,"items":[{"name":"쌍용자동차의왕서비스프라자","tel":"031-452-5581","addr":"경기도 의왕시 왕곡동 597-9번지","indutype":"자동차정비 유지 - 자동차부품","category":"car"}]},{"lat":"37.3469809443","long":"126.9763377355","imageIndex":0,"items":[{"name":"왕곡점현대자동차","tel":"031-429-4442","addr":"경기도 의왕시 왕곡동 565-4","indutype":"자동차정비 유지 - 자동차정비","category":"car"}]},{"lat":"37.3467285342","long":"126.9757848214","imageIndex":0,"items":[{"name":"주식회사 지티엘파킹","tel":"02-980-3300","addr":"경기도 의왕시 왕곡동 596-1번지 덕우빌딩 502호","indutype":"자동차정비 유지 - 주차장","category":"car"},{"name":"주식회사 지티엘파킹","tel":"02-980-3300","addr":"경기도 의왕시 왕곡동 596-1번지 덕우빌딩 502호","indutype":"자동차정비 유지 - 주차장","category":"car"},{"name":"주식회사 지티엘파킹","tel":"02-980-3300","addr":"경기도 의왕시 왕곡동 596-1번지 덕우빌딩 502호","indutype":"자동차정비 유지 - 주차장","category":"car"},{"name":"주식회사 지티엘파킹","tel":"02-980-3300","addr":"경기도 의왕시 왕곡동 596-1번지 덕우빌딩 502호","indutype":"자동차정비 유지 - 주차장","category":"car"}]},{"lat":"37.3458095921","long":"126.9762027203","imageIndex":0,"items":[{"name":"차세대멀티샵","tel":"031-458-4613","addr":"경기도 의왕시 왕곡동 596-6번지","indutype":"자동차정비 유지 - 자동차부품","category":"car"},{"name":"태양","tel":"031-427-6772","addr":"경기도 의왕시 왕곡동 596-6번지","indutype":"자동차정비 유지 - 카인테리어","category":"car"}]},{"lat":"37.3376742602","long":"126.9803131274","imageIndex":0,"items":[{"name":"흥덕상사","tel":"031-454-0448","addr":"경기도 의왕시 왕곡동 468-8번지","indutype":"자동차정비 유지 - 자동차부품","category":"car"}]}]