[{"lat":"37.954273268","long":"127.23335621","imageIndex":17,"items":[{"name":"(주)쎌포","tel":"031-536-7224","addr":"경기도 포천시 신북면 신평리 196-4번지","indutype":"건축자재 - 기타건축자재","category":"other"}]},{"lat":"37.942103509","long":"127.21818788","imageIndex":17,"items":[{"name":"(주)포즈","tel":"031-877-1240","addr":"경기도 포천시 신북면 신평리 339-5번지","indutype":"레져용품 - 골프용품 전문점","category":"other"},{"name":"세경이앤씨 (E&C)","tel":"","addr":"경기도 포천시 신북면 신평리 339-5번지","indutype":"신변잡화 - 기타잡화","category":"other"}]},{"lat":"37.94891202","long":"127.22910713","imageIndex":17,"items":[{"name":"ALMODINA HALALFOOD","tel":"-","addr":"경기도 포천시 신북면 신평리 170-2번지","indutype":"소매업 - 잡화","category":"other"}]},{"lat":"37.947518239","long":"127.22295927","imageIndex":17,"items":[{"name":"GS25경복대점","tel":"02-2006-2118","addr":"경기도 포천시 신북면 신평리 131","indutype":"유통업 영리 - 편 의 점","category":"other"}]},{"lat":"37.95838183","long":"127.22852173","imageIndex":17,"items":[{"name":"GS25장자산단점","tel":"031-532-0401","addr":"경기도 포천시 신북면 신평리 674번지 외 6필지","indutype":"편의점 - 편의점","category":"other"},{"name":"GS25장자산단점","tel":"","addr":"경기도 포천시 신북면 신평리 674번지 1층","indutype":"유통업 영리 - 편 의 점","category":"other"},{"name":"gs25 장자산단점","tel":"031-532-0401","addr":"경기도 포천시 신북면 신평리 674번지","indutype":"소매업 - 편의점","category":"other"}]},{"lat":"37.958022749","long":"127.22784929","imageIndex":17,"items":[{"name":"GS25장자산단점","tel":"","addr":"경기도 포천시 신북면 신평리 220번지","indutype":"유통업 영리 - 편 의 점","category":"other"}]},{"lat":"37.949574964","long":"127.23104331","imageIndex":17,"items":[{"name":"GS25포천신평공단점","tel":"","addr":"경기도 포천시 신북면 신평리 185-6번지","indutype":"유통업 영리 - 편 의 점","category":"other"},{"name":"GS25포천신평공단점","tel":"031-531-0396","addr":"경기도 포천시 신북면 신평리 185-6번지","indutype":"편의점 - 편의점","category":"other"}]},{"lat":"37.944130085","long":"127.22332459","imageIndex":17,"items":[{"name":"J노래연습장","tel":"531-3130","addr":"경기도 포천시 신북면 신평리 110번지 KJ빌딩 202호","indutype":"서비스 - 노래연습장","category":"other"}]},{"lat":"37.952210424","long":"127.22857112","imageIndex":17,"items":[{"name":"광성산업","tel":"031-531-6859","addr":"경기도 포천시 신북면 신평리 202-2번지","indutype":"기타 - 기계공구","category":"other"}]},{"lat":"37.936995864","long":"127.20252042","imageIndex":17,"items":[{"name":"동아아크릴","tel":"02-2274-2507","addr":"경기도 포천시 신북면 신평리 481-15","indutype":"용역 서비스 - 종합용역","category":"other"}]},{"lat":"37.948021335","long":"127.22846729","imageIndex":17,"items":[{"name":"성심자원","tel":"031-535-7904","addr":"경기도 포천시 신북면 신평리 29-5번지 29","indutype":"신변잡화 - 기타잡화","category":"other"}]},{"lat":"37.959043905","long":"127.22621385","imageIndex":17,"items":[{"name":"세명","tel":"031-533-8237","addr":"경기도 포천시 신북면 신평리 224번지 1층","indutype":"직물 - 침구·수예점","category":"other"}]},{"lat":"37.941658798","long":"127.21996125","imageIndex":17,"items":[{"name":"승건산업가스","tel":"","addr":"경기도 포천시 신북면 신평리 314-1번지","indutype":"제조업 - 가스","category":"other"},{"name":"승진산업가스","tel":"","addr":"경기도 포천시 신북면 신평리 314-1번지","indutype":"가스 - 가스","category":"other"}]},{"lat":"37.950019841","long":"127.22926981","imageIndex":17,"items":[{"name":"신평휴게소","tel":"532-0164","addr":"경기도 포천시 신북면 신평리 166-1번지","indutype":"소매업 - 잡화","category":"other"}]},{"lat":"37.950741056","long":"127.22902172","imageIndex":17,"items":[{"name":"씨스페이스 신북점","tel":"031-532-2623","addr":"경기도 포천시 신북면 신평리 159-11번지","indutype":"유통업 영리 - 편 의 점","category":"other"}]},{"lat":"37.939155501","long":"127.21927135","imageIndex":17,"items":[{"name":"아이앤씨 주식회사","tel":"031-745-1116","addr":"경기도 포천시 신북면 신평리 359-2번지 다,라동","indutype":"직물 - 옷감·직물","category":"other"}]},{"lat":"37.94515843","long":"127.22263368","imageIndex":17,"items":[{"name":"윌로펌프서비스","tel":"031-111-1111","addr":"경기도 포천시 신북면 신평리 121-9번지 1층 103호","indutype":"건축자재 - 보일러·펌프·샷시","category":"other"}]},{"lat":"37.95498682","long":"127.22299293","imageIndex":17,"items":[{"name":"정우FNC","tel":"031-532-7350","addr":"경기도 포천시 신북면 신평리 264-21","indutype":"직물 - 기타직물","category":"other"},{"name":"효성인더스트리","tel":"","addr":"경기도 포천시 신북면 신평리 264-21번지","indutype":"직물 - 기타직물","category":"other"}]},{"lat":"37.95282053","long":"127.22988143","imageIndex":17,"items":[{"name":"제일섬유","tel":"031-531-6623","addr":"경기도 포천시 신북면 신평리 200-6, 206-3","indutype":"직물 - 옷감·직물","category":"other"}]},{"lat":"37.937461501","long":"127.21941426","imageIndex":17,"items":[{"name":"주성건업","tel":"031-532-6655","addr":"경기도 포천시 신북면 신평리 602-4번지","indutype":"건축자재 - 기타건축자재","category":"other"}]},{"lat":"37.939822412","long":"127.2141883","imageIndex":17,"items":[{"name":"주식회사 알파히트플랫폼","tel":"031-8089-7315","addr":"경기도 포천시 신북면 신평리 408번지","indutype":"전기제품 - 기타전기제품","category":"other"}]},{"lat":"37.944185693","long":"127.22249427","imageIndex":17,"items":[{"name":"큐마트","tel":"531-9468","addr":"경기도 포천시 신북면 신평리 305-13번지","indutype":"소매업 - 잡화","category":"other"}]},{"lat":"37.927858319","long":"127.21904488","imageIndex":17,"items":[{"name":"포천농축산주식회사","tel":"533-8880","addr":"경기도 포천시 신북면 신평리 647-8번지","indutype":"도소매 - 축산물가공","category":"other"}]},{"lat":"37.94891202","long":"127.22910713","imageIndex":7,"items":[{"name":"ALMODINA HALAL FOOD (알모디나 할랄푸드)","tel":"031-111-1111","addr":"경기도 포천시 신북면 신평리 170-2번지","indutype":"음료식품 - 기타음료식품","category":"food"}]},{"lat":"37.945189787","long":"127.22512527","imageIndex":7,"items":[{"name":"농업회사법인 주식회사 대탄","tel":"031-543-2216","addr":"경기도 포천시 신북면 신평리 138번지","indutype":"음료식품 - 정육점","category":"food"}]},{"lat":"37.925049051","long":"127.21816089","imageIndex":7,"items":[{"name":"다인에프씨","tel":"031-535-1338","addr":"경기도 포천시 신북면 신평리 655-12번지","indutype":"음료식품 - 기타음료식품","category":"food"}]},{"lat":"37.943717937","long":"127.22210608","imageIndex":7,"items":[{"name":"송림타바코","tel":"031-536-5335","addr":"경기도 포천시 신북면 신평리 307번지 대경파크빌","indutype":"음료식품 - 기타음료식품","category":"food"}]},{"lat":"37.944823174","long":"127.22365658","imageIndex":7,"items":[{"name":"정금미전통음식연구원","tel":"031-502-7782","addr":"경기도 포천시 신북면 신평리 106-11번지","indutype":"음료식품 - 기타음료식품","category":"food"}]},{"lat":"37.944130085","long":"127.22332459","imageIndex":13,"items":[{"name":"J노래연습장","tel":"031-531-3130","addr":"경기도 포천시 신북면 신평리 110번지 KJ빌딩 202호","indutype":"레저업소 - 노 래 방","category":"leisure"}]},{"lat":"37.943797469","long":"127.2229368","imageIndex":13,"items":[{"name":"월드컵당구장","tel":"031-534-0009","addr":"경기도 포천시 신북면 신평리 110-4번지","indutype":"레저업소 - 당 구 장","category":"leisure"}]},{"lat":"37.947518239","long":"127.22295927","imageIndex":4,"items":[{"name":"경복대학교","tel":"031-570-9564","addr":"경기도 포천시 신북면 신평리 131번지 경복대학교","indutype":"일반휴게음식 - 위탁급식업","category":"restaurant"},{"name":"경복대학교","tel":"031-570-9564","addr":"경기도 포천시 신북면 신평리 131번지 경복대학교","indutype":"일반휴게음식 - 위탁급식업","category":"restaurant"}]},{"lat":"37.944824048","long":"127.22319014","imageIndex":4,"items":[{"name":"경성회관","tel":"536-1591","addr":"경기도 포천시 신북면 신평리 116-1번지","indutype":"음식 - 한식","category":"restaurant"}]},{"lat":"37.925049051","long":"127.21816089","imageIndex":4,"items":[{"name":"다인에프씨","tel":"535-1338","addr":"경기도 포천시 신북면 신평리 655-12번지","indutype":"음식 - 커피 등","category":"restaurant"}]},{"lat":"37.937100483","long":"127.21976584","imageIndex":4,"items":[{"name":"동행","tel":"533-6300","addr":"경기도 포천시 신북면 신평리 605-8번지","indutype":"음식 -","category":"restaurant"}]},{"lat":"37.944130085","long":"127.22332459","imageIndex":4,"items":[{"name":"막창마을","tel":"535-3226","addr":"경기도 포천시 신북면 신평리 110번지 1층","indutype":"음식 - 한식","category":"restaurant"},{"name":"막창마을","tel":"031-535-3226","addr":"경기도 포천시 신북면 신평리 110번지 KJ빌딩 1층","indutype":"일반휴게음식 - 일반한식","category":"restaurant"},{"name":"명승지","tel":"031-543-7543","addr":"경기도 포천시 신북면 신평리 110번지","indutype":"일반휴게음식 - 일반한식","category":"restaurant"}]},{"lat":"37.951128406","long":"127.22904566","imageIndex":4,"items":[{"name":"만남","tel":"031-536-7163","addr":"경기도 포천시 신북면 신평리 159-28번지 1층","indutype":"일반휴게음식 - 일반한식","category":"restaurant"}]},{"lat":"37.939770108","long":"127.21819244","imageIndex":4,"items":[{"name":"명이몽","tel":"031-531-5233","addr":"경기도 포천시 신북면 신평리 353-28번지","indutype":"일반휴게음식 - 일반한식","category":"restaurant"},{"name":"명이몽","tel":"531-5233","addr":"경기도 포천시 신북면 신평리 353-28번지","indutype":"음식 - 한식","category":"restaurant"}]},{"lat":"37.939602745","long":"127.21609881","imageIndex":4,"items":[{"name":"신평기사식당","tel":"531-7088","addr":"경기도 포천시 신북면 신평리 387-7번지","indutype":"음식 - 한식","category":"restaurant"},{"name":"신평기사식당","tel":"031-531-7088","addr":"경기도 포천시 신북면 신평리 387-7","indutype":"일반휴게음식 - 일반한식","category":"restaurant"}]},{"lat":"37.956240815","long":"127.22207502","imageIndex":4,"items":[{"name":"신평식당","tel":"031-532-0551","addr":"경기도 포천시 신북면 신평리 264-4번지","indutype":"일반휴게음식 - 일반한식","category":"restaurant"}]},{"lat":"37.940103552","long":"127.21813654","imageIndex":4,"items":[{"name":"신평포차","tel":"031-533-5198","addr":"경기도 포천시 신북면 신평리 354-1번지","indutype":"일반휴게음식 - 일반한식","category":"restaurant"},{"name":"행복식당","tel":"531-2488","addr":"경기도 포천시 신북면 신평리 354-1번지","indutype":"음식 - 한식","category":"restaurant"},{"name":"행복식당","tel":"031-531-2488","addr":"경기도 포천시 신북면 신평리 354-1번지","indutype":"일반휴게음식 - 일반한식","category":"restaurant"}]},{"lat":"37.945130828","long":"127.22294077","imageIndex":4,"items":[{"name":"유진","tel":"534-2079","addr":"경기도 포천시 신북면 신평리 120번지","indutype":"음식 - 한식","category":"restaurant"}]},{"lat":"37.95838183","long":"127.22852173","imageIndex":4,"items":[{"name":"장자산단구내식당","tel":"031-533-2729","addr":"경기도 포천시 신북면 신평리 674번지","indutype":"일반휴게음식 - 일반한식","category":"restaurant"}]},{"lat":"37.954905406","long":"127.22793081","imageIndex":4,"items":[{"name":"정푸드","tel":"031-532-8592","addr":"경기도 포천시 신북면 신평리 240번지 가동","indutype":"일반휴게음식 - 일반한식","category":"restaurant"}]},{"lat":"37.943905324","long":"127.22307364","imageIndex":4,"items":[{"name":"포천맛고을","tel":"532-5313","addr":"경기도 포천시 신북면 신평리 110-6번지","indutype":"음식 - 한식","category":"restaurant"},{"name":"포천맛고을","tel":"031-532-5313","addr":"경기도 포천시 신북면 신평리 110-6번지 A동 1층","indutype":"일반휴게음식 - 일반한식","category":"restaurant"}]},{"lat":"37.941658798","long":"127.21996125","imageIndex":9,"items":[{"name":"승진산업가스","tel":"031-534-0077","addr":"경기도 포천시 신북면 신평리 314-1번지","indutype":"연료판매점 - LPG 취급점","category":"oil"}]},{"lat":"37.938352405","long":"127.2199629","imageIndex":16,"items":[{"name":"신북초등학교","tel":"031-532-0173","addr":"경기도 포천시 신북면 신평리 375번지 신북초등학교","indutype":"학원 - 초중고교육기관","category":"study"},{"name":"신북초등학교_수업료","tel":"031-532-0173","addr":"경기도 포천시 신북면 신평리 375번지 신북초등학교","indutype":"학원 - 초중고교육기관","category":"study"}]},{"lat":"37.938020907","long":"127.21896088","imageIndex":16,"items":[{"name":"신북초등학교병설유치원[아이행복]","tel":"031-534-2842","addr":"경기도 포천시 신북면 신평리 361번지","indutype":"학원 - 유치원","category":"study"}]},{"lat":"37.95091223","long":"127.22902225","imageIndex":7,"items":[{"name":"월드마트","tel":"","addr":"경기도 포천시 신북면 신평리 159-8번지","indutype":"유통업 영리 - 슈퍼마켓","category":"mart"}]},{"lat":"37.937072575","long":"127.22024353","imageIndex":7,"items":[{"name":"유진슈퍼","tel":"031-531-5580","addr":"경기도 포천시 신북면 신평리 606-5 1/2","indutype":"유통업 영리 - 슈퍼마켓","category":"mart"}]}]