[{"lat":"37.655003243","long":"127.24402103","imageIndex":17,"items":[{"name":"(J)제이주얼리","tel":"031-593-4181","addr":"경기도 남양주시 호평동 640번지 메인씨네마타워 1층 134호","indutype":"신변잡화 - 액세서리","category":"other"},{"name":"누구나","tel":"031-511-1144","addr":"경기도 남양주시 호평동 640번지 평메인씨네마타워 1층 128호","indutype":"유통업 영리 - 편 의 점","category":"other"},{"name":"달달미씽","tel":"070-7604-2337","addr":"경기도 남양주시 호평동 640번지 메인시네마타워 818호","indutype":"문화.취미 - 문화취미기타","category":"other"},{"name":"디엠씨텔레콤","tel":"031-577-8875","addr":"경기도 남양주시 호평동 640번지 메인시네마타워 815호","indutype":"사무통신 - 통신기기","category":"other"},{"name":"법무사추봉필사무소","tel":"031-559-9100","addr":"경기도 남양주시 호평동 640번지 호평메인씨네마타워 4층 405호","indutype":"용역 서비스 - 법률회계서비스(개인)","category":"other"},{"name":"브러쉬","tel":"070-4229-2668","addr":"경기도 남양주시 호평동 640번지 메인시네마타워 124-1호","indutype":"신변잡화 - 제화","category":"other"},{"name":"삼성에이치앤비","tel":"031-559-1004","addr":"경기도 남양주시 호평동 640번지 시네마타워 5층 남정우산부인과","indutype":"회원제형태 - 기타4","category":"other"},{"name":"소지은뷰티컴즈","tel":"031-591-5547","addr":"경기도 남양주시 호평동 640번지 호평메인씨네마타워 411호","indutype":"회원제형태 - 레져업소","category":"other"},{"name":"싸이더스9시네마","tel":"031-559-1421","addr":"경기도 남양주시 호평동 640번지 메인시네마타워8 9층","indutype":"문화.취미 - 문화취미기타","category":"other"},{"name":"와우키즈","tel":"031-592-3930","addr":"경기도 남양주시 호평동 640번지 호평메인씨네마타워 501호","indutype":"의류 - 아동의류","category":"other"},{"name":"은혜꽃집","tel":"031-592-4565","addr":"경기도 남양주시 호평동 640번지 호평메인씨네타워 B15호","indutype":"문화.취미 - 화원","category":"other"},{"name":"잉글리시에그 남양주지사","tel":"031-593-3237","addr":"경기도 남양주시 호평동 640번지 호평메인씨네마타워 509호","indutype":"서적문구 - 전문서적","category":"other"},{"name":"잉글리시에그남양주지사","tel":"031-593-3237","addr":"경기도 남양주시 호평동 640번지 호평메인씨네마타워 509호","indutype":"회원제형태 - 서적","category":"other"},{"name":"좋은친구들(화방문구백화점)","tel":"031-559-9934","addr":"경기도 남양주시 호평동 640번지 호평메인씨네마타워 211호","indutype":"서적문구 - 문구용품","category":"other"},{"name":"핑크하트","tel":"031-592-3930","addr":"경기도 남양주시 호평동 640번지 호평메인씨네마타워 501호","indutype":"문화.취미 - 애완동물","category":"other"},{"name":"한국세종금거래소","tel":"031-592-4565","addr":"경기도 남양주시 호평동 640번지 호평메인씨네마타워 815호","indutype":"신변잡화 - 귀금속","category":"other"},{"name":"호평모바일팩토리","tel":"031-559-0926","addr":"경기도 남양주시 호평동 640번지 호평메인씨네마타워 116호","indutype":"사무통신 - 통신기기","category":"other"},{"name":"호평서점","tel":"031-510-5422","addr":"경기도 남양주시 호평동 640번지 메인시네마타워 207호","indutype":"서적문구 - 일반서적","category":"other"},{"name":"호평서점(문화비)","tel":"031-510-5422","addr":"경기도 남양주시 호평동 640번지 메인시네마타워 207호","indutype":"서적문구 - 일반서적","category":"other"}]},{"lat":"37.659579522","long":"127.24433048","imageIndex":17,"items":[{"name":"(예)Ye153","tel":"031-528-6263","addr":"경기도 남양주시 호평동 615-7번지 지층 103호","indutype":"의류 - 정장","category":"other"},{"name":"Dream 배드민턴","tel":"031-594-6175","addr":"경기도 남양주시 호평동 615-7번지 지층 101호","indutype":"레져용품 - 스포츠·레져용품","category":"other"},{"name":"올리브독(olive dog)","tel":"031-591-2527","addr":"경기도 남양주시 호평동 615-7번지 B102호","indutype":"문화.취미 - 애완동물","category":"other"}]},{"lat":"37.65344826","long":"127.25935953","imageIndex":17,"items":[{"name":"(주)다원골프연습장","tel":"031-591-9987","addr":"경기도 남양주시 호평동 23-19번지","indutype":"회원제형태 - 레져업소","category":"other"},{"name":"디원골프샵","tel":"031-786-1601","addr":"경기도 남양주시 호평동 23-19번지 THEONEGOLF연습장내1층","indutype":"레져용품 - 골프용품 전문점","category":"other"}]},{"lat":"37.659636005","long":"127.24752655","imageIndex":17,"items":[{"name":"(주)앙쥬맘","tel":"031-511-0211","addr":"경기도 남양주시 호평동 617-3번지 테마프라자 706호","indutype":"의류 - 아동의류","category":"other"},{"name":"리본세상","tel":"031-511-7769","addr":"경기도 남양주시 호평동 617-3번지 테마프라자 1층 103호","indutype":"문화.취미 - 문화취미기타","category":"other"},{"name":"우양지엠스GMS","tel":"031-1688-6685","addr":"경기도 남양주시 호평동 617-3번지 테마프라자 306호","indutype":"서적문구 - 과학기자재","category":"other"},{"name":"우양지엠스GMS/원격지","tel":"051-518-8288","addr":"경기도 남양주시 호평동 617-3번지 테마프라자 306호","indutype":"기타 - 기타 전문점","category":"other"},{"name":"정음이네책방","tel":"","addr":"경기도 남양주시 호평동 617-3번지 테마프라자 505호","indutype":"서적문구 - 일반서적","category":"other"},{"name":"크린토피아","tel":"031-511-7016","addr":"경기도 남양주시 호평동 617-3번지 테마프라자 1층 103호 우측","indutype":"수리서비스 - 세탁소","category":"other"},{"name":"한우리 독서토론논술","tel":"031-559-1979","addr":"경기도 남양주시 호평동 617-3번지 테마프라자 205호","indutype":"서적문구 - 일반서적","category":"other"}]},{"lat":"37.658023398","long":"127.25600945","imageIndex":17,"items":[{"name":"(주)어울림","tel":"031-592-1518","addr":"경기도 남양주시 호평동 680번지 호평마을중흥에스-클래스로하스 1909동 1703호","indutype":"서적문구 - 기타서적문구","category":"other"},{"name":"애터미서비스","tel":"031-591-6887","addr":"경기도 남양주시 호평동 680번지 호평마을중흥에스-클래스로하스 1909동 501호","indutype":"수리서비스 - 가정용품수리","category":"other"}]},{"lat":"37.655164373","long":"127.2445315","imageIndex":17,"items":[{"name":"(주)웰컴기프트","tel":"031-523-3459","addr":"경기도 남양주시 호평동 642-1번지 홍조프라자 9층 905호","indutype":"유통업 영리 - 기타유통업","category":"other"},{"name":"공간","tel":"","addr":"경기도 남양주시 호평동 642-1번지 홍조프라자 113호","indutype":"의류 - 정장","category":"other"},{"name":"남양주미즈아트폴댄스","tel":"031-511-1207","addr":"경기도 남양주시 호평동 642-1번지 홍조프라자 808호","indutype":"회원제형태 - 레져업소","category":"other"},{"name":"남양주중고폰매입 아프리카폰","tel":"031-511-8931","addr":"경기도 남양주시 호평동 642-1번지 홍조프라자 10층 1009호","indutype":"사무통신 - 통신기기","category":"other"},{"name":"더블유컴퍼니(W)","tel":"070-4350-3322","addr":"경기도 남양주시 호평동 642-1번지 홍조프라자 9층 911호","indutype":"전기제품 - 가전제품","category":"other"},{"name":"도담도담하개 도담도담하냥","tel":"031-576-7152","addr":"경기도 남양주시 호평동 642-1번지 홍조프라자 2층 204호","indutype":"문화.취미 - 애완동물","category":"other"},{"name":"리턴힐링하우스","tel":"031-559-3846","addr":"경기도 남양주시 호평동 642-1번지 홍조프라자 906호,907호","indutype":"회원제형태 - 기타4","category":"other"},{"name":"샤르망","tel":"031-592-9496","addr":"경기도 남양주시 호평동 642-1번지 홍조프라자 1층 116호","indutype":"의류 - 정장","category":"other"},{"name":"수다","tel":"031-591-4622","addr":"경기도 남양주시 호평동 642-1번지 홍조프라자 1층 120호","indutype":"의류 - 정장","category":"other"},{"name":"신발꽁장","tel":"031-111-1111","addr":"경기도 남양주시 호평동 642-1번지 홍조프라자 114호","indutype":"신변잡화 - 신발","category":"other"},{"name":"앨리스","tel":"031-528-6263","addr":"경기도 남양주시 호평동 642-1번지 홍조프라자 119호","indutype":"신변잡화 - 가방","category":"other"},{"name":"어블름(ABLOOM)","tel":"031-591-7096","addr":"경기도 남양주시 호평동 642-1번지 홍조프라자 110호","indutype":"의류 - 정장","category":"other"},{"name":"제황실업(남양주)","tel":"031-559-0372","addr":"경기도 남양주시 호평동 642-1번지 홍조프라자 502호","indutype":"서적문구 - 출판 및 인쇄물","category":"other"},{"name":"주식회사 일광","tel":"031-511-8820","addr":"경기도 남양주시 호평동 642-1번지 홍조프라자 9층 910호","indutype":"건축자재 - 기타건축자재","category":"other"},{"name":"주식회사 휴리엔에코","tel":"031-595-7282","addr":"경기도 남양주시 호평동 642-1번지 홍조프라자 606호","indutype":"주방용구 - 주방용구","category":"other"},{"name":"청성","tel":"031-559-5283","addr":"경기도 남양주시 호평동 642-1번지 홍조프라자 2층","indutype":"용역 서비스 - 부동산 중개·임대","category":"other"},{"name":"케이스비","tel":"031-559-3846","addr":"경기도 남양주시 호평동 642-1번지 홍조프라자 116호","indutype":"신변잡화 - 기타잡화","category":"other"}]},{"lat":"37.654942256","long":"127.24300093","imageIndex":17,"items":[{"name":"(주)이마트24 이마트남양주점","tel":"031-0000-0000","addr":"경기도 남양주시 호평동 637번지 이마트남양주점 3층","indutype":"유통업 영리 - 편 의 점","category":"other"},{"name":"휴앤조이트레블","tel":"031-594-7612","addr":"경기도 남양주시 호평동 637번지 1층","indutype":"여행 - 관광여행","category":"other"}]},{"lat":"37.654030135","long":"127.24405187","imageIndex":17,"items":[{"name":"(주)조은하루","tel":"031-592-7020","addr":"경기도 남양주시 호평동 641번지 에이스프라자 202호","indutype":"서적문구 - 문구용품","category":"other"},{"name":"마당발","tel":"031-511-6479","addr":"경기도 남양주시 호평동 641번지 에이스프라자 102호","indutype":"신변잡화 - 신발","category":"other"},{"name":"명품","tel":"","addr":"경기도 남양주시 호평동 641번지 에이스프라자 8층 812호","indutype":"의류 - 정장","category":"other"},{"name":"법무사조성준사무소","tel":"031-559-0926","addr":"경기도 남양주시 호평동 641번지 에이스프라자 5층 504호","indutype":"용역 서비스 - 법률회계서비스(개인)","category":"other"},{"name":"블랑","tel":"","addr":"경기도 남양주시 호평동 641번지 에이스프라자 111호","indutype":"의류 - 정장","category":"other"},{"name":"빛담사진관","tel":"031-559-5135","addr":"경기도 남양주시 호평동 641번지 에이스프라자 1층 113호","indutype":"광학제품 - 사진관","category":"other"},{"name":"씨유남양주평내역점","tel":"031-591-0572","addr":"경기도 남양주시 호평동 641번지 에이스프라자 1층 106호","indutype":"유통업 영리 - 편 의 점","category":"other"},{"name":"애니(ANY)","tel":"031-559-3525","addr":"경기도 남양주시 호평동 641번지 에이스프라자 111호","indutype":"의류 - 정장","category":"other"},{"name":"에이스 프라자 관리사무소","tel":"031-595-8717","addr":"경기도 남양주시 호평동 641번지 에이스프라자","indutype":"용역 서비스 - 종합용역","category":"other"},{"name":"조은느낌","tel":"031-591-4507","addr":"경기도 남양주시 호평동 641 에이스프라자112-1호","indutype":"신변잡화 - 액세서리","category":"other"},{"name":"주식회사 나우커뮤니케이션즈","tel":"02-546-7722","addr":"경기도 남양주시 호평동 641번지 에이스프라자 102동 813호","indutype":"용역 서비스 - 사무서비스","category":"other"},{"name":"주식회사 누리여행사","tel":"031-594-3600","addr":"경기도 남양주시 호평동 641번지 에이스프라자 505호","indutype":"여행 - 관광여행","category":"other"},{"name":"튼튼영어남양주호평교육본부","tel":"031-595-7755","addr":"경기도 남양주시 호평동 641에이스프라자8층4,5호","indutype":"회원제형태 - 서적","category":"other"},{"name":"한스제이(Hans. J)","tel":"031-511-7034","addr":"경기도 남양주시 호평동 641번지 에이스프라자 112호","indutype":"신변잡화 - 신발","category":"other"}]},{"lat":"37.653468623","long":"127.26240791","imageIndex":17,"items":[{"name":"(주)클래식갤러리","tel":"02-793-0034","addr":"경기도 남양주시 호평동 23-46번지","indutype":"가구 - 일반가구","category":"other"}]},{"lat":"37.664833486","long":"127.24805363","imageIndex":17,"items":[{"name":"365이엔지","tel":"031-1111-1111","addr":"경기도 남양주시 호평동 405-7번지 1층","indutype":"용역 서비스 - 종합용역","category":"other"}]},{"lat":"37.655664012","long":"127.24691291","imageIndex":17,"items":[{"name":"782","tel":"070-8151-6379","addr":"경기도 남양주시 호평동 649-3번지 민빌딩 102호","indutype":"의류 - 정장","category":"other"}]},{"lat":"37.670948542","long":"127.24925255","imageIndex":17,"items":[{"name":"C&B ATMO SOUND GROUP(아트모 사운드)","tel":"070-8612-1657","addr":"경기도 남양주시 호평동 724번지 호평파라곤 118동 201호","indutype":"용역 서비스 - 종합용역","category":"other"}]},{"lat":"37.662166483","long":"127.24374953","imageIndex":17,"items":[{"name":"DS호평신문연합쎈터","tel":"031-591-0973","addr":"경기도 남양주시 호평동 446번지 남양빌딩 103호","indutype":"서적문구 - 정기간행물","category":"other"},{"name":"성진창호","tel":"031-594-0780","addr":"경기도 남양주시 호평동 446번지 남양빌딩 105호","indutype":"건축자재 - 인테리어전문","category":"other"},{"name":"스마일케어","tel":"031-511-0413","addr":"경기도 남양주시 호평동 446번지 남양빌딩 1층 101호","indutype":"용역 서비스 - 종합용역","category":"other"}]},{"lat":"37.663058242","long":"127.24821779","imageIndex":17,"items":[{"name":"GS25남양주천마점","tel":"","addr":"경기도 남양주시 호평동 405-15번지","indutype":"유통업 영리 - 편 의 점","category":"other"}]},{"lat":"37.654029231","long":"127.24449382","imageIndex":17,"items":[{"name":"GS25평내호평역점","tel":"02-2006-2485","addr":"경기도 남양주시 호평동 641-1번지 샤르망메디칼프라자 103호","indutype":"유통업 영리 - 편 의 점","category":"other"},{"name":"다름세무회계사무소","tel":"031-566-1500","addr":"경기도 남양주시 호평동 641-1번지 샤르망메디칼프라자 8층 801호","indutype":"용역 서비스 - 법률회계서비스(개인)","category":"other"},{"name":"닥터스남양주호평지점","tel":"031-593-5875","addr":"경기도 남양주시 호평동 641-1번지 샤르망메디칼프라자 111호","indutype":"회원제형태 - 기타4","category":"other"},{"name":"더블제이복싱클럽","tel":"031-559-3755","addr":"경기도 남양주시 호평동 641-1번지 샤르망메디칼프라자","indutype":"회원제형태 - 레져업소","category":"other"},{"name":"동방세무회계사무소","tel":"031-594-2005","addr":"경기도 남양주시 호평동 641-1번지 샤르망메디칼프라자 802호","indutype":"용역 서비스 - 법률회계서비스(개인)","category":"other"},{"name":"오르다코리아남양주지사","tel":"031-511-9172","addr":"경기도 남양주시 호평동 641-1번지 샤르망메디컬프라자 3층 308호","indutype":"회원제형태 - 기타4","category":"other"},{"name":"저스트 리빙(Just living)","tel":"070-8125-7978","addr":"경기도 남양주시 호평동 641-1번지 샤르망메디칼프라자 3동 305호","indutype":"가구 - 기타가구","category":"other"},{"name":"풀잎문화센타","tel":"031-551-2597","addr":"경기도 남양주시 호평동 641-1번지 샤르망메디칼프라자 703호","indutype":"문화.취미 - 민예·공예품","category":"other"}]},{"lat":"37.66019823","long":"127.24577178","imageIndex":17,"items":[{"name":"GS25호평신명점","tel":"","addr":"경기도 남양주시 호평동 615번지 호평마을신명스카이뷰 상가 101호","indutype":"유통업 영리 - 편 의 점","category":"other"},{"name":"명품린세탁소","tel":"031-592-5410","addr":"경기도 남양주시 호평동 615번지 신명스카이뷰 상가 109호","indutype":"수리서비스 - 세탁소","category":"other"},{"name":"세전인테리어","tel":"031-591-7704","addr":"경기도 남양주시 호평동 615번지 신명스카이뷰단지 상가 112호","indutype":"건축자재 - 인테리어전문","category":"other"},{"name":"즐겨찾기","tel":"031-595-4707","addr":"경기도 남양주시 호평동 615,110","indutype":"서적문구 - 문구용품","category":"other"}]},{"lat":"37.656694938","long":"127.24505775","imageIndex":17,"items":[{"name":"GS25호평에이스점","tel":"","addr":"경기도 남양주시 호평동 171-7번지","indutype":"유통업 영리 - 편 의 점","category":"other"}]},{"lat":"37.653862886","long":"127.24652172","imageIndex":17,"items":[{"name":"GS25호평제일점","tel":"02-2006-2118","addr":"경기도 남양주시 호평동 653-8번지","indutype":"유통업 영리 - 편 의 점","category":"other"}]},{"lat":"37.655001177","long":"127.24502959","imageIndex":17,"items":[{"name":"GS25호평중앙점","tel":"080-555-2525","addr":"경기도 남양주시 호평동 644-7번지 (호평동644-7,부동산뱅크)","indutype":"유통업 영리 - 편 의 점","category":"other"}]},{"lat":"37.660414525","long":"127.25007905","imageIndex":17,"items":[{"name":"GS25호평클래스점","tel":"080-555-2525","addr":"경기도 남양주시 호평동 616번지 중흥S-CLASS1층101호","indutype":"유통업 영리 - 편 의 점","category":"other"},{"name":"인포마스타텔미","tel":"031-559-8508","addr":"경기도 남양주시 호평동 616 호평마을대주파크빌 1209-1502 9/17","indutype":"사무통신 - 컴퓨터","category":"other"}]},{"lat":"37.660166937","long":"127.24783429","imageIndex":17,"items":[{"name":"GS25호평프라자점","tel":"","addr":"경기도 남양주시 호평동 617-1번지 금강프라자 105호","indutype":"유통업 영리 - 편 의 점","category":"other"},{"name":"드위즈(Dwij)요가","tel":"031-511-3639","addr":"경기도 남양주시 호평동 617-1번지 금강프라자 405동 405호 406","indutype":"회원제형태 - 레져업소","category":"other"},{"name":"리나","tel":"031-111-1111","addr":"경기도 남양주시 호평동 617-1번지 금강프라자 115호","indutype":"의류 - 정장","category":"other"},{"name":"블럭에듀호평교육원","tel":"031-595-4662","addr":"경기도 남양주시 호평동 617-1번지 금강프라자 601호","indutype":"회원제형태 - 레져업소","category":"other"},{"name":"애견깍새","tel":"031-592-6779","addr":"경기도 남양주시 호평동 617-1번지 금강프라자 111호","indutype":"문화.취미 - 애완동물","category":"other"},{"name":"쿠키하우스","tel":"070-7807-1103","addr":"경기도 남양주시 호평동 617-1번지 금강프라자 1층 110호","indutype":"의류 - 정장","category":"other"}]},{"lat":"37.654665397","long":"127.24179882","imageIndex":17,"items":[{"name":"K크린크린수","tel":"031-511-1719","addr":"경기도 남양주시 호평동 630-8번지 402호","indutype":"용역 서비스 - 종합용역","category":"other"}]},{"lat":"37.657676543","long":"127.24527626","imageIndex":17,"items":[{"name":"LG인테리어","tel":"","addr":"경기도 남양주시 호평동 215-1번지 쌍용스윗닷홈 101동 701호","indutype":"건축자재 - 인테리어전문","category":"other"}]},{"lat":"37.655886597","long":"127.2481942","imageIndex":17,"items":[{"name":"MIUKI W&LANO","tel":"070-7625-0427","addr":"경기도 남양주시 호평동 666-4번지 1층 103호","indutype":"의류 - 정장","category":"other"},{"name":"미우키 (MIUKI)","tel":"070-7625-0427","addr":"경기도 남양주시 호평동 666-4번지 1층 102호","indutype":"의류 - 정장","category":"other"},{"name":"미운4살","tel":"070-4193-5285","addr":"경기도 남양주시 호평동 666-4번지 상가동 1층 103호","indutype":"의류 - 아동의류","category":"other"}]},{"lat":"37.654030028","long":"127.24847139","imageIndex":17,"items":[{"name":"Moda","tel":"031-511-3050","addr":"경기도 남양주시 호평동 660-2번지 CH리베로3 1층 105호","indutype":"의류 - 정장","category":"other"},{"name":"제이제이(JJ)홀릭","tel":"031-595-4441","addr":"경기도 남양주시 호평동 660-2번지 CH리베로3 상가동 109호","indutype":"의류 - 정장","category":"other"}]},{"lat":"37.657870769","long":"127.2515212","imageIndex":17,"items":[{"name":"S&J(에스앤제이)","tel":"031-691-4592","addr":"경기도 남양주시 호평동 676번지 호평마을 동원로얄듀 1709동 1805호","indutype":"레져용품 - 스포츠·레져용품","category":"other"}]},{"lat":"37.657551827","long":"127.24458457","imageIndex":17,"items":[{"name":"SM통신","tel":"031-594-2886","addr":"경기도 남양주시 호평동 728번지 평내 호평역kcc스위첸 상가동 103호","indutype":"사무통신 - 통신기기","category":"other"},{"name":"루키스","tel":"031-111-1111","addr":"경기도 남양주시 호평동 728번지 평내호평역KCC스위첸 102호 일부","indutype":"의류 - 아동의류","category":"other"},{"name":"바이랩스","tel":"031-111-1111","addr":"경기도 남양주시 호평동 728번지 평내호평역KCC스위첸 105동 102호","indutype":"서적문구 - 과학기자재","category":"other"},{"name":"식스그램","tel":"031-528-6263","addr":"경기도 남양주시 호평동 728번지 평내호평역KCC스위첸 제상가동 1층 106호","indutype":"의류 - 정장","category":"other"},{"name":"에스#(S#)","tel":"031-594-9119","addr":"경기도 남양주시 호평동 728번지 평내호평역KCC스위첸 제상가동 지1층 106-1호","indutype":"의류 - 정장","category":"other"},{"name":"유소다","tel":"070-8612-9729","addr":"경기도 남양주시 호평동 728번지 평내호평역KCC스위첸 상가동 1층 102호","indutype":"의류 - 정장","category":"other"},{"name":"제이 쇼룸","tel":"031-528-6263","addr":"경기도 남양주시 호평동 728번지 평내호평역KCC스위첸 상가동 105-2호","indutype":"의류 - 정장","category":"other"}]},{"lat":"37.65727506","long":"127.23888338","imageIndex":17,"items":[{"name":"SS적재함","tel":"031-111-1111","addr":"경기도 남양주시 호평동 551-2번지","indutype":"용역 서비스 - 기타용역서비스","category":"other"}]},{"lat":"37.655558749","long":"127.24553002","imageIndex":17,"items":[{"name":"[마루]향기나는공방","tel":"070-7722-5958","addr":"경기도 남양주시 호평동 645-17번지 302호","indutype":"문화.취미 - 문화취미기타","category":"other"}]},{"lat":"37.660047748","long":"127.24002545","imageIndex":17,"items":[{"name":"studio","tel":"031-512-6545","addr":"경기도 남양주시 호평동 612번지 평마을현대아이파크 1103동 202호","indutype":"광학제품 - 사진관","category":"other"},{"name":"슈(Shu)","tel":"031-512-7155","addr":"경기도 남양주시 호평동 612번지 호평동현대아이파크 1103동 804호","indutype":"신변잡화 - 신발","category":"other"}]},{"lat":"37.654004679","long":"127.24328121","imageIndex":17,"items":[{"name":"가락지","tel":"031-591-0876","addr":"경기도 남양주시 호평동 638-1번지 늘봄타워 105호","indutype":"신변잡화 - 시계","category":"other"},{"name":"땅콩미디어","tel":"031-592-8060","addr":"경기도 남양주시 호평동 638-1번지 늘봄타워 5층 503호","indutype":"용역 서비스 - 종합용역","category":"other"},{"name":"바퀴달린 그림책","tel":"031-559-3362","addr":"경기도 남양주시 호평동 638-1번지 늘봄타워","indutype":"회원제형태 - 서적","category":"other"},{"name":"법무사한범우사무소","tel":"031-511-3031","addr":"경기도 남양주시 호평동 638-1번지 늘봄타워 202호","indutype":"용역 서비스 - 법률회계서비스(개인)","category":"other"},{"name":"블럭팡평내호평점","tel":"031-591-2028","addr":"경기도 남양주시 호평동 638-1번지 늘봄타워 3층 306호","indutype":"서적문구 - 완구점","category":"other"},{"name":"야호 앤 메이플 스튜디오 호평점","tel":"031-593-1441","addr":"경기도 남양주시 호평동 638-1번지 늘봄타워 905~908호","indutype":"광학제품 - 사진관","category":"other"},{"name":"오르다샘앤플레이스남양주점","tel":"031-511-9172","addr":"경기도 남양주시 호평동 638-1번지 늘봄타워 4층 405호","indutype":"서적문구 - 기타서적문구","category":"other"},{"name":"주식회사 엠케이테크윈","tel":"031-1599-4315","addr":"경기도 남양주시 호평동 638-1번지 늘봄타워 404호","indutype":"사무통신 - 통신기기","category":"other"},{"name":"폰짱지기","tel":"031-594-3790","addr":"경기도 남양주시 호평동 638-1번지 늘봄타워","indutype":"신변잡화 - 기타잡화","category":"other"},{"name":"호평애견","tel":"031-511-7475","addr":"경기도 남양주시 호평동 638-1번지 늘봄타워 2층 201호","indutype":"문화.취미 - 애완동물","category":"other"}]},{"lat":"37.661386278","long":"127.25069426","imageIndex":17,"items":[{"name":"가온","tel":"070-4189-8776","addr":"경기도 남양주시 호평동 295-12번지 2동 404호","indutype":"건축자재 - 기타건축자재","category":"other"},{"name":"씨유호평빌리지점","tel":"031-878-8205","addr":"경기도 남양주시 호평동 295-12번지 B동 104호","indutype":"유통업 영리 - 편 의 점","category":"other"}]},{"lat":"37.655579905","long":"127.24400023","imageIndex":17,"items":[{"name":"골드쉘 남양주점","tel":"031-563-0301","addr":"경기도 남양주시 호평동 639번지 호평프라자 110호","indutype":"신변잡화 - 귀금속","category":"other"},{"name":"김창숙부띠끄","tel":"031-111-1111","addr":"경기도 남양주시 호평동 639번지 호평프라자 103호","indutype":"의류 - 정장","category":"other"}]},{"lat":"37.654417595","long":"127.24403046","imageIndex":17,"items":[{"name":"골드스톤","tel":"031-591-7611","addr":"경기도 남양주시 호평동 640-2번지 리베로 상가 117호","indutype":"신변잡화 - 시계","category":"other"},{"name":"더감(THE GAM)호평점","tel":"070-8119-0902","addr":"경기도 남양주시 호평동 640-2번지 CH리베로원 109호","indutype":"의류 - 정장","category":"other"},{"name":"로즈핀치","tel":"031-559-1816","addr":"경기도 남양주시 호평동 640-2번지 CH리베로빌딩 116호","indutype":"의류 - 정장","category":"other"},{"name":"못된고양이","tel":"070-4296-5505","addr":"경기도 남양주시 호평동 640-2번지 CH리베로빌딩 1층 111호","indutype":"신변잡화 - 액세서리","category":"other"},{"name":"박주원세무회계사무소","tel":"031-582-0038","addr":"경기도 남양주시 호평동 640-2번지 CH리베로빌딩","indutype":"용역 서비스 - 법률회계서비스(개인)","category":"other"},{"name":"블랙트리","tel":"031-559-3846","addr":"경기도 남양주시 호평동 640-2번지 CH리베로제1층,112호","indutype":"의류 - 정장","category":"other"},{"name":"스마트폰365디씨(DC)마트","tel":"031-593-1011","addr":"경기도 남양주시 호평동 640-2번지 CH리베로빌딩 1층 108호","indutype":"사무통신 - 통신기기","category":"other"},{"name":"얌","tel":"","addr":"경기도 남양주시 호평동 640-2번지 CH리베로빌딩 114호","indutype":"의류 - 정장","category":"other"},{"name":"잉크파크","tel":"031-595-7900","addr":"경기도 남양주시 호평동 640-2번지 씨에이치리베로원 제 1층 114호","indutype":"사무통신 - 기타 사무용품","category":"other"},{"name":"한나산후조리원","tel":"031-592-5100","addr":"경기도 남양주시 호평동 640-2번지 호평동CH리베로빌딩 5층","indutype":"기타의료기관 - 산후조리원","category":"other"}]},{"lat":"37.661829507","long":"127.24985707","imageIndex":17,"items":[{"name":"공간시스템","tel":"","addr":"경기도 남양주시 호평동 273-6번지 해오름파크빌 103동 102호","indutype":"전기제품 - 냉열기기","category":"other"}]},{"lat":"37.654475938","long":"127.24633108","imageIndex":17,"items":[{"name":"구르메","tel":"070-4175-7779","addr":"경기도 남양주시 호평동 656-9번지","indutype":"의류 - 아동의류","category":"other"}]},{"lat":"37.662613816","long":"127.249633","imageIndex":17,"items":[{"name":"구이석재","tel":"031-000-0000","addr":"경기도 남양주시 호평동 298-51번지 그랑시아빌리지 B동 501호","indutype":"용역 서비스 - 기타용역서비스","category":"other"}]},{"lat":"37.662444089","long":"127.24457776","imageIndex":17,"items":[{"name":"굿데이365","tel":"070-7108-0602","addr":"경기도 남양주시 호평동 244번지 미라클센터 1층 101호","indutype":"레져용품 - 스포츠·레져용품","category":"other"},{"name":"글로리아이스","tel":"031-592-2180","addr":"경기도 남양주시 호평동 244번지 미라클센터지 지하층","indutype":"기타 - 기계공구","category":"other"},{"name":"평강노인요양원","tel":"031-511-7717","addr":"경기도 남양주시 호평동 244번지 미라클센터 301호","indutype":"기타의료기관 - 기타의료기관 및 기타","category":"other"}]},{"lat":"37.655168413","long":"127.24694528","imageIndex":17,"items":[{"name":"그루밍(grooming)","tel":"031-592-0853","addr":"경기도 남양주시 호평동 649-7번지 101호","indutype":"문화.취미 - 민예·공예품","category":"other"}]},{"lat":"37.654440982","long":"127.24139015","imageIndex":17,"items":[{"name":"그린주택관리","tel":"031-592-9939","addr":"경기도 남양주시 호평동 631-3번지 101호","indutype":"용역 서비스 - 종합용역","category":"other"},{"name":"윈바이크","tel":"031-516-9003","addr":"경기도 남양주시 호평동 631-3번지 1층 101호","indutype":"레져용품 - 스포츠·레져용품","category":"other"}]},{"lat":"37.658607146","long":"127.25688406","imageIndex":17,"items":[{"name":"글로리어스","tel":"","addr":"경기도 남양주시 호평동 49-8번지 37호","indutype":"신변잡화 - 액세서리","category":"other"}]},{"lat":"37.658328799","long":"127.23907937","imageIndex":17,"items":[{"name":"기쁨","tel":"031-595-2513","addr":"경기도 남양주시 호평동 477-2번지 2층","indutype":"의류 - 내의판매","category":"other"},{"name":"미스바","tel":"031-511-9725","addr":"경기도 남양주시 호평동 477-2번지 2층","indutype":"의류 - 정장","category":"other"},{"name":"이레패션","tel":"02-950-6997","addr":"경기도 남양주시 호평동 477-2번지 2층","indutype":"의류 - 내의판매","category":"other"}]},{"lat":"37.668697138","long":"127.24876906","imageIndex":17,"items":[{"name":"길윤활유","tel":"031-510-7102","addr":"경기도 남양주시 호평동 724번지 호평파라곤 103동 504호","indutype":"회원제형태 - 기타3","category":"other"}]},{"lat":"37.658027289","long":"127.24558338","imageIndex":17,"items":[{"name":"김복동의신발장","tel":"070-8221-3805","addr":"경기도 남양주시 호평동 210-8번지 쌍용스윗닷홈 102동 1304호","indutype":"회원제형태 - 기타4","category":"other"}]},{"lat":"37.659613598","long":"127.24086271","imageIndex":17,"items":[{"name":"꼬미네하우스","tel":"","addr":"경기도 남양주시 호평동 612번지 호평동현대아이파크 1102동 1702호","indutype":"의류 - 아동의류","category":"other"}]},{"lat":"37.653559258","long":"127.24955771","imageIndex":17,"items":[{"name":"꽃그릇","tel":"031-593-0071","addr":"경기도 남양주시 호평동 132-10번지 꽃그릇","indutype":"문화.취미 - 화원","category":"other"}]},{"lat":"37.6546134","long":"127.24077876","imageIndex":17,"items":[{"name":"꿈을여는아이들","tel":"031-592-5066","addr":"경기도 남양주시 호평동 627-6번지 1층","indutype":"서적문구 - 출판 및 인쇄물","category":"other"}]},{"lat":"37.660658473","long":"127.2497512","imageIndex":17,"items":[{"name":"끌리제어린이집","tel":"031-514-1255","addr":"경기도 남양주시 호평동 3블럭중흥S클래스1311-102","indutype":"기타 - 비영리/대상","category":"other"}]},{"lat":"37.654945589","long":"127.24135776","imageIndex":17,"items":[{"name":"나무향기공방","tel":"031-595-3334","addr":"경기도 남양주시 호평동 628-11번지","indutype":"가구 - 일반가구","category":"other"}]},{"lat":"37.659356989","long":"127.24738964","imageIndex":17,"items":[{"name":"나이스미디어전자","tel":"02-1111-1111","addr":"경기도 남양주시 호평동 617-4번지 로제카운티 301호","indutype":"전기제품 - 가전제품","category":"other"},{"name":"바이단미","tel":"031-559-3316","addr":"경기도 남양주시 호평동 617-4번지 로제카운티 109호","indutype":"의류 - 정장","category":"other"},{"name":"빨간지붕","tel":"031-559-7553","addr":"경기도 남양주시 호평동 617-4번지 로제카운티 107,108호","indutype":"의류 - 정장","category":"other"},{"name":"썬공방","tel":"070-8632-6369","addr":"경기도 남양주시 호평동 617-4번지 로제카운티 110호","indutype":"문화.취미 - 문화취미기타","category":"other"},{"name":"아름뷰티","tel":"031-591-6123","addr":"경기도 남양주시 호평동 617-4번지 로제카운티 204호","indutype":"회원제형태 - 기타4","category":"other"},{"name":"아이린(Irene)","tel":"031-511-2478","addr":"경기도 남양주시 호평동 617-4번지 로제카운티 109호","indutype":"의류 - 아동의류","category":"other"},{"name":"이슬상회","tel":"031-511-8454","addr":"경기도 남양주시 호평동 617-4번지 로제카운티 106-1호","indutype":"전기제품 - 기타전기제품","category":"other"},{"name":"카라","tel":"","addr":"경기도 남양주시 호평동 617-4번지 로제카운타 109호","indutype":"의류 - 정장","category":"other"}]},{"lat":"37.661612113","long":"127.25041168","imageIndex":17,"items":[{"name":"나인9마일","tel":"","addr":"경기도 남양주시 호평동 296-4번지 301호","indutype":"의류 - 정장","category":"other"}]},{"lat":"37.657027339","long":"127.24552347","imageIndex":17,"items":[{"name":"남양주 낚시세상","tel":"","addr":"경기도 남양주시 호평동 171-1번지 아리수2차 나동 101호","indutype":"건축자재 - 인테리어전문","category":"other"}]},{"lat":"37.659615166","long":"127.24452326","imageIndex":17,"items":[{"name":"남양주 아아폰수리 애플크라운","tel":"031-523-3326","addr":"경기도 남양주시 호평동 615-6번지 B04호","indutype":"수리서비스 - 사무·통신기기수리","category":"other"},{"name":"도그버디 호평점","tel":"070-4671-1055","addr":"경기도 남양주시 호평동 615-6번지 B01호","indutype":"문화.취미 - 애완동물","category":"other"},{"name":"아정인테리어","tel":"031-511-7752","addr":"경기도 남양주시 호평동 615-6번지 지하4","indutype":"건축자재 - 인테리어전문","category":"other"}]},{"lat":"37.655720362","long":"127.24580252","imageIndex":17,"items":[{"name":"남양주로타리클럽","tel":"031-594-5775","addr":"경기도 남양주시 호평동 645-4번지 세원빌딩 3층","indutype":"기타 - 비영리/비대상","category":"other"},{"name":"마음을 담은 꽃집","tel":"031-592-4151","addr":"경기도 남양주시 호평동 645-4번지 세원빌딩 상가동 102호","indutype":"문화.취미 - 화원","category":"other"}]},{"lat":"37.657583776","long":"127.24217082","imageIndex":17,"items":[{"name":"남양주시청/호평체육문화센터","tel":"031-560-1273","addr":"경기도 남양주시 호평동 620번지 평체육문화센터 시설운영2팀","indutype":"문화.취미 - 문화취미기타","category":"other"},{"name":"해피누리노인복지관","tel":"031-590-3007","addr":"경기도 남양주시 호평동 620번지 금배근린공원 내","indutype":"기타의료기관 - 기타의료기관 및 기타","category":"other"},{"name":"호평휘트니스","tel":"031-511-4272","addr":"경기도 남양주시 호평동 620번지 호평체육문화센터 1층","indutype":"레져용품 - 스포츠·레져용품","category":"other"}]},{"lat":"37.656194615","long":"127.24299363","imageIndex":17,"items":[{"name":"너와펫(PET)","tel":"031-559-8673","addr":"경기도 남양주시 호평동 622번지 두산위브파크내상가 119-1,120-1호","indutype":"문화.취미 - 애완동물","category":"other"},{"name":"너와펫(호평점)","tel":"031-559-8673","addr":"경기도 남양주시 호평동 622번지 호평두산위브파크 1층 119-1,120-1호","indutype":"문화.취미 - 애완동물","category":"other"},{"name":"아메리퀴드","tel":"031-511-0230","addr":"경기도 남양주시 호평동 622번지 호평두산위브파크","indutype":"기타 - 기타 전문점","category":"other"},{"name":"알레르망","tel":"031-511-4041","addr":"경기도 남양주시 호평동 622번지 호평두산위브파크 109-1호","indutype":"직물 - 침구·수예점","category":"other"}]},{"lat":"37.655610602","long":"127.24219848","imageIndex":17,"items":[{"name":"네오버드1","tel":"031-571-3715","addr":"경기도 남양주시 호평동 629-2번지 2층","indutype":"의류 - 와이셔츠·타이","category":"other"}]},{"lat":"37.657247282","long":"127.25660745","imageIndex":17,"items":[{"name":"뉴런(NR)스포츠","tel":"031-515-4343","addr":"경기도 남양주시 호평동 680번지 호평마을중흥에스-클래스로하스 중흥S클래스단지","indutype":"회원제형태 - 레져업소","category":"other"}]},{"lat":"37.65386585","long":"127.24508256","imageIndex":17,"items":[{"name":"다니엘코리아충인","tel":"031-591-5617","addr":"경기도 남양주시 호평동 652-9번지 104호","indutype":"기타 - 기타 전문점","category":"other"},{"name":"현주인터내셔널","tel":"031-593-3852","addr":"경기도 남양주시 호평동 652-9번지 101호","indutype":"신변잡화 - 가방","category":"other"}]},{"lat":"37.659525812","long":"127.24416031","imageIndex":17,"items":[{"name":"다름 남양주점","tel":"031-511-3370","addr":"경기도 남양주시 호평동 615-8번지 1층 101,102호","indutype":"문화.취미 - 문화취미기타","category":"other"},{"name":"엠티비텐","tel":"031-511-1020","addr":"경기도 남양주시 호평동 615-8번지 1층 101호","indutype":"레져용품 - 스포츠·레져용품","category":"other"}]},{"lat":"37.661387895","long":"127.24558299","imageIndex":17,"items":[{"name":"대주세탁소","tel":"031-593-9396","addr":"경기도 남양주시 호평동 613번지 대주파크빌 상가-104","indutype":"수리서비스 - 세탁소","category":"other"}]},{"lat":"37.666082013","long":"127.2498825","imageIndex":17,"items":[{"name":"대진조경","tel":"02-1688-4431","addr":"경기도 남양주시 호평동 396-1번지","indutype":"건축자재 - 인테리어전문","category":"other"}]},{"lat":"37.652749124","long":"127.26182748","imageIndex":17,"items":[{"name":"대화특수여객","tel":"031-556-8388","addr":"경기도 남양주시 호평동 23-21","indutype":"용역 서비스 - 가례서비스업","category":"other"},{"name":"백련장장례식장(남양주병원)","tel":"031-594-4444","addr":"경기도 남양주시 호평동 23-21번지","indutype":"용역 서비스 - 가례서비스업","category":"other"}]},{"lat":"37.670508538","long":"127.24854835","imageIndex":17,"items":[{"name":"더그레이","tel":"","addr":"경기도 남양주시 호평동 724번지 호평파라곤 116동 801호","indutype":"의류 - 정장","category":"other"},{"name":"오토스타","tel":"02-446-8811","addr":"경기도 남양주시 호평동 724번지 호평파라곤 116동 901호","indutype":"전기제품 - 기타전기제품","category":"other"}]},{"lat":"37.664081978","long":"127.24983053","imageIndex":17,"items":[{"name":"더블리드","tel":"031-559-0926","addr":"경기도 남양주시 호평동 723번지 임광그대가 104동 101호","indutype":"레져용품 - 악기점","category":"other"}]},{"lat":"37.655220757","long":"127.24777271","imageIndex":17,"items":[{"name":"동양인테리어","tel":"031-577-0082","addr":"경기도 남양주시 호평동 650-8번지","indutype":"건축자재 - 인테리어전문","category":"other"},{"name":"주식회사 썬더","tel":"02-2064-0342","addr":"경기도 남양주시 호평동 650-8번지 204호","indutype":"사무통신 - 통신기기","category":"other"}]},{"lat":"37.666969865","long":"127.24752795","imageIndex":17,"items":[{"name":"디어마망","tel":"031-528-6263","addr":"경기도 남양주시 호평동 373-2번지 1층 103호","indutype":"의류 - 정장","category":"other"},{"name":"크린토피아 코인워시 남양주 호평 파라곤점","tel":"031-559-1468","addr":"경기도 남양주시 호평동 373-2번지 건우상가 1층 101호","indutype":"수리서비스 - 세탁소","category":"other"}]},{"lat":"37.655058396","long":"127.24786284","imageIndex":17,"items":[{"name":"디자림커뮤니케이션즈","tel":"031-595-7496","addr":"경기도 남양주시 호평동 650-9번지 상가 102호","indutype":"용역 서비스 - 종합용역","category":"other"},{"name":"아임베이비","tel":"","addr":"경기도 남양주시 호평동 650-9번지 1층 101호","indutype":"의류 - 아동의류","category":"other"},{"name":"휘가로브?","tel":"031-511-0980","addr":"경기도 남양주시 호평동 650-9번지","indutype":"의류 - 정장","category":"other"}]},{"lat":"37.653836582","long":"127.24617034","imageIndex":17,"items":[{"name":"디자인윤디","tel":"","addr":"경기도 남양주시 호평동 653-10번지","indutype":"용역 서비스 - 사무서비스","category":"other"}]},{"lat":"37.655059383","long":"127.24738688","imageIndex":17,"items":[{"name":"뜨게사랑","tel":"031-568-5565","addr":"경기도 남양주시 호평동 651-4번지 101호","indutype":"직물 - 침구·수예점","category":"other"},{"name":"이삭인터내셔날","tel":"031-592-9576","addr":"경기도 남양주시 호평동 651-4번지 102호","indutype":"건축자재 - 인테리어전문","category":"other"},{"name":"코디","tel":"031-591-4747","addr":"경기도 남양주시 호평동 651-4번지 103호","indutype":"의류 - 정장","category":"other"}]},{"lat":"37.656053087","long":"127.24610958","imageIndex":17,"items":[{"name":"라미야전자담배(호평점)","tel":"031-595-0789","addr":"경기도 남양주시 호평동 168-27번지 101호","indutype":"기타 - 기타 전문점","category":"other"}]},{"lat":"37.655329953","long":"127.24725178","imageIndex":17,"items":[{"name":"라파엘알즈너","tel":"031-593-2198","addr":"경기도 남양주시 호평동 651-2번지 104호","indutype":"레져용품 - 스포츠·레져용품","category":"other"},{"name":"랄라플레르","tel":"031-511-2252","addr":"경기도 남양주시 호평동 651-2번지 103호","indutype":"문화.취미 - 화원","category":"other"},{"name":"만듦","tel":"02-1588-2100","addr":"경기도 남양주시 호평동 651-2번지 102호","indutype":"문화.취미 - 문화취미기타","category":"other"},{"name":"애드포아","tel":"031-564-8711","addr":"경기도 남양주시 호평동 651-2번지 애드포아","indutype":"서적문구 - 과학기자재","category":"other"}]},{"lat":"37.661587341","long":"127.24055168","imageIndex":17,"items":[{"name":"러브하우스 입주이사청소","tel":"","addr":"경기도 남양주시 호평동 726번지 엘에이치호평1단지 108동 1002호","indutype":"용역 서비스 - 종합용역","category":"other"},{"name":"비아(via)","tel":"","addr":"경기도 남양주시 호평동 726번지 엘에이치호평1단지 105동 902호","indutype":"의류 - 내의판매","category":"other"}]},{"lat":"37.654307041","long":"127.24521998","imageIndex":17,"items":[{"name":"럭셔리명품샵","tel":"031-514-7400","addr":"경기도 남양주시 호평동 652-5번지 상가 1층","indutype":"의류 - 정장","category":"other"}]},{"lat":"37.655809413","long":"127.25489137","imageIndex":17,"items":[{"name":"레벨원 스터디카페","tel":"02-854-8255","addr":"경기도 남양주시 호평동 674-6번지 3층","indutype":"용역 서비스 - 사무서비스","category":"other"}]},{"lat":"37.655835909","long":"127.25514077","imageIndex":17,"items":[{"name":"로고스","tel":"070-4230-2952","addr":"경기도 남양주시 호평동 674-5번지 1층 101호","indutype":"의류 - 정장","category":"other"}]},{"lat":"37.656053951","long":"127.24569029","imageIndex":17,"items":[{"name":"루디아","tel":"031-0000-0000","addr":"경기도 남양주시 호평동 168-9번지 102호","indutype":"의류 - 정장","category":"other"}]},{"lat":"37.654052054","long":"127.24213682","imageIndex":17,"items":[{"name":"루이","tel":"031-593-1142","addr":"경기도 남양주시 호평동 632-8번지 1층","indutype":"의류 - 정장","category":"other"}]},{"lat":"37.654443557","long":"127.24455183","imageIndex":17,"items":[{"name":"르봄(LEBOM)","tel":"031-593-5353","addr":"경기도 남양주시 호평동 642-3번지 ZENEW빌딩 1층 126호","indutype":"의류 - 정장","category":"other"},{"name":"아리우리옷","tel":"031-594-0712","addr":"경기도 남양주시 호평동 642-3번지 ZENEW빌딩 304호","indutype":"의류 - 맞춤복점","category":"other"},{"name":"앤스 (Ann. s)","tel":"070-7563-8973","addr":"경기도 남양주시 호평동 642-3번지 제뉴빌딩 127호","indutype":"의류 - 정장","category":"other"},{"name":"폰앤컴프라자","tel":"031-595-1558","addr":"경기도 남양주시 호평동 642-3번지 ZENEW빌딩 1층 110호","indutype":"사무통신 - 컴퓨터","category":"other"}]},{"lat":"37.658665196","long":"127.24644675","imageIndex":17,"items":[{"name":"리더스부동산공인중개사사무소","tel":"031-592-1488","addr":"경기도 남양주시 호평동 175-17번지 103호","indutype":"용역 서비스 - 부동산 중개·임대","category":"other"}]},{"lat":"37.664611462","long":"127.24650018","imageIndex":17,"items":[{"name":"리썬앤컴퍼니","tel":"070-8870-8799","addr":"경기도 남양주시 호평동 410-6번지 호평동대명루첸 102동 1202호","indutype":"레져용품 - 스포츠·레져용품","category":"other"},{"name":"주식회사 몽스파","tel":"031-591-3355","addr":"경기도 남양주시 호평동 410-6번지 101호","indutype":"문화.취미 - 애완동물","category":"other"},{"name":"프린스세탁소","tel":"031-566-4530","addr":"경기도 남양주시 호평동 410-6번지 호평동대명루첸 상가동 107호","indutype":"수리서비스 - 세탁소","category":"other"}]},{"lat":"37.660600583","long":"127.25157563","imageIndex":17,"items":[{"name":"린나이보일러 A/S","tel":"031-512-3696","addr":"경기도 남양주시 호평동 616번지 호평마을중흥S-클래스 1306동 16010호","indutype":"회원제형태 - 기타4","category":"other"}]},{"lat":"37.655720642","long":"127.24566654","imageIndex":17,"items":[{"name":"링코남양주점(젬)","tel":"031-559-7466","addr":"경기도 남양주시 호평동 645-3번지 1층","indutype":"서적문구 - 문구용품","category":"other"}]},{"lat":"37.654027112","long":"127.24110552","imageIndex":17,"items":[{"name":"마리_마로","tel":"031-591-4515","addr":"경기도 남양주시 호평동 632-1번지 1층 전부호","indutype":"의류 - 정장","category":"other"}]},{"lat":"37.653996592","long":"127.2428279","imageIndex":17,"items":[{"name":"마리스튜디오","tel":"031-593-7130","addr":"경기도 남양주시 호평동 638번지 성보빌딩 802호","indutype":"광학제품 - 사진관","category":"other"},{"name":"초심 평내호평역점","tel":"","addr":"경기도 남양주시 호평동 638번지 성보빌딩 2층 201호","indutype":"용역 서비스 - 사무서비스","category":"other"},{"name":"플러스이레실버요양원","tel":"031-594-0998","addr":"경기도 남양주시 호평동 638번지 성보빌딩 701동 702호","indutype":"기타의료기관 - 기타의료기관 및 기타","category":"other"}]},{"lat":"37.656156238","long":"127.25279604","imageIndex":17,"items":[{"name":"마이발렌타인","tel":"02-501-5014","addr":"경기도 남양주시 호평동 671번지 효성백년가약 2201동 2001호","indutype":"광학제품 - 사진관","category":"other"}]},{"lat":"37.658289094","long":"127.24090382","imageIndex":17,"items":[{"name":"마이홈","tel":"031-575-6063","addr":"경기도 남양주시 호평동 712번지 주공Humansia 605동 1104호","indutype":"용역 서비스 - 기타용역서비스","category":"other"}]},{"lat":"37.656529099","long":"127.24683641","imageIndex":17,"items":[{"name":"맥기획","tel":"031-514-4297","addr":"경기도 남양주시 호평동 188-15번지 1층 101호","indutype":"용역 서비스 - 종합용역","category":"other"}]},{"lat":"37.655676781","long":"127.25371235","imageIndex":17,"items":[{"name":"메가파워헬스","tel":"031-516-7789","addr":"경기도 남양주시 호평동 671 호평마을효성백년가약 2207-1102 13/9","indutype":"레져용품 - 스포츠·레져용품","category":"other"},{"name":"메가파워헬스","tel":"031-516-7789","addr":"경기도 남양주시 호평동 671번지 평마을효성백년가약 2207동 1102호","indutype":"레져용품 - 스포츠·레져용품","category":"other"}]},{"lat":"37.655529207","long":"127.25949134","imageIndex":17,"items":[{"name":"메디피아산후조리원","tel":"031-593-1902","addr":"경기도 남양주시 호평동 14번지 메디피아빌딩 4층","indutype":"기타의료기관 - 산후조리원","category":"other"}]},{"lat":"37.655276529","long":"127.24694564","imageIndex":17,"items":[{"name":"메종 드 벨라","tel":"070-8877-0469","addr":"경기도 남양주시 호평동 649-6번지 1층 101호","indutype":"가구 - 기타가구","category":"other"}]},{"lat":"37.659745323","long":"127.24255174","imageIndex":17,"items":[{"name":"모자이크 스튜디오","tel":"","addr":"경기도 남양주시 호평동 714-5번지 303호","indutype":"문화.취미 - 민예·공예품","category":"other"},{"name":"제이텍사이언스","tel":"070-7643-6571","addr":"경기도 남양주시 호평동 714-5번지 지층 상가","indutype":"서적문구 - 과학기자재","category":"other"}]},{"lat":"37.654252901","long":"127.24083427","imageIndex":17,"items":[{"name":"몽크플라워","tel":"","addr":"경기도 남양주시 호평동 626-3번지","indutype":"문화.취미 - 화원","category":"other"}]},{"lat":"37.654279427","long":"127.24108366","imageIndex":17,"items":[{"name":"미니스톱 남양주호평점","tel":"031-1577-9621","addr":"경기도 남양주시 호평동 631-18번지","indutype":"유통업 영리 - 편 의 점","category":"other"}]},{"lat":"37.654139623","long":"127.23891878","imageIndex":17,"items":[{"name":"미래세탁","tel":"031-594-1136","addr":"경기도 남양주시 호평동 624번지 휴먼시아 상가 103호","indutype":"수리서비스 - 세탁소","category":"other"}]},{"lat":"37.655359772","long":"127.25868616","imageIndex":17,"items":[{"name":"바이럴매직","tel":"031-703-5670","addr":"경기도 남양주시 호평동 18-9번지 G동 1층 102호","indutype":"용역 서비스 - 종합용역","category":"other"}]},{"lat":"37.653865556","long":"127.24079904","imageIndex":17,"items":[{"name":"박수현우리옷","tel":"031-595-9850","addr":"경기도 남양주시 호평동 633-6번지 한성빌딩 2층","indutype":"의류 - 맞춤복점","category":"other"}]},{"lat":"37.667139447","long":"127.24829923","imageIndex":17,"items":[{"name":"백마크리닝 (남양주8호점)","tel":"","addr":"경기도 남양주시 호평동 386-4번지 동양프라자 1동 107호","indutype":"수리서비스 - 세탁소","category":"other"},{"name":"오에이랜드","tel":"031-559-4825","addr":"경기도 남양주시 호평동 386-4번지 동양프라자 상가동 102호","indutype":"사무통신 - 사무용 OA기기","category":"other"},{"name":"피어니플라워","tel":"","addr":"경기도 남양주시 호평동 386-4번지 동양프라자 1동 1층 109호","indutype":"문화.취미 - 화원","category":"other"}]},{"lat":"37.654219465","long":"127.24835869","imageIndex":17,"items":[{"name":"법무법인북부합동법률사무소(분사무소)","tel":"031-595-3457","addr":"경기도 남양주시 호평동 660-1,660-2CH 리베로3,301","indutype":"용역 서비스 - 법률회계서비스(법인)","category":"other"}]},{"lat":"37.661812673","long":"127.24493838","imageIndex":17,"items":[{"name":"별난꼬까","tel":"","addr":"경기도 남양주시 호평동 613번지 호평마을대주파크빌 1208동 802호","indutype":"의류 - 아동의류","category":"other"},{"name":"키즈홀릭","tel":"031-792-5453","addr":"경기도 남양주시 호평동 613번지 호평마을대주파크빌 1208동 1705호","indutype":"의류 - 아동의류","category":"other"}]},{"lat":"37.661530312","long":"127.25075141","imageIndex":17,"items":[{"name":"보 비쥬","tel":"","addr":"경기도 남양주시 호평동 295-1번지 3동 301호","indutype":"신변잡화 - 액세서리","category":"other"},{"name":"연화사","tel":"02-486-6712","addr":"경기도 남양주시 호평동 295-1번지 3동 104호","indutype":"기타 - 비영리/대상","category":"other"}]},{"lat":"37.654171315","long":"127.24550284","imageIndex":17,"items":[{"name":"보물창고","tel":"031-559-9971","addr":"경기도 남양주시 호평동 654-7번지","indutype":"의류 - 정장","category":"other"}]},{"lat":"37.655277591","long":"127.24202743","imageIndex":17,"items":[{"name":"보물창고","tel":"031-559-9995","addr":"경기도 남양주시 호평동 629-10번지 1층","indutype":"의류 - 정장","category":"other"}]},{"lat":"37.659861042","long":"127.24324343","imageIndex":17,"items":[{"name":"보석십자수","tel":"031-511-3384","addr":"경기도 남양주시 호평동 716-4번지 1층 101호","indutype":"신변잡화 - 기타잡화","category":"other"}]},{"lat":"37.654088093","long":"127.25086265","imageIndex":17,"items":[{"name":"보일러백화점","tel":"031-591-3470","addr":"경기도 남양주시 호평동 115-1번지 호평도시숲빌라 1층 101호","indutype":"전기제품 - 냉열기기","category":"other"}]},{"lat":"37.660262335","long":"127.24084212","imageIndex":17,"items":[{"name":"블럭클래스","tel":"031-595-1194","addr":"경기도 남양주시 호평동 612번지 호평마을아이파크 1104동 504호","indutype":"회원제형태 - 기타4","category":"other"}]},{"lat":"37.654808381","long":"127.24677412","imageIndex":17,"items":[{"name":"빈티지(Vintage)","tel":"031-591-5316","addr":"경기도 남양주시 호평동 657-1번지 1층 102호","indutype":"의류 - 정장","category":"other"}]},{"lat":"37.655690572","long":"127.24713964","imageIndex":17,"items":[{"name":"빠숑딜러","tel":"070-4411-3044","addr":"경기도 남양주시 호평동 650-16번지 1층","indutype":"의류 - 정장","category":"other"}]},{"lat":"37.656780406","long":"127.24730187","imageIndex":17,"items":[{"name":"삼성특수운수(주)","tel":"031-592-7579","addr":"경기도 남양주시 호평동 189-2번지","indutype":"용역 서비스 - 기타용역서비스","category":"other"},{"name":"호평상회","tel":"031-591-0942","addr":"경기도 남양주시 호평동 189-2번지","indutype":"기타 - 기계공구","category":"other"}]},{"lat":"37.655808166","long":"127.24691338","imageIndex":17,"items":[{"name":"삼천리자전거호평점","tel":"031-559-3351","addr":"경기도 남양주시 호평동 649-2번지","indutype":"레져용품 - 스포츠·레져용품","category":"other"}]},{"lat":"37.656277985","long":"127.25485895","imageIndex":17,"items":[{"name":"색연필","tel":"031-511-7993","addr":"경기도 남양주시 호평동 674-1번지 호평아카데미 105호","indutype":"서적문구 - 문구용품","category":"other"},{"name":"효성크린토피아","tel":"031-511-1895","addr":"경기도 남양주시 호평동 674-1번지 호평아카데미 102호","indutype":"수리서비스 - 세탁소","category":"other"}]},{"lat":"37.654415143","long":"127.24080079","imageIndex":17,"items":[{"name":"서송현갤러리","tel":"031-594-9086","addr":"경기도 남양주시 호평동 626-2번지 예성빌","indutype":"사무통신 - 통신기기","category":"other"}]},{"lat":"37.659917437","long":"127.24649618","imageIndex":17,"items":[{"name":"세영레포츠","tel":"031-584-4098","addr":"경기도 남양주시 호평동 615번지 호평마을신명스카이뷰 1407동 201호","indutype":"회원제형태 - 기타4","category":"other"}]},{"lat":"37.665500902","long":"127.24771581","imageIndex":17,"items":[{"name":"세일가구","tel":"031-591-7291","addr":"경기도 남양주시 호평동 408-2번지","indutype":"가구 - 일반가구","category":"other"}]},{"lat":"37.654052674","long":"127.24183086","imageIndex":17,"items":[{"name":"세일설비","tel":"031-593-9881","addr":"경기도 남양주시 호평동 632-6번지","indutype":"건축자재 - 목재·석재·철물","category":"other"}]},{"lat":"37.655278314","long":"127.25041332","imageIndex":17,"items":[{"name":"세탁마루","tel":"031-559-7146","addr":"경기도 남양주시 호평동 668번지 호평마을금강@분산상가 101호","indutype":"수리서비스 - 세탁소","category":"other"},{"name":"평산티에스","tel":"031-593-1236","addr":"경기도 남양주시 호평동 668번지","indutype":"용역 서비스 - 종합용역","category":"other"}]},{"lat":"37.66241449","long":"127.25016501","imageIndex":17,"items":[{"name":"소리소미디어","tel":"02-719-4333","addr":"경기도 남양주시 호평동 298-35번지 101동 B301호","indutype":"용역 서비스 - 종합용역","category":"other"}]},{"lat":"37.657747827","long":"127.2456618","imageIndex":17,"items":[{"name":"수선의달인","tel":"031-592-7382","addr":"경기도 남양주시 호평동 213-1번지 우성빌딩 101호","indutype":"수리서비스 - 세탁소","category":"other"},{"name":"특공무술호평체육관","tel":"031-594-5843","addr":"경기도 남양주시 호평동 213-1번지 우성빌딩 3층","indutype":"회원제형태 - 레져업소","category":"other"}]},{"lat":"37.671585159","long":"127.25071684","imageIndex":17,"items":[{"name":"수진사","tel":"031-591-7710","addr":"경기도 남양주시 호평동 342-1번지","indutype":"신변잡화 - 기념품점","category":"other"}]},{"lat":"37.671189142","long":"127.25052283","imageIndex":17,"items":[{"name":"수진사자비원","tel":"031-591-5000","addr":"경기도 남양주시 호평동 342-7번지","indutype":"기타의료기관 - 기타의료기관 및 기타","category":"other"}]},{"lat":"37.656472174","long":"127.24821879","imageIndex":17,"items":[{"name":"슈즈크린(남양주지사)","tel":"031-593-8281","addr":"경기도 남양주시 호평동 194-29번지 1층 세탁소","indutype":"수리서비스 - 세탁소","category":"other"}]},{"lat":"37.655143411","long":"127.24155105","imageIndex":17,"items":[{"name":"스마일 사무기","tel":"031-511-1441","addr":"경기도 남양주시 호평동 628-1번지 101호","indutype":"사무통신 - 사무용 OA기기","category":"other"}]},{"lat":"37.659420632","long":"127.24272069","imageIndex":17,"items":[{"name":"스타일 후","tel":"031-593-2259","addr":"경기도 남양주시 호평동 716-11번지 101호","indutype":"의류 - 정장","category":"other"}]},{"lat":"37.653862254","long":"127.24682769","imageIndex":17,"items":[{"name":"스튜디오에델린","tel":"031-511-6522","addr":"경기도 남양주시 호평동 658-4번지","indutype":"광학제품 - 사진관","category":"other"}]},{"lat":"37.65383733","long":"127.24580772","imageIndex":17,"items":[{"name":"시각광고기업","tel":"031-591-1723","addr":"경기도 남양주시 호평동 653-12번지 1층","indutype":"회원제형태 - 기타4","category":"other"},{"name":"에버피크(Everpeak)","tel":"070-8878-8287","addr":"경기도 남양주시 호평동 653-12번지 1층우측2칸","indutype":"의류 - 정장","category":"other"}]},{"lat":"37.656639622","long":"127.24566953","imageIndex":17,"items":[{"name":"시원에어컨","tel":"","addr":"경기도 남양주시 호평동 170-16번지 프리존 D동 203호","indutype":"용역 서비스 - 기타용역서비스","category":"other"}]},{"lat":"37.659420286","long":"127.24289069","imageIndex":17,"items":[{"name":"신데렐라","tel":"031-528-6263","addr":"경기도 남양주시 호평동 716-10번지 1층 102호","indutype":"의류 - 정장","category":"other"}]},{"lat":"37.657448991","long":"127.25915797","imageIndex":17,"items":[{"name":"신우주기획","tel":"031-527-3620","addr":"경기도 남양주시 호평동 33-20번지 호평힐하우스 101동 401호","indutype":"용역 서비스 - 종합용역","category":"other"}]},{"lat":"37.655024611","long":"127.24677483","imageIndex":17,"items":[{"name":"씨유남양주호평점","tel":"031-594-3199","addr":"경기도 남양주시 호평동 649-9번지 1층","indutype":"유통업 영리 - 편 의 점","category":"other"}]},{"lat":"37.656474526","long":"127.24708555","imageIndex":17,"items":[{"name":"씨유호평승미점","tel":"031-593-4663","addr":"경기도 남양주시 호평동 188-6번지 102호103호","indutype":"유통업 영리 - 편 의 점","category":"other"},{"name":"크린토피아 남양주직영점","tel":"031-592-4591","addr":"경기도 남양주시 호평동 188-6번지 경은빌딩 101호","indutype":"수리서비스 - 세탁소","category":"other"}]},{"lat":"37.654803988","long":"127.24453033","imageIndex":17,"items":[{"name":"씨유호평제뉴점","tel":"031-559-5646","addr":"경기도 남양주시 호평동 642-2 제뉴빌딩 제117-2호","indutype":"유통업 영리 - 편 의 점","category":"other"}]},{"lat":"37.667194823","long":"127.2476647","imageIndex":17,"items":[{"name":"씨유호평천마스타점","tel":"031-592-4494","addr":"경기도 남양주시 호평동 373-1번지 명화프라자 1층 103호","indutype":"유통업 영리 - 편 의 점","category":"other"}]},{"lat":"37.660248501","long":"127.24322201","imageIndex":17,"items":[{"name":"씨유호평판곡점","tel":"031-592-7577","addr":"경기도 남양주시 호평동 716-1번지 101호","indutype":"유통업 영리 - 편 의 점","category":"other"},{"name":"영광열쇠","tel":"031-591-1345","addr":"경기도 남양주시 호평동 716-1번지","indutype":"건축자재 - 목재·석재·철물","category":"other"}]},{"lat":"37.657306386","long":"127.25425047","imageIndex":17,"items":[{"name":"씨유호평한라스타점","tel":"080-080-3663","addr":"경기도 남양주시 호평동 678번지 호평마을한라비발디 상가 104,105호","indutype":"유통업 영리 - 편 의 점","category":"other"}]},{"lat":"37.656223006","long":"127.24672209","imageIndex":17,"items":[{"name":"아마존펫","tel":"031-511-5220","addr":"경기도 남양주시 호평동 188-4번지 마누빌딩 1층","indutype":"문화.취미 - 애완동물","category":"other"}]},{"lat":"37.655496706","long":"127.2450312","imageIndex":17,"items":[{"name":"아미고","tel":"031-559-5530","addr":"경기도 남양주시 호평동 644-10번지 102호","indutype":"의류 - 정장","category":"other"}]},{"lat":"37.654278533","long":"127.24152561","imageIndex":17,"items":[{"name":"아이구","tel":"070-7545-2021","addr":"경기도 남양주시 호평동 631-15번지 1층 102호","indutype":"의류 - 정장","category":"other"}]},{"lat":"37.653912973","long":"127.24843701","imageIndex":17,"items":[{"name":"아이미래로","tel":"","addr":"경기도 남양주시 호평동 660-3번지 무세빌딩 2층 203호","indutype":"용역 서비스 - 종합용역","category":"other"}]},{"lat":"37.656301795","long":"127.23899362","imageIndex":17,"items":[{"name":"아이오나 캔들","tel":"031-000-0000","addr":"경기도 남양주시 호평동 551-25번지 삼우에이치타운빌라2차 204동 201호","indutype":"신변잡화 - 기타잡화","category":"other"}]},{"lat":"37.653969971","long":"127.24702069","imageIndex":17,"items":[{"name":"아이온애드","tel":"031-593-9800","addr":"경기도 남양주시 호평동 658-2번지","indutype":"건축자재 - 인테리어전문","category":"other"}]},{"lat":"37.659636632","long":"127.24283472","imageIndex":17,"items":[{"name":"아이원더","tel":"070-4109-2619","addr":"경기도 남양주시 호평동 715-7번지 101호","indutype":"의류 - 정장","category":"other"}]},{"lat":"37.657198055","long":"127.24575067","imageIndex":17,"items":[{"name":"아이케어","tel":"","addr":"경기도 남양주시 호평동 171-35번지 B동 408호","indutype":"수리서비스 - 가정용품수리","category":"other"}]},{"lat":"37.655168765","long":"127.2467753","imageIndex":17,"items":[{"name":"언제나 꽃구름","tel":"031-592-8655","addr":"경기도 남양주시 호평동 649-10번지 1층","indutype":"문화.취미 - 화원","category":"other"}]},{"lat":"37.669625645","long":"127.24852277","imageIndex":17,"items":[{"name":"에바닥터","tel":"","addr":"경기도 남양주시 호평동 724번지 호평파라곤 111동 802호","indutype":"용역 서비스 - 종합용역","category":"other"}]},{"lat":"37.661173712","long":"127.24458497","imageIndex":17,"items":[{"name":"에스엠(SM)공조","tel":"070-7767-4046","addr":"경기도 남양주시 호평동 613번지 호평마을대주파크빌 1201동 1402호","indutype":"용역 서비스 - 기타용역서비스","category":"other"},{"name":"크리에이티브 루트","tel":"031-000-0000","addr":"경기도 남양주시 호평동 613번지 호평마을대주파크빌 1201동 1403호","indutype":"광학제품 - 사진관","category":"other"}]},{"lat":"37.659525145","long":"127.24004646","imageIndex":17,"items":[{"name":"에프앤에프(F&F)","tel":"031-591-1370","addr":"경기도 남양주시 호평동 612번지 호평동현대아이파크 1101동 9층 1호","indutype":"주방용구 - 주방용구","category":"other"}]},{"lat":"37.661782378","long":"127.24652494","imageIndex":17,"items":[{"name":"엠에스컴","tel":"02-3346-7555","addr":"경기도 남양주시 호평동 613번지 평마을대주파크빌 1206동 902호","indutype":"회원제형태 - 기타4","category":"other"}]},{"lat":"37.654052398","long":"127.24196684","imageIndex":17,"items":[{"name":"여기서 행복할 것","tel":"","addr":"경기도 남양주시 호평동 632-7번지 파크빌 103호","indutype":"문화.취미 - 문화취미기타","category":"other"}]},{"lat":"37.654468306","long":"127.24566246","imageIndex":17,"items":[{"name":"여심저격","tel":"031-593-7931","addr":"경기도 남양주시 호평동 654-4번지 1층","indutype":"문화.취미 - 화원","category":"other"},{"name":"펠레리꼬","tel":"02-3992-1760","addr":"경기도 남양주시 호평동 654-4번지","indutype":"신변잡화 - 가방","category":"other"}]},{"lat":"37.659472677","long":"127.25660368","imageIndex":17,"items":[{"name":"열쇠도장남양주점","tel":"031-559-9244","addr":"경기도 남양주시 호평동 51","indutype":"건축자재 - 목재·석재·철물","category":"other"}]},{"lat":"37.656277453","long":"127.25510826","imageIndex":17,"items":[{"name":"영인테리어","tel":"031-594-3334","addr":"경기도 남양주시 호평동 674-2번지 메디뷰빌딩 103호","indutype":"건축자재 - 인테리어전문","category":"other"}]},{"lat":"37.660534657","long":"127.24864014","imageIndex":17,"items":[{"name":"예쁜여자","tel":"031-594-0510","addr":"경기도 남양주시 호평동 616번지 중흥S클래스 1316동 403호","indutype":"회원제형태 - 기타4","category":"other"}]},{"lat":"37.655711154","long":"127.2544944","imageIndex":17,"items":[{"name":"예스정보통신","tel":"02-1600-8876","addr":"경기도 남양주시 호평동 671번지 효성백년가약 2209동 1602호","indutype":"사무통신 - 통신기기","category":"other"}]},{"lat":"37.660495647","long":"127.24130752","imageIndex":17,"items":[{"name":"오렌지팟","tel":"031-593-7665","addr":"경기도 남양주시 호평동 612 호평마을아이파크 상가-109","indutype":"서적문구 - 문구용품","category":"other"},{"name":"크린토피아","tel":"031-511-7432","addr":"경기도 남양주시 호평동 612 아이파크상가 103","indutype":"수리서비스 - 세탁소","category":"other"},{"name":"현대세탁소","tel":"031-593-2215","addr":"경기도 남양주시 호평동 612번지 현대아이파크 상가 102호","indutype":"수리서비스 - 세탁소","category":"other"}]},{"lat":"37.653946144","long":"127.24546811","imageIndex":17,"items":[{"name":"올리브그린","tel":"031-511-7242","addr":"경기도 남양주시 호평동 653-1번지 102호","indutype":"문화.취미 - 문화취미기타","category":"other"}]},{"lat":"37.656476142","long":"127.24630361","imageIndex":17,"items":[{"name":"와이피 씨앤씨(YP C&C)","tel":"070-4236-7965","addr":"경기도 남양주시 호평동 168-40번지 102호","indutype":"사무통신 - 컴퓨터","category":"other"},{"name":"주식회사 메이크코디","tel":"031-511-8693","addr":"경기도 남양주시 호평동 168-40번지 101호","indutype":"서적문구 - 출판 및 인쇄물","category":"other"}]},{"lat":"37.65386599","long":"127.24058373","imageIndex":17,"items":[{"name":"우리동네 청년연구소","tel":"070-4809-6090","addr":"경기도 남양주시 호평동 633-7번지 5층","indutype":"용역 서비스 - 사무서비스","category":"other"}]},{"lat":"37.656998137","long":"127.2465773","imageIndex":17,"items":[{"name":"웰바디케어샵","tel":"031-559-1922","addr":"경기도 남양주시 호평동 168-31 1층","indutype":"회원제형태 - 기타4","category":"other"}]},{"lat":"37.661612398","long":"127.25027568","imageIndex":17,"items":[{"name":"위대한푸드","tel":"031-595-8701","addr":"경기도 남양주시 호평동 273-8번지 해오름파크빌 105동 203호","indutype":"회원제형태 - 기타4","category":"other"}]},{"lat":"37.657773993","long":"127.2460812","imageIndex":17,"items":[{"name":"위드미 HN 호평점","tel":"02-6916-1500","addr":"경기도 남양주시 호평동 173-1번지","indutype":"유통업 영리 - 편 의 점","category":"other"}]},{"lat":"37.66949724","long":"127.24961045","imageIndex":17,"items":[{"name":"위드키즈코퍼레이션","tel":"031-592-8010","addr":"경기도 남양주시 호평동 724번지 호평파라곤 105동 602호","indutype":"의류 - 아동의류","category":"other"}]},{"lat":"37.655557909","long":"127.24593798","imageIndex":17,"items":[{"name":"유로유통","tel":"031-528-2787","addr":"경기도 남양주시 호평동 645-14번지","indutype":"문화.취미 - 애완동물","category":"other"}]},{"lat":"37.659887992","long":"127.24766338","imageIndex":17,"items":[{"name":"은혜서적","tel":"070-4643-5394","addr":"경기도 남양주시 호평동 617-2번지 메이플카운티 218호","indutype":"서적문구 - 일반서적","category":"other"}]},{"lat":"37.65902365","long":"127.23852626","imageIndex":17,"items":[{"name":"이마트24 남양주호평점","tel":"","addr":"경기도 남양주시 호평동 557-7번지 지산파크빌 201동 101호","indutype":"유통업 영리 - 편 의 점","category":"other"},{"name":"이마트24 남양주호평점","tel":"","addr":"경기도 남양주시 호평동 557-7번지 지산파크빌 201동 101호","indutype":"유통업 영리 - 편 의 점","category":"other"}]},{"lat":"37.659048969","long":"127.2482046","imageIndex":17,"items":[{"name":"이즈랩(iSLAB)","tel":"070-7643-6571","addr":"경기도 남양주시 호평동 618번지 호평마을한화꿈에그린 1501동 305호","indutype":"서적문구 - 과학기자재","category":"other"}]},{"lat":"37.653945795","long":"127.24563809","imageIndex":17,"items":[{"name":"이진민재현재맘N파파","tel":"","addr":"경기도 남양주시 호평동 653-2번지 1층","indutype":"의류 - 정장","category":"other"}]},{"lat":"37.655834726","long":"127.24714011","imageIndex":17,"items":[{"name":"인디라벨","tel":"070-4211-1233","addr":"경기도 남양주시 호평동 650-1번지 1층 101호","indutype":"의류 - 정장","category":"other"}]},{"lat":"37.660747216","long":"127.2371604","imageIndex":17,"items":[{"name":"인터페이스(interface)","tel":"031-554-7751","addr":"경기도 남양주시 호평동 569-11번지 훼밀리타운 17동 301호","indutype":"사무통신 - 기타 사무용품","category":"other"}]},{"lat":"37.663220579","long":"127.24813899","imageIndex":17,"items":[{"name":"임마누엘","tel":"031-591-5392","addr":"경기도 남양주시 호평동 405-16번지 외2필지 천마빌딩","indutype":"레져용품 - 스포츠·레져용품","category":"other"}]},{"lat":"37.661663612","long":"127.24731788","imageIndex":17,"items":[{"name":"제이씨미디어","tel":"","addr":"경기도 남양주시 호평동 613번지 호평마을대주파크빌 1205동 1803호","indutype":"용역 서비스 - 종합용역","category":"other"},{"name":"펫1253","tel":"","addr":"경기도 남양주시 호평동 613번지 호평마을대주파크빌 1205동 1105호","indutype":"문화.취미 - 애완동물","category":"other"}]},{"lat":"37.660087182","long":"127.24280217","imageIndex":17,"items":[{"name":"제이케이트레이드","tel":"070-4211-3977","addr":"경기도 남양주시 호평동 715-10번지 203호","indutype":"의류 - 정장","category":"other"}]},{"lat":"37.663447325","long":"127.24741439","imageIndex":17,"items":[{"name":"존 케이지 빌리어즈","tel":"031-593-7831","addr":"경기도 남양주시 호평동 231-1번지 3층 402호","indutype":"레져용품 - 스포츠·레져용품","category":"other"}]},{"lat":"37.655746807","long":"127.24608592","imageIndex":17,"items":[{"name":"좋은날","tel":"031-591-9396","addr":"경기도 남양주시 호평동 645-6번지 1층 일부","indutype":"의류 - 정장","category":"other"}]},{"lat":"37.657390167","long":"127.25719723","imageIndex":17,"items":[{"name":"주식회사 브레인리더","tel":"02-2621-5473","addr":"경기도 남양주시 호평동 680번지 호평마을중흥에스-클래스로하스 1907동 503호","indutype":"건축자재 - 부동산 분양","category":"other"}]},{"lat":"37.65844082","long":"127.24602671","imageIndex":17,"items":[{"name":"중민LED조명","tel":"031-594-1265","addr":"경기도 남양주시 호평동 175-26","indutype":"건축자재 - 조명기구","category":"other"}]},{"lat":"37.661304548","long":"127.25099999","imageIndex":17,"items":[{"name":"지영&미래전기조명","tel":"031-511-1130","addr":"경기도 남양주시 호평동 295-11번지 1동 B02호","indutype":"건축자재 - 조명기구","category":"other"}]},{"lat":"37.655194574","long":"127.24736466","imageIndex":17,"items":[{"name":"총각네이불가게","tel":"000-0000-0000","addr":"경기도 남양주시 호평동 651-3번지 1층 103호","indutype":"직물 - 침구·수예점","category":"other"}]},{"lat":"37.659939929","long":"127.24868352","imageIndex":17,"items":[{"name":"취아공방","tel":"","addr":"경기도 남양주시 호평동 618번지 호평마을한화꿈에그린 1503동 1303호","indutype":"문화.취미 - 문화취미기타","category":"other"}]},{"lat":"37.659886312","long":"127.24410481","imageIndex":17,"items":[{"name":"코디펫","tel":"","addr":"경기도 남양주시 호평동 615-12번지 203호","indutype":"문화.취미 - 애완동물","category":"other"}]},{"lat":"37.656079836","long":"127.24624566","imageIndex":17,"items":[{"name":"코발트","tel":"031-111-1111","addr":"경기도 남양주시 호평동 167번지","indutype":"의류 - 정장","category":"other"}]},{"lat":"37.670690847","long":"127.25183599","imageIndex":17,"items":[{"name":"콩마트","tel":"031-594-9033","addr":"경기도 남양주시 호평동 343-23번지","indutype":"유통업 영리 - 편 의 점","category":"other"}]},{"lat":"37.660633235","long":"127.24009532","imageIndex":17,"items":[{"name":"크린월드","tel":"031-594-7294","addr":"경기도 남양주시 호평동 612번지 호평동현대아이파크 1105동 1702호","indutype":"신변잡화 - 기타잡화","category":"other"},{"name":"프리즘 라이팅","tel":"070-7756-3187","addr":"경기도 남양주시 호평동 612번지 호평동현대아이파크 1105동 1003호","indutype":"문화.취미 - 티켓","category":"other"}]},{"lat":"37.661640472","long":"127.24977711","imageIndex":17,"items":[{"name":"크린토피아 남양주점 빨래방","tel":"031-592-8740","addr":"경기도 남양주시 호평동 273-9번지 101호 102","indutype":"수리서비스 - 세탁소","category":"other"}]},{"lat":"37.654253175","long":"127.24069829","imageIndex":17,"items":[{"name":"킹콩&제이(KING KONG & J)","tel":"","addr":"경기도 남양주시 호평동 626-4번지 401호","indutype":"신변잡화 - 신발","category":"other"}]},{"lat":"37.661136","long":"127.2364703","imageIndex":17,"items":[{"name":"탑에어컨","tel":"","addr":"경기도 남양주시 호평동 569-21번지 훼밀리타운 14동 401호","indutype":"용역 서비스 - 기타용역서비스","category":"other"}]},{"lat":"37.659489944","long":"127.24844404","imageIndex":17,"items":[{"name":"투룸스 (2rooms)","tel":"","addr":"경기도 남양주시 호평동 618번지 호평마을한화꿈에그린 1502동 506호","indutype":"의류 - 정장","category":"other"}]},{"lat":"37.670336127","long":"127.24913718","imageIndex":17,"items":[{"name":"파라곤세탁소","tel":"031-559-3888","addr":"경기도 남양주시 호평동 724번지 호평파라곤 202동 1층 4호","indutype":"수리서비스 - 세탁소","category":"other"}]},{"lat":"37.661975815","long":"127.24882623","imageIndex":17,"items":[{"name":"파크온골프","tel":"031-558-0753","addr":"경기도 남양주시 호평동 269-1번지 214호","indutype":"레져용품 - 스포츠·레져용품","category":"other"}]},{"lat":"37.655888455","long":"127.24729894","imageIndex":17,"items":[{"name":"평강상회 (트라이호평점)","tel":"031-591-4175","addr":"경기도 남양주시 호평동 650-2번지 1층 102호 101호","indutype":"의류 - 내의판매","category":"other"}]},{"lat":"37.655635599","long":"127.24758142","imageIndex":17,"items":[{"name":"포도폴","tel":"032-471-6003","addr":"경기도 남양주시 호평동 650-5번지 301호","indutype":"광학제품 - 사진관","category":"other"}]},{"lat":"37.658235581","long":"127.25368696","imageIndex":17,"items":[{"name":"포천서비스","tel":"070-4420-9471","addr":"경기도 남양주시 호평동 678번지 호평마을한라비발디 1809동 1304호","indutype":"수리서비스 - 기타수리서비스","category":"other"}]},{"lat":"37.645305071","long":"127.25864035","imageIndex":17,"items":[{"name":"폴라리스","tel":"031-591-2914","addr":"경기도 남양주시 호평동 산37-18번지","indutype":"레져용품 - 스포츠·레져용품","category":"other"}]},{"lat":"37.654664776","long":"127.24210479","imageIndex":17,"items":[{"name":"프라이스세일","tel":"031-595-2226","addr":"경기도 남양주시 호평동 630-6번지","indutype":"신변잡화 - 기타잡화","category":"other"}]},{"lat":"37.655915179","long":"127.24744635","imageIndex":17,"items":[{"name":"프라임 호평점","tel":"031-592-1677","addr":"경기도 남양주시 호평동 650-3번지 1층 102호 일부","indutype":"사무통신 - 통신기기","category":"other"}]},{"lat":"37.656196493","long":"127.24647269","imageIndex":17,"items":[{"name":"플랜트 남양주호평라운지","tel":"070-3553-5021","addr":"경기도 남양주시 호평동 166번지 3층","indutype":"용역 서비스 - 사무서비스","category":"other"}]},{"lat":"37.655802249","long":"127.25822306","imageIndex":17,"items":[{"name":"플러스원노인요양원","tel":"031-591-3311","addr":"경기도 남양주시 호평동 19-9번지","indutype":"기타의료기관 - 기타의료기관 및 기타","category":"other"}]},{"lat":"37.670451853","long":"127.2498063","imageIndex":17,"items":[{"name":"핑크아트","tel":"","addr":"경기도 남양주시 호평동 724번지 호평파라곤 109동 1903호","indutype":"의류 - 정장","category":"other"}]},{"lat":"37.654808029","long":"127.2469441","imageIndex":17,"items":[{"name":"하짱","tel":"031-573-6263","addr":"경기도 남양주시 호평동 657-2번지 1층상가101호","indutype":"의류 - 아동의류","category":"other"}]},{"lat":"37.656444674","long":"127.24844535","imageIndex":17,"items":[{"name":"한빛철물마트 호평내점","tel":"070-8798-3435","addr":"경기도 남양주시 호평동 196-2번지 상가 101호","indutype":"건축자재 - 목재·석재·철물","category":"other"}]},{"lat":"37.657168383","long":"127.24703116","imageIndex":17,"items":[{"name":"한아름슈퍼","tel":"031-592-0716","addr":"경기도 남양주시 호평동 185-2번지","indutype":"신변잡화 - 기타잡화","category":"other"}]},{"lat":"37.659927662","long":"127.24590689","imageIndex":17,"items":[{"name":"한채시스템","tel":"031-559-1424","addr":"경기도 남양주시 호평동 615번지 신명스카이뷰 1406동 704호","indutype":"용역 서비스 - 기타용역서비스","category":"other"}]},{"lat":"37.65960875","long":"127.24325395","imageIndex":17,"items":[{"name":"해그늘","tel":"031-591-2990","addr":"경기도 남양주시 호평동 716-6번지 204호","indutype":"직물 - 카페트,커튼,천막,지물","category":"other"}]},{"lat":"37.658808904","long":"127.24666255","imageIndex":17,"items":[{"name":"핸드폰팩토리","tel":"031-594-1158","addr":"경기도 남양주시 호평동 175-15 종성빌딩 1층 4~6호","indutype":"사무통신 - 통신기기","category":"other"}]},{"lat":"37.664301637","long":"127.24818788","imageIndex":17,"items":[{"name":"헤븐사운드","tel":"070-7755-1116","addr":"경기도 남양주시 호평동 405-11번지 4층","indutype":"문화.취미 - 문화취미기타","category":"other"}]},{"lat":"37.654013488","long":"127.23891838","imageIndex":17,"items":[{"name":"현대프라자","tel":"031-513-2679","addr":"경기도 남양주시 호평동 624번지 평마을주공20단지 2003동 2001호","indutype":"회원제형태 - 기타4","category":"other"}]},{"lat":"37.65464228","long":"127.24866605","imageIndex":17,"items":[{"name":"호평동주민센터","tel":"031-590-2961","addr":"경기도 남양주시 호평동 669번지 호평동주민센터","indutype":"용역 서비스 - 사무서비스","category":"other"},{"name":"호평동주민자치위원회","tel":"031-511-7673","addr":"경기도 남양주시 호평동 669번지","indutype":"문화.취미 - 문화취미기타","category":"other"},{"name":"호평동주민자치위원회","tel":"031-511-7673","addr":"경기도 남양주시 호평동 669번지","indutype":"문화.취미 - 문화취미기타","category":"other"}]},{"lat":"37.653531898","long":"127.24971627","imageIndex":17,"items":[{"name":"호평토기","tel":"031-591-3790","addr":"경기도 남양주시 호평동 131-7","indutype":"문화.취미 - 민예·공예품","category":"other"}]},{"lat":"37.669074997","long":"127.249031","imageIndex":17,"items":[{"name":"홈닥터","tel":"031-559-5948","addr":"경기도 남양주시 호평동 724번지 호평파라곤 104동 1603호 호평파라곤","indutype":"회원제형태 - 기타4","category":"other"}]},{"lat":"37.655502832","long":"127.24202815","imageIndex":17,"items":[{"name":"훌라우쿨레레 남양주점","tel":"031-559-4022","addr":"경기도 남양주시 호평동 629-12번지 원더랜드 1층 102호","indutype":"레져용품 - 악기점","category":"other"}]}]