[{"lat":"37.296408363","long":"127.63299454","imageIndex":8,"items":[{"name":"(주)태양동물약품","tel":"031-884-8640","addr":"경기도 여주시 하동 290-2번지","indutype":"기타의료기관 - 동물병원","category":"medical"}]},{"lat":"37.299742195","long":"127.62958239","imageIndex":8,"items":[{"name":"건강약국","tel":"031-886-3545","addr":"경기도 여주시 하동 127-13번지","indutype":"약국 - 약국","category":"medical"}]},{"lat":"37.297078202","long":"127.63410539","imageIndex":8,"items":[{"name":"경락한의원","tel":"031-881-0877","addr":"경기도 여주시 하동 272번지 1층 1호","indutype":"의원 - 한의원","category":"medical"}]},{"lat":"37.297605044","long":"127.62991428","imageIndex":8,"items":[{"name":"경희한의원","tel":"031-884-4193","addr":"경기도 여주시 하동 137-9번지","indutype":"의원 - 한의원","category":"medical"}]},{"lat":"37.297464295","long":"127.63435674","imageIndex":8,"items":[{"name":"김동호치과의원","tel":"031-886-2080","addr":"경기도 여주시 하동 269-2번지 2층","indutype":"의원 - 치과의원","category":"medical"}]},{"lat":"37.301078241","long":"127.62225099","imageIndex":8,"items":[{"name":"나무동물병원","tel":"031-885-7475","addr":"경기도 여주시 하동 430-5번지","indutype":"기타의료기관 - 동물병원","category":"medical"}]},{"lat":"37.29710301","long":"127.63283116","imageIndex":8,"items":[{"name":"대림한의원","tel":"031-885-2308","addr":"경기도 여주시 하동 293-1번지","indutype":"의원 - 한의원","category":"medical"}]},{"lat":"37.297633562","long":"127.63302732","imageIndex":8,"items":[{"name":"덕산한의원","tel":"031-886-1075","addr":"경기도 여주시 하동 252-8번지","indutype":"의원 - 한의원","category":"medical"}]},{"lat":"37.299497895","long":"127.63147515","imageIndex":8,"items":[{"name":"백산동물병원","tel":"031-884-3030","addr":"경기도 여주시 하동 394-8번지","indutype":"기타의료기관 - 동물병원","category":"medical"}]},{"lat":"37.297194245","long":"127.63430937","imageIndex":8,"items":[{"name":"사랑한의원","tel":"031-881-1775","addr":"경기도 여주시 하동 270-2번지","indutype":"의원 - 한의원","category":"medical"}]},{"lat":"37.301300549","long":"127.62453113","imageIndex":8,"items":[{"name":"세종대학약국","tel":"031-885-1647","addr":"경기도 여주시 하동 434-4번지 1층","indutype":"약국 - 약국","category":"medical"}]},{"lat":"37.300937375","long":"127.62505825","imageIndex":8,"items":[{"name":"세종정문약국","tel":"031-882-8271","addr":"경기도 여주시 하동 417-2번지 B동 101호","indutype":"약국 - 약국","category":"medical"}]},{"lat":"37.297911842","long":"127.63322137","imageIndex":8,"items":[{"name":"세종치과의원","tel":"031-883-8633","addr":"경기도 여주시 하동 252-1번지","indutype":"의원 - 치과의원","category":"medical"}]},{"lat":"37.298163499","long":"127.635028","imageIndex":8,"items":[{"name":"신농씨한의원","tel":"031-886-7500","addr":"경기도 여주시 하동 224-11번지 1층","indutype":"의원 - 한의원","category":"medical"}]},{"lat":"37.296747095","long":"127.62858762","imageIndex":8,"items":[{"name":"신태양동물약품","tel":"031-884-8650","addr":"경기도 여주시 하동 413-9번지","indutype":"기타의료기관 - 동물병원","category":"medical"}]},{"lat":"37.298077438","long":"127.63257989","imageIndex":8,"items":[{"name":"약재마루","tel":"031-884-1053","addr":"경기도 여주시 하동 249-8번지","indutype":"약국 - 한약방","category":"medical"}]},{"lat":"37.301490756","long":"127.62605534","imageIndex":8,"items":[{"name":"여주고려병원","tel":"031-880-7700","addr":"경기도 여주시 하동 435번지","indutype":"의원 - 의원","category":"medical"}]},{"lat":"37.30118775","long":"127.62542123","imageIndex":8,"items":[{"name":"여주메디칼약국","tel":"031-886-8805","addr":"경기도 여주시 하동 435-3번지","indutype":"약국 - 약국","category":"medical"},{"name":"여주세종고려치과의원","tel":"031-881-2870","addr":"경기도 여주시 하동 435-3번지 근린상가 2층","indutype":"의원 - 치과의원","category":"medical"}]},{"lat":"37.298830279","long":"127.63163878","imageIndex":8,"items":[{"name":"여주약초","tel":"031-885-8337","addr":"경기도 여주시 하동 180-1번지","indutype":"약국 - 한약방","category":"medical"}]},{"lat":"37.29735276","long":"127.63330693","imageIndex":8,"items":[{"name":"여주의원21세기","tel":"031-881-6868","addr":"경기도 여주시 하동 257-1번지","indutype":"의원 - 의원","category":"medical"}]},{"lat":"37.29740892","long":"127.63291266","imageIndex":8,"items":[{"name":"여주태평양약국","tel":"031-886-6003","addr":"경기도 여주시 하동 250-4번지","indutype":"약국 - 약국","category":"medical"}]},{"lat":"37.300554202","long":"127.62252866","imageIndex":8,"items":[{"name":"여흥가축약품","tel":"031-885-7761","addr":"경기도 여주시 하동 429-11번지","indutype":"기타의료기관 - 동물병원","category":"medical"}]},{"lat":"37.2989635124","long":"127.6336925621","imageIndex":8,"items":[{"name":"태성진동물병원","tel":"031-882-6615","addr":"경기도 여주시 하동 200-2번지","indutype":"기타의료기관 - 동물병원","category":"medical"}]},{"lat":"37.29955345","long":"127.63119365","imageIndex":8,"items":[{"name":"하리플란트치과의원","tel":"031-883-2824","addr":"경기도 여주시 하동 123-21번지","indutype":"의원 - 치과의원","category":"medical"}]},{"lat":"37.299524947","long":"127.62977232","imageIndex":8,"items":[{"name":"한사랑의원","tel":"031-886-0075","addr":"경기도 여주시 하동 127-19번지","indutype":"의원 - 의원","category":"medical"}]}]