[{"lat":"37.537017029","long":"127.20761568","imageIndex":13,"items":[{"name":"(주)꿈이룸지원센터","tel":"031-795-2622","addr":"경기도 하남시 신장동 432-33번지 호정빌딩","indutype":"보건위생 - 기타대인서비스","category":"beauty"},{"name":"라파의료기","tel":"031-793-6124","addr":"경기도 하남시 신장동 432-33번지 호정빌딩 101호","indutype":"보건위생 - 의료용품","category":"beauty"}]},{"lat":"37.539594371","long":"127.21245413","imageIndex":13,"items":[{"name":"(주)진산","tel":"031-794-0550","addr":"경기도 하남시 신장동 517-1번지","indutype":"보건위생 - 사우나","category":"beauty"},{"name":"유한회사 비너스","tel":"031-794-0550","addr":"경기도 하남시 신장동 517-1번지 하남주차빌딩 101호,201호","indutype":"보건위생 - 사우나","category":"beauty"}]},{"lat":"37.538127504","long":"127.20630623","imageIndex":13,"items":[{"name":"3H스마트지압침대","tel":"031-795-6181","addr":"경기도 하남시 신장동 427-452번지","indutype":"보건위생 - 의료용품","category":"beauty"},{"name":"녹십초알로에하남지서","tel":"031-793-4334","addr":"경기도 하남시 신장동 427-452번지 2층","indutype":"보건위생 - 화장품","category":"beauty"}]},{"lat":"37.541960448","long":"127.21939691","imageIndex":13,"items":[{"name":"7세븐네일","tel":"031-795-4244","addr":"경기도 하남시 신장동 96-15번지 2층 202호","indutype":"보건위생 - 피부미용실","category":"beauty"}]},{"lat":"37.540676618","long":"127.20669786","imageIndex":13,"items":[{"name":"B-612 HAIR#(비-612 헤어샵)","tel":"031-792-0872","addr":"경기도 하남시 신장동 415-44번지 신장동주차빌딩 106호","indutype":"보건위생 - 미용원","category":"beauty"},{"name":"루아뜰리에","tel":"","addr":"경기도 하남시 신장동 415-44번지 신장동주차빌딩 120호","indutype":"보건위생 - 미용원","category":"beauty"}]},{"lat":"37.53909627","long":"127.20878678","imageIndex":13,"items":[{"name":"JK헤어코코","tel":"031-792-9409","addr":"경기도 하남시 신장동 444-13번지 101호","indutype":"보건위생 - 미용원","category":"beauty"}]},{"lat":"37.541072659","long":"127.20692524","imageIndex":13,"items":[{"name":"L.nail(엘네일)","tel":"","addr":"경기도 하남시 신장동 415-10번지 명지캐럿108 118호","indutype":"보건위생 - 피부미용실","category":"beauty"},{"name":"스마트안경콘택트","tel":"031-791-1193","addr":"경기도 하남시 신장동 415-10번지 명지캐럿 1층 109호 A호","indutype":"보건위생 - 안경","category":"beauty"},{"name":"아라뷰티케어","tel":"031-793-7362","addr":"경기도 하남시 신장동 415-10번지 명지캐럿 205호","indutype":"보건위생 - 피부미용실","category":"beauty"},{"name":"헤어스튜디오H","tel":"070-4036-2789","addr":"경기도 하남시 신장동 415-10번지 명지캐럿108 101호","indutype":"보건위생 - 미용원","category":"beauty"}]},{"lat":"37.541011665","long":"127.21595442","imageIndex":13,"items":[{"name":"O.K화장품","tel":"031-791-1449","addr":"경기도 하남시 신장동 523-1번지 현대베스코아 1층 19호","indutype":"보건위생 - 화장품","category":"beauty"},{"name":"가족-in 상담센터","tel":"","addr":"경기도 하남시 신장동 523-1번지 현대베스코아빌딩 1005호","indutype":"보건위생 - 기타대인서비스","category":"beauty"},{"name":"모모네일","tel":"02-0000-0000","addr":"경기도 하남시 신장동 523-1번지 현대베스코아빌딩 238호","indutype":"보건위생 - 피부미용실","category":"beauty"},{"name":"바비네일","tel":"070-4007-5739","addr":"경기도 하남시 신장동 523-1번지 현대베스코아빌딩 211호","indutype":"보건위생 - 피부미용실","category":"beauty"},{"name":"샤샤","tel":"031-000-0000","addr":"경기도 하남시 신장동 523-1번지 현대베스코아빌딩 234호","indutype":"보건위생 - 피부미용실","category":"beauty"},{"name":"세라네일","tel":"031-795-7430","addr":"경기도 하남시 신장동 523-1번지 현대베스코아 1층 104호","indutype":"보건위생 - 피부미용실","category":"beauty"},{"name":"속눈썹미인","tel":"031-1688-4431","addr":"경기도 하남시 신장동 523-1번지 현대베스코아 313호","indutype":"보건위생 - 기타대인서비스","category":"beauty"},{"name":"송설메디칼","tel":"031-796-3513","addr":"경기도 하남시 신장동 523-1번지 현대베스코아빌딩 제4층 제438호,제443호","indutype":"보건위생 - 의료용품","category":"beauty"},{"name":"수피아네일","tel":"","addr":"경기도 하남시 신장동 523-1번지 현대베스코아빌딩 244호","indutype":"보건위생 - 피부미용실","category":"beauty"},{"name":"스카이안경","tel":"031-796-4344","addr":"경기도 하남시 신장동 523-1 현대베스코아 154호~157호","indutype":"보건위생 - 안경","category":"beauty"},{"name":"엄지네일","tel":"031-791-8831","addr":"경기도 하남시 신장동 523-1번지 현대베스코아빌딩 1층 116호","indutype":"보건위생 - 피부미용실","category":"beauty"},{"name":"여우손톱","tel":"031-791-0839","addr":"경기도 하남시 신장동 523-1번지","indutype":"보건위생 - 피부미용실","category":"beauty"},{"name":"예쁠꼬야 뷰티케어","tel":"","addr":"경기도 하남시 신장동 523-1번지 현대베스코아빌딩 6층 603호","indutype":"보건위생 - 피부미용실","category":"beauty"},{"name":"주식회사 영케어메디팜","tel":"031-795-4088","addr":"경기도 하남시 신장동 523-1번지 1001동 1호","indutype":"보건위생 - 화장품","category":"beauty"},{"name":"코아화장품","tel":"031-796-7117","addr":"경기도 하남시 신장동 523-1번지 현대베스코아 144호","indutype":"보건위생 - 화장품","category":"beauty"},{"name":"포도나무","tel":"031-793-7059","addr":"경기도 하남시 신장동 523-1번지 현대베스코아 3층 50호","indutype":"보건위생 - 화장품","category":"beauty"},{"name":"하와이 언니","tel":"031-792-5424","addr":"경기도 하남시 신장동 523-1번지 현대베스코아빌딩 6층 609호","indutype":"보건위생 - 화장품","category":"beauty"},{"name":"한양상사","tel":"031-795-1468","addr":"경기도 하남시 신장동 523-1번지 현대베스코아 6층 6호","indutype":"보건위생 - 의료용품","category":"beauty"},{"name":"향스뷰티","tel":"070-4477-0226","addr":"경기도 하남시 신장동 523-1번지 현대베스코아빌딩 2층 243호","indutype":"보건위생 - 화장품","category":"beauty"},{"name":"현대베스코아미용실","tel":"070-7527-9107","addr":"경기도 하남시 신장동 523-1번지 현대베스코아빌딩 908호","indutype":"보건위생 - 미용원","category":"beauty"}]},{"lat":"37.537181648","long":"127.20620183","imageIndex":13,"items":[{"name":"O2헤어","tel":"031-796-0223","addr":"경기도 하남시 신장동 430-25번지","indutype":"보건위생 - 미용원","category":"beauty"}]},{"lat":"37.539765218","long":"127.20751004","imageIndex":13,"items":[{"name":"Q사랑","tel":"031-794-5915","addr":"경기도 하남시 신장동 427-418번지 1층 102호","indutype":"보건위생 - 이용원","category":"beauty"}]},{"lat":"37.537287617","long":"127.2074467","imageIndex":13,"items":[{"name":"Salon W (살롱 더블유)","tel":"031-795-0811","addr":"경기도 하남시 신장동 432-22번지 1층","indutype":"보건위생 - 미용원","category":"beauty"}]},{"lat":"37.541794607","long":"127.2114193","imageIndex":13,"items":[{"name":"cc헤어클럽","tel":"031-795-4890","addr":"경기도 하남시 신장동 381-30번지 102호","indutype":"보건위생 - 미용원","category":"beauty"}]},{"lat":"37.540510853","long":"127.21387105","imageIndex":13,"items":[{"name":"i2.0안경","tel":"031-796-9009","addr":"경기도 하남시 신장동 519외2필지동양트레벨102","indutype":"보건위생 - 안경","category":"beauty"},{"name":"무슈(Mouche)","tel":"031-794-5477","addr":"경기도 하남시 신장동 519번지 오피스텔트레벨 2층 204호","indutype":"보건위생 - 미용원","category":"beauty"},{"name":"상생약발원","tel":"031-792-6069","addr":"경기도 하남시 신장동 519번지 오피스텔트레벨 703호","indutype":"보건위생 - 기타대인서비스","category":"beauty"},{"name":"영네일","tel":"031-793-3773","addr":"경기도 하남시 신장동 519번지 오피스텔트레벨 217호","indutype":"보건위생 - 피부미용실","category":"beauty"},{"name":"온리원","tel":"031-792-4483","addr":"경기도 하남시 신장동 519번지 동양트레벨205호(코너) 2층","indutype":"보건위생 - 미용재료","category":"beauty"},{"name":"코코","tel":"031-795-7581","addr":"경기도 하남시 신장동 519번지 동양트레벨오피스텔 306호","indutype":"보건위생 - 화장품","category":"beauty"},{"name":"헤르메스헤어갤러리","tel":"031-792-4483","addr":"경기도 하남시 신장동 519번지 동양트레벨 205호","indutype":"보건위생 - 미용원","category":"beauty"},{"name":"힐링랜드","tel":"031-796-2626","addr":"경기도 하남시 신장동 519번지 오피스텔트레벨 상가동 203호","indutype":"보건위생 - 미용재료","category":"beauty"}]},{"lat":"37.538901698","long":"127.2118412","imageIndex":13,"items":[{"name":"고려수지침요법학회(하남지회)","tel":"031-791-0631","addr":"경기도 하남시 신장동 448-10번지","indutype":"보건위생 - 의료용품","category":"beauty"}]},{"lat":"37.538596579","long":"127.20597938","imageIndex":13,"items":[{"name":"고선당","tel":"070-4589-2102","addr":"경기도 하남시 신장동 427-240번지 201호","indutype":"보건위생 - 기타대인서비스","category":"beauty"}]},{"lat":"37.53735096","long":"127.20728847","imageIndex":13,"items":[{"name":"고울","tel":"031-794-4727","addr":"경기도 하남시 신장동 432-51번지","indutype":"보건위생 - 화장품","category":"beauty"}]},{"lat":"37.539488551","long":"127.2059818","imageIndex":13,"items":[{"name":"공간헤어","tel":"070-4320-8469","addr":"경기도 하남시 신장동 427-119번지 1층","indutype":"보건위생 - 미용원","category":"beauty"}]},{"lat":"37.540426537","long":"127.21566988","imageIndex":13,"items":[{"name":"글라스스토리 하남신장점 (구)안경마당","tel":"031-794-0110","addr":"경기도 하남시 신장동 524-3번지 서원빌딩 1층","indutype":"보건위생 - 안경","category":"beauty"},{"name":"나이스가이","tel":"031-792-0119","addr":"경기도 하남시 신장동 524-3번지 서원빌딩 1층","indutype":"보건위생 - 미용원","category":"beauty"}]},{"lat":"37.539710256","long":"127.20803037","imageIndex":13,"items":[{"name":"기분좋은날","tel":"031-794-1800","addr":"경기도 하남시 신장동 427-392번지 1층","indutype":"보건위생 - 미용원","category":"beauty"}]},{"lat":"37.537150682","long":"127.20847594","imageIndex":13,"items":[{"name":"김영화뷰티샬롱","tel":"031-792-1611","addr":"경기도 하남시 신장동 440-8번지","indutype":"보건위생 - 화장품","category":"beauty"}]},{"lat":"37.540794059","long":"127.21167675","imageIndex":13,"items":[{"name":"까꼬뽀꼬","tel":"031-793-0167","addr":"경기도 하남시 신장동 387-17번지 1층","indutype":"보건위생 - 미용원","category":"beauty"}]},{"lat":"37.538823687","long":"127.20489379","imageIndex":13,"items":[{"name":"네이쳐 컬렉션","tel":"031-793-8559","addr":"경기도 하남시 신장동 427-227번지 1층","indutype":"보건위생 - 화장품","category":"beauty"}]},{"lat":"37.540434383","long":"127.21631485","imageIndex":13,"items":[{"name":"눈이야기","tel":"031-795-0220","addr":"경기도 하남시 신장동 524-6번지","indutype":"보건위생 - 안경","category":"beauty"}]},{"lat":"37.540759258","long":"127.21097513","imageIndex":13,"items":[{"name":"뉴맨헤어","tel":"031-794-0240","addr":"경기도 하남시 신장동 562-4번지 에코타운1단지 103호","indutype":"보건위생 - 미용원","category":"beauty"},{"name":"헤어카페","tel":"031-791-6667","addr":"경기도 하남시 신장동 562-4번지 에코타운1단지 상가동 104호","indutype":"보건위생 - 미용원","category":"beauty"}]},{"lat":"37.539066856","long":"127.20495102","imageIndex":13,"items":[{"name":"뉴스킨헤어","tel":"031-795-5552","addr":"경기도 하남시 신장동 427-271번지","indutype":"보건위생 - 미용원","category":"beauty"}]},{"lat":"37.540735345","long":"127.20919862","imageIndex":13,"items":[{"name":"니디브심리치료연구소","tel":"031-793-8618","addr":"경기도 하남시 신장동 565-10번지 재옥빌딩 6층","indutype":"보건위생 - 기타대인서비스","category":"beauty"}]},{"lat":"37.540038811","long":"127.21078078","imageIndex":13,"items":[{"name":"다비치안경하남시청앞점","tel":"031-793-5059","addr":"경기도 하남시 신장동 407-10번지 신장동빌딩 1층","indutype":"보건위생 - 안경","category":"beauty"},{"name":"마음자람심리상담하남센터","tel":"031-791-8882","addr":"경기도 하남시 신장동 407-10번지 광장빌딩 702호","indutype":"보건위생 - 기타대인서비스","category":"beauty"}]},{"lat":"37.540155335","long":"127.20594966","imageIndex":13,"items":[{"name":"더맨","tel":"031-791-0678","addr":"경기도 하남시 신장동 427-246번지","indutype":"보건위생 - 미용원","category":"beauty"},{"name":"빨간손톱","tel":"070-7786-6700","addr":"경기도 하남시 신장동 427-246번지","indutype":"보건위생 - 피부미용실","category":"beauty"}]},{"lat":"37.538072469","long":"127.20687181","imageIndex":13,"items":[{"name":"동성미용실","tel":"031-793-6391","addr":"경기도 하남시 신장동 428-38번지","indutype":"보건위생 - 미용원","category":"beauty"},{"name":"동성탕","tel":"031-796-4240","addr":"경기도 하남시 신장동 428-38번지","indutype":"보건위생 - 사우나","category":"beauty"}]},{"lat":"37.538959453","long":"127.20453209","imageIndex":13,"items":[{"name":"동성제약하남지사","tel":"031-796-7153","addr":"경기도 하남시 신장동 427-66번지 진도로르빌 상가 210호","indutype":"보건위생 - 화장품","category":"beauty"},{"name":"송헤어샵","tel":"031-792-3274","addr":"경기도 하남시 신장동 427-66번지 진도로르빌 2층 209호","indutype":"보건위생 - 미용원","category":"beauty"},{"name":"아모레","tel":"031-793-9870","addr":"경기도 하남시 신장동 427-66번지 진도로르빌 상가 203호","indutype":"보건위생 - 화장품","category":"beauty"},{"name":"아모레","tel":"031-793-9870","addr":"경기도 하남시 신장동 427-66번지 진도로르빌 상가 203호","indutype":"보건위생 - 화장품","category":"beauty"},{"name":"아모레","tel":"031-793-9870","addr":"경기도 하남시 신장동 427-66번지 진도로르빌 상가 203호","indutype":"보건위생 - 화장품","category":"beauty"},{"name":"아모레","tel":"031-793-9870","addr":"경기도 하남시 신장동 427-66번지 진도로르빌 상가 203호","indutype":"보건위생 - 화장품","category":"beauty"},{"name":"아모레","tel":"031-793-9870","addr":"경기도 하남시 신장동 427-66번지 진도로르빌 상가 203호","indutype":"보건위생 - 화장품","category":"beauty"},{"name":"아모레","tel":"031-793-9870","addr":"경기도 하남시 신장동 427-66번지 진도로르빌 상가 203호","indutype":"보건위생 - 화장품","category":"beauty"},{"name":"아모레","tel":"031-793-9870","addr":"경기도 하남시 신장동 427-66번지 진도로르빌 상가 203호","indutype":"보건위생 - 화장품","category":"beauty"},{"name":"아모레","tel":"031-793-9870","addr":"경기도 하남시 신장동 427-66번지 진도로르빌 상가 203호","indutype":"보건위생 - 화장품","category":"beauty"},{"name":"아모레 카운셀러","tel":"031-793-9870","addr":"경기도 하남시 신장동 427-66번지 진도로르빌 203호","indutype":"보건위생 - 화장품","category":"beauty"},{"name":"아모레카운셀러","tel":"031-793-9870","addr":"경기도 하남시 신장동 427-66번지 진도로르빌 상가 203호","indutype":"보건위생 - 화장품","category":"beauty"},{"name":"아모레카운셀러","tel":"031-793-9870","addr":"경기도 하남시 신장동 427-66번지 진도로르빌 상가 203호","indutype":"보건위생 - 화장품","category":"beauty"},{"name":"아모레카운셀러","tel":"031-793-9870","addr":"경기도 하남시 신장동 427-66번지 진도로르빌상가-203","indutype":"보건위생 - 화장품","category":"beauty"},{"name":"아모렐카운셀러","tel":"031-793-9870","addr":"경기도 하남시 신장동 427-66번지 진도로르빌 상가 203호","indutype":"보건위생 - 화장품","category":"beauty"}]},{"lat":"37.540873386","long":"127.2075357","imageIndex":13,"items":[{"name":"디엠컴퍼니","tel":"070-8119-3035","addr":"경기도 하남시 신장동 424-2번지 경림빌딩 509호","indutype":"보건위생 - 화장품","category":"beauty"}]},{"lat":"37.54135014","long":"127.20797829","imageIndex":13,"items":[{"name":"디퍼플","tel":"","addr":"경기도 하남시 신장동 564-5번지 주원빌딩 3층","indutype":"보건위생 - 피부미용실","category":"beauty"},{"name":"아모레 카운셀러","tel":"031-796-3788","addr":"경기도 하남시 신장동 564-5번지 주원빌딩 7층","indutype":"보건위생 - 화장품","category":"beauty"},{"name":"아모레 카운셀러","tel":"031-796-3788","addr":"경기도 하남시 신장동 564-5번지 주원빌딩 7층","indutype":"보건위생 - 화장품","category":"beauty"},{"name":"아모레 카운셀러","tel":"031-796-3788","addr":"경기도 하남시 신장동 564-5번지 주원빌딩 7층","indutype":"보건위생 - 화장품","category":"beauty"},{"name":"아모레카운셀러","tel":"031-796-3788","addr":"경기도 하남시 신장동 564-5번지 주원빌딩 7층","indutype":"보건위생 - 화장품","category":"beauty"},{"name":"아모레카운셀러","tel":"031-796-3788","addr":"경기도 하남시 신장동 564-5번지 주원빌딩 7층","indutype":"보건위생 - 화장품","category":"beauty"},{"name":"아모레카운셀러","tel":"031-796-3788","addr":"경기도 하남시 신장동 564-5번지 주원빌딩 7층","indutype":"보건위생 - 화장품","category":"beauty"},{"name":"아모레카운셀러","tel":"031-796-3788","addr":"경기도 하남시 신장동 564-5번지 주원빌딩 7층","indutype":"보건위생 - 화장품","category":"beauty"},{"name":"아모레카운셀러","tel":"031-796-3788","addr":"경기도 하남시 신장동 564-5번지 주원빌딩 7층","indutype":"보건위생 - 화장품","category":"beauty"},{"name":"아모레카운셀러","tel":"031-796-3788","addr":"경기도 하남시 신장동 564-5번지 주원빌딩 7층","indutype":"보건위생 - 화장품","category":"beauty"},{"name":"아모레퍼시픽","tel":"02-821-8282","addr":"경기도 하남시 신장동 564-5번지 주원빌딩 7층","indutype":"보건위생 - 화장품","category":"beauty"}]},{"lat":"37.538046206","long":"127.21158989","imageIndex":13,"items":[{"name":"라온제나 헤어","tel":"031-792-0302","addr":"경기도 하남시 신장동 454-33번지 1층","indutype":"보건위생 - 미용원","category":"beauty"}]},{"lat":"37.541259978","long":"127.22302701","imageIndex":13,"items":[{"name":"라인헤어","tel":"031-794-4053","addr":"경기도 하남시 신장동 82-2번지","indutype":"보건위생 - 미용원","category":"beauty"}]},{"lat":"37.538455269","long":"127.20953178","imageIndex":13,"items":[{"name":"로라피부나라","tel":"","addr":"경기도 하남시 신장동 446-18번지 1층","indutype":"보건위생 - 화장품","category":"beauty"}]},{"lat":"37.538847439","long":"127.21195419","imageIndex":13,"items":[{"name":"루아헤어&스토어 하남신장점","tel":"031-000-0000","addr":"경기도 하남시 신장동 455-1번지 1층","indutype":"보건위생 - 미용원","category":"beauty"}]},{"lat":"37.540434751","long":"127.21611119","imageIndex":13,"items":[{"name":"르 비반트","tel":"031-792-2031","addr":"경기도 하남시 신장동 524-5번지 2층","indutype":"보건위생 - 미용원","category":"beauty"}]},{"lat":"37.5391828","long":"127.20564153","imageIndex":13,"items":[{"name":"르비반트헤어","tel":"031-794-2030","addr":"경기도 하남시 신장동 427-129번지 2층","indutype":"보건위생 - 미용원","category":"beauty"},{"name":"오렌즈하남점(구)안경닥터","tel":"031-792-6677","addr":"경기도 하남시 신장동 427-129번지","indutype":"보건위생 - 안경","category":"beauty"}]},{"lat":"37.540263912","long":"127.21591835","imageIndex":13,"items":[{"name":"리나피부숍","tel":"031-794-0996","addr":"경기도 하남시 신장동 524-9번지 형림빌딩 5층","indutype":"보건위생 - 피부미용실","category":"beauty"}]},{"lat":"37.53848174","long":"127.20464395","imageIndex":13,"items":[{"name":"마샬미용실","tel":"031-791-2407","addr":"경기도 하남시 신장동 427-179번지 1층","indutype":"보건위생 - 미용원","category":"beauty"}]},{"lat":"37.539431771","long":"127.21770371","imageIndex":13,"items":[{"name":"머리세상","tel":"031-795-3417","addr":"경기도 하남시 신장동 528-5한신상가2층","indutype":"보건위생 - 미용원","category":"beauty"},{"name":"스킨스토리","tel":"031-796-8969","addr":"경기도 하남시 신장동 528-5번지 백송한신상가 1층 17호","indutype":"보건위생 - 피부미용실","category":"beauty"}]},{"lat":"37.537849845","long":"127.2105371","imageIndex":13,"items":[{"name":"머리하는날","tel":"031-794-3325","addr":"경기도 하남시 신장동 451-1번지","indutype":"보건위생 - 미용원","category":"beauty"}]},{"lat":"37.540346853","long":"127.21488893","imageIndex":13,"items":[{"name":"메디매인","tel":"070-7736-2478","addr":"경기도 하남시 신장동 524번지 하남리빙텔 911호","indutype":"보건위생 - 의료용품","category":"beauty"},{"name":"박승철헤어스튜디오(하남)","tel":"031-792-5574","addr":"경기도 하남시 신장동 524번지 하남리빙텔 201호","indutype":"보건위생 - 미용원","category":"beauty"},{"name":"아리따움","tel":"02-000-0000","addr":"경기도 하남시 신장동 524번지 하남리빙텔 203호","indutype":"보건위생 - 화장품","category":"beauty"}]},{"lat":"37.540289665","long":"127.20642525","imageIndex":13,"items":[{"name":"명동미용실","tel":"031-791-2243","addr":"경기도 하남시 신장동 427-20번지","indutype":"보건위생 - 미용원","category":"beauty"}]},{"lat":"37.540343353","long":"127.20664038","imageIndex":13,"items":[{"name":"명성이발관","tel":"031-792-4150","addr":"경기도 하남시 신장동 427-202번지","indutype":"보건위생 - 이용원","category":"beauty"},{"name":"바비네일","tel":"031-791-3773","addr":"경기도 하남시 신장동 427-202번지 1층","indutype":"보건위생 - 피부미용실","category":"beauty"},{"name":"엘샤넬미용실","tel":"","addr":"경기도 하남시 신장동 427-202번지","indutype":"보건위생 - 미용원","category":"beauty"}]},{"lat":"37.537623461","long":"127.20601068","imageIndex":13,"items":[{"name":"명품화장품","tel":"031-795-0626","addr":"경기도 하남시 신장동 427-141번지","indutype":"보건위생 - 화장품","category":"beauty"}]},{"lat":"37.53882087","long":"127.20653441","imageIndex":13,"items":[{"name":"미리네일","tel":"","addr":"경기도 하남시 신장동 427-308번지","indutype":"보건위생 - 미용재료","category":"beauty"}]},{"lat":"37.53823933","long":"127.20936146","imageIndex":13,"items":[{"name":"미소헤어샵","tel":"031-792-5148","addr":"경기도 하남시 신장동 442-26번지 1층","indutype":"보건위생 - 미용원","category":"beauty"}]},{"lat":"37.537514583","long":"127.20645165","imageIndex":13,"items":[{"name":"미스터헤어컷","tel":"031-795-8559","addr":"경기도 하남시 신장동 430-7번지 상원상떼빌 상가 102호","indutype":"보건위생 - 미용원","category":"beauty"}]},{"lat":"37.538732154","long":"127.20573083","imageIndex":13,"items":[{"name":"미의창조미용실","tel":"031-791-2804","addr":"경기도 하남시 신장동 427-381번지","indutype":"보건위생 - 미용원","category":"beauty"}]},{"lat":"37.538207088","long":"127.20717767","imageIndex":13,"items":[{"name":"박선형미용실","tel":"031-792-6015","addr":"경기도 하남시 신장동 428-33번지 1층","indutype":"보건위생 - 미용원","category":"beauty"}]},{"lat":"37.538844429","long":"127.20853716","imageIndex":13,"items":[{"name":"보보","tel":"031-791-8234","addr":"경기도 하남시 신장동 444-46번지 1층","indutype":"보건위생 - 화장품","category":"beauty"}]},{"lat":"37.541433735","long":"127.2065302","imageIndex":13,"items":[{"name":"봉주르헤어폼","tel":"031-796-0160","addr":"경기도 하남시 신장동 423-13번지","indutype":"보건위생 - 미용원","category":"beauty"},{"name":"아이데코안경 하남신장점","tel":"031-793-9007","addr":"경기도 하남시 신장동 423-13번지 하나빌딩 1층","indutype":"보건위생 - 안경","category":"beauty"}]},{"lat":"37.538097047","long":"127.20828619","imageIndex":13,"items":[{"name":"블루헤어스켓치","tel":"031-793-0021","addr":"경기도 하남시 신장동 442-41번지 1층","indutype":"보건위생 - 미용원","category":"beauty"}]},{"lat":"37.54048214","long":"127.20972972","imageIndex":13,"items":[{"name":"사임당산후도우미","tel":"","addr":"경기도 하남시 신장동 565-5번지 다인빌딩 1층","indutype":"보건위생 - 기타대인서비스","category":"beauty"}]},{"lat":"37.540626831","long":"127.20942462","imageIndex":13,"items":[{"name":"사임당화장품(하남지사)","tel":"031-796-8835","addr":"경기도 하남시 신장동 565-8번지 4층","indutype":"보건위생 - 화장품","category":"beauty"},{"name":"아로헤어","tel":"031-792-9588","addr":"경기도 하남시 신장동 565-8번지 소원빌딩 2층","indutype":"보건위생 - 미용원","category":"beauty"}]},{"lat":"37.54123262","long":"127.20820427","imageIndex":13,"items":[{"name":"살롱드(Salonde)빠삐용","tel":"031-793-4321","addr":"경기도 하남시 신장동 564-3번지 새하남빌딩 1층 102호","indutype":"보건위생 - 미용원","category":"beauty"},{"name":"편블리네일","tel":"031-792-7736","addr":"경기도 하남시 신장동 564-3번지 새하남빌딩 1층","indutype":"보건위생 - 피부미용실","category":"beauty"}]},{"lat":"37.545204699","long":"127.21403138","imageIndex":13,"items":[{"name":"살롱드로엔","tel":"031-794-4647","addr":"경기도 하남시 신장동 593번지 B29호","indutype":"보건위생 - 미용원","category":"beauty"}]},{"lat":"37.543317025","long":"127.21155932","imageIndex":13,"items":[{"name":"샵 헤어샵 (#헤어#)","tel":"","addr":"경기도 하남시 신장동 589-3번지 덕풍프라자 102호","indutype":"보건위생 - 미용원","category":"beauty"}]},{"lat":"37.539066568","long":"127.21031418","imageIndex":13,"items":[{"name":"샵(#)","tel":"031-793-0880","addr":"경기도 하남시 신장동 447-16번지 1층","indutype":"보건위생 - 미용원","category":"beauty"}]},{"lat":"37.540399956","long":"127.21542088","imageIndex":13,"items":[{"name":"센트럴화장품","tel":"031-792-3400","addr":"경기도 하남시 신장동 524-2번지 우신빌딩 3층","indutype":"보건위생 - 화장품","category":"beauty"},{"name":"젠","tel":"","addr":"경기도 하남시 신장동 524-2번지 우신빌딩 401호","indutype":"보건위생 - 화장품","category":"beauty"},{"name":"하남언어심리치료센터","tel":"031-793-2331","addr":"경기도 하남시 신장동 524-2번지 우신빌딩 4층","indutype":"보건위생 - 기타대인서비스","category":"beauty"}]},{"lat":"37.53829319","long":"127.20425874","imageIndex":13,"items":[{"name":"소리케어보청기","tel":"031-791-8200","addr":"경기도 하남시 신장동 512-1번지 하남빌딩 3층","indutype":"보건위생 - 의료용품","category":"beauty"},{"name":"안경박사테매장","tel":"031-796-3002","addr":"경기도 하남시 신장동 512-1번지 하남빌딩 1층","indutype":"보건위생 - 안경","category":"beauty"},{"name":"안경박사하남점","tel":"031-796-3002","addr":"경기도 하남시 신장동 512-1번지","indutype":"보건위생 - 안경","category":"beauty"}]},{"lat":"37.536656675","long":"127.20759207","imageIndex":13,"items":[{"name":"소망사","tel":"031-796-2335","addr":"경기도 하남시 신장동 432-32번지","indutype":"보건위생 - 미용재료","category":"beauty"}]},{"lat":"37.537150387","long":"127.20864565","imageIndex":13,"items":[{"name":"수헤어","tel":"031-792-5353","addr":"경기도 하남시 신장동 439-2번지 HT빌딩 1층 3호","indutype":"보건위생 - 미용원","category":"beauty"}]},{"lat":"37.537565901","long":"127.20803581","imageIndex":13,"items":[{"name":"슈퍼맘","tel":"031-793-0166","addr":"경기도 하남시 신장동 430-96번지","indutype":"보건위생 - 기타대인서비스","category":"beauty"}]},{"lat":"37.541069872","long":"127.20853196","imageIndex":13,"items":[{"name":"시그니아 독일보청기 하남센터","tel":"031-796-1369","addr":"경기도 하남시 신장동 564번지 글로벌빌딩 4층","indutype":"보건위생 - 의료용품","category":"beauty"}]},{"lat":"37.537764078","long":"127.20805899","imageIndex":13,"items":[{"name":"신데렐라헤어","tel":"031-794-0096","addr":"경기도 하남시 신장동 430-90번지","indutype":"보건위생 - 미용원","category":"beauty"}]},{"lat":"37.538100605","long":"127.2113977","imageIndex":13,"items":[{"name":"심헤어샵","tel":"031-794-7721","addr":"경기도 하남시 신장동 455-41번지","indutype":"보건위생 - 미용원","category":"beauty"}]},{"lat":"37.541957801","long":"127.21084268","imageIndex":13,"items":[{"name":"쎄븐미용실","tel":"031-796-3347","addr":"경기도 하남시 신장동 561-2번지 에코타운 상가동 1층 205호","indutype":"보건위생 - 미용원","category":"beauty"}]},{"lat":"37.540037585","long":"127.20631142","imageIndex":13,"items":[{"name":"쑥장사","tel":"031-794-9955","addr":"경기도 하남시 신장동 427-26번지","indutype":"보건위생 - 의료용품","category":"beauty"}]},{"lat":"37.538343584","long":"127.20639733","imageIndex":13,"items":[{"name":"아름다운사람들","tel":"031-793-9589","addr":"경기도 하남시 신장동 427-18번지","indutype":"보건위생 - 미용원","category":"beauty"}]},{"lat":"37.538545292","long":"127.20436125","imageIndex":13,"items":[{"name":"아리네일(ARI-NAIL)","tel":"031-792-5344","addr":"경기도 하남시 신장동 427-178번지 1층","indutype":"보건위생 - 피부미용실","category":"beauty"}]},{"lat":"37.541070773","long":"127.22302645","imageIndex":13,"items":[{"name":"아이스토리","tel":"","addr":"경기도 하남시 신장동 81-4번지 2층","indutype":"보건위생 - 피부미용실","category":"beauty"},{"name":"제이(J)헤어#","tel":"070-8870-2880","addr":"경기도 하남시 신장동 81-4번지 103호","indutype":"보건위생 - 미용원","category":"beauty"}]},{"lat":"37.538621599","long":"127.20714485","imageIndex":13,"items":[{"name":"아하미용실","tel":"031-794-3435","addr":"경기도 하남시 신장동 428-27번지","indutype":"보건위생 - 미용원","category":"beauty"}]},{"lat":"37.538211735","long":"127.2044735","imageIndex":13,"items":[{"name":"안경나라","tel":"031-792-1001","addr":"경기도 하남시 신장동 427-78번지","indutype":"보건위생 - 안경","category":"beauty"}]},{"lat":"37.536845705","long":"127.20769441","imageIndex":13,"items":[{"name":"안서연미용실","tel":"031-794-2626","addr":"경기도 하남시 신장동 432-12번지","indutype":"보건위생 - 미용원","category":"beauty"}]},{"lat":"37.54439992","long":"127.22059209","imageIndex":13,"items":[{"name":"에뜰헤어","tel":"031-793-2666","addr":"경기도 하남시 신장동 602번지 하남유니온시티에일린의뜰 상가동 211호","indutype":"보건위생 - 미용원","category":"beauty"}]},{"lat":"37.540984004","long":"127.21125863","imageIndex":13,"items":[{"name":"에코네일아트","tel":"031-794-8767","addr":"경기도 하남시 신장동 387-3번지","indutype":"보건위생 - 피부미용실","category":"beauty"}]},{"lat":"37.540567111","long":"127.20750092","imageIndex":13,"items":[{"name":"엘샤른코리아","tel":"031-795-5955","addr":"경기도 하남시 신장동 425-11번지","indutype":"보건위생 - 미용원","category":"beauty"}]},{"lat":"37.538458167","long":"127.20786854","imageIndex":13,"items":[{"name":"영광미용실","tel":"031-792-1740","addr":"경기도 하남시 신장동 428-11번지 1호 좌측","indutype":"보건위생 - 미용원","category":"beauty"}]},{"lat":"37.540403914","long":"127.20808885","imageIndex":13,"items":[{"name":"오땡큐","tel":"031-796-3134","addr":"경기도 하남시 신장동 411-1번지","indutype":"보건위생 - 미용원","category":"beauty"}]},{"lat":"37.537233264","long":"127.20761627","imageIndex":13,"items":[{"name":"오시오","tel":"031-791-8269","addr":"경기도 하남시 신장동 432-3번지","indutype":"보건위생 - 화장품","category":"beauty"}]},{"lat":"37.542234867","long":"127.21211075","imageIndex":13,"items":[{"name":"오피뉴","tel":"031-794-3211","addr":"경기도 하남시 신장동 381-22번지","indutype":"보건위생 - 미용원","category":"beauty"}]},{"lat":"37.537206711","long":"127.21248139","imageIndex":13,"items":[{"name":"원메디칼","tel":"","addr":"경기도 하남시 신장동 467-8번지 301호","indutype":"보건위생 - 의료용품","category":"beauty"},{"name":"이지메디칼","tel":"031-755-6504","addr":"경기도 하남시 신장동 467-8번지 401호","indutype":"보건위생 - 의료용품","category":"beauty"}]},{"lat":"37.537017264","long":"127.20747991","imageIndex":13,"items":[{"name":"원미용실","tel":"031-794-2816","addr":"경기도 하남시 신장동 432-19번지","indutype":"보건위생 - 미용원","category":"beauty"}]},{"lat":"37.541099671","long":"127.21208495","imageIndex":13,"items":[{"name":"은혜대중목욕탕","tel":"031-793-9669","addr":"경기도 하남시 신장동 386-3번지","indutype":"보건위생 - 사우나","category":"beauty"}]},{"lat":"37.540155839","long":"127.21083768","imageIndex":13,"items":[{"name":"이가미장","tel":"031-796-4669","addr":"경기도 하남시 신장동 407-6번지","indutype":"보건위생 - 미용원","category":"beauty"}]},{"lat":"37.537596355","long":"127.21122657","imageIndex":13,"items":[{"name":"이끌림헤어","tel":"031-795-7796","addr":"경기도 하남시 신장동 454-21번지 1층 102호","indutype":"보건위생 - 미용원","category":"beauty"}]},{"lat":"37.536932804","long":"127.21450589","imageIndex":13,"items":[{"name":"이레코스메틱(IRE COSMETICS)","tel":"070-5035-2933","addr":"경기도 하남시 신장동 532-7번지 102호","indutype":"보건위생 - 화장품","category":"beauty"}]},{"lat":"37.536791194","long":"127.20795449","imageIndex":13,"items":[{"name":"이룸움직임발달센터","tel":"031-795-2622","addr":"경기도 하남시 신장동 432-20번지","indutype":"보건위생 - 기타대인서비스","category":"beauty"}]},{"lat":"37.541181558","long":"127.20647294","imageIndex":13,"items":[{"name":"이원건강의료기 하남점","tel":"031-792-2120","addr":"경기도 하남시 신장동 415-2번지","indutype":"보건위생 - 의료용품","category":"beauty"},{"name":"컷트 염색 전문점","tel":"031-792-0227","addr":"경기도 하남시 신장동 415-2번지","indutype":"보건위생 - 미용원","category":"beauty"}]},{"lat":"37.540260649","long":"127.22261673","imageIndex":13,"items":[{"name":"인스타일","tel":"031-796-2525","addr":"경기도 하남시 신장동 81-13번지 1층 2호","indutype":"보건위생 - 미용원","category":"beauty"}]},{"lat":"37.541850146","long":"127.22058468","imageIndex":13,"items":[{"name":"자르세미용실","tel":"031-791-5352","addr":"경기도 하남시 신장동 99-12번지 2층","indutype":"보건위생 - 미용원","category":"beauty"}]},{"lat":"37.539543853","long":"127.2052578","imageIndex":13,"items":[{"name":"정미용실","tel":"031-791-7848","addr":"경기도 하남시 신장동 427-276번지 1층","indutype":"보건위생 - 미용원","category":"beauty"}]},{"lat":"37.540292299","long":"127.21009127","imageIndex":13,"items":[{"name":"좋은느낌","tel":"031-791-8911","addr":"경기도 하남시 신장동 565-2번지 2층","indutype":"보건위생 - 미용원","category":"beauty"}]},{"lat":"37.548704623","long":"127.21675713","imageIndex":13,"items":[{"name":"주식회사 실버쉴드","tel":"02-796-8890","addr":"경기도 하남시 신장동 251-16번지 4층","indutype":"보건위생 - 의료용품","category":"beauty"}]},{"lat":"37.537954637","long":"127.20727881","imageIndex":13,"items":[{"name":"쥬애나헤어","tel":"031-792-7770","addr":"경기도 하남시 신장동 430-46번지 1층","indutype":"보건위생 - 미용원","category":"beauty"}]},{"lat":"37.540488265","long":"127.2113704","imageIndex":13,"items":[{"name":"지원스킨케어","tel":"031-794-5788","addr":"경기도 하남시 신장동 399-4번지 2층","indutype":"보건위생 - 피부미용실","category":"beauty"}]},{"lat":"37.539459081","long":"127.20739606","imageIndex":13,"items":[{"name":"지현헤어","tel":"031-793-7071","addr":"경기도 하남시 신장동 427-375번지 1층","indutype":"보건위생 - 미용원","category":"beauty"}]},{"lat":"37.540181703","long":"127.20633444","imageIndex":13,"items":[{"name":"카리스헤어","tel":"031-794-6077","addr":"경기도 하남시 신장동 427-195번지 2층","indutype":"보건위생 - 미용원","category":"beauty"}]},{"lat":"37.539373437","long":"127.21000953","imageIndex":13,"items":[{"name":"카타리나 헤어","tel":"031-7794-3826","addr":"경기도 하남시 신장동 446-3번지 1층","indutype":"보건위생 - 미용원","category":"beauty"}]},{"lat":"37.538766245","long":"127.20686238","imageIndex":13,"items":[{"name":"코디헤어","tel":"031-795-9314","addr":"경기도 하남시 신장동 427-317번지","indutype":"보건위생 - 미용원","category":"beauty"}]},{"lat":"37.540876607","long":"127.22084209","imageIndex":13,"items":[{"name":"클럽밸런스5 하남신장점","tel":"031-796-7330","addr":"경기도 하남시 신장동 105-4번지 하남프라자 305호,306호","indutype":"보건위생 - 의료용품","category":"beauty"}]},{"lat":"37.540178177","long":"127.2083711","imageIndex":13,"items":[{"name":"킷펌헤어","tel":"031-793-2035","addr":"경기도 하남시 신장동 411-15번지 1층","indutype":"보건위생 - 미용원","category":"beauty"}]},{"lat":"37.537926824","long":"127.20773131","imageIndex":13,"items":[{"name":"태후사랑","tel":"031-793-6621","addr":"경기도 하남시 신장동 430-75번지","indutype":"보건위생 - 화장품","category":"beauty"}]},{"lat":"37.538318983","long":"127.20498294","imageIndex":13,"items":[{"name":"토니모리 하남점","tel":"031-796-2886","addr":"경기도 하남시 신장동 427-173번지","indutype":"보건위생 - 화장품","category":"beauty"}]},{"lat":"37.540236728","long":"127.21095105","imageIndex":13,"items":[{"name":"포인트헤어","tel":"070-8156-1505","addr":"경기도 하남시 신장동 407-5번지 1층","indutype":"보건위생 - 미용원","category":"beauty"}]},{"lat":"37.537983912","long":"127.20597772","imageIndex":13,"items":[{"name":"피부미래화장품","tel":"031-792-5167","addr":"경기도 하남시 신장동 427-372번지 하이렉스오피스텔 11층 1111호","indutype":"보건위생 - 화장품","category":"beauty"}]},{"lat":"37.53968413","long":"127.20750982","imageIndex":13,"items":[{"name":"피부미인","tel":"","addr":"경기도 하남시 신장동 427-368번지","indutype":"보건위생 - 피부미용실","category":"beauty"}]},{"lat":"37.538649488","long":"127.20664709","imageIndex":13,"items":[{"name":"핑키슈가","tel":"070-7608-9182","addr":"경기도 하남시 신장동 427-314번지","indutype":"보건위생 - 화장품","category":"beauty"}]},{"lat":"37.541983041","long":"127.20670142","imageIndex":13,"items":[{"name":"하남의료기","tel":"031-793-8093","addr":"경기도 하남시 신장동 423-10번지","indutype":"보건위생 - 의료용품","category":"beauty"}]},{"lat":"37.54159534","long":"127.22195306","imageIndex":13,"items":[{"name":"헤어라인","tel":"031-796-5585","addr":"경기도 하남시 신장동 569 대명강변타운상가2층 203,204호","indutype":"보건위생 - 미용원","category":"beauty"}]},{"lat":"37.54398335","long":"127.21178749","imageIndex":13,"items":[{"name":"헤어메이드_Hair Made","tel":"070-8836-8136","addr":"경기도 하남시 신장동 584-4번지 1층 101호","indutype":"보건위생 - 미용원","category":"beauty"}]},{"lat":"37.541461444","long":"127.21130522","imageIndex":13,"items":[{"name":"헤어틈","tel":"031-794-0321","addr":"경기도 하남시 신장동 381-37번지 1층","indutype":"보건위생 - 미용원","category":"beauty"}]},{"lat":"37.540398266","long":"127.21131357","imageIndex":13,"items":[{"name":"헤어홀릭","tel":"031-793-7897","addr":"경기도 하남시 신장동 399-3번지 1층","indutype":"보건위생 - 미용원","category":"beauty"}]}]