[{"lat":"36.990326788","long":"127.1026751","imageIndex":7,"items":[{"name":"DC마트","tel":"031-654-3379","addr":"경기도 평택시 합정동 896-1번지 로얄탑 1층 101호","indutype":"유통업 영리 - 슈퍼마켓","category":"mart"},{"name":"디씨마트","tel":"031-657-7926","addr":"경기도 평택시 합정동 896-1번지 로얄탑","indutype":"소매업 - 슈퍼","category":"mart"}]},{"lat":"36.992022787","long":"127.10028466","imageIndex":7,"items":[{"name":"명신슈퍼","tel":"031-651-1289","addr":"경기도 평택시 합정동 762-1번지","indutype":"소매업 - 슈퍼","category":"mart"},{"name":"명신식품","tel":"031-655-7997","addr":"경기도 평택시 합정동 762-1번지","indutype":"유통업 영리 - 슈퍼마켓","category":"mart"}]},{"lat":"36.989999337","long":"127.10625795","imageIndex":7,"items":[{"name":"무지개슈퍼","tel":"070-4821-4766","addr":"경기도 평택시 합정동 776-1번지","indutype":"유통업 영리 - 슈퍼마켓","category":"mart"}]},{"lat":"36.991550506","long":"127.09361161","imageIndex":7,"items":[{"name":"베스트마트","tel":"031-651-5952","addr":"경기도 평택시 합정동 746-9번지 1층","indutype":"유통업 영리 - 슈퍼마켓","category":"mart"},{"name":"베스트마트","tel":"031-656-1727","addr":"경기도 평택시 합정동 746-9번지","indutype":"도소매업 - 슈퍼","category":"mart"}]},{"lat":"36.99247073","long":"127.09211868","imageIndex":7,"items":[{"name":"스마트슈퍼","tel":"031-691-1450","addr":"경기도 평택시 합정동 729-7번지","indutype":"유통업 영리 - 슈퍼마켓","category":"mart"}]},{"lat":"36.991518418","long":"127.10000319","imageIndex":7,"items":[{"name":"시온마트","tel":"070-4441-5416","addr":"경기도 평택시 합정동 762-7번지 대신빌딩 4층","indutype":"유통업 영리 - 슈퍼마켓","category":"mart"},{"name":"주식회사 최강물류","tel":"","addr":"경기도 평택시 합정동 762-7번지","indutype":"도소매업 - 슈퍼","category":"mart"},{"name":"최강식자재마트/주식회사 최강물류","tel":"031-652-7772","addr":"경기도 평택시 합정동 762-7번지 대신빌딩","indutype":"유통업 영리 - 슈퍼마켓","category":"mart"}]},{"lat":"36.990137922","long":"127.10224801","imageIndex":7,"items":[{"name":"에이스마트","tel":"031-652-7764","addr":"경기도 평택시 합정동 908-5번지","indutype":"유통업 영리 - 슈퍼마켓","category":"mart"}]},{"lat":"36.988414446","long":"127.10511008","imageIndex":7,"items":[{"name":"오리엔탈 낚시할인매장","tel":"031-652-8165","addr":"경기도 평택시 합정동 914-4번지 일진빌","indutype":"유통업 영리 - 슈퍼마켓","category":"mart"}]},{"lat":"36.989804643","long":"127.09066653","imageIndex":7,"items":[{"name":"온정슈퍼","tel":"031-656-3793","addr":"경기도 평택시 합정동 829,합정3단지상가107","indutype":"유통업 영리 - 슈퍼마켓","category":"mart"},{"name":"온정슈퍼","tel":"031-656-4541","addr":"경기도 평택시 합정동 829번지 주공아파트","indutype":"소매업 - 슈퍼","category":"mart"},{"name":"은혜슈퍼","tel":"031-655-4857","addr":"경기도 평택시 합정동 829번지 주공아파트","indutype":"소매업 - 슈퍼","category":"mart"},{"name":"주공마트","tel":"031-651-2316","addr":"경기도 평택시 합정동 829번지 주공아파트","indutype":"도소매업 - 슈퍼","category":"mart"},{"name":"주공마트","tel":"031-657-5384","addr":"경기도 평택시 합정동 829번지 주공아파트","indutype":"유통업 영리 - 슈퍼마켓","category":"mart"}]},{"lat":"36.991797455","long":"127.100363","imageIndex":7,"items":[{"name":"은하상회","tel":"031-656-1175","addr":"경기도 평택시 합정동 762-5번지","indutype":"유통업 영리 - 슈퍼마켓","category":"mart"}]},{"lat":"36.989941297","long":"127.10030447","imageIndex":7,"items":[{"name":"이지할인마트","tel":"","addr":"경기도 평택시 합정동 911-4번지","indutype":"소매업 - 슈퍼","category":"mart"}]},{"lat":"36.992106573","long":"127.09694851","imageIndex":7,"items":[{"name":"준 슈퍼","tel":"","addr":"경기도 평택시 합정동 751-14번지","indutype":"유통업 영리 - 슈퍼마켓","category":"mart"}]},{"lat":"36.99088483","long":"127.09213929","imageIndex":7,"items":[{"name":"중국식품","tel":"070-7520-7588","addr":"경기도 평택시 합정동 640-7번지 1층","indutype":"유통업 영리 - 슈퍼마켓","category":"mart"}]},{"lat":"36.989797431","long":"127.11039136","imageIndex":7,"items":[{"name":"평고슈퍼","tel":"","addr":"경기도 평택시 합정동 358-6번지","indutype":"소매업 - 슈퍼","category":"mart"},{"name":"평고슈퍼","tel":"031-654-2788","addr":"경기도 평택시 합정동 358-6번지","indutype":"유통업 영리 - 슈퍼마켓","category":"mart"}]},{"lat":"36.990136412","long":"127.11410991","imageIndex":7,"items":[{"name":"평택21세기편의점","tel":"031-618-6960","addr":"경기도 평택시 합정동 966-6번지 1층","indutype":"유통업 영리 - 슈퍼마켓","category":"mart"}]},{"lat":"36.989769539","long":"127.10097822","imageIndex":7,"items":[{"name":"플러스유22시할인마트","tel":"031-651-5689","addr":"경기도 평택시 합정동 912-1번지","indutype":"유통업 영리 - 슈퍼마켓","category":"mart"}]},{"lat":"36.988660373","long":"127.10199897","imageIndex":7,"items":[{"name":"한미슈퍼","tel":"031-618-4420","addr":"경기도 평택시 합정동 917-19 19/1","indutype":"유통업 영리 - 슈퍼마켓","category":"mart"}]},{"lat":"36.990553013","long":"127.10152964","imageIndex":7,"items":[{"name":"한중OK마트","tel":"070-5096-5848","addr":"경기도 평택시 합정동 909-1번지 진원빌딩","indutype":"유통업 영리 - 슈퍼마켓","category":"mart"}]}]