[{"lat":"37.294066451","long":"127.01403582","imageIndex":17,"items":[{"name":"(주)건국공영","tel":"031-254-4404","addr":"경기도 수원시 장안구 영화동 245-10번지 건국공영빌딩 101호","indutype":"용역 서비스 - 가례서비스업","category":"other"}]},{"lat":"37.289651939","long":"127.00108889","imageIndex":17,"items":[{"name":"(주)경기종합환경","tel":"031-251-1661","addr":"경기도 수원시 장안구 영화동 398-2번지","indutype":"용역 서비스 - 종합용역","category":"other"},{"name":"김앤김(Kim&Kim)","tel":"031-248-0212","addr":"경기도 수원시 장안구 영화동 398-2번지 2층","indutype":"회원제형태 - 기타4","category":"other"},{"name":"상백","tel":"031-241-8562","addr":"경기도 수원시 장안구 영화동 398-2번지","indutype":"사무통신 - 통신기기","category":"other"},{"name":"황금당","tel":"031-245-4006","addr":"경기도 수원시 장안구 영화동 398-2번지","indutype":"신변잡화 - 시계","category":"other"}]},{"lat":"37.288958056","long":"127.00792285","imageIndex":17,"items":[{"name":"(주)로렌츠수원","tel":"031-247-8376","addr":"경기도 수원시 장안구 영화동 418 태영프라자 110-1호","indutype":"서적문구 - 정기간행물","category":"other"},{"name":"PP디자인","tel":"031-247-2227","addr":"경기도 수원시 장안구 영화동 418번지 태영주상복합상가 1층 112호","indutype":"용역 서비스 - 사무서비스","category":"other"},{"name":"스위치온 (라이팅플라자)","tel":"031-000-0000","addr":"경기도 수원시 장안구 영화동 418번지 태영주상복합상가 1층 162,163호","indutype":"건축자재 - 조명기구","category":"other"},{"name":"아이원정보통신","tel":"031-308-7980","addr":"경기도 수원시 장안구 영화동 418번지 태영주상복합상가 137호","indutype":"회원제형태 - 기타2","category":"other"},{"name":"주식회사 대호출판사","tel":"070-7862-1512","addr":"경기도 수원시 장안구 영화동 418번지 태영 상가 1층 138호","indutype":"서적문구 - 출판 및 인쇄물","category":"other"}]},{"lat":"37.290264646","long":"127.00378416","imageIndex":17,"items":[{"name":"(주)미화상사","tel":"031-244-7788","addr":"경기도 수원시 장안구 영화동 393-7번지 1층","indutype":"신변잡화 - 기타잡화","category":"other"}]},{"lat":"37.291624008","long":"127.01967423","imageIndex":17,"items":[{"name":"(주)삼일이엔지","tel":"031-212-0004","addr":"경기도 수원시 장안구 영화동 116-5번지","indutype":"전기제품 - 냉열기기","category":"other"},{"name":"(주)삼일이엔지(특별할부)","tel":"031-212-0004","addr":"경기도 수원시 장안구 영화동 116-5번지","indutype":"전기제품 - 냉열기기","category":"other"}]},{"lat":"37.292814306","long":"127.01050571","imageIndex":17,"items":[{"name":"(주)삼중광산업","tel":"031-248-3496","addr":"경기도 수원시 장안구 영화동 447-5번지 영화빌딩 3,4층","indutype":"별도관리 - 자체물품대금","category":"other"},{"name":"꼬리치는강아지","tel":"031-317-4488","addr":"경기도 수원시 장안구 영화동 447-5번지 동화프라자 1층","indutype":"문화.취미 - 애완동물","category":"other"},{"name":"주식회사삼중광산업","tel":"031-248-3496","addr":"경기도 수원시 장안구 영화동 447-5번지 영화빌딩 3,4층","indutype":"광학제품 - 기타광학제품","category":"other"},{"name":"주식회사삼중광산업/원격지","tel":"031-248-3496","addr":"경기도 수원시 장안구 영화동 447-5영화빌딩3층,4층","indutype":"기타 - 기타 전문점","category":"other"}]},{"lat":"37.294264606","long":"127.01475763","imageIndex":17,"items":[{"name":"(주)세창기업","tel":"031-255-3828","addr":"경기도 수원시 장안구 영화동 74번지","indutype":"신변잡화 - 기타잡화","category":"other"},{"name":"중앙총포화약상사","tel":"031-242-7007","addr":"경기도 수원시 장안구 영화동 74번지","indutype":"레져용품 - 총포류판매점","category":"other"}]},{"lat":"37.28970587","long":"127.00872359","imageIndex":17,"items":[{"name":"(주)신우티앤씨","tel":"031-258-6647","addr":"경기도 수원시 장안구 영화동 416-4번지","indutype":"서적문구 - 문구용품","category":"other"},{"name":"Hi.T","tel":"070-4015-4774","addr":"경기도 수원시 장안구 영화동 416-4번지","indutype":"서적문구 - 문구용품","category":"other"}]},{"lat":"37.288345465","long":"127.00302857","imageIndex":17,"items":[{"name":"(주)이롬파트너스","tel":"070-4406-6867","addr":"경기도 수원시 장안구 영화동 401-4번지 302호","indutype":"용역 서비스 - 사무서비스","category":"other"},{"name":"한솔숯침대","tel":"031-245-0415","addr":"경기도 수원시 장안구 영화동 401-4번지 1층","indutype":"가구 - 일반가구","category":"other"}]},{"lat":"37.2911554","long":"127.02019289","imageIndex":17,"items":[{"name":"(주)이화침구","tel":"031-253-8882","addr":"경기도 수원시 장안구 영화동 37-113번지","indutype":"직물 - 침구·수예점","category":"other"}]},{"lat":"37.287372315","long":"127.00606206","imageIndex":17,"items":[{"name":"(주)지캠프","tel":"031-251-4262","addr":"경기도 수원시 장안구 영화동 425-3번지 영진빌딩 401호","indutype":"용역 서비스 - 소프트웨어","category":"other"}]},{"lat":"37.291344635","long":"127.0200576","imageIndex":17,"items":[{"name":"(주)케이디자인","tel":"031-255-6670","addr":"경기도 수원시 장안구 영화동 37-108번지 2층","indutype":"건축자재 - 인테리어전문","category":"other"},{"name":"맥플랜","tel":"031-255-6670","addr":"경기도 수원시 장안구 영화동 37-108번지 삼성종합프라자","indutype":"유통업 영리 - 기타유통업","category":"other"}]},{"lat":"37.291822455","long":"127.01802775","imageIndex":17,"items":[{"name":"(주)케이에스피뉴스","tel":"031-253-4114","addr":"경기도 수원시 장안구 영화동 106-4번지 서한빌딩 201호","indutype":"용역 서비스 - 종합용역","category":"other"},{"name":"사진이야기","tel":"031-252-4749","addr":"경기도 수원시 장안구 영화동 106-4번지 서한빌딩 105호","indutype":"광학제품 - 사진관","category":"other"},{"name":"주식회사 씨와이솔루션(CY SOLUTOIN CO.Ltd","tel":"031-252-1625","addr":"경기도 수원시 장안구 영화동 106-4번지 서한빌딩 2층 202호","indutype":"사무통신 - 통신기기","category":"other"},{"name":"진보기획","tel":"031-244-7764","addr":"경기도 수원시 장안구 영화동 106-4번지","indutype":"용역 서비스 - 종합용역","category":"other"},{"name":"홍익디자인협동조합","tel":"031-251-7182","addr":"경기도 수원시 장안구 영화동 106-4번지 1층","indutype":"용역 서비스 - 종합용역","category":"other"}]},{"lat":"37.289597883","long":"127.00428035","imageIndex":17,"items":[{"name":"(주)키움","tel":"031-257-8550","addr":"경기도 수원시 장안구 영화동 392-4번지 칠공빌딩 3층 전체","indutype":"신변잡화 - 기타잡화","category":"other"}]},{"lat":"37.290426832","long":"127.00364883","imageIndex":17,"items":[{"name":"(주)한누리시스컴","tel":"031-253-3585","addr":"경기도 수원시 장안구 영화동 393-1번지","indutype":"사무통신 - 컴퓨터","category":"other"}]},{"lat":"37.289489233","long":"127.01414791","imageIndex":17,"items":[{"name":"(주)한보광학","tel":"031-245-9293","addr":"경기도 수원시 장안구 영화동 282-5번지","indutype":"광학제품 - 카메라","category":"other"},{"name":"민성텔레콤","tel":"031-241-5010","addr":"경기도 수원시 장안구 영화동 282-5번지","indutype":"사무통신 - 통신기기","category":"other"},{"name":"하오국제여행사","tel":"031-258-7575","addr":"경기도 수원시 장안구 영화동 282-5번지 1층","indutype":"여행 - 관광여행","category":"other"}]},{"lat":"37.289426182","long":"127.01392236","imageIndex":17,"items":[{"name":"(주)현대정보통신","tel":"031-247-6011","addr":"경기도 수원시 장안구 영화동 282-7번지","indutype":"사무통신 - 통신기기","category":"other"},{"name":"현대정보/LG할부","tel":"031-247-6011","addr":"경기도 수원시 장안구 영화동 282-7번지","indutype":"사무통신 - 통신기기(무이자할부)","category":"other"}]},{"lat":"37.289597385","long":"127.01383217","imageIndex":17,"items":[{"name":"(주)힐링통신","tel":"031-243-3010","addr":"경기도 수원시 장안구 영화동 282-11번지","indutype":"사무통신 - 통신기기","category":"other"},{"name":"케이공조","tel":"","addr":"경기도 수원시 장안구 영화동 282-11번지 6호 (3층)","indutype":"용역 서비스 - 기타용역서비스","category":"other"},{"name":"허니","tel":"031-245-0199","addr":"경기도 수원시 장안구 영화동 282-11번지","indutype":"신변잡화 - 신발","category":"other"}]},{"lat":"37.29078623","long":"127.01838842","imageIndex":17,"items":[{"name":"24시밧데리","tel":"031-466-4500","addr":"경기도 수원시 장안구 영화동 125-37번지","indutype":"회원제형태 - 기타3","category":"other"}]},{"lat":"37.292318696","long":"127.01119359","imageIndex":17,"items":[{"name":"DC클럽","tel":"031-255-1798","addr":"경기도 수원시 장안구 영화동 305-5번지","indutype":"유통업 영리 - 기타유통업","category":"other"}]},{"lat":"37.289651503","long":"127.01320065","imageIndex":17,"items":[{"name":"Day","tel":"031-245-7270","addr":"경기도 수원시 장안구 영화동 326-3번지 1층","indutype":"의류 - 정장","category":"other"},{"name":"북문만물사","tel":"031-254-3332","addr":"경기도 수원시 장안구 영화동 326-3번지","indutype":"전기제품 - 기타전기제품","category":"other"}]},{"lat":"37.288984735","long":"127.01331333","imageIndex":17,"items":[{"name":"FKC애견","tel":"031-258-7644","addr":"경기도 수원시 장안구 영화동 327-9번지","indutype":"문화.취미 - 애완동물","category":"other"}]},{"lat":"37.289120011","long":"127.01181349","imageIndex":17,"items":[{"name":"GS25수원북문점","tel":"","addr":"경기도 수원시 장안구 영화동 331-2번지","indutype":"유통업 영리 - 편 의 점","category":"other"}]},{"lat":"37.289597871","long":"127.00505848","imageIndex":17,"items":[{"name":"GS25영화중앙점","tel":"","addr":"경기도 수원시 장안구 영화동 405-1번지","indutype":"유통업 영리 - 편 의 점","category":"other"},{"name":"삼우종합인테리어","tel":"","addr":"경기도 수원시 장안구 영화동 405-1번지","indutype":"건축자재 - 인테리어전문","category":"other"},{"name":"청년간판","tel":"02-1644-9877","addr":"경기도 수원시 장안구 영화동 405-1번지 102호","indutype":"용역 서비스 - 종합용역","category":"other"}]},{"lat":"37.290516342","long":"127.01475705","imageIndex":17,"items":[{"name":"GS25장안거북점","tel":"02-2006-2485","addr":"경기도 수원시 장안구 영화동 164-42번지","indutype":"유통업 영리 - 편 의 점","category":"other"}]},{"lat":"37.292012412","long":"127.01022369","imageIndex":17,"items":[{"name":"GS25장안영화점","tel":"","addr":"경기도 수원시 장안구 영화동 347-2번지 1층","indutype":"유통업 영리 - 편 의 점","category":"other"},{"name":"율림관세","tel":"031-222-5573","addr":"경기도 수원시 장안구 영화동 347-2번지 대성빌딩","indutype":"용역 서비스 - 사무서비스","category":"other"}]},{"lat":"37.290066018","long":"127.01269323","imageIndex":17,"items":[{"name":"PAT수원북문","tel":"031-245-9490","addr":"경기도 수원시 장안구 영화동 311-14번지 1층","indutype":"의류 - 스포츠의류","category":"other"}]},{"lat":"37.287543526","long":"127.00539673","imageIndex":17,"items":[{"name":"PC프랜드","tel":"031-254-4119","addr":"경기도 수원시 장안구 영화동 422-43번지 1층 103호","indutype":"사무통신 - 컴퓨터","category":"other"}]},{"lat":"37.291237718","long":"127.00591561","imageIndex":17,"items":[{"name":"가구아울렛","tel":"031-252-9278","addr":"경기도 수원시 장안구 영화동 389-2번지 2층","indutype":"가구 - 일반가구","category":"other"},{"name":"김주원가구갤러리","tel":"031-246-0048","addr":"경기도 수원시 장안구 영화동 389-2번지","indutype":"가구 - 일반가구","category":"other"}]},{"lat":"37.29206545","long":"127.0200916","imageIndex":17,"items":[{"name":"가온","tel":"","addr":"경기도 수원시 장안구 영화동 115-4번지 1층","indutype":"사무통신 - 컴퓨터","category":"other"},{"name":"미주상사","tel":"","addr":"경기도 수원시 장안구 영화동 115-4번지 지하1층","indutype":"건축자재 - 인테리어전문","category":"other"}]},{"lat":"37.287597569","long":"127.00614101","imageIndex":17,"items":[{"name":"가온창호","tel":"031-269-7871","addr":"경기도 수원시 장안구 영화동 425-21번지 2층","indutype":"건축자재 - 기타건축자재","category":"other"}]},{"lat":"37.292264744","long":"127.00944555","imageIndex":17,"items":[{"name":"가움디자인","tel":"031-246-8354","addr":"경기도 수원시 장안구 영화동 448-16번지 2층 201호","indutype":"용역 서비스 - 종합용역","category":"other"}]},{"lat":"37.291038229","long":"127.02045224","imageIndex":17,"items":[{"name":"가화","tel":"031-245-4976","addr":"경기도 수원시 장안구 영화동 36-1번지","indutype":"가구 - 철제가구","category":"other"},{"name":"아트디자인","tel":"031-222-5123","addr":"경기도 수원시 장안구 영화동 36-1번지 1층","indutype":"서적문구 - 문구용품","category":"other"},{"name":"아트디자인","tel":"070-4649-1101","addr":"경기도 수원시 장안구 영화동 36-1번지 청송빌딩 1층","indutype":"건축자재 - 인테리어전문","category":"other"},{"name":"아트디자인","tel":"031-222-5123","addr":"경기도 수원시 장안구 영화동 36-1번지 1층","indutype":"레져용품 - 스포츠·레져용품","category":"other"},{"name":"장안불교","tel":"031-244-9751","addr":"경기도 수원시 장안구 영화동 36-1번지","indutype":"신변잡화 - 기념품점","category":"other"},{"name":"주아트","tel":"031-255-0220","addr":"경기도 수원시 장안구 영화동 36-1번지 청송빌딩 1층","indutype":"문화.취미 - 화방·표구점","category":"other"},{"name":"침대가구할인매장","tel":"031-251-9530","addr":"경기도 수원시 장안구 영화동 36-1번지 청송빌딩 2층","indutype":"가구 - 일반가구","category":"other"}]},{"lat":"37.291210386","long":"127.01187012","imageIndex":17,"items":[{"name":"갸니마루(GM)","tel":"031-244-9726","addr":"경기도 수원시 장안구 영화동 308-1번지 동성아울렛 1층 126호","indutype":"의류 - 정장","category":"other"},{"name":"공예공간 지니오기","tel":"031-207-8555","addr":"경기도 수원시 장안구 영화동 308-1 동성영화타운363~364호","indutype":"신변잡화 - 액세서리","category":"other"},{"name":"귀빈상사","tel":"031-258-2742","addr":"경기도 수원시 장안구 영화동 308-1번지 동성영화타운 115호","indutype":"의류 - 정장","category":"other"},{"name":"까미","tel":"031-205-8774","addr":"경기도 수원시 장안구 영화동 308-1번지 동성영화타운 107호","indutype":"의류 - 정장","category":"other"},{"name":"대한세무회계사무소","tel":"031-256-2880","addr":"경기도 수원시 장안구 영화동 308-1번지 동성영화타운 3층 304호","indutype":"용역 서비스 - 법률회계서비스(개인)","category":"other"},{"name":"돌맹이구슬공방","tel":"031-245-7161","addr":"경기도 수원시 장안구 영화동 308-1번지 동성영화타운 128호","indutype":"신변잡화 - 액세서리","category":"other"},{"name":"동성아울렛협동조합","tel":"031-255-6655","addr":"경기도 수원시 장안구 영화동 308 동성아울렛1층133호","indutype":"회원제형태 - 기타4","category":"other"},{"name":"동성종합인테리어","tel":"","addr":"경기도 수원시 장안구 영화동 308-1번지 동성영화타운 223호","indutype":"건축자재 - 인테리어전문","category":"other"},{"name":"동성프로월드컵","tel":"031-246-7457","addr":"경기도 수원시 장안구 영화동 308-1번지 동성영화타운 상가 1층 119호","indutype":"레져용품 - 스포츠·레져용품","category":"other"},{"name":"동성해피랜드","tel":"031-258-2522","addr":"경기도 수원시 장안구 영화동 308-1번지 동성아웃랫","indutype":"의류 - 아동의류","category":"other"},{"name":"디자인시드 협동조합","tel":"070-4242-0010","addr":"경기도 수원시 장안구 영화동 308-1번지 동성영화타운 3층 335호","indutype":"용역 서비스 - 사무서비스","category":"other"},{"name":"레드그린","tel":"031-256-6251","addr":"경기도 수원시 장안구 영화동 308-1번지 동성영화타운 1층 116호","indutype":"의류 - 정장","category":"other"},{"name":"모던블루","tel":"","addr":"경기도 수원시 장안구 영화동 308-1번지 동성영화타운 2층 223호","indutype":"의류 - 정장","category":"other"},{"name":"백광수맥연구소","tel":"031-245-5205","addr":"경기도 수원시 장안구 영화동 308-1번지 동성 상가 2층 202-1호","indutype":"전기제품 - 기타전기제품","category":"other"},{"name":"블룸인짱","tel":"031-245-5485","addr":"경기도 수원시 장안구 영화동 308-1번지 동성영화타운 340호","indutype":"의류 - 내의판매","category":"other"},{"name":"샤론패션","tel":"","addr":"경기도 수원시 장안구 영화동 308-1번지 동성영화타운 1층 117호","indutype":"의류 - 정장","category":"other"},{"name":"세븐","tel":"031-244-2330","addr":"경기도 수원시 장안구 영화동 308-1번지 동성영화타운 1층","indutype":"의류 - 정장","category":"other"},{"name":"수연패션","tel":"031-247-5949","addr":"경기도 수원시 장안구 영화동 308-1번지 동성영화타운 1층 127호","indutype":"의류 - 정장","category":"other"},{"name":"알파인","tel":"031-253-4284","addr":"경기도 수원시 장안구 영화동 308-1동성영화타운1층130호-1호","indutype":"레져용품 - 스포츠·레져용품","category":"other"},{"name":"앙팡란제리","tel":"031-268-3416","addr":"경기도 수원시 장안구 영화동 308-1번지 동성영화타운 124호","indutype":"의류 - 내의판매","category":"other"},{"name":"예솔RD","tel":"031-258-4950","addr":"경기도 수원시 장안구 영화동 308-1번지 동성영화타운 127호","indutype":"건축자재 - 인테리어전문","category":"other"},{"name":"오디션","tel":"031-245-0125","addr":"경기도 수원시 장안구 영화동 308-1번지 동성아울렛 136호","indutype":"의류 - 정장","category":"other"},{"name":"우리보석","tel":"031-269-0560","addr":"경기도 수원시 장안구 영화동 308-1번지 동성영화타운 132호","indutype":"신변잡화 - 귀금속","category":"other"},{"name":"우민디자인","tel":"070-4190-0327","addr":"경기도 수원시 장안구 영화동 308-1번지 동성영화타운 335호","indutype":"용역 서비스 - 사무서비스","category":"other"},{"name":"원네트컴","tel":"031-254-2283","addr":"경기도 수원시 장안구 영화동 308-1번지 동성영화타운 2층 198호","indutype":"사무통신 - 컴퓨터","category":"other"},{"name":"월드컵","tel":"031-241-5962","addr":"경기도 수원시 장안구 영화동 308-1번지 동성영화타운 129호","indutype":"신변잡화 - 신발","category":"other"},{"name":"제이제이스타일(JJStyle)","tel":"031-248-3568","addr":"경기도 수원시 장안구 영화동 308-1번지 동성아울렛 123호","indutype":"의류 - 정장","category":"other"},{"name":"중소기업할인매장","tel":"031-245-4419","addr":"경기도 수원시 장안구 영화동 308-1번지 동성영화타운 134호","indutype":"신변잡화 - 기타잡화","category":"other"},{"name":"치우공방","tel":"031-243-8170","addr":"경기도 수원시 장안구 영화동 308-1번지 동성영화타운 101동 1108호","indutype":"수리서비스 - 기타수리서비스","category":"other"},{"name":"캡스코","tel":"031-243-1119","addr":"경기도 수원시 장안구 영화동 308-1번지 동성영화타운 325호","indutype":"용역 서비스 - 종합용역","category":"other"},{"name":"하람","tel":"031-255-8238","addr":"경기도 수원시 장안구 영화동 308-1번지 동성영화타운 331호","indutype":"사무통신 - 통신기기","category":"other"}]},{"lat":"37.28923747","long":"127.00450589","imageIndex":17,"items":[{"name":"거북벽지","tel":"031-252-3330","addr":"경기도 수원시 장안구 영화동 404-18번지","indutype":"직물 - 카페트,커튼,천막,지물","category":"other"},{"name":"엘지인테리어빌","tel":"031-252-9903","addr":"경기도 수원시 장안구 영화동 404-18번지","indutype":"직물 - 카페트,커튼,천막,지물","category":"other"}]},{"lat":"37.29170569","long":"127.01481362","imageIndex":17,"items":[{"name":"거북철물","tel":"031-253-6660","addr":"경기도 수원시 장안구 영화동 161-60번지","indutype":"건축자재 - 목재·석재·철물","category":"other"}]},{"lat":"37.285705399","long":"127.00667093","imageIndex":17,"items":[{"name":"건영장식","tel":"031-256-9333","addr":"경기도 수원시 장안구 영화동 376-32번지","indutype":"직물 - 카페트,커튼,천막,지물","category":"other"},{"name":"주식회사.세계여행사","tel":"031-204-2407","addr":"경기도 수원시 장안구 영화동 376-32번지 2층","indutype":"여행 - 관광여행","category":"other"}]},{"lat":"37.290209974","long":"127.01494871","imageIndex":17,"items":[{"name":"게임플러스주식회사","tel":"031-243-3745","addr":"경기도 수원시 장안구 영화동 164-57","indutype":"전기제품 - 기타전기제품","category":"other"}]},{"lat":"37.290543957","long":"127.00447208","imageIndex":17,"items":[{"name":"경기도의사회","tel":"031-255-1397","addr":"경기도 수원시 장안구 영화동 390-11번지","indutype":"기타 - 비영리/대상","category":"other"}]},{"lat":"37.291066309","long":"127.01064086","imageIndex":17,"items":[{"name":"경기전단(G.N.AD)","tel":"031-255-1055","addr":"경기도 수원시 장안구 영화동 343-2번지","indutype":"용역 서비스 - 종합용역","category":"other"},{"name":"한진멀티미디어","tel":"031-242-8833","addr":"경기도 수원시 장안구 영화동 343-2번지 지하1층","indutype":"서적문구 - 과학기자재","category":"other"}]},{"lat":"37.286876735","long":"127.00659205","imageIndex":17,"items":[{"name":"경기푸른환경","tel":"031-247-4422","addr":"경기도 수원시 장안구 영화동 425-9번지","indutype":"용역 서비스 - 종합용역","category":"other"}]},{"lat":"37.290876721","long":"127.01506159","imageIndex":17,"items":[{"name":"경북유리","tel":"031-242-4671","addr":"경기도 수원시 장안구 영화동 164-35번지","indutype":"건축자재 - 유리","category":"other"}]},{"lat":"37.286876756","long":"127.00587033","imageIndex":17,"items":[{"name":"경성전기조명","tel":"031-251-3172","addr":"경기도 수원시 장안구 영화동 424-33번지","indutype":"건축자재 - 조명기구","category":"other"}]},{"lat":"37.289624921","long":"127.00247599","imageIndex":17,"items":[{"name":"고려상사","tel":"031-256-4561","addr":"경기도 수원시 장안구 영화동 396-20번지 한아름주택 B층 02호","indutype":"서적문구 - 과학기자재","category":"other"}]},{"lat":"37.292372405","long":"127.015231","imageIndex":17,"items":[{"name":"고려주단","tel":"031-245-7165","addr":"경기도 수원시 장안구 영화동 202-6번지","indutype":"의류 - 맞춤복점","category":"other"},{"name":"영화열쇠","tel":"031-244-0882","addr":"경기도 수원시 장안구 영화동 202-6번지","indutype":"건축자재 - 목재·석재·철물","category":"other"},{"name":"은애잡화","tel":"031-244-3055","addr":"경기도 수원시 장안구 영화동 202-6번지","indutype":"주방용구 - 주방용구","category":"other"},{"name":"제니화원","tel":"031-255-8484","addr":"경기도 수원시 장안구 영화동 202-6번지","indutype":"문화.취미 - 화원","category":"other"}]},{"lat":"37.287984978","long":"127.00716723","imageIndex":17,"items":[{"name":"고병연디자인의상실","tel":"031-251-9693","addr":"경기도 수원시 장안구 영화동 426-3번지 해가든다원","indutype":"의류 - 맞춤복점","category":"other"}]},{"lat":"37.289425685","long":"127.01836558","imageIndex":17,"items":[{"name":"고을광고","tel":"031-246-2351","addr":"경기도 수원시 장안구 영화동 37-211번지","indutype":"건축자재 - 인테리어전문","category":"other"}]},{"lat":"37.291147621","long":"127.00570134","imageIndex":17,"items":[{"name":"공구통신","tel":"031-247-4142","addr":"경기도 수원시 장안구 영화동 389-1번지","indutype":"사무통신 - 통신기기","category":"other"},{"name":"이안주방가구","tel":"031-254-6181","addr":"경기도 수원시 장안구 영화동 389-1.102.103","indutype":"주방용구 - 주방용구","category":"other"}]},{"lat":"37.28784987","long":"127.00558845","imageIndex":17,"items":[{"name":"공덕불교사","tel":"031-254-3543","addr":"경기도 수원시 장안구 영화동 421-12번지","indutype":"신변잡화 - 기념품점","category":"other"},{"name":"코디","tel":"031-217-1633","addr":"경기도 수원시 장안구 영화동 421-12번지 여울문화원 101호","indutype":"의류 - 정장","category":"other"}]},{"lat":"37.29226471","long":"127.01003199","imageIndex":17,"items":[{"name":"공연기획사","tel":"031-1588-6993","addr":"경기도 수원시 장안구 영화동 448-10번지","indutype":"용역 서비스 - 사무서비스","category":"other"}]},{"lat":"37.289787098","long":"127.00147231","imageIndex":17,"items":[{"name":"관양꽃수족관","tel":"031-257-4082","addr":"경기도 수원시 장안구 영화동 397-1번지","indutype":"문화.취미 - 화원","category":"other"}]},{"lat":"37.290318671","long":"127.00597196","imageIndex":17,"items":[{"name":"광신철물설비","tel":"031-248-0204","addr":"경기도 수원시 장안구 영화동 391-9번지","indutype":"기타 - 기계공구","category":"other"}]},{"lat":"37.291651645","long":"127.01464445","imageIndex":17,"items":[{"name":"국제전파사","tel":"031-252-4578","addr":"경기도 수원시 장안구 영화동 161-79번지","indutype":"전기제품 - 기타전기제품","category":"other"}]},{"lat":"37.289777758","long":"127.01183612","imageIndex":17,"items":[{"name":"굿아이템즈","tel":"031-232-4106","addr":"경기도 수원시 장안구 영화동 334-5번지 1-403","indutype":"회원제형태 - 기타1","category":"other"}]},{"lat":"37.291813947","long":"127.01339266","imageIndex":17,"items":[{"name":"굿어싱","tel":"","addr":"경기도 수원시 장안구 영화동 273-3번지 주민맨션 나동 404호","indutype":"직물 - 침구·수예점","category":"other"}]},{"lat":"37.290120441","long":"127.00614112","imageIndex":17,"items":[{"name":"귀뚜라미보일러","tel":"031-243-0333","addr":"경기도 수원시 장안구 영화동 405-7번지 1층 101호","indutype":"수리서비스 - 기타수리서비스","category":"other"}]},{"lat":"37.290237619","long":"127.00289325","imageIndex":17,"items":[{"name":"규수방가구가전아울렛","tel":"031-238-3380","addr":"경기도 수원시 장안구 영화동 394-2번지","indutype":"가구 - 일반가구","category":"other"},{"name":"홍대 디자인가구","tel":"031-258-3700","addr":"경기도 수원시 장안구 영화동 394-2번지","indutype":"가구 - 일반가구","category":"other"}]},{"lat":"37.292813683","long":"127.01722723","imageIndex":17,"items":[{"name":"그린유통","tel":"031-255-9652","addr":"경기도 수원시 장안구 영화동 102-6번지 1층","indutype":"회원제형태 - 기타1","category":"other"}]},{"lat":"37.289876723","long":"127.01361794","imageIndex":17,"items":[{"name":"그린조이북수원점","tel":"031-245-7080","addr":"경기도 수원시 장안구 영화동 283-3번지","indutype":"레져용품 - 스포츠·레져용품","category":"other"}]},{"lat":"37.289624499","long":"127.01289616","imageIndex":17,"items":[{"name":"근로봉사대","tel":"","addr":"경기도 수원시 장안구 영화동 326-6번지","indutype":"사무통신 - 기타 사무용품","category":"other"},{"name":"미니스톱영화북문점","tel":"031-340-4260","addr":"경기도 수원시 장안구 영화동 326-6","indutype":"유통업 영리 - 편 의 점","category":"other"}]},{"lat":"37.293570878","long":"127.01413724","imageIndex":17,"items":[{"name":"금성설비","tel":"031-254-1077","addr":"경기도 수원시 장안구 영화동 247-1번지","indutype":"용역 서비스 - 기타용역서비스","category":"other"}]},{"lat":"37.292291512","long":"127.01314462","imageIndex":17,"items":[{"name":"기타센터","tel":"031-252-3474","addr":"경기도 수원시 장안구 영화동 273-1번지","indutype":"레져용품 - 악기점","category":"other"}]},{"lat":"37.291958473","long":"127.00786667","imageIndex":17,"items":[{"name":"기회중고 에어컨","tel":"031-244-4589","addr":"경기도 수원시 장안구 영화동 450-1번지","indutype":"수리서비스 - 가정용품수리","category":"other"},{"name":"사계절","tel":"070-8918-8147","addr":"경기도 수원시 장안구 영화동 450-1번지 1층","indutype":"전기제품 - 가전제품","category":"other"},{"name":"채움씽크","tel":"031-251-5758","addr":"경기도 수원시 장안구 영화동 450-1번지","indutype":"주방용구 - 주방용구","category":"other"}]},{"lat":"37.292453859","long":"127.01105828","imageIndex":17,"items":[{"name":"김미순한지갤러리","tel":"031-258-0559","addr":"경기도 수원시 장안구 영화동 305-2번지 1층","indutype":"문화.취미 - 민예·공예품","category":"other"},{"name":"주식회사 그룹다한","tel":"031-211-7666","addr":"경기도 수원시 장안구 영화동 305-2번지 2층","indutype":"회원제형태 - 기타4","category":"other"}]},{"lat":"37.29159716","long":"127.01833219","imageIndex":17,"items":[{"name":"김성도자기","tel":"070-5701-2305","addr":"경기도 수원시 장안구 영화동 117-2번지 우측호","indutype":"문화.취미 - 민예·공예품","category":"other"},{"name":"컴퓨터SOS","tel":"031-241-1505","addr":"경기도 수원시 장안구 영화동 117-2번지","indutype":"사무통신 - 컴퓨터","category":"other"}]},{"lat":"37.287876932","long":"127.00278048","imageIndex":17,"items":[{"name":"꼬맹이놀이터","tel":"","addr":"경기도 수원시 장안구 영화동 401-10번지 1층 102호","indutype":"의류 - 아동의류","category":"other"},{"name":"하늘컴퓨터 컴퓨터수리","tel":"","addr":"경기도 수원시 장안구 영화동 401-10번지 101호","indutype":"사무통신 - 컴퓨터","category":"other"}]},{"lat":"37.292624771","long":"127.01445288","imageIndex":17,"items":[{"name":"꼬맹이인쇄","tel":"031-235-4875","addr":"경기도 수원시 장안구 영화동 292-1","indutype":"서적문구 - 출판 및 인쇄물","category":"other"}]},{"lat":"37.292183483","long":"127.01200557","imageIndex":17,"items":[{"name":"꽃예향","tel":"02-533-6711","addr":"경기도 수원시 장안구 영화동 301-7번지 1층","indutype":"문화.취미 - 화원","category":"other"}]},{"lat":"37.286182969","long":"127.00575754","imageIndex":17,"items":[{"name":"꽃향기나라","tel":"031-246-4171","addr":"경기도 수원시 장안구 영화동 376-11","indutype":"문화.취미 - 화원","category":"other"}]},{"lat":"37.287570525","long":"127.00661464","imageIndex":17,"items":[{"name":"꿀단지 영화점","tel":"031-243-5372","addr":"경기도 수원시 장안구 영화동 426-10번지 1층","indutype":"의류 - 기타의류","category":"other"}]},{"lat":"37.292038452","long":"127.01986604","imageIndex":17,"items":[{"name":"나눔종합주방","tel":"031-224-4065","addr":"경기도 수원시 장안구 영화동 116-25번지 1층","indutype":"전기제품 - 가전제품","category":"other"}]},{"lat":"37.286516354","long":"127.00550946","imageIndex":17,"items":[{"name":"나래 그리고...","tel":"031-258-7676","addr":"경기도 수원시 장안구 영화동 424-25번지 킹스빌 1층","indutype":"의류 - 정장","category":"other"}]},{"lat":"37.290092821","long":"127.01514041","imageIndex":17,"items":[{"name":"나르지오워킹화수원북문점","tel":"031-247-2735","addr":"경기도 수원시 장안구 영화동 165-23번지 1층","indutype":"레져용품 - 스포츠·레져용품","category":"other"}]},{"lat":"37.292508004","long":"127.00975007","imageIndex":17,"items":[{"name":"네오토탈인테리어","tel":"031-244-8080","addr":"경기도 수원시 장안구 영화동 448-19번지 106호","indutype":"주방용구 - 주방용구","category":"other"},{"name":"주식회사 해피트리리사이클","tel":"070-7124-3869","addr":"경기도 수원시 장안구 영화동 448-19번지","indutype":"신변잡화 - 기타잡화","category":"other"},{"name":"주식회사해피트리아울렛","tel":"070-7858-0526","addr":"경기도 수원시 장안구 영화동 448-19번지","indutype":"가구 - 일반가구","category":"other"}]},{"lat":"37.28675962","long":"127.00597182","imageIndex":17,"items":[{"name":"노래방기기전문점","tel":"031-258-3040","addr":"경기도 수원시 장안구 영화동 424-34번지","indutype":"수리서비스 - 기타수리서비스","category":"other"},{"name":"제일화학","tel":"031-252-8181","addr":"경기도 수원시 장안구 영화동 424-34번지 1층","indutype":"서적문구 - 과학기자재","category":"other"}]},{"lat":"37.291931247","long":"127.01130633","imageIndex":17,"items":[{"name":"뉴에이치(주)","tel":"031-244-0114","addr":"경기도 수원시 장안구 영화동 306-1번지 3층 KT수원지사 별관","indutype":"회원제형태 - 사무서비스","category":"other"},{"name":"유명회계사무소","tel":"031-243-5508","addr":"경기도 수원시 장안구 영화동 306-1번지 KT수원지사 별관동 2층","indutype":"용역 서비스 - 법률회계서비스(개인)","category":"other"}]},{"lat":"37.289958099","long":"127.00980623","imageIndex":17,"items":[{"name":"니드기획","tel":"031-257-2238","addr":"경기도 수원시 장안구 영화동 414-2번지","indutype":"용역 서비스 - 종합용역","category":"other"},{"name":"두성산업","tel":"031-254-1697","addr":"경기도 수원시 장안구 영화동 414-2번지","indutype":"용역 서비스 - 기타용역서비스","category":"other"}]},{"lat":"37.286318118","long":"127.00594925","imageIndex":17,"items":[{"name":"다물","tel":"031-268-6161","addr":"경기도 수원시 장안구 영화동 446-3번지 한창빌딩 1층","indutype":"용역 서비스 - 소프트웨어","category":"other"}]},{"lat":"37.286903809","long":"127.00475393","imageIndex":17,"items":[{"name":"다올인테리어","tel":"031-248-0140","addr":"경기도 수원시 장안구 영화동 424-7번지 1층","indutype":"건축자재 - 인테리어전문","category":"other"},{"name":"성문서림","tel":"031-244-7822","addr":"경기도 수원시 장안구 영화동 424-7번지","indutype":"서적문구 - 일반서적","category":"other"},{"name":"코디","tel":"070-8235-5096","addr":"경기도 수원시 장안구 영화동 424-7번지","indutype":"신변잡화 - 기념품점","category":"other"}]},{"lat":"37.289291074","long":"127.01341487","imageIndex":17,"items":[{"name":"다이소 수원북문점","tel":"031-242-5735","addr":"경기도 수원시 장안구 영화동 327-3번지 1층, 2층","indutype":"신변잡화 - 기타잡화","category":"other"},{"name":"수원팀치빈(TEAM CHIBIN)","tel":"031-243-1277","addr":"경기도 수원시 장안구 영화동 327-3번지 4층 서울당구장","indutype":"회원제형태 - 레져업소","category":"other"}]},{"lat":"37.290984366","long":"127.01905382","imageIndex":17,"items":[{"name":"달작방","tel":"031-247-8691","addr":"경기도 수원시 장안구 영화동 124-23번지","indutype":"가구 - 기타가구","category":"other"}]},{"lat":"37.292813917","long":"127.01514085","imageIndex":17,"items":[{"name":"대가리 광고","tel":"031-1600-8814","addr":"경기도 수원시 장안구 영화동 227-1번지 지하층 104호","indutype":"용역 서비스 - 종합용역","category":"other"}]},{"lat":"37.290426132","long":"127.01578327","imageIndex":17,"items":[{"name":"대금통신","tel":"031-244-9011","addr":"경기도 수원시 장안구 영화동 166-23번지","indutype":"사무통신 - 통신기기","category":"other"}]},{"lat":"37.287957995","long":"127.00550951","imageIndex":17,"items":[{"name":"대도건재","tel":"031-242-2984","addr":"경기도 수원시 장안구 영화동 421-19번지","indutype":"건축자재 - 기타건축자재","category":"other"},{"name":"도매전기조명","tel":"031-247-6999","addr":"경기도 수원시 장안구 영화동 421-19번지 1층","indutype":"건축자재 - 조명기구","category":"other"}]},{"lat":"37.291814168","long":"127.01050561","imageIndex":17,"items":[{"name":"대성","tel":"031-212-9080","addr":"경기도 수원시 장안구 영화동 346-14번지","indutype":"용역 서비스 - 기타용역서비스","category":"other"}]},{"lat":"37.290399406","long":"127.01259177","imageIndex":17,"items":[{"name":"대유상사","tel":"031-234-9500","addr":"경기도 수원시 장안구 영화동 311-8번지","indutype":"유통업 영리 - 편 의 점","category":"other"},{"name":"스타일(style)","tel":"031-8013-4600","addr":"경기도 수원시 장안구 영화동 311-8번지","indutype":"의류 - 정장","category":"other"}]},{"lat":"37.294452656","long":"127.02330636","imageIndex":17,"items":[{"name":"대일건재","tel":"031-256-3388","addr":"경기도 수원시 장안구 영화동 380-57번지","indutype":"건축자재 - 목재·석재·철물","category":"other"}]},{"lat":"37.289705961","long":"127.00644558","imageIndex":17,"items":[{"name":"대진설비","tel":"031-222-5804","addr":"경기도 수원시 장안구 영화동 406-7번지 1층","indutype":"용역 서비스 - 기타용역서비스","category":"other"}]},{"lat":"37.292759056","long":"127.02130975","imageIndex":17,"items":[{"name":"대한공조","tel":"070-7425-4545","addr":"경기도 수원시 장안구 영화동 37-89번지","indutype":"용역 서비스 - 기타용역서비스","category":"other"},{"name":"씨티커뮤니케이션","tel":"031-257-5544","addr":"경기도 수원시 장안구 영화동 37-89번지 202호","indutype":"용역 서비스 - 종합용역","category":"other"}]},{"lat":"37.291930302","long":"127.02005773","imageIndex":17,"items":[{"name":"대한씽크","tel":"031-245-9076","addr":"경기도 수원시 장안구 영화동 115-5번지","indutype":"주방용구 - 주방용구","category":"other"},{"name":"상아타이루","tel":"031-244-0334","addr":"경기도 수원시 장안구 영화동 115-5번지","indutype":"건축자재 - 건축용 요업제품","category":"other"},{"name":"온누리종합광고","tel":"031-252-8897","addr":"경기도 수원시 장안구 영화동 115-5번지","indutype":"용역 서비스 - 종합용역","category":"other"}]},{"lat":"37.288156233","long":"127.00488928","imageIndex":17,"items":[{"name":"대한케미칼","tel":"031-247-7888","addr":"경기도 수원시 장안구 영화동 422-16번지 광연빌딩 1층","indutype":"건축자재 - 페인트","category":"other"}]},{"lat":"37.291345482","long":"127.0125919","imageIndex":17,"items":[{"name":"더블유비엠(WBM)코리아","tel":"031-256-2698","addr":"경기도 수원시 장안구 영화동 298-5번지 3층","indutype":"사무통신 - 통신기기","category":"other"}]},{"lat":"37.288705865","long":"127.00444949","imageIndex":17,"items":[{"name":"덕산유기화학","tel":"031-248-5600","addr":"경기도 수원시 장안구 영화동 403-16번지","indutype":"건축자재 - 기타건축자재","category":"other"}]},{"lat":"37.289732603","long":"127.01311044","imageIndex":17,"items":[{"name":"도그아띠","tel":"","addr":"경기도 수원시 장안구 영화동 326-1번지 1층","indutype":"문화.취미 - 애완동물","category":"other"},{"name":"폼","tel":"03-111-1111","addr":"경기도 수원시 장안구 영화동 326-1번지","indutype":"의류 - 정장","category":"other"}]},{"lat":"37.28865181","long":"127.00192342","imageIndex":17,"items":[{"name":"도테라오일","tel":"031-251-5778","addr":"경기도 수원시 장안구 영화동 400-9번지 1층 좌측상가","indutype":"용역 서비스 - 종합용역","category":"other"},{"name":"사)작은행동한사랑","tel":"031-256-1331","addr":"경기도 수원시 장안구 영화동 400-9번지","indutype":"직물 - 침구·수예점","category":"other"},{"name":"영화인테리어","tel":"031-207-1616","addr":"경기도 수원시 장안구 영화동 400-9","indutype":"건축자재 - 인테리어전문","category":"other"}]},{"lat":"37.289318563","long":"127.00441567","imageIndex":17,"items":[{"name":"독스캣","tel":"031-253-0918","addr":"경기도 수원시 장안구 영화동 404-17번지 2층","indutype":"문화.취미 - 애완동물","category":"other"},{"name":"토너뱅크","tel":"031-255-8244","addr":"경기도 수원시 장안구 영화동 404-17번지","indutype":"사무통신 - 컴퓨터","category":"other"}]},{"lat":"37.291985393","long":"127.01003197","imageIndex":17,"items":[{"name":"돌아이낚시","tel":"031-246-1188","addr":"경기도 수원시 장안구 영화동 347-7번지 101호","indutype":"레져용품 - 스포츠·레져용품","category":"other"}]},{"lat":"37.292904387","long":"127.01083277","imageIndex":17,"items":[{"name":"동광보석","tel":"031-257-9592","addr":"경기도 수원시 장안구 영화동 447-1번지","indutype":"신변잡화 - 시계","category":"other"},{"name":"동진결혼정보컨설팅","tel":"031-243-8026","addr":"경기도 수원시 장안구 영화동 447-1번지 제1호건물 3층","indutype":"용역 서비스 - 혼례서비스","category":"other"},{"name":"에이스컴","tel":"031-243-4747","addr":"경기도 수원시 장안구 영화동 447-1번지 1층","indutype":"사무통신 - 컴퓨터","category":"other"},{"name":"협동조합착한결혼","tel":"031-243-8026","addr":"경기도 수원시 장안구 영화동 447-1번지 3층","indutype":"회원제형태 - 기타4","category":"other"}]},{"lat":"37.290066423","long":"127.00245343","imageIndex":17,"items":[{"name":"동서가구","tel":"031-255-4065","addr":"경기도 수원시 장안구 영화동 397-4번지","indutype":"가구 - 일반가구","category":"other"},{"name":"사운드블루","tel":"031-258-4222","addr":"경기도 수원시 장안구 영화동 397-4번지 2층","indutype":"전기제품 - 가전제품","category":"other"},{"name":"수원희망지역자활센터","tel":"031-255-3991","addr":"경기도 수원시 장안구 영화동 397-4번지 6층","indutype":"가구 - 일반가구","category":"other"},{"name":"한반도김삿갓투어(조은항공여행사)","tel":"031-242-1010","addr":"경기도 수원시 장안구 영화동 397-4번지 3층","indutype":"여행 - 관광여행","category":"other"}]},{"lat":"37.286290988","long":"127.00861056","imageIndex":17,"items":[{"name":"동양석재","tel":"031-255-0497","addr":"경기도 수원시 장안구 영화동 443-12번지","indutype":"건축자재 - 목재·석재·철물","category":"other"}]},{"lat":"37.289787047","long":"127.00664858","imageIndex":17,"items":[{"name":"동원전기조명","tel":"031-254-2300","addr":"경기도 수원시 장안구 영화동 407-24번지 1층","indutype":"건축자재 - 조명기구","category":"other"},{"name":"유성건축설비","tel":"031-247-0839","addr":"경기도 수원시 장안구 영화동 407-24번지 1층","indutype":"건축자재 - 보일러·펌프·샷시","category":"other"}]},{"lat":"37.286453264","long":"127.00623117","imageIndex":17,"items":[{"name":"동호산업주식회사","tel":"031-307-4307","addr":"경기도 수원시 장안구 영화동 446-1번지 2층 201호","indutype":"건축자재 - 인테리어전문","category":"other"}]},{"lat":"37.294345673","long":"127.01500576","imageIndex":17,"items":[{"name":"듀오백남부총판","tel":"031-244-9422","addr":"경기도 수원시 장안구 영화동 74-2 HP빌딩 1층","indutype":"가구 - 일반가구","category":"other"}]},{"lat":"37.289849567","long":"127.01491482","imageIndex":17,"items":[{"name":"디엔씨 엔터테인먼트","tel":"031-247-1469","addr":"경기도 수원시 장안구 영화동 279-39번지 3층","indutype":"용역 서비스 - 종합용역","category":"other"}]},{"lat":"37.292399204","long":"127.01728354","imageIndex":17,"items":[{"name":"디자인루트","tel":"031-247-8567","addr":"경기도 수원시 장안구 영화동 104-10번지","indutype":"용역 서비스 - 사무서비스","category":"other"}]},{"lat":"37.290345685","long":"127.00655839","imageIndex":17,"items":[{"name":"디자인신원","tel":"031-242-9001","addr":"경기도 수원시 장안구 영화동 408-23번지 103호","indutype":"용역 서비스 - 사무서비스","category":"other"},{"name":"메비오유통","tel":"031-242-3766","addr":"경기도 수원시 장안구 영화동 408-23번지 102호","indutype":"사무통신 - 기타 사무용품","category":"other"},{"name":"에스앤아이티","tel":"031-248-9400","addr":"경기도 수원시 장안구 영화동 408-23번지","indutype":"사무통신 - 컴퓨터","category":"other"}]},{"lat":"37.288156225","long":"127.00534036","imageIndex":17,"items":[{"name":"디자인써클","tel":"031-251-1619","addr":"경기도 수원시 장안구 영화동 421-25번지 1층","indutype":"용역 서비스 - 종합용역","category":"other"}]},{"lat":"37.288237288","long":"127.00647935","imageIndex":17,"items":[{"name":"디자인투이","tel":"031-255-2757","addr":"경기도 수원시 장안구 영화동 419-12번지","indutype":"용역 서비스 - 기타용역서비스","category":"other"}]},{"lat":"37.291849331","long":"127.01920062","imageIndex":17,"items":[{"name":"디지탈세진컴퓨터랜드","tel":"031-244-1110","addr":"경기도 수원시 장안구 영화동 117-3번지","indutype":"사무통신 - 컴퓨터","category":"other"},{"name":"오리진애드","tel":"031-292-7562","addr":"경기도 수원시 장안구 영화동 117-3번지 2층","indutype":"용역 서비스 - 종합용역","category":"other"}]},{"lat":"37.28570536","long":"127.00775349","imageIndex":17,"items":[{"name":"라벨라비타","tel":"031-111-1111","addr":"경기도 수원시 장안구 영화동 444-11번지 2층","indutype":"용역 서비스 - 혼례서비스","category":"other"}]},{"lat":"37.285849547","long":"127.00714456","imageIndex":17,"items":[{"name":"럭셔리","tel":"031-892-9971","addr":"경기도 수원시 장안구 영화동 444-5번지","indutype":"의류 - 정장","category":"other"}]},{"lat":"37.290570842","long":"127.00897176","imageIndex":17,"items":[{"name":"레몬비 수원영화점","tel":"02-1661-1485","addr":"경기도 수원시 장안구 영화동 410-11번지 1층","indutype":"유통업 영리 - 편 의 점","category":"other"}]},{"lat":"37.289940136","long":"127.00873488","imageIndex":17,"items":[{"name":"루나앤스튜디오(Luna&Studio)","tel":"031-000-0000","addr":"경기도 수원시 장안구 영화동 416-14번지 은행빌라 1동 2층 202호","indutype":"신변잡화 - 액세서리","category":"other"}]},{"lat":"37.290570189","long":"127.0167306","imageIndex":17,"items":[{"name":"리드 인테리어","tel":"031-258-9486","addr":"경기도 수원시 장안구 영화동 127-42번지 102호","indutype":"건축자재 - 인테리어전문","category":"other"}]},{"lat":"37.29454294","long":"127.0222237","imageIndex":17,"items":[{"name":"리베로체육복","tel":"031-253-0537","addr":"경기도 수원시 장안구 영화동 31-1번지","indutype":"의류 - 스포츠의류","category":"other"},{"name":"이마트24 수원북중점","tel":"","addr":"경기도 수원시 장안구 영화동 31-1번지 1층","indutype":"유통업 영리 - 편 의 점","category":"other"}]},{"lat":"37.290958419","long":"127.00505852","imageIndex":17,"items":[{"name":"마이펫용품할인매점","tel":"031-244-0117","addr":"경기도 수원시 장안구 영화동 390-19번지 동광빌딩","indutype":"문화.취미 - 애완동물","category":"other"}]},{"lat":"37.2905169","long":"127.00583664","imageIndex":17,"items":[{"name":"매나힐링케어","tel":"031-000-0000","addr":"경기도 수원시 장안구 영화동 391-44번지","indutype":"신변잡화 - 기타잡화","category":"other"}]},{"lat":"37.288093177","long":"127.00336688","imageIndex":17,"items":[{"name":"매직골드","tel":"031-251-6111","addr":"경기도 수원시 장안구 영화동 401-18번지","indutype":"신변잡화 - 기타잡화","category":"other"}]},{"lat":"37.288318211","long":"127.01016694","imageIndex":17,"items":[{"name":"멋쟁이","tel":"","addr":"경기도 수원시 장안구 영화동 436-7번지","indutype":"의류 - 정장","category":"other"}]},{"lat":"37.285651307","long":"127.00752795","imageIndex":17,"items":[{"name":"명도유통","tel":"031-222-1999","addr":"경기도 수원시 장안구 영화동 444-8번지 2층","indutype":"신변잡화 - 기타잡화","category":"other"}]},{"lat":"37.286624465","long":"127.00600564","imageIndex":17,"items":[{"name":"명일상사","tel":"031-256-7757","addr":"경기도 수원시 장안구 영화동 424-36번지 1층","indutype":"건축자재 - 페인트","category":"other"},{"name":"사단법인한국조리사회중앙회경기도지회","tel":"031-258-2144","addr":"경기도 수원시 장안구 영화동 424-36번지","indutype":"기타 - 비영리/대상","category":"other"}]},{"lat":"37.28978709","long":"127.00483294","imageIndex":17,"items":[{"name":"명품구제백화점코디","tel":"","addr":"경기도 수원시 장안구 영화동 391-18번지 1층","indutype":"의류 - 기타의류","category":"other"}]},{"lat":"37.292345854","long":"127.00911851","imageIndex":17,"items":[{"name":"모델라인","tel":"031-247-0447","addr":"경기도 수원시 장안구 영화동 449-1번지","indutype":"의류 - 기타의류","category":"other"}]},{"lat":"37.29175919","long":"127.01947126","imageIndex":17,"items":[{"name":"목인방","tel":"031-251-1511","addr":"경기도 수원시 장안구 영화동 116-31번지","indutype":"가구 - 기타가구","category":"other"},{"name":"인테리어쇼파공장","tel":"031-216-6469","addr":"경기도 수원시 장안구 영화동 116-31번지","indutype":"수리서비스 - 가정용품수리","category":"other"},{"name":"희성종합알뜰매장","tel":"031-257-4030","addr":"경기도 수원시 장안구 영화동 116-31번지","indutype":"신변잡화 - 기타잡화","category":"other"}]},{"lat":"37.291119986","long":"127.01517441","imageIndex":17,"items":[{"name":"몽모어(MONGMORE)","tel":"031-241-9201","addr":"경기도 수원시 장안구 영화동 161-50번지","indutype":"용역 서비스 - 사무서비스","category":"other"}]},{"lat":"37.291679179","long":"127.00725766","imageIndex":17,"items":[{"name":"무궁화커텐","tel":"031-246-7373","addr":"경기도 수원시 장안구 영화동 387-1번지","indutype":"직물 - 카페트,커튼,천막,지물","category":"other"},{"name":"페인트이마트","tel":"031-252-7047","addr":"경기도 수원시 장안구 영화동 387-1번지","indutype":"건축자재 - 페인트","category":"other"}]},{"lat":"37.291985246","long":"127.01214087","imageIndex":17,"items":[{"name":"뮤로썸 (MuLossom)","tel":"070-8747-5050","addr":"경기도 수원시 장안구 영화동 301-10번지 지하1층","indutype":"광학제품 - 사진관","category":"other"}]},{"lat":"37.293345634","long":"127.01400188","imageIndex":17,"items":[{"name":"미니스톱 영화센터점","tel":"031-1577-9621","addr":"경기도 수원시 장안구 영화동 259-5번지 2~4호","indutype":"유통업 영리 - 편 의 점","category":"other"}]},{"lat":"37.29129136","long":"127.01331365","imageIndex":17,"items":[{"name":"미니스톱수원영화점","tel":"031-251-6160","addr":"경기도 수원시 장안구 영화동 274-19번지","indutype":"유통업 영리 - 편 의 점","category":"other"}]},{"lat":"37.288904086","long":"127.00478781","imageIndex":17,"items":[{"name":"미래상사","tel":"031-244-7453","addr":"경기도 수원시 장안구 영화동 404-4번지","indutype":"건축자재 - 기타건축자재","category":"other"}]},{"lat":"37.287011931","long":"127.00483287","imageIndex":17,"items":[{"name":"미미돌","tel":"070-4800-2600","addr":"경기도 수원시 장안구 영화동 424-6번지","indutype":"의류 - 정장","category":"other"}]},{"lat":"37.292426933","long":"127.00936662","imageIndex":17,"items":[{"name":"미코","tel":"031-257-5958","addr":"경기도 수원시 장안구 영화동 448-17번지 104호","indutype":"의류 - 정장","category":"other"},{"name":"이안컴퓨터(수성로점)","tel":"031-245-4080","addr":"경기도 수원시 장안구 영화동 448-17번지","indutype":"사무통신 - 컴퓨터","category":"other"}]},{"lat":"37.289624915","long":"127.00161892","imageIndex":17,"items":[{"name":"민주유통","tel":"031-292-0888","addr":"경기도 수원시 장안구 영화동 397-9번지","indutype":"유통업 영리 - 기타유통업","category":"other"}]},{"lat":"37.29067906","long":"127.00669373","imageIndex":17,"items":[{"name":"바로설치","tel":"02-917-0071","addr":"경기도 수원시 장안구 영화동 388-14번지 1층","indutype":"전기제품 - 냉열기기","category":"other"}]},{"lat":"37.287732734","long":"127.00570121","imageIndex":17,"items":[{"name":"바울천막사","tel":"031-254-2888","addr":"경기도 수원시 장안구 영화동 421-27번지","indutype":"문화.취미 - 민예·공예품","category":"other"}]},{"lat":"37.289516401","long":"127.01259166","imageIndex":17,"items":[{"name":"바이더웨이","tel":"031-248-233","addr":"경기도 수원시 장안구 영화동 332-1번지","indutype":"유통업 영리 - 편 의 점","category":"other"}]},{"lat":"37.29475906","long":"127.02297938","imageIndex":17,"items":[{"name":"바이크스페이스MTB","tel":"031-892-7457","addr":"경기도 수원시 장안구 영화동 27-16번지 1층","indutype":"레져용품 - 스포츠·레져용품","category":"other"}]},{"lat":"37.287985036","long":"127.00503588","imageIndex":17,"items":[{"name":"밧데리할인매장","tel":"031-248-6165","addr":"경기도 수원시 장안구 영화동 422-18번지","indutype":"전기제품 - 기타전기제품","category":"other"},{"name":"북문MTB","tel":"031-246-4988","addr":"경기도 수원시 장안구 영화동 422-18번지 1층","indutype":"레져용품 - 스포츠·레져용품","category":"other"}]},{"lat":"37.289093316","long":"127.00261132","imageIndex":17,"items":[{"name":"방주상사","tel":"031-244-9542","addr":"경기도 수원시 장안구 영화동 396-11번지","indutype":"건축자재 - 페인트","category":"other"}]},{"lat":"37.288705462","long":"127.01278327","imageIndex":17,"items":[{"name":"버스매표소","tel":"031-257-8390","addr":"경기도 수원시 장안구 영화동 328-3번지","indutype":"신변잡화 - 기타잡화","category":"other"}]},{"lat":"37.290732312","long":"127.01724939","imageIndex":17,"items":[{"name":"변군샵","tel":"031-252-1597","addr":"경기도 수원시 장안구 영화동 127-36번지","indutype":"회원제형태 - 기타4","category":"other"}]},{"lat":"37.290372317","long":"127.01327969","imageIndex":17,"items":[{"name":"보디가드수원북문(신)","tel":"031-246-5283","addr":"경기도 수원시 장안구 영화동 284-3번지","indutype":"의류 - 내의판매","category":"other"}]},{"lat":"37.287516482","long":"127.0059493","imageIndex":17,"items":[{"name":"보물창고(직권등록)","tel":"","addr":"경기도 수원시 장안구 영화동 425-2번지 대신빌딩 1층","indutype":"가구 - 일반가구","category":"other"},{"name":"세무사김영철사무소","tel":"031-254-3541","addr":"경기도 수원시 장안구 영화동 425-2번지 영진빌딩 2층","indutype":"용역 서비스 - 법률회계서비스(개인)","category":"other"}]},{"lat":"37.286209991","long":"127.00608456","imageIndex":17,"items":[{"name":"복음사","tel":"031-244-9115","addr":"경기도 수원시 장안구 영화동 446-4번지 2층","indutype":"용역 서비스 - 사무서비스","category":"other"},{"name":"셀프웨딩스튜디오","tel":"070-7420-2423","addr":"경기도 수원시 장안구 영화동 446-4번지","indutype":"광학제품 - 사진관","category":"other"},{"name":"케이펀투어닷컴","tel":"0505-300-9789","addr":"경기도 수원시 장안구 영화동 446-4번지 2층","indutype":"여행 - 관광여행","category":"other"}]},{"lat":"37.287065899","long":"127.00797911","imageIndex":17,"items":[{"name":"봉쓰핸드메이드","tel":"","addr":"경기도 수원시 장안구 영화동 441-15번지 201호","indutype":"문화.취미 - 문화취미기타","category":"other"}]},{"lat":"37.293318789","long":"127.01181398","imageIndex":17,"items":[{"name":"부성천막","tel":"031-253-8804","addr":"경기도 수원시 장안구 영화동 271-22번지","indutype":"직물 - 카페트,커튼,천막,지물","category":"other"}]},{"lat":"37.290291275","long":"127.01269326","imageIndex":17,"items":[{"name":"북문DC백화점","tel":"031-255-7335","addr":"경기도 수원시 장안구 영화동 311-11번지 1층","indutype":"신변잡화 - 기타잡화","category":"other"}]},{"lat":"37.292066343","long":"127.0120845","imageIndex":17,"items":[{"name":"북문디자인","tel":"031-244-1441","addr":"경기도 수원시 장안구 영화동 301-8번지","indutype":"서적문구 - 출판 및 인쇄물","category":"other"},{"name":"북문인쇄복사편의점","tel":"031-247-5491","addr":"경기도 수원시 장안구 영화동 301-8번지","indutype":"서적문구 - 출판 및 인쇄물","category":"other"},{"name":"웰빙하우스","tel":"031-251-2757","addr":"경기도 수원시 장안구 영화동 301-8번지","indutype":"신변잡화 - 기타잡화","category":"other"},{"name":"태양공인중개사사무소","tel":"031-248-8545","addr":"경기도 수원시 장안구 영화동 301-8번지 1층","indutype":"용역 서비스 - 부동산 중개·임대","category":"other"}]},{"lat":"37.288209969","long":"127.01189232","imageIndex":17,"items":[{"name":"북문충전소세차장/삼원FA(담배)","tel":"","addr":"경기도 수원시 장안구 영화동 365-1번지","indutype":"기타 - 기타 전문점","category":"other"}]},{"lat":"37.28881399","long":"127.00433672","imageIndex":17,"items":[{"name":"북수원종합알뜰매장","tel":"031-252-5354","addr":"경기도 수원시 장안구 영화동 403-11번지","indutype":"전기제품 - 가전제품","category":"other"}]},{"lat":"37.290372371","long":"127.01264816","imageIndex":17,"items":[{"name":"북수원칼라","tel":"031-243-6786","addr":"경기도 수원시 장안구 영화동 311-10번지","indutype":"광학제품 - 사진관","category":"other"}]},{"lat":"37.289732869","long":"127.00933256","imageIndex":17,"items":[{"name":"블루&D","tel":"031-246-8666","addr":"경기도 수원시 장안구 영화동 415-5번지 B동1층상가","indutype":"서적문구 - 출판 및 인쇄물","category":"other"},{"name":"한진","tel":"031-256-6107","addr":"경기도 수원시 장안구 영화동 415-5","indutype":"용역 서비스 - 기타용역서비스","category":"other"}]},{"lat":"37.290488745","long":"127.01947098","imageIndex":17,"items":[{"name":"비에스솔루션","tel":"","addr":"경기도 수원시 장안구 영화동 37-128번지 1층 중간문가게","indutype":"사무통신 - 컴퓨터","category":"other"}]},{"lat":"37.291598003","long":"127.00911845","imageIndex":17,"items":[{"name":"빈티지챈스","tel":"031-246-0640","addr":"경기도 수원시 장안구 영화동 351-2번지","indutype":"의류 - 정장","category":"other"}]},{"lat":"37.288786962","long":"127.00167532","imageIndex":17,"items":[{"name":"뿔라","tel":"031-242-4078","addr":"경기도 수원시 장안구 영화동 400-6번지","indutype":"의류 - 정장","category":"other"}]},{"lat":"37.286155925","long":"127.00623116","imageIndex":17,"items":[{"name":"사단법인 전통굿연구진흥회","tel":"070-4079-4239","addr":"경기도 수원시 장안구 영화동 446-5번지","indutype":"기타 - 비영리/대상","category":"other"},{"name":"사단법인대한불교대각종연화정사","tel":"070-4079-4239","addr":"경기도 수원시 장안구 영화동 446-5번지 연화정사 2동 2층","indutype":"기타 - 비영리/대상","category":"other"}]},{"lat":"37.287985006","long":"127.00628762","imageIndex":17,"items":[{"name":"사랑하우징","tel":"031-247-1080","addr":"경기도 수원시 장안구 영화동 419-8번지 1층","indutype":"건축자재 - 인테리어전문","category":"other"},{"name":"세븐일레븐수원수성로점","tel":"","addr":"경기도 수원시 장안구 영화동 419-8번지 어울문화원 101호","indutype":"유통업 영리 - 편 의 점","category":"other"}]},{"lat":"37.29093071","long":"127.01574952","imageIndex":17,"items":[{"name":"산토리니","tel":"031-244-2829","addr":"경기도 수원시 장안구 영화동 166-8번지 1층","indutype":"의류 - 정장","category":"other"}]},{"lat":"37.293416607","long":"127.02253919","imageIndex":17,"items":[{"name":"삼부종합공사","tel":"031-256-3993","addr":"경기도 수원시 장안구 영화동 37-411번지 패밀리빌 B동 301호","indutype":"용역 서비스 - 기타용역서비스","category":"other"}]},{"lat":"37.290147516","long":"127.00331051","imageIndex":17,"items":[{"name":"삼성산업","tel":"031-248-7797","addr":"경기도 수원시 장안구 영화동 394-5번지 녹원빌딩 1층","indutype":"가구 - 기타가구","category":"other"}]},{"lat":"37.292426406","long":"127.01580617","imageIndex":17,"items":[{"name":"삼양장식","tel":"031-253-8061","addr":"경기도 수원시 장안구 영화동 207-2번지","indutype":"직물 - 카페트,커튼,천막,지물","category":"other"},{"name":"원진광고","tel":"031-253-5183","addr":"경기도 수원시 장안구 영화동 207-2번지","indutype":"건축자재 - 인테리어전문","category":"other"}]},{"lat":"37.292516216","long":"127.01825344","imageIndex":17,"items":[{"name":"상우실업","tel":"031-243-9014","addr":"경기도 수원시 장안구 영화동 104-28번지 삼양빌딩","indutype":"수리서비스 - 세탁소","category":"other"}]},{"lat":"37.290210575","long":"127.00467507","imageIndex":17,"items":[{"name":"새눈(New Eye)기획","tel":"031-246-7115","addr":"경기도 수원시 장안구 영화동 391-13번지","indutype":"용역 서비스 - 종합용역","category":"other"}]},{"lat":"37.287065998","long":"127.00444946","imageIndex":17,"items":[{"name":"새로나","tel":"031-242-8165","addr":"경기도 수원시 장안구 영화동 423-8번지","indutype":"서적문구 - 문구용품","category":"other"}]},{"lat":"37.285759441","long":"127.00725732","imageIndex":17,"items":[{"name":"새한전기철물","tel":"031-255-8849","addr":"경기도 수원시 장안구 영화동 444-6번지","indutype":"건축자재 - 목재·석재·철물","category":"other"},{"name":"청룡앤레온짐","tel":"031-251-0416","addr":"경기도 수원시 장안구 영화동 444-6번지 2층","indutype":"회원제형태 - 레져업소","category":"other"}]},{"lat":"37.290597693","long":"127.01181366","imageIndex":17,"items":[{"name":"샤론의꽃","tel":"031-258-4044","addr":"경기도 수원시 장안구 영화동 340-2번지","indutype":"문화.취미 - 화원","category":"other"}]},{"lat":"37.290931332","long":"127.00714484","imageIndex":17,"items":[{"name":"샤인유리","tel":"031-252-5475","addr":"경기도 수원시 장안구 영화동 388-23번지","indutype":"건축자재 - 유리","category":"other"}]},{"lat":"37.288264349","long":"127.00525015","imageIndex":17,"items":[{"name":"서경사회적협동조합","tel":"031-247-8879","addr":"경기도 수원시 장안구 영화동 421-11번지 송림빌딩","indutype":"용역 서비스 - 종합용역","category":"other"}]},{"lat":"37.292516635","long":"127.01458819","imageIndex":17,"items":[{"name":"서광건축설비공사","tel":"031-253-2803","addr":"경기도 수원시 장안구 영화동 292-32번지","indutype":"건축자재 - 보일러·펌프·샷시","category":"other"}]},{"lat":"37.291570753","long":"127.01242276","imageIndex":17,"items":[{"name":"서문공조(주)","tel":"031-248-5455","addr":"경기도 수원시 장안구 영화동 298-8번지","indutype":"전기제품 - 냉열기기","category":"other"},{"name":"서문공조(주)","tel":"031-248-5455","addr":"경기도 수원시 장안구 영화동 298-8번지","indutype":"전기제품 - 냉열기기","category":"other"}]},{"lat":"37.287092993","long":"127.00619737","imageIndex":17,"items":[{"name":"서문사","tel":"031-245-0857","addr":"경기도 수원시 장안구 영화동 425-11번지","indutype":"기타 - 기계공구","category":"other"}]},{"lat":"37.287489467","long":"127.00528396","imageIndex":17,"items":[{"name":"서문열쇠","tel":"031-000-0000","addr":"경기도 수원시 장안구 영화동 422-42번지 1층","indutype":"건축자재 - 목재·석재·철물","category":"other"},{"name":"야구광의시","tel":"031-278-7885","addr":"경기도 수원시 장안구 영화동 422-42번지 1층","indutype":"레져용품 - 스포츠·레져용품","category":"other"}]},{"lat":"37.292543458","long":"127.01652796","imageIndex":17,"items":[{"name":"설비119","tel":"070-7758-4925","addr":"경기도 수원시 장안구 영화동 191-24번지","indutype":"용역 서비스 - 기타용역서비스","category":"other"}]},{"lat":"37.291065839","long":"127.0159751","imageIndex":17,"items":[{"name":"성신유리","tel":"031-251-4408","addr":"경기도 수원시 장안구 영화동 168-10번지","indutype":"건축자재 - 유리","category":"other"}]},{"lat":"37.286426248","long":"127.00566733","imageIndex":17,"items":[{"name":"성원인테리어","tel":"","addr":"경기도 수원시 장안구 영화동 424-26번지","indutype":"건축자재 - 인테리어전문","category":"other"},{"name":"연우맘의 요술상자","tel":"031-253-7395","addr":"경기도 수원시 장안구 영화동 424-26번지 1층","indutype":"의류 - 정장","category":"other"}]},{"lat":"37.292345677","long":"127.01187026","imageIndex":17,"items":[{"name":"세무사전구식사무소","tel":"031-258-9701","addr":"경기도 수원시 장안구 영화동 301-6번지 장안메디센터 2층 202호","indutype":"용역 서비스 - 법률회계서비스(개인)","category":"other"},{"name":"세현세무회계사무소","tel":"031-253-0008","addr":"경기도 수원시 장안구 영화동 301-6번지 장안메디센터 304호","indutype":"용역 서비스 - 법률회계서비스(개인)","category":"other"},{"name":"에스유(SU)텔레콤","tel":"031-244-8488","addr":"경기도 수원시 장안구 영화동 301-6번지 103,104호","indutype":"사무통신 - 통신기기","category":"other"}]},{"lat":"37.291345589","long":"127.01119349","imageIndex":17,"items":[{"name":"세븐일레븐수원영화점","tel":"","addr":"경기도 수원시 장안구 영화동 342-11번지 태평정숯불갈비 (1층)","indutype":"유통업 영리 - 편 의 점","category":"other"}]},{"lat":"37.28901222","long":"127.00384053","imageIndex":17,"items":[{"name":"세븐일레븐수원장안로점","tel":"031-1577-0711","addr":"경기도 수원시 장안구 영화동 403-1번지 1층","indutype":"유통업 영리 - 편 의 점","category":"other"}]},{"lat":"37.290876066","long":"127.0203056","imageIndex":17,"items":[{"name":"세븐일레븐수원천로점","tel":"","addr":"경기도 수원시 장안구 영화동 37-264번지 1층","indutype":"유통업 영리 - 편 의 점","category":"other"}]},{"lat":"37.288877071","long":"127.0029158","imageIndex":17,"items":[{"name":"세원애드","tel":"031-247-0757","addr":"경기도 수원시 장안구 영화동 396-58번지 101호","indutype":"직물 - 기타직물","category":"other"}]},{"lat":"37.291183266","long":"127.01297531","imageIndex":17,"items":[{"name":"세잎클로버","tel":"070-8876-7070","addr":"경기도 수원시 장안구 영화동 297-5번지 D동","indutype":"사무통신 - 통신기기","category":"other"},{"name":"한도체육사","tel":"031-255-6378","addr":"경기도 수원시 장안구 영화동 297-5번지 2층","indutype":"레져용품 - 스포츠·레져용품","category":"other"}]},{"lat":"37.289489157","long":"127.01491477","imageIndex":17,"items":[{"name":"송월타올상사","tel":"031-255-7718","addr":"경기도 수원시 장안구 영화동 140-7번지","indutype":"직물 - 옷감·직물","category":"other"}]},{"lat":"37.28973204","long":"127.01830926","imageIndex":17,"items":[{"name":"수원CCTV테크","tel":"031-223-2243","addr":"경기도 수원시 장안구 영화동 124-82번지 1층 코너","indutype":"전기제품 - 기타전기제품","category":"other"}]},{"lat":"37.292290902","long":"127.01869322","imageIndex":17,"items":[{"name":"수원라이온스클럽","tel":"031-255-0081","addr":"경기도 수원시 장안구 영화동 106-3번지","indutype":"기타 - 비영리/대상","category":"other"},{"name":"싸인뱅크","tel":"031-241-9127","addr":"경기도 수원시 장안구 영화동 106-3번지 2층","indutype":"용역 서비스 - 종합용역","category":"other"}]},{"lat":"37.289012211","long":"127.00467504","imageIndex":17,"items":[{"name":"수원목재","tel":"031-248-0334","addr":"경기도 수원시 장안구 영화동 404-7번지","indutype":"건축자재 - 기타건축자재","category":"other"}]},{"lat":"37.293093559","long":"127.01145307","imageIndex":17,"items":[{"name":"수원북문우체국","tel":"031-247-2005","addr":"경기도 수원시 장안구 영화동 300-14번지","indutype":"용역 서비스 - 공공요금대행서비스/소","category":"other"}]},{"lat":"37.292623955","long":"127.02097138","imageIndex":17,"items":[{"name":"수원사이언스","tel":"031-000-0000","addr":"경기도 수원시 장안구 영화동 34-7번지 현대하트웰 104동 202호","indutype":"문화.취미 - 애완동물","category":"other"}]},{"lat":"37.286011751","long":"127.00655818","imageIndex":17,"items":[{"name":"수원지물","tel":"031-242-6505","addr":"경기도 수원시 장안구 영화동 446-7번지","indutype":"직물 - 카페트,커튼,천막,지물","category":"other"},{"name":"에스엔비텔레콤","tel":"031-291-8868","addr":"경기도 수원시 장안구 영화동 446-7번지 2동 1층 101호","indutype":"사무통신 - 통신기기","category":"other"},{"name":"키맨열쇠","tel":"031-258-1382","addr":"경기도 수원시 장안구 영화동 446-7번지 106호","indutype":"건축자재 - 목재·석재·철물","category":"other"}]},{"lat":"37.291570147","long":"127.01819686","imageIndex":17,"items":[{"name":"수입상품점","tel":"031-256-1357","addr":"경기도 수원시 장안구 영화동 117-14번지 1층","indutype":"의류 - 정장","category":"other"}]},{"lat":"37.292093062","long":"127.01547906","imageIndex":17,"items":[{"name":"수정건재","tel":"031-253-0802","addr":"경기도 수원시 장안구 영화동 194-2번지","indutype":"건축자재 - 기타건축자재","category":"other"}]},{"lat":"37.290038762","long":"127.01511784","imageIndex":17,"items":[{"name":"스마트(곽영선)","tel":"070-8969-9699","addr":"경기도 수원시 장안구 영화동 165-3번지","indutype":"회원제형태 - 레져업소","category":"other"},{"name":"제이플라워","tel":"031-248-2820","addr":"경기도 수원시 장안구 영화동 165-3번지","indutype":"문화.취미 - 화원","category":"other"}]},{"lat":"37.289156199","long":"127.00959189","imageIndex":17,"items":[{"name":"스타일앤슈즈","tel":"","addr":"경기도 수원시 장안구 영화동 431-26번지","indutype":"의류 - 정장","category":"other"}]},{"lat":"37.28667854","long":"127.00545308","imageIndex":17,"items":[{"name":"스튜디오 추억을 담는 집","tel":"031-241-6711","addr":"경기도 수원시 장안구 영화동 424-22,424-23,101호","indutype":"광학제품 - 사진관","category":"other"},{"name":"팔달건설기계","tel":"","addr":"경기도 수원시 장안구 영화동 424-22번지 102호","indutype":"기타 - 기계공구","category":"other"}]},{"lat":"37.29218264","long":"127.01969691","imageIndex":17,"items":[{"name":"시스템공조(SYSTEM)","tel":"031-217-9955","addr":"경기도 수원시 장안구 영화동 116-28번지","indutype":"전기제품 - 가전제품","category":"other"}]},{"lat":"37.292876358","long":"127.02019328","imageIndex":17,"items":[{"name":"신세대문구","tel":"031-254-0530","addr":"경기도 수원시 장안구 영화동 114-18번지","indutype":"서적문구 - 문구용품","category":"other"}]},{"lat":"37.287678598","long":"127.00794532","imageIndex":17,"items":[{"name":"신앙촌상회","tel":"031-255-9671","addr":"경기도 수원시 장안구 영화동 427-21번지","indutype":"신변잡화 - 기타잡화","category":"other"}]},{"lat":"37.292570635","long":"127.0151972","imageIndex":17,"items":[{"name":"신한","tel":"031-248-1815","addr":"경기도 수원시 장안구 영화동 202-4번지","indutype":"직물 - 카페트,커튼,천막,지물","category":"other"}]},{"lat":"37.291679145","long":"127.0080922","imageIndex":17,"items":[{"name":"신화상사","tel":"031-252-6362","addr":"경기도 수원시 장안구 영화동 450-4번지 101호","indutype":"건축자재 - 인테리어전문","category":"other"},{"name":"주식회사 현진전기","tel":"031-246-2849","addr":"경기도 수원시 장안구 영화동 450-4번지 101호","indutype":"용역 서비스 - 기타용역서비스","category":"other"}]},{"lat":"37.28931762","long":"127.01791447","imageIndex":17,"items":[{"name":"실버필","tel":"031-252-3716","addr":"경기도 수원시 장안구 영화동 134-9번지 1층 102호","indutype":"사무통신 - 통신기기","category":"other"}]},{"lat":"37.29029118","long":"127.01377588","imageIndex":17,"items":[{"name":"썬마트북문점","tel":"031-245-8357","addr":"경기도 수원시 장안구 영화동 284-1번지","indutype":"유통업 영리 - 편 의 점","category":"other"},{"name":"씨유수원장안문점","tel":"031-898-6568","addr":"경기도 수원시 장안구 영화동 284-1번지","indutype":"유통업 영리 - 편 의 점","category":"other"}]},{"lat":"37.289985293","long":"127.00591556","imageIndex":17,"items":[{"name":"썬블락","tel":"031-246-0821","addr":"경기도 수원시 장안구 영화동 405-13번지 1층","indutype":"용역 서비스 - 종합용역","category":"other"}]},{"lat":"37.293624796","long":"127.01555826","imageIndex":17,"items":[{"name":"씨유수원영화중앙점","tel":"080-080-3663","addr":"경기도 수원시 장안구 영화동 215번지 리베라빌 1층","indutype":"유통업 영리 - 편 의 점","category":"other"}]},{"lat":"37.290516568","long":"127.01223091","imageIndex":17,"items":[{"name":"씨유수원장안점","tel":"031-268-0446","addr":"경기도 수원시 장안구 영화동 311-4번지 1층","indutype":"유통업 영리 - 편 의 점","category":"other"}]},{"lat":"37.287651555","long":"127.00822724","imageIndex":17,"items":[{"name":"씨유영화스카이점","tel":"031-244-1161","addr":"경기도 수원시 장안구 영화동 428-6번지 1층","indutype":"유통업 영리 - 편 의 점","category":"other"}]},{"lat":"37.292904342","long":"127.0114756","imageIndex":17,"items":[{"name":"아르페지오","tel":"031-241-0018","addr":"경기도 수원시 장안구 영화동 300-22번지 1층","indutype":"직물 - 침구·수예점","category":"other"}]},{"lat":"37.289209523","long":"127.01770018","imageIndex":17,"items":[{"name":"아마죤","tel":"031-248-7077","addr":"경기도 수원시 장안구 영화동 134-10번지 화홍빌 1층","indutype":"용역 서비스 - 종합용역","category":"other"}]},{"lat":"37.292570062","long":"127.01983232","imageIndex":17,"items":[{"name":"아산양행","tel":"031-247-5211","addr":"경기도 수원시 장안구 영화동 114-21번지 상가 1층","indutype":"사무통신 - 사무용 OA기기","category":"other"}]},{"lat":"37.291237052","long":"127.01580596","imageIndex":17,"items":[{"name":"아시아전자","tel":"031-255-6353","addr":"경기도 수원시 장안구 영화동 178-1번지 (영화동1층)","indutype":"건축자재 - 조명기구","category":"other"}]},{"lat":"37.290985398","long":"127.00703207","imageIndex":17,"items":[{"name":"아이원텍","tel":"031-242-1196","addr":"경기도 수원시 장안구 영화동 388-25번지 202호","indutype":"전기제품 - 가전제품","category":"other"}]},{"lat":"37.286957822","long":"127.00678376","imageIndex":17,"items":[{"name":"알파산업(주)","tel":"031-252-8183","addr":"경기도 수원시 장안구 영화동 425-18번지","indutype":"기타 - 기타 전문점","category":"other"}]},{"lat":"37.289958299","long":"127.00214895","imageIndex":17,"items":[{"name":"액자마을","tel":"031-251-7457","addr":"경기도 수원시 장안구 영화동 397-3번지","indutype":"문화.취미 - 화방·표구점","category":"other"}]},{"lat":"37.290066179","long":"127.01050543","imageIndex":17,"items":[{"name":"앰디존(MD ZONE)","tel":"031-251-0010","addr":"경기도 수원시 장안구 영화동 356-1번지 북문프라자 208호","indutype":"전기제품 - 가전제품","category":"other"},{"name":"청송애드주식회사","tel":"031-243-5455","addr":"경기도 수원시 장안구 영화동 356-1번지","indutype":"용역 서비스 - 종합용역","category":"other"}]},{"lat":"37.290651649","long":"127.01311057","imageIndex":17,"items":[{"name":"에드윈수원북문점","tel":"031-247-1639","addr":"경기도 수원시 장안구 영화동 285-2번지","indutype":"의류 - 스포츠의류","category":"other"},{"name":"주식회사 수빈어패럴","tel":"031-255-2210","addr":"경기도 수원시 장안구 영화동 285-2번지 1층","indutype":"레져용품 - 스포츠·레져용품","category":"other"}]},{"lat":"37.294317746","long":"127.02184019","imageIndex":17,"items":[{"name":"에버그린","tel":"","addr":"경기도 수원시 장안구 영화동 47-4번지","indutype":"문화.취미 - 화원","category":"other"}]},{"lat":"37.288624754","long":"127.00550953","imageIndex":17,"items":[{"name":"에브리마트","tel":"031-269-3921","addr":"경기도 수원시 장안구 영화동 421-1번지 1층","indutype":"유통업 영리 - 편 의 점","category":"other"}]},{"lat":"37.288678811","long":"127.0057238","imageIndex":17,"items":[{"name":"에스엠에스정보","tel":"031-255-1230","addr":"경기도 수원시 장안구 영화동 420-23번지 1층 102호","indutype":"전기제품 - 기타전기제품","category":"other"}]},{"lat":"37.294174521","long":"127.01458845","imageIndex":17,"items":[{"name":"에어콘랜드","tel":"031-258-9270","addr":"경기도 수원시 장안구 영화동 76-1번지","indutype":"수리서비스 - 기타수리서비스","category":"other"}]},{"lat":"37.29482217","long":"127.02275384","imageIndex":17,"items":[{"name":"에이스데코","tel":"031-207-7774","addr":"경기도 수원시 장안구 영화동 27-3번지","indutype":"건축자재 - 인테리어전문","category":"other"}]},{"lat":"37.289651952","long":"127.00287069","imageIndex":17,"items":[{"name":"에이스유통","tel":"","addr":"경기도 수원시 장안구 영화동 396-34번지","indutype":"신변잡화 - 기타잡화","category":"other"},{"name":"에이스유통","tel":"","addr":"경기도 수원시 장안구 영화동 396-34번지","indutype":"신변잡화 - 기타잡화","category":"other"}]},{"lat":"37.292733146","long":"127.01149814","imageIndex":17,"items":[{"name":"에코플라자","tel":"031-252-3127","addr":"경기도 수원시 장안구 영화동 301-2번지 1층","indutype":"주방용구 - 주방용구","category":"other"},{"name":"폼2","tel":"","addr":"경기도 수원시 장안구 영화동 301-2번지 1층","indutype":"신변잡화 - 가방","category":"other"}]},{"lat":"37.29021012","long":"127.013415","imageIndex":17,"items":[{"name":"엘지디지탈통신","tel":"031-243-9600","addr":"경기도 수원시 장안구 영화동 284-5번지","indutype":"사무통신 - 통신기기","category":"other"}]},{"lat":"37.292758973","long":"127.0218398","imageIndex":17,"items":[{"name":"연경사","tel":"031-246-2776","addr":"경기도 수원시 장안구 영화동 37-104번지","indutype":"회원제형태 - 기타4","category":"other"}]},{"lat":"37.289543827","long":"127.00361499","imageIndex":17,"items":[{"name":"영광산업","tel":"031-241-4200","addr":"경기도 수원시 장안구 영화동 395-5","indutype":"건축자재 - 기타건축자재","category":"other"}]},{"lat":"37.286786622","long":"127.00691907","imageIndex":17,"items":[{"name":"영남세탁소","tel":"031-257-9496","addr":"경기도 수원시 장안구 영화동 445-2번지","indutype":"수리서비스 - 세탁소","category":"other"}]},{"lat":"37.291011264","long":"127.02000114","imageIndex":17,"items":[{"name":"영화 종합 인테리어","tel":"031-241-6262","addr":"경기도 수원시 장안구 영화동 38-3번지 외2필지","indutype":"건축자재 - 인테리어전문","category":"other"}]},{"lat":"37.29239972","long":"127.01211837","imageIndex":17,"items":[{"name":"영화목공예사","tel":"031-247-0146","addr":"경기도 수원시 장안구 영화동 300-4번지","indutype":"문화.취미 - 민예·공예품","category":"other"}]},{"lat":"37.28806612","long":"127.0054193","imageIndex":17,"items":[{"name":"영화보석","tel":"031-247-9942","addr":"경기도 수원시 장안구 영화동 421-16번지","indutype":"신변잡화 - 귀금속","category":"other"}]},{"lat":"37.291516521","long":"127.01433993","imageIndex":17,"items":[{"name":"영화수입코너","tel":"031-251-6207","addr":"경기도 수원시 장안구 영화동 292-37번지","indutype":"신변잡화 - 기타잡화","category":"other"}]},{"lat":"37.287732583","long":"127.00950155","imageIndex":17,"items":[{"name":"영화인테리어","tel":"031-248-9100","addr":"경기도 수원시 장안구 영화동 440-18번지 삼성빌 101호","indutype":"건축자재 - 인테리어전문","category":"other"}]},{"lat":"37.292706202","long":"127.0102012","imageIndex":17,"items":[{"name":"예명광고사","tel":"031-251-2458","addr":"경기도 수원시 장안구 영화동 448-1","indutype":"건축자재 - 인테리어전문","category":"other"}]},{"lat":"37.287759745","long":"127.00644549","imageIndex":17,"items":[{"name":"예우통신","tel":"031-257-8950","addr":"경기도 수원시 장안구 영화동 426-8번지 1층","indutype":"사무통신 - 통신기기","category":"other"}]},{"lat":"37.287849866","long":"127.00578015","imageIndex":17,"items":[{"name":"오더바이크(ORDER BIKE)","tel":"031-256-5609","addr":"경기도 수원시 장안구 영화동 421-28번지 1층","indutype":"의류 - 기타의류","category":"other"}]},{"lat":"37.293543645","long":"127.0160883","imageIndex":17,"items":[{"name":"오션","tel":"031-243-3008","addr":"경기도 수원시 장안구 영화동 212-15번지 명성에이스빌 3동 401호","indutype":"주방용구 - 정수기","category":"other"}]},{"lat":"37.291399837","long":"127.00786663","imageIndex":17,"items":[{"name":"오에이테크","tel":"031-252-0411","addr":"경기도 수원시 장안구 영화동 450-10번지 1층","indutype":"사무통신 - 사무용 OA기기","category":"other"}]},{"lat":"37.289264505","long":"127.00167531","imageIndex":17,"items":[{"name":"우람종합설비","tel":"031-245-9355","addr":"경기도 수원시 장안구 영화동 400-36번지","indutype":"건축자재 - 기타건축자재","category":"other"}]},{"lat":"37.289903815","long":"127.01291875","imageIndex":17,"items":[{"name":"우리인포텍","tel":"031-251-3480","addr":"경기도 수원시 장안구 영화동 325-3번지 신일빌딩 3층","indutype":"용역 서비스 - 소프트웨어","category":"other"}]},{"lat":"37.291038976","long":"127.01436242","imageIndex":17,"items":[{"name":"우주디자인","tel":"031-253-1335","addr":"경기도 수원시 장안구 영화동 161-7번지","indutype":"용역 서비스 - 종합용역","category":"other"}]},{"lat":"37.290543253","long":"127.01589606","imageIndex":17,"items":[{"name":"우주통신","tel":"031-246-3000","addr":"경기도 수원시 장안구 영화동 166-24번지","indutype":"사무통신 - 통신기기","category":"other"},{"name":"제비표페인트","tel":"031-251-3888","addr":"경기도 수원시 장안구 영화동 166-24 1층 103.104호","indutype":"건축자재 - 페인트","category":"other"}]},{"lat":"37.296372312","long":"127.0203407","imageIndex":17,"items":[{"name":"월드인테리어","tel":"031-251-1068","addr":"경기도 수원시 장안구 영화동 455번지","indutype":"건축자재 - 인테리어전문","category":"other"}]},{"lat":"37.285732405","long":"127.00739264","imageIndex":17,"items":[{"name":"웨딩유","tel":"031-241-0030","addr":"경기도 수원시 장안구 영화동 444-7번지","indutype":"용역 서비스 - 혼례서비스","category":"other"}]},{"lat":"37.290732428","long":"127.01625697","imageIndex":17,"items":[{"name":"위드미 수원영화용희점","tel":"02-6916-1500","addr":"경기도 수원시 장안구 영화동 167-1번지 1층","indutype":"유통업 영리 - 편 의 점","category":"other"},{"name":"이마트24 수원영화용희점","tel":"031-000-0000","addr":"경기도 수원시 장안구 영화동 167-1번지 1층","indutype":"유통업 영리 - 편 의 점","category":"other"},{"name":"파티붐","tel":"031-253-5004","addr":"경기도 수원시 장안구 영화동 167-1번지 2층","indutype":"용역 서비스 - 사무서비스","category":"other"}]},{"lat":"37.287038891","long":"127.00742654","imageIndex":17,"items":[{"name":"유아이커뮤니케이션","tel":"031-244-0140","addr":"경기도 수원시 장안구 영화동 442-6번지 203호","indutype":"회원제형태 - 기타4","category":"other"}]},{"lat":"37.293570906","long":"127.01383274","imageIndex":17,"items":[{"name":"유진이벤트기획","tel":"031-255-0549","addr":"경기도 수원시 장안구 영화동 259-3","indutype":"용역 서비스 - 종합용역","category":"other"}]},{"lat":"37.292903686","long":"127.01802796","imageIndex":17,"items":[{"name":"이레패션","tel":"031-268-8717","addr":"경기도 수원시 장안구 영화동 102-8번지 정우빌딩 202호","indutype":"의류 - 기타의류","category":"other"},{"name":"조이씨엔씨","tel":"031-251-7958","addr":"경기도 수원시 장안구 영화동 102-8번지","indutype":"사무통신 - 컴퓨터","category":"other"}]},{"lat":"37.292759775","long":"127.01589645","imageIndex":17,"items":[{"name":"이림전자/원격지","tel":"","addr":"경기도 수원시 장안구 영화동 209-3번지 삼호빌라 1층 101호","indutype":"기타 - 기타 전문점","category":"other"}]},{"lat":"37.288678844","long":"127.00253238","imageIndex":17,"items":[{"name":"이마트24 수원영화점","tel":"","addr":"경기도 수원시 장안구 영화동 400-33번지","indutype":"유통업 영리 - 편 의 점","category":"other"},{"name":"이마트24 수원영화점","tel":"031-000-0000","addr":"경기도 수원시 장안구 영화동 400-33번지","indutype":"유통업 영리 - 편 의 점","category":"other"}]},{"lat":"37.290183557","long":"127.00275792","imageIndex":17,"items":[{"name":"이브자리 정자사거리점","tel":"02-0000-0000","addr":"경기도 수원시 장안구 영화동 394-1번지","indutype":"직물 - 침구·수예점","category":"other"},{"name":"주식회사 유니갤러리","tel":"031-258-3700","addr":"경기도 수원시 장안구 영화동 394-1번지 1층, 2층","indutype":"가구 - 일반가구","category":"other"}]},{"lat":"37.292399248","long":"127.01692265","imageIndex":17,"items":[{"name":"이삭공조","tel":"031-257-3320","addr":"경기도 수원시 장안구 영화동 191-27번지","indutype":"용역 서비스 - 기타용역서비스","category":"other"}]},{"lat":"37.289345599","long":"127.00391947","imageIndex":17,"items":[{"name":"이안컴퓨터영화점","tel":"031-253-9171","addr":"경기도 수원시 장안구 영화동 395-11번지 한빛교회 102호","indutype":"사무통신 - 컴퓨터","category":"other"},{"name":"한미상사","tel":"031-254-2277","addr":"경기도 수원시 장안구 영화동 395-11번지","indutype":"전기제품 - 냉열기기","category":"other"}]},{"lat":"37.293039417","long":"127.01250189","imageIndex":17,"items":[{"name":"이카소프트","tel":"031-256-3009","addr":"경기도 수원시 장안구 영화동 271-2번지 성운오피스텔 406호","indutype":"사무통신 - 통신기기","category":"other"}]},{"lat":"37.290984822","long":"127.01527588","imageIndex":17,"items":[{"name":"이태원빈티지","tel":"","addr":"경기도 수원시 장안구 영화동 164-32번지 103호","indutype":"의류 - 정장","category":"other"}]},{"lat":"37.292786267","long":"127.02011432","imageIndex":17,"items":[{"name":"익스트림 코리아","tel":"","addr":"경기도 수원시 장안구 영화동 114-19번지 2층","indutype":"레져용품 - 스포츠·레져용품","category":"other"},{"name":"주식회사 라온통상","tel":"070-4632-2366","addr":"경기도 수원시 장안구 영화동 114-19번지 4층","indutype":"레져용품 - 스포츠·레져용품","category":"other"}]},{"lat":"37.291092376","long":"127.01986583","imageIndex":17,"items":[{"name":"잉크박사","tel":"00-1566-2984","addr":"경기도 수원시 장안구 영화동 37-12번지","indutype":"사무통신 - 기타 사무용품","category":"other"}]},{"lat":"37.289480605","long":"127.00889273","imageIndex":17,"items":[{"name":"장안상사","tel":"031-251-4441","addr":"경기도 수원시 장안구 영화동 416-8번지","indutype":"직물 - 카페트,커튼,천막,지물","category":"other"}]},{"lat":"37.286489289","long":"127.0067499","imageIndex":17,"items":[{"name":"점점","tel":"","addr":"경기도 수원시 장안구 영화동 445-7번지 지하","indutype":"가구 - 일반가구","category":"other"}]},{"lat":"37.291398969","long":"127.01806149","imageIndex":17,"items":[{"name":"정기획","tel":"02-313-1303","addr":"경기도 수원시 장안구 영화동 126-14번지 1층","indutype":"사무통신 - 컴퓨터","category":"other"}]},{"lat":"37.292183044","long":"127.01656173","imageIndex":17,"items":[{"name":"제일냉동","tel":"031-247-9691","addr":"경기도 수원시 장안구 영화동 191-32번지","indutype":"용역 서비스 - 기타용역서비스","category":"other"}]},{"lat":"37.290371661","long":"127.01911008","imageIndex":17,"items":[{"name":"제일세탁기계공업사","tel":"031-245-2426","addr":"경기도 수원시 장안구 영화동 124-76번지 1층","indutype":"수리서비스 - 기타수리서비스","category":"other"}]},{"lat":"37.290480887","long":"127.00433675","imageIndex":17,"items":[{"name":"제일종합설비","tel":"031-296-8566","addr":"경기도 수원시 장안구 영화동 390-12번지 안스빌리지 202호","indutype":"용역 서비스 - 기타용역서비스","category":"other"}]},{"lat":"37.288156162","long":"127.00744917","imageIndex":17,"items":[{"name":"제일하우징","tel":"031-254-9981","addr":"경기도 수원시 장안구 영화동 426-1번지 101호","indutype":"건축자재 - 인테리어전문","category":"other"}]},{"lat":"37.285957655","long":"127.0075618","imageIndex":17,"items":[{"name":"종합메리야스","tel":"031-245-1865","addr":"경기도 수원시 장안구 영화동 444-2번지","indutype":"의류 - 내의판매","category":"other"},{"name":"청운물산","tel":"031-241-8626","addr":"경기도 수원시 장안구 영화동 444-2번지","indutype":"전기제품 - 가전제품","category":"other"}]},{"lat":"37.290182892","long":"127.01544491","imageIndex":17,"items":[{"name":"종합전기","tel":"031-247-6646","addr":"경기도 수원시 장안구 영화동 166-7번지","indutype":"건축자재 - 조명기구","category":"other"}]},{"lat":"37.292182907","long":"127.01770077","imageIndex":17,"items":[{"name":"주식회사 대호건설","tel":"031-251-3355","addr":"경기도 수원시 장안구 영화동 104-21","indutype":"건축자재 - 인테리어전문","category":"other"}]},{"lat":"37.29154385","long":"127.01067474","imageIndex":17,"items":[{"name":"주식회사 디에이치","tel":"031-253-1147","addr":"경기도 수원시 장안구 영화동 345-1번지 별관 2층","indutype":"용역 서비스 - 종합용역","category":"other"}]},{"lat":"37.290984312","long":"127.01944854","imageIndex":17,"items":[{"name":"주식회사 수원건설","tel":"031-252-3481","addr":"경기도 수원시 장안구 영화동 121-6번지","indutype":"용역 서비스 - 기타용역서비스","category":"other"}]},{"lat":"37.292732529","long":"127.01772343","imageIndex":17,"items":[{"name":"주식회사 판교테크노에어컨","tel":"031-1644-7154","addr":"경기도 수원시 장안구 영화동 102-5번지 신원상사 101호","indutype":"용역 서비스 - 기타용역서비스","category":"other"}]},{"lat":"37.290372766","long":"127.0041112","imageIndex":17,"items":[{"name":"주식회사세균제로","tel":"031-246-8145","addr":"경기도 수원시 장안구 영화동 393-5번지 1층","indutype":"용역 서비스 - 종합용역","category":"other"}]},{"lat":"37.290597639","long":"127.01250158","imageIndex":17,"items":[{"name":"주식회사케이에스모바일","tel":"070-8877-9010","addr":"경기도 수원시 장안구 영화동 311-1번지","indutype":"사무통신 - 통신기기","category":"other"}]},{"lat":"37.287237177","long":"127.00539672","imageIndex":17,"items":[{"name":"주은","tel":"031-252-2789","addr":"경기도 수원시 장안구 영화동 424-2번지 창민빌딩 1층","indutype":"의류 - 내의판매","category":"other"}]},{"lat":"37.286759581","long":"127.00722354","imageIndex":17,"items":[{"name":"주화건설 주식회사","tel":"031-245-2279","addr":"경기도 수원시 장안구 영화동 442-22번지 1층 101호","indutype":"용역 서비스 - 기타용역서비스","category":"other"}]},{"lat":"37.287453212","long":"127.0103924","imageIndex":17,"items":[{"name":"준성","tel":"031-256-3524","addr":"경기도 수원시 장안구 영화동 438-11번지","indutype":"직물 - 침구·수예점","category":"other"}]},{"lat":"37.293147462","long":"127.0134154","imageIndex":17,"items":[{"name":"줄눈아이","tel":"031-333-7506","addr":"경기도 수원시 장안구 영화동 253번지 정훈빌라 B동 401호","indutype":"용역 서비스 - 기타용역서비스","category":"other"}]},{"lat":"37.289705425","long":"127.01470053","imageIndex":17,"items":[{"name":"중국국제여행사","tel":"031-241-1901","addr":"경기도 수원시 장안구 영화동 281-11번지","indutype":"여행 - 관광여행","category":"other"}]},{"lat":"37.290678986","long":"127.0085545","imageIndex":17,"items":[{"name":"지니#","tel":"","addr":"경기도 수원시 장안구 영화동 410-20번지 203호","indutype":"신변잡화 - 기타잡화","category":"other"}]},{"lat":"37.286705576","long":"127.00517116","imageIndex":17,"items":[{"name":"지준상사(아이비스)","tel":"031-258-6175","addr":"경기도 수원시 장안구 영화동 424-10번지","indutype":"서적문구 - 문구용품","category":"other"}]},{"lat":"37.28784988","long":"127.00514864","imageIndex":17,"items":[{"name":"진디자인","tel":"031-253-5804","addr":"경기도 수원시 장안구 영화동 422-31번지","indutype":"용역 서비스 - 종합용역","category":"other"}]},{"lat":"37.294398825","long":"127.02191916","imageIndex":17,"items":[{"name":"진성","tel":"031-334-3567","addr":"경기도 수원시 장안구 영화동 47-3번지 1층","indutype":"가구 - 일반가구","category":"other"}]},{"lat":"37.288453577","long":"127.00456225","imageIndex":17,"items":[{"name":"진싸이언스","tel":"031-353-7242","addr":"경기도 수원시 장안구 영화동 403-13","indutype":"서적문구 - 과학기자재","category":"other"},{"name":"태화종합공사","tel":"031-256-1420","addr":"경기도 수원시 장안구 영화동 403-13번지","indutype":"건축자재 - 기타건축자재","category":"other"}]},{"lat":"37.289516783","long":"127.00095357","imageIndex":17,"items":[{"name":"차차린다","tel":"031-246-8286","addr":"경기도 수원시 장안구 영화동 398-1번지 메가플러스 1층 109호","indutype":"의류 - 정장","category":"other"},{"name":"휴대폰마트","tel":"070-8279-2323","addr":"경기도 수원시 장안구 영화동 398-1번지 메가플러스 106호","indutype":"사무통신 - 통신기기","category":"other"}]},{"lat":"37.289147376","long":"127.00225045","imageIndex":17,"items":[{"name":"착한컴퓨터","tel":"070-4388-1781","addr":"경기도 수원시 장안구 영화동 396-5번지 1층","indutype":"사무통신 - 컴퓨터","category":"other"}]},{"lat":"37.290786874","long":"127.0122535","imageIndex":17,"items":[{"name":"챔프레포츠","tel":"031-244-9707","addr":"경기도 수원시 장안구 영화동 308-5번지","indutype":"레져용품 - 스포츠·레져용품","category":"other"},{"name":"팔달사","tel":"031-255-5949","addr":"경기도 수원시 장안구 영화동 308-5번지","indutype":"서적문구 - 출판 및 인쇄물","category":"other"}]},{"lat":"37.289011956","long":"127.01086619","imageIndex":17,"items":[{"name":"철사랑","tel":"","addr":"경기도 수원시 장안구 영화동 433-8번지","indutype":"신변잡화 - 기타잡화","category":"other"}]},{"lat":"37.290011492","long":"127.01724925","imageIndex":17,"items":[{"name":"청아모피","tel":"031-243-5031","addr":"경기도 수원시 장안구 영화동 127-11번지 청아빌 1층","indutype":"의류 - 정장","category":"other"}]},{"lat":"37.289930248","long":"127.01844463","imageIndex":17,"items":[{"name":"청울림(주)","tel":"031-241-8240","addr":"경기도 수원시 장안구 영화동 124-81번지 경기상사 1층","indutype":"용역 서비스 - 종합용역","category":"other"},{"name":"환경재활용사회적협동조합","tel":"031-242-8241","addr":"경기도 수원시 장안구 영화동 124-81번지 경기상사 102호","indutype":"용역 서비스 - 종합용역","category":"other"}]},{"lat":"37.292678792","long":"127.01485888","imageIndex":17,"items":[{"name":"캐리아로마","tel":"031-258-2283","addr":"경기도 수원시 장안구 영화동 228-1번지","indutype":"유통업 영리 - 기타유통업","category":"other"}]},{"lat":"37.287318053","long":"127.01047132","imageIndex":17,"items":[{"name":"쿠첸북수원서비스","tel":"031-246-7197","addr":"경기도 수원시 장안구 영화동 438-12번지 1층","indutype":"전기제품 - 가전제품","category":"other"}]},{"lat":"37.293985374","long":"127.01386664","imageIndex":17,"items":[{"name":"쿠쿠북수원점","tel":"031-257-9923","addr":"경기도 수원시 장안구 영화동 245-8번지","indutype":"수리서비스 - 가정용품수리","category":"other"}]},{"lat":"37.287426415","long":"127.00384051","imageIndex":17,"items":[{"name":"킨더빌리지수원점","tel":"031-256-8602","addr":"경기도 수원시 장안구 영화동 423-3번지 1층","indutype":"서적문구 - 문구용품","category":"other"}]},{"lat":"37.290155881","long":"127.01525319","imageIndex":17,"items":[{"name":"타올앤TAG","tel":"031-1899-7719","addr":"경기도 수원시 장안구 영화동 165-5번지","indutype":"직물 - 옷감·직물","category":"other"}]},{"lat":"37.289624053","long":"127.01722662","imageIndex":17,"items":[{"name":"태공광고기획","tel":"031-255-0563","addr":"경기도 수원시 장안구 영화동 151-1번지","indutype":"용역 서비스 - 종합용역","category":"other"}]},{"lat":"37.287957729","long":"127.0112495","imageIndex":17,"items":[{"name":"태구","tel":"02-1111-1111","addr":"경기도 수원시 장안구 영화동 435-5번지 1층","indutype":"의류 - 정장","category":"other"}]},{"lat":"37.288759553","long":"127.01242241","imageIndex":17,"items":[{"name":"태양씽크","tel":"031-206-6082","addr":"경기도 수원시 장안구 영화동 329-4번지 1층","indutype":"주방용구 - 기타주방용구","category":"other"}]},{"lat":"37.288759921","long":"127.00486674","imageIndex":17,"items":[{"name":"태양조명전기","tel":"031-258-7070","addr":"경기도 수원시 장안구 영화동 404-9번지 1층","indutype":"건축자재 - 조명기구","category":"other"}]},{"lat":"37.288624783","long":"127.00306241","imageIndex":17,"items":[{"name":"태영상사","tel":"031-243-0686","addr":"경기도 수원시 장안구 영화동 402-1상아맨션,가-102","indutype":"전기제품 - 기타전기제품","category":"other"}]},{"lat":"37.291066492","long":"127.00697569","imageIndex":17,"items":[{"name":"태흥상사","tel":"031-251-2987","addr":"경기도 수원시 장안구 영화동 388-24번지","indutype":"기타 - 기계공구","category":"other"}]},{"lat":"37.289209456","long":"127.01823021","imageIndex":17,"items":[{"name":"토탈리스","tel":"031-248-1836","addr":"경기도 수원시 장안구 영화동 37-214번지","indutype":"수리서비스 - 가정용품수리","category":"other"},{"name":"토탈리스주식회사","tel":"031-248-1836","addr":"경기도 수원시 장안구 영화동 37-214번지 현빌딩","indutype":"수리서비스 - 가정용품수리","category":"other"}]},{"lat":"37.286399101","long":"127.00881355","imageIndex":17,"items":[{"name":"트윈스포츠","tel":"070-8945-3751","addr":"경기도 수원시 장안구 영화동 443-13번지 지하1층","indutype":"회원제형태 - 레져업소","category":"other"},{"name":"한국인지학습연구소","tel":"031-247-1135","addr":"경기도 수원시 장안구 영화동 443-13번지","indutype":"회원제형태 - 기타4","category":"other"}]},{"lat":"37.290263972","long":"127.0155577","imageIndex":17,"items":[{"name":"패션 부러나","tel":"031-241-3796","addr":"경기도 수원시 장안구 영화동 166-20번지 1층","indutype":"문화.취미 - 화원","category":"other"}]},{"lat":"37.292625012","long":"127.01164473","imageIndex":17,"items":[{"name":"펫마트","tel":"031-246-1550","addr":"경기도 수원시 장안구 영화동 301-3번지 1,2층","indutype":"문화.취미 - 애완동물","category":"other"}]},{"lat":"37.289877159","long":"127.00633282","imageIndex":17,"items":[{"name":"폰누리","tel":"","addr":"경기도 수원시 장안구 영화동 405-11번지","indutype":"수리서비스 - 사무·통신기기수리","category":"other"}]},{"lat":"37.292093541","long":"127.00959215","imageIndex":17,"items":[{"name":"피부아루","tel":"031-246-1677","addr":"경기도 수원시 장안구 영화동 448-15 1층","indutype":"회원제형태 - 기타4","category":"other"}]},{"lat":"37.286822714","long":"127.00494563","imageIndex":17,"items":[{"name":"필스크린","tel":"031-248-6152","addr":"경기도 수원시 장안구 영화동 424-8번지 1층","indutype":"서적문구 - 출판 및 인쇄물","category":"other"}]},{"lat":"37.292453685","long":"127.01327998","imageIndex":17,"items":[{"name":"하나그린세탁","tel":"031-245-5435","addr":"경기도 수원시 장안구 영화동 288-21번지","indutype":"수리서비스 - 세탁소","category":"other"}]},{"lat":"37.291066411","long":"127.0088703","imageIndex":17,"items":[{"name":"하나로 크리닝","tel":"031-891-1254","addr":"경기도 수원시 장안구 영화동 411-11번지 1층","indutype":"수리서비스 - 세탁소","category":"other"}]},{"lat":"37.293759759","long":"127.01722741","imageIndex":17,"items":[{"name":"한국PVC","tel":"031-244-4144","addr":"경기도 수원시 장안구 영화동 97-13번지","indutype":"건축자재 - 기타건축자재","category":"other"}]},{"lat":"37.293425728","long":"127.02186252","imageIndex":17,"items":[{"name":"한국가스산업","tel":"","addr":"경기도 수원시 장안구 영화동 37-82번지","indutype":"용역 서비스 - 기타용역서비스","category":"other"}]},{"lat":"37.28995782","long":"127.01356157","imageIndex":17,"items":[{"name":"한빛공인중개사사무소","tel":"031-253-4466","addr":"경기도 수원시 장안구 영화동 283-2번지 1층","indutype":"용역 서비스 - 부동산 중개·임대","category":"other"}]},{"lat":"37.293813903","long":"127.01652819","imageIndex":17,"items":[{"name":"한빛솔루션","tel":"031-241-2220","addr":"경기도 수원시 장안구 영화동 97-14번지 1층 상가","indutype":"사무통신 - 컴퓨터","category":"other"},{"name":"한승디지털","tel":"031-258-8255","addr":"경기도 수원시 장안구 영화동 97-14번지","indutype":"사무통신 - 사무용 OA기기","category":"other"}]},{"lat":"37.289877203","long":"127.00408864","imageIndex":17,"items":[{"name":"한양목재","tel":"031-252-3535","addr":"경기도 수원시 장안구 영화동 392-15","indutype":"회원제형태 - 기타4","category":"other"}]},{"lat":"37.289453713","long":"127.00467505","imageIndex":17,"items":[{"name":"해리애견미용실","tel":"031-399-5305","addr":"경기도 수원시 장안구 영화동 404-2번지","indutype":"문화.취미 - 애완동물","category":"other"}]},{"lat":"37.289038879","long":"127.01233223","imageIndex":17,"items":[{"name":"해피디자인","tel":"031-257-0018","addr":"경기도 수원시 장안구 영화동 330-3번지","indutype":"용역 서비스 - 종합용역","category":"other"}]},{"lat":"37.29048085","long":"127.00617496","imageIndex":17,"items":[{"name":"해피홈","tel":"031-247-0180","addr":"경기도 수원시 장안구 영화동 388-17번지","indutype":"건축자재 - 인테리어전문","category":"other"}]},{"lat":"37.288399506","long":"127.00511483","imageIndex":17,"items":[{"name":"현대문구","tel":"031-244-6322","addr":"경기도 수원시 장안구 영화동 421-3번지","indutype":"서적문구 - 문구용품","category":"other"}]},{"lat":"37.293345807","long":"127.01197187","imageIndex":17,"items":[{"name":"현대방재산업","tel":"031-214-4515","addr":"경기도 수원시 장안구 영화동 271-23번지 1층","indutype":"기타 - 기계공구","category":"other"}]},{"lat":"37.290128499","long":"127.01825295","imageIndex":17,"items":[{"name":"현대상사","tel":"031-243-8225","addr":"경기도 수원시 장안구 영화동 124-65번지 1층","indutype":"전기제품 - 가전제품","category":"other"}]},{"lat":"37.287570534","long":"127.00631016","imageIndex":17,"items":[{"name":"현대하수구","tel":"031-1111-1111","addr":"경기도 수원시 장안구 영화동 425-19번지 1층 상가","indutype":"용역 서비스 - 종합용역","category":"other"}]},{"lat":"37.293291242","long":"127.01709198","imageIndex":17,"items":[{"name":"홍싸","tel":"031-242-9355","addr":"경기도 수원시 장안구 영화동 100-1번지","indutype":"레져용품 - 스포츠·레져용품","category":"other"}]},{"lat":"37.294877228","long":"127.01547952","imageIndex":17,"items":[{"name":"홍익광고디자인","tel":"031-241-0708","addr":"경기도 수원시 장안구 영화동 380-124번지","indutype":"건축자재 - 인테리어전문","category":"other"}]},{"lat":"37.290120185","long":"127.01132868","imageIndex":17,"items":[{"name":"화성농원","tel":"031-243-8200","addr":"경기도 수원시 장안구 영화동 339-1번지 동양연립 가동 101호","indutype":"문화.취미 - 화원","category":"other"}]},{"lat":"37.288786945","long":"127.00522761","imageIndex":17,"items":[{"name":"화양연화","tel":"070-2255-1614","addr":"경기도 수원시 장안구 영화동 404-15번지 조윤파크빌라 204호","indutype":"의류 - 기타의류","category":"other"}]},{"lat":"37.287822867","long":"127.00378413","imageIndex":17,"items":[{"name":"화이트인테리어디자인(주)","tel":"031-222-1782","addr":"경기도 수원시 장안구 영화동 423-20번지 1층","indutype":"건축자재 - 부동산 분양","category":"other"}]},{"lat":"37.289624637","long":"127.0110918","imageIndex":17,"items":[{"name":"황금날개","tel":"031-255-9718","addr":"경기도 수원시 장안구 영화동 359-1번지 1층","indutype":"의류 - 정장","category":"other"}]},{"lat":"37.29418336","long":"127.0162012","imageIndex":17,"items":[{"name":"휘모리","tel":"031-508-2491","addr":"경기도 수원시 장안구 영화동 95번지 1층","indutype":"문화.취미 - 민예·공예품","category":"other"}]}]