[{"lat":"37.341726283","long":"126.80416405","imageIndex":7,"items":[{"name":"(주)데프라인","tel":"031-483-0340","addr":"경기도 안산시 단원구 선부동 1028-1번지 일신휴먼빌 상가 126호","indutype":"음료식품 - 정육점","category":"food"},{"name":"다오리축산유통센타","tel":"031-483-0341","addr":"경기도 안산시 단원구 선부동 1028-1 일신휴먼빌상가 126-3호","indutype":"음료식품 - 정육점","category":"food"},{"name":"미강농산","tel":"031-405-1202","addr":"경기도 안산시 단원구 선부동 1028-1 휴먼빌상가109-2호","indutype":"음료식품 - 미곡상","category":"food"}]},{"lat":"37.342283923","long":"126.80357576","imageIndex":7,"items":[{"name":"AN Traders(에이엔 트레이더스)","tel":"031-403-3763","addr":"경기도 안산시 단원구 선부동 1028번지 안산제일종합시장 1125호","indutype":"음료식품 - 기타음료식품","category":"food"},{"name":"누리F&B","tel":"031-485-8853","addr":"경기도 안산시 단원구 선부동 1028번지 안산제1종합시장 1125호","indutype":"음료식품 - 농·축·수산품","category":"food"},{"name":"대건인삼약초","tel":"031-401-1634","addr":"경기도 안산시 단원구 선부동 1028번지 안산제1호 종합시장 1층","indutype":"건강식품 - 인삼제품","category":"food"},{"name":"새풍년떡방앗간","tel":"031-402-0548","addr":"경기도 안산시 단원구 선부동 1028번지 안산제일종합시장1층101-1,101-2,199호","indutype":"음료식품 - 제과점","category":"food"},{"name":"선부떡방아간","tel":"031-484-9317","addr":"경기도 안산시 단원구 선부동 1028번지 안산제일종합시장 1162호","indutype":"음료식품 - 제과점","category":"food"},{"name":"솔로몬제과","tel":"031-486-6064","addr":"경기도 안산시 단원구 선부동 1028번지 제일종합시장 1120호","indutype":"음료식품 - 제과점","category":"food"},{"name":"예감","tel":"031-414-9280","addr":"경기도 안산시 단원구 선부동 1028번지 안산종합시장 170,171","indutype":"음료식품 - 기타음료식품","category":"food"},{"name":"행복한선택","tel":"031-483-5484","addr":"경기도 안산시 단원구 선부동 1028번지 안산제1종합시장 167호","indutype":"음료식품 - 기타음료식품","category":"food"}]},{"lat":"37.342698997","long":"126.80393579","imageIndex":7,"items":[{"name":"JNPN","tel":"031-414-5020","addr":"경기도 안산시 단원구 선부동 1027-15번지","indutype":"음료식품 - 기타음료식품","category":"food"}]},{"lat":"37.339362173","long":"126.7968804","imageIndex":7,"items":[{"name":"S.A인터내셔날","tel":"031-520-8176","addr":"경기도 안산시 단원구 선부동 982-3번지 1층","indutype":"음료식품 - 정육점","category":"food"}]},{"lat":"37.343612098","long":"126.80577288","imageIndex":7,"items":[{"name":"가화중국식품","tel":"","addr":"경기도 안산시 단원구 선부동 1038-13번지 101호","indutype":"음료식품 - 기타음료식품","category":"food"}]},{"lat":"37.346060817","long":"126.81560757","imageIndex":7,"items":[{"name":"개미수산","tel":"031-402-2144","addr":"경기도 안산시 단원구 선부동 1102-13번지 주연캐슬 202호","indutype":"음료식품 - 농·축·수산품","category":"food"}]},{"lat":"37.340001514","long":"126.81280143","imageIndex":7,"items":[{"name":"건강드림","tel":"031-405-3338","addr":"경기도 안산시 단원구 선부동 1085한양프라자118","indutype":"건강식품 - 기타건강식품","category":"food"},{"name":"한양사우나 스낵코너","tel":"031-485-8488","addr":"경기도 안산시 단원구 선부동 1085번지 한양프라자 지하 3호","indutype":"음료식품 - 기타음료식품","category":"food"}]},{"lat":"37.3400015140","long":"126.8128014315","imageIndex":7,"items":[{"name":"건강드림굿썸","tel":"031-405-3338","addr":"경기도 안산시 단원구 선부동 1085번지","indutype":"도매 및 소매업 - 건강식품","category":"food"}]},{"lat":"37.33517183","long":"126.81265563","imageIndex":7,"items":[{"name":"건강마을건강원","tel":"031-410-1882","addr":"경기도 안산시 단원구 선부동 1076-7번지 새한프라자 108호","indutype":"건강식품 - 기타건강식품","category":"food"}]},{"lat":"37.34211313","long":"126.81482742","imageIndex":7,"items":[{"name":"건영상회","tel":"031-319-3210","addr":"경기도 안산시 단원구 선부동 1143-4번지 1층","indutype":"음료식품 - 농·축·수산품","category":"food"}]},{"lat":"37.351333651","long":"126.80568498","imageIndex":7,"items":[{"name":"경원유통","tel":"031-433-0530","addr":"경기도 안산시 단원구 선부동 207-1번지 102호","indutype":"음료식품 - 미곡상","category":"food"}]},{"lat":"37.34639453","long":"126.81582117","imageIndex":7,"items":[{"name":"고려건강원","tel":"031-486-1222","addr":"경기도 안산시 단원구 선부동 1102-1번지 세양에이스 102호","indutype":"건강식품 - 기타건강식품","category":"food"}]},{"lat":"37.34261188","long":"126.80571907","imageIndex":7,"items":[{"name":"고향떡마당","tel":"031-493-7033","addr":"경기도 안산시 단원구 선부동 1031-2번지 103호","indutype":"음료식품 - 제과점","category":"food"}]},{"lat":"37.341887338","long":"126.81448943","imageIndex":7,"items":[{"name":"곰비임비반찬가게","tel":"031-410-9494","addr":"경기도 안산시 단원구 선부동 1143-8번지","indutype":"음료식품 - 기타음료식품","category":"food"}]},{"lat":"37.343919324","long":"126.80630249","imageIndex":7,"items":[{"name":"과일.야채.마트","tel":"031-410-0801","addr":"경기도 안산시 단원구 선부동 1039번지 102호","indutype":"음료식품 - 농·축·수산품","category":"food"},{"name":"오뚜기상회","tel":"031-410-0801","addr":"경기도 안산시 단원구 선부동 1039번지","indutype":"음료식품 - 농·축·수산품","category":"food"}]},{"lat":"37.34300106","long":"126.80676758","imageIndex":7,"items":[{"name":"과일사랑","tel":"070-8808-7718","addr":"경기도 안산시 단원구 선부동 1035-15번지 과일가게 102호","indutype":"음료식품 - 농·축·수산품","category":"food"}]},{"lat":"37.3357577221","long":"126.8072716246","imageIndex":7,"items":[{"name":"광원떡방앗간","tel":"031-405-4845","addr":"경기도 안산시 단원구 선부동 1070-12번지","indutype":"도매 및 소매업 - 조미식품,고추가루","category":"food"}]},{"lat":"37.335757722","long":"126.80727162","imageIndex":7,"items":[{"name":"광원떡방앗간","tel":"031-405-4845","addr":"경기도 안산시 단원구 선부동 1070-12 111호","indutype":"음료식품 - 기타음료식품","category":"food"},{"name":"광원떡식품","tel":"031-405-4845","addr":"경기도 안산시 단원구 선부동 1070-12번지 광원빌딩 111동 206호","indutype":"음료식품 - 기타음료식품","category":"food"},{"name":"동산청과","tel":"031-410-2201","addr":"경기도 안산시 단원구 선부동 1070-12번지 광원빌딩 102호","indutype":"음료식품 - 농·축·수산품","category":"food"},{"name":"크라상제과점","tel":"031-401-0953","addr":"경기도 안산시 단원구 선부동 1070-12번지 광원빌딩 101호","indutype":"음료식품 - 제과점","category":"food"}]},{"lat":"37.344667075","long":"126.81740542","imageIndex":7,"items":[{"name":"광인상사","tel":"031-482-8328","addr":"경기도 안산시 단원구 선부동 1095-5번지","indutype":"음료식품 - 기타음료식품","category":"food"}]},{"lat":"37.3347843938","long":"126.8126566022","imageIndex":7,"items":[{"name":"군자농업협동조합 양지지점","tel":"031-483-9825","addr":"경기도 안산시 단원구 선부동 1076-8번지","indutype":"도매 및 소매업 - 여수신,식품,잡화","category":"food"}]},{"lat":"37.339527722","long":"126.79366381","imageIndex":7,"items":[{"name":"군자유통","tel":"031-439-1005","addr":"경기도 안산시 단원구 선부동 984-5번지 1층","indutype":"음료식품 - 정육점","category":"food"}]},{"lat":"37.339757082","long":"126.79599911","imageIndex":7,"items":[{"name":"군자종합축산","tel":"031-439-1005","addr":"경기도 안산시 단원구 선부동 987-19번지 1층","indutype":"음료식품 - 정육점","category":"food"}]},{"lat":"37.342278638","long":"126.80579894","imageIndex":7,"items":[{"name":"굿 아이스크림","tel":"070-8970-4016","addr":"경기도 안산시 단원구 선부동 1031-5번지 새누리교회 1층 101호","indutype":"음료식품 - 기타음료식품","category":"food"},{"name":"숙이네반찬연구소","tel":"031-486-4109","addr":"경기도 안산시 단원구 선부동 1031-5번지 새누리교회 101호","indutype":"음료식품 - 기타음료식품","category":"food"}]},{"lat":"37.339117317","long":"126.80119179","imageIndex":7,"items":[{"name":"금융중한식품","tel":"031-000-0000","addr":"경기도 안산시 단원구 선부동 998-15번지","indutype":"음료식품 - 기타음료식품","category":"food"}]},{"lat":"37.346333487","long":"126.81710789","imageIndex":7,"items":[{"name":"기호식품농산","tel":"031-403-6653","addr":"경기도 안산시 단원구 선부동 1101-1번지 101호","indutype":"음료식품 - 미곡상","category":"food"}]},{"lat":"37.3354511910","long":"126.8071595787","imageIndex":7,"items":[{"name":"김치짱아찌독","tel":"031-402-8251","addr":"경기도 안산시 단원구 선부동 1070-11번지","indutype":"숙박 및 음식점업 - 기타음료식품","category":"food"}]},{"lat":"37.335451191","long":"126.80715958","imageIndex":7,"items":[{"name":"김치짱아찌독","tel":"031-402-8251","addr":"경기도 안산시 단원구 선부동 1070-11번지 동양빌딩 1층 107호","indutype":"음료식품 - 기타음료식품","category":"food"},{"name":"더골라바","tel":"031-485-0608","addr":"경기도 안산시 단원구 선부동 1070-11번지 동양빌딩 105호","indutype":"음료식품 - 기타음료식품","category":"food"},{"name":"메이퀸메디텍","tel":"031-401-7755","addr":"경기도 안산시 단원구 선부동 1070-11번지 동양빌딩 302호","indutype":"건강식품 - 기타건강식품","category":"food"},{"name":"카니롱","tel":"031-362-6002","addr":"경기도 안산시 단원구 선부동 1070-11번지 동양빌딩 1층","indutype":"음료식품 - 제과점","category":"food"}]},{"lat":"37.338919747","long":"126.80157599","imageIndex":7,"items":[{"name":"까치떡방아간","tel":"031-411-2796","addr":"경기도 안산시 단원구 선부동 998-12번지","indutype":"음료식품 - 제과점","category":"food"}]},{"lat":"37.339303982","long":"126.79452206","imageIndex":7,"items":[{"name":"꾸쉬 (KUSH)","tel":"031-318-4252","addr":"경기도 안산시 단원구 선부동 984-12번지 1층","indutype":"음료식품 - 기타음료식품","category":"food"},{"name":"딸로와야","tel":"031-503-9200","addr":"경기도 안산시 단원구 선부동 984-12번지 1층","indutype":"음료식품 - 제과점","category":"food"}]},{"lat":"37.343447434","long":"126.81533193","imageIndex":7,"items":[{"name":"낙원떡집","tel":"031-401-0244","addr":"경기도 안산시 단원구 선부동 1091-20번지 103호","indutype":"음료식품 - 제과점","category":"food"}]},{"lat":"37.34605406","long":"126.81138675","imageIndex":7,"items":[{"name":"내안에꽃게간장게장","tel":"070-4686-9412","addr":"경기도 안산시 단원구 선부동 1133-5번지 1층 102호","indutype":"음료식품 - 기타음료식품","category":"food"}]},{"lat":"37.341915749","long":"126.81535831","imageIndex":7,"items":[{"name":"누룽지 여사","tel":"070-4232-8040","addr":"경기도 안산시 단원구 선부동 1087-11번지 화성프라자 지하 103호","indutype":"음료식품 - 기타음료식품","category":"food"},{"name":"파리바케뜨","tel":"031-475-4877","addr":"경기도 안산시 단원구 선부동 1087-11 1층4호~5호","indutype":"음료식품 - 제과점","category":"food"}]},{"lat":"37.344277924","long":"126.80521816","imageIndex":7,"items":[{"name":"늘푸른청과","tel":"031-401-9304","addr":"경기도 안산시 단원구 선부동 1022번지 104호","indutype":"음료식품 - 농·축·수산품","category":"food"}]},{"lat":"37.3413406625","long":"126.8052484244","imageIndex":7,"items":[{"name":"다담9988탕제원","tel":"","addr":"경기도 안산시 단원구 선부동 1032-16번지","indutype":"제조업 - 식품제조가공","category":"food"}]},{"lat":"37.341673565","long":"126.80496543","imageIndex":7,"items":[{"name":"대농라이스푸드","tel":"031-413-8455","addr":"경기도 안산시 단원구 선부동 1029-8번지 1층","indutype":"음료식품 - 미곡상","category":"food"}]},{"lat":"37.342700719","long":"126.80496273","imageIndex":7,"items":[{"name":"대박야채과일","tel":"031-410-1991","addr":"경기도 안산시 단원구 선부동 1030-19번지 102호","indutype":"음료식품 - 농·축·수산품","category":"food"},{"name":"종로떡집","tel":"","addr":"경기도 안산시 단원구 선부동 1030-19번지 102호","indutype":"음료식품 - 제과점","category":"food"}]},{"lat":"37.336475126","long":"126.81068888","imageIndex":7,"items":[{"name":"덴켄미디어","tel":"031-405-4404","addr":"경기도 안산시 단원구 선부동 1076-1번지 501호 일부","indutype":"건강식품 - 기타건강식품","category":"food"},{"name":"정관장홍삼선부동점","tel":"031-484-2388","addr":"경기도 안산시 단원구 선부동 1076-1번지 112호","indutype":"건강식품 - 홍삼제품","category":"food"},{"name":"정관장홍삼선부동점","tel":"031-484-2388","addr":"경기도 안산시 단원구 선부동 1076-1번지 112호","indutype":"건강식품 - 홍삼제품","category":"food"},{"name":"허브친구","tel":"031-410-5900","addr":"경기도 안산시 단원구 선부동 1076-1번지 일성빌딩 207호","indutype":"회원제형태 - 건강식품","category":"food"}]},{"lat":"37.336035019","long":"126.8115476","imageIndex":7,"items":[{"name":"동명청과","tel":"031-401-8132","addr":"경기도 안산시 단원구 선부동 1076-3번지 용현빌딩 110호","indutype":"음료식품 - 농·축·수산품","category":"food"},{"name":"동일청과","tel":"","addr":"경기도 안산시 단원구 선부동 1076-3번지 용현빌딩 4층 404호","indutype":"음료식품 - 농·축·수산품","category":"food"},{"name":"수랏간반찬","tel":"031-411-8783","addr":"경기도 안산시 단원구 선부동 1076-3번지 용현빌딩 1층 120호","indutype":"음료식품 - 기타음료식품","category":"food"}]},{"lat":"37.336364671","long":"126.80382837","imageIndex":7,"items":[{"name":"동산유통","tel":"031-432-6820","addr":"경기도 안산시 단원구 선부동 971-6번지 소라수퍼 103호","indutype":"음료식품 - 기타음료식품","category":"food"}]},{"lat":"37.34138948","long":"126.80751657","imageIndex":7,"items":[{"name":"동행가족건강원","tel":"031-483-7410","addr":"경기도 안산시 단원구 선부동 1067-8번지 1층","indutype":"건강식품 - 기타건강식품","category":"food"}]},{"lat":"37.342780194","long":"126.79355322","imageIndex":7,"items":[{"name":"디담굼벵이농장","tel":"031-4325-7063","addr":"경기도 안산시 단원구 선부동 51번지","indutype":"음료식품 - 농·축·수산품","category":"food"}]},{"lat":"37.347115126","long":"126.81568396","imageIndex":7,"items":[{"name":"떡마을","tel":"031-413-0785","addr":"경기도 안산시 단원구 선부동 1103-1번지 1층","indutype":"음료식품 - 제과점","category":"food"}]},{"lat":"37.33944981","long":"126.79546957","imageIndex":7,"items":[{"name":"러시아빵가게","tel":"031-503-8214","addr":"경기도 안산시 단원구 선부동 983-4번지 102호","indutype":"음료식품 - 제과점","category":"food"},{"name":"야채마담","tel":"","addr":"경기도 안산시 단원구 선부동 983-4번지 1층 103호","indutype":"음료식품 - 농·축·수산품","category":"food"}]},{"lat":"37.345199611","long":"126.81232562","imageIndex":7,"items":[{"name":"럭키 할인마트 정육","tel":"031-414-6332","addr":"경기도 안산시 단원구 선부동 1133-14번지 1층","indutype":"음료식품 - 정육점","category":"food"}]},{"lat":"37.342834728","long":"126.81532217","imageIndex":7,"items":[{"name":"롤로(Rollo)안산선부점","tel":"031-405-8875","addr":"경기도 안산시 단원구 선부동 1090-17번지 101호","indutype":"음료식품 - 기타음료식품","category":"food"}]},{"lat":"37.339888126","long":"126.79366281","imageIndex":7,"items":[{"name":"마리나 베이커리(MARINABakery)","tel":"","addr":"경기도 안산시 단원구 선부동 985-14번지 상가 1층","indutype":"음료식품 - 제과점","category":"food"}]},{"lat":"37.344859364","long":"126.81365817","imageIndex":7,"items":[{"name":"맛있는반찬가게","tel":"031-495-2337","addr":"경기도 안산시 단원구 선부동 1135-6번지 102호","indutype":"음료식품 - 기타음료식품","category":"food"}]},{"lat":"37.339054534","long":"126.80136122","imageIndex":7,"items":[{"name":"매스노이미르 정육점 meet mart","tel":"070-7848-9304","addr":"경기도 안산시 단원구 선부동 998-14번지 1층 102호","indutype":"음료식품 - 정육점","category":"food"}]},{"lat":"37.346865595","long":"126.80627224","imageIndex":7,"items":[{"name":"매일유업서안산대리점","tel":"031-483-9551","addr":"경기도 안산시 단원구 선부동 1054-13번지 대흥캐슬","indutype":"음료식품 - 기타음료식품","category":"food"}]},{"lat":"37.33906235","long":"126.80066156","imageIndex":7,"items":[{"name":"명성야채","tel":"070-4098-5585","addr":"경기도 안산시 단원구 선부동 977번지","indutype":"음료식품 - 농·축·수산품","category":"food"},{"name":"선부축산도매유통","tel":"031-480-6642","addr":"경기도 안산시 단원구 선부동 977 1층 3호","indutype":"음료식품 - 정육점","category":"food"}]},{"lat":"37.337506805","long":"126.80255022","imageIndex":7,"items":[{"name":"명품식품","tel":"031-405-9050","addr":"경기도 안산시 단원구 선부동 973-5번지 102호","indutype":"음료식품 - 기타음료식품","category":"food"},{"name":"명품식품","tel":"","addr":"경기도 안산시 단원구 선부동 973-5번지 102호","indutype":"음료식품 - 기타음료식품","category":"food"},{"name":"명품식품","tel":"031-405-9050","addr":"경기도 안산시 단원구 선부동 973-5번지 102호","indutype":"음료식품 - 제과점","category":"food"},{"name":"명품식품","tel":"031-405-9050","addr":"경기도 안산시 단원구 선부동 973-5번지 102호","indutype":"음료식품 - 기타음료식품","category":"food"}]},{"lat":"37.339476008","long":"126.79499555","imageIndex":7,"items":[{"name":"모이 먀스노이","tel":"","addr":"경기도 안산시 단원구 선부동 983-1번지 B101호","indutype":"음료식품 - 정육점","category":"food"}]},{"lat":"37.338367334","long":"126.79994121","imageIndex":7,"items":[{"name":"무슬림하우스","tel":"031-481-9667","addr":"경기도 안산시 단원구 선부동 977-10번지 104호","indutype":"음료식품 - 기타음료식품","category":"food"}]},{"lat":"37.3433340536","long":"126.8177134013","imageIndex":7,"items":[{"name":"미가온","tel":"","addr":"경기도 안산시 단원구 선부동 1092-12번지","indutype":"제조업 - 조미식품및드레싱,전자상거래","category":"food"}]},{"lat":"37.341420961","long":"126.80477425","imageIndex":7,"items":[{"name":"미래","tel":"031-491-1474","addr":"경기도 안산시 단원구 선부동 1032번지","indutype":"음료식품 - 기타음료식품","category":"food"}]},{"lat":"37.345415454","long":"126.8120768","imageIndex":7,"items":[{"name":"민농수산물","tel":"070-7618-0033","addr":"경기도 안산시 단원구 선부동 1133-12번지 102호","indutype":"음료식품 - 농·축·수산품","category":"food"}]},{"lat":"37.346394191","long":"126.81560675","imageIndex":7,"items":[{"name":"밥도둑반찬","tel":"02-439-0338","addr":"경기도 안산시 단원구 선부동 1102번지 101호","indutype":"음료식품 - 기타음료식품","category":"food"}]},{"lat":"37.337139959","long":"126.80407458","imageIndex":7,"items":[{"name":"백종환 수산물","tel":"031-000-0000","addr":"경기도 안산시 단원구 선부동 969-5번지 101호","indutype":"음료식품 - 농·축·수산품","category":"food"}]},{"lat":"37.33947577","long":"126.79486013","imageIndex":7,"items":[{"name":"베이커리박","tel":"031-492-9973","addr":"경기도 안산시 단원구 선부동 983번지 1층","indutype":"음료식품 - 제과점","category":"food"}]},{"lat":"37.340109563","long":"126.80185494","imageIndex":7,"items":[{"name":"봄날 전통식품","tel":"031-401-6374","addr":"경기도 안산시 단원구 선부동 1001-22번지 1층","indutype":"음료식품 - 기타음료식품","category":"food"}]},{"lat":"37.348810067","long":"126.80524013","imageIndex":7,"items":[{"name":"블럭제빵소 안산달미역점","tel":"031-402-7798","addr":"경기도 안산시 단원구 선부동 1177번지 안산메트로타운푸르지오힐스테이트 상가 2동 103호","indutype":"음료식품 - 제과점","category":"food"}]},{"lat":"37.3437286646","long":"126.8054340167","imageIndex":7,"items":[{"name":"뿅가아이스","tel":"","addr":"경기도 안산시 단원구 선부동 1024번지","indutype":"도매 및 소매업 - 기타 식품","category":"food"}]},{"lat":"37.343728665","long":"126.80543402","imageIndex":7,"items":[{"name":"뿅가아이스","tel":"031-111-1111","addr":"경기도 안산시 단원구 선부동 1024번지 BYC 104호","indutype":"음료식품 - 기타음료식품","category":"food"}]},{"lat":"37.343167458","long":"126.81491507","imageIndex":7,"items":[{"name":"뿅가아이스(선부2호점)","tel":"","addr":"경기도 안산시 단원구 선부동 1142-4번지 상가 1층 102호","indutype":"음료식품 - 기타음료식품","category":"food"}]},{"lat":"37.341613632","long":"126.80685018","imageIndex":7,"items":[{"name":"삼성종합식품","tel":"031-483-5133","addr":"경기도 안산시 단원구 선부동 1033-15번지","indutype":"음료식품 - 기타음료식품","category":"food"}]},{"lat":"37.342835096","long":"126.80449969","imageIndex":7,"items":[{"name":"상선유통","tel":"031-919-2820","addr":"경기도 안산시 단원구 선부동 1026-6번지 205호","indutype":"음료식품 - 기타음료식품","category":"food"}]},{"lat":"37.345087491","long":"126.81546328","imageIndex":7,"items":[{"name":"새만물정육점","tel":"031-410-2305","addr":"경기도 안산시 단원구 선부동 1097-20번지","indutype":"음료식품 - 정육점","category":"food"}]},{"lat":"37.340701113","long":"126.80535166","imageIndex":7,"items":[{"name":"선부 다목적 체육관 1층매점","tel":"031-405-4404","addr":"경기도 안산시 단원구 선부동 1068번지 1층","indutype":"음료식품 - 기타음료식품","category":"food"},{"name":"선부체육관 매점","tel":"031-000-0000","addr":"경기도 안산시 단원구 선부동 1068번지 선부체육관","indutype":"음료식품 - 기타음료식품","category":"food"}]},{"lat":"37.336336805","long":"126.80874835","imageIndex":7,"items":[{"name":"선부청과","tel":"031-401-0176","addr":"경기도 안산시 단원구 선부동 1070-16번지 칠성플러스타운 105호","indutype":"음료식품 - 농·축·수산품","category":"food"},{"name":"파리바게트안산선부광장점","tel":"031-414-8877","addr":"경기도 안산시 단원구 선부동 1070-16번지 칠성프러스타운 101,102호","indutype":"음료식품 - 제과점","category":"food"}]},{"lat":"37.343198608","long":"126.80636079","imageIndex":7,"items":[{"name":"성진유통","tel":"031-401-7330","addr":"경기도 안산시 단원구 선부동 1039-5번지 1층","indutype":"음료식품 - 정육점","category":"food"}]},{"lat":"37.3368402225","long":"126.8080474326","imageIndex":7,"items":[{"name":"솔건강원","tel":"031-486-0556","addr":"경기도 안산시 단원구 선부동 1069-2번지","indutype":"제조업 - 건강식품","category":"food"}]},{"lat":"37.342057919","long":"126.81410532","imageIndex":7,"items":[{"name":"순자네반찬가게","tel":"031-413-6777","addr":"경기도 안산시 단원구 선부동 1143-12번지 102호","indutype":"음료식품 - 기타음료식품","category":"food"}]},{"lat":"37.339757319","long":"126.79613453","imageIndex":7,"items":[{"name":"스베뜰라나(SVETLANA)","tel":"","addr":"경기도 안산시 단원구 선부동 987-18번지 지1층일부","indutype":"음료식품 - 기타음료식품","category":"food"}]},{"lat":"37.336114262","long":"126.8104077","imageIndex":7,"items":[{"name":"스파월드","tel":"031-482-8765","addr":"경기도 안산시 단원구 선부동 1076-17번지 신안골드리치빌딩 4층","indutype":"음료식품 - 기타음료식품","category":"food"}]},{"lat":"37.342002951","long":"126.80798896","imageIndex":7,"items":[{"name":"시골정육점","tel":"031-413-9532","addr":"경기도 안산시 단원구 선부동 1058-32번지","indutype":"음료식품 - 정육점","category":"food"}]},{"lat":"37.337472365","long":"126.8034982","imageIndex":7,"items":[{"name":"신선야채과일","tel":"070-8311-9688","addr":"경기도 안산시 단원구 선부동 969번지 1층 신선야채과일","indutype":"음료식품 - 농·축·수산품","category":"food"}]},{"lat":"37.335868373","long":"126.81438034","imageIndex":7,"items":[{"name":"신안농수산물","tel":"031-484-9166","addr":"경기도 안산시 단원구 선부동 1080-1번지 국제빌딩 103호","indutype":"음료식품 - 농·축·수산품","category":"food"}]},{"lat":"37.338146008","long":"126.80224384","imageIndex":7,"items":[{"name":"신평정육점","tel":"031-401-3509","addr":"경기도 안산시 단원구 선부동 974번지","indutype":"음료식품 - 정육점","category":"food"}]},{"lat":"37.345086614","long":"126.81491029","imageIndex":7,"items":[{"name":"아이스 프리지아","tel":"070-0000-0000","addr":"경기도 안산시 단원구 선부동 1116-14번지 1층 101호","indutype":"음료식품 - 기타음료식품","category":"food"}]},{"lat":"37.343305885","long":"126.80585268","imageIndex":7,"items":[{"name":"아침목장축산물도매센타","tel":"031-475-7060","addr":"경기도 안산시 단원구 선부동 1038-10번지 (1층상가101호)","indutype":"음료식품 - 정육점","category":"food"}]},{"lat":"37.340223213","long":"126.79463237","imageIndex":7,"items":[{"name":"알콜마트24","tel":"","addr":"경기도 안산시 단원구 선부동 989번지 101호","indutype":"음료식품 - 주류 판매점","category":"food"}]},{"lat":"37.34147715","long":"126.8060493","imageIndex":7,"items":[{"name":"엄마손반찬","tel":"031-403-5669","addr":"경기도 안산시 단원구 선부동 1032-10번지 1층 일부","indutype":"음료식품 - 기타음료식품","category":"food"}]},{"lat":"37.332199589","long":"126.81335142","imageIndex":7,"items":[{"name":"엄마솜씨반찬","tel":"031-413-9959","addr":"경기도 안산시 단원구 선부동 1078-2번지 삼희프라자 105호","indutype":"음료식품 - 기타음료식품","category":"food"},{"name":"종로떡집","tel":"031-411-9777","addr":"경기도 안산시 단원구 선부동 1078-2번지 삼희프라자 1층 108호","indutype":"음료식품 - 기타음료식품","category":"food"}]},{"lat":"37.346168479","long":"126.80427649","imageIndex":7,"items":[{"name":"에그머니","tel":"070-8416-4203","addr":"경기도 안산시 단원구 선부동 1050-3번지 202호","indutype":"음료식품 - 농·축·수산품","category":"food"}]},{"lat":"37.339554453","long":"126.79349447","imageIndex":7,"items":[{"name":"연세우유","tel":"031-494-4578","addr":"경기도 안산시 단원구 선부동 984-4번지 1층","indutype":"음료식품 - 기타음료식품","category":"food"}]},{"lat":"37.3474485","long":"126.81568313","imageIndex":7,"items":[{"name":"열린축산","tel":"031-411-7701","addr":"경기도 안산시 단원구 선부동 1108-20번지 1층","indutype":"음료식품 - 정육점","category":"food"}]},{"lat":"37.342725118","long":"126.81438577","imageIndex":7,"items":[{"name":"영광유통","tel":"031-413-9665","addr":"경기도 안산시 단원구 선부동 1141-8번지 뉴서울하이츠 104호","indutype":"음료식품 - 기타음료식품","category":"food"}]},{"lat":"37.336921963","long":"126.80844217","imageIndex":7,"items":[{"name":"오복떡집","tel":"031-495-6597","addr":"경기도 안산시 단원구 선부동 1083-1번지 106호","indutype":"음료식품 - 제과점","category":"food"}]},{"lat":"37.342726571","long":"126.81529987","imageIndex":7,"items":[{"name":"옥주떡방앗간","tel":"031-411-0777","addr":"경기도 안산시 단원구 선부동 1090-18번지 1층","indutype":"음료식품 - 제과점","category":"food"}]},{"lat":"37.337641574","long":"126.80232417","imageIndex":7,"items":[{"name":"올레식품","tel":"031-413-7557","addr":"경기도 안산시 단원구 선부동 973-3번지 102호","indutype":"음료식품 - 기타음료식품","category":"food"}]},{"lat":"37.346783865","long":"126.80588873","imageIndex":7,"items":[{"name":"우리건강원","tel":"031-405-3368","addr":"경기도 안산시 단원구 선부동 1052-1번지","indutype":"건강식품 - 기타건강식품","category":"food"}]},{"lat":"37.329062991","long":"126.81269359","imageIndex":7,"items":[{"name":"우리떡방앗간","tel":"02-401-4313","addr":"경기도 안산시 단원구 선부동 1078-4상가가동1층104호","indutype":"음료식품 - 기타음료식품","category":"food"}]},{"lat":"37.335864374","long":"126.81188656","imageIndex":7,"items":[{"name":"우리수산","tel":"070-4667-6646","addr":"경기도 안산시 단원구 선부동 1076-4번지 군자빌딩 지하1층 101호","indutype":"음료식품 - 농·축·수산품","category":"food"},{"name":"자연헬스케어","tel":"031-484-8275","addr":"경기도 안산시 단원구 선부동 1076-4번지 군자빌딩 306-1호","indutype":"건강식품 - 기타건강식품","category":"food"},{"name":"진이찬방","tel":"031-402-7800","addr":"경기도 안산시 단원구 선부동 1076-4번지 군자빌딩 1층 105호","indutype":"음료식품 - 기타음료식품","category":"food"}]},{"lat":"37.336563001","long":"126.80932327","imageIndex":7,"items":[{"name":"은하수","tel":"031-487-9936","addr":"경기도 안산시 단원구 선부동 1070-18번지 6층","indutype":"음료식품 - 기타음료식품","category":"food"},{"name":"은하수GDR스쿨","tel":"031-486-0082","addr":"경기도 안산시 단원구 선부동 1070-18번지 상록타운 5층","indutype":"음료식품 - 기타음료식품","category":"food"},{"name":"희락 안산점","tel":"031-744-7678","addr":"경기도 안산시 단원구 선부동 1070-18번지 6층","indutype":"음료식품 - 기타음료식품","category":"food"}]},{"lat":"37.34530453","long":"126.80488818","imageIndex":7,"items":[{"name":"이삭","tel":"031-414-6302","addr":"경기도 안산시 단원구 선부동 1046-7번지 1층 2호","indutype":"음료식품 - 농·축·수산품","category":"food"},{"name":"이삭","tel":"031-414-6302","addr":"경기도 안산시 단원구 선부동 1046-7번지 1층 2호","indutype":"음료식품 - 농·축·수산품","category":"food"}]},{"lat":"37.344061869","long":"126.80533158","imageIndex":7,"items":[{"name":"인연담아","tel":"070-8623-6928","addr":"경기도 안산시 단원구 선부동 1022-2번지 제자교회 101호","indutype":"음료식품 - 기타음료식품","category":"food"}]},{"lat":"37.3440618694","long":"126.8053315760","imageIndex":7,"items":[{"name":"인연담아","tel":"","addr":"경기도 안산시 단원구 선부동 1022-2번지","indutype":"제조업 - 식품제조가공","category":"food"}]},{"lat":"37.345089569","long":"126.80565616","imageIndex":7,"items":[{"name":"전국유통","tel":"031-505-6143","addr":"경기도 안산시 단원구 선부동 1043-19번지 102호","indutype":"음료식품 - 농·축·수산품","category":"food"}]},{"lat":"37.341895917","long":"126.81421857","imageIndex":7,"items":[{"name":"정인축산","tel":"031-483-8988","addr":"경기도 안산시 단원구 선부동 1143-10번지 1층","indutype":"음료식품 - 정육점","category":"food"}]},{"lat":"37.339527961","long":"126.79379923","imageIndex":7,"items":[{"name":"제이엠 (JM) 구쁘다 미트","tel":"031-414-4549","addr":"경기도 안산시 단원구 선부동 984-6번지 지하1층","indutype":"음료식품 - 정육점","category":"food"}]},{"lat":"37.346891648","long":"126.80568531","imageIndex":7,"items":[{"name":"제일식품","tel":"031-413-6450","addr":"경기도 안산시 단원구 선부동 1052-7번지","indutype":"음료식품 - 기타음료식품","category":"food"}]},{"lat":"37.336617561","long":"126.8041888","imageIndex":7,"items":[{"name":"주식회사 마운틴미트","tel":"031-487-6340","addr":"경기도 안산시 단원구 선부동 970-8번지","indutype":"음료식품 - 정육점","category":"food"}]},{"lat":"37.337392849","long":"126.80443501","imageIndex":7,"items":[{"name":"준수농산","tel":"031-480-0005","addr":"경기도 안산시 단원구 선부동 993-10번지 한마을당구장 101호","indutype":"음료식품 - 농·축·수산품","category":"food"}]},{"lat":"37.346333684","long":"126.8115779","imageIndex":7,"items":[{"name":"진안정육점","tel":"031-410-3419","addr":"경기도 안산시 단원구 선부동 1122-19번지","indutype":"음료식품 - 정육점","category":"food"}]},{"lat":"37.339035031","long":"126.80049236","imageIndex":7,"items":[{"name":"진영청과","tel":"031-485-9980","addr":"경기도 안산시 단원구 선부동 977-18번지","indutype":"음료식품 - 농·축·수산품","category":"food"}]},{"lat":"37.346665102","long":"126.81598979","imageIndex":7,"items":[{"name":"착한현미수제누룽지","tel":"031-405-7579","addr":"경기도 안산시 단원구 선부동 1103-17번지 1층","indutype":"음료식품 - 기타음료식품","category":"food"}]},{"lat":"37.341390225","long":"126.80796797","imageIndex":7,"items":[{"name":"참치가게","tel":"031-403-3782","addr":"경기도 안산시 단원구 선부동 1059-14번지 1층 102호","indutype":"음료식품 - 농·축·수산품","category":"food"}]},{"lat":"37.347917762","long":"126.81052429","imageIndex":7,"items":[{"name":"참치유통전문 혼","tel":"","addr":"경기도 안산시 단원구 선부동 1127-13번지 팰리스빌 201호","indutype":"음료식품 - 농·축·수산품","category":"food"}]},{"lat":"37.34297172","long":"126.80537957","imageIndex":7,"items":[{"name":"충북건강원","tel":"031-484-8998","addr":"경기도 안산시 단원구 선부동 1024-7번지","indutype":"건강식품 - 기타건강식품","category":"food"},{"name":"한미누룽지","tel":"031-212-9080","addr":"경기도 안산시 단원구 선부동 1024-7번지 1층 101호","indutype":"음료식품 - 기타음료식품","category":"food"}]},{"lat":"37.335920594","long":"126.80768872","imageIndex":7,"items":[{"name":"칠연푸드시스템","tel":"031-405-5996","addr":"경기도 안산시 단원구 선부동 1070-13번지 한우리크리닉 지하층 01호","indutype":"음료식품 - 기타음료식품","category":"food"}]},{"lat":"37.344006241","long":"126.8154434","imageIndex":7,"items":[{"name":"코코봉봉베이커리","tel":"031-486-8208","addr":"경기도 안산시 단원구 선부동 1091번지 103호","indutype":"음료식품 - 제과점","category":"food"}]},{"lat":"37.336201097","long":"126.80841018","imageIndex":7,"items":[{"name":"코코호도(선부점)","tel":"031-413-1223","addr":"경기도 안산시 단원구 선부동 1070-15번지 단원프라자 1층 104호","indutype":"음료식품 - 제과점","category":"food"}]},{"lat":"37.344722516","long":"126.80707909","imageIndex":7,"items":[{"name":"태백산식품","tel":"031-403-8293","addr":"경기도 안산시 단원구 선부동 1057-12번지 1층","indutype":"음료식품 - 기타음료식품","category":"food"}]},{"lat":"37.344447773","long":"126.81546487","imageIndex":7,"items":[{"name":"통큰정육점","tel":"031-401-8893","addr":"경기도 안산시 단원구 선부동 1096-18번지 2호","indutype":"음료식품 - 정육점","category":"food"}]},{"lat":"37.333171362","long":"126.81252526","imageIndex":7,"items":[{"name":"파리바게뜨다이아몬드광장점","tel":"031-405-1617","addr":"경기도 안산시 단원구 선부동 1077-3 다이아몬드프라자1층109호-110호","indutype":"음료식품 - 제과점","category":"food"}]},{"lat":"37.336614393","long":"126.81323877","imageIndex":7,"items":[{"name":"파리바게뜨안산선부점","tel":"031-405-0092","addr":"경기도 안산시 단원구 선부동 1081한양산호상가108호","indutype":"음료식품 - 제과점","category":"food"}]},{"lat":"37.339332885","long":"126.80079625","imageIndex":7,"items":[{"name":"페레그료스턱(PEREKRYOSTOK)","tel":"070-1111-1111","addr":"경기도 안산시 단원구 선부동 1001-12번지 103호","indutype":"음료식품 - 기타음료식품","category":"food"}]},{"lat":"37.337146158","long":"126.80779839","imageIndex":7,"items":[{"name":"풍년한우도매센타","tel":"031-410-8894","addr":"경기도 안산시 단원구 선부동 1069-1번지 주공10단지아파트 104호","indutype":"음료식품 - 정육점","category":"food"}]},{"lat":"37.32917191","long":"126.81318978","imageIndex":7,"items":[{"name":"픽미픽미아이스 선부점","tel":"","addr":"경기도 안산시 단원구 선부동 1078-3번지","indutype":"음료식품 - 기타음료식품","category":"food"}]},{"lat":"37.342582623","long":"126.8043875","imageIndex":7,"items":[{"name":"하루반찬","tel":"031-480-7282","addr":"경기도 안산시 단원구 선부동 1027-11번지 1층","indutype":"음료식품 - 기타음료식품","category":"food"}]},{"lat":"37.342444502","long":"126.80802167","imageIndex":7,"items":[{"name":"한중축산유통","tel":"031-494-7930","addr":"경기도 안산시 단원구 선부동 1058-36번지 101호","indutype":"음료식품 - 정육점","category":"food"}]},{"lat":"37.352695529","long":"126.80649405","imageIndex":7,"items":[{"name":"해신유통","tel":"031-405-9234","addr":"경기도 안산시 단원구 선부동 218-3번지","indutype":"음료식품 - 기타음료식품","category":"food"}]},{"lat":"37.33711097","long":"126.80291237","imageIndex":7,"items":[{"name":"행복한 축산","tel":"031-405-7677","addr":"경기도 안산시 단원구 선부동 973-10번지 승용김밥 101호","indutype":"음료식품 - 정육점","category":"food"}]},{"lat":"37.337701328","long":"126.81119356","imageIndex":7,"items":[{"name":"형제청과","tel":"031-487-9559","addr":"경기도 안산시 단원구 선부동 1082번지 동명 상가 407호","indutype":"음료식품 - 농·축·수산품","category":"food"}]},{"lat":"37.34183733","long":"126.80591294","imageIndex":7,"items":[{"name":"화랑정육점","tel":"031-483-4372","addr":"경기도 안산시 단원구 선부동 1031-9번지","indutype":"음료식품 - 정육점","category":"food"}]},{"lat":"37.341031327","long":"126.80346622","imageIndex":7,"items":[{"name":"효성건강본가","tel":"031-416-4477","addr":"경기도 안산시 단원구 선부동 1008-7번지 1층","indutype":"건강식품 - 기타건강식품","category":"food"}]},{"lat":"37.343447649","long":"126.81546735","imageIndex":7,"items":[{"name":"효성건강연구원","tel":"031-418-4477","addr":"경기도 안산시 단원구 선부동 1091-19번지 101호","indutype":"건강식품 - 기타건강식품","category":"food"}]},{"lat":"37.3434476490","long":"126.8154673542","imageIndex":7,"items":[{"name":"효성건강연구원","tel":"031-418-4477","addr":"경기도 안산시 단원구 선부동 1091-19번지","indutype":"제조업 - 기타식품류추출가공업","category":"food"}]},{"lat":"37.338889417","long":"126.79446679","imageIndex":7,"items":[{"name":"훈제제과점","tel":"031-7933-6953","addr":"경기도 안산시 단원구 선부동 979-11번지 1층 일부","indutype":"음료식품 - 제과점","category":"food"}]}]