[{"lat":"38.00228398","long":"127.0675857","imageIndex":17,"items":[{"name":"(주)서광전기통신","tel":"031-833-6304","addr":"경기도 연천군 청산면 초성리 336-5번지","indutype":"사무통신 - 통신기기","category":"other"}]},{"lat":"38.00270766","long":"127.0671192","imageIndex":17,"items":[{"name":"대성가설","tel":"031-835-6626","addr":"경기도 연천군 청산면 초성리 326-2번지 외1필지","indutype":"건축자재 - 기타건축자재","category":"other"}]},{"lat":"37.98778634","long":"127.0709196","imageIndex":17,"items":[{"name":"동현창호","tel":"031-835-7370","addr":"경기도 연천군 청산면 초성리 415-2번지","indutype":"직물 - 카페트,커튼,천막,지물","category":"other"},{"name":"명성건축","tel":"031-835-3382","addr":"경기도 연천군 청산면 초성리 415-2번지","indutype":"회원제형태 - 기타4","category":"other"},{"name":"주식회사 경남관광","tel":"031-1600-7740","addr":"경기도 연천군 청산면 초성리 415-2번지","indutype":"여행 - 관광여행","category":"other"}]},{"lat":"37.98967873","long":"127.0701131","imageIndex":17,"items":[{"name":"두리종합건재","tel":"031-835-3303","addr":"경기도 연천군 청산면 초성리 368-37번지","indutype":"건축자재 - 목재·석재·철물","category":"other"},{"name":"씨유KH에너지연천충전소점","tel":"080-080-3663","addr":"경기도 연천군 청산면 초성리 368-37번지","indutype":"유통업 영리 - 편 의 점","category":"other"}]},{"lat":"37.99081405","long":"127.069841","imageIndex":17,"items":[{"name":"미성석재","tel":"031-832-2807","addr":"경기도 연천군 청산면 초성리 366","indutype":"건축자재 - 목재·석재·철물","category":"other"}]},{"lat":"37.98762733","long":"127.0930257","imageIndex":17,"items":[{"name":"미소","tel":"","addr":"경기도 연천군 청산면 초성리 7-4번지","indutype":"신변잡화 - 기타잡화","category":"other"}]},{"lat":"37.99784026","long":"127.0714754","imageIndex":17,"items":[{"name":"삼성환경","tel":"031-0000-0000","addr":"경기도 연천군 청산면 초성리 207-15번지","indutype":"신변잡화 - 기타잡화","category":"other"}]},{"lat":"37.99709256","long":"127.0713608","imageIndex":17,"items":[{"name":"신성닥트","tel":"031-832-3833","addr":"경기도 연천군 청산면 초성리 214-15","indutype":"건축자재 - 기타건축자재","category":"other"}]},{"lat":"38.00189627","long":"127.0681432","imageIndex":17,"items":[{"name":"씨유연천청산점","tel":"031-835-2406","addr":"경기도 연천군 청산면 초성리 336번지 104호","indutype":"유통업 영리 - 편 의 점","category":"other"}]},{"lat":"37.9833188","long":"127.0691398","imageIndex":17,"items":[{"name":"씨유연천초성점","tel":"031-835-1426","addr":"경기도 연천군 청산면 초성리 448번지","indutype":"유통업 영리 - 편 의 점","category":"other"}]},{"lat":"37.99365174","long":"127.0701737","imageIndex":17,"items":[{"name":"씨유연천한탄강점","tel":"031-835-5210","addr":"경기도 연천군 청산면 초성리 186번지 1층","indutype":"유통업 영리 - 편 의 점","category":"other"}]},{"lat":"37.99756964","long":"127.0720557","imageIndex":17,"items":[{"name":"엔젤수족관","tel":"031-832-0083","addr":"경기도 연천군 청산면 초성리 212번지","indutype":"문화.취미 - 수족관","category":"other"}]},{"lat":"37.97917541","long":"127.0676451","imageIndex":17,"items":[{"name":"엘리트","tel":"070-8836-8334","addr":"경기도 연천군 청산면 초성리 492-1번지","indutype":"의류 - 정장","category":"other"}]},{"lat":"37.97842818","long":"127.0666769","imageIndex":17,"items":[{"name":"여명철강","tel":"031-835-8250","addr":"경기도 연천군 청산면 초성리 501번지","indutype":"기타 - 기계공구","category":"other"}]},{"lat":"37.98190472","long":"127.0685011","imageIndex":17,"items":[{"name":"유성샤시","tel":"031-835-1182","addr":"경기도 연천군 청산면 초성리 439-11 1/4","indutype":"회원제형태 - 기타4","category":"other"}]},{"lat":"37.98698602","long":"127.0828712","imageIndex":17,"items":[{"name":"이삭","tel":"031-866-3217","addr":"경기도 연천군 청산면 초성리 64-8번지 301호","indutype":"의류 - 정장","category":"other"}]},{"lat":"37.98742783","long":"127.0823366","imageIndex":17,"items":[{"name":"이삭","tel":"031-866-0058","addr":"경기도 연천군 청산면 초성리 63-14번지","indutype":"의류 - 정장","category":"other"}]},{"lat":"37.98150882","long":"127.0675902","imageIndex":17,"items":[{"name":"청산면사무소","tel":"031-839-2594","addr":"경기도 연천군 청산면 초성리 440-15번지","indutype":"용역 서비스 - 사무서비스","category":"other"}]},{"lat":"38.00073113","long":"127.0732883","imageIndex":17,"items":[{"name":"학담사","tel":"031-835-1568","addr":"경기도 연천군 청산면 초성리 245-13번지","indutype":"서적문구 - 문구용품","category":"other"}]},{"lat":"37.98703994","long":"127.0830647","imageIndex":17,"items":[{"name":"화성특장","tel":"070-8261-9774","addr":"경기도 연천군 청산면 초성리 64-3번지","indutype":"수리서비스 - 기타수리서비스","category":"other"}]}]