[{"lat":"37.168553167","long":"127.06772386","imageIndex":17,"items":[{"name":"(주)에코바이오","tel":"031-378-9898","addr":"경기도 오산시 수청동 629-13번지","indutype":"신변잡화 - 기타잡화","category":"other"}]},{"lat":"37.169557553","long":"127.0594716","imageIndex":17,"items":[{"name":"(주)이노건축디자인","tel":"031-376-4622","addr":"경기도 오산시 수청동 598-1번지","indutype":"용역 서비스 - 기타용역서비스","category":"other"}]},{"lat":"37.163601339","long":"127.06012015","imageIndex":17,"items":[{"name":"GS25오산공덕점","tel":"","addr":"경기도 오산시 수청동 532번지 공덕그린빌라 103동 지하층 상가호","indutype":"유통업 영리 - 편 의 점","category":"other"}]},{"lat":"37.169418076","long":"127.06789349","imageIndex":17,"items":[{"name":"GS25오산매홀점","tel":"","addr":"경기도 오산시 수청동 631-3번지 1층","indutype":"유통업 영리 - 편 의 점","category":"other"}]},{"lat":"37.164474429","long":"127.062001","imageIndex":17,"items":[{"name":"GS25오산수청점","tel":"02-2006-2485","addr":"경기도 오산시 수청동 517-8번지 1층","indutype":"유통업 영리 - 편 의 점","category":"other"}]},{"lat":"37.164303765","long":"127.06092004","imageIndex":17,"items":[{"name":"OLD&NEW(올드앤뉴)","tel":"031-378-1787","addr":"경기도 오산시 수청동 520-3번지 102호","indutype":"의류 - 정장","category":"other"}]},{"lat":"37.169419687","long":"127.06488725","imageIndex":17,"items":[{"name":"SK행운편의점","tel":"","addr":"경기도 오산시 수청동 619-5번지 1층 103호 일부","indutype":"유통업 영리 - 편 의 점","category":"other"}]},{"lat":"37.169143726","long":"127.0580864","imageIndex":17,"items":[{"name":"TV 할인 매장","tel":"070-4814-9677","addr":"경기도 오산시 수청동 592-7번지","indutype":"전기제품 - 가전제품","category":"other"}]},{"lat":"37.172531156","long":"127.05913602","imageIndex":17,"items":[{"name":"scv컴퓨터","tel":"031-377-2998","addr":"경기도 오산시 수청동 559-2번지 세교택지개발지구단8-9-16 102호","indutype":"수리서비스 - 사무·통신기기수리","category":"other"}]},{"lat":"37.170473451","long":"127.06575509","imageIndex":17,"items":[{"name":"가족사진연구소","tel":"","addr":"경기도 오산시 수청동 620-1번지 백현프라자 401호","indutype":"광학제품 - 사진관","category":"other"},{"name":"뉴욕 (New York)","tel":"","addr":"경기도 오산시 수청동 620-1번지 백현프라자 107호","indutype":"의류 - 정장","category":"other"}]},{"lat":"37.161416346","long":"127.06871974","imageIndex":17,"items":[{"name":"경기서부관광버스협동조합","tel":"031-376-9800","addr":"경기도 오산시 수청동 87-13번지","indutype":"여행 - 관광여행","category":"other"}]},{"lat":"37.170752965","long":"127.06539501","imageIndex":17,"items":[{"name":"골프존파크 수청세교점","tel":"031-377-7145","addr":"경기도 오산시 수청동 617-6번지 701-703호","indutype":"레져용품 - 골프용품 전문점","category":"other"},{"name":"당근폰","tel":"031-223-5214","addr":"경기도 오산시 수청동 617-6번지 G플레이스 116호","indutype":"사무통신 - 통신기기","category":"other"},{"name":"라프레미디","tel":"","addr":"경기도 오산시 수청동 617-6번지 1층 119호","indutype":"의류 - 정장","category":"other"},{"name":"스터디카페공간 오산세교점","tel":"031-375-0913","addr":"경기도 오산시 수청동 617-6번지 303,304호","indutype":"용역 서비스 - 사무서비스","category":"other"}]},{"lat":"37.172774422","long":"127.05916998","imageIndex":17,"items":[{"name":"국민공인중개사합동사무소","tel":"031-378-0501","addr":"경기도 오산시 수청동 558-10번지 1층 102호","indutype":"용역 서비스 - 부동산 중개·임대","category":"other"},{"name":"러스(LUS)","tel":"031-232-1907","addr":"경기도 오산시 수청동 558-10번지 3층 301호","indutype":"용역 서비스 - 기타용역서비스","category":"other"}]},{"lat":"37.169026316","long":"127.05867179","imageIndex":17,"items":[{"name":"그곳","tel":"031-8043-1100","addr":"경기도 오산시 수청동 593-4번지","indutype":"용역 서비스 - 종합용역","category":"other"}]},{"lat":"37.168976897","long":"127.06728511","imageIndex":17,"items":[{"name":"그레이스네 애견","tel":"031-374-0704","addr":"경기도 오산시 수청동 628-3번지","indutype":"문화.취미 - 애완동물","category":"other"}]},{"lat":"37.172386909","long":"127.05930481","imageIndex":17,"items":[{"name":"글로리아 생수유통","tel":"031-241-1665","addr":"경기도 오산시 수청동 559-8번지","indutype":"유통업 영리 - 기타유통업","category":"other"}]},{"lat":"37.165948567","long":"127.06877997","imageIndex":17,"items":[{"name":"글로빅(GLOVIK)","tel":"070-7594-1686","addr":"경기도 오산시 수청동 14-13번지 유한빌라 302호","indutype":"전기제품 - 가전제품","category":"other"}]},{"lat":"37.168887067","long":"127.06677837","imageIndex":17,"items":[{"name":"꼬샤","tel":"031-375-9317","addr":"경기도 오산시 수청동 627-2번지 1층","indutype":"문화.취미 - 문화취미기타","category":"other"},{"name":"엠엔엠 (M&M)","tel":"","addr":"경기도 오산시 수청동 627-2번지 1층","indutype":"문화.취미 - 문화취미기타","category":"other"}]},{"lat":"37.171359918","long":"127.05888744","imageIndex":17,"items":[{"name":"다산 FURNITURE","tel":"031-376-6671","addr":"경기도 오산시 수청동 567-3번지","indutype":"가구 - 철제가구","category":"other"},{"name":"성진아이트래이드","tel":"070-4670-7623","addr":"경기도 오산시 수청동 567-3번지","indutype":"전기제품 - 가전제품","category":"other"}]},{"lat":"37.171746861","long":"127.05994614","imageIndex":17,"items":[{"name":"대경네트워크","tel":"031-376-3077","addr":"경기도 오산시 수청동 563-1번지","indutype":"수리서비스 - 사무·통신기기수리","category":"other"}]},{"lat":"37.164195341","long":"127.06152792","imageIndex":17,"items":[{"name":"대광I.T","tel":"070-6478-2137","addr":"경기도 오산시 수청동 518-3번지 1층","indutype":"사무통신 - 사무용 OA기기","category":"other"}]},{"lat":"37.166254488","long":"127.0695571","imageIndex":17,"items":[{"name":"대선교육","tel":"031-373-2387","addr":"경기도 오산시 수청동 12-8번지","indutype":"서적문구 - 일반서적","category":"other"}]},{"lat":"37.16455573","long":"127.06158449","imageIndex":17,"items":[{"name":"대성ENG","tel":"031-000-0000","addr":"경기도 오산시 수청동 517-4번지 1층","indutype":"건축자재 - 보일러·펌프·샷시","category":"other"}]},{"lat":"37.163970191","long":"127.06130258","imageIndex":17,"items":[{"name":"대우설비철물","tel":"031-375-6886","addr":"경기도 오산시 수청동 518-14번지","indutype":"건축자재 - 목재·석재·철물","category":"other"}]},{"lat":"37.165861925","long":"127.06222726","imageIndex":17,"items":[{"name":"대흥피엔씨","tel":"031-376-8404","addr":"경기도 오산시 수청동 355-1","indutype":"기타 - 기타 전문점","category":"other"}]},{"lat":"37.1707261","long":"127.06507973","imageIndex":17,"items":[{"name":"더라임","tel":"031-000-0000","addr":"경기도 오산시 수청동 617-5번지 111호","indutype":"의류 - 정장","category":"other"},{"name":"주식회사 시너지타워","tel":"031-376-8279","addr":"경기도 오산시 수청동 617-5번지 지스퀘어 106호","indutype":"건축자재 - 부동산 분양","category":"other"},{"name":"준 텔레콤","tel":"031-377-1121","addr":"경기도 오산시 수청동 617-5번지 103호","indutype":"사무통신 - 통신기기","category":"other"},{"name":"코인워시 오산대역점","tel":"031-375-5457","addr":"경기도 오산시 수청동 617-5번지 107호","indutype":"수리서비스 - 세탁소","category":"other"}]},{"lat":"37.16769575","long":"127.07027895","imageIndex":17,"items":[{"name":"더페인트","tel":"031-376-7282","addr":"경기도 오산시 수청동 10-54번지","indutype":"건축자재 - 페인트","category":"other"}]},{"lat":"37.168697346","long":"127.06770147","imageIndex":17,"items":[{"name":"드레(DERE)","tel":"","addr":"경기도 오산시 수청동 629-14번지 1층","indutype":"의류 - 정장","category":"other"},{"name":"쎄미뇽베베","tel":"","addr":"경기도 오산시 수청동 629-14번지 상가 1층","indutype":"의류 - 정장","category":"other"}]},{"lat":"37.16905412","long":"127.05700544","imageIndex":17,"items":[{"name":"디자인데코","tel":"031-377-3304","addr":"경기도 오산시 수청동 595-6번지 아이빌 204호","indutype":"직물 - 침구·수예점","category":"other"}]},{"lat":"37.168941975","long":"127.06519086","imageIndex":17,"items":[{"name":"똥강아지들","tel":"031-373-4612","addr":"경기도 오산시 수청동 621-1번지 1층 106호","indutype":"문화.취미 - 애완동물","category":"other"},{"name":"브리제","tel":"","addr":"경기도 오산시 수청동 621-1번지 선우중앙타워 107호","indutype":"의류 - 정장","category":"other"}]},{"lat":"37.169192877","long":"127.06778071","imageIndex":17,"items":[{"name":"라라 힐링카페","tel":"","addr":"경기도 오산시 수청동 629-2번지 101호","indutype":"신변잡화 - 기타잡화","category":"other"}]},{"lat":"37.169337345","long":"127.06722912","imageIndex":17,"items":[{"name":"라벨제이","tel":"031-663-0447","addr":"경기도 오산시 수청동 626-5번지 102호","indutype":"의류 - 아동의류","category":"other"}]},{"lat":"37.170836634","long":"127.06030576","imageIndex":17,"items":[{"name":"라이프 룩","tel":"","addr":"경기도 오산시 수청동 564-4번지 9호","indutype":"의류 - 정장","category":"other"}]},{"lat":"37.168607549","long":"127.06713843","imageIndex":17,"items":[{"name":"러브 펫(LUV PET)","tel":"","addr":"경기도 오산시 수청동 628-14번지 1층","indutype":"문화.취미 - 애완동물","category":"other"}]},{"lat":"37.169834208","long":"127.06480877","imageIndex":17,"items":[{"name":"러스미디어","tel":"031-378-2293","addr":"경기도 오산시 수청동 619-7번지 수청프라자 4층 401호","indutype":"전기제품 - 가전제품","category":"other"}]},{"lat":"37.169058277","long":"127.06675599","imageIndex":17,"items":[{"name":"로코코 플라워","tel":"031-376-0755","addr":"경기도 오산시 수청동 627-1번지","indutype":"문화.취미 - 화원","category":"other"}]},{"lat":"37.169473483","long":"127.06539396","imageIndex":17,"items":[{"name":"마로니쥬얼리","tel":"031-223-8654","addr":"경기도 오산시 수청동 619-3번지 A동 105호","indutype":"신변잡화 - 귀금속","category":"other"},{"name":"세븐일레븐오산대역점","tel":"","addr":"경기도 오산시 수청동 619-3번지 베네치아 109호","indutype":"유통업 영리 - 편 의 점","category":"other"},{"name":"싸고이쁘게","tel":"","addr":"경기도 오산시 수청동 619-3번지 베네치아 104호","indutype":"의류 - 정장","category":"other"}]},{"lat":"37.17074693","long":"127.05947249","imageIndex":17,"items":[{"name":"마젠타-J","tel":"031-376-2670","addr":"경기도 오산시 수청동 586-4번지 101(101호~102호)","indutype":"가구 - 기타가구","category":"other"},{"name":"엠엔디(M&D)","tel":"031-376-2670","addr":"경기도 오산시 수청동 586-4번지 부성빌 1층 101호","indutype":"기타 - 기계공구","category":"other"}]},{"lat":"37.164025352","long":"127.05902839","imageIndex":17,"items":[{"name":"만두에어컨","tel":"031-613-7464","addr":"경기도 오산시 수청동 525번지 물향기빌 101호","indutype":"용역 서비스 - 기타용역서비스","category":"other"}]},{"lat":"37.165527466","long":"127.06433239","imageIndex":17,"items":[{"name":"매일보관창고","tel":"031-377-2996","addr":"경기도 오산시 수청동 110-1번지","indutype":"용역 서비스 - 보관및 창고업","category":"other"}]},{"lat":"37.169282802","long":"127.0681073","imageIndex":17,"items":[{"name":"매직디자인","tel":"031-374-9032","addr":"경기도 오산시 수청동 630-1번지 리치빌 1층","indutype":"용역 서비스 - 종합용역","category":"other"}]},{"lat":"37.169449412","long":"127.0595053","imageIndex":17,"items":[{"name":"매화향기","tel":"","addr":"경기도 오산시 수청동 598-5번지 1층","indutype":"문화.취미 - 문화취미기타","category":"other"}]},{"lat":"37.168724273","long":"127.0678929","imageIndex":17,"items":[{"name":"멍이양이","tel":"031-373-4314","addr":"경기도 오산시 수청동 629-6번지 3층 301호","indutype":"문화.취미 - 애완동물","category":"other"}]},{"lat":"37.168666031","long":"127.05839005","imageIndex":17,"items":[{"name":"물향기 아동복","tel":"","addr":"경기도 오산시 수청동 595-15번지 101호","indutype":"의류 - 아동의류","category":"other"}]},{"lat":"37.170972029","long":"127.05981044","imageIndex":17,"items":[{"name":"물향기닷컴","tel":"031-377-3112","addr":"경기도 오산시 수청동 563-9번지","indutype":"사무통신 - 사무용 OA기기","category":"other"}]},{"lat":"37.171719938","long":"127.05972093","imageIndex":17,"items":[{"name":"미니스톱 오산수청점","tel":"031-1577-9621","addr":"경기도 오산시 수청동 563-14번지 101,102호","indutype":"유통업 영리 - 편 의 점","category":"other"}]},{"lat":"37.169138617","long":"127.06814096","imageIndex":17,"items":[{"name":"미희씨공방","tel":"070-8260-0101","addr":"경기도 오산시 수청동 630-2번지","indutype":"문화.취미 - 민예·공예품","category":"other"}]},{"lat":"37.169170366","long":"127.05891961","imageIndex":17,"items":[{"name":"바느질일기","tel":"031-378-2607","addr":"경기도 오산시 수청동 594-2번지 물향기빌 102호","indutype":"직물 - 옷감·직물","category":"other"}]},{"lat":"37.172134655","long":"127.05922581","imageIndex":17,"items":[{"name":"박선생창의역사지리교실","tel":"031-8050-2671","addr":"경기도 오산시 수청동 561-1번지 한신빌 1층 상가호","indutype":"서적문구 - 일반서적","category":"other"},{"name":"이엔에스","tel":"031-378-5430","addr":"경기도 오산시 수청동 561-1번지 한신빌 101호","indutype":"수리서비스 - 기타수리서비스","category":"other"}]},{"lat":"37.169779576","long":"127.06588963","imageIndex":17,"items":[{"name":"블루모바일","tel":"031-373-7785","addr":"경기도 오산시 수청동 620-4번지 103호","indutype":"사무통신 - 통신기기","category":"other"},{"name":"씨유경기수정점","tel":"080-080-3663","addr":"경기도 오산시 수청동 620-4번지 우정프라자 104호","indutype":"유통업 영리 - 편 의 점","category":"other"}]},{"lat":"37.171305577","long":"127.0594729","imageIndex":17,"items":[{"name":"삐삐","tel":"","addr":"경기도 오산시 수청동 566-1번지 현대캐슬 402호","indutype":"신변잡화 - 액세서리","category":"other"},{"name":"한국도시농업(주)경기지사","tel":"031-374-1650","addr":"경기도 오산시 수청동 566-1번지","indutype":"농업 - 기타농업관련","category":"other"}]},{"lat":"37.165444338","long":"127.06813778","imageIndex":17,"items":[{"name":"세븐일레븐오산수청점","tel":"031-1577-0711","addr":"경기도 오산시 수청동 44-2번지 1층 103호,104호","indutype":"유통업 영리 - 편 의 점","category":"other"}]},{"lat":"37.172720466","long":"127.05894475","imageIndex":17,"items":[{"name":"세븐일레븐오산우미정","tel":"","addr":"경기도 오산시 수청동 558-9번지","indutype":"유통업 영리 - 편 의 점","category":"other"}]},{"lat":"37.170944007","long":"127.06183715","imageIndex":17,"items":[{"name":"세븐일레븐오산위드스타점","tel":"031-1577-0711","addr":"경기도 오산시 수청동 608-11번지 1층 111호","indutype":"유통업 영리 - 편 의 점","category":"other"}]},{"lat":"37.165282162","long":"127.06811512","imageIndex":17,"items":[{"name":"수청컴퓨터세탁소","tel":"031-374-9011","addr":"경기도 오산시 수청동 44-3번지","indutype":"수리서비스 - 세탁소","category":"other"}]},{"lat":"37.170636295","long":"127.06450542","imageIndex":17,"items":[{"name":"스타일노리터 오산세교점","tel":"031-374-0906","addr":"경기도 오산시 수청동 617-2번지 1층 102호","indutype":"의류 - 아동의류","category":"other"},{"name":"주식회사 북앤마켓 북스터세교점","tel":"031-111-1111","addr":"경기도 오산시 수청동 617-2번지 1층 101호","indutype":"서적문구 - 일반서적","category":"other"}]},{"lat":"37.172468174","long":"127.05894456","imageIndex":17,"items":[{"name":"신도화성OA","tel":"031-375-7444","addr":"경기도 오산시 수청동 559-1번지 신도리코","indutype":"사무통신 - 사무용 OA기기","category":"other"}]},{"lat":"37.163857685","long":"127.06960003","imageIndex":17,"items":[{"name":"신성에어컨","tel":"","addr":"경기도 오산시 수청동 69-38번지 한호빌라 5동 101호","indutype":"용역 서비스 - 기타용역서비스","category":"other"}]},{"lat":"37.164196433","long":"127.05927621","imageIndex":17,"items":[{"name":"신우방충망","tel":"070-8174-3536","addr":"경기도 오산시 수청동 525-14번지 B02호","indutype":"용역 서비스 - 기타용역서비스","category":"other"}]},{"lat":"37.171107466","long":"127.05922504","imageIndex":17,"items":[{"name":"쎈소방방재","tel":"","addr":"경기도 오산시 수청동 566-6번지 204호","indutype":"기타 - 기계공구","category":"other"}]},{"lat":"37.17044516","long":"127.06808578","imageIndex":17,"items":[{"name":"씨유오산매홀점","tel":"031-375-7961","addr":"경기도 오산시 수청동 625번지 삼미마을 제상가동1층 101호","indutype":"유통업 영리 - 편 의 점","category":"other"}]},{"lat":"37.170639083","long":"127.05888691","imageIndex":17,"items":[{"name":"씨유오산물향기점","tel":"031-898-6568","addr":"경기도 오산시 수청동 586-1번지 102호","indutype":"유통업 영리 - 편 의 점","category":"other"}]},{"lat":"37.171836671","long":"127.06055423","imageIndex":17,"items":[{"name":"씨유오산수청점","tel":"080-080-3663","addr":"경기도 오산시 수청동 608-1번지 더블유타워 1층 104호","indutype":"유통업 영리 - 편 의 점","category":"other"}]},{"lat":"37.170052013","long":"127.06175764","imageIndex":17,"items":[{"name":"씨제이올리브네트웍스(주)홈플러스 오산점","tel":"031-372-5320","addr":"경기도 오산시 수청동 610번지 1층","indutype":"유통업 영리 - 편 의 점","category":"other"},{"name":"크린토피아","tel":"031-374-4205","addr":"경기도 오산시 수청동 610번지 홈플러스오산점 1층","indutype":"수리서비스 - 세탁소","category":"other"},{"name":"홈플러스 문화센터 오산점","tel":"031-8077-8800","addr":"경기도 오산시 수청동 610번지","indutype":"유통업 영리 - 인터넷 종합 Mall","category":"other"},{"name":"홈플러스온라인오산점","tel":"031-8077-8800","addr":"경기도 오산시 수청동 610번지","indutype":"유통업 영리 - 인터넷 종합 Mall","category":"other"}]},{"lat":"37.169418187","long":"127.06769082","imageIndex":17,"items":[{"name":"앤다락공방","tel":"031-731-9709","addr":"경기도 오산시 수청동 631-2번지 103호","indutype":"문화.취미 - 화원","category":"other"}]},{"lat":"37.1614442","long":"127.06722243","imageIndex":17,"items":[{"name":"에스OA","tel":"031-378-6608","addr":"경기도 오산시 수청동 89-6번지","indutype":"사무통신 - 사무용 OA기기","category":"other"}]},{"lat":"37.164060632","long":"127.06061588","imageIndex":17,"items":[{"name":"에코스라이프","tel":"070-8818-5149","addr":"경기도 오산시 수청동 519번지","indutype":"건축자재 - 기타건축자재","category":"other"}]},{"lat":"37.165164983","long":"127.06819383","imageIndex":17,"items":[{"name":"에텔","tel":"031-377-8547","addr":"경기도 오산시 수청동 44-4번지 2층","indutype":"광학제품 - 사진관","category":"other"}]},{"lat":"37.164249867","long":"127.06058224","imageIndex":17,"items":[{"name":"엔젤아트피오피","tel":"","addr":"경기도 오산시 수청동 520-5번지 1층","indutype":"문화.취미 - 문화취미기타","category":"other"}]},{"lat":"37.164338413","long":"127.06370094","imageIndex":17,"items":[{"name":"오산농업협동조합수청지점","tel":"031-375-9113","addr":"경기도 오산시 수청동 514-2번지","indutype":"유통업 비영리 - 농,축협 직영매장","category":"other"},{"name":"헬스메니아","tel":"031-378-9129","addr":"경기도 오산시 수청동 514-2번지 2층","indutype":"회원제형태 - 레져업소","category":"other"}]},{"lat":"37.169359468","long":"127.05916745","imageIndex":17,"items":[{"name":"오산바른자세운동원","tel":"031-375-9847","addr":"경기도 오산시 수청동 597-2번지 강남빌","indutype":"회원제형태 - 레져업소","category":"other"}]},{"lat":"37.163002811","long":"127.06758402","imageIndex":17,"items":[{"name":"오산수청동우편취급소","tel":"031-100-0000","addr":"경기도 오산시 수청동 73-2번지","indutype":"용역 서비스 - 공공요금대행서비스/소","category":"other"}]},{"lat":"37.17134427","long":"127.05361792","imageIndex":17,"items":[{"name":"와이즈메이커즈","tel":"031-1112-1111","addr":"경기도 오산시 수청동 581번지 물향기마을휴먼시아꿈에그린13단지아파트 1307동 1104호","indutype":"서적문구 - 문구용품","category":"other"}]},{"lat":"37.164420557","long":"127.06161817","imageIndex":17,"items":[{"name":"왓포 타이 커뮤니케이션","tel":"","addr":"경기도 오산시 수청동 517-11번지 2층 202호","indutype":"신변잡화 - 기타잡화","category":"other"}]},{"lat":"37.163889351","long":"127.06078462","imageIndex":17,"items":[{"name":"우리공방","tel":"031-8029-4093","addr":"경기도 오산시 수청동 519-6번지","indutype":"문화.취미 - 문화취미기타","category":"other"}]},{"lat":"37.166641892","long":"127.06963625","imageIndex":17,"items":[{"name":"움찬협동조합","tel":"031-000-0000","addr":"경기도 오산시 수청동 10-15번지","indutype":"서적문구 - 기타서적문구","category":"other"}]},{"lat":"37.169585519","long":"127.05747871","imageIndex":17,"items":[{"name":"원탑","tel":"031-373-2447","addr":"경기도 오산시 수청동 588-5번지 101호","indutype":"기타 - 기계공구","category":"other"}]},{"lat":"37.170555446","long":"127.06403245","imageIndex":17,"items":[{"name":"이가마트(IGA MART) 웰봄병원점","tel":"","addr":"경기도 오산시 수청동 617-1번지 1층 101호","indutype":"유통업 영리 - 편 의 점","category":"other"}]},{"lat":"37.171999326","long":"127.05958602","imageIndex":17,"items":[{"name":"제이제이 사무기기","tel":"031-354-1511","addr":"경기도 오산시 수청동 561-7번지 한국자격개발원 202호","indutype":"사무통신 - 사무용 OA기기","category":"other"}]},{"lat":"37.16852632","long":"127.06738606","imageIndex":17,"items":[{"name":"주식회사 태그공작소","tel":"031-372-0706","addr":"경기도 오산시 수청동 628-7번지 미담 1층 101호","indutype":"건축자재 - 인테리어전문","category":"other"}]},{"lat":"37.165832662","long":"127.0665281","imageIndex":17,"items":[{"name":"주식회사도일렌터카","tel":"031-377-5000","addr":"경기도 오산시 수청동 34번지","indutype":"여행 - 렌터카","category":"other"}]},{"lat":"37.171945425","long":"127.05924819","imageIndex":17,"items":[{"name":"주식회사삼성오피스","tel":"00-1544-1218","addr":"경기도 오산시 수청동 561-8번지 세명 1층","indutype":"사무통신 - 사무용 OA기기","category":"other"}]},{"lat":"37.169585122","long":"127.05833442","imageIndex":17,"items":[{"name":"지원드림솔루션주식회사","tel":"031-372-2242","addr":"경기도 오산시 수청동 589-4번지 101호","indutype":"회원제형태 - 기타1","category":"other"}]},{"lat":"37.170584823","long":"127.05930347","imageIndex":17,"items":[{"name":"지혜꽃화원","tel":"031-376-5870","addr":"경기도 오산시 수청동 586-7번지 101호","indutype":"문화.취미 - 화원","category":"other"}]},{"lat":"37.165029176","long":"127.06936462","imageIndex":17,"items":[{"name":"창호인테리어","tel":"031-8058-5823","addr":"경기도 오산시 수청동 15-1번지","indutype":"건축자재 - 인테리어전문","category":"other"}]},{"lat":"37.164033069","long":"127.06169668","imageIndex":17,"items":[{"name":"칠보당","tel":"031-373-1161","addr":"경기도 오산시 수청동 518-11번지 근린상가 102호","indutype":"신변잡화 - 귀금속","category":"other"}]},{"lat":"37.168724696","long":"127.06711601","imageIndex":17,"items":[{"name":"케이(K)메이저크리닝","tel":"","addr":"경기도 오산시 수청동 628-15번지 삼원빌 1층","indutype":"수리서비스 - 세탁소","category":"other"}]},{"lat":"37.172666584","long":"127.05856187","imageIndex":17,"items":[{"name":"크린토피아","tel":"031-377-1970","addr":"경기도 오산시 수청동 558-6번지 마이다스프라자 1층 109호","indutype":"수리서비스 - 세탁소","category":"other"},{"name":"휴대폰11번가(물향기)","tel":"031-375-6010","addr":"경기도 오산시 수청동 558-6번지 외2필지101호~102호 101호","indutype":"사무통신 - 통신기기","category":"other"}]},{"lat":"37.172965397","long":"127.05534177","imageIndex":17,"items":[{"name":"토이야","tel":"","addr":"경기도 오산시 수청동 569번지 우미이노스빌 104동 805호","indutype":"서적문구 - 완구점","category":"other"}]},{"lat":"37.172359958","long":"127.0591359","imageIndex":17,"items":[{"name":"토탈365","tel":"031-377-3684","addr":"경기도 오산시 수청동 559-9 101호~102호 101","indutype":"전기제품 - 가전제품","category":"other"},{"name":"한신시스템","tel":"031-377-3684","addr":"경기도 오산시 수청동 559-9번지 102호","indutype":"전기제품 - 냉열기기","category":"other"}]},{"lat":"37.16719288","long":"127.06719353","imageIndex":17,"items":[{"name":"플로디 랩","tel":"031-372-5910","addr":"경기도 오산시 수청동 636-5번지 102호","indutype":"문화.취미 - 화원","category":"other"}]},{"lat":"37.16939126","long":"127.06749939","imageIndex":17,"items":[{"name":"플스빌","tel":"031-373-3415","addr":"경기도 오산시 수청동 631-1번지 상가 103호","indutype":"서적문구 - 완구점","category":"other"}]},{"lat":"37.170945117","long":"127.05956271","imageIndex":17,"items":[{"name":"현대포장","tel":"031-374-1650","addr":"경기도 오산시 수청동 566-3","indutype":"유통업 영리 - 기타유통업","category":"other"}]},{"lat":"37.163916333","long":"127.06088597","imageIndex":17,"items":[{"name":"화랑인테리어","tel":"031-378-8572","addr":"경기도 오산시 수청동 519-5번지 태진전기 1층 101호","indutype":"건축자재 - 인테리어전문","category":"other"}]},{"lat":"37.1656962","long":"127.06891486","imageIndex":17,"items":[{"name":"후슬라임","tel":"","addr":"경기도 오산시 수청동 14-5번지 3층","indutype":"서적문구 - 완구점","category":"other"}]}]