[{"lat":"37.276729166","long":"126.54979593","imageIndex":16,"items":[{"name":"김영미국제교육원","tel":"032-880-0580","addr":"경기도 안산시 단원구 대부북동 1871-12번지 구봉어촌 1동 303호","indutype":"학원 - 기타 교육기관","category":"study"}]},{"lat":"37.247704043","long":"126.57810194","imageIndex":16,"items":[{"name":"대부고등학교","tel":"","addr":"경기도 안산시 단원구 대부북동 697-6번지 대부종합고등학교","indutype":"학원 - 초중고교육기관","category":"study"},{"name":"대부고등학교_수업료","tel":"","addr":"경기도 안산시 단원구 대부북동 697-6번지 대부종합고등학교","indutype":"학원 - 초중고교육기관","category":"study"},{"name":"대부중학교","tel":"031-880-3507","addr":"경기도 안산시 단원구 대부북동 697-6번지","indutype":"학원 - 초중고교육기관","category":"study"}]},{"lat":"37.2443952104","long":"126.5825723208","imageIndex":16,"items":[{"name":"대부이엠학원","tel":"032-884-6633","addr":"경기도 안산시 단원구 대부북동 288-2번지","indutype":"교육서비스업 - 보습학원","category":"study"}]},{"lat":"37.242203017","long":"126.5843539","imageIndex":16,"items":[{"name":"대부이엠학원","tel":"032-884-6633","addr":"경기도 안산시 단원구 대부북동 501-8번지","indutype":"학원 - 보습학원","category":"study"}]},{"lat":"37.243119893","long":"126.58374024","imageIndex":16,"items":[{"name":"대부체육관","tel":"032-886-9696","addr":"경기도 안산시 단원구 대부북동 449-10번지 2층","indutype":"학원 - 예·체능계학원","category":"study"}]},{"lat":"37.245207146","long":"126.58032498","imageIndex":16,"items":[{"name":"대부초등학교","tel":"031-883-0441","addr":"경기도 안산시 단원구 대부북동 181번지 대부초등학교","indutype":"학원 - 초중고교육기관","category":"study"},{"name":"대부초등학교병설유치원[아이행복]","tel":"032-883-0441","addr":"경기도 안산시 단원구 대부북동 181번지","indutype":"학원 - 유치원","category":"study"}]},{"lat":"37.288446753","long":"126.57768131","imageIndex":16,"items":[{"name":"백제레저여가문화진흥협회","tel":"032-889-1929","addr":"경기도 안산시 단원구 대부북동 1847-20번지 2층","indutype":"학원 - 기타 교육기관","category":"study"}]},{"lat":"37.243373026","long":"126.5814397","imageIndex":16,"items":[{"name":"시립대부어린이집[아이행복]","tel":"032-886-4700","addr":"경기도 안산시 단원구 대부북동 348-5번지","indutype":"학원 - 유아원","category":"study"}]},{"lat":"37.254953669","long":"126.58723664","imageIndex":16,"items":[{"name":"용인대석사대부태권도","tel":"032-886-9696","addr":"경기도 안산시 단원구 대부북동 90번지 2층","indutype":"학원 - 예·체능계학원","category":"study"}]},{"lat":"37.24375905","long":"126.58357891","imageIndex":16,"items":[{"name":"은미어린이집[아이행복]","tel":"032-886-3254","addr":"경기도 안산시 단원구 대부북동 451-8번지 1층","indutype":"학원 - 유아원","category":"study"}]},{"lat":"37.24479067","long":"126.57976378","imageIndex":16,"items":[{"name":"이선화화실","tel":"032-886-2930","addr":"경기도 안산시 단원구 대부북동 195-3번지","indutype":"학원 - 예·체능계학원","category":"study"}]},{"lat":"37.280280543","long":"126.54780139","imageIndex":16,"items":[{"name":"종현어촌계","tel":"032-886-6044","addr":"경기도 안산시 단원구 대부북동 1870-37번지 1층","indutype":"학원 - 기타 교육기관","category":"study"},{"name":"종현어촌계","tel":"032-886-6044","addr":"경기도 안산시 단원구 대부북동 1870-37번지","indutype":"학원 - 기타 교육기관","category":"study"}]}]