[{"lat":"38.077778967","long":"127.27559365","imageIndex":7,"items":[{"name":"88수산","tel":"031-534-8977","addr":"경기도 포천시 영북면 운천리 260-7번지","indutype":"음료식품 - 농·축·수산품","category":"food"}]},{"lat":"38.090336188","long":"127.27226615","imageIndex":7,"items":[{"name":"기활력엄마반찬","tel":"031-531-2791","addr":"경기도 포천시 영북면 운천리 513-56번지 1층","indutype":"음료식품 - 기타음료식품","category":"food"}]},{"lat":"38.086728319","long":"127.27412228","imageIndex":7,"items":[{"name":"더덕세상","tel":"031-533-2786","addr":"경기도 포천시 영북면 운천리 541-3번지","indutype":"음료식품 - 농·축·수산품","category":"food"}]},{"lat":"38.089841089","long":"127.27209335","imageIndex":7,"items":[{"name":"동신제분소","tel":"031-532-5356","addr":"경기도 포천시 영북면 운천리 513-15번지","indutype":"음료식품 - 기타음료식품","category":"food"},{"name":"서울반찬가게","tel":"031-532-6972","addr":"경기도 포천시 영북면 운천리 513-15번지 운천상설시장 1층 15호","indutype":"음료식품 - 기타음료식품","category":"food"},{"name":"중앙기름집","tel":"031-532-5204","addr":"경기도 포천시 영북면 운천리 513-15번지 외3필지 운천상설시장 1층 12호","indutype":"음료식품 - 기타음료식품","category":"food"}]},{"lat":"38.089116158","long":"127.27392592","imageIndex":7,"items":[{"name":"떡이야기","tel":"031-532-1232","addr":"경기도 포천시 영북면 운천리 511-16번지 가동 1층","indutype":"음료식품 - 제과점","category":"food"}]},{"lat":"38.090144514","long":"127.27334836","imageIndex":7,"items":[{"name":"르방베이커리","tel":"031-531-1077","addr":"경기도 포천시 영북면 운천리 512-3번지","indutype":"음료식품 - 제과점","category":"food"}]},{"lat":"38.087917913","long":"127.27001173","imageIndex":7,"items":[{"name":"보현농원","tel":"031-532-6972","addr":"경기도 포천시 영북면 운천리 554-7번지","indutype":"음료식품 - 농·축·수산품","category":"food"}]},{"lat":"38.088972146","long":"127.27386839","imageIndex":7,"items":[{"name":"북극성유통","tel":"031-532-6280","addr":"경기도 포천시 영북면 운천리 511-19번지 가동","indutype":"음료식품 - 기타음료식품","category":"food"}]},{"lat":"38.087057305","long":"127.27209454","imageIndex":7,"items":[{"name":"삼지원인","tel":"031-535-0825","addr":"경기도 포천시 영북면 운천리 546-4번지","indutype":"건강식품 - 홍삼제품","category":"food"},{"name":"센트리아(center of korea)","tel":"031-531-8381","addr":"경기도 포천시 영북면 운천리 546-4","indutype":"건강식품 - 홍삼제품","category":"food"}]},{"lat":"38.092359676","long":"127.2698683","imageIndex":7,"items":[{"name":"수토기","tel":"031-531-6155","addr":"경기도 포천시 영북면 운천리 520-18 6/7","indutype":"음료식품 - 미곡상","category":"food"}]},{"lat":"38.091057503","long":"127.27200662","imageIndex":7,"items":[{"name":"영북정육점","tel":"031-531-4945","addr":"경기도 포천시 영북면 운천리 513-8번지","indutype":"음료식품 - 정육점","category":"food"}]},{"lat":"38.090144334","long":"127.26948407","imageIndex":7,"items":[{"name":"영천상회","tel":"031-532-6070","addr":"경기도 포천시 영북면 운천리 528-6번지","indutype":"음료식품 - 기타음료식품","category":"food"}]},{"lat":"38.09017238","long":"127.27298369","imageIndex":7,"items":[{"name":"운천정육점","tel":"031-532-5079","addr":"경기도 포천시 영북면 운천리 512-10번지","indutype":"음료식품 - 정육점","category":"food"}]},{"lat":"38.090228786","long":"127.27195798","imageIndex":7,"items":[{"name":"이천청과","tel":"031-532-5236","addr":"경기도 포천시 영북면 운천리 515-11 2/2","indutype":"음료식품 - 농·축·수산품","category":"food"}]},{"lat":"38.090003955","long":"127.27178617","imageIndex":7,"items":[{"name":"인천방아간","tel":"031-532-5475","addr":"경기도 포천시 영북면 운천리 531-34번지","indutype":"음료식품 - 제과점","category":"food"}]},{"lat":"38.090193768","long":"127.27151329","imageIndex":7,"items":[{"name":"축복상회","tel":"031-532-5363","addr":"경기도 포천시 영북면 운천리 516-37번지","indutype":"음료식품 - 농·축·수산품","category":"food"}]},{"lat":"38.090086434","long":"127.27509221","imageIndex":7,"items":[{"name":"파리바게트운천점","tel":"031-531-8240","addr":"경기도 포천시 영북면 운천리 345-6번지","indutype":"음료식품 - 제과점","category":"food"}]},{"lat":"38.09114626","long":"127.2725883","imageIndex":7,"items":[{"name":"한국산약초","tel":"070-4183-1900","addr":"경기도 포천시 영북면 운천리 513-10번지","indutype":"회원제형태 - 건강식품","category":"food"}]},{"lat":"38.089558567","long":"127.27350579","imageIndex":7,"items":[{"name":"한일방앗간","tel":"031-532-5239","addr":"경기도 포천시 영북면 운천리 510-8번지","indutype":"음료식품 - 제과점","category":"food"}]},{"lat":"38.091923637","long":"127.27145123","imageIndex":7,"items":[{"name":"황해정미소","tel":"031-532-5385","addr":"경기도 포천시 영북면 운천리 518-16번지","indutype":"음료식품 - 미곡상","category":"food"}]}]