[{"lat":"37.289269916","long":"127.46103895","imageIndex":0,"items":[{"name":"경기네비","tel":"031-636-1160","addr":"경기도 이천시 증포동 104-8번지","indutype":"자동차정비 유지 - 자동차부품","category":"car"},{"name":"백두모터스","tel":"031-637-6878","addr":"경기도 이천시 증포동 104-8번지","indutype":"자동차정비 유지 - 카인테리어","category":"car"},{"name":"백두모터스","tel":"031-636-1160","addr":"경기도 이천시 증포동 104-8번지","indutype":"자동차정비 유지 - 자동차부품","category":"car"}]},{"lat":"37.285049514","long":"127.45021051","imageIndex":0,"items":[{"name":"금호타이어뉴니모터스","tel":"031-636-7901","addr":"경기도 이천시 증포동 387-4번지","indutype":"자동차정비 유지 - 자동차시트·타이어","category":"car"},{"name":"샤인개러지","tel":"031-631-8191","addr":"경기도 이천시 증포동 387-4번지","indutype":"자동차정비 유지 - 세차장","category":"car"},{"name":"애니카랜드 증포점","tel":"031-636-7951","addr":"경기도 이천시 증포동 387-4","indutype":"자동차정비 유지 - 자동차정비","category":"car"},{"name":"이군세차","tel":"","addr":"경기도 이천시 증포동 387-4번지","indutype":"자동차정비 유지 - 세차장","category":"car"}]},{"lat":"37.293155157","long":"127.45587478","imageIndex":0,"items":[{"name":"나래자동차공업사","tel":"031-638-8812","addr":"경기도 이천시 증포동 206-2","indutype":"자동차정비 유지 - 자동차정비","category":"car"}]},{"lat":"37.290025116","long":"127.45443508","imageIndex":0,"items":[{"name":"뉴모텍복원배터리","tel":"031-631-8539","addr":"경기도 이천시 증포동 177-21번지 외1필지 1층","indutype":"자동차정비 유지 - 자동차부품","category":"car"},{"name":"명품카오디오","tel":"031-637-7530","addr":"경기도 이천시 증포동 177-21번지","indutype":"자동차정비 유지 - 자동차부품","category":"car"}]},{"lat":"37.289159174","long":"127.4523211","imageIndex":0,"items":[{"name":"덴트카마스타","tel":"031-631-9363","addr":"경기도 이천시 증포동 149-5번지","indutype":"자동차정비 유지 - 카인테리어","category":"car"}]},{"lat":"37.290575061","long":"127.44960041","imageIndex":0,"items":[{"name":"리오토스","tel":"031-635-8846","addr":"경기도 이천시 증포동 362-66번지","indutype":"자동차정비 유지 - 자동차부품","category":"car"}]},{"lat":"37.288099846","long":"127.45129987","imageIndex":0,"items":[{"name":"만덕상사","tel":"031-633-7400","addr":"경기도 이천시 증포동 380-8번지","indutype":"자동차정비 유지 - 자동차부품","category":"car"}]},{"lat":"37.287574659","long":"127.45198464","imageIndex":0,"items":[{"name":"명품세차장","tel":"031-631-7612","addr":"경기도 이천시 증포동 381번지","indutype":"자동차정비 유지 - 세차장","category":"car"}]},{"lat":"37.288440092","long":"127.4542339","imageIndex":0,"items":[{"name":"모모투썬팅","tel":"031-638-5507","addr":"경기도 이천시 증포동 156-3번지","indutype":"자동차정비 유지 - 카인테리어","category":"car"}]},{"lat":"37.291849379","long":"127.44857042","imageIndex":0,"items":[{"name":"바이크스토리","tel":"031-631-5448","addr":"경기도 이천시 증포동 357-1번지","indutype":"자동차판매 - 이륜차판매","category":"car"}]},{"lat":"37.289576124","long":"127.46107463","imageIndex":0,"items":[{"name":"백두세차장","tel":"031-634-1160","addr":"경기도 이천시 증포동 104-24번지 2층","indutype":"자동차정비 유지 - 세차장","category":"car"}]},{"lat":"37.28916394","long":"127.45343755","imageIndex":0,"items":[{"name":"비엘리","tel":"031-633-9171","addr":"경기도 이천시 증포동 152번지","indutype":"자동차정비 유지 - 자동차부품","category":"car"}]},{"lat":"37.285352399","long":"127.4511257","imageIndex":0,"items":[{"name":"솔라룩스(이천점)","tel":"031-638-5507","addr":"경기도 이천시 증포동 385-7번지","indutype":"자동차정비 유지 - 자동차부품","category":"car"}]},{"lat":"37.289409232","long":"127.45762283","imageIndex":0,"items":[{"name":"스피드메이트대동점","tel":"031-631-2164","addr":"경기도 이천시 증포동 165-5번지","indutype":"자동차정비 유지 - 자동차정비","category":"car"}]},{"lat":"37.291410026","long":"127.45513128","imageIndex":0,"items":[{"name":"신동부상사","tel":"031-638-5318","addr":"경기도 이천시 증포동 172-16번지","indutype":"자동차판매 - 중고자동차판매","category":"car"}]},{"lat":"37.295327522","long":"127.45798551","imageIndex":0,"items":[{"name":"신세기타운","tel":"031-633-1681","addr":"경기도 이천시 증포동 49-8번지","indutype":"자동차정비 유지 - 주차장","category":"car"}]},{"lat":"37.289350443","long":"127.45885168","imageIndex":0,"items":[{"name":"오토박스","tel":"031-637-1345","addr":"경기도 이천시 증포동 93-11번지","indutype":"자동차정비 유지 - 자동차부품","category":"car"}]},{"lat":"37.293239524","long":"127.45501818","imageIndex":0,"items":[{"name":"오토크린","tel":"031-631-5513","addr":"경기도 이천시 증포동 210-5","indutype":"자동차정비 유지 - 카인테리어","category":"car"}]},{"lat":"37.290243238","long":"127.45157197","imageIndex":0,"items":[{"name":"온스팀세차장","tel":"","addr":"경기도 이천시 증포동 369-3번지","indutype":"자동차정비 유지 - 세차장","category":"car"}]},{"lat":"37.295962594","long":"127.45685025","imageIndex":0,"items":[{"name":"우리타워","tel":"031-631-0030","addr":"경기도 이천시 증포동 215-7번지 우리타워","indutype":"자동차정비 유지 - 주차장","category":"car"}]},{"lat":"37.291686052","long":"127.44887395","imageIndex":0,"items":[{"name":"이천카멘즈","tel":"","addr":"경기도 이천시 증포동 360-1번지","indutype":"자동차정비 유지 - 카인테리어","category":"car"}]},{"lat":"37.291023899","long":"127.45004288","imageIndex":0,"items":[{"name":"증포(JP) Clean","tel":"","addr":"경기도 이천시 증포동 362-3번지","indutype":"자동차정비 유지 - 세차장","category":"car"},{"name":"증포셀프세차장","tel":"031-631-2003","addr":"경기도 이천시 증포동 362-3번지","indutype":"자동차정비 유지 - 세차장","category":"car"}]},{"lat":"37.296823436","long":"127.45792685","imageIndex":0,"items":[{"name":"증포타이어","tel":"031-633-2558","addr":"경기도 이천시 증포동 26-10번지","indutype":"자동차정비 유지 - 자동차시트·타이어","category":"car"}]},{"lat":"37.290103865","long":"127.45740146","imageIndex":0,"items":[{"name":"쭌바이크","tel":"031-637-0700","addr":"경기도 이천시 증포동 78-15번지 A동 1층","indutype":"자동차판매 - 이륜차판매","category":"car"}]},{"lat":"37.291993623","long":"127.44854871","imageIndex":0,"items":[{"name":"차병원카센터","tel":"031-636-9972","addr":"경기도 이천시 증포동 341-15번지","indutype":"자동차정비 유지 - 자동차정비","category":"car"}]},{"lat":"37.289603157","long":"127.45874043","imageIndex":0,"items":[{"name":"천수상사","tel":"031-633-4672","addr":"경기도 이천시 증포동 93번지 창고","indutype":"자동차정비 유지 - 자동차부품","category":"car"}]},{"lat":"37.289294448","long":"127.45465626","imageIndex":0,"items":[{"name":"카-메이트","tel":"031-635-0045","addr":"경기도 이천시 증포동 157-8번지","indutype":"자동차정비 유지 - 카인테리어","category":"car"}]},{"lat":"37.297494494","long":"127.45914895","imageIndex":0,"items":[{"name":"통나무자동차","tel":"031-634-9123","addr":"경기도 이천시 증포동 21번지","indutype":"자동차정비 유지 - 자동차정비","category":"car"}]},{"lat":"37.294766819","long":"127.45617766","imageIndex":0,"items":[{"name":"한국타이어 증포점","tel":"031-634-2773","addr":"경기도 이천시 증포동 210-6번지","indutype":"자동차정비 유지 - 자동차시트·타이어","category":"car"}]},{"lat":"37.28935213","long":"127.45606624","imageIndex":0,"items":[{"name":"현대모터스","tel":"031-638-8550","addr":"경기도 이천시 증포동 159-11번지","indutype":"자동차정비 유지 - 자동차정비","category":"car"},{"name":"현대모터스","tel":"031-638-8550","addr":"경기도 이천시 증포동 159-11번지","indutype":"자동차정비 유지 - 자동차정비","category":"car"}]}]