[{"lat":"37.416020758","long":"126.81341152","imageIndex":17,"items":[{"name":"SBS당구클럽","tel":"031-318-3949","addr":"경기도 시흥시 매화동 247-8번지 2층","indutype":"스포츠및여가관련서비스업 - 당구장","category":"other"},{"name":"미래로안경원 매화점","tel":"031-316-3274","addr":"경기도 시흥시 매화동 247-8번지 1층 중앙의원","indutype":"소매업 - 안경","category":"other"},{"name":"축산물도소매센터","tel":"","addr":"경기도 시흥시 매화동 247-8번지","indutype":"소매업 - 식육","category":"other"}]},{"lat":"37.417383692","long":"126.8093414","imageIndex":17,"items":[{"name":"㈜창조아트","tel":"","addr":"경기도 시흥시 매화동 361-6번지 금강1차 101동 209호","indutype":"개인서비스업 - 서비스업","category":"other"}]},{"lat":"37.416740761","long":"126.81291267","imageIndex":17,"items":[{"name":"경기떡방아간","tel":"031-313-2023","addr":"경기도 시흥시 매화동 212번지","indutype":"제조업 - 방앗간","category":"other"},{"name":"한방쑥사우나","tel":"031-313-9092","addr":"경기도 시흥시 매화동 212번지","indutype":"개인서비스업 - 목욕장업","category":"other"}]},{"lat":"37.415518182","long":"126.81465535","imageIndex":17,"items":[{"name":"경희대 명성태권도","tel":"","addr":"경기도 시흥시 매화동 199-1번지","indutype":"교육서비스업 - 태권도","category":"other"},{"name":"서울안경","tel":"031-315-0478","addr":"경기도 시흥시 매화동 199-1번지","indutype":"소매업 - 안경","category":"other"}]},{"lat":"37.416578091","long":"126.81260808","imageIndex":17,"items":[{"name":"고기나라","tel":"031-313-3149","addr":"경기도 시흥시 매화동 221-63번지","indutype":"소매업 - 식육","category":"other"},{"name":"우리농산물","tel":"031-315-4971","addr":"경기도 시흥시 매화동 221-63번지","indutype":"소매업 - 야채,과일","category":"other"}]},{"lat":"37.416212317","long":"126.80929923","imageIndex":17,"items":[{"name":"농업회사법인㈜보드미","tel":"031-318-5253","addr":"경기도 시흥시 매화동 352-3번지","indutype":"소매업 - 제조, 전통한과","category":"other"}]},{"lat":"37.415135797","long":"126.81218248","imageIndex":17,"items":[{"name":"대동공인중개사무소","tel":"031-316-3030","addr":"경기도 시흥시 매화동 239-2번지 1층","indutype":"개인서비스업 - 부동산중개업","category":"other"},{"name":"대동석유","tel":"031-314-6622","addr":"경기도 시흥시 매화동 239-2번지","indutype":"소매업 - 석유","category":"other"}]},{"lat":"37.41532841","long":"126.8087367","imageIndex":17,"items":[{"name":"둘리문구 슈퍼","tel":"031-316-1581","addr":"경기도 시흥시 매화동 343번지","indutype":"소매업 - 문구,잡화","category":"other"}]},{"lat":"37.415380014","long":"126.81276925","imageIndex":17,"items":[{"name":"뚝딱컴 (매화점)","tel":"031-315-5161","addr":"경기도 시흥시 매화동 244-24번지","indutype":"소매업 - 컴퓨터 및 주변기기","category":"other"}]},{"lat":"37.416435001","long":"126.81327492","imageIndex":17,"items":[{"name":"매화열쇠, 도장","tel":"031-435-1303","addr":"경기도 시흥시 매화동 210-1번지","indutype":"개인서비스업 - 열쇠, 도장","category":"other"}]},{"lat":"37.416470225","long":"126.8127665","imageIndex":17,"items":[{"name":"매화휘트니스","tel":"031-313-1552","addr":"경기도 시흥시 매화동 221-66번지","indutype":"스포츠및여가관련서비스업 - 헬스장","category":"other"},{"name":"승현부동산","tel":"","addr":"경기도 시흥시 매화동 221-66번지","indutype":"개인서비스업 - 부동산중개업","category":"other"},{"name":"화장품나라","tel":"031-317-9034","addr":"경기도 시흥시 매화동 221-66번지","indutype":"소매업 - 화장품","category":"other"}]},{"lat":"37.415411032","long":"126.8152656","imageIndex":17,"items":[{"name":"미래공인중개사무소","tel":"031-314-1233","addr":"경기도 시흥시 매화동 194-1번지 동진아파트 102호","indutype":"개인서비스업 - 중개","category":"other"}]},{"lat":"37.415769056","long":"126.81377362","imageIndex":17,"items":[{"name":"박애의원","tel":"031-315-4115","addr":"경기도 시흥시 매화동 247-2번지","indutype":"보건업 - 일반과","category":"other"},{"name":"일우백양","tel":"031-315-6009","addr":"경기도 시흥시 매화동 247-2번지","indutype":"소매업 - 내의","category":"other"}]},{"lat":"37.417134101","long":"126.8109913","imageIndex":17,"items":[{"name":"쁘리엘댄스 아카데미","tel":"031-409-5578","addr":"경기도 시흥시 매화동 368-6번지 4층","indutype":"개인서비스업 - 댄스","category":"other"}]},{"lat":"37.41685479","long":"126.81099201","imageIndex":17,"items":[{"name":"삼성헬스클럽","tel":"","addr":"경기도 시흥시 매화동 224-4번지","indutype":"개인서비스업 - 헬스클럽","category":"other"}]},{"lat":"37.416103131","long":"126.81421333","imageIndex":17,"items":[{"name":"새샘DC마트","tel":"","addr":"경기도 시흥시 매화동 200-5번지","indutype":"소매업 - 잡화","category":"other"}]},{"lat":"37.416246352","long":"126.81362557","imageIndex":17,"items":[{"name":"솔이네","tel":"","addr":"경기도 시흥시 매화동 210-6번지","indutype":"소매업 - 의류","category":"other"}]},{"lat":"37.415579665","long":"126.81366114","imageIndex":17,"items":[{"name":"스피드열쇠,도장","tel":"031-316-9898","addr":"경기도 시흥시 매화동 249-1번지","indutype":"소매업 - 열쇠,도장","category":"other"}]},{"lat":"37.416354219","long":"126.81346716","imageIndex":17,"items":[{"name":"열린공간","tel":"","addr":"경기도 시흥시 매화동 210-4번지","indutype":"소매업 - 의류,잡화","category":"other"},{"name":"피부사랑","tel":"","addr":"경기도 시흥시 매화동 210-4번지","indutype":"소매업 - 화장품","category":"other"}]},{"lat":"37.415161659","long":"126.81145947","imageIndex":17,"items":[{"name":"율곡독서실","tel":"031-313-6364","addr":"경기도 시흥시 매화동 238-8번지 2층","indutype":"교육서비스업 - 독서실","category":"other"}]},{"lat":"37.415354632","long":"126.81379726","imageIndex":17,"items":[{"name":"제일공인중개사무소","tel":"031-315-2954","addr":"경기도 시흥시 매화동 250-2번지","indutype":"개인서비스업 - 부동산","category":"other"}]},{"lat":"37.415380467","long":"126.81305165","imageIndex":17,"items":[{"name":"짱노래연습장","tel":"","addr":"경기도 시흥시 매화동 244-22번지","indutype":"개인서비스업 - 노래방","category":"other"}]},{"lat":"37.414022825","long":"126.81485112","imageIndex":17,"items":[{"name":"크린에이드 매화점","tel":"031-314-4206","addr":"경기도 시흥시 매화동 265-7번지 탑그린빌 101동 1층 1호","indutype":"개인서비스업 - 세탁업","category":"other"}]},{"lat":"37.415607183","long":"126.81396607","imageIndex":17,"items":[{"name":"크린토피아 매화점","tel":"031-318-5492","addr":"경기도 시흥시 매화동 247-5번지","indutype":"소매업 - 세탁업","category":"other"}]},{"lat":"37.415128622","long":"126.81332339","imageIndex":17,"items":[{"name":"큰물디자인","tel":"","addr":"경기도 시흥시 매화동 251-6번지 2층","indutype":"개인서비스업 - 광고디자인","category":"other"}]},{"lat":"37.421215443","long":"126.81649379","imageIndex":17,"items":[{"name":"팜 갤러리","tel":"","addr":"경기도 시흥시 매화동 40-2번지","indutype":"기타 - 식용곤충류 사육","category":"other"}]},{"lat":"37.417017776","long":"126.81148863","imageIndex":17,"items":[{"name":"하나부동산","tel":"031-313-4004","addr":"경기도 시흥시 매화동 222-1번지","indutype":"개인서비스업 - 부동산중개","category":"other"}]},{"lat":"37.415689144","long":"126.8089391","imageIndex":17,"items":[{"name":"한양대 매화태권도","tel":"031-317-9887","addr":"경기도 시흥시 매화동 338-3번지 2층","indutype":"교육서비스업 - 태권도","category":"other"}]},{"lat":"37.417018944","long":"126.81221159","imageIndex":17,"items":[{"name":"해법수학매화동교습소","tel":"031-520-2606","addr":"경기도 시흥시 매화동 220-16번지 2층","indutype":"교육서비스업 - 교습소","category":"other"}]},{"lat":"37.41105197","long":"126.81640602","imageIndex":17,"items":[{"name":"행복한동행태권도 용인대ACE교육관","tel":"031-313-4133","addr":"경기도 시흥시 매화동 276-9번지","indutype":"교육서비스업 - 태권도장","category":"other"}]},{"lat":"37.418467034","long":"126.81627467","imageIndex":17,"items":[{"name":"호산나꽃다육","tel":"","addr":"경기도 시흥시 매화동 57-1번지","indutype":"소매업 - 꽃,다육","category":"other"}]},{"lat":"37.416990984","long":"126.81163555","imageIndex":17,"items":[{"name":"홍익공인중개사","tel":"031-316-2001","addr":"경기도 시흥시 매화동 221-1번지 1층 1호","indutype":"개인서비스업 - 부동산중개업","category":"other"}]}]