[{"lat":"37.950488763","long":"127.05167999","imageIndex":7,"items":[{"name":"(주)소요산유통","tel":"070-4062-2455","addr":"경기도 동두천시 상봉암동 244-11","indutype":"음료식품 - 기타음료식품","category":"food"}]},{"lat":"37.945852985","long":"127.06258727","imageIndex":7,"items":[{"name":"Seven day's","tel":"070-4150-5623","addr":"경기도 동두천시 상봉암동 140-15번지","indutype":"음료식품 - 기타음료식품","category":"food"}]},{"lat":"37.949243134","long":"127.05706064","imageIndex":7,"items":[{"name":"광동신보원","tel":"031-865-6684","addr":"경기도 동두천시 상봉암동 286-22번지","indutype":"건강식품 - 기타건강식품","category":"food"}]},{"lat":"37.946790625","long":"127.06123417","imageIndex":7,"items":[{"name":"기브미쪼꼬렛","tel":"031-862-3888","addr":"경기도 동두천시 상봉암동 132-28번지","indutype":"음료식품 - 기타음료식품","category":"food"}]},{"lat":"37.947402936","long":"127.06187177","imageIndex":7,"items":[{"name":"기브미쪼꼬렛","tel":"031-864-3666","addr":"경기도 동두천시 상봉암동 132-3번지 1층","indutype":"음료식품 - 기타음료식품","category":"food"},{"name":"소요단팥빵","tel":"031-319-5823","addr":"경기도 동두천시 상봉암동 132-3번지","indutype":"음료식품 - 제과점","category":"food"},{"name":"평강","tel":"070-7787-0633","addr":"경기도 동두천시 상봉암동 132-3번지","indutype":"음료식품 - 기타음료식품","category":"food"}]},{"lat":"37.945266292","long":"127.06470286","imageIndex":7,"items":[{"name":"동두천시 농특산물판매장","tel":"031-865-5452","addr":"경기도 동두천시 상봉암동 10-4번지","indutype":"음료식품 - 농·축·수산품","category":"food"},{"name":"소요산 맛드림 정육식당","tel":"","addr":"경기도 동두천시 상봉암동 10-4번지 소요산축산물 브랜드육타운 1층 2호","indutype":"음료식품 - 정육점","category":"food"},{"name":"소요산정일품한우","tel":"031-867-1551","addr":"경기도 동두천시 상봉암동 10-4번지","indutype":"음료식품 - 정육점","category":"food"}]},{"lat":"37.946735821","long":"127.0627245","imageIndex":7,"items":[{"name":"동두천유통","tel":"03-111-1111","addr":"경기도 동두천시 상봉암동 131-33번지","indutype":"음료식품 - 주류 판매점","category":"food"}]},{"lat":"37.949992696","long":"127.05301083","imageIndex":7,"items":[{"name":"상봉슈퍼","tel":"031-866-4799","addr":"경기도 동두천시 상봉암동 261-4번지","indutype":"음료식품 - 기타음료식품","category":"food"}]},{"lat":"37.9444091","long":"127.081949","imageIndex":7,"items":[{"name":"소담","tel":"031-867-5990","addr":"경기도 동두천시 상봉암동 산1-1번지","indutype":"음료식품 - 기타음료식품","category":"food"}]},{"lat":"37.945577405","long":"127.08614827","imageIndex":7,"items":[{"name":"소요산관광매점","tel":"031-867-4827","addr":"경기도 동두천시 상봉암동 산1","indutype":"음료식품 - 기타음료식품","category":"food"}]},{"lat":"37.947628138","long":"127.06192883","imageIndex":7,"items":[{"name":"소요산떡집","tel":"031-865-0033","addr":"경기도 동두천시 상봉암동 131-1 제2호","indutype":"음료식품 - 제과점","category":"food"},{"name":"희망제과","tel":"031-860-3337","addr":"경기도 동두천시 상봉암동 131-1번지","indutype":"음료식품 - 제과점","category":"food"}]},{"lat":"37.946457023","long":"127.06175724","imageIndex":7,"items":[{"name":"소요산명품한우 축산물판매장","tel":"031-866-8821","addr":"경기도 동두천시 상봉암동 137-10번지","indutype":"음료식품 - 정육점","category":"food"}]},{"lat":"37.947208627","long":"127.05350952","imageIndex":7,"items":[{"name":"소요산실업 (주)","tel":"031-867-2533","addr":"경기도 동두천시 상봉암동 209-3번지","indutype":"음료식품 - 기타음료식품","category":"food"}]},{"lat":"37.952013637","long":"127.06578939","imageIndex":7,"items":[{"name":"아델포스","tel":"031-865-0088","addr":"경기도 동두천시 상봉암동 26번지","indutype":"음료식품 - 기타음료식품","category":"food"}]},{"lat":"37.95270823","long":"127.06411744","imageIndex":7,"items":[{"name":"예랑식품","tel":"031-863-9635","addr":"경기도 동두천시 상봉암동 30-19번지","indutype":"음료식품 - 정육점","category":"food"}]},{"lat":"37.945103717","long":"127.06547633","imageIndex":7,"items":[{"name":"주드공간","tel":"031-865-6787","addr":"경기도 동두천시 상봉암동 8","indutype":"음료식품 - 기타음료식품","category":"food"}]},{"lat":"37.946348239","long":"127.06308825","imageIndex":7,"items":[{"name":"차누리","tel":"031-865-4196","addr":"경기도 동두천시 상봉암동 115-46번지","indutype":"음료식품 - 기타음료식품","category":"food"}]},{"lat":"37.947159687","long":"127.06187157","imageIndex":7,"items":[{"name":"평강식품","tel":"070-7787-0633","addr":"경기도 동두천시 상봉암동 131-16번지","indutype":"음료식품 - 기타음료식품","category":"food"}]}]