[{"lat":"37.719598413","long":"126.73894021","imageIndex":13,"items":[{"name":"(주)화양실업","tel":"02-6952-9784","addr":"경기도 파주시 목동동 1107-8번지","indutype":"보건위생 - 화장품","category":"beauty"}]},{"lat":"37.727533401","long":"126.73387564","imageIndex":13,"items":[{"name":"LENS ME 안경&콘택트렌즈","tel":"031-945-6827","addr":"경기도 파주시 목동동 941-1번지","indutype":"보건위생 - 안경","category":"beauty"}]},{"lat":"37.73200713","long":"126.73607153","imageIndex":13,"items":[{"name":"M뷰티헤어","tel":"031-941-0105","addr":"경기도 파주시 목동동 875-1번지","indutype":"보건위생 - 미용원","category":"beauty"}]},{"lat":"37.72814511","long":"126.73743524","imageIndex":13,"items":[{"name":"가연(GAYEON)","tel":"031-945-8813","addr":"경기도 파주시 목동동 964-1번지","indutype":"보건위생 - 미용원","category":"beauty"}]},{"lat":"37.728540882","long":"126.73318004","imageIndex":13,"items":[{"name":"가위헤어#","tel":"031-945-2553","addr":"경기도 파주시 목동동 947번지","indutype":"보건위생 - 미용원","category":"beauty"},{"name":"네이처컬렉션 파주운정산내점","tel":"031-947-3939","addr":"경기도 파주시 목동동 947번지","indutype":"보건위생 - 화장품","category":"beauty"},{"name":"미모아","tel":"031-941-2555","addr":"경기도 파주시 목동동 947번지","indutype":"보건위생 - 화장품","category":"beauty"},{"name":"아이블링","tel":"031-944-5070","addr":"경기도 파주시 목동동 947번지","indutype":"보건위생 - 화장품","category":"beauty"},{"name":"운정미모아","tel":"031-941-2555","addr":"경기도 파주시 목동동 947번지","indutype":"보건위생 - 피부미용실","category":"beauty"},{"name":"최경윤 언어운동 발달연구소","tel":"031-941-7570","addr":"경기도 파주시 목동동 947번지","indutype":"보건위생 - 기타대인서비스","category":"beauty"}]},{"lat":"37.728735275","long":"126.73545937","imageIndex":13,"items":[{"name":"감동 헤어 스튜디오","tel":"031-942-0084","addr":"경기도 파주시 목동동 933-3번지","indutype":"보건위생 - 미용원","category":"beauty"}]},{"lat":"37.728065426","long":"126.73407789","imageIndex":13,"items":[{"name":"고운손 네일","tel":"031-948-7797","addr":"경기도 파주시 목동동 945번지","indutype":"보건위생 - 피부미용실","category":"beauty"},{"name":"주주헤어","tel":"031-948-3152","addr":"경기도 파주시 목동동 945번지","indutype":"보건위생 - 미용원","category":"beauty"},{"name":"지노헤어","tel":"031-947-6989","addr":"경기도 파주시 목동동 945번지","indutype":"보건위생 - 미용원","category":"beauty"},{"name":"헤로드 바이와이","tel":"031-947-5602","addr":"경기도 파주시 목동동 945번지","indutype":"보건위생 - 미용원","category":"beauty"}]},{"lat":"37.729428078","long":"126.73504851","imageIndex":13,"items":[{"name":"기대해(왁싱)","tel":"031-905-7728","addr":"경기도 파주시 목동동 935-2번지","indutype":"보건위생 - 피부미용실","category":"beauty"},{"name":"네일메이크","tel":"031-957-5935","addr":"경기도 파주시 목동동 935-2번지","indutype":"보건위생 - 피부미용실","category":"beauty"},{"name":"헤어바이엘(hair by L)","tel":"031-943-2379","addr":"경기도 파주시 목동동 935-2번지","indutype":"보건위생 - 미용원","category":"beauty"}]},{"lat":"37.718702652","long":"126.7372421","imageIndex":13,"items":[{"name":"나이스가이운정산내점","tel":"031-942-2470","addr":"경기도 파주시 목동동 1136번지","indutype":"보건위생 - 이용원","category":"beauty"}]},{"lat":"37.728118001","long":"126.74968618","imageIndex":13,"items":[{"name":"나인헤어","tel":"031-944-0431","addr":"경기도 파주시 목동동 667번지","indutype":"보건위생 - 미용원","category":"beauty"},{"name":"쁘띠헤어","tel":"031-948-0803","addr":"경기도 파주시 목동동 667번지 해솔마을4단지벽산우남연리지","indutype":"보건위생 - 미용원","category":"beauty"}]},{"lat":"37.73153622","long":"126.74717888","imageIndex":13,"items":[{"name":"너에게반하다","tel":"031-942-3829","addr":"경기도 파주시 목동동 752-4번지","indutype":"보건위생 - 피부미용실","category":"beauty"}]},{"lat":"37.72287061","long":"126.73971124","imageIndex":13,"items":[{"name":"네일또옴","tel":"031-949-4489","addr":"경기도 파주시 목동동 1072-2번지","indutype":"보건위생 - 피부미용실","category":"beauty"},{"name":"람보네일","tel":"031-948-3690","addr":"경기도 파주시 목동동 1072-2번지","indutype":"보건위생 - 피부미용실","category":"beauty"}]},{"lat":"37.722736598","long":"126.7442941","imageIndex":13,"items":[{"name":"네일파트너","tel":"031-946-9008","addr":"경기도 파주시 목동동 679번지 해솔마을5단지삼부르네상스아파트","indutype":"보건위생 - 피부미용실","category":"beauty"},{"name":"레인보우","tel":"031-947-7938","addr":"경기도 파주시 목동동 679번지 해솔마을5단지삼부르네상스아파트","indutype":"보건위생 - 미용원","category":"beauty"},{"name":"썸헤어아트","tel":"031-8071-1277","addr":"경기도 파주시 목동동 679번지 해솔마을5단지삼부르네상스아파트","indutype":"보건위생 - 미용원","category":"beauty"},{"name":"천사맘 테라피","tel":"","addr":"경기도 파주시 목동동 679번지 해솔마을5단지삼부르네상스아파트","indutype":"보건위생 - 피부미용실","category":"beauty"},{"name":"헤어스테이션","tel":"031-941-6296","addr":"경기도 파주시 목동동 679번지 해솔마을5단지삼부르네상스아파트","indutype":"보건위생 - 미용원","category":"beauty"}]},{"lat":"37.728787838","long":"126.73480126","imageIndex":13,"items":[{"name":"네츄럴스킨","tel":"031-949-0922","addr":"경기도 파주시 목동동 937-3번지","indutype":"보건위생 - 화장품","category":"beauty"},{"name":"원 스킨&바디","tel":"031-000-0000","addr":"경기도 파주시 목동동 937-3번지","indutype":"보건위생 - 피부미용실","category":"beauty"}]},{"lat":"37.728366761","long":"126.73584637","imageIndex":13,"items":[{"name":"다보네안경","tel":"031-943-6877","addr":"경기도 파주시 목동동 933-1","indutype":"보건위생 - 안경","category":"beauty"}]},{"lat":"37.727678587","long":"126.73432884","imageIndex":13,"items":[{"name":"더 에스헤어","tel":"031-941-5665","addr":"경기도 파주시 목동동 939-4번지","indutype":"보건위생 - 미용원","category":"beauty"},{"name":"레이드","tel":"031-947-8210","addr":"경기도 파주시 목동동 939-4번지","indutype":"보건위생 - 피부미용실","category":"beauty"},{"name":"레이드태닝","tel":"031-947-8210","addr":"경기도 파주시 목동동 939-4번지","indutype":"보건위생 - 피부미용실","category":"beauty"},{"name":"백스테이지네일","tel":"031-944-5521","addr":"경기도 파주시 목동동 939-4번지","indutype":"보건위생 - 피부미용실","category":"beauty"},{"name":"이니스프리 파주목동점","tel":"031-941-2476","addr":"경기도 파주시 목동동 939-4번지","indutype":"보건위생 - 화장품","category":"beauty"},{"name":"주식회사 라니크","tel":"031-944-6649","addr":"경기도 파주시 목동동 939-4번지","indutype":"보건위생 - 화장품","category":"beauty"},{"name":"헤어살롱진","tel":"031-946-1210","addr":"경기도 파주시 목동동 939-4번지","indutype":"보건위생 - 미용원","category":"beauty"}]},{"lat":"37.727868716","long":"126.73473652","imageIndex":13,"items":[{"name":"더 헤이마라","tel":"031-945-0225","addr":"경기도 파주시 목동동 939-3번지","indutype":"보건위생 - 미용원","category":"beauty"},{"name":"비헤어","tel":"031-947-9407","addr":"경기도 파주시 목동동 939-3번지","indutype":"보건위생 - 미용원","category":"beauty"}]},{"lat":"37.728979919","long":"126.73607104","imageIndex":13,"items":[{"name":"더맨헤어","tel":"031-944-1484","addr":"경기도 파주시 목동동 931-1번지","indutype":"보건위생 - 미용원","category":"beauty"},{"name":"이뿐네일","tel":"031-943-4140","addr":"경기도 파주시 목동동 931-1번지","indutype":"보건위생 - 피부미용실","category":"beauty"}]},{"lat":"37.728593153","long":"126.73635602","imageIndex":13,"items":[{"name":"더편한안경렌즈타운","tel":"031-7220-4795","addr":"경기도 파주시 목동동 933번지","indutype":"보건위생 - 안경","category":"beauty"},{"name":"아이편한안경","tel":"031-3533-4795","addr":"경기도 파주시 목동동 933번지","indutype":"보건위생 - 안경","category":"beauty"}]},{"lat":"37.728537375","long":"126.73559621","imageIndex":13,"items":[{"name":"도도라인","tel":"031-942-5535","addr":"경기도 파주시 목동동 933-2번지","indutype":"보건위생 - 화장품","category":"beauty"}]},{"lat":"37.719066701","long":"126.73887404","imageIndex":13,"items":[{"name":"라끄스킨","tel":"","addr":"경기도 파주시 목동동 1112-3번지","indutype":"보건위생 - 피부미용실","category":"beauty"},{"name":"로지네일","tel":"","addr":"경기도 파주시 목동동 1112-3번지","indutype":"보건위생 - 피부미용실","category":"beauty"}]},{"lat":"37.727761796","long":"126.73132257","imageIndex":13,"items":[{"name":"라라헤어","tel":"031-000-0000","addr":"경기도 파주시 목동동 911번지 산내마을3단지","indutype":"보건위생 - 미용원","category":"beauty"},{"name":"바바뷰티","tel":"070-8268-0731","addr":"경기도 파주시 목동동 911번지 산내마을3단지","indutype":"보건위생 - 화장품","category":"beauty"},{"name":"쉬즈헤어","tel":"031-111-1111","addr":"경기도 파주시 목동동 911번지 산내마을3단지","indutype":"보건위생 - 미용원","category":"beauty"},{"name":"운세창","tel":"070-4922-1261","addr":"경기도 파주시 목동동 911번지 산내마을3단지","indutype":"보건위생 - 기타대인서비스","category":"beauty"},{"name":"팜스피부","tel":"031-947-5159","addr":"경기도 파주시 목동동 911번지 산내마을3단지","indutype":"보건위생 - 화장품","category":"beauty"}]},{"lat":"37.72226528","long":"126.74713136","imageIndex":13,"items":[{"name":"렉스헤어","tel":"031-944-2346","addr":"경기도 파주시 목동동 690번지 해솔마을6단지","indutype":"보건위생 - 미용원","category":"beauty"},{"name":"리젠헤어","tel":"031-947-6550","addr":"경기도 파주시 목동동 690번지 해솔마을6단지","indutype":"보건위생 - 미용원","category":"beauty"}]},{"lat":"37.732981957","long":"126.73290302","imageIndex":13,"items":[{"name":"루시헤어","tel":"031-943-2312","addr":"경기도 파주시 목동동 904번지 산내마을1단지","indutype":"보건위생 - 미용원","category":"beauty"}]},{"lat":"37.719567385","long":"126.73715962","imageIndex":13,"items":[{"name":"리아헤어","tel":"031-946-2558","addr":"경기도 파주시 목동동 1136-4번지","indutype":"보건위생 - 미용원","category":"beauty"},{"name":"메르시엘","tel":"031-942-4994","addr":"경기도 파주시 목동동 1136-4번지","indutype":"보건위생 - 미용원","category":"beauty"}]},{"lat":"37.728235001","long":"126.73337399","imageIndex":13,"items":[{"name":"마로헤어","tel":"031-948-1365","addr":"경기도 파주시 목동동 947-1번지","indutype":"보건위생 - 미용원","category":"beauty"},{"name":"마로헤어","tel":"031-948-1365","addr":"경기도 파주시 목동동 947-1번지","indutype":"보건위생 - 미용원","category":"beauty"},{"name":"바르다네일","tel":"031-949-5781","addr":"경기도 파주시 목동동 947-1번지","indutype":"보건위생 - 피부미용실","category":"beauty"},{"name":"이상화 콕콕테라피","tel":"031-945-0860","addr":"경기도 파주시 목동동 947-1번지","indutype":"보건위생 - 피부미용실","category":"beauty"}]},{"lat":"37.728067956","long":"126.73518953","imageIndex":13,"items":[{"name":"마크해리스","tel":"031-942-5128","addr":"경기도 파주시 목동동 939-2번지","indutype":"보건위생 - 미용원","category":"beauty"},{"name":"모브네일(Mauve nail)","tel":"031-000-0000","addr":"경기도 파주시 목동동 939-2번지","indutype":"보건위생 - 피부미용실","category":"beauty"},{"name":"클린미","tel":"070-8817-5900","addr":"경기도 파주시 목동동 939-2번지","indutype":"보건위생 - 화장품","category":"beauty"}]},{"lat":"37.718758826","long":"126.73818328","imageIndex":13,"items":[{"name":"머리카락","tel":"070-4242-0229","addr":"경기도 파주시 목동동 1131-3번지","indutype":"보건위생 - 미용원","category":"beauty"}]},{"lat":"37.728958683","long":"126.73465318","imageIndex":13,"items":[{"name":"멀티샵","tel":"031-957-9578","addr":"경기도 파주시 목동동 937-2번지","indutype":"보건위생 - 화장품","category":"beauty"},{"name":"블루컷운정점","tel":"031-942-9344","addr":"경기도 파주시 목동동 937-2번지","indutype":"보건위생 - 미용원","category":"beauty"}]},{"lat":"37.730866502","long":"126.72976847","imageIndex":13,"items":[{"name":"모모헤어","tel":"031-8071-3030","addr":"경기도 파주시 목동동 907번지 산내마을2단지센트럴리움","indutype":"보건위생 - 미용원","category":"beauty"}]},{"lat":"37.725206885","long":"126.74920834","imageIndex":13,"items":[{"name":"미드림왁싱","tel":"031-438-8137","addr":"경기도 파주시 목동동 2-110번지 해솔마을3단지운정현대아파트","indutype":"보건위생 - 화장품","category":"beauty"},{"name":"민스킨케어","tel":"031-943-1503","addr":"경기도 파주시 목동동 2-110번지 해솔마을3단지운정현대아파트","indutype":"보건위생 - 피부미용실","category":"beauty"},{"name":"사랑헤어","tel":"031-947-6115","addr":"경기도 파주시 목동동 2-110번지 해솔마을3단지운정현대아파트","indutype":"보건위생 - 미용원","category":"beauty"},{"name":"엔스킨랩","tel":"031-562-7578","addr":"경기도 파주시 목동동 2-110번지 해솔마을3단지운정현대아파트","indutype":"보건위생 - 화장품","category":"beauty"},{"name":"원앤원헤어(One&)","tel":"031-947-1090","addr":"경기도 파주시 목동동 2-110번지","indutype":"보건위생 - 미용원","category":"beauty"},{"name":"현대미용실","tel":"031-941-0222","addr":"경기도 파주시 목동동 2-110번지","indutype":"보건위생 - 미용원","category":"beauty"}]},{"lat":"37.728064969","long":"126.73785523","imageIndex":13,"items":[{"name":"미장원","tel":"031-944-0059","addr":"경기도 파주시 목동동 977-2번지","indutype":"보건위생 - 미용원","category":"beauty"}]},{"lat":"37.72672924","long":"126.73682777","imageIndex":13,"items":[{"name":"미호(MIHO)","tel":"","addr":"경기도 파주시 목동동 958-4번지","indutype":"보건위생 - 피부미용실","category":"beauty"}]},{"lat":"37.720064286","long":"126.73777032","imageIndex":13,"items":[{"name":"박서윤미장원(      )","tel":"02-409-3879","addr":"경기도 파주시 목동동 1099-1번지","indutype":"보건위생 - 미용원","category":"beauty"}]},{"lat":"37.732564844","long":"126.73568383","imageIndex":13,"items":[{"name":"별을헤어","tel":"","addr":"경기도 파주시 목동동 878-2번지","indutype":"보건위생 - 미용원","category":"beauty"}]},{"lat":"37.720595908","long":"126.74593482","imageIndex":13,"items":[{"name":"본헤어","tel":"031-944-2625","addr":"경기도 파주시 목동동 685-2번지","indutype":"보건위생 - 미용원","category":"beauty"},{"name":"지안헤어","tel":"031-946-0601","addr":"경기도 파주시 목동동 685-2번지","indutype":"보건위생 - 미용원","category":"beauty"}]},{"lat":"37.723902371","long":"126.73379803","imageIndex":13,"items":[{"name":"비비컴퍼니(VIVI company)","tel":"","addr":"경기도 파주시 목동동 1149번지 힐스테이트운정","indutype":"보건위생 - 화장품","category":"beauty"},{"name":"제이뷰티","tel":"","addr":"경기도 파주시 목동동 1149번지 힐스테이트운정","indutype":"보건위생 - 화장품","category":"beauty"},{"name":"쥬뗌므헤어아트/쥬뗌므","tel":"031-943-1161","addr":"경기도 파주시 목동동 1149번지 힐스테이트운정","indutype":"보건위생 - 미용원","category":"beauty"},{"name":"하쿠나 돌봄하우스","tel":"031-941-8355","addr":"경기도 파주시 목동동 1149번지 힐스테이트운정","indutype":"보건위생 - 기타대인서비스","category":"beauty"},{"name":"힐스헤어","tel":"031-942-4080","addr":"경기도 파주시 목동동 1149번지 힐스테이트운정","indutype":"보건위생 - 미용원","category":"beauty"}]},{"lat":"37.728757939","long":"126.73354225","imageIndex":13,"items":[{"name":"산내24시불가마사우나","tel":"031-941-9188","addr":"경기도 파주시 목동동 949번지","indutype":"보건위생 - 사우나","category":"beauty"},{"name":"심리상담센터 공감","tel":"031-949-5572","addr":"경기도 파주시 목동동 949번지","indutype":"보건위생 - 기타대인서비스","category":"beauty"},{"name":"엘리에틱","tel":"031-942-1890","addr":"경기도 파주시 목동동 949번지","indutype":"보건위생 - 미용원","category":"beauty"},{"name":"일리아 바이 백경","tel":"02-3281-1300","addr":"경기도 파주시 목동동 949번지","indutype":"보건위생 - 미용원","category":"beauty"}]},{"lat":"37.720456622","long":"126.74404115","imageIndex":13,"items":[{"name":"살롱 블롱디 캣츠","tel":"031-947-7088","addr":"경기도 파주시 목동동 684번지","indutype":"보건위생 - 미용원","category":"beauty"}]},{"lat":"37.722895355","long":"126.73869032","imageIndex":13,"items":[{"name":"살롱드 스텔라","tel":"031-944-5115","addr":"경기도 파주시 목동동 1052-1번지","indutype":"보건위생 - 미용원","category":"beauty"},{"name":"헤어 바이 문","tel":"","addr":"경기도 파주시 목동동 1052-1번지","indutype":"보건위생 - 미용원","category":"beauty"}]},{"lat":"37.729843223","long":"126.7475477","imageIndex":13,"items":[{"name":"살롱드올라","tel":"031-943-4330","addr":"경기도 파주시 목동동 778-3번지","indutype":"보건위생 - 미용원","category":"beauty"}]},{"lat":"37.727786236","long":"126.73810578","imageIndex":13,"items":[{"name":"살롱드제이 (Salon de J)","tel":"031-948-0503","addr":"경기도 파주시 목동동 981-3번지","indutype":"보건위생 - 미용원","category":"beauty"}]},{"lat":"37.728898474","long":"126.73591253","imageIndex":13,"items":[{"name":"스타헤어","tel":"031-943-0523","addr":"경기도 파주시 목동동 931번지","indutype":"보건위생 - 미용원","category":"beauty"}]},{"lat":"37.719596532","long":"126.7381009","imageIndex":13,"items":[{"name":"써니헤어","tel":"031-945-5450","addr":"경기도 파주시 목동동 1122-4번지","indutype":"보건위생 - 미용원","category":"beauty"}]},{"lat":"37.723039939","long":"126.73888263","imageIndex":13,"items":[{"name":"아이데코 (EYEDECO)파주운정점","tel":"031-937-8939","addr":"경기도 파주시 목동동 1052-2번지","indutype":"보건위생 - 안경","category":"beauty"}]},{"lat":"37.731644126","long":"126.7389088","imageIndex":13,"items":[{"name":"아프로모","tel":"","addr":"경기도 파주시 목동동 114-37번지 산내마을8단지","indutype":"보건위생 - 미용재료","category":"beauty"}]},{"lat":"37.731037271","long":"126.74976699","imageIndex":13,"items":[{"name":"앙포레헤어","tel":"070-8156-4436","addr":"경기도 파주시 목동동 640번지","indutype":"보건위생 - 미용원","category":"beauty"},{"name":"오땡큐천연염색방","tel":"070-5031-0327","addr":"경기도 파주시 목동동 640번지 휴먼시아해솔마을","indutype":"보건위생 - 미용원","category":"beauty"}]},{"lat":"37.719400306","long":"126.73898628","imageIndex":13,"items":[{"name":"어나더","tel":"","addr":"경기도 파주시 목동동 1109번지","indutype":"보건위생 - 미용원","category":"beauty"}]},{"lat":"37.729011473","long":"126.73409716","imageIndex":13,"items":[{"name":"어반뷰티","tel":"031-942-1296","addr":"경기도 파주시 목동동 937번지","indutype":"보건위생 - 미용원","category":"beauty"}]},{"lat":"37.726950197","long":"126.74298633","imageIndex":13,"items":[{"name":"언니네일","tel":"031-949-4999","addr":"경기도 파주시 목동동 2-127번지","indutype":"보건위생 - 피부미용실","category":"beauty"},{"name":"월드대중목욕탕","tel":"031-948-7373","addr":"경기도 파주시 목동동 2-127번지","indutype":"보건위생 - 사우나","category":"beauty"},{"name":"월드헤어클리닉","tel":"031-947-9977","addr":"경기도 파주시 목동동 2-127번지","indutype":"보건위생 - 미용원","category":"beauty"}]},{"lat":"37.727009915","long":"126.73743929","imageIndex":13,"items":[{"name":"와이비헤어","tel":"031-944-8503","addr":"경기도 파주시 목동동 975-3번지","indutype":"보건위생 - 미용원","category":"beauty"}]},{"lat":"37.719146343","long":"126.73424623","imageIndex":13,"items":[{"name":"우헤어(Woo Hair)","tel":"031-000-0000","addr":"경기도 파주시 목동동 1142번지 산내마을10단지운정센트럴푸르지오","indutype":"보건위생 - 미용원","category":"beauty"},{"name":"퍼스트헤어","tel":"031-944-1036","addr":"경기도 파주시 목동동 1142번지 산내마을10단지운정센트럴푸르지오","indutype":"보건위생 - 미용원","category":"beauty"}]},{"lat":"37.720063852","long":"126.7375775","imageIndex":13,"items":[{"name":"윤헤어","tel":"031-946-7942","addr":"경기도 파주시 목동동 1099번지","indutype":"보건위생 - 미용원","category":"beauty"}]},{"lat":"37.720010841","long":"126.73804272","imageIndex":13,"items":[{"name":"율네일","tel":"031-944-9222","addr":"경기도 파주시 목동동 1101번지","indutype":"보건위생 - 피부미용실","category":"beauty"}]},{"lat":"37.729014132","long":"126.73526553","imageIndex":13,"items":[{"name":"이레헤어","tel":"031-946-0603","addr":"경기도 파주시 목동동 935번지","indutype":"보건위생 - 미용원","category":"beauty"}]},{"lat":"37.731221518","long":"126.73928465","imageIndex":13,"items":[{"name":"이화화장품","tel":"031-949-0486","addr":"경기도 파주시 목동동 교하2차월드메르디앙207-302","indutype":"보건위생 - 화장품","category":"beauty"}]},{"lat":"37.730319097","long":"126.73862992","imageIndex":13,"items":[{"name":"재ee헤어","tel":"031-943-0193","addr":"경기도 파주시 목동동 114-62번지","indutype":"보건위생 - 미용원","category":"beauty"},{"name":"제이.훈헤어(J.훈헤어)","tel":"031-941-1084","addr":"경기도 파주시 목동동 114-62번지","indutype":"보건위생 - 미용원","category":"beauty"},{"name":"제이헤어","tel":"031-949-8245","addr":"경기도 파주시 목동동 114-62번지","indutype":"보건위생 - 미용원","category":"beauty"}]},{"lat":"37.72961823","long":"126.73546754","imageIndex":13,"items":[{"name":"제이앤모","tel":"031-947-5862","addr":"경기도 파주시 목동동 935-3번지","indutype":"보건위생 - 미용재료","category":"beauty"}]},{"lat":"37.727839231","long":"126.73365901","imageIndex":13,"items":[{"name":"토마토헤어","tel":"031-942-5582","addr":"경기도 파주시 목동동 941번지","indutype":"보건위생 - 미용원","category":"beauty"},{"name":"헤어스케치","tel":"031-947-8001","addr":"경기도 파주시 목동동 941번지","indutype":"보건위생 - 미용원","category":"beauty"}]},{"lat":"37.71959592","long":"126.7378287","imageIndex":13,"items":[{"name":"토브헤어","tel":"031-941-2578","addr":"경기도 파주시 목동동 1122-2번지","indutype":"보건위생 - 미용원","category":"beauty"}]},{"lat":"37.728368426","long":"126.74468288","imageIndex":13,"items":[{"name":"해솔미용실","tel":"031-949-0388","addr":"경기도 파주시 목동동 647번지 해솔마을1단지두산위브","indutype":"보건위생 - 미용원","category":"beauty"}]},{"lat":"37.731705725","long":"126.74640691","imageIndex":13,"items":[{"name":"헤어스토리H","tel":"","addr":"경기도 파주시 목동동 741-5번지","indutype":"보건위생 - 미용원","category":"beauty"}]},{"lat":"37.722653647","long":"126.73938307","imageIndex":13,"items":[{"name":"헤어왈츠","tel":"","addr":"경기도 파주시 목동동 1069-1번지","indutype":"보건위생 - 미용원","category":"beauty"}]},{"lat":"37.727812065","long":"126.73757255","imageIndex":13,"items":[{"name":"화니 네일","tel":"031-947-7518","addr":"경기도 파주시 목동동 977-5번지","indutype":"보건위생 - 피부미용실","category":"beauty"}]}]