[{"lat":"37.242714102","long":"127.03061806","imageIndex":17,"items":[{"name":"(광난다)","tel":"070-0000-0000","addr":"경기도 수원시 권선구 곡반정동 529-3번지 1층 102호","indutype":"의류 - 정장","category":"other"},{"name":"빛난다","tel":"070-4786-7820","addr":"경기도 수원시 권선구 곡반정동 529-3번지 101호","indutype":"의류 - 정장","category":"other"}]},{"lat":"37.240380382","long":"127.03080879","imageIndex":17,"items":[{"name":"(사)한국소기업소상공인연합경기수원시지회","tel":"031-223-9797","addr":"경기도 수원시 권선구 곡반정동 549-1번지 201호","indutype":"기타 - 비영리/비대상","category":"other"},{"name":"리틀잡스 곡반아이폰수리 사설센터","tel":"031-239-1236","addr":"경기도 수원시 권선구 곡반정동 549-1번지 104호","indutype":"수리서비스 - 사무·통신기기수리","category":"other"},{"name":"주식회사나노정보통신","tel":"031-232-3696","addr":"경기도 수원시 권선구 곡반정동 549-1번지 203호","indutype":"용역 서비스 - 기타용역서비스","category":"other"},{"name":"지해로타리클럽","tel":"031-222-7676","addr":"경기도 수원시 권선구 곡반정동 549-1번지 2층","indutype":"기타 - 비영리/대상","category":"other"}]},{"lat":"37.23593937","long":"127.02575853","imageIndex":17,"items":[{"name":"(주)  미디어토마토","tel":"031-234-2547","addr":"경기도 수원시 권선구 곡반정동 582-1번지 4층","indutype":"서적문구 - 정기간행물","category":"other"}]},{"lat":"37.234128467","long":"127.02483393","imageIndex":17,"items":[{"name":"(주) 벤트코리아","tel":"031-202-4800","addr":"경기도 수원시 권선구 곡반정동 590-7번지","indutype":"기타 - 기계공구","category":"other"},{"name":"에스에이치테크(SH테크)","tel":"031-237-7203","addr":"경기도 수원시 권선구 곡반정동 590-7번지 101호","indutype":"용역 서비스 - 종합용역","category":"other"}]},{"lat":"37.238101449","long":"127.0277539","imageIndex":17,"items":[{"name":"(주)거성씨엔에스","tel":"031-237-5557","addr":"경기도 수원시 권선구 곡반정동 565-9번지","indutype":"회원제형태 - 기타4","category":"other"}]},{"lat":"37.240434304","long":"127.03139484","imageIndex":17,"items":[{"name":"(주)곰엔터테인먼트","tel":"031-239-9179","addr":"경기도 수원시 권선구 곡반정동 544-12 다세대주택 101호","indutype":"용역 서비스 - 종합용역","category":"other"}]},{"lat":"37.244632351","long":"127.03441693","imageIndex":17,"items":[{"name":"(주)대정","tel":"031-233-6257","addr":"경기도 수원시 권선구 곡반정동 511-9번지","indutype":"사무통신 - 사무용 OA기기","category":"other"}]},{"lat":"37.23635317","long":"127.02902675","imageIndex":17,"items":[{"name":"(주)벽운기업","tel":"02-701-5775","addr":"경기도 수원시 권선구 곡반정동 577-9번지 102호","indutype":"신변잡화 - 기타잡화","category":"other"}]},{"lat":"37.234461833","long":"127.02492418","imageIndex":17,"items":[{"name":"(주)신흥티아이엔","tel":"070-4107-1181","addr":"경기도 수원시 권선구 곡반정동 588-7번지 101호","indutype":"회원제형태 - 사무서비스","category":"other"}]},{"lat":"37.239794437","long":"127.03194682","imageIndex":17,"items":[{"name":"(주)에스피데이타","tel":"031-237-8725","addr":"경기도 수원시 권선구 곡반정동 550-6번지 극동빌딩 2층 201호","indutype":"회원제형태 - 기타4","category":"other"}]},{"lat":"37.245605435","long":"127.03453004","imageIndex":17,"items":[{"name":"(주)에이플러스렌트카","tel":"031-223-5533","addr":"경기도 수원시 권선구 곡반정동 506-4,506-5","indutype":"여행 - 렌터카","category":"other"}]},{"lat":"37.239326155","long":"127.03088729","imageIndex":17,"items":[{"name":"(주)착한골프여행사","tel":"031-222-5272","addr":"경기도 수원시 권선구 곡반정동 554-6번지 101호","indutype":"여행 - 관광여행","category":"other"}]},{"lat":"37.242407348","long":"127.03228593","imageIndex":17,"items":[{"name":"(주)청림나무종합병원","tel":"031-212-2582","addr":"경기도 수원시 권선구 곡반정동 531-4번지 103호","indutype":"건축자재 - 인테리어전문","category":"other"},{"name":"경기카드체크기","tel":"031-255-7823","addr":"경기도 수원시 권선구 곡반정동 531-4번지","indutype":"사무통신 - 통신기기","category":"other"},{"name":"천지종합상사","tel":"","addr":"경기도 수원시 권선구 곡반정동 531-4번지 101호","indutype":"기타 - 기계공구","category":"other"}]},{"lat":"37.23943407","long":"127.0317551","imageIndex":17,"items":[{"name":"(주)태은조경","tel":"031-267-4935","addr":"경기도 수원시 권선구 곡반정동 551-3번지 2층","indutype":"건축자재 - 인테리어전문","category":"other"},{"name":"바스토피아","tel":"","addr":"경기도 수원시 권선구 곡반정동 551-3번지 101호","indutype":"건축자재 - 건축용 요업제품","category":"other"}]},{"lat":"37.233966145","long":"127.0255551","imageIndex":17,"items":[{"name":"(주)프린트미디어텍","tel":"02-1833-5066","addr":"경기도 수원시 권선구 곡반정동 599-1번지 가동","indutype":"서적문구 - 출판 및 인쇄물","category":"other"}]},{"lat":"37.241939195","long":"127.03069666","imageIndex":17,"items":[{"name":"CTM","tel":"031-225-0759","addr":"경기도 수원시 권선구 곡반정동 535-12번지 101호","indutype":"전기제품 - 기타전기제품","category":"other"}]},{"lat":"37.2444882","long":"127.03436052","imageIndex":17,"items":[{"name":"DDK모바일","tel":"031-221-1625","addr":"경기도 수원시 권선구 곡반정동 511-10번지 202호","indutype":"사무통신 - 통신기기","category":"other"},{"name":"수원화성동탄하나로열쇠도장명함철물","tel":"031-893-1111","addr":"경기도 수원시 권선구 곡반정동 511-10번지 103호","indutype":"건축자재 - 목재·석재·철물","category":"other"}]},{"lat":"37.244434225","long":"127.03403365","imageIndex":17,"items":[{"name":"GS25권선곡선점","tel":"","addr":"경기도 수원시 권선구 곡반정동 512-6번지 1층","indutype":"유통업 영리 - 편 의 점","category":"other"}]},{"lat":"37.234074492","long":"127.02436062","imageIndex":17,"items":[{"name":"GS25수원곡반정점","tel":"02-2006-2485","addr":"경기도 수원시 권선구 곡반정동 604-1번지","indutype":"유통업 영리 - 편 의 점","category":"other"}]},{"lat":"37.234434602","long":"127.02597219","imageIndex":17,"items":[{"name":"GS25힐하우스점","tel":"02-2006-2485","addr":"경기도 수원시 권선구 곡반정동 592-7번지","indutype":"유통업 영리 - 편 의 점","category":"other"}]},{"lat":"37.234128677","long":"127.02367323","imageIndex":17,"items":[{"name":"HJ오토스","tel":"031-8002-6828","addr":"경기도 수원시 권선구 곡반정동 603-13번지 101호","indutype":"전기제품 - 기타전기제품","category":"other"}]},{"lat":"37.242046977","long":"127.03211674","imageIndex":17,"items":[{"name":"IJ기획","tel":"070-7529-3407","addr":"경기도 수원시 권선구 곡반정동 533-4번지 101호","indutype":"용역 서비스 - 종합용역","category":"other"}]},{"lat":"37.240875805","long":"127.03141755","imageIndex":17,"items":[{"name":"JK시스템","tel":"031-236-3480","addr":"경기도 수원시 권선구 곡반정동 542-12번지 103호","indutype":"전기제품 - 가전제품","category":"other"}]},{"lat":"37.23646136","long":"127.02872252","imageIndex":17,"items":[{"name":"LG크레인","tel":"031-206-4682","addr":"경기도 수원시 권선구 곡반정동 577-11번지 1층","indutype":"기타 - 기계공구","category":"other"},{"name":"건양크레인","tel":"031-237-0221","addr":"경기도 수원시 권선구 곡반정동 577-11번지 2층","indutype":"기타 - 기계공구","category":"other"},{"name":"경기이동타워","tel":"031-224-4492","addr":"경기도 수원시 권선구 곡반정동 577-11번지","indutype":"기타 - 기계공구","category":"other"},{"name":"경기크레인","tel":"","addr":"경기도 수원시 권선구 곡반정동 577-11번지","indutype":"기타 - 기계공구","category":"other"},{"name":"남강크레인","tel":"031-111-1111","addr":"경기도 수원시 권선구 곡반정동 577-11번지","indutype":"기타 - 기계공구","category":"other"},{"name":"뉴월드크레인","tel":"031-252-3474","addr":"경기도 수원시 권선구 곡반정동 577-11번지","indutype":"기타 - 기계공구","category":"other"},{"name":"마루종합장식","tel":"031-257-7151","addr":"경기도 수원시 권선구 곡반정동 577-11번지","indutype":"건축자재 - 인테리어전문","category":"other"},{"name":"서수원종합중기지게차","tel":"031-296-8882","addr":"경기도 수원시 권선구 곡반정동 577-11번지","indutype":"기타 - 기계공구","category":"other"},{"name":"청산크레인","tel":"031-0000-0000","addr":"경기도 수원시 권선구 곡반정동 577-11번지","indutype":"기타 - 기계공구","category":"other"}]},{"lat":"37.236884533","long":"127.03012007","imageIndex":17,"items":[{"name":"OK25시(곡반정점)","tel":"031-234-8662","addr":"경기도 수원시 권선구 곡반정동 574-1번지 1층 101호","indutype":"유통업 영리 - 편 의 점","category":"other"}]},{"lat":"37.233713724","long":"127.02623115","imageIndex":17,"items":[{"name":"P&C","tel":"031-891-9445","addr":"경기도 수원시 권선구 곡반정동 598-5번지 1층","indutype":"사무통신 - 컴퓨터","category":"other"}]},{"lat":"37.239659949","long":"127.02908425","imageIndex":17,"items":[{"name":"SH사무가구","tel":"031-224-6273","addr":"경기도 수원시 권선구 곡반정동 557-3번지 1층","indutype":"가구 - 기타가구","category":"other"}]},{"lat":"37.239046995","long":"127.03019973","imageIndex":17,"items":[{"name":"SH정보통신","tel":"031-267-3339","addr":"경기도 수원시 권선구 곡반정동 556-2번지 109호","indutype":"사무통신 - 통신기기","category":"other"}]},{"lat":"37.236659377","long":"127.02966921","imageIndex":17,"items":[{"name":"YK디자인","tel":"031-222-5244","addr":"경기도 수원시 권선구 곡반정동 576-10번지 해피빌 201호","indutype":"가구 - 기타가구","category":"other"}]},{"lat":"37.244965687","long":"127.03458613","imageIndex":17,"items":[{"name":"가라솔루션","tel":"031-224-1995","addr":"경기도 수원시 권선구 곡반정동 511-6번지 1층","indutype":"수리서비스 - 기타수리서비스","category":"other"}]},{"lat":"37.236515161","long":"127.02989455","imageIndex":17,"items":[{"name":"가람쇼파천갈이","tel":"031-298-3339","addr":"경기도 수원시 권선구 곡반정동 574-4번지 101호","indutype":"수리서비스 - 신변잡화수리","category":"other"}]},{"lat":"37.235074542","long":"127.02489055","imageIndex":17,"items":[{"name":"가온테크/원격지","tel":"","addr":"경기도 수원시 권선구 곡반정동 587-13번지 1층","indutype":"기타 - 기타 전문점","category":"other"},{"name":"씨유수원곡선점","tel":"031-234-2405","addr":"경기도 수원시 권선구 곡반정동 587-13번지","indutype":"유통업 영리 - 편 의 점","category":"other"},{"name":"테라시스템","tel":"031-241-7774","addr":"경기도 수원시 권선구 곡반정동 587-13번지 외1필지 1층","indutype":"사무통신 - 컴퓨터","category":"other"}]},{"lat":"37.245047292","long":"127.03261381","imageIndex":17,"items":[{"name":"간판나라샤인","tel":"031-212-2234","addr":"경기도 수원시 권선구 곡반정동 513-3번지 101 (101호~102호)","indutype":"용역 서비스 - 종합용역","category":"other"},{"name":"예스컴퍼니 (Yes company)","tel":"031-8004-5505","addr":"경기도 수원시 권선구 곡반정동 513-3번지 한아름주택 201호","indutype":"용역 서비스 - 종합용역","category":"other"}]},{"lat":"37.244073782","long":"127.0341462","imageIndex":17,"items":[{"name":"강남농원","tel":"031-206-9119","addr":"경기도 수원시 권선구 곡반정동 520-2번지","indutype":"문화.취미 - 화원","category":"other"}]},{"lat":"37.234353857","long":"127.02411278","imageIndex":17,"items":[{"name":"경기 종합 에어컨","tel":"","addr":"경기도 수원시 권선구 곡반정동 603-3번지 203호","indutype":"용역 서비스 - 기타용역서비스","category":"other"},{"name":"더락","tel":"031-225-4441","addr":"경기도 수원시 권선구 곡반정동 603-3번지 101호","indutype":"건축자재 - 목재·석재·철물","category":"other"},{"name":"서현스포츠기획","tel":"031-232-5502","addr":"경기도 수원시 권선구 곡반정동 603-3번지 101호","indutype":"레져용품 - 스포츠·레져용품","category":"other"}]},{"lat":"37.23496607","long":"127.02669357","imageIndex":17,"items":[{"name":"경기쿱버스협동조합","tel":"031-224-5007","addr":"경기도 수원시 권선구 곡반정동 593-1번지 2층 202호","indutype":"여행 - 관광여행","category":"other"},{"name":"현도건업 주식회사","tel":"031-222-7904","addr":"경기도 수원시 권선구 곡반정동 593-1번지 302호","indutype":"용역 서비스 - 기타용역서비스","category":"other"},{"name":"효성텔레콤","tel":"070-8736-7053","addr":"경기도 수원시 권선구 곡반정동 593-1번지 102호","indutype":"사무통신 - 통신기기","category":"other"}]},{"lat":"37.23307403","long":"127.02602812","imageIndex":17,"items":[{"name":"경기테크","tel":"031-232-0889","addr":"경기도 수원시 권선구 곡반정동 597-9번지","indutype":"건축자재 - 목재·석재·철물","category":"other"}]},{"lat":"37.243236551","long":"127.03124939","imageIndex":17,"items":[{"name":"곡반럭셔리","tel":"031-226-3339","addr":"경기도 수원시 권선구 곡반정동 527-1번지 107호","indutype":"기타 - 기타 전문점","category":"other"},{"name":"똥강아지","tel":"031-221-5236","addr":"경기도 수원시 권선구 곡반정동 527-1번지 105호","indutype":"문화.취미 - 애완동물","category":"other"},{"name":"엠(M)메이저","tel":"031-234-1223","addr":"경기도 수원시 권선구 곡반정동 527-1번지","indutype":"수리서비스 - 세탁소","category":"other"}]},{"lat":"37.242822135","long":"127.03100128","imageIndex":17,"items":[{"name":"곡반정생활용품","tel":"031-237-1519","addr":"경기도 수원시 권선구 곡반정동 530-1번지 103호","indutype":"신변잡화 - 기타잡화","category":"other"}]},{"lat":"37.23860564","long":"127.02953467","imageIndex":17,"items":[{"name":"곡반짱노리터","tel":"","addr":"경기도 수원시 권선구 곡반정동 564-8번지 1층 103호","indutype":"신변잡화 - 기타잡화","category":"other"},{"name":"세븐일레븐곡반정중앙점","tel":"","addr":"경기도 수원시 권선구 곡반정동 564-8번지 102호","indutype":"유통업 영리 - 편 의 점","category":"other"}]},{"lat":"37.243019829","long":"127.03316525","imageIndex":17,"items":[{"name":"곡선동주민자치위원회","tel":"031-228-6831","addr":"경기도 수원시 권선구 곡반정동 525번지","indutype":"문화.취미 - 문화취미기타","category":"other"}]},{"lat":"37.241912025","long":"127.0312827","imageIndex":17,"items":[{"name":"국민서관","tel":"031-244-1654","addr":"경기도 수원시 권선구 곡반정동 535-7번지 101호","indutype":"회원제형태 - 기타4","category":"other"}]},{"lat":"37.242407465","long":"127.03181258","imageIndex":17,"items":[{"name":"국민주택관리","tel":"031-204-0005","addr":"경기도 수원시 권선구 곡반정동 531-17번지 한아름주택 101호","indutype":"용역 서비스 - 종합용역","category":"other"}]},{"lat":"37.241407374","long":"127.0315868","imageIndex":17,"items":[{"name":"귀뚜라미보일러","tel":"","addr":"경기도 수원시 권선구 곡반정동 537-3번지 101호","indutype":"용역 서비스 - 기타용역서비스","category":"other"}]},{"lat":"37.240182141","long":"127.03086507","imageIndex":17,"items":[{"name":"그녀의 꽃집","tel":"031-1688-8045","addr":"경기도 수원시 권선구 곡반정동 549-14번지 3층 310호","indutype":"문화.취미 - 화원","category":"other"}]},{"lat":"37.234578584","long":"127.02689629","imageIndex":17,"items":[{"name":"그레이스","tel":"070-4289-3520","addr":"경기도 수원시 권선구 곡반정동 594-1번지 305호","indutype":"신변잡화 - 액세서리","category":"other"}]},{"lat":"37.234768195","long":"127.02486792","imageIndex":17,"items":[{"name":"그린시스템에어컨","tel":"031-239-3756","addr":"경기도 수원시 권선구 곡반정동 588-3번지 한솔주택 101호","indutype":"용역 서비스 - 기타용역서비스","category":"other"}]},{"lat":"37.241074371","long":"127.02997506","imageIndex":17,"items":[{"name":"글라스루프 수원점","tel":"031-223-9709","addr":"경기도 수원시 권선구 곡반정동 545-2번지 101호","indutype":"건축자재 - 유리","category":"other"}]},{"lat":"37.233911921","long":"127.02638898","imageIndex":17,"items":[{"name":"기배무역","tel":"031-272-8151","addr":"경기도 수원시 권선구 곡반정동 595-13번지 1층","indutype":"기타 - 기타 전문점","category":"other"},{"name":"드위브(dweeb)","tel":"031-237-7885","addr":"경기도 수원시 권선구 곡반정동 595-13번지 1층","indutype":"문화.취미 - 애완동물","category":"other"}]},{"lat":"37.242821887","long":"127.03202688","imageIndex":17,"items":[{"name":"김혜림 세무사사무소","tel":"031-233-3572","addr":"경기도 수원시 권선구 곡반정동 526-18번지 명수빌딩 201호","indutype":"용역 서비스 - 법률회계서비스(개인)","category":"other"},{"name":"푸르른","tel":"031-232-9444","addr":"경기도 수원시 권선구 곡반정동 526-18번지","indutype":"신변잡화 - 기타잡화","category":"other"}]},{"lat":"37.243993383","long":"127.03139618","imageIndex":17,"items":[{"name":"까시나","tel":"","addr":"경기도 수원시 권선구 곡반정동 516-2번지 404호","indutype":"의류 - 정장","category":"other"}]},{"lat":"37.242299252","long":"127.03217319","imageIndex":17,"items":[{"name":"깔끔세탁소","tel":"031-237-4789","addr":"경기도 수원시 권선구 곡반정동 531-15번지 1층상가","indutype":"수리서비스 - 세탁소","category":"other"}]},{"lat":"37.242101067","long":"127.03200406","imageIndex":17,"items":[{"name":"꾸밈뷰티","tel":"","addr":"경기도 수원시 권선구 곡반정동 533-3번지 402호","indutype":"의류 - 정장","category":"other"},{"name":"엘유엔터테인먼트","tel":"070-4090-9491","addr":"경기도 수원시 권선구 곡반정동 533-3번지 102호","indutype":"용역 서비스 - 종합용역","category":"other"}]},{"lat":"37.240911879","long":"127.03128232","imageIndex":17,"items":[{"name":"끌레르","tel":"031-221-6404","addr":"경기도 수원시 권선구 곡반정동 542-13번지 103호","indutype":"의류 - 정장","category":"other"},{"name":"메리어스","tel":"031-223-5214","addr":"경기도 수원시 권선구 곡반정동 542-13번지 103호","indutype":"의류 - 정장","category":"other"},{"name":"바잉(Buying)","tel":"070-8963-0122","addr":"경기도 수원시 권선구 곡반정동 542-13번지 101호","indutype":"의류 - 정장","category":"other"}]},{"lat":"37.245101505","long":"127.03200521","imageIndex":17,"items":[{"name":"놀자","tel":"02-1111-1111","addr":"경기도 수원시 권선구 곡반정동 504-9번지 102호","indutype":"의류 - 정장","category":"other"}]},{"lat":"37.240767929","long":"127.0303694","imageIndex":17,"items":[{"name":"누비퀼트","tel":"031-294-3463","addr":"경기도 수원시 권선구 곡반정동 545-9번지 1층 103호","indutype":"직물 - 침구·수예점","category":"other"}]},{"lat":"37.234218446","long":"127.02549883","imageIndex":17,"items":[{"name":"다산탈렌토","tel":"031-236-8549","addr":"경기도 수원시 권선구 곡반정동 591-3 77블럭4롯트1층101호","indutype":"가구 - 기타가구","category":"other"},{"name":"세모","tel":"031-236-5396","addr":"경기도 수원시 권선구 곡반정동 591-3번지 102호","indutype":"용역 서비스 - 종합용역","category":"other"}]},{"lat":"37.23902041","long":"127.02819372","imageIndex":17,"items":[{"name":"다이소 수원곡반정점","tel":"031-233-9542","addr":"경기도 수원시 권선구 곡반정동 564-1번지 201호","indutype":"신변잡화 - 기타잡화","category":"other"}]},{"lat":"37.232767667","long":"127.02608437","imageIndex":17,"items":[{"name":"다인공조시스템","tel":"031-222-8726","addr":"경기도 수원시 권선구 곡반정동 390-2번지","indutype":"전기제품 - 냉열기기","category":"other"}]},{"lat":"37.240659598","long":"127.03124842","imageIndex":17,"items":[{"name":"닥터코킹","tel":"031-224-7924","addr":"경기도 수원시 권선구 곡반정동 544-3번지 한아름주택 101호","indutype":"용역 서비스 - 기타용역서비스","category":"other"}]},{"lat":"37.239659301","long":"127.03186788","imageIndex":17,"items":[{"name":"대성공조시스템","tel":"031-239-5080","addr":"경기도 수원시 권선구 곡반정동 551-1번지 1층","indutype":"수리서비스 - 가정용품수리","category":"other"}]},{"lat":"37.24279449","long":"127.03348073","imageIndex":17,"items":[{"name":"대원철물","tel":"031-224-3743","addr":"경기도 수원시 권선구 곡반정동 521-6번지 102호","indutype":"건축자재 - 목재·석재·철물","category":"other"}]},{"lat":"37.23454304","long":"127.02430441","imageIndex":17,"items":[{"name":"도예공방 공기","tel":"","addr":"경기도 수원시 권선구 곡반정동 589-7번지 1층 101호","indutype":"문화.취미 - 문화취미기타","category":"other"}]},{"lat":"37.245632502","long":"127.0343948","imageIndex":17,"items":[{"name":"동서종합알뜰매장","tel":"031-233-3489","addr":"경기도 수원시 권선구 곡반정동 506-3번지 101호","indutype":"가구 - 일반가구","category":"other"}]},{"lat":"37.238209556","long":"127.02783282","imageIndex":17,"items":[{"name":"동화자연마루/태원상사 주식회사","tel":"031-898-9504","addr":"경기도 수원시 권선구 곡반정동 565-8번지","indutype":"건축자재 - 기타건축자재","category":"other"}]},{"lat":"37.238326129","long":"127.03036852","imageIndex":17,"items":[{"name":"둥지공인중개사사무소","tel":"031-223-8896","addr":"경기도 수원시 권선구 곡반정동 563-4번지 101호","indutype":"용역 서비스 - 부동산 중개·임대","category":"other"}]},{"lat":"37.241821968","long":"127.03109107","imageIndex":17,"items":[{"name":"드림플러스","tel":"031-2778-5533","addr":"경기도 수원시 권선구 곡반정동 535-9번지 103호","indutype":"의류 - 정장","category":"other"}]},{"lat":"37.242245162","long":"127.03228587","imageIndex":17,"items":[{"name":"땡큐기획","tel":"070-5035-2912","addr":"경기도 수원시 권선구 곡반정동 531-14번지 1층","indutype":"용역 서비스 - 종합용역","category":"other"}]},{"lat":"37.242966044","long":"127.03206074","imageIndex":17,"items":[{"name":"러닝키즈","tel":"070-4067-0201","addr":"경기도 수원시 권선구 곡반정동 526-1번지 202호","indutype":"서적문구 - 일반서적","category":"other"},{"name":"선물","tel":"031-234-5999","addr":"경기도 수원시 권선구 곡반정동 526-1번지 101호","indutype":"의류 - 정장","category":"other"}]},{"lat":"37.245713691","long":"127.03403417","imageIndex":17,"items":[{"name":"로그인마트","tel":"031-236-2206","addr":"경기도 수원시 권선구 곡반정동 506-1번지","indutype":"유통업 영리 - 편 의 점","category":"other"},{"name":"세븐일레븐수원곡반중앙점","tel":"","addr":"경기도 수원시 권선구 곡반정동 506-1번지","indutype":"유통업 영리 - 편 의 점","category":"other"}]},{"lat":"37.245020345","long":"127.03227568","imageIndex":17,"items":[{"name":"로얄세탁소","tel":"031-237-0035","addr":"경기도 수원시 권선구 곡반정동 513-16번지 101호","indutype":"수리서비스 - 세탁소","category":"other"},{"name":"세븐일레븐수원곡반정본점","tel":"031-1577-0711","addr":"경기도 수원시 권선구 곡반정동 513-16번지 1층 상가","indutype":"유통업 영리 - 편 의 점","category":"other"}]},{"lat":"37.242047385","long":"127.03041495","imageIndex":17,"items":[{"name":"로즈마리","tel":"031-234-6278","addr":"경기도 수원시 권선구 곡반정동 535-14번지 103호","indutype":"회원제형태 - 기타4","category":"other"}]},{"lat":"37.236272039","long":"127.02919577","imageIndex":17,"items":[{"name":"루나라이즈","tel":"","addr":"경기도 수원시 권선구 곡반정동 577-8번지 101호","indutype":"용역 서비스 - 종합용역","category":"other"}]},{"lat":"37.236605252","long":"127.02995093","imageIndex":17,"items":[{"name":"리드케어 수원점","tel":"","addr":"경기도 수원시 권선구 곡반정동 574-3번지 502호","indutype":"용역 서비스 - 종합용역","category":"other"}]},{"lat":"37.24560567","long":"127.03363966","imageIndex":17,"items":[{"name":"린넨바스켓","tel":"070-4231-9600","addr":"경기도 수원시 권선구 곡반정동 507-8번지 102호","indutype":"직물 - 옷감·직물","category":"other"}]},{"lat":"37.239100735","long":"127.03156339","imageIndex":17,"items":[{"name":"마이리틀독(MY LITTLE DOG)","tel":"031-223-3703","addr":"경기도 수원시 권선구 곡반정동 551-6번지 2층","indutype":"문화.취미 - 애완동물","category":"other"}]},{"lat":"37.240821483","long":"127.03247691","imageIndex":17,"items":[{"name":"만능크리닝청소대행","tel":"031-232-7437","addr":"경기도 수원시 권선구 곡반정동 543-5번지 403호","indutype":"용역 서비스 - 종합용역","category":"other"}]},{"lat":"37.236740514","long":"127.02947766","imageIndex":17,"items":[{"name":"매홀조경개발주식회사","tel":"031-221-0863","addr":"경기도 수원시 권선구 곡반정동 576-5번지 리치빌 2층 201호","indutype":"건축자재 - 인테리어전문","category":"other"}]},{"lat":"37.234551416","long":"127.02756116","imageIndex":17,"items":[{"name":"멍이냥이","tel":"070-8202-0503","addr":"경기도 수원시 권선구 곡반정동 593-8번지 2층","indutype":"문화.취미 - 애완동물","category":"other"}]},{"lat":"37.236407174","long":"127.02928597","imageIndex":17,"items":[{"name":"모네의정원","tel":"070-4101-6579","addr":"경기도 수원시 권선구 곡반정동 577-5번지 104호","indutype":"의류 - 정장","category":"other"}]},{"lat":"37.235551856","long":"127.02611903","imageIndex":17,"items":[{"name":"모먼아트","tel":"02-111-1111","addr":"경기도 수원시 권선구 곡반정동 584-3번지 3층 302호","indutype":"광학제품 - 사진관","category":"other"}]},{"lat":"37.242127813","long":"127.03314236","imageIndex":17,"items":[{"name":"문현토탈케어","tel":"031-267-3211","addr":"경기도 수원시 권선구 곡반정동 532-1번지 402호","indutype":"주방용구 - 정수기","category":"other"},{"name":"에이플러스","tel":"031-232-0850","addr":"경기도 수원시 권선구 곡반정동 532-1번지 103호","indutype":"의류 - 기타의류","category":"other"},{"name":"페르시안캣","tel":"031-223-9678","addr":"경기도 수원시 권선구 곡반정동 532-1번지 103호","indutype":"문화.취미 - 애완동물","category":"other"}]},{"lat":"37.237911925","long":"127.0291738","imageIndex":17,"items":[{"name":"미니기프트","tel":"070-4042-0377","addr":"경기도 수원시 권선구 곡반정동 569-9번지 403호","indutype":"유통업 영리 - 기타유통업","category":"other"}]},{"lat":"37.242488254","long":"127.0330298","imageIndex":17,"items":[{"name":"미니스톱 곡반중앙점","tel":"031-1577-9621","addr":"경기도 수원시 권선구 곡반정동 526-11번지 1층","indutype":"유통업 영리 - 편 의 점","category":"other"}]},{"lat":"37.239353398","long":"127.02997445","imageIndex":17,"items":[{"name":"미니스톱곡반정동점","tel":"031-340-4260","addr":"경기도 수원시 권선구 곡반정동 557-10번지 1층","indutype":"유통업 영리 - 편 의 점","category":"other"}]},{"lat":"37.234272289","long":"127.02661447","imageIndex":17,"items":[{"name":"미디어 뷰 경기점","tel":"070-7801-1765","addr":"경기도 수원시 권선구 곡반정동 594-6번지","indutype":"용역 서비스 - 기타용역서비스","category":"other"}]},{"lat":"37.246074474","long":"127.03259167","imageIndex":17,"items":[{"name":"미래자산관리","tel":"031-231-2240","addr":"경기도 수원시 권선구 곡반정동 503-1번지 4층","indutype":"용역 서비스 - 종합용역","category":"other"},{"name":"블루토닉뮤직(Bluetonic Music)","tel":"031-234-5150","addr":"경기도 수원시 권선구 곡반정동 503-1번지 201호","indutype":"레져용품 - 악기점","category":"other"}]},{"lat":"37.240299034","long":"127.03186813","imageIndex":17,"items":[{"name":"미래컴퓨터","tel":"031-890-7030","addr":"경기도 수원시 권선구 곡반정동 544-9번지 사랑빌딩 102호","indutype":"수리서비스 - 사무·통신기기수리","category":"other"}]},{"lat":"37.241659695","long":"127.03145166","imageIndex":17,"items":[{"name":"미소세탁소","tel":"031-232-2412","addr":"경기도 수원시 권선구 곡반정동 536-16번지 1층 102호","indutype":"수리서비스 - 세탁소","category":"other"},{"name":"위드미곡반정점","tel":"02-6916-1500","addr":"경기도 수원시 권선구 곡반정동 536-16번지","indutype":"유통업 영리 - 편 의 점","category":"other"}]},{"lat":"37.241875635","long":"127.03270272","imageIndex":17,"items":[{"name":"미스터마트수원중앙점","tel":"031-224-2167","addr":"경기도 수원시 권선구 곡반정동 533-8번지 101호","indutype":"유통업 영리 - 편 의 점","category":"other"}]},{"lat":"37.245713956","long":"127.03300854","imageIndex":17,"items":[{"name":"미윤","tel":"","addr":"경기도 수원시 권선구 곡반정동 507-3번지 403호","indutype":"의류 - 정장","category":"other"}]},{"lat":"37.242686635","long":"127.03242128","imageIndex":17,"items":[{"name":"민선비누공예","tel":"031-207-8117","addr":"경기도 수원시 권선구 곡반정동 526-15 19블럭 15롯트 103","indutype":"기타 - 기타 전문점","category":"other"}]},{"lat":"37.241515882","long":"127.02995268","imageIndex":17,"items":[{"name":"밍키스 맘","tel":"031-893-7035","addr":"경기도 수원시 권선구 곡반정동 540-1번지 철빌딩 102호","indutype":"문화.취미 - 애완동물","category":"other"},{"name":"한누리 편의점","tel":"031-237-1337","addr":"경기도 수원시 권선구 곡반정동 540-1번지 철빌딩 1층 101호","indutype":"유통업 영리 - 편 의 점","category":"other"}]},{"lat":"37.243659367","long":"127.03392063","imageIndex":17,"items":[{"name":"바이크미캐닉아카데미","tel":"031-223-3990","addr":"경기도 수원시 권선구 곡반정동 520-6번지 101호","indutype":"레져용품 - 스포츠·레져용품","category":"other"},{"name":"별이시작되는바다","tel":"031-202-2072","addr":"경기도 수원시 권선구 곡반정동 520-6번지","indutype":"레져용품 - 스포츠·레져용품","category":"other"}]},{"lat":"37.240542509","long":"127.03105679","imageIndex":17,"items":[{"name":"박주봉스포츠","tel":"031-232-8814","addr":"경기도 수원시 권선구 곡반정동 544-15번지 201호","indutype":"레져용품 - 스포츠·레져용품","category":"other"},{"name":"주식회사 피제이비플러스스포츠","tel":"","addr":"경기도 수원시 권선구 곡반정동 544-15번지 302호","indutype":"레져용품 - 스포츠·레져용품","category":"other"}]},{"lat":"37.242461447","long":"127.03213944","imageIndex":17,"items":[{"name":"발롱(BALLOW)","tel":"070-4038-3955","addr":"경기도 수원시 권선구 곡반정동 531-3번지 102호","indutype":"의류 - 정장","category":"other"}]},{"lat":"37.231993232","long":"127.02363883","imageIndex":17,"items":[{"name":"범양냉열","tel":"031-225-9333","addr":"경기도 수원시 권선구 곡반정동 607-7번지","indutype":"전기제품 - 냉열기기","category":"other"}]},{"lat":"37.242245038","long":"127.03278176","imageIndex":17,"items":[{"name":"법무사 성동길","tel":"031-235-9331","addr":"경기도 수원시 권선구 곡반정동 531-8번지 201호","indutype":"용역 서비스 - 법률회계서비스(개인)","category":"other"}]},{"lat":"37.242461582","long":"127.0315872","imageIndex":17,"items":[{"name":"베베네코","tel":"031-235-2930","addr":"경기도 수원시 권선구 곡반정동 530-6번지 하늘채 501호","indutype":"문화.취미 - 애완동물","category":"other"}]},{"lat":"37.244209598","long":"127.03153151","imageIndex":17,"items":[{"name":"베스트명품세탁","tel":"031-223-8939","addr":"경기도 수원시 권선구 곡반정동 515-8번지 101호","indutype":"수리서비스 - 세탁소","category":"other"}]},{"lat":"37.24163292","long":"127.03036972","imageIndex":17,"items":[{"name":"벨킨스","tel":"031-232-3377","addr":"경기도 수원시 권선구 곡반정동 538-13번지 1층","indutype":"신변잡화 - 기타잡화","category":"other"}]},{"lat":"37.233885238","long":"127.02456341","imageIndex":17,"items":[{"name":"벽송사무용가구","tel":"031-244-9988","addr":"경기도 수원시 권선구 곡반정동 604-3번지 101호","indutype":"가구 - 일반가구","category":"other"}]},{"lat":"37.239821773","long":"127.03067335","imageIndex":17,"items":[{"name":"보라컴","tel":"031-224-2145","addr":"경기도 수원시 권선구 곡반정동 552-16번지","indutype":"사무통신 - 컴퓨터","category":"other"}]},{"lat":"37.233182669","long":"127.02322221","imageIndex":17,"items":[{"name":"보성전력","tel":"031-223-5214","addr":"경기도 수원시 권선구 곡반정동 610-15번지 1층 101호","indutype":"용역 서비스 - 기타용역서비스","category":"other"},{"name":"정성종합공사","tel":"031-239-9096","addr":"경기도 수원시 권선구 곡반정동 610-15번지","indutype":"건축자재 - 인테리어전문","category":"other"}]},{"lat":"37.240551207","long":"127.03234156","imageIndex":17,"items":[{"name":"보현유통","tel":"031-222-9052","addr":"경기도 수원시 권선구 곡반정동 543-7,33블럭7롯트","indutype":"신변잡화 - 액세서리","category":"other"}]},{"lat":"37.236407058","long":"127.02980436","imageIndex":17,"items":[{"name":"봄나","tel":"031-233-5095","addr":"경기도 수원시 권선구 곡반정동 574-5번지 103호","indutype":"문화.취미 - 화원","category":"other"}]},{"lat":"37.241768205","long":"127.02980626","imageIndex":17,"items":[{"name":"부타타투아카데미","tel":"070-7636-4405","addr":"경기도 수원시 권선구 곡반정동 539-5번지 201호","indutype":"용역 서비스 - 사무서비스","category":"other"}]},{"lat":"37.231686088","long":"127.02775179","imageIndex":17,"items":[{"name":"뷰티클린","tel":"","addr":"경기도 수원시 권선구 곡반정동 348-5번지 2층 201호","indutype":"용역 서비스 - 종합용역","category":"other"},{"name":"주시회사 퍼스트","tel":"070-7701-3214","addr":"경기도 수원시 권선구 곡반정동 348-5번지 1층","indutype":"전기제품 - 냉열기기","category":"other"}]},{"lat":"37.23412737","long":"127.03011908","imageIndex":17,"items":[{"name":"블루상사","tel":"031-225-8141","addr":"경기도 수원시 권선구 곡반정동 315-2번지","indutype":"전기제품 - 가전제품","category":"other"}]},{"lat":"37.244380091","long":"127.03430412","imageIndex":17,"items":[{"name":"블루홈","tel":"","addr":"경기도 수원시 권선구 곡반정동 511-11번지 505호","indutype":"직물 - 카페트,커튼,천막,지물","category":"other"}]},{"lat":"37.241687124","long":"127.02974988","imageIndex":17,"items":[{"name":"블리(Vely)","tel":"031-336-5070","addr":"경기도 수원시 권선구 곡반정동 539-6번지 남경빌딩 103호","indutype":"의류 - 정장","category":"other"},{"name":"핑크코니(PINKCONY)","tel":"070-8623-6775","addr":"경기도 수원시 권선구 곡반정동 539-6번지 남경빌딩 103호","indutype":"의류 - 정장","category":"other"}]},{"lat":"37.234659592","long":"127.02731327","imageIndex":17,"items":[{"name":"블리자드","tel":"","addr":"경기도 수원시 권선구 곡반정동 593-6번지 3층","indutype":"레져용품 - 스포츠·레져용품","category":"other"}]},{"lat":"37.239875862","long":"127.03056067","imageIndex":17,"items":[{"name":"빈티지모아","tel":"031-226-7077","addr":"경기도 수원시 권선구 곡반정동 552-17 16 103","indutype":"의류 - 정장","category":"other"}]},{"lat":"37.245353395","long":"127.0335832","imageIndex":17,"items":[{"name":"뽀송뽀송운동화","tel":"031-235-4789","addr":"경기도 수원시 권선구 곡반정동 507-11번지","indutype":"수리서비스 - 세탁소","category":"other"}]},{"lat":"37.239461283","long":"127.03100004","imageIndex":17,"items":[{"name":"사단법인 경기인형극진흥회","tel":"070-4681-0675","addr":"경기도 수원시 권선구 곡반정동 554-1번지 한아름주택 102호","indutype":"문화.취미 - 티켓","category":"other"}]},{"lat":"37.233938737","long":"127.02744827","imageIndex":17,"items":[{"name":"사단법인 경기중소기업유통협회","tel":"031-259-7688","addr":"경기도 수원시 권선구 곡반정동 596-18번지","indutype":"신변잡화 - 기타잡화","category":"other"}]},{"lat":"37.231551148","long":"127.02670377","imageIndex":17,"items":[{"name":"사단법인휴먼몽골사업단","tel":"031-245-3555","addr":"경기도 수원시 권선구 곡반정동 387-2번지 2층","indutype":"기타 - 비영리/비대상","category":"other"}]},{"lat":"37.234605502","long":"127.02744849","imageIndex":17,"items":[{"name":"삼성명품세탁","tel":"031-237-7234","addr":"경기도 수원시 권선구 곡반정동 593-7번지 1층","indutype":"수리서비스 - 세탁소","category":"other"}]},{"lat":"37.242542743","long":"127.03130548","imageIndex":17,"items":[{"name":"삼성에어컨","tel":"","addr":"경기도 수원시 권선구 곡반정동 530-8번지 한아름주택 102호","indutype":"수리서비스 - 가정용품수리","category":"other"}]},{"lat":"37.231488729","long":"127.02319922","imageIndex":17,"items":[{"name":"삼성종합주방그릇도매센타","tel":"031-273-9992","addr":"경기도 수원시 권선구 곡반정동 402-3번지","indutype":"주방용구 - 주방용구","category":"other"}]},{"lat":"37.245209178","long":"127.03378601","imageIndex":17,"items":[{"name":"삼일사이언스/원격지","tel":"070-8831-6127","addr":"경기도 수원시 권선구 곡반정동 509-11번지 204호","indutype":"기타 - 기타 전문점","category":"other"}]},{"lat":"37.234245747","long":"127.02403387","imageIndex":17,"items":[{"name":"샘물판매","tel":"","addr":"경기도 수원시 권선구 곡반정동 603-5번지","indutype":"유통업 영리 - 기타유통업","category":"other"}]},{"lat":"37.241712021","long":"127.03792071","imageIndex":17,"items":[{"name":"서진갤러리","tel":"031-221-0592","addr":"경기도 수원시 권선구 곡반정동 111-5번지","indutype":"건축자재 - 기타건축자재","category":"other"}]},{"lat":"37.237244889","long":"127.03036812","imageIndex":17,"items":[{"name":"성지애드","tel":"031-222-7579","addr":"경기도 수원시 권선구 곡반정동 573-8","indutype":"용역 서비스 - 종합용역","category":"other"},{"name":"한별교육","tel":"031-302-1109","addr":"경기도 수원시 권선구 곡반정동 573-8번지 창업빌딩 상가동 102호","indutype":"서적문구 - 일반서적","category":"other"}]},{"lat":"37.234768292","long":"127.02433828","imageIndex":17,"items":[{"name":"세명비데","tel":"031-203-7114","addr":"경기도 수원시 권선구 곡반정동 589-1번지 103호","indutype":"기타 - 기타 전문점","category":"other"}]},{"lat":"37.235606005","long":"127.02566828","imageIndex":17,"items":[{"name":"세븐일레븐수원곡반본점","tel":"031-1577-0711","addr":"경기도 수원시 권선구 곡반정동 585-1번지 1층","indutype":"유통업 영리 - 편 의 점","category":"other"}]},{"lat":"37.234686859","long":"127.0261413","imageIndex":17,"items":[{"name":"세븐일레븐수원곡반하나점","tel":"031-1577-0711","addr":"경기도 수원시 권선구 곡반정동 592-10번지 1층","indutype":"유통업 영리 - 편 의 점","category":"other"}]},{"lat":"37.237128051","long":"127.02906083","imageIndex":17,"items":[{"name":"세븐일레븐수원곡선로점","tel":"","addr":"경기도 수원시 권선구 곡반정동 575-12번지 1층","indutype":"유통업 영리 - 편 의 점","category":"other"}]},{"lat":"37.232965954","long":"127.02578017","imageIndex":17,"items":[{"name":"세상물정중고가전","tel":"070-8614-8924","addr":"경기도 수원시 권선구 곡반정동 597-11번지 101호","indutype":"전기제품 - 가전제품","category":"other"}]},{"lat":"37.241542759","long":"127.03061763","imageIndex":17,"items":[{"name":"세원커머스","tel":"031-252-2331","addr":"경기도 수원시 권선구 곡반정동 538-11번지 103호","indutype":"의류 - 정장","category":"other"},{"name":"해피타임","tel":"050-4570-1600","addr":"경기도 수원시 권선구 곡반정동 538-11번지 1층","indutype":"용역 서비스 - 종합용역","category":"other"}]},{"lat":"37.234245791","long":"127.02378595","imageIndex":17,"items":[{"name":"세종상사/DID경기남부대리점","tel":"031-272-0100","addr":"경기도 수원시 권선구 곡반정동 603-6번지","indutype":"건축자재 - 인테리어전문","category":"other"}]},{"lat":"37.242019703","long":"127.03308596","imageIndex":17,"items":[{"name":"세탁백화점","tel":"031-204-9026","addr":"경기도 수원시 권선구 곡반정동 532-2번지 1층","indutype":"수리서비스 - 세탁소","category":"other"},{"name":"수원(BIKING)","tel":"031-000-0000","addr":"경기도 수원시 권선구 곡반정동 532-2번지 1층 102호","indutype":"수리서비스 - 레져용품수리","category":"other"}]},{"lat":"37.240966164","long":"127.03033567","imageIndex":17,"items":[{"name":"션룩(SEANLOOK)","tel":"031-297-6055","addr":"경기도 수원시 권선구 곡반정동 545-4번지 101호","indutype":"의류 - 정장","category":"other"}]},{"lat":"37.244876081","long":"127.03267009","imageIndex":17,"items":[{"name":"수원자전거 도매센타","tel":"031-302-0771","addr":"경기도 수원시 권선구 곡반정동 513-13번지 101호","indutype":"레져용품 - 스포츠·레져용품","category":"other"}]},{"lat":"37.238209365","long":"127.02872312","imageIndex":17,"items":[{"name":"수원정보통신","tel":"031-257-3053","addr":"경기도 수원시 권선구 곡반정동 569-5번지 1층 103호","indutype":"사무통신 - 통신기기","category":"other"}]},{"lat":"37.245939174","long":"127.03316642","imageIndex":17,"items":[{"name":"수원컴퓨터SD","tel":"070-7664-1418","addr":"경기도 수원시 권선구 곡반정동 503-5번지","indutype":"사무통신 - 컴퓨터","category":"other"}]},{"lat":"37.241741013","long":"127.030505","imageIndex":17,"items":[{"name":"시대에어컨","tel":"031-302-8157","addr":"경기도 수원시 권선구 곡반정동 538-3번지 403호","indutype":"용역 서비스 - 기타용역서비스","category":"other"}]},{"lat":"37.245353278","long":"127.03403403","imageIndex":17,"items":[{"name":"시후","tel":"02-6340-5359","addr":"경기도 수원시 권선구 곡반정동 509-3번지","indutype":"용역 서비스 - 기타용역서비스","category":"other"}]},{"lat":"37.23532663","long":"127.02594992","imageIndex":17,"items":[{"name":"신성공조시스템","tel":"031-222-6994","addr":"경기도 수원시 권선구 곡반정동 585-4번지 빅두빌딩 1층","indutype":"전기제품 - 가전제품","category":"other"},{"name":"제일","tel":"031-236-7073","addr":"경기도 수원시 권선구 곡반정동 585-4번지 빅두빌딩 102호","indutype":"용역 서비스 - 기타용역서비스","category":"other"}]},{"lat":"37.240020008","long":"127.03063961","imageIndex":17,"items":[{"name":"신일세탁소","tel":"031-226-0588","addr":"경기도 수원시 권선구 곡반정동 552-1번지 다빈치빌딩 102호","indutype":"수리서비스 - 세탁소","category":"other"}]},{"lat":"37.23302042","long":"127.02358277","imageIndex":17,"items":[{"name":"실버벨 에듀","tel":"070-8182-9983","addr":"경기도 수원시 권선구 곡반정동 609-8번지 1층","indutype":"서적문구 - 일반서적","category":"other"}]},{"lat":"37.234101169","long":"127.02623127","imageIndex":17,"items":[{"name":"씨앤씨스포츠(C&C스포츠)","tel":"032-422-4695","addr":"경기도 수원시 권선구 곡반정동 594-9번지 203호","indutype":"회원제형태 - 레져업소","category":"other"},{"name":"씨앤씨스포츠(C&C스포츠)","tel":"031-425-3663","addr":"경기도 수원시 권선구 곡반정동 594-9번지 203호","indutype":"회원제형태 - 레져업소","category":"other"}]},{"lat":"37.244632921","long":"127.03219663","imageIndex":17,"items":[{"name":"씨엔피(CnP)","tel":"070-7437-9586","addr":"경기도 수원시 권선구 곡반정동 514-11번지 103호","indutype":"용역 서비스 - 종합용역","category":"other"}]},{"lat":"37.238047063","long":"127.02925273","imageIndex":17,"items":[{"name":"씨유곡반정소망점","tel":"032-662-3086","addr":"경기도 수원시 권선구 곡반정동 569-8번지 한아름빌딩 1층 101호","indutype":"유통업 영리 - 편 의 점","category":"other"}]},{"lat":"37.244632605","long":"127.03344766","imageIndex":17,"items":[{"name":"씨유곡반중점","tel":"031-231-9923","addr":"경기도 수원시 권선구 곡반정동 512-11번지","indutype":"유통업 영리 - 편 의 점","category":"other"}]},{"lat":"37.239713432","long":"127.03158616","imageIndex":17,"items":[{"name":"씨유수원곡반정썬스타점","tel":"031-221-2896","addr":"경기도 수원시 권선구 곡반정동 552-8번지 곡반정동빌딩 1층 101호","indutype":"유통업 영리 - 편 의 점","category":"other"}]},{"lat":"37.24138074","long":"127.02989628","imageIndex":17,"items":[{"name":"아름다운인테리어","tel":"031-221-8630","addr":"경기도 수원시 권선구 곡반정동 540-14번지 순빌딩 103호","indutype":"직물 - 카페트,커튼,천막,지물","category":"other"}]},{"lat":"37.242632905","long":"127.03105757","imageIndex":17,"items":[{"name":"아리종합관리","tel":"","addr":"경기도 수원시 권선구 곡반정동 530-10번지 103호","indutype":"수리서비스 - 사무·통신기기수리","category":"other"},{"name":"윈드네이쳐","tel":"","addr":"경기도 수원시 권선구 곡반정동 530-10번지 103호","indutype":"용역 서비스 - 종합용역","category":"other"}]},{"lat":"37.233434823","long":"127.02399983","imageIndex":17,"items":[{"name":"아이시스템","tel":"031-236-1881","addr":"경기도 수원시 권선구 곡반정동 609-2번지 한아름주택 101호","indutype":"전기제품 - 기타전기제품","category":"other"}]},{"lat":"37.241020265","long":"127.03016664","imageIndex":17,"items":[{"name":"아이월드","tel":"070-4001-6356","addr":"경기도 수원시 권선구 곡반정동 545-3번지 201호","indutype":"서적문구 - 일반서적","category":"other"}]},{"lat":"37.243407793","long":"127.03105785","imageIndex":17,"items":[{"name":"알라딘펫","tel":"070-7717-8949","addr":"경기도 수원시 권선구 곡반정동 516-8번지 1층","indutype":"문화.취미 - 애완동물","category":"other"}]},{"lat":"37.234353427","long":"127.02638912","imageIndex":17,"items":[{"name":"언니가 간다","tel":"02-6927-8038","addr":"경기도 수원시 권선구 곡반정동 594-12번지 한아름주택 302호","indutype":"직물 - 카페트,커튼,천막,지물","category":"other"}]},{"lat":"37.24527255","long":"127.03261389","imageIndex":17,"items":[{"name":"에너지테크","tel":"031-8002-6456","addr":"경기도 수원시 권선구 곡반정동 508-15번지 202호","indutype":"전기제품 - 냉열기기","category":"other"}]},{"lat":"37.23493936","long":"127.02503701","imageIndex":17,"items":[{"name":"에스에이치 솔루션","tel":"031-1666-7257","addr":"경기도 수원시 권선구 곡반정동 587-12번지 303호","indutype":"용역 서비스 - 소프트웨어","category":"other"}]},{"lat":"37.240849087","long":"127.03008768","imageIndex":17,"items":[{"name":"에어컨나라","tel":"070-5022-4846","addr":"경기도 수원시 권선구 곡반정동 545-11번지 401호","indutype":"전기제품 - 냉열기기","category":"other"},{"name":"하이보울","tel":"031-257-8977","addr":"경기도 수원시 권선구 곡반정동 545-11번지","indutype":"문화.취미 - 문화취미기타","category":"other"}]},{"lat":"37.234019911","long":"127.02705388","imageIndex":17,"items":[{"name":"에어텍(AIR TECH)","tel":"031-8013-9117","addr":"경기도 수원시 권선구 곡반정동 595-6번지 한아름주택 304호","indutype":"용역 서비스 - 기타용역서비스","category":"other"}]},{"lat":"37.235128294","long":"127.02650205","imageIndex":17,"items":[{"name":"에이씨티더블4(ACT더블4)","tel":"031-238-7776","addr":"경기도 수원시 권선구 곡반정동 584-7번지 101,102호","indutype":"사무통신 - 통신기기","category":"other"}]},{"lat":"37.240244898","long":"127.03217239","imageIndex":17,"items":[{"name":"에이치엔티(H&T)컨설팅","tel":"070-4007-0127","addr":"경기도 수원시 권선구 곡반정동 550-2번지 301 (301호~301호)","indutype":"여행 - 관광여행","category":"other"}]},{"lat":"37.235794941","long":"127.02708826","imageIndex":17,"items":[{"name":"에이플러스문구","tel":"031-238-4180","addr":"경기도 수원시 권선구 곡반정동 579번지 한솔 상가 102호","indutype":"서적문구 - 문구용품","category":"other"}]},{"lat":"37.239181895","long":"127.03128168","imageIndex":17,"items":[{"name":"엘리트오피스","tel":"031-203-0684","addr":"경기도 수원시 권선구 곡반정동 554-4번지 101","indutype":"서적문구 - 문구용품","category":"other"}]},{"lat":"37.241911719","long":"127.03253368","imageIndex":17,"items":[{"name":"엘정보","tel":"031-224-7762","addr":"경기도 수원시 권선구 곡반정동 533-7번지","indutype":"사무통신 - 기타 사무용품","category":"other"}]},{"lat":"37.239741102","long":"127.0288138","imageIndex":17,"items":[{"name":"엠씨아이(M.C.I)","tel":"031-236-7327","addr":"경기도 수원시 권선구 곡반정동 557-1번지","indutype":"회원제형태 - 기타4","category":"other"}]},{"lat":"37.245020227","long":"127.03274904","imageIndex":17,"items":[{"name":"연화조경","tel":"031-236-4153","addr":"경기도 수원시 권선구 곡반정동 513-4번지 102호","indutype":"문화.취미 - 화원","category":"other"}]},{"lat":"37.237272204","long":"127.02911723","imageIndex":17,"items":[{"name":"영재플러스","tel":"070-4334-1344","addr":"경기도 수원시 권선구 곡반정동 575-1번지 4층","indutype":"의류 - 아동의류","category":"other"},{"name":"향기팩토리","tel":"031-296-1335","addr":"경기도 수원시 권선구 곡반정동 575-1번지 4층","indutype":"신변잡화 - 기타잡화","category":"other"}]},{"lat":"37.234579219","long":"127.02352685","imageIndex":17,"items":[{"name":"영화상사","tel":"031-234-7726","addr":"경기도 수원시 권선구 곡반정동 602-3번지","indutype":"건축자재 - 페인트","category":"other"}]},{"lat":"37.235047299","long":"127.02600618","imageIndex":17,"items":[{"name":"예지아이","tel":"070-4001-6356","addr":"경기도 수원시 권선구 곡반정동 585-9번지 101호","indutype":"회원제형태 - 서적","category":"other"}]},{"lat":"37.244605436","long":"127.03397737","imageIndex":17,"items":[{"name":"오렌지컴퍼니","tel":"02-1661-8581","addr":"경기도 수원시 권선구 곡반정동 512-4번지 에코빌딩 104호","indutype":"용역 서비스 - 종합용역","category":"other"},{"name":"하이엔드테크/원격지","tel":"031-238-6820","addr":"경기도 수원시 권선구 곡반정동 512-4번지 동담빌딩 201호","indutype":"기타 - 기타 전문점","category":"other"}]},{"lat":"37.245380783","long":"127.03217438","imageIndex":17,"items":[{"name":"오렌지컴퓨터","tel":"031-224-6111","addr":"경기도 수원시 권선구 곡반정동 504-6번지 101호","indutype":"수리서비스 - 사무·통신기기수리","category":"other"}]},{"lat":"37.234434895","long":"127.02441707","imageIndex":17,"items":[{"name":"오케이전기조명","tel":"031-304-8008","addr":"경기도 수원시 권선구 곡반정동 589-6번지 101호","indutype":"건축자재 - 조명기구","category":"other"}]},{"lat":"37.239992644","long":"127.03202579","imageIndex":17,"items":[{"name":"욜로스페이스","tel":"051-806-2945","addr":"경기도 수원시 권선구 곡반정동 550-4번지 403호","indutype":"건축자재 - 인테리어전문","category":"other"}]},{"lat":"37.24335353","long":"127.03189184","imageIndex":17,"items":[{"name":"용수에어컨","tel":"031-234-9432","addr":"경기도 수원시 권선구 곡반정동 518-12번지 201호","indutype":"용역 서비스 - 기타용역서비스","category":"other"}]},{"lat":"37.23621794","long":"127.02936479","imageIndex":17,"items":[{"name":"우리집솔루션","tel":"031-224-5033","addr":"경기도 수원시 권선구 곡반정동 577-7번지 102호","indutype":"전기제품 - 가전제품","category":"other"},{"name":"컴퓨터좋은친구","tel":"031-255-3146","addr":"경기도 수원시 권선구 곡반정동 577-7번지 101호","indutype":"사무통신 - 컴퓨터","category":"other"}]},{"lat":"37.233182196","long":"127.02581404","imageIndex":17,"items":[{"name":"원필름","tel":"031-257-2333","addr":"경기도 수원시 권선구 곡반정동 597-15번지","indutype":"기타 - 기타 전문점","category":"other"}]},{"lat":"37.234741103","long":"127.02519472","imageIndex":17,"items":[{"name":"월드디자인","tel":"031-225-3154","addr":"경기도 수원시 권선구 곡반정동 587-10번지 1층","indutype":"건축자재 - 인테리어전문","category":"other"}]},{"lat":"37.244740459","long":"127.03447333","imageIndex":17,"items":[{"name":"월드종합주방","tel":"031-236-1145","addr":"경기도 수원시 권선구 곡반정동 511-8번지 1층","indutype":"전기제품 - 가전제품","category":"other"}]},{"lat":"37.234155297","long":"127.02589322","imageIndex":17,"items":[{"name":"위너스 전자","tel":"070-7572-8949","addr":"경기도 수원시 권선구 곡반정동 598-1번지 1층","indutype":"사무통신 - 사무용 OA기기","category":"other"}]},{"lat":"37.233605497","long":"127.02674949","imageIndex":17,"items":[{"name":"위너젠","tel":"031-234-7158","addr":"경기도 수원시 권선구 곡반정동 597-1번지","indutype":"전기제품 - 기타전기제품","category":"other"}]},{"lat":"37.241128471","long":"127.02980603","imageIndex":17,"items":[{"name":"위닉스경기대리점","tel":"031-237-5858","addr":"경기도 수원시 권선구 곡반정동 545-1번지","indutype":"주방용구 - 정수기","category":"other"}]},{"lat":"37.24007425","long":"127.02986201","imageIndex":17,"items":[{"name":"위드미수원유토빌점","tel":"02-6916-1500","addr":"경기도 수원시 권선구 곡반정동 548번지 권선신일유토빌 112동 B108호","indutype":"유통업 영리 - 편 의 점","category":"other"},{"name":"퍼피바게트","tel":"031-235-0345","addr":"경기도 수원시 권선구 곡반정동 548번지 권선신일유토빌 112동 비107호","indutype":"문화.취미 - 애완동물","category":"other"}]},{"lat":"37.238488715","long":"127.02858798","imageIndex":17,"items":[{"name":"유니나세제","tel":"031-224-0944","addr":"경기도 수원시 권선구 곡반정동 566-14번지","indutype":"신변잡화 - 기타잡화","category":"other"}]},{"lat":"37.242686873","long":"127.03145204","imageIndex":17,"items":[{"name":"유성세탁","tel":"031-238-7778","addr":"경기도 수원시 권선구 곡반정동 530-4번지 101호","indutype":"수리서비스 - 세탁소","category":"other"}]},{"lat":"37.24091219","long":"127.02995247","imageIndex":17,"items":[{"name":"유향캘리그라피","tel":"031-294-4432","addr":"경기도 수원시 권선구 곡반정동 545-12번지 103호","indutype":"건축자재 - 인테리어전문","category":"other"}]},{"lat":"37.231325467","long":"127.02872077","imageIndex":17,"items":[{"name":"윤디자인","tel":"070-7528-2822","addr":"경기도 수원시 권선구 곡반정동 328번지","indutype":"건축자재 - 인테리어전문","category":"other"},{"name":"태창산업","tel":"031-235-1277","addr":"경기도 수원시 권선구 곡반정동 328번지","indutype":"용역 서비스 - 종합용역","category":"other"}]},{"lat":"37.232767188","long":"127.028417","imageIndex":17,"items":[{"name":"이나경 골프존파크","tel":"031-239-2233","addr":"경기도 수원시 권선구 곡반정동 345-3번지","indutype":"레져용품 - 골프용품 전문점","category":"other"}]},{"lat":"37.238299522","long":"127.02847522","imageIndex":17,"items":[{"name":"이레통상","tel":"070-7913-8818","addr":"경기도 수원시 권선구 곡반정동 569-3번지 305호","indutype":"의류 - 정장","category":"other"}]},{"lat":"37.234632823","long":"127.02600606","imageIndex":17,"items":[{"name":"이리데선스(lridescence)","tel":"","addr":"경기도 수원시 권선구 곡반정동 592-9번지 행복한우리집 101호","indutype":"신변잡화 - 액세서리","category":"other"}]},{"lat":"37.234543108","long":"127.02392126","imageIndex":17,"items":[{"name":"이마트24 수원곡반본점","tel":"","addr":"경기도 수원시 권선구 곡반정동 603-1번지 1층","indutype":"유통업 영리 - 편 의 점","category":"other"},{"name":"이마트24 수원곡반본점","tel":"","addr":"경기도 수원시 권선구 곡반정동 603-1번지","indutype":"유통업 영리 - 편 의 점","category":"other"}]},{"lat":"37.241993419","long":"127.02999793","imageIndex":17,"items":[{"name":"이슈","tel":"031-237-1025","addr":"경기도 수원시 권선구 곡반정동 539-3번지 102호","indutype":"의류 - 정장","category":"other"}]},{"lat":"37.244740699","long":"127.03356041","imageIndex":17,"items":[{"name":"이오","tel":"070-7809-5985","addr":"경기도 수원시 권선구 곡반정동 512-1번지 204호","indutype":"용역 서비스 - 소프트웨어","category":"other"}]},{"lat":"37.241353577","long":"127.03047105","imageIndex":17,"items":[{"name":"이오에이치 홀딩스","tel":"070-4256-7384","addr":"경기도 수원시 권선구 곡반정동 540-5번지 국제빌딩 501호","indutype":"회원제형태 - 사무서비스","category":"other"}]},{"lat":"37.244182438","long":"127.03206121","imageIndex":17,"items":[{"name":"이지에어컨","tel":"031-238-9490","addr":"경기도 수원시 권선구 곡반정동 517-4번지 303호 (303호~303호)","indutype":"용역 서비스 - 기타용역서비스","category":"other"}]},{"lat":"37.244272588","long":"127.03186965","imageIndex":17,"items":[{"name":"일로스틸","tel":"","addr":"경기도 수원시 권선구 곡반정동 517-7번지 영빌딩 101호","indutype":"용역 서비스 - 기타용역서비스","category":"other"},{"name":"통일서점","tel":"070-7758-9980","addr":"경기도 수원시 권선구 곡반정동 517-7번지 영빌딩 403호","indutype":"서적문구 - 일반서적","category":"other"}]},{"lat":"37.241272554","long":"127.03016673","imageIndex":17,"items":[{"name":"자레나(Jarena)","tel":"031-309-0815","addr":"경기도 수원시 권선구 곡반정동 540-12번지 1층","indutype":"유통업 영리 - 기타유통업","category":"other"}]},{"lat":"37.241714073","long":"127.03011053","imageIndex":17,"items":[{"name":"제이글로우","tel":"031-000-0000","addr":"경기도 수원시 권선구 곡반정동 538-15번지 4층 3호","indutype":"신변잡화 - 기타잡화","category":"other"}]},{"lat":"37.245182376","long":"127.03289562","imageIndex":17,"items":[{"name":"제이씨엘이디조명","tel":"070-7655-1112","addr":"경기도 수원시 권선구 곡반정동 508-13번지 지하 B01호","indutype":"건축자재 - 조명기구","category":"other"}]},{"lat":"37.243740445","long":"127.03397701","imageIndex":17,"items":[{"name":"제이엘컴퍼니","tel":"031-203-8289","addr":"경기도 수원시 권선구 곡반정동 520-5번지 504호","indutype":"신변잡화 - 신발","category":"other"}]},{"lat":"37.241578689","long":"127.03109098","imageIndex":17,"items":[{"name":"주식회사 넥스랩","tel":"031-239-3600","addr":"경기도 수원시 권선구 곡반정동 538-7번지 101호","indutype":"용역 서비스 - 소프트웨어","category":"other"}]},{"lat":"37.238245145","long":"127.02989517","imageIndex":17,"items":[{"name":"주식회사 서전아이티","tel":"031-234-5848","addr":"경기도 수원시 권선구 곡반정동 567-2번지 201호","indutype":"사무통신 - 컴퓨터","category":"other"}]},{"lat":"37.236686199","long":"127.03058204","imageIndex":17,"items":[{"name":"주식회사 솜렌트카","tel":"031-111-1111","addr":"경기도 수원시 권선구 곡반정동 289-13번지","indutype":"여행 - 렌터카","category":"other"}]},{"lat":"37.233128499","long":"127.02384198","imageIndex":17,"items":[{"name":"주식회사 올클리어","tel":"031-340-2910","addr":"경기도 수원시 권선구 곡반정동 609-4번지","indutype":"서적문구 - 과학기자재","category":"other"}]},{"lat":"37.244407668","long":"127.032174","imageIndex":17,"items":[{"name":"주식회사 이노에스티","tel":"070-4171-3996","addr":"경기도 수원시 권선구 곡반정동 517-2번지 한아름주택 101호","indutype":"용역 서비스 - 기타용역서비스","category":"other"}]},{"lat":"37.245128455","long":"127.03233207","imageIndex":17,"items":[{"name":"주식회사 중원도시개발","tel":"031-356-1195","addr":"경기도 수원시 권선구 곡반정동 513-1번지 102호","indutype":"용역 서비스 - 사무서비스","category":"other"}]},{"lat":"37.23493932","long":"127.02525112","imageIndex":17,"items":[{"name":"주식회사 지디티","tel":"02-1111-1111","addr":"경기도 수원시 권선구 곡반정동 587-4번지 1층","indutype":"가구 - 일반가구","category":"other"}]},{"lat":"37.238407556","long":"127.02889223","imageIndex":17,"items":[{"name":"주식회사니드테크","tel":"031-898-7573","addr":"경기도 수원시 권선구 곡반정동 566-12번지 한아름주택 102호","indutype":"전기제품 - 기타전기제품","category":"other"}]},{"lat":"37.238181866","long":"127.03078544","imageIndex":17,"items":[{"name":"주식회사에코템","tel":"02-1544-9195","addr":"경기도 수원시 권선구 곡반정동 563-7번지 3층","indutype":"기타 - 기계공구","category":"other"}]},{"lat":"37.238686954","long":"127.0285317","imageIndex":17,"items":[{"name":"주식회사펩스환경","tel":"031-235-1888","addr":"경기도 수원시 권선구 곡반정동 566-2번지","indutype":"용역 서비스 - 종합용역","category":"other"}]},{"lat":"37.234155008","long":"127.02733565","imageIndex":17,"items":[{"name":"주식회사피엔아이","tel":"031-898-6255","addr":"경기도 수원시 권선구 곡반정동 595-4번지","indutype":"용역 서비스 - 사무서비스","category":"other"}]},{"lat":"37.244569807","long":"127.03236567","imageIndex":17,"items":[{"name":"중고나라","tel":"031-212-8954","addr":"경기도 수원시 권선구 곡반정동 514-10번지 101호","indutype":"가구 - 일반가구","category":"other"}]},{"lat":"37.233966347","long":"127.02447328","imageIndex":17,"items":[{"name":"지엠텍아로마","tel":"031-234-0155","addr":"경기도 수원시 권선구 곡반정동 604-2 (84블럭2롯트) 101","indutype":"신변잡화 - 기타잡화","category":"other"}]},{"lat":"37.242154992","long":"127.03255632","imageIndex":17,"items":[{"name":"지유","tel":"070-7520-8158","addr":"경기도 수원시 권선구 곡반정동 531-12번지","indutype":"회원제형태 - 기타1","category":"other"}]},{"lat":"37.235101474","long":"127.02542021","imageIndex":17,"items":[{"name":"진명산업","tel":"031-222-4226","addr":"경기도 수원시 권선구 곡반정동 586-4번지","indutype":"용역 서비스 - 종합용역","category":"other"},{"name":"현대광고연합","tel":"031-376-5754","addr":"경기도 수원시 권선구 곡반정동 586-4번지 1층","indutype":"용역 서비스 - 종합용역","category":"other"},{"name":"현대광고연합 주식회사","tel":"031-222-4226","addr":"경기도 수원시 권선구 곡반정동 586-4번지 102호","indutype":"용역 서비스 - 종합용역","category":"other"}]},{"lat":"37.238244973","long":"127.03063896","imageIndex":17,"items":[{"name":"진법무사사무소","tel":"031-234-1151","addr":"경기도 수원시 권선구 곡반정동 563-6번지 효성빌딩 3층","indutype":"용역 서비스 - 법률회계서비스(개인)","category":"other"}]},{"lat":"37.237578597","long":"127.02892575","imageIndex":17,"items":[{"name":"차이나홍","tel":"031-223-5214","addr":"경기도 수원시 권선구 곡반정동 570-14번지 201호","indutype":"신변잡화 - 기타잡화","category":"other"}]},{"lat":"37.241848722","long":"127.03222937","imageIndex":17,"items":[{"name":"착한디자인","tel":"070-7583-1400","addr":"경기도 수원시 권선구 곡반정동 533-12번지 103호","indutype":"건축자재 - 인테리어전문","category":"other"}]},{"lat":"37.241687016","long":"127.03022323","imageIndex":17,"items":[{"name":"청풍홈그린","tel":"031-236-0337","addr":"경기도 수원시 권선구 곡반정동 538-14번지 103호","indutype":"전기제품 - 가전제품","category":"other"}]},{"lat":"37.242326495","long":"127.0313054","imageIndex":17,"items":[{"name":"총각네홈케어 수원점","tel":"","addr":"경기도 수원시 권선구 곡반정동 534-5번지","indutype":"용역 서비스 - 종합용역","category":"other"}]},{"lat":"37.242542601","long":"127.03189153","imageIndex":17,"items":[{"name":"춘일엔티","tel":"031-238-2034","addr":"경기도 수원시 권선구 곡반정동 531-1번지","indutype":"전기제품 - 기타전기제품","category":"other"}]},{"lat":"37.238542698","long":"127.02894862","imageIndex":17,"items":[{"name":"카스.텍","tel":"031-239-8857","addr":"경기도 수원시 권선구 곡반정동 566-5번지 상가 1층","indutype":"기타 - 기계공구","category":"other"}]},{"lat":"37.238488424","long":"127.02989525","imageIndex":17,"items":[{"name":"칸노래","tel":"031-223-5214","addr":"경기도 수원시 권선구 곡반정동 563-1번지 오성빌딩 3층","indutype":"용역 서비스 - 종합용역","category":"other"},{"name":"티원모바일","tel":"031-236-0045","addr":"경기도 수원시 권선구 곡반정동 563-1번지 오성빌딩 1층 101호","indutype":"사무통신 - 통신기기","category":"other"}]},{"lat":"37.245686624","long":"127.03416941","imageIndex":17,"items":[{"name":"칸막이 렉산공사 강화도어 인테리어","tel":"070-4042-6784","addr":"경기도 수원시 권선구 곡반정동 506-2번지 101호","indutype":"건축자재 - 인테리어전문","category":"other"}]},{"lat":"37.241218008","long":"127.03219531","imageIndex":17,"items":[{"name":"캐리어 권선센타","tel":"031-233-7786","addr":"경기도 수원시 권선구 곡반정동 537-7번지 101호","indutype":"회원제형태 - 기타4","category":"other"},{"name":"케이엘 공조시스템","tel":"031-477-7703","addr":"경기도 수원시 권선구 곡반정동 537-7번지 102호","indutype":"용역 서비스 - 기타용역서비스","category":"other"}]},{"lat":"37.243714025","long":"127.03155386","imageIndex":17,"items":[{"name":"캐슬공인중개사사무소","tel":"031-226-6003","addr":"경기도 수원시 권선구 곡반정동 517-21번지 1층","indutype":"용역 서비스 - 부동산 중개·임대","category":"other"}]},{"lat":"37.23691168","long":"127.02961296","imageIndex":17,"items":[{"name":"캐시스토리(CATHY STORY)","tel":"","addr":"경기도 수원시 권선구 곡반정동 575-8번지 1층 104호 캐시스토리향기공방","indutype":"문화.취미 - 문화취미기타","category":"other"}]},{"lat":"37.233821866","long":"127.02614104","imageIndex":17,"items":[{"name":"컴퓨터수리","tel":"","addr":"경기도 수원시 권선구 곡반정동 598-4번지 402호","indutype":"사무통신 - 컴퓨터","category":"other"}]},{"lat":"37.238326578","long":"127.02836253","imageIndex":17,"items":[{"name":"케이에스에이치","tel":"070-8715-1726","addr":"경기도 수원시 권선구 곡반정동 569-2번지 402호","indutype":"전기제품 - 기타전기제품","category":"other"}]},{"lat":"37.242019918","long":"127.03222943","imageIndex":17,"items":[{"name":"코업상사","tel":"031-893-6031","addr":"경기도 수원시 권선구 곡반정동 533-5번지 101호","indutype":"전기제품 - 기타전기제품","category":"other"}]},{"lat":"37.238353186","long":"127.03025583","imageIndex":17,"items":[{"name":"쿨핫(COOL&HOT)","tel":"","addr":"경기도 수원시 권선구 곡반정동 563-3번지 505호","indutype":"용역 서비스 - 기타용역서비스","category":"other"}]},{"lat":"37.238272036","long":"127.03050373","imageIndex":17,"items":[{"name":"크린토피아코인워시곡반정동점","tel":"031-236-4546","addr":"경기도 수원시 권선구 곡반정동 563-5번지 1층","indutype":"수리서비스 - 세탁소","category":"other"}]},{"lat":"37.233992771","long":"127.02758351","imageIndex":17,"items":[{"name":"키플랜(KEYPLAN)","tel":"070-8941-9905","addr":"경기도 수원시 권선구 곡반정동 596-19번지","indutype":"건축자재 - 인테리어전문","category":"other"}]},{"lat":"37.240767621","long":"127.03166545","imageIndex":17,"items":[{"name":"킹라인 줄눈전문업체","tel":"","addr":"경기도 수원시 권선구 곡반정동 542-10번지 401호","indutype":"용역 서비스 - 기타용역서비스","category":"other"}]},{"lat":"37.239767666","long":"127.03086491","imageIndex":17,"items":[{"name":"탑정보통신","tel":"031-237-0025","addr":"경기도 수원시 권선구 곡반정동 552-14번지 101호","indutype":"사무통신 - 통신기기","category":"other"}]},{"lat":"37.237686795","long":"127.0285877","imageIndex":17,"items":[{"name":"태림인테리어","tel":"031-224-0488","addr":"경기도 수원시 권선구 곡반정동 570-12번지 102호","indutype":"직물 - 카페트,커튼,천막,지물","category":"other"},{"name":"태양사","tel":"031-256-0407","addr":"경기도 수원시 권선구 곡반정동 570-12번지 1층 101호","indutype":"건축자재 - 기타건축자재","category":"other"}]},{"lat":"37.233461049","long":"127.02811298","imageIndex":17,"items":[{"name":"통합주방","tel":"","addr":"경기도 수원시 권선구 곡반정동 339-4번지","indutype":"주방용구 - 주방용구","category":"other"}]},{"lat":"37.237146175","long":"127.02858752","imageIndex":17,"items":[{"name":"티와이유 에어컨","tel":"","addr":"경기도 수원시 권선구 곡반정동 578번지 곡반정현대아이파크 101동 204호","indutype":"용역 서비스 - 기타용역서비스","category":"other"}]},{"lat":"37.23743433","long":"127.02938775","imageIndex":17,"items":[{"name":"펫마트","tel":"031-898-6635","addr":"경기도 수원시 권선구 곡반정동 571-6번지","indutype":"문화.취미 - 애완동물","category":"other"}]},{"lat":"37.241606049","long":"127.02967096","imageIndex":17,"items":[{"name":"펭귄하우스 곡반정동점","tel":"","addr":"경기도 수원시 권선구 곡반정동 539-7번지 숙영빌딩 1층 102호","indutype":"수리서비스 - 세탁소","category":"other"}]},{"lat":"37.245046765","long":"127.03464251","imageIndex":17,"items":[{"name":"폰샵(phone shop)","tel":"031-223-3373","addr":"경기도 수원시 권선구 곡반정동 511-5번지 골드하우스3 1층 101호","indutype":"사무통신 - 통신기기","category":"other"}]},{"lat":"37.238966299","long":"127.02841909","imageIndex":17,"items":[{"name":"폴리파크곡반정점","tel":"031-223-4313","addr":"경기도 수원시 권선구 곡반정동 564-2번지 103호,104호","indutype":"문화.취미 - 애완동물","category":"other"}]},{"lat":"37.238542806","long":"127.02845276","imageIndex":17,"items":[{"name":"피알 몬스터","tel":"031-234-9934","addr":"경기도 수원시 권선구 곡반정동 566-15번지 성우빌딩 103호","indutype":"용역 서비스 - 종합용역","category":"other"}]},{"lat":"37.23435362","long":"127.02539745","imageIndex":17,"items":[{"name":"필(Feel)인테리어","tel":"070-6215-6738","addr":"경기도 수원시 권선구 곡반정동 590-3번지","indutype":"건축자재 - 인테리어전문","category":"other"}]},{"lat":"37.236740389","long":"127.03002986","imageIndex":17,"items":[{"name":"필사운드기획","tel":"031-234-7144","addr":"경기도 수원시 권선구 곡반정동 574-2번지 101호","indutype":"전기제품 - 가전제품","category":"other"}]},{"lat":"37.234578783","long":"127.02589335","imageIndex":17,"items":[{"name":"하나로수선","tel":"031-236-0555","addr":"경기도 수원시 권선구 곡반정동 592-8번지","indutype":"수리서비스 - 세탁소","category":"other"}]},{"lat":"37.23146083","long":"127.02775172","imageIndex":17,"items":[{"name":"하나벨리요양원","tel":"031-244-4003","addr":"경기도 수원시 권선구 곡반정동 348-1번지","indutype":"기타의료기관 - 기타의료기관 및 기타","category":"other"}]},{"lat":"37.245795196","long":"127.0324225","imageIndex":17,"items":[{"name":"하니펫살롱","tel":"031-307-1015","addr":"경기도 수원시 권선구 곡반정동 504-2번지","indutype":"문화.취미 - 애완동물","category":"other"}]},{"lat":"37.234515534","long":"127.02678358","imageIndex":17,"items":[{"name":"한빛아이티","tel":"","addr":"경기도 수원시 권선구 곡반정동 594-15번지 202호","indutype":"용역 서비스 - 사무서비스","category":"other"}]},{"lat":"37.237046559","long":"127.03080756","imageIndex":17,"items":[{"name":"한솔꽃직매장","tel":"031-222-2771","addr":"경기도 수원시 권선구 곡반정동 289-3","indutype":"문화.취미 - 화원","category":"other"}]},{"lat":"37.234687224","long":"127.02420303","imageIndex":17,"items":[{"name":"한양케미칼","tel":"031-1599-3604","addr":"경기도 수원시 권선구 곡반정동 589-8번지","indutype":"건축자재 - 기타건축자재","category":"other"}]},{"lat":"37.239272053","long":"127.03105631","imageIndex":17,"items":[{"name":"핫도그애견샵","tel":"031-8001-0330","addr":"경기도 수원시 권선구 곡반정동 554-5번지 1층","indutype":"문화.취미 - 애완동물","category":"other"}]},{"lat":"37.234659946","long":"127.02553277","imageIndex":17,"items":[{"name":"해룡철물","tel":"031-239-7737","addr":"경기도 수원시 권선구 곡반정동 587-7번지","indutype":"건축자재 - 목재·석재·철물","category":"other"}]},{"lat":"37.241767873","long":"127.03122629","imageIndex":17,"items":[{"name":"행복한 광이네","tel":"031-232-2042","addr":"경기도 수원시 권선구 곡반정동 535-8번지 1층 102호","indutype":"문화.취미 - 애완동물","category":"other"}]},{"lat":"37.236939111","long":"127.02777605","imageIndex":17,"items":[{"name":"현대세탁소","tel":"031-237-0880","addr":"경기도 수원시 권선구 곡반정동 578번지 곡반정현대아이파크 상가동 101호","indutype":"수리서비스 - 세탁소","category":"other"}]},{"lat":"37.237876131","long":"127.02803556","imageIndex":17,"items":[{"name":"현대오앤오 주식회사","tel":"070-8848-3050","addr":"경기도 수원시 권선구 곡반정동 570-5번지 2층","indutype":"용역 서비스 - 종합용역","category":"other"}]},{"lat":"37.234488828","long":"127.02511576","imageIndex":17,"items":[{"name":"화성세탁소","tel":"031-236-2367","addr":"경기도 수원시 권선구 곡반정동 588-6번지 용빌딩 102호","indutype":"수리서비스 - 세탁소","category":"other"}]},{"lat":"37.233606003","long":"127.02409003","imageIndex":17,"items":[{"name":"화성씨앤씨 세탁기","tel":"","addr":"경기도 수원시 권선구 곡반정동 605-6번지","indutype":"전기제품 - 가전제품","category":"other"}]},{"lat":"37.236821662","long":"127.02922976","imageIndex":17,"items":[{"name":"후레쉬시가","tel":"","addr":"경기도 수원시 권선구 곡반정동 576-3번지 1층 101호","indutype":"기타 - 기타 전문점","category":"other"}]},{"lat":"37.23935351","long":"127.02947858","imageIndex":17,"items":[{"name":"휴먼아이티수원","tel":"031-223-5157","addr":"경기도 수원시 권선구 곡반정동 557-14번지","indutype":"사무통신 - 컴퓨터","category":"other"}]}]