[{"lat":"37.274460602","long":"127.00600514","imageIndex":4,"items":[{"name":"강뉴카페","tel":"031-293-0892","addr":"경기도 수원시 팔달구 고등동 45-14번지","indutype":"일반휴게음식 - 일반한식","category":"restaurant"}]},{"lat":"37.269928471","long":"127.00319765","imageIndex":4,"items":[{"name":"강원도막국수","tel":"031-252-6677","addr":"경기도 수원시 팔달구 고등동 300-14번지","indutype":"일반휴게음식 - 일반한식","category":"restaurant"}]},{"lat":"37.272153987","long":"127.00528347","imageIndex":4,"items":[{"name":"계서칼국수","tel":"","addr":"경기도 수원시 팔달구 고등동 58-11번지 1층","indutype":"일반휴게음식 - 일반한식","category":"restaurant"}]},{"lat":"37.270207775","long":"127.00478734","imageIndex":4,"items":[{"name":"고향양꼬치","tel":"031-256-6668","addr":"경기도 수원시 팔달구 고등동 86-2번지 1층","indutype":"일반휴게음식 - 일반한식","category":"restaurant"},{"name":"등비룡탕절대부","tel":"070-111-1111","addr":"경기도 수원시 팔달구 고등동 86-2번지 1층","indutype":"일반휴게음식 - 중국식","category":"restaurant"},{"name":"본호프","tel":"031-244-6444","addr":"경기도 수원시 팔달구 고등동 86-2번지 2층","indutype":"일반휴게음식 - 주점","category":"restaurant"},{"name":"석류커피숍","tel":"031-252-8982","addr":"경기도 수원시 팔달구 고등동 86-2번지","indutype":"일반휴게음식 - 서양음식","category":"restaurant"}]},{"lat":"37.271406155","long":"127.00203638","imageIndex":4,"items":[{"name":"고향집밥","tel":"031-207-4909","addr":"경기도 수원시 팔달구 고등동 240-4번지 102호","indutype":"일반휴게음식 - 일반한식","category":"restaurant"}]},{"lat":"37.273045977","long":"127.00642225","imageIndex":4,"items":[{"name":"구락칡냉면","tel":"031-247-5422","addr":"경기도 수원시 팔달구 고등동 70-15번지 1층","indutype":"일반휴게음식 - 일반한식","category":"restaurant"},{"name":"쑈홍오리목점","tel":"","addr":"경기도 수원시 팔달구 고등동 70-15번지","indutype":"일반휴게음식 - 일반한식","category":"restaurant"}]},{"lat":"37.269874397","long":"127.00461822","imageIndex":4,"items":[{"name":"그랜드커피숍","tel":"031-241-5854","addr":"경기도 수원시 팔달구 고등동 86-3번지 지하층","indutype":"일반휴게음식 - 서양음식","category":"restaurant"},{"name":"소천아샤브샤브","tel":"031-254-1003","addr":"경기도 수원시 팔달구 고등동 86-3번지 1층 101호","indutype":"일반휴게음식 - 중국식","category":"restaurant"},{"name":"송화강반점","tel":"031-257-5685","addr":"경기도 수원시 팔달구 고등동 86-3번지 104호","indutype":"일반휴게음식 - 중국식","category":"restaurant"}]},{"lat":"37.269541018","long":"127.00452801","imageIndex":4,"items":[{"name":"금백만","tel":"031-241-8156","addr":"경기도 수원시 팔달구 고등동 86-4번지 장영빌딩 105,106,202호","indutype":"일반휴게음식 - 일반한식","category":"restaurant"},{"name":"까페파우제","tel":"031-247-4300","addr":"경기도 수원시 팔달구 고등동 86-4번지 장영빌딩 1층","indutype":"일반휴게음식 - 서양음식","category":"restaurant"},{"name":"코스모","tel":"031-256-1230","addr":"경기도 수원시 팔달구 고등동 86-4번지 지하층","indutype":"일반휴게음식 - 일반한식","category":"restaurant"}]},{"lat":"37.271045725","long":"127.00517069","imageIndex":4,"items":[{"name":"금백만면식점","tel":"031-248-7703","addr":"경기도 수원시 팔달구 고등동 112-3번지 1층 3호","indutype":"일반휴게음식 - 일반한식","category":"restaurant"},{"name":"해바라기 커피숍","tel":"","addr":"경기도 수원시 팔달구 고등동 112-3번지 태정빌딩","indutype":"일반휴게음식 - 서양음식","category":"restaurant"},{"name":"허흑오리수원2호점","tel":"031-255-5585","addr":"경기도 수원시 팔달구 고등동 112-3번지 1층 106호","indutype":"일반휴게음식 - 중국식","category":"restaurant"}]},{"lat":"37.27223507","long":"127.00572318","imageIndex":4,"items":[{"name":"금백만민속촌","tel":"031-241-8156","addr":"경기도 수원시 팔달구 고등동 67-12번지 1층","indutype":"일반휴게음식 - 일반한식","category":"restaurant"},{"name":"표향원양꼬치","tel":"031-246-6988","addr":"경기도 수원시 팔달구 고등동 67-12번지","indutype":"일반휴게음식 - 중국식","category":"restaurant"}]},{"lat":"37.272928728","long":"127.00919583","imageIndex":4,"items":[{"name":"김진옥 아구찜","tel":"","addr":"경기도 수원시 팔달구 고등동 61-137번지","indutype":"일반휴게음식 - 일반한식","category":"restaurant"}]},{"lat":"37.273541558","long":"127.00583598","imageIndex":4,"items":[{"name":"꿀꿀양소주군","tel":"031-254-2686","addr":"경기도 수원시 팔달구 고등동 37-14번지","indutype":"일반휴게음식 - 일반한식","category":"restaurant"}]},{"lat":"37.270739384","long":"127.00464078","imageIndex":4,"items":[{"name":"나나호프","tel":"031-244-8260","addr":"경기도 수원시 팔달구 고등동 113-19번지 2층","indutype":"일반휴게음식 - 주점","category":"restaurant"},{"name":"소매점양꼬치","tel":"031-242-5792","addr":"경기도 수원시 팔달구 고등동 113-19번지 1층","indutype":"일반휴게음식 - 중국식","category":"restaurant"}]},{"lat":"37.276208591","long":"127.00617434","imageIndex":4,"items":[{"name":"나누는뜨락","tel":"031-246-8822","addr":"경기도 수원시 팔달구 고등동 47-32번지 나누는 뜨락","indutype":"일반휴게음식 - 일반한식","category":"restaurant"}]},{"lat":"37.269685174","long":"127.00505791","imageIndex":4,"items":[{"name":"남양다방","tel":"031-246-1567","addr":"경기도 수원시 팔달구 고등동 85-11번지 지하1층","indutype":"일반휴게음식 - 서양음식","category":"restaurant"}]},{"lat":"37.278344068","long":"127.00380657","imageIndex":4,"items":[{"name":"네꼬야커피숍","tel":"031-241-2539","addr":"경기도 수원시 팔달구 고등동 6-3번지 1층","indutype":"일반휴게음식 - 서양음식","category":"restaurant"},{"name":"양평해장국","tel":"031-244-2287","addr":"경기도 수원시 팔달구 고등동 6-3번지 1층","indutype":"일반휴게음식 - 일반한식","category":"restaurant"}]},{"lat":"37.272712597","long":"126.99936426","imageIndex":4,"items":[{"name":"노은함바","tel":"031-244-1489","addr":"경기도 수원시 팔달구 고등동 215-5번지,외1필지,1층","indutype":"일반휴게음식 - 일반한식","category":"restaurant"}]},{"lat":"37.27054109","long":"127.00727899","imageIndex":4,"items":[{"name":"놀이터순대국","tel":"031-245-1135","addr":"경기도 수원시 팔달구 고등동 74-25번지","indutype":"일반휴게음식 - 일반한식","category":"restaurant"},{"name":"오즈","tel":"","addr":"경기도 수원시 팔달구 고등동 74-25번지 1층","indutype":"일반휴게음식 - 서양음식","category":"restaurant"}]},{"lat":"37.27035195","long":"127.00183346","imageIndex":4,"items":[{"name":"능이삼계탕","tel":"031-242-3541","addr":"경기도 수원시 팔달구 고등동 303-12번지 2층","indutype":"일반휴게음식 - 일반한식","category":"restaurant"}]},{"lat":"37.272352183","long":"127.00650114","imageIndex":4,"items":[{"name":"다래원","tel":"031-241-3122","addr":"경기도 수원시 팔달구 고등동 69-5번지","indutype":"일반휴게음식 - 중국식","category":"restaurant"}]},{"lat":"37.269739233","long":"127.00522702","imageIndex":4,"items":[{"name":"다래호프","tel":"031-242-2766","addr":"경기도 수원시 팔달구 고등동 85-8번지 지하1층","indutype":"일반휴게음식 - 일반한식","category":"restaurant"},{"name":"미친양꼬치","tel":"070-8285-3456","addr":"경기도 수원시 팔달구 고등동 85-8번지 1층","indutype":"일반휴게음식 - 일반한식","category":"restaurant"},{"name":"촉도대하","tel":"070-1111-2222","addr":"경기도 수원시 팔달구 고등동 85-8번지 2층","indutype":"일반휴게음식 - 중국식","category":"restaurant"}]},{"lat":"37.272072847","long":"127.00703103","imageIndex":4,"items":[{"name":"다인","tel":"031-246-5173","addr":"경기도 수원시 팔달구 고등동 63-8번지","indutype":"일반휴게음식 - 일반한식","category":"restaurant"}]},{"lat":"37.272289096","long":"127.00695212","imageIndex":4,"items":[{"name":"단골포차","tel":"031-246-7901","addr":"경기도 수원시 팔달구 고등동 63-13번지","indutype":"일반휴게음식 - 주점","category":"restaurant"}]},{"lat":"37.270207783","long":"127.00156288","imageIndex":4,"items":[{"name":"대박","tel":"031-3020-1164","addr":"경기도 수원시 팔달구 고등동 300번지 1층 5호","indutype":"일반휴게음식 - 일반한식","category":"restaurant"},{"name":"영양영다방","tel":"031-244-5230","addr":"경기도 수원시 팔달구 고등동 300번지","indutype":"일반휴게음식 - 서양음식","category":"restaurant"}]},{"lat":"37.271261969","long":"127.00528344","imageIndex":4,"items":[{"name":"대흥","tel":"031-241-6689","addr":"경기도 수원시 팔달구 고등동 66-14번지 1층","indutype":"일반휴게음식 - 일반한식","category":"restaurant"},{"name":"리치","tel":"031-243-5660","addr":"경기도 수원시 팔달구 고등동 66-14번지","indutype":"일반휴게음식 - 서양음식","category":"restaurant"},{"name":"목단강소고기국밥","tel":"031-256-8806","addr":"경기도 수원시 팔달구 고등동 66-14번지","indutype":"일반휴게음식 - 일반한식","category":"restaurant"}]},{"lat":"37.273289307","long":"127.00289325","imageIndex":4,"items":[{"name":"대흥반점","tel":"031-245-6963","addr":"경기도 수원시 팔달구 고등동 107-8번지 1층","indutype":"일반휴게음식 - 중국식","category":"restaurant"},{"name":"희래","tel":"031-246-6338","addr":"경기도 수원시 팔달구 고등동 107-8번지","indutype":"일반휴게음식 - 주점","category":"restaurant"}]},{"lat":"37.270261843","long":"127.00437019","imageIndex":4,"items":[{"name":"더(The)맛쪽갈비","tel":"031-255-0369","addr":"경기도 수원시 팔달구 고등동 115-3번지","indutype":"일반휴게음식 - 일반한식","category":"restaurant"},{"name":"먹고보자","tel":"031-258-9968","addr":"경기도 수원시 팔달구 고등동 115-3번지 1층","indutype":"일반휴게음식 - 일반한식","category":"restaurant"}]},{"lat":"37.278073761","long":"127.00372764","imageIndex":4,"items":[{"name":"더앤덤","tel":"031-248-3393","addr":"경기도 수원시 팔달구 고등동 7-2번지 1층","indutype":"일반휴게음식 - 일반한식","category":"restaurant"},{"name":"명가","tel":"031-252-0990","addr":"경기도 수원시 팔달구 고등동 7-2번지 2층","indutype":"일반휴게음식 - 일반한식","category":"restaurant"}]},{"lat":"37.272820725","long":"127.00623057","imageIndex":4,"items":[{"name":"도문강 양고기 뀀점","tel":"031-258-8819","addr":"경기도 수원시 팔달구 고등동 67-4번지 1층","indutype":"일반휴게음식 - 중국식","category":"restaurant"}]},{"lat":"37.273487521","long":"127.00458447","imageIndex":4,"items":[{"name":"동북가마솥","tel":"031-302-7558","addr":"경기도 수원시 팔달구 고등동 55-10번지 1층","indutype":"일반휴게음식 - 중국식","category":"restaurant"}]},{"lat":"37.269991509","long":"127.00575692","imageIndex":4,"items":[{"name":"동해포차","tel":"031-241-2942","addr":"경기도 수원시 팔달구 고등동 81-4번지","indutype":"일반휴게음식 - 주점","category":"restaurant"}]},{"lat":"37.273568624","long":"127.00347954","imageIndex":4,"items":[{"name":"똘이국밥수원역점","tel":"031-241-3680","addr":"경기도 수원시 팔달구 고등동 125-6번지 103호","indutype":"일반휴게음식 - 일반한식","category":"restaurant"}]},{"lat":"37.270126697","long":"127.00234081","imageIndex":4,"items":[{"name":"락품숯불고기","tel":"031-252-3474","addr":"경기도 수원시 팔달구 고등동 300-6번지 1층","indutype":"일반휴게음식 - 일반한식","category":"restaurant"},{"name":"퇴근길","tel":"031-241-3080","addr":"경기도 수원시 팔달구 고등동 300-6번지","indutype":"일반휴게음식 - 주점","category":"restaurant"}]},{"lat":"37.270378965","long":"127.0006722","imageIndex":4,"items":[{"name":"란","tel":"031-241-3577","addr":"경기도 수원시 팔달구 고등동 263-1번지","indutype":"일반휴게음식 - 서양음식","category":"restaurant"},{"name":"연길외할머니초두부","tel":"031-257-2684","addr":"경기도 수원시 팔달구 고등동 263-1번지 1층","indutype":"일반휴게음식 - 일반한식","category":"restaurant"}]},{"lat":"37.270018574","long":"127.00283688","imageIndex":4,"items":[{"name":"마라유혹","tel":"031-248-5588","addr":"경기도 수원시 팔달구 고등동 300-11번지 1층","indutype":"일반휴게음식 - 중국식","category":"restaurant"}]},{"lat":"37.272487364","long":"127.0054526","imageIndex":4,"items":[{"name":"명문식당","tel":"070-4024-3188","addr":"경기도 수원시 팔달구 고등동 58-7번지","indutype":"일반휴게음식 - 중국식","category":"restaurant"},{"name":"무지개호프","tel":"031-233-2011","addr":"경기도 수원시 팔달구 고등동 58-7번지 지층","indutype":"일반휴게음식 - 주점","category":"restaurant"}]},{"lat":"37.277343872","long":"127.00664796","imageIndex":4,"items":[{"name":"명문정","tel":"031-258-1753","addr":"경기도 수원시 팔달구 고등동 3-34번지","indutype":"일반휴게음식 - 일반한식","category":"restaurant"}]},{"lat":"37.271685449","long":"127.00547512","imageIndex":4,"items":[{"name":"문용식당","tel":"","addr":"경기도 수원시 팔달구 고등동 66-4번지 104,105호","indutype":"일반휴게음식 - 중국식","category":"restaurant"},{"name":"참새네","tel":"031-243-2128","addr":"경기도 수원시 팔달구 고등동 66-4번지","indutype":"일반휴게음식 - 일반한식","category":"restaurant"},{"name":"티제이디(TJD)튀김","tel":"","addr":"경기도 수원시 팔달구 고등동 66-4번지 1층","indutype":"일반휴게음식 - 일반한식","category":"restaurant"},{"name":"흠향원","tel":"","addr":"경기도 수원시 팔달구 고등동 66-4번지","indutype":"일반휴게음식 - 일반한식","category":"restaurant"}]},{"lat":"37.270685331","long":"127.00186728","imageIndex":4,"items":[{"name":"미진식당","tel":"031-254-7478","addr":"경기도 수원시 팔달구 고등동 241-6번지","indutype":"일반휴게음식 - 일반한식","category":"restaurant"}]},{"lat":"37.270847507","long":"127.00469716","imageIndex":4,"items":[{"name":"미향","tel":"031-258-2190","addr":"경기도 수원시 팔달구 고등동 113-20번지","indutype":"일반휴게음식 - 중국식","category":"restaurant"},{"name":"홍천오리집","tel":"031-248-7670","addr":"경기도 수원시 팔달구 고등동 113-20번지","indutype":"일반휴게음식 - 일반한식","category":"restaurant"}]},{"lat":"37.278542283","long":"127.00473117","imageIndex":4,"items":[{"name":"별미8500냥고기부페","tel":"031-251-7091","addr":"경기도 수원시 팔달구 고등동 5-4번지","indutype":"일반휴게음식 - 일반한식","category":"restaurant"},{"name":"불티나","tel":"031-252-3474","addr":"경기도 수원시 팔달구 고등동 5-4번지 1층","indutype":"일반휴게음식 - 중국식","category":"restaurant"}]},{"lat":"37.273352377","long":"127.00353591","imageIndex":4,"items":[{"name":"북경오리구이","tel":"031-241-9969","addr":"경기도 수원시 팔달구 고등동 126-3번지 1층","indutype":"일반휴게음식 - 일반한식","category":"restaurant"}]},{"lat":"37.271261991","long":"127.00203639","imageIndex":4,"items":[{"name":"비목","tel":"031-244-5412","addr":"경기도 수원시 팔달구 고등동 240-6번지","indutype":"일반휴게음식 - 주점","category":"restaurant"},{"name":"스타트(음식)호프","tel":"031-255-9857","addr":"경기도 수원시 팔달구 고등동 240-6번지","indutype":"일반휴게음식 - 주점","category":"restaurant"}]},{"lat":"37.272487389","long":"127.00200255","imageIndex":4,"items":[{"name":"비어엔죠이(고등점)","tel":"031-244-6232","addr":"경기도 수원시 팔달구 고등동 221-5번지","indutype":"일반휴게음식 - 주점","category":"restaurant"}]},{"lat":"37.27212692","long":"127.00667025","imageIndex":4,"items":[{"name":"빅타임","tel":"031-254-4529","addr":"경기도 수원시 팔달구 고등동 69-8번지","indutype":"일반휴게음식 - 주점","category":"restaurant"}]},{"lat":"37.273018965","long":"127.00570066","imageIndex":4,"items":[{"name":"삼대식당","tel":"031-241-3392","addr":"경기도 수원시 팔달구 고등동 57-13번지 1층","indutype":"일반휴게음식 - 일반한식","category":"restaurant"}]},{"lat":"37.270541159","long":"127.00456186","imageIndex":4,"items":[{"name":"상아","tel":"031-256-2753","addr":"경기도 수원시 팔달구 고등동 113-18번지 지층","indutype":"일반휴게음식 - 주점","category":"restaurant"},{"name":"송화양꼬치","tel":"031-245-0223","addr":"경기도 수원시 팔달구 고등동 113-18번지","indutype":"일반휴게음식 - 일반한식","category":"restaurant"}]},{"lat":"37.270685245","long":"127.00750448","imageIndex":4,"items":[{"name":"샤브민","tel":"031-251-1258","addr":"경기도 수원시 팔달구 고등동 74-33번지 1층","indutype":"일반휴게음식 - 일반한식","category":"restaurant"}]},{"lat":"37.270288869","long":"127.00108935","imageIndex":4,"items":[{"name":"석류","tel":"031-245-2577","addr":"경기도 수원시 팔달구 고등동 263-5번지","indutype":"일반휴게음식 - 주점","category":"restaurant"},{"name":"아리랑","tel":"031-242-9963","addr":"경기도 수원시 팔달구 고등동 263-5번지 1층","indutype":"일반휴게음식 - 주점","category":"restaurant"}]},{"lat":"37.274073153","long":"127.006287","imageIndex":4,"items":[{"name":"설화식당","tel":"031-256-2888","addr":"경기도 수원시 팔달구 고등동 30-14번지 1층","indutype":"일반휴게음식 - 일반한식","category":"restaurant"}]},{"lat":"37.270324912","long":"127.00122464","imageIndex":4,"items":[{"name":"세븐","tel":"031-253-8883","addr":"경기도 수원시 팔달구 고등동 263-6번지 1동","indutype":"일반휴게음식 - 주점","category":"restaurant"},{"name":"캅타드 레스토랑","tel":"031-111-1111","addr":"경기도 수원시 팔달구 고등동 263-6번지","indutype":"일반휴게음식 - 서양음식","category":"restaurant"}]},{"lat":"37.273289306","long":"127.00325404","imageIndex":4,"items":[{"name":"소문","tel":"031-244-4125","addr":"경기도 수원시 팔달구 고등동 127-4번지 1층","indutype":"일반휴게음식 - 일반한식","category":"restaurant"},{"name":"여기서라면","tel":"031-243-2022","addr":"경기도 수원시 팔달구 고등동 127-4번지 1층","indutype":"일반휴게음식 - 서양음식","category":"restaurant"}]},{"lat":"37.272595367","long":"127.00881247","imageIndex":4,"items":[{"name":"송연식품/국수사랑방","tel":"031-890-1026","addr":"경기도 수원시 팔달구 고등동 61-77","indutype":"일반휴게음식 - 일반한식","category":"restaurant"}]},{"lat":"37.275316618","long":"127.00344573","imageIndex":4,"items":[{"name":"수여고분식","tel":"031-255-8252","addr":"경기도 수원시 팔달구 고등동 51-21번지","indutype":"일반휴게음식 - 스넥","category":"restaurant"}]},{"lat":"37.275848226","long":"127.0031413","imageIndex":4,"items":[{"name":"수원마더","tel":"031-247-1473","addr":"경기도 수원시 팔달구 고등동 167-62번지","indutype":"일반휴게음식 - 일반한식","category":"restaurant"},{"name":"신전떡볶이수원여고점","tel":"031-271-9284","addr":"경기도 수원시 팔달구 고등동 167-62번지 1층","indutype":"일반휴게음식 - 일반한식","category":"restaurant"}]},{"lat":"37.274929176","long":"127.00347955","imageIndex":4,"items":[{"name":"숙이네삭당","tel":"031-225-0770","addr":"경기도 수원시 팔달구 고등동 52-2번지 1층","indutype":"일반휴게음식 - 일반한식","category":"restaurant"},{"name":"이맛이야칼국수","tel":"031-207-9026","addr":"경기도 수원시 팔달구 고등동 52-2번지 1층 1호","indutype":"일반휴게음식 - 일반한식","category":"restaurant"}]},{"lat":"37.271018702","long":"127.00473099","imageIndex":4,"items":[{"name":"순래양꼬치","tel":"031-241-8568","addr":"경기도 수원시 팔달구 고등동 113-24번지 1층","indutype":"일반휴게음식 - 중국식","category":"restaurant"}]},{"lat":"37.271928724","long":"127.00558788","imageIndex":4,"items":[{"name":"순자미식","tel":"031-256-7798","addr":"경기도 수원시 팔달구 고등동 66-19번지","indutype":"일반휴게음식 - 중국식","category":"restaurant"}]},{"lat":"37.269955502","long":"127.00308491","imageIndex":4,"items":[{"name":"술요일","tel":"","addr":"경기도 수원시 팔달구 고등동 300-13번지 3층","indutype":"일반휴게음식 - 주점","category":"restaurant"}]},{"lat":"37.279596437","long":"127.00674955","imageIndex":4,"items":[{"name":"시골밥상","tel":"031-241-0870","addr":"경기도 수원시 팔달구 고등동 1-6번지","indutype":"일반휴게음식 - 일반한식","category":"restaurant"}]},{"lat":"37.271649418","long":"127.00494522","imageIndex":4,"items":[{"name":"시골초두부","tel":"031-548-2717","addr":"경기도 수원시 팔달구 고등동 64-2번지 1층","indutype":"일반휴게음식 - 중국식","category":"restaurant"}]},{"lat":"37.270126684","long":"127.00469714","imageIndex":4,"items":[{"name":"신대해500원꼬치","tel":"031-248-5633","addr":"경기도 수원시 팔달구 고등동 86-12번지","indutype":"일반휴게음식 - 일반한식","category":"restaurant"}]},{"lat":"37.270261795","long":"127.00655741","imageIndex":4,"items":[{"name":"신동방숯불구이","tel":"","addr":"경기도 수원시 팔달구 고등동 81-8번지","indutype":"일반휴게음식 - 일반한식","category":"restaurant"}]},{"lat":"37.272099855","long":"127.00763987","imageIndex":4,"items":[{"name":"신양 양꼬치","tel":"","addr":"경기도 수원시 팔달구 고등동 62-1번지 1층","indutype":"일반휴게음식 - 일반한식","category":"restaurant"}]},{"lat":"37.271433175","long":"127.004731","imageIndex":4,"items":[{"name":"심양대냉면","tel":"031-304-7278","addr":"경기도 수원시 팔달구 고등동 64-25번지","indutype":"일반휴게음식 - 일반한식","category":"restaurant"},{"name":"양지","tel":"031-243-2190","addr":"경기도 수원시 팔달구 고등동 64-25번지 지하","indutype":"일반휴게음식 - 일반한식","category":"restaurant"}]},{"lat":"37.269991543","long":"127.00266776","imageIndex":4,"items":[{"name":"심양불고기","tel":"031-242-5436","addr":"경기도 수원시 팔달구 고등동 300-10번지 1층","indutype":"일반휴게음식 - 일반한식","category":"restaurant"},{"name":"향수커피숍","tel":"031-242-6888","addr":"경기도 수원시 팔달구 고등동 300-10번지","indutype":"일반휴게음식 - 서양음식","category":"restaurant"}]},{"lat":"37.278154852","long":"127.00389677","imageIndex":4,"items":[{"name":"양노다","tel":"031-251-1055","addr":"경기도 수원시 팔달구 고등동 7-13번지","indutype":"일반휴게음식 - 중국식","category":"restaurant"}]},{"lat":"37.27320819","long":"127.00530605","imageIndex":4,"items":[{"name":"양치기소녀","tel":"031-258-2898","addr":"경기도 수원시 팔달구 고등동 57-6번지 1층","indutype":"일반휴게음식 - 중국식","category":"restaurant"}]},{"lat":"37.269658149","long":"127.00473095","imageIndex":4,"items":[{"name":"언올드첨(an old chum)","tel":"","addr":"경기도 수원시 팔달구 고등동 86-6번지 1,2층","indutype":"일반휴게음식 - 서양음식","category":"restaurant"}]},{"lat":"37.277794436","long":"127.00139361","imageIndex":4,"items":[{"name":"엄마네 포차","tel":"031-257-8836","addr":"경기도 수원시 팔달구 고등동 178-16번지","indutype":"일반휴게음식 - 일반한식","category":"restaurant"}]},{"lat":"37.272460297","long":"127.00678301","imageIndex":4,"items":[{"name":"연길국밥냉면","tel":"031-243-2399","addr":"경기도 수원시 팔달구 고등동 65-6번지 1층","indutype":"일반휴게음식 - 중국식","category":"restaurant"}]},{"lat":"37.272379242","long":"127.00539622","imageIndex":4,"items":[{"name":"연길양꼬치냉면","tel":"031-111-1111","addr":"경기도 수원시 팔달구 고등동 58-8번지 1층","indutype":"일반휴게음식 - 중국식","category":"restaurant"}]},{"lat":"37.272352173","long":"127.00680556","imageIndex":4,"items":[{"name":"연길호프","tel":"","addr":"경기도 수원시 팔달구 고등동 65-7번지 1층","indutype":"일반휴게음식 - 주점","category":"restaurant"}]},{"lat":"37.270153726","long":"127.00209277","imageIndex":4,"items":[{"name":"연변양고기꼬치","tel":"031-255-6898","addr":"경기도 수원시 팔달구 고등동 300-4번지 1층","indutype":"일반휴게음식 - 일반한식","category":"restaurant"},{"name":"중경소면","tel":"031-242-1507","addr":"경기도 수원시 팔달구 고등동 300-4번지","indutype":"일반휴게음식 - 중국식","category":"restaurant"}]},{"lat":"37.271820609","long":"127.00517071","imageIndex":4,"items":[{"name":"옛추억","tel":"031-8766-3643","addr":"경기도 수원시 팔달구 고등동 58-23번지 지층","indutype":"일반휴게음식 - 일반한식","category":"restaurant"}]},{"lat":"37.273568575","long":"127.00634335","imageIndex":4,"items":[{"name":"오거리옻닭","tel":"031-255-7789","addr":"경기도 수원시 팔달구 고등동 36-11번지 1층","indutype":"일반휴게음식 - 일반한식","category":"restaurant"}]},{"lat":"37.275154433","long":"127.00344573","imageIndex":4,"items":[{"name":"오거리통닭","tel":"031-246-1729","addr":"경기도 수원시 팔달구 고등동 51-26번지","indutype":"일반휴게음식 - 일반한식","category":"restaurant"}]},{"lat":"37.276010411","long":"127.00311875","imageIndex":4,"items":[{"name":"오영주커피스탠드","tel":"","addr":"경기도 수원시 팔달구 고등동 167-7번지 1층","indutype":"일반휴게음식 - 서양음식","category":"restaurant"}]},{"lat":"37.270460075","long":"127.00205894","imageIndex":4,"items":[{"name":"울엄마김치찌개","tel":"031-258-0101","addr":"경기도 수원시 팔달구 고등동 303-14번지 1층","indutype":"일반휴게음식 - 일반한식","category":"restaurant"}]},{"lat":"37.273154141","long":"127.00456192","imageIndex":4,"items":[{"name":"유가네양고기김가네오리","tel":"070-8224-9855","addr":"경기도 수원시 팔달구 고등동 56-13번지 1층","indutype":"일반휴게음식 - 일반한식","category":"restaurant"},{"name":"유가네양고기김가네오리","tel":"070-8224-9855","addr":"경기도 수원시 팔달구 고등동 56-13번지 1층","indutype":"일반휴게음식 - 일반한식","category":"restaurant"},{"name":"은커피숍","tel":"031-247-2883","addr":"경기도 수원시 팔달구 고등동 56-13번지","indutype":"일반휴게음식 - 서양음식","category":"restaurant"}]},{"lat":"37.275740102","long":"127.00317513","imageIndex":4,"items":[{"name":"이모네멸치국수","tel":"031-548-2269","addr":"경기도 수원시 팔달구 고등동 139-1번지 1층","indutype":"일반휴게음식 - 일반한식","category":"restaurant"}]},{"lat":"37.271352079","long":"127.00494521","imageIndex":4,"items":[{"name":"인연커피숍","tel":"031-226-6261","addr":"경기도 수원시 팔달구 고등동 64-5번지 지하1층","indutype":"일반휴게음식 - 일반한식","category":"restaurant"}]},{"lat":"37.272685615","long":"127.00205892","imageIndex":4,"items":[{"name":"자작나무","tel":"031-111-1111","addr":"경기도 수원시 팔달구 고등동 221-3번지 2층","indutype":"일반휴게음식 - 주점","category":"restaurant"}]},{"lat":"37.269541016","long":"127.00469713","imageIndex":4,"items":[{"name":"장가네순대국","tel":"031-253-8892","addr":"경기도 수원시 팔달구 고등동 86-8번지","indutype":"일반휴게음식 - 일반한식","category":"restaurant"}]},{"lat":"37.273045987","long":"127.00606146","imageIndex":4,"items":[{"name":"정희네밥상","tel":"031-245-9220","addr":"경기도 수원시 팔달구 고등동 67-1번지 1층","indutype":"일반휴게음식 - 일반한식","category":"restaurant"},{"name":"진미양꼬치","tel":"031-255-2888","addr":"경기도 수원시 팔달구 고등동 67-1번지 1층","indutype":"일반휴게음식 - 중국식","category":"restaurant"},{"name":"해","tel":"031-252-5575","addr":"경기도 수원시 팔달구 고등동 67-1번지 지하","indutype":"일반휴게음식 - 일반한식","category":"restaurant"}]},{"lat":"37.270378968","long":"127.00080749","imageIndex":4,"items":[{"name":"주식회사 하이로왕중경샤브","tel":"031-221-0003","addr":"경기도 수원시 팔달구 고등동 263-2번지 1,2층","indutype":"일반휴게음식 - 일반한식","category":"restaurant"}]},{"lat":"37.272018842","long":"127.00480993","imageIndex":4,"items":[{"name":"천일꼬치(1001꼬치)","tel":"","addr":"경기도 수원시 팔달구 고등동 64-26번지 1층 101호","indutype":"일반휴게음식 - 중국식","category":"restaurant"}]},{"lat":"37.269820345","long":"127.00380647","imageIndex":4,"items":[{"name":"천하호프","tel":"","addr":"경기도 수원시 팔달구 고등동 300-17번지 3층","indutype":"일반휴게음식 - 주점","category":"restaurant"}]},{"lat":"37.269595076","long":"127.00478732","imageIndex":4,"items":[{"name":"치킨조(CHICKEN JOE)","tel":"031-111-1111","addr":"경기도 수원시 팔달구 고등동 86-7번지","indutype":"일반휴게음식 - 일반한식","category":"restaurant"}]},{"lat":"37.272595464","long":"127.00638841","imageIndex":4,"items":[{"name":"카페69-1","tel":"031-247-4612","addr":"경기도 수원시 팔달구 고등동 69-1번지 1층","indutype":"일반휴게음식 - 서양음식","category":"restaurant"}]},{"lat":"37.271018635","long":"127.00727901","imageIndex":4,"items":[{"name":"타이스마일","tel":"031-302-5375","addr":"경기도 수원시 팔달구 고등동 74-34번지 1층","indutype":"일반휴게음식 - 일반한식","category":"restaurant"}]},{"lat":"37.26999153","long":"127.00469714","imageIndex":4,"items":[{"name":"표향거반점","tel":"031-256-9925","addr":"경기도 수원시 팔달구 고등동 86-10번지 1층","indutype":"일반휴게음식 - 일반한식","category":"restaurant"},{"name":"행운커피숍","tel":"","addr":"경기도 수원시 팔달구 고등동 86-10번지 지하1층","indutype":"일반휴게음식 - 서양음식","category":"restaurant"}]},{"lat":"37.270045604","long":"127.00241973","imageIndex":4,"items":[{"name":"핫오리 수원역점","tel":"","addr":"경기도 수원시 팔달구 고등동 300-7번지 1층","indutype":"일반휴게음식 - 일반한식","category":"restaurant"}]},{"lat":"37.273127112","long":"127.00442662","imageIndex":4,"items":[{"name":"행운양꼬치","tel":"031-258-0716","addr":"경기도 수원시 팔달구 고등동 56-19번지 1층","indutype":"일반휴게음식 - 중국식","category":"restaurant"}]},{"lat":"37.271289016","long":"127.00433638","imageIndex":4,"items":[{"name":"향교연운남쌀국수","tel":"031-318-4252","addr":"경기도 수원시 팔달구 고등동 113-2번지 1층","indutype":"일반휴게음식 - 일반한식","category":"restaurant"}]},{"lat":"37.270658221","long":"127.00733537","imageIndex":4,"items":[{"name":"형제반점","tel":"031-241-1071","addr":"경기도 수원시 팔달구 고등동 74-16번지","indutype":"일반휴게음식 - 중국식","category":"restaurant"}]},{"lat":"37.27290181","long":"127.00650117","imageIndex":4,"items":[{"name":"화룡왕양꼬치","tel":"031-307-5188","addr":"경기도 수원시 팔달구 고등동 70-42번지","indutype":"일반휴게음식 - 일반한식","category":"restaurant"}]},{"lat":"37.275902287","long":"127.00308493","imageIndex":4,"items":[{"name":"후라이드참잘하는집 고등화서점","tel":"031-242-9293","addr":"경기도 수원시 팔달구 고등동 167-5번지 1층","indutype":"일반휴게음식 - 스넥","category":"restaurant"}]},{"lat":"37.271901681","long":"127.00608396","imageIndex":4,"items":[{"name":"훈춘자매식당","tel":"031-243-2282","addr":"경기도 수원시 팔달구 고등동 71-28번지","indutype":"일반휴게음식 - 중국식","category":"restaurant"}]}]