[{"lat":"37.25680152","long":"127.38627623","imageIndex":17,"items":[{"name":"(주) 계룡스톤","tel":"032-572-2313","addr":"경기도 이천시 마장면 이치리 300-13번지","indutype":"건축자재 - 목재·석재·철물","category":"other"}]},{"lat":"37.248272139","long":"127.37102842","imageIndex":17,"items":[{"name":"(주)씨에스아이테크","tel":"031-631-1407","addr":"경기도 이천시 마장면 이치리 391-2","indutype":"용역 서비스 - 사무서비스","category":"other"}]},{"lat":"37.248020204","long":"127.36211185","imageIndex":17,"items":[{"name":"고려상사","tel":"031-635-1618","addr":"경기도 이천시 마장면 이치리 364번지","indutype":"건축자재 - 목재·석재·철물","category":"other"},{"name":"넥스트코리아","tel":"070-8673-7075","addr":"경기도 이천시 마장면 이치리 364번지 1층","indutype":"서적문구 - 과학기자재","category":"other"}]},{"lat":"37.246081484","long":"127.36260983","imageIndex":17,"items":[{"name":"마장토이아울렛","tel":"031-633-9188","addr":"경기도 이천시 마장면 이치리 363-30번지","indutype":"서적문구 - 완구점","category":"other"}]},{"lat":"37.2484455","long":"127.37894153","imageIndex":17,"items":[{"name":"목조건축센터","tel":"031-336-4140","addr":"경기도 이천시 마장면 이치리 320-5번지","indutype":"건축자재 - 기타건축자재","category":"other"}]},{"lat":"37.246468819","long":"127.36852881","imageIndex":17,"items":[{"name":"미니스톱 이천마장점","tel":"031-1577-9621","addr":"경기도 이천시 마장면 이치리 385-2번지","indutype":"유통업 영리 - 편 의 점","category":"other"}]},{"lat":"37.246188098","long":"127.36310625","imageIndex":17,"items":[{"name":"삼보건재철물","tel":"031-632-2612","addr":"경기도 이천시 마장면 이치리 363-32번지","indutype":"건축자재 - 목재·석재·철물","category":"other"}]},{"lat":"37.257440543","long":"127.38649364","imageIndex":17,"items":[{"name":"세영씨첸","tel":"031-636-7288","addr":"경기도 이천시 마장면 이치리 300-3번지 1층","indutype":"건축자재 - 기타건축자재","category":"other"}]},{"lat":"37.246914823","long":"127.3728815","imageIndex":17,"items":[{"name":"씨유이천이치리점","tel":"031-631-5559","addr":"경기도 이천시 마장면 이치리 460-10번지 1동 1층","indutype":"유통업 영리 - 편 의 점","category":"other"}]},{"lat":"37.24680061","long":"127.37194547","imageIndex":17,"items":[{"name":"에바노가구","tel":"031-631-7966","addr":"경기도 이천시 마장면 이치리 410번지","indutype":"가구 - 일반가구","category":"other"}]},{"lat":"37.246611301","long":"127.36319843","imageIndex":17,"items":[{"name":"오케이시스템","tel":"031-631-0488","addr":"경기도 이천시 마장면 이치리 362-16","indutype":"건축자재 - 기타건축자재","category":"other"}]},{"lat":"37.254217271","long":"127.37443891","imageIndex":17,"items":[{"name":"이천실내바다낚시터","tel":"031-631-7896","addr":"경기도 이천시 마장면 이치리 247-2번지","indutype":"레져용품 - 스포츠·레져용품","category":"other"}]},{"lat":"37.246750135","long":"127.36494606","imageIndex":17,"items":[{"name":"주식회사 국제토탈하우징","tel":"031-632-4994","addr":"경기도 이천시 마장면 이치리 370-5번지","indutype":"건축자재 - 기타건축자재","category":"other"}]},{"lat":"37.245304982","long":"127.3748009","imageIndex":17,"items":[{"name":"주식회사에듀가든","tel":"031-1599-6433","addr":"경기도 이천시 마장면 이치리 441-5번지 1층","indutype":"건축자재 - 인테리어전문","category":"other"}]},{"lat":"37.248274435","long":"127.36147061","imageIndex":17,"items":[{"name":"하이발리(hi bali)","tel":"031-638-8508","addr":"경기도 이천시 마장면 이치리 363-1번지","indutype":"가구 - 기타가구","category":"other"}]},{"lat":"37.253216736","long":"127.38307943","imageIndex":17,"items":[{"name":"한국김치플랜트산업(주)","tel":"031-637-8824","addr":"경기도 이천시 마장면 이치리 311-7번지","indutype":"주방용구 - 주방용구","category":"other"}]},{"lat":"37.246635447","long":"127.36708696","imageIndex":4,"items":[{"name":"(주)수푸드","tel":"031-769-1343","addr":"경기도 이천시 마장면 이치리 384-43번지 1층","indutype":"일반휴게음식 - 일반한식","category":"restaurant"}]},{"lat":"37.246914823","long":"127.3728815","imageIndex":4,"items":[{"name":"coffee하우스","tel":"070-7723-2415","addr":"경기도 이천시 마장면 이치리 460-10번지 1동","indutype":"일반휴게음식 - 서양음식","category":"restaurant"}]},{"lat":"37.247471724","long":"127.3734365","imageIndex":4,"items":[{"name":"가마솥 보리밥집","tel":"031-632-8689","addr":"경기도 이천시 마장면 이치리 460-9번지 1층","indutype":"일반휴게음식 - 일반한식","category":"restaurant"},{"name":"크레마 빈(CREMA BEAN COFFEE)","tel":"031-632-8689","addr":"경기도 이천시 마장면 이치리 460-9번지","indutype":"일반휴게음식 - 서양음식","category":"restaurant"}]},{"lat":"37.247166017","long":"127.36152171","imageIndex":4,"items":[{"name":"떡볶이가족","tel":"031-000-0000","addr":"경기도 이천시 마장면 이치리 363-5번지 8호","indutype":"일반휴게음식 - 스넥","category":"restaurant"},{"name":"청춘통닭","tel":"","addr":"경기도 이천시 마장면 이치리 363-5번지 7호","indutype":"일반휴게음식 - 스넥","category":"restaurant"}]},{"lat":"37.246525903","long":"127.36754853","imageIndex":4,"items":[{"name":"미소짬뽕","tel":"031-632-2329","addr":"경기도 이천시 마장면 이치리 384-2번지","indutype":"일반휴게음식 - 중국식","category":"restaurant"},{"name":"태능숯불갈비","tel":"031-635-2828","addr":"경기도 이천시 마장면 이치리 384-2번지","indutype":"일반휴게음식 - 일반한식","category":"restaurant"}]},{"lat":"37.247444222","long":"127.37069754","imageIndex":4,"items":[{"name":"새마을한식부페","tel":"031-631-6200","addr":"경기도 이천시 마장면 이치리 397-1번지","indutype":"일반휴게음식 - 일반한식","category":"restaurant"}]},{"lat":"37.246634857","long":"127.36727856","imageIndex":4,"items":[{"name":"세명감자탕","tel":"031-632-5435","addr":"경기도 이천시 마장면 이치리 384-44번지","indutype":"일반휴게음식 - 일반한식","category":"restaurant"}]},{"lat":"37.249636729","long":"127.37549846","imageIndex":4,"items":[{"name":"여왕해물찜","tel":"031-635-2020","addr":"경기도 이천시 마장면 이치리 517-2번지 B동","indutype":"일반휴게음식 - 일반한식","category":"restaurant"}]},{"lat":"37.249330987","long":"127.37530534","imageIndex":4,"items":[{"name":"우가네한식부페","tel":"031-632-1236","addr":"경기도 이천시 마장면 이치리 517번지","indutype":"일반휴게음식 - 일반한식","category":"restaurant"},{"name":"우리집식당","tel":"031-631-5803","addr":"경기도 이천시 마장면 이치리 517번지","indutype":"일반휴게음식 - 일반한식","category":"restaurant"}]},{"lat":"37.246636071","long":"127.36688409","imageIndex":4,"items":[{"name":"원막국수.만두","tel":"031-635-3533","addr":"경기도 이천시 마장면 이치리 384-18번지","indutype":"일반휴게음식 - 일반한식","category":"restaurant"}]},{"lat":"37.248274435","long":"127.36147061","imageIndex":4,"items":[{"name":"유부장 모둠 조개칼국수","tel":"","addr":"경기도 이천시 마장면 이치리 363-1번지 1층","indutype":"일반휴게음식 - 일반한식","category":"restaurant"}]},{"lat":"37.246798536","long":"127.37261043","imageIndex":4,"items":[{"name":"이조뼈감자탕해장국전문","tel":"031-632-1566","addr":"경기도 이천시 마장면 이치리 407-1번지 A동","indutype":"일반휴게음식 - 일반한식","category":"restaurant"}]},{"lat":"37.246580629","long":"127.36439298","imageIndex":4,"items":[{"name":"천미가","tel":"031-632-7025","addr":"경기도 이천시 마장면 이치리 361번지","indutype":"일반휴게음식 - 일반한식","category":"restaurant"}]},{"lat":"37.246081484","long":"127.36260983","imageIndex":4,"items":[{"name":"커피상회","tel":"031-633-9188","addr":"경기도 이천시 마장면 이치리 363-30번지","indutype":"일반휴게음식 - 서양음식","category":"restaurant"}]},{"lat":"37.2484455","long":"127.37894153","imageIndex":16,"items":[{"name":"(주)이천평생교육원","tel":"031-634-4149","addr":"경기도 이천시 마장면 이치리 320-5번지","indutype":"학원 - 기타 교육기관","category":"study"}]},{"lat":"37.246889298","long":"127.36950013","imageIndex":7,"items":[{"name":"KR유통","tel":"031-634-3993","addr":"경기도 이천시 마장면 이치리 384-14","indutype":"음료식품 - 기타음료식품","category":"food"}]},{"lat":"37.253410976","long":"127.37583265","imageIndex":7,"items":[{"name":"대한농장","tel":"031-636-9417","addr":"경기도 이천시 마장면 이치리 252-1번지","indutype":"음료식품 - 농·축·수산품","category":"food"}]},{"lat":"37.263881574","long":"127.37846587","imageIndex":7,"items":[{"name":"매점","tel":"031-111-1111","addr":"경기도 이천시 마장면 이치리 160-5번지","indutype":"음료식품 - 기타음료식품","category":"food"},{"name":"매점","tel":"031-111-1111","addr":"경기도 이천시 마장면 이치리 160-5번지 1층","indutype":"음료식품 - 기타음료식품","category":"food"},{"name":"원클린","tel":"","addr":"경기도 이천시 마장면 이치리 160-5번지","indutype":"음료식품 - 기타음료식품","category":"food"}]},{"lat":"37.248966269","long":"127.37091908","imageIndex":0,"items":[{"name":"동서유압","tel":"02-305-5634","addr":"경기도 이천시 마장면 이치리 389번지","indutype":"자동차정비 유지 - 자동차정비","category":"car"}]},{"lat":"37.248298644","long":"127.37408299","imageIndex":0,"items":[{"name":"마장프리미엄 셀프세차장","tel":"031-637-8500","addr":"경기도 이천시 마장면 이치리 473-1번지 473-1","indutype":"자동차정비 유지 - 세차장","category":"car"}]},{"lat":"37.249549001","long":"127.37474286","imageIndex":5,"items":[{"name":"화이트하우스","tel":"031-634-2200","addr":"경기도 이천시 마장면 이치리 536-1번지","indutype":"숙박업 - 여관/기타숙박업","category":"hotel"}]}]