[{"lat":"37.886380923","long":"126.75972849","imageIndex":4,"items":[{"name":"35년전통어부집","tel":"031-952-4059","addr":"경기도 파주시 문산읍 마정리 686-2","indutype":"일반휴게음식 - 일반한식","category":"restaurant"},{"name":"강나루터","tel":"031-952-4003","addr":"경기도 파주시 문산읍 마정리 686-2번지","indutype":"일반휴게음식 - 일식·회집","category":"restaurant"}]},{"lat":"37.890240322","long":"126.74034439","imageIndex":4,"items":[{"name":"로뎀","tel":"031-952-3378","addr":"경기도 파주시 문산읍 마정리 1325 1325-6","indutype":"일반휴게음식 - 일반한식","category":"restaurant"}]},{"lat":"37.890070135","long":"126.74078835","imageIndex":4,"items":[{"name":"밀레니엄휴게소","tel":"031-954-0842","addr":"경기도 파주시 문산읍 마정리 1325-6번지","indutype":"일반휴게음식 - 일반한식","category":"restaurant"}]},{"lat":"37.886435917","long":"126.76018301","imageIndex":4,"items":[{"name":"샘뜰두부집","tel":"031-952-8010","addr":"경기도 파주시 문산읍 마정리 686-10번지","indutype":"일반휴게음식 - 일반한식","category":"restaurant"}]},{"lat":"37.891597716","long":"126.75559597","imageIndex":4,"items":[{"name":"요술나라","tel":"031-952-1415","addr":"경기도 파주시 문산읍 마정리 911-9번지","indutype":"일반휴게음식 - 일반한식","category":"restaurant"}]},{"lat":"37.890707889","long":"126.73993347","imageIndex":4,"items":[{"name":"임진각휴게소3호점","tel":"031-952-2878","addr":"경기도 파주시 문산읍 마정리 1360-50","indutype":"일반휴게음식 - 일반한식","category":"restaurant"},{"name":"임진각휴게소7호점","tel":"031-954-8777","addr":"경기도 파주시 문산읍 마정리 1360-50번지","indutype":"일반휴게음식 - 일반한식","category":"restaurant"},{"name":"임진각휴게소스넥코너2호","tel":"031-953-0937","addr":"경기도 파주시 문산읍 마정리 1360-50 휴게소스넥코너2호","indutype":"일반휴게음식 - 스넥","category":"restaurant"}]},{"lat":"37.886937968","long":"126.75898775","imageIndex":4,"items":[{"name":"임진강","tel":"031-952-4047","addr":"경기도 파주시 문산읍 마정리 643-2번지","indutype":"일반휴게음식 - 일반한식","category":"restaurant"}]},{"lat":"37.893687238","long":"126.7640132","imageIndex":4,"items":[{"name":"파주 미래 DMZ","tel":"031-952-8998","addr":"경기도 파주시 문산읍 마정리 144-2번지","indutype":"일반휴게음식 - 서양음식","category":"restaurant"}]},{"lat":"37.891515509","long":"126.75506193","imageIndex":4,"items":[{"name":"플라츠907(Platz907)","tel":"","addr":"경기도 파주시 문산읍 마정리 907-8번지","indutype":"일반휴게음식 - 서양음식","category":"restaurant"}]}]