[{"lat":"37.009877698","long":"127.09434124","imageIndex":13,"items":[{"name":"KL당구클럽","tel":"070-4235-0202","addr":"경기도 평택시 동삭동 662-3번지 3층","indutype":"레저업소 - 당 구 장","category":"leisure"},{"name":"코드블랙PC방","tel":"","addr":"경기도 평택시 동삭동 662-3번지 근원빌딩 4동","indutype":"레저업소 - 기타레져업소","category":"leisure"}]},{"lat":"37.009406705","long":"127.09745296","imageIndex":13,"items":[{"name":"PC토랑","tel":"031-000-0000","addr":"경기도 평택시 동삭동 705-7번지 2층","indutype":"레저업소 - 기타레져업소","category":"leisure"},{"name":"법원앞당구클럽","tel":"","addr":"경기도 평택시 동삭동 705-7번지 5층","indutype":"레저업소 - 당 구 장","category":"leisure"},{"name":"브라보복싱","tel":"031-691-2555","addr":"경기도 평택시 동삭동 705-7번지 3층","indutype":"레저업소 - 헬스클럽","category":"leisure"}]},{"lat":"37.011293584","long":"127.09275866","imageIndex":13,"items":[{"name":"YB골프아카데미","tel":"070-0000-0000","addr":"경기도 평택시 동삭동 652-9번지 503호","indutype":"레저업소 - 골프연습장","category":"leisure"}]},{"lat":"37.00935576","long":"127.09345299","imageIndex":13,"items":[{"name":"골드노래연습장","tel":"061-657-7900","addr":"경기도 평택시 동삭동 681-8번지 2층","indutype":"레저업소 - 노 래 방","category":"leisure"}]},{"lat":"37.008911626","long":"127.09681192","imageIndex":13,"items":[{"name":"궁노래연습장","tel":"031-692-3332","addr":"경기도 평택시 동삭동 707-1번지 201호","indutype":"레저업소 - 노 래 방","category":"leisure"}]},{"lat":"37.009355019","long":"127.09441926","imageIndex":13,"items":[{"name":"노리터 당구클럽","tel":"031-691-3691","addr":"경기도 평택시 동삭동 692-3번지 5층","indutype":"레저업소 - 당 구 장","category":"leisure"},{"name":"노리터PC","tel":"02-555-2580","addr":"경기도 평택시 동삭동 692-3번지","indutype":"레저업소 - 기타레져업소","category":"leisure"}]},{"lat":"37.009355657","long":"127.09358782","imageIndex":13,"items":[{"name":"띵가띵가 노래연습장","tel":"","addr":"경기도 평택시 동삭동 681-9번지 한동빌딩 2층","indutype":"레저업소 - 노 래 방","category":"leisure"}]},{"lat":"37.020102755","long":"127.09697177","imageIndex":13,"items":[{"name":"라인필라테스","tel":"","addr":"경기도 평택시 동삭동 340-13번지 501호","indutype":"레저업소 - 헬스클럽","category":"leisure"}]},{"lat":"37.010216936","long":"127.09836407","imageIndex":13,"items":[{"name":"마이필라테스","tel":"031-656-1227","addr":"경기도 평택시 동삭동 667-5번지 주영빌딩 5층 501호","indutype":"레저업소 - 헬스클럽","category":"leisure"},{"name":"오셀롯PC 평택동삭점","tel":"","addr":"경기도 평택시 동삭동 667-5번지","indutype":"레저업소 - 기타레져업소","category":"leisure"}]},{"lat":"37.009576753","long":"127.09889135","imageIndex":13,"items":[{"name":"미샤스크린골프","tel":"031-691-7188","addr":"경기도 평택시 동삭동 711-14번지 보우빌딩 4층","indutype":"레저업소 - 스크린골프","category":"leisure"}]},{"lat":"37.009135566","long":"127.09847507","imageIndex":13,"items":[{"name":"수노래연습장","tel":"031-657-7454","addr":"경기도 평택시 동삭동 705-10번지 2층 201호","indutype":"레저업소 - 노 래 방","category":"leisure"},{"name":"파인핏(FINE FIT)","tel":"031-655-2939","addr":"경기도 평택시 동삭동 705-10번지 501,502호","indutype":"레저업소 - 헬스클럽","category":"leisure"}]},{"lat":"37.009354758","long":"127.09475633","imageIndex":13,"items":[{"name":"아이비에스(IBS)당구장","tel":"031-655-7062","addr":"경기도 평택시 동삭동 692-5번지 서현빌딩 2층","indutype":"레저업소 - 당 구 장","category":"leisure"}]},{"lat":"37.009380341","long":"127.09661025","imageIndex":13,"items":[{"name":"에스(S)노래연습장","tel":"031-656-7488","addr":"경기도 평택시 동삭동 705-2번지 4층","indutype":"레저업소 - 노 래 방","category":"leisure"}]},{"lat":"37.009407044","long":"127.09702601","imageIndex":13,"items":[{"name":"에스당구클럽","tel":"","addr":"경기도 평택시 동삭동 705-5번지 4층","indutype":"레저업소 - 당 구 장","category":"leisure"},{"name":"엔젤스노래연습장","tel":"","addr":"경기도 평택시 동삭동 705-5번지","indutype":"레저업소 - 노 래 방","category":"leisure"}]},{"lat":"37.009353433","long":"127.09645292","imageIndex":13,"items":[{"name":"원샷당구클럽","tel":"","addr":"경기도 평택시 동삭동 705-1번지 로엠빌딩 6층","indutype":"레저업소 - 당 구 장","category":"leisure"}]},{"lat":"37.009354567","long":"127.09500351","imageIndex":13,"items":[{"name":"짝궁노래연습장","tel":"031-692-8383","addr":"경기도 평택시 동삭동 692-7번지 영창빌딩 3층","indutype":"레저업소 - 노 래 방","category":"leisure"}]},{"lat":"37.009964257","long":"127.09883565","imageIndex":13,"items":[{"name":"코드블랙 피씨방 3호점","tel":"070-4650-9572","addr":"경기도 평택시 동삭동 711-12번지 201호","indutype":"레저업소 - 기타레져업소","category":"leisure"}]},{"lat":"37.018688871","long":"127.09596993","imageIndex":13,"items":[{"name":"코리아헬스","tel":"031-657-7766","addr":"경기도 평택시 동삭동 333번지 성원빌딩 4층","indutype":"레저업소 - 헬스클럽","category":"leisure"}]},{"lat":"37.009380226","long":"127.09675632","imageIndex":13,"items":[{"name":"퀸 노래연습장","tel":"031-658-2402","addr":"경기도 평택시 동삭동 705-3번지 4층","indutype":"레저업소 - 노 래 방","category":"leisure"}]},{"lat":"37.009851287","long":"127.09353223","imageIndex":13,"items":[{"name":"프롬 빌리어드","tel":"031-658-0368","addr":"경기도 평택시 동삭동 661-7번지 501-503호","indutype":"레저업소 - 당 구 장","category":"leisure"}]},{"lat":"37.009355166","long":"127.09422825","imageIndex":13,"items":[{"name":"필노래연습장","tel":"031-652-6072","addr":"경기도 평택시 동삭동 692-2번지 301호","indutype":"레저업소 - 노 래 방","category":"leisure"}]}]