[{"lat":"37.866920638","long":"127.25043766","imageIndex":4,"items":[{"name":"고갯마루","tel":"031-535-1237","addr":"경기도 포천시 군내면 직두리 154-7번지","indutype":"일반휴게음식 - 일식·회집","category":"restaurant"}]},{"lat":"37.865058428","long":"127.25340889","imageIndex":4,"items":[{"name":"논배 송어","tel":"031-536-9659","addr":"경기도 포천시 군내면 직두리 154-2번지","indutype":"일반휴게음식 - 일반한식","category":"restaurant"}]},{"lat":"37.86533914","long":"127.25273934","imageIndex":4,"items":[{"name":"논배동산","tel":"031-531-3555","addr":"경기도 포천시 군내면 직두리 154-1","indutype":"일반휴게음식 - 일반한식","category":"restaurant"}]},{"lat":"37.878832566","long":"127.22716494","imageIndex":4,"items":[{"name":"수원산뷔페","tel":"536-7346","addr":"경기도 포천시 군내면 직두리 695-7번지","indutype":"음식 - 한식","category":"restaurant"},{"name":"수원산뷔페","tel":"","addr":"경기도 포천시 군내면 직두리 695-7번지","indutype":"일반휴게음식 - 일반한식","category":"restaurant"}]},{"lat":"37.865918515","long":"127.23827434","imageIndex":4,"items":[{"name":"연리지","tel":"535-7030","addr":"경기도 포천시 군내면 직두리 399번지","indutype":"음식 - 한식","category":"restaurant"}]},{"lat":"37.869086326","long":"127.25307021","imageIndex":4,"items":[{"name":"원골산장","tel":"536-6022","addr":"경기도 포천시 군내면 직두리 17번지","indutype":"음식 - 한식","category":"restaurant"}]},{"lat":"37.867165986","long":"127.24943839","imageIndex":4,"items":[{"name":"토일농원","tel":"031-535-0098","addr":"경기도 포천시 군내면 직두리 153-1","indutype":"일반휴게음식 - 일반한식","category":"restaurant"}]},{"lat":"37.877362361","long":"127.22804705","imageIndex":4,"items":[{"name":"하나","tel":"031-544-7703","addr":"경기도 포천시 군내면 직두리 575-3번지","indutype":"일반휴게음식 - 스넥","category":"restaurant"}]}]