[{"lat":"37.001468796","long":"127.13471932","imageIndex":0,"items":[{"name":"(주)차우","tel":"031-655-1127","addr":"경기도 평택시 용이동 181-5번지","indutype":"자동차정비 유지 - 자동차정비","category":"car"},{"name":"㈜차우","tel":"031-652-6779","addr":"경기도 평택시 용이동 181-5번지","indutype":"서비스업 - 자동차정비","category":"car"}]},{"lat":"36.996215484","long":"127.14266375","imageIndex":0,"items":[{"name":"GS현대에너지","tel":"031-656-7867","addr":"경기도 평택시 용이동 470-5번지","indutype":"자동차정비 유지 - 세차장","category":"car"},{"name":"오토오아시스현대점","tel":"031-657-8432","addr":"경기도 평택시 용이동 470-5번지","indutype":"자동차정비 유지 - 자동차정비","category":"car"},{"name":"팀딜라이트(Team Delight)","tel":"031-658-6262","addr":"경기도 평택시 용이동 470-5번지","indutype":"자동차정비 유지 - 세차장","category":"car"}]},{"lat":"37.003075464","long":"127.14022713","imageIndex":0,"items":[{"name":"디파크24시셀프세차장","tel":"031-654-8803","addr":"경기도 평택시 용이동 31-2번지","indutype":"자동차정비 유지 - 세차장","category":"car"}]},{"lat":"36.998137811","long":"127.14004974","imageIndex":0,"items":[{"name":"메이저카평택점","tel":"031-667-0246","addr":"경기도 평택시 용이동 448-6번지","indutype":"자동차정비 유지 - 자동차부품","category":"car"}]},{"lat":"37.001162395","long":"127.13475249","imageIndex":0,"items":[{"name":"새차만들기","tel":"031-691-1663","addr":"경기도 평택시 용이동 182-6번지 나동","indutype":"자동차정비 유지 - 카인테리어","category":"car"}]},{"lat":"37.004023381","long":"127.13866718","imageIndex":0,"items":[{"name":"솔라가드","tel":"031-652-8527","addr":"경기도 평택시 용이동 36-1번지","indutype":"자동차정비 유지 - 카인테리어","category":"car"},{"name":"자동차덴트하우스","tel":"","addr":"경기도 평택시 용이동 36-1번지","indutype":"자동차정비 유지 - 카인테리어","category":"car"},{"name":"히든리페어","tel":"031-653-7936","addr":"경기도 평택시 용이동 36-1번지","indutype":"자동차정비 유지 - 자동차정비","category":"car"}]},{"lat":"36.993221832","long":"127.12841443","imageIndex":0,"items":[{"name":"스팀보이게러지평택용죽점","tel":"031-656-5566","addr":"경기도 평택시 용이동 672-5번지","indutype":"자동차정비 유지 - 세차장","category":"car"}]},{"lat":"36.996437048","long":"127.13808077","imageIndex":0,"items":[{"name":"쌔카스팀세차 평택용이점","tel":"","addr":"경기도 평택시 용이동 451-8번지 101호","indutype":"자동차정비 유지 - 세차장","category":"car"}]},{"lat":"36.999215333","long":"127.15069046","imageIndex":0,"items":[{"name":"엠제이오토평택점","tel":"031-657-9250","addr":"경기도 평택시 용이동 489-9번지 1층 102호","indutype":"자동차정비 유지 - 자동차부품","category":"car"}]},{"lat":"36.996494977","long":"127.13464333","imageIndex":0,"items":[{"name":"융타이어","tel":"070-7687-5047","addr":"경기도 평택시 용이동 439-4번지 재화빌라 302호","indutype":"자동차정비 유지 - 자동차시트·타이어","category":"car"}]},{"lat":"37.0014424","long":"127.14205542","imageIndex":0,"items":[{"name":"자동차마을","tel":"031-656-5249","addr":"경기도 평택시 용이동 31-12번지","indutype":"자동차정비 유지 - 자동차부품","category":"car"},{"name":"통합자동차정비공업사","tel":"031-651-2958","addr":"경기도 평택시 용이동 31-12번지","indutype":"자동차정비 유지 - 자동차정비","category":"car"}]},{"lat":"37.000053773","long":"127.15033259","imageIndex":0,"items":[{"name":"카스코종합상사","tel":"031-653-6511","addr":"경기도 평택시 용이동 487-10번지 304호","indutype":"자동차정비 유지 - 윤활유 전문 판매","category":"car"}]},{"lat":"36.997047441","long":"127.14011519","imageIndex":0,"items":[{"name":"카앤스토리","tel":"070-8947-1129","addr":"경기도 평택시 용이동 450-9번지 101호","indutype":"자동차정비 유지 - 자동차부품","category":"car"}]},{"lat":"36.999990935","long":"127.15014148","imageIndex":0,"items":[{"name":"코스모모터스","tel":"070-7740-4795","addr":"경기도 평택시 용이동 487-11번지 101호","indutype":"자동차정비 유지 - 자동차부품","category":"car"}]},{"lat":"36.993188368","long":"127.1343568","imageIndex":0,"items":[{"name":"티스테이션 용이점","tel":"031-618-0078","addr":"경기도 평택시 용이동 606-1번지 1층","indutype":"자동차정비 유지 - 자동차시트·타이어","category":"car"}]},{"lat":"36.999274778","long":"127.15357777","imageIndex":0,"items":[{"name":"평택한국자동차정비공업사","tel":"031-656-6777","addr":"경기도 평택시 용이동 419-12번지 한국자동차정비공업사","indutype":"자동차정비 유지 - 자동차정비","category":"car"},{"name":"한국자동차정비","tel":"031-658-3678","addr":"경기도 평택시 용이동 419-12번지","indutype":"서비스업 - 자동차정비","category":"car"}]},{"lat":"36.999189307","long":"127.1345244","imageIndex":0,"items":[{"name":"효성모터스","tel":"031-652-5580","addr":"경기도 평택시 용이동 168-6번지","indutype":"자동차정비 유지 - 자동차정비","category":"car"},{"name":"효성모터스","tel":"031-655-1127","addr":"경기도 평택시 용이동 168-6번지","indutype":"서비스업 - 자동차정비","category":"car"}]}]