[{"lat":"37.606726657","long":"127.16011732","imageIndex":13,"items":[{"name":"(구리남양주)이레아이맘","tel":"031-512-4311","addr":"경기도 남양주시 다산동 4113-18번지 202-1호","indutype":"보건위생 - 기타대인서비스","category":"beauty"},{"name":"엘렌제이","tel":"","addr":"경기도 남양주시 다산동 4113-18번지 도농동근생 201호 일부","indutype":"보건위생 - 화장품","category":"beauty"},{"name":"한스헤어","tel":"031-564-0031","addr":"경기도 남양주시 다산동 4113-18번지 도농동근생 201호","indutype":"보건위생 - 미용원","category":"beauty"}]},{"lat":"37.625113766","long":"127.15459413","imageIndex":13,"items":[{"name":"(주)위드유","tel":"031-523-2001","addr":"경기도 남양주시 다산동 6054-2번지 다산메트로타워 801호 802호","indutype":"보건위생 - 기타대인서비스","category":"beauty"},{"name":"네일 베리어스","tel":"031-111-1111","addr":"경기도 남양주시 다산동 6054-2번지 메트로타워 2층 205호","indutype":"보건위생 - 피부미용실","category":"beauty"},{"name":"수에스테틱","tel":"031-111-1111","addr":"경기도 남양주시 다산동 6054-2번지 301호","indutype":"보건위생 - 피부미용실","category":"beauty"},{"name":"클럽밸런스5 다산역점","tel":"031-557-0208","addr":"경기도 남양주시 다산동 6054-2번지 6층 606호","indutype":"보건위생 - 의료용품","category":"beauty"}]},{"lat":"37.604534331","long":"127.1555036","imageIndex":13,"items":[{"name":"(주)프리미엄 코리아","tel":"02-563-1145","addr":"경기도 남양주시 다산동 668-3번지 6층","indutype":"보건위생 - 사우나","category":"beauty"},{"name":"다지기에듀짐","tel":"070-7530-7942","addr":"경기도 남양주시 다산동 668-3번지 브릭스타워 4층 418호","indutype":"보건위생 - 기타대인서비스","category":"beauty"},{"name":"렌느","tel":"031-555-0670","addr":"경기도 남양주시 다산동 668-3번지 브릭스타워 8층","indutype":"보건위생 - 미용원","category":"beauty"},{"name":"스타일안경","tel":"031-569-0001","addr":"경기도 남양주시 다산동 668-3번지 외1필지브릭스타워 104호","indutype":"보건위생 - 안경","category":"beauty"},{"name":"심리치료와상담소","tel":"031-555-1275","addr":"경기도 남양주시 다산동 668-3번지 브릭스타워 4층 402호","indutype":"보건위생 - 기타대인서비스","category":"beauty"},{"name":"허그맘","tel":"031-554-1023","addr":"경기도 남양주시 다산동 668-3번지 브릭스타워 510호, 511호","indutype":"보건위생 - 기타대인서비스","category":"beauty"}]},{"lat":"37.611591805","long":"127.16020684","imageIndex":13,"items":[{"name":"21C 헤어라인","tel":"031-555-2545","addr":"경기도 남양주시 다산동 4002-1번지 부영상가 601동 3층 311","indutype":"보건위생 - 미용원","category":"beauty"},{"name":"아모레카운셀러","tel":"031-593-3292","addr":"경기도 남양주시 다산동 4002-1번지 부영그린타운 512동 1704호","indutype":"보건위생 - 화장품","category":"beauty"},{"name":"웰빙앤스파","tel":"031-556-7006","addr":"경기도 남양주시 다산동 4002-1번지 부영그린타운 510동 104호","indutype":"보건위생 - 피부미용실","category":"beauty"},{"name":"폼폼 에스테닉","tel":"","addr":"경기도 남양주시 다산동 4002-1번지 부영그린타운 110동 501호","indutype":"보건위생 - 화장품","category":"beauty"},{"name":"행복스킨케어","tel":"031-558-6777","addr":"경기도 남양주시 다산동 4002-1번지 부영그린타운 303동 103호","indutype":"보건위생 - 화장품","category":"beauty"}]},{"lat":"37.601172198","long":"127.15665179","imageIndex":13,"items":[{"name":"Dr.","tel":"031-555-5640","addr":"경기도 남양주시 다산동 676-1번지 주공프라자 107호","indutype":"보건위생 - 화장품","category":"beauty"},{"name":"나 이은영의 헤어부티크","tel":"031-565-1404","addr":"경기도 남양주시 다산동 676-1번지 주공프라자 102호","indutype":"보건위생 - 미용원","category":"beauty"},{"name":"자이모구리점(Ximo)","tel":"031-565-2345","addr":"경기도 남양주시 다산동 676-1번지 주공프라자 1층 107호","indutype":"보건위생 - 미용재료","category":"beauty"}]},{"lat":"37.628112184","long":"127.15600492","imageIndex":13,"items":[{"name":"J헤어","tel":"031-552-7760","addr":"경기도 남양주시 다산동 6030번지 다산노블레스 2층 207호","indutype":"보건위생 - 미용원","category":"beauty"},{"name":"나이스가이(다산점)","tel":"031-567-7114","addr":"경기도 남양주시 다산동 6030번지 다산노블레스 1층 109호","indutype":"보건위생 - 미용원","category":"beauty"},{"name":"다산이화언어심리연구소","tel":"","addr":"경기도 남양주시 다산동 6030번지 다산진건지구 근생1-1-1 3층 301호","indutype":"보건위생 - 기타대인서비스","category":"beauty"},{"name":"벤자롱스파(남양주점)","tel":"031-564-0201","addr":"경기도 남양주시 다산동 6030번지 다산노블레스 2층 201호","indutype":"보건위생 - 피부미용실","category":"beauty"},{"name":"뷰티유","tel":"","addr":"경기도 남양주시 다산동 6030번지 다산진건지구 근생1-1-1 206호","indutype":"보건위생 - 피부미용실","category":"beauty"},{"name":"후네일","tel":"031-556-4558","addr":"경기도 남양주시 다산동 6030번지 다산노블레스 2층 202호","indutype":"보건위생 - 피부미용실","category":"beauty"}]},{"lat":"37.608557629","long":"127.15861492","imageIndex":13,"items":[{"name":"OIC화장품 애시앙센터","tel":"","addr":"경기도 남양주시 다산동 4001-29번지 부영애시앙상가 사랑관동2층216-2호","indutype":"보건위생 - 화장품","category":"beauty"},{"name":"거너스헤어","tel":"031-510-9226","addr":"경기도 남양주시 다산동 4001-29번지 부영애시앙 1층 121호","indutype":"보건위생 - 미용원","category":"beauty"},{"name":"꽃눈썹","tel":"","addr":"경기도 남양주시 다산동 4001-29번지 부영애시앙 1층 113호","indutype":"보건위생 - 피부미용실","category":"beauty"},{"name":"더칼라","tel":"031-551-7177","addr":"경기도 남양주시 다산동 4001-29번지 부영애시앙 119호","indutype":"보건위생 - 미용원","category":"beauty"},{"name":"라보떼","tel":"031-556-1888","addr":"경기도 남양주시 다산동 4001-29번지 부영애시앙 사랑관 227호","indutype":"보건위생 - 화장품","category":"beauty"},{"name":"루다헤어","tel":"031-554-4812","addr":"경기도 남양주시 다산동 4001-29번지 부영애시앙 225-1호","indutype":"보건위생 - 미용원","category":"beauty"},{"name":"리본","tel":"031-553-7353","addr":"경기도 남양주시 다산동 4001-29번지 225호 부영애시앙 사랑관","indutype":"보건위생 - 화장품","category":"beauty"},{"name":"리엠엔스킨케어","tel":"070-7198-8563","addr":"경기도 남양주시 다산동 4001-29번지 부영애시앙 상가동 2층 217호 사림관","indutype":"보건위생 - 피부미용실","category":"beauty"},{"name":"릴렉스타임","tel":"031-556-8633","addr":"경기도 남양주시 다산동 4001-29번지 부영애시앙 상가사랑관 216호","indutype":"보건위생 - 피부미용실","category":"beauty"},{"name":"명작","tel":"031-565-5034","addr":"경기도 남양주시 다산동 4001-29번지 부영애시앙 사랑관 122호","indutype":"보건위생 - 화장품","category":"beauty"},{"name":"문네일(MOON NAIL)","tel":"","addr":"경기도 남양주시 다산동 4001-29번지 부영에시앙 220호","indutype":"보건위생 - 피부미용실","category":"beauty"},{"name":"바이서린","tel":"031-555-9063","addr":"경기도 남양주시 다산동 4001-29번지 부영애시앙상가동원앙관 143호","indutype":"보건위생 - 미용원","category":"beauty"},{"name":"보브헤어","tel":"031-568-1626","addr":"경기도 남양주시 다산동 4001-29번지 부영애시앙 121호","indutype":"보건위생 - 미용원","category":"beauty"},{"name":"뷰티팡","tel":"","addr":"경기도 남양주시 다산동 4001-29번지 부영애시앙 상가 2층 217-1호","indutype":"보건위생 - 화장품","category":"beauty"},{"name":"알렌느헤어","tel":"031-566-6690","addr":"경기도 남양주시 다산동 4001-29번지 부영에시앙상가사랑관 221호","indutype":"보건위생 - 미용원","category":"beauty"},{"name":"알즈너 가까운대리점","tel":"031-594-9091","addr":"경기도 남양주시 다산동 4001-29번지 부영애시앙 사랑관 1층 53호","indutype":"보건위생 - 의료용품","category":"beauty"},{"name":"애시앙안경원","tel":"031-567-0048","addr":"경기도 남양주시 다산동 4001-29번지 109호 부영애시앙원앙관","indutype":"보건위생 - 안경","category":"beauty"},{"name":"예랑헤어","tel":"031-567-3466","addr":"경기도 남양주시 다산동 4001-29번지 사랑관 152호","indutype":"보건위생 - 미용원","category":"beauty"},{"name":"오드리헵번","tel":"031-554-4939","addr":"경기도 남양주시 다산동 4001-29번지 부영애시앙원앙관 102호","indutype":"보건위생 - 미용원","category":"beauty"},{"name":"오렌지헤어","tel":"031-554-5655","addr":"경기도 남양주시 다산동 4001-29번지 부영에시앙 상가동 사랑관 210호","indutype":"보건위생 - 미용원","category":"beauty"},{"name":"욜로네일 (YOLO NaiL)","tel":"031-510-2228","addr":"경기도 남양주시 다산동 4001-29번지 상가 부영애시앙 2층 222호 사랑관","indutype":"보건위생 - 피부미용실","category":"beauty"},{"name":"퀸(Queen)","tel":"031-556-4565","addr":"경기도 남양주시 다산동 4001-29번지 부영애시앙 상가동 2층 224호","indutype":"보건위생 - 미용원","category":"beauty"},{"name":"퀸에스테틱","tel":"","addr":"경기도 남양주시 다산동 4001-29번지 부영애시앙 상가동 2층 사랑관 225-2호","indutype":"보건위생 - 피부미용실","category":"beauty"},{"name":"퀸즈네일","tel":"031-551-9080","addr":"경기도 남양주시 다산동 4001-29번지 상가동 사랑관 167호","indutype":"보건위생 - 피부미용실","category":"beauty"},{"name":"피부사랑","tel":"031-557-5007","addr":"경기도 남양주시 다산동 4001-29번지 부영애시앙 상가동 2층 216호","indutype":"보건위생 - 피부미용실","category":"beauty"},{"name":"헤어라떼","tel":"031-528-6263","addr":"경기도 남양주시 다산동 4001-29번지 부영애시앙 205-2호","indutype":"보건위생 - 미용원","category":"beauty"}]},{"lat":"37.60903512","long":"127.15165087","imageIndex":13,"items":[{"name":"가인미용상사","tel":"031-571-0642","addr":"경기도 남양주시 다산동 4306-33번지","indutype":"보건위생 - 미용재료","category":"beauty"}]},{"lat":"37.608638734","long":"127.15161611","imageIndex":13,"items":[{"name":"고헤나","tel":"031-575-0600","addr":"경기도 남양주시 다산동 4306-38번지 1층","indutype":"보건위생 - 미용원","category":"beauty"}]},{"lat":"37.604278944","long":"127.15789256","imageIndex":13,"items":[{"name":"그레이스헤어","tel":"031-562-8846","addr":"경기도 남양주시 다산동 666-1번지 아인스빌 1층 108호","indutype":"보건위생 - 미용원","category":"beauty"},{"name":"사십일 네일스튜디오 (41 NAIL STUDIO)","tel":"","addr":"경기도 남양주시 다산동 666-1번지 아인스빌 1층 101호 일부호","indutype":"보건위생 - 미용원","category":"beauty"}]},{"lat":"37.608361851","long":"127.15675719","imageIndex":13,"items":[{"name":"글라스박스안경","tel":"031-569-8872","addr":"경기도 남양주시 다산동 4065번지 부영프라자 132호","indutype":"보건위생 - 안경","category":"beauty"},{"name":"로이드밤 도농역점","tel":"031-592-6933","addr":"경기도 남양주시 다산동 4065번지 부영프라자 3층 302호","indutype":"보건위생 - 미용원","category":"beauty"},{"name":"수스킨케어","tel":"031-515-9150","addr":"경기도 남양주시 다산동 4065번지 부영프라자212호(1/2부분)","indutype":"보건위생 - 화장품","category":"beauty"},{"name":"이리로네일","tel":"031-551-1912","addr":"경기도 남양주시 다산동 4065번지 부영프라자 3층 308일부호","indutype":"보건위생 - 피부미용실","category":"beauty"},{"name":"제이펌하우스","tel":"031-557-7554","addr":"경기도 남양주시 다산동 4065번지 부영프라자 204호","indutype":"보건위생 - 미용원","category":"beauty"}]},{"lat":"37.620999382","long":"127.15915059","imageIndex":13,"items":[{"name":"김송정머리터","tel":"070-8945-3313","addr":"경기도 남양주시 다산동 6101-4번지 다산진건지구 F2-6-5 103호","indutype":"보건위생 - 미용원","category":"beauty"}]},{"lat":"37.608889603","long":"127.15272648","imageIndex":13,"items":[{"name":"김현헤어뉴스","tel":"031-555-3199","addr":"경기도 남양주시 다산동 4299-18번지","indutype":"보건위생 - 미용원","category":"beauty"},{"name":"뷰티바디라인","tel":"031-556-0667","addr":"경기도 남양주시 다산동 4299-18번지 1층","indutype":"보건위생 - 화장품","category":"beauty"}]},{"lat":"37.625113416","long":"127.154866","imageIndex":13,"items":[{"name":"꿈자람언어심리상담센터","tel":"031-569-3434","addr":"경기도 남양주시 다산동 6054-3번지 파크뷰타워 6층 604호","indutype":"보건위생 - 기타대인서비스","category":"beauty"}]},{"lat":"37.600446399","long":"127.1734211","imageIndex":13,"items":[{"name":"끌레살롱 (Cle Salon)","tel":"","addr":"경기도 남양주시 다산동 6217-5번지 다산지금지구 근생7-5 203호","indutype":"보건위생 - 미용원","category":"beauty"}]},{"lat":"37.60944901","long":"127.15209339","imageIndex":13,"items":[{"name":"끼순이머리이야기","tel":"031-552-0771","addr":"경기도 남양주시 다산동 4302-11번지","indutype":"보건위생 - 미용원","category":"beauty"}]},{"lat":"37.604341238","long":"127.15848156","imageIndex":13,"items":[{"name":"나이스메드","tel":"031-564-8568","addr":"경기도 남양주시 다산동 666-3번지 드림프라자 504호","indutype":"보건위생 - 의료용품","category":"beauty"},{"name":"리라뷰티","tel":"031-562-2204","addr":"경기도 남양주시 다산동 666-3번지 드림프라자 306호","indutype":"보건위생 - 피부미용실","category":"beauty"},{"name":"살롱드한나","tel":"031-528-6263","addr":"경기도 남양주시 다산동 666-3번지 드림프라자 104호","indutype":"보건위생 - 미용원","category":"beauty"},{"name":"쿤타이","tel":"031-552-3399","addr":"경기도 남양주시 다산동 666-3번지 드림프라자 701호,702호","indutype":"보건위생 - 화장품","category":"beauty"}]},{"lat":"37.59828335","long":"127.1609828","imageIndex":13,"items":[{"name":"내담헤어","tel":"031-556-8838","addr":"경기도 남양주시 다산동 685-1번지 미성프라자 104호","indutype":"보건위생 - 미용원","category":"beauty"}]},{"lat":"37.627114677","long":"127.15400914","imageIndex":13,"items":[{"name":"네일더(the)이쁨","tel":"031-111-1111","addr":"경기도 남양주시 다산동 6029번지 다산자연앤롯데캐슬 상가동 2층 203호","indutype":"보건위생 - 피부미용실","category":"beauty"},{"name":"렌느제이 (하남미사구리)","tel":"","addr":"경기도 남양주시 다산동 6029번지 다산자연앤롯데캐슬 2202동 701호","indutype":"보건위생 - 기타대인서비스","category":"beauty"},{"name":"카라헤어","tel":"031-569-3633","addr":"경기도 남양주시 다산동 6029번지 다산자연앤롯데캐슬 202호","indutype":"보건위생 - 미용원","category":"beauty"},{"name":"헤어보브","tel":"","addr":"경기도 남양주시 다산동 6029번지 다산자연앤롯데캐슬 2208동 305호","indutype":"보건위생 - 미용재료","category":"beauty"}]},{"lat":"37.609808308","long":"127.15295483","imageIndex":13,"items":[{"name":"노랑머리(미용실)","tel":"031-563-1082","addr":"경기도 남양주시 다산동 4298-8번지","indutype":"보건위생 - 미용원","category":"beauty"}]},{"lat":"37.601726191","long":"127.17314092","imageIndex":13,"items":[{"name":"노블레스헤어","tel":"","addr":"경기도 남양주시 다산동 6218-5번지 다산지금지구F3-1-6 101호일부","indutype":"보건위생 - 미용원","category":"beauty"}]},{"lat":"37.622256329","long":"127.15564176","imageIndex":13,"items":[{"name":"다됨","tel":"070-8945-3313","addr":"경기도 남양주시 다산동 6091번지 다산자연앤e편한세상근린생활시설 2층 204호","indutype":"보건위생 - 피부미용실","category":"beauty"},{"name":"라 보니타(La Bonita)","tel":"031-555-6082","addr":"경기도 남양주시 다산동 6091번지 다산자연앤 e편한세상 근린생활시설 2층 203호","indutype":"보건위생 - 미용원","category":"beauty"},{"name":"태후사랑","tel":"","addr":"경기도 남양주시 다산동 6091번지 다산진건지구 B104호","indutype":"보건위생 - 화장품","category":"beauty"}]},{"lat":"37.62453147","long":"127.15197627","imageIndex":13,"items":[{"name":"다비치안경 다산점","tel":"031-562-1357","addr":"경기도 남양주시 다산동 6060-4번지 105,202,203호","indutype":"보건위생 - 안경","category":"beauty"},{"name":"진헤어(JINHAIR)","tel":"031-553-7009","addr":"경기도 남양주시 다산동 6060-4번지 맥스타워 2층 204호","indutype":"보건위생 - 미용원","category":"beauty"}]},{"lat":"37.623306878","long":"127.15139612","imageIndex":13,"items":[{"name":"다빈헤어(DAVIN HAIR)","tel":"031-552-1189","addr":"경기도 남양주시 다산동 6085번지 다산역리더스타워 3층 305호","indutype":"보건위생 - 미용원","category":"beauty"},{"name":"엘토탈뷰티","tel":"031-111-1111","addr":"경기도 남양주시 다산동 6085번지 다산역리더스타워 5층 502호","indutype":"보건위생 - 피부미용실","category":"beauty"}]},{"lat":"37.622835833","long":"127.15340013","imageIndex":13,"items":[{"name":"다산 메디칼 보청기","tel":"","addr":"경기도 남양주시 다산동 6089-3번지 다산진건지구 업무1-4 3층 304호","indutype":"보건위생 - 의료용품","category":"beauty"},{"name":"수련헤어","tel":"","addr":"경기도 남양주시 다산동 6089-3번지 2층 207-1호","indutype":"보건위생 - 미용원","category":"beauty"}]},{"lat":"37.625112832","long":"127.1553191","imageIndex":13,"items":[{"name":"다산피부관리","tel":"031-568-4480","addr":"경기도 남양주시 다산동 6053-2번지 다산푸리마타워 306호","indutype":"보건위생 - 피부미용실","category":"beauty"},{"name":"미용가게","tel":"031-516-1717","addr":"경기도 남양주시 다산동 6053-2번지 다산진건지구 상업2-7-3 7층 706호","indutype":"보건위생 - 미용재료","category":"beauty"},{"name":"헤어룸#356","tel":"","addr":"경기도 남양주시 다산동 6053-2번지 푸리마타워 주건축물 제1동 3층 305호","indutype":"보건위생 - 미용원","category":"beauty"}]},{"lat":"37.621421798","long":"127.15301215","imageIndex":13,"items":[{"name":"다산헤어카페","tel":"031-557-2333","addr":"경기도 남양주시 다산동 6090번지 다산유승한내들센트럴 301동 103호","indutype":"보건위생 - 미용원","category":"beauty"}]},{"lat":"37.622865117","long":"127.15162179","imageIndex":13,"items":[{"name":"다인향스킨테라피","tel":"","addr":"경기도 남양주시 다산동 6085-2번지 신해센트럴타워 615호","indutype":"보건위생 - 피부미용실","category":"beauty"},{"name":"라벨에이치헤어살롱","tel":"031-522-5889","addr":"경기도 남양주시 다산동 6085-2번지 신해센트럴타워 2층 213호","indutype":"보건위생 - 미용원","category":"beauty"},{"name":"오늘헤어디자인","tel":"031-111-1111","addr":"경기도 남양주시 다산동 6085-2번지 신해센트럴타워 2층 212호","indutype":"보건위생 - 미용원","category":"beauty"},{"name":"올가드림뷰티","tel":"031-553-2299","addr":"경기도 남양주시 다산동 6085-2번지 신해센트럴타워 614호","indutype":"보건위생 - 피부미용실","category":"beauty"}]},{"lat":"37.621368164","long":"127.15961577","imageIndex":13,"items":[{"name":"달아살롱","tel":"031-566-8111","addr":"경기도 남양주시 다산동 6102번지 1층 일부","indutype":"보건위생 - 미용원","category":"beauty"}]},{"lat":"37.622638325","long":"127.15284469","imageIndex":13,"items":[{"name":"더봄언어심리발달센터","tel":"031-556-2228","addr":"경기도 남양주시 다산동 6088-3번지 6층 6호","indutype":"보건위생 - 기타대인서비스","category":"beauty"}]},{"lat":"37.600369755","long":"127.15709177","imageIndex":13,"items":[{"name":"더제이헤어샵","tel":"031-555-0883","addr":"경기도 남양주시 다산동 676-6번지 금산프라자 103호","indutype":"보건위생 - 미용원","category":"beauty"},{"name":"슈미트헬스코리아(유)","tel":"02-6080-0235","addr":"경기도 남양주시 다산동 676-6번지 금산프라자 4층 402-1호","indutype":"보건위생 - 의료용품","category":"beauty"}]},{"lat":"37.602894544","long":"127.15551157","imageIndex":13,"items":[{"name":"도진헤어","tel":"031-566-8887","addr":"경기도 남양주시 다산동 669번지 휴먼시아 상가 103호","indutype":"보건위생 - 미용원","category":"beauty"},{"name":"샤프헤어","tel":"031-556-7009","addr":"경기도 남양주시 다산동 669휴먼시아상가204","indutype":"보건위생 - 미용원","category":"beauty"},{"name":"인천공항콜대리운전","tel":"031-559-4288","addr":"경기도 남양주시 다산동 669번지 남양주가운마을휴먼시아1단지 103동 708호","indutype":"보건위생 - 기타대인서비스","category":"beauty"}]},{"lat":"37.607389875","long":"127.15592846","imageIndex":13,"items":[{"name":"드림헤어샵","tel":"031-553-0141","addr":"경기도 남양주시 다산동 4036-74번지","indutype":"보건위생 - 미용원","category":"beauty"}]},{"lat":"37.605974006","long":"127.15695612","imageIndex":13,"items":[{"name":"레오헤어","tel":"031-551-3182","addr":"경기도 남양주시 다산동 4116-9번지 1층","indutype":"보건위생 - 미용원","category":"beauty"}]},{"lat":"37.609813537","long":"127.15589945","imageIndex":13,"items":[{"name":"루나헤어","tel":"031-567-2622","addr":"경기도 남양주시 다산동 4025-17번지 2층 201호","indutype":"보건위생 - 미용원","category":"beauty"}]},{"lat":"37.623585551","long":"127.15189508","imageIndex":13,"items":[{"name":"르뽀렘네일","tel":"","addr":"경기도 남양주시 다산동 6086번지 제이타워 3층 305호","indutype":"보건위생 - 피부미용실","category":"beauty"},{"name":"리안헤어 (다산역점)","tel":"031-558-7574","addr":"경기도 남양주시 다산동 6086번지 201호","indutype":"보건위생 - 미용원","category":"beauty"},{"name":"블루클럽 다산역점","tel":"031-555-5333","addr":"경기도 남양주시 다산동 6086번지 제이타워 105호","indutype":"보건위생 - 미용원","category":"beauty"},{"name":"헤어바이심쌤","tel":"070-8945-3313","addr":"경기도 남양주시 다산동 6086번지 제이타워 2층 205호","indutype":"보건위생 - 미용원","category":"beauty"}]},{"lat":"37.608530303","long":"127.15186505","imageIndex":13,"items":[{"name":"리리헤어","tel":"031-556-2995","addr":"경기도 남양주시 다산동 4306-41번지","indutype":"보건위생 - 미용원","category":"beauty"}]},{"lat":"37.607583852","long":"127.15220291","imageIndex":13,"items":[{"name":"리앙헤어샵","tel":"02-1599-3347","addr":"경기도 남양주시 다산동 4303-1번지 1층","indutype":"보건위생 - 미용원","category":"beauty"}]},{"lat":"37.625726222","long":"127.15475397","imageIndex":13,"items":[{"name":"리치뉴헤어","tel":"031-557-5758","addr":"경기도 남양주시 다산동 6055-3번지 가하프라자 203호","indutype":"보건위생 - 미용원","category":"beauty"},{"name":"살롱드크라운","tel":"031-557-5933","addr":"경기도 남양주시 다산동 6055-3번지 가하프라자 2층 201호","indutype":"보건위생 - 미용원","category":"beauty"}]},{"lat":"37.609339599","long":"127.16003222","imageIndex":13,"items":[{"name":"린스킨 좌훈센터","tel":"","addr":"경기도 남양주시 다산동 4001-10번지 부영그린타운 상가동 3층 301호","indutype":"보건위생 - 피부미용실","category":"beauty"},{"name":"사미숙헤어샵","tel":"031-556-1102","addr":"경기도 남양주시 다산동 4001-10번지 부영주상가 3층 309호","indutype":"보건위생 - 미용원","category":"beauty"}]},{"lat":"37.629700505","long":"127.15398039","imageIndex":13,"items":[{"name":"마음더하기 아동발달센터","tel":"","addr":"경기도 남양주시 다산동 6014번지 다산반도유보라메이플타운 2106동 301호","indutype":"보건위생 - 기타대인서비스","category":"beauty"},{"name":"마이래쉬","tel":"","addr":"경기도 남양주시 다산동 6014번지 다산반도유보라메이플타운 2101동 404호","indutype":"보건위생 - 미용재료","category":"beauty"},{"name":"청담 헤어스토리","tel":"031-575-0404","addr":"경기도 남양주시 다산동 6014번지 다산반도유보라메이플타운 상가동 103호","indutype":"보건위생 - 미용원","category":"beauty"}]},{"lat":"37.608947007","long":"127.16387066","imageIndex":13,"items":[{"name":"마임남양주도농지사","tel":"031-556-8229","addr":"경기도 남양주시 다산동 3129-60번지","indutype":"보건위생 - 화장품","category":"beauty"}]},{"lat":"37.608944465","long":"127.15209238","imageIndex":13,"items":[{"name":"멋진남자","tel":"031-553-0131","addr":"경기도 남양주시 다산동 4302-19번지 1층","indutype":"보건위생 - 미용원","category":"beauty"}]},{"lat":"37.604560347","long":"127.15628505","imageIndex":13,"items":[{"name":"모두케어","tel":"031-569-2999","addr":"경기도 남양주시 다산동 667-1번지 수미소빌딩 5층 504호","indutype":"보건위생 - 의료용품","category":"beauty"},{"name":"유엔지헤어","tel":"031-553-5055","addr":"경기도 남양주시 다산동 667-1번지 수미소빌딩 204호","indutype":"보건위생 - 미용원","category":"beauty"}]},{"lat":"37.608338024","long":"127.16773123","imageIndex":13,"items":[{"name":"미모헤어","tel":"031-555-5999","addr":"경기도 남양주시 다산동 3085-51번지","indutype":"보건위생 - 미용원","category":"beauty"}]},{"lat":"37.609061978","long":"127.15178683","imageIndex":13,"items":[{"name":"미시박머리마당","tel":"031-553-1002","addr":"경기도 남양주시 다산동 4306-48번지","indutype":"보건위생 - 미용원","category":"beauty"}]},{"lat":"37.609861703","long":"127.15347591","imageIndex":13,"items":[{"name":"민헤어","tel":"031-564-5941","addr":"경기도 남양주시 다산동 4027-16번지","indutype":"보건위생 - 미용원","category":"beauty"}]},{"lat":"37.600613195","long":"127.15695638","imageIndex":13,"items":[{"name":"바르다네일","tel":"031-567-2204","addr":"경기도 남양주시 다산동 676-4번지 메티스프라자 103호","indutype":"보건위생 - 피부미용실","category":"beauty"}]},{"lat":"37.600147864","long":"127.17425839","imageIndex":13,"items":[{"name":"바른안경","tel":"031-563-7258","addr":"경기도 남양주시 다산동 6216-6번지 1층","indutype":"보건위생 - 안경","category":"beauty"}]},{"lat":"37.613391748","long":"127.16170566","imageIndex":13,"items":[{"name":"바이진헤어살롱(by Jin Hair Salon)","tel":"031-565-2030","addr":"경기도 남양주시 다산동 4002-32번지 분산상가동 부영그린타운 1층 103호","indutype":"보건위생 - 미용원","category":"beauty"}]},{"lat":"37.608227207","long":"127.15637185","imageIndex":13,"items":[{"name":"박미자헤어","tel":"031-565-5585","addr":"경기도 남양주시 다산동 4044-7번지 1층","indutype":"보건위생 - 미용원","category":"beauty"}]},{"lat":"37.610007298","long":"127.15234366","imageIndex":13,"items":[{"name":"벨라헤어아트","tel":"031-551-6710","addr":"경기도 남양주시 다산동 4338-31번지 서광빌딩 1층","indutype":"보건위생 - 이용원","category":"beauty"}]},{"lat":"37.625367686","long":"127.14606485","imageIndex":13,"items":[{"name":"보보헤어","tel":"070-8945-3313","addr":"경기도 남양주시 다산동 6024번지 다산한양수자인리버팰리스 123동 2층 203호","indutype":"보건위생 - 미용원","category":"beauty"}]},{"lat":"37.598286496","long":"127.15861616","imageIndex":13,"items":[{"name":"뷰컴퍼니","tel":"070-4222-6620","addr":"경기도 남양주시 다산동 682번지 남양주가운마을휴먼시아6단지 602동 1002호","indutype":"보건위생 - 미용재료","category":"beauty"}]},{"lat":"37.611560183","long":"127.1636158","imageIndex":13,"items":[{"name":"뷰티지아나(Beauty Giana)","tel":"02-562-9239","addr":"경기도 남양주시 다산동 4002-39번지 부영그린타운 상가 105호","indutype":"보건위생 - 화장품","category":"beauty"},{"name":"홍헤어살롱","tel":"031-557-7890","addr":"경기도 남양주시 다산동 4002-39번지 부영그린타운 103호","indutype":"보건위생 - 미용원","category":"beauty"}]},{"lat":"37.620141266","long":"127.14670046","imageIndex":13,"items":[{"name":"뷰티크 살롱","tel":"031-553-7772","addr":"경기도 남양주시 다산동 6075번지 다산한양수자인리버파크 115동 1층 2호","indutype":"보건위생 - 미용원","category":"beauty"}]},{"lat":"37.626948989","long":"127.15672752","imageIndex":13,"items":[{"name":"블랑","tel":"031-522-6003","addr":"경기도 남양주시 다산동 6031번지 다산아이파크 상가동 207호","indutype":"보건위생 - 화장품","category":"beauty"},{"name":"쁨헤어","tel":"070-8260-3322","addr":"경기도 남양주시 다산동 6031번지 C3블럭 다산신도시아이파크단지 상가 202호","indutype":"보건위생 - 미용원","category":"beauty"},{"name":"새로미","tel":"","addr":"경기도 남양주시 다산동 6031번지 다산아이파크 상가 203호","indutype":"보건위생 - 피부미용실","category":"beauty"}]},{"lat":"37.615254529","long":"127.15659017","imageIndex":13,"items":[{"name":"블루컷트","tel":"031-557-2090","addr":"경기도 남양주시 다산동 6156번지 다산진건지구 F3-3-1 1층 101호","indutype":"보건위생 - 미용원","category":"beauty"}]},{"lat":"37.606505772","long":"127.15680999","imageIndex":13,"items":[{"name":"블루클럽","tel":"031-564-5770","addr":"경기도 남양주시 다산동 4046-6번지 102호","indutype":"보건위생 - 미용원","category":"beauty"},{"name":"한민정헤어","tel":"031-563-5855","addr":"경기도 남양주시 다산동 4046-6번지 윙스빌딩 202호","indutype":"보건위생 - 미용원","category":"beauty"}]},{"lat":"37.625528009","long":"127.15475356","imageIndex":13,"items":[{"name":"비리야 에스테틱","tel":"031-563-9245","addr":"경기도 남양주시 다산동 6055-4번지 마운틴프라자 503호","indutype":"보건위생 - 피부미용실","category":"beauty"}]},{"lat":"37.628111742","long":"127.15634476","imageIndex":13,"items":[{"name":"비오비 (B.O.B 헤어)","tel":"","addr":"경기도 남양주시 다산동 6030-1번지 근린생활시설용지 1-1-3블럭 성산플레이스I 202호","indutype":"보건위생 - 미용원","category":"beauty"}]},{"lat":"37.605695221","long":"127.15655917","imageIndex":13,"items":[{"name":"빠세빠세안경클럽","tel":"031-551-8383","addr":"경기도 남양주시 다산동 4117-28번지","indutype":"보건위생 - 안경","category":"beauty"}]},{"lat":"37.611279892","long":"127.16434004","imageIndex":13,"items":[{"name":"살롱드MAY","tel":"031-567-3833","addr":"경기도 남양주시 다산동 3198-21번지 다산지금지구 근생4-1 2층 205호","indutype":"보건위생 - 미용원","category":"beauty"}]},{"lat":"37.612143754","long":"127.16512338","imageIndex":13,"items":[{"name":"살롱루크","tel":"031-565-9287","addr":"경기도 남양주시 다산동 6170-1번지 1층 일부 101호","indutype":"보건위생 - 미용원","category":"beauty"}]},{"lat":"37.607479443","long":"127.15633634","imageIndex":13,"items":[{"name":"선우미용상사","tel":"031-528-6263","addr":"경기도 남양주시 다산동 4045-13번지 1층 1호","indutype":"보건위생 - 미용재료","category":"beauty"}]},{"lat":"37.607282944","long":"127.15501091","imageIndex":13,"items":[{"name":"센스미용실","tel":"031-567-2200","addr":"경기도 남양주시 다산동 4036-53번지 지하1층","indutype":"보건위생 - 미용원","category":"beauty"}]},{"lat":"37.621638861","long":"127.15931051","imageIndex":13,"items":[{"name":"수인헤어","tel":"031-111-1111","addr":"경기도 남양주시 다산동 6096-2번지 다산진건지구 F2-2-3 102호","indutype":"보건위생 - 미용원","category":"beauty"}]},{"lat":"37.598981275","long":"127.15783627","imageIndex":13,"items":[{"name":"수헤어","tel":"031-552-5883","addr":"경기도 남양주시 다산동 680번지 B&M주차빌딩 105호","indutype":"보건위생 - 미용원","category":"beauty"}]},{"lat":"37.625698478","long":"127.15530897","imageIndex":13,"items":[{"name":"순헤어","tel":"031-111-1111","addr":"경기도 남양주시 다산동 6053번지 KB골든타워 125호","indutype":"보건위생 - 미용원","category":"beauty"},{"name":"올거드림뷰티 다산순환로점","tel":"031-510-4916","addr":"경기도 남양주시 다산동 6053번지 다산진건지구 상업2-7-1,2 610호","indutype":"보건위생 - 피부미용실","category":"beauty"},{"name":"일공공일 안경콘택트","tel":"031-566-4644","addr":"경기도 남양주시 다산동 6053번지 109호 다산진건지구상업 2-7-1,2","indutype":"보건위생 - 안경","category":"beauty"},{"name":"일런헤어","tel":"031-555-1711","addr":"경기도 남양주시 다산동 6053번지 KB골든타워 205호","indutype":"보건위생 - 미용원","category":"beauty"}]},{"lat":"37.610058917","long":"127.15425776","imageIndex":13,"items":[{"name":"스타일여우","tel":"031-553-7535","addr":"경기도 남양주시 다산동 4026-4번지 1층","indutype":"보건위생 - 미용원","category":"beauty"}]},{"lat":"37.622422911","long":"127.1521986","imageIndex":13,"items":[{"name":"스텔라네일","tel":"031-553-4153","addr":"경기도 남양주시 다산동 6088-1번지 웅신미켈란의아침 1동 2층 207호","indutype":"보건위생 - 피부미용실","category":"beauty"}]},{"lat":"37.608395114","long":"127.15189875","imageIndex":13,"items":[{"name":"신데렐라화장품","tel":"031-569-9960","addr":"경기도 남양주시 다산동 4306-47번지","indutype":"보건위생 - 화장품","category":"beauty"}]},{"lat":"37.622945159","long":"127.15244885","imageIndex":13,"items":[{"name":"썬 네일(Sun Nail)","tel":"031-555-8577","addr":"경기도 남양주시 다산동 6087-3번지 다산퍼스트타워 1층 120호","indutype":"보건위생 - 피부미용실","category":"beauty"},{"name":"토리헤어 다산신도시점","tel":"","addr":"경기도 남양주시 다산동 6087-3번지 302호","indutype":"보건위생 - 미용원","category":"beauty"}]},{"lat":"37.622116556","long":"127.15917558","imageIndex":13,"items":[{"name":"씨안나헤어(C.ANNA HAIR)","tel":"031-552-9909","addr":"경기도 남양주시 다산동 6095번지 1층 일부호","indutype":"보건위생 - 미용원","category":"beauty"}]},{"lat":"37.605282286","long":"127.15539188","imageIndex":13,"items":[{"name":"아모레","tel":"02-2617-2475","addr":"경기도 남양주시 다산동 4118-1번지","indutype":"보건위생 - 화장품","category":"beauty"},{"name":"아모레","tel":"031-565-0391","addr":"경기도 남양주시 다산동 4118-1번지 한빛빌딩 4층","indutype":"보건위생 - 화장품","category":"beauty"},{"name":"아모레","tel":"031-565-0391","addr":"경기도 남양주시 다산동 4118-1번지 한빛빌딩 4층","indutype":"보건위생 - 화장품","category":"beauty"},{"name":"아모레","tel":"031-565-0391","addr":"경기도 남양주시 다산동 4118-1번지 한빛빌딩 4층","indutype":"보건위생 - 화장품","category":"beauty"},{"name":"아모레","tel":"031-565-0391","addr":"경기도 남양주시 다산동 4118-1번지 한빛빌딩 4층","indutype":"보건위생 - 화장품","category":"beauty"},{"name":"아모레","tel":"031-565-0391","addr":"경기도 남양주시 다산동 4118-1번지 한빛빌딩 4층","indutype":"보건위생 - 화장품","category":"beauty"},{"name":"아모레","tel":"031-565-0391","addr":"경기도 남양주시 다산동 4118-1번지 한빛빌딩 4층","indutype":"보건위생 - 화장품","category":"beauty"},{"name":"아모레","tel":"031-565-0391","addr":"경기도 남양주시 다산동 4118-1번지 한빛빌딩 4층","indutype":"보건위생 - 화장품","category":"beauty"},{"name":"아모레","tel":"031-565-0391","addr":"경기도 남양주시 다산동 4118-1번지 한빛빌딩 4층","indutype":"보건위생 - 화장품","category":"beauty"},{"name":"아모레","tel":"031-565-0391","addr":"경기도 남양주시 다산동 4118-1번지 한빛빌딩 4층","indutype":"보건위생 - 화장품","category":"beauty"},{"name":"아모레","tel":"031-565-0391","addr":"경기도 남양주시 다산동 4118-1번지","indutype":"보건위생 - 화장품","category":"beauty"},{"name":"아모레","tel":"031-565-0391","addr":"경기도 남양주시 다산동 4118-1번지 한빛빌딩 4층","indutype":"보건위생 - 화장품","category":"beauty"},{"name":"아모레","tel":"031-565-0391","addr":"경기도 남양주시 다산동 4118-1번지","indutype":"보건위생 - 화장품","category":"beauty"},{"name":"아모레","tel":"031-565-0391","addr":"경기도 남양주시 다산동 4118-1번지 한빛빌딩","indutype":"보건위생 - 화장품","category":"beauty"},{"name":"아모레","tel":"031-565-0391","addr":"경기도 남양주시 다산동 4118-1번지 한빛빌딩 4층","indutype":"보건위생 - 화장품","category":"beauty"},{"name":"아모레","tel":"031-565-1391","addr":"경기도 남양주시 다산동 4118-1번지 한빛빌딩 4층","indutype":"보건위생 - 화장품","category":"beauty"},{"name":"아모레","tel":"031-565-1391","addr":"경기도 남양주시 다산동 4118-1번지 한빛빌딩 4층","indutype":"보건위생 - 화장품","category":"beauty"},{"name":"아모레","tel":"031-565-0391","addr":"경기도 남양주시 다산동 4118-1번지 한빛빌딩 4층","indutype":"보건위생 - 화장품","category":"beauty"},{"name":"아모레","tel":"031-565-0391","addr":"경기도 남양주시 다산동 4118-1번지 4층","indutype":"보건위생 - 화장품","category":"beauty"},{"name":"아모레","tel":"031-565-0391","addr":"경기도 남양주시 다산동 4118-1번지 한빛빌딩 4층","indutype":"보건위생 - 화장품","category":"beauty"},{"name":"아모레","tel":"031-565-0391","addr":"경기도 남양주시 다산동 4118-1번지","indutype":"보건위생 - 화장품","category":"beauty"},{"name":"아모레","tel":"031-565-0391","addr":"경기도 남양주시 다산동 4118-1번지 한빛빌딩 4층","indutype":"보건위생 - 화장품","category":"beauty"},{"name":"아모레","tel":"031-565-0391","addr":"경기도 남양주시 다산동 4118-1번지","indutype":"보건위생 - 화장품","category":"beauty"},{"name":"아모레","tel":"031-565-0391","addr":"경기도 남양주시 다산동 4118-1번지 한빛빌딩 4층","indutype":"보건위생 - 화장품","category":"beauty"},{"name":"아모레","tel":"031-565-0391","addr":"경기도 남양주시 다산동 4118-1번지 한빛빌딩 4층","indutype":"보건위생 - 화장품","category":"beauty"},{"name":"아모레","tel":"031-565-0391","addr":"경기도 남양주시 다산동 4118-1번지 한빛빌딩 4층","indutype":"보건위생 - 화장품","category":"beauty"},{"name":"아모레","tel":"031-565-0391","addr":"경기도 남양주시 다산동 4118-1번지 한빛빌딩 4층","indutype":"보건위생 - 화장품","category":"beauty"},{"name":"아모레","tel":"031-565-0391","addr":"경기도 남양주시 다산동 4118-1번지 한빛빌딩 4층","indutype":"보건위생 - 화장품","category":"beauty"},{"name":"아모레","tel":"031-565-0391","addr":"경기도 남양주시 다산동 4118-1번지 한빛빌딩 4층","indutype":"보건위생 - 화장품","category":"beauty"},{"name":"아모레","tel":"031-565-0391","addr":"경기도 남양주시 다산동 4118-1번지 한빛빌딩 4층","indutype":"보건위생 - 화장품","category":"beauty"},{"name":"아모레","tel":"031-565-0391","addr":"경기도 남양주시 다산동 4118-1번지 한빛빌딩 4층","indutype":"보건위생 - 화장품","category":"beauty"},{"name":"아모레","tel":"031-565-0391","addr":"경기도 남양주시 다산동 4118-1번지 한빛빌딩 4층","indutype":"보건위생 - 화장품","category":"beauty"},{"name":"아모레","tel":"031-565-0391","addr":"경기도 남양주시 다산동 4118-1번지 한빛빌딩 4층","indutype":"보건위생 - 화장품","category":"beauty"},{"name":"아모레","tel":"031-565-0391","addr":"경기도 남양주시 다산동 4118-1번지 한빛빌딩 4층","indutype":"보건위생 - 화장품","category":"beauty"},{"name":"아모레","tel":"031-565-0391","addr":"경기도 남양주시 다산동 4118-1번지 한빛빌딩 4층","indutype":"보건위생 - 화장품","category":"beauty"},{"name":"아모레","tel":"031-565-0391","addr":"경기도 남양주시 다산동 4118-1번지 한빛빌딩 4층","indutype":"보건위생 - 화장품","category":"beauty"},{"name":"아모레","tel":"031-565-0391","addr":"경기도 남양주시 다산동 4118-1번지 한빛빌딩 4층","indutype":"보건위생 - 화장품","category":"beauty"},{"name":"아모레","tel":"031-565-0391","addr":"경기도 남양주시 다산동 4118-1번지 한빛빌딩 4층","indutype":"보건위생 - 화장품","category":"beauty"},{"name":"아모레","tel":"031-565-0391","addr":"경기도 남양주시 다산동 4118-1번지 한빛빌딩 4층","indutype":"보건위생 - 화장품","category":"beauty"},{"name":"아모레","tel":"031-565-0391","addr":"경기도 남양주시 다산동 4118-1번지 한빛빌딩 4층","indutype":"보건위생 - 화장품","category":"beauty"},{"name":"아모레","tel":"031-565-0391","addr":"경기도 남양주시 다산동 4118-1번지 한빛빌딩 4층","indutype":"보건위생 - 화장품","category":"beauty"},{"name":"아모레","tel":"031-565-0391","addr":"경기도 남양주시 다산동 4118-1번지 한빛빌딩 4층","indutype":"보건위생 - 화장품","category":"beauty"},{"name":"아모레","tel":"031-565-0391","addr":"경기도 남양주시 다산동 4118-1번지 한빛빌딩 4층","indutype":"보건위생 - 화장품","category":"beauty"},{"name":"아모레","tel":"031-565-0391","addr":"경기도 남양주시 다산동 4118-1번지 한빛빌딩 4층","indutype":"보건위생 - 화장품","category":"beauty"},{"name":"아모레","tel":"","addr":"경기도 남양주시 다산동 4118-1번지 한빛빌딩 4층","indutype":"보건위생 - 화장품","category":"beauty"},{"name":"아모레","tel":"031-565-0391","addr":"경기도 남양주시 다산동 4118-1번지 한빛빌딩 4층","indutype":"보건위생 - 화장품","category":"beauty"},{"name":"아모레","tel":"031-565-0391","addr":"경기도 남양주시 다산동 4118-1번지 한빛빌딩 4층","indutype":"보건위생 - 화장품","category":"beauty"},{"name":"아모레","tel":"031-564-2329","addr":"경기도 남양주시 다산동 4118-1번지 한빛빌딩 4층","indutype":"보건위생 - 화장품","category":"beauty"},{"name":"아모레","tel":"031-565-0391","addr":"경기도 남양주시 다산동 4118-1번지","indutype":"보건위생 - 화장품","category":"beauty"},{"name":"아모레","tel":"031-565-0391","addr":"경기도 남양주시 다산동 4118-1번지 한빛빌딩 4층","indutype":"보건위생 - 화장품","category":"beauty"},{"name":"아모레","tel":"031-565-0391","addr":"경기도 남양주시 다산동 4118-1번지 한빛빌딩 4층","indutype":"보건위생 - 화장품","category":"beauty"},{"name":"아모레","tel":"031-565-0391","addr":"경기도 남양주시 다산동 4118-1번지 한빛빌딩 4층","indutype":"보건위생 - 화장품","category":"beauty"},{"name":"아모레","tel":"031-565-0391","addr":"경기도 남양주시 다산동 4118-1번지 한빛빌딩 4층","indutype":"보건위생 - 화장품","category":"beauty"},{"name":"아모레","tel":"031-565-0391","addr":"경기도 남양주시 다산동 4118-1번지 한빛빌딩 4층","indutype":"보건위생 - 화장품","category":"beauty"},{"name":"아모레","tel":"031-565-0391","addr":"경기도 남양주시 다산동 4118-1번지 한빛빌딩 4층","indutype":"보건위생 - 화장품","category":"beauty"},{"name":"아모레","tel":"031-564-2329","addr":"경기도 남양주시 다산동 4118-1번지 한빛빌딩 4층","indutype":"보건위생 - 화장품","category":"beauty"},{"name":"아모레","tel":"031-565-0391","addr":"경기도 남양주시 다산동 4118-1번지 한빛빌딩 4층","indutype":"보건위생 - 화장품","category":"beauty"},{"name":"아모레","tel":"031-565-0391","addr":"경기도 남양주시 다산동 4118-1번지 한빛빌딩 4층","indutype":"보건위생 - 화장품","category":"beauty"},{"name":"아모레","tel":"031-565-0391","addr":"경기도 남양주시 다산동 4118-1번지 한빛빌딩 4층","indutype":"보건위생 - 화장품","category":"beauty"},{"name":"아모레","tel":"031-565-0391","addr":"경기도 남양주시 다산동 4118-1번지","indutype":"보건위생 - 화장품","category":"beauty"},{"name":"아모레","tel":"031-565-0391","addr":"경기도 남양주시 다산동 4118-1번지 한빛빌딩 4층","indutype":"보건위생 - 화장품","category":"beauty"},{"name":"아모레","tel":"031-565-0391","addr":"경기도 남양주시 다산동 4118-1번지 한빛빌딩 4층","indutype":"보건위생 - 화장품","category":"beauty"},{"name":"아모레","tel":"031-565-0391","addr":"경기도 남양주시 다산동 4118-1번지 한빛빌딩 4층","indutype":"보건위생 - 화장품","category":"beauty"},{"name":"아모레","tel":"031-565-0391","addr":"경기도 남양주시 다산동 4118-1번지 한빛빌딩 4층","indutype":"보건위생 - 화장품","category":"beauty"},{"name":"아모레","tel":"031-565-0391","addr":"경기도 남양주시 다산동 4118-1번지 한빛빌딩 4층","indutype":"보건위생 - 화장품","category":"beauty"},{"name":"아모레","tel":"031-565-0391","addr":"경기도 남양주시 다산동 4118-1번지 한빛빌딩 4층","indutype":"보건위생 - 화장품","category":"beauty"},{"name":"아모레","tel":"031-565-0391","addr":"경기도 남양주시 다산동 4118-1번지 한빛빌딩 4층","indutype":"보건위생 - 화장품","category":"beauty"},{"name":"아모레","tel":"031-565-0391","addr":"경기도 남양주시 다산동 4118-1번지 한빛빌딩 4층","indutype":"보건위생 - 화장품","category":"beauty"},{"name":"아모레","tel":"031-565-0391","addr":"경기도 남양주시 다산동 4118-1번지 한빛빌딩 4층","indutype":"보건위생 - 화장품","category":"beauty"},{"name":"아모레카운셀러","tel":"031-564-3009","addr":"경기도 남양주시 다산동 4118-1번지 4층","indutype":"보건위생 - 화장품","category":"beauty"},{"name":"아모레카운셀러","tel":"031-565-0391","addr":"경기도 남양주시 다산동 4118-1번지 4층","indutype":"보건위생 - 화장품","category":"beauty"},{"name":"아모레카운셀러","tel":"031-565-0391","addr":"경기도 남양주시 다산동 4118-1번지 한빛빌딩 4층","indutype":"보건위생 - 화장품","category":"beauty"},{"name":"아모레퍼시픽","tel":"031-565-0391","addr":"경기도 남양주시 다산동 4118-1번지 4층","indutype":"보건위생 - 화장품","category":"beauty"}]},{"lat":"37.608947558","long":"127.15670177","imageIndex":13,"items":[{"name":"아우라제이헤어살롱","tel":"031-566-7935","addr":"경기도 남양주시 다산동 4002-3번지 1층","indutype":"보건위생 - 미용원","category":"beauty"}]},{"lat":"37.600065127","long":"127.17539059","imageIndex":13,"items":[{"name":"아이리뷰티","tel":"02-4618-4646","addr":"경기도 남양주시 다산동 6215번지 다산펜테리움리버테라스I 7397동 1302호","indutype":"보건위생 - 화장품","category":"beauty"}]},{"lat":"37.600203169","long":"127.1733979","imageIndex":13,"items":[{"name":"앤드젤네일","tel":"031-111-1111","addr":"경기도 남양주시 다산동 6217-6번지 대길프라자 2층 205호","indutype":"보건위생 - 피부미용실","category":"beauty"}]},{"lat":"37.608088712","long":"127.15195477","imageIndex":13,"items":[{"name":"야후맨스클럽(도농점)","tel":"070-8289-7314","addr":"경기도 남양주시 다산동 4306-56번지","indutype":"보건위생 - 미용원","category":"beauty"}]},{"lat":"37.607974684","long":"127.15656386","imageIndex":13,"items":[{"name":"에르다헤어","tel":"031-564-2030","addr":"경기도 남양주시 다산동 4045-26번지 1층","indutype":"보건위생 - 미용원","category":"beauty"}]},{"lat":"37.606090807","long":"127.1572055","imageIndex":13,"items":[{"name":"에리헤어살롱","tel":"","addr":"경기도 남양주시 다산동 4053-4번지 1층 108호","indutype":"보건위생 - 미용원","category":"beauty"}]},{"lat":"37.599396006","long":"127.15762198","imageIndex":13,"items":[{"name":"엠에스헤어","tel":"031-595-0685","addr":"경기도 남양주시 다산동 679-5번지 맥산빌딩","indutype":"보건위생 - 미용원","category":"beauty"}]},{"lat":"37.608173516","long":"127.15608862","imageIndex":13,"items":[{"name":"엠제이(MJ)헤어","tel":"","addr":"경기도 남양주시 다산동 4044-11번지 102호","indutype":"보건위생 - 미용원","category":"beauty"}]},{"lat":"37.59967553","long":"127.1574527","imageIndex":13,"items":[{"name":"엣찌뷰티샵","tel":"031-566-4081","addr":"경기도 남양주시 다산동 679-3번지 리버뷰 B동 1층 101호","indutype":"보건위생 - 미용원","category":"beauty"},{"name":"전지숙 헤어갤러리","tel":"031-553-5674","addr":"경기도 남양주시 다산동 679-3번지 B동 102호","indutype":"보건위생 - 미용원","category":"beauty"}]},{"lat":"37.608809677","long":"127.15180898","imageIndex":13,"items":[{"name":"예스","tel":"031-558-0255","addr":"경기도 남양주시 다산동 4306-36번지","indutype":"보건위생 - 화장품","category":"beauty"}]},{"lat":"37.61158423","long":"127.16579038","imageIndex":13,"items":[{"name":"오가닉샵","tel":"","addr":"경기도 남양주시 다산동 6180-3번지","indutype":"보건위생 - 화장품","category":"beauty"}]},{"lat":"37.609086732","long":"127.16708734","imageIndex":13,"items":[{"name":"유림헤어노블","tel":"031-552-6004","addr":"경기도 남양주시 다산동 3096-3번지","indutype":"보건위생 - 미용원","category":"beauty"}]},{"lat":"37.612396756","long":"127.16459162","imageIndex":13,"items":[{"name":"유미끼헤어","tel":"031-557-1176","addr":"경기도 남양주시 다산동 6168-8번지 다산지금지구 F2-1-9 101호","indutype":"보건위생 - 미용원","category":"beauty"}]},{"lat":"37.607618481","long":"127.15331284","imageIndex":13,"items":[{"name":"유진영헤어샵","tel":"031-567-9490","addr":"경기도 남양주시 다산동 4433번지 롯데낙천대상가 B-104호","indutype":"보건위생 - 미용원","category":"beauty"}]},{"lat":"37.608200398","long":"127.15620192","imageIndex":13,"items":[{"name":"윤스킨갤러리","tel":"031-555-3317","addr":"경기도 남양주시 다산동 4044-15번지 1층 101호","indutype":"보건위생 - 피부미용실","category":"beauty"}]},{"lat":"37.607811888","long":"127.15703918","imageIndex":13,"items":[{"name":"이양근의헤어닥터","tel":"031-568-5568","addr":"경기도 남양주시 다산동 4060-3번지","indutype":"보건위생 - 미용원","category":"beauty"}]},{"lat":"37.608809147","long":"127.15222801","imageIndex":13,"items":[{"name":"이은정헤어포엠","tel":"031-553-9360","addr":"경기도 남양주시 다산동 4301-18번지","indutype":"보건위생 - 미용원","category":"beauty"}]},{"lat":"37.610115874","long":"127.15198146","imageIndex":13,"items":[{"name":"인앤아웃안경,콘택트","tel":"031-565-7676","addr":"경기도 남양주시 다산동 4338-45번지 성지프라자 1층 107호","indutype":"보건위생 - 안경","category":"beauty"}]},{"lat":"37.622034284","long":"127.14589987","imageIndex":13,"items":[{"name":"잔나비헤어","tel":"031-556-5042","addr":"경기도 남양주시 다산동 6025번지 상가동 101호 유승한내들골든뷰근린생활시설","indutype":"보건위생 - 미용원","category":"beauty"}]},{"lat":"37.60453512","long":"127.15489207","imageIndex":13,"items":[{"name":"정일작명","tel":"031-553-0002","addr":"경기도 남양주시 다산동 668-2번지 가운리슈빌오피스텔 10층 1001호","indutype":"보건위생 - 기타대인서비스","category":"beauty"},{"name":"제이원헬스케어","tel":"031-527-5397","addr":"경기도 남양주시 다산동 668-2번지 가운리슈빌 5층 532호","indutype":"보건위생 - 의료용품","category":"beauty"},{"name":"헤세더","tel":"070-8913-1146","addr":"경기도 남양주시 다산동 668-2번지 가운리슈빌오피스텔 3층 323호","indutype":"보건위생 - 화장품","category":"beauty"}]},{"lat":"37.609670713","long":"127.15486855","imageIndex":13,"items":[{"name":"제나뷰티","tel":"070-8259-5288","addr":"경기도 남양주시 다산동 4029-10번지","indutype":"보건위생 - 화장품","category":"beauty"}]},{"lat":"37.601535166","long":"127.17439746","imageIndex":13,"items":[{"name":"제이지헤어샵","tel":"031-555-0995","addr":"경기도 남양주시 다산동 6216번지 보람프라자 1동 2층 203호","indutype":"보건위생 - 미용원","category":"beauty"}]},{"lat":"37.603557719","long":"127.15823079","imageIndex":13,"items":[{"name":"젤리헤어","tel":"031-564-3040","addr":"경기도 남양주시 다산동 671번지 휴먼시아 상가동 1층 102호","indutype":"보건위생 - 미용원","category":"beauty"}]},{"lat":"37.598560524","long":"127.16909115","imageIndex":13,"items":[{"name":"주미스킨케어","tel":"","addr":"경기도 남양주시 다산동 6234번지 반도유보라메이플타운2.0 7401동 2102호","indutype":"보건위생 - 화장품","category":"beauty"}]},{"lat":"37.605782616","long":"127.15862046","imageIndex":13,"items":[{"name":"지오헤어","tel":"031-562-0346","addr":"경기도 남양주시 다산동 617번지","indutype":"보건위생 - 미용원","category":"beauty"}]},{"lat":"37.619305435","long":"127.15228298","imageIndex":13,"items":[{"name":"집앞에서","tel":"","addr":"경기도 남양주시 다산동 6133번지 다산이편한세상자이 2층 208호","indutype":"보건위생 - 미용원","category":"beauty"}]},{"lat":"37.605783571","long":"127.15789568","imageIndex":13,"items":[{"name":"참빛미용실","tel":"031-563-1749","addr":"경기도 남양주시 다산동 4114-23번지","indutype":"보건위생 - 이용원","category":"beauty"}]},{"lat":"37.625754284","long":"127.15394975","imageIndex":13,"items":[{"name":"케빈헤어","tel":"031-555-3612","addr":"경기도 남양주시 다산동 6055번지 거성프라자 2층 204호","indutype":"보건위생 - 미용원","category":"beauty"}]},{"lat":"37.607252798","long":"127.1503676","imageIndex":13,"items":[{"name":"코코헤어","tel":"070-8704-2114","addr":"경기도 남양주시 다산동 4432-2번지 남양아이좋은집 상가 2층 202호","indutype":"보건위생 - 미용원","category":"beauty"}]},{"lat":"37.608452744","long":"127.15614581","imageIndex":13,"items":[{"name":"태후사랑","tel":"031-515-9668","addr":"경기도 남양주시 다산동 4043-8번지 1층","indutype":"보건위생 - 화장품","category":"beauty"}]},{"lat":"37.60728643","long":"127.15228159","imageIndex":13,"items":[{"name":"태희 헤어스케치","tel":"031-565-5353","addr":"경기도 남양주시 다산동 4296-2번지","indutype":"보건위생 - 미용원","category":"beauty"}]},{"lat":"37.599946001","long":"127.15731737","imageIndex":13,"items":[{"name":"파스텔아이 안경원","tel":"031-556-0999","addr":"경기도 남양주시 다산동 679-1번지 삼원프라자 103호","indutype":"보건위생 - 안경","category":"beauty"}]},{"lat":"37.606809923","long":"127.17158966","imageIndex":13,"items":[{"name":"피부ON","tel":"","addr":"경기도 남양주시 다산동 6208번지 다산지금센트럴에일린의뜰 상가동 108호","indutype":"보건위생 - 피부미용실","category":"beauty"}]},{"lat":"37.608758575","long":"127.1565315","imageIndex":13,"items":[{"name":"헤어21","tel":"031-111-1111","addr":"경기도 남양주시 다산동 4066-8번지 소망아트빌라 403호","indutype":"보건위생 - 화장품","category":"beauty"}]},{"lat":"37.608615463","long":"127.15572711","imageIndex":13,"items":[{"name":"헤어가라사대","tel":"031-552-0106","addr":"경기도 남양주시 다산동 4033-1번지","indutype":"보건위생 - 미용원","category":"beauty"}]},{"lat":"37.609279423","long":"127.16456222","imageIndex":13,"items":[{"name":"헤어닥터","tel":"031-555-5444","addr":"경기도 남양주시 다산동 3135-1번지 갈산빌딩","indutype":"보건위생 - 미용원","category":"beauty"}]},{"lat":"37.605834727","long":"127.15317335","imageIndex":13,"items":[{"name":"헤어라인","tel":"031-557-8470","addr":"경기도 남양주시 다산동 4436-2번지","indutype":"보건위생 - 미용원","category":"beauty"}]},{"lat":"37.608251173","long":"127.15172859","imageIndex":13,"items":[{"name":"헤어바이주호","tel":"031-552-5040","addr":"경기도 남양주시 다산동 4306-5번지 연성프라자 102호","indutype":"보건위생 - 미용원","category":"beauty"}]},{"lat":"37.601584615","long":"127.15820404","imageIndex":13,"items":[{"name":"헤어센스","tel":"031-562-0012","addr":"경기도 남양주시 다산동 673번지 남양주가운마을휴먼시아4단지 상가동 1층 103호","indutype":"보건위생 - 미용원","category":"beauty"}]},{"lat":"37.615004945","long":"127.1613693","imageIndex":13,"items":[{"name":"힐스템구리남양주센타","tel":"","addr":"경기도 남양주시 다산동 3391-84번지 3층 301호","indutype":"보건위생 - 의료용품","category":"beauty"}]}]