[{"lat":"37.3478631236","long":"126.9729177839","imageIndex":7,"items":[{"name":"(주)피케이패밀리","tel":"031-429-5549","addr":"경기도 의왕시 고천동 439-153번지","indutype":"음료식품 - 기타음료식품","category":"food"}]},{"lat":"37.3548614142","long":"126.9639757047","imageIndex":7,"items":[{"name":"CJ명철유통","tel":"","addr":"경기도 의왕시 고천동 474번지","indutype":"음료식품 - 기타음료식품","category":"food"}]},{"lat":"37.3488096425","long":"126.9747570396","imageIndex":7,"items":[{"name":"고천흑염소","tel":"031-58-3941","addr":"경기도 의왕시 고천동 295-51번지","indutype":"건강식품 - 기타건강식품","category":"food"},{"name":"삼호건강원","tel":"031-458-3941","addr":"경기도 의왕시 고천동 295-51번지 의왕종합쇼핑센터 117호","indutype":"건강식품 - 기타건강식품","category":"food"}]},{"lat":"37.3489183679","long":"126.9774205190","imageIndex":7,"items":[{"name":"기픈맛푸드","tel":"031-477-6754","addr":"경기도 의왕시 고천동 491-15번지","indutype":"음료식품 - 정육점","category":"food"}]},{"lat":"37.3487555005","long":"126.9744184774","imageIndex":7,"items":[{"name":"내고향건강원","tel":"031-458-8835","addr":"경기도 의왕시 고천동 295-11번지 1층","indutype":"건강식품 - 기타건강식품","category":"food"},{"name":"중앙쌀상회","tel":"031-452-4853","addr":"경기도 의왕시 고천동 295-11번지","indutype":"음료식품 - 미곡상","category":"food"}]},{"lat":"37.3478907806","long":"126.9755022550","imageIndex":7,"items":[{"name":"다연푸드","tel":"031-300-3958","addr":"경기도 의왕시 고천동 273-2번지 1층 일부","indutype":"음료식품 - 기타음료식품","category":"food"}]},{"lat":"37.3482869339","long":"126.9742606503","imageIndex":7,"items":[{"name":"마중물유통","tel":"031-429-4808","addr":"경기도 의왕시 고천동 294-5번지","indutype":"음료식품 - 기타음료식품","category":"food"},{"name":"주식회사푸리(PURIE)","tel":"02-742-0238","addr":"경기도 의왕시 고천동 294-5번지 오봉빌딩 2층","indutype":"음료식품 - 기타음료식품","category":"food"}]},{"lat":"37.3488639562","long":"126.9758404843","imageIndex":7,"items":[{"name":"미즈테이블(Ms.table)","tel":"070-7807-3454","addr":"경기도 의왕시 고천동 303-10번지 1층","indutype":"음료식품 - 기타음료식품","category":"food"}]},{"lat":"37.3490348831","long":"126.9747005249","imageIndex":7,"items":[{"name":"박영권베이커리","tel":"031-454-4378","addr":"경기도 의왕시 고천동 295-4번지","indutype":"음료식품 - 제과점","category":"food"},{"name":"박영권베이커리","tel":"031-454-4378","addr":"경기도 의왕시 고천동 295-4번지","indutype":"음료식품 - 제과점","category":"food"}]},{"lat":"37.3530058495","long":"126.9656132359","imageIndex":7,"items":[{"name":"벨리도너츠의왕점","tel":"031-459-0080","addr":"경기도 의왕시 고천동 332-33번지","indutype":"음료식품 - 제과점","category":"food"},{"name":"주주어클락(JuJu O' Clock)","tel":"031-427-9879","addr":"경기도 의왕시 고천동 332-33번지 성우벤처빌 A동 101-15호","indutype":"음료식품 - 주류 판매점","category":"food"}]},{"lat":"37.3493959065","long":"126.9774203577","imageIndex":7,"items":[{"name":"벼리축산","tel":"031-451-2060","addr":"경기도 의왕시 고천동 491번지","indutype":"음료식품 - 정육점","category":"food"}]},{"lat":"37.3478636341","long":"126.9750056833","imageIndex":7,"items":[{"name":"부전고추떡방앗간","tel":"031-453-4373","addr":"경기도 의왕시 고천동 274-2번지","indutype":"음료식품 - 제과점","category":"food"}]},{"lat":"37.3493141116","long":"126.9743392634","imageIndex":7,"items":[{"name":"서울떡집","tel":"031-453-5118","addr":"경기도 의왕시 고천동 295-25번지","indutype":"음료식품 - 제과점","category":"food"}]},{"lat":"37.3490579471","long":"126.9612587445","imageIndex":7,"items":[{"name":"서울소년원직원회","tel":"031-450-6138","addr":"경기도 의왕시 고천동 430번지","indutype":"음료식품 - 기타음료식품","category":"food"}]},{"lat":"37.3472594225","long":"126.9728390229","imageIndex":7,"items":[{"name":"세일식품","tel":"031-456-0866","addr":"경기도 의왕시 고천동 253-25번지","indutype":"음료식품 - 기타음료식품","category":"food"}]},{"lat":"37.3495576241","long":"126.9753436428","imageIndex":7,"items":[{"name":"아이스박스 의왕 고천점","tel":"031-345-9191","addr":"경기도 의왕시 고천동 304-4번지 102호","indutype":"음료식품 - 기타음료식품","category":"food"}]},{"lat":"37.3479177744","long":"126.9753442418","imageIndex":7,"items":[{"name":"영동건강원","tel":"031-459-3069","addr":"경기도 의왕시 고천동 273-8번지","indutype":"건강식품 - 기타건강식품","category":"food"}]},{"lat":"37.3485584035","long":"126.9795649897","imageIndex":7,"items":[{"name":"우성고 매점","tel":"02-1111-1111","addr":"경기도 의왕시 고천동 496번지 우성고등학교","indutype":"음료식품 - 기타음료식품","category":"food"}]},{"lat":"37.3477011353","long":"126.9736965767","imageIndex":7,"items":[{"name":"의왕건강생활","tel":"031-427-3670","addr":"경기도 의왕시 고천동 283-4번지 창덕빌딩 5층","indutype":"건강식품 - 기타건강식품","category":"food"}]},{"lat":"37.3422038856","long":"126.9697263506","imageIndex":7,"items":[{"name":"의왕시 중앙도서관 매점","tel":"031-427-6627","addr":"경기도 의왕시 고천동 159번지 1층","indutype":"음료식품 - 기타음료식품","category":"food"}]},{"lat":"37.3447265061","long":"126.9689239726","imageIndex":7,"items":[{"name":"의왕시청/의왕조류생태과학관내매점","tel":"031-345-3853","addr":"경기도 의왕시 고천동 171번지","indutype":"음료식품 - 기타음료식품","category":"food"}]},{"lat":"37.3491424834","long":"126.9725899774","imageIndex":7,"items":[{"name":"주식회사 영은산업","tel":"031-450-6745","addr":"경기도 의왕시 고천동 290-2번지 대영골든밸리 11층 1108호","indutype":"음료식품 - 기타음료식품","category":"food"},{"name":"쿠키라인","tel":"031-424-0424","addr":"경기도 의왕시 고천동 290-2번지 대명골든벨리 202호","indutype":"음료식품 - 제과점","category":"food"}]},{"lat":"37.3525026825","long":"126.9703651593","imageIndex":7,"items":[{"name":"주식회사쁘레꼬숑","tel":"031-458-3009","addr":"경기도 의왕시 고천동 348-7번지 (주)지비오 401호","indutype":"음료식품 - 농·축·수산품","category":"food"}]},{"lat":"37.3492516902","long":"126.9771721111","imageIndex":7,"items":[{"name":"칠갑산국수","tel":"031-452-4414","addr":"경기도 의왕시 고천동 490번지 의왕종합상가 A-102호","indutype":"음료식품 - 기타음료식품","category":"food"},{"name":"한미축산도매센터","tel":"031-451-9293","addr":"경기도 의왕시 고천동 490번지","indutype":"음료식품 - 정육점","category":"food"}]},{"lat":"37.3472552944","long":"126.9595330043","imageIndex":7,"items":[{"name":"케이유통","tel":"031-702-1913","addr":"경기도 의왕시 고천동 438-1번지","indutype":"음료식품 - 기타음료식품","category":"food"}]},{"lat":"37.3438622495","long":"126.9715312766","imageIndex":7,"items":[{"name":"태성유통","tel":"031-453-1209","addr":"경기도 의왕시 고천동 164-1번지 226-2,227-3","indutype":"음료식품 - 기타음료식품","category":"food"}]},{"lat":"37.3489538639","long":"126.9750052801","imageIndex":7,"items":[{"name":"형제청과","tel":"031-223-5214","addr":"경기도 의왕시 고천동 295-1번지 301호","indutype":"음료식품 - 농·축·수산품","category":"food"}]}]