[{"lat":"37.012131911","long":"127.27548101","imageIndex":7,"items":[{"name":"(주)안성미트","tel":"031-675-9876","addr":"경기도 안성시 숭인동 88 동신상가 102","indutype":"음료식품 - 정육점","category":"food"}]},{"lat":"37.01095119","long":"127.27562286","imageIndex":7,"items":[{"name":"국민간식333(P점)","tel":"","addr":"경기도 안성시 숭인동 83번지 안성우정에쉐르 102동 801호","indutype":"음료식품 - 기타음료식품","category":"food"}]},{"lat":"37.009550733","long":"127.27334824","imageIndex":7,"items":[{"name":"숭인정육점","tel":"031-672-5599","addr":"경기도 안성시 숭인동 33-3번지","indutype":"음료식품 - 정육점","category":"food"}]},{"lat":"37.00896402","long":"127.27379559","imageIndex":7,"items":[{"name":"연세우유 안성점","tel":"031-675-6333","addr":"경기도 안성시 숭인동 36-3","indutype":"음료식품 - 기타음료식품","category":"food"}]},{"lat":"37.009827341","long":"127.27454021","imageIndex":7,"items":[{"name":"일은축산","tel":"","addr":"경기도 안성시 숭인동 3번지","indutype":"음료식품 - 정육점","category":"food"}]},{"lat":"37.009107445","long":"127.27412193","imageIndex":7,"items":[{"name":"청정한우마을정육","tel":"031-675-3646","addr":"경기도 안성시 숭인동 9-1번지","indutype":"음료식품 - 정육점","category":"food"}]},{"lat":"37.010358322","long":"127.274823","imageIndex":7,"items":[{"name":"한길유통","tel":"031-677-3221","addr":"경기도 안성시 숭인동 1-1번지","indutype":"음료식품 - 농·축·수산품","category":"food"}]},{"lat":"37.012131911","long":"127.27548101","imageIndex":4,"items":[{"name":"골든타임","tel":"031-672-6741","addr":"경기도 안성시 숭인동 88번지 동신아파트 2층 203호","indutype":"일반휴게음식 - 일반한식","category":"restaurant"}]},{"lat":"37.008269692","long":"127.27401784","imageIndex":4,"items":[{"name":"곰식당","tel":"031-676-2606","addr":"경기도 안성시 숭인동 15-1번지","indutype":"일반휴게음식 - 일반한식","category":"restaurant"}]},{"lat":"37.010080203","long":"127.27429393","imageIndex":4,"items":[{"name":"구워더존치킨","tel":"031-671-9279","addr":"경기도 안성시 숭인동 20번지","indutype":"일반휴게음식 - 스넥","category":"restaurant"},{"name":"구워더존치킨","tel":"031-671-9279","addr":"경기도 안성시 숭인동 20번지 1층","indutype":"일반휴게음식 - 일반한식","category":"restaurant"}]},{"lat":"37.010134728","long":"127.27409188","imageIndex":4,"items":[{"name":"늘솜쭈꾸미","tel":"031-671-8034","addr":"경기도 안성시 숭인동 22-1번지 1층","indutype":"일반휴게음식 - 일반한식","category":"restaurant"}]},{"lat":"37.009081106","long":"127.27381848","imageIndex":4,"items":[{"name":"닭발짜그리","tel":"031-674-3981","addr":"경기도 안성시 숭인동 36-5번지","indutype":"일반휴게음식 - 일반한식","category":"restaurant"},{"name":"데치미(안성점)","tel":"031-1111-1111","addr":"경기도 안성시 숭인동 36-5번지 1층","indutype":"일반휴게음식 - 일반한식","category":"restaurant"}]},{"lat":"37.00857618","long":"127.27396275","imageIndex":4,"items":[{"name":"담소원","tel":"031-677-7766","addr":"경기도 안성시 숭인동 13번지","indutype":"일반휴게음식 - 일반한식","category":"restaurant"}]},{"lat":"37.009352679","long":"127.27326889","imageIndex":4,"items":[{"name":"돈까스가게","tel":"031-673-6464","addr":"경기도 안성시 숭인동 41번지","indutype":"일반휴게음식 - 서양음식","category":"restaurant"}]},{"lat":"37.00924227","long":"127.27426847","imageIndex":4,"items":[{"name":"만다린","tel":"031-671-3251","addr":"경기도 안성시 숭인동 8번지 2층","indutype":"일반휴게음식 - 중국식","category":"restaurant"}]},{"lat":"37.009550733","long":"127.27334824","imageIndex":4,"items":[{"name":"숭인식당","tel":"031-672-5599","addr":"경기도 안성시 숭인동 33-3번지","indutype":"일반휴게음식 - 일반한식","category":"restaurant"}]},{"lat":"37.008110037","long":"127.27290496","imageIndex":4,"items":[{"name":"언폴드","tel":"","addr":"경기도 안성시 숭인동 70-5번지","indutype":"일반휴게음식 - 서양음식","category":"restaurant"}]},{"lat":"37.008243045","long":"127.27384921","imageIndex":4,"items":[{"name":"오향족발","tel":"031-672-2121","addr":"경기도 안성시 숭인동 15-3번지","indutype":"일반휴게음식 - 일반한식","category":"restaurant"}]},{"lat":"37.00805472","long":"127.2734553","imageIndex":4,"items":[{"name":"짬뽕의 꿈","tel":"031-675-7272","addr":"경기도 안성시 숭인동 67-1번지","indutype":"일반휴게음식 - 중국식","category":"restaurant"}]},{"lat":"37.009107445","long":"127.27412193","imageIndex":4,"items":[{"name":"청정 한우마을 정육식당","tel":"031-672-1224","addr":"경기도 안성시 숭인동 9-1번지","indutype":"일반휴게음식 - 일반한식","category":"restaurant"}]},{"lat":"37.010187069","long":"127.27484486","imageIndex":4,"items":[{"name":"플라잉볼익스프레스 안성점","tel":"031-676-0600","addr":"경기도 안성시 숭인동 1-4번지","indutype":"일반휴게음식 - 서양음식","category":"restaurant"}]},{"lat":"37.009720421","long":"127.27401175","imageIndex":4,"items":[{"name":"한양장칼국수보쌈","tel":"031-674-0175","addr":"경기도 안성시 숭인동 29번지","indutype":"일반휴게음식 - 일반한식","category":"restaurant"}]},{"lat":"37.007937582","long":"127.27345488","imageIndex":17,"items":[{"name":"금호복층유리","tel":"031-673-4906","addr":"경기도 안성시 숭인동 68번지","indutype":"건축자재 - 유리","category":"other"}]},{"lat":"37.00874733","long":"127.27398583","imageIndex":17,"items":[{"name":"만능하우징설비","tel":"031-676-6886","addr":"경기도 안성시 숭인동 12번지","indutype":"건축자재 - 인테리어전문","category":"other"}]},{"lat":"37.00780273","long":"127.27331958","imageIndex":17,"items":[{"name":"쌍둥이네농원","tel":"031-677-3897","addr":"경기도 안성시 숭인동 73번지 중앙연립 101호","indutype":"회원제형태 - 기타1","category":"other"}]},{"lat":"37.012131911","long":"127.27548101","imageIndex":17,"items":[{"name":"씨유안성동신점","tel":"031-674-1795","addr":"경기도 안성시 숭인동 88번지 동신아파트","indutype":"유통업 영리 - 편 의 점","category":"other"}]},{"lat":"37.008943841","long":"127.27473931","imageIndex":17,"items":[{"name":"안성시건강가정다문화가족지원센터/아이돌","tel":"031-674-0130","addr":"경기도 안성시 숭인동 296-5번지","indutype":"기타 - 비영리/대상","category":"other"}]},{"lat":"37.010243984","long":"127.27359789","imageIndex":17,"items":[{"name":"예림","tel":"031-671-0348","addr":"경기도 안성시 숭인동 24-1번지","indutype":"서적문구 - 출판 및 인쇄물","category":"other"}]},{"lat":"37.010216568","long":"127.27376633","imageIndex":17,"items":[{"name":"주식회사제이솔루션","tel":"031-675-5169","addr":"경기도 안성시 숭인동 23번지 1층","indutype":"기타 - 기계공구","category":"other"}]},{"lat":"37.009972461","long":"127.27412501","imageIndex":17,"items":[{"name":"하나정보통신","tel":"031-676-9647","addr":"경기도 안성시 숭인동 21번지","indutype":"사무통신 - 컴퓨터","category":"other"}]},{"lat":"37.008189622","long":"127.27356813","imageIndex":13,"items":[{"name":"김현숙헤어랩","tel":"031-677-9876","addr":"경기도 안성시 숭인동 66-3번지","indutype":"보건위생 - 미용원","category":"beauty"}]},{"lat":"37.010080203","long":"127.27429393","imageIndex":13,"items":[{"name":"마리헤어 (Mary's hair)","tel":"031-673-2063","addr":"경기도 안성시 숭인동 20번지 1층","indutype":"보건위생 - 미용원","category":"beauty"}]},{"lat":"37.009972461","long":"127.27412501","imageIndex":13,"items":[{"name":"전가머리방","tel":"031-673-9747","addr":"경기도 안성시 숭인동 21번지","indutype":"보건위생 - 미용원","category":"beauty"}]},{"lat":"37.012131911","long":"127.27548101","imageIndex":7,"items":[{"name":"동신마트","tel":"031-675-9876","addr":"경기도 안성시 숭인동 88번지","indutype":"유통업 영리 - 슈퍼마켓","category":"mart"}]},{"lat":"37.009827341","long":"127.27454021","imageIndex":7,"items":[{"name":"주식회사와이앤(YN)","tel":"031-677-7771","addr":"경기도 안성시 숭인동 3번지","indutype":"유통업 영리 - 슈퍼마켓","category":"mart"}]},{"lat":"37.00829908","long":"127.27298427","imageIndex":13,"items":[{"name":"아싸!실내낚시터","tel":"031-674-3393","addr":"경기도 안성시 숭인동 62-1번지 1층","indutype":"레저업소 - 기타레져업소","category":"leisure"}]},{"lat":"37.009972461","long":"127.27412501","imageIndex":16,"items":[{"name":"종로고시원","tel":"031-673-8810","addr":"경기도 안성시 숭인동 21번지","indutype":"학원 - 독서실","category":"study"}]}]