[{"lat":"37.526572565","long":"127.19264294","imageIndex":0,"items":[{"name":"(주)일광","tel":"031-426-6565","addr":"경기도 하남시 춘궁동 208-3번지","indutype":"자동차정비 유지 - 자동차부품","category":"car"}]},{"lat":"37.525124675","long":"127.19653079","imageIndex":0,"items":[{"name":"REBIRTH DETAILING(리버스디테일링)","tel":"070-9165-2059","addr":"경기도 하남시 춘궁동 233-2번지","indutype":"자동차정비 유지 - 카인테리어","category":"car"},{"name":"스마트존","tel":"031-797-9917","addr":"경기도 하남시 춘궁동 233-2번지 2층","indutype":"자동차정비 유지 - 카인테리어","category":"car"},{"name":"킴스게러지","tel":"031-795-2849","addr":"경기도 하남시 춘궁동 233-2번지","indutype":"자동차정비 유지 - 자동차정비","category":"car"}]},{"lat":"37.521905847","long":"127.19239356","imageIndex":0,"items":[{"name":"경안상사","tel":"031-795-7013","addr":"경기도 하남시 춘궁동 337-1","indutype":"자동차정비 유지 - 자동차부품","category":"car"}]},{"lat":"37.521069964","long":"127.17945056","imageIndex":0,"items":[{"name":"농업회사법린 주식회사 이원산업개발","tel":"02-6928-2140","addr":"경기도 하남시 춘궁동 538번지","indutype":"자동차정비 유지 - 주차장","category":"car"}]},{"lat":"37.522045641","long":"127.18947539","imageIndex":0,"items":[{"name":"대영자동차공업사","tel":"02-486-3600","addr":"경기도 하남시 춘궁동 315-1번지","indutype":"자동차정비 유지 - 자동차정비","category":"car"}]},{"lat":"37.524988152","long":"127.19736757","imageIndex":0,"items":[{"name":"명가프로테크","tel":"02-2226-5082","addr":"경기도 하남시 춘궁동 239-2번지","indutype":"자동차정비 유지 - 자동차부품","category":"car"},{"name":"주식회사 비기","tel":"031-2235-6082","addr":"경기도 하남시 춘궁동 239-2번지","indutype":"자동차정비 유지 - 자동차부품","category":"car"}]},{"lat":"37.525602789","long":"127.19617003","imageIndex":0,"items":[{"name":"비에이컴퍼니(BA company)","tel":"031-796-2692","addr":"경기도 하남시 춘궁동 184-2번지 1층","indutype":"자동차정비 유지 - 자동차부품","category":"car"},{"name":"휠링(wheelling)","tel":"","addr":"경기도 하남시 춘궁동 184-2번지 1층","indutype":"자동차정비 유지 - 자동차시트·타이어","category":"car"}]},{"lat":"37.524847311","long":"127.19534226","imageIndex":0,"items":[{"name":"선우시트","tel":"031-793-8629","addr":"경기도 하남시 춘궁동 226-4번지","indutype":"자동차정비 유지 - 자동차부품","category":"car"}]},{"lat":"37.522678855","long":"127.19353805","imageIndex":0,"items":[{"name":"세광카서비스","tel":"031-794-1252","addr":"경기도 하남시 춘궁동 328-1.1동1,12호","indutype":"자동차정비 유지 - 자동차부품","category":"car"}]},{"lat":"37.529293866","long":"127.19797835","imageIndex":0,"items":[{"name":"용킷트모터코리아(주)","tel":"031-792-2751","addr":"경기도 하남시 춘궁동 18번지","indutype":"자동차판매 - 이륜차판매","category":"car"}]},{"lat":"37.521991724","long":"127.19500688","imageIndex":0,"items":[{"name":"주식회사 강남명품타이어","tel":"031-0000-0000","addr":"경기도 하남시 춘궁동 360-3번지 1층","indutype":"자동차정비 유지 - 자동차시트·타이어","category":"car"}]},{"lat":"37.521071632","long":"127.19567192","imageIndex":0,"items":[{"name":"주식회사 지엠디스쿠터","tel":"070-8869-6050","addr":"경기도 하남시 춘궁동 379-1번지","indutype":"자동차판매 - 이륜차판매","category":"car"}]},{"lat":"37.525402977","long":"127.19714239","imageIndex":0,"items":[{"name":"지엠대우하남정비코너","tel":"031-791-8257","addr":"경기도 하남시 춘궁동 177-7번지","indutype":"자동차정비 유지 - 자동차부품","category":"car"}]},{"lat":"37.523961216","long":"127.19725178","imageIndex":0,"items":[{"name":"흑마샵","tel":"031-796-1126","addr":"경기도 하남시 춘궁동 242-6번지","indutype":"자동차정비 유지 - 자동차정비","category":"car"}]}]