[{"lat":"37.8208149","long":"127.21599518","imageIndex":17,"items":[{"name":"LK음향","tel":"031-541-5131","addr":"경기도 포천시 가산면 우금리 283-10","indutype":"전기제품 - 기타전기제품","category":"other"}]},{"lat":"37.832313036","long":"127.20455534","imageIndex":17,"items":[{"name":"경기패션방화문","tel":"031-542-2232","addr":"경기도 포천시 가산면 우금리 708-1번지","indutype":"건축자재 - 기타건축자재","category":"other"}]},{"lat":"37.820273017","long":"127.2117005","imageIndex":17,"items":[{"name":"굿모닝골프존","tel":"541-4600","addr":"경기도 포천시 가산면 우금리 275-3번지","indutype":"서비스 - 골프연습장","category":"other"}]},{"lat":"37.837785102","long":"127.21294267","imageIndex":17,"items":[{"name":"금강기계공업","tel":"031-535-0924","addr":"경기도 포천시 가산면 우금리 569-9","indutype":"기타 - 기계공구","category":"other"},{"name":"와이디에스","tel":"031-535-0944","addr":"경기도 포천시 가산면 우금리 569-9번지 3호","indutype":"기타 - 기계공구","category":"other"}]},{"lat":"37.836728915","long":"127.21410975","imageIndex":17,"items":[{"name":"대봉폴리","tel":"031-543-5199","addr":"경기도 포천시 가산면 우금리 542번지","indutype":"유통업 영리 - 기타유통업","category":"other"}]},{"lat":"37.83123125","long":"127.20493861","imageIndex":17,"items":[{"name":"대일편의점","tel":"031-543-1162","addr":"경기도 포천시 가산면 우금리 708-33번지 1층","indutype":"유통업 영리 - 편 의 점","category":"other"},{"name":"대일편의점","tel":"","addr":"경기도 포천시 가산면 우금리 708-33번지","indutype":"소매업 - 편의점","category":"other"}]},{"lat":"37.830807049","long":"127.20538046","imageIndex":17,"items":[{"name":"라포마 코리아(LaForma Korea)","tel":"031-544-9913","addr":"경기도 포천시 가산면 우금리 708-26번지","indutype":"가구 - 일반가구","category":"other"}]},{"lat":"37.822701459","long":"127.21400163","imageIndex":17,"items":[{"name":"루힐 사운드","tel":"031-541-5131","addr":"경기도 포천시 가산면 우금리 282-21번지","indutype":"전기제품 - 기타전기제품","category":"other"}]},{"lat":"37.821642462","long":"127.211693","imageIndex":17,"items":[{"name":"바로인터내셔널","tel":"","addr":"경기도 포천시 가산면 우금리 277-6번지","indutype":"전기제품 - 기타전기제품","category":"other"}]},{"lat":"37.835809554","long":"127.21433433","imageIndex":17,"items":[{"name":"블래스 캣","tel":"031-541-6697","addr":"경기도 포천시 가산면 우금리 509-5번지","indutype":"가구 - 일반가구","category":"other"}]},{"lat":"37.831952466","long":"127.20466795","imageIndex":17,"items":[{"name":"성남전기","tel":"031-542-1816","addr":"경기도 포천시 가산면 우금리 708-25","indutype":"전기제품 - 기타전기제품","category":"other"}]},{"lat":"37.823391908","long":"127.21077794","imageIndex":17,"items":[{"name":"세븐일레븐포천우금리점","tel":"031-1577-0711","addr":"경기도 포천시 가산면 우금리 296-4번지","indutype":"유통업 영리 - 편 의 점","category":"other"}]},{"lat":"37.831420544","long":"127.20488233","imageIndex":17,"items":[{"name":"수성지게차","tel":"031-542-6092","addr":"경기도 포천시 가산면 우금리 708-28","indutype":"기타 - 기계공구","category":"other"}]},{"lat":"37.831418434","long":"127.20610912","imageIndex":17,"items":[{"name":"씨유포천우금리점","tel":"031-544-6571","addr":"경기도 포천시 가산면 우금리 706번지 1층","indutype":"유통업 영리 - 편 의 점","category":"other"}]},{"lat":"37.837229046","long":"127.21152108","imageIndex":17,"items":[{"name":"영광섬유","tel":"","addr":"경기도 포천시 가산면 우금리 571-1번지","indutype":"직물 - 기타직물","category":"other"}]},{"lat":"37.825871841","long":"127.21452178","imageIndex":17,"items":[{"name":"은광스포츠","tel":"","addr":"경기도 포천시 가산면 우금리 337번지","indutype":"레져용품 - 스포츠·레져용품","category":"other"},{"name":"은광스포츠","tel":"031-544-4990","addr":"경기도 포천시 가산면 우금리 337","indutype":"레져용품 - 스포츠·레져용품","category":"other"}]},{"lat":"37.831059916","long":"127.20502902","imageIndex":17,"items":[{"name":"이륙기계","tel":"031-544-3252","addr":"경기도 포천시 가산면 우금리 708-36","indutype":"기타 - 기계공구","category":"other"}]},{"lat":"37.833113505","long":"127.20535268","imageIndex":17,"items":[{"name":"인터산업","tel":"031-542-3360","addr":"경기도 포천시 가산면 우금리 677","indutype":"건축자재 - 기타건축자재","category":"other"}]},{"lat":"37.837285549","long":"127.21013531","imageIndex":17,"items":[{"name":"주식회사 가구느낌","tel":"031-542-0786","addr":"경기도 포천시 가산면 우금리 628번지","indutype":"가구 - 일반가구","category":"other"}]},{"lat":"37.837059294","long":"127.21071404","imageIndex":17,"items":[{"name":"주식회사 가은텍스","tel":"070-7703-0316","addr":"경기도 포천시 가산면 우금리 629번지","indutype":"직물 - 옷감·직물","category":"other"}]},{"lat":"37.829121613","long":"127.20577341","imageIndex":17,"items":[{"name":"주식회사 백호종합정비","tel":"031-544-9903","addr":"경기도 포천시 가산면 우금리 709-3번지","indutype":"수리서비스 - 기타수리서비스","category":"other"}]},{"lat":"37.839782272","long":"127.21952604","imageIndex":17,"items":[{"name":"즐거운나들이관광농원","tel":"","addr":"경기도 포천시 가산면 우금리 93-2","indutype":"문화.취미 - 티켓","category":"other"}]},{"lat":"37.839560803","long":"127.21746915","imageIndex":17,"items":[{"name":"코리아나스포츠","tel":"031-542-0618","addr":"경기도 포천시 가산면 우금리 102번지","indutype":"레져용품 - 스포츠·레져용품","category":"other"}]},{"lat":"37.833754683","long":"127.21969016","imageIndex":17,"items":[{"name":"푸른초장","tel":"","addr":"경기도 포천시 가산면 우금리 173-2번지","indutype":"문화.취미 - 화원","category":"other"}]}]