[{"lat":"37.288627952","long":"127.06218819","imageIndex":17,"items":[{"name":"(주)기획하는 아망","tel":"070-0000-0000","addr":"경기도 수원시 영통구 하동 1014번지 광교힐스테이트레이크 101동 2704호","indutype":"의류 - 정장","category":"other"},{"name":"(주)와이에스인터내셔날","tel":"070-4100-8585","addr":"경기도 수원시 영통구 하동 1014번지 광교힐스테이트레이크 103동 405호","indutype":"신변잡화 - 신발","category":"other"},{"name":"리안","tel":"031-276-1015","addr":"경기도 수원시 영통구 하동 1014번지 광교힐스테이트레이크 101동 3304호","indutype":"문화.취미 - 화원","category":"other"},{"name":"베스트세탁","tel":"031-214-3650","addr":"경기도 수원시 영통구 하동 1014번지 광교힐스테이트레이크 상가동 109호","indutype":"수리서비스 - 세탁소","category":"other"},{"name":"세븐일레븐광교호수점","tel":"031-1577-0711","addr":"경기도 수원시 영통구 하동 1014번지 광교힐스테이트레이크근린생활시성동 107호","indutype":"유통업 영리 - 편 의 점","category":"other"}]},{"lat":"37.293930538","long":"127.07049287","imageIndex":17,"items":[{"name":"(주)빅싱","tel":"031-896-9535","addr":"경기도 수원시 영통구 하동 959-2번지","indutype":"레져용품 - 스포츠·레져용품","category":"other"}]},{"lat":"37.28693374","long":"127.06275071","imageIndex":17,"items":[{"name":"(주)알라포헤","tel":"031-890-3838","addr":"경기도 수원시 영통구 하동 1019번지 광교더샵레이크파크 B30호","indutype":"신변잡화 - 기타잡화","category":"other"},{"name":"더사랑마트","tel":"031-215-4860","addr":"경기도 수원시 영통구 하동 1019번지 광교거샵 B1층 레이크파크 24호","indutype":"유통업 영리 - 편 의 점","category":"other"},{"name":"레이크 펫 스튜디오","tel":"031-547-9767","addr":"경기도 수원시 영통구 하동 1019번지 상가동 B13호","indutype":"문화.취미 - 애완동물","category":"other"},{"name":"말랑","tel":"031-0000-0000","addr":"경기도 수원시 영통구 하동 1019번지 광교더샵레이크파크 지층 B16호","indutype":"의류 - 아동의류","category":"other"},{"name":"미래로모터스 광교점","tel":"031-211-0664","addr":"경기도 수원시 영통구 하동 1019번지 제지1층 B35호","indutype":"레져용품 - 스포츠·레져용품","category":"other"},{"name":"씨유광교더샵레이크파크점","tel":"031-898-6569","addr":"경기도 수원시 영통구 하동 1019번지 광교더샵레이크파크 판매시설동 107호","indutype":"유통업 영리 - 편 의 점","category":"other"},{"name":"에이닷 LAKESIDE","tel":"","addr":"경기도 수원시 영통구 하동 1019번지 광교더샵레이크파크 판매시설동 B1층 비27호","indutype":"의류 - 정장","category":"other"},{"name":"조삼원 GH natural","tel":"031-899-8658","addr":"경기도 수원시 영통구 하동 1019번지 광교더샵레이크파크 101동 401호","indutype":"직물 - 침구·수예점","category":"other"},{"name":"트리밍 매직","tel":"","addr":"경기도 수원시 영통구 하동 1019번지 광교더샵레이크파크 지하1층 B29호","indutype":"문화.취미 - 애완동물","category":"other"}]},{"lat":"37.292237642","long":"127.06866438","imageIndex":17,"items":[{"name":"(주)투힘(TWOHIM)","tel":"031-309-0878","addr":"경기도 수원시 영통구 하동 984번지 그랜드프라자 401-1호","indutype":"신변잡화 - 기타잡화","category":"other"},{"name":"고운속기사무소","tel":"031-276-5635","addr":"경기도 수원시 영통구 하동 984번지 115호","indutype":"용역 서비스 - 사무서비스","category":"other"},{"name":"김덕환변호사사무소","tel":"031-213-1144","addr":"경기도 수원시 영통구 하동 984번지 그랜드프라자 407-1호","indutype":"용역 서비스 - 법률회계서비스(개인)","category":"other"},{"name":"동화경매","tel":"031-212-7765","addr":"경기도 수원시 영통구 하동 984번지 4층 7호","indutype":"용역 서비스 - 사무서비스","category":"other"},{"name":"법률사무소 종해","tel":"031-213-0400","addr":"경기도 수원시 영통구 하동 984번지 4층 401-2호","indutype":"용역 서비스 - 법률회계서비스(개인)","category":"other"},{"name":"법률사무소 지율","tel":"031-211-2006","addr":"경기도 수원시 영통구 하동 984번지 그랜드프라자 3층 305호","indutype":"용역 서비스 - 법률회계서비스(개인)","category":"other"},{"name":"법률사무소 지율","tel":"031-211-2006","addr":"경기도 수원시 영통구 하동 984번지 305호","indutype":"용역 서비스 - 법률회계서비스(개인)","category":"other"},{"name":"법률사무소 지한","tel":"031-546-1511","addr":"경기도 수원시 영통구 하동 984번지 505호","indutype":"용역 서비스 - 법률회계서비스(개인)","category":"other"},{"name":"법률사무소 지한","tel":"031-546-1511","addr":"경기도 수원시 영통구 하동 984번지 504호","indutype":"용역 서비스 - 법률회계서비스(개인)","category":"other"},{"name":"법률사무소동하","tel":"031-548-1194","addr":"경기도 수원시 영통구 하동 984번지 4층 405호","indutype":"용역 서비스 - 법률회계서비스(개인)","category":"other"},{"name":"변호사 김예진 법률사무소","tel":"031-211-2006","addr":"경기도 수원시 영통구 하동 984번지 305호","indutype":"용역 서비스 - 법률회계서비스(개인)","category":"other"},{"name":"변호사 김헌기 법률사무소","tel":"031-214-5502","addr":"경기도 수원시 영통구 하동 984번지 503호","indutype":"용역 서비스 - 법률회계서비스(개인)","category":"other"},{"name":"변호사 송지영 법률사무소","tel":"031-215-9377","addr":"경기도 수원시 영통구 하동 984번지 301-2호","indutype":"용역 서비스 - 법률회계서비스(개인)","category":"other"},{"name":"변호사유형빈법률사무소","tel":"031-214-5503","addr":"경기도 수원시 영통구 하동 984번지 503호","indutype":"용역 서비스 - 법률회계서비스(개인)","category":"other"},{"name":"변호사한병의법률사무소","tel":"031-212-8811","addr":"경기도 수원시 영통구 하동 984번지 502호","indutype":"용역 서비스 - 법률회계서비스(개인)","category":"other"},{"name":"사라디자인","tel":"","addr":"경기도 수원시 영통구 하동 984번지 그랜드프라자 1층 115호","indutype":"용역 서비스 - 사무서비스","category":"other"},{"name":"아이지에이마트 광교법조타운점","tel":"","addr":"경기도 수원시 영통구 하동 984번지 124호","indutype":"유통업 영리 - 편 의 점","category":"other"},{"name":"이한세무회계컨설팅","tel":"031-241-2285","addr":"경기도 수원시 영통구 하동 984번지 그랜드프라자 3층 301-1호","indutype":"용역 서비스 - 법률회계서비스(개인)","category":"other"},{"name":"장수진 법률사무소","tel":"031-000-0000","addr":"경기도 수원시 영통구 하동 984번지 그랜드프라자 506호","indutype":"용역 서비스 - 법률회계서비스(개인)","category":"other"},{"name":"제일종합법무법인","tel":"031-215-0434","addr":"경기도 수원시 영통구 하동 984번지 그랜드프라자 507-2호","indutype":"용역 서비스 - 법률회계서비스(법인)","category":"other"},{"name":"하민법무사사무소","tel":"031-212-2977","addr":"경기도 수원시 영통구 하동 984번지 122호","indutype":"용역 서비스 - 법률회계서비스(개인)","category":"other"}]},{"lat":"37.291986374","long":"127.06680336","imageIndex":17,"items":[{"name":"FUN BIKE (펀바이크)","tel":"031-215-3337","addr":"경기도 수원시 영통구 하동 987-5번지 광교법조프라자 101호","indutype":"레져용품 - 스포츠·레져용품","category":"other"},{"name":"법률사무소 이룸","tel":"031-476-4117","addr":"경기도 수원시 영통구 하동 987-5번지 402호","indutype":"용역 서비스 - 법률회계서비스(개인)","category":"other"},{"name":"법률사무소소율","tel":"031-216-1555","addr":"경기도 수원시 영통구 하동 987-5번지 302호","indutype":"용역 서비스 - 법률회계서비스(개인)","category":"other"},{"name":"아트디자인 광교법조타운점","tel":"070-4649-1102","addr":"경기도 수원시 영통구 하동 987-5번지 범조프라자 104호","indutype":"건축자재 - 인테리어전문","category":"other"},{"name":"오피스디자인","tel":"031-214-7488","addr":"경기도 수원시 영통구 하동 987-5번지 1층 111호","indutype":"용역 서비스 - 사무서비스","category":"other"},{"name":"이기영변호사사무실","tel":"031-216-7781","addr":"경기도 수원시 영통구 하동 987-5번지 광교법조프라자 401호","indutype":"용역 서비스 - 법률회계서비스(개인)","category":"other"},{"name":"해피광고디자인","tel":"070-4649-1101","addr":"경기도 수원시 영통구 하동 987-5번지 1층 104호","indutype":"신변잡화 - 기념품점","category":"other"}]},{"lat":"37.295318853","long":"127.08368948","imageIndex":17,"items":[{"name":"GS25광교40단지점","tel":"","addr":"경기도 수원시 영통구 하동 1001번지 광교마을40단지 상가동 101호","indutype":"유통업 영리 - 편 의 점","category":"other"},{"name":"광교세탁소","tel":"031-213-5051","addr":"경기도 수원시 영통구 하동 1001번지 광교마을40단지 상가동 206호","indutype":"수리서비스 - 세탁소","category":"other"},{"name":"크린토피아 수원광교마을점","tel":"031-248-5834","addr":"경기도 수원시 영통구 하동 1001번지 광교마을40단지 상가동 1층 103,104호","indutype":"수리서비스 - 세탁소","category":"other"}]},{"lat":"37.29273277","long":"127.06944298","imageIndex":17,"items":[{"name":"GS25광교센터점","tel":"","addr":"경기도 수원시 영통구 하동 972번지","indutype":"유통업 영리 - 편 의 점","category":"other"},{"name":"라운드(ROUND)127","tel":"031-215-5127","addr":"경기도 수원시 영통구 하동 972번지 101호","indutype":"의류 - 정장","category":"other"}]},{"lat":"37.29092873","long":"127.07289228","imageIndex":17,"items":[{"name":"GS25광교참누리점","tel":"031-9278-1520","addr":"경기도 수원시 영통구 하동 994번지 광교호수마을참누리레이크 1층 108호","indutype":"유통업 영리 - 편 의 점","category":"other"},{"name":"참누리명품세탁소","tel":"031-217-3133","addr":"경기도 수원시 영통구 하동 994번지 광교호수마을참누리레이크 상가동 106호","indutype":"수리서비스 - 세탁소","category":"other"}]},{"lat":"37.285121765","long":"127.06453097","imageIndex":17,"items":[{"name":"GS25광교힐스점","tel":"","addr":"경기도 수원시 영통구 하동 1021번지 힐스테이트광교상가 301동 127호","indutype":"유통업 영리 - 편 의 점","category":"other"},{"name":"구름콩","tel":"031-8002-4247","addr":"경기도 수원시 영통구 하동 1021번지 힐스테이트광교 103동 1301호","indutype":"신변잡화 - 액세서리","category":"other"},{"name":"이마트24 광교호수공원점","tel":"031-000-0000","addr":"경기도 수원시 영통구 하동 1021번지 힐스테이트광교 148호","indutype":"유통업 영리 - 편 의 점","category":"other"},{"name":"호수세탁","tel":"031-211-7770","addr":"경기도 수원시 영통구 하동 1021번지 힐스테이트광교 301동 107호","indutype":"수리서비스 - 세탁소","category":"other"}]},{"lat":"37.292705171","long":"127.07044667","imageIndex":17,"items":[{"name":"K. raft studio","tel":"031-213-7879","addr":"경기도 수원시 영통구 하동 972-5번지 102호","indutype":"의류 - 정장","category":"other"},{"name":"사진에 반하다 스튜디오","tel":"031-213-0724","addr":"경기도 수원시 영통구 하동 972-5번지 1층 101호","indutype":"광학제품 - 사진관","category":"other"}]},{"lat":"37.293291626","long":"127.06904875","imageIndex":17,"items":[{"name":"가온누리","tel":"031-232-1080","addr":"경기도 수원시 영통구 하동 967번지 1층","indutype":"기타 - 기계공구","category":"other"},{"name":"디자인4U","tel":"031-206-2347","addr":"경기도 수원시 영통구 하동 967번지 101호","indutype":"건축자재 - 인테리어전문","category":"other"}]},{"lat":"37.293704593","long":"127.07168812","imageIndex":17,"items":[{"name":"가와공방","tel":"","addr":"경기도 수원시 영통구 하동 960-4번지 1층","indutype":"문화.취미 - 문화취미기타","category":"other"}]},{"lat":"37.291931877","long":"127.06760403","imageIndex":17,"items":[{"name":"골든플라워","tel":"031-000-0000","addr":"경기도 수원시 영통구 하동 986번지 오름법조프라자 1층 107호","indutype":"문화.취미 - 화원","category":"other"},{"name":"율탑법률사무소","tel":"031-212-2323","addr":"경기도 수원시 영통구 하동 986번지 402호","indutype":"용역 서비스 - 법률회계서비스(개인)","category":"other"}]},{"lat":"37.294455186","long":"127.08173747","imageIndex":17,"items":[{"name":"골프클럽연구소","tel":"031-286-3345","addr":"경기도 수원시 영통구 하동 1001번지 광교마을40단지 4003동 29층 02호","indutype":"레져용품 - 골프용품 전문점","category":"other"},{"name":"모모","tel":"031-291-0279","addr":"경기도 수원시 영통구 하동 1001번지 광교마을40단지 4003동 304호","indutype":"가구 - 일반가구","category":"other"}]},{"lat":"37.293543239","long":"127.07024442","imageIndex":17,"items":[{"name":"공증인황순헌사무소","tel":"031-214-5599","addr":"경기도 수원시 영통구 하동 965-5번지","indutype":"용역 서비스 - 법률회계서비스(개인)","category":"other"}]},{"lat":"37.29334434","long":"127.07141713","imageIndex":17,"items":[{"name":"광교골프","tel":"031-215-0013","addr":"경기도 수원시 영통구 하동 962번지 1층","indutype":"레져용품 - 골프용품 전문점","category":"other"}]},{"lat":"37.291509512","long":"127.0655286","imageIndex":17,"items":[{"name":"광교공인외국어번역행정사사무소","tel":"031-217-0509","addr":"경기도 수원시 영통구 하동 987번지 5층 505호","indutype":"용역 서비스 - 법률회계서비스(개인)","category":"other"},{"name":"제이에이치허특허법률사무소","tel":"031-216-6788","addr":"경기도 수원시 영통구 하동 987번지 드림타워4 5층 504호","indutype":"용역 서비스 - 법률회계서비스(개인)","category":"other"}]},{"lat":"37.288016018","long":"127.06064276","imageIndex":17,"items":[{"name":"광교사진관(원스포토수원점)","tel":"070-4245-2981","addr":"경기도 수원시 영통구 하동 1016번지 광교효성해링턴타워 A동 615호","indutype":"광학제품 - 사진관","category":"other"},{"name":"씨유광교해링턴점","tel":"080-080-3663","addr":"경기도 수원시 영통구 하동 1016번지 광교효성해링턴타워 1층 123호","indutype":"유통업 영리 - 편 의 점","category":"other"},{"name":"월드패밀리잉글리쉬수원지사","tel":"031-215-0902","addr":"경기도 수원시 영통구 하동 1016번지 광교효성해링턴타워 3층 332호","indutype":"서적문구 - 기타서적문구","category":"other"}]},{"lat":"37.291905434","long":"127.06652136","imageIndex":17,"items":[{"name":"광교스마트 전자담배","tel":"031-213-0170","addr":"경기도 수원시 영통구 하동 987-4번지 신명프라자 2차 104호","indutype":"기타 - 기타 전문점","category":"other"},{"name":"김호운세무회계","tel":"070-7700-8845","addr":"경기도 수원시 영통구 하동 987-4번지 신명프라자 401호","indutype":"용역 서비스 - 법률회계서비스(개인)","category":"other"},{"name":"법률사무소 천선","tel":"","addr":"경기도 수원시 영통구 하동 987-4번지 신명프라자 4층 401, 402호","indutype":"용역 서비스 - 법률회계서비스(개인)","category":"other"},{"name":"변화사최성중법률사무소","tel":"031-217-1114","addr":"경기도 수원시 영통구 하동 987-4번지 신명프라자 3층 301호","indutype":"용역 서비스 - 법률회계서비스(개인)","category":"other"}]},{"lat":"37.292794716","long":"127.07141663","imageIndex":17,"items":[{"name":"광교컴퓨터","tel":"031-215-6119","addr":"경기도 수원시 영통구 하동 971-3번지 1층 103호","indutype":"사무통신 - 컴퓨터","category":"other"}]},{"lat":"37.29170538","long":"127.06983679","imageIndex":17,"items":[{"name":"광교플러스복사","tel":"031-217-4710","addr":"경기도 수원시 영통구 하동 979번지 105,106호","indutype":"용역 서비스 - 사무서비스","category":"other"},{"name":"법률사무소 수영","tel":"031-212-3210","addr":"경기도 수원시 영통구 하동 979번지 광교지연빌딩 2층 201호","indutype":"용역 서비스 - 법률회계서비스(개인)","category":"other"},{"name":"한산이씨호응공파종중(광교지연빌딩)","tel":"","addr":"경기도 수원시 영통구 하동 979번지","indutype":"용역 서비스 - 부동산 중개·임대","category":"other"}]},{"lat":"37.293038044","long":"127.07132663","imageIndex":17,"items":[{"name":"그루메이트(Groomate)","tel":"031-000-0000","addr":"경기도 수원시 영통구 하동 962-4번지 102호","indutype":"문화.취미 - 애완동물","category":"other"}]},{"lat":"37.292759693","long":"127.06963472","imageIndex":17,"items":[{"name":"나리언니네","tel":"070-7018-5364","addr":"경기도 수원시 영통구 하동 972-1번지 103호","indutype":"의류 - 정장","category":"other"},{"name":"마이주(MyJoo)","tel":"070-1111-1111","addr":"경기도 수원시 영통구 하동 972-1번지 1층 102호","indutype":"의류 - 아동의류","category":"other"}]},{"lat":"37.29415571","long":"127.07063969","imageIndex":17,"items":[{"name":"낭만고양이 (광교점)","tel":"","addr":"경기도 수원시 영통구 하동 957-12번지 1층","indutype":"문화.취미 - 애완동물","category":"other"},{"name":"디자인 아틀리에 어반 플럭스","tel":"031-000-0000","addr":"경기도 수원시 영통구 하동 957-12번지 4층","indutype":"서적문구 - 출판 및 인쇄물","category":"other"},{"name":"플라워무드","tel":"031-111-1111","addr":"경기도 수원시 영통구 하동 957-12번지 1층 상가","indutype":"문화.취미 - 화원","category":"other"}]},{"lat":"37.291400914","long":"127.06641943","imageIndex":17,"items":[{"name":"농업회사법인 주식회사 일호","tel":"031-8009-0411","addr":"경기도 수원시 영통구 하동 989번지 원희캐슬광교 B동 10층","indutype":"용역 서비스 - 부동산 중개·임대","category":"other"},{"name":"도시정원","tel":"02-9464-5779","addr":"경기도 수원시 영통구 하동 989번지 원희캐슬광교 D동 1층 115호","indutype":"문화.취미 - 화원","category":"other"},{"name":"드림문구센터","tel":"031-216-5673","addr":"경기도 수원시 영통구 하동 989번지 2층 B-202호","indutype":"서적문구 - 문구용품","category":"other"},{"name":"마이법률사무소(My law firm)","tel":"031-211-2200","addr":"경기도 수원시 영통구 하동 989번지 A동 9층 903호 원희캐슬광교","indutype":"용역 서비스 - 법률회계서비스(개인)","category":"other"},{"name":"문성식법률사무소","tel":"031-217-3307","addr":"경기도 수원시 영통구 하동 989번지 원희캐슬 광교 C동 601호","indutype":"용역 서비스 - 법률회계서비스(개인)","category":"other"},{"name":"바른말녹취","tel":"","addr":"경기도 수원시 영통구 하동 989번지 원희캐슬광교 8층 A804호","indutype":"용역 서비스 - 사무서비스","category":"other"},{"name":"법률사무소 동주","tel":"031-216-1055","addr":"경기도 수원시 영통구 하동 989번지 B동 903호 원희캐슬광교","indutype":"용역 서비스 - 법률회계서비스(개인)","category":"other"},{"name":"법률사무소 동주","tel":"031-216-1155","addr":"경기도 수원시 영통구 하동 989번지 원희캐슬광교 B동 902호","indutype":"용역 서비스 - 법률회계서비스(개인)","category":"other"},{"name":"법률사무소 로앤탑","tel":"031-216-2003","addr":"경기도 수원시 영통구 하동 989번지 원희캐슬광교 3층 A304호","indutype":"용역 서비스 - 법률회계서비스(개인)","category":"other"},{"name":"법률사무소 률","tel":"031-214-7729","addr":"경기도 수원시 영통구 하동 989번지 원희캐슬 광교 A동 8층 808호","indutype":"용역 서비스 - 법률회계서비스(개인)","category":"other"},{"name":"법률사무소 서한","tel":"031-000-0000","addr":"경기도 수원시 영통구 하동 989번지 에이동 709-710호","indutype":"용역 서비스 - 법률회계서비스(개인)","category":"other"},{"name":"법률사무소 정초","tel":"031-213-0016","addr":"경기도 수원시 영통구 하동 989번지 원희캐슬 광교 C동 6층 603호","indutype":"용역 서비스 - 법률회계서비스(개인)","category":"other"},{"name":"법무법인 씨앤케이","tel":"031-216-1399","addr":"경기도 수원시 영통구 하동 989번지 원희캐슬광교 씨동7층701,702호","indutype":"용역 서비스 - 법률회계서비스(법인)","category":"other"},{"name":"법무법인 오킴스","tel":"070-4616-2583","addr":"경기도 수원시 영통구 하동 989번지 원희캐슬 광교 A동 2층 208호","indutype":"용역 서비스 - 법률회계서비스(법인)","category":"other"},{"name":"법무법인 홍재","tel":"031-212-2180","addr":"경기도 수원시 영통구 하동 989번지 B동 801,802호","indutype":"용역 서비스 - 법률회계서비스(법인)","category":"other"},{"name":"법무법인 홍재","tel":"031-214-9400","addr":"경기도 수원시 영통구 하동 989번지 제비동 801,802호","indutype":"용역 서비스 - 법률회계서비스(법인)","category":"other"},{"name":"법무법인 홍재","tel":"031-214-9400","addr":"경기도 수원시 영통구 하동 989번지 제비동 801호,802호","indutype":"용역 서비스 - 법률회계서비스(법인)","category":"other"},{"name":"법무법인 홍재","tel":"031-211-0051","addr":"경기도 수원시 영통구 하동 989번지 제비동 801,802호","indutype":"용역 서비스 - 법률회계서비스(법인)","category":"other"},{"name":"법무법인온","tel":"031-548-2840","addr":"경기도 수원시 영통구 하동 989번지 원희캐슬 광교 비동 701호,702호","indutype":"용역 서비스 - 법률회계서비스(법인)","category":"other"},{"name":"변호사 윤석민 법률사무소","tel":"031-212-1350","addr":"경기도 수원시 영통구 하동 989번지 C동404호 원희캐슬광교","indutype":"용역 서비스 - 법률회계서비스(개인)","category":"other"},{"name":"변호사김근태법률사무소","tel":"031-890-4848","addr":"경기도 수원시 영통구 하동 989번지 원희캐슬광교 A동 601호","indutype":"용역 서비스 - 법률회계서비스(개인)","category":"other"},{"name":"변호사최용석법률사무소","tel":"031-305-1501","addr":"경기도 수원시 영통구 하동 989번지 원희캐슬 광교 A동 601호","indutype":"용역 서비스 - 법률회계서비스(개인)","category":"other"},{"name":"세컨라운드 골프","tel":"031-212-1871","addr":"경기도 수원시 영통구 하동 989번지 원희캐슬광교 지1층 비137호, 비138호, 비139호","indutype":"레져용품 - 골프용품 전문점","category":"other"},{"name":"씨유광교원희캐슬점","tel":"080-080-3663","addr":"경기도 수원시 영통구 하동 989번지 광교원희캐슬법조타운 A동 101호","indutype":"유통업 영리 - 편 의 점","category":"other"},{"name":"오감북스앤키즈","tel":"","addr":"경기도 수원시 영통구 하동 989번지 원희캐슬 광교 A동 10층 1008호","indutype":"서적문구 - 일반서적","category":"other"},{"name":"이마트24 광교법원점","tel":"031-000-0000","addr":"경기도 수원시 영통구 하동 989번지 원희캐슬 광교 C동 1층 109호","indutype":"유통업 영리 - 편 의 점","category":"other"},{"name":"이화케이앤드씨 통번역센터","tel":"031-213-2260","addr":"경기도 수원시 영통구 하동 989번지 원희캐슬 광교 D동 912호","indutype":"용역 서비스 - 사무서비스","category":"other"},{"name":"인성복변호사사무소","tel":"031-211-0080","addr":"경기도 수원시 영통구 하동 989번지 원희캐슬광교법조타운 A동 607,608호","indutype":"용역 서비스 - 법률회계서비스(개인)","category":"other"},{"name":"제이제이 키친","tel":"031-217-0878","addr":"경기도 수원시 영통구 하동 989번지 외 4필지 원희캐슬광교 B동 807호","indutype":"주방용구 - 주방용식기","category":"other"},{"name":"주식회사 서플로","tel":"070-5118-3330","addr":"경기도 수원시 영통구 하동 989번지 원희캐슬광교 C동 319호","indutype":"레져용품 - 스포츠·레져용품","category":"other"},{"name":"케이비 세무회계","tel":"031-214-6821","addr":"경기도 수원시 영통구 하동 989번지 원희캐슬 광교 A동 8층 801호","indutype":"용역 서비스 - 법률회계서비스(개인)","category":"other"},{"name":"하진녹취","tel":"031-111-1111","addr":"경기도 수원시 영통구 하동 989번지 원희캐슬 광교 A동 408호","indutype":"용역 서비스 - 사무서비스","category":"other"},{"name":"황인용법무사사무소","tel":"031-214-2258","addr":"경기도 수원시 영통구 하동 989번지 원희캐슬광교 A동 3층 309호","indutype":"용역 서비스 - 법률회계서비스(개인)","category":"other"}]},{"lat":"37.29303887","long":"127.06988308","imageIndex":17,"items":[{"name":"더브릿지","tel":"031-222-4365","addr":"경기도 수원시 영통구 하동 970-3번지 401호","indutype":"문화.취미 - 티켓","category":"other"}]},{"lat":"37.279875131","long":"127.06944293","imageIndex":17,"items":[{"name":"데레시나","tel":"031-234-6636","addr":"경기도 수원시 영통구 하동 1028번지 광교호반마을22단지 2202동 1602호","indutype":"회원제형태 - 기타4","category":"other"}]},{"lat":"37.289510673","long":"127.06275275","imageIndex":17,"items":[{"name":"데일리룩","tel":"","addr":"경기도 수원시 영통구 하동 1013번지 광교센트럴타운62단지 6202동 402호 상가","indutype":"의류 - 정장","category":"other"}]},{"lat":"37.295787301","long":"127.08381404","imageIndex":17,"items":[{"name":"디어미하스","tel":"","addr":"경기도 수원시 영통구 하동 1001번지 광교마을40단지 4014동 2703호","indutype":"문화.취미 - 문화취미기타","category":"other"}]},{"lat":"37.294012395","long":"127.0691396","imageIndex":17,"items":[{"name":"디자인쏘울 광교(DEZAIN SOUL)","tel":"031-212-9915","addr":"경기도 수원시 영통구 하동 958-10번지","indutype":"건축자재 - 기타건축자재","category":"other"}]},{"lat":"37.293209206","long":"127.07138317","imageIndex":17,"items":[{"name":"디자인월드","tel":"031-215-9800","addr":"경기도 수원시 영통구 하동 962-5번지 1층 101호","indutype":"건축자재 - 인테리어전문","category":"other"},{"name":"삼성경매공인중개사","tel":"031-212-4744","addr":"경기도 수원시 영통구 하동 962-5번지 1층 일부","indutype":"용역 서비스 - 부동산 중개·임대","category":"other"}]},{"lat":"37.292795625","long":"127.06982647","imageIndex":17,"items":[{"name":"라비엔로즈","tel":"070-8778-8787","addr":"경기도 수원시 영통구 하동 972-2 4층 건물중1층상가코너","indutype":"문화.취미 - 화원","category":"other"}]},{"lat":"37.292598438","long":"127.06796548","imageIndex":17,"items":[{"name":"럭키초이스","tel":"031-222-4893","addr":"경기도 수원시 영통구 하동 983-2번지 B1층","indutype":"용역 서비스 - 종합용역","category":"other"},{"name":"법률사무소 건[  ]","tel":"","addr":"경기도 수원시 영통구 하동 983-2번지 탑프라자 4층 406호","indutype":"용역 서비스 - 법률회계서비스(개인)","category":"other"},{"name":"법률사무소 공간[    ]","tel":"031-8007-3046","addr":"경기도 수원시 영통구 하동 983-2번지 탑프라자 4층 406호","indutype":"용역 서비스 - 법률회계서비스(개인)","category":"other"},{"name":"변호사 김동욱 법률사무소","tel":"031-8007-3048","addr":"경기도 수원시 영통구 하동 983-2번지 탑프라자 4층 406호","indutype":"용역 서비스 - 법률회계서비스(개인)","category":"other"},{"name":"변호사노생만법률사무소","tel":"031-211-4711","addr":"경기도 수원시 영통구 하동 983-2번지 403호","indutype":"용역 서비스 - 법률회계서비스(개인)","category":"other"},{"name":"알파문구(광교점)","tel":"031-214-2140","addr":"경기도 수원시 영통구 하동 983-2번지 탑프라자 106호","indutype":"서적문구 - 문구용품","category":"other"}]},{"lat":"37.289924759","long":"127.06350865","imageIndex":17,"items":[{"name":"레이 레이","tel":"","addr":"경기도 수원시 영통구 하동 1013번지 판교센트럴타운62단지 6208동 1301호","indutype":"신변잡화 - 가방","category":"other"}]},{"lat":"37.294092366","long":"127.0711133","imageIndex":17,"items":[{"name":"리비에라 메종 광교","tel":"031-212-1024","addr":"경기도 수원시 영통구 하동 957-15번지 101호","indutype":"가구 - 일반가구","category":"other"}]},{"lat":"37.293345606","long":"127.06919541","imageIndex":17,"items":[{"name":"리알토","tel":"031-232-3736","addr":"경기도 수원시 영통구 하동 967-1번지","indutype":"의류 - 정장","category":"other"}]},{"lat":"37.293787435","long":"127.06860934","imageIndex":17,"items":[{"name":"막스시오광교","tel":"031-213-7058","addr":"경기도 수원시 영통구 하동 968-3번지 1층","indutype":"의류 - 정장","category":"other"}]},{"lat":"37.2916519","long":"127.0687992","imageIndex":17,"items":[{"name":"백현산업개발주식회사","tel":"031-898-4201","addr":"경기도 수원시 영통구 하동 985-3번지 백현법조프라자 706호","indutype":"건축자재 - 인테리어전문","category":"other"},{"name":"법률사무소 디원","tel":"","addr":"경기도 수원시 영통구 하동 985-3번지 2층 202호","indutype":"용역 서비스 - 법률회계서비스(개인)","category":"other"},{"name":"법률사무소 송헌","tel":"031-8081-1094","addr":"경기도 수원시 영통구 하동 985-3번지 백현법조프라자 302호","indutype":"용역 서비스 - 법률회계서비스(개인)","category":"other"}]},{"lat":"37.292427379","long":"127.06771723","imageIndex":17,"items":[{"name":"법률사무소 문현","tel":"031-211-4200","addr":"경기도 수원시 영통구 하동 983-1번지 307-310호","indutype":"용역 서비스 - 법률회계서비스(개인)","category":"other"},{"name":"변호사 이명일 법률사무소","tel":"031-8081-1896","addr":"경기도 수원시 영통구 하동 983-1번지 드림타워-3,505호일부","indutype":"용역 서비스 - 법률회계서비스(개인)","category":"other"}]},{"lat":"37.29145395","long":"127.06830282","imageIndex":17,"items":[{"name":"법률사무소 선율","tel":"031-309-5959","addr":"경기도 수원시 영통구 하동 986-4번지 304호","indutype":"용역 서비스 - 법률회계서비스(개인)","category":"other"},{"name":"법무법인 고원","tel":"031-364-8311","addr":"경기도 수원시 영통구 하동 986-4번지 602호","indutype":"용역 서비스 - 법률회계서비스(법인)","category":"other"},{"name":"법무사 김정준사무소","tel":"031-213-6200","addr":"경기도 수원시 영통구 하동 986-4번지 1층 106호","indutype":"용역 서비스 - 법률회계서비스(개인)","category":"other"},{"name":"법무사 최병문 사무소","tel":"031-212-9995","addr":"경기도 수원시 영통구 하동 986-4번지 광교법조타운 1층 108호","indutype":"용역 서비스 - 법률회계서비스(개인)","category":"other"},{"name":"이기민법률사무소","tel":"031-216-6001","addr":"경기도 수원시 영통구 하동 986-4번지 2층 205호","indutype":"용역 서비스 - 법률회계서비스(개인)","category":"other"},{"name":"조복행법률사무소","tel":"031-213-2211","addr":"경기도 수원시 영통구 하동 986-4번지 301호","indutype":"용역 서비스 - 법률회계서비스(개인)","category":"other"}]},{"lat":"37.291013745","long":"127.06591162","imageIndex":17,"items":[{"name":"법률사무소 이김","tel":"031-211-0110","addr":"경기도 수원시 영통구 하동 988-1번지 510호","indutype":"용역 서비스 - 법률회계서비스(개인)","category":"other"},{"name":"법무법인 대진","tel":"031-213-0771","addr":"경기도 수원시 영통구 하동 988-1번지 615호 616호","indutype":"용역 서비스 - 법률회계서비스(법인)","category":"other"},{"name":"법무법인 해담","tel":"031-216-2400","addr":"경기도 수원시 영통구 하동 988-1번지 광교스마트법조프라자 611호","indutype":"용역 서비스 - 법률회계서비스(법인)","category":"other"},{"name":"법무법인 해담","tel":"031-214-3900","addr":"경기도 수원시 영통구 하동 988-1번지 광교스마트법조프라자 611호","indutype":"용역 서비스 - 법률회계서비스(법인)","category":"other"},{"name":"변호사유한성법률사무소","tel":"031-548-1475","addr":"경기도 수원시 영통구 하동 988-1번지 스마트법조프라자 613호","indutype":"용역 서비스 - 법률회계서비스(개인)","category":"other"},{"name":"세무회계 한울","tel":"031-214-3926","addr":"경기도 수원시 영통구 하동 988-1번지 313호","indutype":"용역 서비스 - 법률회계서비스(개인)","category":"other"},{"name":"안지선 세무회계","tel":"031-549-1984","addr":"경기도 수원시 영통구 하동 988-1번지 3층 316호","indutype":"용역 서비스 - 법률회계서비스(개인)","category":"other"},{"name":"주식회사 데이터큐브","tel":"031-211-2911","addr":"경기도 수원시 영통구 하동 988-1번지 4층 416호","indutype":"용역 서비스 - 사무서비스","category":"other"},{"name":"주식회사 해피런","tel":"031-375-7876","addr":"경기도 수원시 영통구 하동 988-1","indutype":"건축자재 - 부동산 분양","category":"other"},{"name":"주식회사 해피런","tel":"031-375-7876","addr":"경기도 수원시 영통구 하동 988-1","indutype":"레져용품 - 스포츠·레져용품","category":"other"}]},{"lat":"37.291795863","long":"127.06916021","imageIndex":17,"items":[{"name":"법률사무소 주왕","tel":"031-212-8858","addr":"경기도 수원시 영통구 하동 985-2번지 유성법조프라자 201호","indutype":"용역 서비스 - 법률회계서비스(개인)","category":"other"},{"name":"법률사무소 채움","tel":"031-212-0027","addr":"경기도 수원시 영통구 하동 985-2번지 1층 102호","indutype":"용역 서비스 - 법률회계서비스(개인)","category":"other"},{"name":"변호사 공도란 법률사무소","tel":"031-217-9080","addr":"경기도 수원시 영통구 하동 985-2번지 유성법조프라자 2층 201호","indutype":"용역 서비스 - 법률회계서비스(개인)","category":"other"},{"name":"변호사 이수임 법률사무소","tel":"031-217-3437","addr":"경기도 수원시 영통구 하동 985-2번지 503호","indutype":"용역 서비스 - 법률회계서비스(개인)","category":"other"},{"name":"변호사 현진희법률사무소","tel":"031-365-4020","addr":"경기도 수원시 영통구 하동 985-2번지 유성법조프라자 301호","indutype":"용역 서비스 - 법률회계서비스(개인)","category":"other"},{"name":"변호사노희정법률사무소","tel":"031-206-1863","addr":"경기도 수원시 영통구 하동 985-2번지 603호","indutype":"용역 서비스 - 법률회계서비스(개인)","category":"other"},{"name":"변호사이연랑법률사무소","tel":"031-213-2046","addr":"경기도 수원시 영통구 하동 985-2번지 501호","indutype":"용역 서비스 - 법률회계서비스(개인)","category":"other"}]},{"lat":"37.29170656","long":"127.06771661","imageIndex":17,"items":[{"name":"법률사무소 태온","tel":"031-217-2373","addr":"경기도 수원시 영통구 하동 986-7번지 우연법전프라자 2층 201호","indutype":"용역 서비스 - 법률회계서비스(개인)","category":"other"},{"name":"법률사무소태온","tel":"031-217-2373","addr":"경기도 수원시 영통구 하동 986-7번지 201호","indutype":"용역 서비스 - 법률회계서비스(개인)","category":"other"},{"name":"법률사무소태온","tel":"031-217-2373","addr":"경기도 수원시 영통구 하동 986-7번지 201호","indutype":"용역 서비스 - 법률회계서비스(개인)","category":"other"}]},{"lat":"37.292039815","long":"127.06794245","imageIndex":17,"items":[{"name":"법무법인 명","tel":"031-211-0082","addr":"경기도 수원시 영통구 하동 986-1번지 캡틴법조타운 505호","indutype":"용역 서비스 - 법률회계서비스(법인)","category":"other"},{"name":"법무법인 법승 수원분사무소","tel":"031-547-9650","addr":"경기도 수원시 영통구 하동 986-1번지 캡틴법조타운 306호","indutype":"용역 서비스 - 법률회계서비스(법인)","category":"other"},{"name":"법무법인 중흥","tel":"031-211-6789","addr":"경기도 수원시 영통구 하동 986-1번지 캡틴법조타운 203,204,205호","indutype":"용역 서비스 - 법률회계서비스(법인)","category":"other"},{"name":"법무법인 호민","tel":"031-216-6336","addr":"경기도 수원시 영통구 하동 986-1번지 6층","indutype":"용역 서비스 - 법률회계서비스(법인)","category":"other"},{"name":"법무법인 호민","tel":"031-216-9988","addr":"경기도 수원시 영통구 하동 986-1번지 6층","indutype":"용역 서비스 - 법률회계서비스(법인)","category":"other"},{"name":"법무법인 호민","tel":"031-216-6336","addr":"경기도 수원시 영통구 하동 986-1번지 6층","indutype":"용역 서비스 - 법률회계서비스(법인)","category":"other"},{"name":"이상용법률사무소","tel":"031-213-5800","addr":"경기도 수원시 영통구 하동 986-1번지 캡틴법조타운 502~504호","indutype":"용역 서비스 - 법률회계서비스(개인)","category":"other"},{"name":"정병혁법률사무소","tel":"031-213-5800","addr":"경기도 수원시 영통구 하동 986-1번지 캡틴법조타운 502~504호","indutype":"용역 서비스 - 법률회계서비스(개인)","category":"other"}]},{"lat":"37.292625282","long":"127.06830384","imageIndex":17,"items":[{"name":"법무법인 정직","tel":"031-306-2202","addr":"경기도 수원시 영통구 하동 983-5번지 법조프라자 3층","indutype":"용역 서비스 - 법률회계서비스(법인)","category":"other"},{"name":"법무법인 정직","tel":"031-306-2202","addr":"경기도 수원시 영통구 하동 983-5번지 법조프라자 3층","indutype":"용역 서비스 - 법률회계서비스(법인)","category":"other"},{"name":"법무법인 정직","tel":"031-306-2202","addr":"경기도 수원시 영통구 하동 983-5번지 광교법조프라자 3층","indutype":"용역 서비스 - 법률회계서비스(법인)","category":"other"},{"name":"세무회계사무소 서린","tel":"031-223-5214","addr":"경기도 수원시 영통구 하동 983-5번지 광교법조프라자 4층","indutype":"용역 서비스 - 법률회계서비스(개인)","category":"other"}]},{"lat":"37.291680443","long":"127.06602495","imageIndex":17,"items":[{"name":"법무사박미병","tel":"031-211-7475","addr":"경기도 수원시 영통구 하동 987-2번지 2층 205호","indutype":"용역 서비스 - 법률회계서비스(개인)","category":"other"}]},{"lat":"37.292210189","long":"127.06941996","imageIndex":17,"items":[{"name":"법무사최인수사무소","tel":"031-211-1722","addr":"경기도 수원시 영통구 하동 973-3번지 1층","indutype":"용역 서비스 - 법률회계서비스(개인)","category":"other"}]},{"lat":"37.291652238","long":"127.06819022","imageIndex":17,"items":[{"name":"법정속기사무소","tel":"031-217-2133","addr":"경기도 수원시 영통구 하동 986-3번지 AST법조타워 201호","indutype":"용역 서비스 - 사무서비스","category":"other"}]},{"lat":"37.293012397","long":"127.06889061","imageIndex":17,"items":[{"name":"빈스601","tel":"031-216-3601","addr":"경기도 수원시 영통구 하동 969-1번지 104호","indutype":"문화.취미 - 화원","category":"other"},{"name":"틸만 수원점","tel":"031-213-4629","addr":"경기도 수원시 영통구 하동 969-1번지 103호","indutype":"주방용구 - 주방용구","category":"other"},{"name":"흘러샵MA BIKE","tel":"031-898-9814","addr":"경기도 수원시 영통구 하동 969-1번지 1층","indutype":"레져용품 - 스포츠·레져용품","category":"other"}]},{"lat":"37.292292373","long":"127.06744645","imageIndex":17,"items":[{"name":"서초오피스","tel":"031-214-4433","addr":"경기도 수원시 영통구 하동 983번지 광교더죤프라자 104호","indutype":"서적문구 - 문구용품","category":"other"}]},{"lat":"37.277597091","long":"127.06661079","imageIndex":17,"items":[{"name":"세븐일레븐광교SK충전소점","tel":"031-1577-0711","addr":"경기도 수원시 영통구 하동 1033번지","indutype":"유통업 영리 - 편 의 점","category":"other"}]},{"lat":"37.28534936","long":"127.05986264","imageIndex":17,"items":[{"name":"세븐일레븐수원컨벤션센터점","tel":"031-1577-0711","addr":"경기도 수원시 영통구 하동 855-2번지 수원컨벤션센터 광장 내 근생시설 104호 일부","indutype":"유통업 영리 - 편 의 점","category":"other"},{"name":"이마트24 알(R)수원컨벤션센터점","tel":"031-000-0000","addr":"경기도 수원시 영통구 하동 855-2번지 수원컨벤션센터 100호","indutype":"유통업 영리 - 편 의 점","category":"other"}]},{"lat":"37.293787278","long":"127.06889129","imageIndex":17,"items":[{"name":"세이레더","tel":"031-892-4480","addr":"경기도 수원시 영통구 하동 966번지 102호","indutype":"문화.취미 - 문화취미기타","category":"other"},{"name":"씨유광교법조타운점","tel":"031-898-6569","addr":"경기도 수원시 영통구 하동 966번지 1층 966","indutype":"유통업 영리 - 편 의 점","category":"other"}]},{"lat":"37.291599483","long":"127.06577678","imageIndex":17,"items":[{"name":"세종속기사무소","tel":"031-215-1182","addr":"경기도 수원시 영통구 하동 987-1번지 드림타워5 2층 201호","indutype":"용역 서비스 - 사무서비스","category":"other"},{"name":"오태영세무사사무소","tel":"031-217-0700","addr":"경기도 수원시 영통구 하동 987-1번지 드림타워5 4층 403호","indutype":"용역 서비스 - 법률회계서비스(개인)","category":"other"}]},{"lat":"37.294065245","long":"127.07127117","imageIndex":17,"items":[{"name":"소잉앤","tel":"031-214-5208","addr":"경기도 수원시 영통구 하동 957-16번지","indutype":"문화.취미 - 문화취미기타","category":"other"}]},{"lat":"37.280567861","long":"127.07130406","imageIndex":17,"items":[{"name":"수자인세탁소","tel":"031-235-8557","addr":"경기도 수원시 영통구 하동 1027번지 광교LAKEPARK한양수자인 상가 G동 201호","indutype":"수리서비스 - 세탁소","category":"other"},{"name":"이마트24광교수자인","tel":"031-214-2158","addr":"경기도 수원시 영통구 하동 1027번지 광교LAKEPARK한양수자인","indutype":"유통업 영리 - 편 의 점","category":"other"}]},{"lat":"37.294264902","long":"127.06874509","imageIndex":17,"items":[{"name":"스프링가든","tel":"070-8777-0677","addr":"경기도 수원시 영통구 하동 968번지","indutype":"문화.취미 - 화원","category":"other"}]},{"lat":"37.293903974","long":"127.06966957","imageIndex":17,"items":[{"name":"아띠랑스(ATTIRANCE)","tel":"","addr":"경기도 수원시 영통구 하동 958-7번지 1층 104호","indutype":"의류 - 정장","category":"other"}]},{"lat":"37.275598756","long":"127.06288831","imageIndex":17,"items":[{"name":"아람꽃배달서비스","tel":"031-213-3210","addr":"경기도 수원시 영통구 하동 645-18,102","indutype":"문화.취미 - 화원","category":"other"}]},{"lat":"37.29285015","long":"127.06900325","imageIndex":17,"items":[{"name":"아마빌레","tel":"","addr":"경기도 수원시 영통구 하동 969-2번지 202호","indutype":"신변잡화 - 액세서리","category":"other"}]},{"lat":"37.294345527","long":"127.06957973","imageIndex":17,"items":[{"name":"아쿠아코랄리프","tel":"031-213-2296","addr":"경기도 수원시 영통구 하동 957-5번지 1층","indutype":"문화.취미 - 수족관","category":"other"},{"name":"포레스트앤드마린(Forest&Marine)","tel":"031-213-2296","addr":"경기도 수원시 영통구 하동 957-5번지 1층","indutype":"문화.취미 - 수족관","category":"other"}]},{"lat":"37.292931071","long":"127.06930782","imageIndex":17,"items":[{"name":"앤드(And)","tel":"","addr":"경기도 수원시 영통구 하동 970번지 101호","indutype":"의류 - 정장","category":"other"}]},{"lat":"37.292821857","long":"127.07122493","imageIndex":17,"items":[{"name":"엠버","tel":"031-217-5362","addr":"경기도 수원시 영통구 하동 971-2번지","indutype":"신변잡화 - 액세서리","category":"other"}]},{"lat":"37.293597486","long":"127.06991741","imageIndex":17,"items":[{"name":"엠와이피(MYP)","tel":"031-272-1236","addr":"경기도 수원시 영통구 하동 965-3번지","indutype":"신변잡화 - 액세서리","category":"other"}]},{"lat":"37.292345393","long":"127.06932986","imageIndex":17,"items":[{"name":"우리말속기사무소","tel":"","addr":"경기도 수원시 영통구 하동 973-2번지 2층 201호","indutype":"용역 서비스 - 사무서비스","category":"other"}]},{"lat":"37.293344872","long":"127.07049235","imageIndex":17,"items":[{"name":"워시테리아 광교점","tel":"031-216-2077","addr":"경기도 수원시 영통구 하동 964-5번지","indutype":"수리서비스 - 세탁소","category":"other"}]},{"lat":"37.296066014","long":"127.08469404","imageIndex":17,"items":[{"name":"원스포토","tel":"031-233-0372","addr":"경기도 수원시 영통구 하동 1001번지 광고마을40단지 4012동 1501호","indutype":"광학제품 - 사진관","category":"other"},{"name":"토브 코퍼레이션(tov corporation)","tel":"070-7424-0888","addr":"경기도 수원시 영통구 하동 1001번지 광교마을40단지 4012동 801호","indutype":"신변잡화 - 기타잡화","category":"other"}]},{"lat":"37.275210888","long":"127.06372236","imageIndex":17,"items":[{"name":"원천그린랜드(주)","tel":"031-216-7211","addr":"경기도 수원시 영통구 하동 645-16","indutype":"문화.취미 - 문화취미기타","category":"other"}]},{"lat":"37.294419594","long":"127.08106075","imageIndex":17,"items":[{"name":"유니크","tel":"070-5148-4715","addr":"경기도 수원시 영통구 하동 1001번지 광교마을40단지 4002동 2104호","indutype":"회원제형태 - 기타1","category":"other"}]},{"lat":"37.293651675","long":"127.0696919","imageIndex":17,"items":[{"name":"은혜옷수선세탁","tel":"031-225-3334","addr":"경기도 수원시 영통구 하동 965-2번지 102호","indutype":"수리서비스 - 세탁소","category":"other"}]},{"lat":"37.294805554","long":"127.08327164","imageIndex":17,"items":[{"name":"이공근","tel":"","addr":"경기도 수원시 영통구 하동 1001번지 광교마을40단지 4005동 1801호","indutype":"용역 서비스 - 기타용역서비스","category":"other"}]},{"lat":"37.292767508","long":"127.0717211","imageIndex":17,"items":[{"name":"이마트24 광교이의고사거리점","tel":"","addr":"경기도 수원시 영통구 하동 961-6번지 101호","indutype":"유통업 영리 - 편 의 점","category":"other"}]},{"lat":"37.292984301","long":"127.07077397","imageIndex":17,"items":[{"name":"이향","tel":"031-405-4404","addr":"경기도 수원시 영통구 하동 971번지 101호","indutype":"문화.취미 - 화원","category":"other"}]},{"lat":"37.290348374","long":"127.06324961","imageIndex":17,"items":[{"name":"제이에스이","tel":"031-261-7158","addr":"경기도 수원시 영통구 하동 1013번지 광교센트럴타운62단지 6209동 2702호","indutype":"전기제품 - 가전제품","category":"other"}]},{"lat":"37.293425693","long":"127.07096609","imageIndex":17,"items":[{"name":"제이엠제이라인","tel":"031-211-0888","addr":"경기도 수원시 영통구 하동 963번지 1층","indutype":"신변잡화 - 기타잡화","category":"other"}]},{"lat":"37.292984572","long":"127.07030031","imageIndex":17,"items":[{"name":"제이코칭연구소","tel":"031-892-7599","addr":"경기도 수원시 영통구 하동 970-5번지 401호","indutype":"용역 서비스 - 사무서비스","category":"other"}]},{"lat":"37.29431842","long":"127.06971504","imageIndex":17,"items":[{"name":"주식회사 아쿠아포레스트","tel":"031-213-2297","addr":"경기도 수원시 영통구 하동 957-6번지 1층","indutype":"문화.취미 - 수족관","category":"other"}]},{"lat":"37.289176886","long":"127.06355316","imageIndex":17,"items":[{"name":"크린토피아 코인워시 광교62단지점","tel":"031-211-5226","addr":"경기도 수원시 영통구 하동 1013번지 휴먼시아단지 상가 104호","indutype":"수리서비스 - 세탁소","category":"other"}]},{"lat":"37.291784119","long":"127.07387422","imageIndex":17,"items":[{"name":"파나밴","tel":"031-275-3493","addr":"경기도 수원시 영통구 하동 994번지 광교호수마을참누리레이크 3006동 301호","indutype":"사무통신 - 통신기기","category":"other"}]},{"lat":"37.289528175","long":"127.06376771","imageIndex":17,"items":[{"name":"팜디자인","tel":"","addr":"경기도 수원시 영통구 하동 1013번지 광교센트럴타운62단지 6207동 102호","indutype":"건축자재 - 인테리어전문","category":"other"}]},{"lat":"37.289559972","long":"127.07152647","imageIndex":17,"items":[{"name":"패스트랙키즈 코리아","tel":"","addr":"경기도 수원시 영통구 하동 994번지 광교호수마을참누리레이크 3010동 902호","indutype":"서적문구 - 기타서적문구","category":"other"}]},{"lat":"37.295453114","long":"127.08498661","imageIndex":17,"items":[{"name":"해인 도예","tel":"","addr":"경기도 수원시 영통구 하동 1001번지 광교마을40단지 4007동 204호","indutype":"문화.취미 - 문화취미기타","category":"other"}]}]