[{"lat":"37.322060155","long":"126.73292451","imageIndex":0,"items":[{"name":"(주)뉴오토팰리스","tel":"031-497-8800","addr":"경기도 안산시 단원구 성곡동 710-1번지 4라602호 , 시화공단","indutype":"자동차정비 유지 - 자동차정비","category":"car"},{"name":"(주)뉴오토팰리스","tel":"031-497-8800","addr":"경기도 안산시 단원구 성곡동 710-1 시화공단4라602호","indutype":"자동차정비 유지 - 자동차정비","category":"car"},{"name":"뉴오토손세차","tel":"070-4922-1261","addr":"경기도 안산시 단원구 성곡동 710-1번지 삼호 안산 A동 3층","indutype":"자동차정비 유지 - 세차장","category":"car"},{"name":"에이치에스(HS)모터스","tel":"031-497-9117","addr":"경기도 안산시 단원구 성곡동 710-1번지 삼호 안산 B동 2층","indutype":"자동차정비 유지 - 자동차정비","category":"car"},{"name":"오버존자동차1급정비","tel":"031-408-3377","addr":"경기도 안산시 단원구 성곡동 710-1번지 시화공단4라 602호","indutype":"자동차정비 유지 - 자동차정비","category":"car"},{"name":"오버존자동차1급정비","tel":"031-480-4972","addr":"경기도 안산시 단원구 성곡동 710-1번지 오버존자동차정비공장","indutype":"자동차정비 유지 - 자동차정비","category":"car"},{"name":"오토뱅크공업","tel":"031-433-6858","addr":"경기도 안산시 단원구 성곡동 710-1번지 시화공단 4라 602","indutype":"자동차정비 유지 - 자동차정비","category":"car"},{"name":"조이(joy)모터스","tel":"031-499-9182","addr":"경기도 안산시 단원구 성곡동 710-1번지 삼호 안산 B동 1층","indutype":"자동차정비 유지 - 자동차부품","category":"car"},{"name":"펠리스모터스","tel":"070-7404-8255","addr":"경기도 안산시 단원구 성곡동 710-1번지 삼호 안산 A동 3층","indutype":"자동차정비 유지 - 자동차정비","category":"car"},{"name":"한주모터스","tel":"031-431-7260","addr":"경기도 안산시 단원구 성곡동 710-1번지 시화공단다동1층4라602호","indutype":"자동차정비 유지 - 자동차시트·타이어","category":"car"}]},{"lat":"37.308501774","long":"126.74594502","imageIndex":0,"items":[{"name":"(주)서흥유화","tel":"031-433-8851","addr":"경기도 안산시 단원구 성곡동 684-14번지 시화공단5바 513호","indutype":"자동차정비 유지 - 윤활유 전문 판매","category":"car"}]},{"lat":"37.319280755","long":"126.7310617","imageIndex":0,"items":[{"name":"(주)잭크","tel":"02-3413-5560","addr":"경기도 안산시 단원구 성곡동 711-3 시화공단4마 804","indutype":"자동차정비 유지 - 자동차부품","category":"car"}]},{"lat":"37.297614147","long":"126.76150114","imageIndex":0,"items":[{"name":"(주)카넷코리아","tel":"031-432-5634","addr":"경기도 안산시 단원구 성곡동 849-15번지","indutype":"자동차정비 유지 - 자동차정비","category":"car"}]},{"lat":"37.319367581","long":"126.7584758","imageIndex":0,"items":[{"name":"(주)효진상사","tel":"031-491-5143","addr":"경기도 안산시 단원구 성곡동 641-3번지 가동 반월공단","indutype":"자동차정비 유지 - 윤활유 전문 판매","category":"car"}]},{"lat":"37.316586712","long":"126.7271681","imageIndex":0,"items":[{"name":"Autopro-up","tel":"031-434-9009","addr":"경기도 안산시 단원구 성곡동 732-1번지 시화산단4바 802호","indutype":"자동차정비 유지 - 자동차부품","category":"car"}]},{"lat":"37.308308025","long":"126.76089168","imageIndex":0,"items":[{"name":"SJ칼라산업","tel":"031-493-7171","addr":"경기도 안산시 단원구 성곡동 605-3번지","indutype":"자동차정비 유지 - 자동차부품","category":"car"}]},{"lat":"37.319562356","long":"126.73602463","imageIndex":0,"items":[{"name":"SK네트웍스(주)시화공단주유소","tel":"031-431-9184","addr":"경기도 안산시 단원구 성곡동 710-11시화공단4라610","indutype":"자동차정비 유지 - 자동차정비","category":"car"},{"name":"스피드메이트안산공단점","tel":"031-431-9218","addr":"경기도 안산시 단원구 성곡동 710-11번지","indutype":"자동차정비 유지 - 자동차정비","category":"car"},{"name":"영주상사","tel":"031-498-0130","addr":"경기도 안산시 단원구 성곡동 710-11번지","indutype":"자동차정비 유지 - 자동차부품","category":"car"}]},{"lat":"37.308924344","long":"126.74552622","imageIndex":0,"items":[{"name":"공단카서비스","tel":"031-499-3114","addr":"경기도 안산시 단원구 성곡동 685-7번지","indutype":"자동차정비 유지 - 자동차정비","category":"car"}]},{"lat":"37.322417989","long":"126.74386688","imageIndex":0,"items":[{"name":"광성공업사","tel":"031-433-1050","addr":"경기도 안산시 단원구 성곡동 663-5번지","indutype":"자동차정비 유지 - 자동차정비","category":"car"}]},{"lat":"37.314451838","long":"126.73525303","imageIndex":0,"items":[{"name":"극동에너지주식회사","tel":"031-433-5149","addr":"경기도 안산시 단원구 성곡동 718-14번지 시화공단4바 302-4","indutype":"자동차정비 유지 - 윤활유 전문 판매","category":"car"}]},{"lat":"37.315226895","long":"126.72747765","imageIndex":0,"items":[{"name":"남경유화","tel":"031-434-5178","addr":"경기도 안산시 단원구 성곡동 735-2시화공단4바807","indutype":"자동차정비 유지 - 윤활유 전문 판매","category":"car"}]},{"lat":"37.319779309","long":"126.73236859","imageIndex":0,"items":[{"name":"넘버나인팩토리","tel":"031-242-3475","addr":"경기도 안산시 단원구 성곡동 698-15번지 시화공단 내 4미111호","indutype":"자동차정비 유지 - 자동차부품","category":"car"}]},{"lat":"37.298198794","long":"126.76100302","imageIndex":0,"items":[{"name":"동신상사","tel":"031-492-1295","addr":"경기도 안산시 단원구 성곡동 848번지","indutype":"자동차정비 유지 - 자동차부품","category":"car"},{"name":"동신자동차정비","tel":"031-508-3378","addr":"경기도 안산시 단원구 성곡동 848번지 시화MTV지원5(13-1)","indutype":"자동차정비 유지 - 자동차정비","category":"car"},{"name":"동신자동차정비","tel":"","addr":"경기도 안산시 단원구 성곡동 848번지 13-1","indutype":"자동차정비 유지 - 자동차정비","category":"car"}]},{"lat":"37.318359866","long":"126.73819493","imageIndex":0,"items":[{"name":"두현테크","tel":"031-499-7409","addr":"경기도 안산시 단원구 성곡동 669-7번지 시화지식산업센터 H동 105호","indutype":"자동차정비 유지 - 자동차부품","category":"car"}]},{"lat":"37.322583178","long":"126.73311444","imageIndex":0,"items":[{"name":"삼덕자동차정비","tel":"02-494-5252","addr":"경기도 안산시 단원구 성곡동 710-14번지","indutype":"자동차정비 유지 - 자동차정비","category":"car"}]},{"lat":"37.324833623","long":"126.76133513","imageIndex":0,"items":[{"name":"성곡점기아오토큐 주식회사","tel":"031-495-8885","addr":"경기도 안산시 단원구 성곡동 645-5번지 타원타크라지식산업센타 나동 129호","indutype":"자동차정비 유지 - 자동차정비","category":"car"},{"name":"타원자동차공업사","tel":"031-493-6072","addr":"경기도 안산시 단원구 성곡동 645-5번지 TAKRA지식산업센터 128호","indutype":"자동차정비 유지 - 자동차정비","category":"car"},{"name":"탑브레이크마스터","tel":"031-506-5912","addr":"경기도 안산시 단원구 성곡동 645-5번지 타원TAKRA 나동 140호","indutype":"자동차정비 유지 - 자동차부품","category":"car"}]},{"lat":"37.298150668","long":"126.75950314","imageIndex":0,"items":[{"name":"스타일모터스","tel":"031-401-1155","addr":"경기도 안산시 단원구 성곡동 795-2번지 G동 101호","indutype":"자동차정비 유지 - 자동차정비","category":"car"}]},{"lat":"37.319923777","long":"126.73647462","imageIndex":0,"items":[{"name":"시화타이어백화점.카","tel":"031-499-4433","addr":"경기도 안산시 단원구 성곡동 710-9시화공단4라608","indutype":"자동차정비 유지 - 자동차시트·타이어","category":"car"},{"name":"워시 스테이션","tel":"031-499-4433","addr":"경기도 안산시 단원구 성곡동 710-9번지","indutype":"자동차정비 유지 - 자동차부품","category":"car"},{"name":"티스테이션 성곡점.카","tel":"031-403-7435","addr":"경기도 안산시 단원구 성곡동 710-9번지","indutype":"자동차정비 유지 - 자동차정비","category":"car"}]},{"lat":"37.321308741","long":"126.73933534","imageIndex":0,"items":[{"name":"알루스텍","tel":"031-431-5117","addr":"경기도 안산시 단원구 성곡동 668-7번지 시화공단4라 208호","indutype":"자동차정비 유지 - 자동차부품","category":"car"}]},{"lat":"37.296900062","long":"126.76038687","imageIndex":0,"items":[{"name":"엠티브이 모터스","tel":"031-493-3538","addr":"경기도 안산시 단원구 성곡동 850번지 신화홀딩스 B동 101호","indutype":"자동차정비 유지 - 자동차정비","category":"car"}]},{"lat":"37.296037414","long":"126.76152874","imageIndex":0,"items":[{"name":"우리 대형 카 정비","tel":"031-497-5176","addr":"경기도 안산시 단원구 성곡동 851-1번지","indutype":"자동차정비 유지 - 자동차시트·타이어","category":"car"}]},{"lat":"37.295872741","long":"126.76031123","imageIndex":0,"items":[{"name":"우현모터스 엠티브이점","tel":"031-502-1293","addr":"경기도 안산시 단원구 성곡동 851-6번지","indutype":"자동차정비 유지 - 자동차시트·타이어","category":"car"}]},{"lat":"37.315944626","long":"126.73003585","imageIndex":0,"items":[{"name":"조이엠(주)","tel":"031-434-8121","addr":"경기도 안산시 단원구 성곡동 728-9시화공단4바210","indutype":"자동차정비 유지 - 자동차부품","category":"car"}]},{"lat":"37.310336684","long":"126.72461901","imageIndex":0,"items":[{"name":"주)준비엘","tel":"031-433-0147","addr":"경기도 안산시 단원구 성곡동 812-3번지","indutype":"자동차정비 유지 - 자동차부품","category":"car"},{"name":"주식회사 스위처코리아","tel":"031-433-0147","addr":"경기도 안산시 단원구 성곡동 812-3번지 시화 MTV4TK 109호","indutype":"자동차정비 유지 - 자동차부품","category":"car"}]},{"lat":"37.319701126","long":"126.7336437","imageIndex":0,"items":[{"name":"주식회사 아이엔티코리아","tel":"031-431-3357","addr":"경기도 안산시 단원구 성곡동 699-1번지 시화공단4마 202호","indutype":"자동차정비 유지 - 자동차부품","category":"car"}]},{"lat":"37.309869774","long":"126.72530883","imageIndex":0,"items":[{"name":"주식회사 엘지엠호이스트","tel":"031-319-2086","addr":"경기도 안산시 단원구 성곡동 813-6번지 2층","indutype":"자동차판매 - 기타운송","category":"car"}]},{"lat":"37.319752204","long":"126.736306","imageIndex":0,"items":[{"name":"주식회사시화대형카","tel":"031-431-7282","addr":"경기도 안산시 단원구 성곡동 710-10번지","indutype":"자동차정비 유지 - 자동차정비","category":"car"},{"name":"한국타이어TBX","tel":"031-499-4433","addr":"경기도 안산시 단원구 성곡동 710-10번지","indutype":"자동차정비 유지 - 자동차시트·타이어","category":"car"}]},{"lat":"37.318226285","long":"126.73488992","imageIndex":0,"items":[{"name":"주식회사안산지게차토탈서비스","tel":"031-499-0700","addr":"경기도 안산시 단원구 성곡동 704-6시화공단4마204호","indutype":"자동차정비 유지 - 가타자동차서비스","category":"car"}]},{"lat":"37.311114189","long":"126.74158189","imageIndex":0,"items":[{"name":"하이스트","tel":"031-431-8832","addr":"경기도 안산시 단원구 성곡동 676-13 시화산단5바204호","indutype":"자동차정비 유지 - 자동차부품","category":"car"}]},{"lat":"37.315252427","long":"126.72683454","imageIndex":0,"items":[{"name":"협성마스터즈(주)","tel":"031-498-5941","addr":"경기도 안산시 단원구 성곡동 734-3번지 1층","indutype":"자동차정비 유지 - 자동차부품","category":"car"},{"name":"협성산업","tel":"031-498-5942","addr":"경기도 안산시 단원구 성곡동 734-3번지 시화공단4바 832호","indutype":"자동차정비 유지 - 자동차부품","category":"car"}]}]