[{"lat":"37.4845368","long":"126.75263607","imageIndex":13,"items":[{"name":"(주)뉴턴보청기경기서부지사","tel":"032-000-0000","addr":"경기도 부천시 송내동 708-10번지 205호","indutype":"보건위생 - 의료용품","category":"beauty"},{"name":"(주)지티인터내셔널","tel":"070-7018-9325","addr":"경기도 부천시 송내동 708-10번지 504호","indutype":"보건위생 - 안경","category":"beauty"},{"name":"바비앤샵(Barbie&shop)","tel":"","addr":"경기도 부천시 송내동 708-10번지 1층 102호","indutype":"보건위생 - 미용재료","category":"beauty"},{"name":"아이슈가링(EYE Sugaring)","tel":"","addr":"경기도 부천시 송내동 708-10번지 스테이션프라자 1층 103호","indutype":"보건위생 - 피부미용실","category":"beauty"}]},{"lat":"37.485682758","long":"126.75774284","imageIndex":13,"items":[{"name":"Sun헤어샵","tel":"070-4132-2126","addr":"경기도 부천시 송내동 333-1번지","indutype":"보건위생 - 미용원","category":"beauty"}]},{"lat":"37.482959615","long":"126.76107576","imageIndex":13,"items":[{"name":"T-솔루션센터","tel":"032-652-2020","addr":"경기도 부천시 송내동 400-32번지 1층","indutype":"보건위생 - 의료용품","category":"beauty"}]},{"lat":"37.486930162","long":"126.75969484","imageIndex":13,"items":[{"name":"강헤어샵","tel":"032-667-6970","addr":"경기도 부천시 송내동 363-4번지 1층 2호","indutype":"보건위생 - 미용원","category":"beauty"}]},{"lat":"37.484954621","long":"126.75854798","imageIndex":13,"items":[{"name":"결헤어샵","tel":"032-235-5870","addr":"경기도 부천시 송내동 335-15번지 1층","indutype":"보건위생 - 미용원","category":"beauty"}]},{"lat":"37.485818329","long":"126.75363809","imageIndex":13,"items":[{"name":"고려불한증막","tel":"032-655-0598","addr":"경기도 부천시 송내동 315-1번지 지하1층","indutype":"보건위생 - 사우나","category":"beauty"},{"name":"곰돌이피부샵","tel":"032-9821-3721","addr":"경기도 부천시 송내동 315-1번지 2층 203호","indutype":"보건위생 - 피부미용실","category":"beauty"},{"name":"사임당산후도우미","tel":"","addr":"경기도 부천시 송내동 315-1번지 신양빌딩 405호","indutype":"보건위생 - 기타대인서비스","category":"beauty"},{"name":"짱헤어","tel":"032-674-5383","addr":"경기도 부천시 송내동 315-1번지 207호","indutype":"보건위생 - 미용원","category":"beauty"},{"name":"화창종합상사","tel":"032-662-7890","addr":"경기도 부천시 송내동 315-1번지 신양빌딩 2층 205호","indutype":"보건위생 - 의료용품","category":"beauty"}]},{"lat":"37.484266348","long":"126.76121853","imageIndex":13,"items":[{"name":"공쥬헤어샵","tel":"070-7353-2733","addr":"경기도 부천시 송내동 345-6번지 1층","indutype":"보건위생 - 미용원","category":"beauty"}]},{"lat":"37.479679791","long":"126.76541641","imageIndex":13,"items":[{"name":"글라스 스토리","tel":"032-656-1001","addr":"경기도 부천시 송내동 433-12번지","indutype":"보건위생 - 안경","category":"beauty"}]},{"lat":"37.483814998","long":"126.76080165","imageIndex":13,"items":[{"name":"금강약초불가마사우나","tel":"032-654-3363","addr":"경기도 부천시 송내동 345번지","indutype":"보건위생 - 사우나","category":"beauty"}]},{"lat":"37.48253927","long":"126.77163705","imageIndex":13,"items":[{"name":"금호미용실","tel":"031-111-1111","addr":"경기도 부천시 송내동 591-12번지 비-1","indutype":"보건위생 - 미용원","category":"beauty"}]},{"lat":"37.48248159","long":"126.76979433","imageIndex":13,"items":[{"name":"김머리방","tel":"032-654-3383","addr":"경기도 부천시 송내동 587-3번지","indutype":"보건위생 - 미용원","category":"beauty"}]},{"lat":"37.483593779","long":"126.75838282","imageIndex":13,"items":[{"name":"김민정 스킨케어","tel":"032-654-0309","addr":"경기도 부천시 송내동 331-7번지 1층 일부","indutype":"보건위생 - 피부미용실","category":"beauty"}]},{"lat":"37.478625339","long":"126.76527278","imageIndex":13,"items":[{"name":"김서영헤어샵","tel":"032-668-9997","addr":"경기도 부천시 송내동 450-1번지 현대 종합상가 1층 104호","indutype":"보건위생 - 미용원","category":"beauty"}]},{"lat":"37.478121718","long":"126.77027139","imageIndex":13,"items":[{"name":"꾸메코리아","tel":"031-857-4846","addr":"경기도 부천시 송내동 673-1번지 대흥프라자 201호","indutype":"보건위생 - 미용재료","category":"beauty"}]},{"lat":"37.484430356","long":"126.76657725","imageIndex":13,"items":[{"name":"꾸밈헤어","tel":"032-612-3363","addr":"경기도 부천시 송내동 376번지","indutype":"보건위생 - 미용원","category":"beauty"}]},{"lat":"37.486678556","long":"126.7514078","imageIndex":13,"items":[{"name":"끌림헤어","tel":"031-111-1111","addr":"경기도 부천시 송내동 699-8번지 1층 101호","indutype":"보건위생 - 미용원","category":"beauty"}]},{"lat":"37.483870468","long":"126.76149116","imageIndex":13,"items":[{"name":"나르샤","tel":"032-663-3732","addr":"경기도 부천시 송내동 366번지 상승프라자 102호","indutype":"보건위생 - 미용원","category":"beauty"}]},{"lat":"37.483293002","long":"126.75672178","imageIndex":13,"items":[{"name":"남자세상","tel":"032-213-7528","addr":"경기도 부천시 송내동 329-10번지 B동 1층","indutype":"보건위생 - 미용원","category":"beauty"},{"name":"박상례피부관리샵","tel":"032-611-9138","addr":"경기도 부천시 송내동 329-10번지 A동 1층","indutype":"보건위생 - 피부미용실","category":"beauty"}]},{"lat":"37.48540509","long":"126.75421609","imageIndex":13,"items":[{"name":"네일클로버","tel":"","addr":"경기도 부천시 송내동 315번지 송내역파인푸르지오1단지 상가동 B110호","indutype":"보건위생 - 피부미용실","category":"beauty"},{"name":"아틀리에노아(Atelier NOAH)","tel":"032-655-3494","addr":"경기도 부천시 송내동 315번지 송내역파인푸르지오1단지 상가동 B113,B114호","indutype":"보건위생 - 미용원","category":"beauty"}]},{"lat":"37.484404589","long":"126.7540272","imageIndex":13,"items":[{"name":"네일핑고","tel":"032-279-6923","addr":"경기도 부천시 송내동 315-3번지 송내역파인푸르지오2단지 상가동 지하2층 B206호","indutype":"보건위생 - 피부미용실","category":"beauty"},{"name":"연 오행쑥뜸","tel":"","addr":"경기도 부천시 송내동 315-3번지 송내역파인푸르지오2단지 상가동 지1층 104호","indutype":"보건위생 - 피부미용실","category":"beauty"}]},{"lat":"37.4848764","long":"126.75993893","imageIndex":13,"items":[{"name":"네츄럴뷰티","tel":"032-666-1806","addr":"경기도 부천시 송내동 340번지 우성아파트","indutype":"보건위생 - 화장품","category":"beauty"}]},{"lat":"37.481983041","long":"126.77285982","imageIndex":13,"items":[{"name":"뉴스타미용실","tel":"032-654-5011","addr":"경기도 부천시 송내동 594-1번지 하이트뷰 101호","indutype":"보건위생 - 미용원","category":"beauty"}]},{"lat":"37.483872681","long":"126.76257656","imageIndex":13,"items":[{"name":"다영헤어","tel":"032-612-0100","addr":"경기도 부천시 송내동 366-7번지 1층","indutype":"보건위생 - 미용원","category":"beauty"}]},{"lat":"37.484263383","long":"126.76419212","imageIndex":13,"items":[{"name":"다판다송내점","tel":"032-667-0036","addr":"경기도 부천시 송내동 373번지 대우프라자 1층 103호","indutype":"보건위생 - 화장품","category":"beauty"},{"name":"닥터보청기","tel":"032-663-0207","addr":"경기도 부천시 송내동 373번지 대우프라자 402호","indutype":"보건위생 - 의료용품","category":"beauty"},{"name":"보그헤어","tel":"032-661-4385","addr":"경기도 부천시 송내동 373번지 대우프라자 2층 202호","indutype":"보건위생 - 미용원","category":"beauty"}]},{"lat":"37.486620647","long":"126.76254514","imageIndex":13,"items":[{"name":"닥터큐","tel":"032-611-2347","addr":"경기도 부천시 송내동 523-4번지","indutype":"보건위생 - 화장품","category":"beauty"},{"name":"민트네일(Mint nail)","tel":"032-651-1201","addr":"경기도 부천시 송내동 523-4번지 1층","indutype":"보건위생 - 피부미용실","category":"beauty"}]},{"lat":"37.485821749","long":"126.76401757","imageIndex":13,"items":[{"name":"더","tel":"032-000-0000","addr":"경기도 부천시 송내동 370-3번지 대지빌딩 4층 207호","indutype":"보건위생 - 화장품","category":"beauty"},{"name":"명품스토리","tel":"032-671-0280","addr":"경기도 부천시 송내동 370-3번지 대지빌딩 2층","indutype":"보건위생 - 미용원","category":"beauty"}]},{"lat":"37.485877042","long":"126.75585399","imageIndex":13,"items":[{"name":"더끌림헤어","tel":"032-612-7407","addr":"경기도 부천시 송내동 319번지 1층 일부호","indutype":"보건위생 - 미용원","category":"beauty"}]},{"lat":"37.487401003","long":"126.75218555","imageIndex":13,"items":[{"name":"더샘 송내점","tel":"032-655-4440","addr":"경기도 부천시 송내동 272-1번지 115호","indutype":"보건위생 - 화장품","category":"beauty"}]},{"lat":"37.486842385","long":"126.7608258","imageIndex":13,"items":[{"name":"동방명손","tel":"032-664-3288","addr":"경기도 부천시 송내동 363-10번지 덕산빌딩 104호","indutype":"보건위생 - 피부미용실","category":"beauty"}]},{"lat":"37.48625986","long":"126.75365923","imageIndex":13,"items":[{"name":"디엠메디칼","tel":"032-655-0181","addr":"경기도 부천시 송내동 299-4번지","indutype":"보건위생 - 의료용품","category":"beauty"}]},{"lat":"37.482344912","long":"126.75574125","imageIndex":13,"items":[{"name":"라보떼","tel":"032-612-1414","addr":"경기도 부천시 송내동 308-10번지 1층","indutype":"보건위생 - 미용원","category":"beauty"}]},{"lat":"37.487095639","long":"126.75693544","imageIndex":13,"items":[{"name":"라플레르","tel":"070-7317-8785","addr":"경기도 부천시 송내동 349-8번지 1층","indutype":"보건위생 - 피부미용실","category":"beauty"},{"name":"부천약손지압안마원","tel":"032-654-8575","addr":"경기도 부천시 송내동 349-8번지 1층","indutype":"보건위생 - 안마시술소","category":"beauty"}]},{"lat":"37.486682933","long":"126.76216051","imageIndex":13,"items":[{"name":"런던헤어(송내점)","tel":"032-657-1025","addr":"경기도 부천시 송내동 523-3번지 1층","indutype":"보건위생 - 미용원","category":"beauty"},{"name":"화려한내일","tel":"032-651-4182","addr":"경기도 부천시 송내동 523-3번지 1층","indutype":"보건위생 - 화장품","category":"beauty"},{"name":"힐링","tel":"032-663-5564","addr":"경기도 부천시 송내동 523-3번지 2층","indutype":"보건위생 - 화장품","category":"beauty"}]},{"lat":"37.483566552","long":"126.77171303","imageIndex":13,"items":[{"name":"레어스타일","tel":"032-652-8555","addr":"경기도 부천시 송내동 578-5번지 1층 10호","indutype":"보건위생 - 미용원","category":"beauty"}]},{"lat":"37.486960814","long":"126.75279759","imageIndex":13,"items":[{"name":"로이드밤 송내역점","tel":"032-666-6655","addr":"경기도 부천시 송내동 709-1번지 송내코아 2층 202호,203호","indutype":"보건위생 - 미용원","category":"beauty"},{"name":"에스뷰티","tel":"032-655-9555","addr":"경기도 부천시 송내동 709-1번지 204호","indutype":"보건위생 - 피부미용실","category":"beauty"}]},{"lat":"37.486902083","long":"126.75485562","imageIndex":13,"items":[{"name":"루시네헤어샵","tel":"032-278-8211","addr":"경기도 부천시 송내동 299-12번지 비버리힐즈 가동 1층","indutype":"보건위생 - 미용원","category":"beauty"},{"name":"순수에스테틱","tel":"070-7107-4747","addr":"경기도 부천시 송내동 299-12번지 비버리힐즈 가동 303호","indutype":"보건위생 - 화장품","category":"beauty"}]},{"lat":"37.486182258","long":"126.76407295","imageIndex":13,"items":[{"name":"리안헤어","tel":"032-556-4039","addr":"경기도 부천시 송내동 370번지 2층 2호","indutype":"보건위생 - 미용원","category":"beauty"}]},{"lat":"37.486627401","long":"126.75277608","imageIndex":13,"items":[{"name":"리안헤어 송내남부역점","tel":"032-666-1134","addr":"경기도 부천시 송내동 709-3번지 202호","indutype":"보건위생 - 미용원","category":"beauty"}]},{"lat":"37.484842135","long":"126.76524179","imageIndex":13,"items":[{"name":"마리뷰티","tel":"02-111-1111","addr":"경기도 부천시 송내동 372번지 중동역푸르지오아파트","indutype":"보건위생 - 화장품","category":"beauty"},{"name":"메이플로라","tel":"032-663-3362","addr":"경기도 부천시 송내동 372번지 부천중동역푸르지오 상가 108호","indutype":"보건위생 - 화장품","category":"beauty"},{"name":"샤인헤어","tel":"032-611-0037","addr":"경기도 부천시 송내동 372번지 부천중동역푸르지오 상가동 제비104호","indutype":"보건위생 - 미용원","category":"beauty"}]},{"lat":"37.486931905","long":"126.75618972","imageIndex":13,"items":[{"name":"마샬미용실","tel":"032-656-5789","addr":"경기도 부천시 송내동 299-29번지 1층","indutype":"보건위생 - 미용원","category":"beauty"}]},{"lat":"37.48479256","long":"126.75860504","imageIndex":13,"items":[{"name":"마샬헤어","tel":"032-612-2196","addr":"경기도 부천시 송내동 335-27번지 1층","indutype":"보건위생 - 미용원","category":"beauty"}]},{"lat":"37.486175253","long":"126.75199743","imageIndex":13,"items":[{"name":"마이스트롱박스","tel":"070-4649-1102","addr":"경기도 부천시 송내동 705-9번지 1층","indutype":"보건위생 - 기타대인서비스","category":"beauty"}]},{"lat":"37.482321326","long":"126.77076715","imageIndex":13,"items":[{"name":"머리결사랑","tel":"070-7315-1221","addr":"경기도 부천시 송내동 591-17번지 1층","indutype":"보건위생 - 미용원","category":"beauty"},{"name":"미향헤어","tel":"070-7315-1221","addr":"경기도 부천시 송내동 591-17번지 1층","indutype":"보건위생 - 미용원","category":"beauty"}]},{"lat":"37.48481856","long":"126.75810747","imageIndex":13,"items":[{"name":"머리하는날","tel":"032-655-7071","addr":"경기도 부천시 송내동 335-12번지","indutype":"보건위생 - 미용원","category":"beauty"}]},{"lat":"37.479483855","long":"126.77110379","imageIndex":13,"items":[{"name":"머리해요","tel":"","addr":"경기도 부천시 송내동 610-12번지 1층","indutype":"보건위생 - 미용원","category":"beauty"},{"name":"프로컷트","tel":"","addr":"경기도 부천시 송내동 610-12번지 1층","indutype":"보건위생 - 미용원","category":"beauty"}]},{"lat":"37.486319459","long":"126.75201956","imageIndex":13,"items":[{"name":"뮤즈","tel":"070-8621-8261","addr":"경기도 부천시 송내동 705-8번지 101호","indutype":"보건위생 - 화장품","category":"beauty"}]},{"lat":"37.483432322","long":"126.76313198","imageIndex":13,"items":[{"name":"미끼헤어샵","tel":"032-657-5011","addr":"경기도 부천시 송내동 393-1번지 2층","indutype":"보건위생 - 미용원","category":"beauty"}]},{"lat":"37.485375953","long":"126.75751771","imageIndex":13,"items":[{"name":"미래 앤 케어","tel":"032-654-0122","addr":"경기도 부천시 송내동 333-4번지 1층","indutype":"보건위생 - 의료용품","category":"beauty"}]},{"lat":"37.484154049","long":"126.77266096","imageIndex":13,"items":[{"name":"미소안경","tel":"032-323-1311","addr":"경기도 부천시 송내동 564-4번지 2층","indutype":"보건위생 - 안경","category":"beauty"}]},{"lat":"37.485900681","long":"126.7585562","imageIndex":13,"items":[{"name":"미소헤어","tel":"032-653-9463","addr":"경기도 부천시 송내동 336-15번지 1층","indutype":"보건위생 - 미용원","category":"beauty"}]},{"lat":"37.48523149","long":"126.76174683","imageIndex":13,"items":[{"name":"미짱만들기","tel":"032-653-0045","addr":"경기도 부천시 송내동 369-1번지 서진빌딩","indutype":"보건위생 - 피부미용실","category":"beauty"},{"name":"프린스헤어","tel":"032-653-2855","addr":"경기도 부천시 송내동 369-1번지 서진빌딩 A동 1층","indutype":"보건위생 - 미용원","category":"beauty"}]},{"lat":"37.487123449","long":"126.74463351","imageIndex":13,"items":[{"name":"별상애기씨","tel":"","addr":"경기도 부천시 송내동 694-5번지","indutype":"보건위생 - 기타대인서비스","category":"beauty"},{"name":"선녀보살","tel":"","addr":"경기도 부천시 송내동 694-5번지","indutype":"보건위생 - 기타대인서비스","category":"beauty"}]},{"lat":"37.479925985","long":"126.76240831","imageIndex":13,"items":[{"name":"보떼코리아","tel":"032-666-0721","addr":"경기도 부천시 송내동 441-42번지 3층","indutype":"보건위생 - 미용재료","category":"beauty"}]},{"lat":"37.487118642","long":"126.75075052","imageIndex":13,"items":[{"name":"보헤미안헤어","tel":"","addr":"경기도 부천시 송내동 698-1번지 1층 일부","indutype":"보건위생 - 미용원","category":"beauty"}]},{"lat":"37.478593757","long":"126.76750007","imageIndex":13,"items":[{"name":"볼륨","tel":"032-612-3009","addr":"경기도 부천시 송내동 463-106번지 송내e-편한세상 108호 상가","indutype":"보건위생 - 미용원","category":"beauty"},{"name":"쏘울바디샵","tel":"032-217-7779","addr":"경기도 부천시 송내동 463-106번지 송내e-편한세상 상가동 지층 113호","indutype":"보건위생 - 피부미용실","category":"beauty"},{"name":"윤살롱","tel":"","addr":"경기도 부천시 송내동 463-106번지 E-편한세상 상가동 제지1층 107호","indutype":"보건위생 - 피부미용실","category":"beauty"},{"name":"이지헤어","tel":"032-656-9598","addr":"경기도 부천시 송내동 463-106이편한상가103호","indutype":"보건위생 - 미용원","category":"beauty"},{"name":"이지헤어","tel":"032-613-4274","addr":"경기도 부천시 송내동 463-106번지 E편한세상 지하1층 103호","indutype":"보건위생 - 미용원","category":"beauty"}]},{"lat":"37.479542045","long":"126.764128","imageIndex":13,"items":[{"name":"봉선화미용실","tel":"032-611-1550","addr":"경기도 부천시 송내동 453-8번지","indutype":"보건위생 - 미용원","category":"beauty"}]},{"lat":"37.486176233","long":"126.76555415","imageIndex":13,"items":[{"name":"부천케이제이헤어미용실","tel":"032-343-9101","addr":"경기도 부천시 송내동 504번지 2층 201호","indutype":"보건위생 - 미용원","category":"beauty"}]},{"lat":"37.48001326","long":"126.76999419","imageIndex":13,"items":[{"name":"뷰티블패션","tel":"02-899-0012","addr":"경기도 부천시 송내동 609번지 2층","indutype":"보건위생 - 화장품","category":"beauty"},{"name":"샴푸헤어크리닉","tel":"032-654-4883","addr":"경기도 부천시 송내동 609번지","indutype":"보건위생 - 미용원","category":"beauty"}]},{"lat":"37.479903855","long":"126.76482781","imageIndex":13,"items":[{"name":"블루컷","tel":"032-662-0233","addr":"경기도 부천시 송내동 433-13번지 1층 일부","indutype":"보건위생 - 미용원","category":"beauty"}]},{"lat":"37.479177165","long":"126.76637898","imageIndex":13,"items":[{"name":"비니네일","tel":"070-8268-5638","addr":"경기도 부천시 송내동 464-2번지 1층 2호","indutype":"보건위생 - 피부미용실","category":"beauty"}]},{"lat":"37.479647801","long":"126.76744024","imageIndex":13,"items":[{"name":"샤기헤어","tel":"032-345-6265","addr":"경기도 부천시 송내동 439-10번지","indutype":"보건위생 - 미용원","category":"beauty"}]},{"lat":"37.47982158","long":"126.76424017","imageIndex":13,"items":[{"name":"샤넬NO.1","tel":"032-657-1359","addr":"경기도 부천시 송내동 453-11번지 1층","indutype":"보건위생 - 미용원","category":"beauty"}]},{"lat":"37.48723445","long":"126.75437963","imageIndex":13,"items":[{"name":"성민산업","tel":"032-0000-0000","addr":"경기도 부천시 송내동 280-16번지 2층","indutype":"보건위생 - 미용재료","category":"beauty"}]},{"lat":"37.48167971","long":"126.76979682","imageIndex":13,"items":[{"name":"소율","tel":"","addr":"경기도 부천시 송내동 588-3번지 1층","indutype":"보건위생 - 미용원","category":"beauty"},{"name":"파스칼","tel":"070-7363-8129","addr":"경기도 부천시 송내동 588-3번지 1층","indutype":"보건위생 - 화장품","category":"beauty"}]},{"lat":"37.479877326","long":"126.76507662","imageIndex":13,"items":[{"name":"수뷰티샵","tel":"","addr":"경기도 부천시 송내동 433-11번지","indutype":"보건위생 - 피부미용실","category":"beauty"}]},{"lat":"37.481984186","long":"126.75558416","imageIndex":13,"items":[{"name":"수헤어","tel":"032-665-0722","addr":"경기도 부천시 송내동 308-13번지 1층","indutype":"보건위생 - 미용원","category":"beauty"}]},{"lat":"37.486067996","long":"126.75669006","imageIndex":13,"items":[{"name":"신순영헤어","tel":"032-651-6200","addr":"경기도 부천시 송내동 336-14번지","indutype":"보건위생 - 미용원","category":"beauty"}]},{"lat":"37.483680083","long":"126.76988106","imageIndex":13,"items":[{"name":"쌜리헤어터치","tel":"032-666-5058","addr":"경기도 부천시 송내동 586번지","indutype":"보건위생 - 미용원","category":"beauty"}]},{"lat":"37.48420538","long":"126.76671363","imageIndex":13,"items":[{"name":"아는미용실","tel":"032-612-8900","addr":"경기도 부천시 송내동 374번지 호암프라자 1층 102호","indutype":"보건위생 - 미용원","category":"beauty"},{"name":"이가자헤어비스 부천중동역점","tel":"032-666-8322","addr":"경기도 부천시 송내동 374번지 호암프라자 2층 203호","indutype":"보건위생 - 미용원","category":"beauty"}]},{"lat":"37.482176907","long":"126.75726813","imageIndex":13,"items":[{"name":"아르떼헤어","tel":"","addr":"경기도 부천시 송내동 409번지 송내자이 상가동 지하1층6호","indutype":"보건위생 - 미용원","category":"beauty"}]},{"lat":"37.4809033856","long":"126.7690530416","imageIndex":13,"items":[{"name":"아름다운이들","tel":"032-612-5931","addr":"경기도 부천시 송내동 457-1번지 대우단지내상가 3층 301호","indutype":"보건위생 - 화장품","category":"beauty"}]},{"lat":"37.483459925","long":"126.76341455","imageIndex":13,"items":[{"name":"아모레","tel":"032-613-6727","addr":"경기도 부천시 송내동 393번지 성보빌딩 3층","indutype":"보건위생 - 화장품","category":"beauty"},{"name":"아모레","tel":"032-613-6727","addr":"경기도 부천시 송내동 393번지 성보빌딩 3층","indutype":"보건위생 - 화장품","category":"beauty"},{"name":"아모레 카운셀러","tel":"032-613-6727","addr":"경기도 부천시 송내동 393번지 성보빌딩 3층","indutype":"보건위생 - 화장품","category":"beauty"},{"name":"아모레 카운셀러","tel":"032-613-6727","addr":"경기도 부천시 송내동 393번지 성보빌딩 3층","indutype":"보건위생 - 화장품","category":"beauty"},{"name":"아모레 카운셀러","tel":"032-613-6727","addr":"경기도 부천시 송내동 393번지 성보빌딩 3층","indutype":"보건위생 - 화장품","category":"beauty"},{"name":"아모레 카운셀러","tel":"032-613-6727","addr":"경기도 부천시 송내동 393번지 성보빌딩 3층","indutype":"보건위생 - 화장품","category":"beauty"},{"name":"아모레 카운셀러","tel":"032-613-6727","addr":"경기도 부천시 송내동 393번지 성보빌딩 3층","indutype":"보건위생 - 화장품","category":"beauty"},{"name":"아모레 카운셀러","tel":"032-613-6727","addr":"경기도 부천시 송내동 393번지 성보빌딩 3층","indutype":"보건위생 - 화장품","category":"beauty"},{"name":"아모레 카운셀러","tel":"032-613-6727","addr":"경기도 부천시 송내동 393번지 성보빌딩 3층","indutype":"보건위생 - 화장품","category":"beauty"},{"name":"아모레/부일특약점","tel":"032-613-6727","addr":"경기도 부천시 송내동 393번지 성보빌딩 3층","indutype":"보건위생 - 화장품","category":"beauty"},{"name":"아모레부일특약점","tel":"032-613-6727","addr":"경기도 부천시 송내동 393번지 성보빌딩 3층","indutype":"보건위생 - 화장품","category":"beauty"},{"name":"아모레부일특약점","tel":"032-613-6727","addr":"경기도 부천시 송내동 393번지 성보빌딩 3층","indutype":"보건위생 - 화장품","category":"beauty"},{"name":"아모레카운셀러","tel":"032-613-6727","addr":"경기도 부천시 송내동 393번지 성보빌딩 3층","indutype":"보건위생 - 화장품","category":"beauty"},{"name":"아모레카운셀러","tel":"032-613-6727","addr":"경기도 부천시 송내동 393번지 성보빌딩 3층","indutype":"보건위생 - 화장품","category":"beauty"},{"name":"아모레카운셀러","tel":"032-613-6727","addr":"경기도 부천시 송내동 393번지 성보빌딩 3층","indutype":"보건위생 - 화장품","category":"beauty"},{"name":"아모레카운셀러","tel":"032-613-6727","addr":"경기도 부천시 송내동 393번지 성보빌딩 3층","indutype":"보건위생 - 화장품","category":"beauty"},{"name":"아모레카운셀러","tel":"032-613-6727","addr":"경기도 부천시 송내동 393번지 성보빌딩 3층","indutype":"보건위생 - 화장품","category":"beauty"},{"name":"아모레카운셀러","tel":"032-613-6727","addr":"경기도 부천시 송내동 393번지 성보빌딩 3층","indutype":"보건위생 - 화장품","category":"beauty"},{"name":"아모레카운셀러","tel":"032-613-6727","addr":"경기도 부천시 송내동 393번지 성보빌딩 3층","indutype":"보건위생 - 화장품","category":"beauty"},{"name":"아모레카운셀러","tel":"032-613-6727","addr":"경기도 부천시 송내동 393번지 성보빌딩 3층","indutype":"보건위생 - 화장품","category":"beauty"},{"name":"아모레카운셀러","tel":"032-613-6727","addr":"경기도 부천시 송내동 393번지 성보빌딩 3층","indutype":"보건위생 - 화장품","category":"beauty"},{"name":"아모레카운셀러","tel":"032-613-6727","addr":"경기도 부천시 송내동 393번지 성보빌딩 3층","indutype":"보건위생 - 화장품","category":"beauty"},{"name":"아모레카운셀러","tel":"032-613-6727","addr":"경기도 부천시 송내동 393번지 성보빌딩 3층","indutype":"보건위생 - 화장품","category":"beauty"},{"name":"아모레카운셀러","tel":"032-613-6727","addr":"경기도 부천시 송내동 393번지 성보빌딩 3층","indutype":"보건위생 - 화장품","category":"beauty"},{"name":"아모레카운셀러","tel":"032-613-6727","addr":"경기도 부천시 송내동 393번지 성보빌딩 3층","indutype":"보건위생 - 화장품","category":"beauty"},{"name":"아모레카운셀러","tel":"032-613-6727","addr":"경기도 부천시 송내동 393번지 성보빌딩 3층","indutype":"보건위생 - 화장품","category":"beauty"},{"name":"아모레카운셀러","tel":"032-613-6727","addr":"경기도 부천시 송내동 393번지 3층","indutype":"보건위생 - 화장품","category":"beauty"},{"name":"아모레카운셀러","tel":"032-613-6727","addr":"경기도 부천시 송내동 393번지 성보빌딩 3층","indutype":"보건위생 - 화장품","category":"beauty"},{"name":"아모레카운셀러","tel":"032-613-6727","addr":"경기도 부천시 송내동 393번지 성보빌딩 3층","indutype":"보건위생 - 화장품","category":"beauty"},{"name":"아모레카운셀러","tel":"032-613-6727","addr":"경기도 부천시 송내동 393번지 성보빌딩 3층","indutype":"보건위생 - 화장품","category":"beauty"},{"name":"아모레카운셀러","tel":"017-***-****","addr":"경기도 부천시 송내동 393번지 성보빌딩 3층","indutype":"보건위생 - 화장품","category":"beauty"},{"name":"아모레카운셀러","tel":"","addr":"경기도 부천시 송내동 393번지 성보빌딩 3층","indutype":"보건위생 - 화장품","category":"beauty"},{"name":"아모레카운셀러","tel":"032-613-6727","addr":"경기도 부천시 송내동 393번지 성보빌딩 3층","indutype":"보건위생 - 화장품","category":"beauty"},{"name":"아모레카운셀러","tel":"032-613-6727","addr":"경기도 부천시 송내동 393번지 성보빌딩 3층","indutype":"보건위생 - 화장품","category":"beauty"},{"name":"아모레카운셀러","tel":"032-613-6727","addr":"경기도 부천시 송내동 393번지 성보빌딩 3층","indutype":"보건위생 - 화장품","category":"beauty"},{"name":"아모레카운셀러","tel":"032-613-6727","addr":"경기도 부천시 송내동 393번지 성보빌딩 3층","indutype":"보건위생 - 화장품","category":"beauty"},{"name":"아모레카운셀러","tel":"032-613-6727","addr":"경기도 부천시 송내동 393번지 성보빌딩 3층","indutype":"보건위생 - 화장품","category":"beauty"},{"name":"아모레카운셀러","tel":"032-613-6727","addr":"경기도 부천시 송내동 393번지 성보빌딩 3층","indutype":"보건위생 - 화장품","category":"beauty"},{"name":"아모레카운셀러","tel":"032-613-6727","addr":"경기도 부천시 송내동 393번지 성보빌딩 3층","indutype":"보건위생 - 화장품","category":"beauty"},{"name":"아모레카운셀러","tel":"032-613-6727","addr":"경기도 부천시 송내동 393번지 성보빌딩 3층","indutype":"보건위생 - 화장품","category":"beauty"},{"name":"아모레카운셀러","tel":"032-613-6727","addr":"경기도 부천시 송내동 393번지 성보빌딩 3층","indutype":"보건위생 - 화장품","category":"beauty"},{"name":"아모레카운셀러","tel":"032-613-6727","addr":"경기도 부천시 송내동 393번지 성보빌딩 3층","indutype":"보건위생 - 화장품","category":"beauty"},{"name":"아모레카운셀러","tel":"032-613-6727","addr":"경기도 부천시 송내동 393번지 성보빌딩 3층","indutype":"보건위생 - 화장품","category":"beauty"},{"name":"아모레카운셀러","tel":"032-613-6727","addr":"경기도 부천시 송내동 393번지 성보빌딩 3층","indutype":"보건위생 - 화장품","category":"beauty"},{"name":"아모레카운셀링","tel":"032-613-6727","addr":"경기도 부천시 송내동 393번지 성보빌딩 3층","indutype":"보건위생 - 화장품","category":"beauty"},{"name":"아모레카운셀터","tel":"032-613-6727","addr":"경기도 부천시 송내동 393번지 성보빌딩 3층","indutype":"보건위생 - 화장품","category":"beauty"},{"name":"아모레퍼시픽","tel":"032-613-6727","addr":"경기도 부천시 송내동 393번지 성보빌딩 3층","indutype":"보건위생 - 화장품","category":"beauty"},{"name":"아모레퍼시픽","tel":"032-613-6727","addr":"경기도 부천시 송내동 393번지 성보빌딩 3층","indutype":"보건위생 - 화장품","category":"beauty"},{"name":"아모레퍼시픽부일특약점","tel":"032-613-6727","addr":"경기도 부천시 송내동 393번지 성보빌딩 3층","indutype":"보건위생 - 화장품","category":"beauty"},{"name":"오행쑥뜸방","tel":"032-651-0975","addr":"경기도 부천시 송내동 393번지 성보빌딩 201호","indutype":"보건위생 - 피부미용실","category":"beauty"},{"name":"화니본안경","tel":"032-664-1001","addr":"경기도 부천시 송내동 393번지","indutype":"보건위생 - 안경","category":"beauty"}]},{"lat":"37.481454463","long":"126.76979752","imageIndex":13,"items":[{"name":"아이리스헤어","tel":"032-654-6630","addr":"경기도 부천시 송내동 588-9번지 1층 4호","indutype":"보건위생 - 미용원","category":"beauty"}]},{"lat":"37.483816917","long":"126.76174007","imageIndex":13,"items":[{"name":"아이비전안경","tel":"032-667-1882","addr":"경기도 부천시 송내동 366-2번지","indutype":"보건위생 - 안경","category":"beauty"}]},{"lat":"37.486458148","long":"126.75369249","imageIndex":13,"items":[{"name":"안경나라송내점","tel":"032-653-3600","addr":"경기도 부천시 송내동 299-3번지 영상빌딩 1층","indutype":"보건위생 - 안경","category":"beauty"}]},{"lat":"37.482148336","long":"126.76985189","imageIndex":13,"items":[{"name":"양경애헤어2000","tel":"032-661-0358","addr":"경기도 부천시 송내동 588-1번지","indutype":"보건위생 - 미용원","category":"beauty"}]},{"lat":"37.485211078","long":"126.75194412","imageIndex":13,"items":[{"name":"양지의료기","tel":"032-668-0350","addr":"경기도 부천시 송내동 704-7번지 1층 1호","indutype":"보건위생 - 의료용품","category":"beauty"}]},{"lat":"37.480619766","long":"126.77143946","imageIndex":13,"items":[{"name":"에뿌제","tel":"070-5022-5766","addr":"경기도 부천시 송내동 605-20번지 송내동 우남푸르미아 102호","indutype":"보건위생 - 미용원","category":"beauty"}]},{"lat":"37.486955513","long":"126.75888067","imageIndex":13,"items":[{"name":"에쉐르","tel":"070-8682-8560","addr":"경기도 부천시 송내동 355-8번지 지하1층","indutype":"보건위생 - 미용재료","category":"beauty"}]},{"lat":"37.487346988","long":"126.74385257","imageIndex":13,"items":[{"name":"에스비플래닛","tel":"02-815-7972","addr":"경기도 부천시 송내동 689-3번지 1층","indutype":"보건위생 - 미용재료","category":"beauty"}]},{"lat":"37.487011126","long":"126.75529622","imageIndex":13,"items":[{"name":"엑설런트","tel":"032-529-2007","addr":"경기도 부천시 송내동 299-19번지 103호","indutype":"보건위생 - 미용재료","category":"beauty"}]},{"lat":"37.483873459","long":"126.75424378","imageIndex":13,"items":[{"name":"엘레메닉(주)","tel":"032-613-5007","addr":"경기도 부천시 송내동 327-1번지 3층","indutype":"보건위생 - 의료용품","category":"beauty"}]},{"lat":"37.487287414","long":"126.75385934","imageIndex":13,"items":[{"name":"오래오래네일아트","tel":"032-666-5667","addr":"경기도 부천시 송내동 280-3번지 2층","indutype":"보건위생 - 피부미용실","category":"beauty"}]},{"lat":"37.486402082","long":"126.75274292","imageIndex":13,"items":[{"name":"오렌즈 송내남부역점","tel":"032-611-5880","addr":"경기도 부천시 송내동 709-5번지 1층 1호","indutype":"보건위생 - 안경","category":"beauty"},{"name":"주)사라퀸","tel":"","addr":"경기도 부천시 송내동 709-5번지 401호","indutype":"보건위생 - 화장품","category":"beauty"}]},{"lat":"37.483732332","long":"126.76896508","imageIndex":13,"items":[{"name":"오휘 남부점","tel":"","addr":"경기도 부천시 송내동 381번지 4층","indutype":"보건위생 - 화장품","category":"beauty"}]},{"lat":"37.483647761","long":"126.76721287","imageIndex":13,"items":[{"name":"오휘남부점","tel":"032-679-5245","addr":"경기도 부천시 송내동 385-2번지 2층","indutype":"보건위생 - 화장품","category":"beauty"}]},{"lat":"37.483342939","long":"126.77255038","imageIndex":13,"items":[{"name":"온세상의료기","tel":"032-614-7799","addr":"경기도 부천시 송내동 577-6번지 1층","indutype":"보건위생 - 의료용품","category":"beauty"}]},{"lat":"37.483655078","long":"126.77091001","imageIndex":13,"items":[{"name":"올뎃헤어","tel":"032-614-7890","addr":"경기도 부천시 송내동 578번지 아이홈 B05호","indutype":"보건위생 - 미용원","category":"beauty"}]},{"lat":"37.4852314905","long":"126.7617468295","imageIndex":13,"items":[{"name":"우성미용타운","tel":"032-652-5596","addr":"경기도 부천시 송내동 369-1번지","indutype":"보건위생 - 미용원","category":"beauty"}]},{"lat":"37.483100206","long":"126.76824345","imageIndex":13,"items":[{"name":"유나헤어샵","tel":"032-666-5818","addr":"경기도 부천시 송내동 383-3 가동","indutype":"보건위생 - 미용원","category":"beauty"}]},{"lat":"37.47970541","long":"126.76471538","imageIndex":13,"items":[{"name":"유노헤어","tel":"032-651-4365","addr":"경기도 부천시 송내동 453-20번지","indutype":"보건위생 - 미용원","category":"beauty"}]},{"lat":"37.486626958","long":"126.76122223","imageIndex":13,"items":[{"name":"유니베라송내남부대리점","tel":"032-612-0078","addr":"경기도 부천시 송내동 367-3번지 2층","indutype":"보건위생 - 화장품","category":"beauty"}]},{"lat":"37.479204438","long":"126.77104813","imageIndex":13,"items":[{"name":"은혜헤어나라","tel":"032-652-4837","addr":"경기도 부천시 송내동 627-9번지 부영빌라 4호","indutype":"보건위생 - 미용원","category":"beauty"}]},{"lat":"37.487147268","long":"126.75577066","imageIndex":13,"items":[{"name":"이가이헤어","tel":"","addr":"경기도 부천시 송내동 346번지 1층 일부","indutype":"보건위생 - 미용원","category":"beauty"}]},{"lat":"37.485098849","long":"126.75858143","imageIndex":13,"items":[{"name":"이노텍코리아","tel":"032-542-2030","addr":"경기도 부천시 송내동 335-14번지 열린빌딩지하 101호","indutype":"보건위생 - 미용재료","category":"beauty"},{"name":"이엔비렌즈","tel":"070-8224-9999","addr":"경기도 부천시 송내동 335-14번지 열린빌딩 2층","indutype":"보건위생 - 안경","category":"beauty"},{"name":"주식회사 이노텍코리아","tel":"032-561-1223","addr":"경기도 부천시 송내동 335-14번지 열린빌딩 지하1층","indutype":"보건위생 - 화장품","category":"beauty"}]},{"lat":"37.486710472","long":"126.75371427","imageIndex":13,"items":[{"name":"이니스프리 송내남부역점(신)","tel":"070-7539-5101","addr":"경기도 부천시 송내동 299-22번지 1층","indutype":"보건위생 - 화장품","category":"beauty"}]},{"lat":"37.483404673","long":"126.7628268","imageIndex":13,"items":[{"name":"이디아코스메틱","tel":"","addr":"경기도 부천시 송내동 393-6번지 경복빌딩 3층","indutype":"보건위생 - 화장품","category":"beauty"}]},{"lat":"37.484037276","long":"126.75502338","imageIndex":13,"items":[{"name":"이엠에스(EMS)프라이빗 여성전용","tel":"","addr":"경기도 부천시 송내동 327-2번지 동산교회 상가동 2층 205호","indutype":"보건위생 - 피부미용실","category":"beauty"}]},{"lat":"37.482040217","long":"126.76985223","imageIndex":13,"items":[{"name":"이와이 (EY)","tel":"032-652-3055","addr":"경기도 부천시 송내동 588-2번지 1층,2층","indutype":"보건위생 - 미용원","category":"beauty"}]},{"lat":"37.48484372","long":"126.76157848","imageIndex":13,"items":[{"name":"장`s 미용실","tel":"032-611-3094","addr":"경기도 부천시 송내동 365-5번지","indutype":"보건위생 - 미용원","category":"beauty"}]},{"lat":"37.485707011","long":"126.75640858","imageIndex":13,"items":[{"name":"장현헤어모드","tel":"","addr":"경기도 부천시 송내동 319-7번지","indutype":"보건위생 - 미용원","category":"beauty"}]},{"lat":"37.482843804","long":"126.76172058","imageIndex":13,"items":[{"name":"장화이뷰티헤어라인","tel":"032-665-4232","addr":"경기도 부천시 송내동 398번지","indutype":"보건위생 - 미용원","category":"beauty"}]},{"lat":"37.485627114","long":"126.75268897","imageIndex":13,"items":[{"name":"장효진뷰티","tel":"070-4300-7717","addr":"경기도 부천시 송내동 708-2번지 가원빌딩 401호","indutype":"보건위생 - 화장품","category":"beauty"}]},{"lat":"37.487376269","long":"126.74488139","imageIndex":13,"items":[{"name":"제로코스메틱","tel":"070-8888-3688","addr":"경기도 부천시 송내동 694-2번지 1층","indutype":"보건위생 - 미용재료","category":"beauty"}]},{"lat":"37.483091785","long":"126.77312777","imageIndex":13,"items":[{"name":"제이(J)헤어살롱","tel":"032-653-3088","addr":"경기도 부천시 송내동 575번지 1층 일부호","indutype":"보건위생 - 미용원","category":"beauty"}]},{"lat":"37.48598806","long":"126.75724435","imageIndex":13,"items":[{"name":"제이앤제이 (J&J)헤어","tel":"032-889-2053","addr":"경기도 부천시 송내동 336-22번지 1층","indutype":"보건위생 - 미용원","category":"beauty"}]},{"lat":"37.484092914","long":"126.7736561","imageIndex":13,"items":[{"name":"제이앤제이 코스메틱","tel":"070-7730-2523","addr":"경기도 부천시 송내동 572-7번지 신세계드림빌딩 401호","indutype":"보건위생 - 화장품","category":"beauty"}]},{"lat":"37.479875138","long":"126.76849096","imageIndex":13,"items":[{"name":"조인화헤어클럽","tel":"031-667-8628","addr":"경기도 부천시 송내동 454-14번지 1층","indutype":"보건위생 - 미용원","category":"beauty"}]},{"lat":"37.486512899","long":"126.75402021","imageIndex":13,"items":[{"name":"주식회사 성광테크","tel":"032-504-1044","addr":"경기도 부천시 송내동 299-6번지 송내테크노밸리 B07B호","indutype":"보건위생 - 미용재료","category":"beauty"}]},{"lat":"37.483402845","long":"126.76638828","imageIndex":13,"items":[{"name":"주식회사 스타고","tel":"02-478-2447","addr":"경기도 부천시 송내동 387-14번지","indutype":"보건위생 - 화장품","category":"beauty"}]},{"lat":"37.486763008","long":"126.76166276","imageIndex":13,"items":[{"name":"주식회사 하하해피","tel":"032-653-1691","addr":"경기도 부천시 송내동 523번지 3층","indutype":"보건위생 - 의료용품","category":"beauty"},{"name":"태후사랑","tel":"","addr":"경기도 부천시 송내동 523번지","indutype":"보건위생 - 미용원","category":"beauty"}]},{"lat":"37.483265383","long":"126.75643921","imageIndex":13,"items":[{"name":"주식회사쥬디산업","tel":"032-668-5989","addr":"경기도 부천시 송내동 329-11번지","indutype":"보건위생 - 미용재료","category":"beauty"}]},{"lat":"37.481677377","long":"126.75535905","imageIndex":13,"items":[{"name":"중앙의료기","tel":"032-504-2072","addr":"경기도 부천시 송내동 305-21번지 1층","indutype":"보건위생 - 의료용품","category":"beauty"}]},{"lat":"37.486926781","long":"126.75374747","imageIndex":13,"items":[{"name":"지구촌 다문화 센터","tel":"032-663-3927","addr":"경기도 부천시 송내동 299-2번지 성신빌딩 702호","indutype":"보건위생 - 기타대인서비스","category":"beauty"}]},{"lat":"37.479957641","long":"126.76469197","imageIndex":13,"items":[{"name":"지노헤어","tel":"032-666-2492","addr":"경기도 부천시 송내동 433-14번지","indutype":"보건위생 - 미용원","category":"beauty"}]},{"lat":"37.484986104","long":"126.75635441","imageIndex":13,"items":[{"name":"지원헤어","tel":"031-542-7521","addr":"경기도 부천시 송내동 323-6번지 1층","indutype":"보건위생 - 미용원","category":"beauty"}]},{"lat":"37.479794893","long":"126.76440984","imageIndex":13,"items":[{"name":"창포머리","tel":"032-661-0488","addr":"경기도 부천시 송내동 453-12번지 외,1층","indutype":"보건위생 - 미용원","category":"beauty"}]},{"lat":"37.484328808","long":"126.75656009","imageIndex":13,"items":[{"name":"최경숙헤어","tel":"032-655-2490","addr":"경기도 부천시 송내동 329-39번지 강남맨션 다동 102호","indutype":"보건위생 - 미용원","category":"beauty"}]},{"lat":"37.484959782","long":"126.75669369","imageIndex":13,"items":[{"name":"케이씨테크","tel":"","addr":"경기도 부천시 송내동 332-6번지 삼진빌딩 1층 4-2호","indutype":"보건위생 - 미용재료","category":"beauty"}]},{"lat":"37.480903386","long":"126.76905304","imageIndex":13,"items":[{"name":"케이씨티","tel":"032-652-8443","addr":"경기도 부천시 송내동 457-1번지 송내대우아파트","indutype":"보건위생 - 화장품","category":"beauty"}]},{"lat":"37.479543801","long":"126.76499853","imageIndex":13,"items":[{"name":"큐사랑 (Q사랑)","tel":"070-8286-5005","addr":"경기도 부천시 송내동 452-7번지 1층 일부","indutype":"보건위생 - 화장품","category":"beauty"}]},{"lat":"37.487208537","long":"126.75491114","imageIndex":13,"items":[{"name":"탄탄바이오","tel":"032-263-6114","addr":"경기도 부천시 송내동 296-18번지 광명빌딩 2층 202호","indutype":"보건위생 - 의료용품","category":"beauty"}]},{"lat":"37.479259474","long":"126.76698923","imageIndex":13,"items":[{"name":"태희가머리하는곳","tel":"032-661-0410","addr":"경기도 부천시 송내동 463-62번지 1층","indutype":"보건위생 - 미용원","category":"beauty"}]},{"lat":"37.486789578","long":"126.75277554","imageIndex":13,"items":[{"name":"토니모리송내점","tel":"032-665-1515","addr":"경기도 부천시 송내동 709-2번지 라라스타찌오네 103호","indutype":"보건위생 - 화장품","category":"beauty"}]},{"lat":"37.48606684","long":"126.75613603","imageIndex":13,"items":[{"name":"티안코스메틱","tel":"031-111-1111","addr":"경기도 부천시 송내동 302-10번지 1층","indutype":"보건위생 - 화장품","category":"beauty"}]},{"lat":"37.484516554","long":"126.77374526","imageIndex":13,"items":[{"name":"프로포즈원헤어","tel":"032-668-3088","addr":"경기도 부천시 송내동 571-14번지","indutype":"보건위생 - 미용원","category":"beauty"}]},{"lat":"37.483127613","long":"126.76393569","imageIndex":13,"items":[{"name":"플러스메디(Plusmedi)","tel":"032-663-7529","addr":"경기도 부천시 송내동 389-10번지 샬롬빌딩 405호","indutype":"보건위생 - 의료용품","category":"beauty"}]},{"lat":"37.48695462","long":"126.75413181","imageIndex":13,"items":[{"name":"피부를그리다","tel":"032-511-5656","addr":"경기도 부천시 송내동 299-7번지 성인빌딩 3층 301호","indutype":"보건위생 - 피부미용실","category":"beauty"}]},{"lat":"37.487120876","long":"126.75607603","imageIndex":13,"items":[{"name":"피부앤풋샵","tel":"","addr":"경기도 부천시 송내동 349-12번지 1층 4호","indutype":"보건위생 - 피부미용실","category":"beauty"},{"name":"헤어토크","tel":"","addr":"경기도 부천시 송내동 349-12번지 1층 3호","indutype":"보건위생 - 미용원","category":"beauty"}]},{"lat":"37.486789413","long":"126.76135739","imageIndex":13,"items":[{"name":"하얀나라","tel":"032-614-0078","addr":"경기도 부천시 송내동 363-12번지 2층","indutype":"보건위생 - 피부미용실","category":"beauty"}]},{"lat":"37.485348665","long":"126.76176907","imageIndex":13,"items":[{"name":"한결메디칼","tel":"032-221-1557","addr":"경기도 부천시 송내동 369번지 2층","indutype":"보건위생 - 의료용품","category":"beauty"}]},{"lat":"37.486174316","long":"126.75155647","imageIndex":13,"items":[{"name":"한국메디칼","tel":"032-611-2775","addr":"경기도 부천시 송내동 701-6번지","indutype":"보건위생 - 의료용품","category":"beauty"}]},{"lat":"37.47840218","long":"126.77085841","imageIndex":13,"items":[{"name":"헝클머리","tel":"032-612-6100","addr":"경기도 부천시 송내동 672-5번지 지층 일부호","indutype":"보건위생 - 미용원","category":"beauty"}]},{"lat":"37.480037886","long":"126.7642734","imageIndex":13,"items":[{"name":"헤어마을","tel":"032-656-7143","addr":"경기도 부천시 송내동 433-17번지","indutype":"보건위생 - 미용원","category":"beauty"}]},{"lat":"37.486621003","long":"126.75832772","imageIndex":13,"items":[{"name":"헤어밸리","tel":"032-506-9905","addr":"경기도 부천시 송내동 336-6번지","indutype":"보건위생 - 미용원","category":"beauty"}]},{"lat":"37.486119551","long":"126.75549138","imageIndex":13,"items":[{"name":"헤어카페","tel":"032-657-8197","addr":"경기도 부천시 송내동 302-8번지 1층","indutype":"보건위생 - 미용원","category":"beauty"}]},{"lat":"37.487095191","long":"126.75672061","imageIndex":13,"items":[{"name":"현미용실","tel":"032-613-6050","addr":"경기도 부천시 송내동 349-9번지 101호","indutype":"보건위생 - 미용원","category":"beauty"}]}]