[{"lat":"37.836343374","long":"127.50924992","imageIndex":7,"items":[{"name":"(유)세화상사","tel":"031-582-3494","addr":"경기도 가평군 가평읍 읍내리 742번지","indutype":"음료식품 - 기타음료식품","category":"food"}]},{"lat":"37.834820695","long":"127.50927359","imageIndex":7,"items":[{"name":"K-마트 정육점","tel":"031-581-8911","addr":"경기도 가평군 가평읍 읍내리 673번지","indutype":"음료식품 - 정육점","category":"food"}]},{"lat":"37.831509117","long":"127.51463517","imageIndex":7,"items":[{"name":"가평건강원","tel":"031-582-3481","addr":"경기도 가평군 가평읍 읍내리 426-7번지","indutype":"건강식품 - 기타건강식품","category":"food"}]},{"lat":"37.8310709","long":"127.51596115","imageIndex":7,"items":[{"name":"가평군농협농자재백화점","tel":"031-581-2391","addr":"경기도 가평군 가평읍 읍내리 417-1번지 가평군농협농용자재백화점","indutype":"음료식품 - 농·축·수산품","category":"food"}]},{"lat":"37.83128748","long":"127.50963565","imageIndex":7,"items":[{"name":"가평군청(가평썰매장식당매점)","tel":"031-580-2932","addr":"경기도 가평군 가평읍 읍내리 513번지","indutype":"음료식품 - 기타음료식품","category":"food"}]},{"lat":"37.82892514","long":"127.51216384","imageIndex":7,"items":[{"name":"가평잣 림의향기","tel":"031-581-2822","addr":"경기도 가평군 가평읍 읍내리 468-24번지 1층","indutype":"음료식품 - 농·축·수산품","category":"food"}]},{"lat":"37.830845102","long":"127.5119385","imageIndex":7,"items":[{"name":"가평정육점","tel":"031-582-4850","addr":"경기도 가평군 가평읍 읍내리 497-5번지","indutype":"음료식품 - 정육점","category":"food"},{"name":"가평정육점","tel":"031-582-4850","addr":"경기도 가평군 가평읍 읍내리 495-7번지","indutype":"음료식품 - 정육점","category":"food"}]},{"lat":"37.833042146","long":"127.5101361","imageIndex":7,"items":[{"name":"가평특선주영농조합법인","tel":"031-581-5009","addr":"경기도 가평군 가평읍 읍내리 615-12번지","indutype":"음료식품-주류판매","category":"food"},{"name":"참조은고기","tel":"","addr":"경기도 가평군 가평읍 읍내리 615-2번지","indutype":"음료식품 - 정육점","category":"food"}]},{"lat":"37.827349485","long":"127.5119372","imageIndex":7,"items":[{"name":"가평하림","tel":"031-581-1586","addr":"경기도 가평군 가평읍 읍내리 329-49번지","indutype":"음료식품 - 정육점","category":"food"}]},{"lat":"37.828877532","long":"127.51483281","imageIndex":7,"items":[{"name":"경기닭집","tel":"031-582-2202","addr":"경기도 가평군 가평읍 읍내리 402-10번지","indutype":"음료식품 - 정육점","category":"food"}]},{"lat":"37.828346004","long":"127.51275051","imageIndex":7,"items":[{"name":"경민도매유통","tel":"031-582-6429","addr":"경기도 가평군 가평읍 읍내리 338-16번지","indutype":"음료식품 - 기타음료식품","category":"food"}]},{"lat":"37.827707193","long":"127.51463163","imageIndex":7,"items":[{"name":"경북상회","tel":"031-582-2672","addr":"경기도 가평군 가평읍 읍내리 475-34번지","indutype":"음료식품 - 농·축·수산품","category":"food"},{"name":"경북상회","tel":"031-582-2672","addr":"경기도 가평군 가평읍 읍내리 475-34번지","indutype":"음료식품 - 농·축·수산품","category":"food"},{"name":"한탕품건강원","tel":"031-582-7316","addr":"경기도 가평군 가평읍 읍내리 475-37번지","indutype":"건강식품 - 기타건강식품","category":"food"},{"name":"한탕품건강원","tel":"031-582-7316","addr":"경기도 가평군 가평읍 읍내리 475-34","indutype":"건강식품 - 기타건강식품","category":"food"}]},{"lat":"37.832038272","long":"127.51102661","imageIndex":7,"items":[{"name":"고려건강원","tel":"031-582-8566","addr":"경기도 가평군 가평읍 읍내리 503-4번지","indutype":"건강식품 - 기타건강식품","category":"food"}]},{"lat":"37.831234651","long":"127.51144138","imageIndex":7,"items":[{"name":"권덕희전통된장","tel":"031-581-0089","addr":"경기도 가평군 가평읍 읍내리 499-2","indutype":"음료식품 - 기타음료식품","category":"food"}]},{"lat":"37.826319906","long":"127.51666654","imageIndex":7,"items":[{"name":"그린푸드","tel":"031-582-8366","addr":"경기도 가평군 가평읍 읍내리 376-5번지 1층","indutype":"음료식품 - 기타음료식품","category":"food"}]},{"lat":"37.827535626","long":"127.51472131","imageIndex":7,"items":[{"name":"금강정육할인마트","tel":"031-582-2571","addr":"경기도 가평군 가평읍 읍내리 475-19","indutype":"음료식품 - 정육점","category":"food"},{"name":"금강정육할인마트","tel":"031-582-2571","addr":"경기도 가평군 가평읍 읍내리 475-19번지","indutype":"음료식품 - 정육점","category":"food"}]},{"lat":"37.831010966","long":"127.51316641","imageIndex":7,"items":[{"name":"던킨도너츠","tel":"031-582-2622","addr":"경기도 가평군 가평읍 읍내리 447-1번지 1층","indutype":"음료식품 - 제과점","category":"food"}]},{"lat":"37.836065655","long":"127.50888451","imageIndex":7,"items":[{"name":"도연식품","tel":"031-581-8574","addr":"경기도 가평군 가평읍 읍내리 738-2번지","indutype":"음료식품 - 정육점","category":"food"}]},{"lat":"37.828900383","long":"127.51371981","imageIndex":7,"items":[{"name":"뚱청과","tel":"031-581-2409","addr":"경기도 가평군 가평읍 읍내리 476-9번지","indutype":"음료식품 - 농·축·수산품","category":"food"},{"name":"영진상회(뚱청과)","tel":"031-581-2409","addr":"경기도 가평군 가평읍 읍내리 476-9번지","indutype":"음료식품 - 농·축·수산품","category":"food"}]},{"lat":"37.832736572","long":"127.50996362","imageIndex":7,"items":[{"name":"르봉뺑","tel":"080-8252-1880","addr":"경기도 가평군 가평읍 읍내리 615-12번지","indutype":"음료식품 - 제과점","category":"food"},{"name":"르봉뺑","tel":"080-8252-1880","addr":"경기도 가평군 가평읍 읍내리 615-12번지 101호","indutype":"음료식품 - 제과점","category":"food"}]},{"lat":"37.829682704","long":"127.52230111","imageIndex":7,"items":[{"name":"리사","tel":"031-000-0000","addr":"경기도 가평군 가평읍 읍내리 316-3번지 1층","indutype":"음료식품 - 기타음료식품","category":"food"}]},{"lat":"37.828652701","long":"127.51474039","imageIndex":7,"items":[{"name":"마초보양원","tel":"031-582-5945","addr":"경기도 가평군 가평읍 읍내리 402-21번지","indutype":"건강식품 - 기타건강식품","category":"food"}]},{"lat":"37.832151711","long":"127.51187932","imageIndex":7,"items":[{"name":"만나반찬","tel":"031-584-3343","addr":"경기도 가평군 가평읍 읍내리 618-5번지 1층 2호","indutype":"음료식품 - 기타음료식품","category":"food"}]},{"lat":"37.830956106","long":"127.51126908","imageIndex":7,"items":[{"name":"만물PX","tel":"031-582-5080","addr":"경기도 가평군 가평읍 읍내리 495-38번지","indutype":"음료식품 - 기타음료식품","category":"food"},{"name":"만물PX","tel":"031-582-5080","addr":"경기도 가평군 가평읍 읍내리 495-38번지","indutype":"음료식품 - 기타음료식품","category":"food"}]},{"lat":"37.831096767","long":"127.51207654","imageIndex":7,"items":[{"name":"바른손","tel":"031-582-3445","addr":"경기도 가평군 가평읍 읍내리 457-2번지","indutype":"음료식품 - 농·축·수산품","category":"food"}]},{"lat":"37.830676056","long":"127.51352759","imageIndex":7,"items":[{"name":"베스킨라빈스 (가평점)","tel":"031-581-8858","addr":"경기도 가평군 가평읍 읍내리 471-3번지","indutype":"음료식품 - 제과점","category":"food"}]},{"lat":"37.830793321","long":"127.51349433","imageIndex":7,"items":[{"name":"본푸드","tel":"031-582-9200","addr":"경기도 가평군 가평읍 읍내리 433-2번지","indutype":"음료식품 - 정육점","category":"food"}]},{"lat":"37.830008203","long":"127.51379561","imageIndex":7,"items":[{"name":"빠리바게뜨","tel":"031-582-8886","addr":"경기도 가평군 가평읍 읍내리 473-20번지","indutype":"음료식품 - 제과점","category":"food"},{"name":"파리바게뜨","tel":"031-582-8886","addr":"경기도 가평군 가평읍 읍내리 473-20","indutype":"음료식품 - 제과점","category":"food"}]},{"lat":"37.826287879","long":"127.5157463","imageIndex":7,"items":[{"name":"빵굽는아빠","tel":"031-581-2710","addr":"경기도 가평군 가평읍 읍내리 362-7번지","indutype":"음료식품 - 제과점","category":"food"},{"name":"플러스축산","tel":"031-581-1060","addr":"경기도 가평군 가평읍 읍내리 362-7번지 플러스마트내","indutype":"음료식품 - 정육점","category":"food"}]},{"lat":"37.831011545","long":"127.51510881","imageIndex":7,"items":[{"name":"산정정육점","tel":"031-582-6147","addr":"경기도 가평군 가평읍 읍내리 415-6번지","indutype":"음료식품 - 정육점","category":"food"}]},{"lat":"37.836595285","long":"127.50933116","imageIndex":7,"items":[{"name":"서울우유가평대리점","tel":"031-582-2656","addr":"경기도 가평군 가평읍 읍내리 741-7","indutype":"음료식품 - 기타음료식품","category":"food"}]},{"lat":"37.831535214","long":"127.51277246","imageIndex":7,"items":[{"name":"아라돈","tel":"031-582-8381","addr":"경기도 가평군 가평읍 읍내리 444-1번지","indutype":"음료식품 - 정육점","category":"food"},{"name":"주식회사민정농업회사법인","tel":"031-582-8381","addr":"경기도 가평군 가평읍 읍내리 444-1번지","indutype":"음료식품 - 정육점","category":"food"}]},{"lat":"37.831153191","long":"127.5136104","imageIndex":7,"items":[{"name":"에스원푸드","tel":"031-582-9200","addr":"경기도 가평군 가평읍 읍내리 433-2번지","indutype":"음료식품 - 정육점","category":"food"}]},{"lat":"37.831953365","long":"127.51191204","imageIndex":7,"items":[{"name":"연인산건강원","tel":"031-582-5978","addr":"경기도 가평군 가평읍 읍내리 454-2번지","indutype":"건강식품 - 기타건강식품","category":"food"},{"name":"연인산건강원","tel":"031-582-5978","addr":"경기도 가평군 가평읍 읍내리 454-2번지","indutype":"건강식품 - 기타건강식품","category":"food"}]},{"lat":"37.829621489","long":"127.51155525","imageIndex":7,"items":[{"name":"용꿈돼지꿈","tel":"031-581-1221","addr":"경기도 가평군 가평읍 읍내리 489-23번지","indutype":"음료식품 - 기타음료식품","category":"food"}]},{"lat":"37.830287484","long":"127.51379753","imageIndex":7,"items":[{"name":"용운상회","tel":"031-582-2110","addr":"경기도 가평군 가평읍 읍내리 476","indutype":"음료식품 - 미곡상","category":"food"}]},{"lat":"37.835375787","long":"127.51008392","imageIndex":7,"items":[{"name":"원식품","tel":"031-581-3483","addr":"경기도 가평군 가평읍 읍내리 681-1번지","indutype":"음료식품 - 기타음료식품","category":"food"}]},{"lat":"37.828485868","long":"127.51373967","imageIndex":7,"items":[{"name":"육가원","tel":"031-581-8443","addr":"경기도 가평군 가평읍 읍내리 478-14번지","indutype":"음료식품 - 정육점","category":"food"}]},{"lat":"37.828849233","long":"127.5130493","imageIndex":7,"items":[{"name":"자연유통","tel":"031-582-9566","addr":"경기도 가평군 가평읍 읍내리 481-1번지","indutype":"음료식품 - 정육점","category":"food"}]},{"lat":"37.830425845","long":"127.51097011","imageIndex":7,"items":[{"name":"정관장가평점/상품권사용","tel":"031-581-2305","addr":"경기도 가평군 가평읍 읍내리 492-4","indutype":"건강식품 - 홍삼제품","category":"food"},{"name":"정관장홍삼가평점","tel":"031-581-2305","addr":"경기도 가평군 가평읍 읍내리 492-4,1/1","indutype":"건강식품 - 홍삼제품","category":"food"},{"name":"정관장홍삼가평점","tel":"031-581-2305","addr":"경기도 가평군 가평읍 읍내리 492-4번지","indutype":"건강식품 - 홍삼제품","category":"food"}]},{"lat":"37.828737629","long":"127.513855","imageIndex":7,"items":[{"name":"제일떡집","tel":"031-582-8682","addr":"경기도 가평군 가평읍 읍내리 478-6번지 제일떡집","indutype":"음료식품 - 제과점","category":"food"}]},{"lat":"37.834569084","long":"127.51121436","imageIndex":7,"items":[{"name":"조흥식품","tel":"031-1899-3818","addr":"경기도 가평군 가평읍 읍내리 686-3번지","indutype":"음료식품 - 기타음료식품","category":"food"}]},{"lat":"37.829376583","long":"127.51401843","imageIndex":7,"items":[{"name":"종로떡집","tel":"031-582-3666","addr":"경기도 가평군 가평읍 읍내리 474-4번지","indutype":"음료식품 - 제과점","category":"food"}]},{"lat":"37.83331413","long":"127.50974039","imageIndex":7,"items":[{"name":"참 조은고기","tel":"031-581-7005","addr":"경기도 가평군 가평읍 읍내리 615-2번지","indutype":"음료식품 - 정육점","category":"food"}]},{"lat":"37.829152884","long":"127.51366476","imageIndex":7,"items":[{"name":"참새방아","tel":"031-582-2198","addr":"경기도 가평군 가평읍 읍내리 476-3번지 참새방아","indutype":"음료식품 - 기타음료식품","category":"food"}]},{"lat":"37.834179634","long":"127.51168878","imageIndex":7,"items":[{"name":"카라자연벌꿀농산물","tel":"031-581-8816","addr":"경기도 가평군 가평읍 읍내리 627-11번지 102호","indutype":"음료식품 - 농·축·수산품","category":"food"}]},{"lat":"37.830513548","long":"127.51360599","imageIndex":7,"items":[{"name":"칸베이커리","tel":"031-581-0122","addr":"경기도 가평군 가평읍 읍내리 471-2번지","indutype":"음료식품 - 제과점","category":"food"},{"name":"풍성장터","tel":"031-582-7115","addr":"경기도 가평군 가평읍 읍내리 471-2번지","indutype":"음료식품 - 정육점","category":"food"}]},{"lat":"37.831182631","long":"127.51305401","imageIndex":7,"items":[{"name":"쿡이랑찬이랑","tel":"031-581-8203","addr":"경기도 가평군 가평읍 읍내리 446-16번지","indutype":"음료식품 - 기타음료식품","category":"food"}]},{"lat":"37.828871089","long":"127.51424211","imageIndex":7,"items":[{"name":"한우리축산","tel":"031-581-7652","addr":"경기도 가평군 가평읍 읍내리 475-9번지","indutype":"음료식품 - 정육점","category":"food"}]},{"lat":"37.83004061","long":"127.51046768","imageIndex":7,"items":[{"name":"핸드폰 마켓","tel":"031-581-4044","addr":"경기도 가평군 가평읍 읍내리 494-10번지 외 2필지","indutype":"음료식품 - 기타음료식품","category":"food"}]},{"lat":"37.831265778","long":"127.5125775","imageIndex":7,"items":[{"name":"현대방앗간","tel":"031-581-0230","addr":"경기도 가평군 가평읍 읍내리 452번지","indutype":"음료식품 - 제과점","category":"food"},{"name":"현대방앗간","tel":"031-581-0230","addr":"경기도 가평군 가평읍 읍내리 452","indutype":"음료식품 - 제과점","category":"food"}]},{"lat":"37.828538444","long":"127.5140808","imageIndex":7,"items":[{"name":"형제축산육가공","tel":"","addr":"경기도 가평군 가평읍 읍내리 476-4번지","indutype":"음료식품 - 정육점","category":"food"}]},{"lat":"37.844761443","long":"127.50846675","imageIndex":7,"items":[{"name":"효인네가평잣농원","tel":"","addr":"경기도 가평군 가평읍 읍내리 162-1번지","indutype":"음료식품 - 농·축·수산품","category":"food"}]},{"lat":"37.83170139","long":"127.5034364","imageIndex":7,"items":[{"name":"효자원식품","tel":"031-581-4940","addr":"경기도 가평군 가평읍 읍내리 864","indutype":"음료식품 - 기타음료식품","category":"food"}]}]