[{"lat":"37.085822282","long":"127.1532203","imageIndex":17,"items":[{"name":"(주)엔타스푸드시스템","tel":"02-486-0222","addr":"경기도 안성시 원곡면 성은리 188-7번지 2층","indutype":"신변잡화 - 기타잡화","category":"other"}]},{"lat":"37.076818398","long":"127.15504681","imageIndex":17,"items":[{"name":"(주)지에이치티","tel":"","addr":"경기도 안성시 원곡면 성은리 280-1번지 B동","indutype":"전기제품 - 기타전기제품","category":"other"}]},{"lat":"37.073517864","long":"127.15710933","imageIndex":17,"items":[{"name":"GS25안성성은점","tel":"","addr":"경기도 안성시 원곡면 성은리 348-1번지","indutype":"유통업 영리 - 편 의 점","category":"other"},{"name":"GS25안성성은점","tel":"080-555-2525","addr":"경기도 안성시 원곡면 성은리 348-1번지","indutype":"유통업 영리 - 편 의 점","category":"other"}]},{"lat":"37.083151353","long":"127.1490538","imageIndex":17,"items":[{"name":"NY202","tel":"070-7624-5222","addr":"경기도 안성시 원곡면 성은리 202-8","indutype":"회원제형태 - 기타4","category":"other"}]},{"lat":"37.070402687","long":"127.16205068","imageIndex":17,"items":[{"name":"김쌤트레이드","tel":"031-657-0734","addr":"경기도 안성시 원곡면 성은리 415번지","indutype":"의류 - 정장","category":"other"}]},{"lat":"37.083175943","long":"127.151022","imageIndex":17,"items":[{"name":"농업회사법인 주식회사 성은화훼유통센터","tel":"031-655-6149","addr":"경기도 안성시 원곡면 성은리 170-5번지","indutype":"문화.취미 - 화원","category":"other"}]},{"lat":"37.067511023","long":"127.1681053","imageIndex":17,"items":[{"name":"레이크타운","tel":"031-618-3577","addr":"경기도 안성시 원곡면 성은리 449-2번지","indutype":"용역 서비스 - 부동산 중개·임대","category":"other"}]},{"lat":"37.066294206","long":"127.16838376","imageIndex":17,"items":[{"name":"무비마운틴","tel":"031-655-4895","addr":"경기도 안성시 원곡면 성은리 449-1","indutype":"문화.취미 - 티켓","category":"other"}]},{"lat":"37.079317028","long":"127.15988759","imageIndex":17,"items":[{"name":"봄씽크","tel":"031-655-2825","addr":"경기도 안성시 원곡면 성은리 116-1","indutype":"회원제형태 - 기타3","category":"other"}]},{"lat":"37.078068252","long":"127.16385479","imageIndex":17,"items":[{"name":"선일그라스","tel":"","addr":"경기도 안성시 원곡면 성은리 4번지","indutype":"건축자재 - 유리","category":"other"}]},{"lat":"37.073066545","long":"127.15771565","imageIndex":17,"items":[{"name":"성은이불","tel":"031-657-3316","addr":"경기도 안성시 원곡면 성은리 350-13번지","indutype":"직물 - 침구·수예점","category":"other"}]},{"lat":"37.087203203","long":"127.15138974","imageIndex":17,"items":[{"name":"세븐일레븐안성원곡성은점","tel":"031-1577-0711","addr":"경기도 안성시 원곡면 성은리 188-1번지","indutype":"유통업 영리 - 편 의 점","category":"other"}]},{"lat":"37.07790143","long":"127.15366574","imageIndex":17,"items":[{"name":"씨유안성성은휴게소점","tel":"031-691-1738","addr":"경기도 안성시 원곡면 성은리 275-3번지 나동","indutype":"유통업 영리 - 편 의 점","category":"other"}]},{"lat":"37.075294458","long":"127.1559434","imageIndex":17,"items":[{"name":"오토그린 주식회사","tel":"031-691-9788","addr":"경기도 안성시 원곡면 성은리 285-13번지","indutype":"농업 - 기타농업관련","category":"other"}]},{"lat":"37.072794257","long":"127.16591273","imageIndex":17,"items":[{"name":"이원황토","tel":"031-353-5063","addr":"경기도 안성시 원곡면 성은리 산30번지 1층","indutype":"건축자재 - 기타건축자재","category":"other"}]},{"lat":"37.071845652","long":"127.15419351","imageIndex":17,"items":[{"name":"주방인","tel":"070-4940-6765","addr":"경기도 안성시 원곡면 성은리 335-2번지","indutype":"주방용구 - 주방용구","category":"other"}]},{"lat":"37.077652313","long":"127.15818605","imageIndex":17,"items":[{"name":"주식회사서남","tel":"031-655-4336","addr":"경기도 안성시 원곡면 성은리 103","indutype":"전기제품 - 기타전기제품","category":"other"}]},{"lat":"37.074705155","long":"127.15871981","imageIndex":17,"items":[{"name":"주식회사에이맥스테크놀러지/원격지","tel":"031-668-4425","addr":"경기도 안성시 원곡면 성은리 358-7번지 (주)에이맥스테크놀러지","indutype":"기타 - 기타 전문점","category":"other"}]},{"lat":"37.084039799","long":"127.15194591","imageIndex":17,"items":[{"name":"진보산업","tel":"031-656-4604","addr":"경기도 안성시 원곡면 성은리 181-8","indutype":"전기제품 - 냉열기기","category":"other"}]},{"lat":"37.074346163","long":"127.16438669","imageIndex":17,"items":[{"name":"키친탑리폼공장","tel":"031-655-6908","addr":"경기도 안성시 원곡면 성은리 64-2번지","indutype":"가구 - 일반가구","category":"other"}]}]