[{"lat":"37.368947552","long":"126.81060608","imageIndex":17,"items":[{"name":"e-슈포토","tel":"031-318-2906","addr":"경기도 시흥시 능곡동 741번지","indutype":"개인서비스업 - 사진","category":"other"},{"name":"길성유통","tel":"","addr":"경기도 시흥시 능곡동 741번지","indutype":"소매업 - 아동복","category":"other"},{"name":"리코코","tel":"","addr":"경기도 시흥시 능곡동 741번지","indutype":"소매업 - 의류","category":"other"},{"name":"삼촌인테리어","tel":"031-315-8588","addr":"경기도 시흥시 능곡동 741번지","indutype":"소매업 - 지물","category":"other"},{"name":"안경매니저","tel":"031-318-6797","addr":"경기도 시흥시 능곡동 741번지","indutype":"소매업 - 안경","category":"other"}]},{"lat":"37.369198252","long":"126.80963458","imageIndex":17,"items":[{"name":"㈜디아이","tel":"070-4693-0330","addr":"경기도 시흥시 능곡동 727번지 서일프라자 501호","indutype":"제조업 - 도소매,제조","category":"other"}]},{"lat":"37.368363325","long":"126.81148812","imageIndex":17,"items":[{"name":"가브리엘 캐롬클럽","tel":"070-8878-7500","addr":"경기도 시흥시 능곡동 751번지 성광프라자 501호","indutype":"개인서비스업 - 스포츠","category":"other"},{"name":"명품노래연습장","tel":"031-318-4174","addr":"경기도 시흥시 능곡동 751번지 401-2호","indutype":"스포츠및여가관련서비스업 - 노래연습장","category":"other"},{"name":"샹떼PC방 시흥능곡점","tel":"","addr":"경기도 시흥시 능곡동 751번지 성광프라자 3층 301-303호","indutype":"개인서비스업 - PC방","category":"other"}]},{"lat":"37.36949599","long":"126.80988218","imageIndex":17,"items":[{"name":"국검검도관","tel":"031-404-4540","addr":"경기도 시흥시 능곡동 719번지 능곡타운 8층 802호","indutype":"교육서비스업 - 검도","category":"other"},{"name":"다영 공인중개사 사무소","tel":"031-318-3322","addr":"경기도 시흥시 능곡동 719번지 능곡타운 114호","indutype":"개인서비스업 - 부동산중개업","category":"other"},{"name":"블랙홀스크린골프","tel":"031-316-0056","addr":"경기도 시흥시 능곡동 719번지 능곡타운 601호","indutype":"스포츠및여가관련서비스업 - 골프연습장","category":"other"}]},{"lat":"37.368056763","long":"126.81135343","imageIndex":17,"items":[{"name":"글라스박스안경원","tel":"031-405-5555","addr":"경기도 시흥시 능곡동 755번지 호평프라자 105~106호","indutype":"소매업 - 안경","category":"other"},{"name":"수라궁반찬","tel":"","addr":"경기도 시흥시 능곡동 755번지 호평프라자 107호","indutype":"제조업 - 반찬","category":"other"},{"name":"열정태권도장","tel":"031-435-0788","addr":"경기도 시흥시 능곡동 755번지 호평프라자 501,502호","indutype":"교육서비스업 - 태권도","category":"other"}]},{"lat":"37.36797622","long":"126.8116923","imageIndex":17,"items":[{"name":"나라찬태권도","tel":"031-311-5755","addr":"경기도 시흥시 능곡동 756번지 603,604호","indutype":"교육서비스업 - 태권도","category":"other"},{"name":"비타민 청과야채","tel":"031-435-1422","addr":"경기도 시흥시 능곡동 756번지 미래도프라자 106호","indutype":"소매업 - 과실","category":"other"},{"name":"크린토피아 시흥능곡점","tel":"031-315-2020","addr":"경기도 시흥시 능곡동 756번지 미래도프라자 106-2호","indutype":"개인서비스업 - 세탁업","category":"other"},{"name":"하나농산물","tel":"031-404-1122","addr":"경기도 시흥시 능곡동 756번지 미래도프라자 108호","indutype":"소매업 - 농산물","category":"other"},{"name":"휴먼문구플러스","tel":"031-311-8386","addr":"경기도 시흥시 능곡동 756번지 미래도프라자 102호","indutype":"소매업 - 문구","category":"other"}]},{"lat":"37.368307377","long":"126.81032549","imageIndex":17,"items":[{"name":"놀숲 시흥장현 가온신도시점","tel":"031-404-2112","addr":"경기도 시흥시 능곡동 752번지 효창프라자 203호","indutype":"개인서비스업 - 도서대여","category":"other"},{"name":"능곡늘푸른정형외과","tel":"031-317-7252","addr":"경기도 시흥시 능곡동 752번지 효창프라자 303호","indutype":"보건업 - 정형외과","category":"other"},{"name":"비와이씨(BYC)","tel":"031-404-4928","addr":"경기도 시흥시 능곡동 752번지 효창프라자 105호","indutype":"소매업 - 속옷","category":"other"},{"name":"온스타일다운마켓(Tworld)","tel":"031-317-6660","addr":"경기도 시흥시 능곡동 752번지 효창프라자 106~107호","indutype":"소매업 - 통신기기,잡화,액세서리","category":"other"},{"name":"자라는소아청년과의원","tel":"031-315-1272","addr":"경기도 시흥시 능곡동 752번지 효창프라자 302호","indutype":"보건업 - 소아과","category":"other"},{"name":"홍성한우축산물직판장","tel":"031-318-7284","addr":"경기도 시흥시 능곡동 752번지","indutype":"소매업 - 식육","category":"other"}]},{"lat":"37.369137845","long":"126.81127165","imageIndex":17,"items":[{"name":"농수산물직거래장","tel":"","addr":"경기도 시흥시 능곡동 735번지 능곡동정우빌딩 102호","indutype":"소매업 - 야채","category":"other"},{"name":"다희네반찬","tel":"031-318-8787","addr":"경기도 시흥시 능곡동 735번지 정우빌딩 1층 103호","indutype":"소매업 - 반찬","category":"other"},{"name":"매니아당구장","tel":"031-317-3301","addr":"경기도 시흥시 능곡동 735번지 4층","indutype":"스포츠및여가관련서비스업 - 당구장","category":"other"},{"name":"방아쟁이떡집","tel":"031-492-9237","addr":"경기도 시흥시 능곡동 735번지 정우빌딩","indutype":"제조업 - 떡류","category":"other"}]},{"lat":"37.362915655","long":"126.81363542","imageIndex":17,"items":[{"name":"농업회사법인 시흥표고 주식회사","tel":"031-319-0105","addr":"경기도 시흥시 능곡동 414-3번지","indutype":"소매업 - 작물재배,버섯재배","category":"other"},{"name":"협동조합 시흥효도회","tel":"070-4126-0145","addr":"경기도 시흥시 능곡동 414-3번지","indutype":"소매업 - 곤충사육,체험,가공판매","category":"other"}]},{"lat":"37.368273772","long":"126.81182701","imageIndex":17,"items":[{"name":"능곡동주민자치위원회","tel":"070-4266-4735","addr":"경기도 시흥시 능곡동 750번지","indutype":"기타 - 주민자치위원회","category":"other"}]},{"lat":"37.369307956","long":"126.81060516","imageIndex":17,"items":[{"name":"능곡지앤비어학원","tel":"031-404-4320","addr":"경기도 시흥시 능곡동 733번지 능곡프라자 401~402호","indutype":"교육서비스업 - 영어, 보습","category":"other"},{"name":"보석명가","tel":"031-402-1001","addr":"경기도 시흥시 능곡동 733번지 능곡프라자 107호","indutype":"소매업 - 귀금속,시계","category":"other"},{"name":"안경나라 능곡점","tel":"031-317-1300","addr":"경기도 시흥시 능곡동 733번지 능곡프라자 105호","indutype":"소매업 - 안경","category":"other"},{"name":"큐티펫","tel":"031-318-4789","addr":"경기도 시흥시 능곡동 733번지 능곡프라자 108~9호","indutype":"소매업 - 애완용품","category":"other"}]},{"lat":"37.367913988","long":"126.81221175","imageIndex":17,"items":[{"name":"능곡청과","tel":"031-312-5556","addr":"경기도 시흥시 능곡동 762번지 센타프라자 101호","indutype":"소매업 - 청과","category":"other"},{"name":"러블리모모","tel":"070-8886-9584","addr":"경기도 시흥시 능곡동 762번지","indutype":"소매업 - 아동복","category":"other"},{"name":"명품한우도매센타","tel":"031-318-8278","addr":"경기도 시흥시 능곡동 762번지","indutype":"소매업 - 식육판매업","category":"other"}]},{"lat":"37.370695324","long":"126.81048873","imageIndex":17,"items":[{"name":"능곡형제축산","tel":"031-404-3553","addr":"경기도 시흥시 능곡동 542번지 104호","indutype":"소매업 - 식육","category":"other"},{"name":"또바기세탁명가","tel":"031-318-3396","addr":"경기도 시흥시 능곡동 542번지 101호","indutype":"개인서비스업 - 세탁소","category":"other"}]},{"lat":"37.37150252","long":"126.8137719","imageIndex":17,"items":[{"name":"보쉬카 능곡점","tel":"031-404-1233","addr":"경기도 시흥시 능곡동 561번지","indutype":"개인서비스업 - 카센터","category":"other"}]},{"lat":"37.368551219","long":"126.81067483","imageIndex":17,"items":[{"name":"샵노래연습장","tel":"031-317-2210","addr":"경기도 시흥시 능곡동 744번지 4층 402,403호","indutype":"스포츠및여가관련서비스업 - 노래연습장","category":"other"},{"name":"엔플라워","tel":"031-404-8595","addr":"경기도 시흥시 능곡동 744번지 월드프라자 109호","indutype":"소매업 - 관엽. 꽃","category":"other"}]},{"lat":"37.369218387","long":"126.81093278","imageIndex":17,"items":[{"name":"서협문고","tel":"031-316-8230","addr":"경기도 시흥시 능곡동 734번지 201호","indutype":"소매업 - 서적","category":"other"}]},{"lat":"37.368696935","long":"126.81163403","imageIndex":17,"items":[{"name":"스크린골프존","tel":"031-317-8597","addr":"경기도 시흥시 능곡동 747번지","indutype":"개인서비스업 - 스크린골프","category":"other"},{"name":"첼로노래연습장","tel":"","addr":"경기도 시흥시 능곡동 747번지 4층 401호,402호","indutype":"스포츠및여가관련서비스업 - 노래연습장","category":"other"}]},{"lat":"37.368474445","long":"126.81335052","imageIndex":17,"items":[{"name":"시흥시노인종합복지관","tel":"031-404-3100","addr":"경기도 시흥시 능곡동 765번지","indutype":"기타 - 복지관","category":"other"}]},{"lat":"37.363611914","long":"126.81519145","imageIndex":17,"items":[{"name":"아로마세탁","tel":"031-318-8188","addr":"경기도 시흥시 능곡동 802번지 우남퍼스트빌","indutype":"개인서비스업 - 세탁업","category":"other"}]},{"lat":"37.369144653","long":"126.80991694","imageIndex":17,"items":[{"name":"아이기스 시흥주짓수","tel":"031-404-0487","addr":"경기도 시흥시 능곡동 728번지 건아빌딩 601호","indutype":"교육서비스업 - 주짓수,합기도","category":"other"}]},{"lat":"37.368495282","long":"126.80952349","imageIndex":17,"items":[{"name":"아토키즈카페","tel":"070-8623-3747","addr":"경기도 시흥시 능곡동 724번지 5층","indutype":"개인서비스업 - 실내놀이터, 키즈카페","category":"other"},{"name":"올리브","tel":"","addr":"경기도 시흥시 능곡동 724번지 101호","indutype":"소매업 - 의류","category":"other"}]},{"lat":"37.368806531","long":"126.81254816","imageIndex":17,"items":[{"name":"안프로 골프 아카데미","tel":"031-313-9863","addr":"경기도 시흥시 능곡동 758번지 현대프라자 402~404호","indutype":"스포츠및여가관련서비스업 - 골프연습장","category":"other"},{"name":"푸르미약국","tel":"031-315-5880","addr":"경기도 시흥시 능곡동 758번지 현대프라자 110호","indutype":"보건업 - 의약품, 의료기","category":"other"}]},{"lat":"37.370054837","long":"126.81001622","imageIndex":17,"items":[{"name":"알파 (시흥장현점)","tel":"031-317-1478","addr":"경기도 시흥시 능곡동 515번지 101호","indutype":"소매업 - 문구, 잡화","category":"other"}]},{"lat":"37.362441871","long":"126.81599582","imageIndex":17,"items":[{"name":"어!진짜한우네","tel":"031-318-1928","addr":"경기도 시흥시 능곡동 831번지","indutype":"소매업 - 정육점","category":"other"}]},{"lat":"37.36605259","long":"126.81451934","imageIndex":17,"items":[{"name":"엘드세탁소","tel":"","addr":"경기도 시흥시 능곡동 789번지","indutype":"소매업 - 세탁업","category":"other"}]},{"lat":"37.36691942","long":"126.81008069","imageIndex":17,"items":[{"name":"은혜세탁","tel":"031-404-9355","addr":"경기도 시흥시 능곡동 772번지 휴먼시아 상가 103호","indutype":"개인서비스업 - 세탁소","category":"other"},{"name":"한솔플러스수학 능곡교습소","tel":"031-404-9042","addr":"경기도 시흥시 능곡동 772번지 능곡7단지 상가 203호","indutype":"교육서비스업 - 교습소","category":"other"}]},{"lat":"37.370198094","long":"126.80946267","imageIndex":17,"items":[{"name":"찡바이크","tel":"031-404-3055","addr":"경기도 시흥시 능곡동 511번지","indutype":"스포츠및여가관련서비스업 - 자전거","category":"other"}]},{"lat":"37.370001236","long":"126.81029858","imageIndex":17,"items":[{"name":"청자네이불가게","tel":"","addr":"경기도 시흥시 능곡동 517번지","indutype":"소매업 - 이불","category":"other"}]},{"lat":"37.368607363","long":"126.81196163","imageIndex":17,"items":[{"name":"쿨노래연습장","tel":"031-313-9033","addr":"경기도 시흥시 능곡동 748번지 201~202호","indutype":"개인서비스업 - 노래연습장","category":"other"}]},{"lat":"37.367025492","long":"126.80882736","imageIndex":17,"items":[{"name":"크린토피아 휴먼시아6","tel":"031-404-7702","addr":"경기도 시흥시 능곡동 768번지 휴먼시아 상가 102호","indutype":"소매업 - 세탁업","category":"other"}]},{"lat":"37.370857561","long":"126.81052218","imageIndex":17,"items":[{"name":"피부이야기","tel":"","addr":"경기도 시흥시 능곡동 541번지 104호","indutype":"소매업 - 화장품","category":"other"}]},{"lat":"37.364747381","long":"126.80971372","imageIndex":17,"items":[{"name":"해법영어교실","tel":"031-317-5109","addr":"경기도 시흥시 능곡동 782번지 시흥능곡신안인스빌아파트 2층 203~4호","indutype":"교육서비스업 - 교습소","category":"other"}]},{"lat":"37.37044449","long":"126.81138122","imageIndex":17,"items":[{"name":"혜윰과수원","tel":"","addr":"경기도 시흥시 능곡동 554번지 시흥능곡자연앤아파트","indutype":"교육서비스업 - 과외교습소","category":"other"}]},{"lat":"37.368191054","long":"126.8108225","imageIndex":17,"items":[{"name":"황금시루","tel":"031-317-1118","addr":"경기도 시흥시 능곡동 753번지 신성프라자 103호","indutype":"소매업 - 떡류","category":"other"}]}]