[{"lat":"37.391085698","long":"126.94997697","imageIndex":13,"items":[{"name":"(주)레보네","tel":"031-389-1900","addr":"경기도 안양시 동안구 시민대로","indutype":"보건위생 - 미용재료","category":"beauty"},{"name":"바비라인토달뷰티","tel":"070-4202-6217","addr":"경기도 안양시 동안구 시민대로","indutype":"보건위생 - 화장품","category":"beauty"}]},{"lat":"37.391248056","long":"126.9503721","imageIndex":13,"items":[{"name":"가인미가 안양범계점","tel":"031-388-6105","addr":"경기도 안양시 동안구 시민대로","indutype":"보건위생 - 피부미용실","category":"beauty"}]},{"lat":"37.392196671","long":"126.95648072","imageIndex":13,"items":[{"name":"긴머리에예쁜eye","tel":"070-4046-9782","addr":"경기도 안양시 동안구 시민대로","indutype":"보건위생 - 미용원","category":"beauty"}]},{"lat":"37.393919189","long":"126.96072577","imageIndex":13,"items":[{"name":"슬림&뷰티","tel":"031-382-0498","addr":"경기도 안양시 동안구 시민대로","indutype":"보건위생 - 화장품","category":"beauty"}]},{"lat":"37.388498369","long":"126.94687348","imageIndex":13,"items":[{"name":"아모스안양점","tel":"031-440-9100","addr":"경기도 안양시 동안구 시민대로","indutype":"보건위생 - 미용재료","category":"beauty"}]},{"lat":"37.39169011","long":"126.95164784","imageIndex":13,"items":[{"name":"우리두리아동발달센터","tel":"031-388-7680","addr":"경기도 안양시 동안구 시민대로","indutype":"보건위생 - 기타대인서비스","category":"beauty"},{"name":"코리아나 피플센터","tel":"031-442-0058","addr":"경기도 안양시 동안구 시민대로","indutype":"보건위생 - 화장품","category":"beauty"}]}]