[{"lat":"37.036381717","long":"127.07606357","imageIndex":4,"items":[{"name":"1981박가네병천순대수육국밥","tel":"031-668-1330","addr":"경기도 평택시 모곡동 442-9번지","indutype":"일반휴게음식 - 일반한식","category":"restaurant"},{"name":"카페보나","tel":"031-665-1509","addr":"경기도 평택시 모곡동 442-9번지 명성 상가 1층","indutype":"일반휴게음식 - 서양음식","category":"restaurant"}]},{"lat":"37.035904139","long":"127.07608559","imageIndex":4,"items":[{"name":"공단분식","tel":"031-667-1998","addr":"경기도 평택시 모곡동 443-1번지","indutype":"일반휴게음식 - 일반한식","category":"restaurant"}]},{"lat":"37.035903986","long":"127.07633286","imageIndex":4,"items":[{"name":"공단송림식당","tel":"031-665-4231","addr":"경기도 평택시 모곡동 443-2번지","indutype":"일반휴게음식 - 일반한식","category":"restaurant"}]},{"lat":"37.036850173","long":"127.07622137","imageIndex":4,"items":[{"name":"달레나순대국","tel":"031-666-8758","addr":"경기도 평택시 모곡동 442-2번지","indutype":"음식점 - 한식","category":"restaurant"},{"name":"달레나순대국","tel":"031-668-5848","addr":"경기도 평택시 모곡동 442-2번지 은혜빌딩 1층","indutype":"일반휴게음식 - 일반한식","category":"restaurant"},{"name":"동보성","tel":"031-665-3039","addr":"경기도 평택시 모곡동 442-2번지 은혜빌딩 A동 1층","indutype":"일반휴게음식 - 중국식","category":"restaurant"}]},{"lat":"37.036741871","long":"127.07650226","imageIndex":4,"items":[{"name":"이화수육개장평택모곡점","tel":"031-665-7024","addr":"경기도 평택시 모곡동 442-3번지","indutype":"일반휴게음식 - 일반한식","category":"restaurant"},{"name":"푸드림","tel":"031-665-5100","addr":"경기도 평택시 모곡동 442-3번지 A동 2층","indutype":"일반휴게음식 - 위탁급식업","category":"restaurant"},{"name":"하우스호프치킨","tel":"031-665-0066","addr":"경기도 평택시 모곡동 442-3번지","indutype":"일반휴게음식 - 주점","category":"restaurant"}]},{"lat":"37.036264703","long":"127.07586114","imageIndex":4,"items":[{"name":"잔다리식당","tel":"031-653-6225","addr":"경기도 평택시 모곡동 442-11번지 우측상가 1층 2호","indutype":"일반휴게음식 - 일반한식","category":"restaurant"}]},{"lat":"37.034125979","long":"127.08089432","imageIndex":4,"items":[{"name":"정대네집","tel":"031-663-5223","addr":"경기도 평택시 모곡동 42번지","indutype":"음식점 - 한식","category":"restaurant"}]},{"lat":"37.036823293","long":"127.07597407","imageIndex":4,"items":[{"name":"조우한식부페","tel":"031-611-2523","addr":"경기도 평택시 모곡동 442번지","indutype":"일반휴게음식 - 일반한식","category":"restaurant"},{"name":"조우한식부페","tel":"031-665-7524","addr":"경기도 평택시 모곡동 442번지","indutype":"음식점 - 한식","category":"restaurant"}]},{"lat":"37.035903672","long":"127.07683864","imageIndex":4,"items":[{"name":"카페본즈","tel":"070-1150-1519","addr":"경기도 평택시 모곡동 443-3번지 1동","indutype":"일반휴게음식 - 서양음식","category":"restaurant"}]},{"lat":"37.036381459","long":"127.07647944","imageIndex":4,"items":[{"name":"한우가즈아","tel":"031-668-1300","addr":"경기도 평택시 모곡동 442-8번지","indutype":"음식점 - 정육","category":"restaurant"},{"name":"한우가즈아","tel":"031-662-5297","addr":"경기도 평택시 모곡동 442-8번지 기주빌딩","indutype":"일반휴게음식 - 일반한식","category":"restaurant"}]},{"lat":"37.03651698","long":"127.0758951","imageIndex":4,"items":[{"name":"향수식당","tel":"031-664-0921","addr":"경기도 평택시 모곡동 442-10번지","indutype":"일반휴게음식 - 일반한식","category":"restaurant"},{"name":"향수식당","tel":"031-611-2523","addr":"경기도 평택시 모곡동 442-10번지","indutype":"음식점 - 한식","category":"restaurant"}]}]