[{"lat":"37.664467","long":"126.89039494","imageIndex":13,"items":[{"name":"COUGAR ZONE PC","tel":"070-5105-3432","addr":"경기도 고양시 덕양구 신원동 624-2번지","indutype":"레저업소 - 기타레져업소","category":"leisure"}]},{"lat":"37.663494484","long":"126.89095175","imageIndex":13,"items":[{"name":"KINGSMAN PC","tel":"","addr":"경기도 고양시 덕양구 신원동 628-1번지","indutype":"레저업소 - 기타레져업소","category":"leisure"},{"name":"킹스맨PC","tel":"","addr":"경기도 고양시 덕양구 신원동 628-1번지","indutype":"레저업소 - 기타레져업소","category":"leisure"},{"name":"토이토핑슬라임","tel":"","addr":"경기도 고양시 덕양구 신원동 628-1번지","indutype":"레저업소 - 기타레져업소","category":"leisure"}]},{"lat":"37.663160544","long":"126.89034024","imageIndex":13,"items":[{"name":"VIP당구클럽","tel":"02-000-0000","addr":"경기도 고양시 덕양구 신원동 627-2번지","indutype":"레저업소 - 당 구 장","category":"leisure"},{"name":"맥스피드pc","tel":"02-381-5090","addr":"경기도 고양시 덕양구 신원동 627-2번지","indutype":"레저업소 - 기타레져업소","category":"leisure"},{"name":"브이아이피(VIP)당구클럽","tel":"","addr":"경기도 고양시 덕양구 신원동 627-2번지","indutype":"레저업소 - 당 구 장","category":"leisure"},{"name":"수노래연습장","tel":"","addr":"경기도 고양시 덕양구 신원동 627-2번지","indutype":"레저업소 - 노 래 방","category":"leisure"},{"name":"신원cc스크린골프연습장","tel":"02-371-0753","addr":"경기도 고양시 덕양구 신원동 627-2번지","indutype":"레저업소 - 스크린골프","category":"leisure"}]},{"lat":"37.663801392","long":"126.8915633","imageIndex":13,"items":[{"name":"V골프,오디션라이브카페","tel":"02-371-0759","addr":"경기도 고양시 덕양구 신원동 629번지","indutype":"레저업소 - 스크린골프","category":"leisure"}]},{"lat":"37.66288079","long":"126.88986466","imageIndex":13,"items":[{"name":"나인노래연습장","tel":"02-371-1080","addr":"경기도 고양시 덕양구 신원동 627번지","indutype":"레저업소 - 노 래 방","category":"leisure"},{"name":"테라필라테스","tel":"02-381-7678","addr":"경기도 고양시 덕양구 신원동 627번지","indutype":"레저업소 - 헬스클럽","category":"leisure"}]},{"lat":"37.663881263","long":"126.89028248","imageIndex":13,"items":[{"name":"몸예뻐짐","tel":"02-381-9679","addr":"경기도 고양시 덕양구 신원동 619번지","indutype":"레저업소 - 헬스클럽","category":"leisure"},{"name":"세븐당구장","tel":"02-381-4088","addr":"경기도 고양시 덕양구 신원동 619번지","indutype":"레저업소 - 당 구 장","category":"leisure"}]},{"lat":"37.66377206","long":"126.88914929","imageIndex":13,"items":[{"name":"바른생활피트니스","tel":"02-371-1987","addr":"경기도 고양시 덕양구 신원동 625번지","indutype":"레저업소 - 헬스클럽","category":"leisure"}]},{"lat":"37.663879474","long":"126.88842378","imageIndex":13,"items":[{"name":"블랙타이거짐","tel":"02-381-7789","addr":"경기도 고양시 덕양구 신원동 621번지","indutype":"레저업소 - 헬스클럽","category":"leisure"}]},{"lat":"37.663213352","long":"126.88903681","imageIndex":13,"items":[{"name":"스카이노래연습장","tel":"02-371-1647","addr":"경기도 고양시 덕양구 신원동 621-3번지","indutype":"레저업소 - 노 래 방","category":"leisure"},{"name":"주식회사 마나","tel":"02-1588-7659","addr":"경기도 고양시 덕양구 신원동 621-3번지","indutype":"레저업소 - 기타레져업소","category":"leisure"},{"name":"커브스 삼송클럽","tel":"02-381-8230","addr":"경기도 고양시 덕양구 신원동 621-3번지","indutype":"레저업소 - 헬스클럽","category":"leisure"}]},{"lat":"37.663520269","long":"126.88964835","imageIndex":13,"items":[{"name":"스카이락볼링장","tel":"02-381-6607","addr":"경기도 고양시 덕양구 신원동 620-1번지","indutype":"레저업소 - 볼 링 장","category":"leisure"},{"name":"이오에스(EOS)당구클럽","tel":"02-381-3214","addr":"경기도 고양시 덕양구 신원동 620-1번지","indutype":"레저업소 - 당 구 장","category":"leisure"}]},{"lat":"37.662655233","long":"126.88953633","imageIndex":13,"items":[{"name":"스타노래연습장","tel":"031-111-1111","addr":"경기도 고양시 덕양구 신원동 626번지","indutype":"레저업소 - 노 래 방","category":"leisure"},{"name":"요가스테이(Yogastay)","tel":"070-8257-9231","addr":"경기도 고양시 덕양구 신원동 626번지","indutype":"레저업소 - 헬스클럽","category":"leisure"},{"name":"클래스PC방","tel":"02-381-9262","addr":"경기도 고양시 덕양구 신원동 626번지","indutype":"레저업소 - 기타레져업소","category":"leisure"}]},{"lat":"37.664105144","long":"126.88886544","imageIndex":13,"items":[{"name":"아라 어린이 수영장","tel":"02-381-7920","addr":"경기도 고양시 덕양구 신원동 622번지","indutype":"레저업소 - 수 영 장","category":"leisure"}]},{"lat":"37.663629866","long":"126.89120088","imageIndex":13,"items":[{"name":"어바웃","tel":"031-381-5585","addr":"경기도 고양시 덕양구 신원동 628-2번지","indutype":"레저업소 - 골프연습장","category":"leisure"},{"name":"주식회사 우리컴퍼니","tel":"070-4135-8904","addr":"경기도 고양시 덕양구 신원동 628-2번지","indutype":"레저업소 - 헬스클럽","category":"leisure"},{"name":"파리스짐","tel":"031-000-0000","addr":"경기도 고양시 덕양구 신원동 628-2번지","indutype":"레저업소 - 헬스클럽","category":"leisure"}]},{"lat":"37.664322607","long":"126.89014581","imageIndex":13,"items":[{"name":"얼쑤노래연습장","tel":"02-381-4036","addr":"경기도 고양시 덕양구 신원동 624-1번지","indutype":"레저업소 - 노 래 방","category":"leisure"}]},{"lat":"37.662800396","long":"126.89059012","imageIndex":13,"items":[{"name":"오당구장","tel":"","addr":"경기도 고양시 덕양구 신원동 634-1번지","indutype":"레저업소 - 당 구 장","category":"leisure"}]},{"lat":"37.662601859","long":"126.89025042","imageIndex":13,"items":[{"name":"월드당구클럽","tel":"02-381-0223","addr":"경기도 고양시 덕양구 신원동 634번지","indutype":"레저업소 - 당 구 장","category":"leisure"}]},{"lat":"37.663989595","long":"126.89050899","imageIndex":13,"items":[{"name":"자이로토닉(R.)함께","tel":"02-381-8288","addr":"경기도 고양시 덕양구 신원동 619-1번지","indutype":"레저업소 - 헬스클럽","category":"leisure"}]},{"lat":"37.664384848","long":"126.88928436","imageIndex":13,"items":[{"name":"캠프브이알 신원점","tel":"031-915-5655","addr":"경기도 고양시 덕양구 신원동 622-2번지","indutype":"레저업소 - 기타레져업소","category":"leisure"}]},{"lat":"37.663663429","long":"126.88861678","imageIndex":13,"items":[{"name":"필라테스포유","tel":"","addr":"경기도 고양시 덕양구 신원동 621-1번지","indutype":"레저업소 - 헬스클럽","category":"leisure"}]},{"lat":"37.661773024","long":"126.89030834","imageIndex":13,"items":[{"name":"하이런","tel":"","addr":"경기도 고양시 덕양구 신원동 633번지","indutype":"레저업소 - 당 구 장","category":"leisure"}]}]