[{"lat":"37.294204198","long":"126.84443848","imageIndex":13,"items":[{"name":"(주)가온","tel":"031-362-4933","addr":"경기도 안산시 상록구 사동 1350-3번지 101호","indutype":"보건위생 - 의료용품","category":"beauty"}]},{"lat":"37.297393404","long":"126.84412727","imageIndex":13,"items":[{"name":"(주)모리스레포츠","tel":"031-407-3090","addr":"경기도 안산시 상록구 사동 1278-4번지","indutype":"보건위생 - 안경","category":"beauty"}]},{"lat":"37.295895412","long":"126.84921687","imageIndex":13,"items":[{"name":"1004헤어샵","tel":"031-416-8004","addr":"경기도 안산시 상록구 사동 1294-8번지","indutype":"보건위생 - 미용원","category":"beauty"}]},{"lat":"37.279763312","long":"126.85332022","imageIndex":13,"items":[{"name":"123미용실","tel":"031-419-5576","addr":"경기도 안산시 상록구 사동 1506번지 본오1차아파트 본오프라자 상가 상가 109호","indutype":"보건위생 - 미용원","category":"beauty"},{"name":"김문희미용실","tel":"031-416-0807","addr":"경기도 안산시 상록구 사동 1506번지 본오1차아파트 208호","indutype":"보건위생 - 미용원","category":"beauty"}]},{"lat":"37.297229858","long":"126.84993597","imageIndex":13,"items":[{"name":"D-데이 헤어","tel":"031-417-0913","addr":"경기도 안산시 상록구 사동 1298-5번지 1층 101호","indutype":"보건위생 - 미용원","category":"beauty"},{"name":"네일도카페(NAIL DO CAFE)","tel":"031-418-8417","addr":"경기도 안산시 상록구 사동 1298-5번지 102호","indutype":"보건위생 - 피부미용실","category":"beauty"}]},{"lat":"37.279841302","long":"126.8508845","imageIndex":13,"items":[{"name":"H헤어","tel":"02-406-1518","addr":"경기도 안산시 상록구 사동 1472번지 1층","indutype":"보건위생 - 미용원","category":"beauty"}]},{"lat":"37.286341318","long":"126.84674414","imageIndex":13,"items":[{"name":"K2헤어","tel":"031-407-4641","addr":"경기도 안산시 상록구 사동 1386번지 명인빌딩 1층","indutype":"보건위생 - 미용원","category":"beauty"}]},{"lat":"37.301285709","long":"126.8374645","imageIndex":13,"items":[{"name":"KC양행","tel":"031-501-2250","addr":"경기도 안산시 상록구 사동 1562-4번지","indutype":"보건위생 - 의료용품","category":"beauty"}]},{"lat":"37.305503913","long":"126.84510283","imageIndex":13,"items":[{"name":"LG오휘컨설턴트","tel":"031-419-0121","addr":"경기도 안산시 상록구 사동 1528-9번지 대도빌딩 2층","indutype":"보건위생 - 화장품","category":"beauty"},{"name":"대도물산","tel":"031-419-0121","addr":"경기도 안산시 상록구 사동 1528-9번지","indutype":"보건위생 - 화장품","category":"beauty"}]},{"lat":"37.301040258","long":"126.85632341","imageIndex":13,"items":[{"name":"가람헤어","tel":"070-8173-4776","addr":"경기도 안산시 상록구 사동 1240-17번지","indutype":"보건위생 - 미용원","category":"beauty"}]},{"lat":"37.305479572","long":"126.8471332","imageIndex":13,"items":[{"name":"가림헤어","tel":"031-0000-0000","addr":"경기도 안산시 상록구 사동 1524-3번지 1층","indutype":"보건위생 - 미용원","category":"beauty"}]},{"lat":"37.296341467","long":"126.84582121","imageIndex":13,"items":[{"name":"가온누리","tel":"","addr":"경기도 안산시 상록구 사동 1288-4번지 지층 101호","indutype":"보건위생 - 의료용품","category":"beauty"}]},{"lat":"37.302341511","long":"126.85215889","imageIndex":13,"items":[{"name":"가위세상","tel":"031-418-9727","addr":"경기도 안산시 상록구 사동 1202-5번지 1층","indutype":"보건위생 - 미용원","category":"beauty"}]},{"lat":"37.294624833","long":"126.8562118","imageIndex":13,"items":[{"name":"가위이야기-인천3지사","tel":"","addr":"경기도 안산시 상록구 사동 1335-9번지 201호","indutype":"보건위생 - 미용재료","category":"beauty"}]},{"lat":"37.281149387","long":"126.8521335","imageIndex":13,"items":[{"name":"가위잡이","tel":"031-409-5098","addr":"경기도 안산시 상록구 사동 1469-8번지 1층","indutype":"보건위생 - 미용원","category":"beauty"},{"name":"가위잡이","tel":"031-111-1111","addr":"경기도 안산시 상록구 사동 1469-8번지 1층","indutype":"보건위생 - 미용원","category":"beauty"},{"name":"끼안경원","tel":"031-415-5811","addr":"경기도 안산시 상록구 사동 1469-8.101호~102호","indutype":"보건위생 - 안경","category":"beauty"}]},{"lat":"37.295061491","long":"126.85235386","imageIndex":13,"items":[{"name":"감골24시불가마사우나","tel":"031-419-1500","addr":"경기도 안산시 상록구 사동 1318-8번지 한도프라자 501호","indutype":"보건위생 - 사우나","category":"beauty"},{"name":"감골불한증막사우나","tel":"031-419-0900","addr":"경기도 안산시 상록구 사동 1318-8번지 한도프라자 5층 501호","indutype":"보건위생 - 사우나","category":"beauty"},{"name":"감골사우나","tel":"031-419-0900","addr":"경기도 안산시 상록구 사동 1318-8번지 한도프라자 5층 501호","indutype":"보건위생 - 기타대인서비스","category":"beauty"},{"name":"반디헤어","tel":"070-7747-9450","addr":"경기도 안산시 상록구 사동 1318-8번지 한도프라자 105호","indutype":"보건위생 - 미용원","category":"beauty"},{"name":"비비드헤어","tel":"070-7747-9450","addr":"경기도 안산시 상록구 사동 1318-8번지 한도프라자 105호","indutype":"보건위생 - 미용원","category":"beauty"},{"name":"주식회사 인코르제약","tel":"031-0000-0000","addr":"경기도 안산시 상록구 사동 1318-8번지 한도프라자 304호","indutype":"보건위생 - 화장품","category":"beauty"},{"name":"해피사동대리점","tel":"031-406-5345","addr":"경기도 안산시 상록구 사동 1318-8번지 한도프라자 1층","indutype":"보건위생 - 의료용품","category":"beauty"},{"name":"헤어프린스 3호점","tel":"031-501-5385","addr":"경기도 안산시 상록구 사동 1318-8번지 한도프라자 107호","indutype":"보건위생 - 미용원","category":"beauty"}]},{"lat":"37.303593119","long":"126.84463309","imageIndex":13,"items":[{"name":"감성그린라이프","tel":"","addr":"경기도 안산시 상록구 사동 1551-3번지 301호","indutype":"보건위생 - 화장품","category":"beauty"},{"name":"안산메디칼","tel":"031-415-1500","addr":"경기도 안산시 상록구 사동 1551-3번지 102호","indutype":"보건위생 - 의료용품","category":"beauty"}]},{"lat":"37.296038165","long":"126.84813387","imageIndex":13,"items":[{"name":"고숙헤어아트","tel":"031-416-2556","addr":"경기도 안산시 상록구 사동 1293-3번지 일룡하이트빌라 101호","indutype":"보건위생 - 미용원","category":"beauty"}]},{"lat":"37.297179715","long":"126.84604504","imageIndex":13,"items":[{"name":"고엘헤어","tel":"031-520-6384","addr":"경기도 안산시 상록구 사동 1281-5번지 1층","indutype":"보건위생 - 미용원","category":"beauty"}]},{"lat":"37.296175051","long":"126.84946442","imageIndex":13,"items":[{"name":"고투콜라 염색방","tel":"031-415-3040","addr":"경기도 안산시 상록구 사동 1295-7번지 103호","indutype":"보건위생 - 화장품","category":"beauty"},{"name":"고투콜라염색방","tel":"031-415-3040","addr":"경기도 안산시 상록구 사동 1295-7번지 103호","indutype":"보건위생 - 미용원","category":"beauty"}]},{"lat":"37.30617236","long":"126.84637604","imageIndex":13,"items":[{"name":"공주헤어샵","tel":"","addr":"경기도 안산시 상록구 사동 1519-11번지 102호","indutype":"보건위생 - 미용원","category":"beauty"}]},{"lat":"37.304865254","long":"126.84590501","imageIndex":13,"items":[{"name":"굿앤아이파트너스","tel":"031-415-6100","addr":"경기도 안산시 상록구 사동 1531번지 안산의류상설할인매장 B동 205호","indutype":"보건위생 - 의료용품","category":"beauty"}]},{"lat":"37.303091424","long":"126.84679975","imageIndex":13,"items":[{"name":"그린","tel":"031-437-1107","addr":"경기도 안산시 상록구 사동 1182-5번지","indutype":"보건위생 - 화장품","category":"beauty"}]},{"lat":"37.303004978","long":"126.84959718","imageIndex":13,"items":[{"name":"그머리이뿌다","tel":"","addr":"경기도 안산시 상록구 사동 1186-8번지 102호","indutype":"보건위생 - 미용원","category":"beauty"},{"name":"잘라 (JalLa)","tel":"031-418-0926","addr":"경기도 안산시 상록구 사동 1186-8번지 1층","indutype":"보건위생 - 미용원","category":"beauty"}]},{"lat":"37.284898218","long":"126.85257708","imageIndex":13,"items":[{"name":"기분전환#","tel":"070-8201-2056","addr":"경기도 안산시 상록구 사동 1392-9번지 101호","indutype":"보건위생 - 피부미용실","category":"beauty"}]},{"lat":"37.296707368","long":"126.85001598","imageIndex":13,"items":[{"name":"김경희헤어모드","tel":"031-419-2114","addr":"경기도 안산시 상록구 사동 1297-6번지","indutype":"보건위생 - 미용원","category":"beauty"}]},{"lat":"37.2797633118","long":"126.8533202201","imageIndex":13,"items":[{"name":"김문희미용실","tel":"031-416-0807","addr":"경기도 안산시 상록구 사동 1506번지 본오1차아파트","indutype":"도매 및 소매업 - 미용실","category":"beauty"}]},{"lat":"37.294398512","long":"126.85535512","imageIndex":13,"items":[{"name":"김수연헤어삽","tel":"031-000-0000","addr":"경기도 안산시 상록구 사동 1332-8번지 1층","indutype":"보건위생 - 미용원","category":"beauty"},{"name":"유진헤어샵","tel":"031-407-7697","addr":"경기도 안산시 상록구 사동 1332-8번지","indutype":"보건위생 - 미용원","category":"beauty"}]},{"lat":"37.294757383","long":"126.85412511","imageIndex":13,"items":[{"name":"김정문알로에안산상록지사","tel":"031-406-7005","addr":"경기도 안산시 상록구 사동 1333-16번지 2층","indutype":"보건위생 - 화장품","category":"beauty"},{"name":"나나헤어","tel":"031-503-2175","addr":"경기도 안산시 상록구 사동 1333-16번지 102호","indutype":"보건위생 - 미용원","category":"beauty"},{"name":"쿠아안경","tel":"031-487-1214","addr":"경기도 안산시 상록구 사동 1333-16번지","indutype":"보건위생 - 안경","category":"beauty"}]},{"lat":"37.303039802","long":"126.84866093","imageIndex":13,"items":[{"name":"김정문알로에안산제일지사","tel":"031-486-6700","addr":"경기도 안산시 상록구 사동 1186-2번지","indutype":"보건위생 - 화장품","category":"beauty"}]},{"lat":"37.29128883","long":"126.85443643","imageIndex":13,"items":[{"name":"김진헤어라인","tel":"031-438-6969","addr":"경기도 안산시 상록구 사동 1343현대분산상가2층","indutype":"보건위생 - 미용원","category":"beauty"}]},{"lat":"37.294702412","long":"126.85340343","imageIndex":13,"items":[{"name":"김찬미헤어미장","tel":"031-407-4268","addr":"경기도 안산시 상록구 사동 1318-4번지 델리지움 103호","indutype":"보건위생 - 미용원","category":"beauty"}]},{"lat":"37.283459098","long":"126.84755071","imageIndex":13,"items":[{"name":"끌림안경","tel":"031-415-0204","addr":"경기도 안산시 상록구 사동 1418번지 1층","indutype":"보건위생 - 안경","category":"beauty"}]},{"lat":"37.301842973","long":"126.84302385","imageIndex":13,"items":[{"name":"남대문비젼안경원","tel":"031-408-2002","addr":"경기도 안산시 상록구 사동 1172-14번지 201-202호","indutype":"보건위생 - 안경","category":"beauty"}]},{"lat":"37.282929526","long":"126.84910792","imageIndex":13,"items":[{"name":"남여컷트전문점","tel":"031-501-7926","addr":"경기도 안산시 상록구 사동 1414 1층 2","indutype":"보건위생 - 미용원","category":"beauty"}]},{"lat":"37.29186913","long":"126.85021748","imageIndex":13,"items":[{"name":"남주연미용실","tel":"031-417-1422","addr":"경기도 안산시 상록구 사동 1345 선경분산상가1층 102.103","indutype":"보건위생 - 미용원","category":"beauty"}]},{"lat":"37.301456479","long":"126.85774376","imageIndex":13,"items":[{"name":"네일리(NAILY)","tel":"070-8246-0864","addr":"경기도 안산시 상록구 사동 1246-7번지 1층","indutype":"보건위생 - 피부미용실","category":"beauty"}]},{"lat":"37.294287243","long":"126.85285163","imageIndex":13,"items":[{"name":"네일이끌림","tel":"","addr":"경기도 안산시 상록구 사동 1317-8번지 1층 일부","indutype":"보건위생 - 피부미용실","category":"beauty"}]},{"lat":"37.29447859","long":"126.85454295","imageIndex":13,"items":[{"name":"눈꽃스킨&바디","tel":"031-415-7750","addr":"경기도 안산시 상록구 사동 1333-13번지 201호","indutype":"보건위생 - 피부미용실","category":"beauty"}]},{"lat":"37.29692319","long":"126.84968847","imageIndex":13,"items":[{"name":"눈썹마녀","tel":"","addr":"경기도 안산시 상록구 사동 1297-4번지 초원하우스 305호","indutype":"보건위생 - 화장품","category":"beauty"}]},{"lat":"37.29420262","long":"126.85723891","imageIndex":13,"items":[{"name":"뉴스카이치과기공소","tel":"","addr":"경기도 안산시 상록구 사동 1339-2번지 2층","indutype":"보건위생 - 의료용품","category":"beauty"}]},{"lat":"37.30042808","long":"126.85674192","imageIndex":13,"items":[{"name":"늑대맨여우걸","tel":"031-408-0209","addr":"경기도 안산시 상록구 사동 1243-13번지","indutype":"보건위생 - 미용원","category":"beauty"}]},{"lat":"37.29720088","long":"126.84843601","imageIndex":13,"items":[{"name":"다온헤어","tel":"031-417-7503","addr":"경기도 안산시 상록구 사동 1285-2번지","indutype":"보건위생 - 미용원","category":"beauty"}]},{"lat":"37.282791644","long":"126.8470221","imageIndex":13,"items":[{"name":"대야성","tel":"031-416-7406","addr":"경기도 안산시 상록구 사동 1431-6번지 지층","indutype":"보건위생 - 이용원","category":"beauty"}]},{"lat":"37.295983864","long":"126.83474679","imageIndex":13,"items":[{"name":"대학당안경원","tel":"031-400-4538","addr":"경기도 안산시 상록구 사동 396번지 한양대학교","indutype":"보건위생 - 안경","category":"beauty"},{"name":"주식회사 아디포젤(AdipoGel)","tel":"031-7998-5879","addr":"경기도 안산시 상록구 사동 1271번지 한양대학교에리카캠퍼스","indutype":"보건위생 - 화장품","category":"beauty"},{"name":"한양헤어비스","tel":"031-436-6078","addr":"경기도 안산시 상록구 사동 1271번지 한양대학교에리카캠퍼스 4동 생활관 231호","indutype":"보건위생 - 미용원","category":"beauty"}]},{"lat":"37.294289686","long":"126.85479143","imageIndex":13,"items":[{"name":"더끌림","tel":"","addr":"경기도 안산시 상록구 사동 1333-11번지 102호","indutype":"보건위생 - 미용원","category":"beauty"}]},{"lat":"37.283318905","long":"126.85060688","imageIndex":13,"items":[{"name":"더헤어","tel":"070-7786-9831","addr":"경기도 안산시 상록구 사동 1413-7번지 1층 102호","indutype":"보건위생 - 미용원","category":"beauty"}]},{"lat":"37.295621012","long":"126.85305199","imageIndex":13,"items":[{"name":"도도헤어","tel":"070-4007-4925","addr":"경기도 안산시 상록구 사동 1304-13번지 102호","indutype":"보건위생 - 미용원","category":"beauty"},{"name":"마임안산사동지사","tel":"031-502-2438","addr":"경기도 안산시 상록구 사동 1304-13번지 2층 2호","indutype":"보건위생 - 화장품","category":"beauty"}]},{"lat":"37.295618887","long":"126.85138283","imageIndex":13,"items":[{"name":"라온헤어샵","tel":"031-501-5672","addr":"경기도 안산시 상록구 사동 1305-12번지 1층","indutype":"보건위생 - 미용원","category":"beauty"}]},{"lat":"37.287098055","long":"126.85363273","imageIndex":13,"items":[{"name":"란스킨케어","tel":"031-418-3875","addr":"경기도 안산시 상록구 사동 1346번지 상록수타운월드아파트월드중심상가 728동 2층 2호","indutype":"보건위생 - 피부미용실","category":"beauty"},{"name":"월드","tel":"031-406-6522","addr":"경기도 안산시 상록구 사동 1346번지","indutype":"보건위생 - 화장품","category":"beauty"},{"name":"이현화헤어라인","tel":"031-418-7221","addr":"경기도 안산시 상록구 사동 1346월드상가203","indutype":"보건위생 - 미용원","category":"beauty"},{"name":"짱헤어클럽","tel":"031-501-7017","addr":"경기도 안산시 상록구 사동 1346번지 월드 상가 725동 105호","indutype":"보건위생 - 미용원","category":"beauty"},{"name":"태후사랑","tel":"031-407-8509","addr":"경기도 안산시 상록구 사동 1346번지 월드상가 728동 8호","indutype":"보건위생 - 화장품","category":"beauty"},{"name":"헤어월드","tel":"031-437-6003","addr":"경기도 안산시 상록구 사동 1346번지 상록수타운월드아파트월드중심상가 725동 202호","indutype":"보건위생 - 미용원","category":"beauty"}]},{"lat":"37.29029151","long":"126.84957786","imageIndex":13,"items":[{"name":"란헤어스토리","tel":"031-418-1427","addr":"경기도 안산시 상록구 사동 1345-1요진분산상가101","indutype":"보건위생 - 미용원","category":"beauty"},{"name":"우안나헤어콜렉션","tel":"031-415-6964","addr":"경기도 안산시 상록구 사동 1345-1요진분산상가105","indutype":"보건위생 - 미용원","category":"beauty"},{"name":"코뷰헤어","tel":"031-418-8015","addr":"경기도 안산시 상록구 사동 1345-1번지 요진 중심상가 109호","indutype":"보건위생 - 미용원","category":"beauty"}]},{"lat":"37.305260819","long":"126.84523869","imageIndex":13,"items":[{"name":"로덱스화장품 안산점","tel":"031-408-0110","addr":"경기도 안산시 상록구 사동 1527-7번지 4층","indutype":"보건위생 - 화장품","category":"beauty"}]},{"lat":"37.283345398","long":"126.8501896","imageIndex":13,"items":[{"name":"루나헤어","tel":"031-416-0513","addr":"경기도 안산시 상록구 사동 1413-4번지 1층","indutype":"보건위생 - 미용원","category":"beauty"}]},{"lat":"37.288538305","long":"126.84560062","imageIndex":13,"items":[{"name":"룩","tel":"031-747-8874","addr":"경기도 안산시 상록구 사동 1373-1번지 정원에버빌 201호","indutype":"보건위생 - 화장품","category":"beauty"}]},{"lat":"37.30189755","long":"126.83685409","imageIndex":13,"items":[{"name":"르네셀","tel":"031-416-7436","addr":"경기도 안산시 상록구 사동 1561-6번지","indutype":"보건위생 - 화장품","category":"beauty"}]},{"lat":"37.304198619","long":"126.84599663","imageIndex":13,"items":[{"name":"리뉴뷰티","tel":"031-408-9221","addr":"경기도 안산시 상록구 사동 1541번지 2층","indutype":"보건위생 - 피부미용실","category":"beauty"}]},{"lat":"37.302953254","long":"126.85141324","imageIndex":13,"items":[{"name":"리라헤어","tel":"031-408-5657","addr":"경기도 안산시 상록구 사동 1201번지 102호","indutype":"보건위생 - 미용원","category":"beauty"}]},{"lat":"37.278732041","long":"126.85010871","imageIndex":13,"items":[{"name":"리버스코리아","tel":"031-401-4421","addr":"경기도 안산시 상록구 사동 1477-4번지 드림아트빌 202호","indutype":"보건위생 - 화장품","category":"beauty"}]},{"lat":"37.294594745","long":"126.85376454","imageIndex":13,"items":[{"name":"마망헤어(MAMAN Hair)","tel":"031-419-1840","addr":"경기도 안산시 상록구 사동 1320번지 1층 101호","indutype":"보건위생 - 미용원","category":"beauty"}]},{"lat":"37.294760228","long":"126.84929813","imageIndex":13,"items":[{"name":"마임(한대지사)","tel":"031-406-0273","addr":"경기도 안산시 상록구 사동 1312-4번지","indutype":"보건위생 - 화장품","category":"beauty"}]},{"lat":"37.284791693","long":"126.84684883","imageIndex":13,"items":[{"name":"머리공주","tel":"031-419-8505","addr":"경기도 안산시 상록구 사동 1425-8번지 일부 1층","indutype":"보건위생 - 미용원","category":"beauty"}]},{"lat":"37.297171511","long":"126.84665409","imageIndex":13,"items":[{"name":"머리염색전문점","tel":"","addr":"경기도 안산시 상록구 사동 1284-16번지 1층 103호","indutype":"보건위생 - 미용원","category":"beauty"}]},{"lat":"37.2971715106","long":"126.8466540875","imageIndex":13,"items":[{"name":"머리염색전문점","tel":"","addr":"경기도 안산시 상록구 사동 1284-16번지","indutype":"도매 및 소매업 - 미용업","category":"beauty"}]},{"lat":"37.295150673","long":"126.85163189","imageIndex":13,"items":[{"name":"머리쟁이","tel":"031-416-6811","addr":"경기도 안산시 상록구 사동 1314-1번지 102호","indutype":"보건위생 - 미용원","category":"beauty"}]},{"lat":"37.279653572","long":"126.85204628","imageIndex":13,"items":[{"name":"머리하기좋은날","tel":"031-416-1155","addr":"경기도 안산시 상록구 사동 1472-8번지","indutype":"보건위생 - 미용원","category":"beauty"}]},{"lat":"37.295922911","long":"126.84957772","imageIndex":13,"items":[{"name":"모델미용실","tel":"031-406-7756","addr":"경기도 안산시 상록구 사동 1308-13번지 사동 102호","indutype":"보건위생 - 미용원","category":"beauty"}]},{"lat":"37.294568522","long":"126.85440743","imageIndex":13,"items":[{"name":"미다듬헤어","tel":"031-407-3256","addr":"경기도 안산시 상록구 사동 1333-14번지 102호","indutype":"보건위생 - 미용원","category":"beauty"}]},{"lat":"37.300202476","long":"126.85646038","imageIndex":13,"items":[{"name":"미란힐링센터","tel":"031-509-7779","addr":"경기도 안산시 상록구 사동 1241-1번지","indutype":"보건위생 - 화장품","category":"beauty"}]},{"lat":"37.295589339","long":"126.82377406","imageIndex":13,"items":[{"name":"미소헤어","tel":"031-506-0789","addr":"경기도 안산시 상록구 사동 1512번지 안산고잔6차푸르지오 116호","indutype":"보건위생 - 미용원","category":"beauty"},{"name":"수미헤어","tel":"031-506-0789","addr":"경기도 안산시 상록구 사동 1512번지 안산고잔6차푸르지오 상가 1동 116호","indutype":"보건위생 - 미용원","category":"beauty"},{"name":"씨씨(C.C)헤어","tel":"031-501-2644","addr":"경기도 안산시 상록구 사동 1512번지 안산고잔6차푸르지오 상가동 210호","indutype":"보건위생 - 미용원","category":"beauty"},{"name":"유진헤어","tel":"031-438-2999","addr":"경기도 안산시 상록구 사동 1512번지 안산고잔6차푸르지오 2동 1층 103호","indutype":"보건위생 - 미용원","category":"beauty"}]},{"lat":"37.300287539","long":"126.83887654","imageIndex":13,"items":[{"name":"민서헤어샵","tel":"031-501-0407","addr":"경기도 안산시 상록구 사동 1149-7번지","indutype":"보건위생 - 미용원","category":"beauty"}]},{"lat":"37.296874516","long":"126.8469141","imageIndex":13,"items":[{"name":"밀림","tel":"070-4412-2500","addr":"경기도 안산시 상록구 사동 1286-4번지 302호","indutype":"보건위생 - 화장품","category":"beauty"}]},{"lat":"37.284013402","long":"126.85115802","imageIndex":13,"items":[{"name":"바비인형","tel":"031-403-9399","addr":"경기도 안산시 상록구 사동 1407-30번지 102호","indutype":"보건위생 - 피부미용실","category":"beauty"}]},{"lat":"37.296591238","long":"126.85079441","imageIndex":13,"items":[{"name":"배넷머리","tel":"","addr":"경기도 안산시 상록구 사동 1305-2번지 1층 101호","indutype":"보건위생 - 미용원","category":"beauty"},{"name":"이끌림헤어","tel":"070-4036-1588","addr":"경기도 안산시 상록구 사동 1305-2번지 1층","indutype":"보건위생 - 미용원","category":"beauty"}]},{"lat":"37.297311518","long":"126.85037566","imageIndex":13,"items":[{"name":"벨라","tel":"031-505-8724","addr":"경기도 안산시 상록구 사동 1299-7번지 104호","indutype":"보건위생 - 화장품","category":"beauty"}]},{"lat":"37.300427773","long":"126.85649378","imageIndex":13,"items":[{"name":"봉헤어","tel":"","addr":"경기도 안산시 상록구 사동 1240-11번지 102호","indutype":"보건위생 - 미용원","category":"beauty"}]},{"lat":"37.302790565","long":"126.85101879","imageIndex":13,"items":[{"name":"뷰에스테틱","tel":"031-406-2082","addr":"경기도 안산시 상록구 사동 1200-10번지","indutype":"보건위생 - 화장품","category":"beauty"}]},{"lat":"37.283345034","long":"126.84990769","imageIndex":13,"items":[{"name":"뷰테헤어랜드","tel":"031-501-3192","addr":"경기도 안산시 상록구 사동 1413-2번지 1층 101호","indutype":"보건위생 - 미용원","category":"beauty"}]},{"lat":"37.28492443","long":"126.85193427","imageIndex":13,"items":[{"name":"뷰티나헤어살롱","tel":"031-0000-0000","addr":"경기도 안산시 상록구 사동 1392-13번지 1층","indutype":"보건위생 - 미용원","category":"beauty"},{"name":"오드리앤코","tel":"070-8816-8255","addr":"경기도 안산시 상록구 사동 1392-13번지 1층","indutype":"보건위생 - 피부미용실","category":"beauty"}]},{"lat":"37.284652709","long":"126.85082972","imageIndex":13,"items":[{"name":"뷰티퀸","tel":"031-415-9272","addr":"경기도 안산시 상록구 사동 1410-5번지 1층 104호","indutype":"보건위생 - 화장품","category":"beauty"},{"name":"오드리엔코","tel":"031-509-9930","addr":"경기도 안산시 상록구 사동 1410-5번지 104호","indutype":"보건위생 - 피부미용실","category":"beauty"}]},{"lat":"37.297121838","long":"126.85001514","imageIndex":13,"items":[{"name":"뷰티크레딧 안산상록수점","tel":"070-7868-6700","addr":"경기도 안산시 상록구 사동 1298-6번지 1층","indutype":"보건위생 - 화장품","category":"beauty"},{"name":"헤어랑","tel":"031-418-8463","addr":"경기도 안산시 상록구 사동 1298-6번지 1층","indutype":"보건위생 - 미용원","category":"beauty"}]},{"lat":"37.296204551","long":"126.85138166","imageIndex":13,"items":[{"name":"브이오브이(VOV)헤어","tel":"031-000-0000","addr":"경기도 안산시 상록구 사동 1305-6번지 101호","indutype":"보건위생 - 미용원","category":"beauty"}]},{"lat":"37.293674548","long":"126.85285285","imageIndex":13,"items":[{"name":"블루문","tel":"","addr":"경기도 안산시 상록구 사동 1319-14번지","indutype":"보건위생 - 미용재료","category":"beauty"}]},{"lat":"37.296734049","long":"126.84974524","imageIndex":13,"items":[{"name":"비단헤어샵","tel":"031-408-1032","addr":"경기도 안산시 상록구 사동 1297-8번지 101호","indutype":"보건위생 - 미용원","category":"beauty"}]},{"lat":"37.305424916","long":"126.84668213","imageIndex":13,"items":[{"name":"비바순","tel":"031-475-0246","addr":"경기도 안산시 상록구 사동 1525-7번지 1층","indutype":"보건위생 - 화장품","category":"beauty"}]},{"lat":"37.294649444","long":"126.85427194","imageIndex":13,"items":[{"name":"비체헤어스토리","tel":"031-408-3856","addr":"경기도 안산시 상록구 사동 1333-15번지 1층","indutype":"보건위생 - 미용원","category":"beauty"}]},{"lat":"37.299788898","long":"126.85718302","imageIndex":13,"items":[{"name":"빛나 돋보기","tel":"070-8650-5500","addr":"경기도 안산시 상록구 사동 1251-3번지 신성빌라 202호","indutype":"보건위생 - 안경","category":"beauty"}]},{"lat":"37.285061523","long":"126.84648742","imageIndex":13,"items":[{"name":"뽀대헤어","tel":"031-407-9343","addr":"경기도 안산시 상록구 사동 1384-9번지 정인빌리지 101호","indutype":"보건위생 - 미용원","category":"beauty"}]},{"lat":"37.301009011","long":"126.83934868","imageIndex":13,"items":[{"name":"삐삐헤어샵","tel":"031-415-8007","addr":"경기도 안산시 상록구 사동 1570-6번지","indutype":"보건위생 - 미용원","category":"beauty"}]},{"lat":"37.286736694","long":"126.84593139","imageIndex":13,"items":[{"name":"사라미용실","tel":"031-406-9277","addr":"경기도 안산시 상록구 사동 1377-5번지","indutype":"보건위생 - 미용원","category":"beauty"}]},{"lat":"37.300595164","long":"126.83980073","imageIndex":13,"items":[{"name":"사람과사람들","tel":"031-408-8495","addr":"경기도 안산시 상록구 사동 1152번지 203호","indutype":"보건위생 - 미용재료","category":"beauty"},{"name":"이츠미(it;s  )헤어","tel":"031-501-1145","addr":"경기도 안산시 상록구 사동 1152번지 석호 상가","indutype":"보건위생 - 미용원","category":"beauty"}]},{"lat":"37.283396603","long":"126.84799062","imageIndex":13,"items":[{"name":"상원 화장품","tel":"070-4383-9700","addr":"경기도 안산시 상록구 사동 1419-1번지 101호","indutype":"보건위생 - 화장품","category":"beauty"}]},{"lat":"37.285061791","long":"126.8466904","imageIndex":13,"items":[{"name":"생각플러스헤어살롱","tel":"031-405-4404","addr":"경기도 안산시 상록구 사동 1384-8번지 102호","indutype":"보건위생 - 미용원","category":"beauty"}]},{"lat":"37.301676497","long":"126.83987735","imageIndex":13,"items":[{"name":"샤름뷰티(Beauty Sharm)","tel":"070-3548-8533","addr":"경기도 안산시 상록구 사동 1572-1번지","indutype":"보건위생 - 화장품","category":"beauty"}]},{"lat":"37.294428496","long":"126.85057321","imageIndex":13,"items":[{"name":"샴푸미용실","tel":"031-416-2662","addr":"경기도 안산시 상록구 사동 1319-30번지 101호","indutype":"보건위생 - 미용원","category":"beauty"}]},{"lat":"37.299510674","long":"126.85807458","imageIndex":13,"items":[{"name":"샵헤어","tel":"031-502-1450","addr":"경기도 안산시 상록구 사동 1250-3번지 1층 샵헤어","indutype":"보건위생 - 미용원","category":"beauty"}]},{"lat":"37.302068384","long":"126.84996001","imageIndex":13,"items":[{"name":"서원호텔사우나","tel":"031-501-1656","addr":"경기도 안산시 상록구 사동 1198번지 서원관광호텔 지하1층","indutype":"보건위생 - 사우나","category":"beauty"}]},{"lat":"37.295208247","long":"126.85440618","imageIndex":13,"items":[{"name":"세은미용상사","tel":"031-408-4423","addr":"경기도 안산시 상록구 사동 1332번지 101호","indutype":"보건위생 - 미용재료","category":"beauty"},{"name":"세은미용상사","tel":"070-8222-8744","addr":"경기도 안산시 상록구 사동 1332번지 101호","indutype":"보건위생 - 미용재료","category":"beauty"}]},{"lat":"37.283676436","long":"126.84838472","imageIndex":13,"items":[{"name":"손꽃네일","tel":"031-438-1243","addr":"경기도 안산시 상록구 사동 1420-21번지 1층 103호","indutype":"보건위생 - 피부미용실","category":"beauty"}]},{"lat":"37.284402869","long":"126.85274722","imageIndex":13,"items":[{"name":"손수나헤어","tel":"031-406-4782","addr":"경기도 안산시 상록구 사동 1409-14번지 1층","indutype":"보건위생 - 미용원","category":"beauty"}]},{"lat":"37.284626098","long":"126.85115679","imageIndex":13,"items":[{"name":"수니헤어","tel":"031-417-0828","addr":"경기도 안산시 상록구 사동 1409번지 104호","indutype":"보건위생 - 미용원","category":"beauty"},{"name":"이슈미용실","tel":"031-505-2533","addr":"경기도 안산시 상록구 사동 1409번지 상가 102호","indutype":"보건위생 - 미용원","category":"beauty"}]},{"lat":"37.293395021","long":"126.8206102","imageIndex":13,"items":[{"name":"수빈헤어","tel":"031-502-9674","addr":"경기도 안산시 상록구 사동 1511번지 안산고잔9차푸르지오 104호","indutype":"보건위생 - 미용원","category":"beauty"},{"name":"쉭시브미용그룹","tel":"031-438-0220","addr":"경기도 안산시 상록구 사동 1511번지 안산고잔9차푸르지오 A단지내상가202","indutype":"보건위생 - 미용원","category":"beauty"},{"name":"헤어바이연","tel":"031-437-1511","addr":"경기도 안산시 상록구 사동 1511번지 안산고잔9차푸르지오 110호","indutype":"보건위생 - 미용원","category":"beauty"}]},{"lat":"37.284873039","long":"126.85404308","imageIndex":13,"items":[{"name":"스킨앤바디톡톡","tel":"031-407-1569","addr":"경기도 안산시 상록구 사동 1393-6번지 102호","indutype":"보건위생 - 피부미용실","category":"beauty"}]},{"lat":"37.282341785","long":"126.84751918","imageIndex":13,"items":[{"name":"신궁전이용원","tel":"031-418-4436","addr":"경기도 안산시 상록구 사동 1418-9번지 지하층","indutype":"보건위생 - 이용원","category":"beauty"}]},{"lat":"37.283597466","long":"126.85001994","imageIndex":13,"items":[{"name":"십분운동웰빙카페","tel":"070-8727-6267","addr":"경기도 안산시 상록구 사동 1412-7번지 101호","indutype":"보건위생 - 화장품","category":"beauty"}]},{"lat":"37.295314978","long":"126.85330072","imageIndex":13,"items":[{"name":"쓰담헤어","tel":"031-408-2680","addr":"경기도 안산시 상록구 사동 1321-10번지 101호","indutype":"보건위생 - 미용원","category":"beauty"}]},{"lat":"37.280987202","long":"126.85213382","imageIndex":13,"items":[{"name":"아가씨가머리하는곳","tel":"031-406-5546","addr":"경기도 안산시 상록구 사동 1469-9번지","indutype":"보건위생 - 미용원","category":"beauty"}]},{"lat":"37.284341151","long":"126.84682721","imageIndex":13,"items":[{"name":"아르보테","tel":"031-408-1970","addr":"경기도 안산시 상록구 사동 1426-8번지 102호","indutype":"보건위생 - 화장품","category":"beauty"}]},{"lat":"37.302677163","long":"126.84695852","imageIndex":13,"items":[{"name":"아리따움 헤어샵","tel":"031-415-1183","addr":"경기도 안산시 상록구 사동 1183-4번지 101호","indutype":"보건위생 - 미용원","category":"beauty"}]},{"lat":"37.302755016","long":"126.85140236","imageIndex":13,"items":[{"name":"아린헤어","tel":"031-111-1111","addr":"경기도 안산시 상록구 사동 1201-11번지 104호","indutype":"보건위생 - 미용원","category":"beauty"}]},{"lat":"37.294342884","long":"126.85410337","imageIndex":13,"items":[{"name":"아우라헤어","tel":"070-4042-8194","addr":"경기도 안산시 상록구 사동 1320-2번지 101호","indutype":"보건위생 - 미용원","category":"beauty"}]},{"lat":"37.294313356","long":"126.85212979","imageIndex":13,"items":[{"name":"아이탑","tel":"02-1664-7917","addr":"경기도 안산시 상록구 사동 1316-2번지","indutype":"보건위생 - 안경","category":"beauty"}]},{"lat":"37.30022885","long":"126.85593023","imageIndex":13,"items":[{"name":"아하헤어","tel":"031-409-6922","addr":"경기도 안산시 상록구 사동 1260-1번지 1층","indutype":"보건위생 - 미용원","category":"beauty"}]},{"lat":"37.302539563","long":"126.85202314","imageIndex":13,"items":[{"name":"안소영헤어샵","tel":"031-487-0420","addr":"경기도 안산시 상록구 사동 1202-3번지 1층","indutype":"보건위생 - 미용원","category":"beauty"}]},{"lat":"37.301310709","long":"126.84932992","imageIndex":13,"items":[{"name":"앙포레모리노헤어","tel":"031-413-0722","addr":"경기도 안산시 상록구 사동 1194-1번지 청룡빌딩 1층 101호","indutype":"보건위생 - 미용원","category":"beauty"},{"name":"양윤정오렌지헤어","tel":"031-406-0077","addr":"경기도 안산시 상록구 사동 1194-1번지 청룡빌딩 101호","indutype":"보건위생 - 미용원","category":"beauty"}]},{"lat":"37.295090491","long":"126.85391017","imageIndex":13,"items":[{"name":"언니미용실","tel":"031-504-6822","addr":"경기도 안산시 상록구 사동 1321-5번지 1층","indutype":"보건위생 - 미용원","category":"beauty"}]},{"lat":"37.288873807","long":"126.85421564","imageIndex":13,"items":[{"name":"에벤에셀코스메틱","tel":"031-418-1007","addr":"경기도 안산시 상록구 사동 1344-1 신우종합상가 108","indutype":"보건위생 - 화장품","category":"beauty"},{"name":"이미지미용실","tel":"031-418-8630","addr":"경기도 안산시 상록구 사동 1344-1신우종합 상가 2층202호","indutype":"보건위생 - 미용원","category":"beauty"}]},{"lat":"37.295090973","long":"126.85429363","imageIndex":13,"items":[{"name":"에스 (S)","tel":"031-418-8253","addr":"경기도 안산시 상록구 사동 1332-15번지 1층","indutype":"보건위생 - 미용원","category":"beauty"}]},{"lat":"37.302672427","long":"126.83685238","imageIndex":13,"items":[{"name":"에스엠티비전교육원","tel":"031-419-5745","addr":"경기도 안산시 상록구 사동 1560번지","indutype":"보건위생 - 기타대인서비스","category":"beauty"}]},{"lat":"37.299282708","long":"126.85587567","imageIndex":13,"items":[{"name":"에스제이헤어","tel":"031-408-4970","addr":"경기도 안산시 상록구 사동 1261-1번지 1층","indutype":"보건위생 - 미용원","category":"beauty"}]},{"lat":"37.300342599","long":"126.83959826","imageIndex":13,"items":[{"name":"엔비샵","tel":"031-503-2825","addr":"경기도 안산시 상록구 사동 1151-6번지 2층","indutype":"보건위생 - 피부미용실","category":"beauty"}]},{"lat":"37.283952486","long":"126.8528496","imageIndex":13,"items":[{"name":"엠헤어(M.hair)","tel":"","addr":"경기도 안산시 상록구 사동 1408-9번지","indutype":"보건위생 - 미용원","category":"beauty"}]},{"lat":"37.294450794","long":"126.85393399","imageIndex":13,"items":[{"name":"영마트미용재료","tel":"031-408-0512","addr":"경기도 안산시 상록구 사동 1320-1번지 1층","indutype":"보건위생 - 미용재료","category":"beauty"}]},{"lat":"37.280734528","long":"126.85182988","imageIndex":13,"items":[{"name":"예쁜손톱","tel":"031-501-3923","addr":"경기도 안산시 상록구 사동 1470-6번지 103호","indutype":"보건위생 - 피부미용실","category":"beauty"}]},{"lat":"37.296730887","long":"126.84732042","imageIndex":13,"items":[{"name":"오크라헤어","tel":"031-409-8858","addr":"경기도 안산시 상록구 사동 1286-6번지 1층 103호","indutype":"보건위생 - 미용원","category":"beauty"}]},{"lat":"37.280986987","long":"126.85196469","imageIndex":13,"items":[{"name":"옻안타는천연염색사동점","tel":"031-418-3193","addr":"경기도 안산시 상록구 사동 1469-10번지 1층","indutype":"보건위생 - 미용원","category":"beauty"}]},{"lat":"37.283709567","long":"126.85313199","imageIndex":13,"items":[{"name":"와이제이헤어(YJ Hair)","tel":"070-8628-2356","addr":"경기도 안산시 상록구 사동 1400번지 1층","indutype":"보건위생 - 미용원","category":"beauty"}]},{"lat":"37.293842003","long":"126.85707044","imageIndex":13,"items":[{"name":"우리안경","tel":"031-416-0584","addr":"경기도 안산시 상록구 사동 1339-4번지","indutype":"보건위생 - 안경","category":"beauty"}]},{"lat":"37.290062845","long":"126.8539652","imageIndex":13,"items":[{"name":"욱일대중목욕탕","tel":"031-501-4111","addr":"경기도 안산시 상록구 사동 1344지층","indutype":"보건위생 - 사우나","category":"beauty"}]},{"lat":"37.283341965","long":"126.84755095","imageIndex":13,"items":[{"name":"윤아(ah)헤어","tel":"031-502-2247","addr":"경기도 안산시 상록구 사동 1418-1번지 102호","indutype":"보건위생 - 미용원","category":"beauty"},{"name":"이 (LEE)헤어","tel":"031-502-2247","addr":"경기도 안산시 상록구 사동 1418-1번지 1층 102호","indutype":"보건위생 - 미용원","category":"beauty"}]},{"lat":"37.29684274","long":"126.85018488","imageIndex":13,"items":[{"name":"윤헤어","tel":"070-4215-6954","addr":"경기도 안산시 상록구 사동 1298-9번지","indutype":"보건위생 - 미용원","category":"beauty"}]},{"lat":"37.300900389","long":"126.83898799","imageIndex":13,"items":[{"name":"이건헤어클럽","tel":"031-418-8296","addr":"경기도 안산시 상록구 사동 1570-4번지 1층","indutype":"보건위생 - 미용원","category":"beauty"}]},{"lat":"37.296200054","long":"126.84790798","imageIndex":13,"items":[{"name":"이수진에스테틱정성","tel":"","addr":"경기도 안산시 상록구 사동 1293-1번지 1층","indutype":"보건위생 - 피부미용실","category":"beauty"}]},{"lat":"37.301481353","long":"126.85599546","imageIndex":13,"items":[{"name":"이화헤어샵","tel":"070-8181-4438","addr":"경기도 안산시 상록구 사동 1253-4번지 103호","indutype":"보건위생 - 미용원","category":"beauty"},{"name":"초콜릿헤어샵","tel":"031-226-4025","addr":"경기도 안산시 상록구 사동 1253-4번지 103호","indutype":"보건위생 - 미용원","category":"beauty"}]},{"lat":"37.295950089","long":"126.81813412","imageIndex":13,"items":[{"name":"임진희헤어이슈","tel":"031-501-2042","addr":"경기도 안산시 상록구 사동 1510번지 안산고잔7차푸르지오 상가동 110호","indutype":"보건위생 - 미용원","category":"beauty"},{"name":"장선생미용실","tel":"031-501-3235","addr":"경기도 안산시 상록구 사동 1510번지 안산고잔7차푸르지오 상가동 114호","indutype":"보건위생 - 미용원","category":"beauty"}]},{"lat":"37.296338342","long":"126.85032124","imageIndex":13,"items":[{"name":"자르지오","tel":"031-409-6334","addr":"경기도 안산시 상록구 사동 1306-10번지 1층","indutype":"보건위생 - 미용원","category":"beauty"}]},{"lat":"37.301233213","long":"126.85212726","imageIndex":13,"items":[{"name":"정금","tel":"02-111-1111","addr":"경기도 안산시 상록구 사동 1206-1번지 승원빌라 102호","indutype":"보건위생 - 화장품","category":"beauty"}]},{"lat":"37.29925785","long":"126.85763519","imageIndex":13,"items":[{"name":"정미정머리방","tel":"031-417-2874","addr":"경기도 안산시 상록구 사동 1252-6번지 105호","indutype":"보건위생 - 미용원","category":"beauty"}]},{"lat":"37.300453909","long":"126.85577189","imageIndex":13,"items":[{"name":"제이제이헤어","tel":"070-4164-7584","addr":"경기도 안산시 상록구 사동 1254-8번지","indutype":"보건위생 - 미용원","category":"beauty"}]},{"lat":"37.30442287","long":"126.84524044","imageIndex":13,"items":[{"name":"주식회사 바이오필리아","tel":"02-3666-8100","addr":"경기도 안산시 상록구 사동 1547-1번지","indutype":"보건위생 - 화장품","category":"beauty"}]},{"lat":"37.290786914","long":"126.82985268","imageIndex":13,"items":[{"name":"주식회사 알파옵트론","tel":"031-222-8097","addr":"경기도 안산시 상록구 사동 1271-11번지 경기테크노파크 기술고도화동 405호","indutype":"보건위생 - 미용재료","category":"beauty"},{"name":"포밤오가닉(POBAM ORGANICS)","tel":"070-7689-0843","addr":"경기도 안산시 상록구 사동 1271-11번지 경기테크노파크 RIT CENTER 303호","indutype":"보건위생 - 화장품","category":"beauty"}]},{"lat":"37.296759277","long":"126.84835796","imageIndex":13,"items":[{"name":"주영헤어샵","tel":"031-407-2045","addr":"경기도 안산시 상록구 사동 1295-15번지","indutype":"보건위생 - 미용원","category":"beauty"}]},{"lat":"37.302341123","long":"126.85185435","imageIndex":13,"items":[{"name":"지지(GG)헤어샵","tel":"031-416-6566","addr":"경기도 안산시 상록구 사동 1202-7번지 1층","indutype":"보건위생 - 미용원","category":"beauty"}]},{"lat":"37.302729437","long":"126.85254161","imageIndex":13,"items":[{"name":"진헤어매직","tel":"031-407-7879","addr":"경기도 안산시 상록구 사동 1209-15번지 1층","indutype":"보건위생 - 미용원","category":"beauty"}]},{"lat":"37.279788726","long":"126.85204601","imageIndex":13,"items":[{"name":"청담본코스메틱스","tel":"031-362-4033","addr":"경기도 안산시 상록구 사동 1472-7번지 3층","indutype":"보건위생 - 화장품","category":"beauty"}]},{"lat":"37.280320402","long":"126.85210133","imageIndex":13,"items":[{"name":"최민경헤어","tel":"031-437-2929","addr":"경기도 안산시 상록구 사동 1471-8번지","indutype":"보건위생 - 미용원","category":"beauty"}]},{"lat":"37.299812794","long":"126.84090774","imageIndex":13,"items":[{"name":"춤추는머리나라","tel":"031-417-0436","addr":"경기도 안산시 상록구 사동 1165-12번지 1층","indutype":"보건위생 - 미용원","category":"beauty"},{"name":"헤어프린스2호점","tel":"031-408-5386","addr":"경기도 안산시 상록구 사동 1165-12번지","indutype":"보건위생 - 미용원","category":"beauty"}]},{"lat":"37.281038414","long":"126.84991236","imageIndex":13,"items":[{"name":"카리스헤어","tel":"031-406-3365","addr":"경기도 안산시 상록구 사동 1483-14번지 1층","indutype":"보건위생 - 미용원","category":"beauty"}]},{"lat":"37.284898632","long":"126.8529041","imageIndex":13,"items":[{"name":"칼라뷰티","tel":"031-438-6789","addr":"경기도 안산시 상록구 사동 1392-7번지","indutype":"보건위생 - 화장품","category":"beauty"},{"name":"칼라헤어","tel":"031-438-6786","addr":"경기도 안산시 상록구 사동 1392-7번지 1층","indutype":"보건위생 - 미용원","category":"beauty"}]},{"lat":"37.284591339","long":"126.85216047","imageIndex":13,"items":[{"name":"칼라샵","tel":"031-417-6786","addr":"경기도 안산시 상록구 사동 1409-7번지 1층","indutype":"보건위생 - 미용원","category":"beauty"}]},{"lat":"37.285035236","long":"126.84705131","imageIndex":13,"items":[{"name":"케이헤어(K HAIR)","tel":"070-7685-6786","addr":"경기도 안산시 상록구 사동 1385-11번지 103호","indutype":"보건위생 - 미용원","category":"beauty"}]},{"lat":"37.300817337","long":"126.83757831","imageIndex":13,"items":[{"name":"코스맨틱(cosMantic)","tel":"070-4115-5085","addr":"경기도 안산시 상록구 사동 1569-4번지 4층 4호","indutype":"보건위생 - 화장품","category":"beauty"}]},{"lat":"37.2971218379","long":"126.8500151380","imageIndex":13,"items":[{"name":"코코애견","tel":"031-408-0323","addr":"경기도 안산시 상록구 사동 1298-6번지","indutype":"도매 및 소매업 - 애견,애견미용용품","category":"beauty"}]},{"lat":"37.29642491","long":"126.847603","imageIndex":13,"items":[{"name":"퀸헤어","tel":"031-416-5660","addr":"경기도 안산시 상록구 사동 1286-9번지 1층 103호","indutype":"보건위생 - 미용원","category":"beauty"}]},{"lat":"37.280563506","long":"126.85196553","imageIndex":13,"items":[{"name":"토토헤어","tel":"031-406-9177","addr":"경기도 안산시 상록구 사동 1470-10번지 1층","indutype":"보건위생 - 미용원","category":"beauty"},{"name":"허브뷰티라이프","tel":"031-520-9334","addr":"경기도 안산시 상록구 사동 1470-10번지","indutype":"보건위생 - 화장품","category":"beauty"}]},{"lat":"37.294647766","long":"126.85294114","imageIndex":13,"items":[{"name":"투체어스","tel":"070-4254-0160","addr":"경기도 안산시 상록구 사동 1318-6번지 엘리지움2차 101호","indutype":"보건위생 - 미용원","category":"beauty"}]},{"lat":"37.286728832","long":"126.84679972","imageIndex":13,"items":[{"name":"펫친구","tel":"031-6316-2111","addr":"경기도 안산시 상록구 사동 1375-7번지 1층 101호","indutype":"보건위생 - 기타대인서비스","category":"beauty"}]},{"lat":"37.30384473","long":"126.85099411","imageIndex":13,"items":[{"name":"플러스헤어짱","tel":"031-419-2288","addr":"경기도 안산시 상록구 사동 1537번지 푸른마을4단지제동 상가 2층 203호","indutype":"보건위생 - 미용원","category":"beauty"}]},{"lat":"37.288985699","long":"126.85009926","imageIndex":13,"items":[{"name":"필앤휴(feel&  )","tel":"070-4065-9697","addr":"경기도 안산시 상록구 사동 1345-2번지 분산상가102","indutype":"보건위생 - 화장품","category":"beauty"}]},{"lat":"37.283563597","long":"126.85171146","imageIndex":13,"items":[{"name":"한스헤어샵","tel":"031-407-6454","addr":"경기도 안산시 상록구 사동 1407-22번지","indutype":"보건위생 - 미용원","category":"beauty"}]},{"lat":"37.296623858","long":"126.84815523","imageIndex":13,"items":[{"name":"헤어MY","tel":"031-406-1240","addr":"경기도 안산시 상록구 사동 1294번지 1층","indutype":"보건위생 - 미용원","category":"beauty"}]},{"lat":"37.302642986","long":"126.84837976","imageIndex":13,"items":[{"name":"헤어머신","tel":"031-406-4555","addr":"경기도 안산시 상록구 사동 1189번지 1층","indutype":"보건위생 - 미용원","category":"beauty"}]},{"lat":"37.284678912","long":"126.8501869","imageIndex":13,"items":[{"name":"헤어메이드바이다희(HAIR MADE BY다희)","tel":"031-418-0707","addr":"경기도 안산시 상록구 사동 1410-1번지 상가","indutype":"보건위생 - 미용원","category":"beauty"}]},{"lat":"37.305622261","long":"126.84601623","imageIndex":13,"items":[{"name":"헤어반 (HAIR Bann)","tel":"031-406-0031","addr":"경기도 안산시 상록구 사동 1525번지 101호","indutype":"보건위생 - 미용원","category":"beauty"}]},{"lat":"37.283206812","long":"126.84755123","imageIndex":13,"items":[{"name":"헤어밤비","tel":"031-111-1111","addr":"경기도 안산시 상록구 사동 1418-2번지 1층 103호","indutype":"보건위생 - 미용원","category":"beauty"}]},{"lat":"37.286620382","long":"126.84655186","imageIndex":13,"items":[{"name":"헤어에센스","tel":"031-418-6772","addr":"경기도 안산시 상록구 사동 1376-7번지 101호","indutype":"보건위생 - 미용원","category":"beauty"}]},{"lat":"37.282535116","long":"126.85068739","imageIndex":13,"items":[{"name":"헤어왁스","tel":"031-502-7839","addr":"경기도 안산시 상록구 사동 1415-4번지 102호","indutype":"보건위생 - 미용원","category":"beauty"}]},{"lat":"37.283147884","long":"126.85074253","imageIndex":13,"items":[{"name":"헤어코코","tel":"031-418-1462","addr":"경기도 안산시 상록구 사동 1413-9번지 상가 101호","indutype":"보건위생 - 미용원","category":"beauty"}]},{"lat":"37.283899977","long":"126.8470762","imageIndex":13,"items":[{"name":"헤어프린스","tel":"070-7516-8204","addr":"경기도 안산시 상록구 사동 1424-8번지 104호","indutype":"보건위생 - 미용원","category":"beauty"}]},{"lat":"37.284454875","long":"126.85113458","imageIndex":13,"items":[{"name":"호수헤어","tel":"031-419-8044","addr":"경기도 안산시 상록구 사동 1409-25번지 103호","indutype":"보건위생 - 미용원","category":"beauty"}]},{"lat":"37.2807347","long":"126.85196519","imageIndex":13,"items":[{"name":"화이트헤어샵","tel":"031-406-3162","addr":"경기도 안산시 상록구 사동 1470-7번지","indutype":"보건위생 - 미용원","category":"beauty"}]},{"lat":"37.293867737","long":"126.85602155","imageIndex":13,"items":[{"name":"히얼(here)","tel":"031-408-4817","addr":"경기도 안산시 상록구 사동 1341-9번지 102호","indutype":"보건위생 - 미용원","category":"beauty"}]},{"lat":"37.304448831","long":"126.84443954","imageIndex":13,"items":[{"name":"힐링","tel":"031-406-5888","addr":"경기도 안산시 상록구 사동 1548-3번지 이레빌딩 3층","indutype":"보건위생 - 화장품","category":"beauty"}]}]