[{"lat":"37.988711369","long":"127.31684707","imageIndex":4,"items":[{"name":"35년 한고집돌솥순대국","tel":"031-534-8882","addr":"경기도 포천시 일동면 수입리 614-1번지","indutype":"일반휴게음식 - 일반한식","category":"restaurant"}]},{"lat":"37.974184017","long":"127.32520721","imageIndex":4,"items":[{"name":"구담칼국수","tel":"531-5333","addr":"경기도 포천시 일동면 수입리 279-10번지","indutype":"음식 - 한식","category":"restaurant"},{"name":"부론김병학옥수수생칼국수","tel":"031-531-5333","addr":"경기도 포천시 일동면 수입리 279-10번지","indutype":"일반휴게음식 - 일반한식","category":"restaurant"}]},{"lat":"37.995879852","long":"127.31450965","imageIndex":4,"items":[{"name":"금강산갈비찜","tel":"534-7750","addr":"경기도 포천시 일동면 수입리 701-18번지","indutype":"음식 - 한식","category":"restaurant"},{"name":"금강산갈비찜","tel":"031-534-7750","addr":"경기도 포천시 일동면 수입리 701-18번지","indutype":"일반휴게음식 - 일반한식","category":"restaurant"}]},{"lat":"37.996096581","long":"127.31431703","imageIndex":4,"items":[{"name":"금강산곰탕","tel":"031-536-3159","addr":"경기도 포천시 일동면 수입리 701번지","indutype":"일반휴게음식 - 일반한식","category":"restaurant"},{"name":"토담","tel":"536-2400","addr":"경기도 포천시 일동면 수입리 701번지","indutype":"음식 - 한식","category":"restaurant"},{"name":"토담","tel":"031-536-2400","addr":"경기도 포천시 일동면 수입리 701번지","indutype":"일반휴게음식 - 일반한식","category":"restaurant"}]},{"lat":"37.966800992","long":"127.3134877","imageIndex":4,"items":[{"name":"금강산장례문화원","tel":"","addr":"경기도 포천시 일동면 수입리 190-4번지 가동 1층","indutype":"일반휴게음식 - 일반한식","category":"restaurant"}]},{"lat":"37.997906308","long":"127.3113191","imageIndex":4,"items":[{"name":"금주산 선지해장국","tel":"031-536-1708","addr":"경기도 포천시 일동면 수입리 711-5번지","indutype":"일반휴게음식 - 일반한식","category":"restaurant"},{"name":"금주산선지해장국","tel":"536-1708","addr":"경기도 포천시 일동면 수입리 711-5번지","indutype":"음식 - 한식","category":"restaurant"}]},{"lat":"37.962016689","long":"127.3203975","imageIndex":4,"items":[{"name":"다복순대국","tel":"531-1857","addr":"경기도 포천시 일동면 수입리 161-10번지","indutype":"음식 - 한식","category":"restaurant"}]},{"lat":"38.008601446","long":"127.30031906","imageIndex":4,"items":[{"name":"담소","tel":"031-532-6622","addr":"경기도 포천시 일동면 수입리 857-1번지","indutype":"일반휴게음식 - 일반한식","category":"restaurant"}]},{"lat":"37.99565227","long":"127.31539668","imageIndex":4,"items":[{"name":"메가일동면옥","tel":"031-531-5535","addr":"경기도 포천시 일동면 수입리 700-3번지 1층","indutype":"일반휴게음식 - 일반한식","category":"restaurant"}]},{"lat":"37.998402849","long":"127.31092271","imageIndex":4,"items":[{"name":"석진가든","tel":"535-2208","addr":"경기도 포천시 일동면 수입리 711번지","indutype":"음식 - 한식","category":"restaurant"},{"name":"석진가든","tel":"031-535-2208","addr":"경기도 포천시 일동면 수입리 711번지","indutype":"일반휴게음식 - 일반한식","category":"restaurant"},{"name":"옛길칼국수","tel":"031-535-4763","addr":"경기도 포천시 일동면 수입리 711번지","indutype":"일반휴게음식 - 일반한식","category":"restaurant"},{"name":"옛날칼국수","tel":"535-4763","addr":"경기도 포천시 일동면 수입리 711번지","indutype":"음식 - 한식","category":"restaurant"}]},{"lat":"37.988548781","long":"127.31700574","imageIndex":4,"items":[{"name":"소나무","tel":"031-535-3434","addr":"경기도 포천시 일동면 수입리 615번지 1층","indutype":"일반휴게음식 - 일반한식","category":"restaurant"},{"name":"소나무","tel":"535-3434","addr":"경기도 포천시 일동면 수입리 615번지","indutype":"음식 - 한식","category":"restaurant"}]},{"lat":"37.962412259","long":"127.32070645","imageIndex":4,"items":[{"name":"수","tel":"031-535-7774","addr":"경기도 포천시 일동면 수입리 159-7번지 1층","indutype":"일반휴게음식 - 일반한식","category":"restaurant"}]},{"lat":"37.979958821","long":"127.32523246","imageIndex":4,"items":[{"name":"시크릿","tel":"031-532-4261","addr":"경기도 포천시 일동면 수입리 49번지","indutype":"일반휴게음식 - 일반한식","category":"restaurant"}]},{"lat":"38.009791413","long":"127.29642964","imageIndex":4,"items":[{"name":"약수가든","tel":"031-536-4858","addr":"경기도 포천시 일동면 수입리 915-1번지","indutype":"일반휴게음식 - 일반한식","category":"restaurant"}]},{"lat":"37.995600119","long":"127.31467924","imageIndex":4,"items":[{"name":"오모가리제육","tel":"031-534-3784","addr":"경기도 포천시 일동면 수입리 701-19번지","indutype":"일반휴게음식 - 일반한식","category":"restaurant"}]},{"lat":"37.972381519","long":"127.32544971","imageIndex":4,"items":[{"name":"용암이동갈비","tel":"031-531-9000","addr":"경기도 포천시 일동면 수입리 75-1번지","indutype":"일반휴게음식 - 일반한식","category":"restaurant"}]},{"lat":"38.016877632","long":"127.29439673","imageIndex":4,"items":[{"name":"웰빙식당","tel":"031-535-1910","addr":"경기도 포천시 일동면 수입리 885-1번지","indutype":"일반휴게음식 - 위탁급식업","category":"restaurant"}]},{"lat":"37.972737815","long":"127.32693078","imageIndex":4,"items":[{"name":"유황푸드","tel":"031-536-5790","addr":"경기도 포천시 일동면 수입리 69번지","indutype":"일반휴게음식 - 일반한식","category":"restaurant"},{"name":"유황푸드","tel":"536-4600","addr":"경기도 포천시 일동면 수입리 69번지","indutype":"음식 - 한식","category":"restaurant"}]},{"lat":"37.972714854","long":"127.32545117","imageIndex":4,"items":[{"name":"일동낙지","tel":"031-531-5133","addr":"경기도 포천시 일동면 수입리 75-2번지","indutype":"일반휴게음식 - 일반한식","category":"restaurant"}]},{"lat":"37.974272453","long":"127.3258108","imageIndex":4,"items":[{"name":"일동해물국밥","tel":"031-531-2231","addr":"경기도 포천시 일동면 수입리 65-10번지 1층","indutype":"일반휴게음식 - 일반한식","category":"restaurant"}]},{"lat":"37.98229204","long":"127.3252882","imageIndex":4,"items":[{"name":"참살이토속청국장","tel":"031-532-4022","addr":"경기도 포천시 일동면 수입리 27-2번지","indutype":"일반휴게음식 - 일반한식","category":"restaurant"},{"name":"참살이토속청국장","tel":"532-4022","addr":"경기도 포천시 일동면 수입리 27-2번지","indutype":"음식 - 한식","category":"restaurant"}]},{"lat":"38.008428747","long":"127.30092184","imageIndex":4,"items":[{"name":"추담골 남원추어탕","tel":"535-4561","addr":"경기도 포천시 일동면 수입리 856-1번지","indutype":"음식 - 한식","category":"restaurant"},{"name":"추담골 남원추어탕(그래그럼)","tel":"031-535-4561","addr":"경기도 포천시 일동면 수입리 856-1번지","indutype":"일반휴게음식 - 일반한식","category":"restaurant"}]},{"lat":"38.007431583","long":"127.30334308","imageIndex":4,"items":[{"name":"포항막회","tel":"031-535-0825","addr":"경기도 포천시 일동면 수입리 719-6번지","indutype":"일반휴게음식 - 일반한식","category":"restaurant"}]}]