[{"lat":"37.657309933","long":"127.30285593","imageIndex":4,"items":[{"name":"(주)설빙 마석점","tel":"031-591-5788","addr":"경기도 남양주시 화도읍 마석우리 383-5번지 203,204호","indutype":"일반휴게음식 - 서양음식","category":"restaurant"},{"name":"누나 홀닭","tel":"031-511-9969","addr":"경기도 남양주시 화도읍 마석우리 383-5번지 메디칼프라자 109호 ,110호,111호","indutype":"일반휴게음식 - 스넥","category":"restaurant"},{"name":"떡볶이는 장가네","tel":"02-591-5201","addr":"경기도 남양주시 화도읍 마석우리 383-5번지 메디칼프라자 105호","indutype":"일반휴게음식 - 일반한식","category":"restaurant"},{"name":"바텐","tel":"","addr":"경기도 남양주시 화도읍 마석우리 383-5번지 메디칼프라자 205호","indutype":"일반휴게음식 - 주점","category":"restaurant"},{"name":"술모포차","tel":"031-595-5225","addr":"경기도 남양주시 화도읍 마석우리 383-5번지 메디칼프라자 202호","indutype":"일반휴게음식 - 주점","category":"restaurant"},{"name":"에스엔에스","tel":"02-000-0000","addr":"경기도 남양주시 화도읍 마석우리 383-5번지 메디칼프라자 207호","indutype":"일반휴게음식 - 주점","category":"restaurant"},{"name":"점순네닭발","tel":"031-511-9996","addr":"경기도 남양주시 화도읍 마석우리 383-5번지 메디칼프라자 113호","indutype":"일반휴게음식 - 일반한식","category":"restaurant"}]},{"lat":"37.651832297","long":"127.31321377","imageIndex":4,"items":[{"name":"(주)은성","tel":"031-595-3800","addr":"경기도 남양주시 화도읍 마석우리 92-5번지 2층","indutype":"일반휴게음식 - 일반한식","category":"restaurant"}]},{"lat":"37.655446347","long":"127.30582882","imageIndex":4,"items":[{"name":"19티","tel":"031-523-3919","addr":"경기도 남양주시 화도읍 마석우리 298-12번지 1층 6호","indutype":"일반휴게음식 - 서양음식","category":"restaurant"},{"name":"미스터피자 마석점","tel":"031-559-8997","addr":"경기도 남양주시 화도읍 마석우리 298-12번지","indutype":"일반휴게음식 - 서양음식","category":"restaurant"},{"name":"미스터피자마석점","tel":"031-559-8997","addr":"경기도 남양주시 화도읍 마석우리 298-12번지 1층 3호 광림빌딩","indutype":"일반휴게음식 - 서양음식","category":"restaurant"},{"name":"진우네옛날통닭마석점","tel":"031-593-6699","addr":"경기도 남양주시 화도읍 마석우리 298-12번지","indutype":"일반휴게음식 - 스넥","category":"restaurant"}]},{"lat":"37.656532339","long":"127.30394071","imageIndex":4,"items":[{"name":"1번가퓨전포차","tel":"031-594-5092","addr":"경기도 남양주시 화도읍 마석우리 370-1번지","indutype":"일반휴게음식 - 주점","category":"restaurant"},{"name":"두툼두툼숯불돼지갈비","tel":"031-594-0997","addr":"경기도 남양주시 화도읍 마석우리 370-1번지 1층","indutype":"일반휴게음식 - 일반한식","category":"restaurant"},{"name":"주경야주","tel":"031-593-4335","addr":"경기도 남양주시 화도읍 마석우리 370-1번지","indutype":"일반휴게음식 - 주점","category":"restaurant"}]},{"lat":"37.659088535","long":"127.30493699","imageIndex":4,"items":[{"name":"1번지감자탕앤유천칡냉면","tel":"031-511-2112","addr":"경기도 남양주시 화도읍 마석우리 417-3번지 1층 102호","indutype":"일반휴게음식 - 일반한식","category":"restaurant"},{"name":"7번가피자","tel":"031-511-1773","addr":"경기도 남양주시 화도읍 마석우리 417-3번지 1층","indutype":"일반휴게음식 - 서양음식","category":"restaurant"}]},{"lat":"37.654920757","long":"127.29993394","imageIndex":4,"items":[{"name":"1인분을 부탁해 마석점","tel":"","addr":"경기도 남양주시 화도읍 마석우리 522-11번지 1층","indutype":"일반휴게음식 - 일반한식","category":"restaurant"}]},{"lat":"37.656947444","long":"127.30368174","imageIndex":4,"items":[{"name":"3일국밥","tel":"031-595-9525","addr":"경기도 남양주시 화도읍 마석우리 379-8번지","indutype":"일반휴게음식 - 일반한식","category":"restaurant"}]},{"lat":"37.654640747","long":"127.30021612","imageIndex":4,"items":[{"name":"60계남양주화도점","tel":"031-594-8660","addr":"경기도 남양주시 화도읍 마석우리 577-1번지 젬마빌 1층","indutype":"일반휴게음식 - 스넥","category":"restaurant"}]},{"lat":"37.656532157","long":"127.30046165","imageIndex":4,"items":[{"name":"BHC천마산점","tel":"031-594-0678","addr":"경기도 남양주시 화도읍 마석우리 558-8번지 하나한빌딩 1층","indutype":"일반휴게음식 - 스넥","category":"restaurant"},{"name":"청춘살롱","tel":"031-592-2200","addr":"경기도 남양주시 화도읍 마석우리 558-8번지 하나한빌딩","indutype":"일반휴게음식 - 주점","category":"restaurant"}]},{"lat":"37.658252727","long":"127.30057051","imageIndex":4,"items":[{"name":"Joe's Sandwich화도점","tel":"031-593-6789","addr":"경기도 남양주시 화도읍 마석우리 541-1번지","indutype":"일반휴게음식 - 스넥","category":"restaurant"},{"name":"김밥사랑","tel":"031-592-0289","addr":"경기도 남양주시 화도읍 마석우리 541-1번지 외1필지","indutype":"일반휴게음식 - 일반한식","category":"restaurant"},{"name":"돈까스 상회","tel":"031-595-4224","addr":"경기도 남양주시 화도읍 마석우리 541-1번지 스타타워 1층 106호","indutype":"일반휴게음식 - 일반한식","category":"restaurant"},{"name":"또봉이통닭 마석점","tel":"031-593-7085","addr":"경기도 남양주시 화도읍 마석우리 541-1번지 1층","indutype":"일반휴게음식 - 스넥","category":"restaurant"},{"name":"소담촌","tel":"031-592-8545","addr":"경기도 남양주시 화도읍 마석우리 541-1번지 4층","indutype":"일반휴게음식 - 일반한식","category":"restaurant"},{"name":"제제커피","tel":"070-4712-6149","addr":"경기도 남양주시 화도읍 마석우리 541-1번지 1층 101호","indutype":"일반휴게음식 - 서양음식","category":"restaurant"},{"name":"카페달랏","tel":"031-559-1236","addr":"경기도 남양주시 화도읍 마석우리 541-1번지 5층","indutype":"일반휴게음식 - 서양음식","category":"restaurant"}]},{"lat":"37.659449788","long":"127.30459847","imageIndex":4,"items":[{"name":"가다오다","tel":"031-595-2216","addr":"경기도 남양주시 화도읍 마석우리 384-8번지 B동 1층 101호","indutype":"일반휴게음식 - 일반한식","category":"restaurant"},{"name":"코리엔탈깻잎칩킨","tel":"031-591-9930","addr":"경기도 남양주시 화도읍 마석우리 384-8번지","indutype":"일반휴게음식 - 스넥","category":"restaurant"},{"name":"탐앤탐스","tel":"031-594-7400","addr":"경기도 남양주시 화도읍 마석우리 384-8번지 (A동101,102,201호)","indutype":"일반휴게음식 - 서양음식","category":"restaurant"}]},{"lat":"37.66033478","long":"127.3037974","imageIndex":4,"items":[{"name":"가장맛있는족발 마석점","tel":"031-559-5849","addr":"경기도 남양주시 화도읍 마석우리 441-1번지 동보플라자 1층","indutype":"일반휴게음식 - 일반한식","category":"restaurant"},{"name":"네네치킨 마석점","tel":"031-559-9982","addr":"경기도 남양주시 화도읍 마석우리 441-1번지 동보플라자 101호","indutype":"일반휴게음식 - 스넥","category":"restaurant"}]},{"lat":"37.660225682","long":"127.30418229","imageIndex":4,"items":[{"name":"갈비애가","tel":"031-591-5592","addr":"경기도 남양주시 화도읍 마석우리 439번지","indutype":"일반휴게음식 - 일반한식","category":"restaurant"}]},{"lat":"37.657419114","long":"127.30243706","imageIndex":4,"items":[{"name":"강지네","tel":"031-559-9937","addr":"경기도 남양주시 화도읍 마석우리 383-4번지 캠퍼스프라자 3층 304호","indutype":"일반휴게음식 - 일반한식","category":"restaurant"},{"name":"맛나슈퍼","tel":"031-559-7606","addr":"경기도 남양주시 화도읍 마석우리 383-4번지 캠퍼스프라자 301호","indutype":"일반휴게음식 - 일반한식","category":"restaurant"},{"name":"상구비어(마석)","tel":"031-594-3911","addr":"경기도 남양주시 화도읍 마석우리 383-4번지 캠퍼스프라자 1층 109호","indutype":"일반휴게음식 - 주점","category":"restaurant"},{"name":"오징어나라","tel":"031-592-2214","addr":"경기도 남양주시 화도읍 마석우리 383-4번지 캠퍼스프라자 1층 107호","indutype":"일반휴게음식 - 일반한식","category":"restaurant"},{"name":"오투","tel":"031-511-4771","addr":"경기도 남양주시 화도읍 마석우리 383-4번지 캠퍼스프라자 3층 305호","indutype":"일반휴게음식 - 주점","category":"restaurant"},{"name":"초밥집","tel":"031-595-9007","addr":"경기도 남양주시 화도읍 마석우리 383-4번지 캠퍼스프라자 203호","indutype":"일반휴게음식 - 일반한식","category":"restaurant"}]},{"lat":"37.65219924","long":"127.31071097","imageIndex":4,"items":[{"name":"강창구찹쌀진순대마석점","tel":"031-552-0600","addr":"경기도 남양주시 화도읍 마석우리 284번지","indutype":"일반휴게음식 - 일반한식","category":"restaurant"}]},{"lat":"37.660831577","long":"127.30330075","imageIndex":4,"items":[{"name":"경춘식당","tel":"031-594-3644","addr":"경기도 남양주시 화도읍 마석우리 444-1번지","indutype":"일반휴게음식 - 일반한식","category":"restaurant"},{"name":"천마루","tel":"031-594-3569","addr":"경기도 남양주시 화도읍 마석우리 444-1번지 1층","indutype":"일반휴게음식 - 일반한식","category":"restaurant"}]},{"lat":"37.657081807","long":"127.30398826","imageIndex":4,"items":[{"name":"고향막창","tel":"031-559-0827","addr":"경기도 남양주시 화도읍 마석우리 377-1번지 1층 청호빌","indutype":"일반휴게음식 - 일반한식","category":"restaurant"}]},{"lat":"37.658421302","long":"127.30160246","imageIndex":4,"items":[{"name":"고향손칼국수","tel":"031-559-5589","addr":"경기도 남양주시 화도읍 마석우리 539-2","indutype":"일반휴게음식 - 일반한식","category":"restaurant"}]},{"lat":"37.653697268","long":"127.30629766","imageIndex":4,"items":[{"name":"골든벨","tel":"031-111-1111","addr":"경기도 남양주시 화도읍 마석우리 295-5번지 2층","indutype":"일반휴게음식 - 주점","category":"restaurant"}]},{"lat":"37.658838325","long":"127.30413135","imageIndex":4,"items":[{"name":"골목커피","tel":"","addr":"경기도 남양주시 화도읍 마석우리 359-1번지 한마음빌 1층","indutype":"일반휴게음식 - 서양음식","category":"restaurant"}]},{"lat":"37.657218915","long":"127.3032182","imageIndex":4,"items":[{"name":"곱분이곱창","tel":"031-511-1230","addr":"경기도 남양주시 화도읍 마석우리 383-6번지 중흥프라자 110호","indutype":"일반휴게음식 - 일반한식","category":"restaurant"},{"name":"봉구스밥버거 마석점","tel":"031-593-8209","addr":"경기도 남양주시 화도읍 마석우리 383-6번지 중흥프라자 108호","indutype":"일반휴게음식 - 스넥","category":"restaurant"},{"name":"부루스타","tel":"031-595-3579","addr":"경기도 남양주시 화도읍 마석우리 383-6번지 중흥프라자 205호","indutype":"일반휴게음식 - 주점","category":"restaurant"},{"name":"엉터리생고기 마석점","tel":"031-559-3685","addr":"경기도 남양주시 화도읍 마석우리 383-6번지 301,302호","indutype":"일반휴게음식 - 일반한식","category":"restaurant"},{"name":"쥬씨(마석점)","tel":"070-4117-1028","addr":"경기도 남양주시 화도읍 마석우리 383-6번지 중흥프라자 102호","indutype":"일반휴게음식 - 서양음식","category":"restaurant"},{"name":"코바코","tel":"031-511-9117","addr":"경기도 남양주시 화도읍 마석우리 383-6번지 중흥프라자 104호","indutype":"일반휴게음식 - 일반한식","category":"restaurant"}]},{"lat":"37.658143611","long":"127.30096672","imageIndex":4,"items":[{"name":"곱창나라 순대국","tel":"031-511-6336","addr":"경기도 남양주시 화도읍 마석우리 541-3번지","indutype":"일반휴게음식 - 일반한식","category":"restaurant"}]},{"lat":"37.658305095","long":"127.30123935","imageIndex":4,"items":[{"name":"공화춘","tel":"031-591-2999","addr":"경기도 남양주시 화도읍 마석우리 538-5번지 상가동 1층 1호","indutype":"일반휴게음식 - 중국식","category":"restaurant"}]},{"lat":"37.651752567","long":"127.30924733","imageIndex":4,"items":[{"name":"광릉숯불고기","tel":"031-593-3770","addr":"경기도 남양주시 화도읍 마석우리 275-9번지","indutype":"일반휴게음식 - 일반한식","category":"restaurant"},{"name":"깡통맥주","tel":"031-1111-1111","addr":"경기도 남양주시 화도읍 마석우리 275-9번지","indutype":"일반휴게음식 - 주점","category":"restaurant"},{"name":"참존숯불바베큐","tel":"031-1234-5678","addr":"경기도 남양주시 화도읍 마석우리 275-9번지 1층","indutype":"일반휴게음식 - 스넥","category":"restaurant"},{"name":"하늘곱창","tel":"031-511-7002","addr":"경기도 남양주시 화도읍 마석우리 275-9번지","indutype":"일반휴게음식 - 일반한식","category":"restaurant"}]},{"lat":"37.6508398","long":"127.31032008","imageIndex":4,"items":[{"name":"광어2마리","tel":"031-511-2266","addr":"경기도 남양주시 화도읍 마석우리 251-1번지","indutype":"일반휴게음식 - 일반한식","category":"restaurant"}]},{"lat":"37.656252231","long":"127.30070984","imageIndex":4,"items":[{"name":"교동짬뽕","tel":"031-594-5229","addr":"경기도 남양주시 화도읍 마석우리 557-8번지","indutype":"일반휴게음식 - 일반한식","category":"restaurant"},{"name":"청춘골뱅이","tel":"031-591-7767","addr":"경기도 남양주시 화도읍 마석우리 557-8번지 1층","indutype":"일반휴게음식 - 일반한식","category":"restaurant"}]},{"lat":"37.658079913","long":"127.30121578","imageIndex":4,"items":[{"name":"교촌치킨(마석2호점)","tel":"031-559-9266","addr":"경기도 남양주시 화도읍 마석우리 541-4번지 성원빌딩 지 지하층 105호","indutype":"일반휴게음식 - 주점","category":"restaurant"}]},{"lat":"37.656140374","long":"127.30571832","imageIndex":4,"items":[{"name":"구공탄냉면","tel":"031-511-0014","addr":"경기도 남양주시 화도읍 마석우리 299-10번지 110호","indutype":"일반휴게음식 - 일반한식","category":"restaurant"},{"name":"숙이네양푼이","tel":"031-511-1666","addr":"경기도 남양주시 화도읍 마석우리 299-10번지 1층 108호","indutype":"일반휴게음식 - 일반한식","category":"restaurant"},{"name":"아가페하우스","tel":"031-559-9108","addr":"경기도 남양주시 화도읍 마석우리 299-10번지 302호","indutype":"일반휴게음식 - 스넥","category":"restaurant"},{"name":"피자스쿨마석점","tel":"031-594-8220","addr":"경기도 남양주시 화도읍 마석우리 299-10번지 우리빌딩 107호","indutype":"일반휴게음식 - 서양음식","category":"restaurant"}]},{"lat":"37.65638584","long":"127.30485805","imageIndex":4,"items":[{"name":"구이가","tel":"031-511-1293","addr":"경기도 남양주시 화도읍 마석우리 370-8번지","indutype":"일반휴게음식 - 일반한식","category":"restaurant"}]},{"lat":"37.658611077","long":"127.30137657","imageIndex":4,"items":[{"name":"국민닭발 마석점","tel":"031-595-8882","addr":"경기도 남양주시 화도읍 마석우리 538-8번지","indutype":"일반휴게음식 - 일반한식","category":"restaurant"},{"name":"꼬앤드짱즉석떡복이","tel":"031-559-8883","addr":"경기도 남양주시 화도읍 마석우리 538-8 준하우스상가1층 1","indutype":"일반휴게음식 - 스넥","category":"restaurant"}]},{"lat":"37.65691429","long":"127.30254836","imageIndex":4,"items":[{"name":"국수나무(해피화도)","tel":"031-593-5935","addr":"경기도 남양주시 화도읍 마석우리 392-4번지 1층 마석주립빌딩","indutype":"일반휴게음식 - 일반한식","category":"restaurant"}]},{"lat":"37.652809882","long":"127.30451494","imageIndex":4,"items":[{"name":"군산간장게장","tel":"031-511-5988","addr":"경기도 남양주시 화도읍 마석우리 312-5번지 1층 102호","indutype":"일반휴게음식 - 일반한식","category":"restaurant"},{"name":"잔호프","tel":"031-969-5546","addr":"경기도 남양주시 화도읍 마석우리 312-5번지 1층 1호","indutype":"일반휴게음식 - 일반한식","category":"restaurant"},{"name":"카페와야","tel":"070-8295-6199","addr":"경기도 남양주시 화도읍 마석우리 312-5번지","indutype":"일반휴게음식 - 서양음식","category":"restaurant"}]},{"lat":"37.656054221","long":"127.30062973","imageIndex":4,"items":[{"name":"굴렁쇠","tel":"","addr":"경기도 남양주시 화도읍 마석우리 564-1번지 1층","indutype":"일반휴게음식 - 주점","category":"restaurant"},{"name":"연변대박난양꼬치","tel":"031-595-1718","addr":"경기도 남양주시 화도읍 마석우리 564-1번지 1층 일부","indutype":"일반휴게음식 - 일반한식","category":"restaurant"},{"name":"홍가네 손두부","tel":"031-511-4547","addr":"경기도 남양주시 화도읍 마석우리 564-1번지","indutype":"일반휴게음식 - 일반한식","category":"restaurant"}]},{"lat":"37.658638347","long":"127.30482184","imageIndex":4,"items":[{"name":"굽네치킨","tel":"031-595-2255","addr":"경기도 남양주시 화도읍 마석우리 357-7번지 102호","indutype":"일반휴게음식 - 스넥","category":"restaurant"}]},{"lat":"37.656672171","long":"127.30562982","imageIndex":4,"items":[{"name":"그옛날주막실내포장마차","tel":"031-511-1992","addr":"경기도 남양주시 화도읍 마석우리 366-4번지 오렌지빌 104호","indutype":"일반휴게음식 - 주점","category":"restaurant"}]},{"lat":"37.651081727","long":"127.32101814","imageIndex":4,"items":[{"name":"글루와","tel":"070-7529-8843","addr":"경기도 남양주시 화도읍 마석우리 76-18번지 덕양프라자 105호","indutype":"일반휴게음식 - 주점","category":"restaurant"},{"name":"행운의횟집","tel":"031-559-4736","addr":"경기도 남양주시 화도읍 마석우리 76-18번지 덕양프라자 101호","indutype":"일반휴게음식 - 주점","category":"restaurant"}]},{"lat":"37.655222823","long":"127.30515931","imageIndex":4,"items":[{"name":"금마차","tel":"031-111-1111","addr":"경기도 남양주시 화도읍 마석우리 304-1번지 1층 일부","indutype":"일반휴게음식 - 주점","category":"restaurant"},{"name":"까페 블롱쉬","tel":"031-591-5515","addr":"경기도 남양주시 화도읍 마석우리 304-1번지 1층","indutype":"일반휴게음식 - 일반한식","category":"restaurant"},{"name":"바니포켓","tel":"031-591-2221","addr":"경기도 남양주시 화도읍 마석우리 304-1번지 2층 전부","indutype":"일반휴게음식 - 일반한식","category":"restaurant"},{"name":"장터연탄구이","tel":"031-595-4254","addr":"경기도 남양주시 화도읍 마석우리 304-1번지 1층","indutype":"일반휴게음식 - 일반한식","category":"restaurant"}]},{"lat":"37.656830291","long":"127.3036926","imageIndex":4,"items":[{"name":"김밥나라(마석점)","tel":"031-559-3773","addr":"경기도 남양주시 화도읍 마석우리 379-9","indutype":"일반휴게음식 - 스넥","category":"restaurant"}]},{"lat":"37.652922734","long":"127.30265697","imageIndex":4,"items":[{"name":"김선생갯벌낙지","tel":"","addr":"경기도 남양주시 화도읍 마석우리 336-3번지 105호","indutype":"일반휴게음식 - 일반한식","category":"restaurant"},{"name":"양꿈","tel":"","addr":"경기도 남양주시 화도읍 마석우리 336-3번지","indutype":"일반휴게음식 - 일반한식","category":"restaurant"},{"name":"옛날장군집","tel":"031-511-1222","addr":"경기도 남양주시 화도읍 마석우리 336-3번지 1층","indutype":"일반휴게음식 - 일반한식","category":"restaurant"},{"name":"이자카야형","tel":"031-528-6263","addr":"경기도 남양주시 화도읍 마석우리 336-3번지 107호","indutype":"일반휴게음식 - 주점","category":"restaurant"},{"name":"콩요리전문점","tel":"031-511-8170","addr":"경기도 남양주시 화도읍 마석우리 336-3번지 108호","indutype":"일반휴게음식 - 일반한식","category":"restaurant"},{"name":"후꾼이불닭발","tel":"031-595-9212","addr":"경기도 남양주시 화도읍 마석우리 336-3번지","indutype":"일반휴게음식 - 일반한식","category":"restaurant"}]},{"lat":"37.651388804","long":"127.30707016","imageIndex":4,"items":[{"name":"김성일참치","tel":"031-511-5040","addr":"경기도 남양주시 화도읍 마석우리 265-10번지 2층 송림빌딩","indutype":"일반휴게음식 - 일식·회집","category":"restaurant"},{"name":"동원참치마석점","tel":"031-575-5333","addr":"경기도 남양주시 화도읍 마석우리 265-10번지","indutype":"일반휴게음식 - 일식·회집","category":"restaurant"},{"name":"명륜진사갈비 마석화도점","tel":"031-595-8255","addr":"경기도 남양주시 화도읍 마석우리 265-10번지 송림빌딩 1층 일부","indutype":"일반휴게음식 - 일반한식","category":"restaurant"}]},{"lat":"37.652164124","long":"127.30688068","imageIndex":4,"items":[{"name":"김수정천줄김밥","tel":"031-774-0292","addr":"경기도 남양주시 화도읍 마석우리 270번지","indutype":"일반휴게음식 - 일반한식","category":"restaurant"},{"name":"아그리나 화도점","tel":"070-4401-0785","addr":"경기도 남양주시 화도읍 마석우리 270번지","indutype":"일반휴게음식 - 일반한식","category":"restaurant"}]},{"lat":"37.651665232","long":"127.30818179","imageIndex":4,"items":[{"name":"김수정천줄김밥","tel":"031-595-8292","addr":"경기도 남양주시 화도읍 마석우리 272-3번지 1층","indutype":"일반휴게음식 - 스넥","category":"restaurant"},{"name":"오시엔","tel":"031-591-6048","addr":"경기도 남양주시 화도읍 마석우리 272-3","indutype":"일반휴게음식 - 중국식","category":"restaurant"}]},{"lat":"37.654753173","long":"127.30207505","imageIndex":4,"items":[{"name":"김씨카페","tel":"","addr":"경기도 남양주시 화도읍 마석우리 588번지 유일프라자 106호","indutype":"일반휴게음식 - 서양음식","category":"restaurant"},{"name":"꼬지사께(마석우리점)","tel":"031-511-0989","addr":"경기도 남양주시 화도읍 마석우리 588번지 유일프라자 102호","indutype":"일반휴게음식 - 일반한식","category":"restaurant"},{"name":"방과후 떡볶이","tel":"031-000-8000","addr":"경기도 남양주시 화도읍 마석우리 588번지 유일프라자 108호 일부","indutype":"일반휴게음식 - 스넥","category":"restaurant"},{"name":"비비큐 치킨카페","tel":"031-592-9272","addr":"경기도 남양주시 화도읍 마석우리 588번지 유일프라자 104호","indutype":"일반휴게음식 - 주점","category":"restaurant"},{"name":"뿅가네치킨앤족발","tel":"031-592-0622","addr":"경기도 남양주시 화도읍 마석우리 588번지 유일프라자 101호","indutype":"일반휴게음식 - 일반한식","category":"restaurant"},{"name":"홍이","tel":"031-591-8595","addr":"경기도 남양주시 화도읍 마석우리 588번지 유일프라자 107호","indutype":"일반휴게음식 - 서양음식","category":"restaurant"}]},{"lat":"37.654391936","long":"127.30593786","imageIndex":4,"items":[{"name":"꽂힌족발","tel":"031-595-6768","addr":"경기도 남양주시 화도읍 마석우리 297-10번지","indutype":"일반휴게음식 - 일반한식","category":"restaurant"},{"name":"오구쌀피자","tel":"031-595-9599","addr":"경기도 남양주시 화도읍 마석우리 297-10번지","indutype":"일반휴게음식 - 서양음식","category":"restaurant"}]},{"lat":"37.652194624","long":"127.30902251","imageIndex":4,"items":[{"name":"꽃보다소","tel":"031-593-4151","addr":"경기도 남양주시 화도읍 마석우리 290-8번지","indutype":"일반휴게음식 - 일반한식","category":"restaurant"}]},{"lat":"37.655946163","long":"127.30060663","imageIndex":4,"items":[{"name":"꽃찬딜리버리","tel":"031-559-8388","addr":"경기도 남양주시 화도읍 마석우리 564-2번지","indutype":"일반휴게음식 - 일반한식","category":"restaurant"}]},{"lat":"37.653642277","long":"127.30666006","imageIndex":4,"items":[{"name":"나주곰탕","tel":"070-1111-1111","addr":"경기도 남양주시 화도읍 마석우리 220-11번지","indutype":"일반휴게음식 - 일반한식","category":"restaurant"},{"name":"수정","tel":"031-593-7734","addr":"경기도 남양주시 화도읍 마석우리 220-11번지 지하1층","indutype":"일반휴게음식 - 주점","category":"restaurant"}]},{"lat":"37.653200166","long":"127.30690756","imageIndex":4,"items":[{"name":"놀이터","tel":"031-592-8842","addr":"경기도 남양주시 화도읍 마석우리 220-17번지 2층","indutype":"일반휴게음식 - 주점","category":"restaurant"}]},{"lat":"37.658664447","long":"127.3051846","imageIndex":4,"items":[{"name":"농부치킨 마석점","tel":"031-515-5007","addr":"경기도 남양주시 화도읍 마석우리 416-1번지 신정빌딩 2층","indutype":"일반휴게음식 - 스넥","category":"restaurant"},{"name":"심야식당","tel":"031-593-0730","addr":"경기도 남양주시 화도읍 마석우리 416-1번지 1층 101호","indutype":"일반휴게음식 - 일반한식","category":"restaurant"}]},{"lat":"37.657280278","long":"127.30388707","imageIndex":4,"items":[{"name":"니하우회전양꼬치","tel":"031-511-9138","addr":"경기도 남양주시 화도읍 마석우리 379-4번지 우리하이츠","indutype":"일반휴게음식 - 중국식","category":"restaurant"},{"name":"족발삼촌","tel":"031-593-5825","addr":"경기도 남양주시 화도읍 마석우리 379-4번지 1층 우리하이츠","indutype":"일반휴게음식 - 일반한식","category":"restaurant"}]},{"lat":"37.65522679","long":"127.30360681","imageIndex":4,"items":[{"name":"다꼬치다 마석점","tel":"02-2662-9250","addr":"경기도 남양주시 화도읍 마석우리 317-8번지 1층 102호","indutype":"일반휴게음식 - 일반한식","category":"restaurant"},{"name":"본족발","tel":"031-558-9898","addr":"경기도 남양주시 화도읍 마석우리 317-8 1-2호","indutype":"일반휴게음식 - 일반한식","category":"restaurant"},{"name":"상진푸드(남양주1호점)","tel":"031-594-0708","addr":"경기도 남양주시 화도읍 마석우리 317-8번지","indutype":"일반휴게음식 - 일반한식","category":"restaurant"},{"name":"신마산아구찜","tel":"031-595-4289","addr":"경기도 남양주시 화도읍 마석우리 317-8번지 1층","indutype":"일반휴게음식 - 일반한식","category":"restaurant"},{"name":"실내두루와포차","tel":"031-111-1111","addr":"경기도 남양주시 화도읍 마석우리 317-8번지","indutype":"일반휴게음식 - 주점","category":"restaurant"},{"name":"찬's닭장정","tel":"031-511-9599","addr":"경기도 남양주시 화도읍 마석우리 317-8번지","indutype":"일반휴게음식 - 일반한식","category":"restaurant"}]},{"lat":"37.658365969","long":"127.30563669","imageIndex":4,"items":[{"name":"다드림무한리필","tel":"031-595-3434","addr":"경기도 남양주시 화도읍 마석우리 410-1번지 거농마트 301호","indutype":"일반휴게음식 - 일반한식","category":"restaurant"}]},{"lat":"37.659865647","long":"127.30404484","imageIndex":4,"items":[{"name":"다산오리","tel":"031-559-7061","addr":"경기도 남양주시 화도읍 마석우리 385번지 101호","indutype":"일반휴게음식 - 일반한식","category":"restaurant"}]},{"lat":"37.655807702","long":"127.31919112","imageIndex":4,"items":[{"name":"다올","tel":"031-511-4244","addr":"경기도 남양주시 화도읍 마석우리 31-5번지 1층","indutype":"일반휴게음식 - 일반한식","category":"restaurant"},{"name":"산성한식뷔페","tel":"031-594-0081","addr":"경기도 남양주시 화도읍 마석우리 31-5번지 102호","indutype":"일반휴게음식 - 일반한식","category":"restaurant"}]},{"lat":"37.65269563","long":"127.30690551","imageIndex":4,"items":[{"name":"다인","tel":"031-511-3541","addr":"경기도 남양주시 화도읍 마석우리 292-12번지","indutype":"일반휴게음식 - 일반한식","category":"restaurant"},{"name":"사랑","tel":"","addr":"경기도 남양주시 화도읍 마석우리 292-12번지","indutype":"일반휴게음식 - 주점","category":"restaurant"},{"name":"수빈","tel":"031-594-2749","addr":"경기도 남양주시 화도읍 마석우리 292-12번지","indutype":"일반휴게음식 - 주점","category":"restaurant"},{"name":"수카페","tel":"031-511-5358","addr":"경기도 남양주시 화도읍 마석우리 292-12번지 1층 일부","indutype":"일반휴게음식 - 주점","category":"restaurant"},{"name":"호박꽃","tel":"031-594-4682","addr":"경기도 남양주시 화도읍 마석우리 292-12번지","indutype":"일반휴게음식 - 일반한식","category":"restaurant"}]},{"lat":"37.657583738","long":"127.31876802","imageIndex":4,"items":[{"name":"단풍나무집 (마석점)","tel":"031-595-6372","addr":"경기도 남양주시 화도읍 마석우리 25-12번지 1층","indutype":"일반휴게음식 - 일반한식","category":"restaurant"}]},{"lat":"37.654503595","long":"127.30455579","imageIndex":4,"items":[{"name":"달밤","tel":"031-593-1474","addr":"경기도 남양주시 화도읍 마석우리 315-14번지 두원빌라 가동 102호","indutype":"일반휴게음식 - 주점","category":"restaurant"}]},{"lat":"37.657944466","long":"127.30487569","imageIndex":4,"items":[{"name":"대구소막창 곱창","tel":"031-593-2888","addr":"경기도 남양주시 화도읍 마석우리 360-6번지 세종빌딩 102호","indutype":"일반휴게음식 - 일반한식","category":"restaurant"},{"name":"족발구역","tel":"031-000-0000","addr":"경기도 남양주시 화도읍 마석우리 360-6번지 세종빌딩 1층 101호","indutype":"일반휴게음식 - 일반한식","category":"restaurant"}]},{"lat":"37.655838191","long":"127.30054954","imageIndex":4,"items":[{"name":"대구호박막창","tel":"031-591-8362","addr":"경기도 남양주시 화도읍 마석우리 564-3번지 1층","indutype":"일반휴게음식 - 일반한식","category":"restaurant"}]},{"lat":"37.65697208","long":"127.30107536","imageIndex":4,"items":[{"name":"대천부양꼬치","tel":"031-591-8805","addr":"경기도 남양주시 화도읍 마석우리 557-2번지","indutype":"일반휴게음식 - 일반한식","category":"restaurant"}]},{"lat":"37.655306827","long":"127.30046809","imageIndex":4,"items":[{"name":"대천부훠궈(마석점)","tel":"031-593-0561","addr":"경기도 남양주시 화도읍 마석우리 570-3번지 1층","indutype":"일반휴게음식 - 일반한식","category":"restaurant"}]},{"lat":"37.653420766","long":"127.31557743","imageIndex":4,"items":[{"name":"대추나무집","tel":"031-593-2221","addr":"경기도 남양주시 화도읍 마석우리 132-1번지","indutype":"일반휴게음식 - 일반한식","category":"restaurant"}]},{"lat":"37.65675036","long":"127.30323898","imageIndex":4,"items":[{"name":"더불어퓨전포차","tel":"","addr":"경기도 남양주시 화도읍 마석우리 383-9번지 별나라프라자 2층 205호","indutype":"일반휴게음식 - 주점","category":"restaurant"},{"name":"두부마을","tel":"031-559-1988","addr":"경기도 남양주시 화도읍 마석우리 383-9번지 별나라프라자 108호","indutype":"일반휴게음식 - 일반한식","category":"restaurant"},{"name":"제이제이","tel":"031-593-6828","addr":"경기도 남양주시 화도읍 마석우리 383-9번지 301,302호","indutype":"일반휴게음식 - 주점","category":"restaurant"},{"name":"커피콩로스터스","tel":"031-511-7828","addr":"경기도 남양주시 화도읍 마석우리 383-9번지 별나라프라자 102호","indutype":"일반휴게음식 - 서양음식","category":"restaurant"},{"name":"화도분식","tel":"031-593-3839","addr":"경기도 남양주시 화도읍 마석우리 383-9번지 별나라프라자 105호","indutype":"일반휴게음식 - 스넥","category":"restaurant"}]},{"lat":"37.655441913","long":"127.30049129","imageIndex":4,"items":[{"name":"더엠커피 위드 아셀","tel":"031-511-7177","addr":"경기도 남양주시 화도읍 마석우리 570-4번지","indutype":"일반휴게음식 - 서양음식","category":"restaurant"}]},{"lat":"37.656531645","long":"127.30421269","imageIndex":4,"items":[{"name":"도깨비주막","tel":"031-559-4151","addr":"경기도 남양주시 화도읍 마석우리 370-3번지 1층","indutype":"일반휴게음식 - 일반한식","category":"restaurant"}]},{"lat":"37.656891391","long":"127.30446346","imageIndex":4,"items":[{"name":"돈가네마석점","tel":"031-515-3792","addr":"경기도 남양주시 화도읍 마석우리 372-4번지 파크빌","indutype":"일반휴게음식 - 일반한식","category":"restaurant"}]},{"lat":"37.654221191","long":"127.30576718","imageIndex":4,"items":[{"name":"돈통마늘보쌈","tel":"031-591-5382","addr":"경기도 남양주시 화도읍 마석우리 295-15번지 청운빌딩 101동 102호","indutype":"일반휴게음식 - 일반한식","category":"restaurant"},{"name":"바우네돌곱창","tel":"031-595-0732","addr":"경기도 남양주시 화도읍 마석우리 295-15번지 성지빌딩 1층 105호","indutype":"일반휴게음식 - 일반한식","category":"restaurant"},{"name":"주디호프","tel":"031-594-3887","addr":"경기도 남양주시 화도읍 마석우리 295-15번지","indutype":"일반휴게음식 - 주점","category":"restaurant"},{"name":"주디호프","tel":"070-7848-4868","addr":"경기도 남양주시 화도읍 마석우리 295-15번지","indutype":"일반휴게음식 - 주점","category":"restaurant"}]},{"lat":"37.658529273","long":"127.30165956","imageIndex":4,"items":[{"name":"동태마을불낙지","tel":"031-594-8822","addr":"경기도 남양주시 화도읍 마석우리 539-1번지 1층","indutype":"일반휴게음식 - 일반한식","category":"restaurant"}]},{"lat":"37.652054939","long":"127.31076703","imageIndex":4,"items":[{"name":"동해생아구찜","tel":"031-511-0780","addr":"경기도 남양주시 화도읍 마석우리 282-2","indutype":"일반휴게음식 - 일반한식","category":"restaurant"},{"name":"베트남쌀국수투홍","tel":"031-593-1321","addr":"경기도 남양주시 화도읍 마석우리 282-2번지 2층","indutype":"일반휴게음식 - 서양음식","category":"restaurant"},{"name":"이디야커피 마석역점","tel":"031-593-7933","addr":"경기도 남양주시 화도읍 마석우리 282-2번지 1층 101호","indutype":"일반휴게음식 - 서양음식","category":"restaurant"}]},{"lat":"37.656919082","long":"127.30065584","imageIndex":4,"items":[{"name":"돼지꿈","tel":"031-559-3392","addr":"경기도 남양주시 화도읍 마석우리 556-5","indutype":"일반휴게음식 - 일반한식","category":"restaurant"}]},{"lat":"37.657691182","long":"127.30527131","imageIndex":4,"items":[{"name":"두끼 떡볶이 마석점","tel":"031-559-2771","addr":"경기도 남양주시 화도읍 마석우리 363-4번지 대영빌딩 2층","indutype":"일반휴게음식 - 스넥","category":"restaurant"},{"name":"수중회센타","tel":"031-559-1680","addr":"경기도 남양주시 화도읍 마석우리 363-4번지 1층","indutype":"일반휴게음식 - 일반한식","category":"restaurant"}]},{"lat":"37.655085906","long":"127.30585002","imageIndex":4,"items":[{"name":"두찜 남양주 화도점","tel":"031-111-1111","addr":"경기도 남양주시 화도읍 마석우리 297-9번지 1층","indutype":"일반휴게음식 - 일반한식","category":"restaurant"}]},{"lat":"37.656948484","long":"127.30327377","imageIndex":4,"items":[{"name":"떡볶이짱이네","tel":"031-591-7011","addr":"경기도 남양주시 화도읍 마석우리 383-8번지 별나라타워 105호","indutype":"일반휴게음식 - 스넥","category":"restaurant"},{"name":"멍살롱&애견카페","tel":"070-7576-1650","addr":"경기도 남양주시 화도읍 마석우리 383-8번지 별나라타워 302호","indutype":"일반휴게음식 - 서양음식","category":"restaurant"},{"name":"명랑핫도그","tel":"031-559-3733","addr":"경기도 남양주시 화도읍 마석우리 383-8번지 별나라타워 104호","indutype":"일반휴게음식 - 서양음식","category":"restaurant"},{"name":"미스앤불닭발","tel":"031-559-2345","addr":"경기도 남양주시 화도읍 마석우리 383-8번지 별나라타워 107호","indutype":"일반휴게음식 - 일반한식","category":"restaurant"},{"name":"미스터깐풍","tel":"031-559-8905","addr":"경기도 남양주시 화도읍 마석우리 383-8번지 별나라타워 1층","indutype":"일반휴게음식 - 중국식","category":"restaurant"},{"name":"바나바커피","tel":"031-595-1135","addr":"경기도 남양주시 화도읍 마석우리 383-8번지 별나라타워 703호 703~705호","indutype":"일반휴게음식 - 서양음식","category":"restaurant"},{"name":"엠바","tel":"031-591-4647","addr":"경기도 남양주시 화도읍 마석우리 383-8번지 별나라타워 201호","indutype":"일반휴게음식 - 주점","category":"restaurant"},{"name":"이맛에오리앤금계찜닭화도점","tel":"031-565-5291","addr":"경기도 남양주시 화도읍 마석우리 383-8번지 별나라타워 205호","indutype":"일반휴게음식 - 일반한식","category":"restaurant"},{"name":"일구곱돌집","tel":"02-000-0000","addr":"경기도 남양주시 화도읍 마석우리 383-8번지 102,103호","indutype":"일반휴게음식 - 일반한식","category":"restaurant"},{"name":"제이바 (J-BAR)","tel":"","addr":"경기도 남양주시 화도읍 마석우리 383-8번지 별나라타워 504호","indutype":"일반휴게음식 - 칵테일바","category":"restaurant"},{"name":"혼참치,초밥","tel":"031-593-4578","addr":"경기도 남양주시 화도읍 마석우리 383-8번지 별나라타워 203호","indutype":"일반휴게음식 - 일식·회집","category":"restaurant"},{"name":"화도국수","tel":"031-511-9169","addr":"경기도 남양주시 화도읍 마석우리 383-8번지 별나라타워 1층 101호","indutype":"일반휴게음식 - 일반한식","category":"restaurant"},{"name":"황궁주점","tel":"031-595-5191","addr":"경기도 남양주시 화도읍 마석우리 383-8번지 별나라타워 805호","indutype":"일반휴게음식 - 주점","category":"restaurant"}]},{"lat":"37.654639549","long":"127.30423904","imageIndex":4,"items":[{"name":"또래오래치킨","tel":"031-593-4483","addr":"경기도 남양주시 화도읍 마석우리 317-2번지 두원 상가 103호","indutype":"일반휴게음식 - 일반한식","category":"restaurant"}]},{"lat":"37.652058922","long":"127.30923726","imageIndex":4,"items":[{"name":"뚜꺼비 손칼국수","tel":"","addr":"경기도 남양주시 화도읍 마석우리 290-7번지","indutype":"일반휴게음식 - 일반한식","category":"restaurant"},{"name":"바움샤텐","tel":"031-111-1111","addr":"경기도 남양주시 화도읍 마석우리 290-7번지","indutype":"일반휴게음식 - 서양음식","category":"restaurant"},{"name":"셰프의돈까스","tel":"031-592-2322","addr":"경기도 남양주시 화도읍 마석우리 290-7번지","indutype":"일반휴게음식 - 일반한식","category":"restaurant"},{"name":"송가네솥뚜껑삼겹살","tel":"031-559-3336","addr":"경기도 남양주시 화도읍 마석우리 290-7번지","indutype":"일반휴게음식 - 일반한식","category":"restaurant"}]},{"lat":"37.65711299","long":"127.3023565","imageIndex":4,"items":[{"name":"뚱이푸드","tel":"031-511-1597","addr":"경기도 남양주시 화도읍 마석우리 392-1번지 별나라타운 3층 308호","indutype":"일반휴게음식 - 일반한식","category":"restaurant"},{"name":"바 이브(BAR eve)","tel":"031-111-1111","addr":"경기도 남양주시 화도읍 마석우리 392-1번지 별나라타운 4층 407호","indutype":"일반휴게음식 - 일반한식","category":"restaurant"},{"name":"잇또라멘 마석점","tel":"031-559-2621","addr":"경기도 남양주시 화도읍 마석우리 392-1번지 별나라타운 102호","indutype":"일반휴게음식 - 일반한식","category":"restaurant"},{"name":"펀비어킹마석점","tel":"031-559-0177","addr":"경기도 남양주시 화도읍 마석우리 392-1번지 별나라타운 108호 109호","indutype":"일반휴게음식 - 주점","category":"restaurant"},{"name":"포차스미스중흥점","tel":"","addr":"경기도 남양주시 화도읍 마석우리 392-1번지 별나라타운 309호-312호","indutype":"일반휴게음식 - 주점","category":"restaurant"},{"name":"포차천국 마석점","tel":"","addr":"경기도 남양주시 화도읍 마석우리 392-1번지 별나라타운 103,104,105호","indutype":"일반휴게음식 - 주점","category":"restaurant"},{"name":"호동이","tel":"031-591-7598","addr":"경기도 남양주시 화도읍 마석우리 392-1번지 별나라타운 306호","indutype":"일반휴게음식 - 주점","category":"restaurant"}]},{"lat":"37.654778153","long":"127.30640405","imageIndex":4,"items":[{"name":"라라자봐","tel":"031-595-1589","addr":"경기도 남양주시 화도읍 마석우리 297-7번지","indutype":"일반휴게음식 - 주점","category":"restaurant"}]},{"lat":"37.656748077","long":"127.30413424","imageIndex":4,"items":[{"name":"라무진 마석점","tel":"02-1111-1111","addr":"경기도 남양주시 화도읍 마석우리 372-9번지 상가동 1층 102호","indutype":"일반휴게음식 - 일반한식","category":"restaurant"},{"name":"청해진동태찜(마석점)","tel":"031-593-1610","addr":"경기도 남양주시 화도읍 마석우리 372-9","indutype":"일반휴게음식 - 일반한식","category":"restaurant"}]},{"lat":"37.655137044","long":"127.29991213","imageIndex":4,"items":[{"name":"래빗츠컴퍼니 마석","tel":"031-595-3712","addr":"경기도 남양주시 화도읍 마석우리 521-6번지 1층","indutype":"일반휴게음식 - 서양음식","category":"restaurant"}]},{"lat":"37.654721619","long":"127.30385408","imageIndex":4,"items":[{"name":"레드팝불갈비","tel":"031-595-9002","addr":"경기도 남양주시 화도읍 마석우리 317-7번지 1층","indutype":"일반휴게음식 - 일반한식","category":"restaurant"}]},{"lat":"37.656531298","long":"127.30434868","imageIndex":4,"items":[{"name":"로얄자카르타 남양주마석점","tel":"031-511-7867","addr":"경기도 남양주시 화도읍 마석우리 370-4번지","indutype":"일반휴게음식 - 주점","category":"restaurant"}]},{"lat":"37.651838844","long":"127.30724197","imageIndex":4,"items":[{"name":"루루호프","tel":"031-595-7879","addr":"경기도 남양주시 화도읍 마석우리 272-1번지","indutype":"일반휴게음식 - 주점","category":"restaurant"},{"name":"마석갈매기","tel":"031-594-0202","addr":"경기도 남양주시 화도읍 마석우리 272-1번지","indutype":"일반휴게음식 - 일반한식","category":"restaurant"}]},{"lat":"37.659141924","long":"127.30166201","imageIndex":4,"items":[{"name":"리우커피","tel":"031-592-5589","addr":"경기도 남양주시 화도읍 마석우리 534-4번지","indutype":"일반휴게음식 - 서양음식","category":"restaurant"}]},{"lat":"37.657054083","long":"127.30071305","imageIndex":4,"items":[{"name":"리즈커피(LIZ COFFEE)","tel":"031-559-8780","addr":"경기도 남양주시 화도읍 마석우리 556-4번지","indutype":"일반휴게음식 - 서양음식","category":"restaurant"}]},{"lat":"37.657360612","long":"127.30418204","imageIndex":4,"items":[{"name":"마봉양꼬치(화도점)","tel":"031-559-5250","addr":"경기도 남양주시 화도읍 마석우리 379-2번지 1층","indutype":"일반휴게음식 - 일반한식","category":"restaurant"},{"name":"박군스 쭈꾸미","tel":"031-511-9223","addr":"경기도 남양주시 화도읍 마석우리 379-2번지 101호","indutype":"일반휴게음식 - 일반한식","category":"restaurant"},{"name":"프랭크서울마석점","tel":"031-591-5655","addr":"경기도 남양주시 화도읍 마석우리 379-2번지 102호","indutype":"일반휴게음식 - 서양음식","category":"restaurant"}]},{"lat":"37.658504392","long":"127.30435665","imageIndex":4,"items":[{"name":"마석사철탕","tel":"031-555-8790","addr":"경기도 남양주시 화도읍 마석우리 359-4번지 장인이튼빌","indutype":"일반휴게음식 - 일반한식","category":"restaurant"}]},{"lat":"37.657420547","long":"127.3054062","imageIndex":4,"items":[{"name":"마석수타짬뽕","tel":"031-511-2367","addr":"경기도 남양주시 화도읍 마석우리 363-7번지 1층","indutype":"일반휴게음식 - 중국식","category":"restaurant"}]},{"lat":"37.65386107","long":"127.30566373","imageIndex":4,"items":[{"name":"마석숯불고기인생극장","tel":"031-592-9292","addr":"경기도 남양주시 화도읍 마석우리 295-17번지","indutype":"일반휴게음식 - 일반한식","category":"restaurant"},{"name":"정원뜰","tel":"031-559-5835","addr":"경기도 남양주시 화도읍 마석우리 295-17번지 1층","indutype":"일반휴게음식 - 일반한식","category":"restaurant"}]},{"lat":"37.651726068","long":"127.30904325","imageIndex":4,"items":[{"name":"마석장군","tel":"031-591-8168","addr":"경기도 남양주시 화도읍 마석우리 275-2","indutype":"일반휴게음식 - 일반한식","category":"restaurant"},{"name":"먹거리마트","tel":"02-911-2728","addr":"경기도 남양주시 화도읍 마석우리 275-2번지 1층 2호","indutype":"일반휴게음식 - 일반한식","category":"restaurant"},{"name":"청수칼국수","tel":"031-595-3677","addr":"경기도 남양주시 화도읍 마석우리 275-2번지 4호","indutype":"일반휴게음식 - 일반한식","category":"restaurant"}]},{"lat":"37.656530428","long":"127.30468865","imageIndex":4,"items":[{"name":"마석호반닭갈비","tel":"031-592-0017","addr":"경기도 남양주시 화도읍 마석우리 370-6번지 팜스빌 상가 1층","indutype":"일반휴게음식 - 일반한식","category":"restaurant"}]},{"lat":"37.658219208","long":"127.30313157","imageIndex":4,"items":[{"name":"마왕족발 남양주 마석점","tel":"031-593-5626","addr":"경기도 남양주시 화도읍 마석우리 349번지 111-104 (중흥에스-클래스(상가동))","indutype":"일반휴게음식 - 일반한식","category":"restaurant"},{"name":"불닭발동대문엽기떡볶이 마석점","tel":"031-592-8590","addr":"경기도 남양주시 화도읍 마석우리 349번지 중흥에스클레스 111동 107 상가","indutype":"일반휴게음식 - 일반한식","category":"restaurant"},{"name":"오븐마루 마석점","tel":"031-511-2201","addr":"경기도 남양주시 화도읍 마석우리 349번지 111동상가동 106호(중흥에스-클래스)","indutype":"일반휴게음식 - 일반한식","category":"restaurant"},{"name":"화랑닭발","tel":"031-594-8582","addr":"경기도 남양주시 화도읍 마석우리 349번지 중흥에스클래스 상가동 110호","indutype":"일반휴게음식 - 일반한식","category":"restaurant"}]},{"lat":"37.651389213","long":"127.30691151","imageIndex":4,"items":[{"name":"마이홈","tel":"031-594-4382","addr":"경기도 남양주시 화도읍 마석우리 267-7번지","indutype":"일반휴게음식 - 주점","category":"restaurant"}]},{"lat":"37.657114628","long":"127.30524631","imageIndex":4,"items":[{"name":"마카나이(마석점)","tel":"031-511-4447","addr":"경기도 남양주시 화도읍 마석우리 365-10번지 휴먼빌 101호","indutype":"일반휴게음식 - 일반한식","category":"restaurant"}]},{"lat":"37.657195075","long":"127.30549595","imageIndex":4,"items":[{"name":"만나참치","tel":"031-594-3725","addr":"경기도 남양주시 화도읍 마석우리 363-9번지","indutype":"일반휴게음식 - 일반한식","category":"restaurant"}]},{"lat":"37.659250708","long":"127.30493765","imageIndex":4,"items":[{"name":"만복래연탄구이","tel":"031-511-2850","addr":"경기도 남양주시 화도읍 마석우리 417번지 1층","indutype":"일반휴게음식 - 일반한식","category":"restaurant"}]},{"lat":"37.657005729","long":"127.30555184","imageIndex":4,"items":[{"name":"맘스터치","tel":"031-511-0056","addr":"경기도 남양주시 화도읍 마석우리 366-1번지","indutype":"일반휴게음식 - 일반한식","category":"restaurant"}]},{"lat":"37.652779776","long":"127.305716","imageIndex":4,"items":[{"name":"맛집냉면","tel":"","addr":"경기도 남양주시 화도읍 마석우리 309-6번지 1층 일부","indutype":"일반휴게음식 - 일반한식","category":"restaurant"},{"name":"카페다원","tel":"070-8945-3313","addr":"경기도 남양주시 화도읍 마석우리 309-6번지 주건축물 제1동 1층일부","indutype":"일반휴게음식 - 서양음식","category":"restaurant"},{"name":"퉁바우네순대국집","tel":"","addr":"경기도 남양주시 화도읍 마석우리 309-6번지 주건축물제 1동 1층 일부","indutype":"일반휴게음식 - 일반한식","category":"restaurant"}]},{"lat":"37.651920719","long":"127.30693634","imageIndex":4,"items":[{"name":"매울신닭발","tel":"031-511-6333","addr":"경기도 남양주시 화도읍 마석우리 269-2번지","indutype":"일반휴게음식 - 일반한식","category":"restaurant"},{"name":"머구리식당","tel":"031-511-8504","addr":"경기도 남양주시 화도읍 마석우리 269-2번지","indutype":"일반휴게음식 - 일반한식","category":"restaurant"},{"name":"포차스미스","tel":"031-559-7773","addr":"경기도 남양주시 화도읍 마석우리 269-2번지","indutype":"일반휴게음식 - 일반한식","category":"restaurant"}]},{"lat":"37.652056594","long":"127.31013246","imageIndex":4,"items":[{"name":"매콩이달콩이즉석떡볶이","tel":"031-595-2251","addr":"경기도 남양주시 화도읍 마석우리 288-5번지 1층 2호","indutype":"일반휴게음식 - 스넥","category":"restaurant"},{"name":"치윙스","tel":"031-591-1590","addr":"경기도 남양주시 화도읍 마석우리 288-5번지 1층 102호","indutype":"일반휴게음식 - 일반한식","category":"restaurant"}]},{"lat":"37.657753932","long":"127.29466421","imageIndex":4,"items":[{"name":"맷돌36샤브샤브","tel":"","addr":"경기도 남양주시 화도읍 마석우리 514-13번지","indutype":"일반휴게음식 - 일반한식","category":"restaurant"}]},{"lat":"37.656891825","long":"127.30429347","imageIndex":4,"items":[{"name":"맷돌감자탕","tel":"031-573-9250","addr":"경기도 남양주시 화도읍 마석우리 372-3번지","indutype":"일반휴게음식 - 일반한식","category":"restaurant"}]},{"lat":"37.655001551","long":"127.3036059","imageIndex":4,"items":[{"name":"맷돌모루","tel":"031-511-6240","addr":"경기도 남양주시 화도읍 마석우리 317-15번지","indutype":"일반휴게음식 - 일반한식","category":"restaurant"},{"name":"신차이","tel":"031-592-8220","addr":"경기도 남양주시 화도읍 마석우리 317-15번지","indutype":"일반휴게음식 - 중국식","category":"restaurant"}]},{"lat":"37.658332525","long":"127.3010808","imageIndex":4,"items":[{"name":"먹보","tel":"031-594-5784","addr":"경기도 남양주시 화도읍 마석우리 538-4번지 101호","indutype":"일반휴게음식 - 일반한식","category":"restaurant"}]},{"lat":"37.655833631","long":"127.30235136","imageIndex":4,"items":[{"name":"메가커피","tel":"070-2502-5096","addr":"경기도 남양주시 화도읍 마석우리 396번지 신명스카이뷰그린 105호","indutype":"일반휴게음식 - 서양음식","category":"restaurant"},{"name":"못난이찹쌀꽈배기 남양주마석점","tel":"031-595-5489","addr":"경기도 남양주시 화도읍 마석우리 396번지 신명스카이뷰그린 상가동 107호","indutype":"일반휴게음식 - 스넥","category":"restaurant"},{"name":"신전떡볶이","tel":"031-559-5002","addr":"경기도 남양주시 화도읍 마석우리 396번지 신명스카이뷰그린상가 108호","indutype":"일반휴게음식 - 일반한식","category":"restaurant"},{"name":"원조 왕십리 불난막창","tel":"031-594-6200","addr":"경기도 남양주시 화도읍 마석우리 396번지 신명스카이뷰 106호 상가","indutype":"일반휴게음식 - 일반한식","category":"restaurant"}]},{"lat":"37.655001782","long":"127.30351524","imageIndex":4,"items":[{"name":"메밀촌","tel":"031-111-1111","addr":"경기도 남양주시 화도읍 마석우리 327-8번지","indutype":"일반휴게음식 - 일반한식","category":"restaurant"}]},{"lat":"37.653722925","long":"127.30683037","imageIndex":4,"items":[{"name":"명품 스마일 찹쌀 꽈배기 마석점","tel":"031-516-7660","addr":"경기도 남양주시 화도읍 마석우리 220-10번지","indutype":"일반휴게음식 - 일반한식","category":"restaurant"},{"name":"왕김밥","tel":"031-594-2242","addr":"경기도 남양주시 화도읍 마석우리 220-10번지 103호","indutype":"일반휴게음식 - 일반한식","category":"restaurant"}]},{"lat":"37.651811089","long":"127.31099266","imageIndex":4,"items":[{"name":"명품뽕족발","tel":"","addr":"경기도 남양주시 화도읍 마석우리 279-3번지 1층 4-5호","indutype":"일반휴게음식 - 일반한식","category":"restaurant"},{"name":"비턴","tel":"031-591-2652","addr":"경기도 남양주시 화도읍 마석우리 279-3번지 1층 일부","indutype":"일반휴게음식 - 일반한식","category":"restaurant"}]},{"lat":"37.658947893","long":"127.32074571","imageIndex":4,"items":[{"name":"무교동낙지","tel":"031-511-3118","addr":"경기도 남양주시 화도읍 마석우리 10-22번지 1층","indutype":"일반휴게음식 - 일반한식","category":"restaurant"}]},{"lat":"37.655920325","long":"127.30368893","imageIndex":4,"items":[{"name":"미소짓는","tel":"070-7786-2100","addr":"경기도 남양주시 화도읍 마석우리 325번지 주 1동","indutype":"일반휴게음식 - 일반한식","category":"restaurant"}]},{"lat":"37.652505553","long":"127.30724469","imageIndex":4,"items":[{"name":"민들레","tel":"031-593-2804","addr":"경기도 남양주시 화도읍 마석우리 292-25번지","indutype":"일반휴게음식 - 주점","category":"restaurant"},{"name":"부산집","tel":"031-593-4674","addr":"경기도 남양주시 화도읍 마석우리 292-25번지","indutype":"일반휴게음식 - 일반한식","category":"restaurant"},{"name":"수정","tel":"031-593-9061","addr":"경기도 남양주시 화도읍 마석우리 292-25번지","indutype":"일반휴게음식 - 일반한식","category":"restaurant"},{"name":"야화","tel":"031-559-5267","addr":"경기도 남양주시 화도읍 마석우리 292-25","indutype":"일반휴게음식 - 주점","category":"restaurant"},{"name":"지엠호프","tel":"031-595-5466","addr":"경기도 남양주시 화도읍 마석우리 292-25번지","indutype":"일반휴게음식 - 주점","category":"restaurant"}]},{"lat":"37.658024885","long":"127.30513667","imageIndex":4,"items":[{"name":"바나나","tel":"031-559-0730","addr":"경기도 남양주시 화도읍 마석우리 360-5번지","indutype":"일반휴게음식 - 일반한식","category":"restaurant"},{"name":"소야쌀국수","tel":"031-593-3392","addr":"경기도 남양주시 화도읍 마석우리 360-5번지 101호","indutype":"일반휴게음식 - 서양음식","category":"restaurant"}]},{"lat":"37.651781565","long":"127.30848822","imageIndex":4,"items":[{"name":"바다커피숍","tel":"031-595-0898","addr":"경기도 남양주시 화도읍 마석우리 271-21번지 지하1층","indutype":"일반휴게음식 - 주점","category":"restaurant"},{"name":"베아또","tel":"031-559-8877","addr":"경기도 남양주시 화도읍 마석우리 271-21번지","indutype":"일반휴게음식 - 일반한식","category":"restaurant"}]},{"lat":"37.654222819","long":"127.30513259","imageIndex":4,"items":[{"name":"바른밥상","tel":"031-594-6088","addr":"경기도 남양주시 화도읍 마석우리 305-14번지","indutype":"일반휴게음식 - 일반한식","category":"restaurant"},{"name":"약속","tel":"031-515-7122","addr":"경기도 남양주시 화도읍 마석우리 305-14번지 2층","indutype":"일반휴게음식 - 일반한식","category":"restaurant"}]},{"lat":"37.656198928","long":"127.30396203","imageIndex":4,"items":[{"name":"반주","tel":"031-511-0115","addr":"경기도 남양주시 화도읍 마석우리 324-3번지 1층","indutype":"일반휴게음식 - 주점","category":"restaurant"}]},{"lat":"37.65658712","long":"127.30365762","imageIndex":4,"items":[{"name":"밤도깨비","tel":"031-111-1111","addr":"경기도 남양주시 화도읍 마석우리 379-11번지 모던빌 103호","indutype":"일반휴게음식 - 주점","category":"restaurant"}]},{"lat":"37.662057252","long":"127.30315836","imageIndex":4,"items":[{"name":"밤도깨비","tel":"031-511-2048","addr":"경기도 남양주시 화도읍 마석우리 470-33번지 (지하102호)","indutype":"일반휴게음식 - 주점","category":"restaurant"},{"name":"은지네옛날통닭","tel":"031-592-8998","addr":"경기도 남양주시 화도읍 마석우리 470-33번지 지하1층 B04호","indutype":"일반휴게음식 - 스넥","category":"restaurant"}]},{"lat":"37.659080835","long":"127.3008798","imageIndex":4,"items":[{"name":"배달삼겹돼지되지","tel":"031-593-8591","addr":"경기도 남양주시 화도읍 마석우리 535-1번지","indutype":"일반휴게음식 - 일반한식","category":"restaurant"}]},{"lat":"37.654445062","long":"127.3063007","imageIndex":4,"items":[{"name":"배달의쌀국수","tel":"031-592-5926","addr":"경기도 남양주시 화도읍 마석우리 297-4번지 1층 일부","indutype":"일반휴게음식 - 서양음식","category":"restaurant"}]},{"lat":"37.650283713","long":"127.30935461","imageIndex":4,"items":[{"name":"벨라스트라","tel":"031-593-9117","addr":"경기도 남양주시 화도읍 마석우리 255-24번지 롯데마트 2층 105호","indutype":"일반휴게음식 - 일반한식","category":"restaurant"},{"name":"엄마마음","tel":"031-584-6267","addr":"경기도 남양주시 화도읍 마석우리 255-24번지","indutype":"일반휴게음식 - 스넥","category":"restaurant"},{"name":"피자마루 마석점","tel":"031-595-1082","addr":"경기도 남양주시 화도읍 마석우리 255-24번지 롯데마트 1층 103호","indutype":"일반휴게음식 - 서양음식","category":"restaurant"}]},{"lat":"37.658719578","long":"127.30476551","imageIndex":4,"items":[{"name":"별미쓰리부대찌개","tel":"","addr":"경기도 남양주시 화도읍 마석우리 357-6번지 1층","indutype":"일반휴게음식 - 일반한식","category":"restaurant"}]},{"lat":"37.655972125","long":"127.30457306","imageIndex":4,"items":[{"name":"별미양곱창","tel":"","addr":"경기도 남양주시 화도읍 마석우리 322번지 1층","indutype":"일반휴게음식 - 일반한식","category":"restaurant"}]},{"lat":"37.658196264","long":"127.30152223","imageIndex":4,"items":[{"name":"본가뼈다귀감자탕","tel":"031-559-4151","addr":"경기도 남양주시 화도읍 마석우리 539-4번지","indutype":"일반휴게음식 - 일반한식","category":"restaurant"}]},{"lat":"37.658025283","long":"127.30144222","imageIndex":4,"items":[{"name":"본죽&비빔밥 남양주마석점","tel":"031-559-6288","addr":"경기도 남양주시 화도읍 마석우리 541-5번지 B104호","indutype":"일반휴게음식 - 일반한식","category":"restaurant"}]},{"lat":"37.651890882","long":"127.30802407","imageIndex":4,"items":[{"name":"본죽마석역점","tel":"031-591-6268","addr":"경기도 남양주시 화도읍 마석우리 271-7번지 1층","indutype":"일반휴게음식 - 일반한식","category":"restaurant"}]},{"lat":"37.658754512","long":"127.30166046","imageIndex":4,"items":[{"name":"불난집소","tel":"031-556-5592","addr":"경기도 남양주시 화도읍 마석우리 535-7번지 1층","indutype":"일반휴게음식 - 일반한식","category":"restaurant"},{"name":"정품닭갈비","tel":"031-556-5592","addr":"경기도 남양주시 화도읍 마석우리 535-7번지 1층","indutype":"일반휴게음식 - 일반한식","category":"restaurant"}]},{"lat":"37.65536137","long":"127.30027566","imageIndex":4,"items":[{"name":"불소반","tel":"031-594-3070","addr":"경기도 남양주시 화도읍 마석우리 570-2번지 1층","indutype":"일반휴게음식 - 일반한식","category":"restaurant"}]},{"lat":"37.654808694","long":"127.30149733","imageIndex":4,"items":[{"name":"비에이치씨치킨","tel":"031-593-5566","addr":"경기도 남양주시 화도읍 마석우리 586번지 103호","indutype":"일반휴게음식 - 스넥","category":"restaurant"},{"name":"수내닭꼬치","tel":"031-593-3966","addr":"경기도 남양주시 화도읍 마석우리 586번지 102호","indutype":"일반휴게음식 - 일반한식","category":"restaurant"},{"name":"희메돈가스","tel":"031-595-1201","addr":"경기도 남양주시 화도읍 마석우리 586","indutype":"일반휴게음식 - 일식·회집","category":"restaurant"}]},{"lat":"37.652111241","long":"127.30990605","imageIndex":4,"items":[{"name":"뼈다귀해장국","tel":"031-593-7227","addr":"경기도 남양주시 화도읍 마석우리 288-6번지 1층 우측호","indutype":"일반휴게음식 - 일반한식","category":"restaurant"}]},{"lat":"37.655057945","long":"127.30621254","imageIndex":4,"items":[{"name":"사천탕면","tel":"031-591-0428","addr":"경기도 남양주시 화도읍 마석우리 297-12번지 1층","indutype":"일반휴게음식 - 중국식","category":"restaurant"}]},{"lat":"37.658304235","long":"127.30157933","imageIndex":4,"items":[{"name":"산장작구이","tel":"031-514-5592","addr":"경기도 남양주시 화도읍 마석우리 539-3번지","indutype":"일반휴게음식 - 일반한식","category":"restaurant"}]},{"lat":"37.659810122","long":"127.30107538","imageIndex":4,"items":[{"name":"삼거리다방","tel":"031-593-4566","addr":"경기도 남양주시 화도읍 마석우리 374번지 1층","indutype":"일반휴게음식 - 서양음식","category":"restaurant"}]},{"lat":"37.652057596","long":"127.30974718","imageIndex":4,"items":[{"name":"상진푸드","tel":"031-559-7220","addr":"경기도 남양주시 화도읍 마석우리 288-7번지 102호","indutype":"일반휴게음식 - 일반한식","category":"restaurant"},{"name":"한일시골밥상","tel":"031-559-1629","addr":"경기도 남양주시 화도읍 마석우리 288-7번지 105호","indutype":"일반휴게음식 - 일반한식","category":"restaurant"}]},{"lat":"37.654117052","long":"127.30421426","imageIndex":4,"items":[{"name":"생선구이전문점","tel":"031-591-8682","addr":"경기도 남양주시 화도읍 마석우리 315-7번지 한림","indutype":"일반휴게음식 - 일반한식","category":"restaurant"}]},{"lat":"37.653335455","long":"127.30685146","imageIndex":4,"items":[{"name":"서울손칼국수","tel":"031-594-1399","addr":"경기도 남양주시 화도읍 마석우리 220-18번지","indutype":"일반휴게음식 - 일반한식","category":"restaurant"},{"name":"열린음악회","tel":"031-595-6988","addr":"경기도 남양주시 화도읍 마석우리 220-18","indutype":"일반휴게음식 - 일반한식","category":"restaurant"}]},{"lat":"37.656970475","long":"127.30524572","imageIndex":4,"items":[{"name":"수다(SU:DA)","tel":"","addr":"경기도 남양주시 화도읍 마석우리 365-4번지 102호","indutype":"일반휴게음식 - 서양음식","category":"restaurant"},{"name":"왕십리불곱창","tel":"031-511-7585","addr":"경기도 남양주시 화도읍 마석우리 365-4번지 연주그랜드빌 101호","indutype":"일반휴게음식 - 일반한식","category":"restaurant"}]},{"lat":"37.653737491","long":"127.30466601","imageIndex":4,"items":[{"name":"순이네야식","tel":"031-595-0396","addr":"경기도 남양주시 화도읍 마석우리 315-28번지 도산빌라 마동 1층 102호","indutype":"일반휴게음식 - 일반한식","category":"restaurant"}]},{"lat":"37.653894837","long":"127.30654777","imageIndex":4,"items":[{"name":"쉘브르","tel":"031-592-8077","addr":"경기도 남양주시 화도읍 마석우리 220-13번지 지하1층","indutype":"일반휴게음식 - 주점","category":"restaurant"},{"name":"전주콩나물국밥","tel":"031-513-7090","addr":"경기도 남양주시 화도읍 마석우리 220-13번지 1층","indutype":"일반휴게음식 - 일반한식","category":"restaurant"}]},{"lat":"37.656224943","long":"127.30435877","imageIndex":4,"items":[{"name":"시골옻닭오리집","tel":"031-511-2950","addr":"경기도 남양주시 화도읍 마석우리 324-19번지 우형빌딩 1층 105호","indutype":"일반휴게음식 - 일반한식","category":"restaurant"},{"name":"용문집","tel":"031-559-0810","addr":"경기도 남양주시 화도읍 마석우리 324-19번지 102,103호","indutype":"일반휴게음식 - 일반한식","category":"restaurant"},{"name":"육연참정육점","tel":"031-595-4982","addr":"경기도 남양주시 화도읍 마석우리 324-19번지 우형빌딩 104호","indutype":"일반휴게음식 - 일반한식","category":"restaurant"}]},{"lat":"37.653997579","long":"127.30513168","imageIndex":4,"items":[{"name":"시월애도토리","tel":"031-591-0444","addr":"경기도 남양주시 화도읍 마석우리 305-6번지","indutype":"일반휴게음식 - 일반한식","category":"restaurant"}]},{"lat":"37.656866425","long":"127.30010034","imageIndex":4,"items":[{"name":"식탐 (홍식당)","tel":"031-559-0824","addr":"경기도 남양주시 화도읍 마석우리 560-11번지 1층 일부","indutype":"일반휴게음식 - 일반한식","category":"restaurant"}]},{"lat":"37.6550057","long":"127.31924438","imageIndex":4,"items":[{"name":"신갈비","tel":"031-594-1444","addr":"경기도 남양주시 화도읍 마석우리 40","indutype":"일반휴게음식 - 일반한식","category":"restaurant"}]},{"lat":"37.654806668","long":"127.30582622","imageIndex":4,"items":[{"name":"신주사골칼국수","tel":"031-595-3319","addr":"경기도 남양주시 화도읍 마석우리 297-39번지","indutype":"일반휴게음식 - 일반한식","category":"restaurant"}]},{"lat":"37.654442958","long":"127.30360365","imageIndex":4,"items":[{"name":"쑨바이반찬그리고","tel":"031-594-1210","addr":"경기도 남양주시 화도읍 마석우리 327-11번지 1층 102호 상가","indutype":"일반휴게음식 - 일반한식","category":"restaurant"},{"name":"육공판","tel":"031-559-8024","addr":"경기도 남양주시 화도읍 마석우리 327-11번지","indutype":"일반휴게음식 - 일반한식","category":"restaurant"}]},{"lat":"37.656890956","long":"127.30463344","imageIndex":4,"items":[{"name":"아구작 아구작","tel":"","addr":"경기도 남양주시 화도읍 마석우리 372-5번지 금성빌딩 1층","indutype":"일반휴게음식 - 일반한식","category":"restaurant"},{"name":"옹기종기","tel":"031-511-0027","addr":"경기도 남양주시 화도읍 마석우리 372-5번지","indutype":"일반휴게음식 - 일반한식","category":"restaurant"}]},{"lat":"37.653497774","long":"127.30679546","imageIndex":4,"items":[{"name":"아름다운 공간","tel":"031-592-3971","addr":"경기도 남양주시 화도읍 마석우리 220-7번지 1층","indutype":"일반휴게음식 - 서양음식","category":"restaurant"}]},{"lat":"37.658693337","long":"127.30091225","imageIndex":4,"items":[{"name":"아리랑","tel":"031-559-8383","addr":"경기도 남양주시 화도읍 마석우리 536-4번지","indutype":"일반휴게음식 - 일반한식","category":"restaurant"},{"name":"한근생고기","tel":"031-9251-8265","addr":"경기도 남양주시 화도읍 마석우리 536-4번지 1층 일부","indutype":"일반휴게음식 - 일반한식","category":"restaurant"}]},{"lat":"37.654755544","long":"127.30468146","imageIndex":4,"items":[{"name":"아지트","tel":"031-559-1102","addr":"경기도 남양주시 화도읍 마석우리 317-4번지 1층","indutype":"일반휴게음식 - 주점","category":"restaurant"}]},{"lat":"37.656388273","long":"127.30390613","imageIndex":4,"items":[{"name":"아카시","tel":"031-595-1151","addr":"경기도 남양주시 화도읍 마석우리 370-14번지","indutype":"일반휴게음식 - 일식·회집","category":"restaurant"},{"name":"풀호프","tel":"031-592-5343","addr":"경기도 남양주시 화도읍 마석우리 370-14번지 102호","indutype":"일반휴게음식 - 일반한식","category":"restaurant"}]},{"lat":"37.657805693","long":"127.31999289","imageIndex":4,"items":[{"name":"알베로벨로","tel":"","addr":"경기도 남양주시 화도읍 마석우리 10-27번지 1층","indutype":"일반휴게음식 - 서양음식","category":"restaurant"}]},{"lat":"37.659723314","long":"127.30333029","imageIndex":4,"items":[{"name":"약초나라","tel":"031-595-8487","addr":"경기도 남양주시 화도읍 마석우리 353-2번지","indutype":"일반휴게음식 - 일반한식","category":"restaurant"}]},{"lat":"37.658305834","long":"127.30449184","imageIndex":4,"items":[{"name":"양철지붕","tel":"031-511-8482","addr":"경기도 남양주시 화도읍 마석우리 359-6번지","indutype":"일반휴게음식 - 일반한식","category":"restaurant"}]},{"lat":"37.657445568","long":"127.30618825","imageIndex":4,"items":[{"name":"어썸비","tel":"031-592-3886","addr":"경기도 남양주시 화도읍 마석우리 406번지 1층","indutype":"일반휴게음식 - 서양음식","category":"restaurant"}]},{"lat":"37.65696898","long":"127.30229926","imageIndex":4,"items":[{"name":"여우애김밥","tel":"031-511-0881","addr":"경기도 남양주시 화도읍 마석우리 392-5번지 신명프라자 1층 102호","indutype":"일반휴게음식 - 스넥","category":"restaurant"},{"name":"유가네 닭갈비","tel":"031-595-5969","addr":"경기도 남양주시 화도읍 마석우리 392-5번지 신명프라자 1층 104호","indutype":"일반휴게음식 - 일반한식","category":"restaurant"}]},{"lat":"37.652081465","long":"127.31095978","imageIndex":4,"items":[{"name":"역전식당","tel":"031-591-3113","addr":"경기도 남양주시 화도읍 마석우리 282번지 1층","indutype":"일반휴게음식 - 일반한식","category":"restaurant"}]},{"lat":"37.658809877","long":"127.30468654","imageIndex":4,"items":[{"name":"염주골전통순대국밥","tel":"031-559-9933","addr":"경기도 남양주시 화도읍 마석우리 357-5번지","indutype":"일반휴게음식 - 일반한식","category":"restaurant"}]},{"lat":"37.659307748","long":"127.30377059","imageIndex":4,"items":[{"name":"예그리나","tel":"031-1111-1111","addr":"경기도 남양주시 화도읍 마석우리 355-4번지 1층","indutype":"일반휴게음식 - 주점","category":"restaurant"}]},{"lat":"37.657223266","long":"127.30504276","imageIndex":4,"items":[{"name":"옛가마","tel":"031-593-7311","addr":"경기도 남양주시 화도읍 마석우리 365-6","indutype":"일반휴게음식 - 일반한식","category":"restaurant"}]},{"lat":"37.658249683","long":"127.29457549","imageIndex":4,"items":[{"name":"오늘은코다리","tel":"031-511-7767","addr":"경기도 남양주시 화도읍 마석우리 514-15번지 1층 101호","indutype":"일반휴게음식 - 일반한식","category":"restaurant"},{"name":"올리앤 화도본점/(주)올앤컴퍼니","tel":"031-511-6313","addr":"경기도 남양주시 화도읍 마석우리 514-15번지 B동 우측 1층","indutype":"일반휴게음식 - 서양음식","category":"restaurant"},{"name":"주식회사 오늘은코다리(화도점)","tel":"031-511-7767","addr":"경기도 남양주시 화도읍 마석우리 514-15번지 1층 101호","indutype":"일반휴게음식 - 일반한식","category":"restaurant"}]},{"lat":"37.652054782","long":"127.30735617","imageIndex":4,"items":[{"name":"올레국수집","tel":"031-592-5996","addr":"경기도 남양주시 화도읍 마석우리 271-3번지","indutype":"일반휴게음식 - 일반한식","category":"restaurant"}]},{"lat":"37.656889331","long":"127.30526806","imageIndex":4,"items":[{"name":"완도 얼큰동태 참전복","tel":"031-593-3653","addr":"경기도 남양주시 화도읍 마석우리 365-3번지","indutype":"일반휴게음식 - 일반한식","category":"restaurant"}]},{"lat":"37.65463868","long":"127.304579","imageIndex":4,"items":[{"name":"왕호갈비탕","tel":"031-559-3322","addr":"경기도 남양주시 화도읍 마석우리 317-11번지 상가 1층","indutype":"일반휴게음식 - 일반한식","category":"restaurant"}]},{"lat":"37.654420884","long":"127.30519006","imageIndex":4,"items":[{"name":"우까돈까","tel":"031-593-3434","addr":"경기도 남양주시 화도읍 마석우리 305-13번지","indutype":"일반휴게음식 - 일반한식","category":"restaurant"},{"name":"참새방아간","tel":"031-595-4922","addr":"경기도 남양주시 화도읍 마석우리 305-13번지","indutype":"일반휴게음식 - 주점","category":"restaurant"}]},{"lat":"37.653359031","long":"127.30468714","imageIndex":4,"items":[{"name":"우리가","tel":"031-595-2459","addr":"경기도 남양주시 화도읍 마석우리 314-6번지","indutype":"일반휴게음식 - 일반한식","category":"restaurant"}]},{"lat":"37.656612242","long":"127.3008586","imageIndex":4,"items":[{"name":"우리두리곱창","tel":"031-595-9289","addr":"경기도 남양주시 화도읍 마석우리 557-5번지 1층","indutype":"일반휴게음식 - 일반한식","category":"restaurant"}]},{"lat":"37.656387839","long":"127.30407612","imageIndex":4,"items":[{"name":"우리집 팔당닭발 마석점","tel":"031-559-1243","addr":"경기도 남양주시 화도읍 마석우리 370-13번지","indutype":"일반휴게음식 - 일반한식","category":"restaurant"}]},{"lat":"37.656722263","long":"127.30365817","imageIndex":4,"items":[{"name":"원두막","tel":"031-559-0799","addr":"경기도 남양주시 화도읍 마석우리 379-10번지 1층","indutype":"일반휴게음식 - 일반한식","category":"restaurant"}]},{"lat":"37.657637706","long":"127.30504444","imageIndex":4,"items":[{"name":"원조이모네곱창","tel":"031-595-0777","addr":"경기도 남양주시 화도읍 마석우리 363-3번지 용호빌딩 101호","indutype":"일반휴게음식 - 일반한식","category":"restaurant"}]},{"lat":"37.652305703","long":"127.30787845","imageIndex":4,"items":[{"name":"원조큰맘할매순대국","tel":"031-591-7831","addr":"경기도 남양주시 화도읍 마석우리 292-18번지","indutype":"일반휴게음식 - 일반한식","category":"restaurant"},{"name":"짝꿍(호프)","tel":"031-111-1111","addr":"경기도 남양주시 화도읍 마석우리 292-18번지 2층","indutype":"일반휴게음식 - 주점","category":"restaurant"}]},{"lat":"37.656447281","long":"127.30549291","imageIndex":4,"items":[{"name":"유셰프참치앤스시","tel":"031-595-8537","addr":"경기도 남양주시 화도읍 마석우리 366-7번지 1층","indutype":"일반휴게음식 - 일식·회집","category":"restaurant"}]},{"lat":"37.659087522","long":"127.30179779","imageIndex":4,"items":[{"name":"육감돼지","tel":"","addr":"경기도 남양주시 화도읍 마석우리 534-3번지 병훈빌딩 1층","indutype":"일반휴게음식 - 일반한식","category":"restaurant"}]},{"lat":"37.658277385","long":"127.30504703","imageIndex":4,"items":[{"name":"육성떡볶이","tel":"031-595-5905","addr":"경기도 남양주시 화도읍 마석우리 360-2번지 1층 일부","indutype":"일반휴게음식 - 일반한식","category":"restaurant"},{"name":"이진닭꼬치","tel":"","addr":"경기도 남양주시 화도읍 마석우리 360-2번지 1층","indutype":"일반휴게음식 - 일반한식","category":"restaurant"}]},{"lat":"37.65744712","long":"127.30205186","imageIndex":4,"items":[{"name":"육쌈냉면","tel":"031-511-8911","addr":"경기도 남양주시 화도읍 마석우리 383-2번지 중앙프라자 106호","indutype":"일반휴게음식 - 일반한식","category":"restaurant"},{"name":"이삭토스트","tel":"031-591-5030","addr":"경기도 남양주시 화도읍 마석우리 383-2번지 중앙프라자","indutype":"일반휴게음식 - 일반한식","category":"restaurant"},{"name":"짝태&노가리","tel":"070-8161-8364","addr":"경기도 남양주시 화도읍 마석우리 383-2번지 중앙프라자 108호","indutype":"일반휴게음식 - 주점","category":"restaurant"},{"name":"짬뽕상회","tel":"031-511-9979","addr":"경기도 남양주시 화도읍 마석우리 383-2번지 중앙프라자 201호","indutype":"일반휴게음식 - 중국식","category":"restaurant"},{"name":"커피챗","tel":"031-591-1171","addr":"경기도 남양주시 화도읍 마석우리 383-2번지 중앙프라자 301호","indutype":"일반휴게음식 - 서양음식","category":"restaurant"},{"name":"포메인마석점","tel":"031-594-9870","addr":"경기도 남양주시 화도읍 마석우리 383-2번지 중앙프라자 202호","indutype":"일반휴게음식 - 일반한식","category":"restaurant"}]},{"lat":"37.65653008","long":"127.30482464","imageIndex":4,"items":[{"name":"윤가네감자탕","tel":"031-595-8914","addr":"경기도 남양주시 화도읍 마석우리 370-7","indutype":"일반휴게음식 - 일반한식","category":"restaurant"}]},{"lat":"37.658889512","long":"127.30171767","imageIndex":4,"items":[{"name":"윤이네식당","tel":"031-551-4750","addr":"경기도 남양주시 화도읍 마석우리 535-6번지 1층","indutype":"일반휴게음식 - 일반한식","category":"restaurant"}]},{"lat":"37.656225522","long":"127.30413213","imageIndex":4,"items":[{"name":"응급실국물떡볶이(마석점)","tel":"031-511-3119","addr":"경기도 남양주시 화도읍 마석우리 324-17번지","indutype":"일반휴게음식 - 스넥","category":"restaurant"}]},{"lat":"37.657141082","long":"127.30193731","imageIndex":4,"items":[{"name":"이디야","tel":"031-595-7632","addr":"경기도 남양주시 화도읍 마석우리 383-1번지 정길프라자 108호","indutype":"일반휴게음식 - 서양음식","category":"restaurant"}]},{"lat":"37.657058943","long":"127.3058807","imageIndex":4,"items":[{"name":"이름없는낙지","tel":"031-591-8118","addr":"경기도 남양주시 화도읍 마석우리 403-1번지 101호","indutype":"일반휴게음식 - 일반한식","category":"restaurant"}]},{"lat":"37.659227009","long":"127.30363427","imageIndex":4,"items":[{"name":"이베리코의 전설 화도","tel":"031-592-2529","addr":"경기도 남양주시 화도읍 마석우리 355-3번지","indutype":"일반휴게음식 - 일반한식","category":"restaurant"}]},{"lat":"37.654668284","long":"127.30357056","imageIndex":4,"items":[{"name":"임수오돈까스","tel":"031-577-3406","addr":"경기도 남양주시 화도읍 마석우리 327-9번지 1층","indutype":"일반휴게음식 - 일반한식","category":"restaurant"}]},{"lat":"37.653334316","long":"127.3072934","imageIndex":4,"items":[{"name":"자매식당","tel":"031-593-5633","addr":"경기도 남양주시 화도읍 마석우리 220-5번지","indutype":"일반휴게음식 - 일반한식","category":"restaurant"}]},{"lat":"37.652360844","long":"127.3074594","imageIndex":4,"items":[{"name":"작은만두","tel":"031-593-4625","addr":"경기도 남양주시 화도읍 마석우리 292-21번지","indutype":"일반휴게음식 - 스넥","category":"restaurant"},{"name":"쥬씨 마석역점","tel":"031-599-1051","addr":"경기도 남양주시 화도읍 마석우리 292-21번지","indutype":"일반휴게음식 - 서양음식","category":"restaurant"},{"name":"쥬씨마석역점","tel":"","addr":"경기도 남양주시 화도읍 마석우리 292-21번지","indutype":"일반휴게음식 - 서양음식","category":"restaurant"}]},{"lat":"37.656747151","long":"127.30449687","imageIndex":4,"items":[{"name":"잘난닭","tel":"031-511-1277","addr":"경기도 남양주시 화도읍 마석우리 372-7번지","indutype":"일반휴게음식 - 스넥","category":"restaurant"}]},{"lat":"37.651331057","long":"127.30849771","imageIndex":4,"items":[{"name":"장수한방족발","tel":"031-559-9515","addr":"경기도 남양주시 화도읍 마석우리 263-8번지","indutype":"일반휴게음식 - 일반한식","category":"restaurant"}]},{"lat":"37.658889977","long":"127.30507218","imageIndex":4,"items":[{"name":"장원","tel":"031-1591-3336","addr":"경기도 남양주시 화도읍 마석우리 415-5번지","indutype":"일반휴게음식 - 일반한식","category":"restaurant"},{"name":"코코두루","tel":"031-593-9232","addr":"경기도 남양주시 화도읍 마석우리 415-5번지","indutype":"일반휴게음식 - 일반한식","category":"restaurant"}]},{"lat":"37.654058728","long":"127.30587985","imageIndex":4,"items":[{"name":"장터마니국밥","tel":"031-594-4141","addr":"경기도 남양주시 화도읍 마석우리 295-35번지","indutype":"일반휴게음식 - 일반한식","category":"restaurant"}]},{"lat":"37.651421827","long":"127.30823745","imageIndex":4,"items":[{"name":"전성순 순대국밥","tel":"031-511-5335","addr":"경기도 남양주시 화도읍 마석우리 263-6번지 1층","indutype":"일반휴게음식 - 일반한식","category":"restaurant"}]},{"lat":"37.658669268","long":"127.3204952","imageIndex":4,"items":[{"name":"정가네 순대국","tel":"031-559-6169","addr":"경기도 남양주시 화도읍 마석우리 10-36번지 1층","indutype":"일반휴게음식 - 일반한식","category":"restaurant"}]},{"lat":"37.658720998","long":"127.3042102","imageIndex":4,"items":[{"name":"조대감신간짬뽕","tel":"031-511-6799","addr":"경기도 남양주시 화도읍 마석우리 359-2번지 영진빌 1층","indutype":"일반휴게음식 - 일반한식","category":"restaurant"}]},{"lat":"37.656892664","long":"127.30396483","imageIndex":4,"items":[{"name":"종가별미한식","tel":"031-595-8627","addr":"경기도 남양주시 화도읍 마석우리 372-1번지 1층","indutype":"일반휴게음식 - 일반한식","category":"restaurant"}]},{"lat":"37.654720143","long":"127.30443201","imageIndex":4,"items":[{"name":"종로빈대떡","tel":"031-593-6853","addr":"경기도 남양주시 화도읍 마석우리 317-13번지","indutype":"일반휴게음식 - 주점","category":"restaurant"}]},{"lat":"37.652083121","long":"127.31032521","imageIndex":4,"items":[{"name":"종점식당","tel":"031-591-8970","addr":"경기도 남양주시 화도읍 마석우리 286-4번지","indutype":"일반휴게음식 - 일반한식","category":"restaurant"},{"name":"한잔에 비어","tel":"031-511-3037","addr":"경기도 남양주시 화도읍 마석우리 286-4번지","indutype":"일반휴게음식 - 주점","category":"restaurant"}]},{"lat":"37.657612876","long":"127.30063595","imageIndex":4,"items":[{"name":"지음푸드","tel":"031-591-1235","addr":"경기도 남양주시 화도읍 마석우리 548번지","indutype":"일반휴게음식 - 위탁급식업","category":"restaurant"}]},{"lat":"37.651638812","long":"127.31141122","imageIndex":4,"items":[{"name":"진카페 (Zin cafe)","tel":"031-111-1111","addr":"경기도 남양주시 화도읍 마석우리 250-2번지","indutype":"일반휴게음식 - 서양음식","category":"restaurant"}]},{"lat":"37.66033804","long":"127.30251678","imageIndex":4,"items":[{"name":"집으로","tel":"031-593-6181","addr":"경기도 남양주시 화도읍 마석우리 479번지 2층","indutype":"일반휴게음식 - 주점","category":"restaurant"}]},{"lat":"37.66133741","long":"127.3027928","imageIndex":4,"items":[{"name":"쩡아돈가스","tel":"031-511-9296","addr":"경기도 남양주시 화도읍 마석우리 473-5번지 1층","indutype":"일반휴게음식 - 서양음식","category":"restaurant"}]},{"lat":"37.654114791","long":"127.30509816","imageIndex":4,"items":[{"name":"처갓집양념통닭","tel":"031-593-4045","addr":"경기도 남양주시 화도읍 마석우리 305-16번지","indutype":"일반휴게음식 - 주점","category":"restaurant"}]},{"lat":"37.656415175","long":"127.30040452","imageIndex":4,"items":[{"name":"천마산함흥냉면불고기","tel":"031-511-3660","addr":"경기도 남양주시 화도읍 마석우리 558-7번지 1층","indutype":"일반휴게음식 - 일반한식","category":"restaurant"}]},{"lat":"37.661022277","long":"127.3027122","imageIndex":4,"items":[{"name":"천마정육식당","tel":"031-593-0974","addr":"경기도 남양주시 화도읍 마석우리 474번지 경춘빌라 10동 1호","indutype":"일반휴게음식 - 일반한식","category":"restaurant"}]},{"lat":"37.651803595","long":"127.30693587","imageIndex":4,"items":[{"name":"청계곱창","tel":"031-594-9395","addr":"경기도 남양주시 화도읍 마석우리 268-2번지","indutype":"일반휴게음식 - 일반한식","category":"restaurant"}]},{"lat":"37.654722547","long":"127.29993315","imageIndex":4,"items":[{"name":"청년떡볶이 마석우리점","tel":"031-592-3623","addr":"경기도 남양주시 화도읍 마석우리 520-26번지","indutype":"일반휴게음식 - 스넥","category":"restaurant"}]},{"lat":"37.65163747","long":"127.30846497","imageIndex":4,"items":[{"name":"총각네옛날통닭(마석하나로마트점)","tel":"","addr":"경기도 남양주시 화도읍 마석우리 272-8번지 1층","indutype":"일반휴게음식 - 스넥","category":"restaurant"}]},{"lat":"37.658918195","long":"127.30460765","imageIndex":4,"items":[{"name":"추자도회수산","tel":"031-591-4574","addr":"경기도 남양주시 화도읍 마석우리 357-4번지 1층","indutype":"일반휴게음식 - 일반한식","category":"restaurant"}]},{"lat":"37.652782348","long":"127.31509881","imageIndex":4,"items":[{"name":"커피소래비","tel":"","addr":"경기도 남양주시 화도읍 마석우리 119번지 2동 1층","indutype":"일반휴게음식 - 서양음식","category":"restaurant"}]},{"lat":"37.659532698","long":"127.30388483","imageIndex":4,"items":[{"name":"케리홈치킨(마석점)","tel":"031-511-9255","addr":"경기도 남양주시 화도읍 마석우리 353-8번지","indutype":"일반휴게음식 - 주점","category":"restaurant"}]},{"lat":"37.658387065","long":"127.30443551","imageIndex":4,"items":[{"name":"크랩 하이벳","tel":"031-511-0433","addr":"경기도 남양주시 화도읍 마석우리 359-5번지","indutype":"일반휴게음식 - 일반한식","category":"restaurant"}]},{"lat":"37.65341931","long":"127.30577526","imageIndex":4,"items":[{"name":"타래함흥냉면","tel":"031-591-2888","addr":"경기도 남양주시 화도읍 마석우리 295-27번지 1층","indutype":"일반휴게음식 - 일반한식","category":"restaurant"}]},{"lat":"37.659497671","long":"127.30348804","imageIndex":4,"items":[{"name":"터줏대감","tel":"031-559-3397","addr":"경기도 남양주시 화도읍 마석우리 355-6번지","indutype":"일반휴게음식 - 일반한식","category":"restaurant"}]},{"lat":"37.656748511","long":"127.30396425","imageIndex":4,"items":[{"name":"토고리옛날막창","tel":"031-222-2222","addr":"경기도 남양주시 화도읍 마석우리 372-10번지","indutype":"일반휴게음식 - 일반한식","category":"restaurant"}]},{"lat":"37.654250138","long":"127.30501938","imageIndex":4,"items":[{"name":"토담주물럭전문점","tel":"031-591-1135","addr":"경기도 남양주시 화도읍 마석우리 305-5번지 상가전체","indutype":"일반휴게음식 - 일반한식","category":"restaurant"}]},{"lat":"37.654830839","long":"127.30693688","imageIndex":4,"items":[{"name":"투존치킨 (마석점)","tel":"031-511-7086","addr":"경기도 남양주시 화도읍 마석우리 219-80번지","indutype":"일반휴게음식 - 스넥","category":"restaurant"}]},{"lat":"37.654003156","long":"127.30646889","imageIndex":4,"items":[{"name":"틴토랑피자","tel":"031-516-1577","addr":"경기도 남양주시 화도읍 마석우리 220-1번지 1층","indutype":"일반휴게음식 - 서양음식","category":"restaurant"}]},{"lat":"37.65444829","long":"127.30504285","imageIndex":4,"items":[{"name":"풍년담긴항아리","tel":"031-511-3589","addr":"경기도 남양주시 화도읍 마석우리 305-12","indutype":"일반휴게음식 - 일반한식","category":"restaurant"}]},{"lat":"37.656387145","long":"127.30434809","imageIndex":4,"items":[{"name":"풍물옹심이 메밀칼국수","tel":"031-511-7727","addr":"경기도 남양주시 화도읍 마석우리 370-11번지 1층","indutype":"일반휴게음식 - 일반한식","category":"restaurant"}]},{"lat":"37.659614073","long":"127.30377183","imageIndex":4,"items":[{"name":"피자나라치킨공주","tel":"031-511-2291","addr":"경기도 남양주시 화도읍 마석우리 353-7번지 상가 103호","indutype":"일반휴게음식 - 서양음식","category":"restaurant"},{"name":"행복포차","tel":"031-559-1266","addr":"경기도 남양주시 화도읍 마석우리 353-7번지 1층 102호","indutype":"일반휴게음식 - 주점","category":"restaurant"}]},{"lat":"37.652866052","long":"127.30368794","imageIndex":4,"items":[{"name":"피자알볼로 마석점","tel":"031-594-8495","addr":"경기도 남양주시 화도읍 마석우리 312-1번지","indutype":"일반휴게음식 - 서양음식","category":"restaurant"},{"name":"황가네곱창","tel":"031-593-2033","addr":"경기도 남양주시 화도읍 마석우리 312-1번지 1층","indutype":"일반휴게음식 - 일반한식","category":"restaurant"}]},{"lat":"37.659442255","long":"127.30402046","imageIndex":4,"items":[{"name":"하나미치","tel":"031-595-6040","addr":"경기도 남양주시 화도읍 마석우리 353-9번지 1층","indutype":"일반휴게음식 - 서양음식","category":"restaurant"}]},{"lat":"37.656531992","long":"127.3040767","imageIndex":4,"items":[{"name":"한가네숯불닭갈비","tel":"031-593-4792","addr":"경기도 남양주시 화도읍 마석우리 370-2번지","indutype":"일반휴게음식 - 일반한식","category":"restaurant"}]},{"lat":"37.6557273","long":"127.30518402","imageIndex":4,"items":[{"name":"한마루","tel":"031-591-6400","addr":"경기도 남양주시 화도읍 마석우리 304-2번지 2층","indutype":"일반휴게음식 - 일반한식","category":"restaurant"}]},{"lat":"37.658557029","long":"127.30491217","imageIndex":4,"items":[{"name":"할매보쌈족발전주집연탄불고기","tel":"031-593-0671","addr":"경기도 남양주시 화도읍 마석우리 357-8번지","indutype":"일반휴게음식 - 일반한식","category":"restaurant"}]},{"lat":"37.661058517","long":"127.30263301","imageIndex":4,"items":[{"name":"함지박","tel":"031-594-5969","addr":"경기도 남양주시 화도읍 마석우리 474번지 경춘빌라 2층 1호","indutype":"일반휴게음식 - 일반한식","category":"restaurant"}]},{"lat":"37.659222608","long":"127.301821","imageIndex":4,"items":[{"name":"해물명가","tel":"031-511-0907","addr":"경기도 남양주시 화도읍 마석우리 534-2번지 훼미리빌 1층","indutype":"일반휴게음식 - 일반한식","category":"restaurant"}]},{"lat":"37.653804449","long":"127.30666072","imageIndex":4,"items":[{"name":"홍가네","tel":"031-511-8442","addr":"경기도 남양주시 화도읍 마석우리 220-14번지","indutype":"일반휴게음식 - 일반한식","category":"restaurant"}]},{"lat":"37.65552909","long":"127.30518322","imageIndex":4,"items":[{"name":"홍어바다정원","tel":"031-513-2707","addr":"경기도 남양주시 화도읍 마석우리 304-8번지","indutype":"일반휴게음식 - 일반한식","category":"restaurant"}]},{"lat":"37.65666386","long":"127.3053578","imageIndex":4,"items":[{"name":"홍천닭갈비막국수","tel":"031-593-2452","addr":"경기도 남양주시 화도읍 마석우리 365-1번지","indutype":"일반휴게음식 - 일반한식","category":"restaurant"}]},{"lat":"37.651448211","long":"127.30848686","imageIndex":4,"items":[{"name":"홍카페","tel":"031-511-7201","addr":"경기도 남양주시 화도읍 마석우리 272-11번지","indutype":"일반휴게음식 - 서양음식","category":"restaurant"}]},{"lat":"37.656422314","long":"127.30468821","imageIndex":4,"items":[{"name":"황제능이버섯","tel":"031-592-0401","addr":"경기도 남양주시 화도읍 마석우리 370-9번지 1층","indutype":"일반휴게음식 - 일반한식","category":"restaurant"}]},{"lat":"37.65483644","long":"127.30121414","imageIndex":4,"items":[{"name":"회뜨는집","tel":"031-511-4487","addr":"경기도 남양주시 화도읍 마석우리 585번지 하나클리닉 104호","indutype":"일반휴게음식 - 일반한식","category":"restaurant"}]},{"lat":"37.656747585","long":"127.30432689","imageIndex":4,"items":[{"name":"회춘포차","tel":"031-515-8253","addr":"경기도 남양주시 화도읍 마석우리 372-8번지 1층 삼성아트빌","indutype":"일반휴게음식 - 주점","category":"restaurant"}]},{"lat":"37.656334204","long":"127.30035887","imageIndex":4,"items":[{"name":"훌랄라치킨.홍대마녀","tel":"031-511-0788","addr":"경기도 남양주시 화도읍 마석우리 558-6번지 101호","indutype":"일반휴게음식 - 주점","category":"restaurant"}]},{"lat":"37.66149964","long":"127.30277078","imageIndex":4,"items":[{"name":"휘스시","tel":"031-595-2159","addr":"경기도 남양주시 화도읍 마석우리 473-1번지 칠월프라자 101호","indutype":"일반휴게음식 - 일식·회집","category":"restaurant"}]}]