[{"lat":"37.130725278","long":"126.9083516","imageIndex":4,"items":[{"name":"(주)아시아레스토랑 화성향남지점","tel":"031-352-8684","addr":"경기도 화성시 향남읍 평리 78-5번지 101호","indutype":"일반휴게음식 - 서양음식","category":"restaurant"},{"name":"다모아","tel":"031-353-3570","addr":"경기도 화성시 향남읍 평리 78-5번지","indutype":"일반휴게음식 - 일반한식","category":"restaurant"}]},{"lat":"37.132860412","long":"126.90791004","imageIndex":4,"items":[{"name":"777 양꼬치","tel":"031-7537-9222","addr":"경기도 화성시 향남읍 평리 90-12번지","indutype":"일반휴게음식 - 일반한식","category":"restaurant"},{"name":"미국가주우육면대왕","tel":"031-366-6088","addr":"경기도 화성시 향남읍 평리 90-12번지 외1필지","indutype":"일반휴게음식 - 일반한식","category":"restaurant"}]},{"lat":"37.132030995","long":"126.90734838","imageIndex":4,"items":[{"name":"가마솥국밥","tel":"031-352-8211","addr":"경기도 화성시 향남읍 평리 103번지","indutype":"일반휴게음식 - 일반한식","category":"restaurant"},{"name":"명성숯불양꼬치구이","tel":"031-354-5446","addr":"경기도 화성시 향남읍 평리 103","indutype":"일반휴게음식 - 일반한식","category":"restaurant"}]},{"lat":"37.134034091","long":"126.91084589","imageIndex":4,"items":[{"name":"가은식당","tel":"031-353-2768","addr":"경기도 화성시 향남읍 평리 30-17번지","indutype":"일반휴게음식 - 일반한식","category":"restaurant"}]},{"lat":"37.132255948","long":"126.90696547","imageIndex":4,"items":[{"name":"감미옥","tel":"031-353-0204","addr":"경기도 화성시 향남읍 평리 96-2","indutype":"일반휴게음식 - 일반한식","category":"restaurant"},{"name":"배터지는생동까스이레칡냉면","tel":"031-353-0582","addr":"경기도 화성시 향남읍 평리 96-2번지","indutype":"일반휴게음식 - 일반한식","category":"restaurant"}]},{"lat":"37.1312845","long":"126.90907114","imageIndex":4,"items":[{"name":"감탄떡볶이발안만세시장점","tel":"031-353-7578","addr":"경기도 화성시 향남읍 평리 81-40번지 1층","indutype":"일반휴게음식 - 스넥","category":"restaurant"}]},{"lat":"37.131807153","long":"126.90912676","imageIndex":4,"items":[{"name":"고향","tel":"031-354-7462","addr":"경기도 화성시 향남읍 평리 80-38번지 2층","indutype":"일반휴게음식 - 일반한식","category":"restaurant"}]},{"lat":"37.133808444","long":"126.91035099","imageIndex":4,"items":[{"name":"골든타즈마할(Golden taj Mahal)","tel":"070-4255-1786","addr":"경기도 화성시 향남읍 평리 30-23번지 지하1층","indutype":"일반휴게음식 - 서양음식","category":"restaurant"},{"name":"잭라이브","tel":"031-354-4621","addr":"경기도 화성시 향남읍 평리 30-23번지 지하1층","indutype":"일반휴게음식 - 서양음식","category":"restaurant"},{"name":"주식회사 히말리안트레이딩","tel":"","addr":"경기도 화성시 향남읍 평리 30-23번지 지하1층","indutype":"일반휴게음식 - 일반한식","category":"restaurant"},{"name":"평리식당","tel":"031-366-3697","addr":"경기도 화성시 향남읍 평리 30-23번지 4층","indutype":"일반휴게음식 - 일반한식","category":"restaurant"}]},{"lat":"37.129698921","long":"126.9094107","imageIndex":4,"items":[{"name":"국수잔치","tel":"031-353-5727","addr":"경기도 화성시 향남읍 평리 137-9번지 1층 1호","indutype":"일반휴게음식 - 일반한식","category":"restaurant"}]},{"lat":"37.13219332","long":"126.90751699","imageIndex":4,"items":[{"name":"그리로","tel":"031-353-3773","addr":"경기도 화성시 향남읍 평리 101-9번지","indutype":"일반휴게음식 - 일반한식","category":"restaurant"},{"name":"두여자","tel":"070-8947-4490","addr":"경기도 화성시 향남읍 평리 101-9번지 1층","indutype":"일반휴게음식 - 일반한식","category":"restaurant"},{"name":"올인소주방","tel":"031-352-9440","addr":"경기도 화성시 향남읍 평리 101-9번지","indutype":"일반휴게음식 - 일반한식","category":"restaurant"}]},{"lat":"37.130977058","long":"126.90770983","imageIndex":4,"items":[{"name":"금다방","tel":"031-353-8936","addr":"경기도 화성시 향남읍 평리 118-22번지","indutype":"일반휴게음식 - 서양음식","category":"restaurant"},{"name":"나들목까페","tel":"031-353-3863","addr":"경기도 화성시 향남읍 평리 118-22번지","indutype":"일반휴게음식 - 일반한식","category":"restaurant"}]},{"lat":"37.131193931","long":"126.90848606","imageIndex":4,"items":[{"name":"김밥매니아","tel":"031-354-0320","addr":"경기도 화성시 향남읍 평리 80-5번지","indutype":"일반휴게음식 - 일반한식","category":"restaurant"},{"name":"리틀양꼬치","tel":"","addr":"경기도 화성시 향남읍 평리 80-5번지 에쓰뻬랑스 101호","indutype":"일반휴게음식 - 중국식","category":"restaurant"},{"name":"맥향원 만두집","tel":"031-227-2163","addr":"경기도 화성시 향남읍 평리 80-5번지 에쓰뻬랑스 105호","indutype":"일반휴게음식 - 일반한식","category":"restaurant"},{"name":"아닐사레스토랑","tel":"","addr":"경기도 화성시 향남읍 평리 80-5번지 에쓰뻬랑스 108호","indutype":"일반휴게음식 - 서양음식","category":"restaurant"},{"name":"참숯양꼬치","tel":"070-8947-4490","addr":"경기도 화성시 향남읍 평리 80-5번지 에쓰뻬랑스 1층 106호","indutype":"일반휴게음식 - 중국식","category":"restaurant"}]},{"lat":"37.133753879","long":"126.90970957","imageIndex":4,"items":[{"name":"김밥천국","tel":"031-353-7788","addr":"경기도 화성시 향남읍 평리 32-1","indutype":"일반휴게음식 - 일반한식","category":"restaurant"}]},{"lat":"37.131581695","long":"126.90887946","imageIndex":4,"items":[{"name":"김해뒷고기식당","tel":"031-353-2119","addr":"경기도 화성시 향남읍 평리 80-13번지","indutype":"일반휴게음식 - 일반한식","category":"restaurant"}]},{"lat":"37.132617129","long":"126.90791034","imageIndex":4,"items":[{"name":"까웅낀텍","tel":"","addr":"경기도 화성시 향남읍 평리 90-7번지 2층 일부","indutype":"일반휴게음식 - 일반한식","category":"restaurant"},{"name":"세븐","tel":"031-352-6515","addr":"경기도 화성시 향남읍 평리 90-7번지","indutype":"일반휴게음식 - 일반한식","category":"restaurant"},{"name":"소주대출","tel":"070-8947-4490","addr":"경기도 화성시 향남읍 평리 90-7번지 1층","indutype":"일반휴게음식 - 일반한식","category":"restaurant"},{"name":"하트다방","tel":"031-111-1111","addr":"경기도 화성시 향남읍 평리 90-7번지 1층","indutype":"일반휴게음식 - 서양음식","category":"restaurant"}]},{"lat":"37.131473898","long":"126.90929598","imageIndex":4,"items":[{"name":"나비까페","tel":"070-6789-1088","addr":"경기도 화성시 향남읍 평리 80-19번지 1층 2호","indutype":"일반휴게음식 - 서양음식","category":"restaurant"},{"name":"주면야주","tel":"","addr":"경기도 화성시 향남읍 평리 80-19번지","indutype":"일반휴게음식 - 일반한식","category":"restaurant"}]},{"lat":"37.130806327","long":"126.90829523","imageIndex":4,"items":[{"name":"나비다방","tel":"031-352-1180","addr":"경기도 화성시 향남읍 평리 78-2번지 1층","indutype":"일반휴게음식 - 서양음식","category":"restaurant"},{"name":"뜨락식당","tel":"031-353-1507","addr":"경기도 화성시 향남읍 평리 78-2번지 1층","indutype":"일반휴게음식 - 일반한식","category":"restaurant"},{"name":"아지트","tel":"031-352-1609","addr":"경기도 화성시 향남읍 평리 78-2번지","indutype":"일반휴게음식 - 일반한식","category":"restaurant"}]},{"lat":"37.130725412","long":"126.9085204","imageIndex":4,"items":[{"name":"낙원","tel":"031-353-8876","addr":"경기도 화성시 향남읍 평리 77번지","indutype":"일반휴게음식 - 일반한식","category":"restaurant"},{"name":"두루터","tel":"031-352-7302","addr":"경기도 화성시 향남읍 평리 77번지","indutype":"일반휴게음식 - 일반한식","category":"restaurant"}]},{"lat":"37.130338639","long":"126.90937615","imageIndex":4,"items":[{"name":"낙타","tel":"031-353-2116","addr":"경기도 화성시 향남읍 평리 76-11번지","indutype":"일반휴게음식 - 일반한식","category":"restaurant"}]},{"lat":"37.132032938","long":"126.90979046","imageIndex":4,"items":[{"name":"남도포차","tel":"070-8947-4490","addr":"경기도 화성시 향남읍 평리 82-16번지 1층","indutype":"일반휴게음식 - 일반한식","category":"restaurant"}]},{"lat":"37.131449766","long":"126.9130435","imageIndex":4,"items":[{"name":"네네치킨","tel":"031-366-6200","addr":"경기도 화성시 향남읍 평리 69-8번지 B-6호","indutype":"일반휴게음식 - 스넥","category":"restaurant"}]},{"lat":"37.132311526","long":"126.90885605","imageIndex":4,"items":[{"name":"네팔식당","tel":"031-366-3616","addr":"경기도 화성시 향남읍 평리 85-5번지","indutype":"일반휴게음식 - 일반한식","category":"restaurant"}]},{"lat":"37.13131202","long":"126.90969006","imageIndex":4,"items":[{"name":"노다지시골밥상","tel":"031-366-6197","addr":"경기도 화성시 향남읍 평리 81-124번지","indutype":"일반휴게음식 - 일반한식","category":"restaurant"}]},{"lat":"37.130670611","long":"126.90759767","imageIndex":4,"items":[{"name":"농장골","tel":"031-8059-1531","addr":"경기도 화성시 향남읍 평리 121-5번지","indutype":"일반휴게음식 - 일반한식","category":"restaurant"}]},{"lat":"37.132310166","long":"126.90715672","imageIndex":4,"items":[{"name":"늑대카페","tel":"070-8947-4490","addr":"경기도 화성시 향남읍 평리 99-3번지 1층 일부","indutype":"일반휴게음식 - 주점","category":"restaurant"}]},{"lat":"37.131526435","long":"126.90738278","imageIndex":4,"items":[{"name":"대지다방","tel":"031-353-0257","addr":"경기도 화성시 향남읍 평리 106-6번지","indutype":"일반휴게음식 - 서양음식","category":"restaurant"},{"name":"스마일다방","tel":"070-8947-4490","addr":"경기도 화성시 향남읍 평리 106-6번지 지하1층","indutype":"일반휴게음식 - 서양음식","category":"restaurant"},{"name":"원앙새","tel":"031-366-0472","addr":"경기도 화성시 향남읍 평리 106-6번지","indutype":"일반휴게음식 - 일반한식","category":"restaurant"}]},{"lat":"37.129977962","long":"126.90905024","imageIndex":4,"items":[{"name":"대천매운탕","tel":"031-354-0687","addr":"경기도 화성시 향남읍 평리 131-14번지","indutype":"일반휴게음식 - 일반한식","category":"restaurant"},{"name":"별궁카페","tel":"031-366-0790","addr":"경기도 화성시 향남읍 평리 131-14번지 1층","indutype":"일반휴게음식 - 일반한식","category":"restaurant"}]},{"lat":"37.128895726","long":"126.90782497","imageIndex":4,"items":[{"name":"동인정육식당","tel":"031--353-7316","addr":"경기도 화성시 향남읍 평리 161-1번지 에이스존 106,107호","indutype":"일반휴게음식 - 일반한식","category":"restaurant"},{"name":"야야코","tel":"031-352-1723","addr":"경기도 화성시 향남읍 평리 161-1번지 1층103,104,105호","indutype":"일반휴게음식 - 서양음식","category":"restaurant"},{"name":"토속미꾸라지매운탕","tel":"031-252-3474","addr":"경기도 화성시 향남읍 평리 161-1번지 1층","indutype":"일반휴게음식 - 일반한식","category":"restaurant"}]},{"lat":"37.130752641","long":"126.90876795","imageIndex":4,"items":[{"name":"동현까페","tel":"070-8947-4490","addr":"경기도 화성시 향남읍 평리 81-7번지","indutype":"일반휴게음식 - 일반한식","category":"restaurant"},{"name":"여원카페","tel":"031-352-8998","addr":"경기도 화성시 향남읍 평리 81-7번지 1층 일부","indutype":"일반휴게음식 - 일반한식","category":"restaurant"}]},{"lat":"37.132221617","long":"126.90910374","imageIndex":4,"items":[{"name":"동현카페","tel":"031-366-1155","addr":"경기도 화성시 향남읍 평리 85-6번지","indutype":"일반휴게음식 - 주점","category":"restaurant"}]},{"lat":"37.133916262","long":"126.90995696","imageIndex":4,"items":[{"name":"둘군(DULGUUN)","tel":"","addr":"경기도 화성시 향남읍 평리 31-1번지","indutype":"일반휴게음식 - 서양음식","category":"restaurant"},{"name":"발안왕파전","tel":"031-353-5929","addr":"경기도 화성시 향남읍 평리 31-1번지","indutype":"일반휴게음식 - 일반한식","category":"restaurant"},{"name":"쿠아타이","tel":"031-258-7524","addr":"경기도 화성시 향남읍 평리 31-1번지 2층","indutype":"일반휴게음식 - 서양음식","category":"restaurant"}]},{"lat":"37.130780436","long":"126.90973572","imageIndex":4,"items":[{"name":"둘마니치킨발안점","tel":"031-353-9912","addr":"경기도 화성시 향남읍 평리 76-26번지","indutype":"일반휴게음식 - 스넥","category":"restaurant"}]},{"lat":"37.131220567","long":"126.90799086","imageIndex":4,"items":[{"name":"둥지까페","tel":"031-366-2632","addr":"경기도 화성시 향남읍 평리 118-13번지","indutype":"일반휴게음식 - 일반한식","category":"restaurant"},{"name":"러브커피숍","tel":"031-352-2029","addr":"경기도 화성시 향남읍 평리 118-13번지 2층 일부","indutype":"일반휴게음식 - 서양음식","category":"restaurant"}]},{"lat":"37.130950297","long":"126.90804747","imageIndex":4,"items":[{"name":"또올래","tel":"031-352-6278","addr":"경기도 화성시 향남읍 평리 81-34번지 1층","indutype":"일반휴게음식 - 일반한식","category":"restaurant"},{"name":"미팅카페","tel":"031-352-0078","addr":"경기도 화성시 향남읍 평리 81-34번지","indutype":"일반휴게음식 - 일반한식","category":"restaurant"}]},{"lat":"37.131284634","long":"126.90923994","imageIndex":4,"items":[{"name":"뜨는다방","tel":"031-366-6122","addr":"경기도 화성시 향남읍 평리 81-42번지 2층","indutype":"일반휴게음식 - 서양음식","category":"restaurant"},{"name":"약속다방","tel":"031-354-4141","addr":"경기도 화성시 향남읍 평리 81-42번지 2층","indutype":"일반휴게음식 - 서양음식","category":"restaurant"},{"name":"윙크카페","tel":"031-359-8717","addr":"경기도 화성시 향남읍 평리 81-42번지 104,105","indutype":"일반휴게음식 - 서양음식","category":"restaurant"},{"name":"터미널통닭","tel":"031-353-8749","addr":"경기도 화성시 향남읍 평리 81-42번지","indutype":"일반휴게음식 - 스넥","category":"restaurant"}]},{"lat":"37.132418428","long":"126.90732539","imageIndex":4,"items":[{"name":"라니마라탕","tel":"031-354-3213","addr":"경기도 화성시 향남읍 평리 99-2번지 1층","indutype":"일반휴게음식 - 중국식","category":"restaurant"}]},{"lat":"37.131887657","long":"126.90838391","imageIndex":4,"items":[{"name":"랄리구라스레스토랑","tel":"031-8059-3125","addr":"경기도 화성시 향남읍 평리 85-3번지 2층","indutype":"일반휴게음식 - 서양음식","category":"restaurant"}]},{"lat":"37.131582546","long":"126.90995982","imageIndex":4,"items":[{"name":"롯데리아 화성발안점","tel":"031-352-9382","addr":"경기도 화성시 향남읍 평리 81-88번지","indutype":"일반휴게음식 - 서양음식","category":"restaurant"},{"name":"엔제리너스 화성발안점","tel":"031-352-9396","addr":"경기도 화성시 향남읍 평리 81-88번지 1층","indutype":"일반휴게음식 - 서양음식","category":"restaurant"}]},{"lat":"37.131752563","long":"126.90846286","imageIndex":4,"items":[{"name":"막끌리나","tel":"031-353-7924","addr":"경기도 화성시 향남읍 평리 85-15번지 외1필지 1층","indutype":"일반휴게음식 - 주점","category":"restaurant"},{"name":"만세포차","tel":"031-8059-4255","addr":"경기도 화성시 향남읍 평리 85-15번지","indutype":"일반휴게음식 - 일반한식","category":"restaurant"}]},{"lat":"37.132166469","long":"126.9077421","imageIndex":4,"items":[{"name":"머루와다래","tel":"031-353-7818","addr":"경기도 화성시 향남읍 평리 101-5번지","indutype":"일반휴게음식 - 칵테일바","category":"restaurant"},{"name":"메밀꽃","tel":"031-352-4558","addr":"경기도 화성시 향남읍 평리 101-5번지","indutype":"일반휴게음식 - 일반한식","category":"restaurant"},{"name":"태양소주방","tel":"031-352-4553","addr":"경기도 화성시 향남읍 평리 101-5번지","indutype":"일반휴게음식 - 일반한식","category":"restaurant"},{"name":"태양소주방","tel":"031-352-4553","addr":"경기도 화성시 향남읍 평리 101-5번지 101호","indutype":"일반휴게음식 - 일반한식","category":"restaurant"}]},{"lat":"37.131339703","long":"126.9105228","imageIndex":4,"items":[{"name":"머스보이타이","tel":"","addr":"경기도 화성시 향남읍 평리 81-22번지 2층","indutype":"일반휴게음식 - 서양음식","category":"restaurant"},{"name":"본죽(발안점)","tel":"031-366-2688","addr":"경기도 화성시 향남읍 평리 81-22번지 1층","indutype":"일반휴게음식 - 일반한식","category":"restaurant"}]},{"lat":"37.131609233","long":"126.90952089","imageIndex":4,"items":[{"name":"몽로종점","tel":"","addr":"경기도 화성시 향남읍 평리 81-57번지 2층","indutype":"일반휴게음식 - 중국식","category":"restaurant"},{"name":"샤흐리삽스","tel":"031-000-0000","addr":"경기도 화성시 향남읍 평리 81-57번지","indutype":"일반휴게음식 - 서양음식","category":"restaurant"},{"name":"야샹거","tel":"031-352-3885","addr":"경기도 화성시 향남읍 평리 81-57번지 1층","indutype":"일반휴게음식 - 일반한식","category":"restaurant"}]},{"lat":"37.130914651","long":"126.90854267","imageIndex":4,"items":[{"name":"물망초","tel":"031-353-0338","addr":"경기도 화성시 향남읍 평리 81-54번지","indutype":"일반휴게음식 - 일반한식","category":"restaurant"},{"name":"토담","tel":"031-353-9669","addr":"경기도 화성시 향남읍 평리 81-54번지","indutype":"일반휴게음식 - 일반한식","category":"restaurant"}]},{"lat":"37.133141148","long":"126.90968781","imageIndex":4,"items":[{"name":"미얀마마을","tel":"","addr":"경기도 화성시 향남읍 평리 35-4번지","indutype":"일반휴게음식 - 일반한식","category":"restaurant"}]},{"lat":"37.132338949","long":"126.90935118","imageIndex":4,"items":[{"name":"미인","tel":"070-8947-4490","addr":"경기도 화성시 향남읍 평리 85-10번지 1층 상가","indutype":"일반휴게음식 - 일반한식","category":"restaurant"}]},{"lat":"37.131311931","long":"126.90957752","imageIndex":4,"items":[{"name":"민속전집","tel":"031-366-3486","addr":"경기도 화성시 향남읍 평리 81-58번지","indutype":"일반휴게음식 - 일반한식","category":"restaurant"}]},{"lat":"37.131671226","long":"126.90815911","imageIndex":4,"items":[{"name":"박가네김밥","tel":"031-353-0067","addr":"경기도 화성시 향남읍 평리 112-4","indutype":"일반휴게음식 - 스넥","category":"restaurant"}]},{"lat":"37.134250282","long":"126.91076685","imageIndex":4,"items":[{"name":"발안 회 수산","tel":"031-353-8438","addr":"경기도 화성시 향남읍 평리 30-20","indutype":"일반휴게음식 - 일반한식","category":"restaurant"}]},{"lat":"37.131581408","long":"126.90851934","imageIndex":4,"items":[{"name":"발안고기부페","tel":"031-354-9934","addr":"경기도 화성시 향남읍 평리 80-36번지 아시아나빌딩 1층 일부","indutype":"일반휴게음식 - 일반한식","category":"restaurant"}]},{"lat":"37.13139291","long":"126.90943112","imageIndex":4,"items":[{"name":"발안만세협동조합","tel":"070-4422-7005","addr":"경기도 화성시 향남읍 평리 81-51번지 2층","indutype":"일반휴게음식 - 일반한식","category":"restaurant"}]},{"lat":"37.133610476","long":"126.91068885","imageIndex":4,"items":[{"name":"발안머홈크마에","tel":"031-366-1622","addr":"경기도 화성시 향남읍 평리 35-1번지 지하1층","indutype":"일반휴게음식 - 서양음식","category":"restaurant"},{"name":"뽄르소페아뜨라","tel":"031-366-1622","addr":"경기도 화성시 향남읍 평리 35-1번지 지하1층","indutype":"일반휴게음식 - 서양음식","category":"restaurant"},{"name":"수코타이","tel":"031-506-8067","addr":"경기도 화성시 향남읍 평리 35-1번지","indutype":"일반휴게음식 - 서양음식","category":"restaurant"}]},{"lat":"37.133142359","long":"126.91124086","imageIndex":4,"items":[{"name":"발안식당","tel":"070-8947-4490","addr":"경기도 화성시 향남읍 평리 81-15번지","indutype":"일반휴게음식 - 일반한식","category":"restaurant"}]},{"lat":"37.13430402","long":"126.91035038","imageIndex":4,"items":[{"name":"발안인도네시아","tel":"070-8844-0340","addr":"경기도 화성시 향남읍 평리 30-36번지 2층","indutype":"일반휴게음식 - 일반한식","category":"restaurant"}]},{"lat":"37.130581531","long":"126.90888069","imageIndex":4,"items":[{"name":"백년부양꼬치","tel":"070-8970-4016","addr":"경기도 화성시 향남읍 평리 76-18번지","indutype":"일반휴게음식 - 일반한식","category":"restaurant"}]},{"lat":"37.131310852","long":"126.90821582","imageIndex":4,"items":[{"name":"베트남 HOF & BEER","tel":"031-354-1480","addr":"경기도 화성시 향남읍 평리 118-10번지 1층 101호","indutype":"일반휴게음식 - 일반한식","category":"restaurant"}]},{"lat":"37.130671938","long":"126.90926321","imageIndex":4,"items":[{"name":"별다방","tel":"031-352-5070","addr":"경기도 화성시 향남읍 평리 76-15번지","indutype":"일반휴게음식 - 서양음식","category":"restaurant"},{"name":"평양맥주","tel":"070-8947-4490","addr":"경기도 화성시 향남읍 평리 76-15번지 1층","indutype":"일반휴게음식 - 주점","category":"restaurant"}]},{"lat":"37.132139058","long":"126.90726947","imageIndex":4,"items":[{"name":"보리","tel":"031-354-5516","addr":"경기도 화성시 향남읍 평리 98-1번지","indutype":"일반휴게음식 - 일반한식","category":"restaurant"}]},{"lat":"37.13383666","long":"126.91188151","imageIndex":4,"items":[{"name":"비디하우스","tel":"031-466-9024","addr":"경기도 화성시 향남읍 평리 42-3번지","indutype":"일반휴게음식 - 스넥","category":"restaurant"}]},{"lat":"37.130221334","long":"126.90916248","imageIndex":4,"items":[{"name":"비센가","tel":"031-0000-0000","addr":"경기도 화성시 향남읍 평리 76-37번지 2층","indutype":"일반휴게음식 - 일반한식","category":"restaurant"},{"name":"야화","tel":"031-8059-6019","addr":"경기도 화성시 향남읍 평리 76-37번지 1층","indutype":"일반휴게음식 - 주점","category":"restaurant"},{"name":"크로바소주타운","tel":"070-8944-3432","addr":"경기도 화성시 향남읍 평리 76-37번지 1층","indutype":"일반휴게음식 - 주점","category":"restaurant"},{"name":"크로바소주타운","tel":"031-0000-0000","addr":"경기도 화성시 향남읍 평리 76-37번지 103호","indutype":"일반휴게음식 - 주점","category":"restaurant"}]},{"lat":"37.130779161","long":"126.90812646","imageIndex":4,"items":[{"name":"사계절","tel":"031-353-1020","addr":"경기도 화성시 향남읍 평리 78-8","indutype":"일반휴게음식 - 일반한식","category":"restaurant"},{"name":"킹호프","tel":"031-000-0000","addr":"경기도 화성시 향남읍 평리 78-8번지 1층","indutype":"일반휴게음식 - 주점","category":"restaurant"}]},{"lat":"37.133582838","long":"126.90991235","imageIndex":4,"items":[{"name":"사마르칸 카페","tel":"031-353-4550","addr":"경기도 화성시 향남읍 평리 30-4번지","indutype":"일반휴게음식 - 서양음식","category":"restaurant"},{"name":"제일식당","tel":"031-353-9870","addr":"경기도 화성시 향남읍 평리 30-4","indutype":"일반휴게음식 - 일반한식","category":"restaurant"}]},{"lat":"37.130284247","long":"126.90895984","imageIndex":4,"items":[{"name":"새롬다방","tel":"031-359-8768","addr":"경기도 화성시 향남읍 평리 76-25번지","indutype":"일반휴게음식 - 서양음식","category":"restaurant"}]},{"lat":"37.127750896","long":"126.90720747","imageIndex":4,"items":[{"name":"색동면옥","tel":"031-351-2239","addr":"경기도 화성시 향남읍 평리 221-107번지 1층","indutype":"일반휴게음식 - 일반한식","category":"restaurant"}]},{"lat":"37.132229026","long":"126.90710055","imageIndex":4,"items":[{"name":"서산해장국집","tel":"031-353-8900","addr":"경기도 화성시 향남읍 평리 98-5","indutype":"일반휴게음식 - 일반한식","category":"restaurant"}]},{"lat":"37.132751096","long":"126.90643591","imageIndex":4,"items":[{"name":"소담뜰","tel":"031-8059-7667","addr":"경기도 화성시 향남읍 평리 94-2번지","indutype":"일반휴게음식 - 일반한식","category":"restaurant"}]},{"lat":"37.130807318","long":"126.90954438","imageIndex":4,"items":[{"name":"소람우렁이쌈밥","tel":"031-366-3465","addr":"경기도 화성시 향남읍 평리 76-41번지","indutype":"일반휴게음식 - 일반한식","category":"restaurant"},{"name":"품미향","tel":"031-111-1111","addr":"경기도 화성시 향남읍 평리 76-41번지 103호","indutype":"일반휴게음식 - 중국식","category":"restaurant"}]},{"lat":"37.132248827","long":"126.90932879","imageIndex":4,"items":[{"name":"소풍카페","tel":"070-8947-4490","addr":"경기도 화성시 향남읍 평리 85-11번지","indutype":"일반휴게음식 - 주점","category":"restaurant"}]},{"lat":"37.132337669","long":"126.90774188","imageIndex":4,"items":[{"name":"솔마루","tel":"031-353-0181","addr":"경기도 화성시 향남읍 평리 101-4번지 104호","indutype":"일반휴게음식 - 일반한식","category":"restaurant"}]},{"lat":"37.130951005","long":"126.90893651","imageIndex":4,"items":[{"name":"수인","tel":"031-366-1934","addr":"경기도 화성시 향남읍 평리 81-68번지","indutype":"일반휴게음식 - 일반한식","category":"restaurant"}]},{"lat":"37.131386906","long":"126.91332492","imageIndex":4,"items":[{"name":"술향기","tel":"070-8947-4490","addr":"경기도 화성시 향남읍 평리 69-10번지","indutype":"일반휴게음식 - 일반한식","category":"restaurant"}]},{"lat":"37.13153126","long":"126.91357233","imageIndex":4,"items":[{"name":"시루향기","tel":"031-8059-0944","addr":"경기도 화성시 향남읍 평리 68-5번지 1층","indutype":"일반휴게음식 - 일반한식","category":"restaurant"}]},{"lat":"37.13364554","long":"126.90943961","imageIndex":4,"items":[{"name":"쌈마을","tel":"031-352-9878","addr":"경기도 화성시 향남읍 평리 33-3번지 1층","indutype":"일반휴게음식 - 일반한식","category":"restaurant"}]},{"lat":"37.132312139","long":"126.90963256","imageIndex":4,"items":[{"name":"썬다방","tel":"031-354-0664","addr":"경기도 화성시 향남읍 평리 84-8번지 2층","indutype":"일반휴게음식 - 서양음식","category":"restaurant"}]},{"lat":"37.130472335","long":"126.90754165","imageIndex":4,"items":[{"name":"씨앤비","tel":"031-234-5678","addr":"경기도 화성시 향남읍 평리 122-1번지","indutype":"일반휴게음식 - 일반한식","category":"restaurant"}]},{"lat":"37.131169488","long":"126.91179467","imageIndex":4,"items":[{"name":"아그집쭈꾸미볶음","tel":"031-000-0000","addr":"경기도 화성시 향남읍 평리 71-6번지 1층","indutype":"일반휴게음식 - 일반한식","category":"restaurant"}]},{"lat":"37.132609264","long":"126.90935085","imageIndex":4,"items":[{"name":"압사라","tel":"031-366-4717","addr":"경기도 화성시 향남읍 평리 85-1번지 2층","indutype":"일반휴게음식 - 일반한식","category":"restaurant"},{"name":"천산양꼬치","tel":"031-352-3989","addr":"경기도 화성시 향남읍 평리 85-1번지 외1필지","indutype":"일반휴게음식 - 일반한식","category":"restaurant"}]},{"lat":"37.132140656","long":"126.90927265","imageIndex":4,"items":[{"name":"애림","tel":"070-8947-4490","addr":"경기도 화성시 향남읍 평리 85-12번지","indutype":"일반휴게음식 - 일반한식","category":"restaurant"},{"name":"왕다방","tel":"001-0000-0000","addr":"경기도 화성시 향남읍 평리 85-12번지","indutype":"일반휴게음식 - 서양음식","category":"restaurant"}]},{"lat":"37.132617372","long":"126.9082142","imageIndex":4,"items":[{"name":"야망","tel":"031-354-1131","addr":"경기도 화성시 향남읍 평리 89-15번지 2층","indutype":"일반휴게음식 - 일반한식","category":"restaurant"}]},{"lat":"37.13139488","long":"126.91196321","imageIndex":4,"items":[{"name":"여로집","tel":"031-366-5349","addr":"경기도 화성시 향남읍 평리 71-5번지","indutype":"일반휴게음식 - 일반한식","category":"restaurant"}]},{"lat":"37.132111753","long":"126.90693189","imageIndex":4,"items":[{"name":"연길꼬치","tel":"031-366-6025","addr":"경기도 화성시 향남읍 평리 97-1번지 1층","indutype":"일반휴게음식 - 일반한식","category":"restaurant"}]},{"lat":"37.13308589","long":"126.90817985","imageIndex":4,"items":[{"name":"연길초두부","tel":"031-359-8081","addr":"경기도 화성시 향남읍 평리 89-3번지","indutype":"일반휴게음식 - 일반한식","category":"restaurant"},{"name":"장미커피숍","tel":"031-353-7785","addr":"경기도 화성시 향남읍 평리 89-3번지 1층","indutype":"일반휴게음식 - 서양음식","category":"restaurant"},{"name":"촌장작은양꼬치","tel":"","addr":"경기도 화성시 향남읍 평리 89-3번지 1층","indutype":"일반휴게음식 - 일반한식","category":"restaurant"}]},{"lat":"37.131832674","long":"126.9072361","imageIndex":4,"items":[{"name":"연변보신탕","tel":"031-366-0428","addr":"경기도 화성시 향남읍 평리 104-7번지","indutype":"일반휴게음식 - 일반한식","category":"restaurant"}]},{"lat":"37.131256275","long":"126.90757443","imageIndex":4,"items":[{"name":"연지커피숍","tel":"031-366-2139","addr":"경기도 화성시 향남읍 평리 117-3번지","indutype":"일반휴게음식 - 서양음식","category":"restaurant"}]},{"lat":"37.130833717","long":"126.90874534","imageIndex":4,"items":[{"name":"오아시스","tel":"","addr":"경기도 화성시 향남읍 평리 81-160번지 1층","indutype":"일반휴게음식 - 주점","category":"restaurant"}]},{"lat":"37.130805904","long":"126.90776631","imageIndex":4,"items":[{"name":"왔다야식포차","tel":"070-8947-4490","addr":"경기도 화성시 향남읍 평리 119-1번지 1층","indutype":"일반휴게음식 - 일반한식","category":"restaurant"}]},{"lat":"37.132310971","long":"126.90815831","imageIndex":4,"items":[{"name":"왕만두&도나스","tel":"031-1111-1111","addr":"경기도 화성시 향남읍 평리 109-10번지","indutype":"일반휴게음식 - 스넥","category":"restaurant"}]},{"lat":"37.130923598","long":"126.90846389","imageIndex":4,"items":[{"name":"왕비","tel":"031-352-4356","addr":"경기도 화성시 향남읍 평리 81-28번지 1층","indutype":"일반휴게음식 - 일반한식","category":"restaurant"}]},{"lat":"37.132360182","long":"126.91351508","imageIndex":4,"items":[{"name":"외식의최강자","tel":"031-352-6341","addr":"경기도 화성시 향남읍 평리 60-2","indutype":"일반휴게음식 - 일반한식","category":"restaurant"}]},{"lat":"37.12872495","long":"126.90835409","imageIndex":4,"items":[{"name":"원할머니보쌈(화성향남점)","tel":"031-354-8383","addr":"경기도 화성시 향남읍 평리 172번지 206호","indutype":"일반휴게음식 - 일반한식","category":"restaurant"}]},{"lat":"37.130724963","long":"126.90795772","imageIndex":4,"items":[{"name":"은하수다방","tel":"031-352-3454","addr":"경기도 화성시 향남읍 평리 120-3번지","indutype":"일반휴게음식 - 서양음식","category":"restaurant"}]},{"lat":"37.130617662","long":"126.90899319","imageIndex":4,"items":[{"name":"음식이야기","tel":"070-8947-4490","addr":"경기도 화성시 향남읍 평리 76-8번지","indutype":"일반휴게음식 - 일반한식","category":"restaurant"}]},{"lat":"37.131086118","long":"126.90888007","imageIndex":4,"items":[{"name":"이석민 피자","tel":"031-353-7046","addr":"경기도 화성시 향남읍 평리 81-205번지 1층","indutype":"일반휴게음식 - 일반한식","category":"restaurant"}]},{"lat":"37.132003809","long":"126.9071571","imageIndex":4,"items":[{"name":"일미집","tel":"070-8947-4490","addr":"경기도 화성시 향남읍 평리 98-2번지 1층","indutype":"일반휴게음식 - 일반한식","category":"restaurant"}]},{"lat":"37.133112768","long":"126.9079885","imageIndex":4,"items":[{"name":"일품향 오리목왕","tel":"031-366-3945","addr":"경기도 화성시 향남읍 평리 90-14번지","indutype":"일반휴게음식 - 일반한식","category":"restaurant"}]},{"lat":"37.131780299","long":"126.90935187","imageIndex":4,"items":[{"name":"장터순대국","tel":"031-366-0282","addr":"경기도 화성시 향남읍 평리 80-22","indutype":"일반휴게음식 - 일반한식","category":"restaurant"},{"name":"카리브","tel":"031-297-6055","addr":"경기도 화성시 향남읍 평리 80-22번지","indutype":"일반휴게음식 - 일반한식","category":"restaurant"}]},{"lat":"37.132444464","long":"126.90609868","imageIndex":4,"items":[{"name":"제이다방","tel":"070-2456-9644","addr":"경기도 화성시 향남읍 평리 95-3번지 1층","indutype":"일반휴게음식 - 서양음식","category":"restaurant"}]},{"lat":"37.131699098","long":"126.90921693","imageIndex":4,"items":[{"name":"진영맛집","tel":"031-353-6644","addr":"경기도 화성시 향남읍 평리 80-1번지","indutype":"일반휴게음식 - 일반한식","category":"restaurant"}]},{"lat":"37.133194571","long":"126.90887746","imageIndex":4,"items":[{"name":"채플린레스토랑호프","tel":"031-366-5392","addr":"경기도 화성시 향남읍 평리 88-3","indutype":"일반휴게음식 - 서양음식","category":"restaurant"}]},{"lat":"37.1306448","long":"126.9091282","imageIndex":4,"items":[{"name":"촉도대하 발안점","tel":"031-352-8835","addr":"경기도 화성시 향남읍 평리 76-16번지 1층","indutype":"일반휴게음식 - 일반한식","category":"restaurant"}]},{"lat":"37.132060822","long":"126.91088204","imageIndex":4,"items":[{"name":"카페아르모니아","tel":"031-352-3689","addr":"경기도 화성시 향남읍 평리 81-70번지 1층 102호 ,103,104호","indutype":"일반휴게음식 - 서양음식","category":"restaurant"}]},{"lat":"37.132419141","long":"126.90821444","imageIndex":4,"items":[{"name":"칸티뿌르레스토랑 주식회사 (발안지점)","tel":"031-359-9866","addr":"경기도 화성시 향남읍 평리 109-9번지 2층","indutype":"일반휴게음식 - 서양음식","category":"restaurant"},{"name":"탄삭","tel":"070-4642-9463","addr":"경기도 화성시 향남읍 평리 109-9번지","indutype":"일반휴게음식 - 일반한식","category":"restaurant"}]},{"lat":"37.131644813","long":"126.90893565","imageIndex":4,"items":[{"name":"케밥하우스","tel":"031-354-1997","addr":"경기도 화성시 향남읍 평리 80-9번지 2층","indutype":"일반휴게음식 - 서양음식","category":"restaurant"}]},{"lat":"37.132807316","long":"126.90912553","imageIndex":4,"items":[{"name":"큰맘할매순대국","tel":"070-8962-5778","addr":"경기도 화성시 향남읍 평리 86-1번지 1층","indutype":"일반휴게음식 - 일반한식","category":"restaurant"}]},{"lat":"37.13291496","long":"126.90851768","imageIndex":4,"items":[{"name":"태극쿵푸마라탕","tel":"031-359-9292","addr":"경기도 화성시 향남읍 평리 89-8번지","indutype":"일반휴게음식 - 중국식","category":"restaurant"}]},{"lat":"37.131364419","long":"126.9075968","imageIndex":4,"items":[{"name":"평양다방","tel":"031-352-8026","addr":"경기도 화성시 향남읍 평리 115-13번지 2층","indutype":"일반휴게음식 - 서양음식","category":"restaurant"}]},{"lat":"37.13161014","long":"126.91068002","imageIndex":4,"items":[{"name":"푸켓타이레스토랑","tel":"031-352-5289","addr":"경기도 화성시 향남읍 평리 81-72번지 1층","indutype":"일반휴게음식 - 서양음식","category":"restaurant"}]},{"lat":"37.131113701","long":"126.90957776","imageIndex":4,"items":[{"name":"프랜즈","tel":"031-353-2172","addr":"경기도 화성시 향남읍 평리 81-95번지","indutype":"일반휴게음식 - 스넥","category":"restaurant"}]},{"lat":"37.132473599","long":"126.90870955","imageIndex":4,"items":[{"name":"피자스쿨발안점","tel":"031-8059-8338","addr":"경기도 화성시 향남읍 평리 110-3","indutype":"일반휴게음식 - 서양음식","category":"restaurant"}]},{"lat":"37.131032757","long":"126.90976918","imageIndex":4,"items":[{"name":"하정다방","tel":"031-354-0232","addr":"경기도 화성시 향남읍 평리 81-25번지 2층","indutype":"일반휴게음식 - 서양음식","category":"restaurant"},{"name":"현다방","tel":"031-366-5280","addr":"경기도 화성시 향남읍 평리 81-25번지 2층","indutype":"일반휴게음식 - 서양음식","category":"restaurant"}]},{"lat":"37.134087874","long":"126.9104857","imageIndex":4,"items":[{"name":"한방왕족발","tel":"031-352-1546","addr":"경기도 화성시 향남읍 평리 30-25번지 1층","indutype":"일반휴게음식 - 일반한식","category":"restaurant"}]},{"lat":"37.134637907","long":"126.91099147","imageIndex":4,"items":[{"name":"핫포(Hot pho)","tel":"070-8947-4490","addr":"경기도 화성시 향남읍 평리 30-6번지","indutype":"일반휴게음식 - 일반한식","category":"restaurant"}]},{"lat":"37.131522326","long":"126.91367362","imageIndex":4,"items":[{"name":"항아리보쌈","tel":"031-353-3581","addr":"경기도 화성시 향남읍 평리 68-5번지 1동 102호","indutype":"일반휴게음식 - 일반한식","category":"restaurant"}]},{"lat":"37.131616875","long":"126.90779905","imageIndex":4,"items":[{"name":"행운호프","tel":"070-8947-4490","addr":"경기도 화성시 향남읍 평리 115-19번지","indutype":"일반휴게음식 - 주점","category":"restaurant"}]},{"lat":"37.131589617","long":"126.90751774","imageIndex":4,"items":[{"name":"향기다방","tel":"031-354-5530","addr":"경기도 화성시 향남읍 평리 116-11번지","indutype":"일반휴게음식 - 서양음식","category":"restaurant"}]},{"lat":"37.13095129","long":"126.90929662","imageIndex":4,"items":[{"name":"허흑오리발안점","tel":"031-354-3573","addr":"경기도 화성시 향남읍 평리 81-69번지 1층","indutype":"일반휴게음식 - 일반한식","category":"restaurant"}]},{"lat":"37.131942621","long":"126.90952048","imageIndex":4,"items":[{"name":"홍보석","tel":"031-354-0405","addr":"경기도 화성시 향남읍 평리 80-23번지","indutype":"일반휴게음식 - 중국식","category":"restaurant"}]},{"lat":"37.132833091","long":"126.90754995","imageIndex":4,"items":[{"name":"홍한왕","tel":"031-352-5532","addr":"경기도 화성시 향남읍 평리 91-1번지 102,103호","indutype":"일반휴게음식 - 서양음식","category":"restaurant"},{"name":"화룡장국","tel":"031-8059-0979","addr":"경기도 화성시 향남읍 평리 91-1번지 1동 1호","indutype":"일반휴게음식 - 일반한식","category":"restaurant"}]}]