[{"lat":"37.3261222","long":"126.91837461","imageIndex":0,"items":[{"name":"(주)오케이루마","tel":"031-437-0759","addr":"경기도 군포시 대야미동 663-7번지 1층 일부","indutype":"자동차정비 유지 - 자동차부품","category":"car"}]},{"lat":"37.329310904","long":"126.91711861","imageIndex":0,"items":[{"name":"대야미 손세차","tel":"031-438-4131","addr":"경기도 군포시 대야미동 645-15번지","indutype":"자동차정비 유지 - 세차장","category":"car"},{"name":"대야미 손세차장","tel":"031-223-5214","addr":"경기도 군포시 대야미동 645-15번지","indutype":"자동차정비 유지 - 세차장","category":"car"},{"name":"애니카랜드 대야미점","tel":"031-438-1223","addr":"경기도 군포시 대야미동 645-15번지","indutype":"자동차정비 유지 - 자동차정비","category":"car"}]},{"lat":"37.326419849","long":"126.91881431","imageIndex":0,"items":[{"name":"동네카센타","tel":"02-0000-0000","addr":"경기도 군포시 대야미동 664-1번지","indutype":"자동차정비 유지 - 자동차정비","category":"car"}]},{"lat":"37.32597827","long":"126.91870197","imageIndex":0,"items":[{"name":"마일레오토-군포","tel":"013-501-7418","addr":"경기도 군포시 대야미동 664-4번지 제지1층 B01호","indutype":"자동차정비 유지 - 자동차시트·타이어","category":"car"}]},{"lat":"37.327510042","long":"126.91875668","imageIndex":0,"items":[{"name":"세림세차장","tel":"031-437-7760","addr":"경기도 군포시 대야미동 655-4번지","indutype":"자동차정비 유지 - 세차장","category":"car"}]},{"lat":"37.331976521","long":"126.91520866","imageIndex":0,"items":[{"name":"세종상사","tel":"031-501-6145","addr":"경기도 군포시 대야미동 636-3번지 센트럴아이파크 제상가동제지1층114호","indutype":"자동차정비 유지 - 자동차부품","category":"car"}]},{"lat":"37.328205409","long":"126.9210125","imageIndex":0,"items":[{"name":"오토앤(군포점)","tel":"031-445-8807","addr":"경기도 군포시 대야미동 266-12번지 대야충전소","indutype":"자동차정비 유지 - 카인테리어","category":"car"}]},{"lat":"37.330256711","long":"126.91675647","imageIndex":0,"items":[{"name":"주식회사 프로미몰","tel":"031-762-9301","addr":"경기도 군포시 대야미동 642-7번지 천봉프라자 105호","indutype":"자동차정비 유지 - 자동차부품","category":"car"}]}]