[{"lat":"37.74215475","long":"127.05332418","imageIndex":5,"items":[{"name":"I모텔","tel":"031-844-5671","addr":"경기도 의정부시 의정부동 23-2번지","indutype":"숙박업 - 여관/기타숙박업","category":"hotel"}]},{"lat":"37.740875815","long":"127.05232492","imageIndex":5,"items":[{"name":"K-레브호텔","tel":"031-848-0024","addr":"경기도 의정부시 의정부동 33-3번지","indutype":"숙박업 - 여관/기타숙박업","category":"hotel"}]},{"lat":"37.736624237","long":"127.05004181","imageIndex":5,"items":[{"name":"MUL모텔","tel":"031-875-6060","addr":"경기도 의정부시 의정부동 134-15번지 외1필지","indutype":"숙박업 - 여관/기타숙박업","category":"hotel"}]},{"lat":"37.735543475","long":"127.0490655","imageIndex":5,"items":[{"name":"M호텔","tel":"031-862-6045","addr":"경기도 의정부시 의정부동 136-35번지","indutype":"숙박업 - 여관/기타숙박업","category":"hotel"}]},{"lat":"37.737212676","long":"127.04237311","imageIndex":5,"items":[{"name":"가을동화","tel":"031-875-9086","addr":"경기도 의정부시 의정부동 507-7번지","indutype":"숙박업 - 여관/기타숙박업","category":"hotel"}]},{"lat":"37.74054216","long":"127.05303946","imageIndex":5,"items":[{"name":"강변장여관","tel":"031-846-2072","addr":"경기도 의정부시 의정부동 32-15번지","indutype":"숙박업 - 여관/기타숙박업","category":"hotel"}]},{"lat":"37.741850372","long":"127.04854752","imageIndex":5,"items":[{"name":"관동여인숙","tel":"031-846-4240","addr":"경기도 의정부시 의정부동 191-10번지","indutype":"숙박업 - 여관/기타숙박업","category":"hotel"}]},{"lat":"37.731543957","long":"127.04715724","imageIndex":5,"items":[{"name":"궁","tel":"031-876-8016","addr":"경기도 의정부시 의정부동 90-4번지","indutype":"숙박업 - 여관/기타숙박업","category":"hotel"}]},{"lat":"37.732372872","long":"127.04706698","imageIndex":5,"items":[{"name":"궁전파크여관","tel":"031-877-7139","addr":"경기도 의정부시 의정부동 91-5번지","indutype":"숙박업 - 여관/기타숙박업","category":"hotel"}]},{"lat":"37.742371148","long":"127.05292723","imageIndex":5,"items":[{"name":"그랜드파크","tel":"031-841-0277","addr":"경기도 의정부시 의정부동 23-1번지","indutype":"숙박업 - 여관/기타숙박업","category":"hotel"}]},{"lat":"37.741454733","long":"127.04648241","imageIndex":5,"items":[{"name":"그루모텔","tel":"031-841-7795","addr":"경기도 의정부시 의정부동 210-16번지","indutype":"숙박업 - 여관/기타숙박업","category":"hotel"}]},{"lat":"37.738344807","long":"127.05067822","imageIndex":5,"items":[{"name":"그린파크여관","tel":"031-846-2827","addr":"경기도 의정부시 의정부동 171-6번지","indutype":"숙박업 - 여관/기타숙박업","category":"hotel"}]},{"lat":"37.736094684","long":"127.04470951","imageIndex":5,"items":[{"name":"글로우호텔","tel":"031-829-4322","addr":"경기도 의정부시 의정부동 499-9번지","indutype":"숙박업 - 여관/기타숙박업","category":"hotel"}]},{"lat":"37.743237222","long":"127.05012543","imageIndex":5,"items":[{"name":"금강장","tel":"031-846-8016","addr":"경기도 의정부시 의정부동 186-10번지","indutype":"숙박업 - 여관/기타숙박업","category":"hotel"}]},{"lat":"37.742767827","long":"127.05231484","imageIndex":5,"items":[{"name":"금강장여관","tel":"031-844-0632","addr":"경기도 의정부시 의정부동 24-18번지","indutype":"숙박업 - 여관/기타숙박업","category":"hotel"}]},{"lat":"37.741238645","long":"127.04609654","imageIndex":5,"items":[{"name":"까웅모텔","tel":"031-842-2748","addr":"경기도 의정부시 의정부동 211-15번지","indutype":"숙박업 - 여관/기타숙박업","category":"hotel"}]},{"lat":"37.740932136","long":"127.04659556","imageIndex":5,"items":[{"name":"나나여관","tel":"031-846-0896","addr":"경기도 의정부시 의정부동 213-12번지","indutype":"숙박업 - 여관/기타숙박업","category":"hotel"}]},{"lat":"37.736680225","long":"127.04493673","imageIndex":5,"items":[{"name":"다오호텔","tel":"031-874-3372","addr":"경기도 의정부시 의정부동 498-3번지","indutype":"숙박업 - 여관/기타숙박업","category":"hotel"}]},{"lat":"37.73476863","long":"127.04912174","imageIndex":5,"items":[{"name":"단비원룸텔","tel":"031-871-9337","addr":"경기도 의정부시 의정부동 127-9번지 5층","indutype":"숙박업 - 여관/기타숙박업","category":"hotel"}]},{"lat":"37.731823173","long":"127.04737294","imageIndex":5,"items":[{"name":"달라스모텔","tel":"031-871-5276","addr":"경기도 의정부시 의정부동 377번지","indutype":"숙박업 - 여관/기타숙박업","category":"hotel"}]},{"lat":"37.743210001","long":"127.05060193","imageIndex":5,"items":[{"name":"대성장여관","tel":"031-848-7566","addr":"경기도 의정부시 의정부동 185-16번지","indutype":"숙박업 - 여관/기타숙박업","category":"hotel"},{"name":"대성장여관","tel":"031-848-7566","addr":"경기도 의정부시 의정부동 185-16번지","indutype":"숙박업 - 여관/기타숙박업","category":"hotel"}]},{"lat":"37.732399807","long":"127.04731656","imageIndex":5,"items":[{"name":"대신장여관","tel":"031-874-3661","addr":"경기도 의정부시 의정부동 369-10번지","indutype":"숙박업 - 여관/기타숙박업","category":"hotel"},{"name":"블루모텔","tel":"031-877-2641","addr":"경기도 의정부시 의정부동 369-10번지","indutype":"숙박업 - 여관/기타숙박업","category":"hotel"}]},{"lat":"37.737462574","long":"127.04890786","imageIndex":5,"items":[{"name":"대호장여관","tel":"031-826-6339","addr":"경기도 의정부시 의정부동 133-72번지","indutype":"숙박업 - 여관/기타숙박업","category":"hotel"}]},{"lat":"37.740875934","long":"127.05204129","imageIndex":5,"items":[{"name":"더 리치","tel":"031-845-3258","addr":"경기도 의정부시 의정부동 34-18번지","indutype":"숙박업 - 여관/기타숙박업","category":"hotel"}]},{"lat":"37.737318541","long":"127.04860147","imageIndex":5,"items":[{"name":"더블유(W)","tel":"031-826-2122","addr":"경기도 의정부시 의정부동 133-44번지","indutype":"숙박업 - 여관/기타숙박업","category":"hotel"}]},{"lat":"37.736960694","long":"127.04151078","imageIndex":5,"items":[{"name":"더호텔","tel":"","addr":"경기도 의정부시 의정부동 506번지","indutype":"숙박업 - 여관/기타숙박업","category":"hotel"}]},{"lat":"37.741434068","long":"127.05313082","imageIndex":5,"items":[{"name":"돌하루방","tel":"031-844-5940","addr":"경기도 의정부시 의정부동 31-3번지","indutype":"숙박업 - 여관/기타숙박업","category":"hotel"}]},{"lat":"37.738624237","long":"127.0503494","imageIndex":5,"items":[{"name":"동림장여인숙","tel":"031-856-1745","addr":"경기도 의정부시 의정부동 170-16번지","indutype":"숙박업 - 여관/기타숙박업","category":"hotel"}]},{"lat":"37.742542607","long":"127.05226931","imageIndex":5,"items":[{"name":"두리방모텔","tel":"031-846-1352","addr":"경기도 의정부시 의정부동 24-6번지","indutype":"숙박업 - 여관/기타숙박업","category":"hotel"}]},{"lat":"37.742904022","long":"127.04973947","imageIndex":5,"items":[{"name":"듀오모텔","tel":"031-841-2984","addr":"경기도 의정부시 의정부동 189-2번지","indutype":"숙박업 - 여관/기타숙박업","category":"hotel"},{"name":"부티끄호텔XYM","tel":"031-841-5684","addr":"경기도 의정부시 의정부동 189-2번지 지상2-9층","indutype":"숙박업 - 여관/기타숙박업","category":"hotel"}]},{"lat":"37.736428871","long":"127.04229329","imageIndex":5,"items":[{"name":"라구나호텔","tel":"070-8146-7000","addr":"경기도 의정부시 의정부동 505-12번지","indutype":"숙박업 - 여관/기타숙박업","category":"hotel"}]},{"lat":"37.742462707","long":"127.04935344","imageIndex":5,"items":[{"name":"라마다모텔","tel":"031-821-6333","addr":"경기도 의정부시 의정부동 190-3번지","indutype":"숙박업 - 여관/기타숙박업","category":"hotel"}]},{"lat":"37.7387097","long":"127.03782456","imageIndex":5,"items":[{"name":"라벤다모텔","tel":"031-878-6444","addr":"경기도 의정부시 의정부동 487-10번지","indutype":"숙박업 - 여관/기타숙박업","category":"hotel"}]},{"lat":"37.742542248","long":"127.05312022","imageIndex":5,"items":[{"name":"라붐모텔","tel":"","addr":"경기도 의정부시 의정부동 22-14번지","indutype":"숙박업 - 여관/기타숙박업","category":"hotel"}]},{"lat":"37.731543863","long":"127.0474068","imageIndex":5,"items":[{"name":"라온","tel":"031-872-3333","addr":"경기도 의정부시 의정부동 377-5번지","indutype":"숙박업 - 여관/기타숙박업","category":"hotel"}]},{"lat":"37.736905681","long":"127.04432425","imageIndex":5,"items":[{"name":"라톤모텔","tel":"031-871-3061","addr":"경기도 의정부시 의정부동 497-10번지","indutype":"숙박업 - 여관/기타숙박업","category":"hotel"}]},{"lat":"37.736518033","long":"127.04499337","imageIndex":5,"items":[{"name":"람세스","tel":"031-829-5790","addr":"경기도 의정부시 의정부동 498-6번지","indutype":"숙박업 - 여관/기타숙박업","category":"hotel"}]},{"lat":"37.736491165","long":"127.04453956","imageIndex":5,"items":[{"name":"러브이즈","tel":"031-878-0322","addr":"경기도 의정부시 의정부동 498-7번지","indutype":"숙박업 - 여관/기타숙박업","category":"hotel"}]},{"lat":"37.737455305","long":"127.0442111","imageIndex":5,"items":[{"name":"루벤스모텔","tel":"031-876-9832","addr":"경기도 의정부시 의정부동 496-9번지","indutype":"숙박업 - 여관/기타숙박업","category":"hotel"}]},{"lat":"37.742426877","long":"127.04882017","imageIndex":5,"items":[{"name":"루비파크","tel":"031-842-9760","addr":"경기도 의정부시 의정부동 190-7번지","indutype":"숙박업 - 여관/기타숙박업","category":"hotel"}]},{"lat":"37.735904157","long":"127.04829429","imageIndex":5,"items":[{"name":"리베모텔","tel":"031-874-4466","addr":"경기도 의정부시 의정부동 138-1번지 리베모텔","indutype":"숙박업 - 여관/기타숙박업","category":"hotel"}]},{"lat":"37.742343941","long":"127.053347","imageIndex":5,"items":[{"name":"리오젠","tel":"031-843-6670","addr":"경기도 의정부시 의정부동 23-10번지","indutype":"숙박업 - 여관/기타숙박업","category":"hotel"},{"name":"리오젠 호텔","tel":"031-843-6670","addr":"경기도 의정부시 의정부동 23-10번지","indutype":"숙박업 - 여관/기타숙박업","category":"hotel"}]},{"lat":"37.737705757","long":"127.04910088","imageIndex":5,"items":[{"name":"리젠트모텔","tel":"031-826-4853","addr":"경기도 의정부시 의정부동 132-6번지","indutype":"숙박업 - 여관/기타숙박업","category":"hotel"},{"name":"리젠트모텔","tel":"031-826-4853","addr":"경기도 의정부시 의정부동 132-6번지","indutype":"숙박업 - 여관/기타숙박업","category":"hotel"}]},{"lat":"37.741265624","long":"127.0462327","imageIndex":5,"items":[{"name":"리치파크모텔","tel":"031-848-0789","addr":"경기도 의정부시 의정부동 211-20번지","indutype":"숙박업 - 여관/기타숙박업","category":"hotel"}]},{"lat":"37.736176862","long":"127.04151037","imageIndex":5,"items":[{"name":"메인","tel":"031-877-3925","addr":"경기도 의정부시 의정부동 504번지","indutype":"숙박업 - 여관/기타숙박업","category":"hotel"}]},{"lat":"37.736903217","long":"127.05082478","imageIndex":5,"items":[{"name":"명신장","tel":"031-877-4784","addr":"경기도 의정부시 의정부동 130-23번지","indutype":"숙박업 - 여관/기타숙박업","category":"hotel"}]},{"lat":"37.740767701","long":"127.05232485","imageIndex":5,"items":[{"name":"명품원룸텔","tel":"031-842-2657","addr":"경기도 의정부시 의정부동 33-5번지","indutype":"숙박업 - 여관/기타숙박업","category":"hotel"}]},{"lat":"37.740733871","long":"127.04674293","imageIndex":5,"items":[{"name":"모아모텔","tel":"031-846-5843","addr":"경기도 의정부시 의정부동 213-10번지","indutype":"숙박업 - 여관/기타숙박업","category":"hotel"}]},{"lat":"37.733796384","long":"127.04706782","imageIndex":5,"items":[{"name":"모텔시애틀","tel":"031-877-4555","addr":"경기도 의정부시 의정부동 167-8번지","indutype":"숙박업 - 여관/기타숙박업","category":"hotel"}]},{"lat":"37.738879567","long":"127.04201096","imageIndex":5,"items":[{"name":"몽모텔","tel":"031-872-2999","addr":"경기도 의정부시 의정부동 430-22번지","indutype":"숙박업 - 여관/기타숙박업","category":"hotel"}]},{"lat":"37.741902661","long":"127.05290423","imageIndex":5,"items":[{"name":"미라지모텔","tel":"031-841-3307","addr":"경기도 의정부시 의정부동 29-7번지","indutype":"숙박업 - 여관/기타숙박업","category":"hotel"}]},{"lat":"37.742319358","long":"127.04726576","imageIndex":5,"items":[{"name":"베네치아","tel":"031-844-0801","addr":"경기도 의정부시 의정부동 201-7번지","indutype":"숙박업 - 여관/기타숙박업","category":"hotel"}]},{"lat":"37.739572218","long":"127.04515393","imageIndex":5,"items":[{"name":"베네호텔","tel":"031-829-7381","addr":"경기도 의정부시 의정부동 437-5번지","indutype":"숙박업 - 여관/기타숙박업","category":"hotel"},{"name":"쉐르빌호텔","tel":"031-829-7381","addr":"경기도 의정부시 의정부동 437-5번지","indutype":"숙박업 - 여관/기타숙박업","category":"hotel"}]},{"lat":"37.743434472","long":"127.05246278","imageIndex":5,"items":[{"name":"브이아이피(VIP)모텔","tel":"","addr":"경기도 의정부시 의정부동 18-2번지","indutype":"숙박업 - 여관/기타숙박업","category":"hotel"},{"name":"제일여관","tel":"031-841-0564","addr":"경기도 의정부시 의정부동 18-2번지","indutype":"숙박업 - 여관/기타숙박업","category":"hotel"}]},{"lat":"37.740679481","long":"127.04762784","imageIndex":5,"items":[{"name":"생활형숙박","tel":"031-821-4856","addr":"경기도 의정부시 의정부동 197-10번지 3층 4층","indutype":"숙박업 - 여관/기타숙박업","category":"hotel"},{"name":"영동모텔","tel":"031-821-4856","addr":"경기도 의정부시 의정부동 197-10번지","indutype":"숙박업 - 여관/기타숙박업","category":"hotel"}]},{"lat":"37.740823552","long":"127.04784348","imageIndex":5,"items":[{"name":"서울장여인숙","tel":"031-841-6894","addr":"경기도 의정부시 의정부동 198-20번지","indutype":"숙박업 - 여관/기타숙박업","category":"hotel"}]},{"lat":"37.742569155","long":"127.05340388","imageIndex":5,"items":[{"name":"설악장여관","tel":"031-843-2980","addr":"경기도 의정부시 의정부동 22-6번지","indutype":"숙박업 - 여관/기타숙박업","category":"hotel"}]},{"lat":"37.743155295","long":"127.05217895","imageIndex":5,"items":[{"name":"수림모텔","tel":"031-848-8549","addr":"경기도 의정부시 의정부동 18-12번지","indutype":"숙박업 - 여관/기타숙박업","category":"hotel"}]},{"lat":"37.742795303","long":"127.05123702","imageIndex":5,"items":[{"name":"수정여인숙","tel":"031-000-0000","addr":"경기도 의정부시 의정부동 152-2번지","indutype":"숙박업 - 여관/기타숙박업","category":"hotel"}]},{"lat":"37.743677296","long":"127.05348406","imageIndex":5,"items":[{"name":"쉘모텔","tel":"031-840-4368","addr":"경기도 의정부시 의정부동 20-7번지","indutype":"숙박업 - 여관/기타숙박업","category":"hotel"}]},{"lat":"37.742426802","long":"127.04901305","imageIndex":5,"items":[{"name":"쉴모텔","tel":"031-843-7600","addr":"경기도 의정부시 의정부동 190-5번지","indutype":"숙박업 - 여관/기타숙박업","category":"hotel"}]},{"lat":"37.737462468","long":"127.04918014","imageIndex":5,"items":[{"name":"쉴모텔","tel":"031-877-6262","addr":"경기도 의정부시 의정부동 133-20번지","indutype":"숙박업 - 여관/기타숙박업","category":"hotel"}]},{"lat":"37.737462707","long":"127.04856752","imageIndex":5,"items":[{"name":"시마모텔","tel":"031-878-8778","addr":"경기도 의정부시 의정부동 133-34번지","indutype":"숙박업 - 여관/기타숙박업","category":"hotel"}]},{"lat":"37.741569355","long":"127.05279055","imageIndex":5,"items":[{"name":"시실리모텔","tel":"031-841-4887","addr":"경기도 의정부시 의정부동 31-5번지 지상 1~7층","indutype":"숙박업 - 여관/기타숙박업","category":"hotel"}]},{"lat":"37.743984126","long":"127.05229295","imageIndex":5,"items":[{"name":"시실리모텔","tel":"031-841-4887","addr":"경기도 의정부시 의정부동 16-1번지 탑빌딩","indutype":"숙박업 - 여관/기타숙박업","category":"hotel"}]},{"lat":"37.74210101","long":"127.05257534","imageIndex":5,"items":[{"name":"시오디","tel":"031-846-0900","addr":"경기도 의정부시 의정부동 24-5번지","indutype":"숙박업 - 여관/기타숙박업","category":"hotel"}]},{"lat":"37.735849756","long":"127.04917914","imageIndex":5,"items":[{"name":"싱글하우스","tel":"03-111-1111","addr":"경기도 의정부시 의정부동 136-8번지","indutype":"숙박업 - 여관/기타숙박업","category":"hotel"}]},{"lat":"37.730706037","long":"127.04723615","imageIndex":5,"items":[{"name":"썸모텔","tel":"031-877-3954","addr":"경기도 의정부시 의정부동 89-32번지","indutype":"숙박업 - 여관/기타숙박업","category":"hotel"}]},{"lat":"37.737375022","long":"127.04185134","imageIndex":5,"items":[{"name":"씨마호텔","tel":"031-871-1052","addr":"경기도 의정부시 의정부동 507-2번지","indutype":"숙박업 - 여관/기타숙박업","category":"hotel"},{"name":"씨마호텔","tel":"031-111-1111","addr":"경기도 의정부시 의정부동 507-2번지 1층","indutype":"숙박업 - 여관/기타숙박업","category":"hotel"}]},{"lat":"37.740902484","long":"127.05317584","imageIndex":5,"items":[{"name":"아담장여관","tel":"031-846-5717","addr":"경기도 의정부시 의정부동 32-16번지","indutype":"숙박업 - 여관/기타숙박업","category":"hotel"}]},{"lat":"37.74318209","long":"127.0527349","imageIndex":5,"items":[{"name":"아방궁여관","tel":"031-848-1917","addr":"경기도 의정부시 의정부동 21-17번지","indutype":"숙박업 - 여관/기타숙박업","category":"hotel"}]},{"lat":"37.742209862","long":"127.05079416","imageIndex":5,"items":[{"name":"안(  )모텔","tel":"070-1111-1111","addr":"경기도 의정부시 의정부동 154-6번지","indutype":"숙박업 - 여관/기타숙박업","category":"hotel"}]},{"lat":"37.741238695","long":"127.0459604","imageIndex":5,"items":[{"name":"안방여관","tel":"031-848-6483","addr":"경기도 의정부시 의정부동 211-12번지","indutype":"숙박업 - 여관/기타숙박업","category":"hotel"}]},{"lat":"37.741569153","long":"127.05326706","imageIndex":5,"items":[{"name":"알프스여관","tel":"031-844-4959","addr":"경기도 의정부시 의정부동 31-1","indutype":"숙박업 - 여관/기타숙박업","category":"hotel"},{"name":"초이스장","tel":"031-844-4959","addr":"경기도 의정부시 의정부동 31-1번지","indutype":"숙박업 - 여관/기타숙박업","category":"hotel"}]},{"lat":"37.732183671","long":"127.04706687","imageIndex":5,"items":[{"name":"에쿠스모텔","tel":"031-877-7785","addr":"경기도 의정부시 의정부동 91-7번지","indutype":"숙박업 - 여관/기타숙박업","category":"hotel"}]},{"lat":"37.736067772","long":"127.0443805","imageIndex":5,"items":[{"name":"엘 스테이 호텔(L-stay Hotel)","tel":"031-873-5398","addr":"경기도 의정부시 의정부동 499-11번지","indutype":"숙박업 - 여관/기타숙박업","category":"hotel"}]},{"lat":"37.736094595","long":"127.04495909","imageIndex":5,"items":[{"name":"엘리","tel":"031-877-8087","addr":"경기도 의정부시 의정부동 499-15번지","indutype":"숙박업 - 여관/기타숙박업","category":"hotel"}]},{"lat":"37.740679961","long":"127.04634582","imageIndex":5,"items":[{"name":"여우모텔","tel":"031-846-7289","addr":"경기도 의정부시 의정부동 212-8번지","indutype":"숙박업 - 여관/기타숙박업","category":"hotel"}]},{"lat":"37.742399433","long":"127.04987529","imageIndex":5,"items":[{"name":"올인모텔","tel":"031-846-2135","addr":"경기도 의정부시 의정부동 184-7번지","indutype":"숙박업 - 여관/기타숙박업","category":"hotel"},{"name":"올인모텔","tel":"031-846-2135","addr":"경기도 의정부시 의정부동 184-7번지","indutype":"숙박업 - 여관/기타숙박업","category":"hotel"}]},{"lat":"37.741956602","long":"127.05317656","imageIndex":5,"items":[{"name":"우정장","tel":"031-848-3031","addr":"경기도 의정부시 의정부동 29-13번지","indutype":"숙박업 - 여관/기타숙박업","category":"hotel"}]},{"lat":"37.7405154","long":"127.0524041","imageIndex":5,"items":[{"name":"월드모텔","tel":"031-843-4478","addr":"경기도 의정부시 의정부동 33-9번지","indutype":"숙박업 - 여관/기타숙박업","category":"hotel"}]},{"lat":"37.742814905","long":"127.04720933","imageIndex":5,"items":[{"name":"유성장여관","tel":"031-844-4356","addr":"경기도 의정부시 의정부동 205-13번지","indutype":"숙박업 - 여관/기타숙박업","category":"hotel"}]},{"lat":"37.741902943","long":"127.05223484","imageIndex":5,"items":[{"name":"유호장여관","tel":"031-856-5911","addr":"경기도 의정부시 의정부동 27-2번지","indutype":"숙박업 - 여관/기타숙박업","category":"hotel"}]},{"lat":"37.744344144","long":"127.05315548","imageIndex":5,"items":[{"name":"의정부관광호텔","tel":"031-841-0000","addr":"경기도 의정부시 의정부동 15-2번지","indutype":"숙박업 - 여관/기타숙박업","category":"hotel"}]},{"lat":"37.731435748","long":"127.04740674","imageIndex":5,"items":[{"name":"이조이모텔","tel":"031-875-2334","addr":"경기도 의정부시 의정부동 377-4번지","indutype":"숙박업 - 여관/기타숙박업","category":"hotel"},{"name":"주식회사 뱁티스트월드 (이조이모텔)","tel":"031-875-2334","addr":"경기도 의정부시 의정부동 377-4번지 이조이모텔","indutype":"숙박업 - 여관/기타숙박업","category":"hotel"}]},{"lat":"37.736517944","long":"127.04524295","imageIndex":5,"items":[{"name":"일루와호텔","tel":"","addr":"경기도 의정부시 의정부동 498-5번지","indutype":"숙박업 - 여관/기타숙박업","category":"hotel"}]},{"lat":"37.73559781","long":"127.04835083","imageIndex":5,"items":[{"name":"잉카모텔","tel":"031-829-9595","addr":"경기도 의정부시 의정부동 138-13번지","indutype":"숙박업 - 여관/기타숙박업","category":"hotel"}]},{"lat":"37.7406506","long":"127.05226805","imageIndex":5,"items":[{"name":"자이모텔","tel":"031-841-9505","addr":"경기도 의정부시 의정부동 33-7번지 지상 1-6층","indutype":"숙박업 - 여관/기타숙박업","category":"hotel"}]},{"lat":"37.736067724","long":"127.04451664","imageIndex":5,"items":[{"name":"잠자리 모텔","tel":"031-826-7931","addr":"경기도 의정부시 의정부동 499-10번지","indutype":"숙박업 - 여관/기타숙박업","category":"hotel"}]},{"lat":"37.743461077","long":"127.05346122","imageIndex":5,"items":[{"name":"장미장","tel":"031-848-2544","addr":"경기도 의정부시 의정부동 20-9번지","indutype":"숙박업 - 여관/기타숙박업","category":"hotel"}]},{"lat":"37.737291674","long":"127.04818169","imageIndex":5,"items":[{"name":"장수파크","tel":"031-877-6484","addr":"경기도 의정부시 의정부동 140-16번지","indutype":"숙박업 - 여관/기타숙박업","category":"hotel"}]},{"lat":"37.735043865","long":"127.03404513","imageIndex":5,"items":[{"name":"재단법인 의정부시청소년육성재단","tel":"031-828-9522","addr":"경기도 의정부시 의정부동 352번지","indutype":"숙박업 - 여관/기타숙박업","category":"hotel"}]},{"lat":"37.740767399","long":"127.05303961","imageIndex":5,"items":[{"name":"정원여관","tel":"031-846-0600","addr":"경기도 의정부시 의정부동 32-7번지","indutype":"숙박업 - 여관/기타숙박업","category":"hotel"}]},{"lat":"37.74256945","long":"127.0527118","imageIndex":5,"items":[{"name":"첼로모텔","tel":"031-843-1536","addr":"경기도 의정부시 의정부동 22-10번지","indutype":"숙박업 - 여관/기타숙박업","category":"hotel"}]},{"lat":"37.737067758","long":"127.04459661","imageIndex":5,"items":[{"name":"초콜릿모텔","tel":"031-876-5557","addr":"경기도 의정부시 의정부동 497-3번지","indutype":"숙박업 - 여관/기타숙박업","category":"hotel"},{"name":"초콜릿모텔","tel":"031-876-5557","addr":"경기도 의정부시 의정부동 497-3번지","indutype":"숙박업 - 여관/기타숙박업","category":"hotel"}]},{"lat":"37.737372274","long":"127.04942967","imageIndex":5,"items":[{"name":"카라모텔","tel":"031-875-3636","addr":"경기도 의정부시 의정부동 133-9번지","indutype":"숙박업 - 여관/기타숙박업","category":"hotel"}]},{"lat":"37.740597175","long":"127.0507364","imageIndex":5,"items":[{"name":"카리브모텔","tel":"031-821-6861","addr":"경기도 의정부시 의정부동 157-24번지","indutype":"숙박업 - 여관/기타숙박업","category":"hotel"}]},{"lat":"37.736852095","long":"127.04296285","imageIndex":5,"items":[{"name":"케일라","tel":"031-878-0303","addr":"경기도 의정부시 의정부동 502-2번지","indutype":"숙박업 - 여관/기타숙박업","category":"hotel"},{"name":"케일라(Kayla)","tel":"031-878-0303","addr":"경기도 의정부시 의정부동 502-2번지","indutype":"숙박업 - 여관/기타숙박업","category":"hotel"}]},{"lat":"37.731102466","long":"127.04721369","imageIndex":5,"items":[{"name":"큐모텔","tel":"031-871-4969","addr":"경기도 의정부시 의정부동 89-33번지","indutype":"숙박업 - 여관/기타숙박업","category":"hotel"}]},{"lat":"37.736491097","long":"127.04473242","imageIndex":5,"items":[{"name":"큐브","tel":"031-873-2566","addr":"경기도 의정부시 의정부동 498-14번지","indutype":"숙박업 - 여관/기타숙박업","category":"hotel"}]},{"lat":"37.731769209","long":"127.04712334","imageIndex":5,"items":[{"name":"탑모텔","tel":"031-877-2892","addr":"경기도 의정부시 의정부동 90번지","indutype":"숙박업 - 여관/기타숙박업","category":"hotel"}]},{"lat":"37.742398961","long":"127.05104389","imageIndex":5,"items":[{"name":"테마장여인숙","tel":"031-845-8140","addr":"경기도 의정부시 의정부동 152-27번지","indutype":"숙박업 - 여관/기타숙박업","category":"hotel"}]},{"lat":"37.737374837","long":"127.04240723","imageIndex":5,"items":[{"name":"투윈스","tel":"031-871-2143","addr":"경기도 의정부시 의정부동 507-4번지","indutype":"숙박업 - 여관/기타숙박업","category":"hotel"}]},{"lat":"37.730435252","long":"127.04854052","imageIndex":5,"items":[{"name":"투투파크","tel":"031-875-9546","addr":"경기도 의정부시 의정부동 386-9번지","indutype":"숙박업 - 여관/기타숙박업","category":"hotel"}]},{"lat":"37.742454865","long":"127.04629012","imageIndex":5,"items":[{"name":"파라다이스","tel":"031-843-8644","addr":"경기도 의정부시 의정부동 209-12번지","indutype":"숙박업 - 여관/기타숙박업","category":"hotel"}]},{"lat":"37.74154395","long":"127.04879694","imageIndex":5,"items":[{"name":"포유","tel":"031-856-9956","addr":"경기도 의정부시 의정부동 192-3번지","indutype":"숙박업 - 여관/기타숙박업","category":"hotel"}]},{"lat":"37.743037667","long":"127.05337016","imageIndex":5,"items":[{"name":"프라자모텔","tel":"031-844-1212","addr":"경기도 의정부시 의정부동 21-13번지 ,1-7층","indutype":"숙박업 - 여관/기타숙박업","category":"hotel"}]},{"lat":"37.735516627","long":"127.04860036","imageIndex":5,"items":[{"name":"프라하","tel":"031-874-1616","addr":"경기도 의정부시 의정부동 136-44번지","indutype":"숙박업 - 여관/기타숙박업","category":"hotel"}]},{"lat":"37.736905585","long":"127.04459652","imageIndex":5,"items":[{"name":"프로방스","tel":"031-871-2748","addr":"경기도 의정부시 의정부동 497-9번지","indutype":"숙박업 - 여관/기타숙박업","category":"hotel"}]},{"lat":"37.740878171","long":"127.04634593","imageIndex":5,"items":[{"name":"플라워모텔","tel":"031-847-2345","addr":"경기도 의정부시 의정부동 212-1번지","indutype":"숙박업 - 여관/기타숙박업","category":"hotel"}]},{"lat":"37.742434402","long":"127.0524848","imageIndex":5,"items":[{"name":"피아노모텔","tel":"031-846-0910","addr":"경기도 의정부시 의정부동 24-15번지 ,1-5층","indutype":"숙박업 - 여관/기타숙박업","category":"hotel"},{"name":"피아노모텔","tel":"031-848-0910","addr":"경기도 의정부시 의정부동 24-15번지","indutype":"숙박업 - 여관/기타숙박업","category":"hotel"}]},{"lat":"37.736265798","long":"127.04490247","imageIndex":5,"items":[{"name":"필모텔","tel":"031-879-0052","addr":"경기도 의정부시 의정부동 499-5번지","indutype":"숙박업 - 여관/기타숙박업","category":"hotel"}]},{"lat":"37.737958136","long":"127.04881741","imageIndex":5,"items":[{"name":"하남여인숙","tel":"031-877-3579","addr":"경기도 의정부시 의정부동 132-22번지","indutype":"숙박업 - 여관/기타숙박업","category":"hotel"}]},{"lat":"37.742316994","long":"127.05315411","imageIndex":5,"items":[{"name":"하트모텔","tel":"031-843-0255","addr":"경기도 의정부시 의정부동 23-8번지 1층","indutype":"숙박업 - 여관/기타숙박업","category":"hotel"}]},{"lat":"37.742154895","long":"127.05298382","imageIndex":5,"items":[{"name":"한도장","tel":"031-841-2216","addr":"경기도 의정부시 의정부동 23-3번지","indutype":"숙박업 - 여관/기타숙박업","category":"hotel"}]},{"lat":"37.737371715","long":"127.05082508","imageIndex":5,"items":[{"name":"한일여관","tel":"031-877-3803","addr":"경기도 의정부시 의정부동 131-29번지","indutype":"숙박업 - 여관/기타숙박업","category":"hotel"}]},{"lat":"37.736238898","long":"127.04453942","imageIndex":5,"items":[{"name":"호텔 야자 의정부역점","tel":"031-877-8631","addr":"경기도 의정부시 의정부동 499-3번지","indutype":"숙박업 - 여관/기타숙박업","category":"hotel"}]},{"lat":"37.742650631","long":"127.05248494","imageIndex":5,"items":[{"name":"호텔 일루젼","tel":"031-848-5777","addr":"경기도 의정부시 의정부동 24-4번지","indutype":"숙박업 - 여관/기타숙박업","category":"hotel"}]},{"lat":"37.737293145","long":"127.04417698","imageIndex":5,"items":[{"name":"호텔XYM(premier)","tel":"031-000-0000","addr":"경기도 의정부시 의정부동 496-7번지","indutype":"숙박업 - 여관/기타숙박업","category":"hotel"}]},{"lat":"37.743848478","long":"127.05348417","imageIndex":5,"items":[{"name":"호텔달동네","tel":"031-844-4758","addr":"경기도 의정부시 의정부동 20-3번지","indutype":"숙박업 - 여관/기타숙박업","category":"hotel"}]},{"lat":"37.742128168","long":"127.05226903","imageIndex":5,"items":[{"name":"호텔라인","tel":"031-844-5100","addr":"경기도 의정부시 의정부동 24-12번지 1층","indutype":"숙박업 - 여관/기타숙박업","category":"hotel"}]},{"lat":"37.736680128","long":"127.04520901","imageIndex":5,"items":[{"name":"호텔버스","tel":"031-855-8510","addr":"경기도 의정부시 의정부동 498-4번지","indutype":"숙박업 - 여관/기타숙박업","category":"hotel"}]},{"lat":"37.73760066","long":"127.04062621","imageIndex":5,"items":[{"name":"호텔붐(Hotel Boom)","tel":"031-829-2001","addr":"경기도 의정부시 의정부동 492-14번지","indutype":"숙박업 - 여관/기타숙박업","category":"hotel"}]},{"lat":"37.742767756","long":"127.05248502","imageIndex":5,"items":[{"name":"호텔스타루비","tel":"031-841-9028","addr":"경기도 의정부시 의정부동 24-19번지","indutype":"숙박업 - 여관/기타숙박업","category":"hotel"}]},{"lat":"37.736455342","long":"127.04392693","imageIndex":5,"items":[{"name":"호텔유","tel":"031-837-1700","addr":"경기도 의정부시 의정부동 498-9번지 ,1-9층","indutype":"숙박업 - 여관/기타숙박업","category":"hotel"}]},{"lat":"37.741373333","long":"127.04732193","imageIndex":5,"items":[{"name":"호텔헤드원","tel":"031-847-5200","addr":"경기도 의정부시 의정부동 200-16번지","indutype":"숙박업 - 여관/기타숙박업","category":"hotel"}]},{"lat":"37.743093637","long":"127.04868444","imageIndex":5,"items":[{"name":"황해장","tel":"031-842-4788","addr":"경기도 의정부시 의정부동 187-14번지","indutype":"숙박업 - 여관/기타숙박업","category":"hotel"}]},{"lat":"37.74298388","long":"127.05273477","imageIndex":5,"items":[{"name":"휠모텔","tel":"031-844-0284","addr":"경기도 의정부시 의정부동 21-6번지","indutype":"숙박업 - 여관/기타숙박업","category":"hotel"}]},{"lat":"37.736238966","long":"127.04434656","imageIndex":5,"items":[{"name":"휴모텔","tel":"031-826-2476","addr":"경기도 의정부시 의정부동 499-2번지","indutype":"숙박업 - 여관/기타숙박업","category":"hotel"},{"name":"휴모텔","tel":"031-826-2476","addr":"경기도 의정부시 의정부동 499-2번지","indutype":"숙박업 - 여관/기타숙박업","category":"hotel"}]}]