[{"lat":"37.487147268","long":"126.75577066","imageIndex":17,"items":[{"name":"(주) 4989마켓","tel":"","addr":"경기도 부천시 송내동 346번지 1층","indutype":"사무통신 - 컴퓨터","category":"other"}]},{"lat":"37.483655078","long":"126.77091001","imageIndex":17,"items":[{"name":"(주)강산렌터카경인영업소","tel":"032-666-7793","addr":"경기도 부천시 송내동 578번지 외3필지 아이홈 B06호","indutype":"여행 - 렌터카","category":"other"}]},{"lat":"37.48481856","long":"126.75810747","imageIndex":17,"items":[{"name":"(주)록원","tel":"02-579-0032","addr":"경기도 부천시 송내동 335-12번지 지층102,301호","indutype":"전기제품 - 가전제품","category":"other"}]},{"lat":"37.483680083","long":"126.76988106","imageIndex":17,"items":[{"name":"(주)문화교연부천지사","tel":"032-656-2227","addr":"경기도 부천시 송내동 586번지 삼화빌딩 3층","indutype":"서적문구 - 전문서적","category":"other"},{"name":"에벤에셀광고사","tel":"032-655-3946","addr":"경기도 부천시 송내동 586번지","indutype":"용역 서비스 - 종합용역","category":"other"}]},{"lat":"37.486396887","long":"126.75030068","imageIndex":17,"items":[{"name":"(주)백산인더스트리비에스아이","tel":"02-1577-6959","addr":"경기도 부천시 송내동 697-12번지 1층","indutype":"주방용구 - 주방용식기","category":"other"}]},{"lat":"37.484066695","long":"126.77407452","imageIndex":17,"items":[{"name":"(주)부성상사","tel":"032-611-0077","addr":"경기도 부천시 송내동 572-9번지","indutype":"의류 - 정장","category":"other"},{"name":"조희순주단","tel":"032-655-6225","addr":"경기도 부천시 송내동 572-9번지 2층","indutype":"의류 - 맞춤복점","category":"other"}]},{"lat":"37.483594355","long":"126.77210866","imageIndex":17,"items":[{"name":"(주)부천가로수","tel":"032-653-3300","addr":"경기도 부천시 송내동 577번지","indutype":"서적문구 - 출판 및 인쇄물","category":"other"},{"name":"(주)부천가로수(수기)","tel":"032-653-3300","addr":"경기도 부천시 송내동 577번지","indutype":"서적문구 - 출판 및 인쇄물","category":"other"}]},{"lat":"37.485653257","long":"126.75227053","imageIndex":17,"items":[{"name":"(주)부천방재","tel":"032-668-6100","addr":"경기도 부천시 송내동 707-1번지 트리플렉스 201호","indutype":"용역 서비스 - 기타용역서비스","category":"other"},{"name":"에이엔티(ANT)","tel":"032-665-0138","addr":"경기도 부천시 송내동 707-1번지 상동트리플렉스1 101호","indutype":"서적문구 - 과학기자재","category":"other"}]},{"lat":"37.479926431","long":"126.76710019","imageIndex":17,"items":[{"name":"(주)수양에코","tel":"032-652-9630","addr":"경기도 부천시 송내동 439-3번지 1층","indutype":"전기제품 - 기타전기제품","category":"other"}]},{"lat":"37.483376677","long":"126.76235202","imageIndex":17,"items":[{"name":"(주)시현","tel":"032-668-3307","addr":"경기도 부천시 송내동 396-4번지","indutype":"용역 서비스 - 소프트웨어","category":"other"},{"name":"(주)창성","tel":"032-663-2300","addr":"경기도 부천시 송내동 396-4번지","indutype":"사무통신 - 통신기기","category":"other"},{"name":"(주)창성","tel":"032-323-3011","addr":"경기도 부천시 송내동 396-4번지","indutype":"사무통신 - 통신기기(무이자할부)","category":"other"},{"name":"(주)창성/LG할부","tel":"032-1-1","addr":"경기도 부천시 송내동 396-4번지","indutype":"사무통신 - 통신기기(무이자할부)","category":"other"},{"name":"(주)창성_PS","tel":"032-1-1","addr":"경기도 부천시 송내동 396-4번지","indutype":"사무통신 - 통신기기","category":"other"},{"name":"강아지에반하다","tel":"070-7350-7678","addr":"경기도 부천시 송내동 396-4번지 광성빌딩 1층 일부","indutype":"문화.취미 - 애완동물","category":"other"},{"name":"동명켐","tel":"070-8622-7387","addr":"경기도 부천시 송내동 396-4번지 광성빌딩 5층 509호","indutype":"서적문구 - 과학기자재","category":"other"},{"name":"박정민컬렉션","tel":"032-667-0709","addr":"경기도 부천시 송내동 396-4번지 광성빌딩 2층","indutype":"의류 - 정장","category":"other"}]},{"lat":"37.486091734","long":"126.75085574","imageIndex":17,"items":[{"name":"(주)아이엔유저","tel":"032-663-8600","addr":"경기도 부천시 송내동 701-11번지 1층","indutype":"사무통신 - 기타 사무용품","category":"other"},{"name":"미래OA시스템","tel":"032-662-5431","addr":"경기도 부천시 송내동 701-11번지 1층","indutype":"사무통신 - 사무용 OA기기","category":"other"}]},{"lat":"37.484316207","long":"126.76358141","imageIndex":17,"items":[{"name":"(주)여가투어","tel":"032-667-3355","addr":"경기도 부천시 송내동 352번지 1층","indutype":"여행 - 관광여행","category":"other"}]},{"lat":"37.483649202","long":"126.76793647","imageIndex":17,"items":[{"name":"(주)영광스텐153","tel":"032-000-0000","addr":"경기도 부천시 송내동 383-14번지","indutype":"건축자재 - 기타건축자재","category":"other"},{"name":"재다/원격지","tel":"031-451-2764","addr":"경기도 부천시 송내동 383-14번지 3층","indutype":"기타 - 기타 전문점","category":"other"}]},{"lat":"37.479177165","long":"126.76637898","imageIndex":17,"items":[{"name":"(주)이레아트","tel":"032-667-6055","addr":"경기도 부천시 송내동 464-2번지 지하1층","indutype":"서적문구 - 완구점","category":"other"},{"name":"대한예수교장로회동현교회","tel":"032-613-1372","addr":"경기도 부천시 송내동 464-2번지","indutype":"기타 - 비영리/대상","category":"other"},{"name":"후스킨케어","tel":"032-655-6071","addr":"경기도 부천시 송내동 464-2번지 1층","indutype":"회원제형태 - 기타4","category":"other"}]},{"lat":"37.482653742","long":"126.76130287","imageIndex":17,"items":[{"name":"(주)인성어패럴","tel":"032-611-5661","addr":"경기도 부천시 송내동 400-22번지 송내포레스트","indutype":"의류 - 맞춤복점","category":"other"}]},{"lat":"37.486066847","long":"126.75186211","imageIndex":17,"items":[{"name":"(주)제이파트너","tel":"032-1800-4843","addr":"경기도 부천시 송내동 705-11번지 1층","indutype":"주방용구 - 정수기","category":"other"}]},{"lat":"37.486402082","long":"126.75274292","imageIndex":17,"items":[{"name":"(주)초아정보통신_PS","tel":"032-426-2000","addr":"경기도 부천시 송내동 709-5번지 한솔프라자 102호","indutype":"사무통신 - 통신기기","category":"other"},{"name":"GS25송내남부역점","tel":"","addr":"경기도 부천시 송내동 709-5번지 104호","indutype":"유통업 영리 - 편 의 점","category":"other"}]},{"lat":"37.486040105","long":"126.75199788","imageIndex":17,"items":[{"name":"(주)태림네트웍스","tel":"032-342-7019","addr":"경기도 부천시 송내동 705-10번지","indutype":"사무통신 - 통신기기","category":"other"}]},{"lat":"37.487905004","long":"126.74771762","imageIndex":17,"items":[{"name":"(주)퍼시즌투어","tel":"032-326-7788","addr":"경기도 부천시 송내동 632-4번지 송내역사","indutype":"여행 - 관광여행","category":"other"},{"name":"아름다운광고","tel":"032-323-7784","addr":"경기도 부천시 송내동 632-4번지 1층","indutype":"용역 서비스 - 종합용역","category":"other"}]},{"lat":"37.486066198","long":"126.75155683","imageIndex":17,"items":[{"name":"(주)한국산업경제","tel":"032-684-1338","addr":"경기도 부천시 송내동 701-7번지 1층","indutype":"서적문구 - 출판 및 인쇄물","category":"other"}]},{"lat":"37.481485578","long":"126.77187772","imageIndex":17,"items":[{"name":"(주)한비티에스","tel":"032-322-4988","addr":"경기도 부천시 송내동 593-24번지 1층","indutype":"건축자재 - 건축용 요업제품","category":"other"},{"name":"서울에어컨설치판매","tel":"","addr":"경기도 부천시 송내동 593-24번지 1층","indutype":"용역 서비스 - 기타용역서비스","category":"other"}]},{"lat":"37.483760413","long":"126.76949639","imageIndex":17,"items":[{"name":"(주)휴머스","tel":"032-000-0000","addr":"경기도 부천시 송내동 381-3번지 2층 201호","indutype":"전기제품 - 가전제품","category":"other"},{"name":"강남공인중개사사무소","tel":"032-667-7577","addr":"경기도 부천시 송내동 381-3번지","indutype":"용역 서비스 - 부동산 중개·임대","category":"other"},{"name":"늘푸른광고기획","tel":"032-225-0023","addr":"경기도 부천시 송내동 381-3번지 1층","indutype":"용역 서비스 - 종합용역","category":"other"},{"name":"송내한일사","tel":"032-668-2867","addr":"경기도 부천시 송내동 381-3번지 102호","indutype":"건축자재 - 보일러·펌프·샷시","category":"other"},{"name":"슈퍼컴퓨터","tel":"032-661-2544","addr":"경기도 부천시 송내동 381-3번지 1층","indutype":"사무통신 - 컴퓨터","category":"other"}]},{"lat":"37.483377092","long":"126.76255553","imageIndex":17,"items":[{"name":"1004플라워","tel":"032-662-7232","addr":"경기도 부천시 송내동 396-2번지","indutype":"문화.취미 - 화원","category":"other"}]},{"lat":"37.486855283","long":"126.75833827","imageIndex":17,"items":[{"name":"24시 수도설비","tel":"","addr":"경기도 부천시 송내동 336-6번지 동신아파트","indutype":"용역 서비스 - 종합용역","category":"other"}]},{"lat":"37.484404589","long":"126.7540272","imageIndex":17,"items":[{"name":"4레인(SA LANE)","tel":"","addr":"경기도 부천시 송내동 315-3번지 송내역파인프로지오2단지 B208, B209","indutype":"레져용품 - 스포츠·레져용품","category":"other"},{"name":"로사리움(rosarium)","tel":"070-4643-2118","addr":"경기도 부천시 송내동 315-3번지 송내역파인푸르지오2단지 상가동 지층 101호","indutype":"문화.취미 - 화원","category":"other"},{"name":"이레","tel":"","addr":"경기도 부천시 송내동 315-3번지 송내역파인푸르지오2단지 상가동 2층 비201호","indutype":"의류 - 정장","category":"other"},{"name":"케이앤엘바이오(KNLBIO)","tel":"","addr":"경기도 부천시 송내동 315-3번지 송내역파인푸르지오2단지","indutype":"서적문구 - 과학기자재","category":"other"},{"name":"한국우쿨렐레교육원","tel":"02-325-3933","addr":"경기도 부천시 송내동 315-3번지 송내역파인푸르지오2단지 상가동 지1층 비104호","indutype":"레져용품 - 악기점","category":"other"}]},{"lat":"37.485179508","long":"126.76724198","imageIndex":17,"items":[{"name":"AINS WORLD(아인스월드)","tel":"032-612-1662","addr":"경기도 부천시 송내동 377-7번지 부천 중동역 2차 푸르지오 A단지","indutype":"회원제형태 - 기타4","category":"other"},{"name":"GS25송내푸르지오점","tel":"","addr":"경기도 부천시 송내동 377-7번지 부천중동역 2차 푸르지오 A단지 상가동 103호,104호","indutype":"유통업 영리 - 편 의 점","category":"other"},{"name":"대우명품세탁소","tel":"032-668-7477","addr":"경기도 부천시 송내동 377-7번지 부천중동역2차푸르지오A단지상가101호","indutype":"수리서비스 - 세탁소","category":"other"},{"name":"아기자기","tel":"032-678-7879","addr":"경기도 부천시 송내동 377-7번지 부천 중동역 2차 푸르지오 A단지","indutype":"직물 - 침구·수예점","category":"other"},{"name":"이지켐","tel":"032-612-2767","addr":"경기도 부천시 송내동 377-7번지 부천 중동역 2차 푸르지오 A단지","indutype":"서적문구 - 과학기자재","category":"other"},{"name":"하이 (HI) 그루터기","tel":"","addr":"경기도 부천시 송내동 377-7번지 부천 중동역 2차 푸르지오 A단지","indutype":"서적문구 - 출판 및 인쇄물","category":"other"}]},{"lat":"37.486512899","long":"126.75402021","imageIndex":17,"items":[{"name":"GNB영어교육부천본부","tel":"032-651-9611","addr":"경기도 부천시 송내동 299-6번지 송내테크노밸리","indutype":"회원제형태 - 서적","category":"other"},{"name":"나우애드","tel":"032-665-2768","addr":"경기도 부천시 송내동 299-6번지 401B호","indutype":"전기제품 - 기타전기제품","category":"other"},{"name":"세영과학","tel":"032-656-2410","addr":"경기도 부천시 송내동 299-6번지 송내테크노밸리 701호","indutype":"서적문구 - 과학기자재","category":"other"},{"name":"위니드교육 인천경기권역","tel":"032-212-9612","addr":"경기도 부천시 송내동 299-6번지 송내테크노밸리 7층 703호","indutype":"서적문구 - 기타서적문구","category":"other"},{"name":"윙스데이타시스템","tel":"032-655-6965","addr":"경기도 부천시 송내동 299-6번지 송내테크노밸리 604호","indutype":"사무통신 - 컴퓨터","category":"other"},{"name":"정우초음파산업","tel":"032-655-5866","addr":"경기도 부천시 송내동 299-6번지 송내테크노벨리 B08호","indutype":"기타 - 기계공구","category":"other"},{"name":"침향인","tel":"032-322-7977","addr":"경기도 부천시 송내동 299-6번지 송내테크노벨리 702호","indutype":"신변잡화 - 기념품점","category":"other"}]},{"lat":"37.483675692","long":"126.76766503","imageIndex":17,"items":[{"name":"GS25부천메디홀스점","tel":"080-555-2525","addr":"경기도 부천시 송내동 383-16번지","indutype":"유통업 영리 - 편 의 점","category":"other"},{"name":"그리고 봄","tel":"032-665-8070","addr":"경기도 부천시 송내동 383-16번지 1층 102호","indutype":"문화.취미 - 화원","category":"other"},{"name":"부천데이터복구 KDT/스마트폰","tel":"070-8031-4038","addr":"경기도 부천시 송내동 383-16번지 삼경빌딩 101호","indutype":"용역 서비스 - 사무서비스","category":"other"},{"name":"화신전기조명공사","tel":"032-651-1123","addr":"경기도 부천시 송내동 383-16번지","indutype":"건축자재 - 조명기구","category":"other"}]},{"lat":"37.486321028","long":"126.74438753","imageIndex":17,"items":[{"name":"GS25부천송내고점","tel":"","addr":"경기도 부천시 송내동 693-7번지 1층","indutype":"유통업 영리 - 편 의 점","category":"other"}]},{"lat":"37.483870468","long":"126.76149116","imageIndex":17,"items":[{"name":"GS25부천직업학교점","tel":"","addr":"경기도 부천시 송내동 366번지 상승프라자 103호","indutype":"유통업 영리 - 편 의 점","category":"other"},{"name":"엄지의류","tel":"032-612-4438","addr":"경기도 부천시 송내동 366번지","indutype":"의류 - 정장","category":"other"}]},{"lat":"37.484655241","long":"126.77094084","imageIndex":17,"items":[{"name":"GS25송내기쁨점","tel":"","addr":"경기도 부천시 송내동 561-1번지 1층","indutype":"유통업 영리 - 편 의 점","category":"other"}]},{"lat":"37.48001326","long":"126.76999419","imageIndex":17,"items":[{"name":"GS25송내삼익점","tel":"","addr":"경기도 부천시 송내동 609번지 1층","indutype":"유통업 영리 - 편 의 점","category":"other"}]},{"lat":"37.479259474","long":"126.76698923","imageIndex":17,"items":[{"name":"GS25송내성주로점","tel":"","addr":"경기도 부천시 송내동 463-62번지 지하1층","indutype":"유통업 영리 - 편 의 점","category":"other"},{"name":"아이템플 에듀 부천","tel":"032-679-6316","addr":"경기도 부천시 송내동 463-62번지 2층","indutype":"서적문구 - 일반서적","category":"other"},{"name":"올리브자원","tel":"032-224-1010","addr":"경기도 부천시 송내동 463-62번지 동원상가 1동 휴대폰매장","indutype":"신변잡화 - 액세서리","category":"other"},{"name":"이주현옷방","tel":"032-612-5917","addr":"경기도 부천시 송내동 463-62번지 109호","indutype":"의류 - 정장","category":"other"},{"name":"하랑합기도장","tel":"032-614-1255","addr":"경기도 부천시 송내동 463-62번지 2층","indutype":"회원제형태 - 레져업소","category":"other"}]},{"lat":"37.483734922","long":"126.77027661","imageIndex":17,"items":[{"name":"GS25송내제일점","tel":"","addr":"경기도 부천시 송내동 581번지 1층","indutype":"유통업 영리 - 편 의 점","category":"other"}]},{"lat":"37.478960089","long":"126.76596136","imageIndex":17,"items":[{"name":"GS25송내현대점","tel":"","addr":"경기도 부천시 송내동 450-3번지 유진프라자 B01호","indutype":"유통업 영리 - 편 의 점","category":"other"},{"name":"깔끔이세탁","tel":"032-651-5133","addr":"경기도 부천시 송내동 450-3번지 유진프라자제 B층 04호","indutype":"수리서비스 - 세탁소","category":"other"}]},{"lat":"37.486620647","long":"126.76254514","imageIndex":17,"items":[{"name":"GS25중동뉴서울점","tel":"","addr":"경기도 부천시 송내동 523-4번지","indutype":"유통업 영리 - 편 의 점","category":"other"}]},{"lat":"37.482176907","long":"126.75726813","imageIndex":17,"items":[{"name":"GS자이공인중개사사무소","tel":"032-611-9777","addr":"경기도 부천시 송내동 409번지 지층 8호 1 송내자이제상가동","indutype":"용역 서비스 - 부동산 중개·임대","category":"other"},{"name":"자이명품 세탁소","tel":"032-652-1188","addr":"경기도 부천시 송내동 409번지 송내자이 상가 103호","indutype":"수리서비스 - 세탁소","category":"other"},{"name":"주식회사 반려세상","tel":"02-1111-1111","addr":"경기도 부천시 송내동 409번지 송내자이 102동 1304호","indutype":"문화.취미 - 애완동물","category":"other"},{"name":"피오니어라이팅","tel":"032-676-8354","addr":"경기도 부천시 송내동 409번지 송내자이 상가동 104호","indutype":"건축자재 - 조명기구","category":"other"},{"name":"피오니어라이팅","tel":"032-676-8354","addr":"경기도 부천시 송내동 409번지 송내자이 상가동 104호","indutype":"건축자재 - 조명기구","category":"other"}]},{"lat":"37.4872382","long":"126.74354766","imageIndex":17,"items":[{"name":"HG종합공사","tel":"070-7124-9595","addr":"경기도 부천시 송내동 689-10번지 1층","indutype":"건축자재 - 인테리어전문","category":"other"}]},{"lat":"37.485789363","long":"126.75272235","imageIndex":17,"items":[{"name":"JST","tel":"032-614-6146","addr":"경기도 부천시 송내동 708-1번지 1층","indutype":"사무통신 - 컴퓨터","category":"other"},{"name":"씨유송내남부역점","tel":"032-662-3081","addr":"경기도 부천시 송내동 708-1번지 1층 1호","indutype":"유통업 영리 - 편 의 점","category":"other"}]},{"lat":"37.483732332","long":"126.76896508","imageIndex":17,"items":[{"name":"LGDigitalSystem","tel":"032-666-2241","addr":"경기도 부천시 송내동 381번지 송산빌딩 6층","indutype":"사무통신 - 기타 사무용품","category":"other"},{"name":"토즈 멤버쉽라운지 송내센터","tel":"032-611-1557","addr":"경기도 부천시 송내동 381번지 5층 501호 일부","indutype":"용역 서비스 - 사무서비스","category":"other"}]},{"lat":"37.485202524","long":"126.75215897","imageIndex":17,"items":[{"name":"Max주방설비","tel":"032-664-5875","addr":"경기도 부천시 송내동 707-7번지","indutype":"주방용구 - 주방용구","category":"other"}]},{"lat":"37.48451708","long":"126.77401661","imageIndex":17,"items":[{"name":"M종합설비","tel":"032-654-2961","addr":"경기도 부천시 송내동 571-10번지","indutype":"용역 서비스 - 기타용역서비스","category":"other"},{"name":"신우정보","tel":"032-657-8124","addr":"경기도 부천시 송내동 571-10번지","indutype":"사무통신 - 사무용 OA기기","category":"other"},{"name":"황후뷰티샵","tel":"031-222-8842","addr":"경기도 부천시 송내동 571-10번지 1층 일부","indutype":"회원제형태 - 기타4","category":"other"}]},{"lat":"37.486960814","long":"126.75279759","imageIndex":17,"items":[{"name":"SG루치아","tel":"032-656-3031","addr":"경기도 부천시 송내동 709-1번지 송내코아 5층","indutype":"신변잡화 - 액세서리","category":"other"},{"name":"민스튜디오","tel":"070-4250-1212","addr":"경기도 부천시 송내동 709-1번지 송내코아 지하1층 10호","indutype":"광학제품 - 사진관","category":"other"},{"name":"송내리본","tel":"032-612-3700","addr":"경기도 부천시 송내동 709-1번지 1층 102호","indutype":"의류 - 정장","category":"other"}]},{"lat":"37.485098849","long":"126.75858143","imageIndex":17,"items":[{"name":"STUDIO ARAE","tel":"032-215-0074","addr":"경기도 부천시 송내동 335-14번지 열린빌딩 4층","indutype":"광학제품 - 사진관","category":"other"}]},{"lat":"37.485627114","long":"126.75268897","imageIndex":17,"items":[{"name":"Tera텔레콤","tel":"032-666-5729","addr":"경기도 부천시 송내동 708-2번지 가원빌딩 403호","indutype":"수리서비스 - 가정용품수리","category":"other"}]},{"lat":"37.48625986","long":"126.75365923","imageIndex":17,"items":[{"name":"kt","tel":"032-656-0702","addr":"경기도 부천시 송내동 299-4번지 1층","indutype":"사무통신 - 통신기기","category":"other"},{"name":"부천행정사사무소","tel":"032-665-6661","addr":"경기도 부천시 송내동 299-4번지 솔가람빌딩 305호","indutype":"용역 서비스 - 법률회계서비스(개인)","category":"other"},{"name":"하얀피부사랑","tel":"032-330-8339","addr":"경기도 부천시 송내동 299-4번지 3층","indutype":"회원제형태 - 기타4","category":"other"}]},{"lat":"37.484092914","long":"126.7736561","imageIndex":17,"items":[{"name":"가원펫","tel":"032-665-5656","addr":"경기도 부천시 송내동 572-7번지 신세계드림빌딩 101호","indutype":"문화.취미 - 애완동물","category":"other"},{"name":"대성안전시스템","tel":"032-664-6045","addr":"경기도 부천시 송내동 572-7번지 신세계드림빌딩 301호","indutype":"전기제품 - 기타전기제품","category":"other"},{"name":"일광철물종합공사","tel":"032-664-4666","addr":"경기도 부천시 송내동 572-7번지","indutype":"건축자재 - 유리","category":"other"},{"name":"태갈군(TG company)","tel":"070-8801-2272","addr":"경기도 부천시 송내동 572-7번지 신세계드림빌딩 2층 201호","indutype":"의류 - 정장","category":"other"},{"name":"태안철물","tel":"032-663-3876","addr":"경기도 부천시 송내동 572-7번지 신세계드림빌딩 102호","indutype":"건축자재 - 목재·석재·철물","category":"other"}]},{"lat":"37.485119621","long":"126.75557382","imageIndex":17,"items":[{"name":"강남지사","tel":"","addr":"경기도 부천시 송내동 318-6번지 산장빌라 A동 103호","indutype":"용역 서비스 - 기타용역서비스","category":"other"}]},{"lat":"37.482847974","long":"126.76826685","imageIndex":17,"items":[{"name":"강냥이","tel":"032-213-8212","addr":"경기도 부천시 송내동 383-6번지 103호","indutype":"문화.취미 - 애완동물","category":"other"}]},{"lat":"37.483564117","long":"126.76593552","imageIndex":17,"items":[{"name":"거명기업","tel":"032-663-4481","addr":"경기도 부천시 송내동 387번지","indutype":"기타 - 기타 전문점","category":"other"}]},{"lat":"37.479441632","long":"126.7634839","imageIndex":17,"items":[{"name":"거시기","tel":"","addr":"경기도 부천시 송내동 441-8번지 동신고층아파트","indutype":"회원제형태 - 기타1","category":"other"},{"name":"삼양밸브 A/S","tel":"","addr":"경기도 부천시 송내동 441-8번지 동신고층아파트","indutype":"수리서비스 - 기타수리서비스","category":"other"},{"name":"유림산업","tel":"070-5121-4552","addr":"경기도 부천시 송내동 441-8번지 동신고층아파트","indutype":"건축자재 - 기타건축자재","category":"other"}]},{"lat":"37.482041625","long":"126.76157618","imageIndex":17,"items":[{"name":"경기도개인택시부천시조합","tel":"032-611-9002","addr":"경기도 부천시 송내동 398-4번지 구 한전사옥 별관 1층","indutype":"기타 - 비영리/비대상","category":"other"},{"name":"주식회사 벤틀스페이스","tel":"070-8717-1222","addr":"경기도 부천시 송내동 398-4번지 2층","indutype":"용역 서비스 - 사무서비스","category":"other"}]},{"lat":"37.486514908","long":"126.75071863","imageIndex":17,"items":[{"name":"경원PMI","tel":"032-652-0225","addr":"경기도 부천시 송내동 700-1번지","indutype":"기타 - 기타 전문점","category":"other"}]},{"lat":"37.485375953","long":"126.75751771","imageIndex":17,"items":[{"name":"경원전기","tel":"032-653-6530","addr":"경기도 부천시 송내동 333-4번지","indutype":"전기제품 - 기타전기제품","category":"other"}]},{"lat":"37.486091324","long":"126.75066352","imageIndex":17,"items":[{"name":"경인디지털","tel":"032-663-8600","addr":"경기도 부천시 송내동 701-12번지 101호","indutype":"사무통신 - 사무용 OA기기","category":"other"}]},{"lat":"37.486904289","long":"126.74330007","imageIndex":17,"items":[{"name":"경인액자","tel":"032-507-4203","addr":"경기도 부천시 송내동 685-5번지","indutype":"문화.취미 - 화방·표구점","category":"other"}]},{"lat":"37.483648932","long":"126.76780079","imageIndex":17,"items":[{"name":"경인재활용총판","tel":"032-652-7272","addr":"경기도 부천시 송내동 383-15번지","indutype":"전기제품 - 가전제품","category":"other"}]},{"lat":"37.48248159","long":"126.76979433","imageIndex":17,"items":[{"name":"고려산업","tel":"032-611-6565","addr":"경기도 부천시 송내동 587-3번지 103호","indutype":"신변잡화 - 기타잡화","category":"other"},{"name":"신동양가구","tel":"032-651-9722","addr":"경기도 부천시 송내동 587-3번지 1호","indutype":"가구 - 기타가구","category":"other"},{"name":"크린토피아 부천송내삼익점","tel":"032-612-4300","addr":"경기도 부천시 송내동 587-3번지","indutype":"수리서비스 - 세탁소","category":"other"},{"name":"힘텔레콤","tel":"032-341-7010","addr":"경기도 부천시 송내동 587-3번지 1층 일부","indutype":"사무통신 - 통신기기","category":"other"}]},{"lat":"37.483676829","long":"126.75933227","imageIndex":17,"items":[{"name":"골든팩","tel":"032-654-2194","addr":"경기도 부천시 송내동 340-8번지","indutype":"서적문구 - 출판 및 인쇄물","category":"other"},{"name":"골든팩","tel":"032-654-2194","addr":"경기도 부천시 송내동 340-8번지","indutype":"서적문구 - 출판 및 인쇄물","category":"other"},{"name":"디에이치 컴퍼니","tel":"02-6340-5385","addr":"경기도 부천시 송내동 340-8번지 6층","indutype":"신변잡화 - 기타잡화","category":"other"},{"name":"에스티코(STCO)","tel":"031-435-7123","addr":"경기도 부천시 송내동 340-8번지 1층","indutype":"의류 - 스포츠의류","category":"other"}]},{"lat":"37.483648099","long":"126.76738246","imageIndex":17,"items":[{"name":"골프투어","tel":"032-664-1988","addr":"경기도 부천시 송내동 385-3번지 이룸빌딩 1동 401호","indutype":"회원제형태 - 레져업소","category":"other"},{"name":"피알코퍼레이션","tel":"032-888-8847","addr":"경기도 부천시 송내동 385-3번지","indutype":"문화.취미 - 수족관","category":"other"}]},{"lat":"37.486285285","long":"126.74452333","imageIndex":17,"items":[{"name":"공간문구","tel":"032-654-2839","addr":"경기도 부천시 송내동 693-6번지","indutype":"서적문구 - 문구용품","category":"other"}]},{"lat":"37.479626547","long":"126.77035718","imageIndex":17,"items":[{"name":"광명출판사","tel":"032-322-9977","addr":"경기도 부천시 송내동 609-10번지","indutype":"서적문구 - 출판 및 인쇄물","category":"other"},{"name":"도그피아","tel":"032-655-8729","addr":"경기도 부천시 송내동 609-10번지 2층","indutype":"문화.취미 - 애완동물","category":"other"}]},{"lat":"37.48354364","long":"126.77382738","imageIndex":17,"items":[{"name":"광성목재","tel":"032-887-1870","addr":"경기도 부천시 송내동 574-1번지","indutype":"건축자재 - 목재·석재·철물","category":"other"}]},{"lat":"37.484430356","long":"126.76657725","imageIndex":17,"items":[{"name":"광은전자","tel":"032-651-6464","addr":"경기도 부천시 송내동 376번지","indutype":"전기제품 - 기타전기제품","category":"other"}]},{"lat":"37.481927129","long":"126.77191028","imageIndex":17,"items":[{"name":"국제세탁소","tel":"032-655-8616","addr":"경기도 부천시 송내동 593-12번지 1층","indutype":"수리서비스 - 세탁소","category":"other"}]},{"lat":"37.481703624","long":"126.77280415","imageIndex":17,"items":[{"name":"국제테크노상사","tel":"032-611-6156","addr":"경기도 부천시 송내동 594-12번지 1층","indutype":"서적문구 - 과학기자재","category":"other"}]},{"lat":"37.486761015","long":"126.75205201","imageIndex":17,"items":[{"name":"군화클럽","tel":"032-611-0021","addr":"경기도 부천시 송내동 705-4번지 1층","indutype":"서적문구 - 문구용품","category":"other"}]},{"lat":"37.483402845","long":"126.76638828","imageIndex":17,"items":[{"name":"그린사이언스","tel":"032-653-2877","addr":"경기도 부천시 송내동 387-14번지 1층","indutype":"서적문구 - 과학기자재","category":"other"}]},{"lat":"37.483654941","long":"126.76629703","imageIndex":17,"items":[{"name":"그린조이","tel":"032-663-9969","addr":"경기도 부천시 송내동 387-1번지","indutype":"레져용품 - 스포츠·레져용품","category":"other"}]},{"lat":"37.481848794","long":"126.77332378","imageIndex":17,"items":[{"name":"극단다람","tel":"031-216-5201","addr":"경기도 부천시 송내동 597-1번지 점든마을 302호","indutype":"문화.취미 - 티켓","category":"other"}]},{"lat":"37.483459925","long":"126.76341455","imageIndex":17,"items":[{"name":"금빛","tel":"032-651-9333","addr":"경기도 부천시 송내동 393번지 성보빌딩 104호","indutype":"신변잡화 - 귀금속","category":"other"}]},{"lat":"37.484954621","long":"126.75854798","imageIndex":17,"items":[{"name":"금손인테리어","tel":"032-212-4465","addr":"경기도 부천시 송내동 335-15번지 1층","indutype":"건축자재 - 인테리어전문","category":"other"},{"name":"대한불교본조계종","tel":"032-651-8060","addr":"경기도 부천시 송내동 335-15번지","indutype":"기타 - 비영리/대상","category":"other"},{"name":"컴퓨터수리 이지컴","tel":"032-612-8789","addr":"경기도 부천시 송내동 335-15번지 1층","indutype":"수리서비스 - 사무·통신기기수리","category":"other"}]},{"lat":"37.487123449","long":"126.74463351","imageIndex":17,"items":[{"name":"기성자동문","tel":"032-654-5282","addr":"경기도 부천시 송내동 694-5번지 1층","indutype":"건축자재 - 기타건축자재","category":"other"}]},{"lat":"37.487401003","long":"126.75218555","imageIndex":17,"items":[{"name":"꼬라지","tel":"032-653-6531","addr":"경기도 부천시 송내동 272-1번지","indutype":"신변잡화 - 액세서리","category":"other"},{"name":"앙크미","tel":"032-655-4440","addr":"경기도 부천시 송내동 272-1번지 115호","indutype":"신변잡화 - 기타잡화","category":"other"}]},{"lat":"37.480037886","long":"126.7642734","imageIndex":17,"items":[{"name":"꽃들이랑플라워","tel":"032-611-7102","addr":"경기도 부천시 송내동 433-17번지 1층","indutype":"문화.취미 - 화원","category":"other"}]},{"lat":"37.486541334","long":"126.75043588","imageIndex":17,"items":[{"name":"꾸나닷컴","tel":"070-4416-7880","addr":"경기도 부천시 송내동 697-7번지 1층","indutype":"의류 - 정장","category":"other"}]},{"lat":"37.479625768","long":"126.76996148","imageIndex":17,"items":[{"name":"꾸임인테리어","tel":"032-651-0164","addr":"경기도 부천시 송내동 609-7번지","indutype":"직물 - 침구·수예점","category":"other"}]},{"lat":"37.479624935","long":"126.76502089","imageIndex":17,"items":[{"name":"남부전기조명","tel":"032-612-1118","addr":"경기도 부천시 송내동 452-6번지","indutype":"건축자재 - 조명기구","category":"other"}]},{"lat":"37.484259184","long":"126.77113427","imageIndex":17,"items":[{"name":"냄새해결사","tel":"070-7779-3423","addr":"경기도 부천시 송내동 563-4번지 피치밸리 1204호","indutype":"주방용구 - 주방용구","category":"other"},{"name":"평화자전거","tel":"032-612-9071","addr":"경기도 부천시 송내동 563-4번지 피치밸리","indutype":"레져용품 - 스포츠·레져용품","category":"other"}]},{"lat":"37.483237276","long":"126.76027212","imageIndex":17,"items":[{"name":"넝쿨광고기획","tel":"032-663-7270","addr":"경기도 부천시 송내동 400-39번지 1층, 2층","indutype":"용역 서비스 - 종합용역","category":"other"},{"name":"창조인쇄광고","tel":"032-346-6767","addr":"경기도 부천시 송내동 400-39번지 101호","indutype":"건축자재 - 인테리어전문","category":"other"}]},{"lat":"37.485710994","long":"126.76271766","imageIndex":17,"items":[{"name":"네리움","tel":"070-4963-6339","addr":"경기도 부천시 송내동 368번지 뉴서울아파트","indutype":"사무통신 - 통신기기","category":"other"},{"name":"뉴서울인테리어","tel":"032-667-2234","addr":"경기도 부천시 송내동 368뉴서울상가1층133","indutype":"건축자재 - 인테리어전문","category":"other"},{"name":"라인광고","tel":"","addr":"경기도 부천시 송내동 368번지 뉴서울아파트","indutype":"용역 서비스 - 사무서비스","category":"other"},{"name":"솔메이드","tel":"","addr":"경기도 부천시 송내동 368번지 뉴서울아파트","indutype":"신변잡화 - 액세서리","category":"other"},{"name":"양설화에스테틱","tel":"032-611-4221","addr":"경기도 부천시 송내동 368 뉴서울상가 301","indutype":"회원제형태 - 기타4","category":"other"},{"name":"여기에서","tel":"032-425-7009","addr":"경기도 부천시 송내동 368번지 뉴서울아파트","indutype":"회원제형태 - 기타4","category":"other"}]},{"lat":"37.483510896","long":"126.76635402","imageIndex":17,"items":[{"name":"녹산실업","tel":"032-651-0512","addr":"경기도 부천시 송내동 387-13번지","indutype":"신변잡화 - 가방","category":"other"}]},{"lat":"37.485093496","long":"126.76930003","imageIndex":17,"items":[{"name":"녹색제품및친환경생활용품","tel":"","addr":"경기도 부천시 송내동 378-3번지","indutype":"회원제형태 - 기타4","category":"other"}]},{"lat":"37.482096079","long":"126.77076785","imageIndex":17,"items":[{"name":"누리인테리어","tel":"032-614-3458","addr":"경기도 부천시 송내동 590번지","indutype":"건축자재 - 인테리어전문","category":"other"}]},{"lat":"37.48695462","long":"126.75413181","imageIndex":17,"items":[{"name":"뉴로아로마콜로지교육연구소","tel":"032-665-6622","addr":"경기도 부천시 송내동 299-7번지 성민빌딩 4층 403호","indutype":"용역 서비스 - 사무서비스","category":"other"},{"name":"스톰커뮤니케이션","tel":"032-429-1245","addr":"경기도 부천시 송내동 299-7번지 성민빌딩 3층 301호","indutype":"용역 서비스 - 종합용역","category":"other"}]},{"lat":"37.479315012","long":"126.77230271","imageIndex":17,"items":[{"name":"늘사랑으로모시겠습니다","tel":"","addr":"경기도 부천시 송내동 611-1번지 1층","indutype":"신변잡화 - 기타잡화","category":"other"}]},{"lat":"37.485900681","long":"126.7585562","imageIndex":17,"items":[{"name":"늘푸른화원","tel":"032-655-7447","addr":"경기도 부천시 송내동 336-15번지","indutype":"문화.취미 - 화원","category":"other"}]},{"lat":"37.483127613","long":"126.76393569","imageIndex":17,"items":[{"name":"다락방통신","tel":"032-613-8880","addr":"경기도 부천시 송내동 389-10번지 샬롬빌딩 1층","indutype":"사무통신 - 통신기기","category":"other"},{"name":"디에스오토","tel":"070-4920-8796","addr":"경기도 부천시 송내동 389-10번지 샬롬빌딩 406호","indutype":"용역 서비스 - 사무서비스","category":"other"},{"name":"한신로보테크","tel":"032-612-5918","addr":"경기도 부천시 송내동 389-10번지","indutype":"기타 - 기계공구","category":"other"}]},{"lat":"37.486175781","long":"126.75224618","imageIndex":17,"items":[{"name":"다솔산업 주식회사","tel":"032-343-0653","addr":"경기도 부천시 송내동 706-12번지 1층","indutype":"건축자재 - 기타건축자재","category":"other"}]},{"lat":"37.478593757","long":"126.76750007","imageIndex":17,"items":[{"name":"다온공방","tel":"","addr":"경기도 부천시 송내동 463-106번지 상가동지 E-편한세상 지1층 109호 송내","indutype":"문화.취미 - 문화취미기타","category":"other"},{"name":"싱크대맷돌","tel":"032-654-7140","addr":"경기도 부천시 송내동 463-106번지 송내e-편한세상","indutype":"회원제형태 - 기타3","category":"other"}]},{"lat":"37.483178972","long":"126.77163508","imageIndex":17,"items":[{"name":"다원스토리","tel":"","addr":"경기도 부천시 송내동 579-35번지 뉴월드맨션 가동 401호","indutype":"용역 서비스 - 기타용역서비스","category":"other"}]},{"lat":"37.486981631","long":"126.75843962","imageIndex":17,"items":[{"name":"다인인테리어디자인","tel":"032-349-0063","addr":"경기도 부천시 송내동 354-8번지 강남상가 202호","indutype":"건축자재 - 인테리어전문","category":"other"},{"name":"서울치과기공소","tel":"032-663-9534","addr":"경기도 부천시 송내동 354-8번지","indutype":"기타의료기관 - 기타의료기관 및 기타","category":"other"}]},{"lat":"37.48695598","long":"126.7591068","imageIndex":17,"items":[{"name":"다주하이테크","tel":"032-656-0582","addr":"경기도 부천시 송내동 358번지","indutype":"기타 - 기계공구","category":"other"},{"name":"다주하이테크/원격지","tel":"032-656-0582","addr":"경기도 부천시 송내동 358번지","indutype":"기타 - 기타 전문점","category":"other"}]},{"lat":"37.483677737","long":"126.75977322","imageIndex":17,"items":[{"name":"대명무역","tel":"032-667-7160","addr":"경기도 부천시 송내동 341-6번지","indutype":"레져용품 - 스포츠·레져용품","category":"other"}]},{"lat":"37.486233236","long":"126.75385153","imageIndex":17,"items":[{"name":"대붕실업","tel":"032-666-2464","addr":"경기도 부천시 송내동 299-5,6송내테크노벨리3층303A","indutype":"기타 - 기계공구","category":"other"}]},{"lat":"37.484318461","long":"126.76026862","imageIndex":17,"items":[{"name":"대송중전기","tel":"032-611-6959","addr":"경기도 부천시 송내동 344","indutype":"전기제품 - 기타전기제품","category":"other"}]},{"lat":"37.484266994","long":"126.7705237","imageIndex":17,"items":[{"name":"대우전기","tel":"032-651-6713","addr":"경기도 부천시 송내동 557-4번지 1층","indutype":"건축자재 - 조명기구","category":"other"}]},{"lat":"37.483208325","long":"126.76824312","imageIndex":17,"items":[{"name":"대우전력기술(주)","tel":"032-665-4341","addr":"경기도 부천시 송내동 383-2번지","indutype":"용역 서비스 - 기타용역서비스","category":"other"}]},{"lat":"37.483098038","long":"126.77171447","imageIndex":17,"items":[{"name":"대원철물","tel":"032-657-5670","addr":"경기도 부천시 송내동 579-28번지","indutype":"건축자재 - 목재·석재·철물","category":"other"},{"name":"씨유부천베스티안점","tel":"032-661-2908","addr":"경기도 부천시 송내동 579-28번지","indutype":"유통업 영리 - 편 의 점","category":"other"}]},{"lat":"37.48573456","long":"126.75665723","imageIndex":17,"items":[{"name":"대풍인테리어","tel":"032-612-8826","addr":"경기도 부천시 송내동 332 민경빌딩 1층 101-2호","indutype":"직물 - 카페트,커튼,천막,지물","category":"other"},{"name":"으뜸철물","tel":"032-612-1218","addr":"경기도 부천시 송내동 332번지","indutype":"건축자재 - 목재·석재·철물","category":"other"}]},{"lat":"37.483844362","long":"126.7619435","imageIndex":17,"items":[{"name":"대한상사","tel":"031-652-6196","addr":"경기도 부천시 송내동 366-3번지 1층 3호","indutype":"건축자재 - 페인트","category":"other"}]},{"lat":"37.487208537","long":"126.75491114","imageIndex":17,"items":[{"name":"대한예수교장로회(합동개혁진리)","tel":"032-484-8343","addr":"경기도 부천시 송내동 296-18번지 광명빌딩 4층","indutype":"기타 - 비영리/대상","category":"other"}]},{"lat":"37.482286484","long":"126.77137779","imageIndex":17,"items":[{"name":"대한종합건축설비","tel":"070-8939-1089","addr":"경기도 부천시 송내동 591-7번지 102호","indutype":"용역 서비스 - 기타용역서비스","category":"other"}]},{"lat":"37.483732076","long":"126.75990872","imageIndex":17,"items":[{"name":"대한주방산업","tel":"032-613-6308","addr":"경기도 부천시 송내동 341-4번지","indutype":"주방용구 - 주방용구","category":"other"}]},{"lat":"37.483682694","long":"126.76665875","imageIndex":17,"items":[{"name":"대흥전기철물","tel":"032-652-7716","addr":"경기도 부천시 송내동 385번지","indutype":"기타 - 기계공구","category":"other"},{"name":"삼광미싱","tel":"032-611-3020","addr":"경기도 부천시 송내동 385번지","indutype":"기타 - 기계공구","category":"other"},{"name":"오렌지","tel":"031-502-7695","addr":"경기도 부천시 송내동 385번지 1층 5호","indutype":"의류 - 정장","category":"other"},{"name":"황해사","tel":"032-654-1490","addr":"경기도 부천시 송내동 385번지","indutype":"문화.취미 - 화방·표구점","category":"other"}]},{"lat":"37.483265383","long":"126.75643921","imageIndex":17,"items":[{"name":"댄스샵","tel":"032-328-3026","addr":"경기도 부천시 송내동 329-11","indutype":"레져용품 - 스포츠·레져용품","category":"other"},{"name":"에스엔복싱짐(SN Boxing GYM)","tel":"032-279-1990","addr":"경기도 부천시 송내동 329-11번지 3층","indutype":"회원제형태 - 레져업소","category":"other"}]},{"lat":"37.480541657","long":"126.77296599","imageIndex":17,"items":[{"name":"더바이크","tel":"032-872-5352","addr":"경기도 부천시 송내동 600-6번지 지하1층,지상2층,3층","indutype":"레져용품 - 스포츠·레져용품","category":"other"}]},{"lat":"37.485532938","long":"126.75502974","imageIndex":17,"items":[{"name":"더블유기획","tel":"032-651-4111","addr":"경기도 부천시 송내동 316번지 욱일아파트","indutype":"용역 서비스 - 사무서비스","category":"other"}]},{"lat":"37.487403002","long":"126.74474562","imageIndex":17,"items":[{"name":"더존하이테크","tel":"032-657-9110","addr":"경기도 부천시 송내동 694-1번지 101호","indutype":"전기제품 - 가전제품","category":"other"},{"name":"한국낚시아카데미","tel":"032-668-7738","addr":"경기도 부천시 송내동 694-1번지 1층 102호","indutype":"레져용품 - 스포츠·레져용품","category":"other"}]},{"lat":"37.483343473","long":"126.76824269","imageIndex":17,"items":[{"name":"덕성당","tel":"032-662-3115","addr":"경기도 부천시 송내동 383-21번지 1층","indutype":"기타 - 기계공구","category":"other"}]},{"lat":"37.484154049","long":"126.77266096","imageIndex":17,"items":[{"name":"데코라인가구","tel":"032-653-4342","addr":"경기도 부천시 송내동 564-4번지 1층","indutype":"가구 - 일반가구","category":"other"},{"name":"퍼인스씽크인테리어","tel":"032-612-0093","addr":"경기도 부천시 송내동 564-4번지 1층","indutype":"주방용구 - 주방용구","category":"other"}]},{"lat":"37.47968357","long":"126.76730446","imageIndex":17,"items":[{"name":"도배마루","tel":"032-656-5020","addr":"경기도 부천시 송내동 439-8번지","indutype":"직물 - 카페트,커튼,천막,지물","category":"other"}]},{"lat":"37.484733709","long":"126.75629871","imageIndex":17,"items":[{"name":"도서출판현현각양지","tel":"032-614-2223","addr":"경기도 부천시 송내동 323-5번지 1층","indutype":"서적문구 - 일반서적","category":"other"},{"name":"주식회사 조이스쿨에듀케이션","tel":"032-663-2040","addr":"경기도 부천시 송내동 323-5번지 1층 2호","indutype":"서적문구 - 출판 및 인쇄물","category":"other"}]},{"lat":"37.4869549773","long":"126.7543014112","imageIndex":17,"items":[{"name":"동사정창업센터","tel":"032-215-8858","addr":"경기도 부천시 송내동 299-8번지 3층","indutype":"회원제형태 - 기타4","category":"other"}]},{"lat":"37.483761448","long":"126.76105056","imageIndex":17,"items":[{"name":"동산사","tel":"032-656-2095","addr":"경기도 부천시 송내동 345-9번지","indutype":"신변잡화 - 귀금속","category":"other"},{"name":"신일전기","tel":"032-655-1946","addr":"경기도 부천시 송내동 345-9번지","indutype":"건축자재 - 목재·석재·철물","category":"other"},{"name":"유신창호공사","tel":"032-656-4137","addr":"경기도 부천시 송내동 345-9번지","indutype":"용역 서비스 - 기타용역서비스","category":"other"},{"name":"천하컴퓨터","tel":"032-666-0174","addr":"경기도 부천시 송내동 345-9번지","indutype":"사무통신 - 컴퓨터","category":"other"}]},{"lat":"37.479767201","long":"126.76408206","imageIndex":17,"items":[{"name":"동신할인마트","tel":"032-655-6770","addr":"경기도 부천시 송내동 453-6번지","indutype":"유통업 영리 - 기타유통업","category":"other"}]},{"lat":"37.481926532","long":"126.77160502","imageIndex":17,"items":[{"name":"동아지물포","tel":"032-664-0801","addr":"경기도 부천시 송내동 592-3상가4","indutype":"직물 - 카페트,커튼,천막,지물","category":"other"}]},{"lat":"37.482431314","long":"126.76716016","imageIndex":17,"items":[{"name":"동우에네스톤(주)","tel":"032-683-6680","addr":"경기도 부천시 송내동 385-8번지","indutype":"전기제품 - 기타전기제품","category":"other"},{"name":"주식회사 레이코어코퍼레이션","tel":"","addr":"경기도 부천시 송내동 385-8번지 별관 2층","indutype":"전기제품 - 기타전기제품","category":"other"}]},{"lat":"37.485535777","long":"126.75638653","imageIndex":17,"items":[{"name":"동일설비철물","tel":"032-611-3900","addr":"경기도 부천시 송내동 321-4번지","indutype":"건축자재 - 목재·석재·철물","category":"other"},{"name":"태광건영","tel":"032-613-5651","addr":"경기도 부천시 송내동 321-4번지","indutype":"수리서비스 - 가정용품수리","category":"other"}]},{"lat":"37.483320195","long":"126.76116505","imageIndex":17,"items":[{"name":"동해상사","tel":"032-655-8161","addr":"경기도 부천시 송내동 400-15번지","indutype":"건축자재 - 페인트","category":"other"}]},{"lat":"37.481849244","long":"126.76002788","imageIndex":17,"items":[{"name":"드림","tel":"032-673-1509","addr":"경기도 부천시 송내동 402-8번지 지하비02호","indutype":"서적문구 - 완구점","category":"other"},{"name":"디지탈사진뽀비","tel":"032-651-4709","addr":"경기도 부천시 송내동 402-8번지 3층","indutype":"광학제품 - 사진관","category":"other"},{"name":"레몬아이스튜디오","tel":"070-4175-2470","addr":"경기도 부천시 송내동 402-8번지 지하 1호","indutype":"광학제품 - 사진관","category":"other"},{"name":"스튜디오라임","tel":"032-663-8134","addr":"경기도 부천시 송내동 402-8번지","indutype":"광학제품 - 사진관","category":"other"},{"name":"코스모스 포토","tel":"070-4126-5569","addr":"경기도 부천시 송내동 402-8번지 202-1호","indutype":"광학제품 - 사진관","category":"other"}]},{"lat":"37.482110855","long":"126.76018531","imageIndex":17,"items":[{"name":"드림레이서(Dream Racer)","tel":"032-653-6465","addr":"경기도 부천시 송내동 402-13 조광주택 마-102 15/6","indutype":"회원제형태 - 기타4","category":"other"}]},{"lat":"37.48162409","long":"126.76007383","imageIndex":17,"items":[{"name":"드림부엌가구","tel":"032-611-1189","addr":"경기도 부천시 송내동 402-9번지 1층","indutype":"가구 - 일반가구","category":"other"}]},{"lat":"37.483637916","long":"126.76679456","imageIndex":17,"items":[{"name":"듬뿍디자인","tel":"032-655-3509","addr":"경기도 부천시 송내동 385-14번지 평화연립 B동 307호","indutype":"용역 서비스 - 사무서비스","category":"other"}]},{"lat":"37.483595227","long":"126.7590838","imageIndex":17,"items":[{"name":"디와이(주)","tel":"00-0000-0000","addr":"경기도 부천시 송내동 340-6번지 금성빌딩 5층","indutype":"사무통신 - 통신기기","category":"other"}]},{"lat":"37.483120246","long":"126.76474977","imageIndex":17,"items":[{"name":"디자인블루","tel":"02-712-6573","addr":"경기도 부천시 송내동 389-4번지 2층","indutype":"용역 서비스 - 종합용역","category":"other"}]},{"lat":"37.484842135","long":"126.76524179","imageIndex":17,"items":[{"name":"디자인창고","tel":"","addr":"경기도 부천시 송내동 372번지 중동역푸르지오아파트","indutype":"서적문구 - 출판 및 인쇄물","category":"other"},{"name":"싱크퓨어 부산경남총판","tel":"070-3652-4890","addr":"경기도 부천시 송내동 372번지 중동역푸르지오아파트","indutype":"주방용구 - 주방용구","category":"other"},{"name":"지안인테리어","tel":"032-668-0482","addr":"경기도 부천시 송내동 372번지 부천중동역푸르지오 상가 117호","indutype":"직물 - 카페트,커튼,천막,지물","category":"other"},{"name":"해말금굴비","tel":"070-7558-1729","addr":"경기도 부천시 송내동 372번지 중동역푸르지오아파트","indutype":"회원제형태 - 기타1","category":"other"}]},{"lat":"37.484209699","long":"126.76888445","imageIndex":17,"items":[{"name":"디지탈에이치피송내점","tel":"032-656-8123","addr":"경기도 부천시 송내동 379-1번지 삼정 상가 1층 6호","indutype":"사무통신 - 컴퓨터","category":"other"},{"name":"섬프코리아","tel":"032-327-9871","addr":"경기도 부천시 송내동 379-1 삼성프라자나동 7호~8호","indutype":"문화.취미 - 수족관","category":"other"},{"name":"탑랜드","tel":"032-657-1813","addr":"경기도 부천시 송내동 379-1번지 삼정프라자 203호","indutype":"용역 서비스 - 부동산 중개·임대","category":"other"}]},{"lat":"37.487010523","long":"126.75075089","imageIndex":17,"items":[{"name":"디지털프라자대성O.A","tel":"032-666-6050","addr":"경기도 부천시 송내동 698-12번지 1층","indutype":"사무통신 - 통신기기","category":"other"},{"name":"잉크링크","tel":"","addr":"경기도 부천시 송내동 698-12번지 1층","indutype":"사무통신 - 컴퓨터","category":"other"}]},{"lat":"37.481454463","long":"126.76979752","imageIndex":17,"items":[{"name":"라기텔레콤","tel":"032-613-0428","addr":"경기도 부천시 송내동 588-9번지 1층 5호","indutype":"사무통신 - 통신기기","category":"other"},{"name":"삼익세탁소","tel":"032-663-4724","addr":"경기도 부천시 송내동 588-9번지","indutype":"수리서비스 - 세탁소","category":"other"},{"name":"윤선생영어교실","tel":"032-662-0579","addr":"경기도 부천시 송내동 588-9번지 1층 5호","indutype":"서적문구 - 일반서적","category":"other"}]},{"lat":"37.484119527","long":"126.7734412","imageIndex":17,"items":[{"name":"라자사무용가구","tel":"032-665-6651","addr":"경기도 부천시 송내동 572-13번지 1층","indutype":"가구 - 일반가구","category":"other"},{"name":"복사골현수막","tel":"02-1577-8865","addr":"경기도 부천시 송내동 572-13번지 2층","indutype":"용역 서비스 - 종합용역","category":"other"},{"name":"송월","tel":"032-651-6785","addr":"경기도 부천시 송내동 572-13번지 1층","indutype":"직물 - 옷감·직물","category":"other"}]},{"lat":"37.483290512","long":"126.76879687","imageIndex":17,"items":[{"name":"런던베이직","tel":"032-664-2101","addr":"경기도 부천시 송내동 380 청실상가 104","indutype":"의류 - 정장","category":"other"},{"name":"잉글랜드","tel":"032-666-2101","addr":"경기도 부천시 송내동 380,청실상가103호","indutype":"신변잡화 - 액세서리","category":"other"}]},{"lat":"37.484266348","long":"126.76121853","imageIndex":17,"items":[{"name":"런라이트","tel":"070-8945-0764","addr":"경기도 부천시 송내동 345-6번지 바동 4409호","indutype":"전기제품 - 기타전기제품","category":"other"},{"name":"엔젤클리닝","tel":"032-664-8285","addr":"경기도 부천시 송내동 345-6번지 105호","indutype":"수리서비스 - 세탁소","category":"other"}]},{"lat":"37.48540509","long":"126.75421609","imageIndex":17,"items":[{"name":"로사리움앤코(rosar ium&co.)","tel":"","addr":"경기도 부천시 송내동 315번지 송내역파인푸르지오1단지 상가동B204호","indutype":"문화.취미 - 화원","category":"other"},{"name":"씨유송내파인푸르지오점","tel":"032-662-3088","addr":"경기도 부천시 송내동 315번지 송내역파인푸르지오1단지 상가B213,B214","indutype":"유통업 영리 - 편 의 점","category":"other"},{"name":"크린토피아 부천송내역파인푸르지오점","tel":"070-7357-9393","addr":"경기도 부천시 송내동 315번지 송내역파인푸르지오1단지 상가동 지1층 비111호","indutype":"수리서비스 - 세탁소","category":"other"}]},{"lat":"37.482455917","long":"126.76149571","imageIndex":17,"items":[{"name":"루먼스타","tel":"","addr":"경기도 부천시 송내동 398-3번지 성원타운 2층 203호","indutype":"신변잡화 - 액세서리","category":"other"}]},{"lat":"37.48282096","long":"126.77285725","imageIndex":17,"items":[{"name":"루시아 아로마","tel":"","addr":"경기도 부천시 송내동 576-4번지 이루다힐 2층 204호","indutype":"신변잡화 - 기타잡화","category":"other"}]},{"lat":"37.48484372","long":"126.76157848","imageIndex":17,"items":[{"name":"르 메종","tel":"031-000-0000","addr":"경기도 부천시 송내동 365-5번지 동궁빌딩 105호","indutype":"건축자재 - 인테리어전문","category":"other"},{"name":"크린토피아우성점","tel":"032-666-8823","addr":"경기도 부천시 송내동 365-5동궁상가1층4","indutype":"수리서비스 - 세탁소","category":"other"},{"name":"토늬도예-부천현대도예원(갤러리SPACE나너)","tel":"032-612-2724","addr":"경기도 부천시 송내동 365-5번지 동궁빌딩 지하1층","indutype":"문화.취미 - 문화취미기타","category":"other"}]},{"lat":"37.48109313","long":"126.75602803","imageIndex":17,"items":[{"name":"리무진타고","tel":"","addr":"경기도 부천시 송내동 304-6번지 송내복사골뜨란채아파트","indutype":"여행 - 관광여행","category":"other"},{"name":"세븐정보통신","tel":"032-614-7111","addr":"경기도 부천시 송내동 304-6번지 송내복사골뜨란채아파트","indutype":"사무통신 - 통신기기","category":"other"},{"name":"컴퓨터월드","tel":"032-513-0273","addr":"경기도 부천시 송내동 304-6번지 송내복사골뜨란채아파트","indutype":"사무통신 - 컴퓨터","category":"other"},{"name":"태환상사","tel":"02-6369-4353","addr":"경기도 부천시 송내동 304-6번지 송내복사골뜨란채아파트","indutype":"기타 - 기계공구","category":"other"}]},{"lat":"37.48243352","long":"126.76826815","imageIndex":17,"items":[{"name":"만들고가게","tel":"032-652-0808","addr":"경기도 부천시 송내동 383-9번지 1층","indutype":"신변잡화 - 기타잡화","category":"other"},{"name":"세븐일레븐부천송내엔파트점","tel":"032-611-5749","addr":"경기도 부천시 송내동 383-9번지","indutype":"유통업 영리 - 편 의 점","category":"other"}]},{"lat":"37.485876522","long":"126.75560525","imageIndex":17,"items":[{"name":"만물전기","tel":"032-654-1618","addr":"경기도 부천시 송내동 318번지 동신빌라","indutype":"전기제품 - 기타전기제품","category":"other"}]},{"lat":"37.482344912","long":"126.75574125","imageIndex":17,"items":[{"name":"만복설비","tel":"032-864-1604","addr":"경기도 부천시 송내동 308-10번지 1층","indutype":"용역 서비스 - 기타용역서비스","category":"other"}]},{"lat":"37.486345281","long":"126.76449078","imageIndex":17,"items":[{"name":"매표소","tel":"032-611-6989","addr":"경기도 부천시 송내동 532-2","indutype":"서적문구 - 정기간행물","category":"other"}]},{"lat":"37.484720811","long":"126.77221826","imageIndex":17,"items":[{"name":"맨투맨컴즈","tel":"","addr":"경기도 부천시 송내동 566-15번지 삼성에센빌 나동 402호","indutype":"용역 서비스 - 종합용역","category":"other"},{"name":"미래시스템","tel":"","addr":"경기도 부천시 송내동 566-15번지 삼성에센빌 나동 301호","indutype":"용역 서비스 - 기타용역서비스","category":"other"}]},{"lat":"37.483293002","long":"126.75672178","imageIndex":17,"items":[{"name":"멍바라기","tel":"032-614-9500","addr":"경기도 부천시 송내동 329-10번지 A동2호1층일부","indutype":"문화.취미 - 애완동물","category":"other"}]},{"lat":"37.485149543","long":"126.75266795","imageIndex":17,"items":[{"name":"메디냅스 주식회사","tel":"070-8887-6487","addr":"경기도 부천시 송내동 708-6번지 4층 402호","indutype":"주방용구 - 정수기","category":"other"},{"name":"법무사유영인사무소","tel":"032-663-5889","addr":"경기도 부천시 송내동 708-6번지 세움프라자 5층","indutype":"용역 서비스 - 법률회계서비스(개인)","category":"other"},{"name":"서율법무사사무소","tel":"032-861-2626","addr":"경기도 부천시 송내동 708-6번지 세움프라자 5층","indutype":"용역 서비스 - 법률회계서비스(개인)","category":"other"},{"name":"함께누리는소비자생활협동조합","tel":"032-665-2373","addr":"경기도 부천시 송내동 708-6번지 3층","indutype":"신변잡화 - 기타잡화","category":"other"}]},{"lat":"37.484542728","long":"126.77330423","imageIndex":17,"items":[{"name":"명신사","tel":"032-667-6986","addr":"경기도 부천시 송내동 571-3번지 1층","indutype":"수리서비스 - 세탁소","category":"other"}]},{"lat":"37.485066559","long":"126.75177501","imageIndex":17,"items":[{"name":"모드니도어","tel":"032-215-3889","addr":"경기도 부천시 송내동 704-9번지","indutype":"건축자재 - 인테리어전문","category":"other"}]},{"lat":"37.479205103","long":"126.7713873","imageIndex":17,"items":[{"name":"목공소리","tel":"","addr":"경기도 부천시 송내동 628-24번지 101호","indutype":"문화.취미 - 문화취미기타","category":"other"}]},{"lat":"37.487210326","long":"126.74316332","imageIndex":17,"items":[{"name":"몬스터거치대","tel":"070-7794-5567","addr":"경기도 부천시 송내동 685-8번지","indutype":"전기제품 - 기타전기제품","category":"other"},{"name":"제이에이치상사","tel":"032-614-4494","addr":"경기도 부천시 송내동 685-8번지 3층 일부","indutype":"건축자재 - 페인트","category":"other"},{"name":"한결상사","tel":"032-651-1402","addr":"경기도 부천시 송내동 685-8번지 102호","indutype":"기타 - 기타 전문점","category":"other"}]},{"lat":"37.48359537","long":"126.77262875","imageIndex":17,"items":[{"name":"미뉴","tel":"","addr":"경기도 부천시 송내동 577-1번지 BYC부천위더스빌 502호","indutype":"서적문구 - 문구용품","category":"other"}]},{"lat":"37.484516554","long":"126.77374526","imageIndex":17,"items":[{"name":"미니벨다육이","tel":"032-655-5949","addr":"경기도 부천시 송내동 571-14번지 1층 2호","indutype":"문화.취미 - 화원","category":"other"}]},{"lat":"37.487118642","long":"126.75075052","imageIndex":17,"items":[{"name":"미디어아트","tel":"032-661-0362","addr":"경기도 부천시 송내동 698-1번지 1층","indutype":"전기제품 - 가전제품","category":"other"}]},{"lat":"37.487376269","long":"126.74488139","imageIndex":17,"items":[{"name":"미래교육(장애인도서사업부)","tel":"032-506-2136","addr":"경기도 부천시 송내동 694-2번지 1층","indutype":"서적문구 - 일반서적","category":"other"},{"name":"빨간코네모","tel":"032-8651-4717","addr":"경기도 부천시 송내동 694-2번지 1층","indutype":"가구 - 일반가구","category":"other"}]},{"lat":"37.486982099","long":"126.75866575","imageIndex":17,"items":[{"name":"미래토탈디자인","tel":"032-667-9451","addr":"경기도 부천시 송내동 355-7번지","indutype":"용역 서비스 - 종합용역","category":"other"},{"name":"스타미디어","tel":"070-8612-9213","addr":"경기도 부천시 송내동 355-7번지","indutype":"직물 - 옷감·직물","category":"other"}]},{"lat":"37.484425937","long":"126.76888377","imageIndex":17,"items":[{"name":"미사랑피부관리실","tel":"032-677-8665","addr":"경기도 부천시 송내동 379-1 삼정프라자 가동205,206호","indutype":"회원제형태 - 기타4","category":"other"}]},{"lat":"37.485177859","long":"126.77096183","imageIndex":17,"items":[{"name":"바비2","tel":"032-654-9365","addr":"경기도 부천시 송내동 560-20번지 성도빌라 라동 B02호","indutype":"의류 - 정장","category":"other"}]},{"lat":"37.486760078","long":"126.75161104","imageIndex":17,"items":[{"name":"바우하우스(BAUHAUS)","tel":"032-323-8223","addr":"경기도 부천시 송내동 699-6번지 1층","indutype":"문화.취미 - 민예·공예품","category":"other"}]},{"lat":"37.485821749","long":"126.76401757","imageIndex":17,"items":[{"name":"백년약속","tel":"032-667-7779","addr":"경기도 부천시 송내동 370-3번지","indutype":"회원제형태 - 기타4","category":"other"}]},{"lat":"37.483705859","long":"126.76030452","imageIndex":17,"items":[{"name":"백두전기","tel":"032-512-7642","addr":"경기도 부천시 송내동 344-8번지","indutype":"전기제품 - 기타전기제품","category":"other"}]},{"lat":"37.4848764","long":"126.75993893","imageIndex":17,"items":[{"name":"백호누수탐지공사","tel":"","addr":"경기도 부천시 송내동 340번지 우성아파트","indutype":"용역 서비스 - 기타용역서비스","category":"other"},{"name":"친구옷장","tel":"032-664-0318","addr":"경기도 부천시 송내동 340번지 우성아파트","indutype":"의류 - 정장","category":"other"},{"name":"한샘공방","tel":"032-657-1126","addr":"경기도 부천시 송내동 340번지 우성아파트","indutype":"주방용구 - 주방용구","category":"other"}]},{"lat":"37.47770813","long":"126.77071359","imageIndex":17,"items":[{"name":"베베토피아","tel":"","addr":"경기도 부천시 송내동 674-5번지","indutype":"용역 서비스 - 종합용역","category":"other"}]},{"lat":"37.486930604","long":"126.75990967","imageIndex":17,"items":[{"name":"베스트 OA","tel":"032-666-5333","addr":"경기도 부천시 송내동 363-5번지 1층 102호","indutype":"수리서비스 - 사무·통신기기수리","category":"other"}]},{"lat":"37.4864807","long":"126.75157806","imageIndex":17,"items":[{"name":"베스트주방기기","tel":"032-665-2092","addr":"경기도 부천시 송내동 700-6번지 1층","indutype":"주방용구 - 주방용구","category":"other"}]},{"lat":"37.483378273","long":"126.77218847","imageIndex":17,"items":[{"name":"베스티안부천병원장례식장","tel":"031-665-4119","addr":"경기도 부천시 송내동 577-2번지 베스티안병원지하1,2층","indutype":"용역 서비스 - 가례서비스업","category":"other"}]},{"lat":"37.486905173","long":"126.75205152","imageIndex":17,"items":[{"name":"복된간판인테리어","tel":"032-614-3141","addr":"경기도 부천시 송내동 705-3번지 1층","indutype":"건축자재 - 인테리어전문","category":"other"},{"name":"예스디자인","tel":"070-8780-6699","addr":"경기도 부천시 송내동 705-3번지 1층","indutype":"건축자재 - 인테리어전문","category":"other"}]},{"lat":"37.481044401","long":"126.76746977","imageIndex":17,"items":[{"name":"부천공업고등학교","tel":"032-610-7483","addr":"경기도 부천시 송내동 455번지","indutype":"기타 - 기계공구","category":"other"}]},{"lat":"37.483900331","long":"126.76288174","imageIndex":17,"items":[{"name":"부천꽃집","tel":"032-612-1230","addr":"경기도 부천시 송내동 366-13번지","indutype":"문화.취미 - 화원","category":"other"},{"name":"플로렌스 플라워","tel":"032-612-1230","addr":"경기도 부천시 송내동 366-13번지","indutype":"문화.취미 - 화원","category":"other"}]},{"lat":"37.486954977","long":"126.75430141","imageIndex":17,"items":[{"name":"부천방송 (KT올레 내고향TV)","tel":"032-664-4588","addr":"경기도 부천시 송내동 299-8번지 지하1층 (주)그로발전자 2호","indutype":"용역 서비스 - 종합용역","category":"other"}]},{"lat":"37.479875409","long":"126.77321676","imageIndex":17,"items":[{"name":"부천설비","tel":"032-657-7006","addr":"경기도 부천시 송내동 629-22번지 1층","indutype":"건축자재 - 인테리어전문","category":"other"}]},{"lat":"37.479622538","long":"126.77291228","imageIndex":17,"items":[{"name":"부천제일라이온스클럽","tel":"032-664-9040","addr":"경기도 부천시 송내동 629-18번지 2층","indutype":"기타 - 비영리/대상","category":"other"},{"name":"필링(Feeling)","tel":"032-667-9688","addr":"경기도 부천시 송내동 629-18번지 1층","indutype":"문화.취미 - 화방·표구점","category":"other"}]},{"lat":"37.487069432","long":"126.75733126","imageIndex":17,"items":[{"name":"부천하수구수도설비","tel":"032-349-7272","addr":"경기도 부천시 송내동 349-6번지 103호","indutype":"용역 서비스 - 기타용역서비스","category":"other"}]},{"lat":"37.479178339","long":"126.77152305","imageIndex":17,"items":[{"name":"뷰티타일","tel":"032-612-1716","addr":"경기도 부천시 송내동 628-25번지 1층","indutype":"건축자재 - 건축용 요업제품","category":"other"},{"name":"제록스한국오에이","tel":"032-664-4754","addr":"경기도 부천시 송내동 628-25번지","indutype":"사무통신 - 사무용 OA기기","category":"other"}]},{"lat":"37.483592115","long":"126.75758007","imageIndex":17,"items":[{"name":"블라썸디","tel":"070-7529-8843","addr":"경기도 부천시 송내동 331-10번지 대승주택 502호","indutype":"문화.취미 - 화원","category":"other"}]},{"lat":"37.47751111","long":"126.77132469","imageIndex":17,"items":[{"name":"블럭세상 송내점","tel":"031-968-6912","addr":"경기도 부천시 송내동 679-11번지 선경파크리움 401호","indutype":"서적문구 - 완구점","category":"other"}]},{"lat":"37.486119551","long":"126.75549138","imageIndex":17,"items":[{"name":"빛된교회(총회신학)","tel":"032-612-3655","addr":"경기도 부천시 송내동 302-8번지","indutype":"회원제형태 - 기타4","category":"other"}]},{"lat":"37.485818329","long":"126.75363809","imageIndex":17,"items":[{"name":"뽀샵","tel":"070-4150-5894","addr":"경기도 부천시 송내동 315-1번지 지하1층 고려불한증막","indutype":"의류 - 정장","category":"other"}]},{"lat":"37.484814979","long":"126.75210374","imageIndex":17,"items":[{"name":"뿌리깊은나무","tel":"070-4149-8549","addr":"경기도 부천시 송내동 703-2번지 1층","indutype":"가구 - 일반가구","category":"other"}]},{"lat":"37.480901083","long":"126.77246743","imageIndex":17,"items":[{"name":"사단법인한국청소년육성회부천소사지구회","tel":"032-326-4114","addr":"경기도 부천시 송내동 601번지 부천소사경찰서 내","indutype":"기타 - 비영리/비대상","category":"other"}]},{"lat":"37.481903483","long":"126.76904993","imageIndex":17,"items":[{"name":"사대한불교조계종석왕사룸비니송내사회체육","tel":"032-668-6300","addr":"경기도 부천시 송내동 457번지","indutype":"회원제형태 - 레져업소","category":"other"}]},{"lat":"37.478625339","long":"126.76527278","imageIndex":17,"items":[{"name":"사랑냉동","tel":"070-8179-9286","addr":"경기도 부천시 송내동 450-1번지 현대고층아파트","indutype":"회원제형태 - 기타4","category":"other"},{"name":"주식회사 케이비앰","tel":"032-651-7811","addr":"경기도 부천시 송내동 450-1번지 외2필지제1호현대상가3층","indutype":"용역 서비스 - 종합용역","category":"other"},{"name":"주원유통","tel":"032-655-9640","addr":"경기도 부천시 송내동 450-1번지 현대고층아파트","indutype":"유통업 영리 - 기타유통업","category":"other"}]},{"lat":"37.487398737","long":"126.74280085","imageIndex":17,"items":[{"name":"사부유통","tel":"070-8805-7324","addr":"경기도 부천시 송내동 684-1번지 202호","indutype":"회원제형태 - 기타4","category":"other"},{"name":"솔과 생활건강","tel":"032-656-6660","addr":"경기도 부천시 송내동 684-1번지","indutype":"신변잡화 - 기타잡화","category":"other"}]},{"lat":"37.479794893","long":"126.76440984","imageIndex":17,"items":[{"name":"사진나라","tel":"032-651-6035","addr":"경기도 부천시 송내동 453-12번지 2층","indutype":"광학제품 - 사진관","category":"other"}]},{"lat":"37.486067996","long":"126.75669006","imageIndex":17,"items":[{"name":"새한종합상사","tel":"032-667-1600","addr":"경기도 부천시 송내동 336-14번지","indutype":"건축자재 - 기타건축자재","category":"other"}]},{"lat":"37.484037276","long":"126.75502338","imageIndex":17,"items":[{"name":"생수 동원샘물","tel":"","addr":"경기도 부천시 송내동 327-2번지 송내동성호아파트","indutype":"유통업 영리 - 기타유통업","category":"other"}]},{"lat":"37.484206216","long":"126.76713197","imageIndex":17,"items":[{"name":"서연전자","tel":"032-611-3673","addr":"경기도 부천시 송내동 374-2번지","indutype":"전기제품 - 기타전기제품","category":"other"}]},{"lat":"37.486788267","long":"126.75643895","imageIndex":17,"items":[{"name":"성심인 장례서비스","tel":"031-1577-0207","addr":"경기도 부천시 송내동 300-1번지 장미맨숀 102호","indutype":"용역 서비스 - 가례서비스업","category":"other"}]},{"lat":"37.480489193","long":"126.76024709","imageIndex":17,"items":[{"name":"성주고물상","tel":"070-7420-0158","addr":"경기도 부천시 송내동 418-8번지","indutype":"신변잡화 - 기타잡화","category":"other"}]},{"lat":"37.486821558","long":"126.7425541","imageIndex":17,"items":[{"name":"성진섬유","tel":"032-666-1962","addr":"경기도 부천시 송내동 682-7번지","indutype":"의류 - 기타의류","category":"other"},{"name":"성진섬유","tel":"032-666-1962","addr":"경기도 부천시 송내동 682-7번지","indutype":"의류 - 기타의류","category":"other"}]},{"lat":"37.481592612","long":"126.7713234","imageIndex":17,"items":[{"name":"세계로오병이어작품복음재단","tel":"032-202-1799","addr":"경기도 부천시 송내동 592-14번지 202호","indutype":"문화.취미 - 민예·공예품","category":"other"}]},{"lat":"37.486868789","long":"126.76052043","imageIndex":17,"items":[{"name":"세계선교협의회","tel":"032-651-9027","addr":"경기도 부천시 송내동 363-8번지","indutype":"기타 - 비영리/비대상","category":"other"}]},{"lat":"37.48003781","long":"126.76873918","imageIndex":17,"items":[{"name":"세라믹스튜디오숨","tel":"02-1111-1111","addr":"경기도 부천시 송내동 460번지 1층 101호","indutype":"문화.취미 - 문화취미기타","category":"other"}]},{"lat":"37.487154923","long":"126.74255295","imageIndex":17,"items":[{"name":"세븐일레븐부개은서점","tel":"","addr":"경기도 부천시 송내동 682-5번지 1층","indutype":"유통업 영리 - 편 의 점","category":"other"}]},{"lat":"37.486955513","long":"126.75888067","imageIndex":17,"items":[{"name":"세븐일레븐부천송내대로점","tel":"031-1577-0711","addr":"경기도 부천시 송내동 355-8번지","indutype":"유통업 영리 - 편 의 점","category":"other"}]},{"lat":"37.479984374","long":"126.76454491","imageIndex":17,"items":[{"name":"세븐일레븐부천송내동신점","tel":"","addr":"경기도 부천시 송내동 433-15번지 1층","indutype":"유통업 영리 - 편 의 점","category":"other"},{"name":"편의점24","tel":"032-662-4533","addr":"경기도 부천시 송내동 433-15번지 1층","indutype":"유통업 영리 - 편 의 점","category":"other"}]},{"lat":"37.483872129","long":"126.76230521","imageIndex":17,"items":[{"name":"세신인테리어","tel":"032-668-9901","addr":"경기도 부천시 송내동 366-6번지","indutype":"건축자재 - 인테리어전문","category":"other"},{"name":"킴스타일인테리어","tel":"032-612-7504","addr":"경기도 부천시 송내동 366-6번지 (1호)","indutype":"건축자재 - 건축용 요업제품","category":"other"}]},{"lat":"37.479320523","long":"126.7705164","imageIndex":17,"items":[{"name":"셰프독","tel":"","addr":"경기도 부천시 송내동 612-5번지","indutype":"문화.취미 - 애완동물","category":"other"}]},{"lat":"37.481984186","long":"126.75558416","imageIndex":17,"items":[{"name":"손(SONN)","tel":"070-7559-0699","addr":"경기도 부천시 송내동 308-13번지 1층","indutype":"문화.취미 - 문화취미기타","category":"other"}]},{"lat":"37.483071605","long":"126.77201982","imageIndex":17,"items":[{"name":"솔성","tel":"032-654-7900","addr":"경기도 부천시 송내동 576번지","indutype":"사무통신 - 사무용 OA기기","category":"other"}]},{"lat":"37.484174743","long":"126.75613095","imageIndex":17,"items":[{"name":"송내1동주민자치위원회","tel":"032-663-8016","addr":"경기도 부천시 송내동 328-2번지","indutype":"문화.취미 - 문화취미기타","category":"other"}]},{"lat":"37.483816917","long":"126.76174007","imageIndex":17,"items":[{"name":"송내동오토바이쎈타","tel":"032-664-4441","addr":"경기도 부천시 송내동 366-2번지 1층","indutype":"수리서비스 - 레져용품수리","category":"other"}]},{"lat":"37.479903855","long":"126.76482781","imageIndex":17,"items":[{"name":"송내장식","tel":"032-663-7754","addr":"경기도 부천시 송내동 433-13번지","indutype":"직물 - 카페트,커튼,천막,지물","category":"other"},{"name":"안데르센","tel":"032-654-0109","addr":"경기도 부천시 송내동 433-13번지","indutype":"의류 - 아동의류","category":"other"}]},{"lat":"37.486932424","long":"126.75643847","imageIndex":17,"items":[{"name":"송내전자","tel":"032-654-5300","addr":"경기도 부천시 송내동 300번지","indutype":"수리서비스 - 가정용품수리","category":"other"},{"name":"와이앤케이코퍼레이션","tel":"032-651-4738","addr":"경기도 부천시 송내동 300번지 생명샘교회 102호","indutype":"의류 - 정장","category":"other"}]},{"lat":"37.486397293","long":"126.75474422","imageIndex":17,"items":[{"name":"송내종합이불","tel":"032-347-9863","addr":"경기도 부천시 송내동 299-9번지","indutype":"직물 - 침구·수예점","category":"other"},{"name":"주식회사 논노스포츠","tel":"070-8820-5505","addr":"경기도 부천시 송내동 299-9번지","indutype":"의류 - 정장","category":"other"},{"name":"진성다이아몬드","tel":"032-654-4388","addr":"경기도 부천시 송내동 299-9번지","indutype":"기타 - 기계공구","category":"other"}]},{"lat":"37.484178848","long":"126.77151893","imageIndex":17,"items":[{"name":"송내중고알뜰매장","tel":"032-663-8272","addr":"경기도 부천시 송내동 563-6번지","indutype":"주방용구 - 주방용구","category":"other"}]},{"lat":"37.483119241","long":"126.75983156","imageIndex":17,"items":[{"name":"수 스크린골프존","tel":"032-612-4800","addr":"경기도 부천시 송내동 400-8번지 세인트빌딩 3층","indutype":"회원제형태 - 레져업소","category":"other"}]},{"lat":"37.486708614","long":"126.75712892","imageIndex":17,"items":[{"name":"수림스킨케어","tel":"032-328-5885","addr":"경기도 부천시 송내동 338번지 대진아파트","indutype":"회원제형태 - 기타4","category":"other"}]},{"lat":"37.487007748","long":"126.75799856","imageIndex":17,"items":[{"name":"수지안","tel":"","addr":"경기도 부천시 송내동 354-6번지 202호","indutype":"문화.취미 - 민예·공예품","category":"other"},{"name":"장미상사","tel":"032-655-8468","addr":"경기도 부천시 송내동 354-6번지","indutype":"직물 - 카페트,커튼,천막,지물","category":"other"}]},{"lat":"37.483896874","long":"126.7611858","imageIndex":17,"items":[{"name":"신성전기.조명","tel":"032-666-1999","addr":"경기도 부천시 송내동 345-11번지","indutype":"건축자재 - 조명기구","category":"other"}]},{"lat":"37.479675978","long":"126.76801674","imageIndex":17,"items":[{"name":"신성전기철물점","tel":"032-661-6691","addr":"경기도 부천시 송내동 454-20번지 1층","indutype":"건축자재 - 목재·석재·철물","category":"other"},{"name":"코코피부","tel":"032-613-1616","addr":"경기도 부천시 송내동 454-20번지","indutype":"회원제형태 - 기타4","category":"other"}]},{"lat":"37.484066022","long":"126.7601903","imageIndex":17,"items":[{"name":"신성전원","tel":"032-662-5651","addr":"경기도 부천시 송내동 344-1번지","indutype":"전기제품 - 기타전기제품","category":"other"}]},{"lat":"37.484369735","long":"126.77237763","imageIndex":17,"items":[{"name":"신영홀릭","tel":"070-8756-8540","addr":"경기도 부천시 송내동 565-1번지 해마루플러스 901호","indutype":"의류 - 정장","category":"other"}]},{"lat":"37.486958533","long":"126.75599742","imageIndex":17,"items":[{"name":"신한인테리어","tel":"032-664-0673","addr":"경기도 부천시 송내동 299-18번지","indutype":"직물 - 카페트,커튼,천막,지물","category":"other"}]},{"lat":"37.481734202","long":"126.76104579","imageIndex":17,"items":[{"name":"실로암문구","tel":"032-666-9280","addr":"경기도 부천시 송내동 400-29번지","indutype":"서적문구 - 문구용품","category":"other"}]},{"lat":"37.4775108","long":"126.77116641","imageIndex":17,"items":[{"name":"씨앤씨환경","tel":"","addr":"경기도 부천시 송내동 679-10번지 펜더하우스 501호","indutype":"용역 서비스 - 종합용역","category":"other"}]},{"lat":"37.486898079","long":"126.74457775","imageIndex":17,"items":[{"name":"씨엘에스 바이오","tel":"032-467-5388","addr":"경기도 부천시 송내동 693-1번지 2층 202호","indutype":"서적문구 - 과학기자재","category":"other"}]},{"lat":"37.480150726","long":"126.76215886","imageIndex":17,"items":[{"name":"씨유송내명성점","tel":"032-662-3088","addr":"경기도 부천시 송내동 438-1번지 1층","indutype":"유통업 영리 - 편 의 점","category":"other"}]},{"lat":"37.479649779","long":"126.76843513","imageIndex":17,"items":[{"name":"씨유송내성주점","tel":"080-080-3663","addr":"경기도 부천시 송내동 454-11번지 1층","indutype":"유통업 영리 - 편 의 점","category":"other"},{"name":"작은정원","tel":"070-5022-4846","addr":"경기도 부천시 송내동 454-11번지","indutype":"문화.취미 - 화원","category":"other"}]},{"lat":"37.482429823","long":"126.76641396","imageIndex":17,"items":[{"name":"씨유송내어울마당점","tel":"032-662-3088","addr":"경기도 부천시 송내동 387-4번지","indutype":"유통업 영리 - 편 의 점","category":"other"}]},{"lat":"37.487070939","long":"126.75374699","imageIndex":17,"items":[{"name":"씨유송내역전점","tel":"032-651-6651","addr":"경기도 부천시 송내동 299번지 1층","indutype":"유통업 영리 - 편 의 점","category":"other"}]},{"lat":"37.484598443","long":"126.75624262","imageIndex":17,"items":[{"name":"아맘","tel":"","addr":"경기도 부천시 송내동 323-14번지 A동 302호","indutype":"광학제품 - 사진관","category":"other"}]},{"lat":"37.484263383","long":"126.76419212","imageIndex":17,"items":[{"name":"아이간지(중동역점)","tel":"032-614-8785","addr":"경기도 부천시 송내동 373번지 대우프라자 102호","indutype":"사무통신 - 통신기기","category":"other"}]},{"lat":"37.48345273","long":"126.77340932","imageIndex":17,"items":[{"name":"아이꿈터부천점","tel":"031-325-6041","addr":"경기도 부천시 송내동 574번지 1층 일부","indutype":"서적문구 - 문구용품","category":"other"}]},{"lat":"37.480181318","long":"126.76841086","imageIndex":17,"items":[{"name":"아쿠아리아월드트레이딩(AQUARIA WORLD TRA","tel":"032-662-3689","addr":"경기도 부천시 송내동 454번지 2층","indutype":"문화.취미 - 수족관","category":"other"}]},{"lat":"37.48523149","long":"126.76174683","imageIndex":17,"items":[{"name":"알로하우쿨렐레","tel":"032-614-0990","addr":"경기도 부천시 송내동 369-1번지 4층 301호","indutype":"레져용품 - 악기점","category":"other"},{"name":"주신디자인","tel":"032-662-9870","addr":"경기도 부천시 송내동 369-1번지","indutype":"건축자재 - 인테리어전문","category":"other"},{"name":"헤라텔레콤","tel":"032-662-1212","addr":"경기도 부천시 송내동 369-1번지 서진빌딩 106호","indutype":"사무통신 - 통신기기","category":"other"}]},{"lat":"37.483593779","long":"126.75838282","imageIndex":17,"items":[{"name":"알파크로스","tel":"032-666-0692","addr":"경기도 부천시 송내동 331-7번지","indutype":"의류 - 정장","category":"other"}]},{"lat":"37.486152887","long":"126.75852146","imageIndex":17,"items":[{"name":"애드벤쳐","tel":"070-8692-8294","addr":"경기도 부천시 송내동 336-5번지 현대아파트","indutype":"회원제형태 - 기타4","category":"other"}]},{"lat":"37.486626958","long":"126.76122223","imageIndex":17,"items":[{"name":"액상나라 부천점","tel":"070-7516-9591","addr":"경기도 부천시 송내동 367-3번지","indutype":"기타 - 기타 전문점","category":"other"},{"name":"주은리페어","tel":"032-666-8875","addr":"경기도 부천시 송내동 367-3번지 1층 101호","indutype":"용역 서비스 - 기타용역서비스","category":"other"}]},{"lat":"37.479763301","long":"126.7621601","imageIndex":17,"items":[{"name":"양지 메디컬 케어 컨설팅","tel":"02-1661-1639","addr":"경기도 부천시 송내동 441-35번지 202호","indutype":"용역 서비스 - 정보서비스","category":"other"}]},{"lat":"37.487095191","long":"126.75672061","imageIndex":17,"items":[{"name":"어니샵","tel":"","addr":"경기도 부천시 송내동 349-9번지 1층 일부","indutype":"의류 - 정장","category":"other"}]},{"lat":"37.485179142","long":"126.75819674","imageIndex":17,"items":[{"name":"어드벤쳐피아노에듀프라임부천","tel":"032-327-1282","addr":"경기도 부천시 송내동 335-13번지 진주아파트","indutype":"회원제형태 - 서적","category":"other"}]},{"lat":"37.480208225","long":"126.77293309","imageIndex":17,"items":[{"name":"어브로디자인","tel":"","addr":"경기도 부천시 송내동 600-9번지 1층","indutype":"건축자재 - 인테리어전문","category":"other"}]},{"lat":"37.481900993","long":"126.76779496","imageIndex":17,"items":[{"name":"어빗모어(ABITMOR)","tel":"","addr":"경기도 부천시 송내동 456-5번지 부천 송내 동양 N PART 아파트","indutype":"신변잡화 - 액세서리","category":"other"},{"name":"한승기업","tel":"032-613-5268","addr":"경기도 부천시 송내동 456-5번지 부천 송내 동양 N PART 아파트","indutype":"주방용구 - 주방용구","category":"other"}]},{"lat":"37.4845368","long":"126.75263607","imageIndex":17,"items":[{"name":"에넥스부천송내점","tel":"032-611-6375","addr":"경기도 부천시 송내동 708-10번지 스테이션프라자 1층 109호 110호","indutype":"주방용구 - 주방용구","category":"other"},{"name":"주식회사 디앤오","tel":"070-4800-2780","addr":"경기도 부천시 송내동 708-10번지 2층 202호","indutype":"용역 서비스 - 정보서비스","category":"other"}]},{"lat":"37.48270854","long":"126.76166449","imageIndex":17,"items":[{"name":"에덴파크","tel":"032-611-0447","addr":"경기도 부천시 송내동 398-1번지 1층","indutype":"문화.취미 - 애완동물","category":"other"}]},{"lat":"37.484737793","long":"126.77168681","imageIndex":17,"items":[{"name":"에밀리","tel":"","addr":"경기도 부천시 송내동 561-15번지 대림프라우드빌 501호","indutype":"의류 - 정장","category":"other"}]},{"lat":"37.486319459","long":"126.75201956","imageIndex":17,"items":[{"name":"에스엔피링크","tel":"032-466-0688","addr":"경기도 부천시 송내동 705-8번지 101호","indutype":"의류 - 정장","category":"other"}]},{"lat":"37.47901452","long":"126.77068694","imageIndex":17,"items":[{"name":"에이라운지","tel":"070-8279-0072","addr":"경기도 부천시 송내동 612-11번지","indutype":"가구 - 기타가구","category":"other"}]},{"lat":"37.4847893","long":"126.7703864","imageIndex":17,"items":[{"name":"에이스유통","tel":"032-611-5358","addr":"경기도 부천시 송내동 558번지","indutype":"신변잡화 - 기타잡화","category":"other"}]},{"lat":"37.4857109944","long":"126.7627176577","imageIndex":17,"items":[{"name":"엔터컴퓨터","tel":"032-657-0010","addr":"경기도 부천시 송내동 368번지 뉴서울상가 1층 115호","indutype":"사무통신 - 컴퓨터","category":"other"}]},{"lat":"37.484346055","long":"126.76949457","imageIndex":17,"items":[{"name":"엘리엘","tel":"032-665-0003","addr":"경기도 부천시 송내동 379-2번지 영스포렉스빌딩","indutype":"용역 서비스 - 혼례서비스","category":"other"},{"name":"영골프클럽","tel":"032-614-8700","addr":"경기도 부천시 송내동 379-2번지 8,9층","indutype":"회원제형태 - 레져업소","category":"other"}]},{"lat":"37.484370242","long":"126.77263768","imageIndex":17,"items":[{"name":"엠에스더뮤지컬웨딩(M.Esther Musical Wedd","tel":"031-000-0000","addr":"경기도 부천시 송내동 565-2번지 아이빌딩 304호","indutype":"용역 서비스 - 종합용역","category":"other"}]},{"lat":"37.481457464","long":"126.77132382","imageIndex":17,"items":[{"name":"엠에스미선박","tel":"031-6660-6393","addr":"경기도 부천시 송내동 592-7번지","indutype":"용역 서비스 - 사무서비스","category":"other"}]},{"lat":"37.484346881","long":"126.7699129","imageIndex":17,"items":[{"name":"영골프스크린/영PT샵","tel":"032-614-8700","addr":"경기도 부천시 송내동 554 7층","indutype":"회원제형태 - 레져업소","category":"other"}]},{"lat":"37.4806264225","long":"126.7702410195","imageIndex":17,"items":[{"name":"영동프로세탁","tel":"032-654-2151","addr":"경기도 부천시 송내동 607","indutype":"수리서비스 - 세탁소","category":"other"}]},{"lat":"37.479821572","long":"126.76873985","imageIndex":17,"items":[{"name":"예송시스템","tel":"070-4247-8834","addr":"경기도 부천시 송내동 460-1번지","indutype":"전기제품 - 기타전기제품","category":"other"}]},{"lat":"37.484677062","long":"126.77288548","imageIndex":17,"items":[{"name":"오띠모","tel":"070-2699-0807","addr":"경기도 부천시 송내동 566-6번지","indutype":"의류 - 내의판매","category":"other"}]},{"lat":"37.487182621","long":"126.75544265","imageIndex":17,"items":[{"name":"옷사랑","tel":"032-651-1481","addr":"경기도 부천시 송내동 347-1번지 1층","indutype":"의류 - 정장","category":"other"}]},{"lat":"37.478042687","long":"126.76676695","imageIndex":17,"items":[{"name":"와이유테일러","tel":"","addr":"경기도 부천시 송내동 463-60번지 대한아파트","indutype":"의류 - 정장","category":"other"},{"name":"주식회사 퀸스이오","tel":"032-568-1000","addr":"경기도 부천시 송내동 463-60번지 대한아파트 514호","indutype":"의류 - 정장","category":"other"}]},{"lat":"37.484898265","long":"126.75744013","imageIndex":17,"items":[{"name":"왈로우앤코(wallownco)","tel":"","addr":"경기도 부천시 송내동 335-6번지 101호","indutype":"문화.취미 - 문화취미기타","category":"other"}]},{"lat":"37.482569387","long":"126.77321982","imageIndex":17,"items":[{"name":"왕거미","tel":"032-678-2048","addr":"경기도 부천시 송내동 596-1번지 세영퍼스트빌 401호","indutype":"의류 - 정장","category":"other"}]},{"lat":"37.486904434","long":"126.7603281","imageIndex":17,"items":[{"name":"우진모피","tel":"032-661-4559","addr":"경기도 부천시 송내동 363-7번지","indutype":"의류 - 정장","category":"other"}]},{"lat":"37.479231734","long":"126.77118371","imageIndex":17,"items":[{"name":"운학사","tel":"070-7349-8870","addr":"경기도 부천시 송내동 628-11번지 1층","indutype":"신변잡화 - 기념품점","category":"other"}]},{"lat":"37.481286564","long":"126.77147132","imageIndex":17,"items":[{"name":"원스톱서비스","tel":"070-4200-3222","addr":"경기도 부천시 송내동 592-5번지 삼송연립 라동 150호","indutype":"용역 서비스 - 사무서비스","category":"other"}]},{"lat":"37.483760313","long":"126.76049656","imageIndex":17,"items":[{"name":"위니아서비스부천점","tel":"032-662-8351","addr":"경기도 부천시 송내동 344-7번지","indutype":"수리서비스 - 기타수리서비스","category":"other"},{"name":"장수돌침대","tel":"032-324-1988","addr":"경기도 부천시 송내동 344-7번지","indutype":"가구 - 일반가구","category":"other"}]},{"lat":"37.486958013","long":"126.75574867","imageIndex":17,"items":[{"name":"유베이스서울MA센터","tel":"032-203-7143","addr":"경기도 부천시 송내동 299-24번지 1층 일부","indutype":"사무통신 - 컴퓨터","category":"other"}]},{"lat":"37.486208863","long":"126.75085534","imageIndex":17,"items":[{"name":"유성 O.A","tel":"032-543-0712","addr":"경기도 부천시 송내동 701-2번지 1층","indutype":"사무통신 - 사무용 OA기기","category":"other"}]},{"lat":"37.486847742","long":"126.75046876","imageIndex":17,"items":[{"name":"유한회사 엠렌트카","tel":"031-111-1111","addr":"경기도 부천시 송내동 697-4번지 1층","indutype":"여행 - 렌터카","category":"other"},{"name":"유한회사 엠렌트카","tel":"070-8955-0942","addr":"경기도 부천시 송내동 697-4번지 1층","indutype":"여행 - 렌터카","category":"other"},{"name":"유한회사 엠렌트카","tel":"031-812-9639","addr":"경기도 부천시 송내동 697-4번지 1층","indutype":"여행 - 렌터카","category":"other"},{"name":"유한회사 엠렌트카","tel":"031-111-1111","addr":"경기도 부천시 송내동 697-4번지 1층","indutype":"여행 - 렌터카","category":"other"},{"name":"유한회사 엠렌트카","tel":"","addr":"경기도 부천시 송내동 697-4번지 1층","indutype":"여행 - 렌터카","category":"other"},{"name":"유한회사 엠렌트카","tel":"031-812-9639","addr":"경기도 부천시 송내동 697-4번지 1층","indutype":"여행 - 렌터카","category":"other"},{"name":"유한회사 엠렌트카","tel":"","addr":"경기도 부천시 송내동 697-4번지 1층","indutype":"여행 - 렌터카","category":"other"},{"name":"유한회사 엠렌트카","tel":"","addr":"경기도 부천시 송내동 697-4번지 1층","indutype":"여행 - 렌터카","category":"other"},{"name":"유한회사 엠렌트카","tel":"","addr":"경기도 부천시 송내동 697-4번지 1층","indutype":"여행 - 렌터카","category":"other"},{"name":"유한회사 엠렌트카","tel":"","addr":"경기도 부천시 송내동 697-4번지 1층","indutype":"여행 - 렌터카","category":"other"},{"name":"유한회사 엠렌트카","tel":"","addr":"경기도 부천시 송내동 697-4번지 1층","indutype":"여행 - 렌터카","category":"other"},{"name":"유한회사 엠렌트카","tel":"","addr":"경기도 부천시 송내동 697-4번지 1층","indutype":"여행 - 렌터카","category":"other"},{"name":"유한회사 엠렌트카","tel":"","addr":"경기도 부천시 송내동 697-4번지 1층","indutype":"여행 - 렌터카","category":"other"},{"name":"유한회사 엠렌트카","tel":"031-812-9639","addr":"경기도 부천시 송내동 697-4번지 1층","indutype":"여행 - 렌터카","category":"other"},{"name":"유한회사 엠렌트카","tel":"032-812-9639","addr":"경기도 부천시 송내동 697-4번지 1층","indutype":"여행 - 렌터카","category":"other"},{"name":"유한회사 엠렌트카","tel":"","addr":"경기도 부천시 송내동 697-4번지 1층","indutype":"여행 - 렌터카","category":"other"},{"name":"유한회사 엠렌트카","tel":"","addr":"경기도 부천시 송내동 697-4번지 1층","indutype":"여행 - 렌터카","category":"other"},{"name":"유한회사 엠렌트카","tel":"","addr":"경기도 부천시 송내동 697-4번지 1층","indutype":"여행 - 렌터카","category":"other"}]},{"lat":"37.48420538","long":"126.76671363","imageIndex":17,"items":[{"name":"은평 (송월타올)","tel":"032-665-6669","addr":"경기도 부천시 송내동 374번지 호암프라자 1층 105호","indutype":"직물 - 옷감·직물","category":"other"}]},{"lat":"37.479684178","long":"126.76760971","imageIndex":17,"items":[{"name":"이니스나무공작소","tel":"070-8759-2890","addr":"경기도 부천시 송내동 439-21번지 지하","indutype":"문화.취미 - 문화취미기타","category":"other"}]},{"lat":"37.486848427","long":"126.75504801","imageIndex":17,"items":[{"name":"이온전자산업(주)","tel":"032-612-3678","addr":"경기도 부천시 송내동 299-23번지 1층, 3층","indutype":"전기제품 - 기타전기제품","category":"other"}]},{"lat":"37.48623553","long":"126.75068565","imageIndex":17,"items":[{"name":"이은","tel":"032-672-6063","addr":"경기도 부천시 송내동 701-1번지 1층","indutype":"건축자재 - 인테리어전문","category":"other"}]},{"lat":"37.482852309","long":"126.77046024","imageIndex":17,"items":[{"name":"이지네오텍","tel":"02-686-0876","addr":"경기도 부천시 송내동 580번지 삼익아파트","indutype":"용역 서비스 - 소프트웨어","category":"other"}]},{"lat":"37.4869324244","long":"126.7564384717","imageIndex":17,"items":[{"name":"인천부천지사CNcom","tel":"032-261-2587","addr":"경기도 부천시 송내동 300 3층","indutype":"사무통신 - 통신기기","category":"other"}]},{"lat":"37.483566552","long":"126.77171303","imageIndex":17,"items":[{"name":"인하텔레콤","tel":"032-667-0111","addr":"경기도 부천시 송내동 578-5번지 7호","indutype":"사무통신 - 통신기기","category":"other"}]},{"lat":"37.484125872","long":"126.77207311","imageIndex":17,"items":[{"name":"일반가구점","tel":"032-613-0701","addr":"경기도 부천시 송내동 564번지 1층","indutype":"가구 - 일반가구","category":"other"}]},{"lat":"37.48712182","long":"126.7565283","imageIndex":17,"items":[{"name":"일을 좋아하는 사람들","tel":"","addr":"경기도 부천시 송내동 349-10번지 1층 102호","indutype":"건축자재 - 인테리어전문","category":"other"}]},{"lat":"37.486763008","long":"126.76166276","imageIndex":17,"items":[{"name":"장가네창고낚시","tel":"032-612-1733","addr":"경기도 부천시 송내동 523번지 1층","indutype":"레져용품 - 스포츠·레져용품","category":"other"}]},{"lat":"37.485094222","long":"126.75635406","imageIndex":17,"items":[{"name":"정기레져","tel":"032-321-1218","addr":"경기도 부천시 송내동 323-12번지","indutype":"레져용품 - 스포츠·레져용품","category":"other"}]},{"lat":"37.4869820989","long":"126.7586657502","imageIndex":17,"items":[{"name":"정토조경 주식회사","tel":"032-666-1220","addr":"경기도 부천시 송내동 355-7 강남상가 B동 201호","indutype":"건축자재 - 인테리어전문","category":"other"}]},{"lat":"37.479929691","long":"126.76873951","imageIndex":17,"items":[{"name":"제이모바일","tel":"032-0000-0000","addr":"경기도 부천시 송내동 460-8번지 1층","indutype":"사무통신 - 통신기기","category":"other"}]},{"lat":"37.484317195","long":"126.77315794","imageIndex":17,"items":[{"name":"제이에스팩토리(JSfactory)","tel":"070-4007-1147","addr":"경기도 부천시 송내동 572번지 화이트빌라 602호","indutype":"의류 - 아동의류","category":"other"}]},{"lat":"37.484068061","long":"126.76118525","imageIndex":17,"items":[{"name":"제이컴퍼니","tel":"032-657-2122","addr":"경기도 부천시 송내동 345-8번지 4층","indutype":"용역 서비스 - 종합용역","category":"other"},{"name":"주식회사국제팝업북아트협회","tel":"032-329-7607","addr":"경기도 부천시 송내동 345-8번지 2층","indutype":"서적문구 - 기타서적문구","category":"other"},{"name":"코오롱장식","tel":"032-665-8564","addr":"경기도 부천시 송내동 345-8번지","indutype":"건축자재 - 인테리어전문","category":"other"}]},{"lat":"37.478763064","long":"126.77110602","imageIndex":17,"items":[{"name":"제일설비","tel":"032-1600-6671","addr":"경기도 부천시 송내동 627-3번지","indutype":"용역 서비스 - 종합용역","category":"other"}]},{"lat":"37.4870690326","long":"126.7571390460","imageIndex":17,"items":[{"name":"조광페인트부천대리점","tel":"032-667-2672","addr":"경기도 부천시 송내동 349-7,2호","indutype":"건축자재 - 페인트","category":"other"}]},{"lat":"37.481677377","long":"126.75535905","imageIndex":17,"items":[{"name":"조흥금속공사","tel":"032-612-3945","addr":"경기도 부천시 송내동 305-21번지 (1층1호2호)","indutype":"건축자재 - 조명기구","category":"other"}]},{"lat":"37.484179335","long":"126.77176767","imageIndex":17,"items":[{"name":"종합미싱","tel":"031-468-7000","addr":"경기도 부천시 송내동 563-7번지","indutype":"기타 - 기계공구","category":"other"},{"name":"페인트스토어","tel":"032-653-2516","addr":"경기도 부천시 송내동 563-7번지 1층","indutype":"건축자재 - 페인트","category":"other"}]},{"lat":"37.480156018","long":"126.76477048","imageIndex":17,"items":[{"name":"주식회사 어썸코퍼레이션","tel":"031-1644-9871","addr":"경기도 부천시 송내동 434-11번지","indutype":"의류 - 정장","category":"other"}]},{"lat":"37.486627401","long":"126.75277608","imageIndex":17,"items":[{"name":"주식회사 이레기업","tel":"032-655-5233","addr":"경기도 부천시 송내동 709-3번지 은경빌딩 5동","indutype":"사무통신 - 통신기기","category":"other"}]},{"lat":"37.486123725","long":"126.75749265","imageIndex":17,"items":[{"name":"주식회사 플랜디오","tel":"032-613-4517","addr":"경기도 부천시 송내동 336-19번지 1층","indutype":"서적문구 - 출판 및 인쇄물","category":"other"}]},{"lat":"37.479925985","long":"126.76240831","imageIndex":17,"items":[{"name":"주식회사레이코어","tel":"070-8828-6465","addr":"경기도 부천시 송내동 441-42번지","indutype":"전기제품 - 가전제품","category":"other"}]},{"lat":"37.483372345","long":"126.75588485","imageIndex":17,"items":[{"name":"주식회사이젠파워","tel":"032-613-3373","addr":"경기도 부천시 송내동 328-5번지 1층","indutype":"전기제품 - 냉열기기","category":"other"}]},{"lat":"37.486785976","long":"126.75107954","imageIndex":17,"items":[{"name":"주원디지털 O.A","tel":"032-529-3211","addr":"경기도 부천시 송내동 699-3번지 1층","indutype":"사무통신 - 사무용 OA기기","category":"other"}]},{"lat":"37.482565481","long":"126.77121864","imageIndex":17,"items":[{"name":"지박스","tel":"032-1599-0923","addr":"경기도 부천시 송내동 591-2번지","indutype":"사무통신 - 통신기기","category":"other"}]},{"lat":"37.48598806","long":"126.75724435","imageIndex":17,"items":[{"name":"지브릿지(G.BRIDGE)","tel":"032-664-6660","addr":"경기도 부천시 송내동 336-22번지 2층","indutype":"서적문구 - 완구점","category":"other"}]},{"lat":"37.485707011","long":"126.75640858","imageIndex":17,"items":[{"name":"착한교재","tel":"032-506-0228","addr":"경기도 부천시 송내동 319-7번지","indutype":"서적문구 - 문구용품","category":"other"}]},{"lat":"37.482040217","long":"126.76985223","imageIndex":17,"items":[{"name":"채스킨케어","tel":"032-663-5667","addr":"경기도 부천시 송내동 588-2번지 1층","indutype":"회원제형태 - 기타4","category":"other"}]},{"lat":"37.486768101","long":"126.7597519","imageIndex":17,"items":[{"name":"청소반장","tel":"032-1688-5613","addr":"경기도 부천시 송내동 339-1번지 건우아파트","indutype":"용역 서비스 - 종합용역","category":"other"}]},{"lat":"37.484177162","long":"126.77065965","imageIndex":17,"items":[{"name":"최고텔레콤SK송내대리점","tel":"032-664-8131","addr":"경기도 부천시 송내동 557-9번지","indutype":"사무통신 - 통신기기","category":"other"}]},{"lat":"37.483238134","long":"126.76069045","imageIndex":17,"items":[{"name":"충청윤업사","tel":"032-612-8409","addr":"경기도 부천시 송내동 400-10번지 화신연립","indutype":"레져용품 - 스포츠·레져용품","category":"other"}]},{"lat":"37.48332172","long":"126.76191125","imageIndex":17,"items":[{"name":"친환경 운동화 손세탁","tel":"032-614-3370","addr":"경기도 부천시 송내동 396번지","indutype":"수리서비스 - 세탁소","category":"other"}]},{"lat":"37.483402837","long":"126.75754677","imageIndex":17,"items":[{"name":"캐릭터공작소 Mangchi","tel":"032-651-5069","addr":"경기도 부천시 송내동 331-14번지","indutype":"용역 서비스 - 사무서비스","category":"other"}]},{"lat":"37.486541044","long":"126.7503002","imageIndex":17,"items":[{"name":"케이에스한국품질표준원/비씨","tel":"032-0-0","addr":"경기도 부천시 송내동 697-13번지","indutype":"별도관리 - 자체물품대금","category":"other"}]},{"lat":"37.487042802","long":"126.75752356","imageIndex":17,"items":[{"name":"코오롱정수기 경인센타","tel":"032-654-2889","addr":"경기도 부천시 송내동 349-1번지 1층","indutype":"주방용구 - 정수기","category":"other"}]},{"lat":"37.482858779","long":"126.77377294","imageIndex":17,"items":[{"name":"퀸스포츠","tel":"032-656-4008","addr":"경기도 부천시 송내동 575-19번지 리마빌 B동 501호","indutype":"레져용품 - 스포츠·레져용품","category":"other"}]},{"lat":"37.479760652","long":"126.7653031","imageIndex":17,"items":[{"name":"크린토피아 송내현대점","tel":"032-657-5678","addr":"경기도 부천시 송내동 433-25번지 1층","indutype":"수리서비스 - 세탁소","category":"other"}]},{"lat":"37.4831206","long":"126.76944185","imageIndex":17,"items":[{"name":"토토흙이야기","tel":"032-667-1604","addr":"경기도 부천시 송내동 587번지 부천우방유쉘아파트","indutype":"문화.취미 - 문화취미기타","category":"other"},{"name":"현테크","tel":"032-667-5331","addr":"경기도 부천시 송내동 587번지 부천우방유쉘아파트","indutype":"회원제형태 - 사무서비스","category":"other"}]},{"lat":"37.487121396","long":"126.75632478","imageIndex":17,"items":[{"name":"투미쥬얼리","tel":"070-4150-5894","addr":"경기도 부천시 송내동 349-11번지","indutype":"신변잡화 - 귀금속","category":"other"}]},{"lat":"37.486401596","long":"126.75680203","imageIndex":17,"items":[{"name":"트라이튼","tel":"032-611-8492","addr":"경기도 부천시 송내동 336-11번지 지하층","indutype":"직물 - 옷감·직물","category":"other"}]},{"lat":"37.483267037","long":"126.76160616","imageIndex":17,"items":[{"name":"티마트 송내점","tel":"032-654-1919","addr":"경기도 부천시 송내동 400-16번지 1층전체","indutype":"서적문구 - 완구점","category":"other"}]},{"lat":"37.477150072","long":"126.77099795","imageIndex":17,"items":[{"name":"펭케이크","tel":"","addr":"경기도 부천시 송내동 678번지 왕궁빌라 5동 301호","indutype":"직물 - 옷감·직물","category":"other"}]},{"lat":"37.485984041","long":"126.76407358","imageIndex":17,"items":[{"name":"플라잉핫요가 숨","tel":"02-661-9679","addr":"경기도 부천시 송내동 370-1번지 청주빌딩 201호","indutype":"회원제형태 - 레져업소","category":"other"}]},{"lat":"37.486678556","long":"126.7514078","imageIndex":17,"items":[{"name":"피알프로모션경인지사","tel":"032-652-3800","addr":"경기도 부천시 송내동 699-8번지 1층 102호","indutype":"용역 서비스 - 종합용역","category":"other"}]},{"lat":"37.47814848","long":"126.77013565","imageIndex":17,"items":[{"name":"필텍","tel":"032-321-3882","addr":"경기도 부천시 송내동 673번지","indutype":"기타 - 기계공구","category":"other"}]},{"lat":"37.473157288","long":"126.77029809","imageIndex":17,"items":[{"name":"하나로기획","tel":"070-8227-1133","addr":"경기도 부천시 송내동 623-1번지","indutype":"문화.취미 - 문화취미기타","category":"other"}]},{"lat":"37.481710847","long":"126.77188834","imageIndex":17,"items":[{"name":"하나플라워","tel":"032-651-4489","addr":"경기도 부천시 송내동 593-20번지","indutype":"문화.취미 - 화원","category":"other"}]},{"lat":"37.482843804","long":"126.76172058","imageIndex":17,"items":[{"name":"하진이 수진이 레고하우스","tel":"032-244-0230","addr":"경기도 부천시 송내동 398번지 2층","indutype":"서적문구 - 완구점","category":"other"}]},{"lat":"37.486564789","long":"126.74461282","imageIndex":17,"items":[{"name":"한결상사","tel":"032-651-1402","addr":"경기도 부천시 송내동 693-4번지","indutype":"신변잡화 - 기타잡화","category":"other"}]},{"lat":"37.486230895","long":"126.75274349","imageIndex":17,"items":[{"name":"한국건물종합관리사협회","tel":"032-329-1156","addr":"경기도 부천시 송내동 709-6번지 2층 201호","indutype":"서적문구 - 일반서적","category":"other"}]},{"lat":"37.479599251","long":"126.77022159","imageIndex":17,"items":[{"name":"한빛정보통신","tel":"032-662-0979","addr":"경기도 부천시 송내동 609-9번지 1층 1호","indutype":"수리서비스 - 사무·통신기기수리","category":"other"}]},{"lat":"37.482372289","long":"126.77379703","imageIndex":17,"items":[{"name":"한양","tel":"032-613-1590","addr":"경기도 부천시 송내동 596-4번지 성라아파트","indutype":"회원제형태 - 기타1","category":"other"}]},{"lat":"37.480903386","long":"126.76905304","imageIndex":17,"items":[{"name":"해오름","tel":"032-663-3267","addr":"경기도 부천시 송내동 457-1번지 송내대우아파트","indutype":"회원제형태 - 기타4","category":"other"}]},{"lat":"37.482955338","long":"126.77246112","imageIndex":17,"items":[{"name":"행복을나누는사람들 행복한 동행 사업단","tel":"032-612-0124","addr":"경기도 부천시 송내동 576-2번지","indutype":"신변잡화 - 기타잡화","category":"other"},{"name":"휴앤유병원장례식장","tel":"032-662-1024","addr":"경기도 부천시 송내동 576-2번지 지하층","indutype":"용역 서비스 - 가례서비스업","category":"other"}]},{"lat":"37.480181701","long":"126.76410336","imageIndex":17,"items":[{"name":"헤라구재","tel":"032-654-9401","addr":"경기도 부천시 송내동 433-24번지 1층","indutype":"의류 - 정장","category":"other"}]},{"lat":"37.487043318","long":"126.75777231","imageIndex":17,"items":[{"name":"현대산업","tel":"032-667-9904","addr":"경기도 부천시 송내동 353-2번지","indutype":"건축자재 - 인테리어전문","category":"other"}]},{"lat":"37.481402063","long":"126.76610063","imageIndex":17,"items":[{"name":"현명전자","tel":"032-654-4982","addr":"경기도 부천시 송내동 432-3번지 유신빌딩 2층","indutype":"전기제품 - 기타전기제품","category":"other"}]},{"lat":"37.482703883","long":"126.76830122","imageIndex":17,"items":[{"name":"혜성스포츠","tel":"032-654-2133","addr":"경기도 부천시 송내동 383-12번지1층,점포1칸","indutype":"레져용품 - 스포츠·레져용품","category":"other"}]},{"lat":"37.484233991","long":"126.77207278","imageIndex":17,"items":[{"name":"혜원 속옷","tel":"070-4150-5894","addr":"경기도 부천시 송내동 564-1번지 도원빌리지 703호","indutype":"의류 - 내의판매","category":"other"}]},{"lat":"37.483069213","long":"126.77079876","imageIndex":17,"items":[{"name":"혼방패션수예","tel":"032-613-3262","addr":"경기도 부천시 송내동 579-18 남도빌라트 401 4/5","indutype":"직물 - 침구·수예점","category":"other"}]},{"lat":"37.484734535","long":"126.75669443","imageIndex":17,"items":[{"name":"홈플러스365Plus송내중앙점","tel":"032-656-0214","addr":"경기도 부천시 송내동 329번지 태림아트빌 나동 101호","indutype":"유통업 영리 - 대형할인점","category":"other"}]},{"lat":"37.478600398","long":"126.7708578","imageIndex":17,"items":[{"name":"홈플러스365plus소사송내점","tel":"02-3459-8000","addr":"경기도 부천시 송내동 671-3번지 1층","indutype":"유통업 영리 - 대형할인점","category":"other"}]},{"lat":"37.486874482","long":"126.75033299","imageIndex":17,"items":[{"name":"홍싸이클","tel":"032-668-7292","addr":"경기도 부천시 송내동 697-15번지 1층","indutype":"레져용품 - 스포츠·레져용품","category":"other"}]},{"lat":"37.48190032","long":"126.77202343","imageIndex":17,"items":[{"name":"홍익아트 부천소사지점","tel":"070-4001-1179","addr":"경기도 부천시 송내동 593-11번지","indutype":"회원제형태 - 서적","category":"other"}]}]