[{"lat":"37.25211148","long":"127.49045802","imageIndex":8,"items":[{"name":"Dr.배가정의학과의원","tel":"070-8824-4846","addr":"경기도 이천시 부발읍 아미리 725-8번지 209호","indutype":"의원 - 의원","category":"medical"},{"name":"이천고은약국","tel":"031-636-2050","addr":"경기도 이천시 부발읍 아미리 725-8번지","indutype":"약국 - 약국","category":"medical"}]},{"lat":"37.251748108","long":"127.49117705","imageIndex":8,"items":[{"name":"고봉진내과의원","tel":"031-638-0991","addr":"경기도 이천시 부발읍 아미리 671번지 이천클래시아테라스파크 2층 218~222호","indutype":"의원 - 의원","category":"medical"},{"name":"아리랑약국","tel":"","addr":"경기도 이천시 부발읍 아미리 671번지 이천클래시아테라스파크 1동 126호","indutype":"약국 - 약국","category":"medical"}]},{"lat":"37.248808016","long":"127.49184562","imageIndex":8,"items":[{"name":"명소아과","tel":"031-638-1936","addr":"경기도 이천시 부발읍 아미리 687-4번지 3층 301호","indutype":"의원 - 의원","category":"medical"},{"name":"봄약국","tel":"031-638-4631","addr":"경기도 이천시 부발읍 아미리 687-4번지 현대코아빌딩 302호","indutype":"약국 - 약국","category":"medical"}]},{"lat":"37.252692014","long":"127.48951495","imageIndex":8,"items":[{"name":"아미치과","tel":"031-635-0660","addr":"경기도 이천시 부발읍 아미리 726-9번지","indutype":"의원 - 치과의원","category":"medical"}]},{"lat":"37.252055209","long":"127.4866028","imageIndex":8,"items":[{"name":"에스케이하이스텍주식회사","tel":"031-8094-7818","addr":"경기도 이천시 부발읍 아미리 712-7번지 에스케이하이닉스","indutype":"의원 - 의원","category":"medical"},{"name":"하이중앙약국","tel":"031-631-2403","addr":"경기도 이천시 부발읍 아미리 712-7번지","indutype":"약국 - 약국","category":"medical"},{"name":"하이플란트치과의원","tel":"031-637-2842","addr":"경기도 이천시 부발읍 아미리 712-7번지 11동 에스케이하이닉스(주)","indutype":"의원 - 치과의원","category":"medical"}]},{"lat":"37.252447029","long":"127.48993042","imageIndex":8,"items":[{"name":"용수약국","tel":"031-635-0907","addr":"경기도 이천시 부발읍 아미리 726-5번지 1층 104호","indutype":"약국 - 약국","category":"medical"}]},{"lat":"37.251968805","long":"127.49009641","imageIndex":8,"items":[{"name":"이다치과의원","tel":"031-631-2872","addr":"경기도 이천시 부발읍 아미리 725-1 닉스타임3층","indutype":"의원 - 치과의원","category":"medical"},{"name":"초이스의원","tel":"031-694-4846","addr":"경기도 이천시 부발읍 아미리 725","indutype":"의원 - 의원","category":"medical"}]}]