[{"lat":"37.155914817","long":"126.96707235","imageIndex":4,"items":[{"name":"강릉옹심이메밀칼국수","tel":"031-353-9938","addr":"경기도 화성시 정남면 문학리 461-6번지 1층 일부호","indutype":"일반휴게음식 - 일반한식","category":"restaurant"}]},{"lat":"37.152282201","long":"126.96270642","imageIndex":4,"items":[{"name":"따뜻한밥상","tel":"031-8059-2354","addr":"경기도 화성시 정남면 문학리 294-21번지","indutype":"일반휴게음식 - 일반한식","category":"restaurant"}]},{"lat":"37.154553808","long":"126.96567711","imageIndex":4,"items":[{"name":"미가웰빙한식뷔페","tel":"031-353-6640","addr":"경기도 화성시 정남면 문학리 321-23번지","indutype":"일반휴게음식 - 일반한식","category":"restaurant"}]},{"lat":"37.150946511","long":"126.95681992","imageIndex":4,"items":[{"name":"서봉산밥집","tel":"031-353-5971","addr":"경기도 화성시 정남면 문학리 681번지","indutype":"일반휴게음식 - 일반한식","category":"restaurant"}]},{"lat":"37.159384609","long":"126.96970506","imageIndex":4,"items":[{"name":"세종한식부페","tel":"031-354-2807","addr":"경기도 화성시 정남면 문학리 531-12번지 1층","indutype":"일반휴게음식 - 일반한식","category":"restaurant"}]},{"lat":"37.152976129","long":"126.96306628","imageIndex":4,"items":[{"name":"송탄정가부대찌개코다리찜","tel":"031-354-2432","addr":"경기도 화성시 정남면 문학리 294-17번지","indutype":"일반휴게음식 - 일반한식","category":"restaurant"}]},{"lat":"37.155275207","long":"126.96751169","imageIndex":4,"items":[{"name":"순이네닭칼국수","tel":"031-352-2399","addr":"경기도 화성시 정남면 문학리 463-2번지","indutype":"일반휴게음식 - 일반한식","category":"restaurant"}]},{"lat":"37.151444369","long":"126.96312336","imageIndex":4,"items":[{"name":"장금이한식뷔페","tel":"031-8059-0148","addr":"경기도 화성시 정남면 문학리 285번지","indutype":"일반휴게음식 - 일반한식","category":"restaurant"}]},{"lat":"37.158501034","long":"126.96779163","imageIndex":4,"items":[{"name":"전학우 신동태탕","tel":"031-111-1111","addr":"경기도 화성시 정남면 문학리 524-7번지 1동 1층","indutype":"일반휴게음식 - 일반한식","category":"restaurant"}]},{"lat":"37.154310199","long":"126.96465283","imageIndex":4,"items":[{"name":"종가집한식부페","tel":"031-353-6429","addr":"경기도 화성시 정남면 문학리 475-5번지 2층","indutype":"일반휴게음식 - 일반한식","category":"restaurant"}]},{"lat":"37.15450053","long":"126.96826628","imageIndex":4,"items":[{"name":"짱좋은한식부페","tel":"013-352-1469","addr":"경기도 화성시 정남면 문학리 435-2번지","indutype":"일반휴게음식 - 일반한식","category":"restaurant"}]},{"lat":"37.149915714","long":"126.9738966","imageIndex":4,"items":[{"name":"청미한식뷔페","tel":"031-354-9993","addr":"경기도 화성시 정남면 문학리 36-1번지","indutype":"일반휴게음식 - 일반한식","category":"restaurant"}]},{"lat":"37.161087701","long":"126.97012086","imageIndex":4,"items":[{"name":"촌닭치킨","tel":"031-353-7665","addr":"경기도 화성시 정남면 문학리 537-1번지","indutype":"일반휴게음식 - 일반한식","category":"restaurant"}]}]