[{"lat":"37.27162826","long":"127.15149185","imageIndex":7,"items":[{"name":"(주)덕담","tel":"031-8005-8828","addr":"경기도 용인시 기흥구 중동 848-1번지 미도타운 2층 203, 204호","indutype":"음료식품 - 기타음료식품","category":"food"}]},{"lat":"37.260437431","long":"127.15854923","imageIndex":7,"items":[{"name":"(주)메디포럼 용인지점","tel":"070-7709-7724","addr":"경기도 용인시 기흥구 중동 38-3번지 지하1층 2호","indutype":"건강식품 - 기타건강식품","category":"food"}]},{"lat":"37.274653145","long":"127.14626619","imageIndex":7,"items":[{"name":"(주)미로체 코퍼레이션","tel":"031-282-8877","addr":"경기도 용인시 기흥구 중동 705번지 A동 B105,106호","indutype":"음료식품 - 기타음료식품","category":"food"}]},{"lat":"37.27013048","long":"127.15313495","imageIndex":7,"items":[{"name":"KG(케이지)","tel":"","addr":"경기도 용인시 기흥구 중동 852-3번지 브릭스타워 1층 117호","indutype":"음료식품 - 농·축·수산품","category":"food"},{"name":"케이크'순수","tel":"031-281-7836","addr":"경기도 용인시 기흥구 중동 852-3번지 브릭스타워 1층 139호","indutype":"음료식품 - 제과점","category":"food"}]},{"lat":"37.276321207","long":"127.15260604","imageIndex":7,"items":[{"name":"KH","tel":"031-286-7705","addr":"경기도 용인시 기흥구 중동 831-2번지 더엠빌딩 304호","indutype":"회원제형태 - 건강식품","category":"food"},{"name":"베스킨라빈스동백2호점","tel":"031-8005-5900","addr":"경기도 용인시 기흥구 중동 831-2더엠104-1호","indutype":"음료식품 - 제과점","category":"food"},{"name":"정관장경기동백중동점(신)","tel":"031-281-3373","addr":"경기도 용인시 기흥구 중동 831-2번지 더엠 상가 1층 110호","indutype":"건강식품 - 홍삼제품","category":"food"},{"name":"정관장동백중동점","tel":"031-281-3373","addr":"경기도 용인시 기흥구 중동 831-2번지 1층 110호 더엠상가","indutype":"건강식품 - 홍삼제품","category":"food"}]},{"lat":"37.276402755","long":"127.1522454","imageIndex":7,"items":[{"name":"NobleWine","tel":"031-8005-5989","addr":"경기도 용인시 기흥구 중동 831-3번지 명진프라자 104호","indutype":"음료식품 - 주류 판매점","category":"food"}]},{"lat":"37.281433017","long":"127.14279477","imageIndex":7,"items":[{"name":"Precioso(프레시오소)","tel":"031-284-3646","addr":"경기도 용인시 기흥구 중동 1110-3번지 201호","indutype":"음료식품 - 제과점","category":"food"}]},{"lat":"37.269292427","long":"127.15321221","imageIndex":7,"items":[{"name":"가락농산물","tel":"031-283-2353","addr":"경기도 용인시 기흥구 중동 851-4번지 동백역타워 106호","indutype":"음료식품 - 농·축·수산품","category":"food"}]},{"lat":"37.280846229","long":"127.14374086","imageIndex":7,"items":[{"name":"계절찬방","tel":"031-281-5232","addr":"경기도 용인시 기흥구 중동 1110-12번지","indutype":"음료식품 - 기타음료식품","category":"food"},{"name":"우리동네정육점","tel":"070-8851-1770","addr":"경기도 용인시 기흥구 중동 1110-12번지 유성빌딩 105호","indutype":"음료식품 - 정육점","category":"food"}]},{"lat":"37.271213164","long":"127.15198711","imageIndex":7,"items":[{"name":"곽두리쪽갈비협동조합","tel":"070-7005-2177","addr":"경기도 용인시 기흥구 중동 848-3번지 에이스프라자 406호","indutype":"음료식품 - 정육점","category":"food"}]},{"lat":"37.270210842","long":"127.15371011","imageIndex":7,"items":[{"name":"궁떡방","tel":"031-284-5789","addr":"경기도 용인시 기흥구 중동 852-2번지 씨엘뷰 112호","indutype":"음료식품 - 제과점","category":"food"},{"name":"수라간","tel":"031-287-8388","addr":"경기도 용인시 기흥구 중동 852-2번지 동백씨엘뷰오피스텔 108호","indutype":"음료식품 - 기타음료식품","category":"food"},{"name":"우리동네self정육코너","tel":"070-4222-1212","addr":"경기도 용인시 기흥구 중동 852-2번지 동백씨엘뷰오피스텔 113호","indutype":"음료식품 - 정육점","category":"food"},{"name":"조령한우축산","tel":"031-328-7661","addr":"경기도 용인시 기흥구 중동 852-2번지 동백씨엘뷰오피스텔 111호","indutype":"음료식품 - 정육점","category":"food"},{"name":"조령한우축산","tel":"031-285-6551","addr":"경기도 용인시 기흥구 중동 852-2번지 동백씨엘뷰오피스텔","indutype":"음료식품 - 정육점","category":"food"},{"name":"파리바게트동백역점","tel":"031-274-3600","addr":"경기도 용인시 기흥구 중동 852-2번지 동백씨엘뷰오피스텔 105호","indutype":"음료식품 - 제과점","category":"food"}]},{"lat":"37.273909558","long":"127.15013207","imageIndex":7,"items":[{"name":"그린어쓰주식회사(GREEN EARTH)","tel":"070-7745-5064","addr":"경기도 용인시 기흥구 중동 842번지 쥬네브스타월드제가동2층241호","indutype":"음료식품 - 기타음료식품","category":"food"},{"name":"아웃도어랩","tel":"070-4410-6644","addr":"경기도 용인시 기흥구 중동 842번지 쥬네브스타월드b126","indutype":"음료식품 - 기타음료식품","category":"food"},{"name":"오구당당 인홈서비스","tel":"031-679-0036","addr":"경기도 용인시 기흥구 중동 842번지 쥬네브스타월드빌딩 가동 1층 177호","indutype":"음료식품 - 기타음료식품","category":"food"},{"name":"주식회사내리사랑","tel":"070-8802-3771","addr":"경기도 용인시 기흥구 중동 842번지 쥬네브스타월드빌딩 227호","indutype":"음료식품 - 제과점","category":"food"},{"name":"파머빈스(Farmer Beans)","tel":"031-693-9888","addr":"경기도 용인시 기흥구 중동 842번지 쥬네브스타월드빌딩창업지원센터 B동 130호","indutype":"음료식품 - 기타음료식품","category":"food"},{"name":"허니버니","tel":"","addr":"경기도 용인시 기흥구 중동 842번지 쥬네브스타월드빌딩 가동 1층 168호","indutype":"음료식품 - 기타음료식품","category":"food"}]},{"lat":"37.282902934","long":"127.14173752","imageIndex":7,"items":[{"name":"금흑 루트칸","tel":"","addr":"경기도 용인시 기흥구 중동 1111-9번지 B1동 103층","indutype":"음료식품 - 기타음료식품","category":"food"}]},{"lat":"37.276654072","long":"127.15301261","imageIndex":7,"items":[{"name":"기로연","tel":"031-274-1955","addr":"경기도 용인시 기흥구 중동 830-3번지 동백벤포스타 103호","indutype":"음료식품 - 제과점","category":"food"},{"name":"해적카페","tel":"031-4732-1849","addr":"경기도 용인시 기흥구 중동 830-3번지 동백벤포스타 1동 302호","indutype":"음료식품 - 기타음료식품","category":"food"}]},{"lat":"37.277401062","long":"127.15369062","imageIndex":7,"items":[{"name":"낭만고기 정육점","tel":"031-282-0801","addr":"경기도 용인시 기흥구 중동 829번지 골드프라자 C동 1층 114호","indutype":"음료식품 - 정육점","category":"food"}]},{"lat":"37.277599474","long":"127.15354444","imageIndex":7,"items":[{"name":"농업회사법인 주식회사 상생원","tel":"031-774-4468","addr":"경기도 용인시 기흥구 중동 829번지 골드프라자 6층","indutype":"건강식품 - 인삼제품","category":"food"},{"name":"뚜레쥬르 동백골드점","tel":"031-287-4300","addr":"경기도 용인시 기흥구 중동 829번지 골드프라자 1층 B105,106호","indutype":"음료식품 - 제과점","category":"food"},{"name":"착한밥도둑","tel":"031-281-0557","addr":"경기도 용인시 기흥구 중동 829번지 골프프라자 비120호,비121호","indutype":"음료식품 - 기타음료식품","category":"food"}]},{"lat":"37.269715134","long":"127.15382186","imageIndex":7,"items":[{"name":"단하나케이크용인동백점","tel":"031-282-5474","addr":"경기도 용인시 기흥구 중동 853-2번지 제일프라자 203호","indutype":"음료식품 - 제과점","category":"food"},{"name":"이지바이 동백점","tel":"031-287-9288","addr":"경기도 용인시 기흥구 중동 853-2번지 제일프라자 101호","indutype":"음료식품 - 제과점","category":"food"},{"name":"주식회사 가림씨에스엔티","tel":"031-661-9789","addr":"경기도 용인시 기흥구 중동 853-2번지 제일프라자 404호","indutype":"음료식품 - 기타음료식품","category":"food"},{"name":"해피월드 (동백역점)","tel":"031-286-8640","addr":"경기도 용인시 기흥구 중동 853-2번지 제일프라자 1층 103호","indutype":"음료식품 - 기타음료식품","category":"food"}]},{"lat":"37.274798384","long":"127.14537574","imageIndex":7,"items":[{"name":"델리퀸용인점","tel":"031-287-6632","addr":"경기도 용인시 기흥구 중동 760-1번지 나-4","indutype":"음료식품 - 정육점","category":"food"}]},{"lat":"37.274104232","long":"127.1599078","imageIndex":7,"items":[{"name":"동백","tel":"","addr":"경기도 용인시 기흥구 중동 921번지 동백도서관 지하2층","indutype":"음료식품 - 기타음료식품","category":"food"}]},{"lat":"37.28226326","long":"127.14169124","imageIndex":7,"items":[{"name":"동백통큰수산","tel":"031-284-0905","addr":"경기도 용인시 기흥구 중동 645-3번지","indutype":"음료식품 - 농·축·수산품","category":"food"}]},{"lat":"37.275853517","long":"127.14459974","imageIndex":7,"items":[{"name":"떡이랑방아랑","tel":"031-283-2412","addr":"경기도 용인시 기흥구 중동 673번지 라비스터상가 A-103호","indutype":"음료식품 - 제과점","category":"food"}]},{"lat":"37.27693296","long":"127.15335143","imageIndex":7,"items":[{"name":"리얼텐야구왕","tel":"03-111-1111","addr":"경기도 용인시 기흥구 중동 830-2번지 동백훼미리프라자 306호","indutype":"음료식품 - 기타음료식품","category":"food"}]},{"lat":"37.284845684","long":"127.14466171","imageIndex":7,"items":[{"name":"마블솜사탕","tel":"","addr":"경기도 용인시 기흥구 중동 1096번지 신동백롯데캐슬에코1단지","indutype":"음료식품 - 기타음료식품","category":"food"}]},{"lat":"37.278014017","long":"127.15348889","imageIndex":7,"items":[{"name":"맛깔즉석반찬,김밥","tel":"031-285-0355","addr":"경기도 용인시 기흥구 중동 829번지 골드프라자 B동 101호","indutype":"음료식품 - 기타음료식품","category":"food"},{"name":"오브 베이커리","tel":"031-283-0507","addr":"경기도 용인시 기흥구 중동 829번지 골드프라자 B동 1층 108호","indutype":"음료식품 - 제과점","category":"food"}]},{"lat":"37.277735725","long":"127.14538128","imageIndex":7,"items":[{"name":"매일찬","tel":"","addr":"경기도 용인시 기흥구 중동 1081번지 어정마을동백아이파크 상가동 1층 103호","indutype":"음료식품 - 기타음료식품","category":"food"}]},{"lat":"37.270797596","long":"127.15285442","imageIndex":7,"items":[{"name":"모두찬","tel":"031-285-4758","addr":"경기도 용인시 기흥구 중동 849-2번지 씨티프라자 109호","indutype":"음료식품 - 기타음료식품","category":"food"},{"name":"신개념푸줏간","tel":"070-4148-3197","addr":"경기도 용인시 기흥구 중동 849-2번지 씨티프라자 108호","indutype":"음료식품 - 정육점","category":"food"},{"name":"주식회사 비엔","tel":"031-336-0179","addr":"경기도 용인시 기흥구 중동 849-2번지 씨티프라자 D동 8층 820호","indutype":"음료식품 - 기타음료식품","category":"food"}]},{"lat":"37.278575218","long":"127.14409744","imageIndex":7,"items":[{"name":"목포","tel":"031-281-4811","addr":"경기도 용인시 기흥구 중동 633-3","indutype":"음료식품 - 기타음료식품","category":"food"}]},{"lat":"37.256410123","long":"127.16504504","imageIndex":7,"items":[{"name":"미샵B&F","tel":"031-8060-7550","addr":"경기도 용인시 기흥구 중동 1033번지 에이스동백타워 1동 1105호","indutype":"음료식품 - 제과점","category":"food"},{"name":"성루카푸드","tel":"070-4757-1443","addr":"경기도 용인시 기흥구 중동 1033번지 에이스동백타워 2동 303호 304호","indutype":"음료식품 - 기타음료식품","category":"food"},{"name":"신한식품 주식회사","tel":"031-261-8495","addr":"경기도 용인시 기흥구 중동 1033번지 에이스동백타워 1동 313호","indutype":"음료식품 - 기타음료식품","category":"food"},{"name":"엘시스 코리아(Elsis Korea)","tel":"031-275-2751","addr":"경기도 용인시 기흥구 중동 1033번지 에이스동백타워 1동 1008호","indutype":"건강식품 - 기타건강식품","category":"food"},{"name":"주식회사 푸르농","tel":"031-8060-7660","addr":"경기도 용인시 기흥구 중동 1033번지 에이스동백타워 1동 1701호","indutype":"음료식품 - 기타음료식품","category":"food"}]},{"lat":"37.270987168","long":"127.15257293","imageIndex":7,"items":[{"name":"블랑제리드르방(2호점)","tel":"031-275-0480","addr":"경기도 용인시 기흥구 중동 849-1번지 동창프라자 103동 104호","indutype":"음료식품 - 제과점","category":"food"}]},{"lat":"37.277679992","long":"127.15399562","imageIndex":7,"items":[{"name":"스프링점핑다이어트","tel":"031-281-8855","addr":"경기도 용인시 기흥구 중동 829번지 골드프라자 A동 4층 403호","indutype":"건강식품 - 기타건강식품","category":"food"},{"name":"참다한홍삼 용인동백점","tel":"031-287-1333","addr":"경기도 용인시 기흥구 중동 829번지 골드프라자 A동 103호","indutype":"건강식품 - 기타건강식품","category":"food"}]},{"lat":"37.27662848","long":"127.15187376","imageIndex":7,"items":[{"name":"시크릿레시피","tel":"031-889-8789","addr":"경기도 용인시 기흥구 중동 832-7번지 레이크시티프라자 1층 110호","indutype":"음료식품 - 기타음료식품","category":"food"}]},{"lat":"37.269903961","long":"127.15412664","imageIndex":7,"items":[{"name":"아리랑떡집","tel":"031-287-2030","addr":"경기도 용인시 기흥구 중동 853-1번지 우함빌딩 109호","indutype":"음료식품 - 제과점","category":"food"},{"name":"코코호도동백역점","tel":"031-275-8978","addr":"경기도 용인시 기흥구 중동 853-1번지 우함빌딩 107호","indutype":"음료식품 - 제과점","category":"food"}]},{"lat":"37.27604828","long":"127.14746401","imageIndex":7,"items":[{"name":"어정김치젓갈파전","tel":"031-287-8560","addr":"경기도 용인시 기흥구 중동 680-1번지 1층 101호","indutype":"음료식품 - 기타음료식품","category":"food"}]},{"lat":"37.274237866","long":"127.14693063","imageIndex":7,"items":[{"name":"어정스파","tel":"031-287-7115","addr":"경기도 용인시 기흥구 중동 707-12번지","indutype":"음료식품 - 기타음료식품","category":"food"}]},{"lat":"37.278790519","long":"127.14488714","imageIndex":7,"items":[{"name":"웃는사람들","tel":"031-206-4535","addr":"경기도 용인시 기흥구 중동 817번지 어정마을서희삼정아파트","indutype":"음료식품 - 농·축·수산품","category":"food"}]},{"lat":"37.282408987","long":"127.14790467","imageIndex":7,"items":[{"name":"이지바이 신동백점","tel":"031-275-9280","addr":"경기도 용인시 기흥구 중동 1101번지 캐스에코2단지 103호","indutype":"음료식품 - 제과점","category":"food"}]},{"lat":"37.283608916","long":"127.14662147","imageIndex":7,"items":[{"name":"제아테크","tel":"031-266-1810","addr":"경기도 용인시 기흥구 중동 1096번지 신동백롯데캐슬에코1단지","indutype":"음료식품 - 기타음료식품","category":"food"}]},{"lat":"37.256766657","long":"127.16785262","imageIndex":7,"items":[{"name":"좋은식품","tel":"031-8021-3553","addr":"경기도 용인시 기흥구 중동 1030번지 대우프론티어밸리1단지 705호","indutype":"음료식품 - 기타음료식품","category":"food"}]},{"lat":"37.276790451","long":"127.15204321","imageIndex":7,"items":[{"name":"지경유통","tel":"","addr":"경기도 용인시 기흥구 중동 832-6번지 베스트빌오피스텔 1007호","indutype":"음료식품 - 농·축·수산품","category":"food"}]},{"lat":"37.27746538","long":"127.15270979","imageIndex":7,"items":[{"name":"크리스피크림도넛용인동백점","tel":"031-281-2442","addr":"경기도 용인시 기흥구 중동 832-1번지 동백훼미리프라자 116,117호","indutype":"음료식품 - 제과점","category":"food"}]},{"lat":"37.280989868","long":"127.14418089","imageIndex":7,"items":[{"name":"파리바게뜨신동백롯데캐슬점","tel":"031-8005-8279","addr":"경기도 용인시 기흥구 중동 1108-3 헌암프라자 101","indutype":"음료식품 - 제과점","category":"food"}]},{"lat":"37.260435421","long":"127.16007106","imageIndex":7,"items":[{"name":"한우도축직판장","tel":"031-613-1490","addr":"경기도 용인시 기흥구 중동 1043-1번지 옐로우존 108호","indutype":"음료식품 - 정육점","category":"food"}]},{"lat":"37.274485736","long":"127.15051654","imageIndex":7,"items":[{"name":"효송","tel":"070-8830-7756","addr":"경기도 용인시 기흥구 중동 841번지 쥬네브스타월드나동지2층105호","indutype":"건강식품 - 기타건강식품","category":"food"}]}]