[{"lat":"37.3697625","long":"127.3190588","imageIndex":17,"items":[{"name":"(주)콕콕","tel":"070-8806-6216","addr":"경기도 광주시 초월읍 늑현리 34-8번지 3층","indutype":"가구 - 기타가구","category":"other"}]},{"lat":"37.36840007","long":"127.3163889","imageIndex":17,"items":[{"name":"(주)태경인터내셔날","tel":"031-762-3831","addr":"경기도 광주시 초월읍 늑현리 90-6번지","indutype":"기타 - 기계공구","category":"other"}]},{"lat":"37.37142422","long":"127.3176095","imageIndex":17,"items":[{"name":"MK테크","tel":"031-766-7701","addr":"경기도 광주시 초월읍 늑현리 54번지","indutype":"기타 - 기계공구","category":"other"}]},{"lat":"37.36795327","long":"127.3183852","imageIndex":17,"items":[{"name":"경원콤프레샤","tel":"031-797-6733","addr":"경기도 광주시 초월읍 늑현리 32-4번지","indutype":"기타 - 기계공구","category":"other"},{"name":"우진정밀","tel":"031-798-2241","addr":"경기도 광주시 초월읍 늑현리 32-4번지","indutype":"기타 - 기계공구","category":"other"}]},{"lat":"37.36825702","long":"127.3159706","imageIndex":17,"items":[{"name":"군당요","tel":"031-768-8387","addr":"경기도 광주시 초월읍 늑현리 91-3번지","indutype":"문화.취미 - 민예·공예품","category":"other"}]},{"lat":"37.37020637","long":"127.3181688","imageIndex":17,"items":[{"name":"넘버원 냉난방자재총판","tel":"031-798-1104","addr":"경기도 광주시 초월읍 늑현리 46-1번지","indutype":"기타 - 기계공구","category":"other"}]},{"lat":"37.36586674","long":"127.3203294","imageIndex":17,"items":[{"name":"농암예가","tel":"031-762-2388","addr":"경기도 광주시 초월읍 늑현리 116","indutype":"건축자재 - 인테리어전문","category":"other"}]},{"lat":"37.36703503","long":"127.3180878","imageIndex":17,"items":[{"name":"닥터서원콤프레샤","tel":"031-767-8882","addr":"경기도 광주시 초월읍 늑현리 38-6번지","indutype":"기타 - 기계공구","category":"other"}]},{"lat":"37.36831238","long":"127.3222249","imageIndex":17,"items":[{"name":"동성종합가설산업","tel":"031-766-2971","addr":"경기도 광주시 초월읍 늑현리 3","indutype":"건축자재 - 기타건축자재","category":"other"}]},{"lat":"37.36787098","long":"127.3188364","imageIndex":17,"items":[{"name":"명성금속","tel":"031-761-6211","addr":"경기도 광주시 초월읍 늑현리 23-1","indutype":"건축자재 - 목재·석재·철물","category":"other"}]},{"lat":"37.36270516","long":"127.3199661","imageIndex":17,"items":[{"name":"민우종합상사","tel":"031-797-4009","addr":"경기도 광주시 초월읍 늑현리 192-3번지","indutype":"건축자재 - 기타건축자재","category":"other"}]},{"lat":"37.36806505","long":"127.3203838","imageIndex":17,"items":[{"name":"베큠티에스","tel":"031-761-6203","addr":"경기도 광주시 초월읍 늑현리 25-10","indutype":"건축자재 - 보일러·펌프·샷시","category":"other"}]},{"lat":"37.36767411","long":"127.3183276","imageIndex":17,"items":[{"name":"벨킨스","tel":"031-769-4753","addr":"경기도 광주시 초월읍 늑현리 23-4번지 지하1층","indutype":"용역 서비스 - 종합용역","category":"other"}]},{"lat":"37.37139578","long":"127.3181399","imageIndex":17,"items":[{"name":"수목초경","tel":"031-764-8331","addr":"경기도 광주시 초월읍 늑현리 50-16","indutype":"기타 - 기계공구","category":"other"}]},{"lat":"37.36825976","long":"127.31833","imageIndex":17,"items":[{"name":"씨유광주늑현점","tel":"031-747-5257","addr":"경기도 광주시 초월읍 늑현리 32-1번지 1층","indutype":"유통업 영리 - 편 의 점","category":"other"}]},{"lat":"37.36456367","long":"127.3190596","imageIndex":17,"items":[{"name":"아주산업","tel":"031-797-9604","addr":"경기도 광주시 초월읍 늑현리 149번지","indutype":"수리서비스 - 가정용품수리","category":"other"}]},{"lat":"37.36881823","long":"127.3183888","imageIndex":17,"items":[{"name":"알뜰중고가전재활용센터","tel":"031-764-0636","addr":"경기도 광주시 초월읍 늑현리 34-2번지 1층","indutype":"전기제품 - 가전제품","category":"other"}]},{"lat":"37.36776092","long":"127.3195584","imageIndex":17,"items":[{"name":"퍼스트 페이퍼","tel":"031-762-9884","addr":"경기도 광주시 초월읍 늑현리 18-1번지","indutype":"용역 서비스 - 종합용역","category":"other"}]}]