[{"lat":"37.645640996","long":"127.33049014","imageIndex":17,"items":[{"name":"(주)가원종합스폰지","tel":"031-594-7676","addr":"경기도 남양주시 화도읍 월산리 206","indutype":"기타 - 기타 전문점","category":"other"}]},{"lat":"37.660561061","long":"127.33046502","imageIndex":17,"items":[{"name":"(주)베스트에너지","tel":"031-511-6624","addr":"경기도 남양주시 화도읍 월산리 450-6번지","indutype":"건축자재 - 보일러·펌프·샷시","category":"other"}]},{"lat":"37.654062029","long":"127.33156968","imageIndex":17,"items":[{"name":"(주)엘린체형연구소","tel":"031-559-0009","addr":"경기도 남양주시 화도읍 월산리 366-1번지","indutype":"회원제형태 - 레져업소","category":"other"}]},{"lat":"37.654641132","long":"127.340264","imageIndex":17,"items":[{"name":"BJ퍼니처","tel":"031-591-7733","addr":"경기도 남양주시 화도읍 월산리 1528번지 남양주월산사랑으로부영1단지 115동 2102호","indutype":"건축자재 - 인테리어전문","category":"other"},{"name":"GS25월산부영점","tel":"","addr":"경기도 남양주시 화도읍 월산리 1528번지 남양주월산사랑으로부영1단지 상가 3동 101호","indutype":"유통업 영리 - 편 의 점","category":"other"},{"name":"강남공간","tel":"031-591-3187","addr":"경기도 남양주시 화도읍 월산리 1528번지 남양주월산사랑으로부경1단지 102동 703호","indutype":"건축자재 - 인테리어전문","category":"other"},{"name":"니코니코","tel":"031-111-1111","addr":"경기도 남양주시 화도읍 월산리 1528번지 월산부영1단지 101동 2204호","indutype":"가구 - 기타가구","category":"other"},{"name":"다이아몬드침대","tel":"","addr":"경기도 남양주시 화도읍 월산리 1528번지 남양주월산사랑으로부영1단지 104동 501호","indutype":"가구 - 일반가구","category":"other"},{"name":"백중누수탐지공사","tel":"031-111-1111","addr":"경기도 남양주시 화도읍 월산리 1528번지 남양주월산사랑으로부영1단지","indutype":"용역 서비스 - 기타용역서비스","category":"other"},{"name":"부영","tel":"","addr":"경기도 남양주시 화도읍 월산리 1528번지 남양주월산사랑으로부영1단지 108동 2302호","indutype":"의류 - 정장","category":"other"},{"name":"선물에반하다","tel":"070-1111-1111","addr":"경기도 남양주시 화도읍 월산리 1528번지 남양주월산사랑으로부영1단지 105동 1101호","indutype":"신변잡화 - 액세서리","category":"other"},{"name":"쇼룸","tel":"","addr":"경기도 남양주시 화도읍 월산리 1528번지 남양주월산사랑으로부영1단지 1동 1층 101호","indutype":"의류 - 정장","category":"other"},{"name":"씽크맘코리아(SINK MOM Korea)","tel":"031-528-6263","addr":"경기도 남양주시 화도읍 월산리 1528번지 사랑으로부영1단지 108동 2901호","indutype":"용역 서비스 - 기타용역서비스","category":"other"},{"name":"에펄크","tel":"","addr":"경기도 남양주시 화도읍 월산리 1528번지 남양주월산사랑으로부영1단지 111동 2303호","indutype":"직물 - 카페트,커튼,천막,지물","category":"other"},{"name":"올리브","tel":"031-591-6131","addr":"경기도 남양주시 화도읍 월산리 1528번지 남양주월산사랑으로부영1단지 115동 1504호","indutype":"의류 - 내의판매","category":"other"},{"name":"이쁜건다","tel":"031-111-1111","addr":"경기도 남양주시 화도읍 월산리 1528번지 남양주월산사랑으로부영1단지 108동 2901호","indutype":"의류 - 정장","category":"other"},{"name":"코드홀릭(CODEHOLIC)","tel":"","addr":"경기도 남양주시 화도읍 월산리 1528번지 남양주월산사랑으로부영1단지 103동 1402호","indutype":"의류 - 정장","category":"other"},{"name":"크린에이드","tel":"031-594-9022","addr":"경기도 남양주시 화도읍 월산리 1528번지 남양주월산사랑으로부영1단지 상가 3동 101호","indutype":"수리서비스 - 세탁소","category":"other"},{"name":"크린에이드 월산부영점","tel":"031-594-9022","addr":"경기도 남양주시 화도읍 월산리 1528번지 남양주월산사랑으로부영1단지 상가 3동 101호","indutype":"수리서비스 - 세탁소","category":"other"},{"name":"티나솝","tel":"070-4141-2179","addr":"경기도 남양주시 화도읍 월산리 1528번지 남양주월산사랑으로부영1단지 111동 1704호","indutype":"신변잡화 - 기타잡화","category":"other"},{"name":"해피데이","tel":"031-511-7073","addr":"경기도 남양주시 화도읍 월산리 1528번지 남양주월산사랑으로부영1단지 113동 8층 802호","indutype":"의류 - 정장","category":"other"}]},{"lat":"37.65117187","long":"127.33729075","imageIndex":17,"items":[{"name":"GS25월산효성점","tel":"","addr":"경기도 남양주시 화도읍 월산리 1527번지 화도효성해링턴플레이스 108동 201~202호","indutype":"유통업 영리 - 편 의 점","category":"other"},{"name":"다니 아뜰리에","tel":"031-1111-1111","addr":"경기도 남양주시 화도읍 월산리 1527번지 화도효성해링턴플레이스 108동 203호","indutype":"문화.취미 - 문화취미기타","category":"other"},{"name":"킹 웨이크 서프","tel":"","addr":"경기도 남양주시 화도읍 월산리 1527번지 화도효성해링턴플레이스 107동 1703호","indutype":"레져용품 - 스포츠·레져용품","category":"other"}]},{"lat":"37.661948403","long":"127.33051645","imageIndex":17,"items":[{"name":"가가호호","tel":"031-511-2904","addr":"경기도 남양주시 화도읍 월산리 465-1번지","indutype":"용역 서비스 - 기타용역서비스","category":"other"}]},{"lat":"37.658720562","long":"127.33137489","imageIndex":17,"items":[{"name":"가나로지스","tel":"031-594-7747","addr":"경기도 남양주시 화도읍 월산리 439-3번지","indutype":"가구 - 일반가구","category":"other"}]},{"lat":"37.654666273","long":"127.33457537","imageIndex":17,"items":[{"name":"개이쁜냥냥이","tel":"","addr":"경기도 남양주시 화도읍 월산리 380-1번지 가동 105,106호","indutype":"문화.취미 - 애완동물","category":"other"},{"name":"스팀(steme)","tel":"","addr":"경기도 남양주시 화도읍 월산리 380-1번지 다동 2호","indutype":"용역 서비스 - 사무서비스","category":"other"},{"name":"은빛조명전기","tel":"031-559-3488","addr":"경기도 남양주시 화도읍 월산리 380-1번지","indutype":"건축자재 - 조명기구","category":"other"}]},{"lat":"37.648334193","long":"127.33073992","imageIndex":17,"items":[{"name":"경진금속","tel":"031-511-7054","addr":"경기도 남양주시 화도읍 월산리 178-2번지 경진금속","indutype":"기타 - 기계공구","category":"other"},{"name":"새싹종묘사","tel":"031-511-7054","addr":"경기도 남양주시 화도읍 월산리 178-2번지","indutype":"농업 - 비료,사료,종자","category":"other"}]},{"lat":"37.653140651","long":"127.32918591","imageIndex":17,"items":[{"name":"경춘한일LG모터펌프","tel":"031-511-9197","addr":"경기도 남양주시 화도읍 월산리 283-11번지","indutype":"수리서비스 - 기타수리서비스","category":"other"}]},{"lat":"37.652418151","long":"127.32654244","imageIndex":17,"items":[{"name":"금호철강","tel":"031-571-1213","addr":"경기도 남양주시 화도읍 월산리 290-3","indutype":"건축자재 - 목재·석재·철물","category":"other"}]},{"lat":"37.660586546","long":"127.33102046","imageIndex":17,"items":[{"name":"금화기계","tel":"031-593-9159","addr":"경기도 남양주시 화도읍 월산리 454-4번지","indutype":"기타 - 기계공구","category":"other"}]},{"lat":"37.652750135","long":"127.32704248","imageIndex":17,"items":[{"name":"다가온배관(주)","tel":"02-511-3334","addr":"경기도 남양주시 화도읍 월산리 287-2번지","indutype":"수리서비스 - 가정용품수리","category":"other"}]},{"lat":"37.652393861","long":"127.32882003","imageIndex":17,"items":[{"name":"다라니퍼니처","tel":"031-594-7488","addr":"경기도 남양주시 화도읍 월산리 283-4","indutype":"가구 - 일반가구","category":"other"},{"name":"서울경금속남양주대리점","tel":"031-593-1150","addr":"경기도 남양주시 화도읍 월산리 283-4번지","indutype":"건축자재 - 보일러·펌프·샷시","category":"other"}]},{"lat":"37.65316454","long":"127.33031921","imageIndex":17,"items":[{"name":"다복석재","tel":"031-594-5113","addr":"경기도 남양주시 화도읍 월산리 370-1","indutype":"건축자재 - 목재·석재·철물","category":"other"}]},{"lat":"37.653808611","long":"127.32873555","imageIndex":17,"items":[{"name":"대륭산업참좋은창","tel":"031-595-2647","addr":"경기도 남양주시 화도읍 월산리 312-4","indutype":"직물 - 카페트,커튼,천막,지물","category":"other"},{"name":"씨유화도휴게소점","tel":"031-559-5160","addr":"경기도 남양주시 화도읍 월산리 312-4번지 외1필지","indutype":"유통업 영리 - 편 의 점","category":"other"}]},{"lat":"37.659420968","long":"127.33221661","imageIndex":17,"items":[{"name":"대명산업","tel":"031-559-6463","addr":"경기도 남양주시 화도읍 월산리 432-1","indutype":"건축자재 - 기타건축자재","category":"other"}]},{"lat":"37.653584279","long":"127.32840595","imageIndex":17,"items":[{"name":"대신휀스","tel":"031-593-3682","addr":"경기도 남양주시 화도읍 월산리 314-1번지","indutype":"건축자재 - 기타건축자재","category":"other"}]},{"lat":"37.654807825","long":"127.32904589","imageIndex":17,"items":[{"name":"덕수산업","tel":"031-511-8535","addr":"경기도 남양주시 화도읍 월산리 318-1","indutype":"신변잡화 - 기타잡화","category":"other"}]},{"lat":"37.655474643","long":"127.33546288","imageIndex":17,"items":[{"name":"동성공조","tel":"031-593-5337","addr":"경기도 남양주시 화도읍 월산리 43-3","indutype":"건축자재 - 기타건축자재","category":"other"},{"name":"사운드매직","tel":"","addr":"경기도 남양주시 화도읍 월산리 43-3번지","indutype":"전기제품 - 가전제품","category":"other"},{"name":"휴대폰할인마트","tel":"","addr":"경기도 남양주시 화도읍 월산리 43-3번지","indutype":"사무통신 - 통신기기","category":"other"}]},{"lat":"37.653867285","long":"127.3303223","imageIndex":17,"items":[{"name":"동원벽난로","tel":"031-594-2929","addr":"경기도 남양주시 화도읍 월산리 368-1","indutype":"유통업 영리 - 기타유통업","category":"other"}]},{"lat":"37.657728026","long":"127.34145656","imageIndex":17,"items":[{"name":"디엔씨","tel":"031-595-7100","addr":"경기도 남양주시 화도읍 월산리 1-10번지","indutype":"가구 - 일반가구","category":"other"}]},{"lat":"37.660003355","long":"127.33337515","imageIndex":17,"items":[{"name":"렌탈뷰티","tel":"","addr":"경기도 남양주시 화도읍 월산리 487번지","indutype":"신변잡화 - 기타잡화","category":"other"}]},{"lat":"37.65049983","long":"127.32627349","imageIndex":17,"items":[{"name":"마노벨라 베이킹 스튜디오(Manovella Bakin","tel":"031-111-1111","addr":"경기도 남양주시 화도읍 월산리 242-1번지","indutype":"문화.취미 - 문화취미기타","category":"other"}]},{"lat":"37.655311921","long":"127.32920675","imageIndex":17,"items":[{"name":"메이크굿(MAKE GOOD)","tel":"031-584-1711","addr":"경기도 남양주시 화도읍 월산리 339-1","indutype":"기타 - 기계공구","category":"other"}]},{"lat":"37.654643665","long":"127.32649543","imageIndex":17,"items":[{"name":"명일","tel":"031-504-6155","addr":"경기도 남양주시 화도읍 월산리 332-1","indutype":"주방용구 - 주방용구","category":"other"}]},{"lat":"37.650559738","long":"127.32413208","imageIndex":17,"items":[{"name":"모란미술관","tel":"031-594-8001","addr":"경기도 남양주시 화도읍 월산리 246-1번지 1층","indutype":"문화.취미 - 티켓","category":"other"},{"name":"모란미술관","tel":"031-594-8001","addr":"경기도 남양주시 화도읍 월산리 246-1번지","indutype":"문화.취미 - 티켓","category":"other"},{"name":"모란미술관 아트 하우스(ART HOUSE)","tel":"031-594-8001","addr":"경기도 남양주시 화도읍 월산리 246-1번지","indutype":"신변잡화 - 기념품점","category":"other"}]},{"lat":"37.651282414","long":"127.32343263","imageIndex":17,"items":[{"name":"모란미술관문화센터","tel":"031-594-8005","addr":"경기도 남양주시 화도읍 월산리 246-6","indutype":"문화.취미 - 문화취미기타","category":"other"}]},{"lat":"37.654448372","long":"127.32542937","imageIndex":17,"items":[{"name":"무지개요양원","tel":"031-593-6700","addr":"경기도 남양주시 화도읍 월산리 325-5번지","indutype":"기타의료기관 - 기타의료기관 및 기타","category":"other"}]},{"lat":"37.65216756","long":"127.32592943","imageIndex":17,"items":[{"name":"미래데코","tel":"031-559-9077","addr":"경기도 남양주시 화도읍 월산리 290-10번지","indutype":"건축자재 - 인테리어전문","category":"other"},{"name":"설화칠기","tel":"070-8222-5725","addr":"경기도 남양주시 화도읍 월산리 290-10번지","indutype":"문화.취미 - 민예·공예품","category":"other"}]},{"lat":"37.655693545","long":"127.32804119","imageIndex":17,"items":[{"name":"비케이로지스","tel":"","addr":"경기도 남양주시 화도읍 월산리 341-3번지","indutype":"용역 서비스 - 기타용역서비스","category":"other"}]},{"lat":"37.660863695","long":"127.33179233","imageIndex":17,"items":[{"name":"삼광목형","tel":"031-593-1076","addr":"경기도 남양주시 화도읍 월산리 484-4번지","indutype":"건축자재 - 기타건축자재","category":"other"}]},{"lat":"37.653505629","long":"127.32752171","imageIndex":17,"items":[{"name":"성원건업","tel":"031-593-7050","addr":"경기도 남양주시 화도읍 월산리 301-3","indutype":"건축자재 - 인테리어전문","category":"other"}]},{"lat":"37.653892299","long":"127.33104766","imageIndex":17,"items":[{"name":"세븐일레븐경춘화도점","tel":"","addr":"경기도 남양주시 화도읍 월산리 366-4번지","indutype":"유통업 영리 - 편 의 점","category":"other"},{"name":"언타이틀드 일레븐","tel":"070-8899-2213","addr":"경기도 남양주시 화도읍 월산리 366-4번지 3층","indutype":"서적문구 - 완구점","category":"other"}]},{"lat":"37.651533912","long":"127.32371701","imageIndex":17,"items":[{"name":"세븐일레븐남양주모란공원점","tel":"031-1577-0711","addr":"경기도 남양주시 화도읍 월산리 246-10번지 1층","indutype":"유통업 영리 - 편 의 점","category":"other"}]},{"lat":"37.658167504","long":"127.33582621","imageIndex":17,"items":[{"name":"세이프코트 코리아","tel":"","addr":"경기도 남양주시 화도읍 월산리 32-4번지","indutype":"건축자재 - 페인트","category":"other"}]},{"lat":"37.657475559","long":"127.33518849","imageIndex":17,"items":[{"name":"세종양초","tel":"031-559-5594","addr":"경기도 남양주시 화도읍 월산리 34-2번지","indutype":"신변잡화 - 기타잡화","category":"other"}]},{"lat":"37.663642381","long":"127.33368595","imageIndex":17,"items":[{"name":"신강수출포장","tel":"031-593-7500","addr":"경기도 남양주시 화도읍 월산리 521번지","indutype":"기타 - 기타 전문점","category":"other"}]},{"lat":"37.658999479","long":"127.33151211","imageIndex":17,"items":[{"name":"신세계종합건축","tel":"031-594-6167","addr":"경기도 남양주시 화도읍 월산리 439-10번지","indutype":"용역 서비스 - 기타용역서비스","category":"other"}]},{"lat":"37.646504843","long":"127.33087918","imageIndex":17,"items":[{"name":"썬양초","tel":"031-595-6335","addr":"경기도 남양주시 화도읍 월산리 201번지","indutype":"신변잡화 - 기타잡화","category":"other"}]},{"lat":"37.655831568","long":"127.33668837","imageIndex":17,"items":[{"name":"씨유월산로드점","tel":"031-595-3229","addr":"경기도 남양주시 화도읍 월산리 67-2번지","indutype":"유통업 영리 - 편 의 점","category":"other"}]},{"lat":"37.645171806","long":"127.33073735","imageIndex":17,"items":[{"name":"에버자동문","tel":"031-543-9628","addr":"경기도 남양주시 화도읍 월산리 212-1번지","indutype":"건축자재 - 기타건축자재","category":"other"}]},{"lat":"37.64814304","long":"127.32818957","imageIndex":17,"items":[{"name":"에스케이피","tel":"031-4068-1877","addr":"경기도 남양주시 화도읍 월산리 228-1번지","indutype":"유통업 영리 - 기타유통업","category":"other"}]},{"lat":"37.649365469","long":"127.33568493","imageIndex":17,"items":[{"name":"에코내추럴ENS","tel":"031-871-0401","addr":"경기도 남양주시 화도읍 월산리 96-38번지","indutype":"용역 서비스 - 기타용역서비스","category":"other"}]},{"lat":"37.659997768","long":"127.33215116","imageIndex":17,"items":[{"name":"에코우드","tel":"070-4108-5370","addr":"경기도 남양주시 화도읍 월산리 430-1번지","indutype":"가구 - 일반가구","category":"other"}]},{"lat":"37.653474005","long":"127.32918737","imageIndex":17,"items":[{"name":"월산공인중개사사무소","tel":"031-594-5800","addr":"경기도 남양주시 화도읍 월산리 310-2번지","indutype":"용역 서비스 - 부동산 중개·임대","category":"other"},{"name":"한국낚시상사","tel":"031-593-7570","addr":"경기도 남양주시 화도읍 월산리 310-2번지","indutype":"레져용품 - 스포츠·레져용품","category":"other"},{"name":"현 종합건축인테리어","tel":"031-594-6229","addr":"경기도 남양주시 화도읍 월산리 310-2번지","indutype":"건축자재 - 인테리어전문","category":"other"}]},{"lat":"37.653114004","long":"127.33229075","imageIndex":17,"items":[{"name":"월산수선","tel":"031-511-2497","addr":"경기도 남양주시 화도읍 월산리 375-1번지 원영파크빌 2동 201호","indutype":"수리서비스 - 세탁소","category":"other"}]},{"lat":"37.656308809","long":"127.33035568","imageIndex":17,"items":[{"name":"유경산업","tel":"031-594-1666","addr":"경기도 남양주시 화도읍 월산리 406-11번지","indutype":"기타 - 기타 전문점","category":"other"}]},{"lat":"37.653026281","long":"127.3281882","imageIndex":17,"items":[{"name":"유진상사","tel":"031-595-0246","addr":"경기도 남양주시 화도읍 월산리 307번지","indutype":"주방용구 - 주방용구","category":"other"}]},{"lat":"37.65558968","long":"127.32976324","imageIndex":17,"items":[{"name":"이구아트","tel":"070-4063-2989","addr":"경기도 남양주시 화도읍 월산리 345-1","indutype":"건축자재 - 기타건축자재","category":"other"}]},{"lat":"37.657836356","long":"127.33504277","imageIndex":17,"items":[{"name":"정호산업","tel":"031-576-6366","addr":"경기도 남양주시 화도읍 월산리 33-4번지","indutype":"가구 - 일반가구","category":"other"}]},{"lat":"37.658054676","long":"127.34065342","imageIndex":17,"items":[{"name":"제스트바이크","tel":"031-591-6030","addr":"경기도 남양주시 화도읍 월산리 1-17번지","indutype":"레져용품 - 스포츠·레져용품","category":"other"}]},{"lat":"37.646059141","long":"127.32915493","imageIndex":17,"items":[{"name":"제이씨엔씨(JCNC)","tel":"031-591-7972","addr":"경기도 남양주시 화도읍 월산리 214번지 나동","indutype":"가구 - 일반가구","category":"other"}]},{"lat":"37.659921918","long":"127.33026955","imageIndex":17,"items":[{"name":"조광퍼니처","tel":"031-568-2204","addr":"경기도 남양주시 화도읍 월산리 450-2","indutype":"건축자재 - 인테리어전문","category":"other"}]},{"lat":"37.652698964","long":"127.3292633","imageIndex":17,"items":[{"name":"조은창호유리","tel":"02-465-2233","addr":"경기도 남양주시 화도읍 월산리 283-10번지","indutype":"건축자재 - 보일러·펌프·샷시","category":"other"}]},{"lat":"37.656248601","long":"127.33577231","imageIndex":17,"items":[{"name":"주식회사 더엠디글로벌","tel":"031-594-2249","addr":"경기도 남양주시 화도읍 월산리 38-1번지 401호","indutype":"건축자재 - 기타건축자재","category":"other"},{"name":"주식회사 더오성","tel":"031-594-2249","addr":"경기도 남양주시 화도읍 월산리 38-1번지 302호","indutype":"건축자재 - 기타건축자재","category":"other"}]},{"lat":"37.650811367","long":"127.32765729","imageIndex":17,"items":[{"name":"주식회사 디커스","tel":"031-595-6674","addr":"경기도 남양주시 화도읍 월산리 253-1번지","indutype":"가구 - 일반가구","category":"other"},{"name":"주식회사 오데르","tel":"031-592-4515","addr":"경기도 남양주시 화도읍 월산리 253-1번지","indutype":"가구 - 일반가구","category":"other"}]},{"lat":"37.657143137","long":"127.33804281","imageIndex":17,"items":[{"name":"주식회사 에어컨관리시스템에스","tel":"031-565-4568","addr":"경기도 남양주시 화도읍 월산리 13번지 엘지전자 물류센터","indutype":"용역 서비스 - 기타용역서비스","category":"other"}]},{"lat":"37.653558251","long":"127.32804321","imageIndex":17,"items":[{"name":"주원종합상사","tel":"031-511-1243","addr":"경기도 남양주시 화도읍 월산리 316-1","indutype":"의류 - 기타의류","category":"other"}]},{"lat":"37.655028693","long":"127.3370474","imageIndex":17,"items":[{"name":"지우타일","tel":"031-511-9914","addr":"경기도 남양주시 화도읍 월산리 60-1번지 60-4","indutype":"건축자재 - 건축용 요업제품","category":"other"}]},{"lat":"37.645863998","long":"127.33129561","imageIndex":17,"items":[{"name":"청운제지","tel":"031-557-3380","addr":"경기도 남양주시 화도읍 월산리 208-3","indutype":"신변잡화 - 기타잡화","category":"other"}]},{"lat":"37.651249263","long":"127.33541004","imageIndex":17,"items":[{"name":"코리아엔지니어링","tel":"031-593-3163","addr":"경기도 남양주시 화도읍 월산리 97-6번지","indutype":"기타 - 기계공구","category":"other"}]},{"lat":"37.652610455","long":"127.32541009","imageIndex":17,"items":[{"name":"태성","tel":"031-592-0347","addr":"경기도 남양주시 화도읍 월산리 297-1번지","indutype":"전기제품 - 냉열기기","category":"other"}]},{"lat":"37.653615772","long":"127.33004922","imageIndex":17,"items":[{"name":"태양우드","tel":"031-559-7788","addr":"경기도 남양주시 화도읍 월산리 368-2","indutype":"건축자재 - 기타건축자재","category":"other"}]},{"lat":"37.651220854","long":"127.32287712","imageIndex":17,"items":[{"name":"풀라워","tel":"031-592-3835","addr":"경기도 남양주시 화도읍 월산리 246-15번지 1층","indutype":"문화.취미 - 화원","category":"other"}]},{"lat":"37.661197364","long":"127.33168047","imageIndex":17,"items":[{"name":"피제이아웃팅","tel":"031-511-1796","addr":"경기도 남양주시 화도읍 월산리 481번지","indutype":"건축자재 - 인테리어전문","category":"other"}]},{"lat":"37.65697815","long":"127.33585489","imageIndex":17,"items":[{"name":"하누리패널 주식회사","tel":"031-593-2148","addr":"경기도 남양주시 화도읍 월산리 35-2번지","indutype":"건축자재 - 기타건축자재","category":"other"}]},{"lat":"37.656165757","long":"127.32995842","imageIndex":17,"items":[{"name":"한성조각","tel":"070-8281-7303","addr":"경기도 남양주시 화도읍 월산리 406-4번지","indutype":"건축자재 - 목재·석재·철물","category":"other"}]},{"lat":"37.657110879","long":"127.33987854","imageIndex":17,"items":[{"name":"해피 컴퓨터","tel":"031-792-7232","addr":"경기도 남양주시 화도읍 월산리 21-4번지","indutype":"사무통신 - 컴퓨터","category":"other"}]},{"lat":"37.654810021","long":"127.33790767","imageIndex":17,"items":[{"name":"현대기득공사","tel":"031-595-9985","addr":"경기도 남양주시 화도읍 월산리 80-2","indutype":"신변잡화 - 기타잡화","category":"other"}]},{"lat":"37.65464417","long":"127.33281878","imageIndex":17,"items":[{"name":"화도낚시","tel":"031-593-9330","addr":"경기도 남양주시 화도읍 월산리 361","indutype":"레져용품 - 스포츠·레져용품","category":"other"}]}]