[{"lat":"37.860691855","long":"126.83522218","imageIndex":17,"items":[{"name":"(주)다위","tel":"031-957-2820","addr":"경기도 파주시 문산읍 이천리 275-1번지","indutype":"기타 - 기계공구","category":"other"}]},{"lat":"37.865138213","long":"126.82614336","imageIndex":17,"items":[{"name":"HHA FP","tel":"070-8875-9194","addr":"경기도 파주시 문산읍 이천리 438-1번지","indutype":"용역 서비스 - 종합용역","category":"other"}]},{"lat":"37.864630292","long":"126.82389444","imageIndex":17,"items":[{"name":"MS공조","tel":"","addr":"경기도 파주시 문산읍 이천리 443-4번지","indutype":"전기제품 - 냉열기기","category":"other"}]},{"lat":"37.862240968","long":"126.82867306","imageIndex":17,"items":[{"name":"더블루","tel":"031-952-7064","addr":"경기도 파주시 문산읍 이천리 445-18번지","indutype":"수리서비스 - 세탁소","category":"other"}]},{"lat":"37.859968374","long":"126.83331474","imageIndex":17,"items":[{"name":"동양설비","tel":"031-952-3313","addr":"경기도 파주시 문산읍 이천리 259-6번지","indutype":"용역 서비스 - 기타용역서비스","category":"other"},{"name":"동양이엔지(ENG)","tel":"031-953-4845","addr":"경기도 파주시 문산읍 이천리 259-6번지","indutype":"용역 서비스 - 기타용역서비스","category":"other"}]},{"lat":"37.859859771","long":"126.83297409","imageIndex":17,"items":[{"name":"세븐일레븐문산이천점","tel":"031-1577-0711","addr":"경기도 파주시 문산읍 이천리 259-3번지","indutype":"유통업 영리 - 편 의 점","category":"other"},{"name":"예일유통","tel":"031-952-5530","addr":"경기도 파주시 문산읍 이천리 259-3번지","indutype":"신변잡화 - 기타잡화","category":"other"}]},{"lat":"37.861996266","long":"126.82769635","imageIndex":17,"items":[{"name":"세일 주식회사","tel":"031-953-9951","addr":"경기도 파주시 문산읍 이천리 445-14번지","indutype":"건축자재 - 보일러·펌프·샷시","category":"other"}]},{"lat":"37.863524575","long":"126.8378977","imageIndex":17,"items":[{"name":"신혜동금속","tel":"","addr":"경기도 파주시 문산읍 이천리 228-8번지","indutype":"기타 - 기계공구","category":"other"}]},{"lat":"37.860161354","long":"126.82972341","imageIndex":17,"items":[{"name":"에스케이(SK) 종합설비,전기","tel":"070-7767-4535","addr":"경기도 파주시 문산읍 이천리 447-10번지","indutype":"용역 서비스 - 기타용역서비스","category":"other"}]},{"lat":"37.87035371","long":"126.81394746","imageIndex":17,"items":[{"name":"오춘방","tel":"031-963-7756","addr":"경기도 파주시 문산읍 이천리 596 1/1","indutype":"건축자재 - 인테리어전문","category":"other"}]},{"lat":"37.876664447","long":"126.84094861","imageIndex":17,"items":[{"name":"준 건축인테리어","tel":"031-953-4877","addr":"경기도 파주시 문산읍 이천리 129번지","indutype":"용역 서비스 - 기타용역서비스","category":"other"}]},{"lat":"37.862024996","long":"126.82884403","imageIndex":17,"items":[{"name":"파주목공방","tel":"","addr":"경기도 파주시 문산읍 이천리 445-19번지","indutype":"가구 - 일반가구","category":"other"}]}]