[{"lat":"37.125811601","long":"127.07613831","imageIndex":4,"items":[{"name":"2대수(  )짬뽕","tel":"031-378-2166","addr":"경기도 평택시 진위면 갈곶리 145-1번지 1층","indutype":"일반휴게음식 - 중국식","category":"restaurant"}]},{"lat":"37.125423575","long":"127.07706067","imageIndex":4,"items":[{"name":"79네수육국밥(엘지로점)","tel":"031-373-2500","addr":"경기도 평택시 진위면 갈곶리 140-2번지","indutype":"음식점 - 일반","category":"restaurant"},{"name":"79네수육국밥(엘지로점)","tel":"031-376-7794","addr":"경기도 평택시 진위면 갈곶리 140-2번지","indutype":"일반휴게음식 - 일반한식","category":"restaurant"},{"name":"이화수육개장평택진위점","tel":"031-374-7910","addr":"경기도 평택시 진위면 갈곶리 140-2번지","indutype":"일반휴게음식 - 일반한식","category":"restaurant"}]},{"lat":"37.126171412","long":"127.07711766","imageIndex":4,"items":[{"name":"개성본가","tel":"031-375-1159","addr":"경기도 평택시 진위면 갈곶리 151-3번지","indutype":"일반휴게음식 - 일반한식","category":"restaurant"},{"name":"개성본가","tel":"031-377-6770","addr":"경기도 평택시 진위면 갈곶리 151-3번지","indutype":"음식점 - 한식","category":"restaurant"}]},{"lat":"37.125477377","long":"127.07747708","imageIndex":4,"items":[{"name":"구좌리얼큰이칼국수","tel":"031-376-9399","addr":"경기도 평택시 진위면 갈곶리 139번지","indutype":"일반휴게음식 - 일반한식","category":"restaurant"}]},{"lat":"37.126314791","long":"127.07836688","imageIndex":4,"items":[{"name":"김경자소문난대구왕뽈찜(오산엘지로점)","tel":"031-372-5551","addr":"경기도 평택시 진위면 갈곶리 153번지 1층","indutype":"일반휴게음식 - 일반한식","category":"restaurant"}]},{"lat":"37.124561099","long":"127.07289633","imageIndex":4,"items":[{"name":"꼬끼오닭개장(진위점)","tel":"031-377-1640","addr":"경기도 평택시 진위면 갈곶리 247-11번지","indutype":"일반휴게음식 - 일반한식","category":"restaurant"}]},{"lat":"37.125677174","long":"127.07494538","imageIndex":4,"items":[{"name":"늘품송탄부대찌개","tel":"031-373-9222","addr":"경기도 평택시 진위면 갈곶리 144-13번지","indutype":"일반휴게음식 - 일반한식","category":"restaurant"}]},{"lat":"37.124426404","long":"127.07210852","imageIndex":4,"items":[{"name":"동네사람들","tel":"031-373-3322","addr":"경기도 평택시 진위면 갈곶리 255-1번지 1층","indutype":"일반휴게음식 - 서양음식","category":"restaurant"},{"name":"명조","tel":"","addr":"경기도 평택시 진위면 갈곶리 255-1번지 1층","indutype":"일반휴게음식 - 일반한식","category":"restaurant"}]},{"lat":"37.125587369","long":"127.07445017","imageIndex":4,"items":[{"name":"돼지세끼","tel":"031-376-9296","addr":"경기도 평택시 진위면 갈곶리 144번지 1층","indutype":"일반휴게음식 - 일반한식","category":"restaurant"}]},{"lat":"37.126117609","long":"127.07670125","imageIndex":4,"items":[{"name":"돼지왔소","tel":"031-372-0670","addr":"경기도 평택시 진위면 갈곶리 151번지","indutype":"일반휴게음식 - 일반한식","category":"restaurant"},{"name":"돼지왔소","tel":"031-666-7779","addr":"경기도 평택시 진위면 갈곶리 151번지 1층","indutype":"음식점 - 한식","category":"restaurant"}]},{"lat":"37.12289732","long":"127.06731358","imageIndex":4,"items":[{"name":"리얼커피","tel":"031-372-3450","addr":"경기도 평택시 진위면 갈곶리 720-9번지","indutype":"일반휴게음식 - 서양음식","category":"restaurant"}]},{"lat":"37.119620825","long":"127.0770325","imageIndex":4,"items":[{"name":"미담한식뷔페","tel":"070-7614-3579","addr":"경기도 평택시 진위면 갈곶리 95-1번지","indutype":"일반휴게음식 - 일반한식","category":"restaurant"}]},{"lat":"37.12558724","long":"127.07466397","imageIndex":4,"items":[{"name":"바다양푼이동태탕 평택LG로점","tel":"031-375-1159","addr":"경기도 평택시 진위면 갈곶리 144-12번지 2층","indutype":"음식점 - 한식","category":"restaurant"},{"name":"바다양푼이동태탕 평택LG로점","tel":"031-376-7275","addr":"경기도 평택시 진위면 갈곶리 144-12번지 2층","indutype":"일반휴게음식 - 일반한식","category":"restaurant"},{"name":"이가네참좋은집밥","tel":"031-378-9305","addr":"경기도 평택시 진위면 갈곶리 144-12번지 103호","indutype":"일반휴게음식 - 일반한식","category":"restaurant"}]},{"lat":"37.124705107","long":"127.07316653","imageIndex":4,"items":[{"name":"송탄두루치기신푸줏간","tel":"031-372-4971","addr":"경기도 평택시 진위면 갈곶리 247-14번지","indutype":"일반휴게음식 - 일반한식","category":"restaurant"},{"name":"송탄두루치기신푸줏간","tel":"031-663-7055","addr":"경기도 평택시 진위면 갈곶리 247-14번지","indutype":"음식점 - 한식","category":"restaurant"}]},{"lat":"37.126252053","long":"127.07783793","imageIndex":4,"items":[{"name":"울엄마통돼지김치찌개전문점","tel":"031-372-1110","addr":"경기도 평택시 진위면 갈곶리 152-2번지 1층","indutype":"일반휴게음식 - 일반한식","category":"restaurant"}]},{"lat":"37.123892329","long":"127.07619272","imageIndex":4,"items":[{"name":"월드푸드","tel":"031-647-3170","addr":"경기도 평택시 진위면 갈곶리 733번지","indutype":"일반휴게음식 - 위탁급식업","category":"restaurant"}]},{"lat":"37.117647142","long":"127.07763817","imageIndex":4,"items":[{"name":"월드푸드","tel":"031-233-4571","addr":"경기도 평택시 진위면 갈곶리 737-4번지 2동 2층","indutype":"일반휴게음식 - 위탁급식업","category":"restaurant"}]},{"lat":"37.127224765","long":"127.07850282","imageIndex":4,"items":[{"name":"은성할머니해물탕","tel":"031-375-2562","addr":"경기도 평택시 진위면 갈곶리 169-4번지 A동","indutype":"일반휴게음식 - 일반한식","category":"restaurant"}]},{"lat":"37.125703897","long":"127.07545178","imageIndex":4,"items":[{"name":"이만정","tel":"031-376-7794","addr":"경기도 평택시 진위면 갈곶리 144-14번지 1층","indutype":"음식점 - 한식","category":"restaurant"},{"name":"이만정","tel":"031-377-6770","addr":"경기도 평택시 진위면 갈곶리 144-14번지","indutype":"일반휴게음식 - 일반한식","category":"restaurant"}]},{"lat":"37.126089956","long":"127.07769148","imageIndex":4,"items":[{"name":"장흥낙지","tel":"031-372-2248","addr":"경기도 평택시 진위면 갈곶리 140-11번지","indutype":"일반휴게음식 - 일반한식","category":"restaurant"}]},{"lat":"37.125281646","long":"127.07339211","imageIndex":4,"items":[{"name":"제주복어","tel":"031-372-0670","addr":"경기도 평택시 진위면 갈곶리 248-3번지","indutype":"음식점 - 한식","category":"restaurant"},{"name":"제주복어","tel":"031-373-2500","addr":"경기도 평택시 진위면 갈곶리 248-3번지","indutype":"일반휴게음식 - 일반한식","category":"restaurant"}]},{"lat":"37.125757759","long":"127.07577817","imageIndex":4,"items":[{"name":"추막골 남원추어탕","tel":"031-376-7039","addr":"경기도 평택시 진위면 갈곶리 144-15번지","indutype":"일반휴게음식 - 일반한식","category":"restaurant"}]},{"lat":"37.125145315","long":"127.07533872","imageIndex":4,"items":[{"name":"커피볶는집(효커피)","tel":"031-375-2201","addr":"경기도 평택시 진위면 갈곶리 130-8번지","indutype":"일반휴게음식 - 서양음식","category":"restaurant"}]},{"lat":"37.12767506","long":"127.07886337","imageIndex":4,"items":[{"name":"하늘풍천민물장어","tel":"031-375-1005","addr":"경기도 평택시 진위면 갈곶리 167-4","indutype":"일반휴게음식 - 일반한식","category":"restaurant"}]}]