[{"lat":"37.676806496","long":"127.49375638","imageIndex":8,"items":[{"name":"감초 온누리 약국","tel":"031-585-1008","addr":"경기도 가평군 설악면 신천리 120-3번지","indutype":"약국 - 약국","category":"medical"}]},{"lat":"37.67780839","long":"127.49114445","imageIndex":8,"items":[{"name":"경희부부한의원","tel":"031-585-8075","addr":"경기도 가평군 설악면 신천리 435-22번지 2층","indutype":"의원 - 한의원","category":"medical"}]},{"lat":"37.676559088","long":"127.49475226","imageIndex":8,"items":[{"name":"고향약국","tel":"031-584-1902","addr":"경기도 가평군 설악면 신천리 121-14번지","indutype":"약국 - 약국","category":"medical"}]},{"lat":"37.677971637","long":"127.4908848","imageIndex":8,"items":[{"name":"늘푸른의원","tel":"031-284-1551","addr":"경기도 가평군 설악면 신천리 435-14번지 2층","indutype":"의원 - 의원","category":"medical"}]},{"lat":"37.678053284","long":"127.4907493","imageIndex":8,"items":[{"name":"대성약국","tel":"031-584-1050","addr":"경기도 가평군 설악면 신천리 435-19","indutype":"약국 - 약국","category":"medical"},{"name":"유명한의원","tel":"031-585-9775","addr":"경기도 가평군 설악면 신천리 435-19번지 1층","indutype":"의원 - 한의원","category":"medical"}]},{"lat":"37.677775494","long":"127.49038474","imageIndex":8,"items":[{"name":"설악동물병원","tel":"031-584-3063","addr":"경기도 가평군 설악면 신천리 454-3번지","indutype":"기타의료기관 - 동물병원","category":"medical"}]},{"lat":"37.677726884","long":"127.49124593","imageIndex":8,"items":[{"name":"설악치과의원","tel":"031-585-8000","addr":"경기도 가평군 설악면 신천리 432-6번지","indutype":"의원 - 치과의원","category":"medical"}]},{"lat":"37.678058669","long":"127.48944574","imageIndex":8,"items":[{"name":"설악한의원","tel":"031-585-9600","addr":"경기도 가평군 설악면 신천리 450-1번지 2층","indutype":"의원 - 한의원","category":"medical"}]},{"lat":"37.677615636","long":"127.49416979","imageIndex":8,"items":[{"name":"우리들의원","tel":"031-585-8575","addr":"경기도 가평군 설악면 신천리 120-1","indutype":"의원 - 의원","category":"medical"}]},{"lat":"37.677862916","long":"127.49103145","imageIndex":8,"items":[{"name":"우리들치과의원","tel":"031-585-2875","addr":"경기도 가평군 설악면 신천리 435-21번지 2층","indutype":"의원 - 치과의원","category":"medical"}]}]