[{"lat":"37.223155493","long":"126.84254783","imageIndex":4,"items":[{"name":"가마솥양평해장국","tel":"031-355-1924","addr":"경기도 화성시 남양읍 북양리 56-1번지 외1필지 1층","indutype":"일반휴게음식 - 일반한식","category":"restaurant"},{"name":"돈가네옛날김치돼지찌개남양점","tel":"031-356-5057","addr":"경기도 화성시 남양읍 북양리 56-1번지 106,107호","indutype":"일반휴게음식 - 일반한식","category":"restaurant"},{"name":"현대동태탕","tel":"031-357-2990","addr":"경기도 화성시 남양읍 북양리 56-1번지 외1필지 102호","indutype":"일반휴게음식 - 일반한식","category":"restaurant"}]},{"lat":"37.208324881","long":"126.8643209","imageIndex":4,"items":[{"name":"건흥식당","tel":"031-355-5743","addr":"경기도 화성시 남양읍 북양리 562-27번지","indutype":"일반휴게음식 - 일반한식","category":"restaurant"}]},{"lat":"37.222797296","long":"126.84419361","imageIndex":4,"items":[{"name":"교동짬뽕","tel":"031-357-5595","addr":"경기도 화성시 남양읍 북양리 39-3번지 1동 1층","indutype":"일반휴게음식 - 중국식","category":"restaurant"}]},{"lat":"37.218933464","long":"126.83238294","imageIndex":4,"items":[{"name":"그린식당","tel":"031-356-3140","addr":"경기도 화성시 남양읍 북양리 255-3번지 1층","indutype":"일반휴게음식 - 일반한식","category":"restaurant"}]},{"lat":"37.204801792","long":"126.86429355","imageIndex":4,"items":[{"name":"남도성(  )식당","tel":"031-355-6342","addr":"경기도 화성시 남양읍 북양리 567-79번지","indutype":"일반휴게음식 - 일반한식","category":"restaurant"}]},{"lat":"37.207214101","long":"126.85480404","imageIndex":4,"items":[{"name":"남도한식부페","tel":"031-357-1120","addr":"경기도 화성시 남양읍 북양리 613번지","indutype":"일반휴게음식 - 일반한식","category":"restaurant"}]},{"lat":"37.216958845","long":"126.84438611","imageIndex":4,"items":[{"name":"남도한식뷔페","tel":"","addr":"경기도 화성시 남양읍 북양리 441-2번지 1동","indutype":"일반휴게음식 - 일반한식","category":"restaurant"}]},{"lat":"37.217043452","long":"126.84033002","imageIndex":4,"items":[{"name":"러브레터","tel":"031-355-5353","addr":"경기도 화성시 남양읍 북양리 396번지 외3필지","indutype":"일반휴게음식 - 스넥","category":"restaurant"}]},{"lat":"37.215048403","long":"126.83127634","imageIndex":4,"items":[{"name":"메이향","tel":"031-356-3022","addr":"경기도 화성시 남양읍 북양리 304-2번지","indutype":"일반휴게음식 - 일반한식","category":"restaurant"}]},{"lat":"37.206218842","long":"126.8587712","imageIndex":4,"items":[{"name":"명석한식부페","tel":"031-355-3747","addr":"경기도 화성시 남양읍 북양리 573-21번지","indutype":"일반휴게음식 - 일반한식","category":"restaurant"}]},{"lat":"37.214598814","long":"126.85180411","imageIndex":4,"items":[{"name":"명품북양감자탕 한식부페","tel":"031-355-5887","addr":"경기도 화성시 남양읍 북양리 510-7번지","indutype":"일반휴게음식 - 일반한식","category":"restaurant"},{"name":"명품북양감자탕 한식뷔페","tel":"031-355-5887","addr":"경기도 화성시 남양읍 북양리 510-7번지 1층","indutype":"일반휴게음식 - 일반한식","category":"restaurant"},{"name":"짬뽕집(zip)","tel":"031-356-3372","addr":"경기도 화성시 남양읍 북양리 510-7번지","indutype":"일반휴게음식 - 중국식","category":"restaurant"}]},{"lat":"37.221628685","long":"126.83957655","imageIndex":4,"items":[{"name":"무봉리토종순대국","tel":"031-355-4555","addr":"경기도 화성시 남양읍 북양리 75-11번지","indutype":"일반휴게음식 - 일반한식","category":"restaurant"},{"name":"콩비지감자탕전문점","tel":"031-356-2922","addr":"경기도 화성시 남양읍 북양리 75-11번지","indutype":"일반휴게음식 - 일반한식","category":"restaurant"}]},{"lat":"37.222019398","long":"126.84196435","imageIndex":4,"items":[{"name":"박군자진주냉면","tel":"031-356-4677","addr":"경기도 화성시 남양읍 북양리 75-8번지","indutype":"일반휴게음식 - 일반한식","category":"restaurant"}]},{"lat":"37.21129545","long":"126.85452569","imageIndex":4,"items":[{"name":"박은자맛사랑(화성남양점)","tel":"031-357-1182","addr":"경기도 화성시 남양읍 북양리 535-7번지 1층","indutype":"일반휴게음식 - 일반한식","category":"restaurant"},{"name":"송탄나여사부대찌개 화성점","tel":"031-366-7012","addr":"경기도 화성시 남양읍 북양리 535-7번지","indutype":"일반휴게음식 - 일반한식","category":"restaurant"}]},{"lat":"37.214742692","long":"126.8515785","imageIndex":4,"items":[{"name":"보현한식부페","tel":"031-355-8515","addr":"경기도 화성시 남양읍 북양리 510번지","indutype":"일반휴게음식 - 일반한식","category":"restaurant"}]},{"lat":"37.21423992","long":"126.83937842","imageIndex":4,"items":[{"name":"북양구내식당","tel":"031-366-8168","addr":"경기도 화성시 남양읍 북양리 421-2번지","indutype":"일반휴게음식 - 일반한식","category":"restaurant"}]},{"lat":"37.221576001","long":"126.84057944","imageIndex":4,"items":[{"name":"서울한식뷔페","tel":"031-356-3456","addr":"경기도 화성시 남양읍 북양리 75-9번지 외1필지 1층 A동","indutype":"일반휴게음식 - 일반한식","category":"restaurant"}]},{"lat":"37.21623858","long":"126.85171071","imageIndex":4,"items":[{"name":"소담밥상","tel":"031-355-0854","addr":"경기도 화성시 남양읍 북양리 506-44번지","indutype":"일반휴게음식 - 일반한식","category":"restaurant"}]},{"lat":"37.217383153","long":"126.83838019","imageIndex":4,"items":[{"name":"안동국밥 화성남양점","tel":"031-355-4980","addr":"경기도 화성시 남양읍 북양리 362번지 2동","indutype":"일반휴게음식 - 일반한식","category":"restaurant"}]},{"lat":"37.221077371","long":"126.8383609","imageIndex":4,"items":[{"name":"엄마부대한식부페","tel":"031-355-6567","addr":"경기도 화성시 남양읍 북양리 77-1번지 2동 1층","indutype":"일반휴게음식 - 일반한식","category":"restaurant"}]},{"lat":"37.211966106","long":"126.85049127","imageIndex":4,"items":[{"name":"엔젤코리아푸드","tel":"032-816-0505","addr":"경기도 화성시 남양읍 북양리 500-73번지","indutype":"일반휴게음식 - 위탁급식업","category":"restaurant"}]},{"lat":"37.20863244","long":"126.86535673","imageIndex":4,"items":[{"name":"은혜식당","tel":"031-355-2224","addr":"경기도 화성시 남양읍 북양리 564번지 1층","indutype":"일반휴게음식 - 일반한식","category":"restaurant"}]},{"lat":"37.219689029","long":"126.83782311","imageIndex":4,"items":[{"name":"차돌고개","tel":"031-429-4460","addr":"경기도 화성시 남양읍 북양리 381번지","indutype":"일반휴게음식 - 일반한식","category":"restaurant"}]},{"lat":"37.213550384","long":"126.8492939","imageIndex":4,"items":[{"name":"태영식당","tel":"031-000-0000","addr":"경기도 화성시 남양읍 북양리 500-34번지","indutype":"일반휴게음식 - 위탁급식업","category":"restaurant"}]},{"lat":"37.212377452","long":"126.85513192","imageIndex":4,"items":[{"name":"프레쉬영푸드","tel":"031-355-7573","addr":"경기도 화성시 남양읍 북양리 523-2번지 1층","indutype":"일반휴게음식 - 일반한식","category":"restaurant"}]},{"lat":"37.207881766","long":"126.8555237","imageIndex":4,"items":[{"name":"피그농원","tel":"031-355-2798","addr":"경기도 화성시 남양읍 북양리 590번지 1층","indutype":"일반휴게음식 - 일반한식","category":"restaurant"}]},{"lat":"37.217825356","long":"126.8324981","imageIndex":4,"items":[{"name":"피렌체커피","tel":"031-356-4787","addr":"경기도 화성시 남양읍 북양리 691-1번지 1층","indutype":"일반휴게음식 - 서양음식","category":"restaurant"}]},{"lat":"37.21077392","long":"126.85538289","imageIndex":4,"items":[{"name":"하우스 홀드","tel":"031-366-8865","addr":"경기도 화성시 남양읍 북양리 534-2번지","indutype":"일반휴게음식 - 서양음식","category":"restaurant"}]},{"lat":"37.217015879","long":"126.83993575","imageIndex":4,"items":[{"name":"행복한식뷔페","tel":"031-356-3284","addr":"경기도 화성시 남양읍 북양리 395-9번지 1층 대보프라자","indutype":"일반휴게음식 - 일반한식","category":"restaurant"}]}]