[{"lat":"37.195693876","long":"127.06524662","imageIndex":4,"items":[{"name":"(주)오앤이/보나카바","tel":"031-377-5777","addr":"경기도 오산시 외삼미동 119-12번지 마동","indutype":"일반휴게음식 - 서양음식","category":"restaurant"},{"name":"용궁갈비","tel":"031-8003-1312","addr":"경기도 오산시 외삼미동 119-12번지 가동 1층 2층","indutype":"일반휴게음식 - 일반한식","category":"restaurant"}]},{"lat":"37.194945674","long":"127.065888","imageIndex":4,"items":[{"name":"(주)은혜케터링","tel":"02-449-8035","addr":"경기도 오산시 외삼미동 57번지 1층","indutype":"일반휴게음식 - 일반한식","category":"restaurant"},{"name":"경원궁2호점","tel":"031-8003-9566","addr":"경기도 오산시 외삼미동 57번지 1층","indutype":"일반휴게음식 - 일반한식","category":"restaurant"}]},{"lat":"37.198109038","long":"127.06452774","imageIndex":4,"items":[{"name":"갈치밥상","tel":"031-613-7798","addr":"경기도 오산시 외삼미동 127-6번지 3층","indutype":"일반휴게음식 - 일반한식","category":"restaurant"},{"name":"돈까스클럽 동탄중앙점","tel":"031-613-8861","addr":"경기도 오산시 외삼미동 127-6번지 2층","indutype":"일반휴게음식 - 서양음식","category":"restaurant"},{"name":"조선화로집 (서동탄점)","tel":"02-1111-1111","addr":"경기도 오산시 외삼미동 127-6번지","indutype":"일반휴게음식 - 일반한식","category":"restaurant"},{"name":"황도바지락칼국수","tel":"031-377-6077","addr":"경기도 오산시 외삼미동 127-6","indutype":"일반휴게음식 - 일반한식","category":"restaurant"}]},{"lat":"37.197938225","long":"127.0637842","imageIndex":4,"items":[{"name":"고창풍천장어","tel":"031-8055-3725","addr":"경기도 오산시 외삼미동 산3-2번지 1동","indutype":"일반휴게음식 - 일반한식","category":"restaurant"},{"name":"육풍 동탄골든프라임점","tel":"031-613-0610","addr":"경기도 오산시 외삼미동 산3-2번지 3동","indutype":"일반휴게음식 - 일반한식","category":"restaurant"}]},{"lat":"37.197135799","long":"127.06475221","imageIndex":4,"items":[{"name":"교동 낙지","tel":"031-613-0393","addr":"경기도 오산시 외삼미동 119-1번지 1층","indutype":"일반휴게음식 - 일반한식","category":"restaurant"}]},{"lat":"37.19844258","long":"127.06422389","imageIndex":4,"items":[{"name":"구수옥","tel":"031-613-3165","addr":"경기도 오산시 외삼미동 127-3번지 4호","indutype":"일반휴게음식 - 일반한식","category":"restaurant"}]},{"lat":"37.189803051","long":"127.06136752","imageIndex":4,"items":[{"name":"김명자낙지마당동탄점","tel":"031-376-8598","addr":"경기도 오산시 외삼미동 302-1번지 2동 1층 2호","indutype":"일반휴게음식 - 일반한식","category":"restaurant"},{"name":"동탄본가설렁탕","tel":"031-373-7572","addr":"경기도 오산시 외삼미동 302-1번지 2동 1호","indutype":"일반휴게음식 - 일반한식","category":"restaurant"},{"name":"명륜진사갈비","tel":"031-372-0377","addr":"경기도 오산시 외삼미동 302-1번지 1층 일부호","indutype":"일반휴게음식 - 일반한식","category":"restaurant"},{"name":"민짬뽕","tel":"031-372-1253","addr":"경기도 오산시 외삼미동 302-1번지 1층 일부호","indutype":"일반휴게음식 - 중국식","category":"restaurant"}]},{"lat":"37.193826442","long":"127.05078342","imageIndex":4,"items":[{"name":"내고향밥집","tel":"031-377-0347","addr":"경기도 오산시 외삼미동 459-79번지","indutype":"일반휴게음식 - 일반한식","category":"restaurant"}]},{"lat":"37.19155312","long":"127.05705528","imageIndex":4,"items":[{"name":"느티나무식당","tel":"031-372-3786","addr":"경기도 오산시 외삼미동 348번지","indutype":"일반휴게음식 - 일반한식","category":"restaurant"}]},{"lat":"37.195793209","long":"127.06482996","imageIndex":4,"items":[{"name":"늘평양","tel":"031-8003-5557","addr":"경기도 오산시 외삼미동 119-12번지 라동 1층","indutype":"일반휴게음식 - 일반한식","category":"restaurant"}]},{"lat":"37.193549532","long":"127.06499707","imageIndex":4,"items":[{"name":"동탄장수촌","tel":"031-377-5989","addr":"경기도 오산시 외삼미동 46번지 1층","indutype":"일반휴게음식 - 일반한식","category":"restaurant"}]},{"lat":"37.198993493","long":"127.06170125","imageIndex":4,"items":[{"name":"두레밥상","tel":"031-613-2056","addr":"경기도 오산시 외삼미동 136-3번지","indutype":"일반휴게음식 - 일반한식","category":"restaurant"}]},{"lat":"37.198911647","long":"127.06319927","imageIndex":4,"items":[{"name":"락시루","tel":"031-378-9066","addr":"경기도 오산시 외삼미동 126-10번지","indutype":"일반휴게음식 - 중국식","category":"restaurant"},{"name":"락시루","tel":"031-378-9066","addr":"경기도 오산시 외삼미동 126-10번지 1층","indutype":"일반휴게음식 - 중국식","category":"restaurant"},{"name":"춘향골추어탕","tel":"031-613-2060","addr":"경기도 오산시 외삼미동 126-10번지 1,2층","indutype":"일반휴게음식 - 일반한식","category":"restaurant"}]},{"lat":"37.190223552","long":"127.0475263","imageIndex":4,"items":[{"name":"맥스한식뷔페","tel":"031-377-9140","addr":"경기도 오산시 외삼미동 566-1번지 A동 1층","indutype":"일반휴게음식 - 일반한식","category":"restaurant"}]},{"lat":"37.194612552","long":"127.06539215","imageIndex":4,"items":[{"name":"미사리밀빛초계국수동탄점","tel":"031-8015-2566","addr":"경기도 오산시 외삼미동 53번지 (주)에스아이개발 101호","indutype":"일반휴게음식 - 일반한식","category":"restaurant"},{"name":"미사리밀빛초계국수동탄점","tel":"031-8015-2566","addr":"경기도 오산시 외삼미동 53번지 (주)에스아이개발 101호","indutype":"일반휴게음식 - 일반한식","category":"restaurant"}]},{"lat":"37.19027546","long":"127.05292105","imageIndex":4,"items":[{"name":"민들레화로","tel":"031-376-3392","addr":"경기도 오산시 외삼미동 426-4번지","indutype":"일반휴게음식 - 일반한식","category":"restaurant"}]},{"lat":"37.198667898","long":"127.06411143","imageIndex":4,"items":[{"name":"봉평진메밀막국수곤드레나물밥","tel":"031-8015-1588","addr":"경기도 오산시 외삼미동 126-12번지","indutype":"일반휴게음식 - 일반한식","category":"restaurant"}]},{"lat":"37.189384835","long":"127.04947419","imageIndex":4,"items":[{"name":"삼미가든","tel":"031-372-0089","addr":"경기도 오산시 외삼미동 575-3번지","indutype":"일반휴게음식 - 일반한식","category":"restaurant"},{"name":"삼미가든","tel":"031-72-2459","addr":"경기도 오산시 외삼미동 575-3번지","indutype":"일반휴게음식 - 일반한식","category":"restaurant"}]},{"lat":"37.198857331","long":"127.06369483","imageIndex":4,"items":[{"name":"순천회관","tel":"031-613-3791","addr":"경기도 오산시 외삼미동 126-16번지","indutype":"일반휴게음식 - 일반한식","category":"restaurant"}]},{"lat":"37.19441668","long":"127.06075161","imageIndex":4,"items":[{"name":"숯불구이 비스트로 소한판","tel":"031-376-5557","addr":"경기도 오산시 외삼미동 74-5번지","indutype":"일반휴게음식 - 일반한식","category":"restaurant"}]},{"lat":"37.197856905","long":"127.06422341","imageIndex":4,"items":[{"name":"스윗브띠끄","tel":"031-8003-4835","addr":"경기도 오산시 외삼미동 119-29번지 1.2.3층","indutype":"일반휴게음식 - 서양음식","category":"restaurant"}]},{"lat":"37.189831565","long":"127.05828165","imageIndex":4,"items":[{"name":"어가해물의품격/주식회사미르","tel":"070-1111-1111","addr":"경기도 오산시 외삼미동 323-1번지","indutype":"일반휴게음식 - 일반한식","category":"restaurant"}]},{"lat":"37.189605779","long":"127.05939646","imageIndex":4,"items":[{"name":"운봉소갈비살전문점","tel":"","addr":"경기도 오산시 외삼미동 327-7번지 1층","indutype":"일반휴게음식 - 일반한식","category":"restaurant"}]},{"lat":"37.199164802","long":"127.06147611","imageIndex":4,"items":[{"name":"원조 소금구이","tel":"031-373-8899","addr":"경기도 오산시 외삼미동 136-1번지 1층","indutype":"일반휴게음식 - 일반한식","category":"restaurant"}]},{"lat":"37.194607172","long":"127.0580824","imageIndex":4,"items":[{"name":"장호연탄구이","tel":"031-375-1081","addr":"경기도 오산시 외삼미동 217-1번지","indutype":"일반휴게음식 - 일반한식","category":"restaurant"}]},{"lat":"37.198831059","long":"127.06219673","imageIndex":4,"items":[{"name":"정담명가남원추어탕","tel":"031-613-8780","addr":"경기도 오산시 외삼미동 128-3번지 A,B동","indutype":"일반휴게음식 - 일반한식","category":"restaurant"}]},{"lat":"37.191940489","long":"127.05722449","imageIndex":4,"items":[{"name":"진구네","tel":"031-376-5667","addr":"경기도 오산시 외삼미동 281-1번지","indutype":"일반휴게음식 - 일반한식","category":"restaurant"}]},{"lat":"37.197550376","long":"127.06456107","imageIndex":4,"items":[{"name":"차이나팬더","tel":"031-8015-1108","addr":"경기도 오산시 외삼미동 119-4번지 1층","indutype":"일반휴게음식 - 중국식","category":"restaurant"}]},{"lat":"37.194081492","long":"127.06433299","imageIndex":4,"items":[{"name":"천상마루","tel":"031-377-8783","addr":"경기도 오산시 외삼미동 48번지 1층","indutype":"일반휴게음식 - 일반한식","category":"restaurant"},{"name":"천상마루카페테리아","tel":"","addr":"경기도 오산시 외삼미동 48번지 2층","indutype":"일반휴게음식 - 서양음식","category":"restaurant"}]},{"lat":"37.196529258","long":"127.05152851","imageIndex":4,"items":[{"name":"카페 쿠티나이","tel":"031-1522-9742","addr":"경기도 오산시 외삼미동 251-1번지 로얄 그루브(ROYAL GROVE) 1층 101호","indutype":"일반휴게음식 - 서양음식","category":"restaurant"},{"name":"쿠티나이(kootenai)","tel":"031-1522-9742","addr":"경기도 오산시 외삼미동 251-1번지 로얄 그루브(ROYAL GROVE) 101호","indutype":"일반휴게음식 - 서양음식","category":"restaurant"}]},{"lat":"37.191079889","long":"127.04659201","imageIndex":4,"items":[{"name":"카페몽베르","tel":"031-111-1111","addr":"경기도 오산시 외삼미동 563-1번지 1층","indutype":"일반휴게음식 - 서양음식","category":"restaurant"}]},{"lat":"37.197216762","long":"127.06500008","imageIndex":4,"items":[{"name":"콩마당(외삼미점)","tel":"031-8003-0330","addr":"경기도 오산시 외삼미동 119-5번지","indutype":"일반휴게음식 - 일반한식","category":"restaurant"}]},{"lat":"37.18891143","long":"127.06053342","imageIndex":4,"items":[{"name":"태성추어탕","tel":"031-372-9333","addr":"경기도 오산시 외삼미동 327-46번지 1층","indutype":"일반휴게음식 - 일반한식","category":"restaurant"}]},{"lat":"37.187306323","long":"127.06305489","imageIndex":4,"items":[{"name":"풍천장어참숯구이","tel":"031-378-3278","addr":"경기도 오산시 외삼미동 614-21번지 1층","indutype":"일반휴게음식 - 일반한식","category":"restaurant"}]},{"lat":"37.19408298","long":"127.06139334","imageIndex":4,"items":[{"name":"프레그레스","tel":"031-377-8125","addr":"경기도 오산시 외삼미동 74-31번지 2동 1층","indutype":"일반휴게음식 - 서양음식","category":"restaurant"}]},{"lat":"37.195477698","long":"127.06511128","imageIndex":4,"items":[{"name":"행복나루","tel":"031-8015-3600","addr":"경기도 오산시 외삼미동 119-12번지 동탄푸드타운 다동 1층","indutype":"일반휴게음식 - 일반한식","category":"restaurant"}]},{"lat":"37.190196286","long":"127.04814572","imageIndex":4,"items":[{"name":"행복한분식","tel":"031-375-0995","addr":"경기도 오산시 외삼미동 572-1번지 1층","indutype":"일반휴게음식 - 스넥","category":"restaurant"}]},{"lat":"37.188886514","long":"127.05600598","imageIndex":4,"items":[{"name":"화동한우정육식당","tel":"031-376-0032","addr":"경기도 오산시 외삼미동 397-2번지 1층","indutype":"일반휴게음식 - 일반한식","category":"restaurant"}]},{"lat":"37.194162351","long":"127.06478358","imageIndex":4,"items":[{"name":"황당장어족발","tel":"031-8015-0597","addr":"경기도 오산시 외삼미동 53-2번지 1층","indutype":"일반휴게음식 - 일반한식","category":"restaurant"}]},{"lat":"37.19557667","long":"127.06538168","imageIndex":4,"items":[{"name":"황제해물찜스토리","tel":"031-613-0361","addr":"경기도 오산시 외삼미동 119-12번지 나동 1층","indutype":"일반휴게음식 - 일반한식","category":"restaurant"}]}]