[{"lat":"37.302243312","long":"127.64705166","imageIndex":4,"items":[{"name":"Capella(카펠라)","tel":"031-883-5447","addr":"경기도 여주시 오학동 402-5번지","indutype":"일반휴게음식 - 서양음식","category":"restaurant"}]},{"lat":"37.308247088","long":"127.64316621","imageIndex":4,"items":[{"name":"JoveIy(조블리)","tel":"031-885-3735","addr":"경기도 여주시 오학동 286-4번지 1층","indutype":"일반휴게음식 - 서양음식","category":"restaurant"}]},{"lat":"37.31062964","long":"127.64411139","imageIndex":4,"items":[{"name":"La vie en bonbon(라비앙봉봉)","tel":"","addr":"경기도 여주시 오학동 261-7번지 102호","indutype":"일반휴게음식 - 일반한식","category":"restaurant"},{"name":"교촌치킨 여주오학점","tel":"031-885-1999","addr":"경기도 여주시 오학동 261-7번지 101호","indutype":"일반휴게음식 - 스넥","category":"restaurant"}]},{"lat":"37.310522584","long":"127.64224925","imageIndex":4,"items":[{"name":"거기로 가자","tel":"031-883-7355","addr":"경기도 여주시 오학동 280번지","indutype":"일반휴게음식 - 일반한식","category":"restaurant"},{"name":"돌판생삼겹살","tel":"031-884-3014","addr":"경기도 여주시 오학동 280번지","indutype":"일반휴게음식 - 일반한식","category":"restaurant"},{"name":"커피나무","tel":"031-886-8843","addr":"경기도 여주시 오학동 280번지 1층","indutype":"일반휴게음식 - 서양음식","category":"restaurant"}]},{"lat":"37.311994337","long":"127.64500285","imageIndex":4,"items":[{"name":"계동치킨(오학점)","tel":"031-886-9211","addr":"경기도 여주시 오학동 272-4번지","indutype":"일반휴게음식 - 스넥","category":"restaurant"},{"name":"오학토종순대국","tel":"031-886-7988","addr":"경기도 여주시 오학동 272-4번지","indutype":"일반휴게음식 - 일반한식","category":"restaurant"},{"name":"페밀리푸드","tel":"","addr":"경기도 여주시 오학동 272-4번지 1층","indutype":"일반휴게음식 - 일반한식","category":"restaurant"},{"name":"학동맛집","tel":"031-884-3647","addr":"경기도 여주시 오학동 272-4번지","indutype":"일반휴게음식 - 일반한식","category":"restaurant"}]},{"lat":"37.308633771","long":"127.64330485","imageIndex":4,"items":[{"name":"구이가","tel":"031-886-6692","addr":"경기도 여주시 오학동 286번지","indutype":"일반휴게음식 - 일반한식","category":"restaurant"},{"name":"밤을달리다","tel":"031-886-6586","addr":"경기도 여주시 오학동 286번지 1층","indutype":"일반휴게음식 - 주점","category":"restaurant"}]},{"lat":"37.312387195","long":"127.64400223","imageIndex":4,"items":[{"name":"꼬몽이","tel":"031-111-1111","addr":"경기도 여주시 오학동 100-28번지 1층","indutype":"일반휴게음식 - 일반한식","category":"restaurant"}]},{"lat":"37.307549699","long":"127.6454952","imageIndex":4,"items":[{"name":"나의손 소고기샤브 만두칼국수","tel":"031-884-1444","addr":"경기도 여주시 오학동 306-1번지","indutype":"일반휴게음식 - 일반한식","category":"restaurant"}]},{"lat":"37.31160288","long":"127.64574402","imageIndex":4,"items":[{"name":"남촌식당","tel":"031-886-4895","addr":"경기도 여주시 오학동 237-6번지 1층","indutype":"일반휴게음식 - 일반한식","category":"restaurant"}]},{"lat":"37.303134639","long":"127.643856","imageIndex":4,"items":[{"name":"농가보쌈족발","tel":"031-885-8852","addr":"경기도 여주시 오학동 359-6번지","indutype":"일반휴게음식 - 일반한식","category":"restaurant"},{"name":"자연산가잠물회등뼈찜","tel":"031-885-8216","addr":"경기도 여주시 오학동 359-6번지","indutype":"일반휴게음식 - 일반한식","category":"restaurant"},{"name":"토마스커피(THOMAS COFFEE)","tel":"031-885-6777","addr":"경기도 여주시 오학동 359-6번지","indutype":"일반휴게음식 - 서양음식","category":"restaurant"}]},{"lat":"37.308938756","long":"127.64355559","imageIndex":4,"items":[{"name":"단골집","tel":"031-882-0563","addr":"경기도 여주시 오학동 254번지","indutype":"일반휴게음식 - 일반한식","category":"restaurant"},{"name":"엄마밥상","tel":"031-885-1610","addr":"경기도 여주시 오학동 254번지","indutype":"일반휴게음식 - 일반한식","category":"restaurant"},{"name":"초원구이","tel":"031-885-8610","addr":"경기도 여주시 오학동 254번지","indutype":"일반휴게음식 - 일반한식","category":"restaurant"}]},{"lat":"37.308104459","long":"127.642883","imageIndex":4,"items":[{"name":"달구지막창","tel":"031-885-5211","addr":"경기도 여주시 오학동 285-11번지","indutype":"일반휴게음식 - 일반한식","category":"restaurant"},{"name":"풍성식당","tel":"031-882-4957","addr":"경기도 여주시 오학동 285-11번지","indutype":"일반휴게음식 - 일반한식","category":"restaurant"}]},{"lat":"37.305745146","long":"127.64263742","imageIndex":4,"items":[{"name":"대박이네 막창","tel":"031-882-5892","addr":"경기도 여주시 오학동 292-13번지","indutype":"일반휴게음식 - 일반한식","category":"restaurant"}]},{"lat":"37.301435136","long":"127.64489051","imageIndex":4,"items":[{"name":"대선정(오학)","tel":"031-635-7792","addr":"경기도 여주시 오학동 378-4번지 1층","indutype":"일반휴게음식 - 일반한식","category":"restaurant"},{"name":"아이엠씨푸드","tel":"031-111-1111","addr":"경기도 여주시 오학동 378-4번지","indutype":"일반휴게음식 - 일반한식","category":"restaurant"}]},{"lat":"37.310352296","long":"127.64374807","imageIndex":4,"items":[{"name":"독도수산시장","tel":"031-885-7911","addr":"경기도 여주시 오학동 261-13번지","indutype":"일반휴게음식 - 일반한식","category":"restaurant"}]},{"lat":"37.310853842","long":"127.64430506","imageIndex":4,"items":[{"name":"돈돼지","tel":"031-881-0919","addr":"경기도 여주시 오학동 261-8번지","indutype":"일반휴게음식 - 일반한식","category":"restaurant"}]},{"lat":"37.305046277","long":"127.64357897","imageIndex":4,"items":[{"name":"돌판구이전문점하루","tel":"031-886-9111","addr":"경기도 여주시 오학동 292-33번지","indutype":"일반휴게음식 - 일반한식","category":"restaurant"},{"name":"딸봉싸롱","tel":"031-882-2988","addr":"경기도 여주시 오학동 292-33번지","indutype":"일반휴게음식 - 주점","category":"restaurant"},{"name":"삐삐족발","tel":"031-882-5892","addr":"경기도 여주시 오학동 292-33번지 1층","indutype":"일반휴게음식 - 일반한식","category":"restaurant"},{"name":"오늘애포차","tel":"031-1111-1111","addr":"경기도 여주시 오학동 292-33번지 1동 1층 104호","indutype":"일반휴게음식 - 주점","category":"restaurant"}]},{"lat":"37.310662255","long":"127.64474336","imageIndex":4,"items":[{"name":"동경반점","tel":"031-886-5233","addr":"경기도 여주시 오학동 258-5번지","indutype":"일반휴게음식 - 중국식","category":"restaurant"}]},{"lat":"37.309378886","long":"127.64380749","imageIndex":4,"items":[{"name":"떡이야기&미니카페","tel":"","addr":"경기도 여주시 오학동 255-5번지","indutype":"일반휴게음식 - 서양음식","category":"restaurant"}]},{"lat":"37.306772126","long":"127.64266868","imageIndex":4,"items":[{"name":"또바기","tel":"031-886-7688","addr":"경기도 여주시 오학동 292-9번지 1층","indutype":"일반휴게음식 - 일반한식","category":"restaurant"}]},{"lat":"37.301467252","long":"127.64727061","imageIndex":4,"items":[{"name":"라안커피 LAAN COFFEE","tel":"031-883-5790","addr":"경기도 여주시 오학동 404-11번지","indutype":"일반휴게음식 - 서양음식","category":"restaurant"}]},{"lat":"37.317437331","long":"127.64649314","imageIndex":4,"items":[{"name":"리히트","tel":"031-885-6380","addr":"경기도 여주시 오학동 85-1번지","indutype":"일반휴게음식 - 서양음식","category":"restaurant"}]},{"lat":"37.309992296","long":"127.6453355","imageIndex":4,"items":[{"name":"마약생고기","tel":"031-886-7392","addr":"경기도 여주시 오학동 251-4번지 1층","indutype":"일반휴게음식 - 일반한식","category":"restaurant"}]},{"lat":"37.302776451","long":"127.64344692","imageIndex":4,"items":[{"name":"만우정육점 생고기식당","tel":"031-882-9631","addr":"경기도 여주시 오학동 369-2번지","indutype":"일반휴게음식 - 일반한식","category":"restaurant"},{"name":"싱싱횟집","tel":"031-881-6550","addr":"경기도 여주시 오학동 369-2번지 1층","indutype":"일반휴게음식 - 일반한식","category":"restaurant"}]},{"lat":"37.303721505","long":"127.64196609","imageIndex":4,"items":[{"name":"문경상회","tel":"031-886-7080","addr":"경기도 여주시 오학동 292-48번지","indutype":"일반휴게음식 - 일반한식","category":"restaurant"}]},{"lat":"37.316575655","long":"127.6458879","imageIndex":4,"items":[{"name":"밀양가마솥설렁탕","tel":"031-885-8855","addr":"경기도 여주시 오학동 91번지","indutype":"일반휴게음식 - 일반한식","category":"restaurant"}]},{"lat":"37.309664384","long":"127.64432879","imageIndex":4,"items":[{"name":"별미돈까스","tel":"031-885-8414","addr":"경기도 여주시 오학동 254-1번지","indutype":"일반휴게음식 - 일반한식","category":"restaurant"}]},{"lat":"37.3088814","long":"127.64416422","imageIndex":4,"items":[{"name":"보하(boha)","tel":"","addr":"경기도 여주시 오학동 298번지 1층","indutype":"일반휴게음식 - 일반한식","category":"restaurant"},{"name":"쌀통닭 여주오학동점","tel":"031-883-5235","addr":"경기도 여주시 오학동 298번지 1층 101호","indutype":"일반휴게음식 - 스넥","category":"restaurant"}]},{"lat":"37.301881929","long":"127.64391305","imageIndex":4,"items":[{"name":"비빔밥의 정석","tel":"031-881-5654","addr":"경기도 여주시 오학동 359-14번지 2층","indutype":"일반휴게음식 - 일반한식","category":"restaurant"},{"name":"풀향기궁중해물칼국수","tel":"031-882-5123","addr":"경기도 여주시 오학동 359-14번지 1층","indutype":"일반휴게음식 - 일반한식","category":"restaurant"}]},{"lat":"37.312993735","long":"127.64513543","imageIndex":4,"items":[{"name":"뻘떡낙지쭈꾸미","tel":"031-886-5258","addr":"경기도 여주시 오학동 100-15번지","indutype":"일반휴게음식 - 일반한식","category":"restaurant"}]},{"lat":"37.311109555","long":"127.64533373","imageIndex":4,"items":[{"name":"사거리돼지국밥","tel":"031-885-8855","addr":"경기도 여주시 오학동 267-2번지","indutype":"일반휴게음식 - 일반한식","category":"restaurant"}]},{"lat":"37.311244271","long":"127.64541384","imageIndex":4,"items":[{"name":"새마을설렁탕","tel":"031-886-9848","addr":"경기도 여주시 오학동 268-3번지","indutype":"일반휴게음식 - 일반한식","category":"restaurant"}]},{"lat":"37.301578192","long":"127.64675273","imageIndex":4,"items":[{"name":"서향감자탕","tel":"031-886-3479","addr":"경기도 여주시 오학동 404-9번지 진양빌딩","indutype":"일반휴게음식 - 일반한식","category":"restaurant"},{"name":"퀸카페(Queen cafe)","tel":"031-1111-1111","addr":"경기도 여주시 오학동 404-9번지 진양빌딩","indutype":"일반휴게음식 - 서양음식","category":"restaurant"}]},{"lat":"37.311549435","long":"127.64563076","imageIndex":4,"items":[{"name":"석천해장국","tel":"031-883-2577","addr":"경기도 여주시 오학동 237-9번지","indutype":"일반휴게음식 - 일반한식","category":"restaurant"}]},{"lat":"37.302414802","long":"127.64699672","imageIndex":4,"items":[{"name":"소현식당","tel":"031-885-0023","addr":"경기도 여주시 오학동 402-1번지","indutype":"일반휴게음식 - 일반한식","category":"restaurant"}]},{"lat":"37.302520831","long":"127.64738111","imageIndex":4,"items":[{"name":"순하네돌솥밥집","tel":"031-886-3330","addr":"경기도 여주시 오학동 402-3번지","indutype":"일반휴게음식 - 일반한식","category":"restaurant"},{"name":"청춘닭갈비","tel":"031-884-9600","addr":"경기도 여주시 오학동 402-3번지","indutype":"일반휴게음식 - 일반한식","category":"restaurant"}]},{"lat":"37.31230102","long":"127.64161004","imageIndex":4,"items":[{"name":"술간","tel":"031-111-1111","addr":"경기도 여주시 오학동 408번지 여주오드카운티 상가동 102호","indutype":"일반휴게음식 - 일반한식","category":"restaurant"}]},{"lat":"37.307330786","long":"127.64266213","imageIndex":4,"items":[{"name":"스마일찹쌀꽈배기","tel":"031-881-2233","addr":"경기도 여주시 오학동 291-1번지","indutype":"일반휴게음식 - 스넥","category":"restaurant"},{"name":"원키친","tel":"031-000-0000","addr":"경기도 여주시 오학동 291-1번지 1층","indutype":"일반휴게음식 - 일반한식","category":"restaurant"}]},{"lat":"37.313137013","long":"127.64363634","imageIndex":4,"items":[{"name":"쏘자 토스트","tel":"031-884-6337","addr":"경기도 여주시 오학동 100-5번지 여주현진아파트 상가동 107호","indutype":"일반휴게음식 - 서양음식","category":"restaurant"}]},{"lat":"37.314712183","long":"127.64724828","imageIndex":4,"items":[{"name":"앵두나무집","tel":"031-881-1112","addr":"경기도 여주시 오학동 124-1번지","indutype":"일반휴게음식 - 일반한식","category":"restaurant"}]},{"lat":"37.313406194","long":"127.65046339","imageIndex":4,"items":[{"name":"양평서울해장국","tel":"031-000-0000","addr":"경기도 여주시 오학동 140-8번지 양평서울해장국","indutype":"일반휴게음식 - 일반한식","category":"restaurant"}]},{"lat":"37.307242452","long":"127.64566178","imageIndex":4,"items":[{"name":"여기맛소","tel":"031-883-7775","addr":"경기도 여주시 오학동 303-20번지","indutype":"일반휴게음식 - 일반한식","category":"restaurant"}]},{"lat":"37.316495198","long":"127.64907975","imageIndex":4,"items":[{"name":"영화송어횟집","tel":"031-885-4216","addr":"경기도 여주시 오학동 127-20번지","indutype":"일반휴게음식 - 일반한식","category":"restaurant"}]},{"lat":"37.309911556","long":"127.64360897","imageIndex":4,"items":[{"name":"오학감자탕","tel":"031-886-8448","addr":"경기도 여주시 오학동 283-1번지","indutype":"일반휴게음식 - 일반한식","category":"restaurant"}]},{"lat":"37.307105667","long":"127.64263767","imageIndex":4,"items":[{"name":"오학기사식당","tel":"031-883-9973","addr":"경기도 여주시 오학동 292-1번지","indutype":"일반휴게음식 - 일반한식","category":"restaurant"}]},{"lat":"37.31540891","long":"127.64835976","imageIndex":4,"items":[{"name":"오학민물장어","tel":"031-886-8855","addr":"경기도 여주시 오학동 124-3번지","indutype":"일반휴게음식 - 일반한식","category":"restaurant"}]},{"lat":"37.302164098","long":"127.64338533","imageIndex":4,"items":[{"name":"옥향","tel":"031-885-0711","addr":"경기도 여주시 오학동 369-2번지","indutype":"일반휴게음식 - 중국식","category":"restaurant"}]},{"lat":"37.312357301","long":"127.64619038","imageIndex":4,"items":[{"name":"올스커피","tel":"031-1111-1111","addr":"경기도 여주시 오학동 236번지 1층 102호","indutype":"일반휴게음식 - 서양음식","category":"restaurant"}]},{"lat":"37.311798389","long":"127.64458381","imageIndex":4,"items":[{"name":"이가국수","tel":"031-881-4839","addr":"경기도 여주시 오학동 272-3번지","indutype":"일반휴게음식 - 일반한식","category":"restaurant"}]},{"lat":"37.301023211","long":"127.64608256","imageIndex":4,"items":[{"name":"장미정원","tel":"031-885-8928","addr":"경기도 여주시 오학동 380-2번지 ,1,2층","indutype":"일반휴게음식 - 일반한식","category":"restaurant"}]},{"lat":"37.312715721","long":"127.6498596","imageIndex":4,"items":[{"name":"제일식당","tel":"031-881-1817","addr":"경기도 여주시 오학동 147-3번지","indutype":"일반휴게음식 - 일반한식","category":"restaurant"}]},{"lat":"37.302359319","long":"127.64393966","imageIndex":4,"items":[{"name":"카페수다","tel":"070-7758-7979","addr":"경기도 여주시 오학동 369-3번지","indutype":"일반휴게음식 - 서양음식","category":"restaurant"}]},{"lat":"37.301411475","long":"127.64758595","imageIndex":4,"items":[{"name":"한그릇뚝닭","tel":"031-881-1101","addr":"경기도 여주시 오학동 404-12번지","indutype":"일반휴게음식 - 일반한식","category":"restaurant"}]},{"lat":"37.310463281","long":"127.64321884","imageIndex":4,"items":[{"name":"핫꾸이","tel":"031-882-6915","addr":"경기도 여주시 오학동 279-41번지 1층","indutype":"일반휴게음식 - 주점","category":"restaurant"}]},{"lat":"37.305022543","long":"127.64296968","imageIndex":4,"items":[{"name":"항방양육관(오학점)","tel":"031-884-0814","addr":"경기도 여주시 오학동 292-38번지","indutype":"일반휴게음식 - 일반한식","category":"restaurant"}]},{"lat":"37.317577249","long":"127.64727274","imageIndex":4,"items":[{"name":"홍원막국수 여주점","tel":"031-885-0559","addr":"경기도 여주시 오학동 85-4번지","indutype":"일반휴게음식 - 일반한식","category":"restaurant"},{"name":"홍원여주점","tel":"031-885-0559","addr":"경기도 여주시 오학동 85-4번지","indutype":"일반휴게음식 - 일반한식","category":"restaurant"}]},{"lat":"37.318633746","long":"127.64850014","imageIndex":4,"items":[{"name":"황제능이버섯백숙","tel":"031-881-5285","addr":"경기도 여주시 오학동 85-16번지","indutype":"일반휴게음식 - 일반한식","category":"restaurant"}]},{"lat":"37.306799753","long":"127.6458836","imageIndex":4,"items":[{"name":"회랑","tel":"031-886-3808","addr":"경기도 여주시 오학동 303-37번지","indutype":"일반휴게음식 - 일식·회집","category":"restaurant"}]}]