[{"lat":"37.387440375","long":"126.959205","imageIndex":13,"items":[{"name":"고운피부","tel":"031-382-7979","addr":"경기도 안양시 동안구 평안동","indutype":"보건위생 - 화장품","category":"beauty"}]},{"lat":"37.388497107","long":"126.96675875","imageIndex":13,"items":[{"name":"이쎄씨헤어","tel":"031-387-6455","addr":"경기도 안양시 동안구 평안동","indutype":"보건위생 - 미용원","category":"beauty"}]},{"lat":"37.38689178","long":"126.96206214","imageIndex":13,"items":[{"name":"화이트미용실","tel":"031-383-3743","addr":"경기도 안양시 동안구 평안동","indutype":"보건위생 - 미용원","category":"beauty"}]},{"lat":"37.391884258","long":"126.96470188","imageIndex":8,"items":[{"name":"동인당약국","tel":"031-382-7305","addr":"경기도 안양시 동안구 평안동","indutype":"약국 - 약국","category":"medical"},{"name":"최태민치과의원","tel":"031-383-2875","addr":"경기도 안양시 동안구 평안동","indutype":"의원 - 치과의원","category":"medical"}]},{"lat":"37.389191422","long":"126.96856516","imageIndex":8,"items":[{"name":"성락진치과의원","tel":"031-425-6710","addr":"경기도 안양시 동안구 평안동","indutype":"의원 - 치과의원","category":"medical"}]},{"lat":"37.387440375","long":"126.959205","imageIndex":4,"items":[{"name":"동키치킨","tel":"031-383-0484","addr":"경기도 안양시 동안구 평안동","indutype":"일반휴게음식 - 주점","category":"restaurant"}]},{"lat":"37.390306894","long":"126.96289592","imageIndex":4,"items":[{"name":"세경정육점,식당","tel":"031-383-8626","addr":"경기도 안양시 동안구 평안동","indutype":"일반휴게음식 - 일반한식","category":"restaurant"}]},{"lat":"37.388497107","long":"126.96675875","imageIndex":17,"items":[{"name":"미보","tel":"031-387-1461","addr":"경기도 안양시 동안구 평안동","indutype":"신변잡화 - 시계","category":"other"},{"name":"비와이씨","tel":"031-383-7408","addr":"경기도 안양시 동안구 평안동","indutype":"의류 - 내의판매","category":"other"},{"name":"평촌BYC전문점","tel":"031-381-0079","addr":"경기도 안양시 동안구 평안동","indutype":"의류 - 내의판매","category":"other"}]},{"lat":"37.391884258","long":"126.96470188","imageIndex":17,"items":[{"name":"준인테리어","tel":"031-388-3865","addr":"경기도 안양시 동안구 평안동","indutype":"직물 - 카페트,커튼,천막,지물","category":"other"}]},{"lat":"37.391884258","long":"126.96470188","imageIndex":16,"items":[{"name":"예인유치원[아이행복]","tel":"031-382-3421","addr":"경기도 안양시 동안구 평안동","indutype":"학원 - 유치원","category":"study"}]},{"lat":"37.388497107","long":"126.96675875","imageIndex":16,"items":[{"name":"원도태권도장","tel":"031-383-4474","addr":"경기도 안양시 동안구 평안동","indutype":"학원 - 예·체능계학원","category":"study"}]},{"lat":"37.391110368","long":"126.96786415","imageIndex":7,"items":[{"name":"윤진베이커리","tel":"031-421-1364","addr":"경기도 안양시 동안구 평안동","indutype":"음료식품 - 제과점","category":"food"}]},{"lat":"37.388497107","long":"126.96675875","imageIndex":7,"items":[{"name":"장수건강원","tel":"031-382-5252","addr":"경기도 안양시 동안구 평안동","indutype":"건강식품 - 기타건강식품","category":"food"}]}]