[{"lat":"37.40077918","long":"127.1958151","imageIndex":17,"items":[{"name":"(주) 구트구트","tel":"031-767-3665","addr":"경기도 광주시 직동 66번지","indutype":"가구 - 일반가구","category":"other"}]},{"lat":"37.40041625","long":"127.2027599","imageIndex":17,"items":[{"name":"(주) 아주네트웍스","tel":"031-768-0170","addr":"경기도 광주시 직동 18번지","indutype":"레져용품 - 스포츠·레져용품","category":"other"}]},{"lat":"37.40099874","long":"127.2046249","imageIndex":17,"items":[{"name":"(주)성진테크","tel":"031-798-5717","addr":"경기도 광주시 직동 9-1번지","indutype":"건축자재 - 보일러·펌프·샷시","category":"other"}]},{"lat":"37.3998657","long":"127.2033118","imageIndex":17,"items":[{"name":"(주)엠테크씨앤씨","tel":"031-744-2632","addr":"경기도 광주시 직동 18-1번지 영신빌딩","indutype":"유통업 영리 - 기타유통업","category":"other"},{"name":"엠케이MRO","tel":"031-765-1925","addr":"경기도 광주시 직동 18-1번지 영신빌딩 1층","indutype":"신변잡화 - 기타잡화","category":"other"},{"name":"영신유통","tel":"031-733-0953","addr":"경기도 광주시 직동 18-1번지","indutype":"유통업 영리 - 기타유통업","category":"other"}]},{"lat":"37.39938914","long":"127.1860426","imageIndex":17,"items":[{"name":"(주)창성","tel":"031-767-1507","addr":"경기도 광주시 직동 179-1,2,3","indutype":"가구 - 일반가구","category":"other"}]},{"lat":"37.39958666","long":"127.203153","imageIndex":17,"items":[{"name":"(주)한국에너비스","tel":"02-3285-2915","addr":"경기도 광주시 직동 17-2번지","indutype":"기타 - 기계공구","category":"other"}]},{"lat":"37.39978062","long":"127.2056494","imageIndex":17,"items":[{"name":"GS25광주직동점","tel":"","addr":"경기도 광주시 직동 3-3번지","indutype":"유통업 영리 - 편 의 점","category":"other"},{"name":"오르프코리아 성남","tel":"031-768-5540","addr":"경기도 광주시 직동 3-3번지","indutype":"서적문구 - 일반서적","category":"other"},{"name":"태은상사","tel":"031-798-2975","addr":"경기도 광주시 직동 3-3번지","indutype":"의류 - 단체복","category":"other"}]},{"lat":"37.39945028","long":"127.2038754","imageIndex":17,"items":[{"name":"SJ아크릴","tel":"031-766-5781","addr":"경기도 광주시 직동 7-1번지","indutype":"신변잡화 - 기타잡화","category":"other"}]},{"lat":"37.39686572","long":"127.1921461","imageIndex":17,"items":[{"name":"경기기계공업","tel":"031-769-8595","addr":"경기도 광주시 직동 97-9번지","indutype":"기타 - 기계공구","category":"other"}]},{"lat":"37.39369774","long":"127.1899021","imageIndex":17,"items":[{"name":"국제상공(주)","tel":"031-766-9854","addr":"경기도 광주시 직동 125번지","indutype":"기타 - 기계공구","category":"other"}]},{"lat":"37.40016778","long":"127.1893987","imageIndex":17,"items":[{"name":"금성건설산업","tel":"031-000-0000","addr":"경기도 광주시 직동 157-2번지 1층","indutype":"용역 서비스 - 기타용역서비스","category":"other"}]},{"lat":"37.39597818","long":"127.1893431","imageIndex":17,"items":[{"name":"동성 조립식 건축","tel":"031-768-2286","addr":"경기도 광주시 직동 142번지","indutype":"용역 서비스 - 기타용역서비스","category":"other"}]},{"lat":"37.40105849","long":"127.1958158","imageIndex":17,"items":[{"name":"마가","tel":"02-548-7832","addr":"경기도 광주시 직동 66-2번지","indutype":"문화.취미 - 민예·공예품","category":"other"}]},{"lat":"37.39433785","long":"127.1896553","imageIndex":17,"items":[{"name":"마르띠엘","tel":"031-766-4648","addr":"경기도 광주시 직동 129-11번지","indutype":"레져용품 - 스포츠·레져용품","category":"other"}]},{"lat":"37.40003093","long":"127.2015052","imageIndex":17,"items":[{"name":"명진레이져NCT","tel":"031-767-6231","addr":"경기도 광주시 직동 31번지 외2필지","indutype":"기타 - 기계공구","category":"other"}]},{"lat":"37.4015333","long":"127.2028758","imageIndex":17,"items":[{"name":"브라키오 스튜디오 (BRAKIO STUDIO)","tel":"031-768-8766","addr":"경기도 광주시 직동 23-1번지","indutype":"광학제품 - 사진관","category":"other"}]},{"lat":"37.39958717","long":"127.202848","imageIndex":17,"items":[{"name":"비앤에스 코퍼레이션","tel":"031-767-5271","addr":"경기도 광주시 직동 17-1번지","indutype":"건축자재 - 기타건축자재","category":"other"}]},{"lat":"37.40110989","long":"127.2028408","imageIndex":17,"items":[{"name":"삼보(주)","tel":"031-768-6828","addr":"경기도 광주시 직동 21번지","indutype":"건축자재 - 기타건축자재","category":"other"}]},{"lat":"37.39822099","long":"127.195402","imageIndex":17,"items":[{"name":"송광생수총판","tel":"031-765-1795","addr":"경기도 광주시 직동 93-1","indutype":"유통업 영리 - 기타유통업","category":"other"}]},{"lat":"37.40186066","long":"127.2064004","imageIndex":17,"items":[{"name":"수정공방","tel":"","addr":"경기도 광주시 직동 1-48번지","indutype":"문화.취미 - 문화취미기타","category":"other"}]},{"lat":"37.39936626","long":"127.2055918","imageIndex":17,"items":[{"name":"스페이스","tel":"031-765-0603","addr":"경기도 광주시 직동 5번지","indutype":"건축자재 - 목재·석재·철물","category":"other"}]},{"lat":"37.39972239","long":"127.1974048","imageIndex":17,"items":[{"name":"신암석재","tel":"0312-768-2921","addr":"경기도 광주시 직동 55(직동)","indutype":"건축자재 - 목재·석재·철물","category":"other"}]},{"lat":"37.40105762","long":"127.1963466","imageIndex":17,"items":[{"name":"아델코리아 주식회사","tel":"031-912-5470","addr":"경기도 광주시 직동 61-14번지","indutype":"레져용품 - 스포츠·레져용품","category":"other"}]},{"lat":"37.40075656","long":"127.1874011","imageIndex":17,"items":[{"name":"엄홍식기타","tel":"","addr":"경기도 광주시 직동 170-10번지","indutype":"수리서비스 - 기타수리서비스","category":"other"}]},{"lat":"37.40011126","long":"127.2019572","imageIndex":17,"items":[{"name":"에스에이트레이딩","tel":"031-765-8220","addr":"경기도 광주시 직동 30-1번지","indutype":"의류 - 정장","category":"other"},{"name":"주식회사 신아","tel":"031-761-3869","addr":"경기도 광주시 직동 30-1번지","indutype":"유통업 영리 - 기타유통업","category":"other"}]},{"lat":"37.39944364","long":"127.1970653","imageIndex":17,"items":[{"name":"영모터스","tel":"031-798-1418","addr":"경기도 광주시 직동 68-31번지","indutype":"직물 - 옷감·직물","category":"other"}]},{"lat":"37.40019427","long":"127.1897376","imageIndex":17,"items":[{"name":"우림상사","tel":"","addr":"경기도 광주시 직동 157-3번지 202호","indutype":"유통업 영리 - 기타유통업","category":"other"}]},{"lat":"37.39947575","long":"127.2047902","imageIndex":17,"items":[{"name":"울트라건설철물","tel":"031-766-9818","addr":"경기도 광주시 직동 6-2번지","indutype":"건축자재 - 기타건축자재","category":"other"}]},{"lat":"37.40028235","long":"127.1965931","imageIndex":17,"items":[{"name":"주)창작닷컴","tel":"031-769-1093","addr":"경기도 광주시 직동 58번지","indutype":"용역 서비스 - 종합용역","category":"other"}]},{"lat":"37.40111227","long":"127.201429","imageIndex":17,"items":[{"name":"케이에스인터내셔널","tel":"031-765-8651","addr":"경기도 광주시 직동 32-15 1층","indutype":"레져용품 - 골프용품 전문점","category":"other"}]},{"lat":"37.39678269","long":"127.1876737","imageIndex":17,"items":[{"name":"태산철강(주)","tel":"031-765-7411","addr":"경기도 광주시 직동 145-5번지 2층","indutype":"건축자재 - 기타건축자재","category":"other"}]},{"lat":"37.39725694","long":"127.1897642","imageIndex":17,"items":[{"name":"태영산업","tel":"031-761-0542","addr":"경기도 광주시 직동 102-23번지","indutype":"기타 - 기계공구","category":"other"}]},{"lat":"37.39894772","long":"127.1972899","imageIndex":17,"items":[{"name":"풍년KK상사","tel":"02-1688-0911","addr":"경기도 광주시 직동 50-1번지","indutype":"농업 - 비료,사료,종자","category":"other"}]},{"lat":"37.40183555","long":"127.2052822","imageIndex":17,"items":[{"name":"한국무교교단 지혜신당","tel":"031-765-7380","addr":"경기도 광주시 직동 1-70번지","indutype":"신변잡화 - 기념품점","category":"other"}]},{"lat":"37.4011412","long":"127.2056192","imageIndex":17,"items":[{"name":"한창기계","tel":"031-797-9627","addr":"경기도 광주시 직동 1-11번지","indutype":"건축자재 - 보일러·펌프·샷시","category":"other"}]},{"lat":"37.39522417","long":"127.1875344","imageIndex":17,"items":[{"name":"해성공조","tel":"031-767-1442","addr":"경기도 광주시 직동 132-1번지","indutype":"건축자재 - 기타건축자재","category":"other"}]},{"lat":"37.39933982","long":"127.1829593","imageIndex":17,"items":[{"name":"홈세이브","tel":"031-781-7766","addr":"경기도 광주시 직동 290-3번지 우신빌라 202호","indutype":"건축자재 - 기타건축자재","category":"other"}]},{"lat":"37.39997864","long":"127.1949773","imageIndex":13,"items":[{"name":"(주)예지지앤엠","tel":"02-2678-8303","addr":"경기도 광주시 직동 70-2번지","indutype":"보건위생 - 화장품","category":"beauty"}]},{"lat":"37.39978062","long":"127.2056494","imageIndex":13,"items":[{"name":"나래메디칼","tel":"031-765-0693","addr":"경기도 광주시 직동 3-3번지","indutype":"보건위생 - 의료용품","category":"beauty"}]},{"lat":"37.39588895","long":"127.1887896","imageIndex":13,"items":[{"name":"주식회사수지코리아","tel":"031-769-1600","addr":"경기도 광주시 직동 141번지 1층","indutype":"보건위생 - 화장품","category":"beauty"}]},{"lat":"37.39958666","long":"127.203153","imageIndex":0,"items":[{"name":"Y MOTORS(와이 모터스)","tel":"031-747-1929","addr":"경기도 광주시 직동 17-2번지","indutype":"자동차정비 유지 - 자동차정비","category":"car"}]},{"lat":"37.39947792","long":"127.2035141","imageIndex":0,"items":[{"name":"광남자동차공업사","tel":"031-798-0667","addr":"경기도 광주시 직동 16번지 1층","indutype":"자동차정비 유지 - 자동차정비","category":"car"}]},{"lat":"37.40019696","long":"127.1992018","imageIndex":0,"items":[{"name":"성원중기자동차공업사","tel":"031-762-4972","addr":"경기도 광주시 직동 34-1번지","indutype":"자동차정비 유지 - 자동차정비","category":"car"}]},{"lat":"37.40002756","long":"127.2035042","imageIndex":0,"items":[{"name":"세기자동차공업사","tel":"031-766-7725","addr":"경기도 광주시 직동 13번지","indutype":"자동차정비 유지 - 자동차정비","category":"car"},{"name":"세기자동차공업사","tel":"031-766-7725","addr":"경기도 광주시 직동 13번지","indutype":"자동차정비 유지 - 자동차정비","category":"car"}]},{"lat":"37.39944953","long":"127.2043158","imageIndex":0,"items":[{"name":"오토라인","tel":"031-797-9315","addr":"경기도 광주시 직동 7-6번지","indutype":"자동차정비 유지 - 자동차정비","category":"car"}]},{"lat":"37.39997646","long":"127.1907309","imageIndex":0,"items":[{"name":"우영자동차정비사업소","tel":"031-762-7281","addr":"경기도 광주시 직동 86-4번지","indutype":"자동차정비 유지 - 자동차정비","category":"car"}]},{"lat":"37.39944364","long":"127.1970653","imageIndex":0,"items":[{"name":"티맥스(TMAXX)","tel":"031-000-0000","addr":"경기도 광주시 직동 68-31번지 ,2,3층","indutype":"자동차정비 유지 - 자동차시트·타이어","category":"car"}]},{"lat":"37.40022363","long":"127.1882582","imageIndex":4,"items":[{"name":"곧은골","tel":"0331-767-1561","addr":"경기도 광주시 직동 168-1번지","indutype":"일반휴게음식 - 일반한식","category":"restaurant"}]},{"lat":"37.39950131","long":"127.2056486","imageIndex":4,"items":[{"name":"광주공원","tel":"062-768-5245","addr":"경기도 광주시 직동 6번지","indutype":"일반휴게음식 - 일반한식","category":"restaurant"}]},{"lat":"37.39978361","long":"127.2038989","imageIndex":4,"items":[{"name":"송이네뷔페","tel":"031-766-9936","addr":"경기도 광주시 직동 15-1번지","indutype":"일반휴게음식 - 일반한식","category":"restaurant"}]},{"lat":"37.3998657","long":"127.2033118","imageIndex":4,"items":[{"name":"이화원식당","tel":"031-766-0040","addr":"경기도 광주시 직동 18-1번지 영신빌딩","indutype":"일반휴게음식 - 일반한식","category":"restaurant"}]},{"lat":"37.39597818","long":"127.1893431","imageIndex":4,"items":[{"name":"직동공단식당","tel":"031-769-2291","addr":"경기도 광주시 직동 142번지 가동 1층","indutype":"일반휴게음식 - 일반한식","category":"restaurant"}]},{"lat":"37.40064247","long":"127.1967635","imageIndex":4,"items":[{"name":"직리상회","tel":"031-767-6022","addr":"경기도 광주시 직동 61번지","indutype":"일반휴게음식 - 일반한식","category":"restaurant"}]},{"lat":"37.40036296","long":"127.1855706","imageIndex":7,"items":[{"name":"대림배농원","tel":"031-769-4582","addr":"경기도 광주시 직동 186-1번지","indutype":"음료식품 - 농·축·수산품","category":"food"}]},{"lat":"37.40014081","long":"127.2004552","imageIndex":7,"items":[{"name":"대양수산","tel":"031-000-0000","addr":"경기도 광주시 직동 34-2번지 1층","indutype":"음료식품 - 농·축·수산품","category":"food"}]},{"lat":"37.39975631","long":"127.187489","imageIndex":7,"items":[{"name":"미주물산(주)","tel":"031-766-0890","addr":"경기도 광주시 직동 176번지","indutype":"음료식품 - 농·축·수산품","category":"food"}]},{"lat":"37.39997186","long":"127.18793","imageIndex":7,"items":[{"name":"새벽통상","tel":"031-766-6987","addr":"경기도 광주시 직동 152-1번지","indutype":"음료식품 - 농·축·수산품","category":"food"}]},{"lat":"37.400396","long":"127.1987054","imageIndex":7,"items":[{"name":"재영기계","tel":"031-765-6220","addr":"경기도 광주시 직동 47-2번지","indutype":"음료식품 - 기타음료식품","category":"food"}]},{"lat":"37.3998657","long":"127.2033118","imageIndex":7,"items":[{"name":"제일무역","tel":"031-716-0009","addr":"경기도 광주시 직동 18-1번지 영신빌딩 2층","indutype":"음료식품 - 농·축·수산품","category":"food"}]},{"lat":"37.40139099","long":"127.190757","imageIndex":7,"items":[{"name":"주식회사 성대유통","tel":"070-7619-3954","addr":"경기도 광주시 직동 162-1번지","indutype":"음료식품 - 주류 판매점","category":"food"}]},{"lat":"37.40006055","long":"127.1999581","imageIndex":7,"items":[{"name":"한국식품","tel":"031-766-1375","addr":"경기도 광주시 직동 34-8번지 1층","indutype":"음료식품 - 농·축·수산품","category":"food"}]},{"lat":"37.39808716","long":"127.1945885","imageIndex":7,"items":[{"name":"미니슈퍼분식","tel":"031-797-5573","addr":"경기도 광주시 직동 70-34번지 1층","indutype":"유통업 영리 - 슈퍼마켓","category":"mart"}]},{"lat":"37.4005055","long":"127.1866213","imageIndex":7,"items":[{"name":"이레슈퍼","tel":"031-768-1105","addr":"경기도 광주시 직동 172-2번지","indutype":"유통업 영리 - 슈퍼마켓","category":"mart"}]}]