[{"lat":"37.654715042","long":"126.77079819","imageIndex":17,"items":[{"name":"(주)바른손홀딩스","tel":"031-8017-7180","addr":"경기도 고양시 일산동구 백마로","indutype":"의류 - 정장","category":"other"},{"name":"주식회사 크라운아이앤씨","tel":"031-911-5544","addr":"경기도 고양시 일산동구 백마로","indutype":"문화.취미 - 티켓","category":"other"},{"name":"트래이드미(trade me)","tel":"031-903-1155","addr":"경기도 고양시 일산동구 백마로","indutype":"레져용품 - 스포츠·레져용품","category":"other"}]},{"lat":"37.654965402","long":"126.77443506","imageIndex":17,"items":[{"name":"머스트비","tel":"031-902-0091","addr":"경기도 고양시 일산동구 백마로","indutype":"서적문구 - 출판 및 인쇄물","category":"other"}]},{"lat":"37.654221936","long":"126.77203493","imageIndex":17,"items":[{"name":"에이치비홀딩스 주식회사","tel":"031-903-0613","addr":"경기도 고양시 일산동구 백마로","indutype":"용역 서비스 - 사무서비스","category":"other"}]},{"lat":"37.660549321","long":"126.79782078","imageIndex":0,"items":[{"name":"KDT(본점)","tel":"031-905-2778","addr":"경기도 고양시 일산동구 백마로","indutype":"자동차정비 유지 - 카인테리어","category":"car"}]},{"lat":"37.642910671","long":"126.7609888","imageIndex":0,"items":[{"name":"embomall(엠보몰)","tel":"031-905-1413","addr":"경기도 고양시 일산동구 백마로","indutype":"자동차정비 유지 - 자동차부품","category":"car"}]},{"lat":"37.661215895","long":"126.79773961","imageIndex":0,"items":[{"name":"해피카자동차정비센타","tel":"031-904-4511","addr":"경기도 고양시 일산동구 백마로","indutype":"자동차정비 유지 - 자동차정비","category":"car"}]},{"lat":"37.654715042","long":"126.77079819","imageIndex":4,"items":[{"name":"글램핑(GLAMPING)","tel":"031-908-6535","addr":"경기도 고양시 일산동구 백마로","indutype":"일반휴게음식 - 서양음식","category":"restaurant"}]},{"lat":"37.654345848","long":"126.77090133","imageIndex":13,"items":[{"name":"주식회사 바니키","tel":"031-904-7505","addr":"경기도 고양시 일산동구 백마로","indutype":"보건위생 - 미용재료","category":"beauty"}]}]