[{"lat":"37.050565604","long":"126.97454149","imageIndex":4,"items":[{"name":"8부능선능이백숙&누룽지백숙","tel":"031-684-8662","addr":"경기도 평택시 청북읍 어연리 889-6번지 101호","indutype":"일반휴게음식 - 일반한식","category":"restaurant"},{"name":"돈치킨호프","tel":"031-683-9249","addr":"경기도 평택시 청북읍 어연리 889-6 한일프라자 103-1호","indutype":"일반휴게음식 - 주점","category":"restaurant"},{"name":"맥주따개","tel":"","addr":"경기도 평택시 청북읍 어연리 889-6번지 2층 205호","indutype":"일반휴게음식 - 주점","category":"restaurant"},{"name":"반값소(청북어연점)","tel":"031-683-7243","addr":"경기도 평택시 청북읍 어연리 889-6번지 102,103호","indutype":"일반휴게음식 - 일반한식","category":"restaurant"},{"name":"전주한식부페","tel":"031-682-1032","addr":"경기도 평택시 청북읍 어연리 889-6번지 1층 107-1호","indutype":"일반휴게음식 - 일반한식","category":"restaurant"},{"name":"중국집본가","tel":"031-686-7771","addr":"경기도 평택시 청북읍 어연리 889-6번지","indutype":"일반휴게음식 - 중국식","category":"restaurant"},{"name":"카페인(CAFE IN)","tel":"","addr":"경기도 평택시 청북읍 어연리 889-6번지 107호","indutype":"일반휴게음식 - 서양음식","category":"restaurant"}]},{"lat":"37.05037659","long":"126.97542965","imageIndex":4,"items":[{"name":"공단뼈다귀해장국","tel":"031-686-6996","addr":"경기도 평택시 청북읍 어연리 889-3","indutype":"일반휴게음식 - 일반한식","category":"restaurant"},{"name":"공단뼈다귀해장국","tel":"031-681-5679","addr":"경기도 평택시 청북읍 어연리 889-3번지","indutype":"음식점 - 한식","category":"restaurant"},{"name":"대박육개장얼큰샤브칼국수","tel":"031-683-0068","addr":"경기도 평택시 청북읍 어연리 889-3번지","indutype":"일반휴게음식 - 일반한식","category":"restaurant"},{"name":"대박육개장열큰샤브샤브칼국수","tel":"031-1111-1111","addr":"경기도 평택시 청북읍 어연리 889-3번지 7호","indutype":"일반휴게음식 - 일반한식","category":"restaurant"},{"name":"백암토종순대국","tel":"031-686-5679","addr":"경기도 평택시 청북읍 어연리 889-3번지 105호","indutype":"일반휴게음식 - 일반한식","category":"restaurant"},{"name":"백암토종순대국","tel":"031-683-1737","addr":"경기도 평택시 청북읍 어연리 889-3번지","indutype":"음식점 - 한식","category":"restaurant"}]},{"lat":"37.051322821","long":"126.9759352","imageIndex":4,"items":[{"name":"공단식당","tel":"031-682-6016","addr":"경기도 평택시 청북읍 어연리 895-4번지","indutype":"음식점 - 한식","category":"restaurant"},{"name":"공단식당","tel":"031-683-3351","addr":"경기도 평택시 청북읍 어연리 895-4","indutype":"일반휴게음식 - 일반한식","category":"restaurant"},{"name":"다모아치킨","tel":"031-683-3772","addr":"경기도 평택시 청북읍 어연리 895-4","indutype":"일반휴게음식 - 주점","category":"restaurant"},{"name":"다모아치킨","tel":"031-683-6080","addr":"경기도 평택시 청북읍 어연리 895-4번지","indutype":"음식점 - 치킨","category":"restaurant"},{"name":"송탄집","tel":"031-683-4688","addr":"경기도 평택시 청북읍 어연리 895-4번지","indutype":"일반휴게음식 - 일반한식","category":"restaurant"},{"name":"예가네","tel":"031-683-6080","addr":"경기도 평택시 청북읍 어연리 895-4번지 1층","indutype":"일반휴게음식 - 일반한식","category":"restaurant"},{"name":"예가네","tel":"031-683-9748","addr":"경기도 평택시 청북읍 어연리 895-4번지","indutype":"음식점 - 한식","category":"restaurant"},{"name":"자매식당","tel":"031-683-3351","addr":"경기도 평택시 청북읍 어연리 895-4번지","indutype":"일반휴게음식 - 일반한식","category":"restaurant"}]},{"lat":"37.051178579","long":"126.97562048","imageIndex":4,"items":[{"name":"국민식당","tel":"031-684-9253","addr":"경기도 평택시 청북읍 어연리 895-1번지 1층","indutype":"일반휴게음식 - 일반한식","category":"restaurant"},{"name":"황철수피자청북점","tel":"02-1111-1111","addr":"경기도 평택시 청북읍 어연리 895-1번지","indutype":"일반휴게음식 - 서양음식","category":"restaurant"}]},{"lat":"37.050899117","long":"126.97504724","imageIndex":4,"items":[{"name":"김정옥한식집에태백칼라곱장","tel":"031-683-9296","addr":"경기도 평택시 청북읍 어연리 889-4,14블록1호나","indutype":"일반휴게음식 - 일반한식","category":"restaurant"},{"name":"일번지수산","tel":"031-683-1933","addr":"경기도 평택시 청북읍 어연리 889-4(1층)","indutype":"일반휴게음식 - 일반한식","category":"restaurant"},{"name":"카페마치","tel":"032-686-6534","addr":"경기도 평택시 청북읍 어연리 889-4번지 나동","indutype":"일반휴게음식 - 서양음식","category":"restaurant"},{"name":"푸짐한집","tel":"031-681-1220","addr":"경기도 평택시 청북읍 어연리 889-4번지","indutype":"일반휴게음식 - 일반한식","category":"restaurant"}]},{"lat":"37.051016414","long":"126.97573295","imageIndex":4,"items":[{"name":"맛있는돼지랑","tel":"031-686-7052","addr":"경기도 평택시 청북읍 어연리 895-2번지 1층","indutype":"일반휴게음식 - 일반한식","category":"restaurant"},{"name":"맛있는돼지랑","tel":"031-681-0086","addr":"경기도 평택시 청북읍 어연리 895-2번지 1층","indutype":"음식점 - 한식","category":"restaurant"},{"name":"앤","tel":"031-683-3772","addr":"경기도 평택시 청북읍 어연리 895-2번지","indutype":"음식점 - 한식","category":"restaurant"},{"name":"앤","tel":"031-682-0991","addr":"경기도 평택시 청북읍 어연리 895-2번지","indutype":"일반휴게음식 - 서양음식","category":"restaurant"},{"name":"장칼국수","tel":"031-683-0715","addr":"경기도 평택시 청북읍 어연리 895-2번지","indutype":"일반휴게음식 - 일반한식","category":"restaurant"}]},{"lat":"37.046987641","long":"126.97157513","imageIndex":4,"items":[{"name":"별법동태탕","tel":"031-682-9542","addr":"경기도 평택시 청북읍 어연리 768-1","indutype":"일반휴게음식 - 일반한식","category":"restaurant"}]},{"lat":"37.050376281","long":"126.97412561","imageIndex":4,"items":[{"name":"신통치킨","tel":"031-686-5353","addr":"경기도 평택시 청북읍 어연리 889-5번지 104호","indutype":"일반휴게음식 - 스넥","category":"restaurant"},{"name":"신통치킨","tel":"070-7758-5089","addr":"경기도 평택시 청북읍 어연리 889-5번지 104호","indutype":"음식점 - 치킨","category":"restaurant"},{"name":"장미부페식당","tel":"031-405-4404","addr":"경기도 평택시 청북읍 어연리 889-5번지 102,103호","indutype":"일반휴게음식 - 일반한식","category":"restaurant"},{"name":"장미부페식당","tel":"031-405-4404","addr":"경기도 평택시 청북읍 어연리 889-5번지 102,103호","indutype":"일반휴게음식 - 일반한식","category":"restaurant"}]},{"lat":"37.049791774","long":"126.97951059","imageIndex":4,"items":[{"name":"예당어죽","tel":"031-681-2281","addr":"경기도 평택시 청북읍 어연리 88-3번지","indutype":"일반휴게음식 - 일반한식","category":"restaurant"}]},{"lat":"37.05017789","long":"126.97348491","imageIndex":4,"items":[{"name":"예뜨락한식부페","tel":"031-684-4431","addr":"경기도 평택시 청북읍 어연리 889-2번지 1층","indutype":"일반휴게음식 - 일반한식","category":"restaurant"}]},{"lat":"37.050323073","long":"126.97790286","imageIndex":4,"items":[{"name":"중화요리궁","tel":"031-683-5999","addr":"경기도 평택시 청북읍 어연리 191-1번지 1층","indutype":"일반휴게음식 - 중국식","category":"restaurant"}]},{"lat":"37.051458036","long":"126.97618247","imageIndex":4,"items":[{"name":"중화요리홍콩","tel":"031-683-9925","addr":"경기도 평택시 청북읍 어연리 895-8번지","indutype":"일반휴게음식 - 중국식","category":"restaurant"}]},{"lat":"37.048988557","long":"126.97376641","imageIndex":4,"items":[{"name":"찌개나라","tel":"031-681-8488","addr":"경기도 평택시 청북읍 어연리 738-2번지 1층","indutype":"일반휴게음식 - 일반한식","category":"restaurant"}]},{"lat":"37.048402908","long":"126.97393525","imageIndex":4,"items":[{"name":"청북한식당","tel":"031-683-5975","addr":"경기도 평택시 청북읍 어연리 739번지","indutype":"일반휴게음식 - 일반한식","category":"restaurant"}]},{"lat":"37.047240003","long":"126.97182233","imageIndex":4,"items":[{"name":"카페빈","tel":"031-000-0000","addr":"경기도 평택시 청북읍 어연리 769번지 1층","indutype":"일반휴게음식 - 서양음식","category":"restaurant"}]},{"lat":"37.047681781","long":"126.97282263","imageIndex":4,"items":[{"name":"투데이분식","tel":"031-683-9776","addr":"경기도 평택시 청북읍 어연리 732-30번지 B동 4호","indutype":"일반휴게음식 - 스넥","category":"restaurant"}]},{"lat":"37.050790936","long":"126.97482245","imageIndex":4,"items":[{"name":"푸짐한집","tel":"031-681-1220","addr":"경기도 평택시 청북읍 어연리 889-12번지 나동","indutype":"일반휴게음식 - 일반한식","category":"restaurant"}]},{"lat":"37.050376281","long":"126.97412561","imageIndex":17,"items":[{"name":"GS25어연산단점","tel":"","addr":"경기도 평택시 청북읍 어연리 889-5번지","indutype":"유통업 영리 - 편 의 점","category":"other"}]},{"lat":"37.050565604","long":"126.97454149","imageIndex":17,"items":[{"name":"SKY스크린골프","tel":"031-682-2812","addr":"경기도 평택시 청북읍 어연리 889-6번지 4층","indutype":"회원제형태 - 레져업소","category":"other"}]},{"lat":"37.051873742","long":"126.98228671","imageIndex":17,"items":[{"name":"건국동물병원","tel":"031-683-1098","addr":"경기도 평택시 청북읍 어연리 108-1번지","indutype":"서비스업 - 수의","category":"other"},{"name":"제갈동물병원","tel":"","addr":"경기도 평택시 청북읍 어연리 108-1번지","indutype":"서비스업 - 수의","category":"other"}]},{"lat":"37.048988557","long":"126.97376641","imageIndex":17,"items":[{"name":"공단종합공구","tel":"031-683-0903","addr":"경기도 평택시 청북읍 어연리 738-2","indutype":"기타 - 기계공구","category":"other"},{"name":"일신종합상사","tel":"031-684-8809","addr":"경기도 평택시 청북읍 어연리 738-2번지 대흥빌딩 103호","indutype":"신변잡화 - 기타잡화","category":"other"}]},{"lat":"37.051178579","long":"126.97562048","imageIndex":17,"items":[{"name":"공단편의점","tel":"031-683-3378","addr":"경기도 평택시 청북읍 어연리 895-1","indutype":"유통업 영리 - 편 의 점","category":"other"},{"name":"미니스톱어연산단점","tel":"031-1577-9621","addr":"경기도 평택시 청북읍 어연리 895-1번지","indutype":"유통업 영리 - 편 의 점","category":"other"}]},{"lat":"37.04753754","long":"126.97254166","imageIndex":17,"items":[{"name":"대왕철물","tel":"031-683-3520","addr":"경기도 평택시 청북읍 어연리 732-9번지","indutype":"건축자재 - 기타건축자재","category":"other"},{"name":"중앙아크릴","tel":"031-682-8420","addr":"경기도 평택시 청북읍 어연리 732-9번지","indutype":"건축자재 - 기타건축자재","category":"other"}]},{"lat":"37.048321626","long":"126.97318211","imageIndex":17,"items":[{"name":"대현볼트","tel":"031-681-7684","addr":"경기도 평택시 청북읍 어연리 737-5번지","indutype":"기타 - 기계공구","category":"other"}]},{"lat":"37.039041029","long":"126.97462445","imageIndex":17,"items":[{"name":"부림제재소","tel":"031-682-4602","addr":"경기도 평택시 청북읍 어연리 653-10번지","indutype":"건축자재 - 목재·석재·철물","category":"other"}]},{"lat":"37.048177518","long":"126.97342947","imageIndex":17,"items":[{"name":"서준테크","tel":"031-681-5390","addr":"경기도 평택시 청북읍 어연리 737-1","indutype":"기타 - 기계공구","category":"other"}]},{"lat":"37.050790936","long":"126.97482245","imageIndex":17,"items":[{"name":"세븐일레븐평택어연산단점","tel":"","addr":"경기도 평택시 청북읍 어연리 889-12번지","indutype":"유통업 영리 - 편 의 점","category":"other"}]},{"lat":"37.04992639","long":"126.97690248","imageIndex":17,"items":[{"name":"세화정밀","tel":"031-681-1478","addr":"경기도 평택시 청북읍 어연리 232-3번지","indutype":"기타 - 기계공구","category":"other"},{"name":"태림중전기","tel":"031-683-5847","addr":"경기도 평택시 청북읍 어연리 232-3번지 106호","indutype":"수리서비스 - 기타수리서비스","category":"other"}]},{"lat":"37.051042198","long":"126.97074157","imageIndex":17,"items":[{"name":"아퓨어스 주식회사","tel":"031-683-0643","addr":"경기도 평택시 청북읍 어연리 884-1번지","indutype":"기타 - 기타 전문점","category":"other"}]},{"lat":"37.047816969","long":"126.97293499","imageIndex":17,"items":[{"name":"어산목재","tel":"031-684-1287","addr":"경기도 평택시 청북읍 어연리 732-8","indutype":"건축자재 - 목재·석재·철물","category":"other"}]},{"lat":"37.050737131","long":"126.97593541","imageIndex":17,"items":[{"name":"어연공단지게차","tel":"031-683-7008","addr":"경기도 평택시 청북읍 어연리 895-3번지","indutype":"기타 - 기계공구","category":"other"}]},{"lat":"37.051874003","long":"126.98384935","imageIndex":17,"items":[{"name":"어연꽃농원","tel":"031-683-0084","addr":"경기도 평택시 청북읍 어연리 321-2","indutype":"문화.취미 - 화원","category":"other"}]},{"lat":"37.049845608","long":"126.97837516","imageIndex":17,"items":[{"name":"어연세탁소","tel":"031-683-2738","addr":"경기도 평택시 청북읍 어연리 237-2번지","indutype":"수리서비스 - 세탁소","category":"other"}]},{"lat":"37.050206262","long":"126.97951046","imageIndex":17,"items":[{"name":"어연한일펌프","tel":"031-683-3816","addr":"경기도 평택시 청북읍 어연리 88-10번지","indutype":"건축자재 - 보일러·펌프·샷시","category":"other"}]},{"lat":"37.045928098","long":"126.99289991","imageIndex":17,"items":[{"name":"영신농장","tel":"031-683-6645","addr":"경기도 평택시 청북읍 어연리 462-15번지","indutype":"소매업 - 계란","category":"other"}]},{"lat":"37.049791774","long":"126.97951059","imageIndex":17,"items":[{"name":"은산종합상사","tel":"031-682-3722","addr":"경기도 평택시 청북읍 어연리 88-3번지","indutype":"기타 - 기계공구","category":"other"}]},{"lat":"37.048564941","long":"126.97329443","imageIndex":17,"items":[{"name":"청북알파문구","tel":"031-683-1140","addr":"경기도 평택시 청북읍 어연리 738-13번지","indutype":"소매업 - 문구","category":"other"}]},{"lat":"37.050511901","long":"126.97609287","imageIndex":17,"items":[{"name":"청북어린이집","tel":"031-683-4232","addr":"경기도 평택시 청북읍 어연리 895-6번지","indutype":"서비스업 - 교육","category":"other"}]},{"lat":"37.050818852","long":"126.97884701","imageIndex":17,"items":[{"name":"청북팜","tel":"","addr":"경기도 평택시 청북읍 어연리 176번지","indutype":"소매업 - 농산물","category":"other"}]},{"lat":"37.050485806","long":"126.98062331","imageIndex":17,"items":[{"name":"평택후방카메라","tel":"031-683-0967","addr":"경기도 평택시 청북읍 어연리 85-1번지 1층","indutype":"수리서비스 - 기타수리서비스","category":"other"}]},{"lat":"37.048069252","long":"126.97287869","imageIndex":9,"items":[{"name":"SK어연공단주유소","tel":"031-683-5006","addr":"경기도 평택시 청북읍 어연리 732-2번지","indutype":"도소매업 - 주유소","category":"oil"}]},{"lat":"37.050737131","long":"126.97593541","imageIndex":0,"items":[{"name":"공단자동차정비공업사","tel":"031-683-1293","addr":"경기도 평택시 청북읍 어연리 895-3번지","indutype":"자동차정비 유지 - 자동차정비","category":"car"}]},{"lat":"37.044601665","long":"126.97956838","imageIndex":0,"items":[{"name":"동부모터스","tel":"031-683-9559","addr":"경기도 평택시 청북읍 어연리 597-1 외1필지","indutype":"자동차정비 유지 - 자동차정비","category":"car"}]},{"lat":"37.04462867","long":"126.97943348","imageIndex":0,"items":[{"name":"동부모터스(주)","tel":"031-683-9559","addr":"경기도 평택시 청북읍 어연리 597-7번지","indutype":"자동차정비 유지 - 자동차정비","category":"car"}]},{"lat":"37.050593979","long":"126.9808706","imageIndex":0,"items":[{"name":"로고스카센타","tel":"031-664-0839","addr":"경기도 평택시 청북읍 어연리 84-1번지","indutype":"자동차정비 유지 - 중장비수리","category":"car"}]},{"lat":"37.048177518","long":"126.97342947","imageIndex":0,"items":[{"name":"뮤즈커스텀","tel":"031-684-3893","addr":"경기도 평택시 청북읍 어연리 737-1번지 1층","indutype":"자동차정비 유지 - 자동차정비","category":"car"}]},{"lat":"37.050485806","long":"126.98062331","imageIndex":0,"items":[{"name":"블랙런어연점","tel":"031-683-0967","addr":"경기도 평택시 청북읍 어연리 85-1번지 1층","indutype":"자동차정비 유지 - 자동차부품","category":"car"}]},{"lat":"37.050350593","long":"126.9803423","imageIndex":0,"items":[{"name":"아이씨(IC)배터리","tel":"","addr":"경기도 평택시 청북읍 어연리 86-3번지 1층","indutype":"자동차정비 유지 - 자동차부품","category":"car"}]},{"lat":"37.049900026","long":"126.98015133","imageIndex":0,"items":[{"name":"자동차 복원 달인 청북어연점","tel":"031-684-8250","addr":"경기도 평택시 청북읍 어연리 88-9번지","indutype":"자동차정비 유지 - 카인테리어","category":"car"}]},{"lat":"37.047240003","long":"126.97182233","imageIndex":0,"items":[{"name":"조은자동차공업사","tel":"031-686-9934","addr":"경기도 평택시 청북읍 어연리 769번지 2","indutype":"자동차정비 유지 - 자동차정비","category":"car"},{"name":"조은자동차세차장","tel":"031-683-3062","addr":"경기도 평택시 청북읍 어연리 769번지","indutype":"자동차정비 유지 - 세차장","category":"car"}]},{"lat":"37.050206049","long":"126.97845374","imageIndex":0,"items":[{"name":"카플러스","tel":"","addr":"경기도 평택시 청북읍 어연리 188-1번지 한울빌딩 1층","indutype":"자동차정비 유지 - 카인테리어","category":"car"}]},{"lat":"37.050565604","long":"126.97454149","imageIndex":13,"items":[{"name":"명품당구클럽","tel":"","addr":"경기도 평택시 청북읍 어연리 889-6번지 3층","indutype":"레저업소 - 당 구 장","category":"leisure"},{"name":"별노래연습장","tel":"031-684-3549","addr":"경기도 평택시 청북읍 어연리 889-6번지 지하1층","indutype":"레저업소 - 노 래 방","category":"leisure"}]},{"lat":"37.051178579","long":"126.97562048","imageIndex":13,"items":[{"name":"썬노래연습장","tel":"031-683-4484","addr":"경기도 평택시 청북읍 어연리 895-1번지 1층","indutype":"레저업소 - 노 래 방","category":"leisure"},{"name":"큐당구클럽","tel":"031-683-6015","addr":"경기도 평택시 청북읍 어연리 895-1번지","indutype":"레저업소 - 당 구 장","category":"leisure"}]},{"lat":"37.051458036","long":"126.97618247","imageIndex":13,"items":[{"name":"엄지노래방","tel":"031-682-4604","addr":"경기도 평택시 청북읍 어연리 895-8번지 2층","indutype":"레저업소 - 노 래 방","category":"leisure"}]},{"lat":"37.040907116","long":"126.97862532","imageIndex":13,"items":[{"name":"샤벨","tel":"031-683-7102","addr":"경기도 평택시 청북읍 어연리 628-4","indutype":"보건위생 - 화장품","category":"beauty"}]},{"lat":"37.050565604","long":"126.97454149","imageIndex":13,"items":[{"name":"인터뷰프로헤어","tel":"031-683-9277","addr":"경기도 평택시 청북읍 어연리 889-6번지 한일빌딩","indutype":"보건위생 - 미용원","category":"beauty"},{"name":"참좋은세상","tel":"031-681-6300","addr":"경기도 평택시 청북읍 어연리 889-6번지 304호","indutype":"보건위생 - 화장품","category":"beauty"}]},{"lat":"37.050819007","long":"126.97962269","imageIndex":7,"items":[{"name":"어연방앗간","tel":"031-683-1269","addr":"경기도 평택시 청북읍 어연리 181-1","indutype":"음료식품 - 제과점","category":"food"}]},{"lat":"37.050818852","long":"126.97884701","imageIndex":7,"items":[{"name":"청북팜","tel":"","addr":"경기도 평택시 청북읍 어연리 176번지","indutype":"음료식품 - 농·축·수산품","category":"food"}]},{"lat":"37.049458053","long":"126.97790314","imageIndex":16,"items":[{"name":"어연초등학교","tel":"031-683-2974","addr":"경기도 평택시 청북읍 어연리 233번지","indutype":"학원 - 초중고교육기관","category":"study"},{"name":"어연초병설유치원[아이행복]","tel":"031-683-2972","addr":"경기도 평택시 청북읍 어연리 233번지","indutype":"학원 - 유치원","category":"study"}]},{"lat":"37.05037659","long":"126.97542965","imageIndex":8,"items":[{"name":"장생약국","tel":"031-686-6910","addr":"경기도 평택시 청북읍 어연리 889-3번지","indutype":"약국 - 약국","category":"medical"}]},{"lat":"37.051873742","long":"126.98228671","imageIndex":8,"items":[{"name":"제갈동물병원","tel":"031-655-0376","addr":"경기도 평택시 청북읍 어연리 108-1번지","indutype":"기타의료기관 - 동물병원","category":"medical"}]}]