[{"lat":"37.075148384","long":"126.8169731","imageIndex":17,"items":[{"name":"GS25조암산호점","tel":"","addr":"경기도 화성시 장안면 사곡리 172-2번지 산호 상가 1층 101, 103호","indutype":"유통업 영리 - 편 의 점","category":"other"}]},{"lat":"37.067568095","long":"126.81545114","imageIndex":17,"items":[{"name":"가나가설산업","tel":"031-358-6888","addr":"경기도 화성시 장안면 사곡리 219-23번지 사곡리 219-21,22,23","indutype":"건축자재 - 기타건축자재","category":"other"}]},{"lat":"37.075954946","long":"126.8141935","imageIndex":17,"items":[{"name":"가제트 건설기계","tel":"031-358-0923","addr":"경기도 화성시 장안면 사곡리 11-1번지","indutype":"기타 - 기계공구","category":"other"}]},{"lat":"37.074038639","long":"126.81605371","imageIndex":17,"items":[{"name":"극동테크툴","tel":"03.1-351-8209","addr":"경기도 화성시 장안면 사곡리 178-4번지","indutype":"기타 - 기계공구","category":"other"}]},{"lat":"37.075370849","long":"126.81519579","imageIndex":17,"items":[{"name":"다드림전자","tel":"031-351-1183","addr":"경기도 화성시 장안면 사곡리 164-1번지 1층","indutype":"수리서비스 - 기타수리서비스","category":"other"}]},{"lat":"37.077341152","long":"126.81330165","imageIndex":17,"items":[{"name":"드림디포","tel":"031-351-3175","addr":"경기도 화성시 장안면 사곡리 85-9번지","indutype":"서적문구 - 문구용품","category":"other"}]},{"lat":"37.059563037","long":"126.79694223","imageIndex":17,"items":[{"name":"미네팜","tel":"031-498-6305","addr":"경기도 화성시 장안면 사곡리 620-14번지","indutype":"신변잡화 - 기타잡화","category":"other"}]},{"lat":"37.061562079","long":"126.81802941","imageIndex":17,"items":[{"name":"송우케미언스(주)","tel":"031-351-6961","addr":"경기도 화성시 장안면 사곡리 916-3번지","indutype":"서적문구 - 과학기자재","category":"other"}]},{"lat":"37.076810517","long":"126.81392148","imageIndex":17,"items":[{"name":"씨유화서장안사곡점","tel":"031-898-6568","addr":"경기도 화성시 장안면 사곡리 13-7번지 1층","indutype":"유통업 영리 - 편 의 점","category":"other"}]},{"lat":"37.074010169","long":"126.81514291","imageIndex":17,"items":[{"name":"씨유화성리더스점","tel":"031-351-4458","addr":"경기도 화성시 장안면 사곡리 159-2번지","indutype":"유통업 영리 - 편 의 점","category":"other"}]},{"lat":"37.070066379","long":"126.81128448","imageIndex":17,"items":[{"name":"씽크공장","tel":"031-358-6058","addr":"경기도 화성시 장안면 사곡리 439-4번지","indutype":"주방용구 - 주방용구","category":"other"}]},{"lat":"37.065093364","long":"126.80628221","imageIndex":17,"items":[{"name":"우드무드(WOOD MOOD)","tel":"","addr":"경기도 화성시 장안면 사곡리 491-13번지 228호","indutype":"주방용구 - 주방용구","category":"other"}]},{"lat":"37.066119662","long":"126.81689394","imageIndex":17,"items":[{"name":"유니스포텍(주)","tel":"031-351-9866","addr":"경기도 화성시 장안면 사곡리 280-1번지","indutype":"레져용품 - 스포츠·레져용품","category":"other"}]},{"lat":"37.077757981","long":"126.81477381","imageIndex":17,"items":[{"name":"유명종합가구","tel":"031-358-0951","addr":"경기도 화성시 장안면 사곡리 6-4번지","indutype":"가구 - 일반가구","category":"other"}]},{"lat":"37.068837916","long":"126.80942099","imageIndex":17,"items":[{"name":"장안철물건재","tel":"031-351-4337","addr":"경기도 화성시 장안면 사곡리 451-19번지","indutype":"건축자재 - 목재·석재·철물","category":"other"}]},{"lat":"37.06945257","long":"126.81061135","imageIndex":17,"items":[{"name":"주식회사미각수","tel":"031-359-8020","addr":"경기도 화성시 장안면 사곡리 441-7번지","indutype":"주방용구 - 정수기","category":"other"}]},{"lat":"37.074372507","long":"126.81635651","imageIndex":17,"items":[{"name":"하우스인테리어","tel":"031-351-2812","addr":"경기도 화성시 장안면 사곡리 178-1번지","indutype":"건축자재 - 인테리어전문","category":"other"}]},{"lat":"37.065593485","long":"126.81463519","imageIndex":17,"items":[{"name":"한길농업기계","tel":"031-358-8809","addr":"경기도 화성시 장안면 사곡리 382-6번지","indutype":"수리서비스 - 기타수리서비스","category":"other"}]}]