[{"lat":"37.458795947","long":"127.02988385","imageIndex":4,"items":[{"name":"24시 찹쌀순대 만드는집","tel":"02-571-9292","addr":"경기도 과천시 주암동 62-21번지 1층","indutype":"음식점업 - 한식","category":"restaurant"}]},{"lat":"37.463633229","long":"127.03427127","imageIndex":4,"items":[{"name":"24시 찹쌀순대 만드는집","tel":"02-571-9292","addr":"경기도 과천시 주암동 62-21번지","indutype":"일반휴게음식 - 일반한식","category":"restaurant"}]},{"lat":"37.451660889","long":"127.02580144","imageIndex":4,"items":[{"name":"GR 해마루","tel":"02-578-0890","addr":"경기도 과천시 주암동 254-1번지","indutype":"일반휴게음식 - 일반한식","category":"restaurant"}]},{"lat":"37.447797006","long":"127.0167256","imageIndex":4,"items":[{"name":"갯마을 렛츠런파크점","tel":"","addr":"경기도 과천시 주암동 685번지 4층 북단","indutype":"일반휴게음식 - 일반한식","category":"restaurant"},{"name":"기수식당스타빌","tel":"02-509-1795","addr":"경기도 과천시 주암동 685번지 기수협회식당 지하1층","indutype":"일반휴게음식 - 일반한식","category":"restaurant"},{"name":"나는카페 과천2호점","tel":"02-504-9208","addr":"경기도 과천시 주암동 685번지 서울경마공원실내승마장 1층","indutype":"일반휴게음식 - 서양음식","category":"restaurant"},{"name":"나는카페 과천점","tel":"02-502-9206","addr":"경기도 과천시 주암동 685번지 1층 서울경마공원한국마사회본관 로비","indutype":"일반휴게음식 - 스넥","category":"restaurant"},{"name":"나는카페과천점","tel":"02-502-9206","addr":"경기도 과천시 주암동 685번지 1층 서울경마공원한국마사회본관 로비","indutype":"일반휴게음식 - 스넥","category":"restaurant"},{"name":"뉴욕핫도그앤커피(경마공원점)","tel":"02-474-0085","addr":"경기도 과천시 주암동 685번지 서울경마공원 1층 과천경마장내 일부","indutype":"일반휴게음식 - 스넥","category":"restaurant"},{"name":"롯데리아 과천렛츠런파크점","tel":"","addr":"경기도 과천시 주암동 685번지 해피빌 1층 롯데리아","indutype":"일반휴게음식 - 서양음식","category":"restaurant"},{"name":"몽한량","tel":"031-000-0000","addr":"경기도 과천시 주암동 685번지","indutype":"일반휴게음식 - 일반한식","category":"restaurant"},{"name":"미스터와플","tel":"","addr":"경기도 과천시 주암동 685번지","indutype":"일반휴게음식 - 일반한식","category":"restaurant"},{"name":"백년손님","tel":"02-3461-0706","addr":"경기도 과천시 주암동 62-22번지 5~6호","indutype":"음식점업 - 한식","category":"restaurant"},{"name":"앤티앤스 렛츠런파크 서울점","tel":"","addr":"경기도 과천시 주암동 685번지 1층","indutype":"일반휴게음식 - 서양음식","category":"restaurant"},{"name":"우리집별미","tel":"","addr":"경기도 과천시 주암동 685번지","indutype":"일반휴게음식 - 스넥","category":"restaurant"},{"name":"위니월드","tel":"02-784-0009","addr":"경기도 과천시 주암동 685번지 위니월드","indutype":"일반휴게음식 - 일반한식","category":"restaurant"},{"name":"제니퍼","tel":"","addr":"경기도 과천시 주암동 685번지","indutype":"일반휴게음식 - 스넥","category":"restaurant"},{"name":"카페테리아 맘초이","tel":"02-6966-9049","addr":"경기도 과천시 주암동 685번지","indutype":"일반휴게음식 - 일반한식","category":"restaurant"},{"name":"타르트팜","tel":"","addr":"경기도 과천시 주암동 685번지 한국마사회 해피빌놀라운지내동 1층","indutype":"일반휴게음식 - 일반한식","category":"restaurant"},{"name":"한국마사회 삼포식당","tel":"02-509-1848","addr":"경기도 과천시 주암동 685번지","indutype":"일반휴게음식 - 일반한식","category":"restaurant"},{"name":"한국마사회 주암식당","tel":"02-509-1847","addr":"경기도 과천시 주암동 685번지","indutype":"일반휴게음식 - 일반한식","category":"restaurant"},{"name":"형이야푸드","tel":"070-8288-1046","addr":"경기도 과천시 주암동 685번지","indutype":"일반휴게음식 - 일반한식","category":"restaurant"},{"name":"홀리스","tel":"031-000-0000","addr":"경기도 과천시 주암동 685번지 한국마사회","indutype":"일반휴게음식 - 일반한식","category":"restaurant"}]},{"lat":"37.445157693","long":"127.00956057","imageIndex":4,"items":[{"name":"경기축산물직거래안테나샵","tel":"031-762-1562","addr":"경기도 과천시 주암동 685-43","indutype":"일반휴게음식 - 스넥","category":"restaurant"}]},{"lat":"37.45094","long":"127.02625327","imageIndex":4,"items":[{"name":"국군제1363부대","tel":"02-731-3094","addr":"경기도 과천시 주암동 300-2번지","indutype":"일반휴게음식 - 스넥","category":"restaurant"}]},{"lat":"37.463768731","long":"127.03291493","imageIndex":4,"items":[{"name":"기가막힌닭한마리","tel":"02-575-1658","addr":"경기도 과천시 주암동 65번지 광명빌딩 102호","indutype":"일반휴게음식 - 일반한식","category":"restaurant"}]},{"lat":"37.459354971","long":"127.02805302","imageIndex":4,"items":[{"name":"기가막힌닭한마리","tel":"02-575-1658","addr":"경기도 과천시 주암동 65번지 광명빌딩 102호","indutype":"음식점업 - 한식","category":"restaurant"},{"name":"러빙헛 채식뷔페","tel":"02-502-8858","addr":"경기도 과천시 주암동 105-54번지 1층","indutype":"음식점업 - 일반음식점","category":"restaurant"}]},{"lat":"37.449410574","long":"127.00007926","imageIndex":4,"items":[{"name":"누들스토리","tel":"02-573-0999","addr":"경기도 과천시 주암동 69-7번지 1층 103호","indutype":"음식점업 - 분식","category":"restaurant"}]},{"lat":"37.448770724","long":"127.00927837","imageIndex":4,"items":[{"name":"달빛한스푼","tel":"02-579-5740","addr":"경기도 과천시 주암동 11-1번지","indutype":"음식점업 - 일반음식점","category":"restaurant"}]},{"lat":"37.460245747","long":"127.0332187","imageIndex":4,"items":[{"name":"달빛한스푼","tel":"02-575-5740","addr":"경기도 과천시 주암동 11-1번지","indutype":"일반휴게음식 - 일반한식","category":"restaurant"}]},{"lat":"37.462354134","long":"127.0330274","imageIndex":4,"items":[{"name":"동태한마리","tel":"02-2057-2750","addr":"경기도 과천시 주암동 70-11번지 시우빌딩","indutype":"일반휴게음식 - 일반한식","category":"restaurant"}]},{"lat":"37.461660193","long":"127.033694","imageIndex":4,"items":[{"name":"돼지꿈","tel":"02-575-4833","addr":"경기도 과천시 주암동 70-20번지 201호","indutype":"일반휴게음식 - 일반한식","category":"restaurant"},{"name":"완원","tel":"02-575-4833","addr":"경기도 과천시 주암동 70-20번지","indutype":"일반휴게음식 - 중국식","category":"restaurant"}]},{"lat":"37.456273135","long":"127.02993945","imageIndex":4,"items":[{"name":"두맛집","tel":"02-3678-0707","addr":"경기도 과천시 주암동 127-2번지 2층","indutype":"일반휴게음식 - 일반한식","category":"restaurant"}]},{"lat":"37.456299784","long":"127.03155568","imageIndex":4,"items":[{"name":"러빙헛 채식뷔페","tel":"02-502-8858","addr":"경기도 과천시 주암동 105-54번지 1층","indutype":"일반휴게음식 - 일반한식","category":"restaurant"}]},{"lat":"37.457355429","long":"127.02463903","imageIndex":4,"items":[{"name":"목포낙지감자탕","tel":"02-504-1133","addr":"경기도 과천시 주암동 560-3번지 1층","indutype":"음식점업 - 한식","category":"restaurant"}]},{"lat":"37.451635445","long":"127.0151328","imageIndex":4,"items":[{"name":"목포낙지감자탕","tel":"02-504-1133","addr":"경기도 과천시 주암동 560-3번지 1층","indutype":"일반휴게음식 - 일반한식","category":"restaurant"}]},{"lat":"37.456741603","long":"127.03016567","imageIndex":4,"items":[{"name":"무시칸 생고기집","tel":"02-502-8338","addr":"경기도 과천시 주암동 127-6번지","indutype":"일반휴게음식 - 일반한식","category":"restaurant"}]},{"lat":"37.446410272","long":"127.00344699","imageIndex":4,"items":[{"name":"무시칸집","tel":"","addr":"경기도 과천시 주암동 127-6번지","indutype":"음식점업 - 한식","category":"restaurant"}]},{"lat":"37.463741304","long":"127.03444087","imageIndex":4,"items":[{"name":"백년손님","tel":"02-3461-0706","addr":"경기도 과천시 주암동 62-22번지 5~6호","indutype":"일반휴게음식 - 일반한식","category":"restaurant"}]},{"lat":"37.450572847","long":"126.99941244","imageIndex":4,"items":[{"name":"서울면옥(완원)","tel":"02-575-4833","addr":"경기도 과천시 주암동 70-20번지","indutype":"음식점업 - 한식","category":"restaurant"}]},{"lat":"37.459299634","long":"127.03346697","imageIndex":4,"items":[{"name":"숙이네간장게장연불국수","tel":"02-503-3199","addr":"경기도 과천시 주암동 18-2번지","indutype":"일반휴게음식 - 일반한식","category":"restaurant"}]},{"lat":"37.420578027","long":"126.99225162","imageIndex":4,"items":[{"name":"숙이네간장게장연불국수","tel":"02-504-3199","addr":"경기도 과천시 주암동 18-2번지 1층","indutype":"음식점업 - 한식","category":"restaurant"}]},{"lat":"37.456516379","long":"127.03005256","imageIndex":4,"items":[{"name":"쉼표","tel":"02-504-2111","addr":"경기도 과천시 주암동 127-13번지","indutype":"일반휴게음식 - 일반한식","category":"restaurant"}]},{"lat":"37.428578819","long":"126.99089473","imageIndex":4,"items":[{"name":"아라비카커핑","tel":"02-503-2023","addr":"경기도 과천시 주암동 450-36","indutype":"음식점업 - 커피","category":"restaurant"}]},{"lat":"37.46338106","long":"127.03385295","imageIndex":4,"items":[{"name":"안골해물맛있는집","tel":"02-576-4668","addr":"경기도 과천시 주암동 62-18번지","indutype":"일반휴게음식 - 일반한식","category":"restaurant"}]},{"lat":"37.45260651","long":"127.02791513","imageIndex":4,"items":[{"name":"엄니추어탕","tel":"02-507-5959","addr":"경기도 과천시 주암동 184번지","indutype":"일반휴게음식 - 일반한식","category":"restaurant"}]},{"lat":"37.461939718","long":"127.03285768","imageIndex":4,"items":[{"name":"여니네부엌","tel":"02-579-6343","addr":"경기도 과천시 주암동 69-7번지 1층 1호,2호","indutype":"일반휴게음식 - 일반한식","category":"restaurant"}]},{"lat":"37.455933611","long":"127.0104205","imageIndex":4,"items":[{"name":"우리집","tel":"02-503-4480","addr":"경기도 과천시 주암동 96-2번지","indutype":"음식점업 - 한식","category":"restaurant"}]},{"lat":"37.457408426","long":"127.02980423","imageIndex":4,"items":[{"name":"우리집","tel":"02-503-4480","addr":"경기도 과천시 주암동 96-2번지","indutype":"일반휴게음식 - 일반한식","category":"restaurant"}]},{"lat":"37.46321014","long":"127.03280167","imageIndex":4,"items":[{"name":"장군한방삼계탕","tel":"02-576-3711","addr":"경기도 과천시 주암동 64-3번지 평원빌라 B동 101호","indutype":"일반휴게음식 - 일반한식","category":"restaurant"}]},{"lat":"37.452519048","long":"127.00125452","imageIndex":4,"items":[{"name":"장인왕족발","tel":"02-571-8766","addr":"경기도 과천시 주암동 63번지 1층","indutype":"음식점업 - 한식","category":"restaurant"}]},{"lat":"37.463273046","long":"127.03344599","imageIndex":4,"items":[{"name":"장인왕족발","tel":"02-571-8766","addr":"경기도 과천시 주암동 63번지","indutype":"일반휴게음식 - 일반한식","category":"restaurant"}]},{"lat":"37.435886029","long":"127.0141698","imageIndex":4,"items":[{"name":"주암분식","tel":"02-503-0201","addr":"경기도 과천시 주암동 176-4번지","indutype":"음식점업 - 분식","category":"restaurant"}]},{"lat":"37.453795566","long":"127.02913613","imageIndex":4,"items":[{"name":"주암분식","tel":"02-503-0201","addr":"경기도 과천시 주암동 176-4번지","indutype":"일반휴게음식 - 스넥","category":"restaurant"}]},{"lat":"37.452049967","long":"127.01452258","imageIndex":4,"items":[{"name":"진지방순대국","tel":"02-503-1434","addr":"경기도 과천시 주암동 558-2번지 1층","indutype":"일반휴게음식 - 일반한식","category":"restaurant"}]},{"lat":"37.428218636","long":"126.99327866","imageIndex":4,"items":[{"name":"진지방순대국","tel":"","addr":"경기도 과천시 주암동 558-2번지 1층","indutype":"음식점업 - 일반음식","category":"restaurant"}]},{"lat":"37.426579184","long":"127.00102913","imageIndex":4,"items":[{"name":"청춘감자탕","tel":"02-578-1820","addr":"경기도 과천시 주암동 62-19번지 1층","indutype":"음식점업 - 한식","category":"restaurant"}]},{"lat":"37.463462111","long":"127.03399992","imageIndex":4,"items":[{"name":"청춘감자탕","tel":"02-578-1820","addr":"경기도 과천시 주암동 62-19번지 1층","indutype":"일반휴게음식 - 일반한식","category":"restaurant"}]},{"lat":"37.448517104","long":"127.02179991","imageIndex":4,"items":[{"name":"홍이네","tel":"02-504-1528","addr":"경기도 과천시 주암동 415-9번지","indutype":"일반휴게음식 - 일반한식","category":"restaurant"}]},{"lat":"37.422938499","long":"126.9905906","imageIndex":4,"items":[{"name":"홍이네","tel":"02-504-1528","addr":"경기도 과천시 주암동 415-9번지","indutype":"음식점업 - 한식","category":"restaurant"}]}]