[{"lat":"37.819619535","long":"127.10667703","imageIndex":0,"items":[{"name":"(주)대림지디에스","tel":"031-821-1468","addr":"경기도 양주시 율정동 106번지","indutype":"자동차정비 유지 - 윤활유 전문 판매","category":"car"}]},{"lat":"37.822223538","long":"127.10636266","imageIndex":0,"items":[{"name":"대동스프링","tel":"031-866-7180","addr":"경기도 양주시 율정동 139번지","indutype":"자동차정비 유지 - 자동차부품","category":"car"},{"name":"대동스프링","tel":"031-866-7180","addr":"경기도 양주시 율정동 139번지","indutype":"자동차정비 유지 - 자동차부품","category":"car"}]},{"lat":"37.839200056","long":"127.09194732","imageIndex":0,"items":[{"name":"북부렌탈","tel":"031-866-8331","addr":"경기도 양주시 율정동 596-4, 596-6번지 1층","indutype":"자동차판매 - 기타운송","category":"car"}]},{"lat":"37.839972965","long":"127.105365","imageIndex":0,"items":[{"name":"서진자동차정비공업사","tel":"031-865-0535","addr":"경기도 양주시 율정동 283-34번지","indutype":"자동차정비 유지 - 자동차정비","category":"car"}]},{"lat":"37.83908343","long":"127.09128828","imageIndex":0,"items":[{"name":"우리모터스","tel":"031-865-0000","addr":"경기도 양주시 율정동 596-6","indutype":"자동차정비 유지 - 자동차정비","category":"car"}]},{"lat":"37.81575456","long":"127.10659212","imageIndex":0,"items":[{"name":"워시존 양주점","tel":"031-857-1277","addr":"경기도 양주시 율정동 61-5번지 6번지","indutype":"자동차정비 유지 - 세차장","category":"car"}]},{"lat":"37.816784449","long":"127.10334548","imageIndex":0,"items":[{"name":"제일카센타","tel":"031-866-7623","addr":"경기도 양주시 율정동 69-1번지","indutype":"자동차정비 유지 - 자동차부품","category":"car"}]},{"lat":"37.813837014","long":"127.11483426","imageIndex":0,"items":[{"name":"주식회사 노바자동차","tel":"031-847-0884","addr":"경기도 양주시 율정동 617-1번지 C동","indutype":"자동차정비 유지 - 자동차정비","category":"car"}]},{"lat":"37.821532117","long":"127.103704","imageIndex":0,"items":[{"name":"투카","tel":"031-866-6696","addr":"경기도 양주시 율정동 131-2번지 1층,2층","indutype":"자동차정비 유지 - 카인테리어","category":"car"}]},{"lat":"37.817892899","long":"127.10300627","imageIndex":0,"items":[{"name":"회정모터스","tel":"031-861-8971","addr":"경기도 양주시 율정동 75-2번지","indutype":"자동차정비 유지 - 자동차정비","category":"car"}]}]