[{"lat":"37.927994844","long":"127.18052148","imageIndex":5,"items":[{"name":"깊이울마을 농업회사법인 주식회사","tel":"031-553-5155","addr":"경기도 포천시 신북면 심곡리 575-2번지","indutype":"숙박업 - 여관/기타숙박업","category":"hotel"}]},{"lat":"37.925578988","long":"127.18727162","imageIndex":5,"items":[{"name":"깊이울모텔","tel":"031-532-6724","addr":"경기도 포천시 신북면 심곡리 456번지","indutype":"숙박업 - 여관/기타숙박업","category":"hotel"}]},{"lat":"37.926326968","long":"127.187137","imageIndex":5,"items":[{"name":"스카이모텔","tel":"031-534-4036","addr":"경기도 포천시 신북면 심곡리 443번지","indutype":"숙박업 - 여관/기타숙박업","category":"hotel"}]},{"lat":"37.925657863","long":"127.17688766","imageIndex":5,"items":[{"name":"시크릿","tel":"031-533-4354","addr":"경기도 포천시 신북면 심곡리 693","indutype":"숙박업 - 여관/기타숙박업","category":"hotel"},{"name":"시크릿","tel":"533-0002","addr":"경기도 포천시 신북면 심곡리 693번지","indutype":"숙박업 - 캠핑,글램장","category":"hotel"}]},{"lat":"37.942073614","long":"127.18810915","imageIndex":5,"items":[{"name":"신흥장","tel":"031-533-6100","addr":"경기도 포천시 신북면 심곡리 295-6","indutype":"숙박업 - 여관/기타숙박업","category":"hotel"}]},{"lat":"37.922664425","long":"127.17233133","imageIndex":5,"items":[{"name":"아프리카갤러리캠핑장","tel":"","addr":"경기도 포천시 신북면 심곡리 763번지","indutype":"숙박업 - 일반야영장","category":"hotel"}]},{"lat":"37.922713127","long":"127.16977247","imageIndex":5,"items":[{"name":"코지11","tel":"031-531-6363","addr":"경기도 포천시 신북면 심곡리 730-5","indutype":"숙박업 - 펜션","category":"hotel"}]},{"lat":"37.922857195","long":"127.16982966","imageIndex":5,"items":[{"name":"코지11","tel":"031-531-6363","addr":"경기도 포천시 신북면 심곡리 730번지","indutype":"숙박업 - 여관/기타숙박업","category":"hotel"}]},{"lat":"37.923100992","long":"127.16944352","imageIndex":5,"items":[{"name":"해뜨는 언덕 펜션","tel":"532-4188","addr":"경기도 포천시 신북면 심곡리 729-7","indutype":"숙박업 - 여관","category":"hotel"},{"name":"해뜨는언덕","tel":"031-532-4188","addr":"경기도 포천시 신북면 심곡리 729-7번지","indutype":"숙박업 - 여관/기타숙박업","category":"hotel"}]}]