[{"lat":"37.35651065","long":"127.321667","imageIndex":0,"items":[{"name":"(주)1급중부자동차공업사","tel":"031-763-9988","addr":"경기도 광주시 곤지암읍 삼리 147번지","indutype":"자동차정비 유지 - 자동차정비","category":"car"}]},{"lat":"37.35198521","long":"127.3323926","imageIndex":0,"items":[{"name":"OK자동차용품점","tel":"031-762-8289","addr":"경기도 광주시 곤지암읍 삼리 9-1번지","indutype":"자동차정비 유지 - 자동차부품","category":"car"}]},{"lat":"37.35434134","long":"127.3175043","imageIndex":0,"items":[{"name":"강남상사","tel":"031-764-9278","addr":"경기도 광주시 곤지암읍 삼리 333번지 대상공사 내 강남상사","indutype":"자동차정비 유지 - 자동차부품","category":"car"},{"name":"대산사","tel":"02-2635-4940","addr":"경기도 광주시 곤지암읍 삼리 333번지","indutype":"자동차정비 유지 - 자동차부품","category":"car"}]},{"lat":"37.35214818","long":"127.3321112","imageIndex":0,"items":[{"name":"곤지암테크","tel":"031-769-7211","addr":"경기도 광주시 곤지암읍 삼리 9번지","indutype":"자동차정비 유지 - 자동차부품","category":"car"}]},{"lat":"37.35770394","long":"127.3201934","imageIndex":0,"items":[{"name":"곤지암특장주식회사","tel":"031-766-5151","addr":"경기도 광주시 곤지암읍 삼리 200-8번지","indutype":"자동차판매 - 기타운송","category":"car"},{"name":"화물차복지매장","tel":"031-761-8889","addr":"경기도 광주시 곤지암읍 삼리 200-8번지","indutype":"자동차정비 유지 - 자동차정비","category":"car"}]},{"lat":"37.35922927","long":"127.3192178","imageIndex":0,"items":[{"name":"대형카센타","tel":"031-763-7926","addr":"경기도 광주시 곤지암읍 삼리 173-7번지","indutype":"자동차정비 유지 - 자동차정비","category":"car"},{"name":"최저가밧데리마트","tel":"031-798-5111","addr":"경기도 광주시 곤지암읍 삼리 173-7번지 1층","indutype":"자동차정비 유지 - 자동차부품","category":"car"}]},{"lat":"37.35989535","long":"127.3160826","imageIndex":0,"items":[{"name":"메딕사운드","tel":"031-480-0434","addr":"경기도 광주시 곤지암읍 삼리 179-7번지","indutype":"자동차정비 유지 - 자동차부품","category":"car"}]},{"lat":"37.35656248","long":"127.3258096","imageIndex":0,"items":[{"name":"삼리 세차장","tel":"031-762-7577","addr":"경기도 광주시 곤지암읍 삼리 132-7번지","indutype":"자동차정비 유지 - 카인테리어","category":"car"}]},{"lat":"37.35317594","long":"127.3318899","imageIndex":0,"items":[{"name":"스카이오토","tel":"031-765-5455","addr":"경기도 광주시 곤지암읍 삼리 6-48번지","indutype":"자동차정비 유지 - 자동차정비","category":"car"}]},{"lat":"37.35439635","long":"127.323859","imageIndex":0,"items":[{"name":"엄지척손세차장","tel":"","addr":"경기도 광주시 곤지암읍 삼리 411-8번지","indutype":"자동차정비 유지 - 세차장","category":"car"}]},{"lat":"37.35706963","long":"127.3248637","imageIndex":0,"items":[{"name":"에스제이모터스","tel":"031-797-7901","addr":"경기도 광주시 곤지암읍 삼리 133-4번지","indutype":"자동차정비 유지 - 자동차부품","category":"car"}]},{"lat":"37.34651598","long":"127.3356416","imageIndex":0,"items":[{"name":"오토랜드카공업사","tel":"031-762-9768","addr":"경기도 광주시 곤지암읍 삼리 41-24 번지","indutype":"자동차정비 유지 - 자동차정비","category":"car"}]},{"lat":"37.35523149","long":"127.3248897","imageIndex":0,"items":[{"name":"오토샤인","tel":"031-798-6542","addr":"경기도 광주시 곤지암읍 삼리 398-1","indutype":"자동차정비 유지 - 카인테리어","category":"car"}]},{"lat":"37.35679032","long":"127.3248625","imageIndex":0,"items":[{"name":"킹's 세차장","tel":"","addr":"경기도 광주시 곤지암읍 삼리 136-5번지","indutype":"자동차정비 유지 - 세차장","category":"car"}]},{"lat":"37.35086874","long":"127.3353335","imageIndex":0,"items":[{"name":"타이어샵","tel":"031-764-9598","addr":"경기도 광주시 곤지암읍 삼리 24번지","indutype":"자동차정비 유지 - 자동차시트·타이어","category":"car"}]},{"lat":"37.35362076","long":"127.3306955","imageIndex":0,"items":[{"name":"타이어월드 곤지암점","tel":"031-797-0997","addr":"경기도 광주시 곤지암읍 삼리 97-16번지","indutype":"자동차정비 유지 - 자동차시트·타이어","category":"car"}]},{"lat":"37.35256948","long":"127.3328918","imageIndex":0,"items":[{"name":"한국타이어(곤지암)","tel":"031-764-1818","addr":"경기도 광주시 곤지암읍 삼리 6-3번지","indutype":"자동차정비 유지 - 자동차시트·타이어","category":"car"}]},{"lat":"37.35587203","long":"127.3245877","imageIndex":0,"items":[{"name":"현우카센타","tel":"031-764-4901","addr":"경기도 광주시 곤지암읍 삼리 141-9번지 1층","indutype":"자동차정비 유지 - 자동차정비","category":"car"}]}]