[{"lat":"37.779201028","long":"127.11853925","imageIndex":7,"items":[{"name":"(주)리더스산업개발","tel":"031-543-8288","addr":"경기도 포천시 소흘읍 이동교리 733-4번지","indutype":"음료식품 - 농·축·수산품","category":"food"}]},{"lat":"37.784954923","long":"127.1217268","imageIndex":7,"items":[{"name":"(주)민축산유통","tel":"031-544-2780","addr":"경기도 포천시 소흘읍 이동교리 581-2번지","indutype":"음료식품 - 정육점","category":"food"}]},{"lat":"37.805729088","long":"127.13188896","imageIndex":7,"items":[{"name":"(주)신한남유통 지점","tel":"031-544-0880","addr":"경기도 포천시 소흘읍 이동교리 294-19번지","indutype":"음료식품 - 정육점","category":"food"}]},{"lat":"37.780570314","long":"127.1187003","imageIndex":7,"items":[{"name":"LH mall (엘에이치몰)","tel":"070-4401-8674","addr":"경기도 포천시 소흘읍 이동교리 730번지 3층","indutype":"음료식품 - 기타음료식품","category":"food"}]},{"lat":"37.809150038","long":"127.13427962","imageIndex":7,"items":[{"name":"건국우유(경기북부특판)","tel":"031-541-7620","addr":"경기도 포천시 소흘읍 이동교리 266-10번지 가동 101호","indutype":"음료식품 - 기타음료식품","category":"food"}]},{"lat":"37.811952653","long":"127.13367135","imageIndex":7,"items":[{"name":"꾸시꾸시베이커리","tel":"031-544-8789","addr":"경기도 포천시 소흘읍 이동교리 95-1번지 1층 103호","indutype":"음료식품 - 제과점","category":"food"}]},{"lat":"37.775842892","long":"127.11605957","imageIndex":7,"items":[{"name":"다올풍천장어 (수산물)","tel":"031-543-0506","addr":"경기도 포천시 소흘읍 이동교리 748-7번지","indutype":"음료식품 - 농·축·수산품","category":"food"}]},{"lat":"37.814426246","long":"127.13723032","imageIndex":7,"items":[{"name":"롯데칠성 동명","tel":"031-532-7734","addr":"경기도 포천시 소흘읍 이동교리 64-6번지","indutype":"음료식품 - 기타음료식품","category":"food"}]},{"lat":"37.788647459","long":"127.12306097","imageIndex":7,"items":[{"name":"명작커피 코리아(Korea)","tel":"","addr":"경기도 포천시 소흘읍 이동교리 642번지","indutype":"음료식품 - 기타음료식품","category":"food"}]},{"lat":"37.821175294","long":"127.13636802","imageIndex":7,"items":[{"name":"민찬수산 (민물장어)","tel":"","addr":"경기도 포천시 소흘읍 이동교리 170-3번지","indutype":"음료식품 - 농·축·수산품","category":"food"}]},{"lat":"37.815335977","long":"127.13742504","imageIndex":7,"items":[{"name":"서울우유포천송우고객센터","tel":"031-541-2970","addr":"경기도 포천시 소흘읍 이동교리 64-1번지","indutype":"음료식품 - 기타음료식품","category":"food"}]},{"lat":"37.800784375","long":"127.13052917","imageIndex":7,"items":[{"name":"성지 에프엔지","tel":"031-544-8147","addr":"경기도 포천시 소흘읍 이동교리 361-1번지","indutype":"음료식품 - 기타음료식품","category":"food"}]},{"lat":"37.7863419","long":"127.12220581","imageIndex":7,"items":[{"name":"에프오피(F.O.P)","tel":"031-544-9985","addr":"경기도 포천시 소흘읍 이동교리 608-3번지","indutype":"회원제형태 - 건강식품","category":"food"}]},{"lat":"37.810370493","long":"127.13047754","imageIndex":7,"items":[{"name":"요나단푸드","tel":"031-544-6630","addr":"경기도 포천시 소흘읍 이동교리 243-5번지 제가동,제나동","indutype":"음료식품 - 정육점","category":"food"}]},{"lat":"37.789229718","long":"127.12630879","imageIndex":7,"items":[{"name":"조선 된장","tel":"031-531-0512","addr":"경기도 포천시 소흘읍 이동교리 424-4번지","indutype":"음료식품 - 기타음료식품","category":"food"}]},{"lat":"37.779984507","long":"127.11889236","imageIndex":7,"items":[{"name":"축석정육점","tel":"031-541-1424","addr":"경기도 포천시 소흘읍 이동교리 731-21번지","indutype":"음료식품 - 정육점","category":"food"}]},{"lat":"37.818895783","long":"127.13647749","imageIndex":7,"items":[{"name":"탑매점","tel":"031-543-3838","addr":"경기도 포천시 소흘읍 이동교리 149-6번지 외3필지 2층","indutype":"음료식품 - 기타음료식품","category":"food"}]},{"lat":"37.818287259","long":"127.14072397","imageIndex":7,"items":[{"name":"포천하늘딸기","tel":"","addr":"경기도 포천시 소흘읍 이동교리 51-4번지","indutype":"음료식품 - 농·축·수산품","category":"food"}]}]