[{"lat":"37.691374975","long":"126.76165912","imageIndex":4,"items":[{"name":"(주)아이티유 동암치뽀끼","tel":"031-994-7428","addr":"경기도 고양시 일산서구 탄현동 1559-1번지","indutype":"일반휴게음식 - 일반한식","category":"restaurant"},{"name":"누룽지품은닭","tel":"031-925-9287","addr":"경기도 고양시 일산서구 탄현동 1559-1번지","indutype":"일반휴게음식 - 일반한식","category":"restaurant"},{"name":"레드제플린","tel":"","addr":"경기도 고양시 일산서구 탄현동 1559-1번지","indutype":"일반휴게음식 - 주점","category":"restaurant"},{"name":"청춘골뱅이","tel":"070-7543-5069","addr":"경기도 고양시 일산서구 탄현동 1559-1번지","indutype":"일반휴게음식 - 일반한식","category":"restaurant"}]},{"lat":"37.69409829","long":"126.76284081","imageIndex":4,"items":[{"name":"(주)커피에반하다 탄현역점","tel":"031-911-8320","addr":"경기도 고양시 일산서구 탄현동 1640번지 일산위브더제니스","indutype":"일반휴게음식 - 서양음식","category":"restaurant"},{"name":"(주)커피에반하다 탄현역점","tel":"031-911-8320","addr":"경기도 고양시 일산서구 탄현동 1640번지 일산위브더제니스","indutype":"일반휴게음식 - 서양음식","category":"restaurant"},{"name":"831숙성통삼겹","tel":"031-913-2938","addr":"경기도 고양시 일산서구 탄현동 1640번지 일산위브더제니스","indutype":"일반휴게음식 - 일반한식","category":"restaurant"},{"name":"공차 일산탄현점","tel":"070-4247-9884","addr":"경기도 고양시 일산서구 탄현동 1640번지 일산위브더제니스","indutype":"일반휴게음식 - 서양음식","category":"restaurant"},{"name":"김밥연구소우리 일산탄현점","tel":"031-915-4911","addr":"경기도 고양시 일산서구 탄현동 1640번지 일산위브더제니스","indutype":"일반휴게음식 - 일반한식","category":"restaurant"},{"name":"깐부치킨","tel":"031-922-9697","addr":"경기도 고양시 일산서구 탄현동 1640번지 일산위브더제니스","indutype":"일반휴게음식 - 스넥","category":"restaurant"},{"name":"돼지의 정석","tel":"031-923-6325","addr":"경기도 고양시 일산서구 탄현동 1640번지 일산위브더제니스","indutype":"일반휴게음식 - 일반한식","category":"restaurant"},{"name":"두끼떡볶이 탄현제니스점","tel":"031-913-8288","addr":"경기도 고양시 일산서구 탄현동 1640번지 일산위브더제니스","indutype":"일반휴게음식 - 스넥","category":"restaurant"},{"name":"명동가츠라","tel":"","addr":"경기도 고양시 일산서구 탄현동 1640번지 일산위브더제니스","indutype":"일반휴게음식 - 일반한식","category":"restaurant"},{"name":"미미스라운지(MIMIS LOUNGE)","tel":"","addr":"경기도 고양시 일산서구 탄현동 1640번지 일산위브더제니스","indutype":"일반휴게음식 - 일반한식","category":"restaurant"},{"name":"미소야 일산제니스점","tel":"031-913-7079","addr":"경기도 고양시 일산서구 탄현동 1640번지 일산위브더제니스","indutype":"일반휴게음식 - 일반한식","category":"restaurant"},{"name":"믹스더그린","tel":"031-919-9979","addr":"경기도 고양시 일산서구 탄현동 1640번지 일산위브더제니스","indutype":"일반휴게음식 - 일반한식","category":"restaurant"},{"name":"버거307탄현점","tel":"031-912-0307","addr":"경기도 고양시 일산서구 탄현동 1640번지 일산위브더제니스","indutype":"일반휴게음식 - 일반한식","category":"restaurant"},{"name":"본가왕뼈감자탕","tel":"031-922-2712","addr":"경기도 고양시 일산서구 탄현동 1640번지 일산위브더제니스","indutype":"일반휴게음식 - 일반한식","category":"restaurant"},{"name":"봉시환 참치회&생선회","tel":"031-915-8892","addr":"경기도 고양시 일산서구 탄현동 1640번지 일산위브더제니스","indutype":"일반휴게음식 - 일식·회집","category":"restaurant"},{"name":"봉추찜닭","tel":"031-925-6981","addr":"경기도 고양시 일산서구 탄현동 1640번지 일산위브더제니스","indutype":"일반휴게음식 - 일반한식","category":"restaurant"},{"name":"북촌손만두 탄현제니스점","tel":"031-918-9386","addr":"경기도 고양시 일산서구 탄현동 1640번지 일산위브더제니스","indutype":"일반휴게음식 - 일반한식","category":"restaurant"},{"name":"비엔나커피하우스일산탄현점","tel":"031-912-1683","addr":"경기도 고양시 일산서구 탄현동 1640번지 일산위브더제니스","indutype":"일반휴게음식 - 서양음식","category":"restaurant"},{"name":"빽다방 탄현역제니스점","tel":"031-911-0615","addr":"경기도 고양시 일산서구 탄현동 1640번지 일산위브더제니스","indutype":"일반휴게음식 - 서양음식","category":"restaurant"},{"name":"삐사감 김밥에빠지다","tel":"031-911-5252","addr":"경기도 고양시 일산서구 탄현동 1640번지 일산위브더제니스","indutype":"일반휴게음식 - 일반한식","category":"restaurant"},{"name":"사적인접시","tel":"","addr":"경기도 고양시 일산서구 탄현동 1640번지 일산위브더제니스","indutype":"일반휴게음식 - 서양음식","category":"restaurant"},{"name":"산전수전","tel":"031-923-5989","addr":"경기도 고양시 일산서구 탄현동 1640번지 일산위브더제니스","indutype":"일반휴게음식 - 일반한식","category":"restaurant"},{"name":"신의주찹쌀순대","tel":"031-919-3538","addr":"경기도 고양시 일산서구 탄현동 1640번지 일산위브더제니스","indutype":"일반휴게음식 - 일반한식","category":"restaurant"},{"name":"써브웨이일산탄현점","tel":"031-913-7977","addr":"경기도 고양시 일산서구 탄현동 1640번지 일산위브더제니스","indutype":"일반휴게음식 - 스넥","category":"restaurant"},{"name":"아딸리식당","tel":"031-911-8592","addr":"경기도 고양시 일산서구 탄현동 1640번지 일산위브더제니스","indutype":"일반휴게음식 - 일반한식","category":"restaurant"},{"name":"아비꼬일산탄현제니스스퀘어점","tel":"031-911-3398","addr":"경기도 고양시 일산서구 탄현동 1640번지 일산위브더제니스","indutype":"일반휴게음식 - 일반한식","category":"restaurant"},{"name":"양귀비","tel":"031-921-7660","addr":"경기도 고양시 일산서구 탄현동 1640번지 일산위브더제니스","indutype":"일반휴게음식 - 중국식","category":"restaurant"},{"name":"역전우동0410 탄현역점","tel":"031-922-0410","addr":"경기도 고양시 일산서구 탄현동 1640번지 일산위브더제니스","indutype":"일반휴게음식 - 일반한식","category":"restaurant"},{"name":"연안식당 일산탄현점","tel":"","addr":"경기도 고양시 일산서구 탄현동 1640번지 일산위브더제니스","indutype":"일반휴게음식 - 일반한식","category":"restaurant"},{"name":"오디너리컴퍼니(평범한상)","tel":"031-924-1018","addr":"경기도 고양시 일산서구 탄현동 1640번지 일산위브더제니스","indutype":"일반휴게음식 - 일식·회집","category":"restaurant"},{"name":"요거프레소 일산제니스점","tel":"031-923-8025","addr":"경기도 고양시 일산서구 탄현동 1640번지 일산위브더제니스","indutype":"일반휴게음식 - 서양음식","category":"restaurant"},{"name":"육감만족(탄현점)","tel":"031-923-9212","addr":"경기도 고양시 일산서구 탄현동 1640번지 일산위브더제니스","indutype":"일반휴게음식 - 일반한식","category":"restaurant"},{"name":"이남장","tel":"031-914-2322","addr":"경기도 고양시 일산서구 탄현동 1640번지 일산위브더제니스","indutype":"일반휴게음식 - 일반한식","category":"restaurant"},{"name":"이삭토스트","tel":"031-919-1530","addr":"경기도 고양시 일산서구 탄현동 1640번지 일산위브더제니스","indutype":"일반휴게음식 - 스넥","category":"restaurant"},{"name":"이웃집소녀떡볶이","tel":"031-913-7111","addr":"경기도 고양시 일산서구 탄현동 1640번지 일산위브더제니스","indutype":"일반휴게음식 - 스넥","category":"restaurant"},{"name":"이차돌 (일산탄현점)","tel":"031-913-4363","addr":"경기도 고양시 일산서구 탄현동 1640번지 일산위브더제니스","indutype":"일반휴게음식 - 일반한식","category":"restaurant"},{"name":"제인","tel":"031-924-0753","addr":"경기도 고양시 일산서구 탄현동 1640번지 일산위브더제니스","indutype":"일반휴게음식 - 일반한식","category":"restaurant"},{"name":"제주울어멍해장국탄현점","tel":"031-919-9098","addr":"경기도 고양시 일산서구 탄현동 1640번지 일산위브더제니스","indutype":"일반휴게음식 - 일반한식","category":"restaurant"},{"name":"주반장","tel":"031-923-1096","addr":"경기도 고양시 일산서구 탄현동 1640번지 일산위브더제니스","indutype":"일반휴게음식 - 일반한식","category":"restaurant"},{"name":"주식회사 스시메이진 탄현","tel":"031-924-8889","addr":"경기도 고양시 일산서구 탄현동 1640번지 일산위브더제니스","indutype":"일반휴게음식 - 일식·회집","category":"restaurant"},{"name":"투썸플레이스일산탄현점","tel":"031-921-9600","addr":"경기도 고양시 일산서구 탄현동 1640번지 일산위브더제니스","indutype":"일반휴게음식 - 서양음식","category":"restaurant"},{"name":"파스쿠찌 탄현제니스 스퀘어점","tel":"031-916-3123","addr":"경기도 고양시 일산서구 탄현동 1640번지 일산위브더제니스","indutype":"일반휴게음식 - 서양음식","category":"restaurant"},{"name":"포메인일산탄현점","tel":"031-923-8789","addr":"경기도 고양시 일산서구 탄현동 1640번지 일산위브더제니스","indutype":"일반휴게음식 - 서양음식","category":"restaurant"},{"name":"플레져포인트리테일(미세스히긴스)","tel":"02-312-3630","addr":"경기도 고양시 일산서구 탄현동 1640번지 일산위브더제니스","indutype":"일반휴게음식 - 서양음식","category":"restaurant"},{"name":"하루비어 일산탄현제니스점","tel":"031-915-0095","addr":"경기도 고양시 일산서구 탄현동 1640번지 일산위브더제니스","indutype":"일반휴게음식 - 주점","category":"restaurant"},{"name":"호밀호두","tel":"031-917-5152","addr":"경기도 고양시 일산서구 탄현동 1640번지 일산위브더제니스","indutype":"일반휴게음식 - 스넥","category":"restaurant"},{"name":"흑화당 탄현위브더제니스점","tel":"","addr":"경기도 고양시 일산서구 탄현동 1640번지 일산위브더제니스","indutype":"일반휴게음식 - 서양음식","category":"restaurant"},{"name":"히노아지","tel":"031-918-9125","addr":"경기도 고양시 일산서구 탄현동 1640번지 일산위브더제니스","indutype":"일반휴게음식 - 일반한식","category":"restaurant"}]},{"lat":"37.693072581","long":"126.77257215","imageIndex":4,"items":[{"name":"108@돌삼겹","tel":"031-911-1108","addr":"경기도 고양시 일산서구 탄현동 1592-2번지","indutype":"일반휴게음식 - 일반한식","category":"restaurant"},{"name":"궁돌찜","tel":"031-922-1108","addr":"경기도 고양시 일산서구 탄현동 1592-2번지","indutype":"일반휴게음식 - 일반한식","category":"restaurant"},{"name":"본가 탄현점","tel":"031-914-5392","addr":"경기도 고양시 일산서구 탄현동 1592-2번지","indutype":"일반휴게음식 - 일반한식","category":"restaurant"},{"name":"요이토모","tel":"","addr":"경기도 고양시 일산서구 탄현동 1592-2번지","indutype":"일반휴게음식 - 일식·회집","category":"restaurant"}]},{"lat":"37.69407324","long":"126.77287519","imageIndex":4,"items":[{"name":"18번 포장마차","tel":"031-913-7484","addr":"경기도 고양시 일산서구 탄현동 43-8번지","indutype":"일반휴게음식 - 일반한식","category":"restaurant"},{"name":"해미수산(탄현점)","tel":"031-915-9280","addr":"경기도 고양시 일산서구 탄현동 43-8번지","indutype":"일반휴게음식 - 일식·회집","category":"restaurant"}]},{"lat":"37.692486271","long":"126.76318615","imageIndex":4,"items":[{"name":"24시 전주명가 콩나물국밥","tel":"031-913-9080","addr":"경기도 고양시 일산서구 탄현동 174-17번지","indutype":"일반휴게음식 - 일반한식","category":"restaurant"}]},{"lat":"37.692622745","long":"126.77290234","imageIndex":4,"items":[{"name":"25시 해장국","tel":"031-921-9739","addr":"경기도 고양시 일산서구 탄현동 1591-2번지","indutype":"일반휴게음식 - 일반한식","category":"restaurant"}]},{"lat":"37.69785136","long":"126.76534592","imageIndex":4,"items":[{"name":"33떡볶이 탄현점","tel":"031-922-3336","addr":"경기도 고양시 일산서구 탄현동 139-32번지","indutype":"일반휴게음식 - 스넥","category":"restaurant"},{"name":"김밥천국","tel":"031-912-7009","addr":"경기도 고양시 일산서구 탄현동 139-32번지","indutype":"일반휴게음식 - 스넥","category":"restaurant"},{"name":"탄현생고기 고고갈비/(주)와이제이글로벌","tel":"031-919-9988","addr":"경기도 고양시 일산서구 탄현동 139-32번지","indutype":"일반휴게음식 - 일반한식","category":"restaurant"},{"name":"플라타너스 탄현점","tel":"031-917-1017","addr":"경기도 고양시 일산서구 탄현동 139-32번지","indutype":"일반휴게음식 - 서양음식","category":"restaurant"}]},{"lat":"37.690485111","long":"126.76268239","imageIndex":4,"items":[{"name":"59년 왕십리불막창","tel":"031-913-1310","addr":"경기도 고양시 일산서구 탄현동 1574-1번지","indutype":"일반휴게음식 - 일반한식","category":"restaurant"},{"name":"도쿠리야","tel":"031-915-8886","addr":"경기도 고양시 일산서구 탄현동 1574-1번지","indutype":"일반휴게음식 - 일식·회집","category":"restaurant"},{"name":"독도참치","tel":"031-914-4994","addr":"경기도 고양시 일산서구 탄현동 1574-1번지","indutype":"일반휴게음식 - 일식·회집","category":"restaurant"},{"name":"오사카부루스","tel":"031-923-5421","addr":"경기도 고양시 일산서구 탄현동 1574-1번지","indutype":"일반휴게음식 - 일반한식","category":"restaurant"},{"name":"포차어게인","tel":"031-925-0155","addr":"경기도 고양시 일산서구 탄현동 1574-1번지","indutype":"일반휴게음식 - 일반한식","category":"restaurant"},{"name":"홍천참숯직화구이","tel":"031-917-7131","addr":"경기도 고양시 일산서구 탄현동 1574-1번지","indutype":"일반휴게음식 - 일반한식","category":"restaurant"}]},{"lat":"37.689763376","long":"126.76220855","imageIndex":4,"items":[{"name":"79대포일산탄현점","tel":"070-8882-2684","addr":"경기도 고양시 일산서구 탄현동 1574-5번지","indutype":"일반휴게음식 - 주점","category":"restaurant"}]},{"lat":"37.698927524","long":"126.76288194","imageIndex":4,"items":[{"name":"BHC치킨일산탄현점","tel":"031-912-5544","addr":"경기도 고양시 일산서구 탄현동 305-44번지","indutype":"일반휴게음식 - 스넥","category":"restaurant"}]},{"lat":"37.696876283","long":"126.77809363","imageIndex":4,"items":[{"name":"개성손만두요리전문점(일산점)","tel":"031-911-2276","addr":"경기도 고양시 일산서구 탄현동 4-1번지","indutype":"일반휴게음식 - 일반한식","category":"restaurant"},{"name":"우리순상황티앤커피","tel":"031-7872-8788","addr":"경기도 고양시 일산서구 탄현동 4-1번지","indutype":"일반휴게음식 - 서양음식","category":"restaurant"},{"name":"철원해장국 탄현직영점","tel":"031-911-4421","addr":"경기도 고양시 일산서구 탄현동 4-1번지","indutype":"일반휴게음식 - 일반한식","category":"restaurant"},{"name":"청춘돈까스","tel":"031-915-1980","addr":"경기도 고양시 일산서구 탄현동 4-1번지","indutype":"일반휴게음식 - 서양음식","category":"restaurant"},{"name":"춘천만석닭갈비","tel":"031-901-8802","addr":"경기도 고양시 일산서구 탄현동 4-1번지","indutype":"일반휴게음식 - 일반한식","category":"restaurant"}]},{"lat":"37.691901778","long":"126.76374358","imageIndex":4,"items":[{"name":"고봉민김밥인(고양탄현역점)","tel":"031-912-5333","addr":"경기도 고양시 일산서구 탄현동 1573-1번지","indutype":"일반휴게음식 - 일반한식","category":"restaurant"},{"name":"본죽(탄현동점)","tel":"031-913-6288","addr":"경기도 고양시 일산서구 탄현동 1573-1번지","indutype":"일반휴게음식 - 일반한식","category":"restaurant"},{"name":"봉구비어","tel":"031-907-4137","addr":"경기도 고양시 일산서구 탄현동 1573-1번지","indutype":"일반휴게음식 - 주점","category":"restaurant"},{"name":"비엔나핫도그 탄현점","tel":"031-923-3882","addr":"경기도 고양시 일산서구 탄현동 1573-1번지","indutype":"일반휴게음식 - 일반한식","category":"restaurant"},{"name":"죠스떡볶이","tel":"031-917-7077","addr":"경기도 고양시 일산서구 탄현동 1573-1번지","indutype":"일반휴게음식 - 스넥","category":"restaurant"},{"name":"피자스쿨","tel":"031-912-9749","addr":"경기도 고양시 일산서구 탄현동 1573-1번지","indutype":"일반휴게음식 - 서양음식","category":"restaurant"}]},{"lat":"37.690267239","long":"126.76187813","imageIndex":4,"items":[{"name":"곱창고(일산탄현)","tel":"031-902-9790","addr":"경기도 고양시 일산서구 탄현동 1562-4번지","indutype":"일반휴게음식 - 일반한식","category":"restaurant"},{"name":"미스터객잔차이나","tel":"070-8638-0992","addr":"경기도 고양시 일산서구 탄현동 1562-4번지","indutype":"일반휴게음식 - 일반한식","category":"restaurant"},{"name":"족발야시장 일산탄현점","tel":"031-918-4969","addr":"경기도 고양시 일산서구 탄현동 1562-4번지","indutype":"일반휴게음식 - 일반한식","category":"restaurant"}]},{"lat":"37.693792415","long":"126.77209372","imageIndex":4,"items":[{"name":"교촌치킨탄현점","tel":"031-919-6557","addr":"경기도 고양시 일산서구 탄현동 1504-9번지","indutype":"일반휴게음식 - 서양음식","category":"restaurant"}]},{"lat":"37.693289778","long":"126.76848977","imageIndex":4,"items":[{"name":"구일산장군집","tel":"031-911-8234","addr":"경기도 고양시 일산서구 탄현동 1494-10번지","indutype":"일반휴게음식 - 일반한식","category":"restaurant"}]},{"lat":"37.694518491","long":"126.77020932","imageIndex":4,"items":[{"name":"국빈","tel":"031-915-0990","addr":"경기도 고양시 일산서구 탄현동 1490-1번지","indutype":"일반휴게음식 - 중국식","category":"restaurant"},{"name":"탄현불가마사우나휴게음식점","tel":"031-0000-0000","addr":"경기도 고양시 일산서구 탄현동 1490-1번지","indutype":"일반휴게음식 - 서양음식","category":"restaurant"},{"name":"피자에땅 탄현점","tel":"031-918-9222","addr":"경기도 고양시 일산서구 탄현동 1490-1번지","indutype":"일반휴게음식 - 서양음식","category":"restaurant"}]},{"lat":"37.691261133","long":"126.76326945","imageIndex":4,"items":[{"name":"군산아구찜","tel":"031-917-6333","addr":"경기도 고양시 일산서구 탄현동 1573-5번지","indutype":"일반휴게음식 - 일반한식","category":"restaurant"},{"name":"꼬치선생101 (탄현점)","tel":"031-912-7182","addr":"경기도 고양시 일산서구 탄현동 1573-5번지","indutype":"일반휴게음식 - 일식·회집","category":"restaurant"},{"name":"맘스터치 탄현점","tel":"031-919-7877","addr":"경기도 고양시 일산서구 탄현동 1573-5번지","indutype":"일반휴게음식 - 서양음식","category":"restaurant"},{"name":"맘스터치탄현점","tel":"031-919-7877","addr":"경기도 고양시 일산서구 탄현동 1573-5번지","indutype":"일반휴게음식 - 스넥","category":"restaurant"},{"name":"엉클족","tel":"031-911-7982","addr":"경기도 고양시 일산서구 탄현동 1573-5번지","indutype":"일반휴게음식 - 일반한식","category":"restaurant"},{"name":"왕냉면왕돈까스","tel":"031-925-1216","addr":"경기도 고양시 일산서구 탄현동 1573-5번지","indutype":"일반휴게음식 - 스넥","category":"restaurant"},{"name":"이디야커피 일산탄현점","tel":"031-919-8908","addr":"경기도 고양시 일산서구 탄현동 1573-5번지","indutype":"일반휴게음식 - 서양음식","category":"restaurant"},{"name":"종로빈대떡","tel":"031-922-2829","addr":"경기도 고양시 일산서구 탄현동 1573-5번지","indutype":"일반휴게음식 - 일반한식","category":"restaurant"}]},{"lat":"37.693900485","long":"126.77207071","imageIndex":4,"items":[{"name":"굽네치킨 탄현점","tel":"031-912-9492","addr":"경기도 고양시 일산서구 탄현동 1504-7번지","indutype":"일반휴게음식 - 스넥","category":"restaurant"},{"name":"멸치국수","tel":"031-925-1361","addr":"경기도 고양시 일산서구 탄현동 1504-7번지","indutype":"일반휴게음식 - 일반한식","category":"restaurant"}]},{"lat":"37.690736431","long":"126.76221674","imageIndex":4,"items":[{"name":"그라브","tel":"031-999-0800","addr":"경기도 고양시 일산서구 탄현동 1562-1번지","indutype":"일반휴게음식 - 일반한식","category":"restaurant"}]},{"lat":"37.690927318","long":"126.76304377","imageIndex":4,"items":[{"name":"그램그램탄현점","tel":"031-914-9279","addr":"경기도 고양시 일산서구 탄현동 1573-7번지","indutype":"일반휴게음식 - 일반한식","category":"restaurant"},{"name":"김밥천국","tel":"031-111-1111","addr":"경기도 고양시 일산서구 탄현동 1573-7번지","indutype":"일반휴게음식 - 일반한식","category":"restaurant"},{"name":"뉴욕야시장 탄현점","tel":"031-925-5021","addr":"경기도 고양시 일산서구 탄현동 1573-7번지","indutype":"일반휴게음식 - 서양음식","category":"restaurant"},{"name":"신떡과 튀김범벅","tel":"031-912-3892","addr":"경기도 고양시 일산서구 탄현동 1573-7번지","indutype":"일반휴게음식 - 스넥","category":"restaurant"},{"name":"웰빙장충왕족발","tel":"031-921-3321","addr":"경기도 고양시 일산서구 탄현동 1573-7번지","indutype":"일반휴게음식 - 일반한식","category":"restaurant"},{"name":"쥬스식스커피식스탄현점","tel":"031-919-6877","addr":"경기도 고양시 일산서구 탄현동 1573-7번지","indutype":"일반휴게음식 - 서양음식","category":"restaurant"},{"name":"한솥도시락일산탄현점","tel":"031-912-7595","addr":"경기도 고양시 일산서구 탄현동 1573-7번지","indutype":"일반휴게음식 - 일반한식","category":"restaurant"},{"name":"해리피아","tel":"","addr":"경기도 고양시 일산서구 탄현동 1573-7번지","indutype":"일반휴게음식 - 칵테일바","category":"restaurant"}]},{"lat":"37.689348075","long":"126.77076967","imageIndex":4,"items":[{"name":"그린필드","tel":"031-915-4870","addr":"경기도 고양시 일산서구 탄현동","indutype":"일반휴게음식 - 일반한식","category":"restaurant"}]},{"lat":"37.696345691","long":"126.76481781","imageIndex":4,"items":[{"name":"금문","tel":"031-916-4888","addr":"경기도 고양시 일산서구 탄현동 142-66번지","indutype":"일반휴게음식 - 중국식","category":"restaurant"},{"name":"아이꿈 키즈맘카페","tel":"070-8830-7979","addr":"경기도 고양시 일산서구 탄현동 142-66번지","indutype":"일반휴게음식 - 서양음식","category":"restaurant"},{"name":"카페달보드레","tel":"031-913-1542","addr":"경기도 고양시 일산서구 탄현동 142-66번지","indutype":"일반휴게음식 - 서양음식","category":"restaurant"}]},{"lat":"37.698518295","long":"126.76545718","imageIndex":4,"items":[{"name":"금촌뼈다귀감자탕","tel":"031-923-2741","addr":"경기도 고양시 일산서구 탄현동 132-62번지","indutype":"일반휴게음식 - 일반한식","category":"restaurant"},{"name":"쉐프엠 탄현점","tel":"031-923-1231","addr":"경기도 고양시 일산서구 탄현동 132-62번지","indutype":"일반휴게음식 - 서양음식","category":"restaurant"},{"name":"왕순이김밥","tel":"031-916-1605","addr":"경기도 고양시 일산서구 탄현동 132-62번지","indutype":"일반휴게음식 - 일반한식","category":"restaurant"},{"name":"쥬씨탄현큰마을점","tel":"070-4115-1028","addr":"경기도 고양시 일산서구 탄현동 132-62번지","indutype":"일반휴게음식 - 서양음식","category":"restaurant"},{"name":"춤추는왕만두","tel":"","addr":"경기도 고양시 일산서구 탄현동 132-62번지","indutype":"일반휴게음식 - 스넥","category":"restaurant"},{"name":"투다리sbs","tel":"02-0000-0000","addr":"경기도 고양시 일산서구 탄현동 132-62번지","indutype":"일반휴게음식 - 주점","category":"restaurant"},{"name":"피자마루(탄현SBS점)","tel":"031-915-1082","addr":"경기도 고양시 일산서구 탄현동 132-62번지","indutype":"일반휴게음식 - 서양음식","category":"restaurant"},{"name":"호치킨하우스","tel":"031-919-5727","addr":"경기도 고양시 일산서구 탄현동 132-62번지","indutype":"일반휴게음식 - 스넥","category":"restaurant"}]},{"lat":"37.690486403","long":"126.7633173","imageIndex":4,"items":[{"name":"기막힌만두","tel":"031-917-6677","addr":"경기도 고양시 일산서구 탄현동 1576-2번지","indutype":"일반휴게음식 - 스넥","category":"restaurant"},{"name":"옛날통닭앤드고구려닭갈비","tel":"031-916-8734","addr":"경기도 고양시 일산서구 탄현동 1576-2번지","indutype":"일반휴게음식 - 주점","category":"restaurant"},{"name":"오부장치킨(탄현점)","tel":"031-915-9949","addr":"경기도 고양시 일산서구 탄현동 1576-2번지","indutype":"일반휴게음식 - 스넥","category":"restaurant"}]},{"lat":"37.689458252","long":"126.76279908","imageIndex":4,"items":[{"name":"길가횟집","tel":"031-913-9259","addr":"경기도 고양시 일산서구 탄현동 1577-3번지","indutype":"일반휴게음식 - 일식·회집","category":"restaurant"},{"name":"제주토종똥돼지","tel":"031-913-1783","addr":"경기도 고양시 일산서구 탄현동 1577-3번지","indutype":"일반휴게음식 - 일반한식","category":"restaurant"},{"name":"커피에반하다","tel":"031-918-7717","addr":"경기도 고양시 일산서구 탄현동 1577-3번지","indutype":"일반휴게음식 - 서양음식","category":"restaurant"},{"name":"할렘펍","tel":"070-4102-3815","addr":"경기도 고양시 일산서구 탄현동 1577-3번지","indutype":"일반휴게음식 - 주점","category":"restaurant"}]},{"lat":"37.698900934","long":"126.76309746","imageIndex":4,"items":[{"name":"김민철수제족발 탄현점","tel":"031-923-9996","addr":"경기도 고양시 일산서구 탄현동 305-16번지","indutype":"일반휴게음식 - 일반한식","category":"restaurant"}]},{"lat":"37.703982805","long":"126.7677984","imageIndex":4,"items":[{"name":"김밥생각","tel":"","addr":"경기도 고양시 일산서구 탄현동 1650번지 일산에듀포레푸르지오","indutype":"일반휴게음식 - 스넥","category":"restaurant"},{"name":"비어35","tel":"031-923-3536","addr":"경기도 고양시 일산서구 탄현동 1650번지 일산에듀포레푸르지오","indutype":"일반휴게음식 - 일반한식","category":"restaurant"},{"name":"치킨플러스 일산탄현점","tel":"031-911-9295","addr":"경기도 고양시 일산서구 탄현동 1650번지 일산에듀포레푸르지오","indutype":"일반휴게음식 - 스넥","category":"restaurant"},{"name":"커피에반하다 탄현푸르지오점","tel":"031-111-1111","addr":"경기도 고양시 일산서구 탄현동 1650번지 일산에듀포레푸르지오","indutype":"일반휴게음식 - 서양음식","category":"restaurant"}]},{"lat":"37.690961994","long":"126.76237474","imageIndex":4,"items":[{"name":"까페베네 탄현역점","tel":"031-916-6232","addr":"경기도 고양시 일산서구 탄현동 1563-7번지","indutype":"일반휴게음식 - 서양음식","category":"restaurant"},{"name":"라운지호프","tel":"031-922-7922","addr":"경기도 고양시 일산서구 탄현동 1563-7번지","indutype":"일반휴게음식 - 주점","category":"restaurant"}]},{"lat":"37.691177552","long":"126.76204525","imageIndex":4,"items":[{"name":"남도술상","tel":"031-924-8883","addr":"경기도 고양시 일산서구 탄현동 1560-6번지","indutype":"일반휴게음식 - 일반한식","category":"restaurant"},{"name":"든든해","tel":"031-921-3345","addr":"경기도 고양시 일산서구 탄현동 1560-6번지","indutype":"일반휴게음식 - 일반한식","category":"restaurant"},{"name":"바이칼","tel":"031-924-7770","addr":"경기도 고양시 일산서구 탄현동 1560-6번지","indutype":"일반휴게음식 - 일반한식","category":"restaurant"},{"name":"백년족발 탄현점","tel":"031-922-7856","addr":"경기도 고양시 일산서구 탄현동 1560-6번지","indutype":"일반휴게음식 - 일반한식","category":"restaurant"},{"name":"백년족발탄현점","tel":"031-922-7856","addr":"경기도 고양시 일산서구 탄현동 1560-6번지","indutype":"일반휴게음식 - 일반한식","category":"restaurant"},{"name":"신숯불닭갈비 굽꼬","tel":"031-919-4537","addr":"경기도 고양시 일산서구 탄현동 1560-6번지","indutype":"일반휴게음식 - 일반한식","category":"restaurant"}]},{"lat":"37.693400522","long":"126.76981598","imageIndex":4,"items":[{"name":"남원추어탕","tel":"031-919-0802","addr":"경기도 고양시 일산서구 탄현동 1498-12번지","indutype":"일반휴게음식 - 일반한식","category":"restaurant"}]},{"lat":"37.693573693","long":"126.77082453","imageIndex":4,"items":[{"name":"노가리와호프","tel":"031-924-5529","addr":"경기도 고양시 일산서구 탄현동 1500-13번지","indutype":"일반휴게음식 - 일반한식","category":"restaurant"},{"name":"오렌지카운터","tel":"031-913-3451","addr":"경기도 고양시 일산서구 탄현동 1500-13번지","indutype":"일반휴게음식 - 서양음식","category":"restaurant"}]},{"lat":"37.689456611","long":"126.76199412","imageIndex":4,"items":[{"name":"노랑통닭(탄현점)","tel":"031-912-9995","addr":"경기도 고양시 일산서구 탄현동 1574-7번지","indutype":"일반휴게음식 - 스넥","category":"restaurant"},{"name":"지금보고싶다 (일산탄현점)","tel":"","addr":"경기도 고양시 일산서구 탄현동 1574-7번지","indutype":"일반휴게음식 - 일반한식","category":"restaurant"},{"name":"짝비어앤포차","tel":"031-911-9807","addr":"경기도 고양시 일산서구 탄현동 1574-7번지","indutype":"일반휴게음식 - 주점","category":"restaurant"}]},{"lat":"37.689879318","long":"126.76162996","imageIndex":4,"items":[{"name":"녹스 (NOX)","tel":"","addr":"경기도 고양시 일산서구 탄현동 1562-6번지","indutype":"일반휴게음식 - 주점","category":"restaurant"},{"name":"동원참치","tel":"031-911-6577","addr":"경기도 고양시 일산서구 탄현동","indutype":"일반휴게음식 - 일식·회집","category":"restaurant"},{"name":"동원참치 탄현점","tel":"031-911-6577","addr":"경기도 고양시 일산서구 탄현동 1562-6번지","indutype":"일반휴게음식 - 일식·회집","category":"restaurant"},{"name":"미스터피자","tel":"031-921-6090","addr":"경기도 고양시 일산서구 탄현동 1562-6번지","indutype":"일반휴게음식 - 서양음식","category":"restaurant"},{"name":"방가달리는마포종점 탄현점","tel":"031-919-8799","addr":"경기도 고양시 일산서구 탄현동 1562-6번지","indutype":"일반휴게음식 - 일반한식","category":"restaurant"},{"name":"삼적","tel":"031-916-2036","addr":"경기도 고양시 일산서구 탄현동 1562-6번지","indutype":"일반휴게음식 - 일반한식","category":"restaurant"},{"name":"황제생소갈비살","tel":"031-912-9295","addr":"경기도 고양시 일산서구 탄현동 1562-6번지","indutype":"일반휴게음식 - 일반한식","category":"restaurant"}]},{"lat":"37.692487712","long":"126.77295945","imageIndex":4,"items":[{"name":"다정순대국","tel":"031-916-6903","addr":"경기도 고양시 일산서구 탄현동 1591-3번지","indutype":"일반휴게음식 - 일반한식","category":"restaurant"},{"name":"술땡기는날","tel":"070-8956-4885","addr":"경기도 고양시 일산서구 탄현동","indutype":"일반휴게음식 - 주점","category":"restaurant"},{"name":"육쾌한집","tel":"031-913-4343","addr":"경기도 고양시 일산서구 탄현동 1591-3번지","indutype":"일반휴게음식 - 일반한식","category":"restaurant"}]},{"lat":"37.692929666","long":"126.77320752","imageIndex":4,"items":[{"name":"닭스","tel":"031-911-2510","addr":"경기도 고양시 일산서구 탄현동 1593-16번지","indutype":"일반휴게음식 - 주점","category":"restaurant"},{"name":"커피더하기","tel":"031-924-5277","addr":"경기도 고양시 일산서구 탄현동 1593-16번지","indutype":"일반휴게음식 - 서양음식","category":"restaurant"}]},{"lat":"37.691963371","long":"126.76301776","imageIndex":4,"items":[{"name":"대가보쌈","tel":"031-919-2135","addr":"경기도 고양시 일산서구 탄현동 1563-1번지","indutype":"일반휴게음식 - 일반한식","category":"restaurant"},{"name":"카페로드(CAFE ROAD)","tel":"031-924-7071","addr":"경기도 고양시 일산서구 탄현동 1563-1번지","indutype":"일반휴게음식 - 서양음식","category":"restaurant"}]},{"lat":"37.690429643","long":"126.76199098","imageIndex":4,"items":[{"name":"대가보쌈","tel":"031-919-2135","addr":"경기도 고양시 일산서구 탄현동 1562-3번지","indutype":"일반휴게음식 - 일반한식","category":"restaurant"},{"name":"탄현역점 새마을식당","tel":"031-919-3993","addr":"경기도 고양시 일산서구 탄현동 1562-3번지","indutype":"일반휴게음식 - 일반한식","category":"restaurant"}]},{"lat":"37.694627812","long":"126.77082125","imageIndex":4,"items":[{"name":"대가칼국수","tel":"031-922-5003","addr":"경기도 고양시 일산서구 탄현동 1491번지","indutype":"일반휴게음식 - 일반한식","category":"restaurant"}]},{"lat":"37.689683029","long":"126.76257161","imageIndex":4,"items":[{"name":"대감집","tel":"031-911-8757","addr":"경기도 고양시 일산서구 탄현동 1575-6번지","indutype":"일반휴게음식 - 일반한식","category":"restaurant"},{"name":"양심가게","tel":"031-917-7789","addr":"경기도 고양시 일산서구 탄현동 1575-6번지","indutype":"일반휴게음식 - 일반한식","category":"restaurant"},{"name":"연탄불막창","tel":"031-913-0933","addr":"경기도 고양시 일산서구 탄현동 1575-6번지","indutype":"일반휴게음식 - 일반한식","category":"restaurant"},{"name":"풍각쟁이","tel":"031-912-8813","addr":"경기도 고양시 일산서구 탄현동 1575-6번지","indutype":"일반휴게음식 - 주점","category":"restaurant"}]},{"lat":"37.696900188","long":"126.77646079","imageIndex":4,"items":[{"name":"대청마루","tel":"031-925-5392","addr":"경기도 고양시 일산서구 탄현동 6번지","indutype":"일반휴게음식 - 일반한식","category":"restaurant"}]},{"lat":"37.694710702","long":"126.77173939","imageIndex":4,"items":[{"name":"더착한커피 탄현홀트점","tel":"031-911-9421","addr":"경기도 고양시 일산서구 탄현동 1491-5번지","indutype":"일반휴게음식 - 서양음식","category":"restaurant"},{"name":"비비큐치킨(BBQ)치킨탄현점","tel":"031-918-3134","addr":"경기도 고양시 일산서구 탄현동","indutype":"일반휴게음식 - 스넥","category":"restaurant"},{"name":"비비큐치킨(BBQ)치킨탄현점","tel":"031-918-3134","addr":"경기도 고양시 일산서구 탄현동 1491-5번지","indutype":"일반휴게음식 - 스넥","category":"restaurant"}]},{"lat":"37.694512913","long":"126.77195543","imageIndex":4,"items":[{"name":"더평안","tel":"070-7760-0491","addr":"경기도 고양시 일산서구 탄현동 1492번지","indutype":"일반휴게음식 - 서양음식","category":"restaurant"}]},{"lat":"37.703567577","long":"126.76293501","imageIndex":4,"items":[{"name":"델리일산직업능력개발원점","tel":"02-3453-0833","addr":"경기도 고양시 일산서구 탄현동 111-14번지","indutype":"일반휴게음식 - 위탁급식업","category":"restaurant"}]},{"lat":"37.690070163","long":"126.76243431","imageIndex":4,"items":[{"name":"도담초밥","tel":"031-918-8388","addr":"경기도 고양시 일산서구 탄현동 1574-3번지","indutype":"일반휴게음식 - 일식·회집","category":"restaurant"},{"name":"매드맥스","tel":"031-921-8736","addr":"경기도 고양시 일산서구 탄현동 1574-3번지","indutype":"일반휴게음식 - 주점","category":"restaurant"},{"name":"우장창창","tel":"031-921-4458","addr":"경기도 고양시 일산서구 탄현동 1574-3번지","indutype":"일반휴게음식 - 일반한식","category":"restaurant"},{"name":"춘식이숯불닭갈비","tel":"031-921-8736","addr":"경기도 고양시 일산서구 탄현동 1574-3번지","indutype":"일반휴게음식 - 일반한식","category":"restaurant"}]},{"lat":"37.694038899","long":"126.76915637","imageIndex":4,"items":[{"name":"돈오소","tel":"031-917-7186","addr":"경기도 고양시 일산서구 탄현동 1497번지","indutype":"일반휴게음식 - 일반한식","category":"restaurant"}]},{"lat":"37.693209075","long":"126.76868278","imageIndex":4,"items":[{"name":"들깨나들이","tel":"031-915-2360","addr":"경기도 고양시 일산서구 탄현동 1494-13번지","indutype":"일반휴게음식 - 일반한식","category":"restaurant"}]},{"lat":"37.689349213","long":"126.76234593","imageIndex":4,"items":[{"name":"디스이즈라이브","tel":"031-921-8858","addr":"경기도 고양시 일산서구 탄현동 1577-1번지","indutype":"일반휴게음식 - 서양음식","category":"restaurant"},{"name":"맛을품은닭강정","tel":"031-915-2500","addr":"경기도 고양시 일산서구 탄현동 1577-1번지","indutype":"일반휴게음식 - 스넥","category":"restaurant"},{"name":"봉광순대국","tel":"031-923-3833","addr":"경기도 고양시 일산서구 탄현동 1577-1번지","indutype":"일반휴게음식 - 일반한식","category":"restaurant"},{"name":"불닭동대문엽기떡볶이(탄현점)","tel":"031-912-8592","addr":"경기도 고양시 일산서구 탄현동 1577-1번지","indutype":"일반휴게음식 - 일반한식","category":"restaurant"},{"name":"선미네","tel":"031-922-3715","addr":"경기도 고양시 일산서구 탄현동 1577-1번지","indutype":"일반휴게음식 - 일반한식","category":"restaurant"},{"name":"소돈소돈","tel":"031-918-8292","addr":"경기도 고양시 일산서구 탄현동 1577-1번지","indutype":"일반휴게음식 - 일반한식","category":"restaurant"},{"name":"하이디저트","tel":"","addr":"경기도 고양시 일산서구 탄현동 1577-1번지","indutype":"일반휴게음식 - 서양음식","category":"restaurant"}]},{"lat":"37.698512199","long":"126.76690857","imageIndex":4,"items":[{"name":"또래오래(탄현2점)","tel":"031-915-4774","addr":"경기도 고양시 일산서구 탄현동 1476번지","indutype":"일반휴게음식 - 주점","category":"restaurant"},{"name":"치킨빡스","tel":"031-911-9282","addr":"경기도 고양시 일산서구 탄현동 1476번지","indutype":"일반휴게음식 - 주점","category":"restaurant"}]},{"lat":"37.694212121","long":"126.7701876","imageIndex":4,"items":[{"name":"뜨락","tel":"031-919-4514","addr":"경기도 고양시 일산서구 탄현동 1499-1번지","indutype":"일반휴게음식 - 일반한식","category":"restaurant"}]},{"lat":"37.690431838","long":"126.76306805","imageIndex":4,"items":[{"name":"래빗","tel":"","addr":"경기도 고양시 일산서구 탄현동 1576-1번지","indutype":"일반휴게음식 - 일반한식","category":"restaurant"},{"name":"부어치킨 탄현점","tel":"031-925-8595","addr":"경기도 고양시 일산서구 탄현동 1576-1번지","indutype":"일반휴게음식 - 스넥","category":"restaurant"},{"name":"쥬씨일산탄현점","tel":"031-912-0333","addr":"경기도 고양시 일산서구 탄현동 1576-1번지","indutype":"일반휴게음식 - 일반한식","category":"restaurant"}]},{"lat":"37.690268651","long":"126.76256972","imageIndex":4,"items":[{"name":"레드","tel":"031-919-7227","addr":"경기도 고양시 일산서구 탄현동 1574-2번지","indutype":"일반휴게음식 - 일반한식","category":"restaurant"},{"name":"블루","tel":"031-919-7227","addr":"경기도 고양시 일산서구 탄현동 1574-2번지","indutype":"일반휴게음식 - 서양음식","category":"restaurant"},{"name":"이안설농탕","tel":"031-914-3939","addr":"경기도 고양시 일산서구 탄현동 1574-2번지","indutype":"일반휴게음식 - 일반한식","category":"restaurant"},{"name":"잠실감자탕&쭈꾸미삼겹살","tel":"031-914-3939","addr":"경기도 고양시 일산서구 탄현동 1574-2번지","indutype":"일반휴게음식 - 일반한식","category":"restaurant"}]},{"lat":"37.694266715","long":"126.77045955","imageIndex":4,"items":[{"name":"레이백커피","tel":"031-912-0606","addr":"경기도 고양시 일산서구 탄현동 1500번지","indutype":"일반휴게음식 - 서양음식","category":"restaurant"}]},{"lat":"37.689485719","long":"126.7630144","imageIndex":4,"items":[{"name":"로드펍1번가","tel":"","addr":"경기도 고양시 일산서구 탄현동 1577-4번지","indutype":"일반휴게음식 - 일반한식","category":"restaurant"},{"name":"스마일찹쌀꽈배기 탄현점","tel":"031-811-9888","addr":"경기도 고양시 일산서구 탄현동 1577-4번지","indutype":"일반휴게음식 - 스넥","category":"restaurant"},{"name":"요거프레소 탄현점","tel":"070-7404-1465","addr":"경기도 고양시 일산서구 탄현동 1577-4번지","indutype":"일반휴게음식 - 서양음식","category":"restaurant"},{"name":"일구분식","tel":"032-000-0000","addr":"경기도 고양시 일산서구 탄현동 1577-4번지","indutype":"일반휴게음식 - 스넥","category":"restaurant"},{"name":"족발연구소","tel":"","addr":"경기도 고양시 일산서구 탄현동 1577-4번지","indutype":"일반휴게음식 - 일반한식","category":"restaurant"},{"name":"피자마루 탄현2지구점","tel":"031-913-3003","addr":"경기도 고양시 일산서구 탄현동 1577-4번지","indutype":"일반휴게음식 - 서양음식","category":"restaurant"}]},{"lat":"37.691485241","long":"126.76271318","imageIndex":4,"items":[{"name":"롯데리아일산탄현점","tel":"031-915-1928","addr":"경기도 고양시 일산서구 탄현동 1563-3번지","indutype":"일반휴게음식 - 서양음식","category":"restaurant"},{"name":"신마포갈매기","tel":"031-924-6092","addr":"경기도 고양시 일산서구 탄현동 1563-3번지","indutype":"일반휴게음식 - 일반한식","category":"restaurant"},{"name":"신참떡볶이일산탄현점","tel":"031-922-0319","addr":"경기도 고양시 일산서구 탄현동 1563-3번지","indutype":"일반휴게음식 - 스넥","category":"restaurant"},{"name":"춘천명동닭갈비","tel":"031-917-0080","addr":"경기도 고양시 일산서구 탄현동 1563-3번지","indutype":"일반휴게음식 - 일반한식","category":"restaurant"},{"name":"태평회수산","tel":"031-913-6888","addr":"경기도 고양시 일산서구 탄현동 1563-3번지","indutype":"일반휴게음식 - 일식·회집","category":"restaurant"},{"name":"하이시스탄현","tel":"031-919-8295","addr":"경기도 고양시 일산서구 탄현동 1563-3번지","indutype":"일반휴게음식 - 일식·회집","category":"restaurant"}]},{"lat":"37.691345135","long":"126.76470908","imageIndex":4,"items":[{"name":"마리짱 소래포구 왕새우튀김","tel":"031-924-1005","addr":"경기도 고양시 일산서구 탄현동 1578번지","indutype":"일반휴게음식 - 일반한식","category":"restaurant"}]},{"lat":"37.694066265","long":"126.76932636","imageIndex":4,"items":[{"name":"막줄래퍼줄래","tel":"031-923-8469","addr":"경기도 고양시 일산서구 탄현동 1497-1번지","indutype":"일반휴게음식 - 일반한식","category":"restaurant"},{"name":"서초우동","tel":"031-936-8999","addr":"경기도 고양시 일산서구 탄현동 1497-1번지","indutype":"일반휴게음식 - 일반한식","category":"restaurant"}]},{"lat":"37.693790347","long":"126.77103928","imageIndex":4,"items":[{"name":"막창일번지","tel":"031-914-1007","addr":"경기도 고양시 일산서구 탄현동 1502-2번지","indutype":"일반휴게음식 - 일반한식","category":"restaurant"}]},{"lat":"37.692433323","long":"126.77278955","imageIndex":4,"items":[{"name":"만년 삼겹살","tel":"031-917-0114","addr":"경기도 고양시 일산서구 탄현동 1591-4번지","indutype":"일반휴게음식 - 일반한식","category":"restaurant"},{"name":"만년오리","tel":"031-911-9440","addr":"경기도 고양시 일산서구 탄현동 1591-4번지","indutype":"일반휴게음식 - 일반한식","category":"restaurant"}]},{"lat":"37.690095826","long":"126.76176531","imageIndex":4,"items":[{"name":"맘보갈매기","tel":"031-924-9249","addr":"경기도 고양시 일산서구 탄현동 1562-5번지","indutype":"일반휴게음식 - 일반한식","category":"restaurant"},{"name":"명동찌개마을","tel":"031-911-3739","addr":"경기도 고양시 일산서구 탄현동 1562-5번지","indutype":"일반휴게음식 - 일반한식","category":"restaurant"},{"name":"우리전통갈비","tel":"031-916-1392","addr":"경기도 고양시 일산서구 탄현동 1562-5번지","indutype":"일반휴게음식 - 일반한식","category":"restaurant"}]},{"lat":"37.693706084","long":"126.76942953","imageIndex":4,"items":[{"name":"맛깡패 솥뚜껑김치삼겹살","tel":"031-915-1400","addr":"경기도 고양시 일산서구 탄현동 1497-7번지","indutype":"일반휴게음식 - 일반한식","category":"restaurant"}]},{"lat":"37.695265635","long":"126.76987817","imageIndex":4,"items":[{"name":"맥시카나치킨","tel":"031-922-0123","addr":"경기도 고양시 일산서구 탄현동","indutype":"일반휴게음식 - 서양음식","category":"restaurant"},{"name":"소풍","tel":"031-917-1331","addr":"경기도 고양시 일산서구 탄현동 1481번지 탄현마을4단지아파트","indutype":"일반휴게음식 - 일반한식","category":"restaurant"}]},{"lat":"37.694013194","long":"126.7698254","imageIndex":4,"items":[{"name":"묵전문점  (옥)","tel":"031-916-8247","addr":"경기도 고양시 일산서구 탄현동 1498-3번지","indutype":"일반휴게음식 - 일반한식","category":"restaurant"}]},{"lat":"37.692901776","long":"126.77276542","imageIndex":4,"items":[{"name":"미8군","tel":"070-7595-1165","addr":"경기도 고양시 일산서구 탄현동 1592-4번지","indutype":"일반휴게음식 - 일반한식","category":"restaurant"},{"name":"청기와뼈해장국","tel":"031-921-2223","addr":"경기도 고양시 일산서구 탄현동 1592-4번지","indutype":"일반휴게음식 - 일반한식","category":"restaurant"}]},{"lat":"37.689294207","long":"126.76188128","imageIndex":4,"items":[{"name":"미담양꼬치","tel":"031-921-2638","addr":"경기도 고양시 일산서구 탄현동 1574-8번지","indutype":"일반휴게음식 - 중국식","category":"restaurant"},{"name":"신사와빈대떡","tel":"031-917-9385","addr":"경기도 고양시 일산서구 탄현동 1574-8번지","indutype":"일반휴게음식 - 일반한식","category":"restaurant"},{"name":"오빠네닭발","tel":"031-1111-1111","addr":"경기도 고양시 일산서구 탄현동 1574-8번지","indutype":"일반휴게음식 - 일반한식","category":"restaurant"},{"name":"탄현가마솥족발","tel":"031-925-3375","addr":"경기도 고양시 일산서구 탄현동 1574-8번지","indutype":"일반휴게음식 - 일반한식","category":"restaurant"}]},{"lat":"37.69284716","long":"126.76343442","imageIndex":4,"items":[{"name":"미스사이공 탄현점","tel":"031-914-1420","addr":"경기도 고양시 일산서구 탄현동 174-42번지","indutype":"일반휴게음식 - 서양음식","category":"restaurant"},{"name":"파파존스피자 일산서구점","tel":"031-911-3015","addr":"경기도 고양시 일산서구 탄현동 174-42번지","indutype":"일반휴게음식 - 서양음식","category":"restaurant"}]},{"lat":"37.693462063","long":"126.7690448","imageIndex":4,"items":[{"name":"밍키랜드","tel":"","addr":"경기도 고양시 일산서구 탄현동 1496-3번지","indutype":"일반휴게음식 - 서양음식","category":"restaurant"}]},{"lat":"37.693101069","long":"126.77332037","imageIndex":4,"items":[{"name":"바이젠","tel":"031-911-4418","addr":"경기도 고양시 일산서구 탄현동 1593-2번지","indutype":"일반휴게음식 - 서양음식","category":"restaurant"}]},{"lat":"37.693406835","long":"126.76845539","imageIndex":4,"items":[{"name":"밥하우스(BoB House)","tel":"031-923-2340","addr":"경기도 고양시 일산서구 탄현동 1494-8번지","indutype":"일반휴게음식 - 일반한식","category":"restaurant"}]},{"lat":"37.698849799","long":"126.76903922","imageIndex":4,"items":[{"name":"배추네 잔치국수 빈대떡","tel":"031-917-3379","addr":"경기도 고양시 일산서구 탄현동 1473번지","indutype":"일반휴게음식 - 일반한식","category":"restaurant"},{"name":"카페1리터(Cafe 1Liter)","tel":"070-8785-7130","addr":"경기도 고양시 일산서구 탄현동 1473번지","indutype":"일반휴게음식 - 서양음식","category":"restaurant"},{"name":"페리카나치킨","tel":"070-7763-9292","addr":"경기도 고양시 일산서구 탄현동 1473번지","indutype":"일반휴게음식 - 주점","category":"restaurant"}]},{"lat":"37.691850227","long":"126.76949204","imageIndex":4,"items":[{"name":"버라이어티","tel":"031-923-0701","addr":"경기도 고양시 일산서구 탄현동 1585번지","indutype":"일반휴게음식 - 서양음식","category":"restaurant"},{"name":"에디슨치킨탄현중산점","tel":"031-922-8592","addr":"경기도 고양시 일산서구 탄현동","indutype":"일반휴게음식 - 일반한식","category":"restaurant"}]},{"lat":"37.693127155","long":"126.76826353","imageIndex":4,"items":[{"name":"보라커피(BORA coffee)","tel":"070-6584-3349","addr":"경기도 고양시 일산서구 탄현동 1493-13번지","indutype":"일반휴게음식 - 서양음식","category":"restaurant"}]},{"lat":"37.699926971","long":"126.76704016","imageIndex":4,"items":[{"name":"본도시락 일산탄현점","tel":"031-919-4282","addr":"경기도 고양시 일산서구 탄현동 1470번지","indutype":"일반휴게음식 - 일반한식","category":"restaurant"}]},{"lat":"37.69295696","long":"126.77334349","imageIndex":4,"items":[{"name":"본순대국","tel":"031-922-3988","addr":"경기도 고양시 일산서구 탄현동 1593-15번지","indutype":"일반휴게음식 - 일반한식","category":"restaurant"},{"name":"황귀닭곰탕","tel":"031-913-3883","addr":"경기도 고양시 일산서구 탄현동 1593-15번지","indutype":"일반휴게음식 - 일반한식","category":"restaurant"}]},{"lat":"37.694849211","long":"126.7643804","imageIndex":4,"items":[{"name":"부산어묵꼬마김밥","tel":"031-915-3491","addr":"경기도 고양시 일산서구 탄현동 142-60번지","indutype":"일반휴게음식 - 일반한식","category":"restaurant"}]},{"lat":"37.69626333","long":"126.77793674","imageIndex":4,"items":[{"name":"북경짜장","tel":"031-914-0624","addr":"경기도 고양시 일산서구 탄현동 4-25번지","indutype":"일반휴게음식 - 중국식","category":"restaurant"}]},{"lat":"37.696153229","long":"126.76320836","imageIndex":4,"items":[{"name":"블루","tel":"02-2113-5550","addr":"경기도 고양시 일산서구 탄현동 140번지","indutype":"일반휴게음식 - 일반한식","category":"restaurant"}]},{"lat":"37.694400157","long":"126.76959743","imageIndex":4,"items":[{"name":"비아커피 (Via coffee)","tel":"031-0000-0000","addr":"경기도 고양시 일산서구 탄현동 1490번지","indutype":"일반휴게음식 - 서양음식","category":"restaurant"},{"name":"이바돔감자탕","tel":"031-912-8980","addr":"경기도 고양시 일산서구 탄현동 1490번지","indutype":"일반휴게음식 - 일반한식","category":"restaurant"},{"name":"홍대칼국수와족발","tel":"031-922-9222","addr":"경기도 고양시 일산서구 탄현동 1490번지","indutype":"일반휴게음식 - 일반한식","category":"restaurant"}]},{"lat":"37.698874182","long":"126.76323362","imageIndex":4,"items":[{"name":"비어밸리","tel":"031-923-0505","addr":"경기도 고양시 일산서구 탄현동 305-40번지","indutype":"일반휴게음식 - 주점","category":"restaurant"}]},{"lat":"37.693011613","long":"126.77364945","imageIndex":4,"items":[{"name":"비어밸리","tel":"031-919-9292","addr":"경기도 고양시 일산서구 탄현동 1593-13번지","indutype":"일반휴게음식 - 주점","category":"restaurant"}]},{"lat":"37.694184802","long":"126.77004029","imageIndex":4,"items":[{"name":"비어사이드(BEER SIDE)","tel":"031-921-5883","addr":"경기도 고양시 일산서구 탄현동 1499번지","indutype":"일반휴게음식 - 주점","category":"restaurant"}]},{"lat":"37.693456266","long":"126.7752921","imageIndex":4,"items":[{"name":"비어타임","tel":"031-915-5070","addr":"경기도 고양시 일산서구 탄현동 1600-6번지","indutype":"일반휴게음식 - 주점","category":"restaurant"}]},{"lat":"37.693184576","long":"126.7745673","imageIndex":4,"items":[{"name":"뻬뽈리(peppoli)","tel":"070-4652-4049","addr":"경기도 고양시 일산서구 탄현동 1600-16번지","indutype":"일반휴게음식 - 서양음식","category":"restaurant"}]},{"lat":"37.694682516","long":"126.77114989","imageIndex":4,"items":[{"name":"산마루갈비","tel":"031-916-9904","addr":"경기도 고양시 일산서구 탄현동 1491-2번지","indutype":"일반휴게음식 - 일반한식","category":"restaurant"}]},{"lat":"37.689934742","long":"126.76229869","imageIndex":4,"items":[{"name":"산카이","tel":"031-916-3868","addr":"경기도 고양시 일산서구 탄현동 1574-4번지","indutype":"일반휴게음식 - 주점","category":"restaurant"},{"name":"육회지존","tel":"031-915-0708","addr":"경기도 고양시 일산서구 탄현동 1574-4번지","indutype":"일반휴게음식 - 일반한식","category":"restaurant"},{"name":"하우돈곱창","tel":"031-924-7474","addr":"경기도 고양시 일산서구 탄현동 1574-4번지","indutype":"일반휴게음식 - 일반한식","category":"restaurant"}]},{"lat":"37.695462365","long":"126.76462788","imageIndex":4,"items":[{"name":"새벽길 빨간오뎅","tel":"031-911-8250","addr":"경기도 고양시 일산서구 탄현동 142-111번지","indutype":"일반휴게음식 - 스넥","category":"restaurant"},{"name":"순남시레기 탄현점","tel":"031-914-1950","addr":"경기도 고양시 일산서구 탄현동 142-111번지","indutype":"일반휴게음식 - 일반한식","category":"restaurant"}]},{"lat":"37.698878746","long":"126.76549004","imageIndex":4,"items":[{"name":"소고기짜장3900","tel":"031-941-3008","addr":"경기도 고양시 일산서구 탄현동 131-7번지","indutype":"일반휴게음식 - 일반한식","category":"restaurant"},{"name":"콩지커피","tel":"031-911-3184","addr":"경기도 고양시 일산서구 탄현동 131-7번지","indutype":"일반휴게음식 - 서양음식","category":"restaurant"}]},{"lat":"37.696378221","long":"126.77676852","imageIndex":4,"items":[{"name":"솔향","tel":"02-977-9322","addr":"경기도 고양시 일산서구 탄현동 7-2번지","indutype":"일반휴게음식 - 일반한식","category":"restaurant"}]},{"lat":"37.697291586","long":"126.77854592","imageIndex":4,"items":[{"name":"솥뚜껑부대찌게","tel":"031-921-7608","addr":"경기도 고양시 일산서구 탄현동 2-3번지","indutype":"일반휴게음식 - 일반한식","category":"restaurant"}]},{"lat":"37.696875027","long":"126.77743599","imageIndex":4,"items":[{"name":"솥뚜껑삼겹살","tel":"031-921-7522","addr":"경기도 고양시 일산서구 탄현동 4-6번지","indutype":"일반휴게음식 - 일반한식","category":"restaurant"}]},{"lat":"37.693985829","long":"126.76965541","imageIndex":4,"items":[{"name":"순이네연탄갈비","tel":"031-911-9092","addr":"경기도 고양시 일산서구 탄현동 1498-2번지","indutype":"일반휴게음식 - 일반한식","category":"restaurant"}]},{"lat":"37.694294079","long":"126.77062954","imageIndex":4,"items":[{"name":"순이포차","tel":"031-911-1207","addr":"경기도 고양시 일산서구 탄현동 1500-1번지","indutype":"일반휴게음식 - 주점","category":"restaurant"}]},{"lat":"37.691403254","long":"126.76227127","imageIndex":4,"items":[{"name":"술있는테이블","tel":"","addr":"경기도 고양시 일산서구 탄현동 1560-5번지","indutype":"일반휴게음식 - 일반한식","category":"restaurant"}]},{"lat":"37.693765076","long":"126.77193507","imageIndex":4,"items":[{"name":"숯불갈매기살","tel":"031-921-6378","addr":"경기도 고양시 일산서구 탄현동 1504-8번지","indutype":"일반휴게음식 - 일반한식","category":"restaurant"}]},{"lat":"37.693458179","long":"126.76709466","imageIndex":4,"items":[{"name":"스텔라네","tel":"032-668-2775","addr":"경기도 고양시 일산서구 탄현동 1487번지","indutype":"일반휴게음식 - 서양음식","category":"restaurant"},{"name":"우아한놀이터","tel":"070-8785-7142","addr":"경기도 고양시 일산서구 탄현동 1487번지","indutype":"일반휴게음식 - 일반한식","category":"restaurant"}]},{"lat":"37.694454708","long":"126.7698467","imageIndex":4,"items":[{"name":"양푼묵은찜.찌개","tel":"031-915-1035","addr":"경기도 고양시 일산서구 탄현동 1490-4번지","indutype":"일반휴게음식 - 일반한식","category":"restaurant"},{"name":"이실장 삼겹갈비전문점","tel":"031-925-1600","addr":"경기도 고양시 일산서구 탄현동 1490-4번지","indutype":"일반휴게음식 - 일반한식","category":"restaurant"},{"name":"커피에반하다 일산탄현주민센터점","tel":"","addr":"경기도 고양시 일산서구 탄현동 1490-4번지","indutype":"일반휴게음식 - 서양음식","category":"restaurant"}]},{"lat":"37.693823164","long":"126.76940649","imageIndex":4,"items":[{"name":"양푼이생태탕","tel":"031-919-1526","addr":"경기도 고양시 일산서구 탄현동 1497-5번지","indutype":"일반휴게음식 - 일반한식","category":"restaurant"}]},{"lat":"37.694157235","long":"126.76976826","imageIndex":4,"items":[{"name":"엉클조","tel":"031-922-2356","addr":"경기도 고양시 일산서구 탄현동 1498-1번지","indutype":"일반휴게음식 - 일반한식","category":"restaurant"},{"name":"호랑이포차","tel":"","addr":"경기도 고양시 일산서구 탄현동 1498-1번지","indutype":"일반휴게음식 - 일반한식","category":"restaurant"}]},{"lat":"37.698274032","long":"126.76495905","imageIndex":4,"items":[{"name":"오드아이","tel":"070-7677-1623","addr":"경기도 고양시 일산서구 탄현동 132-70번지","indutype":"일반휴게음식 - 서양음식","category":"restaurant"}]},{"lat":"37.690071917","long":"126.76329596","imageIndex":4,"items":[{"name":"오후엔치킨(탄현2지구점)","tel":"031-925-9292","addr":"경기도 고양시 일산서구 탄현동 1576-5번지","indutype":"일반휴게음식 - 일반한식","category":"restaurant"},{"name":"행복한 밥상","tel":"031-922-9247","addr":"경기도 고양시 일산서구 탄현동 1576-5번지","indutype":"일반휴게음식 - 일반한식","category":"restaurant"}]},{"lat":"37.693570672","long":"126.7692939","imageIndex":4,"items":[{"name":"와커치킨","tel":"031-919-2800","addr":"경기도 고양시 일산서구 탄현동 1497-8번지","indutype":"일반휴게음식 - 스넥","category":"restaurant"}]},{"lat":"37.689764785","long":"126.76290013","imageIndex":4,"items":[{"name":"요술집탄현점","tel":"031-923-7023","addr":"경기도 고양시 일산서구 탄현동 1575-5번지","indutype":"일반휴게음식 - 스넥","category":"restaurant"},{"name":"케이투카페(K2 Cafe)","tel":"","addr":"경기도 고양시 일산서구 탄현동 1575-5번지","indutype":"일반휴게음식 - 서양음식","category":"restaurant"},{"name":"콘서트7080","tel":"031-922-7080","addr":"경기도 고양시 일산서구 탄현동 1575-5번지","indutype":"일반휴게음식 - 일반한식","category":"restaurant"}]},{"lat":"37.694296684","long":"126.7719561","imageIndex":4,"items":[{"name":"이가부대찌개","tel":"031-922-2385","addr":"경기도 고양시 일산서구 탄현동 1504-1번지","indutype":"일반휴게음식 - 일반한식","category":"restaurant"}]},{"lat":"37.700850831","long":"126.76498483","imageIndex":4,"items":[{"name":"이모네분식","tel":"","addr":"경기도 고양시 일산서구 탄현동 121번지 큰마을대림아파트","indutype":"일반휴게음식 - 서양음식","category":"restaurant"},{"name":"현대식당","tel":"031-918-9987","addr":"경기도 고양시 일산서구 탄현동 121번지 큰마을대림아파트","indutype":"일반휴게음식 - 일반한식","category":"restaurant"}]},{"lat":"37.693345882","long":"126.76952136","imageIndex":4,"items":[{"name":"이학","tel":"031-914-2557","addr":"경기도 고양시 일산서구 탄현동 1497-13번지","indutype":"일반휴게음식 - 일반한식","category":"restaurant"}]},{"lat":"37.693517556","long":"126.76977026","imageIndex":4,"items":[{"name":"일산면옥","tel":"031-912-4317","addr":"경기도 고양시 일산서구 탄현동 1498-10번지","indutype":"일반휴게음식 - 일반한식","category":"restaurant"}]},{"lat":"37.695128737","long":"126.76449289","imageIndex":4,"items":[{"name":"일산숯불고기","tel":"031-925-0878","addr":"경기도 고양시 일산서구 탄현동 142-84번지","indutype":"일반휴게음식 - 일반한식","category":"restaurant"}]},{"lat":"37.692874371","long":"126.77257276","imageIndex":4,"items":[{"name":"일암카페","tel":"031-111-1111","addr":"경기도 고양시 일산서구 탄현동 1592-3번지","indutype":"일반휴게음식 - 서양음식","category":"restaurant"}]},{"lat":"37.694430916","long":"126.77149082","imageIndex":4,"items":[{"name":"자담치킨 탄현점","tel":"031-919-9982","addr":"경기도 고양시 일산서구 탄현동 1503-1번지","indutype":"일반휴게음식 - 스넥","category":"restaurant"}]},{"lat":"37.706286481","long":"126.76640764","imageIndex":4,"items":[{"name":"자연애소반","tel":"031-000-0000","addr":"경기도 고양시 일산서구 탄현동 98-6번지","indutype":"일반휴게음식 - 일반한식","category":"restaurant"}]},{"lat":"37.691124351","long":"126.76246492","imageIndex":4,"items":[{"name":"전주콩나물해장국","tel":"031-917-9088","addr":"경기도 고양시 일산서구 탄현동 1563-6번지","indutype":"일반휴게음식 - 일반한식","category":"restaurant"},{"name":"포지션","tel":"031-918-8820","addr":"경기도 고양시 일산서구 탄현동 1563-6번지","indutype":"일반휴게음식 - 일반한식","category":"restaurant"},{"name":"혼마참치","tel":"","addr":"경기도 고양시 일산서구 탄현동 1563-6번지","indutype":"일반휴게음식 - 일식·회집","category":"restaurant"}]},{"lat":"37.693351965","long":"126.76804739","imageIndex":4,"items":[{"name":"정정당당김대표","tel":"031-924-7169","addr":"경기도 고양시 일산서구 탄현동 1493-8번지","indutype":"일반휴게음식 - 일반한식","category":"restaurant"}]},{"lat":"37.691567849","long":"126.76346121","imageIndex":4,"items":[{"name":"제주도야지","tel":"031-912-3113","addr":"경기도 고양시 일산서구 탄현동 1573-3번지","indutype":"일반휴게음식 - 일반한식","category":"restaurant"}]},{"lat":"37.693155722","long":"126.77362633","imageIndex":4,"items":[{"name":"제주진(  )뒷고기","tel":"031-925-3878","addr":"경기도 고양시 일산서구 탄현동 1593-4번지","indutype":"일반휴게음식 - 일반한식","category":"restaurant"}]},{"lat":"37.694377489","long":"126.77645713","imageIndex":4,"items":[{"name":"종가집칼국수","tel":"031-922-3334","addr":"경기도 고양시 일산서구 탄현동 8-16번지","indutype":"일반휴게음식 - 일반한식","category":"restaurant"}]},{"lat":"37.691405516","long":"126.76338237","imageIndex":4,"items":[{"name":"주식회사 다꾸앙","tel":"031-925-5011","addr":"경기도 고양시 일산서구 탄현동 1573-4번지","indutype":"일반휴게음식 - 일반한식","category":"restaurant"},{"name":"커피벙킹","tel":"031-914-6285","addr":"경기도 고양시 일산서구 탄현동 1573-4번지","indutype":"일반휴게음식 - 서양음식","category":"restaurant"}]},{"lat":"37.694485463","long":"126.77174009","imageIndex":4,"items":[{"name":"진분식","tel":"031-918-3332","addr":"경기도 고양시 일산서구 탄현동 1491-6번지","indutype":"일반휴게음식 - 스넥","category":"restaurant"}]},{"lat":"37.69267914","long":"126.77410399","imageIndex":4,"items":[{"name":"진짜배기 명태촌","tel":"031-918-9233","addr":"경기도 고양시 일산서구 탄현동 1595-6번지","indutype":"일반휴게음식 - 일반한식","category":"restaurant"}]},{"lat":"37.693625604","long":"126.76973591","imageIndex":4,"items":[{"name":"차이니즈펍 첸","tel":"031-921-5721","addr":"경기도 고양시 일산서구 탄현동 1498-8번지","indutype":"일반휴게음식 - 중국식","category":"restaurant"}]},{"lat":"37.697293156","long":"126.76554045","imageIndex":4,"items":[{"name":"참이맛뼈다귀감자탕","tel":"031-917-5407","addr":"경기도 고양시 일산서구 탄현동 139-36번지","indutype":"일반휴게음식 - 일반한식","category":"restaurant"}]},{"lat":"37.693183015","long":"126.7737623","imageIndex":4,"items":[{"name":"청담면가","tel":"031-912-6123","addr":"경기도 고양시 일산서구 탄현동 1593-5번지","indutype":"일반휴게음식 - 일반한식","category":"restaurant"}]},{"lat":"37.689628001","long":"126.76209561","imageIndex":4,"items":[{"name":"초원양꼬치","tel":"031-815-2277","addr":"경기도 고양시 일산서구 탄현동 1574-6번지","indutype":"일반휴게음식 - 일반한식","category":"restaurant"},{"name":"펀비어킹","tel":"031-912-9233","addr":"경기도 고양시 일산서구 탄현동 1574-6번지","indutype":"일반휴게음식 - 주점","category":"restaurant"}]},{"lat":"37.693930897","long":"126.7692134","imageIndex":4,"items":[{"name":"추억의","tel":"031-903-1490","addr":"경기도 고양시 일산서구 탄현동 1497-2번지","indutype":"일반휴게음식 - 주점","category":"restaurant"}]},{"lat":"37.696515042","long":"126.76840025","imageIndex":4,"items":[{"name":"치킨마루 탄현점","tel":"031-922-9980","addr":"경기도 고양시 일산서구 탄현동 1479번지","indutype":"일반휴게음식 - 일반한식","category":"restaurant"},{"name":"카페이맛","tel":"031-911-4557","addr":"경기도 고양시 일산서구 탄현동 1479번지","indutype":"일반휴게음식 - 스넥","category":"restaurant"}]},{"lat":"37.694322846","long":"126.77151383","imageIndex":4,"items":[{"name":"치킨트럭(탄현점)","tel":"031-922-9902","addr":"경기도 고양시 일산서구 탄현동 1503-3번지","indutype":"일반휴게음식 - 스넥","category":"restaurant"}]},{"lat":"37.692233983","long":"126.77221193","imageIndex":4,"items":[{"name":"카페티프레소","tel":"031-665-3670","addr":"경기도 고양시 일산서구 탄현동 1590번지","indutype":"일반휴게음식 - 서양음식","category":"restaurant"}]},{"lat":"37.693760703","long":"126.76971281","imageIndex":4,"items":[{"name":"커피야","tel":"031-918-7583","addr":"경기도 고양시 일산서구 탄현동 1498-6번지","indutype":"일반휴게음식 - 서양음식","category":"restaurant"}]},{"lat":"37.693483994","long":"126.77565484","imageIndex":4,"items":[{"name":"커피에빠진장풍이","tel":"031-916-6644","addr":"경기도 고양시 일산서구 탄현동 1600-8번지","indutype":"일반휴게음식 - 서양음식","category":"restaurant"}]},{"lat":"37.69412987","long":"126.76959827","imageIndex":4,"items":[{"name":"코사텐","tel":"031-918-2742","addr":"경기도 고양시 일산서구 탄현동 1498번지","indutype":"일반휴게음식 - 일식·회집","category":"restaurant"}]},{"lat":"37.693265025","long":"126.77423825","imageIndex":4,"items":[{"name":"탄","tel":"031-919-4569","addr":"경기도 고양시 일산서구 탄현동 1593-8번지","indutype":"일반휴게음식 - 일반한식","category":"restaurant"}]},{"lat":"37.693236599","long":"126.76893213","imageIndex":4,"items":[{"name":"탄현깡통삼겹살","tel":"031-912-2321","addr":"경기도 고양시 일산서구 탄현동 1496-6번지","indutype":"일반휴게음식 - 일반한식","category":"restaurant"}]},{"lat":"37.693678741","long":"126.76927088","imageIndex":4,"items":[{"name":"탄현너비아니","tel":"031-924-6214","addr":"경기도 고양시 일산서구 탄현동 1497-6번지","indutype":"일반휴게음식 - 일반한식","category":"restaurant"}]},{"lat":"37.693482772","long":"126.7704053","imageIndex":4,"items":[{"name":"통일쌈밥","tel":"031-918-1514","addr":"경기도 고양시 일산서구 탄현동 1499-13번지","indutype":"일반휴게음식 - 일반한식","category":"restaurant"}]},{"lat":"37.690601056","long":"126.7621038","imageIndex":4,"items":[{"name":"팍스(Park's)","tel":"031-915-1445","addr":"경기도 고양시 일산서구 탄현동 1562-2번지","indutype":"일반휴게음식 - 서양음식","category":"restaurant"}]},{"lat":"37.694044527","long":"126.77201357","imageIndex":4,"items":[{"name":"해물이랑 아구랑","tel":"031-919-2540","addr":"경기도 고양시 일산서구 탄현동 1504-5번지","indutype":"일반휴게음식 - 일반한식","category":"restaurant"}]},{"lat":"37.693622764","long":"126.76381742","imageIndex":4,"items":[{"name":"홍루이젠 일산탄현점","tel":"031-923-3471","addr":"경기도 고양시 일산서구 탄현동 142-59번지","indutype":"일반휴게음식 - 스넥","category":"restaurant"}]},{"lat":"37.693462938","long":"126.76948698","imageIndex":4,"items":[{"name":"회.찜","tel":"031-911-0528","addr":"경기도 고양시 일산서구 탄현동 1497-11번지","indutype":"일반휴게음식 - 일반한식","category":"restaurant"}]}]