[{"lat":"37.768371332","long":"127.16469229","imageIndex":4,"items":[{"name":"6남매별빛촌","tel":"031-542-0695","addr":"경기도 포천시 소흘읍 직동리 436번지","indutype":"일반휴게음식 - 일반한식","category":"restaurant"},{"name":"육남매별빛촌","tel":"542-0695","addr":"경기도 포천시 소흘읍 직동리 436번지 1층","indutype":"음식 - 한식","category":"restaurant"}]},{"lat":"37.766179568","long":"127.16646934","imageIndex":4,"items":[{"name":"갤러리가삼","tel":"031-543-2272","addr":"경기도 포천시 소흘읍 직동리 96-10번지","indutype":"일반휴게음식 - 서양음식","category":"restaurant"},{"name":"갤러리가삼","tel":"543-2272","addr":"경기도 포천시 소흘읍 직동리 96-10번지","indutype":"음식 - 커피 등","category":"restaurant"}]},{"lat":"37.772286758","long":"127.16078502","imageIndex":4,"items":[{"name":"골목집예당","tel":"","addr":"경기도 포천시 소흘읍 직동리 359-6번지","indutype":"일반휴게음식 - 일반한식","category":"restaurant"}]},{"lat":"37.776875607","long":"127.1651989","imageIndex":4,"items":[{"name":"광릉내생고기연탄구이","tel":"031-5447-0993","addr":"경기도 포천시 소흘읍 직동리 329-1번지","indutype":"일반휴게음식 - 일반한식","category":"restaurant"},{"name":"광릉내연탄구이","tel":"542-1123","addr":"경기도 포천시 소흘읍 직동리 329-1번지","indutype":"음식 - 한식","category":"restaurant"}]},{"lat":"37.781177423","long":"127.16859105","imageIndex":4,"items":[{"name":"광릉수목원 카페프로방스","tel":"031-866-0058","addr":"경기도 포천시 소흘읍 직동리 217번지","indutype":"일반휴게음식 - 서양음식","category":"restaurant"}]},{"lat":"37.772320779","long":"127.16228331","imageIndex":4,"items":[{"name":"그냥포차","tel":"070-8883-7791","addr":"경기도 포천시 소흘읍 직동리 355-1번지 1층","indutype":"일반휴게음식 - 주점","category":"restaurant"},{"name":"유앤미 치킨","tel":"543-9285","addr":"경기도 포천시 소흘읍 직동리 355-1번지 1층","indutype":"음식 - 치킨등","category":"restaurant"},{"name":"유앤미치킨","tel":"031-543-9285","addr":"경기도 포천시 소흘읍 직동리 355-1번지","indutype":"일반휴게음식 - 스넥","category":"restaurant"},{"name":"철원 막국수","tel":"031-541-8547","addr":"경기도 포천시 소흘읍 직동리 355-1번지","indutype":"일반휴게음식 - 일반한식","category":"restaurant"},{"name":"학림 부대찌개 닭갈비","tel":"02-111-1111","addr":"경기도 포천시 소흘읍 직동리 355-1번지","indutype":"일반휴게음식 - 일반한식","category":"restaurant"},{"name":"학림부대찌개 딝갈비","tel":"544-3014","addr":"경기도 포천시 소흘읍 직동리 355-1번지 1층","indutype":"음식 - 한식","category":"restaurant"}]},{"lat":"37.779597853","long":"127.1641946","imageIndex":4,"items":[{"name":"날마다좋은날","tel":"031-544-7142","addr":"경기도 포천시 소흘읍 직동리 323-4번지","indutype":"일반휴게음식 - 일반한식","category":"restaurant"}]},{"lat":"37.77420838","long":"127.16549954","imageIndex":4,"items":[{"name":"남도한상","tel":"031-541-1378","addr":"경기도 포천시 소흘읍 직동리 165-12번지","indutype":"일반휴게음식 - 일반한식","category":"restaurant"},{"name":"남도한상","tel":"534-1378","addr":"경기도 포천시 소흘읍 직동리 165-12번지","indutype":"음식 - 한식","category":"restaurant"},{"name":"스테파니아","tel":"031-111-1111","addr":"경기도 포천시 소흘읍 직동리 165-12번지 1-2층","indutype":"일반휴게음식 - 서양음식","category":"restaurant"},{"name":"스테파니아","tel":"070-4128-3228","addr":"경기도 포천시 소흘읍 직동리 165-12번지","indutype":"음식 - 양식","category":"restaurant"}]},{"lat":"37.771623988","long":"127.16452912","imageIndex":4,"items":[{"name":"다인막국수","tel":"543-9995","addr":"경기도 포천시 소흘읍 직동리 390-1번지","indutype":"음식 - 한식","category":"restaurant"},{"name":"직동가든","tel":"031-533-7961","addr":"경기도 포천시 소흘읍 직동리 390-1번지","indutype":"일반휴게음식 - 일반한식","category":"restaurant"}]},{"lat":"37.7715684","long":"127.1656413","imageIndex":4,"items":[{"name":"닥종이 갤러리(국수카페)","tel":"543-9965","addr":"경기도 포천시 소흘읍 직동리 114-1번지","indutype":"음식 - 한식","category":"restaurant"},{"name":"닥종이갤러리","tel":"031-543-9965","addr":"경기도 포천시 소흘읍 직동리 114-1번지","indutype":"일반휴게음식 - 일반한식","category":"restaurant"}]},{"lat":"37.768181712","long":"127.16499831","imageIndex":4,"items":[{"name":"대청마루","tel":"031-541-2289","addr":"경기도 포천시 소흘읍 직동리 438-2번지","indutype":"일반휴게음식 - 일반한식","category":"restaurant"},{"name":"대청마루","tel":"541-2289","addr":"경기도 포천시 소흘읍 직동리 438-2번지","indutype":"음식 - 한식","category":"restaurant"},{"name":"대청마루","tel":"541-2289","addr":"경기도 포천시 소흘읍 직동리 438-2번지","indutype":"음식 - 한식","category":"restaurant"}]},{"lat":"37.763093709","long":"127.16975367","imageIndex":4,"items":[{"name":"도자기까페D토","tel":"031-1111-1111","addr":"경기도 포천시 소흘읍 직동리 579번지 B동 1층","indutype":"일반휴게음식 - 서양음식","category":"restaurant"},{"name":"도자기카페D토","tel":"-","addr":"경기도 포천시 소흘읍 직동리 579번지 B동 1층","indutype":"음식 - 커피 등","category":"restaurant"},{"name":"카페수목원","tel":"544-5783","addr":"경기도 포천시 소흘읍 직동리 579번지 B동 1층","indutype":"음식 - 커피 등","category":"restaurant"},{"name":"카페수목원","tel":"031-544-5783","addr":"경기도 포천시 소흘읍 직동리 579번지 B동 1층","indutype":"일반휴게음식 - 서양음식","category":"restaurant"}]},{"lat":"37.773290802","long":"127.15777933","imageIndex":4,"items":[{"name":"동이호박오리","tel":"031-543-3534","addr":"경기도 포천시 소흘읍 직동리 377-1,377-6","indutype":"일반휴게음식 - 일반한식","category":"restaurant"}]},{"lat":"37.76734264","long":"127.16585903","imageIndex":4,"items":[{"name":"뜨락 떡갈비","tel":"031-544-0008","addr":"경기도 포천시 소흘읍 직동리 98-2번지 1층","indutype":"일반휴게음식 - 일반한식","category":"restaurant"}]},{"lat":"37.771931812","long":"127.15667554","imageIndex":4,"items":[{"name":"뜰안에밥상","tel":"031-542-0868","addr":"경기도 포천시 소흘읍 직동리 383-10번지","indutype":"일반휴게음식 - 일반한식","category":"restaurant"}]},{"lat":"37.775704407","long":"127.16517364","imageIndex":4,"items":[{"name":"라빈느","tel":"031-543-9903","addr":"경기도 포천시 소흘읍 직동리 165-35","indutype":"일반휴게음식 - 서양음식","category":"restaurant"},{"name":"라빈느","tel":"543-9903","addr":"경기도 포천시 소흘읍 직동리 165-35번지","indutype":"음식 - 경양식","category":"restaurant"}]},{"lat":"37.784291721","long":"127.1642502","imageIndex":4,"items":[{"name":"맨도롱또똣","tel":"070-887-1004","addr":"경기도 포천시 소흘읍 직동리 249-1번지","indutype":"음식 - 한식","category":"restaurant"}]},{"lat":"37.781041932","long":"127.16231339","imageIndex":4,"items":[{"name":"민들레울","tel":"031-543-0981","addr":"경기도 포천시 소흘읍 직동리 289-2번지","indutype":"일반휴게음식 - 일반한식","category":"restaurant"},{"name":"민들레울","tel":"543-0981","addr":"경기도 포천시 소흘읍 직동리 289-2번지","indutype":"음식 - 한식","category":"restaurant"}]},{"lat":"37.774569791","long":"127.1647512","imageIndex":4,"items":[{"name":"민락농원","tel":"544-4279","addr":"경기도 포천시 소흘읍 직동리 348-1번지","indutype":"음식 - 한식","category":"restaurant"},{"name":"민락농원","tel":"031-544-4379","addr":"경기도 포천시 소흘읍 직동리 348-1번지","indutype":"일반휴게음식 - 일반한식","category":"restaurant"}]},{"lat":"37.780816661","long":"127.16886268","imageIndex":4,"items":[{"name":"밀크앤치즈 (MILK N CHEEZ)","tel":"","addr":"경기도 포천시 소흘읍 직동리 220-28번지","indutype":"일반휴게음식 - 서양음식","category":"restaurant"}]},{"lat":"37.766404868","long":"127.16642443","imageIndex":4,"items":[{"name":"봄카페","tel":"543-1977","addr":"경기도 포천시 소흘읍 직동리 96-7번지","indutype":"음식 - 커피 등","category":"restaurant"},{"name":"봄카페","tel":"031-111-1111","addr":"경기도 포천시 소흘읍 직동리 96-7번지","indutype":"일반휴게음식 - 서양음식","category":"restaurant"}]},{"lat":"37.775065919","long":"127.16430961","imageIndex":4,"items":[{"name":"불타는삼겹","tel":"542-3392","addr":"경기도 포천시 소흘읍 직동리 347-1번지 나동 1층","indutype":"음식 - 한식","category":"restaurant"}]},{"lat":"37.76643136","long":"127.16681037","imageIndex":4,"items":[{"name":"빈어스","tel":"031-544-8484","addr":"경기도 포천시 소흘읍 직동리 87-3번지","indutype":"일반휴게음식 - 일반한식","category":"restaurant"}]},{"lat":"37.783291251","long":"127.16455453","imageIndex":4,"items":[{"name":"산마을 나드리","tel":"541-3566","addr":"경기도 포천시 소흘읍 직동리 247번지","indutype":"음식 - 한식","category":"restaurant"},{"name":"산마을나드리","tel":"031-541-3566","addr":"경기도 포천시 소흘읍 직동리 247번지","indutype":"일반휴게음식 - 일반한식","category":"restaurant"}]},{"lat":"37.773036512","long":"127.15931109","imageIndex":4,"items":[{"name":"산촌","tel":"031-000-0000","addr":"경기도 포천시 소흘읍 직동리 380-2번지","indutype":"일반휴게음식 - 일반한식","category":"restaurant"}]},{"lat":"37.784841562","long":"127.16405841","imageIndex":4,"items":[{"name":"삼낙촌","tel":"031-543-8881","addr":"경기도 포천시 소흘읍 직동리 249-7번지 1층","indutype":"일반휴게음식 - 일반한식","category":"restaurant"},{"name":"삼낙촌","tel":"543-8881","addr":"경기도 포천시 소흘읍 직동리 249-7번지","indutype":"음식 - 한식","category":"restaurant"}]},{"lat":"37.769515723","long":"127.16455858","imageIndex":4,"items":[{"name":"소반","tel":"544-1324","addr":"경기도 포천시 소흘읍 직동리 420-4번지","indutype":"음식 - 한식","category":"restaurant"},{"name":"소반","tel":"031-544-1324","addr":"경기도 포천시 소흘읍 직동리 420-4번지 1층","indutype":"일반휴게음식 - 일반한식","category":"restaurant"}]},{"lat":"37.763652426","long":"127.16966413","imageIndex":4,"items":[{"name":"수목원 정 담은 밥상","tel":"031-542-7836","addr":"경기도 포천시 소흘읍 직동리 513번지 1층","indutype":"일반휴게음식 - 일반한식","category":"restaurant"}]},{"lat":"37.77298745","long":"127.16230745","imageIndex":4,"items":[{"name":"수목원가든","tel":"031-541-3336","addr":"경기도 포천시 소흘읍 직동리 351-3번지","indutype":"일반휴게음식 - 일반한식","category":"restaurant"}]},{"lat":"37.772480308","long":"127.16422453","imageIndex":4,"items":[{"name":"수목원레스토랑","tel":"031-541-9700","addr":"경기도 포천시 소흘읍 직동리 350-2번지","indutype":"일반휴게음식 - 일반한식","category":"restaurant"}]},{"lat":"37.769822465","long":"127.16425281","imageIndex":4,"items":[{"name":"수한막국수","tel":"031-541-7224","addr":"경기도 포천시 소흘읍 직동리 399-4번지","indutype":"일반휴게음식 - 일반한식","category":"restaurant"}]},{"lat":"37.752040752","long":"127.16852606","imageIndex":4,"items":[{"name":"숲속카페/주식회사아리프로퍼티","tel":"031-1111-0000","addr":"경기도 포천시 소흘읍 직동리 산50-18번지","indutype":"일반휴게음식 - 서양음식","category":"restaurant"}]},{"lat":"37.774848429","long":"127.16522852","imageIndex":4,"items":[{"name":"쉐리퐁듀","tel":"031-000-0000","addr":"경기도 포천시 소흘읍 직동리 165-22번지","indutype":"일반휴게음식 - 서양음식","category":"restaurant"},{"name":"옛골토속음식","tel":"031-544-9108","addr":"경기도 포천시 소흘읍 직동리 165-22번지","indutype":"일반휴게음식 - 일반한식","category":"restaurant"}]},{"lat":"37.768342771","long":"127.16580448","imageIndex":4,"items":[{"name":"신나라찐빵만두신나라주막","tel":"0505-302-7070","addr":"경기도 포천시 소흘읍 직동리 99-4번지","indutype":"일반휴게음식 - 일반한식","category":"restaurant"}]},{"lat":"37.772377232","long":"127.16050146","imageIndex":4,"items":[{"name":"신비한 사주 공간 카페","tel":"031-000-0000","addr":"경기도 포천시 소흘읍 직동리 359-2번지","indutype":"일반휴게음식 - 서양음식","category":"restaurant"}]},{"lat":"37.766873723","long":"127.16616443","imageIndex":4,"items":[{"name":"심가네영양돌솥","tel":"031-543-6543","addr":"경기도 포천시 소흘읍 직동리 96-8번지","indutype":"일반휴게음식 - 일반한식","category":"restaurant"}]},{"lat":"37.771678729","long":"127.16402984","imageIndex":4,"items":[{"name":"쌈도둑들","tel":"542-7787","addr":"경기도 포천시 소흘읍 직동리 389-1번지","indutype":"음식 - 한식","category":"restaurant"},{"name":"쌈도둑들","tel":"031-542-7787","addr":"경기도 포천시 소흘읍 직동리 389-1번지","indutype":"일반휴게음식 - 일반한식","category":"restaurant"}]},{"lat":"37.773092085","long":"127.15816483","imageIndex":4,"items":[{"name":"아젤리아","tel":"070-7077-8147","addr":"경기도 포천시 소흘읍 직동리 381-1번지","indutype":"일반휴게음식 - 서양음식","category":"restaurant"}]},{"lat":"37.780563383","long":"127.16308426","imageIndex":4,"items":[{"name":"압구정 레스토랑","tel":"543-4922","addr":"경기도 포천시 소흘읍 직동리 282-2번지","indutype":"음식 - 한식","category":"restaurant"},{"name":"압구정레스토랑","tel":"031-543-4922","addr":"경기도 포천시 소흘읍 직동리 282-2번지","indutype":"일반휴게음식 - 일반한식","category":"restaurant"}]},{"lat":"37.762597366","long":"127.17033134","imageIndex":4,"items":[{"name":"어울림(Oullim)","tel":"02-111-1111","addr":"경기도 포천시 소흘읍 직동리 607번지","indutype":"일반휴게음식 - 일반한식","category":"restaurant"}]},{"lat":"37.783347122","long":"127.16322649","imageIndex":4,"items":[{"name":"여울목","tel":"031-543-0311","addr":"경기도 포천시 소흘읍 직동리 268-8번지","indutype":"일반휴게음식 - 일반한식","category":"restaurant"}]},{"lat":"37.771120405","long":"127.16383568","imageIndex":4,"items":[{"name":"윌","tel":"031-541-1414","addr":"경기도 포천시 소흘읍 직동리 394-3번지","indutype":"일반휴게음식 - 서양음식","category":"restaurant"},{"name":"윌","tel":"031-541-1414","addr":"경기도 포천시 소흘읍 직동리 394-3번지","indutype":"일반휴게음식 - 서양음식","category":"restaurant"},{"name":"한가 정통 어죽","tel":"544-4930","addr":"경기도 포천시 소흘읍 직동리 394-3번지","indutype":"음식 - 한식","category":"restaurant"},{"name":"한가정통어죽","tel":"031-544-4930","addr":"경기도 포천시 소흘읍 직동리 394-3번지 나동","indutype":"일반휴게음식 - 일반한식","category":"restaurant"}]},{"lat":"37.775703984","long":"127.16548011","imageIndex":4,"items":[{"name":"음악창꼬","tel":"031-542-0939","addr":"경기도 포천시 소흘읍 직동리 165-8번지","indutype":"일반휴게음식 - 서양음식","category":"restaurant"}]},{"lat":"37.773071992","long":"127.15973112","imageIndex":4,"items":[{"name":"이디야(광릉수목원점)","tel":"031-544-1222","addr":"경기도 포천시 소흘읍 직동리 362-7번지","indutype":"일반휴게음식 - 서양음식","category":"restaurant"},{"name":"이디야광릉수목원점","tel":"544-1222","addr":"경기도 포천시 소흘읍 직동리 362-7번지","indutype":"음식 - 커피 등","category":"restaurant"}]},{"lat":"37.765927176","long":"127.16655957","imageIndex":4,"items":[{"name":"전라도여수 돌게랑꽃게랑","tel":"541-0622","addr":"경기도 포천시 소흘읍 직동리 96-9번지 가동 1층","indutype":"음식 - 한식","category":"restaurant"},{"name":"전라도여수 들게랑꽃게랑","tel":"031-541-0622","addr":"경기도 포천시 소흘읍 직동리 96-9번지 가동 1층","indutype":"일반휴게음식 - 일반한식","category":"restaurant"},{"name":"커피에 반하다","tel":"031-542-9008","addr":"경기도 포천시 소흘읍 직동리 96-9번지 외1필지","indutype":"일반휴게음식 - 서양음식","category":"restaurant"}]},{"lat":"37.774595788","long":"127.16550038","imageIndex":4,"items":[{"name":"지리산흙돼지생소금구이","tel":"542-5034","addr":"경기도 포천시 소흘읍 직동리 165-11번지","indutype":"음식 - 한식","category":"restaurant"},{"name":"지리산흙돼지소금구이","tel":"031-542-5034","addr":"경기도 포천시 소흘읍 직동리 165-11번지","indutype":"일반휴게음식 - 일반한식","category":"restaurant"}]},{"lat":"37.783841248","long":"127.16424922","imageIndex":4,"items":[{"name":"진아뜨미술관","tel":"031-543-3511","addr":"경기도 포천시 소흘읍 직동리 245-1번지","indutype":"일반휴게음식 - 서양음식","category":"restaurant"}]},{"lat":"37.772124252","long":"127.16103438","imageIndex":4,"items":[{"name":"천년 (수목원점)","tel":"031-541-1913","addr":"경기도 포천시 소흘읍 직동리 358-2번지","indutype":"일반휴게음식 - 일반한식","category":"restaurant"}]},{"lat":"37.772845877","long":"127.16038895","imageIndex":4,"items":[{"name":"카페 소흘","tel":"","addr":"경기도 포천시 소흘읍 직동리 362-3번지 1층","indutype":"일반휴게음식 - 서양음식","category":"restaurant"}]},{"lat":"37.772981428","long":"127.16008279","imageIndex":4,"items":[{"name":"카페바움","tel":"031-542-8969","addr":"경기도 포천시 소흘읍 직동리 363-4번지","indutype":"일반휴게음식 - 스넥","category":"restaurant"},{"name":"카페바움","tel":"542-8969","addr":"경기도 포천시 소흘읍 직동리 363-4번지","indutype":"음식 - 커피 등","category":"restaurant"}]},{"lat":"37.770876279","long":"127.16447075","imageIndex":4,"items":[{"name":"카페썸","tel":"031-544-8777","addr":"경기도 포천시 소흘읍 직동리 393-1번지 나동 2층","indutype":"일반휴게음식 - 서양음식","category":"restaurant"}]},{"lat":"37.758571874","long":"127.16908533","imageIndex":4,"items":[{"name":"캐미커피","tel":"031-541-6694","addr":"경기도 포천시 소흘읍 직동리 54-4번지","indutype":"일반휴게음식 - 서양음식","category":"restaurant"}]},{"lat":"37.771814661","long":"127.16345128","imageIndex":4,"items":[{"name":"팜 스토리","tel":"542-2891","addr":"경기도 포천시 소흘읍 직동리 355-5번지","indutype":"음식 - 한식","category":"restaurant"},{"name":"팜스토리(FARM STORY)","tel":"031-542-2891","addr":"경기도 포천시 소흘읍 직동리 355-5번지","indutype":"일반휴게음식 - 일반한식","category":"restaurant"}]},{"lat":"37.772710097","long":"127.16086538","imageIndex":4,"items":[{"name":"평창생고기","tel":"541-3057","addr":"경기도 포천시 소흘읍 직동리 364-1번지","indutype":"음식 - 한식","category":"restaurant"}]},{"lat":"37.771814181","long":"127.16380313","imageIndex":4,"items":[{"name":"하드림해물칼국수","tel":"541-8005","addr":"경기도 포천시 소흘읍 직동리 389-2번지","indutype":"음식 - 한식","category":"restaurant"},{"name":"하드림해물칼국수","tel":"031-541-8005","addr":"경기도 포천시 소흘읍 직동리 389-2번지","indutype":"일반휴게음식 - 일반한식","category":"restaurant"}]},{"lat":"37.783426952","long":"127.16414616","imageIndex":4,"items":[{"name":"해물나라","tel":"031-542-6860","addr":"경기도 포천시 소흘읍 직동리 261-1번지","indutype":"일반휴게음식 - 일반한식","category":"restaurant"}]},{"lat":"37.76945303","long":"127.16428605","imageIndex":4,"items":[{"name":"홍어본가","tel":"031-544-8801","addr":"경기도 포천시 소흘읍 직동리 400번지","indutype":"일반휴게음식 - 일반한식","category":"restaurant"}]},{"lat":"37.779984606","long":"127.16467219","imageIndex":4,"items":[{"name":"효담","tel":"031-544-3787","addr":"경기도 포천시 소흘읍 직동리 321-3","indutype":"일반휴게음식 - 일반한식","category":"restaurant"},{"name":"효담(곤드레산채밥상)","tel":"544-3787","addr":"경기도 포천시 소흘읍 직동리 321-3번지","indutype":"음식 - 한식","category":"restaurant"}]}]