[{"lat":"37.687461952","long":"126.86692623","imageIndex":17,"items":[{"name":"벽제바이크","tel":"031-964-5567","addr":"경기도 고양시 덕양구 통일로","indutype":"레져용품 - 스포츠·레져용품","category":"other"}]},{"lat":"37.644465405","long":"126.91111489","imageIndex":17,"items":[{"name":"영가화원","tel":"031-353-5445","addr":"경기도 고양시 덕양구 통일로","indutype":"문화.취미 - 화원","category":"other"}]},{"lat":"37.646802527","long":"126.90441539","imageIndex":17,"items":[{"name":"원낚시","tel":"02-354-6911","addr":"경기도 고양시 덕양구 통일로","indutype":"레져용품 - 스포츠·레져용품","category":"other"}]},{"lat":"37.725515962","long":"126.84330865","imageIndex":17,"items":[{"name":"은진당","tel":"031-963-9913","addr":"경기도 고양시 덕양구 통일로","indutype":"신변잡화 - 액세서리","category":"other"}]},{"lat":"37.713711612","long":"126.84873238","imageIndex":17,"items":[{"name":"제일수족관","tel":"x031-944-0412","addr":"경기도 고양시 덕양구 통일로","indutype":"문화.취미 - 수족관","category":"other"}]},{"lat":"37.714652425","long":"126.85167918","imageIndex":17,"items":[{"name":"종화네돌솥추어탕","tel":"031-962-8828","addr":"경기도 고양시 덕양구 통일로 1126","indutype":"","category":"other"}]},{"lat":"37.687710332","long":"126.86359263","imageIndex":17,"items":[{"name":"주연테크컴퓨터(관산점)","tel":"031-962-3345","addr":"경기도 고양시 덕양구 통일로","indutype":"사무통신 - 컴퓨터","category":"other"}]},{"lat":"37.693991943","long":"126.85769636","imageIndex":17,"items":[{"name":"찰스맨하탄","tel":"031-963-0850","addr":"경기도 고양시 덕양구 통일로","indutype":"의류 - 정장","category":"other"}]},{"lat":"37.687046408","long":"126.86597467","imageIndex":17,"items":[{"name":"태후사랑","tel":"031-964-0016","addr":"경기도 고양시 덕양구 통일로","indutype":"신변잡화 - 기타잡화","category":"other"}]},{"lat":"37.687099952","long":"126.86553243","imageIndex":17,"items":[{"name":"한울COMPANY","tel":"031-967-1116","addr":"경기도 고양시 덕양구 통일로","indutype":"사무통신 - 통신기기","category":"other"}]}]