[{"lat":"37.205192528","long":"127.03963859","imageIndex":7,"items":[{"name":"KGC라이프엔진","tel":"031-234-5346","addr":"경기도 화성시 병점동 431-9번지 신창프라자 206호","indutype":"건강식품 - 기타건강식품","category":"food"},{"name":"넘버원 점핑 다이어트","tel":"031-8067-5288","addr":"경기도 화성시 병점동 431-9번지 신창프라자 503호","indutype":"건강식품 - 기타건강식품","category":"food"},{"name":"떡부자","tel":"031-225-0059","addr":"경기도 화성시 병점동 431-9번지 신창프라자 108호","indutype":"음료식품 - 제과점","category":"food"},{"name":"착한 아이스크림 (병점점)","tel":"","addr":"경기도 화성시 병점동 431-9번지 신창프라자 112호","indutype":"음료식품 - 기타음료식품","category":"food"}]},{"lat":"37.21402711","long":"127.0522833","imageIndex":7,"items":[{"name":"광동상사","tel":"031-232-6403","addr":"경기도 화성시 병점동 206-2","indutype":"음료식품 - 기타음료식품","category":"food"}]},{"lat":"37.205381711","long":"127.03975132","imageIndex":7,"items":[{"name":"국선생","tel":"031-231-9413","addr":"경기도 화성시 병점동 431-3번지 두산탑프라자 108호","indutype":"음료식품 - 기타음료식품","category":"food"},{"name":"착한축산 깔꾸리","tel":"031-239-9235","addr":"경기도 화성시 병점동 431-3번지 두산탑프라자 103호","indutype":"음료식품 - 정육점","category":"food"}]},{"lat":"37.208137544","long":"127.0438419","imageIndex":7,"items":[{"name":"달콤찹찹","tel":"","addr":"경기도 화성시 병점동 842-22번지 1층 104호","indutype":"음료식품 - 기타음료식품","category":"food"},{"name":"한우자리","tel":"031-236-7075","addr":"경기도 화성시 병점동 842-22번지","indutype":"음료식품 - 정육점","category":"food"}]},{"lat":"37.207966502","long":"127.0433912","imageIndex":7,"items":[{"name":"델리퀸 (병점점)","tel":"031-221-2476","addr":"경기도 화성시 병점동 259-15번지 우남프라자 114호","indutype":"음료식품 - 정육점","category":"food"},{"name":"빠네르뱅","tel":"031-226-6846","addr":"경기도 화성시 병점동 259-15번지 우남프라자 지1층 B103호","indutype":"음료식품 - 제과점","category":"food"}]},{"lat":"37.210832267","long":"127.04200708","imageIndex":7,"items":[{"name":"두용농산","tel":"","addr":"경기도 화성시 병점동 831-6번지 301호","indutype":"음료식품 - 기타음료식품","category":"food"}]},{"lat":"37.214579713","long":"127.04455514","imageIndex":7,"items":[{"name":"떡고을","tel":"031-231-1467","addr":"경기도 화성시 병점동 845-2번지 한마음프라자 107호","indutype":"음료식품 - 제과점","category":"food"},{"name":"마카롱언니","tel":"031-223-0429","addr":"경기도 화성시 병점동 845-2번지 한마음프라자 201호","indutype":"음료식품 - 기타음료식품","category":"food"},{"name":"오마이점핑FIT","tel":"","addr":"경기도 화성시 병점동 845-2번지 한마음프라자 301호","indutype":"건강식품 - 기타건강식품","category":"food"},{"name":"하이축산한우야","tel":"031-234-5990","addr":"경기도 화성시 병점동 845-2번지 한마음프라자 108호","indutype":"음료식품 - 정육점","category":"food"},{"name":"호리커피컴퍼니","tel":"031-234-1285","addr":"경기도 화성시 병점동 845-2번지 한마음프라자 305호","indutype":"음료식품 - 기타음료식품","category":"food"}]},{"lat":"37.204967837","long":"127.03775728","imageIndex":7,"items":[{"name":"뚜레쥬르 병점금강(4)","tel":"031-222-5479","addr":"경기도 화성시 병점동 406-1번지 금강타운 102호,103호","indutype":"음료식품 - 제과점","category":"food"}]},{"lat":"37.207662382","long":"127.03622648","imageIndex":7,"items":[{"name":"미담원","tel":"031-234-4942","addr":"경기도 화성시 병점동 348-4번지 그린씨티 107호","indutype":"음료식품 - 기타음료식품","category":"food"},{"name":"태안건강원","tel":"031-237-8009","addr":"경기도 화성시 병점동 348-4번지 그린씨티 114호","indutype":"건강식품 - 기타건강식품","category":"food"}]},{"lat":"37.213931677","long":"127.04248185","imageIndex":7,"items":[{"name":"배스킨라빈스 화성태안점","tel":"031-234-8191","addr":"경기도 화성시 병점동 844-1번지 씨네샤르망 A동 108호","indutype":"음료식품 - 제과점","category":"food"},{"name":"브라우니yummy","tel":"031-233-8114","addr":"경기도 화성시 병점동 844-1번지 씨네샤르망 A동 106호","indutype":"음료식품 - 제과점","category":"food"}]},{"lat":"37.206525488","long":"127.04145287","imageIndex":7,"items":[{"name":"베스킨라빈스화성병점2호점","tel":"031-232-3631","addr":"경기도 화성시 병점동 314-3 1층 104~105호","indutype":"음료식품 - 제과점","category":"food"}]},{"lat":"37.21127255","long":"127.04555596","imageIndex":7,"items":[{"name":"병점도서관 구내매점","tel":"031-668-0111","addr":"경기도 화성시 병점동 823번지","indutype":"음료식품 - 기타음료식품","category":"food"}]},{"lat":"37.208381102","long":"127.04303094","imageIndex":7,"items":[{"name":"보중정육식당","tel":"031-226-0009","addr":"경기도 화성시 병점동 259-9번지 1층","indutype":"음료식품 - 정육점","category":"food"}]},{"lat":"37.214580023","long":"127.04366512","imageIndex":7,"items":[{"name":"본미가반찬","tel":"","addr":"경기도 화성시 병점동 844-5번지 리더스프라자 115호","indutype":"음료식품 - 기타음료식품","category":"food"},{"name":"우리떡절구","tel":"031-223-0139","addr":"경기도 화성시 병점동 844-5번지 리더스프라자 108호","indutype":"음료식품 - 제과점","category":"food"},{"name":"팝로스터스(POP ROASTERS)","tel":"031-111-1111","addr":"경기도 화성시 병점동 844-5번지 리더스프라자 906호","indutype":"음료식품 - 기타음료식품","category":"food"}]},{"lat":"37.208416646","long":"127.0444729","imageIndex":7,"items":[{"name":"뻥튀기 공작소 병점점","tel":"","addr":"경기도 화성시 병점동 842-17번지 1층 104호","indutype":"음료식품 - 기타음료식품","category":"food"},{"name":"전통떡사랑","tel":"031-222-3397","addr":"경기도 화성시 병점동 842-17번지","indutype":"음료식품 - 제과점","category":"food"}]},{"lat":"37.214859129","long":"127.04428491","imageIndex":7,"items":[{"name":"사과나무","tel":"031-235-2444","addr":"경기도 화성시 병점동 844-7번지 상록프라자 1층 102호","indutype":"음료식품 - 농·축·수산품","category":"food"},{"name":"장독대 병점점","tel":"031-225-4511","addr":"경기도 화성시 병점동 844-7번지 상록프라자 107호","indutype":"음료식품 - 기타음료식품","category":"food"},{"name":"파리바게트태안점","tel":"031-225-4482","addr":"경기도 화성시 병점동 844-7번지 상록프라자 104동 105호","indutype":"음료식품 - 제과점","category":"food"}]},{"lat":"37.208659731","long":"127.04502502","imageIndex":7,"items":[{"name":"삼부자축산","tel":"031-898-8844","addr":"경기도 화성시 병점동 842-14번지","indutype":"음료식품 - 정육점","category":"food"}]},{"lat":"37.211165524","long":"127.04239028","imageIndex":7,"items":[{"name":"소이퀸","tel":"031-223-0473","addr":"경기도 화성시 병점동 832-3번지 1층","indutype":"음료식품 - 기타음료식품","category":"food"}]},{"lat":"37.211021938","long":"127.04061025","imageIndex":7,"items":[{"name":"썸타롱","tel":"","addr":"경기도 화성시 병점동 828-2번지 1층","indutype":"음료식품 - 기타음료식품","category":"food"}]},{"lat":"37.208498453","long":"127.04238889","imageIndex":7,"items":[{"name":"에이치엘식품","tel":"031-421-9903","addr":"경기도 화성시 병점동 822번지 느치미마을주공2단지 205동 1003호","indutype":"건강식품 - 기타건강식품","category":"food"},{"name":"제일청과","tel":"031-111-1111","addr":"경기도 화성시 병점동 822번지 느치미마을주공2단지 205동 1003호","indutype":"음료식품 - 농·축·수산품","category":"food"}]},{"lat":"37.2004997","long":"127.03411697","imageIndex":7,"items":[{"name":"에이치엘화성","tel":"","addr":"경기도 화성시 병점동 556번지 동원빌라 102호","indutype":"건강식품 - 기타건강식품","category":"food"}]},{"lat":"37.208941401","long":"127.03780417","imageIndex":7,"items":[{"name":"영신한우전문점","tel":"031-222-2262","addr":"경기도 화성시 병점동 345-18번지","indutype":"음료식품 - 정육점","category":"food"}]},{"lat":"37.205382281","long":"127.03787012","imageIndex":7,"items":[{"name":"오복떡집","tel":"031-267-2346","addr":"경기도 화성시 병점동 364-4번지 1층","indutype":"음료식품 - 제과점","category":"food"}]},{"lat":"37.202047327","long":"127.0414506","imageIndex":7,"items":[{"name":"오복제과","tel":"031-234-1735","addr":"경기도 화성시 병점동 490-2번지 하이코아 102호","indutype":"음료식품 - 제과점","category":"food"}]},{"lat":"37.210824108","long":"127.03933715","imageIndex":7,"items":[{"name":"왕성수산","tel":"031-236-8252","addr":"경기도 화성시 병점동 826-2번지 1층 102호","indutype":"음료식품 - 농·축·수산품","category":"food"}]},{"lat":"37.213661291","long":"127.04270702","imageIndex":7,"items":[{"name":"우리축산물직거래자처","tel":"031-238-9233","addr":"경기도 화성시 병점동 844-1번지 씨네샤르망 B동 105호","indutype":"음료식품 - 정육점","category":"food"}]},{"lat":"37.204787589","long":"127.03789238","imageIndex":7,"items":[{"name":"유환산양산삼","tel":"031-352-4330","addr":"경기도 화성시 병점동 870번지 화성병점에스케이뷰 101동 402호","indutype":"음료식품 - 농·축·수산품","category":"food"}]},{"lat":"37.205193156","long":"127.03755462","imageIndex":7,"items":[{"name":"육대가정육","tel":"031-222-0169","addr":"경기도 화성시 병점동 365-5번지 102호","indutype":"음료식품 - 정육점","category":"food"}]},{"lat":"37.206381493","long":"127.04092335","imageIndex":7,"items":[{"name":"종로떡집","tel":"031-239-3321","addr":"경기도 화성시 병점동 316번지","indutype":"음료식품 - 제과점","category":"food"}]},{"lat":"37.206770601","long":"127.03533616","imageIndex":7,"items":[{"name":"준준과일야채","tel":"","addr":"경기도 화성시 병점동 381-17번지 병점제일타운 107호","indutype":"음료식품 - 농·축·수산품","category":"food"},{"name":"중국식품점","tel":"","addr":"경기도 화성시 병점동 381-17번지 병점제일타운 113호","indutype":"음료식품 - 기타음료식품","category":"food"}]},{"lat":"37.205553096","long":"127.03914311","imageIndex":7,"items":[{"name":"참좋은사람들","tel":"031-234-9009","addr":"경기도 화성시 병점동 432번지 103호","indutype":"음료식품 - 제과점","category":"food"}]},{"lat":"37.208245555","long":"127.04416864","imageIndex":7,"items":[{"name":"쿡Soon","tel":"031-225-9200","addr":"경기도 화성시 병점동 842-19번지 1층 3호","indutype":"음료식품 - 농·축·수산품","category":"food"}]},{"lat":"37.208524683","long":"127.04472079","imageIndex":7,"items":[{"name":"파리바게뜨(병점제일점)","tel":"031-234-8010","addr":"경기도 화성시 병점동 842-16번지 101,102호","indutype":"음료식품 - 제과점","category":"food"}]},{"lat":"37.213189481","long":"127.05147161","imageIndex":7,"items":[{"name":"파리바게트 동탄중앙점","tel":"","addr":"경기도 화성시 병점동 202번지 1층","indutype":"음료식품 - 제과점","category":"food"}]},{"lat":"37.201885052","long":"127.04172085","imageIndex":7,"items":[{"name":"파워점핑다이어트","tel":"","addr":"경기도 화성시 병점동 491-1번지 임광프라자 3층 301호","indutype":"건강식품 - 기타건강식품","category":"food"}]},{"lat":"37.202804316","long":"127.04109052","imageIndex":7,"items":[{"name":"한사랑 정육","tel":"02-0000-0000","addr":"경기도 화성시 병점동 481번지 1층 101호","indutype":"음료식품 - 정육점","category":"food"}]},{"lat":"37.202884777","long":"127.0430055","imageIndex":7,"items":[{"name":"햇살무늬떡사랑","tel":"031-231-2195","addr":"경기도 화성시 병점동 485한신@상가A-103","indutype":"음료식품 - 제과점","category":"food"}]},{"lat":"37.205246988","long":"127.03833191","imageIndex":7,"items":[{"name":"행복한밥상","tel":"070-4250-1838","addr":"경기도 화성시 병점동 407-4번지 105호","indutype":"음료식품 - 기타음료식품","category":"food"}]},{"lat":"37.20822065","long":"127.03753348","imageIndex":7,"items":[{"name":"홍삼향기","tel":"031-235-5335","addr":"경기도 화성시 병점동 345-77번지","indutype":"건강식품 - 홍삼제품","category":"food"}]}]