[{"lat":"37.652726429","long":"127.31580116","imageIndex":0,"items":[{"name":"(주)르노삼성마석점","tel":"031-594-9696","addr":"경기도 남양주시 화도읍 마석우리 105-1번지","indutype":"자동차정비 유지 - 자동차정비","category":"car"}]},{"lat":"37.651164336","long":"127.31368692","imageIndex":0,"items":[{"name":"1급경춘자동차공업사","tel":"031-594-8100","addr":"경기도 남양주시 화도읍 마석우리 86-3번지","indutype":"자동차정비 유지 - 자동차정비","category":"car"}]},{"lat":"37.659780482","long":"127.30210656","imageIndex":0,"items":[{"name":"3급월드자동차공업사","tel":"031-594-3555","addr":"경기도 남양주시 화도읍 마석우리 481-3번지","indutype":"자동차정비 유지 - 자동차정비","category":"car"}]},{"lat":"37.6508398","long":"127.31032008","imageIndex":0,"items":[{"name":"구.남델코대리점","tel":"031-595-2359","addr":"경기도 남양주시 화도읍 마석우리 251-1","indutype":"자동차정비 유지 - 자동차부품","category":"car"}]},{"lat":"37.655138536","long":"127.30640552","imageIndex":0,"items":[{"name":"국제오토바이상사","tel":"031-593-1289","addr":"경기도 남양주시 화도읍 마석우리 297-6번지","indutype":"자동차판매 - 이륜차판매","category":"car"}]},{"lat":"37.654727732","long":"127.30498732","imageIndex":0,"items":[{"name":"글로벌세차장","tel":"","addr":"경기도 남양주시 화도읍 마석우리 305-8번지","indutype":"자동차정비 유지 - 세차장","category":"car"},{"name":"홍반장카센터","tel":"031-592-7786","addr":"경기도 남양주시 화도읍 마석우리 305-8번지 1층","indutype":"자동차정비 유지 - 카인테리어","category":"car"}]},{"lat":"37.652195676","long":"127.31549297","imageIndex":0,"items":[{"name":"금호타이어 마석점","tel":"031-511-1009","addr":"경기도 남양주시 화도읍 마석우리 103-1번지 1층","indutype":"자동차정비 유지 - 자동차시트·타이어","category":"car"}]},{"lat":"37.650641214","long":"127.30698779","imageIndex":0,"items":[{"name":"대명바이크샵","tel":"031-593-6199","addr":"경기도 남양주시 화도읍 마석우리 267-8번지 1층","indutype":"자동차판매 - 이륜차판매","category":"car"}]},{"lat":"37.652922734","long":"127.30265697","imageIndex":0,"items":[{"name":"덴트 팩토리","tel":"031-528-6263","addr":"경기도 남양주시 화도읍 마석우리 336-3번지","indutype":"자동차정비 유지 - 자동차정비","category":"car"}]},{"lat":"37.658945834","long":"127.3008226","imageIndex":0,"items":[{"name":"동화모터스","tel":"031-594-5462","addr":"경기도 남양주시 화도읍 마석우리 535-12","indutype":"자동차정비 유지 - 자동차정비","category":"car"}]},{"lat":"37.651389213","long":"127.30691151","imageIndex":0,"items":[{"name":"마석형제오토바이","tel":"031-594-5109","addr":"경기도 남양주시 화도읍 마석우리 267-7번지","indutype":"자동차판매 - 이륜차판매","category":"car"},{"name":"형제자동차공업사","tel":"031-593-0265","addr":"경기도 남양주시 화도읍 마석우리 267-7번지 1층","indutype":"자동차정비 유지 - 자동차정비","category":"car"}]},{"lat":"37.65655496","long":"127.30566334","imageIndex":0,"items":[{"name":"바스터즈모터스","tel":"031-593-1212","addr":"경기도 남양주시 화도읍 마석우리 366-5번지 방실빌 1층","indutype":"자동차정비 유지 - 자동차정비","category":"car"}]},{"lat":"37.658251139","long":"127.30474094","imageIndex":0,"items":[{"name":"세차킹","tel":"","addr":"경기도 남양주시 화도읍 마석우리 359-10번지 노아빌1차 B04호","indutype":"자동차정비 유지 - 세차장","category":"car"}]},{"lat":"37.659614073","long":"127.30377183","imageIndex":0,"items":[{"name":"송라오토바이센타","tel":"031-594-3469","addr":"경기도 남양주시 화도읍 마석우리 353-7번지 1층 상가 101호(백호빌)","indutype":"자동차판매 - 이륜차판매","category":"car"}]},{"lat":"37.651359171","long":"127.30807855","imageIndex":0,"items":[{"name":"신진자동차공업사","tel":"031-511-5189","addr":"경기도 남양주시 화도읍 마석우리 264-3번지 마석우리 264-3외2필지","indutype":"자동차정비 유지 - 자동차정비","category":"car"}]},{"lat":"37.65183936","long":"127.31051684","imageIndex":0,"items":[{"name":"에이스세차장","tel":"031-559-1318","addr":"경기도 남양주시 화도읍 마석우리 279-2번지 100호","indutype":"자동차정비 유지 - 세차장","category":"car"}]},{"lat":"37.651811089","long":"127.31099266","imageIndex":0,"items":[{"name":"에이스카크리닉","tel":"031-593-5109","addr":"경기도 남양주시 화도읍 마석우리 279-3번지","indutype":"자동차정비 유지 - 자동차정비","category":"car"}]},{"lat":"37.658557957","long":"127.30454953","imageIndex":0,"items":[{"name":"제이비(JB)","tel":"031-111-1111","addr":"경기도 남양주시 화도읍 마석우리 359-13번지 101호,102호","indutype":"자동차정비 유지 - 자동차부품","category":"car"}]},{"lat":"37.651755225","long":"127.31168366","imageIndex":0,"items":[{"name":"주식회사 우보","tel":"","addr":"경기도 남양주시 화도읍 마석우리 249-2번지","indutype":"자동차정비 유지 - 주차장","category":"car"}]},{"lat":"37.65175077","long":"127.30993856","imageIndex":0,"items":[{"name":"창진카세차장","tel":"031-593-4943","addr":"경기도 남양주시 화도읍 마석우리 276-3번지","indutype":"자동차정비 유지 - 자동차정비","category":"car"}]},{"lat":"37.65185867","long":"127.31346318","imageIndex":0,"items":[{"name":"킹카샵(KING CAR-SHOP)","tel":"031-1111-1111","addr":"경기도 남양주시 화도읍 마석우리 92-8번지","indutype":"자동차정비 유지 - 자동차부품","category":"car"}]},{"lat":"37.652838804","long":"127.30022027","imageIndex":0,"items":[{"name":"타이어월드마석점","tel":"031-593-8088","addr":"경기도 남양주시 화도읍 마석우리 산 109-2","indutype":"자동차정비 유지 - 자동차시트·타이어","category":"car"}]},{"lat":"37.650283713","long":"127.30935461","imageIndex":0,"items":[{"name":"행복세차","tel":"031-585-8614","addr":"경기도 남양주시 화도읍 마석우리 255-24번지 2층 주차장내","indutype":"자동차정비 유지 - 세차장","category":"car"}]},{"lat":"37.657612876","long":"127.30063595","imageIndex":0,"items":[{"name":"화도읍사무소","tel":"031-590-4851","addr":"경기도 남양주시 화도읍 마석우리 548번지","indutype":"자동차정비 유지 - 주차장","category":"car"}]},{"lat":"37.657218915","long":"127.3032182","imageIndex":16,"items":[{"name":"(주)메쓰메카수학전문학원","tel":"070-4219-1745","addr":"경기도 남양주시 화도읍 마석우리 383-6번지 중흥프라자 601호","indutype":"학원 - 보습학원","category":"study"},{"name":"더쎈수학학원","tel":"031-595-7311","addr":"경기도 남양주시 화도읍 마석우리 383-6번지 중흥프라자 404호","indutype":"학원 - 보습학원","category":"study"},{"name":"수리공작소학원","tel":"031-591-5131","addr":"경기도 남양주시 화도읍 마석우리 383-6번지 중흥프라자 801호 일부","indutype":"학원 - 보습학원","category":"study"},{"name":"예중앙음악학원","tel":"031-511-1311","addr":"경기도 남양주시 화도읍 마석우리 383-6번지 중흥프라자 4층 403호","indutype":"학원 - 예·체능계학원","category":"study"},{"name":"토즈스터디센터 마석독서실","tel":"031-595-0801","addr":"경기도 남양주시 화도읍 마석우리 383-6번지 중흥프라자 8층","indutype":"학원 - 독서실","category":"study"},{"name":"투명괴물나라미술학원","tel":"031-559-5363","addr":"경기도 남양주시 화도읍 마석우리 383-6번지 402호 401호,402호","indutype":"학원 - 예·체능계학원","category":"study"},{"name":"투명괴물나라미술학원","tel":"031-559-5363","addr":"경기도 남양주시 화도읍 마석우리 383-6번지 401,402호","indutype":"학원 - 예·체능계학원","category":"study"}]},{"lat":"37.657726145","long":"127.30569076","imageIndex":16,"items":[{"name":"SClass에스클래스학원","tel":"031-559-0953","addr":"경기도 남양주시 화도읍 마석우리 404-10번지 3층","indutype":"학원 - 보습학원","category":"study"},{"name":"챠니영어마을어학원/주식회사 챠니아카데미","tel":"031-559-8890","addr":"경기도 남양주시 화도읍 마석우리 404-10번지 루비빌딩 3층, 4층","indutype":"학원 - 외국어학원","category":"study"}]},{"lat":"37.657309933","long":"127.30285593","imageIndex":16,"items":[{"name":"SEM쌤영수학원","tel":"031-595-9224","addr":"경기도 남양주시 화도읍 마석우리 383-5번지 메디칼프라자 403호","indutype":"학원 - 보습학원","category":"study"},{"name":"강한수학학원","tel":"031-594-2006","addr":"경기도 남양주시 화도읍 마석우리 383-5번지 501,502호","indutype":"학원 - 보습학원","category":"study"},{"name":"마석강무체육관","tel":"031-559-8279","addr":"경기도 남양주시 화도읍 마석우리 383-5번지 메디칼프라자 304호","indutype":"회원제형태 - 학원","category":"study"},{"name":"명문제이에쓰수학학원","tel":"031-511-4846","addr":"경기도 남양주시 화도읍 마석우리 383-5번지 메디칼프라자 301호","indutype":"학원 - 보습학원","category":"study"},{"name":"영재바둑학원","tel":"031-595-0369","addr":"경기도 남양주시 화도읍 마석우리 383-5번지 메디칼프라자 503호","indutype":"학원 - 기타 교육기관","category":"study"},{"name":"제니에듀학원","tel":"031-511-2213","addr":"경기도 남양주시 화도읍 마석우리 383-5번지 메디칼프라자 401호 402호","indutype":"학원 - 보습학원","category":"study"},{"name":"지앤비영어학원","tel":"031-594-0582","addr":"경기도 남양주시 화도읍 마석우리 383-5번지 메디칼프라자 404호 405호","indutype":"학원 - 외국어학원","category":"study"}]},{"lat":"37.656224943","long":"127.30435877","imageIndex":16,"items":[{"name":"공신독서실","tel":"031-511-6388","addr":"경기도 남양주시 화도읍 마석우리 324-19번지 우형빌딩 2층","indutype":"학원 - 독서실","category":"study"}]},{"lat":"37.650978244","long":"127.31929529","imageIndex":16,"items":[{"name":"그랜드힐어린이집[아이행복]","tel":"031-559-3020","addr":"경기도 남양주시 화도읍 마석우리 71번지 그랜드힐","indutype":"학원 - 유아원","category":"study"}]},{"lat":"37.649970418","long":"127.31882642","imageIndex":16,"items":[{"name":"꿈꾸는 아이들어린이집[아이행복]","tel":"031-511-2518","addr":"경기도 남양주시 화도읍 마석우리 71-4번지 그랜드힐","indutype":"학원 - 유아원","category":"study"}]},{"lat":"37.65675036","long":"127.30323898","imageIndex":16,"items":[{"name":"꿈자람학원","tel":"","addr":"경기도 남양주시 화도읍 마석우리 383-9번지 별나라프라자 602호","indutype":"학원 - 보습학원","category":"study"},{"name":"선음악교습소","tel":"031-1592-0012","addr":"경기도 남양주시 화도읍 마석우리 383-9번지 별나라프라자 603호","indutype":"학원 - 예·체능계학원","category":"study"},{"name":"청람학원","tel":"031-559-4209","addr":"경기도 남양주시 화도읍 마석우리 383-9번지 404,405호","indutype":"학원 - 보습학원","category":"study"},{"name":"코리아방송뷰티아카데미학원","tel":"031-593-2349","addr":"경기도 남양주시 화도읍 마석우리 383-9번지 별나라프라자 704호","indutype":"학원 - 기능학원","category":"study"},{"name":"패러다임수학교습소","tel":"031-595-5628","addr":"경기도 남양주시 화도읍 마석우리 383-9번지 별나라프라자 601호","indutype":"회원제형태 - 학원","category":"study"}]},{"lat":"37.649978973","long":"127.31899643","imageIndex":16,"items":[{"name":"꿈터 어린이집[아이행복]","tel":"031-559-5042","addr":"경기도 남양주시 화도읍 마석우리 71-4번지 그랜드힐 203동 102호","indutype":"학원 - 유아원","category":"study"},{"name":"꿈터 어린이집[아이행복]","tel":"031-559-5042","addr":"경기도 남양주시 화도읍 마석우리 71-4번지 그랜드힐 203동 102호","indutype":"학원 - 유아원","category":"study"}]},{"lat":"37.654141699","long":"127.30160798","imageIndex":16,"items":[{"name":"남양주송라초등학교병설유치원[아이행복]","tel":"031-595-9284","addr":"경기도 남양주시 화도읍 마석우리 590번지 송라초등학교","indutype":"학원 - 유치원","category":"study"}]},{"lat":"37.656140374","long":"127.30571832","imageIndex":16,"items":[{"name":"뉴리더스학원","tel":"031-595-0579","addr":"경기도 남양주시 화도읍 마석우리 299-10번지 201호","indutype":"학원 - 보습학원","category":"study"},{"name":"한길학원","tel":"031-511-8811","addr":"경기도 남양주시 화도읍 마석우리 299-10번지 우리빌딩 403호","indutype":"학원 - 보습학원","category":"study"}]},{"lat":"37.654001838","long":"127.29990761","imageIndex":16,"items":[{"name":"다움","tel":"070-4211-7210","addr":"경기도 남양주시 화도읍 마석우리 525번지 포스필하우스 101동 402호","indutype":"회원제형태 - 학원","category":"study"}]},{"lat":"37.658252727","long":"127.30057051","imageIndex":16,"items":[{"name":"더프라임학원","tel":"031-559-5665","addr":"경기도 남양주시 화도읍 마석우리 541-1번지 5층 일부","indutype":"학원 - 보습학원","category":"study"},{"name":"마석창조의아침미술학원","tel":"031-595-7709","addr":"경기도 남양주시 화도읍 마석우리 541-1번지 2층","indutype":"학원 - 예·체능계학원","category":"study"},{"name":"서울커피교육학원","tel":"031-559-1236","addr":"경기도 남양주시 화도읍 마석우리 541-1번지 5층 일부","indutype":"학원 - 기능학원","category":"study"}]},{"lat":"37.656198928","long":"127.30396203","imageIndex":16,"items":[{"name":"라임수학교습소","tel":"031-510-7922","addr":"경기도 남양주시 화도읍 마석우리 324-3번지 3층","indutype":"회원제형태 - 학원","category":"study"}]},{"lat":"37.658391139","long":"127.30283761","imageIndex":16,"items":[{"name":"마석 김정호 개인교습","tel":"031-595-7079","addr":"경기도 남양주시 화도읍 마석우리 349번지 중흥에스클래스 102동 1층 2호","indutype":"학원 - 기타 교육기관","category":"study"},{"name":"에스제이플러스 스터디룸(SJ+ studyroom)","tel":"","addr":"경기도 남양주시 화도읍 마석우리 349번지 중흥S-클래스 102동 405호","indutype":"학원 - 기타 교육기관","category":"study"}]},{"lat":"37.659088535","long":"127.30493699","imageIndex":16,"items":[{"name":"마석깊은생각학원","tel":"031-595-8477","addr":"경기도 남양주시 화도읍 마석우리 417-3번지 2층 202호","indutype":"학원 - 보습학원","category":"study"}]},{"lat":"37.655806962","long":"127.30573963","imageIndex":16,"items":[{"name":"마석백탑입시학원","tel":"031-515-5978","addr":"경기도 남양주시 화도읍 마석우리 300번지 3층","indutype":"학원 - 보습학원","category":"study"},{"name":"마석요양보호사교육원","tel":"031-594-3020","addr":"경기도 남양주시 화도읍 마석우리 300번지 2층","indutype":"학원 - 기능학원","category":"study"}]},{"lat":"37.654142365","long":"127.30838458","imageIndex":16,"items":[{"name":"마석어린이집[아이행복]","tel":"031-593-0673","addr":"경기도 남양주시 화도읍 마석우리 219-77번지","indutype":"학원 - 유아원","category":"study"},{"name":"마석어린이집[아이행복]","tel":"031-593-0673","addr":"경기도 남양주시 화도읍 마석우리 219-77번지","indutype":"학원 - 유아원","category":"study"},{"name":"마석제이어린이집[아이행복]","tel":"031-559-0673","addr":"경기도 남양주시 화도읍 마석우리 219-77번지","indutype":"학원 - 유아원","category":"study"}]},{"lat":"37.655057945","long":"127.30621254","imageIndex":16,"items":[{"name":"마석엡실론수학교습소","tel":"031-514-2051","addr":"경기도 남양주시 화도읍 마석우리 297-12번지 4층 일부","indutype":"학원 - 보습학원","category":"study"},{"name":"버닝댄스학원","tel":"031-593-0009","addr":"경기도 남양주시 화도읍 마석우리 297-12번지 3층 일부","indutype":"학원 - 예·체능계학원","category":"study"},{"name":"봄내어린이집[아이행복]","tel":"031-593-0674","addr":"경기도 남양주시 화도읍 마석우리 297-12번지","indutype":"학원 - 유아원","category":"study"}]},{"lat":"37.653804449","long":"127.30666072","imageIndex":16,"items":[{"name":"마석요리학원","tel":"031-595-4431","addr":"경기도 남양주시 화도읍 마석우리 220-14번지 3층","indutype":"학원 - 기능학원","category":"study"}]},{"lat":"37.658024885","long":"127.30513667","imageIndex":16,"items":[{"name":"마석유니랭스어학원","tel":"031-591-7297","addr":"경기도 남양주시 화도읍 마석우리 360-5번지 4층 상일빌딩","indutype":"회원제형태 - 학원","category":"study"},{"name":"한우리독서토론논술마석논술교습소","tel":"031-595-0959","addr":"경기도 남양주시 화도읍 마석우리 360-5번지 상일빌딩 302호","indutype":"회원제형태 - 학원","category":"study"}]},{"lat":"37.656948484","long":"127.30327377","imageIndex":16,"items":[{"name":"마석이레학원","tel":"070-7753-7655","addr":"경기도 남양주시 화도읍 마석우리 383-8번지 별나라타워 502호","indutype":"학원 - 보습학원","category":"study"},{"name":"윤선생영어교실마석교육센터","tel":"031-575-0579","addr":"경기도 남양주시 화도읍 마석우리 383-8번지 별나라타워 5층 501호","indutype":"학원 - 외국어학원","category":"study"},{"name":"하늘교육마석영재교육학원","tel":"031-593-2925","addr":"경기도 남양주시 화도읍 마석우리 383-8번지 별나라타워 5층 502호","indutype":"학원 - 보습학원","category":"study"}]},{"lat":"37.658219208","long":"127.30313157","imageIndex":16,"items":[{"name":"마석이엠아이학원","tel":"031-559-9012","addr":"경기도 남양주시 화도읍 마석우리 349번지 중흥에스클래스 202호","indutype":"학원 - 보습학원","category":"study"},{"name":"모던음악교습소","tel":"031-593-9312","addr":"경기도 남양주시 화도읍 마석우리 349번지 중흥에스클래스 상가동 201호","indutype":"학원 - 예·체능계학원","category":"study"},{"name":"어깨동무어린이집[아이행복]","tel":"031-559-0142","addr":"경기도 남양주시 화도읍 마석우리 349번지 중흥에스클래스","indutype":"학원 - 유아원","category":"study"}]},{"lat":"37.657419114","long":"127.30243706","imageIndex":16,"items":[{"name":"마석정철어학원","tel":"031-594-0504","addr":"경기도 남양주시 화도읍 마석우리 383-4번지 캠퍼스프라자 501동 506호","indutype":"학원 - 외국어학원","category":"study"},{"name":"큐맥스수학학원","tel":"031-511-3377","addr":"경기도 남양주시 화도읍 마석우리 383-4번지 캠퍼스프라자 504호","indutype":"학원 - 보습학원","category":"study"},{"name":"화도검도관","tel":"031-559-7345","addr":"경기도 남양주시 화도읍 마석우리 383-4번지 캠퍼스프라자 302동 303호","indutype":"학원 - 예·체능계학원","category":"study"}]},{"lat":"37.654753173","long":"127.30207505","imageIndex":16,"items":[{"name":"마석지캠프미래학원","tel":"031-511-1884","addr":"경기도 남양주시 화도읍 마석우리 588번지 (301호,302호)","indutype":"학원 - 보습학원","category":"study"},{"name":"소리나무숲 음악학원","tel":"02-474-5844","addr":"경기도 남양주시 화도읍 마석우리 588번지 유일프라자 301호","indutype":"학원 - 예·체능계학원","category":"study"},{"name":"승률보습이룸영어수학학원","tel":"031-594-7972","addr":"경기도 남양주시 화도읍 마석우리 588번지 유일프라자 201호","indutype":"학원 - 보습학원","category":"study"},{"name":"용인대 이레 천마태권도","tel":"031-595-7972","addr":"경기도 남양주시 화도읍 마석우리 588번지 유일프라자","indutype":"학원 - 예·체능계학원","category":"study"},{"name":"유일독서실","tel":"031-559-5593","addr":"경기도 남양주시 화도읍 마석우리 588번지 유일프라자 401동 403호","indutype":"학원 - 독서실","category":"study"},{"name":"이레천마피아노보습학원","tel":"031-595-7972","addr":"경기도 남양주시 화도읍 마석우리 588번지 유일프라자 501호 501~502호","indutype":"학원 - 보습학원","category":"study"},{"name":"차일드유퐁피듀학원","tel":"031-591-7071","addr":"경기도 남양주시 화도읍 마석우리 588번지 유일프라자 302호","indutype":"학원 - 보습학원","category":"study"},{"name":"하리샘의 미술놀이터 미술교습소","tel":"070-8771-9251","addr":"경기도 남양주시 화도읍 마석우리 588번지 유일프라자 1층 107호","indutype":"학원 - 예·체능계학원","category":"study"},{"name":"하리샘의미술놀이터미술학원","tel":"031-594-9251","addr":"경기도 남양주시 화도읍 마석우리 588번지 유일프라자 204호","indutype":"학원 - 예·체능계학원","category":"study"}]},{"lat":"37.655085906","long":"127.30585002","imageIndex":16,"items":[{"name":"마석청어람학원","tel":"031-595-0340","addr":"경기도 남양주시 화도읍 마석우리 297-9번지 2층","indutype":"학원 - 보습학원","category":"study"}]},{"lat":"37.65744712","long":"127.30205186","imageIndex":16,"items":[{"name":"마석큐이엠어학원","tel":"031-592-2961","addr":"경기도 남양주시 화도읍 마석우리 383-2번지 501호,803호","indutype":"학원 - 보습학원","category":"study"},{"name":"블럭캠프","tel":"031-515-2665","addr":"경기도 남양주시 화도읍 마석우리 383-2번지 중앙프라자 401호","indutype":"학원 - 기타 교육기관","category":"study"},{"name":"예진음악학원","tel":"031-595-8731","addr":"경기도 남양주시 화도읍 마석우리 383-2번지 중앙프라자 802호","indutype":"학원 - 예·체능계학원","category":"study"},{"name":"중앙오투독서실","tel":"031-595-7729","addr":"경기도 남양주시 화도읍 마석우리 383-2번지 중앙프라자 801호 일부","indutype":"학원 - 독서실","category":"study"},{"name":"키움영수학원","tel":"031-594-5373","addr":"경기도 남양주시 화도읍 마석우리 383-2번지 중앙프라자 803호","indutype":"학원 - 보습학원","category":"study"}]},{"lat":"37.657419471","long":"127.30582551","imageIndex":16,"items":[{"name":"뮤직아카데미실용음악학원","tel":"031-591-3217","addr":"경기도 남양주시 화도읍 마석우리 404-7번지","indutype":"학원 - 예·체능계학원","category":"study"}]},{"lat":"37.65328379","long":"127.31285719","imageIndex":16,"items":[{"name":"사단법인 행복한숲(HAPPY FOREST)","tel":"031-511-6563","addr":"경기도 남양주시 화도읍 마석우리 128-2번지 702호","indutype":"학원 - 기타 교육기관","category":"study"}]},{"lat":"37.655833631","long":"127.30235136","imageIndex":16,"items":[{"name":"상일학원","tel":"031-511-6475","addr":"경기도 남양주시 화도읍 마석우리 396번지 신명스카이뷰그린 상가동 201호 신명스카이뷰그린 일부","indutype":"학원 - 보습학원","category":"study"},{"name":"자연아이어린이집[아이행복]","tel":"031-512-1240","addr":"경기도 남양주시 화도읍 마석우리 396번지 신명스카이뷰그린 관리동1층","indutype":"학원 - 유아원","category":"study"}]},{"lat":"37.657141082","long":"127.30193731","imageIndex":16,"items":[{"name":"새물결수학학원","tel":"031-511-5078","addr":"경기도 남양주시 화도읍 마석우리 383-1번지 성훈빌딩 401호","indutype":"회원제형태 - 학원","category":"study"}]},{"lat":"37.655137044","long":"127.29991213","imageIndex":16,"items":[{"name":"세움주니어미술영어학원","tel":"031-595-5903","addr":"경기도 남양주시 화도읍 마석우리 521-6번지 2층","indutype":"학원 - 예·체능계학원","category":"study"}]},{"lat":"37.654610002","long":"127.29810822","imageIndex":16,"items":[{"name":"셀파우등생교실","tel":"031-921-1624","addr":"경기도 남양주시 화도읍 마석우리 600번지 마석힐즈파크푸르지오 106동 103호","indutype":"학원 - 기타 교육기관","category":"study"},{"name":"퀸즈잉글리시영어교습소","tel":"031-592-0377","addr":"경기도 남양주시 화도읍 마석우리 600번지 2층 207호 힐즈파크 푸르지오 상가 (마석)","indutype":"학원 - 외국어학원","category":"study"}]},{"lat":"37.660831577","long":"127.30330075","imageIndex":16,"items":[{"name":"쇼팽피아노학원","tel":"031-511-8274","addr":"경기도 남양주시 화도읍 마석우리 444-1번지 3층","indutype":"학원 - 예·체능계학원","category":"study"}]},{"lat":"37.655446347","long":"127.30582882","imageIndex":16,"items":[{"name":"신마석고시원","tel":"031-591-2550","addr":"경기도 남양주시 화도읍 마석우리 298-12번지 3층,4층","indutype":"학원 - 독서실","category":"study"}]},{"lat":"37.65696898","long":"127.30229926","imageIndex":16,"items":[{"name":"신명기타음악교습소","tel":"","addr":"경기도 남양주시 화도읍 마석우리 392-5번지 신명프라자 3층 302호 일부","indutype":"학원 - 예·체능계학원","category":"study"},{"name":"피아노와 바이올린 음악교습소","tel":"031-511-0352","addr":"경기도 남양주시 화도읍 마석우리 392-5번지 신명프라자 302호","indutype":"학원 - 예·체능계학원","category":"study"}]},{"lat":"37.659449788","long":"127.30459847","imageIndex":16,"items":[{"name":"씨엔피에듀케이션학원","tel":"031-515-3355","addr":"경기도 남양주시 화도읍 마석우리 384-8번지 A동 301호, 401호, B동 301호, 401호","indutype":"학원 - 보습학원","category":"study"}]},{"lat":"37.651081727","long":"127.32101814","imageIndex":16,"items":[{"name":"열린문학원","tel":"031-514-5140","addr":"경기도 남양주시 화도읍 마석우리 76-18번지 (덕양프라자,1층103,104호)","indutype":"학원 - 보습학원","category":"study"}]},{"lat":"37.654224205","long":"127.29746076","imageIndex":16,"items":[{"name":"열린숲어린이집[아이행복]","tel":"031-558-0533","addr":"경기도 남양주시 화도읍 마석우리 519-6번지 마석힐즈파크푸르지오어린이집","indutype":"학원 - 유아원","category":"study"},{"name":"힐즈파크어린이집[아이행복]","tel":"070-7799-7210","addr":"경기도 남양주시 화도읍 마석우리 519-6번지 힐즈파크푸르지오","indutype":"학원 - 유아원","category":"study"}]},{"lat":"37.65536137","long":"127.30027566","imageIndex":16,"items":[{"name":"예성음악학원","tel":"031-593-0243","addr":"경기도 남양주시 화도읍 마석우리 570-2번지 코오롱빌딩 2층","indutype":"학원 - 예·체능계학원","category":"study"}]},{"lat":"37.65691429","long":"127.30254836","imageIndex":16,"items":[{"name":"예컴음악전문학원","tel":"031-511-8579","addr":"경기도 남양주시 화도읍 마석우리 392-4번지 마석주립빌딩 5층","indutype":"학원 - 예·체능계학원","category":"study"}]},{"lat":"37.658664447","long":"127.3051846","imageIndex":16,"items":[{"name":"이륙플러스학원","tel":"031-511-2616","addr":"경기도 남양주시 화도읍 마석우리 416-1번지 신정빌딩 3층","indutype":"학원 - 보습학원","category":"study"},{"name":"이륙학원","tel":"031-511-2616","addr":"경기도 남양주시 화도읍 마석우리 416-1번지 1층 일부","indutype":"학원 - 보습학원","category":"study"}]},{"lat":"37.65597579","long":"127.2995755","imageIndex":16,"items":[{"name":"이삼유치원[아이행복]","tel":"031-554-0023","addr":"경기도 남양주시 화도읍 마석우리 567번지","indutype":"학원 - 유치원","category":"study"}]},{"lat":"37.656582259","long":"127.30202573","imageIndex":16,"items":[{"name":"좋은아가어린이집[아이행복]","tel":"031-594-4242","addr":"경기도 남양주시 화도읍 마석우리 396번지 신명스카이뷰그린 101동 103호","indutype":"학원 - 유아원","category":"study"}]},{"lat":"37.657938814","long":"127.30356108","imageIndex":16,"items":[{"name":"중흥사과나무어린이집[아이행복]","tel":"031-559-1103","addr":"경기도 남양주시 화도읍 마석우리 349번지 중흥에스-클래스 105동 103호","indutype":"학원 - 유아원","category":"study"}]},{"lat":"37.660109107","long":"127.30396649","imageIndex":16,"items":[{"name":"한국파워점핑줄넘기","tel":"","addr":"경기도 남양주시 화도읍 마석우리 440번지 1층","indutype":"학원 - 예·체능계학원","category":"study"}]},{"lat":"37.657637706","long":"127.30504444","imageIndex":16,"items":[{"name":"한길2관학원","tel":"031-511-8811","addr":"경기도 남양주시 화도읍 마석우리 363-3번지 3층","indutype":"학원 - 보습학원","category":"study"}]},{"lat":"37.652224236","long":"127.30802543","imageIndex":16,"items":[{"name":"해비치고시텔","tel":"031-593-8809","addr":"경기도 남양주시 화도읍 마석우리 292-17번지 에스엘프라자 8층","indutype":"학원 - 독서실","category":"study"},{"name":"해오름","tel":"031-8028-1772","addr":"경기도 남양주시 화도읍 마석우리 292-17번지 SL프라자 6층","indutype":"학원 - 독서실","category":"study"}]},{"lat":"37.657612876","long":"127.30063595","imageIndex":16,"items":[{"name":"화도읍주민자치위원회","tel":"031-593-8493","addr":"경기도 남양주시 화도읍 마석우리 548번지","indutype":"학원 - 기타 교육기관","category":"study"}]},{"lat":"37.662999584","long":"127.30810353","imageIndex":16,"items":[{"name":"화도초등학교병설유치원[아이행복]","tel":"031-594-6481","addr":"경기도 남양주시 화도읍 마석우리 194-3번지","indutype":"학원 - 유치원","category":"study"}]},{"lat":"37.656920968","long":"127.29990791","imageIndex":17,"items":[{"name":"(주)새마음씨앤에스","tel":"031-555-0222","addr":"경기도 남양주시 화도읍 마석우리 560-2번지 미진파크빌 1층 101호 상가","indutype":"용역 서비스 - 종합용역","category":"other"}]},{"lat":"37.652057596","long":"127.30974718","imageIndex":17,"items":[{"name":"(주)신세계렌트카","tel":"031-511-1870","addr":"경기도 남양주시 화도읍 마석우리 288-7번지 1층","indutype":"여행 - 렌터카","category":"other"}]},{"lat":"37.657309933","long":"127.30285593","imageIndex":17,"items":[{"name":"(주)예스코경기동부고객센터","tel":"031-522-5861","addr":"경기도 남양주시 화도읍 마석우리 383-5 메디칼프라자 503","indutype":"용역 서비스 - 종합용역","category":"other"},{"name":"라온통신","tel":"031-593-8322","addr":"경기도 남양주시 화도읍 마석우리 383-5번지 메디칼프라자 108호","indutype":"사무통신 - 통신기기","category":"other"},{"name":"라임이네 옷짱","tel":"","addr":"경기도 남양주시 화도읍 마석우리 383-5번지 메디칼프라자 107-1호","indutype":"의류 - 정장","category":"other"},{"name":"마석텔레콤","tel":"031-593-3017","addr":"경기도 남양주시 화도읍 마석우리 383-5번지 메디칼프라자 106호","indutype":"사무통신 - 통신기기","category":"other"},{"name":"블럭팡 남양주 마석점","tel":"031-625-1335","addr":"경기도 남양주시 화도읍 마석우리 383-5번지 메디칼프라자 305호","indutype":"서적문구 - 완구점","category":"other"},{"name":"이브몰","tel":"070-8621-1707","addr":"경기도 남양주시 화도읍 마석우리 383-5번지 메디칼프라자 506호","indutype":"신변잡화 - 기타잡화","category":"other"},{"name":"이브몰","tel":"070-8621-1707","addr":"경기도 남양주시 화도읍 마석우리 383-5번지 메디칼프라자 506호","indutype":"신변잡화 - 기타잡화","category":"other"}]},{"lat":"37.654445062","long":"127.3063007","imageIndex":17,"items":[{"name":"11번가","tel":"031-511-1045","addr":"경기도 남양주시 화도읍 마석우리 297-4","indutype":"의류 - 정장","category":"other"},{"name":"뚜버기","tel":"031-528-6263","addr":"경기도 남양주시 화도읍 마석우리 297-4번지","indutype":"신변잡화 - 신발","category":"other"}]},{"lat":"37.654921242","long":"127.29974129","imageIndex":17,"items":[{"name":"Dagyeomi 핸드메이드","tel":"031-000-0000","addr":"경기도 남양주시 화도읍 마석우리 520-25번지 해피하우스 501호","indutype":"신변잡화 - 기타잡화","category":"other"}]},{"lat":"37.661061403","long":"127.32213736","imageIndex":17,"items":[{"name":"DnS","tel":"070-8731-7828","addr":"경기도 남양주시 화도읍 마석우리 599번지 신마석서희스타힐스 102동 802호","indutype":"전기제품 - 기타전기제품","category":"other"}]},{"lat":"37.658024885","long":"127.30513667","imageIndex":17,"items":[{"name":"GS25남양주마석점","tel":"","addr":"경기도 남양주시 화도읍 마석우리 360-5번지 1층 103호","indutype":"유통업 영리 - 편 의 점","category":"other"},{"name":"더 스터디 북:킹","tel":"031-559-1032","addr":"경기도 남양주시 화도읍 마석우리 360-5번지 3층","indutype":"용역 서비스 - 사무서비스","category":"other"}]},{"lat":"37.651081727","long":"127.32101814","imageIndex":17,"items":[{"name":"GS25마석그랜드힐점","tel":"","addr":"경기도 남양주시 화도읍 마석우리 76-18번지 덕양프라자 108호","indutype":"유통업 영리 - 편 의 점","category":"other"},{"name":"은성가설","tel":"070-8201-8617","addr":"경기도 남양주시 화도읍 마석우리 76-18번지 덕양프라자 201호","indutype":"건축자재 - 기타건축자재","category":"other"}]},{"lat":"37.658947893","long":"127.32074571","imageIndex":17,"items":[{"name":"GS25마석서희점","tel":"","addr":"경기도 남양주시 화도읍 마석우리 10-22번지","indutype":"유통업 영리 - 편 의 점","category":"other"},{"name":"위드미서희점","tel":"02-1566-9902","addr":"경기도 남양주시 화도읍 마석우리 10-22번지","indutype":"유통업 영리 - 편 의 점","category":"other"}]},{"lat":"37.652054939","long":"127.31076703","imageIndex":17,"items":[{"name":"GS25마석역점","tel":"","addr":"경기도 남양주시 화도읍 마석우리 282-2번지","indutype":"유통업 영리 - 편 의 점","category":"other"}]},{"lat":"37.656226795","long":"127.3036335","imageIndex":17,"items":[{"name":"GS25마석우리점","tel":"02-2006-2485","addr":"경기도 남양주시 화도읍 마석우리 379-14","indutype":"유통업 영리 - 편 의 점","category":"other"}]},{"lat":"37.654610002","long":"127.29810822","imageIndex":17,"items":[{"name":"GS25마석푸르지오점","tel":"","addr":"경기도 남양주시 화도읍 마석우리 600번지","indutype":"유통업 영리 - 편 의 점","category":"other"},{"name":"백마크리닝 남양주13호점","tel":"","addr":"경기도 남양주시 화도읍 마석우리 600번지 마석힐즈파크푸르지오 상가동 104호","indutype":"수리서비스 - 세탁소","category":"other"},{"name":"씨클럽(C CLUB)","tel":"","addr":"경기도 남양주시 화도읍 마석우리 600번지 마석힐즈파크푸르지오 105동 1601호","indutype":"의류 - 정장","category":"other"}]},{"lat":"37.653949092","long":"127.29938613","imageIndex":17,"items":[{"name":"K전자","tel":"070-8871-4989","addr":"경기도 남양주시 화도읍 마석우리 525-20번지 103동 201호","indutype":"사무통신 - 컴퓨터","category":"other"}]},{"lat":"37.651477908","long":"127.31435679","imageIndex":17,"items":[{"name":"PAT마석점","tel":"031-511-9512","addr":"경기도 남양주시 화도읍 마석우리 84-5번지 6-8호","indutype":"레져용품 - 스포츠·레져용품","category":"other"},{"name":"가방팩토리","tel":"031-111-1111","addr":"경기도 남양주시 화도읍 마석우리 84-5번지 1층","indutype":"신변잡화 - 가방","category":"other"},{"name":"네파마석상설","tel":"031-593-7605","addr":"경기도 남양주시 화도읍 마석우리 84-5번지","indutype":"레져용품 - 스포츠·레져용품","category":"other"},{"name":"루이까스텔 남양주마석","tel":"031-513-7103","addr":"경기도 남양주시 화도읍 마석우리 84-5번지 가리온아울렛 C","indutype":"의류 - 스포츠의류","category":"other"},{"name":"엘레강스스포츠골프의류","tel":"031-592-5445","addr":"경기도 남양주시 화도읍 마석우리 84-5번지","indutype":"의류 - 정장","category":"other"},{"name":"주식회사 피앤비코리아","tel":"070-8279-5446","addr":"경기도 남양주시 화도읍 마석우리 84-5번지","indutype":"건축자재 - 조명기구","category":"other"}]},{"lat":"37.656360203","long":"127.30076694","imageIndex":17,"items":[{"name":"PC클리닉","tel":"031-593-2119","addr":"경기도 남양주시 화도읍 마석우리 557-7번지 103호","indutype":"수리서비스 - 사무·통신기기수리","category":"other"}]},{"lat":"37.656672171","long":"127.30562982","imageIndex":17,"items":[{"name":"Sweet berry 스위트베리","tel":"031-000-0000","addr":"경기도 남양주시 화도읍 마석우리 366-4번지 1층 102호","indutype":"의류 - 정장","category":"other"},{"name":"성진종합설비","tel":"031-592-3981","addr":"경기도 남양주시 화도읍 마석우리 366-4","indutype":"건축자재 - 보일러·펌프·샷시","category":"other"}]},{"lat":"37.654061543","long":"127.30828226","imageIndex":17,"items":[{"name":"가가하수구뚫음","tel":"070-8253-8695","addr":"경기도 남양주시 화도읍 마석우리 219-13번지 마석빌라 가동 107호","indutype":"용역 서비스 - 종합용역","category":"other"}]},{"lat":"37.658391139","long":"127.30283761","imageIndex":17,"items":[{"name":"가인 바이 아리(Gain by Ari)","tel":"02-6413-4312","addr":"경기도 남양주시 화도읍 마석우리 349번지 중흥S클래스 102동 205호","indutype":"회원제형태 - 기타4","category":"other"},{"name":"인섹트월드","tel":"031-591-2703","addr":"경기도 남양주시 화도읍 마석우리 349번지 중흥에스클래스 102동 806호","indutype":"회원제형태 - 기타4","category":"other"}]},{"lat":"37.657195075","long":"127.30549595","imageIndex":17,"items":[{"name":"강아지를 부탁해","tel":"031-593-6394","addr":"경기도 남양주시 화도읍 마석우리 363-9번지 1층 101호","indutype":"문화.취미 - 애완동물","category":"other"}]},{"lat":"37.656140374","long":"127.30571832","imageIndex":17,"items":[{"name":"개구리서적","tel":"031-511-4032","addr":"경기도 남양주시 화도읍 마석우리 299-10번지 103호","indutype":"서적문구 - 일반서적","category":"other"},{"name":"다움세무회계사무소","tel":"031-591-6029","addr":"경기도 남양주시 화도읍 마석우리 299-10번지","indutype":"용역 서비스 - 법률회계서비스(개인)","category":"other"},{"name":"마석 폰 월드","tel":"031-511-9144","addr":"경기도 남양주시 화도읍 마석우리 299-10번지 106호","indutype":"사무통신 - 통신기기","category":"other"},{"name":"마석복싱","tel":"031-591-8212","addr":"경기도 남양주시 화도읍 마석우리 299-10번지 우리빌딩 302호","indutype":"회원제형태 - 레져업소","category":"other"},{"name":"씨유마석심석점","tel":"031-511-4346","addr":"경기도 남양주시 화도읍 마석우리 299-10번지 101호","indutype":"유통업 영리 - 편 의 점","category":"other"},{"name":"킨텍스렌트","tel":"031-516-3434","addr":"경기도 남양주시 화도읍 마석우리 299-10번지 우리빌딩 503호","indutype":"가구 - 일반가구","category":"other"}]},{"lat":"37.657419471","long":"127.30582551","imageIndex":17,"items":[{"name":"갤러리오딘","tel":"031-559-1515","addr":"경기도 남양주시 화도읍 마석우리 404-7번지 2층","indutype":"문화.취미 - 화랑","category":"other"},{"name":"굿샵 마석점","tel":"031-524-9958","addr":"경기도 남양주시 화도읍 마석우리 404-7번지 1층","indutype":"유통업 영리 - 편 의 점","category":"other"}]},{"lat":"37.657141082","long":"127.30193731","imageIndex":17,"items":[{"name":"건축사사무소 모던아이","tel":"031-511-3354","addr":"경기도 남양주시 화도읍 마석우리 383-1번지 성훈프라자 6층 602호","indutype":"용역 서비스 - 사무서비스","category":"other"}]},{"lat":"37.654141699","long":"127.30160798","imageIndex":17,"items":[{"name":"경기마을교육공동체사회적협동조합 남양주","tel":"070-4111-0048","addr":"경기도 남양주시 화도읍 마석우리 590번지 송라초등학교","indutype":"서적문구 - 문구용품","category":"other"}]},{"lat":"37.657054083","long":"127.30071305","imageIndex":17,"items":[{"name":"경진당","tel":"031-593-0280","addr":"경기도 남양주시 화도읍 마석우리 556-4번지 101호","indutype":"건축자재 - 목재·석재·철물","category":"other"}]},{"lat":"37.660831577","long":"127.30330075","imageIndex":17,"items":[{"name":"경희대송라체육관","tel":"031-594-7370","addr":"경기도 남양주시 화도읍 마석우리 444-1번지","indutype":"회원제형태 - 기타4","category":"other"}]},{"lat":"37.655614086","long":"127.3036537","imageIndex":17,"items":[{"name":"곤 언니","tel":"","addr":"경기도 남양주시 화도읍 마석우리 326-1번지 1층","indutype":"의류 - 정장","category":"other"}]},{"lat":"37.657058943","long":"127.3058807","imageIndex":17,"items":[{"name":"골드 미","tel":"031-594-7177","addr":"경기도 남양주시 화도읍 마석우리 403-1번지 태영빌딩 1층 104호","indutype":"신변잡화 - 액세서리","category":"other"},{"name":"폰&통신","tel":"070-5111-2249","addr":"경기도 남양주시 화도읍 마석우리 403-1번지 태영빌딩","indutype":"사무통신 - 통신기기","category":"other"}]},{"lat":"37.653200166","long":"127.30690756","imageIndex":17,"items":[{"name":"골드샤인","tel":"031-511-9252","addr":"경기도 남양주시 화도읍 마석우리 220-17번지","indutype":"신변잡화 - 귀금속","category":"other"}]},{"lat":"37.654065333","long":"127.29973788","imageIndex":17,"items":[{"name":"공간미리미터","tel":"031-511-0628","addr":"경기도 남양주시 화도읍 마석우리 525-17번지 포스필하우스 102동 102호","indutype":"건축자재 - 인테리어전문","category":"other"}]},{"lat":"37.656948484","long":"127.30327377","imageIndex":17,"items":[{"name":"굿피플","tel":"031-595-1135","addr":"경기도 남양주시 화도읍 마석우리 383-8번지 별나라타워 704호","indutype":"용역 서비스 - 종합용역","category":"other"},{"name":"블럭블럭","tel":"031-511-5798","addr":"경기도 남양주시 화도읍 마석우리 383-8번지 별나라타워 4층 401호","indutype":"서적문구 - 완구점","category":"other"},{"name":"세븐일레븐마석별나라점","tel":"031-1577-0711","addr":"경기도 남양주시 화도읍 마석우리 383-8번지 별나라타워 1층 106호","indutype":"유통업 영리 - 편 의 점","category":"other"},{"name":"유스컴퍼니","tel":"031-595-4868","addr":"경기도 남양주시 화도읍 마석우리 383-8번지 별나라타워 501호","indutype":"의류 - 아동의류","category":"other"},{"name":"탑디자인","tel":"031-591-8827","addr":"경기도 남양주시 화도읍 마석우리 383-8번지 별나라타워 5층 501호내2호실","indutype":"건축자재 - 인테리어전문","category":"other"},{"name":"하바엔조이","tel":"02-1111-1111","addr":"경기도 남양주시 화도읍 마석우리 383-8번지 별나라타워 605호","indutype":"신변잡화 - 기타잡화","category":"other"}]},{"lat":"37.652808171","long":"127.30518352","imageIndex":17,"items":[{"name":"기분좋은날","tel":"031-511-7073","addr":"경기도 남양주시 화도읍 마석우리 310-6번지","indutype":"의류 - 정장","category":"other"}]},{"lat":"37.66033478","long":"127.3037974","imageIndex":17,"items":[{"name":"기쁨광고","tel":"031-595-8585","addr":"경기도 남양주시 화도읍 마석우리 441-1번지 동보플라자 101호","indutype":"용역 서비스 - 종합용역","category":"other"},{"name":"파더앤하우스","tel":"031-591-8203","addr":"경기도 남양주시 화도읍 마석우리 441-1번지 동보플라자 101호","indutype":"문화.취미 - 문화취미기타","category":"other"}]},{"lat":"37.652865147","long":"127.30049234","imageIndex":17,"items":[{"name":"기흥석재","tel":"031-511-2343","addr":"경기도 남양주시 화도읍 마석우리 527-12번지","indutype":"건축자재 - 목재·석재·철물","category":"other"}]},{"lat":"37.652054782","long":"127.30735617","imageIndex":17,"items":[{"name":"김영애뷰티테라피","tel":"031-512-5023","addr":"경기도 남양주시 화도읍 마석우리 271-3번지 상가 2층","indutype":"회원제형태 - 기타4","category":"other"},{"name":"레베카김","tel":"031-593-8143","addr":"경기도 남양주시 화도읍 마석우리 271-3번지","indutype":"의류 - 정장","category":"other"}]},{"lat":"37.655328923","long":"127.30241733","imageIndex":17,"items":[{"name":"꽃냥이샵","tel":"070-8128-3141","addr":"경기도 남양주시 화도읍 마석우리 396번지 신명스카이뷰그린 108동 102호","indutype":"의류 - 정장","category":"other"}]},{"lat":"37.66149964","long":"127.30277078","imageIndex":17,"items":[{"name":"꽃밭의사계","tel":"031-594-5445","addr":"경기도 남양주시 화도읍 마석우리 473-1번지","indutype":"문화.취미 - 화원","category":"other"}]},{"lat":"37.658252727","long":"127.30057051","imageIndex":17,"items":[{"name":"꽃이야기","tel":"031-591-2253","addr":"경기도 남양주시 화도읍 마석우리 541-1번지 102호","indutype":"문화.취미 - 화원","category":"other"},{"name":"식스그램(Six gram)","tel":"031-593-3342","addr":"경기도 남양주시 화도읍 마석우리 541-1번지 스타타워 101호","indutype":"의류 - 정장","category":"other"}]},{"lat":"37.661131572","long":"127.30224798","imageIndex":17,"items":[{"name":"꿈의숲","tel":"","addr":"경기도 남양주시 화도읍 마석우리 475번지 경춘빌라 5동 202호","indutype":"신변잡화 - 기타잡화","category":"other"}]},{"lat":"37.650283713","long":"127.30935461","imageIndex":17,"items":[{"name":"나눔통신","tel":"031-111-1111","addr":"경기도 남양주시 화도읍 마석우리 255-24번지 104호","indutype":"사무통신 - 통신기기","category":"other"},{"name":"미니치치","tel":"031-593-1277","addr":"경기도 남양주시 화도읍 마석우리 255-24번지 1층 106호","indutype":"의류 - 아동의류","category":"other"},{"name":"크린에이드롯데마트마석점","tel":"031-511-7645","addr":"경기도 남양주시 화도읍 마석우리 255-24번지 외3필지 301호","indutype":"수리서비스 - 세탁소","category":"other"},{"name":"휴페이스","tel":"031-511-5559","addr":"경기도 남양주시 화도읍 마석우리 255-24번지 205호","indutype":"회원제형태 - 기타4","category":"other"}]},{"lat":"37.656388775","long":"127.3001551","imageIndex":17,"items":[{"name":"나이스자동문","tel":"","addr":"경기도 남양주시 화도읍 마석우리 558-5번지","indutype":"건축자재 - 기타건축자재","category":"other"}]},{"lat":"37.652809882","long":"127.30451494","imageIndex":17,"items":[{"name":"늑대와여우컴퓨터마석점","tel":"031-529-0990","addr":"경기도 남양주시 화도읍 마석우리 312-5번지 상가 1층","indutype":"사무통신 - 사무용 OA기기","category":"other"},{"name":"법무사이기준사무소","tel":"031-593-1476","addr":"경기도 남양주시 화도읍 마석우리 312-5번지 202호","indutype":"용역 서비스 - 법률회계서비스(개인)","category":"other"},{"name":"에스오(SO)인터내셔널","tel":"031-511-6735","addr":"경기도 남양주시 화도읍 마석우리 312-5번지 301호","indutype":"용역 서비스 - 종합용역","category":"other"},{"name":"정애의류","tel":"031-559-6745","addr":"경기도 남양주시 화도읍 마석우리 312-5번지 1층","indutype":"의류 - 정장","category":"other"}]},{"lat":"37.658972484","long":"127.30451721","imageIndex":17,"items":[{"name":"늘기쁜우리옷","tel":"031-592-5080","addr":"경기도 남양주시 화도읍 마석우리 357-3번지 101호","indutype":"의류 - 맞춤복점","category":"other"},{"name":"덕소장어","tel":"031-521-2779","addr":"경기도 남양주시 화도읍 마석우리 357-3번지 대경플러스원 201호","indutype":"회원제형태 - 기타1","category":"other"},{"name":"미주철물건재","tel":"031-521-4648","addr":"경기도 남양주시 화도읍 마석우리 357-3번지","indutype":"건축자재 - 기타건축자재","category":"other"}]},{"lat":"37.659445232","long":"127.30985692","imageIndex":17,"items":[{"name":"늘푸른농장","tel":"070-7786-7888","addr":"경기도 남양주시 화도읍 마석우리 208-1번지","indutype":"주방용구 - 주방용식기","category":"other"}]},{"lat":"37.65316547","long":"127.30638615","imageIndex":17,"items":[{"name":"다모아정보통신","tel":"031-559-1188","addr":"경기도 남양주시 화도읍 마석우리 295-31번지 101호 민호상가","indutype":"사무통신 - 통신기기","category":"other"},{"name":"마석신발백화점","tel":"031-593-5780","addr":"경기도 남양주시 화도읍 마석우리 295-31번지 민호 상가 103호","indutype":"신변잡화 - 신발","category":"other"}]},{"lat":"37.655253125","long":"127.30387889","imageIndex":17,"items":[{"name":"다비치","tel":"031-559-3587","addr":"경기도 남양주시 화도읍 마석우리 326-5번지 광원빌라 1층 101호","indutype":"신변잡화 - 신발","category":"other"}]},{"lat":"37.66033804","long":"127.30251678","imageIndex":17,"items":[{"name":"단디(DanDi)","tel":"031-595-5077","addr":"경기도 남양주시 화도읍 마석우리 479번지","indutype":"의류 - 정장","category":"other"},{"name":"진성건축","tel":"031-591-6600","addr":"경기도 남양주시 화도읍 마석우리 479번지","indutype":"건축자재 - 인테리어전문","category":"other"}]},{"lat":"37.662199151","long":"127.30404293","imageIndex":17,"items":[{"name":"달인에어컨","tel":"031-795-7778","addr":"경기도 남양주시 화도읍 마석우리 466-8번지 106동 201호","indutype":"용역 서비스 - 기타용역서비스","category":"other"}]},{"lat":"37.657218915","long":"127.3032182","imageIndex":17,"items":[{"name":"대목","tel":"031-559-7008","addr":"경기도 남양주시 화도읍 마석우리 383-6번지 중흥프라자 405호","indutype":"기타 - 기타 전문점","category":"other"},{"name":"드림휘트니스","tel":"031-527-0737","addr":"경기도 남양주시 화도읍 마석우리 383-6번지 중흥프라자 501~503,505호","indutype":"회원제형태 - 레져업소","category":"other"},{"name":"마석중흥비와이씨","tel":"070-4176-4600","addr":"경기도 남양주시 화도읍 마석우리 383-6번지 중흥프라자 107호","indutype":"의류 - 내의판매","category":"other"},{"name":"메쓰메카","tel":"031-595-1745","addr":"경기도 남양주시 화도읍 마석우리 383-6번지 중흥프라자 604호","indutype":"용역 서비스 - 사무서비스","category":"other"},{"name":"쏭노래녹음실","tel":"031-559-7989","addr":"경기도 남양주시 화도읍 마석우리 383-6번지 중흥프라자 204호","indutype":"기타 - 기타 전문점","category":"other"},{"name":"씨유마석중흥점","tel":"031-511-1015","addr":"경기도 남양주시 화도읍 마석우리 383-6번지 중흥프라자 1층 106호","indutype":"유통업 영리 - 편 의 점","category":"other"},{"name":"토즈멤버십라운지 마석센터","tel":"031-595-0801","addr":"경기도 남양주시 화도읍 마석우리 383-6번지 중흥프라자 8층","indutype":"용역 서비스 - 사무서비스","category":"other"},{"name":"트인경영컨설팅사무소","tel":"031-515-9324","addr":"경기도 남양주시 화도읍 마석우리 383-6번지 중흥프라자 305호","indutype":"회원제형태 - 기타4","category":"other"},{"name":"하늘디자인","tel":"031-595-9597","addr":"경기도 남양주시 화도읍 마석우리 383-6번지 중흥프라자 405호","indutype":"용역 서비스 - 사무서비스","category":"other"}]},{"lat":"37.653468508","long":"127.30415498","imageIndex":17,"items":[{"name":"대목광고기획","tel":"031-591-3149","addr":"경기도 남양주시 화도읍 마석우리 314-12번지 광원빌라 B동 102호","indutype":"서적문구 - 출판 및 인쇄물","category":"other"}]},{"lat":"37.662057252","long":"127.30315836","imageIndex":17,"items":[{"name":"대박부동산 공인중개사사무소","tel":"031-594-4500","addr":"경기도 남양주시 화도읍 마석우리 470-33번지 G동 101호","indutype":"용역 서비스 - 부동산 중개·임대","category":"other"},{"name":"베라코스메틱","tel":"031-528-6263","addr":"경기도 남양주시 화도읍 마석우리 470-33번지 지하1층 105호 B","indutype":"회원제형태 - 기타4","category":"other"},{"name":"커즈펫","tel":"070-8784-6468","addr":"경기도 남양주시 화도읍 마석우리 470-33번지 103호","indutype":"문화.취미 - 애완동물","category":"other"}]},{"lat":"37.652837403","long":"127.30432241","imageIndex":17,"items":[{"name":"대상상사","tel":"031-594-3610","addr":"경기도 남양주시 화도읍 마석우리 312-4번지 1층","indutype":"건축자재 - 보일러·펌프·샷시","category":"other"}]},{"lat":"37.65552569","long":"127.3099881","imageIndex":17,"items":[{"name":"대영환경자원","tel":"031-000-0000","addr":"경기도 남양주시 화도읍 마석우리 234번지","indutype":"신변잡화 - 기타잡화","category":"other"}]},{"lat":"37.659862539","long":"127.31562711","imageIndex":17,"items":[{"name":"더랜덤","tel":"050-7445-6362","addr":"경기도 남양주시 화도읍 마석우리 193-77번지","indutype":"회원제형태 - 기타4","category":"other"}]},{"lat":"37.651890882","long":"127.30802407","imageIndex":17,"items":[{"name":"더샵","tel":"031-513-6359","addr":"경기도 남양주시 화도읍 마석우리 271-7번지","indutype":"의류 - 정장","category":"other"}]},{"lat":"37.659624014","long":"127.30692242","imageIndex":17,"items":[{"name":"더존","tel":"031-593-9732","addr":"경기도 남양주시 화도읍 마석우리 201-11번지 그린캐슬 B동 101호","indutype":"회원제형태 - 기타4","category":"other"}]},{"lat":"37.65744712","long":"127.30205186","imageIndex":17,"items":[{"name":"도담","tel":"031-559-1236","addr":"경기도 남양주시 화도읍 마석우리 383-2번지 중앙프라자","indutype":"주방용구 - 주방용구","category":"other"},{"name":"사랑해줄개","tel":"031-591-3280","addr":"경기도 남양주시 화도읍 마석우리 383-2번지 중앙프라자 403호","indutype":"문화.취미 - 애완동물","category":"other"},{"name":"씨유마석주공점","tel":"031-559-4924","addr":"경기도 남양주시 화도읍 마석우리 383-2번지 중앙프라자 103호","indutype":"유통업 영리 - 편 의 점","category":"other"}]},{"lat":"37.653636267","long":"127.30549284","imageIndex":17,"items":[{"name":"독스애견","tel":"031-595-4649","addr":"경기도 남양주시 화도읍 마석우리 306-4번지","indutype":"문화.취미 - 애완동물","category":"other"}]},{"lat":"37.651389213","long":"127.30691151","imageIndex":17,"items":[{"name":"동명씽크","tel":"031-594-0404","addr":"경기도 남양주시 화도읍 마석우리 267-7번지","indutype":"주방용구 - 주방용구","category":"other"}]},{"lat":"37.657612876","long":"127.30063595","imageIndex":17,"items":[{"name":"동부보건센터(보건지소)","tel":"031-590-4397","addr":"경기도 남양주시 화도읍 마석우리 548번지","indutype":"기타의료기관 - 기타의료기관 및 기타","category":"other"},{"name":"화도읍사무소","tel":"031-590-4865","addr":"경기도 남양주시 화도읍 마석우리 548번지 화도읍사무소","indutype":"용역 서비스 - 사무서비스","category":"other"}]},{"lat":"37.655085906","long":"127.30585002","imageIndex":17,"items":[{"name":"동승목공기계","tel":"031-593-4223","addr":"경기도 남양주시 화도읍 마석우리 297-9번지","indutype":"기타 - 기계공구","category":"other"},{"name":"이모자인기획","tel":"031-511-5907","addr":"경기도 남양주시 화도읍 마석우리 297-9번지 3층 2호","indutype":"용역 서비스 - 종합용역","category":"other"},{"name":"인디라벨","tel":"070-8612-9729","addr":"경기도 남양주시 화도읍 마석우리 297-9번지 1층","indutype":"의류 - 정장","category":"other"}]},{"lat":"37.655804398","long":"127.30673686","imageIndex":17,"items":[{"name":"동안얼굴만들기","tel":"031-591-4577","addr":"경기도 남양주시 화도읍 마석우리 215-9번지 명품하우스 101동 301호","indutype":"회원제형태 - 기타1","category":"other"}]},{"lat":"37.651665731","long":"127.30798915","imageIndex":17,"items":[{"name":"드림컴퍼니(Dream Company)","tel":"031-516-5511","addr":"경기도 남양주시 화도읍 마석우리 263-2번지","indutype":"전기제품 - 냉열기기","category":"other"}]},{"lat":"37.65675036","long":"127.30323898","imageIndex":17,"items":[{"name":"디바인","tel":"031-595-5981","addr":"경기도 남양주시 화도읍 마석우리 383-9번지 별나라프라자 1층 104호","indutype":"의류 - 정장","category":"other"},{"name":"속옷나라","tel":"031-511-3257","addr":"경기도 남양주시 화도읍 마석우리 383-9번지 별나라프라자 103호","indutype":"의류 - 내의판매","category":"other"},{"name":"아이폰수리센터 남양주 마석","tel":"031-595-2969","addr":"경기도 남양주시 화도읍 마석우리 383-9번지 별나라프라자 1층 101호","indutype":"수리서비스 - 사무·통신기기수리","category":"other"},{"name":"장원교육마석지점","tel":"031-593-7056","addr":"경기도 남양주시 화도읍 마석우리 383-9번지 별나라프라자 703호","indutype":"회원제형태 - 서적","category":"other"},{"name":"피부천사","tel":"031-591-9961","addr":"경기도 남양주시 화도읍 마석우리 383-9번지 별나라프라자 201호","indutype":"회원제형태 - 기타4","category":"other"}]},{"lat":"37.658664447","long":"127.3051846","imageIndex":17,"items":[{"name":"디자인앤클로즈","tel":"031-528-6263","addr":"경기도 남양주시 화도읍 마석우리 416-1번지 (신정빌딩지1층1호)","indutype":"의류 - 정장","category":"other"}]},{"lat":"37.6508398","long":"127.31032008","imageIndex":17,"items":[{"name":"땅박사부동산컨설팅공인중개사사무소","tel":"031-595-2322","addr":"경기도 남양주시 화도읍 마석우리 251-1번지","indutype":"용역 서비스 - 부동산 중개·임대","category":"other"},{"name":"수도배","tel":"031-595-1002","addr":"경기도 남양주시 화도읍 마석우리 251-1번지","indutype":"건축자재 - 인테리어전문","category":"other"}]},{"lat":"37.654391936","long":"127.30593786","imageIndex":17,"items":[{"name":"리바이크","tel":"031-592-2606","addr":"경기도 남양주시 화도읍 마석우리 297-10번지 1층 3호","indutype":"레져용품 - 스포츠·레져용품","category":"other"},{"name":"코지하우스(COZY HOUSE)","tel":"070-7553-3106","addr":"경기도 남양주시 화도읍 마석우리 297-10 1층2호","indutype":"가구 - 기타가구","category":"other"}]},{"lat":"37.658219767","long":"127.32013064","imageIndex":17,"items":[{"name":"리벳코리아","tel":"031-529-1384","addr":"경기도 남양주시 화도읍 마석우리 10-12번지 1동","indutype":"기타 - 기계공구","category":"other"}]},{"lat":"37.660945456","long":"127.314963","imageIndex":17,"items":[{"name":"리히트라움 스튜디오(LICHTRAUM STUDIO)","tel":"031-111-1111","addr":"경기도 남양주시 화도읍 마석우리 193-97번지","indutype":"광학제품 - 사진관","category":"other"}]},{"lat":"37.654003156","long":"127.30646889","imageIndex":17,"items":[{"name":"마마운동화이불빨래방","tel":"031-593-8482","addr":"경기도 남양주시 화도읍 마석우리 220-1번지","indutype":"수리서비스 - 세탁소","category":"other"}]},{"lat":"37.656027804","long":"127.30393868","imageIndex":17,"items":[{"name":"마법의 버블스토리","tel":"031-593-3348","addr":"경기도 남양주시 화도읍 마석우리 323번지 우성주택 5동 403호","indutype":"회원제형태 - 기타4","category":"other"}]},{"lat":"37.652058922","long":"127.30923726","imageIndex":17,"items":[{"name":"마서커","tel":"031-511-0026","addr":"경기도 남양주시 화도읍 마석우리 290-7번지","indutype":"의류 - 정장","category":"other"}]},{"lat":"37.651255303","long":"127.30991386","imageIndex":17,"items":[{"name":"마석볼트상사","tel":"031-595-5289","addr":"경기도 남양주시 화도읍 마석우리 258-10번지","indutype":"기타 - 기계공구","category":"other"},{"name":"북서원콤프레셔","tel":"031-511-2279","addr":"경기도 남양주시 화도읍 마석우리 258-10번지","indutype":"기타 - 기계공구","category":"other"},{"name":"우리설비","tel":"070-7435-3993","addr":"경기도 남양주시 화도읍 마석우리 258-10번지 2층","indutype":"용역 서비스 - 기타용역서비스","category":"other"},{"name":"주식회사 엔플러스이","tel":"031-559-8790","addr":"경기도 남양주시 화도읍 마석우리 258-10번지 2층","indutype":"용역 서비스 - 기타용역서비스","category":"other"}]},{"lat":"37.655833631","long":"127.30235136","imageIndex":17,"items":[{"name":"마석신명스카이뷰그린아파트입주자대표회의","tel":"031-559-1923","addr":"경기도 남양주시 화도읍 마석우리 396번지 신명스카이뷰그린아파트","indutype":"용역 서비스 - 종합용역","category":"other"},{"name":"씨유마석신명점","tel":"031-571-9189","addr":"경기도 남양주시 화도읍 마석우리 396번지 신명스카이뷰그린 상가동 101호","indutype":"유통업 영리 - 편 의 점","category":"other"}]},{"lat":"37.65269563","long":"127.30690551","imageIndex":17,"items":[{"name":"마석열쇠","tel":"031-511-1313","addr":"경기도 남양주시 화도읍 마석우리 292-12번지","indutype":"수리서비스 - 기타수리서비스","category":"other"},{"name":"천마유통","tel":"02-111-1111","addr":"경기도 남양주시 화도읍 마석우리 292-12번지","indutype":"의류 - 정장","category":"other"}]},{"lat":"37.653309623","long":"127.30638674","imageIndex":17,"items":[{"name":"마석이불","tel":"031-594-7087","addr":"경기도 남양주시 화도읍 마석우리 295-24번지","indutype":"직물 - 침구·수예점","category":"other"},{"name":"윤씨네옷가게","tel":"","addr":"경기도 남양주시 화도읍 마석우리 295-24번지","indutype":"수리서비스 - 세탁소","category":"other"}]},{"lat":"37.653589211","long":"127.30627456","imageIndex":17,"items":[{"name":"마이쭈","tel":"031-592-9001","addr":"경기도 남양주시 화도읍 마석우리 295-21번지","indutype":"의류 - 정장","category":"other"}]},{"lat":"37.651945467","long":"127.30782032","imageIndex":17,"items":[{"name":"만물전파사","tel":"031-593-0362","addr":"경기도 남양주시 화도읍 마석우리 271-8번지","indutype":"수리서비스 - 신변잡화수리","category":"other"},{"name":"베비랑스","tel":"031-594-1673","addr":"경기도 남양주시 화도읍 마석우리 271-8번지","indutype":"광학제품 - 사진관","category":"other"},{"name":"장현유통","tel":"031-595-8441","addr":"경기도 남양주시 화도읍 마석우리 271-8번지","indutype":"의류 - 정장","category":"other"},{"name":"제일사진관","tel":"031-594-1673","addr":"경기도 남양주시 화도읍 마석우리 271-8번지","indutype":"광학제품 - 사진관","category":"other"}]},{"lat":"37.654420557","long":"127.31568361","imageIndex":17,"items":[{"name":"명가퍼니처","tel":"031-511-1641","addr":"경기도 남양주시 화도읍 마석우리 153-2","indutype":"주방용구 - 주방용구","category":"other"}]},{"lat":"37.652837953","long":"127.30410711","imageIndex":17,"items":[{"name":"명품스토리","tel":"031-511-0288","addr":"경기도 남양주시 화도읍 마석우리 312-3번지 나동","indutype":"의류 - 정장","category":"other"},{"name":"진흥광고인쇄","tel":"031-593-3530","addr":"경기도 남양주시 화도읍 마석우리 312-3번지 가동","indutype":"서적문구 - 출판 및 인쇄물","category":"other"}]},{"lat":"37.652140919","long":"127.30888631","imageIndex":17,"items":[{"name":"문화기획온누리","tel":"031-593-0781","addr":"경기도 남양주시 화도읍 마석우리 290-6번지","indutype":"기타 - 기타 전문점","category":"other"}]},{"lat":"37.652164124","long":"127.30688068","imageIndex":17,"items":[{"name":"미성주얼리","tel":"031-594-0058","addr":"경기도 남양주시 화도읍 마석우리 270번지","indutype":"신변잡화 - 시계","category":"other"},{"name":"콤마","tel":"031-594-0258","addr":"경기도 남양주시 화도읍 마석우리 270번지","indutype":"신변잡화 - 액세서리","category":"other"}]},{"lat":"37.655923324","long":"127.30251038","imageIndex":17,"items":[{"name":"미송의상실","tel":"031-559-9113","addr":"경기도 남양주시 화도읍 마석우리 396번지 신명스카이뷰그린 105동 2003호","indutype":"수리서비스 - 세탁소","category":"other"},{"name":"해인기획","tel":"031-1111-1111","addr":"경기도 남양주시 화도읍 마석우리 396번지 신명스카이뷰그린 105동 1103호","indutype":"용역 서비스 - 종합용역","category":"other"}]},{"lat":"37.655889531","long":"127.30516201","imageIndex":17,"items":[{"name":"배경광고","tel":"031-595-4481","addr":"경기도 남양주시 화도읍 마석우리 304번지 마석상가 A-1호","indutype":"용역 서비스 - 종합용역","category":"other"}]},{"lat":"37.658365969","long":"127.30563669","imageIndex":17,"items":[{"name":"백년인테리어남양주창현점","tel":"","addr":"경기도 남양주시 화도읍 마석우리 410-1번지","indutype":"건축자재 - 인테리어전문","category":"other"},{"name":"엠디플래닝(MD PLANNING)","tel":"031-591-1885","addr":"경기도 남양주시 화도읍 마석우리 410-1번지","indutype":"의류 - 정장","category":"other"},{"name":"연후","tel":"031-594-9287","addr":"경기도 남양주시 화도읍 마석우리 410-1번지 1층 101호","indutype":"의류 - 맞춤복점","category":"other"}]},{"lat":"37.657333931","long":"127.30404594","imageIndex":17,"items":[{"name":"베이모가발연구소","tel":"031-594-0026","addr":"경기도 남양주시 화도읍 마석우리 379-3번지 송정빌","indutype":"용역 서비스 - 사무서비스","category":"other"}]},{"lat":"37.657055559","long":"127.30368218","imageIndex":17,"items":[{"name":"베이비뽀","tel":"031-511-9627","addr":"경기도 남양주시 화도읍 마석우리 379-7번지 103(1층상가)","indutype":"의류 - 정장","category":"other"},{"name":"쥬얼리 이응","tel":"031-528-6263","addr":"경기도 남양주시 화도읍 마석우리 379-7번지 1층 103호","indutype":"신변잡화 - 액세서리","category":"other"}]},{"lat":"37.650866031","long":"127.31062614","imageIndex":17,"items":[{"name":"부경종합인테리어","tel":"031-559-1749","addr":"경기도 남양주시 화도읍 마석우리 253-2번지 1층","indutype":"직물 - 카페트,커튼,천막,지물","category":"other"}]},{"lat":"37.657135855","long":"127.30044139","imageIndex":17,"items":[{"name":"부모사랑방문요양센터","tel":"031-511-2740","addr":"경기도 남양주시 화도읍 마석우리 556-2번지","indutype":"기타의료기관 - 기타의료기관 및 기타","category":"other"},{"name":"은하사진관","tel":"031-594-0024","addr":"경기도 남양주시 화도읍 마석우리 556-2번지 상가 1층 102호 일부","indutype":"광학제품 - 사진관","category":"other"},{"name":"화도열쇠도장","tel":"031-511-4111","addr":"경기도 남양주시 화도읍 마석우리 556-2번지 102호","indutype":"건축자재 - 목재·석재·철물","category":"other"}]},{"lat":"37.654808694","long":"127.30149733","imageIndex":17,"items":[{"name":"빨간지붕 마석점","tel":"031-592-9553","addr":"경기도 남양주시 화도읍 마석우리 586번지","indutype":"의류 - 정장","category":"other"}]},{"lat":"37.654250138","long":"127.30501938","imageIndex":17,"items":[{"name":"뽀대나","tel":"031-591-7586","addr":"경기도 남양주시 화도읍 마석우리 305-5번지","indutype":"의류 - 정장","category":"other"},{"name":"삼성종합설비","tel":"031-591-9696","addr":"경기도 남양주시 화도읍 마석우리 305-5번지","indutype":"용역 서비스 - 기타용역서비스","category":"other"}]},{"lat":"37.651665232","long":"127.30818179","imageIndex":17,"items":[{"name":"사랑에 꽃배달서비스","tel":"031-594-8979","addr":"경기도 남양주시 화도읍 마석우리 272-3.102","indutype":"문화.취미 - 화원","category":"other"},{"name":"화도골프존","tel":"031-592-0171","addr":"경기도 남양주시 화도읍 마석우리 272-3 대진빌딩2층","indutype":"회원제형태 - 레져업소","category":"other"}]},{"lat":"37.653783273","long":"127.3078845","imageIndex":17,"items":[{"name":"삼보합판","tel":"031-511-4836","addr":"경기도 남양주시 화도읍 마석우리 219-2번지","indutype":"건축자재 - 기타건축자재","category":"other"}]},{"lat":"37.651722964","long":"127.31707743","imageIndex":17,"items":[{"name":"삼성포장비니루","tel":"031-593-1008","addr":"경기도 남양주시 화도읍 마석우리 77-8","indutype":"기타 - 기타 전문점","category":"other"},{"name":"킴스(kim's)조각","tel":"031-511-5299","addr":"경기도 남양주시 화도읍 마석우리 77-8번지 마석윤활유","indutype":"가구 - 일반가구","category":"other"}]},{"lat":"37.65697208","long":"127.30107536","imageIndex":17,"items":[{"name":"상생정보","tel":"070-7744-5353","addr":"경기도 남양주시 화도읍 마석우리 557-2번지 306호","indutype":"가구 - 일반가구","category":"other"}]},{"lat":"37.65711299","long":"127.3023565","imageIndex":17,"items":[{"name":"색연필마석점","tel":"031-591-3912","addr":"경기도 남양주시 화도읍 마석우리 392-1번지 별나라타운1층106호~107호 106","indutype":"서적문구 - 문구용품","category":"other"}]},{"lat":"37.659780482","long":"127.30210656","imageIndex":17,"items":[{"name":"샤인전자담배할인매장","tel":"031-591-4811","addr":"경기도 남양주시 화도읍 마석우리 481-3번지 1층 101호","indutype":"기타 - 기타 전문점","category":"other"},{"name":"윤바이크","tel":"070-4028-3324","addr":"경기도 남양주시 화도읍 마석우리 481-3번지","indutype":"레져용품 - 스포츠·레져용품","category":"other"}]},{"lat":"37.651947153","long":"127.31407546","imageIndex":17,"items":[{"name":"샷다박사","tel":"031-594-6067","addr":"경기도 남양주시 화도읍 마석우리 96-2","indutype":"건축자재 - 보일러·펌프·샷시","category":"other"}]},{"lat":"37.655072373","long":"127.30760646","imageIndex":17,"items":[{"name":"성수 설비","tel":"031-511-5896","addr":"경기도 남양주시 화도읍 마석우리 219-105번지 가든시티빌 202동 401호","indutype":"용역 서비스 - 기타용역서비스","category":"other"}]},{"lat":"37.659442255","long":"127.30402046","imageIndex":17,"items":[{"name":"성원사","tel":"031-592-3933","addr":"경기도 남양주시 화도읍 마석우리 353-9","indutype":"수리서비스 - 세탁소","category":"other"}]},{"lat":"37.651361629","long":"127.3071267","imageIndex":17,"items":[{"name":"세무사윤우영사무소","tel":"031-595-6212","addr":"경기도 남양주시 화도읍 마석우리 265-3번지","indutype":"용역 서비스 - 법률회계서비스(개인)","category":"other"}]},{"lat":"37.655057945","long":"127.30621254","imageIndex":17,"items":[{"name":"세븐일레븐마석심석점","tel":"","addr":"경기도 남양주시 화도읍 마석우리 297-12번지 101호","indutype":"유통업 영리 - 편 의 점","category":"other"}]},{"lat":"37.652941997","long":"127.31605136","imageIndex":17,"items":[{"name":"세븐일레븐마석지산점","tel":"031-1577-0711","addr":"경기도 남양주시 화도읍 마석우리 117번지 103호 102호,103호","indutype":"유통업 영리 - 편 의 점","category":"other"}]},{"lat":"37.661833713","long":"127.3024888","imageIndex":17,"items":[{"name":"세븐일레븐마석희망점","tel":"","addr":"경기도 남양주시 화도읍 마석우리 472-4번지 지호프라자 1층 101호","indutype":"유통업 영리 - 편 의 점","category":"other"}]},{"lat":"37.652725283","long":"127.30588576","imageIndex":17,"items":[{"name":"세이(say)","tel":"031-595-4406","addr":"경기도 남양주시 화도읍 마석우리 309-1","indutype":"의류 - 정장","category":"other"},{"name":"치크마석점","tel":"070-5175-3426","addr":"경기도 남양주시 화도읍 마석우리 309-1","indutype":"의류 - 아동의류","category":"other"}]},{"lat":"37.654832706","long":"127.30621162","imageIndex":17,"items":[{"name":"세일설비","tel":"031-593-9881","addr":"경기도 남양주시 화도읍 마석우리 297-17","indutype":"건축자재 - 목재·석재·철물","category":"other"}]},{"lat":"37.651920719","long":"127.30693634","imageIndex":17,"items":[{"name":"세희네집","tel":"031-593-6653","addr":"경기도 남양주시 화도읍 마석우리 269-2번지 1층 102호","indutype":"의류 - 기타의류","category":"other"}]},{"lat":"37.655806962","long":"127.30573963","imageIndex":17,"items":[{"name":"수 토탈인테리어","tel":"031-591-0424","addr":"경기도 남양주시 화도읍 마석우리 300번지","indutype":"직물 - 카페트,커튼,천막,지물","category":"other"},{"name":"컴닥터A/S","tel":"031-511-3700","addr":"경기도 남양주시 화도읍 마석우리 300번지","indutype":"사무통신 - 컴퓨터","category":"other"}]},{"lat":"37.660416993","long":"127.30335575","imageIndex":17,"items":[{"name":"수동지물","tel":"031-593-3613","addr":"경기도 남양주시 화도읍 마석우리 442-1","indutype":"직물 - 카페트,커튼,천막,지물","category":"other"}]},{"lat":"37.652193752","long":"127.3162182","imageIndex":17,"items":[{"name":"수화원","tel":"031-594-5900","addr":"경기도 남양주시 화도읍 마석우리 106-3","indutype":"문화.취미 - 화원","category":"other"}]},{"lat":"37.658277385","long":"127.30504703","imageIndex":17,"items":[{"name":"슈즈크린(운동화빨래방)","tel":"031-511-0007","addr":"경기도 남양주시 화도읍 마석우리 360-2번지 헤렌하우스2차지하상가 1층 2호","indutype":"수리서비스 - 세탁소","category":"other"},{"name":"스텔라 (stella)","tel":"070-3966-1817","addr":"경기도 남양주시 화도읍 마석우리 360-2번지 G동 1층","indutype":"의류 - 정장","category":"other"},{"name":"영광지물","tel":"031-594-6036","addr":"경기도 남양주시 화도읍 마석우리 360-2번지 헤렌하우스2차 102호","indutype":"직물 - 카페트,커튼,천막,지물","category":"other"}]},{"lat":"37.65275481","long":"127.30491134","imageIndex":17,"items":[{"name":"시선집중","tel":"031-591-4127","addr":"경기도 남양주시 화도읍 마석우리 311-3","indutype":"의류 - 정장","category":"other"},{"name":"아코펫","tel":"031-593-8719","addr":"경기도 남양주시 화도읍 마석우리 311-3번지","indutype":"문화.취미 - 애완동물","category":"other"},{"name":"엘레강스","tel":"031-511-7715","addr":"경기도 남양주시 화도읍 마석우리 311-3번지 1층","indutype":"의류 - 정장","category":"other"}]},{"lat":"37.653497774","long":"127.30679546","imageIndex":17,"items":[{"name":"신나라미용실","tel":"031-593-1979","addr":"경기도 남양주시 화도읍 마석우리 220-7번지","indutype":"신변잡화 - 신발","category":"other"}]},{"lat":"37.65905386","long":"127.30440421","imageIndex":17,"items":[{"name":"신데렐라만들기","tel":"031-595-7847","addr":"경기도 남양주시 화도읍 마석우리 357-2번지 코스모스빌딩 상가-101","indutype":"회원제형태 - 기타4","category":"other"}]},{"lat":"37.656226717","long":"127.30010912","imageIndex":17,"items":[{"name":"신도네트O.A","tel":"031-582-9051","addr":"경기도 남양주시 화도읍 마석우리 565-1번지 비너스빌 102호","indutype":"사무통신 - 컴퓨터","category":"other"}]},{"lat":"37.655264185","long":"127.30307434","imageIndex":17,"items":[{"name":"신명테크","tel":"02-418-4188","addr":"경기도 남양주시 화도읍 마석우리 396번지 신명스카이뷰그린 109동 604호 63 11","indutype":"회원제형태 - 기타3","category":"other"}]},{"lat":"37.65319423","long":"127.31265284","imageIndex":17,"items":[{"name":"씨에스디자인","tel":"031-559-4938","addr":"경기도 남양주시 화도읍 마석우리 121번지 2층 제이에스타워","indutype":"가구 - 일반가구","category":"other"}]},{"lat":"37.660886753","long":"127.30638358","imageIndex":17,"items":[{"name":"아쿵(Akuung)","tel":"031-000-0000","addr":"경기도 남양주시 화도읍 마석우리 428번지 해오름파크빌 104동 202호","indutype":"의류 - 정장","category":"other"}]},{"lat":"37.652082618","long":"127.31051785","imageIndex":17,"items":[{"name":"알뜰구제","tel":"031-593-7642","addr":"경기도 남양주시 화도읍 마석우리 286-5번지 1층","indutype":"의류 - 기타의류","category":"other"}]},{"lat":"37.656281488","long":"127.29982603","imageIndex":17,"items":[{"name":"알오아이플래닝","tel":"070-8955-5555","addr":"경기도 남양주시 화도읍 마석우리 566-4번지 A동 1층 101호","indutype":"용역 서비스 - 종합용역","category":"other"}]},{"lat":"37.652056594","long":"127.31013246","imageIndex":17,"items":[{"name":"앤교육","tel":"02-454-0585","addr":"경기도 남양주시 화도읍 마석우리 288-5번지 우진빌딩 3층","indutype":"회원제형태 - 서적","category":"other"},{"name":"카카스","tel":"070-8718-7681","addr":"경기도 남양주시 화도읍 마석우리 288-5번지 1층","indutype":"사무통신 - 컴퓨터","category":"other"}]},{"lat":"37.654277456","long":"127.30490617","imageIndex":17,"items":[{"name":"앨렌슈","tel":"031-591-1135","addr":"경기도 남양주시 화도읍 마석우리 306-35번지","indutype":"의류 - 정장","category":"other"}]},{"lat":"37.653581673","long":"127.31943099","imageIndex":17,"items":[{"name":"어느오후","tel":"031-559-6623","addr":"경기도 남양주시 화도읍 마석우리 54-4번지 금환텐즈힐 1동 101호","indutype":"직물 - 침구·수예점","category":"other"}]},{"lat":"37.65552909","long":"127.30518322","imageIndex":17,"items":[{"name":"에스엔 타일","tel":"031-595-4722","addr":"경기도 남양주시 화도읍 마석우리 304-8번지","indutype":"건축자재 - 기타건축자재","category":"other"}]},{"lat":"37.659449788","long":"127.30459847","imageIndex":17,"items":[{"name":"엔쏘","tel":"031-528-6263","addr":"경기도 남양주시 화도읍 마석우리 384-8번지 103호","indutype":"의류 - 정장","category":"other"}]},{"lat":"37.6558337","long":"127.30585306","imageIndex":17,"items":[{"name":"엘로이피아노","tel":"031-592-0972","addr":"경기도 남양주시 화도읍 마석우리 298-10","indutype":"수리서비스 - 기타수리서비스","category":"other"}]},{"lat":"37.654081671","long":"127.30746643","imageIndex":17,"items":[{"name":"여우비","tel":"","addr":"경기도 남양주시 화도읍 마석우리 219-65번지 서울하이츠빌라 나동 101호","indutype":"문화.취미 - 민예·공예품","category":"other"}]},{"lat":"37.657419114","long":"127.30243706","imageIndex":17,"items":[{"name":"여우비","tel":"031-559-8313","addr":"경기도 남양주시 화도읍 마석우리 383-4번지 캠퍼스프라자 102호","indutype":"의류 - 정장","category":"other"},{"name":"열린부동산","tel":"031-559-8200","addr":"경기도 남양주시 화도읍 마석우리 383-4번지 캠퍼스프라자 104호","indutype":"용역 서비스 - 부동산 중개·임대","category":"other"},{"name":"프롬 엘","tel":"","addr":"경기도 남양주시 화도읍 마석우리 383-4번지 캠퍼스프라자 108호","indutype":"신변잡화 - 액세서리","category":"other"}]},{"lat":"37.656027515","long":"127.304052","imageIndex":17,"items":[{"name":"예린토랄인테리어","tel":"031-514-4751","addr":"경기도 남양주시 화도읍 마석우리 323-13번지 유성주택 4동 104호","indutype":"건축자재 - 인테리어전문","category":"other"}]},{"lat":"37.654753173","long":"127.30207505","imageIndex":17,"items":[{"name":"오내스","tel":"","addr":"경기도 남양주시 화도읍 마석우리 588번지 유일프라자 1층 103호 후면 일부","indutype":"의류 - 정장","category":"other"},{"name":"옷핀(ing)","tel":"031-594-2498","addr":"경기도 남양주시 화도읍 마석우리 588번지 유일프라자 108호","indutype":"의류 - 정장","category":"other"},{"name":"풀라워 연","tel":"031-591-5508","addr":"경기도 남양주시 화도읍 마석우리 588번지 유일프라자 109호","indutype":"문화.취미 - 화원","category":"other"}]},{"lat":"37.655306827","long":"127.30046809","imageIndex":17,"items":[{"name":"오름스터디카페","tel":"","addr":"경기도 남양주시 화도읍 마석우리 570-3번지 4층","indutype":"용역 서비스 - 사무서비스","category":"other"}]},{"lat":"37.651393625","long":"127.3086906","imageIndex":17,"items":[{"name":"옥플라워샵","tel":"031-594-0141","addr":"경기도 남양주시 화도읍 마석우리 273-4번지","indutype":"문화.취미 - 화원","category":"other"}]},{"lat":"37.654720143","long":"127.30443201","imageIndex":17,"items":[{"name":"우리세탁소","tel":"031-594-4210","addr":"경기도 남양주시 화도읍 마석우리 317-13번지","indutype":"수리서비스 - 세탁소","category":"other"},{"name":"푸른여우","tel":"031-593-9065","addr":"경기도 남양주시 화도읍 마석우리 317-13번지","indutype":"의류 - 정장","category":"other"}]},{"lat":"37.652942852","long":"127.30182982","imageIndex":17,"items":[{"name":"윈윈에어시스템","tel":"","addr":"경기도 남양주시 화도읍 마석우리 338-3번지 누리하우스 204호","indutype":"용역 서비스 - 기타용역서비스","category":"other"}]},{"lat":"37.658998889","long":"127.30121946","imageIndex":17,"items":[{"name":"유니토이","tel":"070-8261-0020","addr":"경기도 남양주시 화도읍 마석우리 535-3번지 블루캐슬 105호","indutype":"직물 - 침구·수예점","category":"other"}]},{"lat":"37.654338653","long":"127.31257827","imageIndex":17,"items":[{"name":"유비컴퍼니","tel":"02-2275-9394","addr":"경기도 남양주시 화도읍 마석우리 124-9번지 502호","indutype":"용역 서비스 - 보관및 창고업","category":"other"}]},{"lat":"37.651224772","long":"127.31468435","imageIndex":17,"items":[{"name":"윤하어패럴","tel":"031-592-5335","addr":"경기도 남양주시 화도읍 마석우리 84-5번지 가리온아울렛","indutype":"의류 - 스포츠의류","category":"other"},{"name":"컬럼비아마석점이지웰","tel":"031-592-0060","addr":"경기도 남양주시 화도읍 마석우리 84-5번지 가리온아울렛","indutype":"레져용품 - 스포츠·레져용품","category":"other"}]},{"lat":"37.655446347","long":"127.30582882","imageIndex":17,"items":[{"name":"은지네이불","tel":"031-594-3895","addr":"경기도 남양주시 화도읍 마석우리 298-12번지 광림빌딩 1층 6,7호","indutype":"직물 - 침구·수예점","category":"other"},{"name":"초코네 애견샵","tel":"031-594-3545","addr":"경기도 남양주시 화도읍 마석우리 298-12번지 1층","indutype":"문화.취미 - 애완동물","category":"other"}]},{"lat":"37.655803695","long":"127.29993745","imageIndex":17,"items":[{"name":"이레월드","tel":"031-514-7414","addr":"경기도 남양주시 화도읍 마석우리 565-5번지 101호","indutype":"사무통신 - 컴퓨터","category":"other"}]},{"lat":"37.656888546","long":"127.30557403","imageIndex":17,"items":[{"name":"이르러","tel":"031-593-4144","addr":"경기도 남양주시 화도읍 마석우리 366-2번지 102호","indutype":"문화.취미 - 화원","category":"other"}]},{"lat":"37.651755225","long":"127.31168366","imageIndex":17,"items":[{"name":"이마트24 마석역점","tel":"","addr":"경기도 남양주시 화도읍 마석우리 249-2번지 1층 101호","indutype":"유통업 영리 - 편 의 점","category":"other"}]},{"lat":"37.658143611","long":"127.30096672","imageIndex":17,"items":[{"name":"이마트24 마석우리","tel":"031-1111-1111","addr":"경기도 남양주시 화도읍 마석우리 541-3번지 로망스빌 1층 101호","indutype":"유통업 영리 - 편 의 점","category":"other"}]},{"lat":"37.652142652","long":"127.30821774","imageIndex":17,"items":[{"name":"이미지샷","tel":"031-511-5720","addr":"경기도 남양주시 화도읍 마석우리 292-16번지 동쪽2번째상가","indutype":"광학제품 - 사진관","category":"other"}]},{"lat":"37.658251139","long":"127.30474094","imageIndex":17,"items":[{"name":"정인하우징","tel":"","addr":"경기도 남양주시 화도읍 마석우리 359-10번지 803호","indutype":"용역 서비스 - 기타용역서비스","category":"other"}]},{"lat":"37.653639119","long":"127.30788391","imageIndex":17,"items":[{"name":"제이원(J1)","tel":"031-5022-1917","addr":"경기도 남양주시 화도읍 마석우리 219-11번지 지용아트빌라 6동 301호","indutype":"서적문구 - 출판 및 인쇄물","category":"other"}]},{"lat":"37.653894837","long":"127.30654777","imageIndex":17,"items":[{"name":"조은날","tel":"031-593-3203","addr":"경기도 남양주시 화도읍 마석우리 220-13","indutype":"의류 - 정장","category":"other"}]},{"lat":"37.652081465","long":"127.31095978","imageIndex":17,"items":[{"name":"주식회사 안티러스트 코리아","tel":"031-511-5695","addr":"경기도 남양주시 화도읍 마석우리 282번지 덕영빌딩 301호","indutype":"신변잡화 - 기타잡화","category":"other"}]},{"lat":"37.651781565","long":"127.30848822","imageIndex":17,"items":[{"name":"주식회사현서측량설계","tel":"031-511-1900","addr":"경기도 남양주시 화도읍 마석우리 271-21","indutype":"기타 - 기타 전문점","category":"other"}]},{"lat":"37.653642277","long":"127.30666006","imageIndex":17,"items":[{"name":"진보당","tel":"031-593-1355","addr":"경기도 남양주시 화도읍 마석우리 220-11번지","indutype":"신변잡화 - 귀금속","category":"other"}]},{"lat":"37.652305703","long":"127.30787845","imageIndex":17,"items":[{"name":"참좋은생활마트","tel":"031-594-2380","addr":"경기도 남양주시 화도읍 마석우리 292-18번지","indutype":"신변잡화 - 기타잡화","category":"other"}]},{"lat":"37.654806668","long":"127.30582622","imageIndex":17,"items":[{"name":"천마열쇠 도장","tel":"031-595-1195","addr":"경기도 남양주시 화도읍 마석우리 297-39번지","indutype":"건축자재 - 목재·석재·철물","category":"other"}]},{"lat":"37.650641214","long":"127.30698779","imageIndex":17,"items":[{"name":"천마페인트","tel":"031-594-7745","addr":"경기도 남양주시 화도읍 마석우리 267-8번지","indutype":"건축자재 - 페인트","category":"other"}]},{"lat":"37.660304913","long":"127.30490792","imageIndex":17,"items":[{"name":"청담 Jewelry","tel":"","addr":"경기도 남양주시 화도읍 마석우리 436-10번지 지산파크빌 105동 101호","indutype":"신변잡화 - 액세서리","category":"other"}]},{"lat":"37.659080835","long":"127.3008798","imageIndex":17,"items":[{"name":"체리","tel":"031-514-8661","addr":"경기도 남양주시 화도읍 마석우리 535-1번지 안성빌딩 3층 303호","indutype":"신변잡화 - 액세서리","category":"other"}]},{"lat":"37.656054221","long":"127.30062973","imageIndex":17,"items":[{"name":"크린토피아코인워시남양주화도읍점","tel":"031-593-3907","addr":"경기도 남양주시 화도읍 마석우리 564-1번지 윈윈빌 102호","indutype":"수리서비스 - 세탁소","category":"other"}]},{"lat":"37.653556952","long":"127.30480127","imageIndex":17,"items":[{"name":"태강전기","tel":"031-512-6138","addr":"경기도 남양주시 화도읍 마석우리 315-35번지 도신빌라 B동 202호","indutype":"전기제품 - 기타전기제품","category":"other"}]},{"lat":"37.654640318","long":"127.30038611","imageIndex":17,"items":[{"name":"태환이랑민철이스포츠","tel":"031-595-5577","addr":"경기도 남양주시 화도읍 마석우리 577-2","indutype":"레져용품 - 스포츠·레져용품","category":"other"}]},{"lat":"37.654778649","long":"127.3062114","imageIndex":17,"items":[{"name":"토탈빨래방","tel":"031-593-3993","addr":"경기도 남양주시 화도읍 마석우리 297-20","indutype":"수리서비스 - 세탁소","category":"other"}]},{"lat":"37.653417767","long":"127.30637585","imageIndex":17,"items":[{"name":"티파니귀금속.시계","tel":"031-511-9971","addr":"경기도 남양주시 화도읍 마석우리 295-7번지","indutype":"신변잡화 - 귀금속","category":"other"}]},{"lat":"37.658611077","long":"127.30137657","imageIndex":17,"items":[{"name":"파티마법사","tel":"031-591-9924","addr":"경기도 남양주시 화도읍 마석우리 538-8번지 준하하우스 305호","indutype":"의류 - 기타의류","category":"other"}]},{"lat":"37.657944466","long":"127.30487569","imageIndex":17,"items":[{"name":"포인트","tel":"031-559-5362","addr":"경기도 남양주시 화도읍 마석우리 360-6번지 102호","indutype":"의류 - 정장","category":"other"},{"name":"힐링타이","tel":"031-559-7775","addr":"경기도 남양주시 화도읍 마석우리 360-6번지 2층 전부","indutype":"회원제형태 - 기타4","category":"other"}]},{"lat":"37.658079913","long":"127.30121578","imageIndex":17,"items":[{"name":"푸들리(POODLY)","tel":"031-511-9873","addr":"경기도 남양주시 화도읍 마석우리 541-4번지 비02호(성원빌)","indutype":"문화.취미 - 애완동물","category":"other"}]},{"lat":"37.652891541","long":"127.31469132","imageIndex":17,"items":[{"name":"푸른나라","tel":"070-8241-2558","addr":"경기도 남양주시 화도읍 마석우리 131-3번지","indutype":"신변잡화 - 기타잡화","category":"other"}]},{"lat":"37.651392831","long":"127.30899656","imageIndex":17,"items":[{"name":"프랜즈유통","tel":"031-592-1606","addr":"경기도 남양주시 화도읍 마석우리 274-1번지 화도농협하나로마트 2층","indutype":"전기제품 - 가전제품","category":"other"}]},{"lat":"37.651836963","long":"127.3114347","imageIndex":17,"items":[{"name":"하나O.A","tel":"031-594-8256","addr":"경기도 남양주시 화도읍 마석우리 249-7번지","indutype":"사무통신 - 사무용 OA기기","category":"other"}]},{"lat":"37.6557273","long":"127.30518402","imageIndex":17,"items":[{"name":"한마루쥬얼리","tel":"031-594-1555","addr":"경기도 남양주시 화도읍 마석우리 304-2번지","indutype":"신변잡화 - 액세서리","category":"other"}]},{"lat":"37.652697701","long":"127.30610095","imageIndex":17,"items":[{"name":"행텐주니어 마석점","tel":"031-511-4468","addr":"경기도 남양주시 화도읍 마석우리 308-1번지","indutype":"레져용품 - 스포츠·레져용품","category":"other"}]},{"lat":"37.651726068","long":"127.30904325","imageIndex":17,"items":[{"name":"화도농약종묘사","tel":"031-594-3905","addr":"경기도 남양주시 화도읍 마석우리 275-2번지","indutype":"농업 - 비료,사료,종자","category":"other"}]},{"lat":"37.654583985","long":"127.30482809","imageIndex":17,"items":[{"name":"화도플라워","tel":"031-111-1111","addr":"경기도 남양주시 화도읍 마석우리 306-33번지","indutype":"문화.취미 - 화원","category":"other"}]},{"lat":"37.657637706","long":"127.30504444","imageIndex":17,"items":[{"name":"황후의외출","tel":"031-594-5179","addr":"경기도 남양주시 화도읍 마석우리 363-3번지 용호빌딩 2층","indutype":"의류 - 맞춤복점","category":"other"}]},{"lat":"37.657309933","long":"127.30285593","imageIndex":4,"items":[{"name":"(주)설빙 마석점","tel":"031-591-5788","addr":"경기도 남양주시 화도읍 마석우리 383-5번지 203,204호","indutype":"일반휴게음식 - 서양음식","category":"restaurant"},{"name":"누나 홀닭","tel":"031-511-9969","addr":"경기도 남양주시 화도읍 마석우리 383-5번지 메디칼프라자 109호 ,110호,111호","indutype":"일반휴게음식 - 스넥","category":"restaurant"},{"name":"떡볶이는 장가네","tel":"02-591-5201","addr":"경기도 남양주시 화도읍 마석우리 383-5번지 메디칼프라자 105호","indutype":"일반휴게음식 - 일반한식","category":"restaurant"},{"name":"바텐","tel":"","addr":"경기도 남양주시 화도읍 마석우리 383-5번지 메디칼프라자 205호","indutype":"일반휴게음식 - 주점","category":"restaurant"},{"name":"술모포차","tel":"031-595-5225","addr":"경기도 남양주시 화도읍 마석우리 383-5번지 메디칼프라자 202호","indutype":"일반휴게음식 - 주점","category":"restaurant"},{"name":"에스엔에스","tel":"02-000-0000","addr":"경기도 남양주시 화도읍 마석우리 383-5번지 메디칼프라자 207호","indutype":"일반휴게음식 - 주점","category":"restaurant"},{"name":"점순네닭발","tel":"031-511-9996","addr":"경기도 남양주시 화도읍 마석우리 383-5번지 메디칼프라자 113호","indutype":"일반휴게음식 - 일반한식","category":"restaurant"}]},{"lat":"37.651832297","long":"127.31321377","imageIndex":4,"items":[{"name":"(주)은성","tel":"031-595-3800","addr":"경기도 남양주시 화도읍 마석우리 92-5번지 2층","indutype":"일반휴게음식 - 일반한식","category":"restaurant"}]},{"lat":"37.655446347","long":"127.30582882","imageIndex":4,"items":[{"name":"19티","tel":"031-523-3919","addr":"경기도 남양주시 화도읍 마석우리 298-12번지 1층 6호","indutype":"일반휴게음식 - 서양음식","category":"restaurant"},{"name":"미스터피자 마석점","tel":"031-559-8997","addr":"경기도 남양주시 화도읍 마석우리 298-12번지","indutype":"일반휴게음식 - 서양음식","category":"restaurant"},{"name":"미스터피자마석점","tel":"031-559-8997","addr":"경기도 남양주시 화도읍 마석우리 298-12번지 1층 3호 광림빌딩","indutype":"일반휴게음식 - 서양음식","category":"restaurant"},{"name":"진우네옛날통닭마석점","tel":"031-593-6699","addr":"경기도 남양주시 화도읍 마석우리 298-12번지","indutype":"일반휴게음식 - 스넥","category":"restaurant"}]},{"lat":"37.656532339","long":"127.30394071","imageIndex":4,"items":[{"name":"1번가퓨전포차","tel":"031-594-5092","addr":"경기도 남양주시 화도읍 마석우리 370-1번지","indutype":"일반휴게음식 - 주점","category":"restaurant"},{"name":"두툼두툼숯불돼지갈비","tel":"031-594-0997","addr":"경기도 남양주시 화도읍 마석우리 370-1번지 1층","indutype":"일반휴게음식 - 일반한식","category":"restaurant"},{"name":"주경야주","tel":"031-593-4335","addr":"경기도 남양주시 화도읍 마석우리 370-1번지","indutype":"일반휴게음식 - 주점","category":"restaurant"}]},{"lat":"37.659088535","long":"127.30493699","imageIndex":4,"items":[{"name":"1번지감자탕앤유천칡냉면","tel":"031-511-2112","addr":"경기도 남양주시 화도읍 마석우리 417-3번지 1층 102호","indutype":"일반휴게음식 - 일반한식","category":"restaurant"},{"name":"7번가피자","tel":"031-511-1773","addr":"경기도 남양주시 화도읍 마석우리 417-3번지 1층","indutype":"일반휴게음식 - 서양음식","category":"restaurant"}]},{"lat":"37.654920757","long":"127.29993394","imageIndex":4,"items":[{"name":"1인분을 부탁해 마석점","tel":"","addr":"경기도 남양주시 화도읍 마석우리 522-11번지 1층","indutype":"일반휴게음식 - 일반한식","category":"restaurant"}]},{"lat":"37.656947444","long":"127.30368174","imageIndex":4,"items":[{"name":"3일국밥","tel":"031-595-9525","addr":"경기도 남양주시 화도읍 마석우리 379-8번지","indutype":"일반휴게음식 - 일반한식","category":"restaurant"}]},{"lat":"37.654640747","long":"127.30021612","imageIndex":4,"items":[{"name":"60계남양주화도점","tel":"031-594-8660","addr":"경기도 남양주시 화도읍 마석우리 577-1번지 젬마빌 1층","indutype":"일반휴게음식 - 스넥","category":"restaurant"}]},{"lat":"37.656532157","long":"127.30046165","imageIndex":4,"items":[{"name":"BHC천마산점","tel":"031-594-0678","addr":"경기도 남양주시 화도읍 마석우리 558-8번지 하나한빌딩 1층","indutype":"일반휴게음식 - 스넥","category":"restaurant"},{"name":"청춘살롱","tel":"031-592-2200","addr":"경기도 남양주시 화도읍 마석우리 558-8번지 하나한빌딩","indutype":"일반휴게음식 - 주점","category":"restaurant"}]},{"lat":"37.658252727","long":"127.30057051","imageIndex":4,"items":[{"name":"Joe's Sandwich화도점","tel":"031-593-6789","addr":"경기도 남양주시 화도읍 마석우리 541-1번지","indutype":"일반휴게음식 - 스넥","category":"restaurant"},{"name":"김밥사랑","tel":"031-592-0289","addr":"경기도 남양주시 화도읍 마석우리 541-1번지 외1필지","indutype":"일반휴게음식 - 일반한식","category":"restaurant"},{"name":"돈까스 상회","tel":"031-595-4224","addr":"경기도 남양주시 화도읍 마석우리 541-1번지 스타타워 1층 106호","indutype":"일반휴게음식 - 일반한식","category":"restaurant"},{"name":"또봉이통닭 마석점","tel":"031-593-7085","addr":"경기도 남양주시 화도읍 마석우리 541-1번지 1층","indutype":"일반휴게음식 - 스넥","category":"restaurant"},{"name":"소담촌","tel":"031-592-8545","addr":"경기도 남양주시 화도읍 마석우리 541-1번지 4층","indutype":"일반휴게음식 - 일반한식","category":"restaurant"},{"name":"제제커피","tel":"070-4712-6149","addr":"경기도 남양주시 화도읍 마석우리 541-1번지 1층 101호","indutype":"일반휴게음식 - 서양음식","category":"restaurant"},{"name":"카페달랏","tel":"031-559-1236","addr":"경기도 남양주시 화도읍 마석우리 541-1번지 5층","indutype":"일반휴게음식 - 서양음식","category":"restaurant"}]},{"lat":"37.659449788","long":"127.30459847","imageIndex":4,"items":[{"name":"가다오다","tel":"031-595-2216","addr":"경기도 남양주시 화도읍 마석우리 384-8번지 B동 1층 101호","indutype":"일반휴게음식 - 일반한식","category":"restaurant"},{"name":"코리엔탈깻잎칩킨","tel":"031-591-9930","addr":"경기도 남양주시 화도읍 마석우리 384-8번지","indutype":"일반휴게음식 - 스넥","category":"restaurant"},{"name":"탐앤탐스","tel":"031-594-7400","addr":"경기도 남양주시 화도읍 마석우리 384-8번지 (A동101,102,201호)","indutype":"일반휴게음식 - 서양음식","category":"restaurant"}]},{"lat":"37.66033478","long":"127.3037974","imageIndex":4,"items":[{"name":"가장맛있는족발 마석점","tel":"031-559-5849","addr":"경기도 남양주시 화도읍 마석우리 441-1번지 동보플라자 1층","indutype":"일반휴게음식 - 일반한식","category":"restaurant"},{"name":"네네치킨 마석점","tel":"031-559-9982","addr":"경기도 남양주시 화도읍 마석우리 441-1번지 동보플라자 101호","indutype":"일반휴게음식 - 스넥","category":"restaurant"}]},{"lat":"37.660225682","long":"127.30418229","imageIndex":4,"items":[{"name":"갈비애가","tel":"031-591-5592","addr":"경기도 남양주시 화도읍 마석우리 439번지","indutype":"일반휴게음식 - 일반한식","category":"restaurant"}]},{"lat":"37.657419114","long":"127.30243706","imageIndex":4,"items":[{"name":"강지네","tel":"031-559-9937","addr":"경기도 남양주시 화도읍 마석우리 383-4번지 캠퍼스프라자 3층 304호","indutype":"일반휴게음식 - 일반한식","category":"restaurant"},{"name":"맛나슈퍼","tel":"031-559-7606","addr":"경기도 남양주시 화도읍 마석우리 383-4번지 캠퍼스프라자 301호","indutype":"일반휴게음식 - 일반한식","category":"restaurant"},{"name":"상구비어(마석)","tel":"031-594-3911","addr":"경기도 남양주시 화도읍 마석우리 383-4번지 캠퍼스프라자 1층 109호","indutype":"일반휴게음식 - 주점","category":"restaurant"},{"name":"오징어나라","tel":"031-592-2214","addr":"경기도 남양주시 화도읍 마석우리 383-4번지 캠퍼스프라자 1층 107호","indutype":"일반휴게음식 - 일반한식","category":"restaurant"},{"name":"오투","tel":"031-511-4771","addr":"경기도 남양주시 화도읍 마석우리 383-4번지 캠퍼스프라자 3층 305호","indutype":"일반휴게음식 - 주점","category":"restaurant"},{"name":"초밥집","tel":"031-595-9007","addr":"경기도 남양주시 화도읍 마석우리 383-4번지 캠퍼스프라자 203호","indutype":"일반휴게음식 - 일반한식","category":"restaurant"}]},{"lat":"37.65219924","long":"127.31071097","imageIndex":4,"items":[{"name":"강창구찹쌀진순대마석점","tel":"031-552-0600","addr":"경기도 남양주시 화도읍 마석우리 284번지","indutype":"일반휴게음식 - 일반한식","category":"restaurant"}]},{"lat":"37.660831577","long":"127.30330075","imageIndex":4,"items":[{"name":"경춘식당","tel":"031-594-3644","addr":"경기도 남양주시 화도읍 마석우리 444-1번지","indutype":"일반휴게음식 - 일반한식","category":"restaurant"},{"name":"천마루","tel":"031-594-3569","addr":"경기도 남양주시 화도읍 마석우리 444-1번지 1층","indutype":"일반휴게음식 - 일반한식","category":"restaurant"}]},{"lat":"37.657081807","long":"127.30398826","imageIndex":4,"items":[{"name":"고향막창","tel":"031-559-0827","addr":"경기도 남양주시 화도읍 마석우리 377-1번지 1층 청호빌","indutype":"일반휴게음식 - 일반한식","category":"restaurant"}]},{"lat":"37.658421302","long":"127.30160246","imageIndex":4,"items":[{"name":"고향손칼국수","tel":"031-559-5589","addr":"경기도 남양주시 화도읍 마석우리 539-2","indutype":"일반휴게음식 - 일반한식","category":"restaurant"}]},{"lat":"37.653697268","long":"127.30629766","imageIndex":4,"items":[{"name":"골든벨","tel":"031-111-1111","addr":"경기도 남양주시 화도읍 마석우리 295-5번지 2층","indutype":"일반휴게음식 - 주점","category":"restaurant"}]},{"lat":"37.658838325","long":"127.30413135","imageIndex":4,"items":[{"name":"골목커피","tel":"","addr":"경기도 남양주시 화도읍 마석우리 359-1번지 한마음빌 1층","indutype":"일반휴게음식 - 서양음식","category":"restaurant"}]},{"lat":"37.657218915","long":"127.3032182","imageIndex":4,"items":[{"name":"곱분이곱창","tel":"031-511-1230","addr":"경기도 남양주시 화도읍 마석우리 383-6번지 중흥프라자 110호","indutype":"일반휴게음식 - 일반한식","category":"restaurant"},{"name":"봉구스밥버거 마석점","tel":"031-593-8209","addr":"경기도 남양주시 화도읍 마석우리 383-6번지 중흥프라자 108호","indutype":"일반휴게음식 - 스넥","category":"restaurant"},{"name":"부루스타","tel":"031-595-3579","addr":"경기도 남양주시 화도읍 마석우리 383-6번지 중흥프라자 205호","indutype":"일반휴게음식 - 주점","category":"restaurant"},{"name":"엉터리생고기 마석점","tel":"031-559-3685","addr":"경기도 남양주시 화도읍 마석우리 383-6번지 301,302호","indutype":"일반휴게음식 - 일반한식","category":"restaurant"},{"name":"쥬씨(마석점)","tel":"070-4117-1028","addr":"경기도 남양주시 화도읍 마석우리 383-6번지 중흥프라자 102호","indutype":"일반휴게음식 - 서양음식","category":"restaurant"},{"name":"코바코","tel":"031-511-9117","addr":"경기도 남양주시 화도읍 마석우리 383-6번지 중흥프라자 104호","indutype":"일반휴게음식 - 일반한식","category":"restaurant"}]},{"lat":"37.658143611","long":"127.30096672","imageIndex":4,"items":[{"name":"곱창나라 순대국","tel":"031-511-6336","addr":"경기도 남양주시 화도읍 마석우리 541-3번지","indutype":"일반휴게음식 - 일반한식","category":"restaurant"}]},{"lat":"37.658305095","long":"127.30123935","imageIndex":4,"items":[{"name":"공화춘","tel":"031-591-2999","addr":"경기도 남양주시 화도읍 마석우리 538-5번지 상가동 1층 1호","indutype":"일반휴게음식 - 중국식","category":"restaurant"}]},{"lat":"37.651752567","long":"127.30924733","imageIndex":4,"items":[{"name":"광릉숯불고기","tel":"031-593-3770","addr":"경기도 남양주시 화도읍 마석우리 275-9번지","indutype":"일반휴게음식 - 일반한식","category":"restaurant"},{"name":"깡통맥주","tel":"031-1111-1111","addr":"경기도 남양주시 화도읍 마석우리 275-9번지","indutype":"일반휴게음식 - 주점","category":"restaurant"},{"name":"참존숯불바베큐","tel":"031-1234-5678","addr":"경기도 남양주시 화도읍 마석우리 275-9번지 1층","indutype":"일반휴게음식 - 스넥","category":"restaurant"},{"name":"하늘곱창","tel":"031-511-7002","addr":"경기도 남양주시 화도읍 마석우리 275-9번지","indutype":"일반휴게음식 - 일반한식","category":"restaurant"}]},{"lat":"37.6508398","long":"127.31032008","imageIndex":4,"items":[{"name":"광어2마리","tel":"031-511-2266","addr":"경기도 남양주시 화도읍 마석우리 251-1번지","indutype":"일반휴게음식 - 일반한식","category":"restaurant"}]},{"lat":"37.656252231","long":"127.30070984","imageIndex":4,"items":[{"name":"교동짬뽕","tel":"031-594-5229","addr":"경기도 남양주시 화도읍 마석우리 557-8번지","indutype":"일반휴게음식 - 일반한식","category":"restaurant"},{"name":"청춘골뱅이","tel":"031-591-7767","addr":"경기도 남양주시 화도읍 마석우리 557-8번지 1층","indutype":"일반휴게음식 - 일반한식","category":"restaurant"}]},{"lat":"37.658079913","long":"127.30121578","imageIndex":4,"items":[{"name":"교촌치킨(마석2호점)","tel":"031-559-9266","addr":"경기도 남양주시 화도읍 마석우리 541-4번지 성원빌딩 지 지하층 105호","indutype":"일반휴게음식 - 주점","category":"restaurant"}]},{"lat":"37.656140374","long":"127.30571832","imageIndex":4,"items":[{"name":"구공탄냉면","tel":"031-511-0014","addr":"경기도 남양주시 화도읍 마석우리 299-10번지 110호","indutype":"일반휴게음식 - 일반한식","category":"restaurant"},{"name":"숙이네양푼이","tel":"031-511-1666","addr":"경기도 남양주시 화도읍 마석우리 299-10번지 1층 108호","indutype":"일반휴게음식 - 일반한식","category":"restaurant"},{"name":"아가페하우스","tel":"031-559-9108","addr":"경기도 남양주시 화도읍 마석우리 299-10번지 302호","indutype":"일반휴게음식 - 스넥","category":"restaurant"},{"name":"피자스쿨마석점","tel":"031-594-8220","addr":"경기도 남양주시 화도읍 마석우리 299-10번지 우리빌딩 107호","indutype":"일반휴게음식 - 서양음식","category":"restaurant"}]},{"lat":"37.65638584","long":"127.30485805","imageIndex":4,"items":[{"name":"구이가","tel":"031-511-1293","addr":"경기도 남양주시 화도읍 마석우리 370-8번지","indutype":"일반휴게음식 - 일반한식","category":"restaurant"}]},{"lat":"37.658611077","long":"127.30137657","imageIndex":4,"items":[{"name":"국민닭발 마석점","tel":"031-595-8882","addr":"경기도 남양주시 화도읍 마석우리 538-8번지","indutype":"일반휴게음식 - 일반한식","category":"restaurant"},{"name":"꼬앤드짱즉석떡복이","tel":"031-559-8883","addr":"경기도 남양주시 화도읍 마석우리 538-8 준하우스상가1층 1","indutype":"일반휴게음식 - 스넥","category":"restaurant"}]},{"lat":"37.65691429","long":"127.30254836","imageIndex":4,"items":[{"name":"국수나무(해피화도)","tel":"031-593-5935","addr":"경기도 남양주시 화도읍 마석우리 392-4번지 1층 마석주립빌딩","indutype":"일반휴게음식 - 일반한식","category":"restaurant"}]},{"lat":"37.652809882","long":"127.30451494","imageIndex":4,"items":[{"name":"군산간장게장","tel":"031-511-5988","addr":"경기도 남양주시 화도읍 마석우리 312-5번지 1층 102호","indutype":"일반휴게음식 - 일반한식","category":"restaurant"},{"name":"잔호프","tel":"031-969-5546","addr":"경기도 남양주시 화도읍 마석우리 312-5번지 1층 1호","indutype":"일반휴게음식 - 일반한식","category":"restaurant"},{"name":"카페와야","tel":"070-8295-6199","addr":"경기도 남양주시 화도읍 마석우리 312-5번지","indutype":"일반휴게음식 - 서양음식","category":"restaurant"}]},{"lat":"37.656054221","long":"127.30062973","imageIndex":4,"items":[{"name":"굴렁쇠","tel":"","addr":"경기도 남양주시 화도읍 마석우리 564-1번지 1층","indutype":"일반휴게음식 - 주점","category":"restaurant"},{"name":"연변대박난양꼬치","tel":"031-595-1718","addr":"경기도 남양주시 화도읍 마석우리 564-1번지 1층 일부","indutype":"일반휴게음식 - 일반한식","category":"restaurant"},{"name":"홍가네 손두부","tel":"031-511-4547","addr":"경기도 남양주시 화도읍 마석우리 564-1번지","indutype":"일반휴게음식 - 일반한식","category":"restaurant"}]},{"lat":"37.658638347","long":"127.30482184","imageIndex":4,"items":[{"name":"굽네치킨","tel":"031-595-2255","addr":"경기도 남양주시 화도읍 마석우리 357-7번지 102호","indutype":"일반휴게음식 - 스넥","category":"restaurant"}]},{"lat":"37.656672171","long":"127.30562982","imageIndex":4,"items":[{"name":"그옛날주막실내포장마차","tel":"031-511-1992","addr":"경기도 남양주시 화도읍 마석우리 366-4번지 오렌지빌 104호","indutype":"일반휴게음식 - 주점","category":"restaurant"}]},{"lat":"37.651081727","long":"127.32101814","imageIndex":4,"items":[{"name":"글루와","tel":"070-7529-8843","addr":"경기도 남양주시 화도읍 마석우리 76-18번지 덕양프라자 105호","indutype":"일반휴게음식 - 주점","category":"restaurant"},{"name":"행운의횟집","tel":"031-559-4736","addr":"경기도 남양주시 화도읍 마석우리 76-18번지 덕양프라자 101호","indutype":"일반휴게음식 - 주점","category":"restaurant"}]},{"lat":"37.655222823","long":"127.30515931","imageIndex":4,"items":[{"name":"금마차","tel":"031-111-1111","addr":"경기도 남양주시 화도읍 마석우리 304-1번지 1층 일부","indutype":"일반휴게음식 - 주점","category":"restaurant"},{"name":"까페 블롱쉬","tel":"031-591-5515","addr":"경기도 남양주시 화도읍 마석우리 304-1번지 1층","indutype":"일반휴게음식 - 일반한식","category":"restaurant"},{"name":"바니포켓","tel":"031-591-2221","addr":"경기도 남양주시 화도읍 마석우리 304-1번지 2층 전부","indutype":"일반휴게음식 - 일반한식","category":"restaurant"},{"name":"장터연탄구이","tel":"031-595-4254","addr":"경기도 남양주시 화도읍 마석우리 304-1번지 1층","indutype":"일반휴게음식 - 일반한식","category":"restaurant"}]},{"lat":"37.656830291","long":"127.3036926","imageIndex":4,"items":[{"name":"김밥나라(마석점)","tel":"031-559-3773","addr":"경기도 남양주시 화도읍 마석우리 379-9","indutype":"일반휴게음식 - 스넥","category":"restaurant"}]},{"lat":"37.652922734","long":"127.30265697","imageIndex":4,"items":[{"name":"김선생갯벌낙지","tel":"","addr":"경기도 남양주시 화도읍 마석우리 336-3번지 105호","indutype":"일반휴게음식 - 일반한식","category":"restaurant"},{"name":"양꿈","tel":"","addr":"경기도 남양주시 화도읍 마석우리 336-3번지","indutype":"일반휴게음식 - 일반한식","category":"restaurant"},{"name":"옛날장군집","tel":"031-511-1222","addr":"경기도 남양주시 화도읍 마석우리 336-3번지 1층","indutype":"일반휴게음식 - 일반한식","category":"restaurant"},{"name":"이자카야형","tel":"031-528-6263","addr":"경기도 남양주시 화도읍 마석우리 336-3번지 107호","indutype":"일반휴게음식 - 주점","category":"restaurant"},{"name":"콩요리전문점","tel":"031-511-8170","addr":"경기도 남양주시 화도읍 마석우리 336-3번지 108호","indutype":"일반휴게음식 - 일반한식","category":"restaurant"},{"name":"후꾼이불닭발","tel":"031-595-9212","addr":"경기도 남양주시 화도읍 마석우리 336-3번지","indutype":"일반휴게음식 - 일반한식","category":"restaurant"}]},{"lat":"37.651388804","long":"127.30707016","imageIndex":4,"items":[{"name":"김성일참치","tel":"031-511-5040","addr":"경기도 남양주시 화도읍 마석우리 265-10번지 2층 송림빌딩","indutype":"일반휴게음식 - 일식·회집","category":"restaurant"},{"name":"동원참치마석점","tel":"031-575-5333","addr":"경기도 남양주시 화도읍 마석우리 265-10번지","indutype":"일반휴게음식 - 일식·회집","category":"restaurant"},{"name":"명륜진사갈비 마석화도점","tel":"031-595-8255","addr":"경기도 남양주시 화도읍 마석우리 265-10번지 송림빌딩 1층 일부","indutype":"일반휴게음식 - 일반한식","category":"restaurant"}]},{"lat":"37.652164124","long":"127.30688068","imageIndex":4,"items":[{"name":"김수정천줄김밥","tel":"031-774-0292","addr":"경기도 남양주시 화도읍 마석우리 270번지","indutype":"일반휴게음식 - 일반한식","category":"restaurant"},{"name":"아그리나 화도점","tel":"070-4401-0785","addr":"경기도 남양주시 화도읍 마석우리 270번지","indutype":"일반휴게음식 - 일반한식","category":"restaurant"}]},{"lat":"37.651665232","long":"127.30818179","imageIndex":4,"items":[{"name":"김수정천줄김밥","tel":"031-595-8292","addr":"경기도 남양주시 화도읍 마석우리 272-3번지 1층","indutype":"일반휴게음식 - 스넥","category":"restaurant"},{"name":"오시엔","tel":"031-591-6048","addr":"경기도 남양주시 화도읍 마석우리 272-3","indutype":"일반휴게음식 - 중국식","category":"restaurant"}]},{"lat":"37.654753173","long":"127.30207505","imageIndex":4,"items":[{"name":"김씨카페","tel":"","addr":"경기도 남양주시 화도읍 마석우리 588번지 유일프라자 106호","indutype":"일반휴게음식 - 서양음식","category":"restaurant"},{"name":"꼬지사께(마석우리점)","tel":"031-511-0989","addr":"경기도 남양주시 화도읍 마석우리 588번지 유일프라자 102호","indutype":"일반휴게음식 - 일반한식","category":"restaurant"},{"name":"방과후 떡볶이","tel":"031-000-8000","addr":"경기도 남양주시 화도읍 마석우리 588번지 유일프라자 108호 일부","indutype":"일반휴게음식 - 스넥","category":"restaurant"},{"name":"비비큐 치킨카페","tel":"031-592-9272","addr":"경기도 남양주시 화도읍 마석우리 588번지 유일프라자 104호","indutype":"일반휴게음식 - 주점","category":"restaurant"},{"name":"뿅가네치킨앤족발","tel":"031-592-0622","addr":"경기도 남양주시 화도읍 마석우리 588번지 유일프라자 101호","indutype":"일반휴게음식 - 일반한식","category":"restaurant"},{"name":"홍이","tel":"031-591-8595","addr":"경기도 남양주시 화도읍 마석우리 588번지 유일프라자 107호","indutype":"일반휴게음식 - 서양음식","category":"restaurant"}]},{"lat":"37.654391936","long":"127.30593786","imageIndex":4,"items":[{"name":"꽂힌족발","tel":"031-595-6768","addr":"경기도 남양주시 화도읍 마석우리 297-10번지","indutype":"일반휴게음식 - 일반한식","category":"restaurant"},{"name":"오구쌀피자","tel":"031-595-9599","addr":"경기도 남양주시 화도읍 마석우리 297-10번지","indutype":"일반휴게음식 - 서양음식","category":"restaurant"}]},{"lat":"37.652194624","long":"127.30902251","imageIndex":4,"items":[{"name":"꽃보다소","tel":"031-593-4151","addr":"경기도 남양주시 화도읍 마석우리 290-8번지","indutype":"일반휴게음식 - 일반한식","category":"restaurant"}]},{"lat":"37.655946163","long":"127.30060663","imageIndex":4,"items":[{"name":"꽃찬딜리버리","tel":"031-559-8388","addr":"경기도 남양주시 화도읍 마석우리 564-2번지","indutype":"일반휴게음식 - 일반한식","category":"restaurant"}]},{"lat":"37.653642277","long":"127.30666006","imageIndex":4,"items":[{"name":"나주곰탕","tel":"070-1111-1111","addr":"경기도 남양주시 화도읍 마석우리 220-11번지","indutype":"일반휴게음식 - 일반한식","category":"restaurant"},{"name":"수정","tel":"031-593-7734","addr":"경기도 남양주시 화도읍 마석우리 220-11번지 지하1층","indutype":"일반휴게음식 - 주점","category":"restaurant"}]},{"lat":"37.653200166","long":"127.30690756","imageIndex":4,"items":[{"name":"놀이터","tel":"031-592-8842","addr":"경기도 남양주시 화도읍 마석우리 220-17번지 2층","indutype":"일반휴게음식 - 주점","category":"restaurant"}]},{"lat":"37.658664447","long":"127.3051846","imageIndex":4,"items":[{"name":"농부치킨 마석점","tel":"031-515-5007","addr":"경기도 남양주시 화도읍 마석우리 416-1번지 신정빌딩 2층","indutype":"일반휴게음식 - 스넥","category":"restaurant"},{"name":"심야식당","tel":"031-593-0730","addr":"경기도 남양주시 화도읍 마석우리 416-1번지 1층 101호","indutype":"일반휴게음식 - 일반한식","category":"restaurant"}]},{"lat":"37.657280278","long":"127.30388707","imageIndex":4,"items":[{"name":"니하우회전양꼬치","tel":"031-511-9138","addr":"경기도 남양주시 화도읍 마석우리 379-4번지 우리하이츠","indutype":"일반휴게음식 - 중국식","category":"restaurant"},{"name":"족발삼촌","tel":"031-593-5825","addr":"경기도 남양주시 화도읍 마석우리 379-4번지 1층 우리하이츠","indutype":"일반휴게음식 - 일반한식","category":"restaurant"}]},{"lat":"37.65522679","long":"127.30360681","imageIndex":4,"items":[{"name":"다꼬치다 마석점","tel":"02-2662-9250","addr":"경기도 남양주시 화도읍 마석우리 317-8번지 1층 102호","indutype":"일반휴게음식 - 일반한식","category":"restaurant"},{"name":"본족발","tel":"031-558-9898","addr":"경기도 남양주시 화도읍 마석우리 317-8 1-2호","indutype":"일반휴게음식 - 일반한식","category":"restaurant"},{"name":"상진푸드(남양주1호점)","tel":"031-594-0708","addr":"경기도 남양주시 화도읍 마석우리 317-8번지","indutype":"일반휴게음식 - 일반한식","category":"restaurant"},{"name":"신마산아구찜","tel":"031-595-4289","addr":"경기도 남양주시 화도읍 마석우리 317-8번지 1층","indutype":"일반휴게음식 - 일반한식","category":"restaurant"},{"name":"실내두루와포차","tel":"031-111-1111","addr":"경기도 남양주시 화도읍 마석우리 317-8번지","indutype":"일반휴게음식 - 주점","category":"restaurant"},{"name":"찬's닭장정","tel":"031-511-9599","addr":"경기도 남양주시 화도읍 마석우리 317-8번지","indutype":"일반휴게음식 - 일반한식","category":"restaurant"}]},{"lat":"37.658365969","long":"127.30563669","imageIndex":4,"items":[{"name":"다드림무한리필","tel":"031-595-3434","addr":"경기도 남양주시 화도읍 마석우리 410-1번지 거농마트 301호","indutype":"일반휴게음식 - 일반한식","category":"restaurant"}]},{"lat":"37.659865647","long":"127.30404484","imageIndex":4,"items":[{"name":"다산오리","tel":"031-559-7061","addr":"경기도 남양주시 화도읍 마석우리 385번지 101호","indutype":"일반휴게음식 - 일반한식","category":"restaurant"}]},{"lat":"37.655807702","long":"127.31919112","imageIndex":4,"items":[{"name":"다올","tel":"031-511-4244","addr":"경기도 남양주시 화도읍 마석우리 31-5번지 1층","indutype":"일반휴게음식 - 일반한식","category":"restaurant"},{"name":"산성한식뷔페","tel":"031-594-0081","addr":"경기도 남양주시 화도읍 마석우리 31-5번지 102호","indutype":"일반휴게음식 - 일반한식","category":"restaurant"}]},{"lat":"37.65269563","long":"127.30690551","imageIndex":4,"items":[{"name":"다인","tel":"031-511-3541","addr":"경기도 남양주시 화도읍 마석우리 292-12번지","indutype":"일반휴게음식 - 일반한식","category":"restaurant"},{"name":"사랑","tel":"","addr":"경기도 남양주시 화도읍 마석우리 292-12번지","indutype":"일반휴게음식 - 주점","category":"restaurant"},{"name":"수빈","tel":"031-594-2749","addr":"경기도 남양주시 화도읍 마석우리 292-12번지","indutype":"일반휴게음식 - 주점","category":"restaurant"},{"name":"수카페","tel":"031-511-5358","addr":"경기도 남양주시 화도읍 마석우리 292-12번지 1층 일부","indutype":"일반휴게음식 - 주점","category":"restaurant"},{"name":"호박꽃","tel":"031-594-4682","addr":"경기도 남양주시 화도읍 마석우리 292-12번지","indutype":"일반휴게음식 - 일반한식","category":"restaurant"}]},{"lat":"37.657583738","long":"127.31876802","imageIndex":4,"items":[{"name":"단풍나무집 (마석점)","tel":"031-595-6372","addr":"경기도 남양주시 화도읍 마석우리 25-12번지 1층","indutype":"일반휴게음식 - 일반한식","category":"restaurant"}]},{"lat":"37.654503595","long":"127.30455579","imageIndex":4,"items":[{"name":"달밤","tel":"031-593-1474","addr":"경기도 남양주시 화도읍 마석우리 315-14번지 두원빌라 가동 102호","indutype":"일반휴게음식 - 주점","category":"restaurant"}]},{"lat":"37.657944466","long":"127.30487569","imageIndex":4,"items":[{"name":"대구소막창 곱창","tel":"031-593-2888","addr":"경기도 남양주시 화도읍 마석우리 360-6번지 세종빌딩 102호","indutype":"일반휴게음식 - 일반한식","category":"restaurant"},{"name":"족발구역","tel":"031-000-0000","addr":"경기도 남양주시 화도읍 마석우리 360-6번지 세종빌딩 1층 101호","indutype":"일반휴게음식 - 일반한식","category":"restaurant"}]},{"lat":"37.655838191","long":"127.30054954","imageIndex":4,"items":[{"name":"대구호박막창","tel":"031-591-8362","addr":"경기도 남양주시 화도읍 마석우리 564-3번지 1층","indutype":"일반휴게음식 - 일반한식","category":"restaurant"}]},{"lat":"37.65697208","long":"127.30107536","imageIndex":4,"items":[{"name":"대천부양꼬치","tel":"031-591-8805","addr":"경기도 남양주시 화도읍 마석우리 557-2번지","indutype":"일반휴게음식 - 일반한식","category":"restaurant"}]},{"lat":"37.655306827","long":"127.30046809","imageIndex":4,"items":[{"name":"대천부훠궈(마석점)","tel":"031-593-0561","addr":"경기도 남양주시 화도읍 마석우리 570-3번지 1층","indutype":"일반휴게음식 - 일반한식","category":"restaurant"}]},{"lat":"37.653420766","long":"127.31557743","imageIndex":4,"items":[{"name":"대추나무집","tel":"031-593-2221","addr":"경기도 남양주시 화도읍 마석우리 132-1번지","indutype":"일반휴게음식 - 일반한식","category":"restaurant"}]},{"lat":"37.65675036","long":"127.30323898","imageIndex":4,"items":[{"name":"더불어퓨전포차","tel":"","addr":"경기도 남양주시 화도읍 마석우리 383-9번지 별나라프라자 2층 205호","indutype":"일반휴게음식 - 주점","category":"restaurant"},{"name":"두부마을","tel":"031-559-1988","addr":"경기도 남양주시 화도읍 마석우리 383-9번지 별나라프라자 108호","indutype":"일반휴게음식 - 일반한식","category":"restaurant"},{"name":"제이제이","tel":"031-593-6828","addr":"경기도 남양주시 화도읍 마석우리 383-9번지 301,302호","indutype":"일반휴게음식 - 주점","category":"restaurant"},{"name":"커피콩로스터스","tel":"031-511-7828","addr":"경기도 남양주시 화도읍 마석우리 383-9번지 별나라프라자 102호","indutype":"일반휴게음식 - 서양음식","category":"restaurant"},{"name":"화도분식","tel":"031-593-3839","addr":"경기도 남양주시 화도읍 마석우리 383-9번지 별나라프라자 105호","indutype":"일반휴게음식 - 스넥","category":"restaurant"}]},{"lat":"37.655441913","long":"127.30049129","imageIndex":4,"items":[{"name":"더엠커피 위드 아셀","tel":"031-511-7177","addr":"경기도 남양주시 화도읍 마석우리 570-4번지","indutype":"일반휴게음식 - 서양음식","category":"restaurant"}]},{"lat":"37.656531645","long":"127.30421269","imageIndex":4,"items":[{"name":"도깨비주막","tel":"031-559-4151","addr":"경기도 남양주시 화도읍 마석우리 370-3번지 1층","indutype":"일반휴게음식 - 일반한식","category":"restaurant"}]},{"lat":"37.656891391","long":"127.30446346","imageIndex":4,"items":[{"name":"돈가네마석점","tel":"031-515-3792","addr":"경기도 남양주시 화도읍 마석우리 372-4번지 파크빌","indutype":"일반휴게음식 - 일반한식","category":"restaurant"}]},{"lat":"37.654221191","long":"127.30576718","imageIndex":4,"items":[{"name":"돈통마늘보쌈","tel":"031-591-5382","addr":"경기도 남양주시 화도읍 마석우리 295-15번지 청운빌딩 101동 102호","indutype":"일반휴게음식 - 일반한식","category":"restaurant"},{"name":"바우네돌곱창","tel":"031-595-0732","addr":"경기도 남양주시 화도읍 마석우리 295-15번지 성지빌딩 1층 105호","indutype":"일반휴게음식 - 일반한식","category":"restaurant"},{"name":"주디호프","tel":"031-594-3887","addr":"경기도 남양주시 화도읍 마석우리 295-15번지","indutype":"일반휴게음식 - 주점","category":"restaurant"},{"name":"주디호프","tel":"070-7848-4868","addr":"경기도 남양주시 화도읍 마석우리 295-15번지","indutype":"일반휴게음식 - 주점","category":"restaurant"}]},{"lat":"37.658529273","long":"127.30165956","imageIndex":4,"items":[{"name":"동태마을불낙지","tel":"031-594-8822","addr":"경기도 남양주시 화도읍 마석우리 539-1번지 1층","indutype":"일반휴게음식 - 일반한식","category":"restaurant"}]},{"lat":"37.652054939","long":"127.31076703","imageIndex":4,"items":[{"name":"동해생아구찜","tel":"031-511-0780","addr":"경기도 남양주시 화도읍 마석우리 282-2","indutype":"일반휴게음식 - 일반한식","category":"restaurant"},{"name":"베트남쌀국수투홍","tel":"031-593-1321","addr":"경기도 남양주시 화도읍 마석우리 282-2번지 2층","indutype":"일반휴게음식 - 서양음식","category":"restaurant"},{"name":"이디야커피 마석역점","tel":"031-593-7933","addr":"경기도 남양주시 화도읍 마석우리 282-2번지 1층 101호","indutype":"일반휴게음식 - 서양음식","category":"restaurant"}]},{"lat":"37.656919082","long":"127.30065584","imageIndex":4,"items":[{"name":"돼지꿈","tel":"031-559-3392","addr":"경기도 남양주시 화도읍 마석우리 556-5","indutype":"일반휴게음식 - 일반한식","category":"restaurant"}]},{"lat":"37.657691182","long":"127.30527131","imageIndex":4,"items":[{"name":"두끼 떡볶이 마석점","tel":"031-559-2771","addr":"경기도 남양주시 화도읍 마석우리 363-4번지 대영빌딩 2층","indutype":"일반휴게음식 - 스넥","category":"restaurant"},{"name":"수중회센타","tel":"031-559-1680","addr":"경기도 남양주시 화도읍 마석우리 363-4번지 1층","indutype":"일반휴게음식 - 일반한식","category":"restaurant"}]},{"lat":"37.655085906","long":"127.30585002","imageIndex":4,"items":[{"name":"두찜 남양주 화도점","tel":"031-111-1111","addr":"경기도 남양주시 화도읍 마석우리 297-9번지 1층","indutype":"일반휴게음식 - 일반한식","category":"restaurant"}]},{"lat":"37.656948484","long":"127.30327377","imageIndex":4,"items":[{"name":"떡볶이짱이네","tel":"031-591-7011","addr":"경기도 남양주시 화도읍 마석우리 383-8번지 별나라타워 105호","indutype":"일반휴게음식 - 스넥","category":"restaurant"},{"name":"멍살롱&애견카페","tel":"070-7576-1650","addr":"경기도 남양주시 화도읍 마석우리 383-8번지 별나라타워 302호","indutype":"일반휴게음식 - 서양음식","category":"restaurant"},{"name":"명랑핫도그","tel":"031-559-3733","addr":"경기도 남양주시 화도읍 마석우리 383-8번지 별나라타워 104호","indutype":"일반휴게음식 - 서양음식","category":"restaurant"},{"name":"미스앤불닭발","tel":"031-559-2345","addr":"경기도 남양주시 화도읍 마석우리 383-8번지 별나라타워 107호","indutype":"일반휴게음식 - 일반한식","category":"restaurant"},{"name":"미스터깐풍","tel":"031-559-8905","addr":"경기도 남양주시 화도읍 마석우리 383-8번지 별나라타워 1층","indutype":"일반휴게음식 - 중국식","category":"restaurant"},{"name":"바나바커피","tel":"031-595-1135","addr":"경기도 남양주시 화도읍 마석우리 383-8번지 별나라타워 703호 703~705호","indutype":"일반휴게음식 - 서양음식","category":"restaurant"},{"name":"엠바","tel":"031-591-4647","addr":"경기도 남양주시 화도읍 마석우리 383-8번지 별나라타워 201호","indutype":"일반휴게음식 - 주점","category":"restaurant"},{"name":"이맛에오리앤금계찜닭화도점","tel":"031-565-5291","addr":"경기도 남양주시 화도읍 마석우리 383-8번지 별나라타워 205호","indutype":"일반휴게음식 - 일반한식","category":"restaurant"},{"name":"일구곱돌집","tel":"02-000-0000","addr":"경기도 남양주시 화도읍 마석우리 383-8번지 102,103호","indutype":"일반휴게음식 - 일반한식","category":"restaurant"},{"name":"제이바 (J-BAR)","tel":"","addr":"경기도 남양주시 화도읍 마석우리 383-8번지 별나라타워 504호","indutype":"일반휴게음식 - 칵테일바","category":"restaurant"},{"name":"혼참치,초밥","tel":"031-593-4578","addr":"경기도 남양주시 화도읍 마석우리 383-8번지 별나라타워 203호","indutype":"일반휴게음식 - 일식·회집","category":"restaurant"},{"name":"화도국수","tel":"031-511-9169","addr":"경기도 남양주시 화도읍 마석우리 383-8번지 별나라타워 1층 101호","indutype":"일반휴게음식 - 일반한식","category":"restaurant"},{"name":"황궁주점","tel":"031-595-5191","addr":"경기도 남양주시 화도읍 마석우리 383-8번지 별나라타워 805호","indutype":"일반휴게음식 - 주점","category":"restaurant"}]},{"lat":"37.654639549","long":"127.30423904","imageIndex":4,"items":[{"name":"또래오래치킨","tel":"031-593-4483","addr":"경기도 남양주시 화도읍 마석우리 317-2번지 두원 상가 103호","indutype":"일반휴게음식 - 일반한식","category":"restaurant"}]},{"lat":"37.652058922","long":"127.30923726","imageIndex":4,"items":[{"name":"뚜꺼비 손칼국수","tel":"","addr":"경기도 남양주시 화도읍 마석우리 290-7번지","indutype":"일반휴게음식 - 일반한식","category":"restaurant"},{"name":"바움샤텐","tel":"031-111-1111","addr":"경기도 남양주시 화도읍 마석우리 290-7번지","indutype":"일반휴게음식 - 서양음식","category":"restaurant"},{"name":"셰프의돈까스","tel":"031-592-2322","addr":"경기도 남양주시 화도읍 마석우리 290-7번지","indutype":"일반휴게음식 - 일반한식","category":"restaurant"},{"name":"송가네솥뚜껑삼겹살","tel":"031-559-3336","addr":"경기도 남양주시 화도읍 마석우리 290-7번지","indutype":"일반휴게음식 - 일반한식","category":"restaurant"}]},{"lat":"37.65711299","long":"127.3023565","imageIndex":4,"items":[{"name":"뚱이푸드","tel":"031-511-1597","addr":"경기도 남양주시 화도읍 마석우리 392-1번지 별나라타운 3층 308호","indutype":"일반휴게음식 - 일반한식","category":"restaurant"},{"name":"바 이브(BAR eve)","tel":"031-111-1111","addr":"경기도 남양주시 화도읍 마석우리 392-1번지 별나라타운 4층 407호","indutype":"일반휴게음식 - 일반한식","category":"restaurant"},{"name":"잇또라멘 마석점","tel":"031-559-2621","addr":"경기도 남양주시 화도읍 마석우리 392-1번지 별나라타운 102호","indutype":"일반휴게음식 - 일반한식","category":"restaurant"},{"name":"펀비어킹마석점","tel":"031-559-0177","addr":"경기도 남양주시 화도읍 마석우리 392-1번지 별나라타운 108호 109호","indutype":"일반휴게음식 - 주점","category":"restaurant"},{"name":"포차스미스중흥점","tel":"","addr":"경기도 남양주시 화도읍 마석우리 392-1번지 별나라타운 309호-312호","indutype":"일반휴게음식 - 주점","category":"restaurant"},{"name":"포차천국 마석점","tel":"","addr":"경기도 남양주시 화도읍 마석우리 392-1번지 별나라타운 103,104,105호","indutype":"일반휴게음식 - 주점","category":"restaurant"},{"name":"호동이","tel":"031-591-7598","addr":"경기도 남양주시 화도읍 마석우리 392-1번지 별나라타운 306호","indutype":"일반휴게음식 - 주점","category":"restaurant"}]},{"lat":"37.654778153","long":"127.30640405","imageIndex":4,"items":[{"name":"라라자봐","tel":"031-595-1589","addr":"경기도 남양주시 화도읍 마석우리 297-7번지","indutype":"일반휴게음식 - 주점","category":"restaurant"}]},{"lat":"37.656748077","long":"127.30413424","imageIndex":4,"items":[{"name":"라무진 마석점","tel":"02-1111-1111","addr":"경기도 남양주시 화도읍 마석우리 372-9번지 상가동 1층 102호","indutype":"일반휴게음식 - 일반한식","category":"restaurant"},{"name":"청해진동태찜(마석점)","tel":"031-593-1610","addr":"경기도 남양주시 화도읍 마석우리 372-9","indutype":"일반휴게음식 - 일반한식","category":"restaurant"}]},{"lat":"37.655137044","long":"127.29991213","imageIndex":4,"items":[{"name":"래빗츠컴퍼니 마석","tel":"031-595-3712","addr":"경기도 남양주시 화도읍 마석우리 521-6번지 1층","indutype":"일반휴게음식 - 서양음식","category":"restaurant"}]},{"lat":"37.654721619","long":"127.30385408","imageIndex":4,"items":[{"name":"레드팝불갈비","tel":"031-595-9002","addr":"경기도 남양주시 화도읍 마석우리 317-7번지 1층","indutype":"일반휴게음식 - 일반한식","category":"restaurant"}]},{"lat":"37.656531298","long":"127.30434868","imageIndex":4,"items":[{"name":"로얄자카르타 남양주마석점","tel":"031-511-7867","addr":"경기도 남양주시 화도읍 마석우리 370-4번지","indutype":"일반휴게음식 - 주점","category":"restaurant"}]},{"lat":"37.651838844","long":"127.30724197","imageIndex":4,"items":[{"name":"루루호프","tel":"031-595-7879","addr":"경기도 남양주시 화도읍 마석우리 272-1번지","indutype":"일반휴게음식 - 주점","category":"restaurant"},{"name":"마석갈매기","tel":"031-594-0202","addr":"경기도 남양주시 화도읍 마석우리 272-1번지","indutype":"일반휴게음식 - 일반한식","category":"restaurant"}]},{"lat":"37.659141924","long":"127.30166201","imageIndex":4,"items":[{"name":"리우커피","tel":"031-592-5589","addr":"경기도 남양주시 화도읍 마석우리 534-4번지","indutype":"일반휴게음식 - 서양음식","category":"restaurant"}]},{"lat":"37.657054083","long":"127.30071305","imageIndex":4,"items":[{"name":"리즈커피(LIZ COFFEE)","tel":"031-559-8780","addr":"경기도 남양주시 화도읍 마석우리 556-4번지","indutype":"일반휴게음식 - 서양음식","category":"restaurant"}]},{"lat":"37.657360612","long":"127.30418204","imageIndex":4,"items":[{"name":"마봉양꼬치(화도점)","tel":"031-559-5250","addr":"경기도 남양주시 화도읍 마석우리 379-2번지 1층","indutype":"일반휴게음식 - 일반한식","category":"restaurant"},{"name":"박군스 쭈꾸미","tel":"031-511-9223","addr":"경기도 남양주시 화도읍 마석우리 379-2번지 101호","indutype":"일반휴게음식 - 일반한식","category":"restaurant"},{"name":"프랭크서울마석점","tel":"031-591-5655","addr":"경기도 남양주시 화도읍 마석우리 379-2번지 102호","indutype":"일반휴게음식 - 서양음식","category":"restaurant"}]},{"lat":"37.658504392","long":"127.30435665","imageIndex":4,"items":[{"name":"마석사철탕","tel":"031-555-8790","addr":"경기도 남양주시 화도읍 마석우리 359-4번지 장인이튼빌","indutype":"일반휴게음식 - 일반한식","category":"restaurant"}]},{"lat":"37.657420547","long":"127.3054062","imageIndex":4,"items":[{"name":"마석수타짬뽕","tel":"031-511-2367","addr":"경기도 남양주시 화도읍 마석우리 363-7번지 1층","indutype":"일반휴게음식 - 중국식","category":"restaurant"}]},{"lat":"37.65386107","long":"127.30566373","imageIndex":4,"items":[{"name":"마석숯불고기인생극장","tel":"031-592-9292","addr":"경기도 남양주시 화도읍 마석우리 295-17번지","indutype":"일반휴게음식 - 일반한식","category":"restaurant"},{"name":"정원뜰","tel":"031-559-5835","addr":"경기도 남양주시 화도읍 마석우리 295-17번지 1층","indutype":"일반휴게음식 - 일반한식","category":"restaurant"}]},{"lat":"37.651726068","long":"127.30904325","imageIndex":4,"items":[{"name":"마석장군","tel":"031-591-8168","addr":"경기도 남양주시 화도읍 마석우리 275-2","indutype":"일반휴게음식 - 일반한식","category":"restaurant"},{"name":"먹거리마트","tel":"02-911-2728","addr":"경기도 남양주시 화도읍 마석우리 275-2번지 1층 2호","indutype":"일반휴게음식 - 일반한식","category":"restaurant"},{"name":"청수칼국수","tel":"031-595-3677","addr":"경기도 남양주시 화도읍 마석우리 275-2번지 4호","indutype":"일반휴게음식 - 일반한식","category":"restaurant"}]},{"lat":"37.656530428","long":"127.30468865","imageIndex":4,"items":[{"name":"마석호반닭갈비","tel":"031-592-0017","addr":"경기도 남양주시 화도읍 마석우리 370-6번지 팜스빌 상가 1층","indutype":"일반휴게음식 - 일반한식","category":"restaurant"}]},{"lat":"37.658219208","long":"127.30313157","imageIndex":4,"items":[{"name":"마왕족발 남양주 마석점","tel":"031-593-5626","addr":"경기도 남양주시 화도읍 마석우리 349번지 111-104 (중흥에스-클래스(상가동))","indutype":"일반휴게음식 - 일반한식","category":"restaurant"},{"name":"불닭발동대문엽기떡볶이 마석점","tel":"031-592-8590","addr":"경기도 남양주시 화도읍 마석우리 349번지 중흥에스클레스 111동 107 상가","indutype":"일반휴게음식 - 일반한식","category":"restaurant"},{"name":"오븐마루 마석점","tel":"031-511-2201","addr":"경기도 남양주시 화도읍 마석우리 349번지 111동상가동 106호(중흥에스-클래스)","indutype":"일반휴게음식 - 일반한식","category":"restaurant"},{"name":"화랑닭발","tel":"031-594-8582","addr":"경기도 남양주시 화도읍 마석우리 349번지 중흥에스클래스 상가동 110호","indutype":"일반휴게음식 - 일반한식","category":"restaurant"}]},{"lat":"37.651389213","long":"127.30691151","imageIndex":4,"items":[{"name":"마이홈","tel":"031-594-4382","addr":"경기도 남양주시 화도읍 마석우리 267-7번지","indutype":"일반휴게음식 - 주점","category":"restaurant"}]},{"lat":"37.657114628","long":"127.30524631","imageIndex":4,"items":[{"name":"마카나이(마석점)","tel":"031-511-4447","addr":"경기도 남양주시 화도읍 마석우리 365-10번지 휴먼빌 101호","indutype":"일반휴게음식 - 일반한식","category":"restaurant"}]},{"lat":"37.657195075","long":"127.30549595","imageIndex":4,"items":[{"name":"만나참치","tel":"031-594-3725","addr":"경기도 남양주시 화도읍 마석우리 363-9번지","indutype":"일반휴게음식 - 일반한식","category":"restaurant"}]},{"lat":"37.659250708","long":"127.30493765","imageIndex":4,"items":[{"name":"만복래연탄구이","tel":"031-511-2850","addr":"경기도 남양주시 화도읍 마석우리 417번지 1층","indutype":"일반휴게음식 - 일반한식","category":"restaurant"}]},{"lat":"37.657005729","long":"127.30555184","imageIndex":4,"items":[{"name":"맘스터치","tel":"031-511-0056","addr":"경기도 남양주시 화도읍 마석우리 366-1번지","indutype":"일반휴게음식 - 일반한식","category":"restaurant"}]},{"lat":"37.652779776","long":"127.305716","imageIndex":4,"items":[{"name":"맛집냉면","tel":"","addr":"경기도 남양주시 화도읍 마석우리 309-6번지 1층 일부","indutype":"일반휴게음식 - 일반한식","category":"restaurant"},{"name":"카페다원","tel":"070-8945-3313","addr":"경기도 남양주시 화도읍 마석우리 309-6번지 주건축물 제1동 1층일부","indutype":"일반휴게음식 - 서양음식","category":"restaurant"},{"name":"퉁바우네순대국집","tel":"","addr":"경기도 남양주시 화도읍 마석우리 309-6번지 주건축물제 1동 1층 일부","indutype":"일반휴게음식 - 일반한식","category":"restaurant"}]},{"lat":"37.651920719","long":"127.30693634","imageIndex":4,"items":[{"name":"매울신닭발","tel":"031-511-6333","addr":"경기도 남양주시 화도읍 마석우리 269-2번지","indutype":"일반휴게음식 - 일반한식","category":"restaurant"},{"name":"머구리식당","tel":"031-511-8504","addr":"경기도 남양주시 화도읍 마석우리 269-2번지","indutype":"일반휴게음식 - 일반한식","category":"restaurant"},{"name":"포차스미스","tel":"031-559-7773","addr":"경기도 남양주시 화도읍 마석우리 269-2번지","indutype":"일반휴게음식 - 일반한식","category":"restaurant"}]},{"lat":"37.652056594","long":"127.31013246","imageIndex":4,"items":[{"name":"매콩이달콩이즉석떡볶이","tel":"031-595-2251","addr":"경기도 남양주시 화도읍 마석우리 288-5번지 1층 2호","indutype":"일반휴게음식 - 스넥","category":"restaurant"},{"name":"치윙스","tel":"031-591-1590","addr":"경기도 남양주시 화도읍 마석우리 288-5번지 1층 102호","indutype":"일반휴게음식 - 일반한식","category":"restaurant"}]},{"lat":"37.657753932","long":"127.29466421","imageIndex":4,"items":[{"name":"맷돌36샤브샤브","tel":"","addr":"경기도 남양주시 화도읍 마석우리 514-13번지","indutype":"일반휴게음식 - 일반한식","category":"restaurant"}]},{"lat":"37.656891825","long":"127.30429347","imageIndex":4,"items":[{"name":"맷돌감자탕","tel":"031-573-9250","addr":"경기도 남양주시 화도읍 마석우리 372-3번지","indutype":"일반휴게음식 - 일반한식","category":"restaurant"}]},{"lat":"37.655001551","long":"127.3036059","imageIndex":4,"items":[{"name":"맷돌모루","tel":"031-511-6240","addr":"경기도 남양주시 화도읍 마석우리 317-15번지","indutype":"일반휴게음식 - 일반한식","category":"restaurant"},{"name":"신차이","tel":"031-592-8220","addr":"경기도 남양주시 화도읍 마석우리 317-15번지","indutype":"일반휴게음식 - 중국식","category":"restaurant"}]},{"lat":"37.658332525","long":"127.3010808","imageIndex":4,"items":[{"name":"먹보","tel":"031-594-5784","addr":"경기도 남양주시 화도읍 마석우리 538-4번지 101호","indutype":"일반휴게음식 - 일반한식","category":"restaurant"}]},{"lat":"37.655833631","long":"127.30235136","imageIndex":4,"items":[{"name":"메가커피","tel":"070-2502-5096","addr":"경기도 남양주시 화도읍 마석우리 396번지 신명스카이뷰그린 105호","indutype":"일반휴게음식 - 서양음식","category":"restaurant"},{"name":"못난이찹쌀꽈배기 남양주마석점","tel":"031-595-5489","addr":"경기도 남양주시 화도읍 마석우리 396번지 신명스카이뷰그린 상가동 107호","indutype":"일반휴게음식 - 스넥","category":"restaurant"},{"name":"신전떡볶이","tel":"031-559-5002","addr":"경기도 남양주시 화도읍 마석우리 396번지 신명스카이뷰그린상가 108호","indutype":"일반휴게음식 - 일반한식","category":"restaurant"},{"name":"원조 왕십리 불난막창","tel":"031-594-6200","addr":"경기도 남양주시 화도읍 마석우리 396번지 신명스카이뷰 106호 상가","indutype":"일반휴게음식 - 일반한식","category":"restaurant"}]},{"lat":"37.655001782","long":"127.30351524","imageIndex":4,"items":[{"name":"메밀촌","tel":"031-111-1111","addr":"경기도 남양주시 화도읍 마석우리 327-8번지","indutype":"일반휴게음식 - 일반한식","category":"restaurant"}]},{"lat":"37.653722925","long":"127.30683037","imageIndex":4,"items":[{"name":"명품 스마일 찹쌀 꽈배기 마석점","tel":"031-516-7660","addr":"경기도 남양주시 화도읍 마석우리 220-10번지","indutype":"일반휴게음식 - 일반한식","category":"restaurant"},{"name":"왕김밥","tel":"031-594-2242","addr":"경기도 남양주시 화도읍 마석우리 220-10번지 103호","indutype":"일반휴게음식 - 일반한식","category":"restaurant"}]},{"lat":"37.651811089","long":"127.31099266","imageIndex":4,"items":[{"name":"명품뽕족발","tel":"","addr":"경기도 남양주시 화도읍 마석우리 279-3번지 1층 4-5호","indutype":"일반휴게음식 - 일반한식","category":"restaurant"},{"name":"비턴","tel":"031-591-2652","addr":"경기도 남양주시 화도읍 마석우리 279-3번지 1층 일부","indutype":"일반휴게음식 - 일반한식","category":"restaurant"}]},{"lat":"37.658947893","long":"127.32074571","imageIndex":4,"items":[{"name":"무교동낙지","tel":"031-511-3118","addr":"경기도 남양주시 화도읍 마석우리 10-22번지 1층","indutype":"일반휴게음식 - 일반한식","category":"restaurant"}]},{"lat":"37.655920325","long":"127.30368893","imageIndex":4,"items":[{"name":"미소짓는","tel":"070-7786-2100","addr":"경기도 남양주시 화도읍 마석우리 325번지 주 1동","indutype":"일반휴게음식 - 일반한식","category":"restaurant"}]},{"lat":"37.652505553","long":"127.30724469","imageIndex":4,"items":[{"name":"민들레","tel":"031-593-2804","addr":"경기도 남양주시 화도읍 마석우리 292-25번지","indutype":"일반휴게음식 - 주점","category":"restaurant"},{"name":"부산집","tel":"031-593-4674","addr":"경기도 남양주시 화도읍 마석우리 292-25번지","indutype":"일반휴게음식 - 일반한식","category":"restaurant"},{"name":"수정","tel":"031-593-9061","addr":"경기도 남양주시 화도읍 마석우리 292-25번지","indutype":"일반휴게음식 - 일반한식","category":"restaurant"},{"name":"야화","tel":"031-559-5267","addr":"경기도 남양주시 화도읍 마석우리 292-25","indutype":"일반휴게음식 - 주점","category":"restaurant"},{"name":"지엠호프","tel":"031-595-5466","addr":"경기도 남양주시 화도읍 마석우리 292-25번지","indutype":"일반휴게음식 - 주점","category":"restaurant"}]},{"lat":"37.658024885","long":"127.30513667","imageIndex":4,"items":[{"name":"바나나","tel":"031-559-0730","addr":"경기도 남양주시 화도읍 마석우리 360-5번지","indutype":"일반휴게음식 - 일반한식","category":"restaurant"},{"name":"소야쌀국수","tel":"031-593-3392","addr":"경기도 남양주시 화도읍 마석우리 360-5번지 101호","indutype":"일반휴게음식 - 서양음식","category":"restaurant"}]},{"lat":"37.651781565","long":"127.30848822","imageIndex":4,"items":[{"name":"바다커피숍","tel":"031-595-0898","addr":"경기도 남양주시 화도읍 마석우리 271-21번지 지하1층","indutype":"일반휴게음식 - 주점","category":"restaurant"},{"name":"베아또","tel":"031-559-8877","addr":"경기도 남양주시 화도읍 마석우리 271-21번지","indutype":"일반휴게음식 - 일반한식","category":"restaurant"}]},{"lat":"37.654222819","long":"127.30513259","imageIndex":4,"items":[{"name":"바른밥상","tel":"031-594-6088","addr":"경기도 남양주시 화도읍 마석우리 305-14번지","indutype":"일반휴게음식 - 일반한식","category":"restaurant"},{"name":"약속","tel":"031-515-7122","addr":"경기도 남양주시 화도읍 마석우리 305-14번지 2층","indutype":"일반휴게음식 - 일반한식","category":"restaurant"}]},{"lat":"37.656198928","long":"127.30396203","imageIndex":4,"items":[{"name":"반주","tel":"031-511-0115","addr":"경기도 남양주시 화도읍 마석우리 324-3번지 1층","indutype":"일반휴게음식 - 주점","category":"restaurant"}]},{"lat":"37.65658712","long":"127.30365762","imageIndex":4,"items":[{"name":"밤도깨비","tel":"031-111-1111","addr":"경기도 남양주시 화도읍 마석우리 379-11번지 모던빌 103호","indutype":"일반휴게음식 - 주점","category":"restaurant"}]},{"lat":"37.662057252","long":"127.30315836","imageIndex":4,"items":[{"name":"밤도깨비","tel":"031-511-2048","addr":"경기도 남양주시 화도읍 마석우리 470-33번지 (지하102호)","indutype":"일반휴게음식 - 주점","category":"restaurant"},{"name":"은지네옛날통닭","tel":"031-592-8998","addr":"경기도 남양주시 화도읍 마석우리 470-33번지 지하1층 B04호","indutype":"일반휴게음식 - 스넥","category":"restaurant"}]},{"lat":"37.659080835","long":"127.3008798","imageIndex":4,"items":[{"name":"배달삼겹돼지되지","tel":"031-593-8591","addr":"경기도 남양주시 화도읍 마석우리 535-1번지","indutype":"일반휴게음식 - 일반한식","category":"restaurant"}]},{"lat":"37.654445062","long":"127.3063007","imageIndex":4,"items":[{"name":"배달의쌀국수","tel":"031-592-5926","addr":"경기도 남양주시 화도읍 마석우리 297-4번지 1층 일부","indutype":"일반휴게음식 - 서양음식","category":"restaurant"}]},{"lat":"37.650283713","long":"127.30935461","imageIndex":4,"items":[{"name":"벨라스트라","tel":"031-593-9117","addr":"경기도 남양주시 화도읍 마석우리 255-24번지 롯데마트 2층 105호","indutype":"일반휴게음식 - 일반한식","category":"restaurant"},{"name":"엄마마음","tel":"031-584-6267","addr":"경기도 남양주시 화도읍 마석우리 255-24번지","indutype":"일반휴게음식 - 스넥","category":"restaurant"},{"name":"피자마루 마석점","tel":"031-595-1082","addr":"경기도 남양주시 화도읍 마석우리 255-24번지 롯데마트 1층 103호","indutype":"일반휴게음식 - 서양음식","category":"restaurant"}]},{"lat":"37.658719578","long":"127.30476551","imageIndex":4,"items":[{"name":"별미쓰리부대찌개","tel":"","addr":"경기도 남양주시 화도읍 마석우리 357-6번지 1층","indutype":"일반휴게음식 - 일반한식","category":"restaurant"}]},{"lat":"37.655972125","long":"127.30457306","imageIndex":4,"items":[{"name":"별미양곱창","tel":"","addr":"경기도 남양주시 화도읍 마석우리 322번지 1층","indutype":"일반휴게음식 - 일반한식","category":"restaurant"}]},{"lat":"37.658196264","long":"127.30152223","imageIndex":4,"items":[{"name":"본가뼈다귀감자탕","tel":"031-559-4151","addr":"경기도 남양주시 화도읍 마석우리 539-4번지","indutype":"일반휴게음식 - 일반한식","category":"restaurant"}]},{"lat":"37.658025283","long":"127.30144222","imageIndex":4,"items":[{"name":"본죽&비빔밥 남양주마석점","tel":"031-559-6288","addr":"경기도 남양주시 화도읍 마석우리 541-5번지 B104호","indutype":"일반휴게음식 - 일반한식","category":"restaurant"}]},{"lat":"37.651890882","long":"127.30802407","imageIndex":4,"items":[{"name":"본죽마석역점","tel":"031-591-6268","addr":"경기도 남양주시 화도읍 마석우리 271-7번지 1층","indutype":"일반휴게음식 - 일반한식","category":"restaurant"}]},{"lat":"37.658754512","long":"127.30166046","imageIndex":4,"items":[{"name":"불난집소","tel":"031-556-5592","addr":"경기도 남양주시 화도읍 마석우리 535-7번지 1층","indutype":"일반휴게음식 - 일반한식","category":"restaurant"},{"name":"정품닭갈비","tel":"031-556-5592","addr":"경기도 남양주시 화도읍 마석우리 535-7번지 1층","indutype":"일반휴게음식 - 일반한식","category":"restaurant"}]},{"lat":"37.65536137","long":"127.30027566","imageIndex":4,"items":[{"name":"불소반","tel":"031-594-3070","addr":"경기도 남양주시 화도읍 마석우리 570-2번지 1층","indutype":"일반휴게음식 - 일반한식","category":"restaurant"}]},{"lat":"37.654808694","long":"127.30149733","imageIndex":4,"items":[{"name":"비에이치씨치킨","tel":"031-593-5566","addr":"경기도 남양주시 화도읍 마석우리 586번지 103호","indutype":"일반휴게음식 - 스넥","category":"restaurant"},{"name":"수내닭꼬치","tel":"031-593-3966","addr":"경기도 남양주시 화도읍 마석우리 586번지 102호","indutype":"일반휴게음식 - 일반한식","category":"restaurant"},{"name":"희메돈가스","tel":"031-595-1201","addr":"경기도 남양주시 화도읍 마석우리 586","indutype":"일반휴게음식 - 일식·회집","category":"restaurant"}]},{"lat":"37.652111241","long":"127.30990605","imageIndex":4,"items":[{"name":"뼈다귀해장국","tel":"031-593-7227","addr":"경기도 남양주시 화도읍 마석우리 288-6번지 1층 우측호","indutype":"일반휴게음식 - 일반한식","category":"restaurant"}]},{"lat":"37.655057945","long":"127.30621254","imageIndex":4,"items":[{"name":"사천탕면","tel":"031-591-0428","addr":"경기도 남양주시 화도읍 마석우리 297-12번지 1층","indutype":"일반휴게음식 - 중국식","category":"restaurant"}]},{"lat":"37.658304235","long":"127.30157933","imageIndex":4,"items":[{"name":"산장작구이","tel":"031-514-5592","addr":"경기도 남양주시 화도읍 마석우리 539-3번지","indutype":"일반휴게음식 - 일반한식","category":"restaurant"}]},{"lat":"37.659810122","long":"127.30107538","imageIndex":4,"items":[{"name":"삼거리다방","tel":"031-593-4566","addr":"경기도 남양주시 화도읍 마석우리 374번지 1층","indutype":"일반휴게음식 - 서양음식","category":"restaurant"}]},{"lat":"37.652057596","long":"127.30974718","imageIndex":4,"items":[{"name":"상진푸드","tel":"031-559-7220","addr":"경기도 남양주시 화도읍 마석우리 288-7번지 102호","indutype":"일반휴게음식 - 일반한식","category":"restaurant"},{"name":"한일시골밥상","tel":"031-559-1629","addr":"경기도 남양주시 화도읍 마석우리 288-7번지 105호","indutype":"일반휴게음식 - 일반한식","category":"restaurant"}]},{"lat":"37.654117052","long":"127.30421426","imageIndex":4,"items":[{"name":"생선구이전문점","tel":"031-591-8682","addr":"경기도 남양주시 화도읍 마석우리 315-7번지 한림","indutype":"일반휴게음식 - 일반한식","category":"restaurant"}]},{"lat":"37.653335455","long":"127.30685146","imageIndex":4,"items":[{"name":"서울손칼국수","tel":"031-594-1399","addr":"경기도 남양주시 화도읍 마석우리 220-18번지","indutype":"일반휴게음식 - 일반한식","category":"restaurant"},{"name":"열린음악회","tel":"031-595-6988","addr":"경기도 남양주시 화도읍 마석우리 220-18","indutype":"일반휴게음식 - 일반한식","category":"restaurant"}]},{"lat":"37.656970475","long":"127.30524572","imageIndex":4,"items":[{"name":"수다(SU:DA)","tel":"","addr":"경기도 남양주시 화도읍 마석우리 365-4번지 102호","indutype":"일반휴게음식 - 서양음식","category":"restaurant"},{"name":"왕십리불곱창","tel":"031-511-7585","addr":"경기도 남양주시 화도읍 마석우리 365-4번지 연주그랜드빌 101호","indutype":"일반휴게음식 - 일반한식","category":"restaurant"}]},{"lat":"37.653737491","long":"127.30466601","imageIndex":4,"items":[{"name":"순이네야식","tel":"031-595-0396","addr":"경기도 남양주시 화도읍 마석우리 315-28번지 도산빌라 마동 1층 102호","indutype":"일반휴게음식 - 일반한식","category":"restaurant"}]},{"lat":"37.653894837","long":"127.30654777","imageIndex":4,"items":[{"name":"쉘브르","tel":"031-592-8077","addr":"경기도 남양주시 화도읍 마석우리 220-13번지 지하1층","indutype":"일반휴게음식 - 주점","category":"restaurant"},{"name":"전주콩나물국밥","tel":"031-513-7090","addr":"경기도 남양주시 화도읍 마석우리 220-13번지 1층","indutype":"일반휴게음식 - 일반한식","category":"restaurant"}]},{"lat":"37.656224943","long":"127.30435877","imageIndex":4,"items":[{"name":"시골옻닭오리집","tel":"031-511-2950","addr":"경기도 남양주시 화도읍 마석우리 324-19번지 우형빌딩 1층 105호","indutype":"일반휴게음식 - 일반한식","category":"restaurant"},{"name":"용문집","tel":"031-559-0810","addr":"경기도 남양주시 화도읍 마석우리 324-19번지 102,103호","indutype":"일반휴게음식 - 일반한식","category":"restaurant"},{"name":"육연참정육점","tel":"031-595-4982","addr":"경기도 남양주시 화도읍 마석우리 324-19번지 우형빌딩 104호","indutype":"일반휴게음식 - 일반한식","category":"restaurant"}]},{"lat":"37.653997579","long":"127.30513168","imageIndex":4,"items":[{"name":"시월애도토리","tel":"031-591-0444","addr":"경기도 남양주시 화도읍 마석우리 305-6번지","indutype":"일반휴게음식 - 일반한식","category":"restaurant"}]},{"lat":"37.656866425","long":"127.30010034","imageIndex":4,"items":[{"name":"식탐 (홍식당)","tel":"031-559-0824","addr":"경기도 남양주시 화도읍 마석우리 560-11번지 1층 일부","indutype":"일반휴게음식 - 일반한식","category":"restaurant"}]},{"lat":"37.6550057","long":"127.31924438","imageIndex":4,"items":[{"name":"신갈비","tel":"031-594-1444","addr":"경기도 남양주시 화도읍 마석우리 40","indutype":"일반휴게음식 - 일반한식","category":"restaurant"}]},{"lat":"37.654806668","long":"127.30582622","imageIndex":4,"items":[{"name":"신주사골칼국수","tel":"031-595-3319","addr":"경기도 남양주시 화도읍 마석우리 297-39번지","indutype":"일반휴게음식 - 일반한식","category":"restaurant"}]},{"lat":"37.654442958","long":"127.30360365","imageIndex":4,"items":[{"name":"쑨바이반찬그리고","tel":"031-594-1210","addr":"경기도 남양주시 화도읍 마석우리 327-11번지 1층 102호 상가","indutype":"일반휴게음식 - 일반한식","category":"restaurant"},{"name":"육공판","tel":"031-559-8024","addr":"경기도 남양주시 화도읍 마석우리 327-11번지","indutype":"일반휴게음식 - 일반한식","category":"restaurant"}]},{"lat":"37.656890956","long":"127.30463344","imageIndex":4,"items":[{"name":"아구작 아구작","tel":"","addr":"경기도 남양주시 화도읍 마석우리 372-5번지 금성빌딩 1층","indutype":"일반휴게음식 - 일반한식","category":"restaurant"},{"name":"옹기종기","tel":"031-511-0027","addr":"경기도 남양주시 화도읍 마석우리 372-5번지","indutype":"일반휴게음식 - 일반한식","category":"restaurant"}]},{"lat":"37.653497774","long":"127.30679546","imageIndex":4,"items":[{"name":"아름다운 공간","tel":"031-592-3971","addr":"경기도 남양주시 화도읍 마석우리 220-7번지 1층","indutype":"일반휴게음식 - 서양음식","category":"restaurant"}]},{"lat":"37.658693337","long":"127.30091225","imageIndex":4,"items":[{"name":"아리랑","tel":"031-559-8383","addr":"경기도 남양주시 화도읍 마석우리 536-4번지","indutype":"일반휴게음식 - 일반한식","category":"restaurant"},{"name":"한근생고기","tel":"031-9251-8265","addr":"경기도 남양주시 화도읍 마석우리 536-4번지 1층 일부","indutype":"일반휴게음식 - 일반한식","category":"restaurant"}]},{"lat":"37.654755544","long":"127.30468146","imageIndex":4,"items":[{"name":"아지트","tel":"031-559-1102","addr":"경기도 남양주시 화도읍 마석우리 317-4번지 1층","indutype":"일반휴게음식 - 주점","category":"restaurant"}]},{"lat":"37.656388273","long":"127.30390613","imageIndex":4,"items":[{"name":"아카시","tel":"031-595-1151","addr":"경기도 남양주시 화도읍 마석우리 370-14번지","indutype":"일반휴게음식 - 일식·회집","category":"restaurant"},{"name":"풀호프","tel":"031-592-5343","addr":"경기도 남양주시 화도읍 마석우리 370-14번지 102호","indutype":"일반휴게음식 - 일반한식","category":"restaurant"}]},{"lat":"37.657805693","long":"127.31999289","imageIndex":4,"items":[{"name":"알베로벨로","tel":"","addr":"경기도 남양주시 화도읍 마석우리 10-27번지 1층","indutype":"일반휴게음식 - 서양음식","category":"restaurant"}]},{"lat":"37.659723314","long":"127.30333029","imageIndex":4,"items":[{"name":"약초나라","tel":"031-595-8487","addr":"경기도 남양주시 화도읍 마석우리 353-2번지","indutype":"일반휴게음식 - 일반한식","category":"restaurant"}]},{"lat":"37.658305834","long":"127.30449184","imageIndex":4,"items":[{"name":"양철지붕","tel":"031-511-8482","addr":"경기도 남양주시 화도읍 마석우리 359-6번지","indutype":"일반휴게음식 - 일반한식","category":"restaurant"}]},{"lat":"37.657445568","long":"127.30618825","imageIndex":4,"items":[{"name":"어썸비","tel":"031-592-3886","addr":"경기도 남양주시 화도읍 마석우리 406번지 1층","indutype":"일반휴게음식 - 서양음식","category":"restaurant"}]},{"lat":"37.65696898","long":"127.30229926","imageIndex":4,"items":[{"name":"여우애김밥","tel":"031-511-0881","addr":"경기도 남양주시 화도읍 마석우리 392-5번지 신명프라자 1층 102호","indutype":"일반휴게음식 - 스넥","category":"restaurant"},{"name":"유가네 닭갈비","tel":"031-595-5969","addr":"경기도 남양주시 화도읍 마석우리 392-5번지 신명프라자 1층 104호","indutype":"일반휴게음식 - 일반한식","category":"restaurant"}]},{"lat":"37.652081465","long":"127.31095978","imageIndex":4,"items":[{"name":"역전식당","tel":"031-591-3113","addr":"경기도 남양주시 화도읍 마석우리 282번지 1층","indutype":"일반휴게음식 - 일반한식","category":"restaurant"}]},{"lat":"37.658809877","long":"127.30468654","imageIndex":4,"items":[{"name":"염주골전통순대국밥","tel":"031-559-9933","addr":"경기도 남양주시 화도읍 마석우리 357-5번지","indutype":"일반휴게음식 - 일반한식","category":"restaurant"}]},{"lat":"37.659307748","long":"127.30377059","imageIndex":4,"items":[{"name":"예그리나","tel":"031-1111-1111","addr":"경기도 남양주시 화도읍 마석우리 355-4번지 1층","indutype":"일반휴게음식 - 주점","category":"restaurant"}]},{"lat":"37.657223266","long":"127.30504276","imageIndex":4,"items":[{"name":"옛가마","tel":"031-593-7311","addr":"경기도 남양주시 화도읍 마석우리 365-6","indutype":"일반휴게음식 - 일반한식","category":"restaurant"}]},{"lat":"37.658249683","long":"127.29457549","imageIndex":4,"items":[{"name":"오늘은코다리","tel":"031-511-7767","addr":"경기도 남양주시 화도읍 마석우리 514-15번지 1층 101호","indutype":"일반휴게음식 - 일반한식","category":"restaurant"},{"name":"올리앤 화도본점/(주)올앤컴퍼니","tel":"031-511-6313","addr":"경기도 남양주시 화도읍 마석우리 514-15번지 B동 우측 1층","indutype":"일반휴게음식 - 서양음식","category":"restaurant"},{"name":"주식회사 오늘은코다리(화도점)","tel":"031-511-7767","addr":"경기도 남양주시 화도읍 마석우리 514-15번지 1층 101호","indutype":"일반휴게음식 - 일반한식","category":"restaurant"}]},{"lat":"37.652054782","long":"127.30735617","imageIndex":4,"items":[{"name":"올레국수집","tel":"031-592-5996","addr":"경기도 남양주시 화도읍 마석우리 271-3번지","indutype":"일반휴게음식 - 일반한식","category":"restaurant"}]},{"lat":"37.656889331","long":"127.30526806","imageIndex":4,"items":[{"name":"완도 얼큰동태 참전복","tel":"031-593-3653","addr":"경기도 남양주시 화도읍 마석우리 365-3번지","indutype":"일반휴게음식 - 일반한식","category":"restaurant"}]},{"lat":"37.65463868","long":"127.304579","imageIndex":4,"items":[{"name":"왕호갈비탕","tel":"031-559-3322","addr":"경기도 남양주시 화도읍 마석우리 317-11번지 상가 1층","indutype":"일반휴게음식 - 일반한식","category":"restaurant"}]},{"lat":"37.654420884","long":"127.30519006","imageIndex":4,"items":[{"name":"우까돈까","tel":"031-593-3434","addr":"경기도 남양주시 화도읍 마석우리 305-13번지","indutype":"일반휴게음식 - 일반한식","category":"restaurant"},{"name":"참새방아간","tel":"031-595-4922","addr":"경기도 남양주시 화도읍 마석우리 305-13번지","indutype":"일반휴게음식 - 주점","category":"restaurant"}]},{"lat":"37.653359031","long":"127.30468714","imageIndex":4,"items":[{"name":"우리가","tel":"031-595-2459","addr":"경기도 남양주시 화도읍 마석우리 314-6번지","indutype":"일반휴게음식 - 일반한식","category":"restaurant"}]},{"lat":"37.656612242","long":"127.3008586","imageIndex":4,"items":[{"name":"우리두리곱창","tel":"031-595-9289","addr":"경기도 남양주시 화도읍 마석우리 557-5번지 1층","indutype":"일반휴게음식 - 일반한식","category":"restaurant"}]},{"lat":"37.656387839","long":"127.30407612","imageIndex":4,"items":[{"name":"우리집 팔당닭발 마석점","tel":"031-559-1243","addr":"경기도 남양주시 화도읍 마석우리 370-13번지","indutype":"일반휴게음식 - 일반한식","category":"restaurant"}]},{"lat":"37.656722263","long":"127.30365817","imageIndex":4,"items":[{"name":"원두막","tel":"031-559-0799","addr":"경기도 남양주시 화도읍 마석우리 379-10번지 1층","indutype":"일반휴게음식 - 일반한식","category":"restaurant"}]},{"lat":"37.657637706","long":"127.30504444","imageIndex":4,"items":[{"name":"원조이모네곱창","tel":"031-595-0777","addr":"경기도 남양주시 화도읍 마석우리 363-3번지 용호빌딩 101호","indutype":"일반휴게음식 - 일반한식","category":"restaurant"}]},{"lat":"37.652305703","long":"127.30787845","imageIndex":4,"items":[{"name":"원조큰맘할매순대국","tel":"031-591-7831","addr":"경기도 남양주시 화도읍 마석우리 292-18번지","indutype":"일반휴게음식 - 일반한식","category":"restaurant"},{"name":"짝꿍(호프)","tel":"031-111-1111","addr":"경기도 남양주시 화도읍 마석우리 292-18번지 2층","indutype":"일반휴게음식 - 주점","category":"restaurant"}]},{"lat":"37.656447281","long":"127.30549291","imageIndex":4,"items":[{"name":"유셰프참치앤스시","tel":"031-595-8537","addr":"경기도 남양주시 화도읍 마석우리 366-7번지 1층","indutype":"일반휴게음식 - 일식·회집","category":"restaurant"}]},{"lat":"37.659087522","long":"127.30179779","imageIndex":4,"items":[{"name":"육감돼지","tel":"","addr":"경기도 남양주시 화도읍 마석우리 534-3번지 병훈빌딩 1층","indutype":"일반휴게음식 - 일반한식","category":"restaurant"}]},{"lat":"37.658277385","long":"127.30504703","imageIndex":4,"items":[{"name":"육성떡볶이","tel":"031-595-5905","addr":"경기도 남양주시 화도읍 마석우리 360-2번지 1층 일부","indutype":"일반휴게음식 - 일반한식","category":"restaurant"},{"name":"이진닭꼬치","tel":"","addr":"경기도 남양주시 화도읍 마석우리 360-2번지 1층","indutype":"일반휴게음식 - 일반한식","category":"restaurant"}]},{"lat":"37.65744712","long":"127.30205186","imageIndex":4,"items":[{"name":"육쌈냉면","tel":"031-511-8911","addr":"경기도 남양주시 화도읍 마석우리 383-2번지 중앙프라자 106호","indutype":"일반휴게음식 - 일반한식","category":"restaurant"},{"name":"이삭토스트","tel":"031-591-5030","addr":"경기도 남양주시 화도읍 마석우리 383-2번지 중앙프라자","indutype":"일반휴게음식 - 일반한식","category":"restaurant"},{"name":"짝태&노가리","tel":"070-8161-8364","addr":"경기도 남양주시 화도읍 마석우리 383-2번지 중앙프라자 108호","indutype":"일반휴게음식 - 주점","category":"restaurant"},{"name":"짬뽕상회","tel":"031-511-9979","addr":"경기도 남양주시 화도읍 마석우리 383-2번지 중앙프라자 201호","indutype":"일반휴게음식 - 중국식","category":"restaurant"},{"name":"커피챗","tel":"031-591-1171","addr":"경기도 남양주시 화도읍 마석우리 383-2번지 중앙프라자 301호","indutype":"일반휴게음식 - 서양음식","category":"restaurant"},{"name":"포메인마석점","tel":"031-594-9870","addr":"경기도 남양주시 화도읍 마석우리 383-2번지 중앙프라자 202호","indutype":"일반휴게음식 - 일반한식","category":"restaurant"}]},{"lat":"37.65653008","long":"127.30482464","imageIndex":4,"items":[{"name":"윤가네감자탕","tel":"031-595-8914","addr":"경기도 남양주시 화도읍 마석우리 370-7","indutype":"일반휴게음식 - 일반한식","category":"restaurant"}]},{"lat":"37.658889512","long":"127.30171767","imageIndex":4,"items":[{"name":"윤이네식당","tel":"031-551-4750","addr":"경기도 남양주시 화도읍 마석우리 535-6번지 1층","indutype":"일반휴게음식 - 일반한식","category":"restaurant"}]},{"lat":"37.656225522","long":"127.30413213","imageIndex":4,"items":[{"name":"응급실국물떡볶이(마석점)","tel":"031-511-3119","addr":"경기도 남양주시 화도읍 마석우리 324-17번지","indutype":"일반휴게음식 - 스넥","category":"restaurant"}]},{"lat":"37.657141082","long":"127.30193731","imageIndex":4,"items":[{"name":"이디야","tel":"031-595-7632","addr":"경기도 남양주시 화도읍 마석우리 383-1번지 정길프라자 108호","indutype":"일반휴게음식 - 서양음식","category":"restaurant"}]},{"lat":"37.657058943","long":"127.3058807","imageIndex":4,"items":[{"name":"이름없는낙지","tel":"031-591-8118","addr":"경기도 남양주시 화도읍 마석우리 403-1번지 101호","indutype":"일반휴게음식 - 일반한식","category":"restaurant"}]},{"lat":"37.659227009","long":"127.30363427","imageIndex":4,"items":[{"name":"이베리코의 전설 화도","tel":"031-592-2529","addr":"경기도 남양주시 화도읍 마석우리 355-3번지","indutype":"일반휴게음식 - 일반한식","category":"restaurant"}]},{"lat":"37.654668284","long":"127.30357056","imageIndex":4,"items":[{"name":"임수오돈까스","tel":"031-577-3406","addr":"경기도 남양주시 화도읍 마석우리 327-9번지 1층","indutype":"일반휴게음식 - 일반한식","category":"restaurant"}]},{"lat":"37.653334316","long":"127.3072934","imageIndex":4,"items":[{"name":"자매식당","tel":"031-593-5633","addr":"경기도 남양주시 화도읍 마석우리 220-5번지","indutype":"일반휴게음식 - 일반한식","category":"restaurant"}]},{"lat":"37.652360844","long":"127.3074594","imageIndex":4,"items":[{"name":"작은만두","tel":"031-593-4625","addr":"경기도 남양주시 화도읍 마석우리 292-21번지","indutype":"일반휴게음식 - 스넥","category":"restaurant"},{"name":"쥬씨 마석역점","tel":"031-599-1051","addr":"경기도 남양주시 화도읍 마석우리 292-21번지","indutype":"일반휴게음식 - 서양음식","category":"restaurant"},{"name":"쥬씨마석역점","tel":"","addr":"경기도 남양주시 화도읍 마석우리 292-21번지","indutype":"일반휴게음식 - 서양음식","category":"restaurant"}]},{"lat":"37.656747151","long":"127.30449687","imageIndex":4,"items":[{"name":"잘난닭","tel":"031-511-1277","addr":"경기도 남양주시 화도읍 마석우리 372-7번지","indutype":"일반휴게음식 - 스넥","category":"restaurant"}]},{"lat":"37.651331057","long":"127.30849771","imageIndex":4,"items":[{"name":"장수한방족발","tel":"031-559-9515","addr":"경기도 남양주시 화도읍 마석우리 263-8번지","indutype":"일반휴게음식 - 일반한식","category":"restaurant"}]},{"lat":"37.658889977","long":"127.30507218","imageIndex":4,"items":[{"name":"장원","tel":"031-1591-3336","addr":"경기도 남양주시 화도읍 마석우리 415-5번지","indutype":"일반휴게음식 - 일반한식","category":"restaurant"},{"name":"코코두루","tel":"031-593-9232","addr":"경기도 남양주시 화도읍 마석우리 415-5번지","indutype":"일반휴게음식 - 일반한식","category":"restaurant"}]},{"lat":"37.654058728","long":"127.30587985","imageIndex":4,"items":[{"name":"장터마니국밥","tel":"031-594-4141","addr":"경기도 남양주시 화도읍 마석우리 295-35번지","indutype":"일반휴게음식 - 일반한식","category":"restaurant"}]},{"lat":"37.651421827","long":"127.30823745","imageIndex":4,"items":[{"name":"전성순 순대국밥","tel":"031-511-5335","addr":"경기도 남양주시 화도읍 마석우리 263-6번지 1층","indutype":"일반휴게음식 - 일반한식","category":"restaurant"}]},{"lat":"37.658669268","long":"127.3204952","imageIndex":4,"items":[{"name":"정가네 순대국","tel":"031-559-6169","addr":"경기도 남양주시 화도읍 마석우리 10-36번지 1층","indutype":"일반휴게음식 - 일반한식","category":"restaurant"}]},{"lat":"37.658720998","long":"127.3042102","imageIndex":4,"items":[{"name":"조대감신간짬뽕","tel":"031-511-6799","addr":"경기도 남양주시 화도읍 마석우리 359-2번지 영진빌 1층","indutype":"일반휴게음식 - 일반한식","category":"restaurant"}]},{"lat":"37.656892664","long":"127.30396483","imageIndex":4,"items":[{"name":"종가별미한식","tel":"031-595-8627","addr":"경기도 남양주시 화도읍 마석우리 372-1번지 1층","indutype":"일반휴게음식 - 일반한식","category":"restaurant"}]},{"lat":"37.654720143","long":"127.30443201","imageIndex":4,"items":[{"name":"종로빈대떡","tel":"031-593-6853","addr":"경기도 남양주시 화도읍 마석우리 317-13번지","indutype":"일반휴게음식 - 주점","category":"restaurant"}]},{"lat":"37.652083121","long":"127.31032521","imageIndex":4,"items":[{"name":"종점식당","tel":"031-591-8970","addr":"경기도 남양주시 화도읍 마석우리 286-4번지","indutype":"일반휴게음식 - 일반한식","category":"restaurant"},{"name":"한잔에 비어","tel":"031-511-3037","addr":"경기도 남양주시 화도읍 마석우리 286-4번지","indutype":"일반휴게음식 - 주점","category":"restaurant"}]},{"lat":"37.657612876","long":"127.30063595","imageIndex":4,"items":[{"name":"지음푸드","tel":"031-591-1235","addr":"경기도 남양주시 화도읍 마석우리 548번지","indutype":"일반휴게음식 - 위탁급식업","category":"restaurant"}]},{"lat":"37.651638812","long":"127.31141122","imageIndex":4,"items":[{"name":"진카페 (Zin cafe)","tel":"031-111-1111","addr":"경기도 남양주시 화도읍 마석우리 250-2번지","indutype":"일반휴게음식 - 서양음식","category":"restaurant"}]},{"lat":"37.66033804","long":"127.30251678","imageIndex":4,"items":[{"name":"집으로","tel":"031-593-6181","addr":"경기도 남양주시 화도읍 마석우리 479번지 2층","indutype":"일반휴게음식 - 주점","category":"restaurant"}]},{"lat":"37.66133741","long":"127.3027928","imageIndex":4,"items":[{"name":"쩡아돈가스","tel":"031-511-9296","addr":"경기도 남양주시 화도읍 마석우리 473-5번지 1층","indutype":"일반휴게음식 - 서양음식","category":"restaurant"}]},{"lat":"37.654114791","long":"127.30509816","imageIndex":4,"items":[{"name":"처갓집양념통닭","tel":"031-593-4045","addr":"경기도 남양주시 화도읍 마석우리 305-16번지","indutype":"일반휴게음식 - 주점","category":"restaurant"}]},{"lat":"37.656415175","long":"127.30040452","imageIndex":4,"items":[{"name":"천마산함흥냉면불고기","tel":"031-511-3660","addr":"경기도 남양주시 화도읍 마석우리 558-7번지 1층","indutype":"일반휴게음식 - 일반한식","category":"restaurant"}]},{"lat":"37.661022277","long":"127.3027122","imageIndex":4,"items":[{"name":"천마정육식당","tel":"031-593-0974","addr":"경기도 남양주시 화도읍 마석우리 474번지 경춘빌라 10동 1호","indutype":"일반휴게음식 - 일반한식","category":"restaurant"}]},{"lat":"37.651803595","long":"127.30693587","imageIndex":4,"items":[{"name":"청계곱창","tel":"031-594-9395","addr":"경기도 남양주시 화도읍 마석우리 268-2번지","indutype":"일반휴게음식 - 일반한식","category":"restaurant"}]},{"lat":"37.654722547","long":"127.29993315","imageIndex":4,"items":[{"name":"청년떡볶이 마석우리점","tel":"031-592-3623","addr":"경기도 남양주시 화도읍 마석우리 520-26번지","indutype":"일반휴게음식 - 스넥","category":"restaurant"}]},{"lat":"37.65163747","long":"127.30846497","imageIndex":4,"items":[{"name":"총각네옛날통닭(마석하나로마트점)","tel":"","addr":"경기도 남양주시 화도읍 마석우리 272-8번지 1층","indutype":"일반휴게음식 - 스넥","category":"restaurant"}]},{"lat":"37.658918195","long":"127.30460765","imageIndex":4,"items":[{"name":"추자도회수산","tel":"031-591-4574","addr":"경기도 남양주시 화도읍 마석우리 357-4번지 1층","indutype":"일반휴게음식 - 일반한식","category":"restaurant"}]},{"lat":"37.652782348","long":"127.31509881","imageIndex":4,"items":[{"name":"커피소래비","tel":"","addr":"경기도 남양주시 화도읍 마석우리 119번지 2동 1층","indutype":"일반휴게음식 - 서양음식","category":"restaurant"}]},{"lat":"37.659532698","long":"127.30388483","imageIndex":4,"items":[{"name":"케리홈치킨(마석점)","tel":"031-511-9255","addr":"경기도 남양주시 화도읍 마석우리 353-8번지","indutype":"일반휴게음식 - 주점","category":"restaurant"}]},{"lat":"37.658387065","long":"127.30443551","imageIndex":4,"items":[{"name":"크랩 하이벳","tel":"031-511-0433","addr":"경기도 남양주시 화도읍 마석우리 359-5번지","indutype":"일반휴게음식 - 일반한식","category":"restaurant"}]},{"lat":"37.65341931","long":"127.30577526","imageIndex":4,"items":[{"name":"타래함흥냉면","tel":"031-591-2888","addr":"경기도 남양주시 화도읍 마석우리 295-27번지 1층","indutype":"일반휴게음식 - 일반한식","category":"restaurant"}]},{"lat":"37.659497671","long":"127.30348804","imageIndex":4,"items":[{"name":"터줏대감","tel":"031-559-3397","addr":"경기도 남양주시 화도읍 마석우리 355-6번지","indutype":"일반휴게음식 - 일반한식","category":"restaurant"}]},{"lat":"37.656748511","long":"127.30396425","imageIndex":4,"items":[{"name":"토고리옛날막창","tel":"031-222-2222","addr":"경기도 남양주시 화도읍 마석우리 372-10번지","indutype":"일반휴게음식 - 일반한식","category":"restaurant"}]},{"lat":"37.654250138","long":"127.30501938","imageIndex":4,"items":[{"name":"토담주물럭전문점","tel":"031-591-1135","addr":"경기도 남양주시 화도읍 마석우리 305-5번지 상가전체","indutype":"일반휴게음식 - 일반한식","category":"restaurant"}]},{"lat":"37.654830839","long":"127.30693688","imageIndex":4,"items":[{"name":"투존치킨 (마석점)","tel":"031-511-7086","addr":"경기도 남양주시 화도읍 마석우리 219-80번지","indutype":"일반휴게음식 - 스넥","category":"restaurant"}]},{"lat":"37.654003156","long":"127.30646889","imageIndex":4,"items":[{"name":"틴토랑피자","tel":"031-516-1577","addr":"경기도 남양주시 화도읍 마석우리 220-1번지 1층","indutype":"일반휴게음식 - 서양음식","category":"restaurant"}]},{"lat":"37.65444829","long":"127.30504285","imageIndex":4,"items":[{"name":"풍년담긴항아리","tel":"031-511-3589","addr":"경기도 남양주시 화도읍 마석우리 305-12","indutype":"일반휴게음식 - 일반한식","category":"restaurant"}]},{"lat":"37.656387145","long":"127.30434809","imageIndex":4,"items":[{"name":"풍물옹심이 메밀칼국수","tel":"031-511-7727","addr":"경기도 남양주시 화도읍 마석우리 370-11번지 1층","indutype":"일반휴게음식 - 일반한식","category":"restaurant"}]},{"lat":"37.659614073","long":"127.30377183","imageIndex":4,"items":[{"name":"피자나라치킨공주","tel":"031-511-2291","addr":"경기도 남양주시 화도읍 마석우리 353-7번지 상가 103호","indutype":"일반휴게음식 - 서양음식","category":"restaurant"},{"name":"행복포차","tel":"031-559-1266","addr":"경기도 남양주시 화도읍 마석우리 353-7번지 1층 102호","indutype":"일반휴게음식 - 주점","category":"restaurant"}]},{"lat":"37.652866052","long":"127.30368794","imageIndex":4,"items":[{"name":"피자알볼로 마석점","tel":"031-594-8495","addr":"경기도 남양주시 화도읍 마석우리 312-1번지","indutype":"일반휴게음식 - 서양음식","category":"restaurant"},{"name":"황가네곱창","tel":"031-593-2033","addr":"경기도 남양주시 화도읍 마석우리 312-1번지 1층","indutype":"일반휴게음식 - 일반한식","category":"restaurant"}]},{"lat":"37.659442255","long":"127.30402046","imageIndex":4,"items":[{"name":"하나미치","tel":"031-595-6040","addr":"경기도 남양주시 화도읍 마석우리 353-9번지 1층","indutype":"일반휴게음식 - 서양음식","category":"restaurant"}]},{"lat":"37.656531992","long":"127.3040767","imageIndex":4,"items":[{"name":"한가네숯불닭갈비","tel":"031-593-4792","addr":"경기도 남양주시 화도읍 마석우리 370-2번지","indutype":"일반휴게음식 - 일반한식","category":"restaurant"}]},{"lat":"37.6557273","long":"127.30518402","imageIndex":4,"items":[{"name":"한마루","tel":"031-591-6400","addr":"경기도 남양주시 화도읍 마석우리 304-2번지 2층","indutype":"일반휴게음식 - 일반한식","category":"restaurant"}]},{"lat":"37.658557029","long":"127.30491217","imageIndex":4,"items":[{"name":"할매보쌈족발전주집연탄불고기","tel":"031-593-0671","addr":"경기도 남양주시 화도읍 마석우리 357-8번지","indutype":"일반휴게음식 - 일반한식","category":"restaurant"}]},{"lat":"37.661058517","long":"127.30263301","imageIndex":4,"items":[{"name":"함지박","tel":"031-594-5969","addr":"경기도 남양주시 화도읍 마석우리 474번지 경춘빌라 2층 1호","indutype":"일반휴게음식 - 일반한식","category":"restaurant"}]},{"lat":"37.659222608","long":"127.301821","imageIndex":4,"items":[{"name":"해물명가","tel":"031-511-0907","addr":"경기도 남양주시 화도읍 마석우리 534-2번지 훼미리빌 1층","indutype":"일반휴게음식 - 일반한식","category":"restaurant"}]},{"lat":"37.653804449","long":"127.30666072","imageIndex":4,"items":[{"name":"홍가네","tel":"031-511-8442","addr":"경기도 남양주시 화도읍 마석우리 220-14번지","indutype":"일반휴게음식 - 일반한식","category":"restaurant"}]},{"lat":"37.65552909","long":"127.30518322","imageIndex":4,"items":[{"name":"홍어바다정원","tel":"031-513-2707","addr":"경기도 남양주시 화도읍 마석우리 304-8번지","indutype":"일반휴게음식 - 일반한식","category":"restaurant"}]},{"lat":"37.65666386","long":"127.3053578","imageIndex":4,"items":[{"name":"홍천닭갈비막국수","tel":"031-593-2452","addr":"경기도 남양주시 화도읍 마석우리 365-1번지","indutype":"일반휴게음식 - 일반한식","category":"restaurant"}]},{"lat":"37.651448211","long":"127.30848686","imageIndex":4,"items":[{"name":"홍카페","tel":"031-511-7201","addr":"경기도 남양주시 화도읍 마석우리 272-11번지","indutype":"일반휴게음식 - 서양음식","category":"restaurant"}]},{"lat":"37.656422314","long":"127.30468821","imageIndex":4,"items":[{"name":"황제능이버섯","tel":"031-592-0401","addr":"경기도 남양주시 화도읍 마석우리 370-9번지 1층","indutype":"일반휴게음식 - 일반한식","category":"restaurant"}]},{"lat":"37.65483644","long":"127.30121414","imageIndex":4,"items":[{"name":"회뜨는집","tel":"031-511-4487","addr":"경기도 남양주시 화도읍 마석우리 585번지 하나클리닉 104호","indutype":"일반휴게음식 - 일반한식","category":"restaurant"}]},{"lat":"37.656747585","long":"127.30432689","imageIndex":4,"items":[{"name":"회춘포차","tel":"031-515-8253","addr":"경기도 남양주시 화도읍 마석우리 372-8번지 1층 삼성아트빌","indutype":"일반휴게음식 - 주점","category":"restaurant"}]},{"lat":"37.656334204","long":"127.30035887","imageIndex":4,"items":[{"name":"훌랄라치킨.홍대마녀","tel":"031-511-0788","addr":"경기도 남양주시 화도읍 마석우리 558-6번지 101호","indutype":"일반휴게음식 - 주점","category":"restaurant"}]},{"lat":"37.66149964","long":"127.30277078","imageIndex":4,"items":[{"name":"휘스시","tel":"031-595-2159","addr":"경기도 남양주시 화도읍 마석우리 473-1번지 칠월프라자 101호","indutype":"일반휴게음식 - 일식·회집","category":"restaurant"}]},{"lat":"37.65386107","long":"127.30566373","imageIndex":13,"items":[{"name":"031노래방","tel":"031-595-4733","addr":"경기도 남양주시 화도읍 마석우리 295-17번지 지층","indutype":"레저업소 - 노 래 방","category":"leisure"}]},{"lat":"37.657218915","long":"127.3032182","imageIndex":13,"items":[{"name":"DS당구클럽","tel":"031-595-2459","addr":"경기도 남양주시 화도읍 마석우리 383-6번지 중흥프라자 701호","indutype":"레저업소 - 당 구 장","category":"leisure"},{"name":"꿀잼PC방","tel":"","addr":"경기도 남양주시 화도읍 마석우리 383-6번지 중흥프라자 303호,304호","indutype":"레저업소 - 기타레져업소","category":"leisure"},{"name":"더씨엘요가(thecielyoga)","tel":"","addr":"경기도 남양주시 화도읍 마석우리 383-6번지 중흥프라자 801호","indutype":"레저업소 - 헬스클럽","category":"leisure"},{"name":"캔디캔디노래연습장","tel":"031-559-7989","addr":"경기도 남양주시 화도읍 마석우리 383-6번지 중흥프라자 203호","indutype":"레저업소 - 노 래 방","category":"leisure"}]},{"lat":"37.65675036","long":"127.30323898","imageIndex":13,"items":[{"name":"LK당구클럽","tel":"031-592-3385","addr":"경기도 남양주시 화도읍 마석우리 383-9번지 별나라프라자 4층 401-403호","indutype":"레저업소 - 당 구 장","category":"leisure"},{"name":"별나라노래연습장","tel":"031-594-1443","addr":"경기도 남양주시 화도읍 마석우리 383-9번지 별나라프라자 2층 204호","indutype":"레저업소 - 노 래 방","category":"leisure"},{"name":"샹떼PC방","tel":"070-8816-1183","addr":"경기도 남양주시 화도읍 마석우리 383-9번지 별나라프라자 502호 502~503호","indutype":"레저업소 - 기타레져업소","category":"leisure"},{"name":"세븐스타코인노래연습장 마석우리점","tel":"","addr":"경기도 남양주시 화도읍 마석우리 383-9번지 별나라프라자 2층 202호","indutype":"레저업소 - 노 래 방","category":"leisure"}]},{"lat":"37.654445062","long":"127.3063007","imageIndex":13,"items":[{"name":"MS당구장","tel":"031-593-3949","addr":"경기도 남양주시 화도읍 마석우리 297-4번지 2층","indutype":"레저업소 - 당 구 장","category":"leisure"}]},{"lat":"37.655137044","long":"127.29991213","imageIndex":13,"items":[{"name":"근린당구장","tel":"031-594-0023","addr":"경기도 남양주시 화도읍 마석우리 521-6번지 3층","indutype":"레저업소 - 당 구 장","category":"leisure"}]},{"lat":"37.654221191","long":"127.30576718","imageIndex":13,"items":[{"name":"달노래연습장","tel":"031-594-3887","addr":"경기도 남양주시 화도읍 마석우리 295-15번지 성지빌딩 지하1층","indutype":"레저업소 - 노 래 방","category":"leisure"},{"name":"필노래연습장","tel":"031-594-3887","addr":"경기도 남양주시 화도읍 마석우리 295-15 성지빌딩지하1층","indutype":"레저업소 - 노 래 방","category":"leisure"}]},{"lat":"37.66166935","long":"127.30334946","imageIndex":13,"items":[{"name":"드래곤점핑","tel":"031-559-0379","addr":"경기도 남양주시 화도읍 마석우리 466-1번지","indutype":"레저업소 - 기타레져업소","category":"leisure"}]},{"lat":"37.651331057","long":"127.30849771","imageIndex":13,"items":[{"name":"떳다노래연습장","tel":"031-593-0153","addr":"경기도 남양주시 화도읍 마석우리 263-8번지","indutype":"레저업소 - 노 래 방","category":"leisure"}]},{"lat":"37.657419114","long":"127.30243706","imageIndex":13,"items":[{"name":"라이또PC 마석본점","tel":"070-2886-3233","addr":"경기도 남양주시 화도읍 마석우리 383-4번지 캠퍼스프라자 4층 402,403호","indutype":"레저업소 - 기타레져업소","category":"leisure"},{"name":"캠퍼스국제식대대클럽","tel":"031-593-9100","addr":"경기도 남양주시 화도읍 마석우리 383-4번지 캠퍼스프라자 401호","indutype":"레저업소 - 당 구 장","category":"leisure"},{"name":"호노래연습장","tel":"031-591-7006","addr":"경기도 남양주시 화도읍 마석우리 383-4번지 캠퍼스프라자 205호","indutype":"레저업소 - 노 래 방","category":"leisure"}]},{"lat":"37.657141082","long":"127.30193731","imageIndex":13,"items":[{"name":"라인핫요가","tel":"031-591-5936","addr":"경기도 남양주시 화도읍 마석우리 383-1번지 정길프라자 505호","indutype":"레저업소 - 헬스클럽","category":"leisure"},{"name":"렙업PC방(중흥점)","tel":"070-7997-4032","addr":"경기도 남양주시 화도읍 마석우리 383-1번지 정길프라자 8층 803,804,805호","indutype":"레저업소 - 기타레져업소","category":"leisure"},{"name":"스크린야구 (다함께 야구왕)","tel":"031-593-7277","addr":"경기도 남양주시 화도읍 마석우리 383-1번지 정길프라자 3층 전체","indutype":"레저업소 - 기타레져업소","category":"leisure"},{"name":"피트니스 화도","tel":"","addr":"경기도 남양주시 화도읍 마석우리 383-1번지 성훈프라자 701 ,702,703호","indutype":"레저업소 - 헬스클럽","category":"leisure"}]},{"lat":"37.652505553","long":"127.30724469","imageIndex":13,"items":[{"name":"로그인PC방","tel":"","addr":"경기도 남양주시 화도읍 마석우리 292-25","indutype":"레저업소 - 기타레져업소","category":"leisure"}]},{"lat":"37.652081465","long":"127.31095978","imageIndex":13,"items":[{"name":"마석노래연습실","tel":"031-593-2505","addr":"경기도 남양주시 화도읍 마석우리 282번지 지층","indutype":"레저업소 - 노 래 방","category":"leisure"}]},{"lat":"37.655446347","long":"127.30582882","imageIndex":13,"items":[{"name":"머스트윈","tel":"031-594-3248","addr":"경기도 남양주시 화도읍 마석우리 298-12번지 5층","indutype":"레저업소 - 헬스클럽","category":"leisure"}]},{"lat":"37.65696898","long":"127.30229926","imageIndex":13,"items":[{"name":"바디 밸런스","tel":"031-511-0877","addr":"경기도 남양주시 화도읍 마석우리 392-5번지 신명프라자 202호","indutype":"레저업소 - 헬스클럽","category":"leisure"}]},{"lat":"37.658252727","long":"127.30057051","imageIndex":13,"items":[{"name":"브레이브힐 기구필라테스 화도점","tel":"031-572-6252","addr":"경기도 남양주시 화도읍 마석우리 541-1번지 3층","indutype":"레저업소 - 헬스클럽","category":"leisure"},{"name":"에스바디핏마석지점","tel":"031-572-6252","addr":"경기도 남양주시 화도읍 마석우리 541-1번지 3층 301호","indutype":"레저업소 - 헬스클럽","category":"leisure"}]},{"lat":"37.650283713","long":"127.30935461","imageIndex":13,"items":[{"name":"브레이브힐기구 기구필라테스 마석점","tel":"031-595-0535","addr":"경기도 남양주시 화도읍 마석우리 255-24번지 109호 108호, 109호","indutype":"레저업소 - 헬스클럽","category":"leisure"}]},{"lat":"37.654753173","long":"127.30207505","imageIndex":13,"items":[{"name":"살빠짐","tel":"","addr":"경기도 남양주시 화도읍 마석우리 588번지 유일프라자 202호","indutype":"레저업소 - 헬스클럽","category":"leisure"}]},{"lat":"37.652194624","long":"127.30902251","imageIndex":13,"items":[{"name":"신바람노래연습장","tel":"031-559-3367","addr":"경기도 남양주시 화도읍 마석우리 290-8번지 지하","indutype":"레저업소 - 노 래 방","category":"leisure"}]},{"lat":"37.65483644","long":"127.30121414","imageIndex":13,"items":[{"name":"씨크릿수상레저","tel":"031-559-1145","addr":"경기도 남양주시 화도읍 마석우리 585번지","indutype":"레저업소 - 기타레져업소","category":"leisure"}]},{"lat":"37.657691182","long":"127.30527131","imageIndex":13,"items":[{"name":"아지트 당구클럽","tel":"031-512-6944","addr":"경기도 남양주시 화도읍 마석우리 363-4번지 대영빌딩 5층","indutype":"레저업소 - 당 구 장","category":"leisure"}]},{"lat":"37.652224236","long":"127.30802543","imageIndex":13,"items":[{"name":"앗싸노래연습장","tel":"031-593-7806","addr":"경기도 남양주시 화도읍 마석우리 292-17번지 SL프라자 502호","indutype":"레저업소 - 노 래 방","category":"leisure"},{"name":"피넛PC방","tel":"","addr":"경기도 남양주시 화도읍 마석우리 292-17번지 SL프라자 3층 302,303호","indutype":"레저업소 - 기타레져업소","category":"leisure"}]},{"lat":"37.657309933","long":"127.30285593","imageIndex":13,"items":[{"name":"엔젤 필라테스","tel":"","addr":"경기도 남양주시 화도읍 마석우리 383-5번지 메디칼프라자 304호","indutype":"레저업소 - 헬스클럽","category":"leisure"}]},{"lat":"37.65744712","long":"127.30205186","imageIndex":13,"items":[{"name":"엠에스노래연습장","tel":"031-511-7555","addr":"경기도 남양주시 화도읍 마석우리 383-2번지 중앙프라자 302동 303호","indutype":"레저업소 - 노 래 방","category":"leisure"},{"name":"위너PC방중흥점","tel":"070-7617-3474","addr":"경기도 남양주시 화도읍 마석우리 383-2번지 중앙프라자 601동 604호","indutype":"레저업소 - 기타레져업소","category":"leisure"}]},{"lat":"37.651726068","long":"127.30904325","imageIndex":13,"items":[{"name":"역전노래연습장","tel":"031-553-0074","addr":"경기도 남양주시 화도읍 마석우리 275-2번지 지하1층","indutype":"레저업소 - 노 래 방","category":"leisure"}]},{"lat":"37.656948484","long":"127.30327377","imageIndex":13,"items":[{"name":"올래노래연습장","tel":"","addr":"경기도 남양주시 화도읍 마석우리 383-8번지 별나라타워 303.304호","indutype":"레저업소 - 노 래 방","category":"leisure"},{"name":"황궁A노래연습장","tel":"031-511-0321","addr":"경기도 남양주시 화도읍 마석우리 383-8번지 별나라타워 8층","indutype":"레저업소 - 노 래 방","category":"leisure"},{"name":"황궁B노래연습장","tel":"031-511-0321","addr":"경기도 남양주시 화도읍 마석우리 383-8번지 별나라타워 8층","indutype":"레저업소 - 노 래 방","category":"leisure"}]},{"lat":"37.65536137","long":"127.30027566","imageIndex":13,"items":[{"name":"요가로엔","tel":"031-511-0828","addr":"경기도 남양주시 화도읍 마석우리 570-2번지 코오롱빌딩 5층","indutype":"레저업소 - 헬스클럽","category":"leisure"}]},{"lat":"37.655806962","long":"127.30573963","imageIndex":13,"items":[{"name":"운동건강관리요법","tel":"031-593-5335","addr":"경기도 남양주시 화도읍 마석우리 300번지 3층","indutype":"레저업소 - 헬스클럽","category":"leisure"}]},{"lat":"37.658752","long":"127.31988358","imageIndex":13,"items":[{"name":"월드골프연습장","tel":"031-511-6666","addr":"경기도 남양주시 화도읍 마석우리 18-14번지","indutype":"레저업소 - 골프연습장","category":"leisure"}]},{"lat":"37.65711299","long":"127.3023565","imageIndex":13,"items":[{"name":"이레당구클럽","tel":"031-593-1503","addr":"경기도 남양주시 화도읍 마석우리 392-1번지 별나라타운 402호 402호~403호","indutype":"레저업소 - 당 구 장","category":"leisure"}]},{"lat":"37.652111241","long":"127.30990605","imageIndex":13,"items":[{"name":"잭슨노래연습장","tel":"031-595-2515","addr":"경기도 남양주시 화도읍 마석우리 288-6번지 지하1층","indutype":"레저업소 - 노 래 방","category":"leisure"}]},{"lat":"37.661058517","long":"127.30263301","imageIndex":13,"items":[{"name":"콘서트노래연습장","tel":"031-559-4128","addr":"경기도 남양주시 화도읍 마석우리 474번지 경춘빌라","indutype":"레저업소 - 노 래 방","category":"leisure"}]},{"lat":"37.654583289","long":"127.30510006","imageIndex":13,"items":[{"name":"토마토노래연습장","tel":"031-559-7752","addr":"경기도 남양주시 화도읍 마석우리 305-10번지 지하1층","indutype":"레저업소 - 노 래 방","category":"leisure"}]},{"lat":"37.652057596","long":"127.30974718","imageIndex":13,"items":[{"name":"토마토노래연습장","tel":"031-528-6263","addr":"경기도 남양주시 화도읍 마석우리 288-7번지 201호","indutype":"레저업소 - 노 래 방","category":"leisure"}]},{"lat":"37.65691429","long":"127.30254836","imageIndex":13,"items":[{"name":"토토당","tel":"","addr":"경기도 남양주시 화도읍 마석우리 392-4번지 4층 마석주립빌딩","indutype":"레저업소 - 당 구 장","category":"leisure"}]},{"lat":"37.659865647","long":"127.30404484","imageIndex":13,"items":[{"name":"프로당구장","tel":"031-595-0170","addr":"경기도 남양주시 화도읍 마석우리 385번지 2층","indutype":"레저업소 - 당 구 장","category":"leisure"}]},{"lat":"37.661833713","long":"127.3024888","imageIndex":13,"items":[{"name":"플레타짐","tel":"031-511-2050","addr":"경기도 남양주시 화도읍 마석우리 472-4번지 지호프라자 401호 402호","indutype":"레저업소 - 헬스클럽","category":"leisure"}]},{"lat":"37.655027673","long":"127.30041032","imageIndex":13,"items":[{"name":"피트니스 독스 (fitness dogs)","tel":"031-593-9682","addr":"경기도 남양주시 화도읍 마석우리 575-4번지","indutype":"레저업소 - 헬스클럽","category":"leisure"}]},{"lat":"37.657726145","long":"127.30569076","imageIndex":13,"items":[{"name":"핫바디짐","tel":"","addr":"경기도 남양주시 화도읍 마석우리 404-10번지 301호","indutype":"레저업소 - 헬스클럽","category":"leisure"}]},{"lat":"37.654222819","long":"127.30513259","imageIndex":13,"items":[{"name":"행운노래연습장","tel":"031-594-5852","addr":"경기도 남양주시 화도읍 마석우리 305-14번지 지층","indutype":"레저업소 - 노 래 방","category":"leisure"}]},{"lat":"37.657419114","long":"127.30243706","imageIndex":13,"items":[{"name":"1001안경콘택트마석점","tel":"031-559-7179","addr":"경기도 남양주시 화도읍 마석우리 383-4번지 캠퍼스츠라자 101호","indutype":"보건위생 - 안경","category":"beauty"},{"name":"아리따움 마석점","tel":"031-593-0121","addr":"경기도 남양주시 화도읍 마석우리 383-4번지 캠퍼스프라자 103호","indutype":"보건위생 - 화장품","category":"beauty"},{"name":"주은진헤어샵","tel":"031-594-1574","addr":"경기도 남양주시 화도읍 마석우리 383-4번지 캠퍼스프라자 2동 202호","indutype":"보건위생 - 미용원","category":"beauty"}]},{"lat":"37.655972125","long":"127.30457306","imageIndex":13,"items":[{"name":"K&L 헤어","tel":"031-513-0887","addr":"경기도 남양주시 화도읍 마석우리 322번지 2,3층","indutype":"보건위생 - 미용원","category":"beauty"}]},{"lat":"37.656360203","long":"127.30076694","imageIndex":13,"items":[{"name":"ZIA WAXING(지아 왁싱)","tel":"","addr":"경기도 남양주시 화도읍 마석우리 557-7번지 102호","indutype":"보건위생 - 피부미용실","category":"beauty"},{"name":"네일톡톡","tel":"","addr":"경기도 남양주시 화도읍 마석우리 557-7번지 1층 103호","indutype":"보건위생 - 피부미용실","category":"beauty"},{"name":"호박공주","tel":"070-8955-4567","addr":"경기도 남양주시 화도읍 마석우리 557-7번지","indutype":"보건위생 - 미용원","category":"beauty"}]},{"lat":"37.658219208","long":"127.30313157","imageIndex":13,"items":[{"name":"가비헤어","tel":"031-591-0715","addr":"경기도 남양주시 화도읍 마석우리 349번지 중흥에스클레스빌 111동 203호","indutype":"보건위생 - 미용원","category":"beauty"}]},{"lat":"37.653417767","long":"127.30637585","imageIndex":13,"items":[{"name":"강선희미용실","tel":"031-595-2778","addr":"경기도 남양주시 화도읍 마석우리 295-7","indutype":"보건위생 - 미용원","category":"beauty"}]},{"lat":"37.66149964","long":"127.30277078","imageIndex":13,"items":[{"name":"구피샵마석우리점","tel":"031-511-5117","addr":"경기도 남양주시 화도읍 마석우리 473-1번지 102호","indutype":"보건위생 - 이용원","category":"beauty"}]},{"lat":"37.655057945","long":"127.30621254","imageIndex":13,"items":[{"name":"구헤어샵","tel":"031-513-7890","addr":"경기도 남양주시 화도읍 마석우리 297-12번지 1층 일부","indutype":"보건위생 - 미용원","category":"beauty"}]},{"lat":"37.65269563","long":"127.30690551","imageIndex":13,"items":[{"name":"그랑프리안경콘택트","tel":"031-594-8980","addr":"경기도 남양주시 화도읍 마석우리 292-12번지","indutype":"보건위생 - 안경","category":"beauty"}]},{"lat":"37.652224236","long":"127.30802543","imageIndex":13,"items":[{"name":"글라스스토리안경","tel":"031-559-6008","addr":"경기도 남양주시 화도읍 마석우리 292-17번지 SL프라자 1층 103,104호","indutype":"보건위생 - 안경","category":"beauty"},{"name":"이승희헤어샵","tel":"031-5917-6620","addr":"경기도 남양주시 화도읍 마석우리 292-17번지","indutype":"보건위생 - 미용원","category":"beauty"}]},{"lat":"37.65522679","long":"127.30360681","imageIndex":13,"items":[{"name":"김수경헤어클럽","tel":"031-559-3780","addr":"경기도 남양주시 화도읍 마석우리 317-8번지 108호","indutype":"보건위생 - 미용원","category":"beauty"},{"name":"네일스톤","tel":"031-511-5888","addr":"경기도 남양주시 화도읍 마석우리 317-8번지 1층 9호","indutype":"보건위생 - 피부미용실","category":"beauty"}]},{"lat":"37.652142652","long":"127.30821774","imageIndex":13,"items":[{"name":"김정문알로에(화도점)","tel":"031-559-6687","addr":"경기도 남양주시 화도읍 마석우리 292-16번지","indutype":"보건위생 - 화장품","category":"beauty"},{"name":"베트남 앤 코리아헤어","tel":"031-516-2141","addr":"경기도 남양주시 화도읍 마석우리 292-16번지 1층 일부","indutype":"보건위생 - 미용원","category":"beauty"}]},{"lat":"37.651920719","long":"127.30693634","imageIndex":13,"items":[{"name":"김정연헤어","tel":"031-594-0384","addr":"경기도 남양주시 화도읍 마석우리 269-2번지 1층","indutype":"보건위생 - 미용원","category":"beauty"}]},{"lat":"37.654808694","long":"127.30149733","imageIndex":13,"items":[{"name":"까고뽀꼬","tel":"031-591-8927","addr":"경기도 남양주시 화도읍 마석우리 586번지 101호","indutype":"보건위생 - 미용원","category":"beauty"}]},{"lat":"37.65658712","long":"127.30365762","imageIndex":13,"items":[{"name":"까망머리","tel":"031-591-3626","addr":"경기도 남양주시 화도읍 마석우리 379-11번지 모던빌 102호","indutype":"보건위생 - 미용원","category":"beauty"}]},{"lat":"37.66033478","long":"127.3037974","imageIndex":13,"items":[{"name":"깍세","tel":"031-511-8737","addr":"경기도 남양주시 화도읍 마석우리 441-1번지 동보빌딩 102호","indutype":"보건위생 - 미용원","category":"beauty"}]},{"lat":"37.657195075","long":"127.30549595","imageIndex":13,"items":[{"name":"남성컷트클럽 마석점","tel":"070-8793-4111","addr":"경기도 남양주시 화도읍 마석우리 363-9번지 102호","indutype":"보건위생 - 미용원","category":"beauty"}]},{"lat":"37.657223266","long":"127.30504276","imageIndex":13,"items":[{"name":"네일 스케치","tel":"02-559-6036","addr":"경기도 남양주시 화도읍 마석우리 365-6번지 영성주택 102호","indutype":"보건위생 - 피부미용실","category":"beauty"}]},{"lat":"37.658365969","long":"127.30563669","imageIndex":13,"items":[{"name":"네일블라썸","tel":"031-511-5688","addr":"경기도 남양주시 화도읍 마석우리 410-1번지 1층","indutype":"보건위생 - 피부미용실","category":"beauty"},{"name":"은성이발관","tel":"031-516-6252","addr":"경기도 남양주시 화도읍 마석우리 410-1번지 1층 103호 거농마트","indutype":"보건위생 - 이용원","category":"beauty"},{"name":"커틸다헤어살롱","tel":"031-595-1814","addr":"경기도 남양주시 화도읍 마석우리 410-1번지 2층","indutype":"보건위생 - 미용원","category":"beauty"}]},{"lat":"37.657141082","long":"127.30193731","imageIndex":13,"items":[{"name":"네일스토리","tel":"031-511-4125","addr":"경기도 남양주시 화도읍 마석우리 383-1번지 성훈프라자 603호","indutype":"보건위생 - 미용재료","category":"beauty"},{"name":"이니스프리","tel":"031-595-0056","addr":"경기도 남양주시 화도읍 마석우리 383-1번지 정길프라자 1층 103호","indutype":"보건위생 - 화장품","category":"beauty"}]},{"lat":"37.652942852","long":"127.30182982","imageIndex":13,"items":[{"name":"누리","tel":"070-4922-1261","addr":"경기도 남양주시 화도읍 마석우리 338-3번지 누리하우스 401호","indutype":"보건위생 - 화장품","category":"beauty"}]},{"lat":"37.656252231","long":"127.30070984","imageIndex":13,"items":[{"name":"님프헤어살롱","tel":"070-8867-0826","addr":"경기도 남양주시 화도읍 마석우리 557-8번지 1층 일부","indutype":"보건위생 - 미용원","category":"beauty"}]},{"lat":"37.656830291","long":"127.3036926","imageIndex":13,"items":[{"name":"다나스킨케어","tel":"031-559-9887","addr":"경기도 남양주시 화도읍 마석우리 379-9번지 204호","indutype":"보건위생 - 화장품","category":"beauty"}]},{"lat":"37.658895184","long":"127.3030323","imageIndex":13,"items":[{"name":"달맞이뷰티아이","tel":"","addr":"경기도 남양주시 화도읍 마석우리 349번지 중흥에스클래스 103동 101호","indutype":"보건위생 - 화장품","category":"beauty"}]},{"lat":"37.654721619","long":"127.30385408","imageIndex":13,"items":[{"name":"더 메이커스","tel":"070-4141-8485","addr":"경기도 남양주시 화도읍 마석우리 317-7번지 태양빌딩 3층","indutype":"보건위생 - 미용원","category":"beauty"},{"name":"수피부관리실","tel":"031-595-7799","addr":"경기도 남양주시 화도읍 마석우리 317-7번지","indutype":"보건위생 - 피부미용실","category":"beauty"}]},{"lat":"37.661058517","long":"127.30263301","imageIndex":13,"items":[{"name":"더(The) 윤 에스테틱","tel":"031-594-7151","addr":"경기도 남양주시 화도읍 마석우리 474번지 경춘상가 2,3층","indutype":"보건위생 - 피부미용실","category":"beauty"},{"name":"컬러 하우스","tel":"031-593-3733","addr":"경기도 남양주시 화도읍 마석우리 474번지 경춘빌라 상가 2층 2호","indutype":"보건위생 - 화장품","category":"beauty"}]},{"lat":"37.654391936","long":"127.30593786","imageIndex":13,"items":[{"name":"더라인샵(THELINE#)","tel":"","addr":"경기도 남양주시 화도읍 마석우리 297-10번지 1층 1호","indutype":"보건위생 - 화장품","category":"beauty"},{"name":"제이헤어","tel":"031-557-2888","addr":"경기도 남양주시 화도읍 마석우리 297-10번지","indutype":"보건위생 - 미용원","category":"beauty"}]},{"lat":"37.651890882","long":"127.30802407","imageIndex":13,"items":[{"name":"더샘 마석점","tel":"031-511-2767","addr":"경기도 남양주시 화도읍 마석우리 271-7번지","indutype":"보건위생 - 화장품","category":"beauty"}]},{"lat":"37.652506137","long":"127.30701805","imageIndex":13,"items":[{"name":"더페이스샵 마석점","tel":"031-559-1017","addr":"경기도 남양주시 화도읍 마석우리 292-27번지","indutype":"보건위생 - 화장품","category":"beauty"}]},{"lat":"37.660416993","long":"127.30335575","imageIndex":13,"items":[{"name":"델라헤어스튜디오","tel":"031-511-9739","addr":"경기도 남양주시 화도읍 마석우리 442-1번지","indutype":"보건위생 - 미용원","category":"beauty"}]},{"lat":"37.655164501","long":"127.29974226","imageIndex":13,"items":[{"name":"두피탈모클리닉샵","tel":"","addr":"경기도 남양주시 화도읍 마석우리 520-54번지 1층 101호","indutype":"보건위생 - 피부미용실","category":"beauty"}]},{"lat":"37.65536137","long":"127.30027566","imageIndex":13,"items":[{"name":"럭셔리뷰티 화도점","tel":"031-591-8585","addr":"경기도 남양주시 화도읍 마석우리 570-2번지 3층","indutype":"보건위생 - 화장품","category":"beauty"}]},{"lat":"37.652057596","long":"127.30974718","imageIndex":13,"items":[{"name":"로라헤어","tel":"031-559-8380","addr":"경기도 남양주시 화도읍 마석우리 288-7번지 1층 104호","indutype":"보건위생 - 미용원","category":"beauty"}]},{"lat":"37.656948484","long":"127.30327377","imageIndex":13,"items":[{"name":"로얄","tel":"031-591-7006","addr":"경기도 남양주시 화도읍 마석우리 383-8번지 별나라타워 402호","indutype":"보건위생 - 미용재료","category":"beauty"},{"name":"마임남양주마석","tel":"031-593-9980","addr":"경기도 남양주시 화도읍 마석우리 383-8번지 별나라타워 402호","indutype":"보건위생 - 화장품","category":"beauty"},{"name":"별나라화장품","tel":"031-559-5722","addr":"경기도 남양주시 화도읍 마석우리 383-8번지 별나라타워 1층 109호","indutype":"보건위생 - 화장품","category":"beauty"},{"name":"블루클럽마석점","tel":"031-511-3224","addr":"경기도 남양주시 화도읍 마석우리 383-8번지 별나라타워 108호","indutype":"보건위생 - 미용원","category":"beauty"},{"name":"오사레","tel":"031-593-9216","addr":"경기도 남양주시 화도읍 마석우리 383-8번지 별나라타워 204호","indutype":"보건위생 - 미용원","category":"beauty"}]},{"lat":"37.65436125","long":"127.30029434","imageIndex":13,"items":[{"name":"로얄모두팜","tel":"","addr":"경기도 남양주시 화도읍 마석우리 577-4번지 비젼빌 1호","indutype":"보건위생 - 의료용품","category":"beauty"}]},{"lat":"37.652922734","long":"127.30265697","imageIndex":13,"items":[{"name":"로얄헤어","tel":"02-0000-0000","addr":"경기도 남양주시 화도읍 마석우리 336-3번지 1층","indutype":"보건위생 - 미용원","category":"beauty"}]},{"lat":"37.656225522","long":"127.30413213","imageIndex":13,"items":[{"name":"마녀헤어","tel":"031-000-1111","addr":"경기도 남양주시 화도읍 마석우리 324-17번지 1층","indutype":"보건위생 - 미용원","category":"beauty"},{"name":"진헤어클럽","tel":"031-593-4688","addr":"경기도 남양주시 화도읍 마석우리 324-17","indutype":"보건위생 - 미용원","category":"beauty"},{"name":"콩네일","tel":"031-559-3963","addr":"경기도 남양주시 화도읍 마석우리 324-17번지","indutype":"보건위생 - 피부미용실","category":"beauty"}]},{"lat":"37.650283713","long":"127.30935461","imageIndex":13,"items":[{"name":"마석롯데마트 미샤점","tel":"031-559-0521","addr":"경기도 남양주시 화도읍 마석우리 255-24번지 107호","indutype":"보건위생 - 화장품","category":"beauty"},{"name":"시호비전남양주마석점","tel":"031-511-6514","addr":"경기도 남양주시 화도읍 마석우리 255-7 롯데마트마석점지상1층","indutype":"보건위생 - 안경","category":"beauty"}]},{"lat":"37.65691429","long":"127.30254836","imageIndex":13,"items":[{"name":"마석아동발달센터","tel":"031-591-7117","addr":"경기도 남양주시 화도읍 마석우리 392-4번지 주립빌딩 3층","indutype":"보건위생 - 기타대인서비스","category":"beauty"},{"name":"어우림","tel":"031-593-2468","addr":"경기도 남양주시 화도읍 마석우리 392-4번지 마석주립빌딩 지하 1호","indutype":"보건위생 - 의료용품","category":"beauty"},{"name":"휴테라피코스메틱","tel":"031-511-1107","addr":"경기도 남양주시 화도읍 마석우리 392-4번지 2층 마석주립빌딩","indutype":"보건위생 - 화장품","category":"beauty"}]},{"lat":"37.657309933","long":"127.30285593","imageIndex":13,"items":[{"name":"마음길 심리상담센터","tel":"031-511-3389","addr":"경기도 남양주시 화도읍 마석우리 383-5번지 메디칼프라자 507호","indutype":"보건위생 - 기타대인서비스","category":"beauty"},{"name":"명성원 바른자세","tel":"031-594-0069","addr":"경기도 남양주시 화도읍 마석우리 383-5번지 메디칼프라자 3층 302호","indutype":"보건위생 - 기타대인서비스","category":"beauty"},{"name":"블랙아이","tel":"031-592-1231","addr":"경기도 남양주시 화도읍 마석우리 383-5번지 메디칼프라자 302호","indutype":"보건위생 - 미용재료","category":"beauty"},{"name":"아로니스","tel":"031-594-2029","addr":"경기도 남양주시 화도읍 마석우리 383-5번지 메디칼프라자 206호","indutype":"보건위생 - 화장품","category":"beauty"}]},{"lat":"37.658143611","long":"127.30096672","imageIndex":13,"items":[{"name":"맨투맨","tel":"031-591-4874","addr":"경기도 남양주시 화도읍 마석우리 541-3번지 로망스빌 1층 102호","indutype":"보건위생 - 미용원","category":"beauty"}]},{"lat":"37.656140374","long":"127.30571832","imageIndex":13,"items":[{"name":"머리나라 미용실","tel":"031-594-8060","addr":"경기도 남양주시 화도읍 마석우리 299-10번지 우리빌딩 401호 일부","indutype":"보건위생 - 미용원","category":"beauty"},{"name":"머리나라 미용재료","tel":"031-594-8060","addr":"경기도 남양주시 화도읍 마석우리 299-10번지 4층 402호","indutype":"보건위생 - 화장품","category":"beauty"},{"name":"머리나라(본점)","tel":"031-594-8060","addr":"경기도 남양주시 화도읍 마석우리 299-10번지 402동","indutype":"보건위생 - 미용원","category":"beauty"},{"name":"헤어샵","tel":"031-511-0466","addr":"경기도 남양주시 화도읍 마석우리 299-10번지 104호","indutype":"보건위생 - 미용원","category":"beauty"}]},{"lat":"37.657944466","long":"127.30487569","imageIndex":13,"items":[{"name":"모스트헤어","tel":"031-592-0813","addr":"경기도 남양주시 화도읍 마석우리 360-6번지 3층","indutype":"보건위생 - 미용원","category":"beauty"}]},{"lat":"37.653335455","long":"127.30685146","imageIndex":13,"items":[{"name":"미건의료기마석지점","tel":"031-559-7589","addr":"경기도 남양주시 화도읍 마석우리 220-18번지 5층","indutype":"보건위생 - 의료용품","category":"beauty"}]},{"lat":"37.656226795","long":"127.3036335","imageIndex":13,"items":[{"name":"미녀공방","tel":"031-511-9960","addr":"경기도 남양주시 화도읍 마석우리 379-14번지 모던빌 1층","indutype":"보건위생 - 미용원","category":"beauty"}]},{"lat":"37.657218915","long":"127.3032182","imageIndex":13,"items":[{"name":"보떼 마석점","tel":"031-511-1738","addr":"경기도 남양주시 화도읍 마석우리 383-6번지 중흥프라자 109호","indutype":"보건위생 - 화장품","category":"beauty"},{"name":"찰리경헤어콜렉션","tel":"031-593-7848","addr":"경기도 남양주시 화도읍 마석우리 383-6번지 중흥프라자 201호","indutype":"보건위생 - 미용원","category":"beauty"}]},{"lat":"37.651783412","long":"127.30777433","imageIndex":13,"items":[{"name":"보리미용실","tel":"031-593-3577","addr":"경기도 남양주시 화도읍 마석우리 272-5번지","indutype":"보건위생 - 미용원","category":"beauty"}]},{"lat":"37.653619874","long":"127.30485818","imageIndex":13,"items":[{"name":"뷰티웨이","tel":"070-4800-1350","addr":"경기도 남양주시 화도읍 마석우리 315-35번지 도신빌라 바동 403호","indutype":"보건위생 - 화장품","category":"beauty"}]},{"lat":"37.658025283","long":"127.30144222","imageIndex":13,"items":[{"name":"뷰티풀아이","tel":"031-591-2249","addr":"경기도 남양주시 화도읍 마석우리 541-5번지 (지층2호)","indutype":"보건위생 - 기타대인서비스","category":"beauty"}]},{"lat":"37.655143158","long":"127.30460371","imageIndex":13,"items":[{"name":"뷰티플러스","tel":"","addr":"경기도 남양주시 화도읍 마석우리 320-4번지 나은그댄드빌라 나동 42호","indutype":"보건위생 - 화장품","category":"beauty"}]},{"lat":"37.654193376","long":"127.30607304","imageIndex":13,"items":[{"name":"블루라인","tel":"031-593-9110","addr":"경기도 남양주시 화도읍 마석우리 297-5번지","indutype":"보건위생 - 미용원","category":"beauty"}]},{"lat":"37.660831577","long":"127.30330075","imageIndex":13,"items":[{"name":"비비","tel":"031-595-6800","addr":"경기도 남양주시 화도읍 마석우리 444-1번지 1층 4호","indutype":"보건위생 - 피부미용실","category":"beauty"},{"name":"헤어카페","tel":"031-511-1236","addr":"경기도 남양주시 화도읍 마석우리 444-1번지 101호","indutype":"보건위생 - 미용원","category":"beauty"}]},{"lat":"37.655441913","long":"127.30049129","imageIndex":13,"items":[{"name":"살롱드아셀","tel":"031-511-8021","addr":"경기도 남양주시 화도읍 마석우리 570-4번지 2,3층","indutype":"보건위생 - 미용원","category":"beauty"},{"name":"아셀앤네일","tel":"031-511-8021","addr":"경기도 남양주시 화도읍 마석우리 570-4번지 3층","indutype":"보건위생 - 피부미용실","category":"beauty"}]},{"lat":"37.65675036","long":"127.30323898","imageIndex":13,"items":[{"name":"서연헤어살롱","tel":"070-8286-3963","addr":"경기도 남양주시 화도읍 마석우리 383-9번지 별나라프라자 203호","indutype":"보건위생 - 미용원","category":"beauty"}]},{"lat":"37.658358616","long":"127.3049907","imageIndex":13,"items":[{"name":"세희샵","tel":"031-592-4078","addr":"경기도 남양주시 화도읍 마석우리 360-1번지","indutype":"보건위생 - 화장품","category":"beauty"},{"name":"씨엘헤어","tel":"","addr":"경기도 남양주시 화도읍 마석우리 360-1번지 1층","indutype":"보건위생 - 미용원","category":"beauty"}]},{"lat":"37.654003156","long":"127.30646889","imageIndex":13,"items":[{"name":"센스미용실","tel":"031-593-1754","addr":"경기도 남양주시 화도읍 마석우리 220-1번지","indutype":"보건위생 - 미용원","category":"beauty"}]},{"lat":"37.659449788","long":"127.30459847","imageIndex":13,"items":[{"name":"수인건강","tel":"","addr":"경기도 남양주시 화도읍 마석우리 384-8번지 202호","indutype":"보건위생 - 기타대인서비스","category":"beauty"}]},{"lat":"37.658889977","long":"127.30507218","imageIndex":13,"items":[{"name":"스위트sweet 슈가링","tel":"","addr":"경기도 남양주시 화도읍 마석우리 415-5번지 2층 일부","indutype":"보건위생 - 피부미용실","category":"beauty"}]},{"lat":"37.65905386","long":"127.30440421","imageIndex":13,"items":[{"name":"신데렐라만들기","tel":"031-595-7847","addr":"경기도 남양주시 화도읍 마석우리 357-2번지 코스모스빌딩 1층 102호 상가좌측","indutype":"보건위생 - 피부미용실","category":"beauty"}]},{"lat":"37.652083121","long":"127.31032521","imageIndex":13,"items":[{"name":"써니헤어","tel":"","addr":"경기도 남양주시 화도읍 마석우리 286-4번지 1층 일부","indutype":"보건위생 - 미용원","category":"beauty"},{"name":"제이디메디칼","tel":"031-593-3800","addr":"경기도 남양주시 화도읍 마석우리 286-4번지 4층","indutype":"보건위생 - 의료용품","category":"beauty"},{"name":"탑화장품","tel":"031-8894-4271","addr":"경기도 남양주시 화도읍 마석우리 286-4번지","indutype":"보건위생 - 화장품","category":"beauty"}]},{"lat":"37.655946163","long":"127.30060663","imageIndex":13,"items":[{"name":"아르보떼","tel":"031-594-5160","addr":"경기도 남양주시 화도읍 마석우리 564-2번지 데미안파크 101호","indutype":"보건위생 - 미용원","category":"beauty"}]},{"lat":"37.659611438","long":"127.30480312","imageIndex":13,"items":[{"name":"아마빌레33","tel":"031-593-3898","addr":"경기도 남양주시 화도읍 마석우리 388-2번지 지산파크빌 102동 101호","indutype":"보건위생 - 미용원","category":"beauty"}]},{"lat":"37.657914093","long":"127.30265437","imageIndex":13,"items":[{"name":"아모레 카운셀러","tel":"031-593-3292","addr":"경기도 남양주시 화도읍 마석우리 349번지 중흥에스클래스 101동 501호","indutype":"보건위생 - 화장품","category":"beauty"}]},{"lat":"37.657691182","long":"127.30527131","imageIndex":13,"items":[{"name":"아모레 카운셀러","tel":"031-593-3292","addr":"경기도 남양주시 화도읍 마석우리 363-4번지 대영빌딩 4층","indutype":"보건위생 - 화장품","category":"beauty"},{"name":"아모레카운셀러","tel":"031-593-3292","addr":"경기도 남양주시 화도읍 마석우리 363-4번지 대영빌딩 4층","indutype":"보건위생 - 화장품","category":"beauty"},{"name":"아모레퍼시픽 화도특약점","tel":"031-593-3292","addr":"경기도 남양주시 화도읍 마석우리 363-4번지 대영빌딩 4층","indutype":"보건위생 - 화장품","category":"beauty"}]},{"lat":"37.654221191","long":"127.30576718","imageIndex":13,"items":[{"name":"아모레방판","tel":"031-593-3292","addr":"경기도 남양주시 화도읍 마석우리 295-15번지 성지빌딩 5층 502호","indutype":"보건위생 - 화장품","category":"beauty"},{"name":"아모레카운셀러","tel":"031-593-3292","addr":"경기도 남양주시 화도읍 마석우리 295-15번지 성지빌딩 502호","indutype":"보건위생 - 화장품","category":"beauty"},{"name":"아모레카운셀러","tel":"031-593-3292","addr":"경기도 남양주시 화도읍 마석우리 295-15번지 성지빌딩 502호","indutype":"보건위생 - 화장품","category":"beauty"},{"name":"아모레카운셀러","tel":"031-593-3292","addr":"경기도 남양주시 화도읍 마석우리 295-15번지 성지빌딩 502호","indutype":"보건위생 - 화장품","category":"beauty"},{"name":"아모레카운셀러","tel":"031-593-3292","addr":"경기도 남양주시 화도읍 마석우리 295-15번지 성지빌딩 502호","indutype":"보건위생 - 화장품","category":"beauty"},{"name":"오땡큐","tel":"031-559-6565","addr":"경기도 남양주시 화도읍 마석우리 295-15번지 성지빌딩 1층 102호","indutype":"보건위생 - 미용재료","category":"beauty"},{"name":"은언니머리방","tel":"031-516-5090","addr":"경기도 남양주시 화도읍 마석우리 295-15번지 성지빌딩 1층","indutype":"보건위생 - 미용원","category":"beauty"}]},{"lat":"37.651388804","long":"127.30707016","imageIndex":13,"items":[{"name":"아모레방판","tel":"031-593-3292","addr":"경기도 남양주시 화도읍 마석우리 265-10번지 송림빌딩 5층","indutype":"보건위생 - 화장품","category":"beauty"},{"name":"아모레카운셀러","tel":"031-593-3292","addr":"경기도 남양주시 화도읍 마석우리 265-10번지 송림빌딩 5층","indutype":"보건위생 - 화장품","category":"beauty"},{"name":"아모레카운셀러","tel":"031-593-3292","addr":"경기도 남양주시 화도읍 마석우리 265-10번지 송림빌딩 5층","indutype":"보건위생 - 화장품","category":"beauty"},{"name":"아모레카운셀러","tel":"031-593-3292","addr":"경기도 남양주시 화도읍 마석우리 265-10번지 송림빌딩 5층","indutype":"보건위생 - 화장품","category":"beauty"},{"name":"아모레카운셀러","tel":"031-593-3292","addr":"경기도 남양주시 화도읍 마석우리 265-10번지 5층 송림빌딩","indutype":"보건위생 - 화장품","category":"beauty"},{"name":"아모레카운셀러","tel":"031-593-3292","addr":"경기도 남양주시 화도읍 마석우리 265-10번지","indutype":"보건위생 - 화장품","category":"beauty"},{"name":"아모레카운셀러","tel":"031-593-3292","addr":"경기도 남양주시 화도읍 마석우리 265-10번지 5층 송림빌딩","indutype":"보건위생 - 화장품","category":"beauty"},{"name":"아모레카운셀러","tel":"031-593-3292","addr":"경기도 남양주시 화도읍 마석우리 265-10번지 송림빌딩 5층","indutype":"보건위생 - 화장품","category":"beauty"}]},{"lat":"37.651361629","long":"127.3071267","imageIndex":13,"items":[{"name":"아모레카운셀러","tel":"031-591-6479","addr":"경기도 남양주시 화도읍 마석우리 265-3 송림B/D 5층","indutype":"보건위생 - 화장품","category":"beauty"},{"name":"아모레카운셀러","tel":"031-593-3292","addr":"경기도 남양주시 화도읍 마석우리 265-3 송림빌딩5층","indutype":"보건위생 - 화장품","category":"beauty"},{"name":"아모레카운셀러","tel":"031-593-3292","addr":"경기도 남양주시 화도읍 마석우리 265-3 송림빌딩 5층","indutype":"보건위생 - 화장품","category":"beauty"}]},{"lat":"37.654001838","long":"127.29990761","imageIndex":13,"items":[{"name":"아모레카운셀러","tel":"031-593-3292","addr":"경기도 남양주시 화도읍 마석우리 525-5번지 포스빌하우스 101동 401호","indutype":"보건위생 - 화장품","category":"beauty"}]},{"lat":"37.659059589","long":"127.30568484","imageIndex":13,"items":[{"name":"아모레카운셀러","tel":"031-593-3292","addr":"경기도 남양주시 화도읍 마석우리 423-7번지 101동 402호","indutype":"보건위생 - 화장품","category":"beauty"}]},{"lat":"37.656026472","long":"127.30445996","imageIndex":13,"items":[{"name":"아모레카운셀러","tel":"","addr":"경기도 남양주시 화도읍 마석우리 324-34번지 우성주택 1동 201호","indutype":"보건위생 - 화장품","category":"beauty"}]},{"lat":"37.658664447","long":"127.3051846","imageIndex":13,"items":[{"name":"아우라","tel":"031-593-7023","addr":"경기도 남양주시 화도읍 마석우리 416-1번지 지하1층","indutype":"보건위생 - 미용원","category":"beauty"}]},{"lat":"37.655446347","long":"127.30582882","imageIndex":13,"items":[{"name":"안경기업 비전센터","tel":"031-591-9010","addr":"경기도 남양주시 화도읍 마석우리 298-12번지 101,102호","indutype":"보건위생 - 안경","category":"beauty"}]},{"lat":"37.655833631","long":"127.30235136","imageIndex":13,"items":[{"name":"야후맨스클럽","tel":"031-595-9475","addr":"경기도 남양주시 화도읍 마석우리 396번지 105호 중흥에스클레스상가 남성컷전문점","indutype":"보건위생 - 미용원","category":"beauty"}]},{"lat":"37.657726145","long":"127.30569076","imageIndex":13,"items":[{"name":"에이치스파(H.SPA)","tel":"031-511-1245","addr":"경기도 남양주시 화도읍 마석우리 404-10번지 루비빌딩 1층 103호","indutype":"보건위생 - 피부미용실","category":"beauty"},{"name":"혜당메디칼","tel":"031-235-7455","addr":"경기도 남양주시 화도읍 마석우리 404-10번지 4층","indutype":"보건위생 - 의료용품","category":"beauty"}]},{"lat":"37.654778649","long":"127.3062114","imageIndex":13,"items":[{"name":"연서컷트","tel":"031-593-6767","addr":"경기도 남양주시 화도읍 마석우리 297-20번지","indutype":"보건위생 - 미용원","category":"beauty"}]},{"lat":"37.651836414","long":"127.30818249","imageIndex":13,"items":[{"name":"우리미용상사","tel":"031-594-3358","addr":"경기도 남양주시 화도읍 마석우리 271-4번지 메디닥터빌딩 1층","indutype":"보건위생 - 미용재료","category":"beauty"}]},{"lat":"37.654610002","long":"127.29810822","imageIndex":13,"items":[{"name":"유진헤어","tel":"031-593-0502","addr":"경기도 남양주시 화도읍 마석우리 600번지 마석힐즈파크푸르지오 105호","indutype":"보건위생 - 미용원","category":"beauty"}]},{"lat":"37.653722925","long":"127.30683037","imageIndex":13,"items":[{"name":"윤스","tel":"031-592-7354","addr":"경기도 남양주시 화도읍 마석우리 220-10번지 104호","indutype":"보건위생 - 화장품","category":"beauty"}]},{"lat":"37.656720242","long":"127.30090437","imageIndex":13,"items":[{"name":"윤헤어","tel":"031-559-5977","addr":"경기도 남양주시 화도읍 마석우리 557-4번지 1층 101호 상가 (명성빌)","indutype":"보건위생 - 미용원","category":"beauty"}]},{"lat":"37.656781129","long":"127.30530162","imageIndex":13,"items":[{"name":"이네일(e-nail)","tel":"031-577-5505","addr":"경기도 남양주시 화도읍 마석우리 365-2번지 옥동빌 301호","indutype":"보건위생 - 미용재료","category":"beauty"}]},{"lat":"37.652442719","long":"127.30715378","imageIndex":13,"items":[{"name":"이니스프리 마석점","tel":"031-593-3018","addr":"경기도 남양주시 화도읍 마석우리 292-26번지","indutype":"보건위생 - 화장품","category":"beauty"}]},{"lat":"37.654753173","long":"127.30207505","imageIndex":13,"items":[{"name":"이영경헤어샵","tel":"031-595-7623","addr":"경기도 남양주시 화도읍 마석우리 588번지 유일프라자 103호","indutype":"보건위생 - 미용원","category":"beauty"}]},{"lat":"37.658698567","long":"127.3059327","imageIndex":13,"items":[{"name":"임주희헤어리더","tel":"031-591-3345","addr":"경기도 남양주시 화도읍 마석우리 411-7번지 일부 301동 101호","indutype":"보건위생 - 미용원","category":"beauty"}]},{"lat":"37.657333931","long":"127.30404594","imageIndex":13,"items":[{"name":"정흥교헤어샵","tel":"031-594-0026","addr":"경기도 남양주시 화도읍 마석우리 379-3번지 송정빌","indutype":"보건위생 - 이용원","category":"beauty"}]},{"lat":"37.658252727","long":"127.30057051","imageIndex":13,"items":[{"name":"제니헤어","tel":"031-595-0245","addr":"경기도 남양주시 화도읍 마석우리 541-1번지","indutype":"보건위생 - 미용원","category":"beauty"}]},{"lat":"37.65696898","long":"127.30229926","imageIndex":13,"items":[{"name":"제이드","tel":"031-593-1400","addr":"경기도 남양주시 화도읍 마석우리 392-5번지 신명프라자 201호","indutype":"보건위생 - 미용원","category":"beauty"}]},{"lat":"37.653364221","long":"127.31310682","imageIndex":13,"items":[{"name":"제이로스컴퍼니","tel":"070-7565-7526","addr":"경기도 남양주시 화도읍 마석우리 128-23번지","indutype":"보건위생 - 화장품","category":"beauty"}]},{"lat":"37.657414235","long":"127.30435225","imageIndex":13,"items":[{"name":"조이헤어","tel":"","addr":"경기도 남양주시 화도읍 마석우리 379-1번지 1층","indutype":"보건위생 - 미용원","category":"beauty"}]},{"lat":"37.654971483","long":"127.30479566","imageIndex":13,"items":[{"name":"지니스킨케어","tel":"","addr":"경기도 남양주시 화도읍 마석우리 306-77번지 1동 3층","indutype":"보건위생 - 피부미용실","category":"beauty"}]},{"lat":"37.65744712","long":"127.30205186","imageIndex":13,"items":[{"name":"청담화장품","tel":"02-596-1933","addr":"경기도 남양주시 화도읍 마석우리 383-2번지 중앙프라자 503호","indutype":"보건위생 - 화장품","category":"beauty"},{"name":"희헤어","tel":"031-559-3999","addr":"경기도 남양주시 화도읍 마석우리 383-2번지 중앙프라자 203호","indutype":"보건위생 - 미용원","category":"beauty"}]},{"lat":"37.659532698","long":"127.30388483","imageIndex":13,"items":[{"name":"큐러브샵","tel":"031-511-3227","addr":"경기도 남양주시 화도읍 마석우리 353-8번지 핑크빌 102호","indutype":"보건위생 - 화장품","category":"beauty"}]},{"lat":"37.660304913","long":"127.30490792","imageIndex":13,"items":[{"name":"태경이네 미용실","tel":"","addr":"경기도 남양주시 화도읍 마석우리 436-10번지 지산파크빌 105동 101호","indutype":"보건위생 - 미용원","category":"beauty"}]},{"lat":"37.651755225","long":"127.31168366","imageIndex":13,"items":[{"name":"투에이치안경","tel":"031-511-8415","addr":"경기도 남양주시 화도읍 마석우리 249-2번지 102호","indutype":"보건위생 - 안경","category":"beauty"}]},{"lat":"37.658972484","long":"127.30451721","imageIndex":13,"items":[{"name":"티라헤어","tel":"070-4807-2323","addr":"경기도 남양주시 화도읍 마석우리 357-3번지 1층 일부","indutype":"보건위생 - 미용원","category":"beauty"}]},{"lat":"37.65711299","long":"127.3023565","imageIndex":13,"items":[{"name":"피어스트","tel":"","addr":"경기도 남양주시 화도읍 마석우리 392-1번지 별나라타운 401호","indutype":"보건위생 - 화장품","category":"beauty"}]},{"lat":"37.656888546","long":"127.30557403","imageIndex":13,"items":[{"name":"필팻","tel":"031-559-2001","addr":"경기도 남양주시 화도읍 마석우리 366-2번지 동광그린빌 103호","indutype":"보건위생 - 의료용품","category":"beauty"}]},{"lat":"37.658340163","long":"127.29804366","imageIndex":13,"items":[{"name":"한울솔","tel":"","addr":"경기도 남양주시 화도읍 마석우리 552번지 보미청광플러스원 112동 1201호","indutype":"보건위생 - 기타대인서비스","category":"beauty"}]},{"lat":"37.654503595","long":"127.30455579","imageIndex":13,"items":[{"name":"해방촌 이발관","tel":"","addr":"경기도 남양주시 화도읍 마석우리 315-14번지 두원빌라 가동 101호","indutype":"보건위생 - 이용원","category":"beauty"}]},{"lat":"37.65574921","long":"127.30010722","imageIndex":13,"items":[{"name":"헤어제이유","tel":"02-123-1015","addr":"경기도 남양주시 화도읍 마석우리 565-6번지 1층","indutype":"보건위생 - 미용원","category":"beauty"}]},{"lat":"37.654114791","long":"127.30509816","imageIndex":13,"items":[{"name":"현대미용실","tel":"","addr":"경기도 남양주시 화도읍 마석우리 305-16번지 1층 일부호","indutype":"보건위생 - 미용원","category":"beauty"}]},{"lat":"37.651945467","long":"127.30782032","imageIndex":13,"items":[{"name":"황실마사지","tel":"031-559-4568","addr":"경기도 남양주시 화도읍 마석우리 271-8번지 2층","indutype":"보건위생 - 미용재료","category":"beauty"}]},{"lat":"37.663087473","long":"127.3054632","imageIndex":13,"items":[{"name":"흑기사","tel":"","addr":"경기도 남양주시 화도읍 마석우리 462-8번지 우리가 104동 402호","indutype":"보건위생 - 기타대인서비스","category":"beauty"}]},{"lat":"37.652054782","long":"127.30735617","imageIndex":8,"items":[{"name":"25시동물병원","tel":"031-594-3119","addr":"경기도 남양주시 화도읍 마석우리 271-3","indutype":"기타의료기관 - 동물병원","category":"medical"},{"name":"송우약국","tel":"031-593-0033","addr":"경기도 남양주시 화도읍 마석우리 271-3번지","indutype":"약국 - 약국","category":"medical"}]},{"lat":"37.657218915","long":"127.3032182","imageIndex":8,"items":[{"name":"건강온누리약국","tel":"031-559-6334","addr":"경기도 남양주시 화도읍 마석우리 383-6번지 중흥프라자 105호","indutype":"약국 - 약국","category":"medical"}]},{"lat":"37.65744712","long":"127.30205186","imageIndex":8,"items":[{"name":"경희약손한의원","tel":"031-595-1633","addr":"경기도 남양주시 화도읍 마석우리 383-2번지 중앙프라자 204호","indutype":"의원 - 한의원","category":"medical"},{"name":"송라약국","tel":"031-511-2257","addr":"경기도 남양주시 화도읍 마석우리 383-2번지 중앙프라자 406호","indutype":"약국 - 약국","category":"medical"},{"name":"연세안과","tel":"031-592-0094","addr":"경기도 남양주시 화도읍 마석우리 383-2번지 503,504호","indutype":"의원 - 의원","category":"medical"},{"name":"중앙내과의원","tel":"031-593-8273","addr":"경기도 남양주시 화도읍 마석우리 383-2번지 중앙프라자 404호","indutype":"의원 - 의원","category":"medical"},{"name":"한빛이비인후과","tel":"031-559-8575","addr":"경기도 남양주시 화도읍 마석우리 383-2번지 중앙프라자 405호","indutype":"의원 - 의원","category":"medical"}]},{"lat":"37.650283713","long":"127.30935461","imageIndex":8,"items":[{"name":"고려이비인후과의원","tel":"031-559-5075","addr":"경기도 남양주시 화도읍 마석우리 255-24번지 롯데마트 202호","indutype":"의원 - 의원","category":"medical"},{"name":"마석백제약국","tel":"031-511-7026","addr":"경기도 남양주시 화도읍 마석우리 255-24번지 203호","indutype":"약국 - 약국","category":"medical"},{"name":"마이펫동물병원","tel":"031-511-7544","addr":"경기도 남양주시 화도읍 마석우리 255-24번지","indutype":"기타의료기관 - 동물병원","category":"medical"}]},{"lat":"37.652082191","long":"127.30720896","imageIndex":8,"items":[{"name":"김의원","tel":"031-593-1773","addr":"경기도 남양주시 화도읍 마석우리 271-6번지","indutype":"의원 - 의원","category":"medical"},{"name":"김의원","tel":"031-593-1773","addr":"경기도 남양주시 화도읍 마석우리 271-6번지","indutype":"의원 - 의원","category":"medical"},{"name":"마석이비인후과","tel":"031-595-3222","addr":"경기도 남양주시 화도읍 마석우리 271-6번지","indutype":"의원 - 의원","category":"medical"}]},{"lat":"37.658304235","long":"127.30157933","imageIndex":8,"items":[{"name":"대학동물병원","tel":"031-559-7581","addr":"경기도 남양주시 화도읍 마석우리 539-3","indutype":"기타의료기관 - 동물병원","category":"medical"}]},{"lat":"37.661833713","long":"127.3024888","imageIndex":8,"items":[{"name":"더맑은한의원","tel":"031-594-1577","addr":"경기도 남양주시 화도읍 마석우리 472-4번지 지호프라자 2층","indutype":"의원 - 한의원","category":"medical"},{"name":"박의원","tel":"031-592-1240","addr":"경기도 남양주시 화도읍 마석우리 472-4번지 지호프라자 301호","indutype":"의원 - 의원","category":"medical"},{"name":"연세미치과의원","tel":"031-593-2275","addr":"경기도 남양주시 화도읍 마석우리 472-4번지 지호프라자 202호","indutype":"의원 - 치과의원","category":"medical"},{"name":"은혜산부인과","tel":"031-591-5670","addr":"경기도 남양주시 화도읍 마석우리 472-4번지 지호프라자 302호","indutype":"의원 - 의원","category":"medical"}]},{"lat":"37.657141082","long":"127.30193731","imageIndex":8,"items":[{"name":"더샤인의원","tel":"031-523-3150","addr":"경기도 남양주시 화도읍 마석우리 383-1번지 정길프라자 205호","indutype":"의원 - 의원","category":"medical"},{"name":"마석서울연합치과","tel":"031-593-7582","addr":"경기도 남양주시 화도읍 마석우리 383-1번지 성훈빌딩 4층 403호","indutype":"의원 - 치과의원","category":"medical"},{"name":"스마일약국","tel":"031-511-0642","addr":"경기도 남양주시 화도읍 마석우리 383-1번지 성훈프라자 501호","indutype":"약국 - 약국","category":"medical"},{"name":"연세본소아청소년과의원","tel":"031-511-9993","addr":"경기도 남양주시 화도읍 마석우리 383-1번지 정길프라자 5층 502호","indutype":"의원 - 의원","category":"medical"},{"name":"파스텔이비인후과의원","tel":"031-555-5075","addr":"경기도 남양주시 화도읍 마석우리 383-1번지 정길프라자 4층 404,405호","indutype":"의원 - 의원","category":"medical"}]},{"lat":"37.65483644","long":"127.30121414","imageIndex":8,"items":[{"name":"드림산부인과","tel":"031-591-9889","addr":"경기도 남양주시 화도읍 마석우리 585번지 하나클리닉 201호","indutype":"의원 - 의원","category":"medical"},{"name":"향기약국","tel":"031-591-1915","addr":"경기도 남양주시 화도읍 마석우리 585번지","indutype":"약국 - 약국","category":"medical"}]},{"lat":"37.657691182","long":"127.30527131","imageIndex":8,"items":[{"name":"마석경희한의원","tel":"031-592-5975","addr":"경기도 남양주시 화도읍 마석우리 363-4번지 대영빌딩 3층","indutype":"의원 - 한의원","category":"medical"}]},{"lat":"37.658664447","long":"127.3051846","imageIndex":8,"items":[{"name":"마석동물병원","tel":"031-551-8275","addr":"경기도 남양주시 화도읍 마석우리 416-1번지 신정빌딩 G동 1층","indutype":"기타의료기관 - 동물병원","category":"medical"}]},{"lat":"37.652506137","long":"127.30701805","imageIndex":8,"items":[{"name":"마석아트치과","tel":"031-594-7528","addr":"경기도 남양주시 화도읍 마석우리 292-27번지 2층 201호","indutype":"의원 - 치과의원","category":"medical"}]},{"lat":"37.658252727","long":"127.30057051","imageIndex":8,"items":[{"name":"마석엘리트의원","tel":"031-593-8851","addr":"경기도 남양주시 화도읍 마석우리 541-1번지 스타타워 202호","indutype":"의원 - 의원","category":"medical"},{"name":"하나약국","tel":"031-595-9846","addr":"경기도 남양주시 화도읍 마석우리 541-1번지 104호","indutype":"약국 - 약국","category":"medical"}]},{"lat":"37.652360844","long":"127.3074594","imageIndex":8,"items":[{"name":"마석연세치과의원","tel":"031-594-2855","addr":"경기도 남양주시 화도읍 마석우리 292-21번지","indutype":"의원 - 치과의원","category":"medical"}]},{"lat":"37.652060127","long":"127.30877266","imageIndex":8,"items":[{"name":"마석우리들한의원","tel":"031-511-8211","addr":"경기도 남양주시 화도읍 마석우리 290-2번지 3층","indutype":"의원 - 한의원","category":"medical"},{"name":"우리가족치과의원","tel":"031-594-2275","addr":"경기도 남양주시 화도읍 마석우리 290-2번지 201호","indutype":"의원 - 치과의원","category":"medical"}]},{"lat":"37.651781565","long":"127.30848822","imageIndex":8,"items":[{"name":"마석우리약국","tel":"031-594-0162","addr":"경기도 남양주시 화도읍 마석우리 271-21번지","indutype":"약국 - 약국","category":"medical"}]},{"lat":"37.657309933","long":"127.30285593","imageIndex":8,"items":[{"name":"마석우리치과의원","tel":"031-559-1275","addr":"경기도 남양주시 화도읍 마석우리 41-2번지 메디칼프라자 303","indutype":"의원 - 치과의원","category":"medical"}]},{"lat":"37.651755225","long":"127.31168366","imageIndex":8,"items":[{"name":"마석으뜸약국","tel":"031-559-8183","addr":"경기도 남양주시 화도읍 마석우리 249-2번지 주1동 103호","indutype":"약국 - 약국","category":"medical"},{"name":"연세미앤수의원","tel":"031-515-2220","addr":"경기도 남양주시 화도읍 마석우리 249-2번지 3층","indutype":"의원 - 의원","category":"medical"}]},{"lat":"37.652442719","long":"127.30715378","imageIndex":8,"items":[{"name":"마석타임치과","tel":"031-559-2828","addr":"경기도 남양주시 화도읍 마석우리 292-26번지 2층","indutype":"의원 - 치과의원","category":"medical"}]},{"lat":"37.651388804","long":"127.30707016","imageIndex":8,"items":[{"name":"바른약국","tel":"031-595-5051","addr":"경기도 남양주시 화도읍 마석우리 265-10번지 송림빌딩 외5필지 1-1호","indutype":"약국 - 약국","category":"medical"}]},{"lat":"37.652164124","long":"127.30688068","imageIndex":8,"items":[{"name":"박홍준내과의원","tel":"031-594-7595","addr":"경기도 남양주시 화도읍 마석우리 270번지","indutype":"의원 - 의원","category":"medical"},{"name":"임플라인치과의원","tel":"031-593-0111","addr":"경기도 남양주시 화도읍 마석우리 270번지","indutype":"의원 - 치과의원","category":"medical"}]},{"lat":"37.651665232","long":"127.30818179","imageIndex":8,"items":[{"name":"발리한의원","tel":"031-559-1075","addr":"경기도 남양주시 화도읍 마석우리 272-3번지 2층","indutype":"의원 - 한의원","category":"medical"}]},{"lat":"37.655806962","long":"127.30573963","imageIndex":8,"items":[{"name":"부부한의원","tel":"031-595-3775","addr":"경기도 남양주시 화도읍 마석우리 300번지 외1필지 2층","indutype":"의원 - 한의원","category":"medical"}]},{"lat":"37.660416993","long":"127.30335575","imageIndex":8,"items":[{"name":"설의원","tel":"031-595-3675","addr":"경기도 남양주시 화도읍 마석우리 442-1번지","indutype":"의원 - 의원","category":"medical"}]},{"lat":"37.651807859","long":"127.30877163","imageIndex":8,"items":[{"name":"소나무한의원","tel":"031-511-4356","addr":"경기도 남양주시 화도읍 마석우리 275-3번지","indutype":"의원 - 한의원","category":"medical"}]},{"lat":"37.653335455","long":"127.30685146","imageIndex":8,"items":[{"name":"용한의원","tel":"031-594-8238","addr":"경기도 남양주시 화도읍 마석우리 220-18번지 2층","indutype":"의원 - 한의원","category":"medical"}]},{"lat":"37.652224236","long":"127.30802543","imageIndex":8,"items":[{"name":"유명약국","tel":"031-594-4565","addr":"경기도 남양주시 화도읍 마석우리 292-17번지 외3필지 101동 102호","indutype":"약국 - 약국","category":"medical"},{"name":"이종원비뇨기과","tel":"031-593-1983","addr":"경기도 남양주시 화도읍 마석우리 292-17번지 SL프라자 301호","indutype":"의원 - 의원","category":"medical"},{"name":"정기태정형외과","tel":"031-559-8655","addr":"경기도 남양주시 화도읍 마석우리 292-17번지 SL프라자 4층","indutype":"의원 - 의원","category":"medical"}]},{"lat":"37.652807445","long":"127.30546681","imageIndex":8,"items":[{"name":"이레약국","tel":"031-595-4535","addr":"경기도 남양주시 화도읍 마석우리 310-12번지","indutype":"약국 - 약국","category":"medical"},{"name":"이솔치과의원","tel":"031-592-7528","addr":"경기도 남양주시 화도읍 마석우리 310-12번지 2층","indutype":"의원 - 치과의원","category":"medical"}]},{"lat":"37.654221191","long":"127.30576718","imageIndex":8,"items":[{"name":"인우한의원","tel":"031-594-9898","addr":"경기도 남양주시 화도읍 마석우리 295-15번지 성지빌딩 3층 301호","indutype":"의원 - 한의원","category":"medical"}]},{"lat":"37.653642277","long":"127.30666006","imageIndex":8,"items":[{"name":"장수한의원","tel":"031-511-7424","addr":"경기도 남양주시 화도읍 마석우리 220-11번지","indutype":"의원 - 한의원","category":"medical"}]},{"lat":"37.651836414","long":"127.30818249","imageIndex":8,"items":[{"name":"최소아과의원","tel":"031-511-0804","addr":"경기도 남양주시 화도읍 마석우리 271-4번지","indutype":"의원 - 의원","category":"medical"},{"name":"최재준신경외과의원","tel":"031-511-2877","addr":"경기도 남양주시 화도읍 마석우리 271-4번지","indutype":"의원 - 의원","category":"medical"},{"name":"축령정신과의원","tel":"031-594-0304","addr":"경기도 남양주시 화도읍 마석우리 271-4번지","indutype":"의원 - 의원","category":"medical"}]},{"lat":"37.652808171","long":"127.30518352","imageIndex":8,"items":[{"name":"화도연합내과","tel":"031-591-3330","addr":"경기도 남양주시 화도읍 마석우리 310-6번지 3층","indutype":"의원 - 의원","category":"medical"}]},{"lat":"37.658365969","long":"127.30563669","imageIndex":7,"items":[{"name":"거농마트 (주)","tel":"070-4200-9961","addr":"경기도 남양주시 화도읍 마석우리 410-1번지 1층","indutype":"유통업 영리 - 슈퍼마켓","category":"mart"},{"name":"거농마트(주)","tel":"070-4200-9961","addr":"경기도 남양주시 화도읍 마석우리 410-1","indutype":"유통업 영리 - 슈퍼마켓","category":"mart"}]},{"lat":"37.662304542","long":"127.30510869","imageIndex":7,"items":[{"name":"대림슈퍼","tel":"031-558-7258","addr":"경기도 남양주시 화도읍 마석우리 448-1","indutype":"유통업 영리 - 슈퍼마켓","category":"mart"}]},{"lat":"37.654445062","long":"127.3063007","imageIndex":7,"items":[{"name":"월드마트(WORLD MART)","tel":"070-8613-7550","addr":"경기도 남양주시 화도읍 마석우리 297-4번지 1층","indutype":"유통업 영리 - 슈퍼마켓","category":"mart"}]},{"lat":"37.658219208","long":"127.30313157","imageIndex":7,"items":[{"name":"중흥마트","tel":"031-559-0947","addr":"경기도 남양주시 화도읍 마석우리 349번지 101호 중흥에스-클래스111동상가동","indutype":"유통업 영리 - 슈퍼마켓","category":"mart"}]},{"lat":"37.654391936","long":"127.30593786","imageIndex":7,"items":[{"name":"경기 화도점(신)","tel":"031-592-2305","addr":"경기도 남양주시 화도읍 마석우리 297-10번지 1층 정관장 2호","indutype":"건강식품 - 홍삼제품","category":"food"},{"name":"정관장 화도점","tel":"031-592-2305","addr":"경기도 남양주시 화도읍 마석우리 297-10번지 1층 2호","indutype":"건강식품 - 홍삼제품","category":"food"}]},{"lat":"37.654031699","long":"127.30587974","imageIndex":7,"items":[{"name":"경춘방앗간","tel":"031-592-1844","addr":"경기도 남양주시 화도읍 마석우리 295-113번지","indutype":"음료식품 - 제과점","category":"food"},{"name":"웰빙유통","tel":"02-000-0000","addr":"경기도 남양주시 화도읍 마석우리 295-113번지","indutype":"음료식품 - 농·축·수산품","category":"food"}]},{"lat":"37.652164124","long":"127.30688068","imageIndex":7,"items":[{"name":"고기쟁이","tel":"031-594-0901","addr":"경기도 남양주시 화도읍 마석우리 270번지","indutype":"음료식품 - 정육점","category":"food"}]},{"lat":"37.652808171","long":"127.30518352","imageIndex":7,"items":[{"name":"곡물이야기 마석점","tel":"031-593-9644","addr":"경기도 남양주시 화도읍 마석우리 310-6","indutype":"건강식품 - 기타건강식품","category":"food"}]},{"lat":"37.654193376","long":"127.30607304","imageIndex":7,"items":[{"name":"과일아찌","tel":"","addr":"경기도 남양주시 화도읍 마석우리 297-5번지 1층 102호","indutype":"음료식품 - 농·축·수산품","category":"food"}]},{"lat":"37.6508398","long":"127.31032008","imageIndex":7,"items":[{"name":"광어2마리","tel":"031-511-2266","addr":"경기도 남양주시 화도읍 마석우리 251-1번지","indutype":"음료식품 - 농·축·수산품","category":"food"}]},{"lat":"37.657195075","long":"127.30549595","imageIndex":7,"items":[{"name":"구스토어스낵","tel":"070-4086-5561","addr":"경기도 남양주시 화도읍 마석우리 363-9번지 103호(외1필지(363-9)송라마을)","indutype":"음료식품 - 기타음료식품","category":"food"}]},{"lat":"37.652830851","long":"127.30335918","imageIndex":7,"items":[{"name":"금순이네","tel":"031-592-3938","addr":"경기도 남양주시 화도읍 마석우리 313-1번지","indutype":"음료식품 - 기타음료식품","category":"food"}]},{"lat":"37.65930847","long":"127.30348727","imageIndex":7,"items":[{"name":"꿈꾸는 작업실","tel":"031-593-2593","addr":"경기도 남양주시 화도읍 마석우리 355-2번지 천마빌 102호","indutype":"음료식품 - 제과점","category":"food"}]},{"lat":"37.652506137","long":"127.30701805","imageIndex":7,"items":[{"name":"낙원떡집","tel":"031-593-8112","addr":"경기도 남양주시 화도읍 마석우리 292-27번지 외1필지","indutype":"음료식품 - 제과점","category":"food"}]},{"lat":"37.653642277","long":"127.30666006","imageIndex":7,"items":[{"name":"남도반찬","tel":"031-591-6804","addr":"경기도 남양주시 화도읍 마석우리 220-11번지 1층 일부","indutype":"음료식품 - 기타음료식품","category":"food"},{"name":"맛나떡방앗간","tel":"031-592-5247","addr":"경기도 남양주시 화도읍 마석우리 220-11번지","indutype":"음료식품 - 제과점","category":"food"}]},{"lat":"37.655446347","long":"127.30582882","imageIndex":7,"items":[{"name":"달콤데이 (마석점)","tel":"","addr":"경기도 남양주시 화도읍 마석우리 298-12번지 1층 7호","indutype":"음료식품 - 기타음료식품","category":"food"}]},{"lat":"37.661058517","long":"127.30263301","imageIndex":7,"items":[{"name":"담미","tel":"031-559-5889","addr":"경기도 남양주시 화도읍 마석우리 474번지 1층 경춘상가","indutype":"음료식품 - 기타음료식품","category":"food"},{"name":"천마정육식당","tel":"031-593-0974","addr":"경기도 남양주시 화도읍 마석우리 474번지 경춘빌라 상가동 1층 2호","indutype":"음료식품 - 정육점","category":"food"}]},{"lat":"37.654640747","long":"127.30021612","imageIndex":7,"items":[{"name":"더쿠잉 수제청","tel":"031-593-7042","addr":"경기도 남양주시 화도읍 마석우리 577-1번지 젬마빌 1층","indutype":"음료식품 - 기타음료식품","category":"food"}]},{"lat":"37.657309933","long":"127.30285593","imageIndex":7,"items":[{"name":"던브라운","tel":"031-836-1050","addr":"경기도 남양주시 화도읍 마석우리 383-5번지 메디칼프라자 103호","indutype":"음료식품 - 제과점","category":"food"},{"name":"종로떡집","tel":"031-559-6788","addr":"경기도 남양주시 화도읍 마석우리 41-2메디칼프라자104","indutype":"음료식품 - 제과점","category":"food"}]},{"lat":"37.65744712","long":"127.30205186","imageIndex":7,"items":[{"name":"던킨도너츠 마석우리점","tel":"031-595-8934","addr":"경기도 남양주시 화도읍 마석우리 383-2번지 중앙프라자 105호","indutype":"음료식품 - 제과점","category":"food"},{"name":"우리동네정육점","tel":"031-594-8008","addr":"경기도 남양주시 화도읍 마석우리 383-2번지 중앙프라자 1층 107호","indutype":"음료식품 - 정육점","category":"food"}]},{"lat":"37.659776823","long":"127.30354583","imageIndex":7,"items":[{"name":"떡메소리떡방","tel":"031-591-2342","addr":"경기도 남양주시 화도읍 마석우리 353-5번지 1층","indutype":"음료식품 - 제과점","category":"food"}]},{"lat":"37.650866031","long":"127.31062614","imageIndex":7,"items":[{"name":"떡집호이야기","tel":"031-593-4443","addr":"경기도 남양주시 화도읍 마석우리 253-2번지 수연빌딩 101호","indutype":"음료식품 - 제과점","category":"food"}]},{"lat":"37.650283713","long":"127.30935461","imageIndex":7,"items":[{"name":"마석롯데마트 던킨도너츠","tel":"031-559-9955","addr":"경기도 남양주시 화도읍 마석우리 255-24번지 롯데마트 1층","indutype":"음료식품 - 제과점","category":"food"}]},{"lat":"37.653200166","long":"127.30690756","imageIndex":7,"items":[{"name":"마석소문난떡방앗간","tel":"031-595-7278","addr":"경기도 남양주시 화도읍 마석우리 220-17","indutype":"음료식품 - 제과점","category":"food"},{"name":"원아줌마 밥도둑 반찬","tel":"031-559-8856","addr":"경기도 남양주시 화도읍 마석우리 220-17번지","indutype":"음료식품 - 기타음료식품","category":"food"}]},{"lat":"37.654892586","long":"127.30038711","imageIndex":7,"items":[{"name":"마카롱작가","tel":"","addr":"경기도 남양주시 화도읍 마석우리 575-3번지 마루","indutype":"음료식품 - 제과점","category":"food"}]},{"lat":"37.654250138","long":"127.30501938","imageIndex":7,"items":[{"name":"만나축산","tel":"031-593-4881","addr":"경기도 남양주시 화도읍 마석우리 305-5번지","indutype":"음료식품 - 정육점","category":"food"}]},{"lat":"37.656970475","long":"127.30524572","imageIndex":7,"items":[{"name":"매홍식품","tel":"031-513-3331","addr":"경기도 남양주시 화도읍 마석우리 365-4번지 연주그랜드빌 102호","indutype":"음료식품 - 기타음료식품","category":"food"}]},{"lat":"37.652837403","long":"127.30432241","imageIndex":7,"items":[{"name":"맷돌건강원","tel":"031-593-8222","addr":"경기도 남양주시 화도읍 마석우리 312-4번지","indutype":"건강식품 - 기타건강식품","category":"food"}]},{"lat":"37.657583738","long":"127.31876802","imageIndex":7,"items":[{"name":"명품잔기지방울떡","tel":"031-559-3600","addr":"경기도 남양주시 화도읍 마석우리 25-12번지","indutype":"음료식품 - 제과점","category":"food"}]},{"lat":"37.657141082","long":"127.30193731","imageIndex":7,"items":[{"name":"베스킨라빈스","tel":"031-559-9831","addr":"경기도 남양주시 화도읍 마석우리 383-1번지 성훈프라자 107호","indutype":"음료식품 - 제과점","category":"food"},{"name":"주식회사 횡성한우플러스","tel":"031-591-1515","addr":"경기도 남양주시 화도읍 마석우리 383-1번지 정길프라자 106호","indutype":"음료식품 - 정육점","category":"food"}]},{"lat":"37.65658712","long":"127.30365762","imageIndex":7,"items":[{"name":"본시루","tel":"031-559-3329","addr":"경기도 남양주시 화도읍 마석우리 379-11번지 모던빌 101호","indutype":"음료식품 - 제과점","category":"food"}]},{"lat":"37.651811089","long":"127.31099266","imageIndex":7,"items":[{"name":"부부떡집","tel":"031-594-8400","addr":"경기도 남양주시 화도읍 마석우리 279-3번지 103호","indutype":"음료식품 - 제과점","category":"food"}]},{"lat":"37.65675036","long":"127.30323898","imageIndex":7,"items":[{"name":"사르르 아이스크림할인점","tel":"070-997-9970","addr":"경기도 남양주시 화도읍 마석우리 383-9번지 별나라프라자 1층 107호","indutype":"음료식품 - 기타음료식품","category":"food"}]},{"lat":"37.651081727","long":"127.32101814","imageIndex":7,"items":[{"name":"사부자기","tel":"","addr":"경기도 남양주시 화도읍 마석우리 76-18번지 덕양프라자 1층 106호","indutype":"음료식품 - 기타음료식품","category":"food"}]},{"lat":"37.658304235","long":"127.30157933","imageIndex":7,"items":[{"name":"산장작구이정육코너","tel":"031-514-5595","addr":"경기도 남양주시 화도읍 마석우리 539-3번지","indutype":"음료식품 - 정육점","category":"food"}]},{"lat":"37.652224236","long":"127.30802543","imageIndex":7,"items":[{"name":"서울안과","tel":"031-591-1346","addr":"경기도 남양주시 화도읍 마석우리 292-17번지 202호,203호","indutype":"건강식품 - 기타건강식품","category":"food"}]},{"lat":"37.657637706","long":"127.30504444","imageIndex":7,"items":[{"name":"송성기 정일품한우","tel":"031-511-3373","addr":"경기도 남양주시 화도읍 마석우리 363-3번지 1층 102호","indutype":"음료식품 - 정육점","category":"food"}]},{"lat":"37.657058943","long":"127.3058807","imageIndex":7,"items":[{"name":"수빈찬가","tel":"","addr":"경기도 남양주시 화도읍 마석우리 403-1번지 103호","indutype":"음료식품 - 기타음료식품","category":"food"}]},{"lat":"37.657691182","long":"127.30527131","imageIndex":7,"items":[{"name":"수중회수산","tel":"031-559-1680","addr":"경기도 남양주시 화도읍 마석우리 363-4번지 대영빌딩 1층","indutype":"음료식품 - 농·축·수산품","category":"food"}]},{"lat":"37.662057252","long":"127.30315836","imageIndex":7,"items":[{"name":"숙명","tel":"031-111-1111","addr":"경기도 남양주시 화도읍 마석우리 470-33번지 지층 105호","indutype":"음료식품 - 정육점","category":"food"}]},{"lat":"37.657280278","long":"127.30388707","imageIndex":7,"items":[{"name":"슈가박스아이스크림할인점(마석점)","tel":"","addr":"경기도 남양주시 화도읍 마석우리 379-4번지 1층 우리하이츠","indutype":"음료식품 - 기타음료식품","category":"food"}]},{"lat":"37.659476179","long":"127.3048479","imageIndex":7,"items":[{"name":"신앙촌상회","tel":"031-521-2282","addr":"경기도 남양주시 화도읍 마석우리 418-4번지 101호 지산파크빌제1층","indutype":"음료식품 - 기타음료식품","category":"food"}]},{"lat":"37.65436125","long":"127.30029434","imageIndex":7,"items":[{"name":"실론 스파이스","tel":"","addr":"경기도 남양주시 화도읍 마석우리 577-4번지 103호","indutype":"음료식품 - 기타음료식품","category":"food"}]},{"lat":"37.655804398","long":"127.30673686","imageIndex":7,"items":[{"name":"심석고 매점","tel":"031-559-6012","addr":"경기도 남양주시 화도읍 마석우리 215-9번지 1층","indutype":"음료식품 - 기타음료식품","category":"food"}]},{"lat":"37.658332525","long":"127.3010808","imageIndex":7,"items":[{"name":"싱싱수산","tel":"031-594-5784","addr":"경기도 남양주시 화도읍 마석우리 538-4번지 1층 102호","indutype":"음료식품 - 농·축·수산품","category":"food"}]},{"lat":"37.654808694","long":"127.30149733","imageIndex":7,"items":[{"name":"아이스크림할인&복권","tel":"031-595-4460","addr":"경기도 남양주시 화도읍 마석우리 586번지 6호","indutype":"음료식품 - 기타음료식품","category":"food"}]},{"lat":"37.661857858","long":"127.30362222","imageIndex":7,"items":[{"name":"알부자","tel":"070-5031-0327","addr":"경기도 남양주시 화도읍 마석우리 466-7번지 한림휴빌리지 109동 301호","indutype":"음료식품 - 농·축·수산품","category":"food"}]},{"lat":"37.653697268","long":"127.30629766","imageIndex":7,"items":[{"name":"우리마을 축산판매장","tel":"031-527-3116","addr":"경기도 남양주시 화도읍 마석우리 295-5번지 1층 101호","indutype":"음료식품 - 정육점","category":"food"}]},{"lat":"37.654639549","long":"127.30423904","imageIndex":7,"items":[{"name":"원가네손맛김","tel":"031-511-0496","addr":"경기도 남양주시 화도읍 마석우리 317-2번지 두원아파트","indutype":"음료식품 - 기타음료식품","category":"food"}]},{"lat":"37.654975727","long":"127.29957152","imageIndex":7,"items":[{"name":"유한회사 자연과사람들","tel":"031-591-4100","addr":"경기도 남양주시 화도읍 마석우리 520-38번지","indutype":"음료식품 - 기타음료식품","category":"food"}]},{"lat":"37.651665232","long":"127.30818179","imageIndex":7,"items":[{"name":"이천방아간","tel":"031-594-4604","addr":"경기도 남양주시 화도읍 마석우리 272-3","indutype":"음료식품 - 기타음료식품","category":"food"}]},{"lat":"37.659141924","long":"127.30166201","imageIndex":7,"items":[{"name":"이화종합식품(일품김치)","tel":"031-559-9820","addr":"경기도 남양주시 화도읍 마석우리 534-4","indutype":"음료식품 - 기타음료식품","category":"food"}]},{"lat":"37.659624014","long":"127.30692242","imageIndex":7,"items":[{"name":"정푸드","tel":"031-595-6002","addr":"경기도 남양주시 화도읍 마석우리 201-11번지 그린캐슬 B동 001호","indutype":"음료식품 - 기타음료식품","category":"food"}]},{"lat":"37.658219208","long":"127.30313157","imageIndex":7,"items":[{"name":"중흥축산","tel":"031-559-4112","addr":"경기도 남양주시 화도읍 마석우리 349번지 중흥S클래스상가 111동 102호","indutype":"음료식품 - 정육점","category":"food"}]},{"lat":"37.651638812","long":"127.31141122","imageIndex":7,"items":[{"name":"진수성찬","tel":"","addr":"경기도 남양주시 화도읍 마석우리 250-2번지 1층 북측 2호","indutype":"음료식품 - 기타음료식품","category":"food"}]},{"lat":"37.654085466","long":"127.30599327","imageIndex":7,"items":[{"name":"천마흑염소","tel":"031-593-7770","addr":"경기도 남양주시 화도읍 마석우리 295-19번지","indutype":"건강식품 - 기타건강식품","category":"food"}]},{"lat":"37.657693337","long":"127.31482473","imageIndex":7,"items":[{"name":"천사우체부","tel":"031-593-3356","addr":"경기도 남양주시 화도읍 마석우리 186-1번지","indutype":"건강식품 - 기타건강식품","category":"food"}]},{"lat":"37.654753173","long":"127.30207505","imageIndex":7,"items":[{"name":"초록한우","tel":"070-8818-8966","addr":"경기도 남양주시 화도읍 마석우리 588번지 유일프라자 101호","indutype":"음료식품 - 정육점","category":"food"}]},{"lat":"37.652922734","long":"127.30265697","imageIndex":7,"items":[{"name":"커피공작소 아마꾸루","tel":"070-8970-4016","addr":"경기도 남양주시 화도읍 마석우리 336-3번지 1층 일부","indutype":"음료식품 - 기타음료식품","category":"food"}]},{"lat":"37.65269563","long":"127.30690551","imageIndex":7,"items":[{"name":"큰손왕만두","tel":"070-8193-9113","addr":"경기도 남양주시 화도읍 마석우리 292-12번지 1층","indutype":"음료식품 - 기타음료식품","category":"food"}]},{"lat":"37.65230626","long":"127.30766315","imageIndex":7,"items":[{"name":"파리바게트","tel":"031-592-8208","addr":"경기도 남양주시 화도읍 마석우리 292-20번지 외1필지","indutype":"음료식품 - 제과점","category":"food"}]},{"lat":"37.654670447","long":"127.30624496","imageIndex":7,"items":[{"name":"프라임21","tel":"031-594-1255","addr":"경기도 남양주시 화도읍 마석우리 297-21번지 1층","indutype":"음료식품 - 정육점","category":"food"}]},{"lat":"37.656140374","long":"127.30571832","imageIndex":7,"items":[{"name":"피엔씨(PnC)푸드(마석점)","tel":"031-111-1111","addr":"경기도 남양주시 화도읍 마석우리 299-10번지 105호","indutype":"음료식품 - 기타음료식품","category":"food"}]},{"lat":"37.65696898","long":"127.30229926","imageIndex":7,"items":[{"name":"픽미픽미 아이스 마석점","tel":"031-111-1111","addr":"경기도 남양주시 화도읍 마석우리 392-5번지 신명프라자 103호","indutype":"음료식품 - 기타음료식품","category":"food"}]},{"lat":"37.652838804","long":"127.30022027","imageIndex":7,"items":[{"name":"핑크유통","tel":"031-559-9095","addr":"경기도 남양주시 화도읍 마석우리 산7-3번지","indutype":"음료식품 - 농·축·수산품","category":"food"}]},{"lat":"37.656837223","long":"127.3009615","imageIndex":7,"items":[{"name":"하이뱃크랩","tel":"031-111-1111","addr":"경기도 남양주시 화도읍 마석우리 557-3번지 1층","indutype":"음료식품 - 기타음료식품","category":"food"}]},{"lat":"37.651665731","long":"127.30798915","imageIndex":7,"items":[{"name":"한강농축산정육백화점","tel":"031-511-0102","addr":"경기도 남양주시 화도읍 마석우리 263-2번지","indutype":"음료식품 - 정육점","category":"food"}]},{"lat":"37.657196752","long":"127.31860772","imageIndex":7,"items":[{"name":"한국행복미생물 영농조합법인","tel":"031-534-1500","addr":"경기도 남양주시 화도읍 마석우리 25-2번지","indutype":"음료식품 - 기타음료식품","category":"food"}]},{"lat":"37.6557273","long":"127.30518402","imageIndex":7,"items":[{"name":"한마루","tel":"031-591-6400","addr":"경기도 남양주시 화도읍 마석우리 304-2번지","indutype":"음료식품 - 정육점","category":"food"}]},{"lat":"37.654729326","long":"127.30436406","imageIndex":7,"items":[{"name":"한일건강원","tel":"031-595-5169","addr":"경기도 남양주시 화도읍 마석우리 317-2번지 두원상가 가동 101호","indutype":"건강식품 - 기타건강식품","category":"food"}]},{"lat":"37.655806962","long":"127.30573963","imageIndex":7,"items":[{"name":"허브힐링다이어트","tel":"031-000-0000","addr":"경기도 남양주시 화도읍 마석우리 300번지","indutype":"건강식품 - 기타건강식품","category":"food"}]},{"lat":"37.658143611","long":"127.30096672","imageIndex":7,"items":[{"name":"형제떡방","tel":"031-591-4316","addr":"경기도 남양주시 화도읍 마석우리 541-3번지 로망스빌 103호","indutype":"음료식품 - 제과점","category":"food"}]},{"lat":"37.651751359","long":"127.30971193","imageIndex":7,"items":[{"name":"화도수산시장","tel":"031-591-5882","addr":"경기도 남양주시 화도읍 마석우리 276-5번지 1층","indutype":"음료식품 - 농·축·수산품","category":"food"}]},{"lat":"37.657612876","long":"127.30063595","imageIndex":7,"items":[{"name":"화도에서아띠랑(화도읍주민자치위원회)","tel":"031-593-8495","addr":"경기도 남양주시 화도읍 마석우리 548번지 1층","indutype":"음료식품 - 기타음료식품","category":"food"}]},{"lat":"37.658365969","long":"127.30563669","imageIndex":7,"items":[{"name":"활어대장군","tel":"031-592-1588","addr":"경기도 남양주시 화도읍 마석우리 410-1번지 106호 거농마트","indutype":"음료식품 - 농·축·수산품","category":"food"}]},{"lat":"37.659583393","long":"127.31556928","imageIndex":5,"items":[{"name":"송라예술숲","tel":"031-591-9005","addr":"경기도 남양주시 화도읍 마석우리 193-101번지","indutype":"숙박업 - 여관/기타숙박업","category":"hotel"}]},{"lat":"37.651446183","long":"127.30926874","imageIndex":5,"items":[{"name":"알프스산장","tel":"031-593-6503","addr":"경기도 남양주시 화도읍 마석우리 275-4","indutype":"숙박업 - 여관/기타숙박업","category":"hotel"}]},{"lat":"37.651308504","long":"127.31024269","imageIndex":5,"items":[{"name":"오페라","tel":"031-593-4500","addr":"경기도 남양주시 화도읍 마석우리 256-2번지 1층","indutype":"숙박업 - 여관/기타숙박업","category":"hotel"},{"name":"오페라","tel":"031-593-4500","addr":"경기도 남양주시 화도읍 마석우리 256-2번지 외2필지","indutype":"숙박업 - 여관/기타숙박업","category":"hotel"}]},{"lat":"37.652331706","long":"127.30827517","imageIndex":5,"items":[{"name":"천마산모텔","tel":"031-594-0301","addr":"경기도 남양주시 화도읍 마석우리 292-4번지","indutype":"숙박업 - 여관/기타숙박업","category":"hotel"}]},{"lat":"37.650864937","long":"127.31104541","imageIndex":5,"items":[{"name":"크라운호텔","tel":"031-593-2104","addr":"경기도 남양주시 화도읍 마석우리 253-3번지","indutype":"숙박업 - 여관/기타숙박업","category":"hotel"}]},{"lat":"37.652504997","long":"127.30745999","imageIndex":5,"items":[{"name":"현대여관","tel":"031-593-9005","addr":"경기도 남양주시 화도읍 마석우리 292-22","indutype":"숙박업 - 여관/기타숙박업","category":"hotel"}]}]