[{"lat":"37.515622825","long":"126.80596611","imageIndex":13,"items":[{"name":"OK당구클럽","tel":"032-676-4020","addr":"경기도 부천시 작동 70번지 3층","indutype":"레저업소 - 당 구 장","category":"leisure"},{"name":"꽃지노래연습장","tel":"","addr":"경기도 부천시 작동 70번지 2층","indutype":"레저업소 - 노 래 방","category":"leisure"}]},{"lat":"37.518649079","long":"126.81641007","imageIndex":13,"items":[{"name":"고향노래연습장","tel":"032-682-8090","addr":"경기도 부천시 작동 32-7번지","indutype":"레저업소 - 노 래 방","category":"leisure"}]},{"lat":"37.51539771","long":"126.80604588","imageIndex":13,"items":[{"name":"놀PC방","tel":"070-6207-5609","addr":"경기도 부천시 작동 70-26번지 한은빌딩 2층","indutype":"레저업소 - 기타레져업소","category":"leisure"}]},{"lat":"37.513957281","long":"126.80673963","imageIndex":13,"items":[{"name":"새싹피티","tel":"032-684-6604","addr":"경기도 부천시 작동 71-5번지 3층","indutype":"레저업소 - 헬스클럽","category":"leisure"}]},{"lat":"37.516702514","long":"126.80506968","imageIndex":13,"items":[{"name":"샵노래연습장","tel":"032-681-8489","addr":"경기도 부천시 작동 63-2번지 남영아트빌라 지하1층","indutype":"레저업소 - 노 래 방","category":"leisure"}]},{"lat":"37.510898312","long":"126.80940558","imageIndex":13,"items":[{"name":"스완홈피티","tel":"000-000-0000","addr":"경기도 부천시 작동 351-7번지","indutype":"레저업소 - 헬스클럽","category":"leisure"}]},{"lat":"37.514478516","long":"126.80593518","imageIndex":13,"items":[{"name":"작대기당구장","tel":"032-684-6363","addr":"경기도 부천시 작동 66-4번지 2층","indutype":"레저업소 - 당 구 장","category":"leisure"}]},{"lat":"37.518368933","long":"126.81587913","imageIndex":13,"items":[{"name":"작동노래연습장","tel":"032-671-1671","addr":"경기도 부천시 작동 33-8번지","indutype":"레저업소 - 노 래 방","category":"leisure"}]}]