[{"lat":"37.755709538","long":"127.11297639","imageIndex":17,"items":[{"name":"(주)경원아이티","tel":"031-878-0010","addr":"경기도 의정부시 낙양동 742-2번지 예스프라자15 103호","indutype":"사무통신 - 통신기기","category":"other"}]},{"lat":"37.750378921","long":"127.09922753","imageIndex":17,"items":[{"name":"GS25민락금강점","tel":"","addr":"경기도 의정부시 낙양동 709번지 금강펜테리움 상가동 104호","indutype":"유통업 영리 - 편 의 점","category":"other"},{"name":"액티브","tel":"","addr":"경기도 의정부시 낙양동 709번지 금강펜테리움 408동 2303호","indutype":"사무통신 - 통신기기","category":"other"},{"name":"은찬유통","tel":"","addr":"경기도 의정부시 낙양동 709번지 금강펜테리움 406동 802호","indutype":"건축자재 - 페인트","category":"other"}]},{"lat":"37.751345281","long":"127.10706952","imageIndex":17,"items":[{"name":"GS25민락호반점","tel":"","addr":"경기도 의정부시 낙양동 760번지 6단지호반베르디움 611동 101호","indutype":"유통업 영리 - 편 의 점","category":"other"},{"name":"엘꽃","tel":"031-876-2641","addr":"경기도 의정부시 낙양동 760번지 6단지호반베르디움 611동 104호","indutype":"문화.취미 - 화원","category":"other"},{"name":"엠에스(MS) 미디어","tel":"031-871-7631","addr":"경기도 의정부시 낙양동 760번지 호반베르디움2차 603동 1602호","indutype":"서적문구 - 완구점","category":"other"},{"name":"채움북스","tel":"070-7552-2080","addr":"경기도 의정부시 낙양동 760번지 6단지호반베르디움 602동 1302호","indutype":"서적문구 - 일반서적","category":"other"},{"name":"해브(HAVE)","tel":"070-7559-0305","addr":"경기도 의정부시 낙양동 760번지 606동903동(6단지호반베르디움2차)","indutype":"서적문구 - 출판 및 인쇄물","category":"other"}]},{"lat":"37.758012757","long":"127.11637284","imageIndex":17,"items":[{"name":"K&J정보통신","tel":"031-751-5999","addr":"경기도 의정부시 낙양동 747번지 용암마을13단지 1305동 2206호","indutype":"사무통신 - 통신기기","category":"other"},{"name":"무한속옷","tel":"","addr":"경기도 의정부시 낙양동 747번지 용암마을13단지 1306동 1402호","indutype":"의류 - 내의판매","category":"other"},{"name":"빛가람커튼블라인드","tel":"070-1478-1236","addr":"경기도 의정부시 낙양동 747번지 용암마을13단지 1301동 2008호","indutype":"직물 - 카페트,커튼,천막,지물","category":"other"},{"name":"엣지","tel":"031-866-0058","addr":"경기도 의정부시 낙양동 747번지 용암마을13단지 1301동 1702호","indutype":"의류 - 정장","category":"other"},{"name":"하남유통","tel":"031-793-6863","addr":"경기도 의정부시 낙양동 747번지 용암마을13단지 1304동 102호","indutype":"유통업 영리 - 기타유통업","category":"other"}]},{"lat":"37.749704347","long":"127.09781967","imageIndex":17,"items":[{"name":"LH CNT 메모리아","tel":"070-8210-4869","addr":"경기도 의정부시 낙양동 706-5번지 401호","indutype":"신변잡화 - 기타잡화","category":"other"}]},{"lat":"37.747901233","long":"127.09930375","imageIndex":17,"items":[{"name":"가랑비교육","tel":"031-852-8825","addr":"경기도 의정부시 낙양동 712번지 부용마을3단지 304동 1101호","indutype":"서적문구 - 기타서적문구","category":"other"},{"name":"리폼3.3.3낙양점","tel":"031-879-2008","addr":"경기도 의정부시 낙양동 712번지 부용마을3단지 304동 606호","indutype":"의류 - 내의판매","category":"other"}]},{"lat":"37.74951522","long":"127.09772866","imageIndex":17,"items":[{"name":"개미남","tel":"070-8285-7705","addr":"경기도 의정부시 낙양동 706-6번지 더하우스","indutype":"문화.취미 - 애완동물","category":"other"}]},{"lat":"37.74903807","long":"127.09728553","imageIndex":17,"items":[{"name":"공일공공","tel":"070-7420-3032","addr":"경기도 의정부시 낙양동 707-1번지 핵심프라자 1층 104호","indutype":"의류 - 정장","category":"other"}]},{"lat":"37.754356357","long":"127.11483536","imageIndex":17,"items":[{"name":"공일공모비콤","tel":"070-4106-1636","addr":"경기도 의정부시 낙양동 749번지 용암마을16단지 1602동 802호","indutype":"회원제형태 - 기타4","category":"other"}]},{"lat":"37.752262348","long":"127.10920406","imageIndex":17,"items":[{"name":"깔고덮고","tel":"","addr":"경기도 의정부시 낙양동 755번지 1층 7호","indutype":"직물 - 침구·수예점","category":"other"},{"name":"와우 블럭앤보드","tel":"070-4201-1313","addr":"경기도 의정부시 낙양동 755번지 2층 204호","indutype":"서적문구 - 완구점","category":"other"}]},{"lat":"37.753594023","long":"127.1111123","imageIndex":17,"items":[{"name":"나주상회","tel":"031-844-5688","addr":"경기도 의정부시 낙양동 754번지 양지마을8단지 807동 904호","indutype":"유통업 영리 - 기타유통업","category":"other"}]},{"lat":"37.749371395","long":"127.09731999","imageIndex":17,"items":[{"name":"도원","tel":"031-853-3302","addr":"경기도 의정부시 낙양동 706-8번지 두민주택 401호","indutype":"의류 - 정장","category":"other"}]},{"lat":"37.754286762","long":"127.11219132","imageIndex":17,"items":[{"name":"동양공조","tel":"031-000-0000","addr":"경기도 의정부시 낙양동 754번지 양지마을8단지 811동 901호","indutype":"용역 서비스 - 기타용역서비스","category":"other"},{"name":"아이맥스 코리아(IMAX KOREA)","tel":"","addr":"경기도 의정부시 낙양동 754번지 양지마을8단지 811동 1304호","indutype":"의류 - 기타의류","category":"other"}]},{"lat":"37.751351759","long":"127.10989492","imageIndex":17,"items":[{"name":"두리반기획","tel":"031-855-2542","addr":"경기도 의정부시 낙양동 757번지 의정부민락푸르지오 708동 702호","indutype":"주방용구 - 주방용식기","category":"other"},{"name":"라뜰리에","tel":"","addr":"경기도 의정부시 낙양동 757번지 의정부민락푸르지오","indutype":"가구 - 일반가구","category":"other"},{"name":"로즈마리스캔들","tel":"031-877-7488","addr":"경기도 의정부시 낙양동 757번지 의정부민락푸르지오 703동 2404호","indutype":"의류 - 정장","category":"other"},{"name":"씨유민락푸르지오점","tel":"031-851-3337","addr":"경기도 의정부시 낙양동 757번지 의정부민락푸르지오 717동 1층 109호","indutype":"유통업 영리 - 편 의 점","category":"other"},{"name":"옷보따리","tel":"031-000-0000","addr":"경기도 의정부시 낙양동 757번지 의정부민락푸르지오 705동 203호","indutype":"의류 - 정장","category":"other"},{"name":"주원디지탈","tel":"031-821-6028","addr":"경기도 의정부시 낙양동 757번지 의정부민락푸르지오 704동 2402호","indutype":"사무통신 - 컴퓨터","category":"other"}]},{"lat":"37.759181597","long":"127.11883717","imageIndex":17,"items":[{"name":"들꽃마을","tel":"031-851-9966","addr":"경기도 의정부시 낙양동 144-4번지","indutype":"유통업 영리 - 편 의 점","category":"other"}]},{"lat":"37.762899238","long":"127.11287356","imageIndex":17,"items":[{"name":"라벤다하우스","tel":"031-848-0508","addr":"경기도 의정부시 낙양동 349-17번지","indutype":"문화.취미 - 화원","category":"other"}]},{"lat":"37.74789174","long":"127.09989375","imageIndex":17,"items":[{"name":"리치커튼","tel":"070-8118-0367","addr":"경기도 의정부시 낙양동 712번지 부용마을3단지 305동 701호","indutype":"직물 - 카페트,커튼,천막,지물","category":"other"}]},{"lat":"37.750212358","long":"127.10445818","imageIndex":17,"items":[{"name":"명전상사","tel":"02-2277-6097","addr":"경기도 의정부시 낙양동 763번지 반도유보라아이비파크 509동 1201호","indutype":"서적문구 - 과학기자재","category":"other"},{"name":"무드 인디고","tel":"070-1478-1236","addr":"경기도 의정부시 낙양동 763번지 반도유보라아이비파크 상가 516동 304호","indutype":"문화.취미 - 문화취미기타","category":"other"},{"name":"아싸비어 낙양점","tel":"031-852-4425","addr":"경기도 의정부시 낙양동 763번지 반도유보라아이비파크 1동 107호","indutype":"유통업 영리 - 편 의 점","category":"other"},{"name":"아트","tel":"","addr":"경기도 의정부시 낙양동 763번지 반도유보라아이비파크 508동 403호","indutype":"의류 - 내의판매","category":"other"},{"name":"원 에듀케이션","tel":"","addr":"경기도 의정부시 낙양동 763번지 반도유보라아이비파크 506동 2004호","indutype":"서적문구 - 일반서적","category":"other"},{"name":"채움아트","tel":"031-000-0000","addr":"경기도 의정부시 낙양동 763번지 반도유보라아이비파크 510동 2403호","indutype":"용역 서비스 - 기타용역서비스","category":"other"},{"name":"포터블롤리팝 민락점","tel":"070-4531-5408","addr":"경기도 의정부시 낙양동 763번지 반도유보라아이비파크 상가 516동 306호","indutype":"의류 - 정장","category":"other"},{"name":"하늘을 담은 토기","tel":"031-1111-1111","addr":"경기도 의정부시 낙양동 763번지 반도유보라아이비파크 상가 516동 310호","indutype":"문화.취미 - 문화취미기타","category":"other"}]},{"lat":"37.753704148","long":"127.10889974","imageIndex":17,"items":[{"name":"명품세탁소","tel":"031-827-3838","addr":"경기도 의정부시 낙양동 758번지 민락노블랜드엔에이치에프 103호","indutype":"수리서비스 - 세탁소","category":"other"},{"name":"세븐일레븐민락노블점","tel":"031-1577-0711","addr":"경기도 의정부시 낙양동 758번지 민락노블랜드엔에이치에프 단지내상가 105호,106호","indutype":"유통업 영리 - 편 의 점","category":"other"},{"name":"지인","tel":"","addr":"경기도 의정부시 낙양동 758번지 민락노블랜드엔에이치에프 901동 102호","indutype":"문화.취미 - 화원","category":"other"}]},{"lat":"37.75756627","long":"127.11215075","imageIndex":17,"items":[{"name":"모두랑","tel":"031-851-6868","addr":"경기도 의정부시 낙양동 321번지","indutype":"문화.취미 - 화원","category":"other"}]},{"lat":"37.752235799","long":"127.10867071","imageIndex":17,"items":[{"name":"모모살롱","tel":"031-852-9777","addr":"경기도 의정부시 낙양동 756번지 크리스탈써밋 103호","indutype":"문화.취미 - 애완동물","category":"other"}]},{"lat":"37.748459294","long":"127.09995122","imageIndex":17,"items":[{"name":"미니스톱 민락부용점","tel":"031-1577-9621","addr":"경기도 의정부시 낙양동 712번지 부용마을3단지 상가동 102호","indutype":"유통업 영리 - 편 의 점","category":"other"}]},{"lat":"37.753683806","long":"127.11145285","imageIndex":17,"items":[{"name":"미니스톱민락주공점","tel":"031-1577-9621","addr":"경기도 의정부시 낙양동 754번지 양지마을8단지 상가동 101호, 102호","indutype":"유통업 영리 - 편 의 점","category":"other"}]},{"lat":"37.752513679","long":"127.110237","imageIndex":17,"items":[{"name":"미성인테리어","tel":"031-878-9283","addr":"경기도 의정부시 낙양동 754번지 양지마을8단지 802동 1106호","indutype":"회원제형태 - 기타4","category":"other"}]},{"lat":"37.748109814","long":"127.09762474","imageIndex":17,"items":[{"name":"미소건강기능속옷","tel":"070-8156-0970","addr":"경기도 의정부시 낙양동 712번지 부용마을3단지 302동 302호","indutype":"회원제형태 - 기타1","category":"other"}]},{"lat":"37.756707756","long":"127.11492969","imageIndex":17,"items":[{"name":"민락세탁","tel":"031-851-7942","addr":"경기도 의정부시 낙양동 746번지 라디언트캐슬 1층","indutype":"수리서비스 - 세탁소","category":"other"},{"name":"스팀에듀","tel":"","addr":"경기도 의정부시 낙양동 746번지 라디언트캐슬 1208동 1901호","indutype":"서적문구 - 기타서적문구","category":"other"},{"name":"씨유의정민락희망점","tel":"02-1577-8007","addr":"경기도 의정부시 낙양동 746번지 라디언트캐슬 상가동 101,102호","indutype":"유통업 영리 - 편 의 점","category":"other"},{"name":"쭈니네","tel":"","addr":"경기도 의정부시 낙양동 746번지 라디언트캐슬 1208동 405호","indutype":"의류 - 정장","category":"other"},{"name":"칼의부활","tel":"031-1599-8826","addr":"경기도 의정부시 낙양동 746번지 라디언트캐슬 1205동 202호","indutype":"수리서비스 - 기타수리서비스","category":"other"}]},{"lat":"37.753755788","long":"127.11155509","imageIndex":17,"items":[{"name":"수라이팅","tel":"070-8628-0054","addr":"경기도 의정부시 낙양동 754번지 양지마을8단지 810동 402호","indutype":"회원제형태 - 기타4","category":"other"}]},{"lat":"37.755461332","long":"127.10853913","imageIndex":17,"items":[{"name":"씨유민락행복점","tel":"070-7798-2022","addr":"경기도 의정부시 낙양동 735번지 양지마을10단지 상가동 102,103호","indutype":"유통업 영리 - 편 의 점","category":"other"},{"name":"에스엔에이치","tel":"070-4124-9001","addr":"경기도 의정부시 낙양동 735번지 양지마을10단지 1003동 2001호","indutype":"용역 서비스 - 소프트웨어","category":"other"}]},{"lat":"37.752483315","long":"127.1038145","imageIndex":17,"items":[{"name":"씨유의정부폴리점","tel":"031-878-8205","addr":"경기도 의정부시 낙양동 721-3번지 폴리프라자 1층 109호","indutype":"유통업 영리 - 편 의 점","category":"other"}]},{"lat":"37.755403288","long":"127.11289651","imageIndex":17,"items":[{"name":"양태모세무사사무소","tel":"031-874-2442","addr":"경기도 의정부시 낙양동 742-3번지 403호","indutype":"용역 서비스 - 법률회계서비스(개인)","category":"other"}]},{"lat":"37.756457477","long":"127.11281863","imageIndex":17,"items":[{"name":"에이스침대 의정부점(한결퍼니처)","tel":"031-851-8771","addr":"경기도 의정부시 낙양동 741-1번지","indutype":"가구 - 일반가구","category":"other"}]},{"lat":"37.748540146","long":"127.10023499","imageIndex":17,"items":[{"name":"오늘은 세탁","tel":"031-852-2321","addr":"경기도 의정부시 낙양동 710번지 엘에이치휴스토리 상가동 1층 104호","indutype":"수리서비스 - 세탁소","category":"other"},{"name":"크린토피아 민락지점","tel":"031-851-8867","addr":"경기도 의정부시 낙양동 710번지 양지마을8단지 상가 102호","indutype":"수리서비스 - 세탁소","category":"other"}]},{"lat":"37.754321017","long":"127.11409773","imageIndex":17,"items":[{"name":"온리원시스템","tel":"031-1600-2795","addr":"경기도 의정부시 낙양동 749번지 용암마을16단지 1605동 806호","indutype":"용역 서비스 - 기타용역서비스","category":"other"}]},{"lat":"37.755483747","long":"127.11356613","imageIndex":17,"items":[{"name":"위넌스터디 카페 의정부민락점","tel":"02-1111-1111","addr":"경기도 의정부시 낙양동 743-3번지 한덕프라자 2층 202호","indutype":"용역 서비스 - 사무서비스","category":"other"}]},{"lat":"37.749127965","long":"127.09753527","imageIndex":17,"items":[{"name":"이브자리 한국도자기 커튼이야기천","tel":"","addr":"경기도 의정부시 낙양동 707-2번지","indutype":"직물 - 혼수전문점","category":"other"}]},{"lat":"37.751565146","long":"127.10287145","imageIndex":17,"items":[{"name":"입주팡팡","tel":"02-1688-0356","addr":"경기도 의정부시 낙양동 720번지 2층 201호","indutype":"용역 서비스 - 종합용역","category":"other"},{"name":"크린토피아 코인워시 민락2지구 반도유보라","tel":"031-840-3838","addr":"경기도 의정부시 낙양동 720번지 1층 116호 117호","indutype":"수리서비스 - 세탁소","category":"other"}]},{"lat":"37.756150633","long":"127.11337421","imageIndex":17,"items":[{"name":"커튼명가창","tel":"031-851-2010","addr":"경기도 의정부시 낙양동 743번지","indutype":"직물 - 카페트,커튼,천막,지물","category":"other"}]},{"lat":"37.755376704","long":"127.11241987","imageIndex":17,"items":[{"name":"티즈트레이딩","tel":"031-851-0577","addr":"경기도 의정부시 낙양동 737-2번지 204호","indutype":"가구 - 기타가구","category":"other"},{"name":"파스텔 트리","tel":"031-851-0577","addr":"경기도 의정부시 낙양동 737-2번지 201~203호","indutype":"가구 - 기타가구","category":"other"}]},{"lat":"37.754385392","long":"127.11270209","imageIndex":17,"items":[{"name":"폰케이스","tel":"","addr":"경기도 의정부시 낙양동 754번지 양지마을8단지 814동 1004호","indutype":"신변잡화 - 기타잡화","category":"other"}]},{"lat":"37.748937756","long":"127.09878315","imageIndex":17,"items":[{"name":"한마음 한글로 영어","tel":"070-7153-8560","addr":"경기도 의정부시 낙양동 712번지 부용마을3단지 308동 1003호","indutype":"회원제형태 - 서적","category":"other"}]}]