[{"lat":"37.344007426","long":"127.22600481","imageIndex":17,"items":[{"name":"(유)중앙원예종묘조경","tel":"031-336-7001","addr":"경기도 용인시 처인구 모현읍 매산리 206번지 2층","indutype":"문화.취미 - 화원","category":"other"}]},{"lat":"37.345340463","long":"127.22142682","imageIndex":17,"items":[{"name":"(주) 비스트","tel":"031-321-2301","addr":"경기도 용인시 처인구 모현읍 매산리 150-1번지","indutype":"주방용구 - 주방용구","category":"other"}]},{"lat":"37.319483721","long":"127.2477849","imageIndex":17,"items":[{"name":"(주) 스토리지웍스","tel":"031-333-0887","addr":"경기도 용인시 처인구 모현읍 갈담리 228-2번지","indutype":"레져용품 - 스포츠·레져용품","category":"other"}]},{"lat":"37.330202273","long":"127.18481385","imageIndex":17,"items":[{"name":"(주)가든랩","tel":"031-332-7677","addr":"경기도 용인시 처인구 모현읍 동림리 314번지 102호","indutype":"건축자재 - 인테리어전문","category":"other"},{"name":"바나니(BANANI)","tel":"031-338-0919","addr":"경기도 용인시 처인구 모현읍 동림리 314번지","indutype":"회원제형태 - 기타4","category":"other"}]},{"lat":"37.340177087","long":"127.23126347","imageIndex":17,"items":[{"name":"(주)거솔","tel":"031-111-1111","addr":"경기도 용인시 처인구 모현읍 일산리 573-19번지","indutype":"기타 - 기계공구","category":"other"},{"name":"바브켓중기","tel":"031-323-1998","addr":"경기도 용인시 처인구 모현읍 일산리 573-19 4/1","indutype":"회원제형태 - 기타4","category":"other"}]},{"lat":"37.342176765","long":"127.19059812","imageIndex":17,"items":[{"name":"(주)남서울승마클럽","tel":"031-322-6500","addr":"경기도 용인시 처인구 모현읍 동림리 117-31","indutype":"용역 서비스 - 기타용역서비스","category":"other"}]},{"lat":"37.329873153","long":"127.14927085","imageIndex":17,"items":[{"name":"(주)대영패브릭","tel":"031-334-6784","addr":"경기도 용인시 처인구 모현읍 오산리 263-3","indutype":"직물 - 옷감·직물","category":"other"}]},{"lat":"37.330200997","long":"127.17357569","imageIndex":17,"items":[{"name":"(주)대한오에이","tel":"031-1899-2449","addr":"경기도 용인시 처인구 모현읍 능원리 361번지","indutype":"사무통신 - 사무용 OA기기","category":"other"}]},{"lat":"37.330426342","long":"127.16052139","imageIndex":17,"items":[{"name":"(주)도서출판캐럿소스","tel":"070-7649-7282","addr":"경기도 용인시 처인구 모현읍 오산리 144-1번지 나동","indutype":"서적문구 - 출판 및 인쇄물","category":"other"},{"name":"(주)보니","tel":"031-338-7715","addr":"경기도 용인시 처인구 모현읍 오산리 144-1번지","indutype":"기타 - 기계공구","category":"other"}]},{"lat":"37.334618974","long":"127.16504373","imageIndex":17,"items":[{"name":"(주)디노데코","tel":"02-542-0579","addr":"경기도 용인시 처인구 모현읍 능원리 321-2번지","indutype":"가구 - 일반가구","category":"other"}]},{"lat":"37.330041489","long":"127.15856859","imageIndex":17,"items":[{"name":"(주)리빙탑스","tel":"031-339-1357","addr":"경기도 용인시 처인구 모현읍 오산리 138-3번지","indutype":"주방용구 - 주방용식기","category":"other"},{"name":"에이블골프아카데미","tel":"031-339-4936","addr":"경기도 용인시 처인구 모현읍 오산리 138-3번지 센츄리골프랜드","indutype":"회원제형태 - 레져업소","category":"other"},{"name":"에이블골프아카데미","tel":"031-339-4936","addr":"경기도 용인시 처인구 모현읍 오산리 138-3번지 선츄리골프랜드","indutype":"회원제형태 - 레져업소","category":"other"},{"name":"투가이 컴퍼니(Two gays company)","tel":"031-333-1872","addr":"경기도 용인시 처인구 모현읍 오산리 138-3번지 2층","indutype":"레져용품 - 골프용품 전문점","category":"other"}]},{"lat":"37.305765257","long":"127.23686685","imageIndex":17,"items":[{"name":"(주)리치코리아","tel":"031-334-1081","addr":"경기도 용인시 처인구 모현읍 초부리508","indutype":"기타 - 기계공구","category":"other"}]},{"lat":"37.333147528","long":"127.17343567","imageIndex":17,"items":[{"name":"(주)분당승마클럽","tel":"031-334-7935","addr":"경기도 용인시 처인구 모현읍 능원리340","indutype":"용역 서비스 - 기타용역서비스","category":"other"}]},{"lat":"37.304794074","long":"127.23589381","imageIndex":17,"items":[{"name":"(주)시너지웨이브","tel":"031-217-0288","addr":"경기도 용인시 처인구 모현읍 초부리 815-1번지 본향교회 101호","indutype":"건축자재 - 인테리어전문","category":"other"}]},{"lat":"37.345123699","long":"127.24484363","imageIndex":17,"items":[{"name":"(주)씨앤케이","tel":"070-7867-8207","addr":"경기도 용인시 처인구 모현읍 일산리 47-28","indutype":"주방용구 - 주방용구","category":"other"}]},{"lat":"37.3333724","long":"127.2228139","imageIndex":17,"items":[{"name":"(주)씨앤피컴퍼니","tel":"031-446-0978","addr":"경기도 용인시 처인구 모현읍 매산리 388-18번지 1층","indutype":"유통업 영리 - 기타유통업","category":"other"}]},{"lat":"37.332038059","long":"127.16134846","imageIndex":17,"items":[{"name":"(주)아보드앤코","tel":"02-469-6965","addr":"경기도 용인시 처인구 모현읍 오산리 33번지 1동 1층","indutype":"신변잡화 - 기타잡화","category":"other"}]},{"lat":"37.344284513","long":"127.24545034","imageIndex":17,"items":[{"name":"(주)아이씨티","tel":"031-321-9633","addr":"경기도 용인시 처인구 모현읍 일산리 99-148번지","indutype":"전기제품 - 기타전기제품","category":"other"}]},{"lat":"37.315734128","long":"127.23959393","imageIndex":17,"items":[{"name":"(주)엘제이리프트","tel":"070-0000-0000","addr":"경기도 용인시 처인구 모현읍 갈담리 657-2번지","indutype":"기타 - 기계공구","category":"other"},{"name":"아이티가설","tel":"031-322-9111","addr":"경기도 용인시 처인구 모현읍 갈담리 657-2","indutype":"건축자재 - 기타건축자재","category":"other"}]},{"lat":"37.320675746","long":"127.24206887","imageIndex":17,"items":[{"name":"(주)와이에이치로지스","tel":"031-333-8210","addr":"경기도 용인시 처인구 모현읍 갈담리 423-1번지 외 10필지","indutype":"신변잡화 - 기타잡화","category":"other"}]},{"lat":"37.341456117","long":"127.22676464","imageIndex":17,"items":[{"name":"(주)우드플러스","tel":"031-334-8278","addr":"경기도 용인시 처인구 모현읍 매산리 200-6번지","indutype":"건축자재 - 목재·석재·철물","category":"other"}]},{"lat":"37.353402158","long":"127.22751117","imageIndex":17,"items":[{"name":"(주)월드파인","tel":"031-339-7748","addr":"경기도 용인시 처인구 모현읍 일산리 432-3번지 행복한실버 2층 203호","indutype":"기타 - 기계공구","category":"other"}]},{"lat":"37.332897851","long":"127.22119895","imageIndex":17,"items":[{"name":"(주)제이디홀딩스","tel":"070-4099-3686","addr":"경기도 용인시 처인구 모현읍 매산리 392-1번지","indutype":"의류 - 아동의류","category":"other"},{"name":"다은종합배관","tel":"","addr":"경기도 용인시 처인구 모현읍 매산리 392-1번지 A동","indutype":"건축자재 - 기타건축자재","category":"other"}]},{"lat":"37.351366361","long":"127.23195197","imageIndex":17,"items":[{"name":"(주)제이케이E&I 용인지점","tel":"031-334-1773","addr":"경기도 용인시 처인구 모현읍 일산리 514-1번지","indutype":"건축자재 - 기타건축자재","category":"other"}]},{"lat":"37.354286305","long":"127.21717502","imageIndex":17,"items":[{"name":"(주)죽산목공소","tel":"031-674-0634","addr":"경기도 용인시 처인구 모현읍 매산리 19-7번지 나동","indutype":"가구 - 일반가구","category":"other"}]},{"lat":"37.331229323","long":"127.17276561","imageIndex":17,"items":[{"name":"(주)지인공방","tel":"031-339-6157","addr":"경기도 용인시 처인구 모현읍 능원리 351-19번지","indutype":"가구 - 일반가구","category":"other"},{"name":"지인공방","tel":"031-339-6157","addr":"경기도 용인시 처인구 모현읍 능원리 351-19번지","indutype":"가구 - 일반가구","category":"other"}]},{"lat":"37.335735521","long":"127.25331044","imageIndex":17,"items":[{"name":"(주)케이엔케이","tel":"031-333-6363","addr":"경기도 용인시 처인구 모현읍 왕산리 499-5번지 우주빌딩","indutype":"레져용품 - 골프용품 전문점","category":"other"}]},{"lat":"37.331624233","long":"127.23700344","imageIndex":17,"items":[{"name":"(주)피비시스템 (PB SYSTEM Inc.)","tel":"031-333-2633","addr":"경기도 용인시 처인구 모현읍 갈담리 614번지","indutype":"문화.취미 - 애완동물","category":"other"}]},{"lat":"37.337735452","long":"127.19576661","imageIndex":17,"items":[{"name":"(주)한올","tel":"031-333-0397","addr":"경기도 용인시 처인구 모현읍 동림리 154-1번지","indutype":"용역 서비스 - 가례서비스업","category":"other"},{"name":"(주)한올/삼원FA(일반)","tel":"031-333-0397","addr":"경기도 용인시 처인구 모현읍 동림리 154-1번지","indutype":"기타 - 기타 전문점","category":"other"}]},{"lat":"37.30054587","long":"127.251344","imageIndex":17,"items":[{"name":"(주)힐링하우스","tel":"031-333-9100","addr":"경기도 용인시 처인구 모현읍 초부리 674-20번지","indutype":"기타의료기관 - 기타의료기관 및 기타","category":"other"},{"name":"힐링하우스 실버요양센터","tel":"031-333-9100","addr":"경기도 용인시 처인구 모현읍 초부리 674-20번지","indutype":"기타의료기관 - 기타의료기관 및 기타","category":"other"},{"name":"힐링하우스 실버요양센터","tel":"031-333-9100","addr":"경기도 용인시 처인구 모현읍 초부리 674-20번지","indutype":"기타의료기관 - 기타의료기관 및 기타","category":"other"}]},{"lat":"37.334399993","long":"127.2126501","imageIndex":17,"items":[{"name":"21세기철망","tel":"031-323-5422","addr":"경기도 용인시 처인구 모현읍 매산리 301-10번지","indutype":"건축자재 - 기타건축자재","category":"other"}]},{"lat":"37.332210724","long":"127.2498911","imageIndex":17,"items":[{"name":"B.H컴퍼니","tel":"","addr":"경기도 용인시 처인구 모현읍 왕산리 464-2번지 풍산햇빛마을","indutype":"회원제형태 - 기타4","category":"other"}]},{"lat":"37.331069595","long":"127.15784857","imageIndex":17,"items":[{"name":"C.T.S","tel":"031-323-0143","addr":"경기도 용인시 처인구 모현읍 오산리 170-3","indutype":"신변잡화 - 기타잡화","category":"other"}]},{"lat":"37.332175226","long":"127.22217853","imageIndex":17,"items":[{"name":"CS테크","tel":"","addr":"경기도 용인시 처인구 모현읍 매산리 381-1번지","indutype":"유통업 영리 - 기타유통업","category":"other"}]},{"lat":"37.337399665","long":"127.24598114","imageIndex":17,"items":[{"name":"D.S 골프","tel":"031-333-0706","addr":"경기도 용인시 처인구 모현읍 일산리 112-10번지 3층 301호","indutype":"레져용품 - 골프용품 전문점","category":"other"},{"name":"더찬스짐","tel":"070-4741-7150","addr":"경기도 용인시 처인구 모현읍 일산리 112-10번지 2층","indutype":"회원제형태 - 레져업소","category":"other"},{"name":"아람침장","tel":"031-334-3067","addr":"경기도 용인시 처인구 모현읍 일산리 112-10번지 1층 1호","indutype":"직물 - 침구·수예점","category":"other"}]},{"lat":"37.336069004","long":"127.16548693","imageIndex":17,"items":[{"name":"GIAN-LIVING","tel":"031-322-1930","addr":"경기도 용인시 처인구 모현읍 능원리 314-3번지","indutype":"가구 - 일반가구","category":"other"}]},{"lat":"37.311511486","long":"127.25550873","imageIndex":17,"items":[{"name":"GM커뮤니케이션","tel":"031-323-3440","addr":"경기도 용인시 처인구 모현읍 초부리 352번지 대웅포장","indutype":"서적문구 - 출판 및 인쇄물","category":"other"}]},{"lat":"37.339151404","long":"127.26530604","imageIndex":17,"items":[{"name":"GS25외대기숙사점","tel":"","addr":"경기도 용인시 처인구 모현읍 왕산리 산55-4번지 한국외국어대학교글로벌캠퍼스 G동 1층","indutype":"유통업 영리 - 편 의 점","category":"other"},{"name":"고그린스(GoGr eans)","tel":"031-335-9870","addr":"경기도 용인시 처인구 모현읍 왕산리 산55-4번지 한국외국어대학교용인캠퍼스","indutype":"신변잡화 - 기타잡화","category":"other"},{"name":"앤디시스템","tel":"031-000-0000","addr":"경기도 용인시 처인구 모현읍 왕산리 산55-4번지 한국외국어대학교글로벌캠퍼스 207호","indutype":"전기제품 - 기타전기제품","category":"other"},{"name":"오성시스템","tel":"031-334-2576","addr":"경기도 용인시 처인구 모현읍 왕산리 산55-4번지 한국외국어대학교 306호 글로벌캠퍼스 창업보육센터","indutype":"전기제품 - 기타전기제품","category":"other"},{"name":"이에이에스(EAS)","tel":"070-8805-8418","addr":"경기도 용인시 처인구 모현읍 왕산리 산55-4번지 한국외국어대학교 3층 311호 이에이에스","indutype":"서적문구 - 과학기자재","category":"other"},{"name":"주식회사 메리스랩","tel":"070-4353-6762","addr":"경기도 용인시 처인구 모현읍 왕산리 산55-4번지 한국외국어대학교글로벌캠퍼스 산학협력센터 307호","indutype":"서적문구 - 일반서적","category":"other"}]},{"lat":"37.323346711","long":"127.24455943","imageIndex":17,"items":[{"name":"GS25용인갈담점","tel":"02-2006-2118","addr":"경기도 용인시 처인구 모현읍 갈담리 332-6","indutype":"유통업 영리 - 편 의 점","category":"other"}]},{"lat":"37.343061082","long":"127.17798345","imageIndex":17,"items":[{"name":"GS25용인능원점","tel":"","addr":"경기도 용인시 처인구 모현읍 능원리 15-7번지","indutype":"유통업 영리 - 편 의 점","category":"other"},{"name":"천수암","tel":"031-726-3589","addr":"경기도 용인시 처인구 모현읍 능원리 15-7번지 대우빌딩 3층 301호","indutype":"기타 - 비영리/대상","category":"other"}]},{"lat":"37.338930396","long":"127.19784603","imageIndex":17,"items":[{"name":"GS25용인동림점","tel":"","addr":"경기도 용인시 처인구 모현읍 동림리 142-4번지","indutype":"유통업 영리 - 편 의 점","category":"other"},{"name":"J-TECH","tel":"031-335-6648","addr":"경기도 용인시 처인구 모현읍 동림리 142-4","indutype":"건축자재 - 목재·석재·철물","category":"other"}]},{"lat":"37.336342198","long":"127.25189065","imageIndex":17,"items":[{"name":"GS25용인모현점","tel":"","addr":"경기도 용인시 처인구 모현읍 왕산리 945-18번지 103~104호","indutype":"유통업 영리 - 편 의 점","category":"other"},{"name":"공간주택","tel":"031-333-3268","addr":"경기도 용인시 처인구 모현읍 왕산리 945-18","indutype":"건축자재 - 인테리어전문","category":"other"},{"name":"제일미디어","tel":"031-334-0306","addr":"경기도 용인시 처인구 모현읍 왕산리 945-18번지 원당프라자 501호","indutype":"서적문구 - 출판 및 인쇄물","category":"other"}]},{"lat":"37.343872636","long":"127.22581256","imageIndex":17,"items":[{"name":"GS25용인문현점","tel":"02-2006-2485","addr":"경기도 용인시 처인구 모현읍 매산리 207","indutype":"유통업 영리 - 편 의 점","category":"other"},{"name":"마이용인모현점","tel":"031-333-8234","addr":"경기도 용인시 처인구 모현읍 매산리 207번지","indutype":"유통업 영리 - 편 의 점","category":"other"}]},{"lat":"37.33648177","long":"127.24542525","imageIndex":17,"items":[{"name":"GS25용인신안점","tel":"","addr":"경기도 용인시 처인구 모현읍 일산리 671번지 효천마을신안인스빌2단지아파트 상가동 1층 109호","indutype":"유통업 영리 - 편 의 점","category":"other"},{"name":"신안향균세탁","tel":"031-322-1012","addr":"경기도 용인시 처인구 모현읍 일산리 671번지 효천마을신안인스빌 상가 108호","indutype":"수리서비스 - 세탁소","category":"other"},{"name":"크린스피드","tel":"031-334-6622","addr":"경기도 용인시 처인구 모현읍 일산리 671번지 효천마을신안인스빌단지 202호 상가","indutype":"수리서비스 - 세탁소","category":"other"}]},{"lat":"37.341372484","long":"127.25064334","imageIndex":17,"items":[{"name":"GS25용인왕산점","tel":"02-2006-2118","addr":"경기도 용인시 처인구 모현읍 왕산리 774-1","indutype":"유통업 영리 - 편 의 점","category":"other"},{"name":"대동천막기업","tel":"031-332-2554","addr":"경기도 용인시 처인구 모현읍 왕산리774-1","indutype":"직물 - 카페트,커튼,천막,지물","category":"other"}]},{"lat":"37.304294661","long":"127.25108563","imageIndex":17,"items":[{"name":"J (제이)텍","tel":"031-764-4044","addr":"경기도 용인시 처인구 모현읍 초부리 752번지","indutype":"기타 - 기계공구","category":"other"}]},{"lat":"37.335680863","long":"127.25359236","imageIndex":17,"items":[{"name":"KCC미래공인중개사사무소","tel":"031-323-4114","addr":"경기도 용인시 처인구 모현읍 왕산리 496-1번지","indutype":"용역 서비스 - 부동산 중개·임대","category":"other"}]},{"lat":"37.346790503","long":"127.22656604","imageIndex":17,"items":[{"name":"L&N BED","tel":"031-322-2213","addr":"경기도 용인시 처인구 모현읍 매산리 140번지","indutype":"가구 - 일반가구","category":"other"}]},{"lat":"37.343508966","long":"127.22753813","imageIndex":17,"items":[{"name":"MS하드웨어","tel":"031-333-1883","addr":"경기도 용인시 처인구 모현읍 매산리 222-6번지","indutype":"건축자재 - 기타건축자재","category":"other"}]},{"lat":"37.324567147","long":"127.17528916","imageIndex":17,"items":[{"name":"Nineteen Hole Lakeside","tel":"031-334-2111","addr":"경기도 용인시 처인구 모현읍 능원리 산 5-12","indutype":"문화.취미 - 화랑","category":"other"}]},{"lat":"37.323985772","long":"127.22656613","imageIndex":17,"items":[{"name":"Pleasant Rental","tel":"031-332-2725","addr":"경기도 용인시 처인구 모현읍 갈담리 644-5번지","indutype":"신변잡화 - 기타잡화","category":"other"}]},{"lat":"37.313066065","long":"127.24011576","imageIndex":17,"items":[{"name":"R&C","tel":"070-4923-9192","addr":"경기도 용인시 처인구 모현읍 초부리 70번지","indutype":"주방용구 - 주방용구","category":"other"}]},{"lat":"37.33029257","long":"127.22192483","imageIndex":17,"items":[{"name":"S.G 하우징","tel":"031-1522-0428","addr":"경기도 용인시 처인구 모현읍 매산리 373번지","indutype":"건축자재 - 기타건축자재","category":"other"}]},{"lat":"37.317148404","long":"127.23975631","imageIndex":17,"items":[{"name":"SATS","tel":"031-679-7824","addr":"경기도 용인시 처인구 모현읍 갈담리 461","indutype":"전기제품 - 가전제품","category":"other"},{"name":"오성엔지니어링","tel":"031-336-6991","addr":"경기도 용인시 처인구 모현읍 갈담리461","indutype":"전기제품 - 냉열기기","category":"other"}]},{"lat":"37.315546166","long":"127.25214919","imageIndex":17,"items":[{"name":"SPRING인조대리석","tel":"031-377-2274","addr":"경기도 용인시 처인구 모현읍 초부리 145-3번지","indutype":"용역 서비스 - 기타용역서비스","category":"other"}]},{"lat":"37.340341339","long":"127.18310044","imageIndex":17,"items":[{"name":"Sum 개발","tel":"070-8232-0380","addr":"경기도 용인시 처인구 모현읍 동림리 76-5번지 그린캐슬 305호","indutype":"유통업 영리 - 기타유통업","category":"other"}]},{"lat":"37.338369624","long":"127.22464528","imageIndex":17,"items":[{"name":"by노리터","tel":"031-333-5086","addr":"경기도 용인시 처인구 모현읍 매산리 262-8번지 101호","indutype":"문화.취미 - 문화취미기타","category":"other"}]},{"lat":"37.328681174","long":"127.2211529","imageIndex":17,"items":[{"name":"e페인트산업","tel":"031-339-7450","addr":"경기도 용인시 처인구 모현읍 매산리 582-4번지 지층","indutype":"건축자재 - 페인트","category":"other"}]},{"lat":"37.344341342","long":"127.24409628","imageIndex":17,"items":[{"name":"magic vault","tel":"031-000-0000","addr":"경기도 용인시 처인구 모현읍 일산리 92-2번지","indutype":"가구 - 일반가구","category":"other"}]},{"lat":"37.30771002","long":"127.25930863","imageIndex":17,"items":[{"name":"가가시스템","tel":"031-333-5054","addr":"경기도 용인시 처인구 모현읍 초부리 576-9번지","indutype":"건축자재 - 인테리어전문","category":"other"}]},{"lat":"37.340291084","long":"127.25073006","imageIndex":17,"items":[{"name":"가나광고기획","tel":"031-322-9117","addr":"경기도 용인시 처인구 모현읍 왕산리 775-7번지","indutype":"용역 서비스 - 종합용역","category":"other"}]},{"lat":"37.343507617","long":"127.18064781","imageIndex":17,"items":[{"name":"강남컴퓨터세탁","tel":"031-321-0145","addr":"경기도 용인시 처인구 모현읍 동림리 47-9번지 외1필지 1층","indutype":"수리서비스 - 세탁소","category":"other"}]},{"lat":"37.354455017","long":"127.2463973","imageIndex":17,"items":[{"name":"강산종합철강(주)","tel":"031-323-7474","addr":"경기도 용인시 처인구 모현읍 왕산리 682-1","indutype":"건축자재 - 기타건축자재","category":"other"}]},{"lat":"37.351873389","long":"127.23067813","imageIndex":17,"items":[{"name":"강호창호","tel":"031-321-9009","addr":"경기도 용인시 처인구 모현읍 일산리 494-3번지","indutype":"건축자재 - 보일러·펌프·샷시","category":"other"}]},{"lat":"37.347452872","long":"127.25134047","imageIndex":17,"items":[{"name":"갤럭시도어","tel":"031-322-8552","addr":"경기도 용인시 처인구 모현읍 왕산리 742-9번지","indutype":"건축자재 - 기타건축자재","category":"other"},{"name":"데코우드","tel":"031-338-7471","addr":"경기도 용인시 처인구 모현읍 왕산리 742-9번지","indutype":"문화.취미 - 화원","category":"other"},{"name":"시크리트","tel":"031-338-7471","addr":"경기도 용인시 처인구 모현읍 왕산리 742-9번지","indutype":"문화.취미 - 화원","category":"other"}]},{"lat":"37.315820105","long":"127.24164737","imageIndex":17,"items":[{"name":"건우건축.설비","tel":"070-7018-5392","addr":"경기도 용인시 처인구 모현읍 초부리 산1-5번지","indutype":"용역 서비스 - 기타용역서비스","category":"other"}]},{"lat":"37.338318841","long":"127.25026092","imageIndex":17,"items":[{"name":"경기지물포","tel":"031-333-5236","addr":"경기도 용인시 처인구 모현읍 왕산리 789-4번지","indutype":"직물 - 카페트,커튼,천막,지물","category":"other"}]},{"lat":"37.336840548","long":"127.25056075","imageIndex":17,"items":[{"name":"경록열쇠","tel":"031-334-7457","addr":"경기도 용인시 처인구 모현읍 왕산리 792-3번지","indutype":"기타 - 기계공구","category":"other"},{"name":"모현지업사","tel":"031-333-4404","addr":"경기도 용인시 처인구 모현읍 왕산리 792-3번지","indutype":"직물 - 카페트,커튼,천막,지물","category":"other"}]},{"lat":"37.324317368","long":"127.22270854","imageIndex":17,"items":[{"name":"고려정공(주)","tel":"031-321-8500","addr":"경기도 용인시 처인구 모현읍 매산리 555-3번지","indutype":"기타 - 기계공구","category":"other"}]},{"lat":"37.340038056","long":"127.22381511","imageIndex":17,"items":[{"name":"고려종합철물공구건재","tel":"031-333-6909","addr":"경기도 용인시 처인구 모현읍 매산리257","indutype":"건축자재 - 목재·석재·철물","category":"other"},{"name":"신화정밀기계","tel":"031-322-1241","addr":"경기도 용인시 처인구 모현읍 매산리257","indutype":"기타 - 기계공구","category":"other"}]},{"lat":"37.317739491","long":"127.24154062","imageIndex":17,"items":[{"name":"골드만패션","tel":"070-4497-7006","addr":"경기도 용인시 처인구 모현읍 갈담리 454-7번지","indutype":"레져용품 - 스포츠·레져용품","category":"other"},{"name":"르까프 용인점","tel":"031-332-0728","addr":"경기도 용인시 처인구 모현읍 갈담리 454-7번지","indutype":"의류 - 스포츠의류","category":"other"}]},{"lat":"37.307767643","long":"127.24914561","imageIndex":17,"items":[{"name":"골드하우스","tel":"070-4502-0745","addr":"경기도 용인시 처인구 모현읍 초부리 519-31번지 1층","indutype":"건축자재 - 인테리어전문","category":"other"}]},{"lat":"37.335014233","long":"127.17232277","imageIndex":17,"items":[{"name":"골프아울렛","tel":"","addr":"경기도 용인시 처인구 모현읍 능원리 268-3번지","indutype":"레져용품 - 골프용품 전문점","category":"other"},{"name":"아트스포츠(ART sports)","tel":"070-7755-4846","addr":"경기도 용인시 처인구 모현읍 능원리 268-3번지 1층","indutype":"레져용품 - 골프용품 전문점","category":"other"},{"name":"앤드리","tel":"031-322-0012","addr":"경기도 용인시 처인구 모현읍 능원리 268-3번지","indutype":"의류 - 정장","category":"other"}]},{"lat":"37.34229104","long":"127.25087206","imageIndex":17,"items":[{"name":"공도목재","tel":"031-322-3648","addr":"경기도 용인시 처인구 모현읍 왕산리 771-10번지 외1필지","indutype":"건축자재 - 기타건축자재","category":"other"}]},{"lat":"37.343284399","long":"127.22717633","imageIndex":17,"items":[{"name":"공도목재","tel":"031-322-3648","addr":"경기도 용인시 처인구 모현읍 매산리 204-13번지","indutype":"건축자재 - 기타건축자재","category":"other"}]},{"lat":"37.332791125","long":"127.24808762","imageIndex":17,"items":[{"name":"공룡전자담배","tel":"031-111-1111","addr":"경기도 용인시 처인구 모현읍 왕산리 432번지 1층 103호","indutype":"기타 - 기타 전문점","category":"other"}]},{"lat":"37.336765275","long":"127.24337243","imageIndex":17,"items":[{"name":"과일워터","tel":"","addr":"경기도 용인시 처인구 모현읍 일산리 669번지 효천마을신안인스빌 207동 1401호","indutype":"주방용구 - 정수기","category":"other"},{"name":"아람","tel":"031-338-8212","addr":"경기도 용인시 처인구 모현읍 일산리 669번지 효천마을신안인스빌 210동 2003호","indutype":"용역 서비스 - 소프트웨어","category":"other"},{"name":"커뮤니케이션 더 핀트","tel":"031-328-8220","addr":"경기도 용인시 처인구 모현읍 일산리 669번지 효천마을신안인스빌 203동 2002호","indutype":"회원제형태 - 기타4","category":"other"},{"name":"프로캠프","tel":"031-336-0024","addr":"경기도 용인시 처인구 모현읍 일산리 669번지 효천마을신안인스빌","indutype":"회원제형태 - 기타1","category":"other"},{"name":"피톤치드홈서비스","tel":"","addr":"경기도 용인시 처인구 모현읍 일산리 669번지 효천마을신안인스빌 204동 403호","indutype":"용역 서비스 - 종합용역","category":"other"}]},{"lat":"37.341040901","long":"127.23186418","imageIndex":17,"items":[{"name":"광주건철","tel":"031-338-4268","addr":"경기도 용인시 처인구 모현읍 일산리 586-4","indutype":"건축자재 - 건축용 요업제품","category":"other"}]},{"lat":"37.330012073","long":"127.24561884","imageIndex":17,"items":[{"name":"국제벨트","tel":"031-334-9303","addr":"경기도 용인시 처인구 모현읍 갈담리300-2","indutype":"신변잡화 - 액세서리","category":"other"},{"name":"뉴텍코리아","tel":"031-321-5247","addr":"경기도 용인시 처인구 모현읍 갈담리 300-2번지 KJ국제벨트 1동","indutype":"용역 서비스 - 기타용역서비스","category":"other"},{"name":"휴먼스","tel":"031-111-1111","addr":"경기도 용인시 처인구 모현읍 갈담리 300-2번지","indutype":"가구 - 일반가구","category":"other"}]},{"lat":"37.321204046","long":"127.2392275","imageIndex":17,"items":[{"name":"국제천연비누연구원","tel":"031-334-7735","addr":"경기도 용인시 처인구 모현읍 갈담리 515번지 가동","indutype":"신변잡화 - 기타잡화","category":"other"}]},{"lat":"37.341913613","long":"127.17399717","imageIndex":17,"items":[{"name":"굿라이더","tel":"031-4194-4455","addr":"경기도 용인시 처인구 모현읍 능원리 43-2번지 A동 1층 102호","indutype":"레져용품 - 스포츠·레져용품","category":"other"}]},{"lat":"37.31790017","long":"127.24228571","imageIndex":17,"items":[{"name":"굿베드","tel":"070-8352-4342","addr":"경기도 용인시 처인구 모현읍 갈담리 443-5번지","indutype":"가구 - 일반가구","category":"other"},{"name":"더슬립메이커(주)","tel":"031-323-0356","addr":"경기도 용인시 처인구 모현읍 갈담리 443-5번지 1층","indutype":"가구 - 일반가구","category":"other"}]},{"lat":"37.331096907","long":"127.21565359","imageIndex":17,"items":[{"name":"그리핀커스텀","tel":"031-429-9803","addr":"경기도 용인시 처인구 모현읍 매산리 396-3번지","indutype":"가구 - 일반가구","category":"other"}]},{"lat":"37.345763834","long":"127.22148448","imageIndex":17,"items":[{"name":"그린에너텍","tel":"031-111-1111","addr":"경기도 용인시 처인구 모현읍 매산리 152-6번지","indutype":"전기제품 - 기타전기제품","category":"other"}]},{"lat":"37.320868584","long":"127.1519836","imageIndex":17,"items":[{"name":"글라라꽃화원","tel":"031-334-5297","addr":"경기도 용인시 처인구 모현읍 오산리 307","indutype":"문화.취미 - 화원","category":"other"}]},{"lat":"37.337706125","long":"127.2459257","imageIndex":17,"items":[{"name":"글로리기가창호","tel":"031-338-7504","addr":"경기도 용인시 처인구 모현읍 일산리 112-50번지","indutype":"직물 - 카페트,커튼,천막,지물","category":"other"}]},{"lat":"37.323177425","long":"127.21539433","imageIndex":17,"items":[{"name":"글로벌소파","tel":"02-1811-8737","addr":"경기도 용인시 처인구 모현읍 매산리 497-1번지","indutype":"가구 - 일반가구","category":"other"}]},{"lat":"37.33961848","long":"127.17228797","imageIndex":17,"items":[{"name":"금보","tel":"031-731-2368","addr":"경기도 용인시 처인구 모현읍 능원리 150-1번지","indutype":"가구 - 일반가구","category":"other"},{"name":"비비펫","tel":"070-4768-4140","addr":"경기도 용인시 처인구 모현읍 능원리 150-1번지 모덕빌딩 1층","indutype":"문화.취미 - 애완동물","category":"other"},{"name":"수지종합상사","tel":"031-322-8358","addr":"경기도 용인시 처인구 모현읍 능원리 150-1번지 모덕오피스텔 106호","indutype":"신변잡화 - 기타잡화","category":"other"}]},{"lat":"37.349927268","long":"127.24865121","imageIndex":17,"items":[{"name":"금석켄바스(명작)","tel":"031-337-0844","addr":"경기도 용인시 처인구 모현읍 왕산리 736-3번지 2호","indutype":"직물 - 카페트,커튼,천막,지물","category":"other"}]},{"lat":"37.320232857","long":"127.24275566","imageIndex":17,"items":[{"name":"기가퍼스","tel":"031-000-0000","addr":"경기도 용인시 처인구 모현읍 갈담리 400-5번지","indutype":"가구 - 일반가구","category":"other"},{"name":"자쿠도 (ZAKUDO)","tel":"031-321-2446","addr":"경기도 용인시 처인구 모현읍 갈담리 400-5번지","indutype":"직물 - 카페트,커튼,천막,지물","category":"other"}]},{"lat":"37.341148576","long":"127.22739568","imageIndex":17,"items":[{"name":"기동우드","tel":"031-333-3645","addr":"경기도 용인시 처인구 모현읍 매산리 200-11","indutype":"건축자재 - 목재·석재·철물","category":"other"}]},{"lat":"37.341425953","long":"127.17476344","imageIndex":17,"items":[{"name":"기린인테리어","tel":"","addr":"경기도 용인시 처인구 모현읍 능원리 29-3번지","indutype":"건축자재 - 인테리어전문","category":"other"},{"name":"비바체 75","tel":"","addr":"경기도 용인시 처인구 모현읍 능원리 29-3번지","indutype":"문화.취미 - 화원","category":"other"}]},{"lat":"37.335931967","long":"127.24986943","imageIndex":17,"items":[{"name":"깔끔클리닉(수선)","tel":"031-333-3144","addr":"경기도 용인시 처인구 모현읍 왕산리 807-5번지","indutype":"수리서비스 - 세탁소","category":"other"}]},{"lat":"37.319814759","long":"127.1718261","imageIndex":17,"items":[{"name":"꽃과 나무이야기","tel":"","addr":"경기도 용인시 처인구 모현읍 능원리 526-2번지","indutype":"문화.취미 - 화원","category":"other"}]},{"lat":"37.344735987","long":"127.22667281","imageIndex":17,"items":[{"name":"나노킹","tel":"070-0000-0000","addr":"경기도 용인시 처인구 모현읍 매산리 215번지 천평빌라 202호","indutype":"건축자재 - 인테리어전문","category":"other"}]},{"lat":"37.333705694","long":"127.25023451","imageIndex":17,"items":[{"name":"나라테크","tel":"031-322-1832","addr":"경기도 용인시 처인구 모현읍 왕산리 476-1외2필지 1동엔02호","indutype":"사무통신 - 컴퓨터","category":"other"}]},{"lat":"37.334175389","long":"127.22222948","imageIndex":17,"items":[{"name":"나인몬스터주식회사","tel":"031-322-5960","addr":"경기도 용인시 처인구 모현읍 매산리 328-2번지","indutype":"문화.취미 - 애완동물","category":"other"}]},{"lat":"37.339402818","long":"127.17188124","imageIndex":17,"items":[{"name":"남오포종합신문지국","tel":"031-322-9985","addr":"경기도 용인시 처인구 모현읍 능원리 126-1번지 정암빌딩 1층 3,4호","indutype":"서적문구 - 정기간행물","category":"other"},{"name":"대승 스포츠","tel":"031-322-3872","addr":"경기도 용인시 처인구 모현읍 능원리 126-1","indutype":"레져용품 - 골프용품 전문점","category":"other"},{"name":"토켁토켁","tel":"","addr":"경기도 용인시 처인구 모현읍 능원리 126-1번지 정암빌딩 2층 일부","indutype":"문화.취미 - 애완동물","category":"other"}]},{"lat":"37.343427642","long":"127.1799028","imageIndex":17,"items":[{"name":"네츄럴휴","tel":"031-322-2085","addr":"경기도 용인시 처인구 모현읍 동림리 48-10","indutype":"회원제형태 - 기타4","category":"other"},{"name":"이레철물","tel":"031-339-4558","addr":"경기도 용인시 처인구 모현읍 동림리 48-10","indutype":"기타 - 기계공구","category":"other"}]},{"lat":"37.317710569","long":"127.24247689","imageIndex":17,"items":[{"name":"네파모현상설","tel":"031-323-2234","addr":"경기도 용인시 처인구 모현읍 갈담리444-5","indutype":"레져용품 - 스포츠·레져용품","category":"other"},{"name":"레드페이스 용인모현점","tel":"031-337-0053","addr":"경기도 용인시 처인구 모현읍 갈담리 444-5번지","indutype":"레져용품 - 스포츠·레져용품","category":"other"},{"name":"하나어패럴","tel":"031-322-5106","addr":"경기도 용인시 처인구 모현읍 갈담리 444-5번지","indutype":"의류 - 정장","category":"other"}]},{"lat":"37.323423973","long":"127.15474152","imageIndex":17,"items":[{"name":"노블리안","tel":"031-332-3295","addr":"경기도 용인시 처인구 모현읍 오산리 290","indutype":"가구 - 일반가구","category":"other"}]},{"lat":"37.34122898","long":"127.24598219","imageIndex":17,"items":[{"name":"놀이친구사이","tel":"031-338-7948","addr":"경기도 용인시 처인구 모현읍 일산리 106번지 2층","indutype":"레져용품 - 스포츠·레져용품","category":"other"},{"name":"렌탈프라임","tel":"031-338-4775","addr":"경기도 용인시 처인구 모현읍 일산리 106번지 1층","indutype":"용역 서비스 - 기타용역서비스","category":"other"}]},{"lat":"37.331040151","long":"127.24517081","imageIndex":17,"items":[{"name":"놀자몽","tel":"031-336-9053","addr":"경기도 용인시 처인구 모현읍 갈담리 295번지 지층","indutype":"문화.취미 - 애완동물","category":"other"},{"name":"세븐일레븐용인모현본점","tel":"","addr":"경기도 용인시 처인구 모현읍 갈담리 295번지","indutype":"유통업 영리 - 편 의 점","category":"other"},{"name":"주식회사 라인아트","tel":"031-321-2750","addr":"경기도 용인시 처인구 모현읍 갈담리 295번지","indutype":"용역 서비스 - 종합용역","category":"other"}]},{"lat":"37.315815838","long":"127.15040554","imageIndex":17,"items":[{"name":"농업회사법인 도그파크랜드 주식회사","tel":"070-4354-7486","addr":"경기도 용인시 처인구 모현읍 오산리 372번지 외11필지","indutype":"문화.취미 - 애완동물","category":"other"},{"name":"케이나인코리아센타(K9 KOREA CENTER)","tel":"031-334-5421","addr":"경기도 용인시 처인구 모현읍 오산리 372번지","indutype":"문화.취미 - 애완동물","category":"other"}]},{"lat":"37.342172793","long":"127.17545353","imageIndex":17,"items":[{"name":"능원철물","tel":"031-334-7820","addr":"경기도 용인시 처인구 모현읍 능원리 35-1","indutype":"건축자재 - 목재·석재·철물","category":"other"}]},{"lat":"37.334707628","long":"127.24936893","imageIndex":17,"items":[{"name":"다모아문구","tel":"031-322-3022","addr":"경기도 용인시 처인구 모현읍 왕산리 428번지","indutype":"서적문구 - 문구용품","category":"other"},{"name":"맘옷가게","tel":"031-333-4457","addr":"경기도 용인시 처인구 모현읍 왕산리 428번지","indutype":"의류 - 정장","category":"other"},{"name":"모현흥농종묘사","tel":"031-334-1530","addr":"경기도 용인시 처인구 모현읍 왕산리 428번지","indutype":"농업 - 비료,사료,종자","category":"other"},{"name":"미스뚱","tel":"031-335-9368","addr":"경기도 용인시 처인구 모현읍 왕산리 428번지","indutype":"의류 - 정장","category":"other"}]},{"lat":"37.348485977","long":"127.22573591","imageIndex":17,"items":[{"name":"다비드홈","tel":"031-338-1310","addr":"경기도 용인시 처인구 모현읍 매산리 80번지 1층","indutype":"가구 - 일반가구","category":"other"},{"name":"정일","tel":"031-323-1311","addr":"경기도 용인시 처인구 모현읍 매산리80","indutype":"가구 - 일반가구","category":"other"}]},{"lat":"37.336094619","long":"127.24964428","imageIndex":17,"items":[{"name":"다이소 용인모현점","tel":"031-336-8002","addr":"경기도 용인시 처인구 모현읍 왕산리 804-1번지 지하1층","indutype":"신변잡화 - 기타잡화","category":"other"}]},{"lat":"37.341646713","long":"127.23076009","imageIndex":17,"items":[{"name":"다인컴퍼니","tel":"070-8716-0460","addr":"경기도 용인시 처인구 모현읍 일산리 560-4번지","indutype":"용역 서비스 - 종합용역","category":"other"},{"name":"세븐일레븐모현대로점","tel":"031-1577-0711","addr":"경기도 용인시 처인구 모현읍 일산리 560-4번지 정민빌딩 1층 좌측","indutype":"유통업 영리 - 편 의 점","category":"other"},{"name":"우드림","tel":"031-337-2426","addr":"경기도 용인시 처인구 모현읍 일산리 560-4번지","indutype":"건축자재 - 목재·석재·철물","category":"other"}]},{"lat":"37.339041029","long":"127.18495929","imageIndex":17,"items":[{"name":"다일락스포렉스","tel":"031-333-1333","addr":"경기도 용인시 처인구 모현읍 동림리 71-5번지 지상층 지하 일부","indutype":"레져용품 - 스포츠·레져용품","category":"other"},{"name":"수 스포츠 다일락","tel":"031-332-1872","addr":"경기도 용인시 처인구 모현읍 동림리 71-5번지 다일락골프연습장1층","indutype":"레져용품 - 스포츠·레져용품","category":"other"},{"name":"알바트로스골프피팅","tel":"031-477-4419","addr":"경기도 용인시 처인구 모현읍 동림리 71-5번지","indutype":"레져용품 - 골프용품 전문점","category":"other"},{"name":"조아골프","tel":"031-323-1103","addr":"경기도 용인시 처인구 모현읍 동림리 71-5번지","indutype":"레져용품 - 골프용품 전문점","category":"other"},{"name":"주식회사오포스파랜드","tel":"031-333-1333","addr":"경기도 용인시 처인구 모현읍 동림리 71-5","indutype":"회원제형태 - 레져업소","category":"other"},{"name":"준골프","tel":"","addr":"경기도 용인시 처인구 모현읍 동림리 71-5번지","indutype":"레져용품 - 스포츠·레져용품","category":"other"}]},{"lat":"37.338234745","long":"127.24737182","imageIndex":17,"items":[{"name":"다정콘테이너","tel":"070-4789-2382","addr":"경기도 용인시 처인구 모현읍 일산리 . 112-1","indutype":"건축자재 - 기타건축자재","category":"other"},{"name":"목향종합목재","tel":"031-339-7049","addr":"경기도 용인시 처인구 모현읍 일산리 112-1번지 목향종합목재","indutype":"건축자재 - 목재·석재·철물","category":"other"}]},{"lat":"37.34081919","long":"127.17687233","imageIndex":17,"items":[{"name":"단디","tel":"","addr":"경기도 용인시 처인구 모현읍 능원리 185-6번지 한백 C동 204호","indutype":"건축자재 - 기타건축자재","category":"other"}]},{"lat":"37.336978973","long":"127.17814988","imageIndex":17,"items":[{"name":"담초","tel":"","addr":"경기도 용인시 처인구 모현읍 능원리 223번지","indutype":"문화.취미 - 화원","category":"other"}]},{"lat":"37.346202269","long":"127.25047863","imageIndex":17,"items":[{"name":"대경유공압","tel":"031-334-2979","addr":"경기도 용인시 처인구 모현읍 왕산리760-7","indutype":"건축자재 - 기타건축자재","category":"other"},{"name":"드림디포 용인외대점","tel":"031-334-1972","addr":"경기도 용인시 처인구 모현읍 왕산리 760-7번지 (3~4호)","indutype":"서적문구 - 문구용품","category":"other"},{"name":"미래종합건설공구","tel":"031-321-4958","addr":"경기도 용인시 처인구 모현읍 왕산리760-7","indutype":"기타 - 기계공구","category":"other"}]},{"lat":"37.336932205","long":"127.24981629","imageIndex":17,"items":[{"name":"대광전기","tel":"031-334-0268","addr":"경기도 용인시 처인구 모현읍 왕산리 799-2번지","indutype":"용역 서비스 - 기타용역서비스","category":"other"},{"name":"모은정보통신","tel":"031-322-6184","addr":"경기도 용인시 처인구 모현읍 왕산리 799-2번지","indutype":"사무통신 - 컴퓨터","category":"other"}]},{"lat":"37.338786533","long":"127.23739806","imageIndex":17,"items":[{"name":"대동형제천막기업","tel":"031-332-9229","addr":"경기도 용인시 처인구 모현읍 일산리 239-14번지","indutype":"직물 - 카페트,커튼,천막,지물","category":"other"}]},{"lat":"37.343567164","long":"127.17695767","imageIndex":17,"items":[{"name":"대림남부지정점(성남)","tel":"031-332-9875","addr":"경기도 용인시 처인구 모현읍 능원리 5-2번지 부광맨션 304호","indutype":"건축자재 - 건축용 요업제품","category":"other"},{"name":"대림남부지정점(용인)","tel":"031-767-4866","addr":"경기도 용인시 처인구 모현읍 능원리 5-2번지 부광맨션 402호","indutype":"수리서비스 - 가정용품수리","category":"other"},{"name":"대림남주지정점(경기)","tel":"031-705-7771","addr":"경기도 용인시 처인구 모현읍 능원리 5-2번지 부광맨션 301호","indutype":"수리서비스 - 기타수리서비스","category":"other"}]},{"lat":"37.343120818","long":"127.22312446","imageIndex":17,"items":[{"name":"대림유리","tel":"031-332-2350","addr":"경기도 용인시 처인구 모현읍 매산리193-1","indutype":"주방용구 - 주방용식기","category":"other"}]},{"lat":"37.327036747","long":"127.22361908","imageIndex":17,"items":[{"name":"대림정밀","tel":"031-333-3954","addr":"경기도 용인시 처인구 모현읍 매산리 616번지","indutype":"기타 - 기계공구","category":"other"}]},{"lat":"37.318041517","long":"127.24806226","imageIndex":17,"items":[{"name":"대명유통","tel":"","addr":"경기도 용인시 처인구 모현읍 갈담리 219-15번지 B동","indutype":"신변잡화 - 기타잡화","category":"other"}]},{"lat":"37.344672379","long":"127.22214715","imageIndex":17,"items":[{"name":"대명창호","tel":"031-322-3156","addr":"경기도 용인시 처인구 모현읍 매산리 148-2번지","indutype":"건축자재 - 보일러·펌프·샷시","category":"other"}]},{"lat":"37.33373742","long":"127.24797785","imageIndex":17,"items":[{"name":"대성창호","tel":"","addr":"경기도 용인시 처인구 모현읍 왕산리 820번지 102호","indutype":"용역 서비스 - 기타용역서비스","category":"other"}]},{"lat":"37.349452051","long":"127.22467787","imageIndex":17,"items":[{"name":"대성화학","tel":"031-322-1751","addr":"경기도 용인시 처인구 모현읍 매산리 73-1","indutype":"건축자재 - 기타건축자재","category":"other"}]},{"lat":"37.343874715","long":"127.2247066","imageIndex":17,"items":[{"name":"대신콤프레샤","tel":"031-322-0570","addr":"경기도 용인시 처인구 모현읍 매산리208-2","indutype":"기타 - 기타 전문점","category":"other"}]},{"lat":"37.345148419","long":"127.25031718","imageIndex":17,"items":[{"name":"대영천막","tel":"031-339-7794","addr":"경기도 용인시 처인구 모현읍 왕산리 765-3번지","indutype":"직물 - 카페트,커튼,천막,지물","category":"other"},{"name":"한국포장","tel":"031-334-5740","addr":"경기도 용인시 처인구 모현읍 왕산리765-3","indutype":"건축자재 - 건축용 요업제품","category":"other"}]},{"lat":"37.314461074","long":"127.24089853","imageIndex":17,"items":[{"name":"대원타일씽크","tel":"031-332-1040","addr":"경기도 용인시 처인구 모현읍 초부리 68-9번지","indutype":"주방용구 - 주방용구","category":"other"}]},{"lat":"37.33473602","long":"127.22114785","imageIndex":17,"items":[{"name":"대원특장","tel":"031-334-2567","addr":"경기도 용인시 처인구 모현읍 매산리 325-1번지","indutype":"기타 - 기계공구","category":"other"}]},{"lat":"37.339206645","long":"127.24356077","imageIndex":17,"items":[{"name":"대일이엔지(ENG)","tel":"031-8288-9393","addr":"경기도 용인시 처인구 모현읍 일산리 120-11번지","indutype":"주방용구 - 주방용구","category":"other"}]},{"lat":"37.335791609","long":"127.19431727","imageIndex":17,"items":[{"name":"대정케이엔지","tel":"031-333-4051","addr":"경기도 용인시 처인구 모현읍 동림리 244번지","indutype":"기타 - 기계공구","category":"other"}]},{"lat":"37.320485369","long":"127.24264364","imageIndex":17,"items":[{"name":"대진산업","tel":"031-333-1888","addr":"경기도 용인시 처인구 모현읍 갈담리400-4","indutype":"건축자재 - 기타건축자재","category":"other"}]},{"lat":"37.357673507","long":"127.23192598","imageIndex":17,"items":[{"name":"대진우드","tel":"031-337-3927","addr":"경기도 용인시 처인구 모현읍 일산리 396-2번지 1층","indutype":"건축자재 - 목재·석재·철물","category":"other"}]},{"lat":"37.352867646","long":"127.23370596","imageIndex":17,"items":[{"name":"대한기업","tel":"031-768-5402","addr":"경기도 용인시 처인구 모현읍 일산리 486-1번지","indutype":"건축자재 - 보일러·펌프·샷시","category":"other"}]},{"lat":"37.330510701","long":"127.21595658","imageIndex":17,"items":[{"name":"대한산업(Korea Industry)","tel":"031-321-7924","addr":"경기도 용인시 처인구 모현읍 매산리 394-4번지 외1필지(396-15)","indutype":"신변잡화 - 기타잡화","category":"other"}]},{"lat":"37.346963619","long":"127.25262543","imageIndex":17,"items":[{"name":"대한상사","tel":"02-1899-6126","addr":"경기도 용인시 처인구 모현읍 왕산리 617-4번지 고려주택 상가 2동 105호","indutype":"기타 - 기계공구","category":"other"}]},{"lat":"37.336201297","long":"127.21306134","imageIndex":17,"items":[{"name":"더블유엠팩토리 (WMFACTORY)","tel":"070-8880-2323","addr":"경기도 용인시 처인구 모현읍 매산리 297-3번지","indutype":"광학제품 - 사진관","category":"other"}]},{"lat":"37.326207959","long":"127.21365405","imageIndex":17,"items":[{"name":"더웨이컴퍼니","tel":"070-4845-7585","addr":"경기도 용인시 처인구 모현읍 매산리 481-4번지","indutype":"문화.취미 - 티켓","category":"other"}]},{"lat":"37.334481019","long":"127.19126729","imageIndex":17,"items":[{"name":"더초이스","tel":"031-321-0182","addr":"경기도 용인시 처인구 모현읍 동림리 255-2번지","indutype":"가구 - 일반가구","category":"other"}]},{"lat":"37.331043313","long":"127.21539392","imageIndex":17,"items":[{"name":"도그파파","tel":"031-767-0175","addr":"경기도 용인시 처인구 모현읍 매산리 395-6번지","indutype":"문화.취미 - 애완동물","category":"other"}]},{"lat":"37.342426488","long":"127.22820073","imageIndex":17,"items":[{"name":"동부종합공구","tel":"031-338-0946","addr":"경기도 용인시 처인구 모현읍 매산리 241-2번지","indutype":"기타 - 기계공구","category":"other"}]},{"lat":"37.339787294","long":"127.23248103","imageIndex":17,"items":[{"name":"동서교육사","tel":"031-338-7127","addr":"경기도 용인시 처인구 모현읍 일산리 571-6번지 2층","indutype":"서적문구 - 일반서적","category":"other"}]},{"lat":"37.313398873","long":"127.25350707","imageIndex":17,"items":[{"name":"동신인쇄","tel":"031-323-3266","addr":"경기도 용인시 처인구 모현읍 초부리178-2","indutype":"서적문구 - 출판 및 인쇄물","category":"other"},{"name":"은영PnC","tel":"031-323-1173","addr":"경기도 용인시 처인구 모현읍 초부리 178-2번지 외1필지","indutype":"유통업 영리 - 기타유통업","category":"other"}]},{"lat":"37.331425583","long":"127.22314673","imageIndex":17,"items":[{"name":"동신패키지","tel":"031-323-3266","addr":"경기도 용인시 처인구 모현읍 매산리 367-3번지","indutype":"유통업 영리 - 기타유통업","category":"other"}]},{"lat":"37.334540985","long":"127.16276421","imageIndex":17,"items":[{"name":"동아종합가구","tel":"031-323-1511","addr":"경기도 용인시 처인구 모현읍 오산리 14-7번지","indutype":"가구 - 기타가구","category":"other"}]},{"lat":"37.325236795","long":"127.21758894","imageIndex":17,"items":[{"name":"동원분체산업","tel":"031-334-6194","addr":"경기도 용인시 처인구 모현읍 매산리 505번지","indutype":"주방용구 - 주방용구","category":"other"}]},{"lat":"37.339730932","long":"127.22423174","imageIndex":17,"items":[{"name":"동호금속","tel":"031-339-6074","addr":"경기도 용인시 처인구 모현읍 매산리 258-2","indutype":"건축자재 - 기타건축자재","category":"other"},{"name":"씨유용인매산점","tel":"031-239-3397","addr":"경기도 용인시 처인구 모현읍 매산리 258-2번지 미니스톱 1동 1층","indutype":"유통업 영리 - 편 의 점","category":"other"}]},{"lat":"37.328646594","long":"127.15021624","imageIndex":17,"items":[{"name":"두두가구","tel":"031-322-5914","addr":"경기도 용인시 처인구 모현읍 오산리 280-2번지","indutype":"수리서비스 - 신변잡화수리","category":"other"}]},{"lat":"37.338119745","long":"127.25067779","imageIndex":17,"items":[{"name":"두성인테리어","tel":"031-253-0058","addr":"경기도 용인시 처인구 모현읍 왕산리789-8","indutype":"건축자재 - 인테리어전문","category":"other"}]},{"lat":"37.329787445","long":"127.15989948","imageIndex":17,"items":[{"name":"드림라파(Dream Rapa)","tel":"070-4218-1743","addr":"경기도 용인시 처인구 모현읍 오산리 141-1번지 1층","indutype":"가구 - 일반가구","category":"other"}]},{"lat":"37.310649299","long":"127.25419733","imageIndex":17,"items":[{"name":"드림플러스","tel":"031-322-0473","addr":"경기도 용인시 처인구 모현읍 초부리360-1.360-2","indutype":"가구 - 기타가구","category":"other"}]},{"lat":"37.357340396","long":"127.23178952","imageIndex":17,"items":[{"name":"디어리빙","tel":"031-339-1357","addr":"경기도 용인시 처인구 모현읍 일산리 396-3번지","indutype":"주방용구 - 주방용식기","category":"other"}]},{"lat":"37.345400607","long":"127.25036315","imageIndex":17,"items":[{"name":"디자인잉크","tel":"031-332-2111","addr":"경기도 용인시 처인구 모현읍 왕산리 763-3번지","indutype":"용역 서비스 - 종합용역","category":"other"}]},{"lat":"37.33481535","long":"127.24956111","imageIndex":17,"items":[{"name":"따르릉","tel":"031-334-1508","addr":"경기도 용인시 처인구 모현읍 왕산리 812-1번지","indutype":"수리서비스 - 레져용품수리","category":"other"},{"name":"새로나문구","tel":"031-334-1139","addr":"경기도 용인시 처인구 모현읍 왕산리812-1","indutype":"서적문구 - 문구용품","category":"other"}]},{"lat":"37.308844181","long":"127.2426518","imageIndex":17,"items":[{"name":"라이더파크","tel":"","addr":"경기도 용인시 처인구 모현읍 초부리 435번지","indutype":"용역 서비스 - 보관및 창고업","category":"other"}]},{"lat":"37.333847941","long":"127.25114897","imageIndex":17,"items":[{"name":"라인스토리","tel":"031-761-5684","addr":"경기도 용인시 처인구 모현읍 왕산리 477-14번지 대명그린맨션 102호","indutype":"문화.취미 - 티켓","category":"other"}]},{"lat":"37.348874894","long":"127.22969847","imageIndex":17,"items":[{"name":"러브펫","tel":"031-526-7071","addr":"경기도 용인시 처인구 모현읍 일산리 503-10번지","indutype":"문화.취미 - 애완동물","category":"other"}]},{"lat":"37.313405866","long":"127.24140284","imageIndex":17,"items":[{"name":"로드 하우스","tel":"070-0000-0000","addr":"경기도 용인시 처인구 모현읍 초부리 75-25번지","indutype":"용역 서비스 - 기타용역서비스","category":"other"}]},{"lat":"37.331953365","long":"127.14276427","imageIndex":17,"items":[{"name":"로드힐골프샵","tel":"031-339-7437","addr":"경기도 용인시 처인구 모현읍 오산리 254-6번지 실외골프연습장내","indutype":"레져용품 - 골프용품 전문점","category":"other"}]},{"lat":"37.320124589","long":"127.25580832","imageIndex":17,"items":[{"name":"리버프린테크","tel":"031-334-3714","addr":"경기도 용인시 처인구 모현읍 갈담리 170-2 외1필지","indutype":"신변잡화 - 기타잡화","category":"other"}]},{"lat":"37.357400289","long":"127.23342637","imageIndex":17,"items":[{"name":"리이코리아(LEIGH KOREA)","tel":"031-8252-0988","addr":"경기도 용인시 처인구 모현읍 일산리 390-13번지 나동","indutype":"기타 - 기계공구","category":"other"}]},{"lat":"37.331676594","long":"127.19268201","imageIndex":17,"items":[{"name":"마가미술관","tel":"031-334-0365","addr":"경기도 용인시 처인구 모현읍 동림리 263","indutype":"문화.취미 - 티켓","category":"other"}]},{"lat":"37.324203313","long":"127.23978973","imageIndex":17,"items":[{"name":"마레아","tel":"031-323-4335","addr":"경기도 용인시 처인구 모현읍 갈담리553-1","indutype":"가구 - 일반가구","category":"other"}]},{"lat":"37.343511872","long":"127.17779265","imageIndex":17,"items":[{"name":"마리","tel":"031-322-1349","addr":"경기도 용인시 처인구 모현읍 능원리 16-1번지","indutype":"의류 - 정장","category":"other"}]},{"lat":"37.342371236","long":"127.18137867","imageIndex":17,"items":[{"name":"마벨피피","tel":"070-8840-2846","addr":"경기도 용인시 처인구 모현읍 동림리 36-21번지 정상캐슬 D동 502호","indutype":"문화.취미 - 애완동물","category":"other"}]},{"lat":"37.334314753","long":"127.1634859","imageIndex":17,"items":[{"name":"마블홀릭(MARBLEHOLIC)","tel":"","addr":"경기도 용인시 처인구 모현읍 오산리 14-13번지","indutype":"가구 - 기타가구","category":"other"},{"name":"씨엔트리(CNTREE)","tel":"031-337-1530","addr":"경기도 용인시 처인구 모현읍 오산리 14-13번지 1층","indutype":"가구 - 일반가구","category":"other"}]},{"lat":"37.356985182","long":"127.22909078","imageIndex":17,"items":[{"name":"마음교육","tel":"070-4137-1083","addr":"경기도 용인시 처인구 모현읍 일산리 411번지","indutype":"서적문구 - 기타서적문구","category":"other"},{"name":"마음교육","tel":"070-4137-1083","addr":"경기도 용인시 처인구 모현읍 일산리 411번지","indutype":"서적문구 - 기타서적문구","category":"other"},{"name":"조은교육사","tel":"031-284-0044","addr":"경기도 용인시 처인구 모현읍 일산리 411번지","indutype":"서적문구 - 기타서적문구","category":"other"}]},{"lat":"37.341014005","long":"127.18512204","imageIndex":17,"items":[{"name":"맛있는볼링","tel":"031-764-8401","addr":"경기도 용인시 처인구 모현읍 동림리 96-3번지 101호","indutype":"레져용품 - 스포츠·레져용품","category":"other"}]},{"lat":"37.341035472","long":"127.2252625","imageIndex":17,"items":[{"name":"매산공업사","tel":"031-332-7190","addr":"경기도 용인시 처인구 모현읍 매산리 252-16번지","indutype":"기타 - 기계공구","category":"other"}]},{"lat":"37.353677049","long":"127.22023201","imageIndex":17,"items":[{"name":"명성RC","tel":"031-0000-0000","addr":"경기도 용인시 처인구 모현읍 매산리 17-2번지","indutype":"의류 - 기타의류","category":"other"}]},{"lat":"37.343624368","long":"127.25095544","imageIndex":17,"items":[{"name":"명성종합건재","tel":"031-334-9015","addr":"경기도 용인시 처인구 모현읍 왕산리 572-37번지","indutype":"건축자재 - 기타건축자재","category":"other"}]},{"lat":"37.354040391","long":"127.24647497","imageIndex":17,"items":[{"name":"명승","tel":"031-333-2592","addr":"경기도 용인시 처인구 모현읍 왕산리 678-26번지","indutype":"가구 - 기타가구","category":"other"}]},{"lat":"37.340597874","long":"127.23265277","imageIndex":17,"items":[{"name":"명진테크","tel":"031-769-8625","addr":"경기도 용인시 처인구 모현읍 일산리 586-9","indutype":"건축자재 - 보일러·펌프·샷시","category":"other"}]},{"lat":"37.343454504","long":"127.18001571","imageIndex":17,"items":[{"name":"모던인테리어","tel":"031-332-0017","addr":"경기도 용인시 처인구 모현읍 동림리 48번지","indutype":"건축자재 - 인테리어전문","category":"other"}]},{"lat":"37.324095078","long":"127.2398458","imageIndex":17,"items":[{"name":"모던패키지","tel":"031-339-9856","addr":"경기도 용인시 처인구 모현읍 갈담리 553-2번지 1층사무실30평및창고10평","indutype":"용역 서비스 - 사무서비스","category":"other"}]},{"lat":"37.334210566","long":"127.25008948","imageIndex":17,"items":[{"name":"모어댄라봉","tel":"","addr":"경기도 용인시 처인구 모현읍 왕산리 808-4번지 303호","indutype":"신변잡화 - 기타잡화","category":"other"}]},{"lat":"37.33759716","long":"127.25067608","imageIndex":17,"items":[{"name":"모현꽃화원","tel":"031-334-8496","addr":"경기도 용인시 처인구 모현읍 왕산리 945-31번지 1층","indutype":"문화.취미 - 화원","category":"other"},{"name":"모현세탁소","tel":"031-333-9556","addr":"경기도 용인시 처인구 모현읍 왕산리945-31","indutype":"수리서비스 - 세탁소","category":"other"},{"name":"외대사","tel":"031-332-4605","addr":"경기도 용인시 처인구 모현읍 왕산리 945-31번지","indutype":"서적문구 - 출판 및 인쇄물","category":"other"}]},{"lat":"37.335456688","long":"127.24878461","imageIndex":17,"items":[{"name":"모현농협연쇄점","tel":"031-2-6515","addr":"경기도 용인시 처인구 모현읍 왕산리 815-2번지","indutype":"유통업 비영리 - 농,축협 직영매장","category":"other"}]},{"lat":"37.336734972","long":"127.2493417","imageIndex":17,"items":[{"name":"모현복권방및편의점","tel":"031-339-6749","addr":"경기도 용인시 처인구 모현읍 왕산리 801-14번지","indutype":"유통업 영리 - 편 의 점","category":"other"},{"name":"쌍용유통","tel":"031-514-4024","addr":"경기도 용인시 처인구 모현읍 왕산리 801-14번지 외 1필지 104호","indutype":"직물 - 침구·수예점","category":"other"}]},{"lat":"37.336041593","long":"127.24914761","imageIndex":17,"items":[{"name":"모현생활용품","tel":"031-333-0171","addr":"경기도 용인시 처인구 모현읍 802-13","indutype":"유통업 영리 - 기타유통업","category":"other"}]},{"lat":"37.334654906","long":"127.24872557","imageIndex":17,"items":[{"name":"모현열쇠","tel":"031-334-2005","addr":"경기도 용인시 처인구 모현읍 왕산리 420번지","indutype":"기타 - 기계공구","category":"other"}]},{"lat":"37.335735015","long":"127.24925945","imageIndex":17,"items":[{"name":"모현우체국","tel":"031-332-2454","addr":"경기도 용인시 처인구 모현읍 왕산리 803-6번지","indutype":"용역 서비스 - 공공요금대행서비스/소","category":"other"}]},{"lat":"37.334293516","long":"127.24919832","imageIndex":17,"items":[{"name":"모현전기","tel":"031-333-8102","addr":"경기도 용인시 처인구 모현읍 왕산리428-1","indutype":"건축자재 - 기타건축자재","category":"other"},{"name":"위드타일","tel":"031-335-8835","addr":"경기도 용인시 처인구 모현읍 왕산리 428-1번지 왕산태권도학원 1층 6호","indutype":"건축자재 - 건축용 요업제품","category":"other"}]},{"lat":"37.34437374","long":"127.25022435","imageIndex":17,"items":[{"name":"모현키친웨어","tel":"031-1111-1111","addr":"경기도 용인시 처인구 모현읍 왕산리 766-10번지","indutype":"주방용구 - 주방용구","category":"other"},{"name":"우진냉동","tel":"031-321-4249","addr":"경기도 용인시 처인구 모현읍 왕산리 766-10번지","indutype":"전기제품 - 냉열기기","category":"other"}]},{"lat":"37.32539938","long":"127.24536707","imageIndex":17,"items":[{"name":"무지개상사","tel":"031-334-0024","addr":"경기도 용인시 처인구 모현읍 갈담리329","indutype":"건축자재 - 페인트","category":"other"}]},{"lat":"37.336788809","long":"127.23611672","imageIndex":17,"items":[{"name":"문현냉열","tel":"","addr":"경기도 용인시 처인구 모현읍 일산리 214-1번지","indutype":"전기제품 - 냉열기기","category":"other"}]},{"lat":"37.33240184","long":"127.24897776","imageIndex":17,"items":[{"name":"미니스톱 모현센터점","tel":"031-1577-9621","addr":"경기도 용인시 처인구 모현읍 왕산리 465-1번지 101호 (모현읍 왕산리 465-1, 101호)","indutype":"유통업 영리 - 편 의 점","category":"other"},{"name":"샤넬크린","tel":"031-322-5447","addr":"경기도 용인시 처인구 모현읍 왕산리 465-1번지","indutype":"수리서비스 - 세탁소","category":"other"},{"name":"키즈팡팡","tel":"070-4229-7676","addr":"경기도 용인시 처인구 모현읍 왕산리 465-1번지 2층","indutype":"용역 서비스 - 사무서비스","category":"other"}]},{"lat":"37.335709135","long":"127.25300568","imageIndex":17,"items":[{"name":"미니스톱용인외대점","tel":"031-332-3967","addr":"경기도 용인시 처인구 모현읍 왕산리 499-2번지","indutype":"유통업 영리 - 편 의 점","category":"other"},{"name":"큐브스터디","tel":"070-8098-0420","addr":"경기도 용인시 처인구 모현읍 왕산리 499-2번지 2층 201호","indutype":"용역 서비스 - 사무서비스","category":"other"}]},{"lat":"37.33184093","long":"127.22267404","imageIndex":17,"items":[{"name":"미래와식량","tel":"031-333-2494","addr":"경기도 용인시 처인구 모현읍 매산리 382-4번지","indutype":"농업 - 비료,사료,종자","category":"other"}]},{"lat":"37.315101085","long":"127.2362302","imageIndex":17,"items":[{"name":"미솜창호","tel":"031-333-3412","addr":"경기도 용인시 처인구 모현읍 초부리 29-44","indutype":"건축자재 - 기타건축자재","category":"other"}]},{"lat":"37.340903841","long":"127.25069822","imageIndex":17,"items":[{"name":"민건하드웨어","tel":"031-322-5430","addr":"경기도 용인시 처인구 모현읍 왕산리 774-14번지 1층","indutype":"건축자재 - 기타건축자재","category":"other"}]},{"lat":"37.315956578","long":"127.25406834","imageIndex":17,"items":[{"name":"바오로침대","tel":"031-322-7856","addr":"경기도 용인시 처인구 모현읍 초부리 15번지","indutype":"가구 - 일반가구","category":"other"}]},{"lat":"37.312711444","long":"127.25475694","imageIndex":17,"items":[{"name":"백운산업","tel":"031-323-5134","addr":"경기도 용인시 처인구 모현읍 초부리 191","indutype":"신변잡화 - 기타잡화","category":"other"}]},{"lat":"37.326543503","long":"127.24544972","imageIndex":17,"items":[{"name":"백호상사","tel":"031-339-2736","addr":"경기도 용인시 처인구 모현읍 갈담리 326","indutype":"건축자재 - 기타건축자재","category":"other"}]},{"lat":"37.324065584","long":"127.17321206","imageIndex":17,"items":[{"name":"버드스나이퍼","tel":"","addr":"경기도 용인시 처인구 모현읍 능원리 408-6번지","indutype":"용역 서비스 - 종합용역","category":"other"}]},{"lat":"37.342540772","long":"127.17643618","imageIndex":17,"items":[{"name":"벽지바닥재직판점","tel":"031-339-7811","addr":"경기도 용인시 처인구 모현읍 능원리 15-20","indutype":"직물 - 카페트,커튼,천막,지물","category":"other"}]},{"lat":"37.324433554","long":"127.23728576","imageIndex":17,"items":[{"name":"보관서비스다락방","tel":"031-321-5706","addr":"경기도 용인시 처인구 모현읍 갈담리 545-1번지","indutype":"용역 서비스 - 보관및 창고업","category":"other"}]},{"lat":"37.342570407","long":"127.23300862","imageIndex":17,"items":[{"name":"보련기획","tel":"031-526-2201","addr":"경기도 용인시 처인구 모현읍 일산리 549-1번지","indutype":"신변잡화 - 기념품점","category":"other"}]},{"lat":"37.35253977","long":"127.24003675","imageIndex":17,"items":[{"name":"보림풍력닥트","tel":"031-339-0988","addr":"경기도 용인시 처인구 모현읍 일산리 586-3번지","indutype":"기타 - 기계공구","category":"other"}]},{"lat":"37.340761102","long":"127.19684641","imageIndex":17,"items":[{"name":"보원쇼파","tel":"031-321-6913","addr":"경기도 용인시 처인구 모현읍 동림리 133-1번지","indutype":"가구 - 일반가구","category":"other"}]},{"lat":"37.351393746","long":"127.22225699","imageIndex":17,"items":[{"name":"보일러아울렛","tel":"031-797-2077","addr":"경기도 용인시 처인구 모현읍 매산리 34번지","indutype":"건축자재 - 보일러·펌프·샷시","category":"other"}]},{"lat":"37.323348183","long":"127.24383737","imageIndex":17,"items":[{"name":"부광전기","tel":"031-8027-2123","addr":"경기도 용인시 처인구 모현읍 갈담리 332-10번지","indutype":"전기제품 - 기타전기제품","category":"other"},{"name":"호반낚시","tel":"031-333-5407","addr":"경기도 용인시 처인구 모현읍 갈담리332-10","indutype":"레져용품 - 스포츠·레져용품","category":"other"}]},{"lat":"37.342958236","long":"127.18048853","imageIndex":17,"items":[{"name":"뷰티퀸","tel":"070-2699-0807","addr":"경기도 용인시 처인구 모현읍 동림리 47-23번지 개나리빌라3차 나동 401호","indutype":"의류 - 내의판매","category":"other"},{"name":"총각네홈케어","tel":"","addr":"경기도 용인시 처인구 모현읍 동림리 47-23번지 개나리빌라3차 나동 302호","indutype":"용역 서비스 - 종합용역","category":"other"}]},{"lat":"37.341200126","long":"127.1751579","imageIndex":17,"items":[{"name":"블럭업플러스","tel":"031-322-7893","addr":"경기도 용인시 처인구 모현읍 능원리 25-5번지 23,24-3","indutype":"서적문구 - 기타서적문구","category":"other"}]},{"lat":"37.332737327","long":"127.22514777","imageIndex":17,"items":[{"name":"비비드디자인","tel":"031-322-7341","addr":"경기도 용인시 처인구 모현읍 매산리 362-7번지","indutype":"용역 서비스 - 종합용역","category":"other"}]},{"lat":"37.322482892","long":"127.23497814","imageIndex":17,"items":[{"name":"비전반석","tel":"031-334-3767","addr":"경기도 용인시 처인구 모현읍 갈담리 531-1번지 1층","indutype":"신변잡화 - 기념품점","category":"other"},{"name":"비전반석","tel":"031-334-3767","addr":"경기도 용인시 처인구 모현읍 갈담리531-1","indutype":"신변잡화 - 액세서리","category":"other"}]},{"lat":"37.33448244","long":"127.17245698","imageIndex":17,"items":[{"name":"비케이(BK)스포츠","tel":"031-333-9700","addr":"경기도 용인시 처인구 모현읍 능원리 269-4번지","indutype":"레져용품 - 스포츠·레져용품","category":"other"}]},{"lat":"37.337121088","long":"127.24997489","imageIndex":17,"items":[{"name":"빛스튜디오/부동산임대","tel":"031-333-1230","addr":"경기도 용인시 처인구 모현읍 왕산리 790-3번지","indutype":"광학제품 - 사진관","category":"other"},{"name":"외대통신","tel":"031-332-2719","addr":"경기도 용인시 처인구 모현읍 왕산리 790-3번지","indutype":"사무통신 - 통신기기","category":"other"}]},{"lat":"37.354207274","long":"127.22097847","imageIndex":17,"items":[{"name":"삼국지게차","tel":"031-767-1715","addr":"경기도 용인시 처인구 모현읍 매산리 14-3번지","indutype":"기타 - 기계공구","category":"other"}]},{"lat":"37.32228742","long":"127.23814781","imageIndex":17,"items":[{"name":"삼성하우젠에어컨","tel":"031-1588-3366","addr":"경기도 용인시 처인구 모현읍 갈담리 511 2/1","indutype":"수리서비스 - 가정용품수리","category":"other"}]},{"lat":"37.354561556","long":"127.22903836","imageIndex":17,"items":[{"name":"삼영포장","tel":"031-339-4353","addr":"경기도 용인시 처인구 모현읍 일산리 442-2","indutype":"유통업 영리 - 기타유통업","category":"other"}]},{"lat":"37.348008506","long":"127.22570064","imageIndex":17,"items":[{"name":"상도","tel":"031-339-9401","addr":"경기도 용인시 처인구 모현읍 매산리 73-2번지 나동","indutype":"가구 - 일반가구","category":"other"},{"name":"주식회사 제이앤케이","tel":"031-339-1114","addr":"경기도 용인시 처인구 모현읍 매산리73-2","indutype":"의류 - 정장","category":"other"}]},{"lat":"37.325624795","long":"127.24528881","imageIndex":17,"items":[{"name":"상우종합스포츠","tel":"070-7524-1804","addr":"경기도 용인시 처인구 모현읍 갈담리 328-2 329번지 106호","indutype":"레져용품 - 스포츠·레져용품","category":"other"},{"name":"중원","tel":"031-765-1607","addr":"경기도 용인시 처인구 모현읍 갈당리 328-2 외1필지","indutype":"건축자재 - 기타건축자재","category":"other"}]},{"lat":"37.350927011","long":"127.24883505","imageIndex":17,"items":[{"name":"상하종합상사","tel":"031-333-0984","addr":"경기도 용인시 처인구 모현읍 왕산리 718-1번지 1층 1호","indutype":"기타 - 기계공구","category":"other"}]},{"lat":"37.342674546","long":"127.17737316","imageIndex":17,"items":[{"name":"생활용품백화점","tel":"031-336-7888","addr":"경기도 용인시 처인구 모현읍 능원리 15-6번지","indutype":"신변잡화 - 기타잡화","category":"other"}]},{"lat":"37.350590653","long":"127.22289797","imageIndex":17,"items":[{"name":"서광퍼니처","tel":"031-337-3191","addr":"경기도 용인시 처인구 모현읍 매산리 42-1","indutype":"가구 - 일반가구","category":"other"}]},{"lat":"37.33737333","long":"127.24564252","imageIndex":17,"items":[{"name":"서울샷시유리","tel":"031-334-2683","addr":"경기도 용인시 처인구 모현읍 일산리 112-45","indutype":"건축자재 - 보일러·펌프·샷시","category":"other"}]},{"lat":"37.319153034","long":"127.24206405","imageIndex":17,"items":[{"name":"서해컨테이너","tel":"031-497-7088","addr":"경기도 용인시 처인구 모현읍 447-6번지","indutype":"건축자재 - 건축용 요업제품","category":"other"}]},{"lat":"37.349512124","long":"127.24897716","imageIndex":17,"items":[{"name":"선일정밀","tel":"031-323-3303","addr":"경기도 용인시 처인구 모현읍 왕산리 735-1번지 용인빌딩","indutype":"기타 - 기계공구","category":"other"},{"name":"코아 M.D.S","tel":"031-333-0544","addr":"경기도 용인시 처인구 모현읍 왕산리 735-1번지 용인빌딩 1층","indutype":"기타 - 기계공구","category":"other"}]},{"lat":"37.317316629","long":"127.24123469","imageIndex":17,"items":[{"name":"성경종합건재","tel":"031-334-8664","addr":"경기도 용인시 처인구 모현읍 갈담리 453-4번지","indutype":"건축자재 - 건축용 요업제품","category":"other"},{"name":"제일무역","tel":"031-332-2224","addr":"경기도 용인시 처인구 모현읍 갈담리 453-4번지","indutype":"가구 - 일반가구","category":"other"}]},{"lat":"37.341512213","long":"127.23042114","imageIndex":17,"items":[{"name":"성일판넬주식회사","tel":"031-334-5603","addr":"경기도 용인시 처인구 모현읍 일산리 559-2","indutype":"건축자재 - 기타건축자재","category":"other"}]},{"lat":"37.322681641","long":"127.24373371","imageIndex":17,"items":[{"name":"성호목재합판","tel":"031-765-3941","addr":"경기도 용인시 처인구 모현읍 갈담리 375-7번지","indutype":"건축자재 - 기타건축자재","category":"other"}]},{"lat":"37.337839837","long":"127.18679576","imageIndex":17,"items":[{"name":"세건","tel":"031-768-0318","addr":"경기도 용인시 처인구 모현읍 동림리81-5","indutype":"기타 - 기타 전문점","category":"other"}]},{"lat":"37.343206144","long":"127.17737439","imageIndex":17,"items":[{"name":"세광전기","tel":"031-321-9604","addr":"경기도 용인시 처인구 모현읍 능원리 16-11번지 1동 1층","indutype":"건축자재 - 조명기구","category":"other"}]},{"lat":"37.33970967","long":"127.24431845","imageIndex":17,"items":[{"name":"세명","tel":"031-0000-0000","addr":"경기도 용인시 처인구 모현읍 일산리 120-4번지","indutype":"건축자재 - 인테리어전문","category":"other"}]},{"lat":"37.310235952","long":"127.24056936","imageIndex":17,"items":[{"name":"세븐일레븐용인백옥대로점","tel":"031-1577-0711","addr":"경기도 용인시 처인구 모현읍 초부리 440-8번지","indutype":"유통업 영리 - 편 의 점","category":"other"}]},{"lat":"37.33198754","long":"127.24889742","imageIndex":17,"items":[{"name":"세븐일레븐용인풍산점","tel":"031-1577-0711","addr":"경기도 용인시 처인구 모현읍 왕산리 463-5번지","indutype":"유통업 영리 - 편 의 점","category":"other"}]},{"lat":"37.314096817","long":"127.25153524","imageIndex":17,"items":[{"name":"세븐일레븐용인휴양림점","tel":"","addr":"경기도 용인시 처인구 모현읍 초부리 146-4번지","indutype":"유통업 영리 - 편 의 점","category":"other"},{"name":"채운베스텍총판 서비스센타","tel":"031-335-3009","addr":"경기도 용인시 처인구 모현읍 초부리 146-4번지 두영빌딩 B동","indutype":"주방용구 - 주방용구","category":"other"}]},{"lat":"37.324765515","long":"127.25123191","imageIndex":17,"items":[{"name":"세원산업","tel":"031-333-7955","addr":"경기도 용인시 처인구 모현읍 왕산리 366-12번지","indutype":"가구 - 일반가구","category":"other"}]},{"lat":"37.34231613","long":"127.17601812","imageIndex":17,"items":[{"name":"세이브COST","tel":"031-335-5505","addr":"경기도 용인시 처인구 모현읍 능원리 15-4번지","indutype":"신변잡화 - 기타잡화","category":"other"}]},{"lat":"37.305733475","long":"127.23925803","imageIndex":17,"items":[{"name":"세진공조덕트","tel":"031-323-4783","addr":"경기도 용인시 처인구 모현읍 초부리 504-1번지","indutype":"건축자재 - 보일러·펌프·샷시","category":"other"}]},{"lat":"37.342926247","long":"127.17776872","imageIndex":17,"items":[{"name":"솔기기획","tel":"031-706-1791","addr":"경기도 용인시 처인구 모현읍 능원리15-3","indutype":"용역 서비스 - 종합용역","category":"other"}]},{"lat":"37.314565528","long":"127.26400221","imageIndex":17,"items":[{"name":"송골매패러글라이딩","tel":"031-321-3005","addr":"경기도 용인시 처인구 모현읍 초부리 306-1","indutype":"레져용품 - 스포츠·레져용품","category":"other"}]},{"lat":"37.338236097","long":"127.16862869","imageIndex":17,"items":[{"name":"송림석재산업(주)","tel":"031-339-7090","addr":"경기도 용인시 처인구 모현읍 능원리 137-15번지","indutype":"건축자재 - 건축용 요업제품","category":"other"}]},{"lat":"37.326292669","long":"127.23575708","imageIndex":17,"items":[{"name":"송산스폰지","tel":"031-323-2443","addr":"경기도 용인시 처인구 모현읍 갈담리 576-3","indutype":"신변잡화 - 기타잡화","category":"other"}]},{"lat":"37.31482182","long":"127.24073045","imageIndex":17,"items":[{"name":"수성모타펌프","tel":"031-333-7274","addr":"경기도 용인시 처인구 모현읍 초부리 67-7","indutype":"수리서비스 - 기타수리서비스","category":"other"}]},{"lat":"37.340339995","long":"127.18398065","imageIndex":17,"items":[{"name":"수초나라","tel":"031-287-9862","addr":"경기도 용인시 처인구 모현읍 동림리 80","indutype":"문화.취미 - 수족관","category":"other"}]},{"lat":"37.331478692","long":"127.18087899","imageIndex":17,"items":[{"name":"스며들다","tel":"","addr":"경기도 용인시 처인구 모현읍 능원리 360-20번지","indutype":"문화.취미 - 문화취미기타","category":"other"}]},{"lat":"37.330373359","long":"127.17276368","imageIndex":17,"items":[{"name":"스카이","tel":"031-322-6481","addr":"경기도 용인시 처인구 모현읍 능원리 351-10번지","indutype":"가구 - 일반가구","category":"other"}]},{"lat":"37.314431382","long":"127.2594217","imageIndex":17,"items":[{"name":"스카이패러글라이딩스포츠","tel":"031-333-0582","addr":"경기도 용인시 처인구 모현읍 초부리211-6","indutype":"레져용품 - 스포츠·레져용품","category":"other"}]},{"lat":"37.347318076","long":"127.25117073","imageIndex":17,"items":[{"name":"스타드림","tel":"070-8972-7503","addr":"경기도 용인시 처인구 모현읍 왕산리 743-5번지 삼우빌딩 102호","indutype":"직물 - 침구·수예점","category":"other"},{"name":"이씨에스","tel":"031-328-2726","addr":"경기도 용인시 처인구 모현읍 왕산리 743-5번지 삼우빌딩 우측부분호 1동 102층","indutype":"기타 - 기계공구","category":"other"}]},{"lat":"37.32434785","long":"127.21589405","imageIndex":17,"items":[{"name":"승리산업","tel":"02-566-2523","addr":"경기도 용인시 처인구 모현읍 매산리 463-1번지","indutype":"가구 - 일반가구","category":"other"}]},{"lat":"37.329151549","long":"127.22015007","imageIndex":17,"items":[{"name":"시엔(CN)테크","tel":"031-322-8878","addr":"경기도 용인시 처인구 모현읍 매산리 585-4번지","indutype":"주방용구 - 주방용구","category":"other"},{"name":"원일그릇","tel":"031-339-3781","addr":"경기도 용인시 처인구 모현읍 매산리 585-4번지 1층","indutype":"주방용구 - 주방용식기","category":"other"}]},{"lat":"37.350346381","long":"127.25500676","imageIndex":17,"items":[{"name":"신성","tel":"031-366-0343","addr":"경기도 용인시 처인구 모현읍 왕산리 657-5번지","indutype":"건축자재 - 기타건축자재","category":"other"}]},{"lat":"37.330371578","long":"127.14693617","imageIndex":17,"items":[{"name":"신안창호","tel":"031-266-0425","addr":"경기도 용인시 처인구 모현읍 오산리248-2","indutype":"건축자재 - 유리","category":"other"}]},{"lat":"37.343619246","long":"127.22639865","imageIndex":17,"items":[{"name":"신용누수방수전문","tel":"031-332-1865","addr":"경기도 용인시 처인구 모현읍 매산리 207-2번지 우신부동산 2층 1호","indutype":"용역 서비스 - 기타용역서비스","category":"other"}]},{"lat":"37.347868893","long":"127.2590614","imageIndex":17,"items":[{"name":"신일공업사","tel":"031-335-3484","addr":"경기도 용인시 처인구 모현읍 왕산리 27번지","indutype":"기타 - 기계공구","category":"other"}]},{"lat":"37.313295899","long":"127.24231623","imageIndex":17,"items":[{"name":"신일벤딩산업","tel":"031-323-4795","addr":"경기도 용인시 처인구 모현읍 초부리 75-1","indutype":"건축자재 - 기타건축자재","category":"other"}]},{"lat":"37.340148321","long":"127.19690126","imageIndex":17,"items":[{"name":"신화퍼니처","tel":"031-323-4709","addr":"경기도 용인시 처인구 모현읍 동림리138","indutype":"가구 - 일반가구","category":"other"}]},{"lat":"37.320731847","long":"127.15323562","imageIndex":17,"items":[{"name":"실비아 꽃농원","tel":"031-333-8431","addr":"경기도 용인시 처인구 모현읍 오산리 298-3번지","indutype":"문화.취미 - 화원","category":"other"}]},{"lat":"37.336097737","long":"127.25245405","imageIndex":17,"items":[{"name":"심부름센터","tel":"031-333-1176","addr":"경기도 용인시 처인구 모현읍 왕산리 507-4번지","indutype":"용역 서비스 - 기타용역서비스","category":"other"}]},{"lat":"37.334927485","long":"127.16996422","imageIndex":17,"items":[{"name":"심지","tel":"02-577-1808","addr":"경기도 용인시 처인구 모현읍 능원리 288","indutype":"신변잡화 - 기타잡화","category":"other"}]},{"lat":"37.337291088","long":"127.16787057","imageIndex":17,"items":[{"name":"심지상사","tel":"031-0000-0000","addr":"경기도 용인시 처인구 모현읍 능원리 140-4번지 1동","indutype":"신변잡화 - 기타잡화","category":"other"},{"name":"제이엔제이 테크","tel":"031-323-0904","addr":"경기도 용인시 처인구 모현읍 능원리 140-4번지","indutype":"건축자재 - 인테리어전문","category":"other"},{"name":"화룡상회","tel":"031-333-3252","addr":"경기도 용인시 처인구 모현읍 능원리 140-4번지 1층","indutype":"신변잡화 - 기타잡화","category":"other"}]},{"lat":"37.341788126","long":"127.19692804","imageIndex":17,"items":[{"name":"썬문에너지주식회사 (SUNMOON ENERGY Co. L","tel":"031-0000-0000","addr":"경기도 용인시 처인구 모현읍 동림리 124번지","indutype":"전기제품 - 가전제품","category":"other"}]},{"lat":"37.320432485","long":"127.24647929","imageIndex":17,"items":[{"name":"쏠라-에너지","tel":"031-323-3987","addr":"경기도 용인시 처인구 모현읍 갈담리 230-3번지","indutype":"건축자재 - 기타건축자재","category":"other"},{"name":"퍼펙트시스템","tel":"031-773-2489","addr":"경기도 용인시 처인구 모현읍 갈담리 230-3번지 원체","indutype":"용역 서비스 - 기타용역서비스","category":"other"}]},{"lat":"37.337118471","long":"127.24689426","imageIndex":17,"items":[{"name":"씨유모현스마일점","tel":"031-898-6567","addr":"경기도 용인시 처인구 모현읍 일산리 112-67번지 107,108호","indutype":"유통업 영리 - 편 의 점","category":"other"},{"name":"캐비넷","tel":"031-000-0000","addr":"경기도 용인시 처인구 모현읍 일산리 112-67번지 모현오페라음악학원 105호","indutype":"의류 - 정장","category":"other"}]},{"lat":"37.304262741","long":"127.23575682","imageIndex":17,"items":[{"name":"씨유모현초부점","tel":"031-239-6697","addr":"경기도 용인시 처인구 모현읍 초부리 808-16번지","indutype":"유통업 영리 - 편 의 점","category":"other"}]},{"lat":"37.335510029","long":"127.25342253","imageIndex":17,"items":[{"name":"씨유외대글로벌점","tel":"031-333-1775","addr":"경기도 용인시 처인구 모현읍 왕산리 497-4번지","indutype":"유통업 영리 - 편 의 점","category":"other"}]},{"lat":"37.335984045","long":"127.25081747","imageIndex":17,"items":[{"name":"씨유용인레이케슬점","tel":"031-898-6566","addr":"경기도 용인시 처인구 모현읍 왕산리 794-15번지 1층","indutype":"유통업 영리 - 편 의 점","category":"other"}]},{"lat":"37.340505374","long":"127.17582212","imageIndex":17,"items":[{"name":"씨유용인포은점","tel":"031-338-0645","addr":"경기도 용인시 처인구 모현읍 능원리 182-2번지","indutype":"유통업 영리 - 편 의 점","category":"other"}]},{"lat":"37.313068577","long":"127.24773025","imageIndex":17,"items":[{"name":"씨유용인휴양림점","tel":"031-239-6695","addr":"경기도 용인시 처인구 모현읍 초부리 115-2번지 현대맨션 1층","indutype":"유통업 영리 - 편 의 점","category":"other"}]},{"lat":"37.339148745","long":"127.23648513","imageIndex":17,"items":[{"name":"씨이오디자인","tel":"031-322-7923","addr":"경기도 용인시 처인구 모현읍 일산리 241번지","indutype":"가구 - 일반가구","category":"other"},{"name":"예림우드","tel":"031-323-6588","addr":"경기도 용인시 처인구 모현읍 일산리 241번지","indutype":"건축자재 - 기타건축자재","category":"other"}]},{"lat":"37.349705644","long":"127.22397887","imageIndex":17,"items":[{"name":"씨케이우드(CKwood)","tel":"031-767-5009","addr":"경기도 용인시 처인구 모현읍 매산리 44-1번지","indutype":"가구 - 일반가구","category":"other"}]},{"lat":"37.325431884","long":"127.25566815","imageIndex":17,"items":[{"name":"아름공예사","tel":"031-339-1887","addr":"경기도 용인시 처인구 모현읍 왕산리 334","indutype":"문화.취미 - 민예·공예품","category":"other"}]},{"lat":"37.331984569","long":"127.24597497","imageIndex":17,"items":[{"name":"아셀꽃샵","tel":"031-339-7761","addr":"경기도 용인시 처인구 모현읍 왕산리 846번지","indutype":"문화.취미 - 화원","category":"other"}]},{"lat":"37.331569336","long":"127.15462251","imageIndex":17,"items":[{"name":"아이니무역","tel":"031-321-0950","addr":"경기도 용인시 처인구 모현읍 오산리 199-1번지 199-2호","indutype":"가구 - 철제가구","category":"other"}]},{"lat":"37.331988009","long":"127.24867175","imageIndex":17,"items":[{"name":"아이사랑 베베토피아","tel":"","addr":"경기도 용인시 처인구 모현읍 왕산리 463번지 103호","indutype":"용역 서비스 - 종합용역","category":"other"}]},{"lat":"37.344734161","long":"127.24586935","imageIndex":17,"items":[{"name":"아이솔루션","tel":"","addr":"경기도 용인시 처인구 모현읍 일산리 99-27번지","indutype":"신변잡화 - 기타잡화","category":"other"}]},{"lat":"37.31670394","long":"127.24123276","imageIndex":17,"items":[{"name":"아이원","tel":"070-8873-1775","addr":"경기도 용인시 처인구 모현읍 갈담리 455-15번지","indutype":"유통업 영리 - 기타유통업","category":"other"}]},{"lat":"37.335979352","long":"127.1651595","imageIndex":17,"items":[{"name":"아이콘가구","tel":"031-339-6757","addr":"경기도 용인시 처인구 모현읍 능원리 314-14번지 1층","indutype":"가구 - 일반가구","category":"other"}]},{"lat":"37.314763468","long":"127.25583548","imageIndex":17,"items":[{"name":"아임해피","tel":"031-337-0108","addr":"경기도 용인시 처인구 모현읍 초부리 158-1번지","indutype":"문화.취미 - 민예·공예품","category":"other"}]},{"lat":"37.312793472","long":"127.24125425","imageIndex":17,"items":[{"name":"아트704","tel":"031-323-0704","addr":"경기도 용인시 처인구 모현읍 초부리 75-10번지 1층","indutype":"건축자재 - 페인트","category":"other"}]},{"lat":"37.313768575","long":"127.25337293","imageIndex":17,"items":[{"name":"아트디자인창호","tel":"02-1577-5086","addr":"경기도 용인시 처인구 모현읍 초부리 179번지 1층","indutype":"건축자재 - 보일러·펌프·샷시","category":"other"}]},{"lat":"37.321517163","long":"127.25345505","imageIndex":17,"items":[{"name":"아파치코리아","tel":"02-575-0074","addr":"경기도 용인시 처인구 모현읍 갈담리 129-4번지","indutype":"직물 - 카페트,커튼,천막,지물","category":"other"}]},{"lat":"37.350116831","long":"127.24848254","imageIndex":17,"items":[{"name":"알뜰쇼핑","tel":"031-323-4766","addr":"경기도 용인시 처인구 모현읍 왕산리 727-5번지","indutype":"전기제품 - 가전제품","category":"other"}]},{"lat":"37.337457076","long":"127.24434509","imageIndex":17,"items":[{"name":"알로하빈티지","tel":"031-1111-1111","addr":"경기도 용인시 처인구 모현읍 일산리 112-140번지 대은교회 101호","indutype":"의류 - 정장","category":"other"},{"name":"앵글철물","tel":"031-334-9812","addr":"경기도 용인시 처인구 모현읍 일산리 112-140번지 대은교회 A동 103호","indutype":"건축자재 - 목재·석재·철물","category":"other"},{"name":"일현철물공구","tel":"031-334-9812","addr":"경기도 용인시 처인구 모현읍 일산리 112-140번지 대은교회 A동 104호","indutype":"기타 - 기계공구","category":"other"}]},{"lat":"37.304623192","long":"127.23573537","imageIndex":17,"items":[{"name":"알테크","tel":"031-323-4272","addr":"경기도 용인시 처인구 모현읍 초부리808-1,11","indutype":"건축자재 - 보일러·펌프·샷시","category":"other"}]},{"lat":"37.323482613","long":"127.21603828","imageIndex":17,"items":[{"name":"알파도어 에이스","tel":"070-7783-9919","addr":"경기도 용인시 처인구 모현읍 매산리 498-2번지","indutype":"건축자재 - 인테리어전문","category":"other"}]},{"lat":"37.342038446","long":"127.17490026","imageIndex":17,"items":[{"name":"애니스토리","tel":"070-7796-7764","addr":"경기도 용인시 처인구 모현읍 능원리 36-1번지","indutype":"의류 - 정장","category":"other"},{"name":"츄츄다","tel":"02-6340-5385","addr":"경기도 용인시 처인구 모현읍 능원리 36-1번지","indutype":"의류 - 정장","category":"other"}]},{"lat":"37.352145317","long":"127.23448252","imageIndex":17,"items":[{"name":"애스앤지엔터프라이즈","tel":"070-7590-4625","addr":"경기도 용인시 처인구 모현읍 일산리 338번지","indutype":"의류 - 정장","category":"other"}]},{"lat":"37.331648553","long":"127.18762693","imageIndex":17,"items":[{"name":"앨리하우스","tel":"031-716-6990","addr":"경기도 용인시 처인구 모현읍 동림리 307-1번지","indutype":"가구 - 일반가구","category":"other"}]},{"lat":"37.344116907","long":"127.22528287","imageIndex":17,"items":[{"name":"야초돌전기","tel":"031-333-5582","addr":"경기도 용인시 처인구 모현읍 매산리208-1","indutype":"기타 - 기타 전문점","category":"other"}]},{"lat":"37.325292315","long":"127.15917933","imageIndex":17,"items":[{"name":"양지요양원","tel":"031-334-6084","addr":"경기도 용인시 처인구 모현읍 오산리 104-6번지","indutype":"기타의료기관 - 기타의료기관 및 기타","category":"other"}]},{"lat":"37.349375119","long":"127.24551186","imageIndex":17,"items":[{"name":"에스디 퍼니쳐(SD FURNITURE)","tel":"031-321-3249","addr":"경기도 용인시 처인구 모현읍 일산리 33-2번지 제나동","indutype":"가구 - 일반가구","category":"other"}]},{"lat":"37.338178215","long":"127.19498911","imageIndex":17,"items":[{"name":"에스와이(SY)건설","tel":"","addr":"경기도 용인시 처인구 모현읍 동림리 150번지 4층 402호","indutype":"용역 서비스 - 기타용역서비스","category":"other"}]},{"lat":"37.318457313","long":"127.24742057","imageIndex":17,"items":[{"name":"에스와이컴패니","tel":"031-339-7880","addr":"경기도 용인시 처인구 모현읍 갈담리 219-13번지","indutype":"레져용품 - 스포츠·레져용품","category":"other"}]},{"lat":"37.342840016","long":"127.25117856","imageIndex":17,"items":[{"name":"에어컨114","tel":"070-8990-5232","addr":"경기도 용인시 처인구 모현읍 왕산리 572-62번지 효진빌라2차 5동 402호","indutype":"용역 서비스 - 기타용역서비스","category":"other"}]},{"lat":"37.346008117","long":"127.24414675","imageIndex":17,"items":[{"name":"에어텍","tel":"031-762-5581","addr":"경기도 용인시 처인구 모현읍 일산리 47-25번지","indutype":"전기제품 - 기타전기제품","category":"other"},{"name":"주식회사 사인팟","tel":"031-322-8410","addr":"경기도 용인시 처인구 모현읍 일산리 47-25번지","indutype":"건축자재 - 인테리어전문","category":"other"}]},{"lat":"37.329763476","long":"127.15757509","imageIndex":17,"items":[{"name":"에이블골프아카데미","tel":"031-333-5200","addr":"경기도 용인시 처인구 모현읍 오산리 138","indutype":"회원제형태 - 레져업소","category":"other"},{"name":"주식회사삼정레저","tel":"031-333-5200","addr":"경기도 용인시 처인구 모현읍 오산리138/","indutype":"회원제형태 - 레져업소","category":"other"}]},{"lat":"37.322122729","long":"127.24825603","imageIndex":17,"items":[{"name":"에이스코리아","tel":"031-333-1883","addr":"경기도 용인시 처인구 모현읍 갈담리 262-2번지","indutype":"건축자재 - 기타건축자재","category":"other"}]},{"lat":"37.324398651","long":"127.2500122","imageIndex":17,"items":[{"name":"에이피에스테크","tel":"031-333-5661","addr":"경기도 용인시 처인구 모현읍 왕산리 363-3번지 외2필지","indutype":"주방용구 - 정수기","category":"other"},{"name":"우진에스피(주)","tel":"031-322-0058","addr":"경기도 용인시 처인구 모현읍 왕산리 363-3번지 가동","indutype":"용역 서비스 - 기타용역서비스","category":"other"}]},{"lat":"37.322485739","long":"127.15565349","imageIndex":17,"items":[{"name":"에프에프시스템","tel":"070-4045-5918","addr":"경기도 용인시 처인구 모현읍 오산리 74","indutype":"기타 - 기계공구","category":"other"}]},{"lat":"37.341505878","long":"127.17556486","imageIndex":17,"items":[{"name":"엔씨통신 미금점","tel":"070-4205-2923","addr":"경기도 용인시 처인구 모현읍 능원리 24번지 현대빌딩 1층 102호","indutype":"사무통신 - 통신기기","category":"other"}]},{"lat":"37.341897676","long":"127.22673209","imageIndex":17,"items":[{"name":"엘리시아가구","tel":"031-334-5887","addr":"경기도 용인시 처인구 모현읍 매산리 201-9번지","indutype":"가구 - 일반가구","category":"other"},{"name":"헬로우드(Hellowood)","tel":"031-765-4199","addr":"경기도 용인시 처인구 모현읍 매산리 201-9번지 가동","indutype":"가구 - 일반가구","category":"other"}]},{"lat":"37.346761661","long":"127.19139953","imageIndex":17,"items":[{"name":"엘린데코공방","tel":"031-338-9934","addr":"경기도 용인시 처인구 모현읍 동림리 2-2번지 외3필지","indutype":"가구 - 일반가구","category":"other"}]},{"lat":"37.338038709","long":"127.24631045","imageIndex":17,"items":[{"name":"엘림기획","tel":"031-322-0371","addr":"경기도 용인시 처인구 모현읍 일산리 114-4","indutype":"서적문구 - 출판 및 인쇄물","category":"other"}]},{"lat":"37.345624192","long":"127.22867299","imageIndex":17,"items":[{"name":"엠에스텍","tel":"031-778-5211","addr":"경기도 용인시 처인구 모현읍 매산리 100-3번지","indutype":"전기제품 - 기타전기제품","category":"other"}]},{"lat":"37.340872456","long":"127.24408519","imageIndex":17,"items":[{"name":"영덕사","tel":"031-762-0898","addr":"경기도 용인시 처인구 모현읍 일산리78-4","indutype":"회원제형태 - 기타4","category":"other"}]},{"lat":"37.317956161","long":"127.24576057","imageIndex":17,"items":[{"name":"영일산업","tel":"031-336-6223","addr":"경기도 용인시 처인구 모현읍 갈담리 217-1번지 가동","indutype":"건축자재 - 보일러·펌프·샷시","category":"other"}]},{"lat":"37.335759021","long":"127.18645216","imageIndex":17,"items":[{"name":"영일정씨포은공파종약원","tel":"02-925-1523","addr":"경기도 용인시 처인구 모현읍 동림리 71-4번지 산7-1,8,9-1,21","indutype":"용역 서비스 - 부동산 중개·임대","category":"other"}]},{"lat":"37.358371243","long":"127.22987378","imageIndex":17,"items":[{"name":"영재퍼니처","tel":"031-258-4144","addr":"경기도 용인시 처인구 모현읍 일산리 408-7","indutype":"가구 - 기타가구","category":"other"}]},{"lat":"37.335174989","long":"127.22251449","imageIndex":17,"items":[{"name":"영진재활용","tel":"031-337-3790","addr":"경기도 용인시 처인구 모현읍 매산리 328-6","indutype":"신변잡화 - 기타잡화","category":"other"}]},{"lat":"37.347067938","long":"127.25442022","imageIndex":17,"items":[{"name":"예성상사","tel":"070-4845-2601","addr":"경기도 용인시 처인구 모현읍 왕산리 604-2번지 성림주택 103호","indutype":"전기제품 - 기타전기제품","category":"other"}]},{"lat":"37.341763889","long":"127.22600946","imageIndex":17,"items":[{"name":"예원도서","tel":"031-323-4911","addr":"경기도 용인시 처인구 모현읍 매산리 198-3번지 외2필지","indutype":"회원제형태 - 서적","category":"other"}]},{"lat":"37.333202481","long":"127.17281519","imageIndex":17,"items":[{"name":"예촌","tel":"031-333-3377","addr":"경기도 용인시 처인구 모현읍 능원리334-1","indutype":"문화.취미 - 민예·공예품","category":"other"}]},{"lat":"37.344425541","long":"127.24697433","imageIndex":17,"items":[{"name":"오렌지중고가전","tel":"070-7420-9393","addr":"경기도 용인시 처인구 모현읍 일산리 99-25번지","indutype":"전기제품 - 가전제품","category":"other"},{"name":"주식회사 클라넷(Clanet Inc.)","tel":"031-323-1240","addr":"경기도 용인시 처인구 모현읍 일산리 99-25번지","indutype":"전기제품 - 기타전기제품","category":"other"}]},{"lat":"37.327016797","long":"127.2340669","imageIndex":17,"items":[{"name":"오름환경주식회사","tel":"031-339-7380","addr":"경기도 용인시 처인구 모현읍 갈담리 617-1번지 나동","indutype":"용역 서비스 - 기타용역서비스","category":"other"}]},{"lat":"37.328317631","long":"127.17374067","imageIndex":17,"items":[{"name":"오바사가구","tel":"031-711-7710","addr":"경기도 용인시 처인구 모현읍 능원리 366-1번지","indutype":"가구 - 일반가구","category":"other"}]},{"lat":"37.352506603","long":"127.23403217","imageIndex":17,"items":[{"name":"오케이애드","tel":"031-323-2987","addr":"경기도 용인시 처인구 모현읍 일산리 486-2번지 가동","indutype":"용역 서비스 - 종합용역","category":"other"}]},{"lat":"37.342395847","long":"127.17695496","imageIndex":17,"items":[{"name":"오포기업","tel":"031-334-7731","addr":"경기도 용인시 처인구 모현읍 능원리 15-17번지","indutype":"건축자재 - 페인트","category":"other"}]},{"lat":"37.342675642","long":"127.17662834","imageIndex":17,"items":[{"name":"오포종합건재","tel":"031-766-4787","addr":"경기도 용인시 처인구 모현읍 능원리 15-21번지","indutype":"건축자재 - 목재·석재·철물","category":"other"},{"name":"조양 켐","tel":"","addr":"경기도 용인시 처인구 모현읍 능원리 15-21번지","indutype":"유통업 영리 - 기타유통업","category":"other"}]},{"lat":"37.335209471","long":"127.19212669","imageIndex":17,"items":[{"name":"오홀리압인테리어","tel":"031-334-4166","addr":"경기도 용인시 처인구 모현읍 동림리 241-3번지","indutype":"회원제형태 - 기타4","category":"other"}]},{"lat":"37.303206793","long":"127.24995413","imageIndex":17,"items":[{"name":"옷방닷컴","tel":"031-338-9934","addr":"경기도 용인시 처인구 모현읍 초부리 757-1번지","indutype":"가구 - 일반가구","category":"other"},{"name":"코이어월드","tel":"070-8170-5838","addr":"경기도 용인시 처인구 모현읍 초부리 757-1번지","indutype":"건축자재 - 기타건축자재","category":"other"}]},{"lat":"37.339152805","long":"127.23897904","imageIndex":17,"items":[{"name":"왕산원예조경","tel":"031-322-1100","addr":"경기도 용인시 처인구 모현읍 일산리 235-32번지","indutype":"문화.취미 - 화원","category":"other"}]},{"lat":"37.337760168","long":"127.25028166","imageIndex":17,"items":[{"name":"왕산페인트","tel":"031-339-1817","addr":"경기도 용인시 처인구 모현읍 왕산리 945-27번지","indutype":"건축자재 - 페인트","category":"other"}]},{"lat":"37.331869445","long":"127.18462605","imageIndex":17,"items":[{"name":"용은유통","tel":"031-256-1886","addr":"경기도 용인시 처인구 모현읍 동림리 289번지 2층","indutype":"신변잡화 - 기타잡화","category":"other"}]},{"lat":"37.331673748","long":"127.15748874","imageIndex":17,"items":[{"name":"용인did","tel":"031-241-8979","addr":"경기도 용인시 처인구 모현읍 오산리 165-1","indutype":"직물 - 카페트,커튼,천막,지물","category":"other"}]},{"lat":"37.330762813","long":"127.1511569","imageIndex":17,"items":[{"name":"용인시캣맘협의회","tel":"070-4127-7105","addr":"경기도 용인시 처인구 모현읍 오산리 193-28번지","indutype":"기타 - 비영리/대상","category":"other"}]},{"lat":"37.335035672","long":"127.16340845","imageIndex":17,"items":[{"name":"용인전자","tel":"031-334-0420","addr":"경기도 용인시 처인구 모현읍 능원리 319-1번지","indutype":"수리서비스 - 가정용품수리","category":"other"}]},{"lat":"37.337985656","long":"127.25016955","imageIndex":17,"items":[{"name":"용전사","tel":"031-333-8606","addr":"경기도 용인시 처인구 모현읍 왕산리945-23","indutype":"전기제품 - 가전제품","category":"other"},{"name":"제일농산","tel":"031-334-5656","addr":"경기도 용인시 처인구 모현읍 왕산리 945-23번지","indutype":"농업 - 비료,사료,종자","category":"other"}]},{"lat":"37.354311877","long":"127.24590022","imageIndex":17,"items":[{"name":"우기케미칼","tel":"031-334-6181","addr":"경기도 용인시 처인구 모현읍 왕산리 679-1번지 미광빌딩","indutype":"건축자재 - 기타건축자재","category":"other"}]},{"lat":"37.338840928","long":"127.23722896","imageIndex":17,"items":[{"name":"우드케어","tel":"031-323-2285","addr":"경기도 용인시 처인구 모현읍 일산리 239-13번지","indutype":"건축자재 - 페인트","category":"other"}]},{"lat":"37.312712572","long":"127.25422676","imageIndex":17,"items":[{"name":"우리들팩토리","tel":"031-337-3641","addr":"경기도 용인시 처인구 모현읍 초부리 189-1번지","indutype":"기타 - 기계공구","category":"other"}]},{"lat":"37.313621449","long":"127.24173066","imageIndex":17,"items":[{"name":"우리상사","tel":"031-338-9912","addr":"경기도 용인시 처인구 모현읍 초부리 75-2,75-23","indutype":"기타 - 기타 전문점","category":"other"},{"name":"주식회사 와이엠퍼니처","tel":"031-332-9808","addr":"경기도 용인시 처인구 모현읍 초부리 75-2번지 가동","indutype":"건축자재 - 인테리어전문","category":"other"}]},{"lat":"37.339427309","long":"127.16728844","imageIndex":17,"items":[{"name":"우리싸인채널","tel":"031-338-3003","addr":"경기도 용인시 처인구 모현읍 능원리 100-1번지","indutype":"건축자재 - 인테리어전문","category":"other"}]},{"lat":"37.333843293","long":"127.24906144","imageIndex":17,"items":[{"name":"우리인테리어","tel":"031-332-8298","addr":"경기도 용인시 처인구 모현읍 왕산리 428-4번지 외 1필지","indutype":"건축자재 - 인테리어전문","category":"other"}]},{"lat":"37.333181422","long":"127.22376118","imageIndex":17,"items":[{"name":"우림","tel":"031-339-8520","addr":"경기도 용인시 처인구 모현읍 매산리 361-1","indutype":"신변잡화 - 기타잡화","category":"other"},{"name":"제이비(JB)퍼니처","tel":"02-546-7535","addr":"경기도 용인시 처인구 모현읍 매산리 361-1번지 명신산업 나동","indutype":"가구 - 기타가구","category":"other"}]},{"lat":"37.353901886","long":"127.2204584","imageIndex":17,"items":[{"name":"운형궁","tel":"031-768-1280","addr":"경기도 용인시 처인구 모현읍 매산리 15-1번지","indutype":"문화.취미 - 민예·공예품","category":"other"}]},{"lat":"37.331483847","long":"127.14359838","imageIndex":17,"items":[{"name":"움갤러리주식회사","tel":"031-323-5118","addr":"경기도 용인시 처인구 모현읍 오산리 253-7번지 래시음 102동 B01호","indutype":"문화.취미 - 화랑","category":"other"}]},{"lat":"37.326704617","long":"127.17387242","imageIndex":17,"items":[{"name":"원아트(wonArt)","tel":"031-333-5518","addr":"경기도 용인시 처인구 모현읍 능원리 379 7/2","indutype":"문화.취미 - 화방·표구점","category":"other"}]},{"lat":"37.34190273","long":"127.25128833","imageIndex":17,"items":[{"name":"월드그린","tel":"031-337-1235","addr":"경기도 용인시 처인구 모현읍 왕산리 572-60번지 효진빌라2차 102호","indutype":"용역 서비스 - 종합용역","category":"other"}]},{"lat":"37.352260192","long":"127.23100661","imageIndex":17,"items":[{"name":"월드하우징","tel":"031-322-0984","addr":"경기도 용인시 처인구 모현읍 일산리 494-1번지","indutype":"건축자재 - 기타건축자재","category":"other"}]},{"lat":"37.328481696","long":"127.17243221","imageIndex":17,"items":[{"name":"위너그린(주)","tel":"031-1644-6632","addr":"경기도 용인시 처인구 모현읍 능원리 372-2번지 4층","indutype":"회원제형태 - 기타4","category":"other"}]},{"lat":"37.338704242","long":"127.25123266","imageIndex":17,"items":[{"name":"이레하우징","tel":"031-339-8609","addr":"경기도 용인시 처인구 모현읍 왕산리 538번지 덕헌빌라 C동 203호","indutype":"용역 서비스 - 기타용역서비스","category":"other"}]},{"lat":"37.317684201","long":"127.24214965","imageIndex":17,"items":[{"name":"이마트24 용인모현점","tel":"","addr":"경기도 용인시 처인구 모현읍 갈담리 444-6번지 1층","indutype":"유통업 영리 - 편 의 점","category":"other"},{"name":"하나건설","tel":"031-333-5894","addr":"경기도 용인시 처인구 모현읍 갈담리 444-6번지","indutype":"기타 - 기계공구","category":"other"}]},{"lat":"37.334649704","long":"127.25547335","imageIndex":17,"items":[{"name":"이마트24 용인외대입구점","tel":"031-337-1485","addr":"경기도 용인시 처인구 모현읍 왕산리 486-2번지 글로벌타운 B동 1층 103호","indutype":"유통업 영리 - 편 의 점","category":"other"}]},{"lat":"37.336093866","long":"127.25000537","imageIndex":17,"items":[{"name":"이지컴퓨터","tel":"031-322-6461","addr":"경기도 용인시 처인구 모현읍 왕산리794-3","indutype":"사무통신 - 컴퓨터","category":"other"}]},{"lat":"37.342846847","long":"127.22023465","imageIndex":17,"items":[{"name":"이츠시스템창호","tel":"031-334-0126","addr":"경기도 용인시 처인구 모현읍 매산리165-6","indutype":"건축자재 - 보일러·펌프·샷시","category":"other"}]},{"lat":"37.320647666","long":"127.24258775","imageIndex":17,"items":[{"name":"인더스 올(그린하우징)","tel":"070-5135-6433","addr":"경기도 용인시 처인구 모현읍 갈담리 401-2번지 1층","indutype":"건축자재 - 인테리어전문","category":"other"}]},{"lat":"37.335393567","long":"127.25310619","imageIndex":17,"items":[{"name":"인테리어 필름하는 남자","tel":"031-333-9081","addr":"경기도 용인시 처인구 모현읍 왕산리 497-6번지 천성빌라 나동 402호","indutype":"용역 서비스 - 기타용역서비스","category":"other"}]},{"lat":"37.357089727","long":"127.2309535","imageIndex":17,"items":[{"name":"일광주방냉동","tel":"031-321-0520","addr":"경기도 용인시 처인구 모현읍 일산리 401-6번지","indutype":"수리서비스 - 가정용품수리","category":"other"}]},{"lat":"37.341840296","long":"127.24664998","imageIndex":17,"items":[{"name":"일성싱크","tel":"031-335-0969","addr":"경기도 용인시 처인구 모현읍 일산리 99-49번지","indutype":"주방용구 - 주방용구","category":"other"}]},{"lat":"37.321340675","long":"127.1491302","imageIndex":17,"items":[{"name":"임마누엘화원","tel":"031-334-4731","addr":"경기도 용인시 처인구 모현읍 오산리 314","indutype":"문화.취미 - 화원","category":"other"}]},{"lat":"37.336366968","long":"127.17768581","imageIndex":17,"items":[{"name":"재단법인한국등잔박물관문화재단","tel":"031-334-0797","addr":"경기도 용인시 처인구 모현읍 능원리 258-9","indutype":"문화.취미 - 티켓","category":"other"}]},{"lat":"37.351952672","long":"127.23161515","imageIndex":17,"items":[{"name":"재원SP","tel":"031-766-4191","addr":"경기도 용인시 처인구 모현읍 일산리 520-1번지 나동","indutype":"유통업 영리 - 기타유통업","category":"other"}]},{"lat":"37.334598478","long":"127.25414168","imageIndex":17,"items":[{"name":"재이월드 인터내셔널","tel":"070-4327-1609","addr":"경기도 용인시 처인구 모현읍 왕산리 948번지 용인모현스위첸","indutype":"직물 - 침구·수예점","category":"other"},{"name":"파파마마","tel":"031-633-8904","addr":"경기도 용인시 처인구 모현읍 왕산리 948번지 용인모현스위첸 106동 903호","indutype":"사무통신 - 통신기기","category":"other"}]},{"lat":"37.344090021","long":"127.24801149","imageIndex":17,"items":[{"name":"잼","tel":"031-935-0857","addr":"경기도 용인시 처인구 모현읍 일산리 99-122번지 1층","indutype":"레져용품 - 스포츠·레져용품","category":"other"}]},{"lat":"37.344259858","long":"127.22592656","imageIndex":17,"items":[{"name":"전통불교조계종아미타사","tel":"031-769-7361","addr":"경기도 용인시 처인구 모현읍 매산리212","indutype":"기타 - 비영리/대상","category":"other"}]},{"lat":"37.341897854","long":"127.17860143","imageIndex":17,"items":[{"name":"정석골프피팅","tel":"031-708-2544","addr":"경기도 용인시 처인구 모현읍 동림리 58-2번지","indutype":"레져용품 - 골프용품 전문점","category":"other"}]},{"lat":"37.348315423","long":"127.22539683","imageIndex":17,"items":[{"name":"정안스폰지","tel":"031-332-1311","addr":"경기도 용인시 처인구 모현읍 매산리 73-5번지","indutype":"전기제품 - 기타전기제품","category":"other"}]},{"lat":"37.335704093","long":"127.21398525","imageIndex":17,"items":[{"name":"정우21세기","tel":"031-322-8218","addr":"경기도 용인시 처인구 모현읍 매산리 296-4번지","indutype":"기타 - 기계공구","category":"other"}]},{"lat":"37.312378246","long":"127.25040152","imageIndex":17,"items":[{"name":"제이디아이스포츠과학연구소","tel":"031-322-7596","addr":"경기도 용인시 처인구 모현읍 초부리398-2","indutype":"회원제형태 - 레져업소","category":"other"}]},{"lat":"37.333727779","long":"127.14326405","imageIndex":17,"items":[{"name":"제이제이스포츠 (JJ SPORTS)","tel":"031-338-1872","addr":"경기도 용인시 처인구 모현읍 오산리 253-5번지 1층","indutype":"레져용품 - 골프용품 전문점","category":"other"}]},{"lat":"37.331284965","long":"127.15851473","imageIndex":17,"items":[{"name":"제일산업","tel":"031-323-4195","addr":"경기도 용인시 처인구 모현읍 오산리 157번지","indutype":"건축자재 - 기타건축자재","category":"other"}]},{"lat":"37.351202352","long":"127.22343022","imageIndex":17,"items":[{"name":"제일우레탄","tel":"031-333-4101","addr":"경기도 용인시 처인구 모현읍 매산리48-5","indutype":"신변잡화 - 기타잡화","category":"other"}]},{"lat":"37.331370627","long":"127.18673485","imageIndex":17,"items":[{"name":"제일특수조형","tel":"070-7018-5392","addr":"경기도 용인시 처인구 모현읍 동림리 302번지","indutype":"문화.취미 - 민예·공예품","category":"other"}]},{"lat":"37.343428988","long":"127.22695106","imageIndex":17,"items":[{"name":"좋은난로","tel":"031-338-2199","addr":"경기도 용인시 처인구 모현읍 매산리204-1","indutype":"전기제품 - 냉열기기","category":"other"}]},{"lat":"37.343929739","long":"127.25141914","imageIndex":17,"items":[{"name":"주노세라믹","tel":"031-323-1104","addr":"경기도 용인시 처인구 모현읍 왕산리 572-19번지","indutype":"건축자재 - 건축용 요업제품","category":"other"}]},{"lat":"37.347817035","long":"127.22689638","imageIndex":17,"items":[{"name":"주식회사 국민렌탈리프트","tel":"031-336-8223","addr":"경기도 용인시 처인구 모현읍 매산리 120-7번지","indutype":"기타 - 기계공구","category":"other"}]},{"lat":"37.304127411","long":"127.23584664","imageIndex":17,"items":[{"name":"주식회사 기성","tel":"031-339-5206","addr":"경기도 용인시 처인구 모현읍 초부리 808-34번지","indutype":"기타 - 기계공구","category":"other"}]},{"lat":"37.329147128","long":"127.24117051","imageIndex":17,"items":[{"name":"주식회사 대륙기업","tel":"","addr":"경기도 용인시 처인구 모현읍 갈담리 308-1번지","indutype":"건축자재 - 인테리어전문","category":"other"}]},{"lat":"37.339453547","long":"127.25053547","imageIndex":17,"items":[{"name":"주식회사 디원종합건설","tel":"02-866-9540","addr":"경기도 용인시 처인구 모현읍 왕산리 785-1번지","indutype":"건축자재 - 기타건축자재","category":"other"}]},{"lat":"37.33098613","long":"127.17270864","imageIndex":17,"items":[{"name":"주식회사 마스소파","tel":"031-321-1877","addr":"경기도 용인시 처인구 모현읍 능원리 351-29번지 2층","indutype":"가구 - 일반가구","category":"other"}]},{"lat":"37.331344034","long":"127.1864527","imageIndex":17,"items":[{"name":"주식회사 바우디자인","tel":"031-321-5241","addr":"경기도 용인시 처인구 모현읍 동림리 301번지","indutype":"가구 - 일반가구","category":"other"}]},{"lat":"37.320736642","long":"127.24754077","imageIndex":17,"items":[{"name":"주식회사 사계절가구","tel":"031-338-4787","addr":"경기도 용인시 처인구 모현읍 갈담리 231-1번지","indutype":"가구 - 일반가구","category":"other"}]},{"lat":"37.328014425","long":"127.22115097","imageIndex":17,"items":[{"name":"주식회사 서광","tel":"031-000-0000","addr":"경기도 용인시 처인구 모현읍 매산리 567-3번지","indutype":"가구 - 일반가구","category":"other"}]},{"lat":"37.327679352","long":"127.15968072","imageIndex":17,"items":[{"name":"주식회사 세건산업","tel":"031-339-3747","addr":"경기도 용인시 처인구 모현읍 오산리 126-3번지","indutype":"기타 - 기계공구","category":"other"}]},{"lat":"37.33465169","long":"127.19159495","imageIndex":17,"items":[{"name":"주식회사 세명이엔지","tel":"070-4214-6499","addr":"경기도 용인시 처인구 모현읍 동림리 255-17번지","indutype":"건축자재 - 유리","category":"other"}]},{"lat":"37.323845367","long":"127.21970606","imageIndex":17,"items":[{"name":"주식회사 스포츠클린업","tel":"070-8254-3829","addr":"경기도 용인시 처인구 모현읍 매산리 542번지","indutype":"레져용품 - 스포츠·레져용품","category":"other"}]},{"lat":"37.319820896","long":"127.25029054","imageIndex":17,"items":[{"name":"주식회사 씨던까사","tel":"031-334-4077","addr":"경기도 용인시 처인구 모현읍 갈담리 239-1번지","indutype":"가구 - 일반가구","category":"other"}]},{"lat":"37.315290973","long":"127.26189517","imageIndex":17,"items":[{"name":"주식회사 에코일렉","tel":"031-338-3575","addr":"경기도 용인시 처인구 모현읍 초부리 222-1번지","indutype":"유통업 영리 - 기타유통업","category":"other"}]},{"lat":"37.317622928","long":"127.24125822","imageIndex":17,"items":[{"name":"주식회사 오끌리오","tel":"031-337-3038","addr":"경기도 용인시 처인구 모현읍 갈담리 453-2번지 2동","indutype":"가구 - 일반가구","category":"other"}]},{"lat":"37.325706348","long":"127.24506342","imageIndex":17,"items":[{"name":"주식회사 용원시스템","tel":"031-337-0237","addr":"경기도 용인시 처인구 모현읍 갈담리 328-4번지 2층","indutype":"전기제품 - 냉열기기","category":"other"}]},{"lat":"37.325897052","long":"127.23070124","imageIndex":17,"items":[{"name":"주식회사 이레네코리아","tel":"031-321-9478","addr":"경기도 용인시 처인구 모현읍 갈담리 620-3번지 예산농장","indutype":"직물 - 침구·수예점","category":"other"}]},{"lat":"37.339926656","long":"127.22556392","imageIndex":17,"items":[{"name":"주식회사 장안","tel":"031-321-5470","addr":"경기도 용인시 처인구 모현읍 매산리 254-1번지","indutype":"의류 - 기타의류","category":"other"}]},{"lat":"37.317651025","long":"127.24072808","imageIndex":17,"items":[{"name":"주식회사 제로플랫폼","tel":"031-333-6854","addr":"경기도 용인시 처인구 모현읍 갈담리 452-4번지 1동","indutype":"사무통신 - 컴퓨터","category":"other"},{"name":"주식회사 제로플랫폼","tel":"031-333-6854","addr":"경기도 용인시 처인구 모현읍 갈담리 452-4번지 1동","indutype":"사무통신 - 컴퓨터","category":"other"}]},{"lat":"37.347233829","long":"127.22559678","imageIndex":17,"items":[{"name":"주식회사 지알컴퍼니","tel":"031-1111-1111","addr":"경기도 용인시 처인구 모현읍 매산리 125번지","indutype":"신변잡화 - 기타잡화","category":"other"}]},{"lat":"37.306710069","long":"127.2550302","imageIndex":17,"items":[{"name":"주식회사 케이지솔라텍","tel":"031-333-3081","addr":"경기도 용인시 처인구 모현읍 초부리 551-3번지 2층","indutype":"용역 서비스 - 기타용역서비스","category":"other"}]},{"lat":"37.337895814","long":"127.22264654","imageIndex":17,"items":[{"name":"주식회사 퍼스트 조명","tel":"031-526-0591","addr":"경기도 용인시 처인구 모현읍 매산리 317-1번지 1층","indutype":"건축자재 - 조명기구","category":"other"}]},{"lat":"37.33015465","long":"127.25073062","imageIndex":17,"items":[{"name":"주식회사 퍼스트렌트카","tel":"031-339-2119","addr":"경기도 용인시 처인구 모현읍 왕산리 389-5번지 B동 101호 (모현숙사)","indutype":"여행 - 렌터카","category":"other"}]},{"lat":"37.330785336","long":"127.1547112","imageIndex":17,"items":[{"name":"주식회사 포시즌디자인","tel":"","addr":"경기도 용인시 처인구 모현읍 오산리 198-1번지 2층","indutype":"건축자재 - 인테리어전문","category":"other"}]},{"lat":"37.341954036","long":"127.22551348","imageIndex":17,"items":[{"name":"주식회사 프로사운드","tel":"031-322-6123","addr":"경기도 용인시 처인구 모현읍 매산리 200-1번지","indutype":"전기제품 - 가전제품","category":"other"}]},{"lat":"37.325153068","long":"127.25117677","imageIndex":17,"items":[{"name":"주식회사 황실","tel":"031-322-1777","addr":"경기도 용인시 처인구 모현읍 왕산리 366-1번지 나동","indutype":"가구 - 일반가구","category":"other"},{"name":"한보산업(황실)","tel":"031-333-1102","addr":"경기도 용인시 처인구 모현읍 왕산리 366-1번지","indutype":"가구 - 일반가구","category":"other"}]},{"lat":"37.336229673","long":"127.19642853","imageIndex":17,"items":[{"name":"주식회사로긴우드","tel":"070-0336-1990","addr":"경기도 용인시 처인구 모현읍 동림리 163번지","indutype":"건축자재 - 목재·석재·철물","category":"other"}]},{"lat":"37.341120201","long":"127.25064251","imageIndex":17,"items":[{"name":"주식회사붕우(             )","tel":"031-719-2347","addr":"경기도 용인시 처인구 모현읍 왕산리 774-12번지 영신빌딩","indutype":"레져용품 - 스포츠·레져용품","category":"other"}]},{"lat":"37.35147711","long":"127.23522538","imageIndex":17,"items":[{"name":"주식회사빌란차토","tel":"031-334-7744","addr":"경기도 용인시 처인구 모현읍 일산리 291번지","indutype":"가구 - 일반가구","category":"other"}]},{"lat":"37.347401443","long":"127.25856324","imageIndex":17,"items":[{"name":"주식회사유니온석재개발","tel":"031-339-2467","addr":"경기도 용인시 처인구 모현읍 왕산리 24-4번지","indutype":"건축자재 - 목재·석재·철물","category":"other"}]},{"lat":"37.320378795","long":"127.2373747","imageIndex":17,"items":[{"name":"주식회사자연교구","tel":"031-339-1055","addr":"경기도 용인시 처인구 모현읍 갈담리524-1","indutype":"서적문구 - 과학기자재","category":"other"}]},{"lat":"37.327813575","long":"127.16038054","imageIndex":17,"items":[{"name":"주식회사탑유통","tel":"031-333-4689","addr":"경기도 용인시 처인구 모현읍 오산리 122-1","indutype":"문화.취미 - 애완동물","category":"other"}]},{"lat":"37.332922956","long":"127.17296124","imageIndex":17,"items":[{"name":"주식회사트랜스테크","tel":"070-7404-0307","addr":"경기도 용인시 처인구 모현읍 능원리 343-5번지","indutype":"레져용품 - 스포츠·레져용품","category":"other"}]},{"lat":"37.342702565","long":"127.22989432","imageIndex":17,"items":[{"name":"주식회사펠렛코리아","tel":"031-333-1960","addr":"경기도 용인시 처인구 모현읍 매산리 237번지 1층","indutype":"건축자재 - 보일러·펌프·샷시","category":"other"}]},{"lat":"37.314597662","long":"127.26167845","imageIndex":17,"items":[{"name":"주식회사홀리케어바프코리아","tel":"031-337-2279","addr":"경기도 용인시 처인구 모현읍 초부리 220-1번지","indutype":"문화.취미 - 애완동물","category":"other"}]},{"lat":"37.339925976","long":"127.22592503","imageIndex":17,"items":[{"name":"중앙원예종묘,조경","tel":"031-752-5194","addr":"경기도 용인시 처인구 모현읍 매산리254-10","indutype":"문화.취미 - 화원","category":"other"}]},{"lat":"37.333040336","long":"127.24956659","imageIndex":17,"items":[{"name":"중원인테리어","tel":"031-322-3726","addr":"경기도 용인시 처인구 모현읍 왕산리 468-2번지 이공하이빌 101호","indutype":"건축자재 - 인테리어전문","category":"other"}]},{"lat":"37.337570593","long":"127.23717987","imageIndex":17,"items":[{"name":"지온A&T","tel":"070-7585-2945","addr":"경기도 용인시 처인구 모현읍 일산리 133번지","indutype":"용역 서비스 - 종합용역","category":"other"}]},{"lat":"37.30623488","long":"127.24083876","imageIndex":17,"items":[{"name":"진성냉동","tel":"031-333-5791","addr":"경기도 용인시 처인구 모현읍 초부리 512번지","indutype":"전기제품 - 냉열기기","category":"other"}]},{"lat":"37.305879317","long":"127.23384426","imageIndex":17,"items":[{"name":"진웅가구","tel":"031-334-5237","addr":"경기도 용인시 처인구 모현읍 초부리 819-17번지","indutype":"가구 - 기타가구","category":"other"}]},{"lat":"37.327124227","long":"127.24345453","imageIndex":17,"items":[{"name":"착한강아지풀","tel":"070-7760-2682","addr":"경기도 용인시 처인구 모현읍 갈담리 320-14번지 태성산장맨션 102동 402호","indutype":"회원제형태 - 기타4","category":"other"}]},{"lat":"37.337231708","long":"127.17784579","imageIndex":17,"items":[{"name":"참솔(인테리어)","tel":"031-334-6991","addr":"경기도 용인시 처인구 모현읍 능원리 221번지","indutype":"건축자재 - 인테리어전문","category":"other"}]},{"lat":"37.29993573","long":"127.25012389","imageIndex":17,"items":[{"name":"청명유리","tel":"02-401-1480","addr":"경기도 용인시 처인구 모현읍 초부리 674-7","indutype":"건축자재 - 유리","category":"other"}]},{"lat":"37.325319562","long":"127.22159448","imageIndex":17,"items":[{"name":"청무산업주식회사","tel":"031-336-6118","addr":"경기도 용인시 처인구 모현읍 매산리 530-1번지","indutype":"건축자재 - 기타건축자재","category":"other"}]},{"lat":"37.340206038","long":"127.17095769","imageIndex":17,"items":[{"name":"초록세상EM","tel":"031-335-2783","addr":"경기도 용인시 처인구 모현읍 능원리 120-12","indutype":"신변잡화 - 기타잡화","category":"other"}]},{"lat":"37.342395515","long":"127.17718066","imageIndex":17,"items":[{"name":"초록화원능원식물원","tel":"031-321-6604","addr":"경기도 용인시 처인구 모현읍 능원리 749","indutype":"문화.취미 - 화원","category":"other"}]},{"lat":"37.340175829","long":"127.17318072","imageIndex":17,"items":[{"name":"추스튜디오","tel":"031-1111-1111","addr":"경기도 용인시 처인구 모현읍 능원리 167-5번지","indutype":"신변잡화 - 기타잡화","category":"other"}]},{"lat":"37.352427332","long":"127.24659391","imageIndex":17,"items":[{"name":"카라반모터스","tel":"","addr":"경기도 용인시 처인구 모현읍 왕산리 673-2번지","indutype":"레져용품 - 스포츠·레져용품","category":"other"}]},{"lat":"37.331706861","long":"127.17276668","imageIndex":17,"items":[{"name":"카타라이프","tel":"","addr":"경기도 용인시 처인구 모현읍 능원리 351-1번지","indutype":"주방용구 - 주방용구","category":"other"}]},{"lat":"37.339618916","long":"127.17198329","imageIndex":17,"items":[{"name":"커피나루카페","tel":"070-8226-3382","addr":"경기도 용인시 처인구 모현읍 능원리 125-3번지","indutype":"주방용구 - 주방용구","category":"other"}]},{"lat":"37.321737689","long":"127.25567834","imageIndex":17,"items":[{"name":"케이비엠 주방가구","tel":"031-766-2526","addr":"경기도 용인시 처인구 모현읍 갈담리 160번지","indutype":"주방용구 - 주방용구","category":"other"}]},{"lat":"37.324399385","long":"127.21729322","imageIndex":17,"items":[{"name":"코이어팩토리","tel":"031-323-3640","addr":"경기도 용인시 처인구 모현읍 매산리 503-2번지 나동","indutype":"건축자재 - 인테리어전문","category":"other"}]},{"lat":"37.330678771","long":"127.15349239","imageIndex":17,"items":[{"name":"코지슬립","tel":"031-322-3660","addr":"경기도 용인시 처인구 모현읍 오산리 197-9번지","indutype":"가구 - 일반가구","category":"other"},{"name":"코지슬립 분당용인점","tel":"031-322-3660","addr":"경기도 용인시 처인구 모현읍 오산리 197-9번지","indutype":"가구 - 일반가구","category":"other"}]},{"lat":"37.338284259","long":"127.19626453","imageIndex":17,"items":[{"name":"코판","tel":"031-322-0234","addr":"경기도 용인시 처인구 모현읍 동림리145","indutype":"유통업 영리 - 기타유통업","category":"other"}]},{"lat":"37.332014015","long":"127.15910298","imageIndex":17,"items":[{"name":"쿠첸하임","tel":"","addr":"경기도 용인시 처인구 모현읍 오산리 155-2번지 예림힐즈 39호","indutype":"주방용구 - 주방용구","category":"other"}]},{"lat":"37.333191764","long":"127.25040208","imageIndex":17,"items":[{"name":"큐피드플라워","tel":"02-3446-5040","addr":"경기도 용인시 처인구 모현읍 왕산리 476-7번지 동양빌라 6동 403호","indutype":"문화.취미 - 화원","category":"other"}]},{"lat":"37.340811273","long":"127.17612751","imageIndex":17,"items":[{"name":"크린에이드 능원점","tel":"031-335-8945","addr":"경기도 용인시 처인구 모현읍 능원리 183-14번지 102호","indutype":"수리서비스 - 세탁소","category":"other"}]},{"lat":"37.323265914","long":"127.25308854","imageIndex":17,"items":[{"name":"클린에이치","tel":"070-7518-8515","addr":"경기도 용인시 처인구 모현읍 왕산리 322-10번지 1동","indutype":"용역 서비스 - 종합용역","category":"other"}]},{"lat":"37.340399606","long":"127.25053858","imageIndex":17,"items":[{"name":"키친메이트","tel":"031-1544-1328","addr":"경기도 용인시 처인구 모현읍 왕산리 774-20번지 1층","indutype":"주방용구 - 주방용식기","category":"other"}]},{"lat":"37.324064761","long":"127.24148165","imageIndex":17,"items":[{"name":"킹마담침대","tel":"031-328-6812","addr":"경기도 용인시 처인구 모현읍 갈담리 356번지","indutype":"가구 - 일반가구","category":"other"}]},{"lat":"37.324204779","long":"127.15712368","imageIndex":17,"items":[{"name":"태기산업","tel":"031-334-3406","addr":"경기도 용인시 처인구 모현읍 오산리82-1","indutype":"건축자재 - 목재·석재·철물","category":"other"}]},{"lat":"37.313013963","long":"127.25231004","imageIndex":17,"items":[{"name":"태성소각로","tel":"031-322-0172","addr":"경기도 용인시 처인구 모현읍 초부리 181-6","indutype":"기타 - 기계공구","category":"other"}]},{"lat":"37.330371115","long":"127.15451855","imageIndex":17,"items":[{"name":"태양덮개산업","tel":"02-835-2479","addr":"경기도 용인시 처인구 모현읍 오산리 275-7번지","indutype":"수리서비스 - 기타수리서비스","category":"other"}]},{"lat":"37.318370858","long":"127.24564909","imageIndex":17,"items":[{"name":"태양화학","tel":"031-334-6248","addr":"경기도 용인시 처인구 모현읍 갈담리 219-2번지","indutype":"건축자재 - 기타건축자재","category":"other"}]},{"lat":"37.342535689","long":"127.19709924","imageIndex":17,"items":[{"name":"태정상사","tel":"031-335-3163","addr":"경기도 용인시 처인구 모현읍 동림리 131번지 1층","indutype":"유통업 영리 - 기타유통업","category":"other"}]},{"lat":"37.314041521","long":"127.26053718","imageIndex":17,"items":[{"name":"토마스빌","tel":"031-756-0808","addr":"경기도 용인시 처인구 모현읍 초부리219-7","indutype":"신변잡화 - 기타잡화","category":"other"}]},{"lat":"37.32584215","long":"127.221596","imageIndex":17,"items":[{"name":"토성우레탄","tel":"031-333-6061","addr":"경기도 용인시 처인구 모현읍 매산리 528","indutype":"회원제형태 - 기타4","category":"other"}]},{"lat":"37.323738764","long":"127.25103673","imageIndex":17,"items":[{"name":"투월드(TWO WORLD)","tel":"031-336-0919","addr":"경기도 용인시 처인구 모현읍 왕산리 366-10번지","indutype":"레져용품 - 스포츠·레져용품","category":"other"}]},{"lat":"37.32565367","long":"127.21625878","imageIndex":17,"items":[{"name":"트리플종합가구","tel":"031-322-1501","addr":"경기도 용인시 처인구 모현읍 매산리 492-6","indutype":"가구 - 일반가구","category":"other"}]},{"lat":"37.319816756","long":"127.23908778","imageIndex":17,"items":[{"name":"티플디자인","tel":"031-322-2738","addr":"경기도 용인시 처인구 모현읍 갈담리 486번지","indutype":"서적문구 - 출판 및 인쇄물","category":"other"}]},{"lat":"37.331286341","long":"127.15746538","imageIndex":17,"items":[{"name":"파워레포츠","tel":"02-306-1318","addr":"경기도 용인시 처인구 모현읍 오산리 164-4번지 지하층","indutype":"레져용품 - 스포츠·레져용품","category":"other"}]},{"lat":"37.335374283","long":"127.17257183","imageIndex":17,"items":[{"name":"파크론","tel":"031-334-5911","addr":"경기도 용인시 처인구 모현읍 능원리268","indutype":"직물 - 기타직물","category":"other"}]},{"lat":"37.309823233","long":"127.25284095","imageIndex":17,"items":[{"name":"팔팔종합공사","tel":"031-333-9916","addr":"경기도 용인시 처인구 모현읍 초부리 375-1번지","indutype":"건축자재 - 기타건축자재","category":"other"}]},{"lat":"37.344339507","long":"127.22187534","imageIndex":17,"items":[{"name":"퍼펙트코리아","tel":"031-333-0770","addr":"경기도 용인시 처인구 모현읍 매산리171-3","indutype":"레져용품 - 골프용품 전문점","category":"other"}]},{"lat":"37.339312683","long":"127.23559415","imageIndex":17,"items":[{"name":"페트라","tel":"031-321-0856","addr":"경기도 용인시 처인구 모현읍 일산리242-1","indutype":"전기제품 - 가전제품","category":"other"}]},{"lat":"37.338596154","long":"127.16887774","imageIndex":17,"items":[{"name":"편백나무#","tel":"031-336-4945","addr":"경기도 용인시 처인구 모현읍 능원리 137-7번지","indutype":"가구 - 일반가구","category":"other"}]},{"lat":"37.329924801","long":"127.22103239","imageIndex":17,"items":[{"name":"프랜드패밀리 모현점","tel":"031-336-3376","addr":"경기도 용인시 처인구 모현읍 매산리 377-11","indutype":"유통업 영리 - 편 의 점","category":"other"}]},{"lat":"37.321342551","long":"127.15479375","imageIndex":17,"items":[{"name":"프린테크","tel":"070-7012-1688","addr":"경기도 용인시 처인구 모현읍 오산리 295번지 1층","indutype":"사무통신 - 컴퓨터","category":"other"}]},{"lat":"37.353260899","long":"127.2307049","imageIndex":17,"items":[{"name":"하이데코","tel":"031-332-7834","addr":"경기도 용인시 처인구 모현읍 일산리 461-1번지","indutype":"가구 - 일반가구","category":"other"}]},{"lat":"37.338703963","long":"127.23814258","imageIndex":17,"items":[{"name":"하이소파","tel":"031-333-3219","addr":"경기도 용인시 처인구 모현읍 일산리 239-33번지","indutype":"가구 - 일반가구","category":"other"}]},{"lat":"37.352201685","long":"127.24678506","imageIndex":17,"items":[{"name":"한결종합건축자재","tel":"031-321-7082","addr":"경기도 용인시 처인구 모현읍 왕산리 673-3번지","indutype":"건축자재 - 기타건축자재","category":"other"}]},{"lat":"37.330397119","long":"127.25111504","imageIndex":17,"items":[{"name":"한국전기기계기술지원","tel":"031-333-7226","addr":"경기도 용인시 처인구 모현읍 왕산리 455-3번지 왕곡원룸 106호","indutype":"전기제품 - 기타전기제품","category":"other"}]},{"lat":"37.321516398","long":"127.25381607","imageIndex":17,"items":[{"name":"한국케이보드(K board)","tel":"031-338-8042","addr":"경기도 용인시 처인구 모현읍 갈담리 129-5번지 1층","indutype":"건축자재 - 기타건축자재","category":"other"},{"name":"한새테크","tel":"031-338-8042","addr":"경기도 용인시 처인구 모현읍 갈담리 129-5번지","indutype":"건축자재 - 기타건축자재","category":"other"}]},{"lat":"37.318487059","long":"127.24167837","imageIndex":17,"items":[{"name":"한성실업","tel":"031-334-0237","addr":"경기도 용인시 처인구 모현읍 갈담리447-4","indutype":"기타 - 기계공구","category":"other"}]},{"lat":"37.345597367","long":"127.24231718","imageIndex":17,"items":[{"name":"한신공예","tel":"031-333-2406","addr":"경기도 용인시 처인구 모현읍 일산리 62-19번지","indutype":"주방용구 - 기타주방용구","category":"other"}]},{"lat":"37.323572663","long":"127.25289776","imageIndex":17,"items":[{"name":"한주기업","tel":"031-334-9910","addr":"경기도 용인시 처인구 모현읍 왕산리 322-3번지","indutype":"유통업 영리 - 기타유통업","category":"other"}]},{"lat":"37.340123758","long":"127.17179258","imageIndex":17,"items":[{"name":"한진설비","tel":"031-338-0472","addr":"경기도 용인시 처인구 모현읍 능원리 123-1번지 퀸즈하임 202동 102호","indutype":"용역 서비스 - 기타용역서비스","category":"other"}]},{"lat":"37.339483634","long":"127.2447014","imageIndex":17,"items":[{"name":"해강마린","tel":"031-334-4837","addr":"경기도 용인시 처인구 모현읍 일산리 117-5번지","indutype":"레져용품 - 스포츠·레져용품","category":"other"}]},{"lat":"37.305038701","long":"127.23520651","imageIndex":17,"items":[{"name":"해뜨는복층유리. 창호","tel":"031-322-4210","addr":"경기도 용인시 처인구 모현읍 초부리 819-45번지","indutype":"건축자재 - 기타건축자재","category":"other"}]},{"lat":"37.355254858","long":"127.22928876","imageIndex":17,"items":[{"name":"해성종합주방","tel":"031-333-2770","addr":"경기도 용인시 처인구 모현읍 일산리 443번지","indutype":"주방용구 - 주방용구","category":"other"}]},{"lat":"37.336319959","long":"127.17284478","imageIndex":17,"items":[{"name":"행복한 블라인드","tel":"031-338-0931","addr":"경기도 용인시 처인구 모현읍 능원리 264-1번지","indutype":"직물 - 카페트,커튼,천막,지물","category":"other"},{"name":"행복한 블라인드","tel":"031-338-0931","addr":"경기도 용인시 처인구 모현읍 능원리 264-1번지","indutype":"직물 - 카페트,커튼,천막,지물","category":"other"}]},{"lat":"37.343980312","long":"127.18384268","imageIndex":17,"items":[{"name":"허니비","tel":"","addr":"경기도 용인시 처인구 모현읍 동림리 107-10번지 202동 502호","indutype":"문화.취미 - 문화취미기타","category":"other"}]},{"lat":"37.352340368","long":"127.23148089","imageIndex":17,"items":[{"name":"헤라디자인","tel":"031-337-0163","addr":"경기도 용인시 처인구 모현읍 일산리 493-1번지","indutype":"가구 - 일반가구","category":"other"}]},{"lat":"37.324626698","long":"127.22109605","imageIndex":17,"items":[{"name":"헤리츠가구(HERITZ FURNITURE)","tel":"031-764-4237","addr":"경기도 용인시 처인구 모현읍 매산리 531-2번지","indutype":"가구 - 일반가구","category":"other"}]},{"lat":"37.318372568","long":"127.24481426","imageIndex":17,"items":[{"name":"현대기업","tel":"031-339-2611","addr":"경기도 용인시 처인구 모현읍 갈담리 435번지","indutype":"건축자재 - 보일러·펌프·샷시","category":"other"}]},{"lat":"37.325175733","long":"127.15876163","imageIndex":17,"items":[{"name":"현대꽃집","tel":"031-333-6531","addr":"경기도 용인시 처인구 모현읍 오산리 104번지","indutype":"문화.취미 - 화원","category":"other"}]},{"lat":"37.318152408","long":"127.24230907","imageIndex":17,"items":[{"name":"현대문구","tel":"031-333-9860","addr":"경기도 용인시 처인구 모현읍 갈담리 443-4번지","indutype":"서적문구 - 문구용품","category":"other"}]},{"lat":"37.337898987","long":"127.22093131","imageIndex":17,"items":[{"name":"현대앵글","tel":"031-334-3072","addr":"경기도 용인시 처인구 모현읍 매산리 270-3번지","indutype":"기타 - 기타 전문점","category":"other"}]},{"lat":"37.320430181","long":"127.24759618","imageIndex":17,"items":[{"name":"현성ENG/원격지","tel":"031-321-2057","addr":"경기도 용인시 처인구 모현읍 갈담리 231","indutype":"기타 - 기타 전문점","category":"other"}]},{"lat":"37.334286432","long":"127.16443369","imageIndex":17,"items":[{"name":"현주건재","tel":"031-333-9420","addr":"경기도 용인시 처인구 모현읍 오산리 16번지","indutype":"건축자재 - 기타건축자재","category":"other"}]},{"lat":"37.343786502","long":"127.25097854","imageIndex":17,"items":[{"name":"형제공업사","tel":"031-323-0063","addr":"경기도 용인시 처인구 모현읍 왕산리 572-20번지","indutype":"농업 - 농기계","category":"other"}]},{"lat":"37.326654852","long":"127.2438705","imageIndex":17,"items":[{"name":"형제창호","tel":"031-339-0088","addr":"경기도 용인시 처인구 모현읍 갈담리 307-31번지","indutype":"건축자재 - 보일러·펌프·샷시","category":"other"}]},{"lat":"37.35476136","long":"127.24639829","imageIndex":17,"items":[{"name":"호벨로(HOVELO)","tel":"031-321-2986","addr":"경기도 용인시 처인구 모현읍 왕산리 681-8번지","indutype":"레져용품 - 스포츠·레져용품","category":"other"}]},{"lat":"37.337506465","long":"127.16849168","imageIndex":17,"items":[{"name":"홈43","tel":"031-767-4626","addr":"경기도 용인시 처인구 모현읍 능원리 140-2번지 1층","indutype":"가구 - 일반가구","category":"other"}]},{"lat":"37.35309345","long":"127.24690081","imageIndex":17,"items":[{"name":"홈시트","tel":"031-334-8216","addr":"경기도 용인시 처인구 모현읍 왕산리 670-1번지","indutype":"서적문구 - 문구용품","category":"other"}]},{"lat":"37.324263531","long":"127.17340431","imageIndex":17,"items":[{"name":"홍일상사","tel":"031-321-3856","addr":"경기도 용인시 처인구 모현읍 능원리 408-5번지","indutype":"건축자재 - 목재·석재·철물","category":"other"}]},{"lat":"37.343229841","long":"127.1796202","imageIndex":17,"items":[{"name":"화이트세탁","tel":"","addr":"경기도 용인시 처인구 모현읍 동림리 48-3번지","indutype":"수리서비스 - 세탁소","category":"other"}]},{"lat":"37.355096171","long":"127.24569958","imageIndex":17,"items":[{"name":"화창","tel":"","addr":"경기도 용인시 처인구 모현읍 왕산리 687-10번지","indutype":"직물 - 카페트,커튼,천막,지물","category":"other"}]},{"lat":"37.331428722","long":"127.22145422","imageIndex":17,"items":[{"name":"후덕나무시장","tel":"","addr":"경기도 용인시 처인구 모현읍 매산리 377-16번지","indutype":"농업 - 비료,사료,종자","category":"other"}]}]