[{"lat":"37.358225521","long":"126.93223353","imageIndex":7,"items":[{"name":"24시슈퍼","tel":"031-396-0720","addr":"경기도 군포시 산본동 1142-5금화프라자102호,112호","indutype":"유통업 영리 - 슈퍼마켓","category":"mart"}]},{"lat":"37.364054056","long":"126.93053482","imageIndex":7,"items":[{"name":"Allways(올웨이스)","tel":"031-393-5440","addr":"경기도 군포시 산본동 1097-1번지","indutype":"유통업 영리 - 슈퍼마켓","category":"mart"}]},{"lat":"37.36852754","long":"126.93822964","imageIndex":7,"items":[{"name":"DC백화점","tel":"031-399-9598","addr":"경기도 군포시 산본동 225-14번지 우등생빌딩","indutype":"유통업 영리 - 슈퍼마켓","category":"mart"}]},{"lat":"37.35694562","long":"126.91784343","imageIndex":7,"items":[{"name":"가락식자재마트","tel":"031-392-5255","addr":"경기도 군포시 산본동 1151-5번지 한양프라자 지층 1호","indutype":"유통업 영리 - 슈퍼마켓","category":"mart"}]},{"lat":"37.374808851","long":"126.94056128","imageIndex":7,"items":[{"name":"개성수퍼","tel":"031-399-0748","addr":"경기도 군포시 산본동 75-33번지","indutype":"유통업 영리 - 슈퍼마켓","category":"mart"}]},{"lat":"37.370806322","long":"126.93681651","imageIndex":7,"items":[{"name":"경기남부두레소비자생활협동조합 산본점","tel":"031-347-0700","addr":"경기도 군포시 산본동 213-9번지 103호","indutype":"유통업 영리 - 슈퍼마켓","category":"mart"},{"name":"선양","tel":"031-393-8838","addr":"경기도 군포시 산본동 213-9번지","indutype":"유통업 영리 - 슈퍼마켓","category":"mart"}]},{"lat":"37.369916235","long":"126.94033954","imageIndex":7,"items":[{"name":"골드마트","tel":"031-398-7881","addr":"경기도 군포시 산본동 235-17번지","indutype":"유통업 영리 - 슈퍼마켓","category":"mart"}]},{"lat":"37.344976181","long":"126.92520379","imageIndex":7,"items":[{"name":"뉴싱싱마트","tel":"031-395-1114","addr":"경기도 군포시 산본동 1156-25번지 한라 종합상가 104호","indutype":"유통업 영리 - 슈퍼마켓","category":"mart"}]},{"lat":"37.370193973","long":"126.93742667","imageIndex":7,"items":[{"name":"다농마트","tel":"031-393-0636","addr":"경기도 군포시 산본동 216-4번지 1층","indutype":"유통업 영리 - 슈퍼마켓","category":"mart"}]},{"lat":"37.371002895","long":"126.93392625","imageIndex":7,"items":[{"name":"대광슈퍼","tel":"031-391-6647","addr":"경기도 군포시 산본동 1061-3번지 국민은행 106호","indutype":"유통업 영리 - 슈퍼마켓","category":"mart"}]},{"lat":"37.361645568","long":"126.92612352","imageIndex":7,"items":[{"name":"대남능금","tel":"070-4238-0205","addr":"경기도 군포시 산본동 1146번지 솔거(대림)상가 103","indutype":"유통업 영리 - 슈퍼마켓","category":"mart"},{"name":"코코마트","tel":"031-392-6548","addr":"경기도 군포시 산본동 1146번지","indutype":"유통업 영리 - 슈퍼마켓","category":"mart"}]},{"lat":"37.374421063","long":"126.93989549","imageIndex":7,"items":[{"name":"동우마트","tel":"031-392-7762","addr":"경기도 군포시 산본동 78-53번지 1층","indutype":"유통업 영리 - 슈퍼마켓","category":"mart"}]},{"lat":"37.365170736","long":"126.92959679","imageIndex":7,"items":[{"name":"동원그린마트","tel":"031-429-8413","addr":"경기도 군포시 산본동 1099-2번지 대림프라자 1층 111호","indutype":"유통업 영리 - 슈퍼마켓","category":"mart"},{"name":"자연드림 산본점/(주)쿱스토어경기동남부","tel":"031-399-4567","addr":"경기도 군포시 산본동 1099-2번지 대림프라자 102,103호","indutype":"유통업 영리 - 슈퍼마켓","category":"mart"}]},{"lat":"37.359639529","long":"126.93126147","imageIndex":7,"items":[{"name":"라운드원","tel":"031-398-5678","addr":"경기도 군포시 산본동 1136-2번지 삼일빌딩 801호","indutype":"유통업 영리 - 슈퍼마켓","category":"mart"}]},{"lat":"37.373115097","long":"126.94084492","imageIndex":7,"items":[{"name":"만성슈퍼","tel":"031-395-1970","addr":"경기도 군포시 산본동 94번지","indutype":"유통업 영리 - 슈퍼마켓","category":"mart"}]},{"lat":"37.366112592","long":"126.9230936","imageIndex":7,"items":[{"name":"맑은샘마트","tel":"031-394-4549","addr":"경기도 군포시 산본동 1100-2번지","indutype":"유통업 영리 - 슈퍼마켓","category":"mart"}]},{"lat":"37.373971028","long":"126.94078777","imageIndex":7,"items":[{"name":"모닝마트","tel":"031-464-2077","addr":"경기도 군포시 산본동 79-25번지","indutype":"유통업 영리 - 슈퍼마켓","category":"mart"}]},{"lat":"37.369775867","long":"126.93115023","imageIndex":7,"items":[{"name":"모란슈퍼","tel":"031-396-9580","addr":"경기도 군포시 산본동 1065-4,15호","indutype":"유통업 영리 - 슈퍼마켓","category":"mart"}]},{"lat":"37.345506399","long":"126.9231267","imageIndex":7,"items":[{"name":"민지네슈퍼","tel":"031-392-4881","addr":"경기도 군포시 산본동 1155-7 5단지가야2차종합상가 105","indutype":"유통업 영리 - 슈퍼마켓","category":"mart"}]},{"lat":"37.372721785","long":"126.93050391","imageIndex":7,"items":[{"name":"빙그레마트","tel":"031-394-2514","addr":"경기도 군포시 산본동 1066-2번지","indutype":"유통업 영리 - 슈퍼마켓","category":"mart"}]},{"lat":"37.357837664","long":"126.93153408","imageIndex":7,"items":[{"name":"산본공판장","tel":"031-397-0722","addr":"경기도 군포시 산본동 1142-7 중앙타워지하 1","indutype":"유통업 영리 - 슈퍼마켓","category":"mart"}]},{"lat":"37.369806935","long":"126.93814952","imageIndex":7,"items":[{"name":"산본마트","tel":"031-396-2205","addr":"경기도 군포시 산본동 221-3번지","indutype":"유통업 영리 - 슈퍼마켓","category":"mart"}]},{"lat":"37.358197245","long":"126.93017924","imageIndex":7,"items":[{"name":"산본할인마트","tel":"031-395-4005","addr":"경기도 군포시 산본동 1145-4번지 1층 101호 102호","indutype":"유통업 영리 - 슈퍼마켓","category":"mart"},{"name":"한살림경기남부생활협동조합 산본매장","tel":"031-396-0318","addr":"경기도 군포시 산본동 1145-4.103-2호","indutype":"유통업 영리 - 슈퍼마켓","category":"mart"}]},{"lat":"37.371249052","long":"126.93906273","imageIndex":7,"items":[{"name":"산본홈마트","tel":"031-392-1999","addr":"경기도 군포시 산본동 90-6번지 현지에코빌","indutype":"유통업 영리 - 슈퍼마켓","category":"mart"}]},{"lat":"37.368075335","long":"126.9351933","imageIndex":7,"items":[{"name":"삼성레미안할인마트","tel":"031-390-6111","addr":"경기도 군포시 산본동 1240번지 삼성래미안1단지 분산상가 2101,2호","indutype":"유통업 영리 - 슈퍼마켓","category":"mart"},{"name":"삼성슈퍼","tel":"031-396-4840","addr":"경기도 군포시 산본동 1240 삼성래미안단지내상가 2-4102","indutype":"유통업 영리 - 슈퍼마켓","category":"mart"},{"name":"아이스크림할인","tel":"070-5088-3240","addr":"경기도 군포시 산본동 1240번지 래미안 하이어스 아파트상가(147동) 147동 3109호","indutype":"유통업 영리 - 슈퍼마켓","category":"mart"}]},{"lat":"37.370304513","long":"126.94195359","imageIndex":7,"items":[{"name":"삼성슈퍼","tel":"031-393-1387","addr":"경기도 군포시 산본동 252-16번지","indutype":"유통업 영리 - 슈퍼마켓","category":"mart"}]},{"lat":"37.357999063","long":"126.91681508","imageIndex":7,"items":[{"name":"설악슈퍼","tel":"031-397-4333","addr":"경기도 군포시 산본동 1151-12번지 설악 상가 101호","indutype":"유통업 영리 - 슈퍼마켓","category":"mart"}]},{"lat":"37.367726893","long":"126.94056714","imageIndex":7,"items":[{"name":"세경마트","tel":"031-429-0672","addr":"경기도 군포시 산본동 1034-6번지 1층 102호","indutype":"유통업 영리 - 슈퍼마켓","category":"mart"}]},{"lat":"37.37327639","long":"126.93917391","imageIndex":7,"items":[{"name":"세원슈퍼","tel":"031-399-8200","addr":"경기도 군포시 산본동 73-19번지 103호","indutype":"유통업 영리 - 슈퍼마켓","category":"mart"}]},{"lat":"37.360778196","long":"126.92251228","imageIndex":7,"items":[{"name":"세일식자재마트/(주)지혜컨설팅","tel":"031-382-7181","addr":"경기도 군포시 산본동 1147번지 금강2단지주상복합아파트","indutype":"유통업 영리 - 슈퍼마켓","category":"mart"}]},{"lat":"37.374054621","long":"126.92943009","imageIndex":7,"items":[{"name":"수리산슈퍼","tel":"031-393-4047","addr":"경기도 군포시 산본동 1069-5번지","indutype":"유통업 영리 - 슈퍼마켓","category":"mart"}]},{"lat":"37.369780759","long":"126.93973003","imageIndex":7,"items":[{"name":"신세계마트","tel":"070-4036-2951","addr":"경기도 군포시 산본동 236-15번지","indutype":"유통업 영리 - 슈퍼마켓","category":"mart"}]},{"lat":"37.370248867","long":"126.93895068","imageIndex":7,"items":[{"name":"아울렛DC마트","tel":"031-393-8845","addr":"경기도 군포시 산본동 222-1번지","indutype":"유통업 영리 - 슈퍼마켓","category":"mart"}]},{"lat":"37.362923082","long":"126.92320986","imageIndex":7,"items":[{"name":"아울렛마트","tel":"031-398-0651","addr":"경기도 군포시 산본동 1119-3번지 백두상가 지하층 4호","indutype":"유통업 영리 - 슈퍼마켓","category":"mart"}]},{"lat":"37.373501073","long":"126.93812377","imageIndex":7,"items":[{"name":"아주마트","tel":"031-394-2900","addr":"경기도 군포시 산본동 73-30번지","indutype":"유통업 영리 - 슈퍼마켓","category":"mart"}]},{"lat":"37.370754645","long":"126.9412307","imageIndex":7,"items":[{"name":"영빈마트","tel":"031-395-3789","addr":"경기도 군포시 산본동 238-10번지","indutype":"유통업 영리 - 슈퍼마켓","category":"mart"}]},{"lat":"37.371671938","long":"126.93797858","imageIndex":7,"items":[{"name":"오케이팜식자재","tel":"031-264-0365","addr":"경기도 군포시 산본동 81-29번지 산본종합상가 106호","indutype":"유통업 영리 - 슈퍼마켓","category":"mart"}]},{"lat":"37.359359533","long":"126.93014425","imageIndex":7,"items":[{"name":"우리편의점","tel":"031-391-6060","addr":"경기도 군포시 산본동 1144-1번지 유공빌딩 106호","indutype":"유통업 영리 - 슈퍼마켓","category":"mart"}]},{"lat":"37.374722879","long":"126.93190195","imageIndex":7,"items":[{"name":"주공공판장","tel":"031-398-8245","addr":"경기도 군포시 산본동 1066-4번지 개나리주공나상가 102호","indutype":"유통업 영리 - 슈퍼마켓","category":"mart"}]},{"lat":"37.351417809","long":"126.92423781","imageIndex":7,"items":[{"name":"주공중앙슈퍼","tel":"031-392-6769","addr":"경기도 군포시 산본동 1155번지 가야주공 일반상가 103호","indutype":"유통업 영리 - 슈퍼마켓","category":"mart"}]},{"lat":"37.368672526","long":"126.93975354","imageIndex":7,"items":[{"name":"진슈퍼","tel":"031-111-1111","addr":"경기도 군포시 산본동 229-8번지 1층","indutype":"유통업 영리 - 슈퍼마켓","category":"mart"}]},{"lat":"37.372276935","long":"126.9404279","imageIndex":7,"items":[{"name":"천천왕","tel":"031-396-6888","addr":"경기도 군포시 산본동 93번지","indutype":"유통업 영리 - 슈퍼마켓","category":"mart"}]},{"lat":"37.371526535","long":"126.93575467","imageIndex":7,"items":[{"name":"초록마을산본점","tel":"031-399-6212","addr":"경기도 군포시 산본동 207-12번지 산본두성프라자 105호","indutype":"유통업 영리 - 슈퍼마켓","category":"mart"}]},{"lat":"37.371834771","long":"126.93917513","imageIndex":7,"items":[{"name":"텃밭마트(총각네옛날통닭(산본점))","tel":"031-391-1400","addr":"경기도 군포시 산본동 83-9번지 1층 일부호","indutype":"유통업 영리 - 슈퍼마켓","category":"mart"}]},{"lat":"37.373169258","long":"126.9410368","imageIndex":7,"items":[{"name":"팔팔중국식품","tel":"031-392-6888","addr":"경기도 군포시 산본동 97번지 101호","indutype":"유통업 영리 - 슈퍼마켓","category":"mart"}]},{"lat":"37.375221944","long":"126.93800939","imageIndex":7,"items":[{"name":"하나로할인마트","tel":"031-395-9453","addr":"경기도 군포시 산본동 1056-2번지 101호","indutype":"유통업 영리 - 슈퍼마켓","category":"mart"}]},{"lat":"37.345508017","long":"126.92556438","imageIndex":7,"items":[{"name":"한라마트","tel":"031-393-0138","addr":"경기도 군포시 산본동 1156-15한라2차분산상가102","indutype":"유통업 영리 - 슈퍼마켓","category":"mart"}]},{"lat":"37.371276913","long":"126.94062065","imageIndex":7,"items":[{"name":"한아름마트","tel":"031-394-2635","addr":"경기도 군포시 산본동 91-41번지 1층일부","indutype":"유통업 영리 - 슈퍼마켓","category":"mart"}]},{"lat":"37.371726722","long":"126.93931069","imageIndex":7,"items":[{"name":"현대종합할인마트","tel":"031-391-2533","addr":"경기도 군포시 산본동 90-16번지","indutype":"유통업 영리 - 슈퍼마켓","category":"mart"}]},{"lat":"37.34381239","long":"126.92298178","imageIndex":7,"items":[{"name":"홈MART","tel":"031-392-4817","addr":"경기도 군포시 산본동 1155-8번지 가야아파트 상가 101호","indutype":"유통업 영리 - 슈퍼마켓","category":"mart"}]}]