[{"lat":"37.516260654","long":"126.78440522","imageIndex":13,"items":[{"name":"10억 노래연습장","tel":"032-671-2884","addr":"경기도 부천시 도당동 26-13번지 지층","indutype":"레저업소 - 노 래 방","category":"leisure"}]},{"lat":"37.520231523","long":"126.79296801","imageIndex":13,"items":[{"name":"OK노래연습장","tel":"032-682-2545","addr":"경기도 부천시 도당동 116-13번지 지층","indutype":"레저업소 - 노 래 방","category":"leisure"},{"name":"원 당구장","tel":"","addr":"경기도 부천시 도당동 116-13번지 2층","indutype":"레저업소 - 당 구 장","category":"leisure"}]},{"lat":"37.506314445","long":"126.77996687","imageIndex":13,"items":[{"name":"강남당구장","tel":"070-7556-1174","addr":"경기도 부천시 도당동 284-3번지 3층","indutype":"레저업소 - 당 구 장","category":"leisure"},{"name":"유핏","tel":"","addr":"경기도 부천시 도당동 284-3번지 2층","indutype":"레저업소 - 헬스클럽","category":"leisure"}]},{"lat":"37.519926953","long":"126.7939643","imageIndex":13,"items":[{"name":"궁전노래연습장","tel":"","addr":"경기도 부천시 도당동 131번지 지층","indutype":"레저업소 - 노 래 방","category":"leisure"},{"name":"에스비에스 스포츠당구클럽","tel":"","addr":"경기도 부천시 도당동 131번지 3층","indutype":"레저업소 - 당 구 장","category":"leisure"}]},{"lat":"37.506703126","long":"126.78063299","imageIndex":13,"items":[{"name":"나이스당구클럽","tel":"032-678-3018","addr":"경기도 부천시 도당동 279-36번지","indutype":"레저업소 - 당 구 장","category":"leisure"}]},{"lat":"37.514539948","long":"126.77496558","imageIndex":13,"items":[{"name":"노블빌리어즈클럽","tel":"031-111-1111","addr":"경기도 부천시 도당동 213번지 B1동","indutype":"레저업소 - 당 구 장","category":"leisure"}]},{"lat":"37.520893459","long":"126.79535298","imageIndex":13,"items":[{"name":"노블존PC방","tel":"032-000-0000","addr":"경기도 부천시 도당동 139번지 송원빌딩 2층 일부","indutype":"레저업소 - 기타레져업소","category":"leisure"},{"name":"정성노래연습장","tel":"032-672-2755","addr":"경기도 부천시 도당동 139번지 송원빌딩 2층","indutype":"레저업소 - 노 래 방","category":"leisure"}]},{"lat":"37.511339136","long":"126.77847025","imageIndex":13,"items":[{"name":"대우골프존","tel":"032-670-8923","addr":"경기도 부천시 도당동 187-7번지 부천대우테크노파크 A동 107호","indutype":"레저업소 - 스크린골프","category":"leisure"},{"name":"오렌지당구장","tel":"032-670-7939","addr":"경기도 부천시 도당동 187-7번지 부천대우테크노파크 A동 202호","indutype":"레저업소 - 당 구 장","category":"leisure"}]},{"lat":"37.520289369","long":"126.7900494","imageIndex":13,"items":[{"name":"도당웰빙센터","tel":"032-681-8899","addr":"경기도 부천시 도당동 61-2번지 501호~502호","indutype":"레저업소 - 헬스클럽","category":"leisure"},{"name":"쑥쑥팡팡","tel":"032-221-7988","addr":"경기도 부천시 도당동 61-2번지 영진빌딩 3층 1호","indutype":"레저업소 - 기타레져업소","category":"leisure"},{"name":"준당구장","tel":"032-682-5495","addr":"경기도 부천시 도당동 61-2번지 영진빌딩 401호","indutype":"레저업소 - 당 구 장","category":"leisure"}]},{"lat":"37.514340879","long":"126.77452505","imageIndex":13,"items":[{"name":"도레미노래연습장","tel":"031-677-9321","addr":"경기도 부천시 도당동 214-3번지 2층","indutype":"레저업소 - 노 래 방","category":"leisure"},{"name":"하마당구장","tel":"032-111-1111","addr":"경기도 부천시 도당동 214-3번지 3층","indutype":"레저업소 - 당 구 장","category":"leisure"}]},{"lat":"37.507368666","long":"126.78482698","imageIndex":13,"items":[{"name":"디디알노래연습장","tel":"070-4961-5171","addr":"경기도 부천시 도당동 263-29번지 지하층 지","indutype":"레저업소 - 노 래 방","category":"leisure"}]},{"lat":"37.519922444","long":"126.79143048","imageIndex":13,"items":[{"name":"라이브콤노래방","tel":"032-673-1705","addr":"경기도 부천시 도당동 108번지","indutype":"레저업소 - 노 래 방","category":"leisure"}]},{"lat":"37.506648705","long":"126.78044088","imageIndex":13,"items":[{"name":"레드PC","tel":"","addr":"경기도 부천시 도당동 279-4번지 3층 일부","indutype":"레저업소 - 기타레져업소","category":"leisure"},{"name":"싸이노래연습장","tel":"032-682-3786","addr":"경기도 부천시 도당동 279-4번지","indutype":"레저업소 - 노 래 방","category":"leisure"}]},{"lat":"37.508512956","long":"126.78001688","imageIndex":13,"items":[{"name":"방가방가노래연습장","tel":"032-675-0209","addr":"경기도 부천시 도당동 281-22번지 지층","indutype":"레저업소 - 노 래 방","category":"leisure"}]},{"lat":"37.507062263","long":"126.77996464","imageIndex":13,"items":[{"name":"베스트","tel":"","addr":"경기도 부천시 도당동 284-1번지 대동빌딩 지하1층","indutype":"레저업소 - 기타레져업소","category":"leisure"},{"name":"왕노래연습장","tel":"032-682-5049","addr":"경기도 부천시 도당동 284-1번지 지하층","indutype":"레저업소 - 노 래 방","category":"leisure"}]},{"lat":"37.52022744","long":"126.79068303","imageIndex":13,"items":[{"name":"불꽃노래연습장","tel":"032-672-7728","addr":"경기도 부천시 도당동 61-15번지 지하","indutype":"레저업소 - 노 래 방","category":"leisure"}]},{"lat":"37.514838667","long":"126.77568857","imageIndex":13,"items":[{"name":"비엔비 (B&B) 당구클럽","tel":"02-1111-1111","addr":"경기도 부천시 도당동 4-14번지 SB타워 401호","indutype":"레저업소 - 당 구 장","category":"leisure"}]},{"lat":"37.507900137","long":"126.77993953","imageIndex":13,"items":[{"name":"비트노래연습장","tel":"032-675-9032","addr":"경기도 부천시 도당동 283-6번지 A동 지층","indutype":"레저업소 - 노 래 방","category":"leisure"}]},{"lat":"37.508539842","long":"126.78476703","imageIndex":13,"items":[{"name":"빅박스노래연습장","tel":"032-683-8829","addr":"경기도 부천시 도당동 255-3번지 지하","indutype":"레저업소 - 노 래 방","category":"leisure"},{"name":"승리당구클럽","tel":"032-678-0395","addr":"경기도 부천시 도당동 255-3번지 2층","indutype":"레저업소 - 당 구 장","category":"leisure"}]},{"lat":"37.520318046","long":"126.79096557","imageIndex":13,"items":[{"name":"상록수당구장","tel":"032-683-5757","addr":"경기도 부천시 도당동 61-4번지","indutype":"레저업소 - 당 구 장","category":"leisure"},{"name":"호박노래연습장","tel":"032-677-6574","addr":"경기도 부천시 도당동 61-4번지 지하층","indutype":"레저업소 - 노 래 방","category":"leisure"}]},{"lat":"37.508288456","long":"126.7804134","imageIndex":13,"items":[{"name":"샤방샤방노래연습장","tel":"032-673-8844","addr":"경기도 부천시 도당동 275-3번지 2층","indutype":"레저업소 - 노 래 방","category":"leisure"}]},{"lat":"37.507728949","long":"126.77994004","imageIndex":13,"items":[{"name":"세븐노래연습장","tel":"032-678-7401","addr":"경기도 부천시 도당동 283-7번지 지하층","indutype":"레저업소 - 노 래 방","category":"leisure"},{"name":"유명당구장","tel":"032-677-9745","addr":"경기도 부천시 도당동 283-7번지","indutype":"레저업소 - 당 구 장","category":"leisure"}]},{"lat":"37.511646105","long":"126.78360431","imageIndex":13,"items":[{"name":"스타노래연습장","tel":"032-614-8788","addr":"경기도 부천시 도당동 98-13번지","indutype":"레저업소 - 노 래 방","category":"leisure"}]},{"lat":"37.507368128","long":"126.77971492","imageIndex":13,"items":[{"name":"스타노래연습장","tel":"032-672-1623","addr":"경기도 부천시 도당동 283-19번지 2층","indutype":"레저업소 - 노 래 방","category":"leisure"}]},{"lat":"37.519810125","long":"126.79413431","imageIndex":13,"items":[{"name":"스타당구장","tel":"","addr":"경기도 부천시 도당동 131-1번지 2층","indutype":"레저업소 - 당 구 장","category":"leisure"}]},{"lat":"37.50748579","long":"126.77999731","imageIndex":13,"items":[{"name":"씨엔씨노래연습장","tel":"032-678-6199","addr":"경기도 부천시 도당동 283-18번지 지층","indutype":"레저업소 - 노 래 방","category":"leisure"},{"name":"아트당구장","tel":"032-205-0220","addr":"경기도 부천시 도당동 283-18번지","indutype":"레저업소 - 당 구 장","category":"leisure"}]},{"lat":"37.505981081","long":"126.77996786","imageIndex":13,"items":[{"name":"아키볼당구클럽","tel":"032-202-2311","addr":"경기도 부천시 도당동 284-6번지 나동 2층","indutype":"레저업소 - 당 구 장","category":"leisure"}]},{"lat":"37.51886723","long":"126.78587945","imageIndex":13,"items":[{"name":"에스당구장 (S당구장)","tel":"","addr":"경기도 부천시 도당동 42-3번지 2층","indutype":"레저업소 - 당 구 장","category":"leisure"}]},{"lat":"37.507423553","long":"126.78043858","imageIndex":13,"items":[{"name":"연지노래연습장","tel":"032-657-6327","addr":"경기도 부천시 도당동 275-9번지","indutype":"레저업소 - 노 래 방","category":"leisure"}]},{"lat":"37.508458085","long":"126.78440534","imageIndex":13,"items":[{"name":"영진노래연습장","tel":"032-674-7163","addr":"경기도 부천시 도당동 257-15번지","indutype":"레저업소 - 노 래 방","category":"leisure"}]},{"lat":"37.505901036","long":"126.78052227","imageIndex":13,"items":[{"name":"영풍 노래연습장","tel":"032-673-7757","addr":"경기도 부천시 도당동 279-7번지 2층 1호","indutype":"레저업소 - 노 래 방","category":"leisure"}]},{"lat":"37.519927833","long":"126.79446202","imageIndex":13,"items":[{"name":"와 노래연습장","tel":"032-678-2701","addr":"경기도 부천시 도당동 131-11번지 G동 1층","indutype":"레저업소 - 노 래 방","category":"leisure"}]},{"lat":"37.507367872","long":"126.7795792","imageIndex":13,"items":[{"name":"와 노래연습장","tel":"032-677-8039","addr":"경기도 부천시 도당동 283-20번지 2층","indutype":"레저업소 - 노 래 방","category":"leisure"}]},{"lat":"37.50884632","long":"126.78001589","imageIndex":13,"items":[{"name":"원당구장","tel":"070-4150-5894","addr":"경기도 부천시 도당동 281-29번지 2층","indutype":"레저업소 - 당 구 장","category":"leisure"}]},{"lat":"37.51953696","long":"126.78751771","imageIndex":13,"items":[{"name":"은성스포츠센터","tel":"032-683-7777","addr":"경기도 부천시 도당동 43-3번지","indutype":"레저업소 - 헬스클럽","category":"leisure"}]},{"lat":"37.513341246","long":"126.77476563","imageIndex":13,"items":[{"name":"장보고노래방","tel":"032-681-7207","addr":"경기도 부천시 도당동 221-3번지","indutype":"레저업소 - 노 래 방","category":"leisure"}]},{"lat":"37.517315958","long":"126.78996735","imageIndex":13,"items":[{"name":"점프윙스 줄넘기클럽","tel":"032-675-7990","addr":"경기도 부천시 도당동 67-28번지 3층","indutype":"레저업소 - 헬스클럽","category":"leisure"}]},{"lat":"37.512845505","long":"126.78418896","imageIndex":13,"items":[{"name":"제니스SG스크린골프","tel":"032-237-7979","addr":"경기도 부천시 도당동 95-2번지 Y-제니스파크 201호","indutype":"레저업소 - 스크린골프","category":"leisure"}]},{"lat":"37.519840423","long":"126.79091037","imageIndex":13,"items":[{"name":"제이제이빌리아드클럽","tel":"032-677-6214","addr":"경기도 부천시 도당동 62-1번지 흥아빌딩 2층","indutype":"레저업소 - 당 구 장","category":"leisure"}]},{"lat":"37.520232146","long":"126.79331868","imageIndex":13,"items":[{"name":"짱노래연습장","tel":"070-7379-5937","addr":"경기도 부천시 도당동 116-14번지 지층","indutype":"레저업소 - 노 래 방","category":"leisure"}]},{"lat":"37.520232687","long":"126.7936241","imageIndex":13,"items":[{"name":"카라","tel":"","addr":"경기도 부천시 도당동 116-15번지 지하","indutype":"레저업소 - 노 래 방","category":"leisure"}]},{"lat":"37.507901075","long":"126.78043717","imageIndex":13,"items":[{"name":"코러스노래연습장","tel":"032-677-5724","addr":"경기도 부천시 도당동 275-26번지 지층","indutype":"레저업소 - 노 래 방","category":"leisure"}]},{"lat":"37.506117273","long":"126.78052163","imageIndex":13,"items":[{"name":"코리아노래연습장","tel":"032-676-9271","addr":"경기도 부천시 도당동 279-5번지","indutype":"레저업소 - 노 래 방","category":"leisure"}]},{"lat":"37.50695504","long":"126.78043997","imageIndex":13,"items":[{"name":"특급노래연습장","tel":"032-677-6583","addr":"경기도 부천시 도당동 279-3번지","indutype":"레저업소 - 노 래 방","category":"leisure"}]},{"lat":"37.515396733","long":"126.78496198","imageIndex":13,"items":[{"name":"티파니노래연습장","tel":"032-667-8168","addr":"경기도 부천시 도당동 73-8번지 지층","indutype":"레저업소 - 노 래 방","category":"leisure"},{"name":"한큐당구장","tel":"032-672-4870","addr":"경기도 부천시 도당동 73-8번지 부양빌딩 4층","indutype":"레저업소 - 당 구 장","category":"leisure"}]},{"lat":"37.507373963","long":"126.78282512","imageIndex":13,"items":[{"name":"팡팡노래연습장","tel":"032-682-1145","addr":"경기도 부천시 도당동 263-11번지","indutype":"레저업소 - 노 래 방","category":"leisure"}]},{"lat":"37.507621663","long":"126.78038145","imageIndex":13,"items":[{"name":"필노래연습장","tel":"032-671-2232","addr":"경기도 부천시 도당동 275-8번지 2층","indutype":"레저업소 - 노 래 방","category":"leisure"}]}]