[{"lat":"37.717962509","long":"127.09920823","imageIndex":17,"items":[{"name":"007보세전문","tel":"031-848-6389","addr":"경기도 의정부시 고산동 산116-11번지 69호","indutype":"의류 - 정장","category":"other"},{"name":"불교용품재활용센타","tel":"031-842-1070","addr":"경기도 의정부시 고산동 산116-11번지","indutype":"신변잡화 - 기념품점","category":"other"},{"name":"사진관","tel":"070-7593-2215","addr":"경기도 의정부시 고산동 산116-11번지","indutype":"광학제품 - 사진관","category":"other"}]},{"lat":"37.728628989","long":"127.10026564","imageIndex":17,"items":[{"name":"GS25의정고산점","tel":"","addr":"경기도 의정부시 고산동 621-9번지","indutype":"유통업 영리 - 편 의 점","category":"other"}]},{"lat":"37.720465184","long":"127.10161602","imageIndex":17,"items":[{"name":"JM인테리어","tel":"031-846-5688","addr":"경기도 의정부시 고산동 505-5번지","indutype":"건축자재 - 인테리어전문","category":"other"}]},{"lat":"37.729484701","long":"127.10050498","imageIndex":17,"items":[{"name":"K아트 미술관","tel":"","addr":"경기도 의정부시 고산동 623번지","indutype":"문화.취미 - 화랑","category":"other"}]},{"lat":"37.732546795","long":"127.09051487","imageIndex":17,"items":[{"name":"경성 철물 조경자재","tel":"031-847-6565","addr":"경기도 의정부시 고산동 855-33번지 1층","indutype":"건축자재 - 목재·석재·철물","category":"other"}]},{"lat":"37.737017157","long":"127.11033942","imageIndex":17,"items":[{"name":"고산꽃농원","tel":"031-841-7242","addr":"경기도 의정부시 고산동 290번지 1층","indutype":"문화.취미 - 화원","category":"other"}]},{"lat":"37.741542073","long":"127.11765242","imageIndex":17,"items":[{"name":"골덴양복점","tel":"031-841-6096","addr":"경기도 의정부시 고산동 116","indutype":"의류 - 양품점","category":"other"}]},{"lat":"37.730489138","long":"127.1059513","imageIndex":17,"items":[{"name":"명성부동산공인중개사사무소","tel":"031-848-8976","addr":"경기도 의정부시 고산동 454-6번지 다동","indutype":"용역 서비스 - 부동산 중개·임대","category":"other"}]},{"lat":"37.718186309","long":"127.10095517","imageIndex":17,"items":[{"name":"원일 메카닉","tel":"031-000-0000","addr":"경기도 의정부시 고산동 산117-3번지","indutype":"전기제품 - 냉열기기","category":"other"}]},{"lat":"37.728629242","long":"127.09995937","imageIndex":17,"items":[{"name":"한국후지상사","tel":"031-848-1472","addr":"경기도 의정부시 고산동 621-25번지","indutype":"기타 - 기계공구","category":"other"}]}]