[{"lat":"37.653474005","long":"127.32918737","imageIndex":13,"items":[{"name":"김은숙헤어클럽","tel":"031-594-7551","addr":"경기도 남양주시 화도읍 월산리 310-2번지","indutype":"보건위생 - 미용원","category":"beauty"}]},{"lat":"37.65117187","long":"127.33729075","imageIndex":13,"items":[{"name":"네일하는 언니","tel":"031-111-1111","addr":"경기도 남양주시 화도읍 월산리 1527번지 효성상가 108동 2층 205호","indutype":"보건위생 - 피부미용실","category":"beauty"},{"name":"아쎌(Asher)","tel":"","addr":"경기도 남양주시 화도읍 월산리 1527번지 화도효성해링턴플레이스 101동 704호","indutype":"보건위생 - 화장품","category":"beauty"},{"name":"헤어 미(HAIR MI)","tel":"031-559-8765","addr":"경기도 남양주시 화도읍 월산리 1527번지 화도 효성해링턴 플레이스 상가동 107호","indutype":"보건위생 - 미용원","category":"beauty"}]},{"lat":"37.654641132","long":"127.340264","imageIndex":13,"items":[{"name":"뷰티킹스","tel":"","addr":"경기도 남양주시 화도읍 월산리 1528번지 사랑으로부영1단지 112동 12층 1204호","indutype":"보건위생 - 미용재료","category":"beauty"},{"name":"시크릿헤어","tel":"031-591-3272","addr":"경기도 남양주시 화도읍 월산리 1528번지 남양주월산사랑으로부영1단지 상가 2동 103호","indutype":"보건위생 - 미용원","category":"beauty"},{"name":"아모레 카운셀러","tel":"031-593-3292","addr":"경기도 남양주시 화도읍 월산리 1528번지 남양주월산사랑으로부영1단지 106동 2303호","indutype":"보건위생 - 화장품","category":"beauty"},{"name":"아모레카운셀러","tel":"031-593-3292","addr":"경기도 남양주시 화도읍 월산리 1528번지 남양주월산사랑으로부영1단지 109동 2102호","indutype":"보건위생 - 화장품","category":"beauty"},{"name":"온스타일헤어","tel":"031-593-0207","addr":"경기도 남양주시 화도읍 월산리 1528번지 남양주월산사랑으로부영1단지 상가 1동 102호","indutype":"보건위생 - 미용원","category":"beauty"},{"name":"헤어 제이","tel":"031-559-4475","addr":"경기도 남양주시 화도읍 월산리 1528번지 부영1단지 상가 3동 106호","indutype":"보건위생 - 미용원","category":"beauty"}]},{"lat":"37.652451065","long":"127.33735314","imageIndex":13,"items":[{"name":"오리다 (ORIDA)","tel":"031-111-1111","addr":"경기도 남양주시 화도읍 월산리 87-20번지 1층 일부","indutype":"보건위생 - 미용원","category":"beauty"}]}]