[{"lat":"37.520790645","long":"126.78823807","imageIndex":4,"items":[{"name":"감성갈비","tel":"032-676-8855","addr":"경기도 부천시 내동 352-1번지 1층","indutype":"일반휴게음식 - 일반한식","category":"restaurant"},{"name":"김둘레순대국","tel":"032-672-1377","addr":"경기도 부천시 내동 352-1번지 1층 4호","indutype":"일반휴게음식 - 일반한식","category":"restaurant"},{"name":"다래","tel":"031-676-1413","addr":"경기도 부천시 내동 352-1번지 1층 2호","indutype":"일반휴게음식 - 일반한식","category":"restaurant"},{"name":"인생갈비","tel":"","addr":"경기도 부천시 내동 352-1번지 1층 3호","indutype":"일반휴게음식 - 일반한식","category":"restaurant"},{"name":"횡성생고기","tel":"032-673-9282","addr":"경기도 부천시 내동 352-1번지 1층 1호","indutype":"일반휴게음식 - 일반한식","category":"restaurant"}]},{"lat":"37.519922094","long":"126.77199683","imageIndex":4,"items":[{"name":"거성치킨","tel":"032-679-9200","addr":"경기도 부천시 내동 9-12번지 1층","indutype":"일반휴게음식 - 스넥","category":"restaurant"}]},{"lat":"37.520705195","long":"126.7858515","imageIndex":4,"items":[{"name":"고향막걸리","tel":"02-000-0000","addr":"경기도 부천시 내동 306-4번지 선경타운 102호","indutype":"일반휴게음식 - 일반한식","category":"restaurant"},{"name":"드립하우스(부천내동점)","tel":"032-684-1253","addr":"경기도 부천시 내동 306-4번지 선경타운","indutype":"일반휴게음식 - 서양음식","category":"restaurant"}]},{"lat":"37.519651578","long":"126.77188455","imageIndex":4,"items":[{"name":"굼터숯불닭갈비한방닭곰탕","tel":"032-675-0222","addr":"경기도 부천시 내동 9-6번지","indutype":"일반휴게음식 - 일반한식","category":"restaurant"}]},{"lat":"37.52633754","long":"126.78162684","imageIndex":4,"items":[{"name":"굿데이카페","tel":"031-671-5179","addr":"경기도 부천시 내동 219-14번지 1층","indutype":"일반휴게음식 - 서양음식","category":"restaurant"}]},{"lat":"37.522395793","long":"126.77927424","imageIndex":4,"items":[{"name":"내동셀프식당","tel":"032-678-9722","addr":"경기도 부천시 내동 128-1번지","indutype":"일반휴게음식 - 일반한식","category":"restaurant"}]},{"lat":"37.520366032","long":"126.7827191","imageIndex":4,"items":[{"name":"내리식당","tel":"032-672-2306","addr":"경기도 부천시 내동 260-2번지","indutype":"일반휴게음식 - 일반한식","category":"restaurant"}]},{"lat":"37.519815482","long":"126.78221169","imageIndex":4,"items":[{"name":"누리네커피","tel":"032-327-8525","addr":"경기도 부천시 내동 216-4번지 1층 일부호","indutype":"일반휴게음식 - 일반한식","category":"restaurant"},{"name":"솔바람한식부페","tel":"032-679-0556","addr":"경기도 부천시 내동 216-4번지 2층","indutype":"일반휴게음식 - 일반한식","category":"restaurant"}]},{"lat":"37.520310856","long":"126.78699514","imageIndex":4,"items":[{"name":"다경삼겹살","tel":"032-672-5574","addr":"경기도 부천시 내동 328번지 1층 2호","indutype":"일반휴게음식 - 일반한식","category":"restaurant"},{"name":"오리가","tel":"032-672-9952","addr":"경기도 부천시 내동 328번지 1층 4,5,6호","indutype":"일반휴게음식 - 일반한식","category":"restaurant"},{"name":"원스시","tel":"032-213-4462","addr":"경기도 부천시 내동 328번지","indutype":"일반휴게음식 - 일식·회집","category":"restaurant"}]},{"lat":"37.520786531","long":"126.78113419","imageIndex":4,"items":[{"name":"다옴한식부페","tel":"02-1111-1111","addr":"경기도 부천시 내동 183-21번지","indutype":"일반휴게음식 - 일반한식","category":"restaurant"}]},{"lat":"37.519818325","long":"126.78373877","imageIndex":4,"items":[{"name":"대호식당","tel":"032-677-0371","addr":"경기도 부천시 내동 272번지 1층","indutype":"일반휴게음식 - 일반한식","category":"restaurant"}]},{"lat":"37.522142768","long":"126.77887907","imageIndex":4,"items":[{"name":"더커피","tel":"02-1661-1484","addr":"경기도 부천시 내동 129번지 1층","indutype":"일반휴게음식 - 서양음식","category":"restaurant"}]},{"lat":"37.520228193","long":"126.78613568","imageIndex":4,"items":[{"name":"돈이하우스","tel":"032-675-1214","addr":"경기도 부천시 내동 326번지 1층","indutype":"일반휴게음식 - 일반한식","category":"restaurant"}]},{"lat":"37.519341206","long":"126.77444195","imageIndex":4,"items":[{"name":"돈천지우천지","tel":"032-677-9559","addr":"경기도 부천시 내동 16번지 1층","indutype":"일반휴게음식 - 일반한식","category":"restaurant"}]},{"lat":"37.519922956","long":"126.77243799","imageIndex":4,"items":[{"name":"돼지꿈마을","tel":"032-682-5677","addr":"경기도 부천시 내동 9-36번지","indutype":"일반휴게음식 - 일반한식","category":"restaurant"}]},{"lat":"37.520707392","long":"126.78705055","imageIndex":4,"items":[{"name":"두리랑포차","tel":"032-204-5574","addr":"경기도 부천시 내동 329-5번지 1층 일부","indutype":"일반휴게음식 - 일반한식","category":"restaurant"}]},{"lat":"37.519595947","long":"126.7757194","imageIndex":4,"items":[{"name":"마이 플레져 커피","tel":"031-311-3311","addr":"경기도 부천시 내동 68-2번지 1층 일부호","indutype":"일반휴게음식 - 서양음식","category":"restaurant"}]},{"lat":"37.520455326","long":"126.77751538","imageIndex":4,"items":[{"name":"만나식당","tel":"032-672-5134","addr":"경기도 부천시 내동 117-5번지 2층","indutype":"일반휴게음식 - 일반한식","category":"restaurant"}]},{"lat":"37.522068228","long":"126.78723894","imageIndex":4,"items":[{"name":"만풍생고기구이","tel":"032-674-6314","addr":"경기도 부천시 내동 340-4번지 신영하이츠빌라 101호","indutype":"일반휴게음식 - 일반한식","category":"restaurant"}]},{"lat":"37.520399948","long":"126.77682552","imageIndex":4,"items":[{"name":"맛나식당","tel":"032-671-4465","addr":"경기도 부천시 내동 81번지","indutype":"일반휴게음식 - 일반한식","category":"restaurant"},{"name":"커피겟","tel":"","addr":"경기도 부천시 내동 81번지 태희빌딩 라동 1층 일부호","indutype":"일반휴게음식 - 서양음식","category":"restaurant"}]},{"lat":"37.520366421","long":"126.78782074","imageIndex":4,"items":[{"name":"맛닭꼬(내동점)","tel":"032-676-2292","addr":"경기도 부천시 내동 353번지 일부 나동 1층","indutype":"일반휴게음식 - 스넥","category":"restaurant"},{"name":"명태어장","tel":"032-676-8500","addr":"경기도 부천시 내동 353번지 가동 1층","indutype":"일반휴게음식 - 일반한식","category":"restaurant"},{"name":"바다일식세상","tel":"032-676-5436","addr":"경기도 부천시 내동 353번지 가동 1층","indutype":"일반휴게음식 - 일식·회집","category":"restaurant"},{"name":"예스플러스","tel":"032-221-6502","addr":"경기도 부천시 내동 353번지 가동 1층 일부","indutype":"일반휴게음식 - 일반한식","category":"restaurant"},{"name":"왕뼈해장국","tel":"032-681-4239","addr":"경기도 부천시 내동 353번지 1층","indutype":"일반휴게음식 - 일반한식","category":"restaurant"},{"name":"참숯불불닭발불떡볶이","tel":"032-678-2253","addr":"경기도 부천시 내동 353번지 가동 1층 4호","indutype":"일반휴게음식 - 일반한식","category":"restaurant"}]},{"lat":"37.517171309","long":"126.77993458","imageIndex":4,"items":[{"name":"맛차칸분식","tel":"032-679-3229","addr":"경기도 부천시 내동 152번지 1층","indutype":"일반휴게음식 - 스넥","category":"restaurant"}]},{"lat":"37.51753655","long":"126.77773907","imageIndex":4,"items":[{"name":"매점식당","tel":"032-678-6762","addr":"경기도 부천시 내동 108번지","indutype":"일반휴게음식 - 일반한식","category":"restaurant"}]},{"lat":"37.515701955","long":"126.77482631","imageIndex":4,"items":[{"name":"명륜진사갈비(약대오거리점)","tel":"032-677-0092","addr":"경기도 부천시 내동 55-1번지 럭키빌딩 1층","indutype":"일반휴게음식 - 일반한식","category":"restaurant"}]},{"lat":"37.520728171","long":"126.78365692","imageIndex":4,"items":[{"name":"모녀한식부페","tel":"032-673-8092","addr":"경기도 부천시 내동 275-1번지","indutype":"일반휴게음식 - 일반한식","category":"restaurant"}]},{"lat":"37.520705652","long":"126.78610036","imageIndex":4,"items":[{"name":"모모치킨","tel":"032-684-5292","addr":"경기도 부천시 내동 330번지 1층","indutype":"일반휴게음식 - 스넥","category":"restaurant"},{"name":"시장피자 (도당점)","tel":"032-681-1580","addr":"경기도 부천시 내동 330번지 1층 1호","indutype":"일반휴게음식 - 서양음식","category":"restaurant"}]},{"lat":"37.520700533","long":"126.78332896","imageIndex":4,"items":[{"name":"미도식당","tel":"032-672-5152","addr":"경기도 부천시 내동 259-1번지 1층","indutype":"일반휴게음식 - 일반한식","category":"restaurant"}]},{"lat":"37.515759278","long":"126.77652281","imageIndex":4,"items":[{"name":"미락생선구이","tel":"032-671-3123","addr":"경기도 부천시 내동 96-2번지 202호","indutype":"일반휴게음식 - 일반한식","category":"restaurant"},{"name":"커피밸런스","tel":"032-212-0531","addr":"경기도 부천시 내동 96-2번지 1층 101호","indutype":"일반휴게음식 - 서양음식","category":"restaurant"}]},{"lat":"37.521396259","long":"126.77957133","imageIndex":4,"items":[{"name":"미소식당","tel":"032-677-7063","addr":"경기도 부천시 내동 161번지 2층","indutype":"일반휴게음식 - 일반한식","category":"restaurant"}]},{"lat":"37.520809978","long":"126.78896197","imageIndex":4,"items":[{"name":"밥먹고술먹자(계절해물류)","tel":"032-668-2900","addr":"경기도 부천시 내동 354번지 1층 6-2호","indutype":"일반휴게음식 - 일반한식","category":"restaurant"},{"name":"서준수산","tel":"","addr":"경기도 부천시 내동 354번지 1층 일부","indutype":"일반휴게음식 - 일반한식","category":"restaurant"},{"name":"우리동네연탄갈비","tel":"031-674-1999","addr":"경기도 부천시 내동 354번지 1층","indutype":"일반휴게음식 - 일반한식","category":"restaurant"},{"name":"인생외식","tel":"032-679-7888","addr":"경기도 부천시 내동 354번지 1층 일부","indutype":"일반휴게음식 - 스넥","category":"restaurant"},{"name":"큰맘할매순대국","tel":"032-673-8431","addr":"경기도 부천시 내동 354번지","indutype":"일반휴게음식 - 일반한식","category":"restaurant"}]},{"lat":"37.517454681","long":"126.7726605","imageIndex":4,"items":[{"name":"부엉수산","tel":"032-213-2342","addr":"경기도 부천시 내동 32-6번지 1층 일부","indutype":"일반휴게음식 - 일식·회집","category":"restaurant"}]},{"lat":"37.521814077","long":"126.78135739","imageIndex":4,"items":[{"name":"부일식당","tel":"032-688-7184","addr":"경기도 부천시 내동 229-1번지 1층","indutype":"일반휴게음식 - 일반한식","category":"restaurant"}]},{"lat":"37.518120703","long":"126.77229648","imageIndex":4,"items":[{"name":"비비큐","tel":"032-325-9282","addr":"경기도 부천시 내동 31-28번지 효마을타운 101동 101호","indutype":"일반휴게음식 - 주점","category":"restaurant"}]},{"lat":"37.517896318","long":"126.77740996","imageIndex":4,"items":[{"name":"빅트른닉스구내식당","tel":"032-678-8542","addr":"경기도 부천시 내동 110-3번지 1층","indutype":"일반휴게음식 - 일반한식","category":"restaurant"}]},{"lat":"37.521201193","long":"126.78609893","imageIndex":4,"items":[{"name":"빌보드","tel":"032-682-1573","addr":"경기도 부천시 내동 332번지","indutype":"일반휴게음식 - 칵테일바","category":"restaurant"}]},{"lat":"37.519759696","long":"126.77188421","imageIndex":4,"items":[{"name":"산들에전통육개장","tel":"031-671-7652","addr":"경기도 부천시 내동 9-5번지","indutype":"일반휴게음식 - 일반한식","category":"restaurant"}]},{"lat":"37.525983755","long":"126.78034955","imageIndex":4,"items":[{"name":"산천","tel":"032-677-1331","addr":"경기도 부천시 내동 212-28번지 뉴테크노타운 1층 1호","indutype":"일반휴게음식 - 일반한식","category":"restaurant"},{"name":"푸짐한밥상","tel":"032-677-1331","addr":"경기도 부천시 내동 212-28번지 뉴테크노타운 101호","indutype":"일반휴게음식 - 일반한식","category":"restaurant"}]},{"lat":"37.520281606","long":"126.77619242","imageIndex":4,"items":[{"name":"생고기김치찌개","tel":"032-673-7750","addr":"경기도 부천시 내동 80-1번지","indutype":"일반휴게음식 - 일반한식","category":"restaurant"}]},{"lat":"37.515421206","long":"126.77408063","imageIndex":4,"items":[{"name":"생선구이&밥이랑국이랑","tel":"032-684-8055","addr":"경기도 부천시 내동 57-28번지 1층","indutype":"일반휴게음식 - 일반한식","category":"restaurant"}]},{"lat":"37.521233788","long":"126.78915307","imageIndex":4,"items":[{"name":"생선명가거북명태(부천내동점)","tel":"032-678-5907","addr":"경기도 부천시 내동 355번지 A동","indutype":"일반휴게음식 - 일반한식","category":"restaurant"},{"name":"옛날수타짜장","tel":"032-684-5006","addr":"경기도 부천시 내동 355번지 A동 1층 삼오오상가 일부","indutype":"일반휴게음식 - 중국식","category":"restaurant"},{"name":"카페드블랑","tel":"032-676-9001","addr":"경기도 부천시 내동 355번지 일부호 A동 1층","indutype":"일반휴게음식 - 서양음식","category":"restaurant"}]},{"lat":"37.52298216","long":"126.7796571","imageIndex":4,"items":[{"name":"셀프식당","tel":"032-678-9722","addr":"경기도 부천시 내동 169-7번지","indutype":"일반휴게음식 - 위탁급식업","category":"restaurant"}]},{"lat":"37.519872304","long":"126.77419147","imageIndex":4,"items":[{"name":"소문난양평해장국","tel":"032-676-8400","addr":"경기도 부천시 내동 10-4번지 1층 일부","indutype":"일반휴게음식 - 일반한식","category":"restaurant"}]},{"lat":"37.515922407","long":"126.77702001","imageIndex":4,"items":[{"name":"수원식당","tel":"032-676-1235","addr":"경기도 부천시 내동 96번지 B층 10호 B11","indutype":"일반휴게음식 - 일반한식","category":"restaurant"}]},{"lat":"37.517344647","long":"126.78107651","imageIndex":4,"items":[{"name":"순창한식부페","tel":"032-678-6845","addr":"경기도 부천시 내동 201-4번지 2층","indutype":"일반휴게음식 - 일반한식","category":"restaurant"}]},{"lat":"37.518815707","long":"126.7823843","imageIndex":4,"items":[{"name":"시골밥상","tel":"032-671-5085","addr":"경기도 부천시 내동 319-21 (320-1,2)1층","indutype":"일반휴게음식 - 일반한식","category":"restaurant"}]},{"lat":"37.52315127","long":"126.78335571","imageIndex":4,"items":[{"name":"시온자동기계내 구내식당","tel":"032-675-5999","addr":"경기도 부천시 내동 243-3번지 1층","indutype":"일반휴게음식 - 위탁급식업","category":"restaurant"}]},{"lat":"37.519284725","long":"126.7826544","imageIndex":4,"items":[{"name":"신영식당","tel":"032-672-4740","addr":"경기도 부천시 내동 163-3번지 1층","indutype":"일반휴게음식 - 일반한식","category":"restaurant"}]},{"lat":"37.518674956","long":"126.7842172","imageIndex":4,"items":[{"name":"싸리골","tel":"032-673-6996","addr":"경기도 부천시 내동 269번지 1층 일부","indutype":"일반휴게음식 - 일반한식","category":"restaurant"}]},{"lat":"37.517366629","long":"126.77371273","imageIndex":4,"items":[{"name":"약대왕족발","tel":"032-684-4141","addr":"경기도 부천시 내동 28-4번지 1층","indutype":"일반휴게음식 - 일반한식","category":"restaurant"}]},{"lat":"37.520283993","long":"126.78221031","imageIndex":4,"items":[{"name":"엠앤에프(M&F)","tel":"032-676-7166","addr":"경기도 부천시 내동 228-3번지 1층","indutype":"일반휴게음식 - 서양음식","category":"restaurant"}]},{"lat":"37.519398976","long":"126.7859684","imageIndex":4,"items":[{"name":"오늘은내가쏜다","tel":"032-677-5399","addr":"경기도 부천시 내동 316-6번지","indutype":"일반휴게음식 - 일반한식","category":"restaurant"}]},{"lat":"37.526731272","long":"126.78018895","imageIndex":4,"items":[{"name":"오복식당","tel":"032-676-0880","addr":"경기도 부천시 내동 212-35번지 가동 1호","indutype":"일반휴게음식 - 일반한식","category":"restaurant"}]},{"lat":"37.51698206","long":"126.77991252","imageIndex":4,"items":[{"name":"오부자커피","tel":"032-682-2111","addr":"경기도 부천시 내동 152-1번지 하나빌딩 103호","indutype":"일반휴게음식 - 서양음식","category":"restaurant"}]},{"lat":"37.517067897","long":"126.77298971","imageIndex":4,"items":[{"name":"오빠2","tel":"032-683-2761","addr":"경기도 부천시 내동 33-1번지","indutype":"일반휴게음식 - 일반한식","category":"restaurant"}]},{"lat":"37.5170072","long":"126.77421152","imageIndex":4,"items":[{"name":"올래수산","tel":"032-678-0804","addr":"경기도 부천시 내동 34-3번지 진성메이플빌 101호","indutype":"일반휴게음식 - 일반한식","category":"restaurant"}]},{"lat":"37.517733766","long":"126.77254652","imageIndex":4,"items":[{"name":"옴시롱막걸리빈대떡","tel":"","addr":"경기도 부천시 내동 32번지 1층","indutype":"일반휴게음식 - 일반한식","category":"restaurant"}]},{"lat":"37.519372384","long":"126.77194197","imageIndex":4,"items":[{"name":"왕소금구이식당","tel":"032-674-2355","addr":"경기도 부천시 내동 19번지","indutype":"일반휴게음식 - 일반한식","category":"restaurant"}]},{"lat":"37.516926675","long":"126.77921138","imageIndex":4,"items":[{"name":"우래정","tel":"032-677-4874","addr":"경기도 부천시 내동 150번지","indutype":"일반휴게음식 - 일반한식","category":"restaurant"}]},{"lat":"37.521561129","long":"126.78584902","imageIndex":4,"items":[{"name":"우리가게","tel":"032-683-7380","addr":"경기도 부천시 내동 298-5번지 오성골드빌 101호","indutype":"일반휴게음식 - 주점","category":"restaurant"}]},{"lat":"37.522365553","long":"126.78723808","imageIndex":4,"items":[{"name":"우리돈","tel":"070-7527-2535","addr":"경기도 부천시 내동 341-5번지 장원래미안빌 106동 101호","indutype":"일반휴게음식 - 일반한식","category":"restaurant"}]},{"lat":"37.521615011","long":"126.7809055","imageIndex":4,"items":[{"name":"우리식당","tel":"032-673-9147","addr":"경기도 부천시 내동 182-2번지","indutype":"일반휴게음식 - 일반한식","category":"restaurant"}]},{"lat":"37.517478646","long":"126.7804653","imageIndex":4,"items":[{"name":"우리식당","tel":"032-678-2886","addr":"경기도 부천시 내동 199번지 서보빌딩 2층","indutype":"일반휴게음식 - 일반한식","category":"restaurant"}]},{"lat":"37.521175745","long":"126.77732091","imageIndex":4,"items":[{"name":"우리식당","tel":"032-676-1191","addr":"경기도 부천시 내동 119-12번지 가동 1층","indutype":"일반휴게음식 - 일반한식","category":"restaurant"}]},{"lat":"37.516088569","long":"126.77440662","imageIndex":4,"items":[{"name":"유로코피자중동내동점(픽미픽미아이스)","tel":"","addr":"경기도 부천시 내동 56번지 서현로얄팰리스","indutype":"일반휴게음식 - 서양음식","category":"restaurant"}]},{"lat":"37.518032674","long":"126.78282776","imageIndex":4,"items":[{"name":"율미한식부페","tel":"32-675-3165","addr":"경기도 부천시 내동 202-4번지","indutype":"일반휴게음식 - 일반한식","category":"restaurant"}]},{"lat":"37.52042645","long":"126.78615773","imageIndex":4,"items":[{"name":"으뜸정육식당","tel":"032-682-6262","addr":"경기도 부천시 내동 327번지 1층","indutype":"일반휴게음식 - 일반한식","category":"restaurant"},{"name":"피자나라 치킨공주","tel":"032-677-9248","addr":"경기도 부천시 내동 327번지 우성빌딩","indutype":"일반휴게음식 - 서양음식","category":"restaurant"}]},{"lat":"37.518207547","long":"126.77998805","imageIndex":4,"items":[{"name":"은주식당","tel":"032-671-2636","addr":"경기도 부천시 내동 154-3번지","indutype":"일반휴게음식 - 일반한식","category":"restaurant"}]},{"lat":"37.517179568","long":"126.77482181","imageIndex":4,"items":[{"name":"이가네고기랑찌개랑","tel":"032-682-9226","addr":"경기도 부천시 내동 54번지 1층","indutype":"일반휴게음식 - 일반한식","category":"restaurant"}]},{"lat":"37.521533092","long":"126.78046458","imageIndex":4,"items":[{"name":"이모네집","tel":"032-674-5723","addr":"경기도 부천시 내동 187-3번지 1층","indutype":"일반휴게음식 - 일반한식","category":"restaurant"}]},{"lat":"37.519840785","long":"126.77188396","imageIndex":4,"items":[{"name":"이모네포차","tel":"032-672-8819","addr":"경기도 부천시 내동 9-4번지 1층","indutype":"일반휴게음식 - 일반한식","category":"restaurant"}]},{"lat":"37.517425948","long":"126.78118938","imageIndex":4,"items":[{"name":"자금성","tel":"032-671-2211","addr":"경기도 부천시 내동 201-1번지","indutype":"일반휴게음식 - 중국식","category":"restaurant"},{"name":"자금수제돈까스 냉면","tel":"032-676-4141","addr":"경기도 부천시 내동 201-1번지 1층","indutype":"일반휴게음식 - 일반한식","category":"restaurant"}]},{"lat":"37.516257196","long":"126.77776554","imageIndex":4,"items":[{"name":"자매식당","tel":"032-679-6969","addr":"경기도 부천시 내동 104번지203호","indutype":"일반휴게음식 - 일반한식","category":"restaurant"}]},{"lat":"37.515565144","long":"126.77396708","imageIndex":4,"items":[{"name":"장수한방오리","tel":"032-682-7298","addr":"경기도 부천시 내동 57-23번지","indutype":"일반휴게음식 - 일반한식","category":"restaurant"}]},{"lat":"37.519817588","long":"126.77854667","imageIndex":4,"items":[{"name":"장원갈비","tel":"032-672-7164","addr":"경기도 부천시 내동 135번지","indutype":"일반휴게음식 - 일반한식","category":"restaurant"}]},{"lat":"37.520257428","long":"126.78245924","imageIndex":4,"items":[{"name":"전주식당","tel":"032-681-8878","addr":"경기도 부천시 내동 260번지 1층","indutype":"일반휴게음식 - 일반한식","category":"restaurant"}]},{"lat":"37.522175318","long":"126.77704641","imageIndex":4,"items":[{"name":"전주식당","tel":"032-684-1006","addr":"경기도 부천시 내동 76-4번지 지하","indutype":"일반휴게음식 - 일반한식","category":"restaurant"}]},{"lat":"37.518123383","long":"126.78315552","imageIndex":4,"items":[{"name":"전주식당","tel":"032-677-2662","addr":"경기도 부천시 내동 266-4번지 2층","indutype":"일반휴게음식 - 일반한식","category":"restaurant"}]},{"lat":"37.526783409","long":"126.77446451","imageIndex":4,"items":[{"name":"전주한식부페","tel":"032-684-0290","addr":"경기도 부천시 내동 222-94번지 2층","indutype":"일반휴게음식 - 일반한식","category":"restaurant"}]},{"lat":"37.521535945","long":"126.78685586","imageIndex":4,"items":[{"name":"정재영족발보쌈 오정점","tel":"032-672-1214","addr":"경기도 부천시 내동 335-3번지 2층","indutype":"일반휴게음식 - 일반한식","category":"restaurant"},{"name":"정재영족발보쌈 오정점","tel":"032-672-1214","addr":"경기도 부천시 내동 335-3번지 2층","indutype":"일반휴게음식 - 일반한식","category":"restaurant"}]},{"lat":"37.520706833","long":"126.78674513","imageIndex":4,"items":[{"name":"정재영족발보쌈 오정점","tel":"032-672-1214","addr":"경기도 부천시 내동 329-1번지 2층","indutype":"일반휴게음식 - 일반한식","category":"restaurant"}]},{"lat":"37.525455283","long":"126.77724015","imageIndex":4,"items":[{"name":"제일금속구내식당","tel":"032-673-7719","addr":"경기도 부천시 내동 222-138번지 1층","indutype":"일반휴게음식 - 일반한식","category":"restaurant"}]},{"lat":"37.519233817","long":"126.78435131","imageIndex":4,"items":[{"name":"종가집","tel":"032-672-0003","addr":"경기도 부천시 내동 271-2번지 1층","indutype":"일반휴게음식 - 일반한식","category":"restaurant"}]},{"lat":"37.521564028","long":"126.7874327","imageIndex":4,"items":[{"name":"주식회사 찬들푸드","tel":"032-672-1214","addr":"경기도 부천시 내동 349-5번지 진흥빌딩","indutype":"일반휴게음식 - 일반한식","category":"restaurant"}]},{"lat":"37.518484283","long":"126.77862984","imageIndex":4,"items":[{"name":"지원구내식당","tel":"032-679-1383","addr":"경기도 부천시 내동 138-3번지","indutype":"일반휴게음식 - 일반한식","category":"restaurant"}]},{"lat":"37.521845349","long":"126.78363103","imageIndex":4,"items":[{"name":"차림","tel":"032-678-3936","addr":"경기도 부천시 내동 281번지 1층","indutype":"일반휴게음식 - 일반한식","category":"restaurant"}]},{"lat":"37.51917578","long":"126.77276832","imageIndex":4,"items":[{"name":"천산카페","tel":"032-672-6603","addr":"경기도 부천시 내동 19-3번지","indutype":"일반휴게음식 - 서양음식","category":"restaurant"}]},{"lat":"37.519921807","long":"126.77184978","imageIndex":4,"items":[{"name":"카페작은공간","tel":"032-514-0141","addr":"경기도 부천시 내동 9번지 1층 일부","indutype":"일반휴게음식 - 서양음식","category":"restaurant"}]},{"lat":"37.521872236","long":"126.78846121","imageIndex":4,"items":[{"name":"타파스트럭","tel":"031-111-1111","addr":"경기도 부천시 내동 349-8번지 복사골빌라 102호","indutype":"일반휴게음식 - 일반한식","category":"restaurant"}]},{"lat":"37.518172935","long":"126.78074603","imageIndex":4,"items":[{"name":"태양식당","tel":"032-679-8899","addr":"경기도 부천시 내동 196번지 지층 비01호","indutype":"일반휴게음식 - 일반한식","category":"restaurant"}]},{"lat":"37.520896662","long":"126.7822085","imageIndex":4,"items":[{"name":"태양식당","tel":"032-672-9261","addr":"경기도 부천시 내동 256번지 1층","indutype":"일반휴게음식 - 일반한식","category":"restaurant"}]},{"lat":"37.519539619","long":"126.77454315","imageIndex":4,"items":[{"name":"페리카나치킨","tel":"032-675-9601","addr":"경기도 부천시 내동 12-11번지","indutype":"일반휴게음식 - 칵테일바","category":"restaurant"}]},{"lat":"37.521588615","long":"126.7860978","imageIndex":4,"items":[{"name":"푸드써비스","tel":"032-676-2140","addr":"경기도 부천시 내동 337번지","indutype":"일반휴게음식 - 일반한식","category":"restaurant"}]},{"lat":"37.521146219","long":"126.78560136","imageIndex":4,"items":[{"name":"할매생막걸리","tel":"032-675-6025","addr":"경기도 부천시 내동 300-1번지 성문연립 108호","indutype":"일반휴게음식 - 일반한식","category":"restaurant"}]},{"lat":"37.520448866","long":"126.78365774","imageIndex":4,"items":[{"name":"할매전통순대국","tel":"032-675-1652","addr":"경기도 부천시 내동 274번지 1층","indutype":"일반휴게음식 - 일반한식","category":"restaurant"}]},{"lat":"37.519837372","long":"126.78429299","imageIndex":4,"items":[{"name":"해태식당","tel":"032-683-5301","addr":"경기도 부천시 내동 273-1번지 1층","indutype":"일반휴게음식 - 일반한식","category":"restaurant"}]},{"lat":"37.517650866","long":"126.77626824","imageIndex":4,"items":[{"name":"행복한밥상","tel":"032-677-2873","addr":"경기도 부천시 내동 90번지 1층 일부","indutype":"일반휴게음식 - 일반한식","category":"restaurant"}]},{"lat":"37.519866655","long":"126.7759335","imageIndex":4,"items":[{"name":"행복한식부페식당","tel":"032-673-4880","addr":"경기도 부천시 내동 68-1번지 2층","indutype":"일반휴게음식 - 일반한식","category":"restaurant"}]},{"lat":"37.521145344","long":"126.78512626","imageIndex":4,"items":[{"name":"행운식당","tel":"032-672-1096","addr":"경기도 부천시 내동 300번지 태양연립 2동 102호","indutype":"일반휴게음식 - 일반한식","category":"restaurant"}]},{"lat":"37.522761324","long":"126.78687495","imageIndex":4,"items":[{"name":"현대식당","tel":"032-674-1229","addr":"경기도 부천시 내동 344번지 다우테크노타운 101호","indutype":"일반휴게음식 - 일반한식","category":"restaurant"}]},{"lat":"37.521895632","long":"126.78160602","imageIndex":4,"items":[{"name":"혜성식당","tel":"032-000-0000","addr":"경기도 부천시 내동 230-2번지 1,2층","indutype":"일반휴게음식 - 일반한식","category":"restaurant"}]},{"lat":"37.527006043","long":"126.78257514","imageIndex":4,"items":[{"name":"홍자네주먹고기","tel":"032-675-6881","addr":"경기도 부천시 내동 99-2번지 1층","indutype":"일반휴게음식 - 일반한식","category":"restaurant"}]},{"lat":"37.51736755","long":"126.7741878","imageIndex":4,"items":[{"name":"황고집생삼겹살","tel":"032-675-1654","addr":"경기도 부천시 내동 28-8번지","indutype":"일반휴게음식 - 일반한식","category":"restaurant"}]},{"lat":"37.525892551","long":"126.77504417","imageIndex":4,"items":[{"name":"황금식당","tel":"032-678-5886","addr":"경기도 부천시 내동 222-101번지 102호일부 103호","indutype":"일반휴게음식 - 일반한식","category":"restaurant"}]},{"lat":"37.520396744","long":"126.77987973","imageIndex":4,"items":[{"name":"황금정","tel":"032-672-1685","addr":"경기도 부천시 내동 160번지","indutype":"일반휴게음식 - 일반한식","category":"restaurant"}]},{"lat":"37.515484472","long":"126.77418224","imageIndex":4,"items":[{"name":"회천국","tel":"032-679-5279","addr":"경기도 부천시 내동 57-27번지 1층","indutype":"일반휴게음식 - 일반한식","category":"restaurant"}]}]