[{"lat":"37.178803347","long":"127.05713626","imageIndex":4,"items":[{"name":"(주)신화푸드 우설화 오산세교점 신화푸드","tel":"031-378-5763","addr":"경기도 오산시 내삼미동 484-1번지 2층","indutype":"일반휴게음식 - 일반한식","category":"restaurant"},{"name":"블루가든세교점","tel":"031-378-5283","addr":"경기도 오산시 내삼미동 484-1번지 2층","indutype":"일반휴게음식 - 서양음식","category":"restaurant"},{"name":"좋은날들","tel":"031-378-9444","addr":"경기도 오산시 내삼미동 484-1,495-1","indutype":"일반휴게음식 - 스넥","category":"restaurant"},{"name":"천지연세교점 (주식회사 신화푸드)","tel":"031-378-5282","addr":"경기도 오산시 내삼미동 484-1번지 1층","indutype":"일반휴게음식 - 일반한식","category":"restaurant"}]},{"lat":"37.174694272","long":"127.05783145","imageIndex":4,"items":[{"name":"88수산","tel":"031-377-1088","addr":"경기도 오산시 내삼미동 856-17번지 토인빌 102호","indutype":"일반휴게음식 - 일반한식","category":"restaurant"},{"name":"초밥집","tel":"031-377-6095","addr":"경기도 오산시 내삼미동 856-17번지 토인빌 102호","indutype":"일반휴게음식 - 일식·회집","category":"restaurant"}]},{"lat":"37.173252367","long":"127.0583371","imageIndex":4,"items":[{"name":"BHC(비에이치씨) 세교점","tel":"031-376-8555","addr":"경기도 오산시 내삼미동 861-8번지 1층3호상가","indutype":"일반휴게음식 - 일반한식","category":"restaurant"},{"name":"김밥천국수청점","tel":"031-376-3134","addr":"경기도 오산시 내삼미동 861-8번지 가동 1층","indutype":"일반휴게음식 - 일반한식","category":"restaurant"},{"name":"노란주전자","tel":"031-375-6692","addr":"경기도 오산시 내삼미동 861-8번지","indutype":"일반휴게음식 - 일반한식","category":"restaurant"}]},{"lat":"37.177441993","long":"127.05881311","imageIndex":4,"items":[{"name":"가미오리","tel":"031-374-5233","addr":"경기도 오산시 내삼미동 462-1번지","indutype":"일반휴게음식 - 일반한식","category":"restaurant"}]},{"lat":"37.173197901","long":"127.05919282","imageIndex":4,"items":[{"name":"경아네곱창개맛있는꿀돼지(개꿀)","tel":"031-375-2562","addr":"경기도 오산시 내삼미동 861-15번지","indutype":"일반휴게음식 - 일반한식","category":"restaurant"}]},{"lat":"37.176639632","long":"127.05972461","imageIndex":4,"items":[{"name":"고갯마루","tel":"031-373-2541","addr":"경기도 오산시 내삼미동 493-41번지 1층","indutype":"일반휴게음식 - 일반한식","category":"restaurant"}]},{"lat":"37.175415309","long":"127.05739282","imageIndex":4,"items":[{"name":"교촌치킨세마1호점","tel":"031-372-1994","addr":"경기도 오산시 내삼미동 856-8번지 프리지빌 1층 좌측 상가","indutype":"일반휴게음식 - 스넥","category":"restaurant"}]},{"lat":"37.175389032","long":"127.05572629","imageIndex":4,"items":[{"name":"구인자한밥상","tel":"031-378-1696","addr":"경기도 오산시 내삼미동 857-11번지 1층","indutype":"일반휴게음식 - 일반한식","category":"restaurant"},{"name":"큰손 쭈꾸미","tel":"031-372-9369","addr":"경기도 오산시 내삼미동 857-11번지 1층","indutype":"일반휴게음식 - 일반한식","category":"restaurant"}]},{"lat":"37.176028672","long":"127.05595194","imageIndex":4,"items":[{"name":"구전주식당","tel":"031-378-2307","addr":"경기도 오산시 내삼미동 850-2번지","indutype":"일반휴게음식 - 일반한식","category":"restaurant"}]},{"lat":"37.173612328","long":"127.05930572","imageIndex":4,"items":[{"name":"김상호옹기보쌈","tel":"031-372-5559","addr":"경기도 오산시 내삼미동 864-8번지","indutype":"일반휴게음식 - 일반한식","category":"restaurant"},{"name":"또래오래세교점","tel":"031-372-9033","addr":"경기도 오산시 내삼미동 864-8번지","indutype":"일반휴게음식 - 스넥","category":"restaurant"}]},{"lat":"37.173360519","long":"127.05828088","imageIndex":4,"items":[{"name":"꼬닭치킨호프","tel":"031-372-0047","addr":"경기도 오산시 내삼미동 861-20번지 B동 1층 1층","indutype":"일반휴게음식 - 스넥","category":"restaurant"}]},{"lat":"37.175586913","long":"127.05650339","imageIndex":4,"items":[{"name":"닥엔돈스세교점","tel":"031-376-9285","addr":"경기도 오산시 내삼미동 857-5번지 1층","indutype":"일반휴게음식 - 일반한식","category":"restaurant"},{"name":"리틀황제 회","tel":"","addr":"경기도 오산시 내삼미동 857-5번지 1층 좌측","indutype":"일반휴게음식 - 일식·회집","category":"restaurant"},{"name":"어도해물찜","tel":"031-000-0000","addr":"경기도 오산시 내삼미동 857-5번지 1층","indutype":"일반휴게음식 - 일반한식","category":"restaurant"},{"name":"어부이야기","tel":"031-372-7471","addr":"경기도 오산시 내삼미동 857-5번지 1층","indutype":"일반휴게음식 - 일반한식","category":"restaurant"}]},{"lat":"37.175081783","long":"127.05769661","imageIndex":4,"items":[{"name":"담터감자탕&해물뼈찜","tel":"031-374-9077","addr":"경기도 오산시 내삼미동 856-14번지 덕원빌","indutype":"일반휴게음식 - 일반한식","category":"restaurant"}]},{"lat":"37.175001599","long":"127.05569224","imageIndex":4,"items":[{"name":"대교수산","tel":"031-375-4827","addr":"경기도 오산시 내삼미동 858-1번지","indutype":"일반휴게음식 - 일식·회집","category":"restaurant"}]},{"lat":"37.175001372","long":"127.05619895","imageIndex":4,"items":[{"name":"뚱이네붕장어추어탕","tel":"031-373-6631","addr":"경기도 오산시 내삼미동 858-4번지","indutype":"일반휴게음식 - 일반한식","category":"restaurant"}]},{"lat":"37.175415397","long":"127.0572014","imageIndex":4,"items":[{"name":"마포연탄소금구이","tel":"031-372-2434","addr":"경기도 오산시 내삼미동 856-9번지 그린나래 101호","indutype":"일반휴게음식 - 일반한식","category":"restaurant"}]},{"lat":"37.174749427","long":"127.05542182","imageIndex":4,"items":[{"name":"매듭달,이틀","tel":"070-7584-5388","addr":"경기도 오산시 내삼미동 884-4번지 1층","indutype":"일반휴게음식 - 서양음식","category":"restaurant"}]},{"lat":"37.178551716","long":"127.05567219","imageIndex":4,"items":[{"name":"맥도날드오산세교디티(DT)점","tel":"070-7017-6516","addr":"경기도 오산시 내삼미동 466-1번지","indutype":"일반휴게음식 - 서양음식","category":"restaurant"},{"name":"한국맥도날드(유)오산세교DT점","tel":"070-7017-6516","addr":"경기도 오산시 내삼미동 466-1","indutype":"일반휴게음식 - 서양음식","category":"restaurant"}]},{"lat":"37.174000349","long":"127.05808993","imageIndex":4,"items":[{"name":"명품춘천닭갈비","tel":"031-375-5665","addr":"경기도 오산시 내삼미동 861-3번지 1층","indutype":"일반휴게음식 - 일반한식","category":"restaurant"},{"name":"무한삼겹110","tel":"031-373-6999","addr":"경기도 오산시 내삼미동 861-3번지 1층","indutype":"일반휴게음식 - 일반한식","category":"restaurant"},{"name":"오감자","tel":"031-374-6443","addr":"경기도 오산시 내삼미동 861-3번지 1층","indutype":"일반휴게음식 - 주점","category":"restaurant"}]},{"lat":"37.174524251","long":"127.05523024","imageIndex":4,"items":[{"name":"몰리","tel":"031-376-5816","addr":"경기도 오산시 내삼미동 883-1번지 1층","indutype":"일반휴게음식 - 서양음식","category":"restaurant"}]},{"lat":"37.173053969","long":"127.05869727","imageIndex":4,"items":[{"name":"무쏘오산세교점","tel":"","addr":"경기도 오산시 내삼미동 861-12번지 1층 103호","indutype":"일반휴게음식 - 일반한식","category":"restaurant"}]},{"lat":"37.180777962","long":"127.05414224","imageIndex":4,"items":[{"name":"무진장","tel":"031-372-7500","addr":"경기도 오산시 내삼미동 541-2번지","indutype":"일반휴게음식 - 일반한식","category":"restaurant"}]},{"lat":"37.173865182","long":"127.05811235","imageIndex":4,"items":[{"name":"묵고갈래싸갈래","tel":"031-372-9451","addr":"경기도 오산시 내삼미동 861-4번지 A동 1층","indutype":"일반휴게음식 - 일반한식","category":"restaurant"}]},{"lat":"37.174948038","long":"127.05455492","imageIndex":4,"items":[{"name":"물향기쌈밥정식","tel":"031-377-3839","addr":"경기도 오산시 내삼미동 881-3번지 1층","indutype":"일반휴게음식 - 일반한식","category":"restaurant"}]},{"lat":"37.173720989","long":"127.05816855","imageIndex":4,"items":[{"name":"미쉘","tel":"070-8019-5499","addr":"경기도 오산시 내삼미동 861-5번지","indutype":"일반휴게음식 - 주점","category":"restaurant"},{"name":"복분자숙성통도야지","tel":"031-372-8523","addr":"경기도 오산시 내삼미동 861-5번지 삼미노래연습장 1층 104호","indutype":"일반휴게음식 - 일반한식","category":"restaurant"},{"name":"즐겨찾기","tel":"031-367-6787","addr":"경기도 오산시 내삼미동 861-5번지","indutype":"일반휴게음식 - 일반한식","category":"restaurant"}]},{"lat":"37.181328401","long":"127.05225074","imageIndex":4,"items":[{"name":"버거킹 오산세교에스오일점/(주)비케이알","tel":"070-7462-6732","addr":"경기도 오산시 내삼미동 573-1번지 삼화주유소(SK) 3동 1층","indutype":"일반휴게음식 - 서양음식","category":"restaurant"},{"name":"삼화기사식당","tel":"031-372-9103","addr":"경기도 오산시 내삼미동 573-1번지","indutype":"일반휴게음식 - 일반한식","category":"restaurant"}]},{"lat":"37.174695746","long":"127.05455475","imageIndex":4,"items":[{"name":"벌교꼬막정식짱뚱어탕서대회무침","tel":"031-8003-9517","addr":"경기도 오산시 내삼미동 882-1번지 1층","indutype":"일반휴게음식 - 일반한식","category":"restaurant"}]},{"lat":"37.173107952","long":"127.05886621","imageIndex":4,"items":[{"name":"별밤실내포차","tel":"031-378-9287","addr":"경기도 오산시 내삼미동 861-13번지","indutype":"일반휴게음식 - 주점","category":"restaurant"},{"name":"킴스바베큐치킨","tel":"031-375-9907","addr":"경기도 오산시 내삼미동 861-13번지 1층","indutype":"일반휴게음식 - 스넥","category":"restaurant"},{"name":"한잔해야쥐이곳이딱이야","tel":"031-374-2390","addr":"경기도 오산시 내삼미동 861-13번지 1층 일부","indutype":"일반휴게음식 - 일반한식","category":"restaurant"}]},{"lat":"37.174829786","long":"127.0570546","imageIndex":4,"items":[{"name":"본가왕뼈감자탕오산세교점","tel":"031-375-5588","addr":"경기도 오산시 내삼미동 859-4번지 1층","indutype":"일반휴게음식 - 일반한식","category":"restaurant"}]},{"lat":"37.174695623","long":"127.05483626","imageIndex":4,"items":[{"name":"블레스롤 세교점","tel":"031-377-8520","addr":"경기도 오산시 내삼미동 882-2번지 상가 1층","indutype":"일반휴게음식 - 서양음식","category":"restaurant"}]},{"lat":"37.172972991","long":"127.0584495","imageIndex":4,"items":[{"name":"사거리주막","tel":"","addr":"경기도 오산시 내삼미동 861-10번지 노서빌 1층 102호","indutype":"일반휴게음식 - 일반한식","category":"restaurant"},{"name":"신통치킨","tel":"","addr":"경기도 오산시 내삼미동 861-10번지 노서빌 1층 103호","indutype":"일반휴게음식 - 스넥","category":"restaurant"}]},{"lat":"37.173134893","long":"127.05905765","imageIndex":4,"items":[{"name":"사쿠사쿠","tel":"031-378-4946","addr":"경기도 오산시 내삼미동 861-14번지 1층","indutype":"일반휴게음식 - 스넥","category":"restaurant"}]},{"lat":"37.174135531","long":"127.05803373","imageIndex":4,"items":[{"name":"서가닭발","tel":"031-377-1547","addr":"경기도 오산시 내삼미동 861-2번지 한성빌 1층 우측","indutype":"일반휴게음식 - 일반한식","category":"restaurant"},{"name":"족많이족가네","tel":"031-375-3773","addr":"경기도 오산시 내삼미동 861-2번지 한성빌 1층 101호","indutype":"일반휴게음식 - 일반한식","category":"restaurant"}]},{"lat":"37.179470694","long":"127.05586426","imageIndex":4,"items":[{"name":"선미옥","tel":"031-378-9882","addr":"경기도 오산시 내삼미동 535-2번지 1동","indutype":"일반휴게음식 - 일반한식","category":"restaurant"}]},{"lat":"37.180498794","long":"127.05378169","imageIndex":4,"items":[{"name":"소담남원추어탕","tel":"031-377-9293","addr":"경기도 오산시 내삼미동 570-14번지 1층","indutype":"일반휴게음식 - 일반한식","category":"restaurant"}]},{"lat":"37.173108174","long":"127.0583933","imageIndex":4,"items":[{"name":"술동아리","tel":"031-376-3864","addr":"경기도 오산시 내삼미동 861-9번지","indutype":"일반휴게음식 - 주점","category":"restaurant"},{"name":"제주족발보쌈","tel":"031-372-9222","addr":"경기도 오산시 내삼미동 861-9번지 1층","indutype":"일반휴게음식 - 일반한식","category":"restaurant"}]},{"lat":"37.175001296","long":"127.05636785","imageIndex":4,"items":[{"name":"신마포갈매기(세교점)","tel":"031-377-5092","addr":"경기도 오산시 내삼미동 858-5번지 1층","indutype":"일반휴게음식 - 일반한식","category":"restaurant"}]},{"lat":"37.174829454","long":"127.05777525","imageIndex":4,"items":[{"name":"아랑김치찌개","tel":"031-8043-2377","addr":"경기도 오산시 내삼미동 856-16번지 태화빌 1층","indutype":"일반휴게음식 - 일반한식","category":"restaurant"},{"name":"우진황소곱창","tel":"031-831-0619","addr":"경기도 오산시 내삼미동 856-16번지 대화빌딩","indutype":"일반휴게음식 - 일반한식","category":"restaurant"}]},{"lat":"37.173441629","long":"127.05824716","imageIndex":4,"items":[{"name":"엠바","tel":"031-372-2779","addr":"경기도 오산시 내삼미동 861-7번지 1층","indutype":"일반휴게음식 - 일반한식","category":"restaurant"}]},{"lat":"37.174163739","long":"127.05544393","imageIndex":4,"items":[{"name":"예스아이엠(Yes IAM)","tel":"","addr":"경기도 오산시 내삼미동 883-5번지","indutype":"일반휴게음식 - 서양음식","category":"restaurant"}]},{"lat":"37.184640606","long":"127.06030495","imageIndex":4,"items":[{"name":"오산별빛터널바베큐","tel":"031-271-6000","addr":"경기도 오산시 내삼미동 389-1번지","indutype":"일반휴게음식 - 일반한식","category":"restaurant"}]},{"lat":"37.177749122","long":"127.05714677","imageIndex":4,"items":[{"name":"오산엔세븐카페","tel":"031-374-1000","addr":"경기도 오산시 내삼미동 484-22번지 A동 2층","indutype":"일반휴게음식 - 서양음식","category":"restaurant"}]},{"lat":"37.175027923","long":"127.05725742","imageIndex":4,"items":[{"name":"오산축산정육식당","tel":"031-377-6259","addr":"경기도 오산시 내삼미동 859-3번지 1층","indutype":"일반휴게음식 - 일반한식","category":"restaurant"}]},{"lat":"37.181022391","long":"127.05141722","imageIndex":4,"items":[{"name":"왕가돈까스","tel":"031-372-0028","addr":"경기도 오산시 내삼미동 576-3번지","indutype":"일반휴게음식 - 스넥","category":"restaurant"}]},{"lat":"37.17544322","long":"127.05544482","imageIndex":4,"items":[{"name":"육마담","tel":"031-376-5585","addr":"경기도 오산시 내삼미동 887-5번지 1층","indutype":"일반휴게음식 - 일반한식","category":"restaurant"}]},{"lat":"37.180137869","long":"127.05495259","imageIndex":4,"items":[{"name":"장미면옥","tel":"031-000-0000","addr":"경기도 오산시 내삼미동 538-2번지","indutype":"일반휴게음식 - 일반한식","category":"restaurant"}]},{"lat":"37.174279724","long":"127.05797753","imageIndex":4,"items":[{"name":"지동순대곱창","tel":"031-377-8949","addr":"경기도 오산시 내삼미동 861-1번지 한창빌 102호","indutype":"일반휴게음식 - 일반한식","category":"restaurant"}]},{"lat":"37.175388795","long":"127.05625552","imageIndex":4,"items":[{"name":"짝태&노가리오산세교점","tel":"","addr":"경기도 오산시 내삼미동 857-8번지 1층","indutype":"일반휴게음식 - 일반한식","category":"restaurant"},{"name":"코리안바베큐","tel":"031-373-9244","addr":"경기도 오산시 내삼미동 857-8번지 1층","indutype":"일반휴게음식 - 주점","category":"restaurant"}]},{"lat":"37.182802947","long":"127.05933508","imageIndex":4,"items":[{"name":"초가집","tel":"031-373-8980","addr":"경기도 오산시 내삼미동 414번지 1층","indutype":"일반휴게음식 - 일반한식","category":"restaurant"}]},{"lat":"37.181470743","long":"127.05645124","imageIndex":4,"items":[{"name":"카페 오아시스","tel":"031-373-8271","addr":"경기도 오산시 내삼미동 509번지 B동 1층","indutype":"일반휴게음식 - 서양음식","category":"restaurant"}]},{"lat":"37.177555461","long":"127.06611003","imageIndex":4,"items":[{"name":"카페안","tel":"031-373-9995","addr":"경기도 오산시 내삼미동 222-3번지 1층","indutype":"일반휴게음식 - 서양음식","category":"restaurant"}]},{"lat":"37.177086049","long":"127.06771989","imageIndex":4,"items":[{"name":"카페정원","tel":"031-374-7935","addr":"경기도 오산시 내삼미동 181번지","indutype":"일반휴게음식 - 서양음식","category":"restaurant"}]},{"lat":"37.175470495","long":"127.05489309","imageIndex":4,"items":[{"name":"커피에이세교점","tel":"031-372-1781","addr":"경기도 오산시 내삼미동 885-5번지 1층","indutype":"일반휴게음식 - 서양음식","category":"restaurant"}]},{"lat":"37.174974787","long":"127.05519677","imageIndex":4,"items":[{"name":"포트커피세교점","tel":"031-000-0000","addr":"경기도 오산시 내삼미동 884-7번지 1층","indutype":"일반휴게음식 - 서양음식","category":"restaurant"}]},{"lat":"37.17555122","long":"127.0557264","imageIndex":4,"items":[{"name":"피자와치킨의 러브레터","tel":"031-378-8252","addr":"경기도 오산시 내삼미동 857-1번지 1층","indutype":"일반휴게음식 - 서양음식","category":"restaurant"}]},{"lat":"37.176365092","long":"127.06794448","imageIndex":4,"items":[{"name":"행복한밥상","tel":"031-376-7998","addr":"경기도 오산시 내삼미동 186번지 1층","indutype":"일반휴게음식 - 일반한식","category":"restaurant"}]},{"lat":"37.175055047","long":"127.05705476","imageIndex":4,"items":[{"name":"홍가네왕돌구이","tel":"031-378-2772","addr":"경기도 오산시 내삼미동 859-2번지 1층","indutype":"일반휴게음식 - 일반한식","category":"restaurant"}]},{"lat":"37.175586785","long":"127.05678489","imageIndex":4,"items":[{"name":"황태대가","tel":"031-373-9253","addr":"경기도 오산시 내삼미동 856-1번지","indutype":"일반휴게음식 - 일반한식","category":"restaurant"}]}]