[{"lat":"37.752617145","long":"126.75071473","imageIndex":4,"items":[{"name":"가로수길 밥가게","tel":"031-947-3363","addr":"경기도 파주시 교하동 368-8번지","indutype":"일반휴게음식 - 일반한식","category":"restaurant"}]},{"lat":"37.753058387","long":"126.74643535","imageIndex":4,"items":[{"name":"개성식당","tel":"031-941-3004","addr":"경기도 파주시 교하동 388-7번지","indutype":"일반휴게음식 - 일반한식","category":"restaurant"}]},{"lat":"37.754815105","long":"126.74226478","imageIndex":4,"items":[{"name":"교하장례식장","tel":"031-944-4449","addr":"경기도 파주시 교하동 593-8번지","indutype":"일반휴게음식 - 일반한식","category":"restaurant"}]},{"lat":"37.753003169","long":"126.74590223","imageIndex":4,"items":[{"name":"교하추어탕","tel":"031-945-1484","addr":"경기도 파주시 교하동 391-7번지","indutype":"일반휴게음식 - 일반한식","category":"restaurant"}]},{"lat":"37.752503639","long":"126.74820741","imageIndex":4,"items":[{"name":"금성아구탕","tel":"031-944-5012","addr":"경기도 파주시 교하동 354-18번지","indutype":"일반휴게음식 - 일반한식","category":"restaurant"},{"name":"커피에반하다 교하로점","tel":"031-000-1234","addr":"경기도 파주시 교하동 354-18번지","indutype":"일반휴게음식 - 서양음식","category":"restaurant"}]},{"lat":"37.753230295","long":"126.74265614","imageIndex":4,"items":[{"name":"금이네","tel":"031-941-3858","addr":"경기도 파주시 교하동 536-2번지","indutype":"일반휴게음식 - 일반한식","category":"restaurant"}]},{"lat":"37.752476366","long":"126.74809403","imageIndex":4,"items":[{"name":"꼬레랑옛날통닭","tel":"031-942-8559","addr":"경기도 파주시 교하동 354-15번지","indutype":"일반휴게음식 - 스넥","category":"restaurant"}]},{"lat":"37.752284463","long":"126.74684652","imageIndex":4,"items":[{"name":"놀부치킨","tel":"031-949-2297","addr":"경기도 파주시 교하동 385-4번지","indutype":"일반휴게음식 - 일반한식","category":"restaurant"}]},{"lat":"37.753309614","long":"126.7459579","imageIndex":4,"items":[{"name":"대광한식부페","tel":"031-946-1534","addr":"경기도 파주시 교하동 331-3번지","indutype":"일반휴게음식 - 일반한식","category":"restaurant"}]},{"lat":"37.752397093","long":"126.74893399","imageIndex":4,"items":[{"name":"세상에이런일이치킨달인","tel":"031-947-9201","addr":"경기도 파주시 교하동 355-3번지","indutype":"일반휴게음식 - 일반한식","category":"restaurant"},{"name":"엄마손밥상","tel":"031-947-8946","addr":"경기도 파주시 교하동 355-3번지","indutype":"일반휴게음식 - 일반한식","category":"restaurant"}]},{"lat":"37.750142183","long":"126.7395693","imageIndex":4,"items":[{"name":"수라한식뷔페","tel":"","addr":"경기도 파주시 교하동 616-1번지","indutype":"일반휴게음식 - 일반한식","category":"restaurant"}]},{"lat":"37.752399141","long":"126.74162647","imageIndex":4,"items":[{"name":"스마일카페","tel":"031-948-1550","addr":"경기도 파주시 교하동 542-3번지","indutype":"일반휴게음식 - 서양음식","category":"restaurant"}]},{"lat":"37.752868688","long":"126.7421014","imageIndex":4,"items":[{"name":"옛골서울불고기","tel":"031-948-9588","addr":"경기도 파주시 교하동 538-6","indutype":"일반휴게음식 - 일반한식","category":"restaurant"}]},{"lat":"37.752789082","long":"126.74277116","imageIndex":4,"items":[{"name":"우리동네행복한집","tel":"031-944-1078","addr":"경기도 파주시 교하동 550-2번지","indutype":"일반휴게음식 - 일반한식","category":"restaurant"}]},{"lat":"37.752864924","long":"126.74862602","imageIndex":4,"items":[{"name":"일호숯불갈비","tel":"031-943-7688","addr":"경기도 파주시 교하동 354-12","indutype":"일반휴게음식 - 일반한식","category":"restaurant"}]},{"lat":"37.753314253","long":"126.74396078","imageIndex":4,"items":[{"name":"칠보네집","tel":"031-957-7114","addr":"경기도 파주시 교하동 572번지","indutype":"일반휴게음식 - 일반한식","category":"restaurant"}]}]