[{"lat":"37.088783116","long":"126.93788318","imageIndex":0,"items":[{"name":"1급선영자동차공업사","tel":"031-353-1411","addr":"경기도 화성시 양감면 대양리 785-1번지","indutype":"자동차정비 유지 - 자동차정비","category":"car"}]},{"lat":"37.094956083","long":"126.93923896","imageIndex":0,"items":[{"name":"24시 카오딩 왕표","tel":"","addr":"경기도 화성시 양감면 대양리 979-3번지 B동","indutype":"자동차정비 유지 - 자동차부품","category":"car"}]},{"lat":"37.087702882","long":"126.93979614","imageIndex":0,"items":[{"name":"달구지","tel":"031-354-2893","addr":"경기도 화성시 양감면 대양리 522-4","indutype":"자동차정비 유지 - 자동차정비","category":"car"}]},{"lat":"37.095560251","long":"126.94010458","imageIndex":0,"items":[{"name":"서스빌","tel":"031-354-7976","addr":"경기도 화성시 양감면 대양리 983번지","indutype":"자동차정비 유지 - 자동차부품","category":"car"},{"name":"영진DPF클리닉","tel":"031-352-1980","addr":"경기도 화성시 양감면 대양리 983번지","indutype":"자동차정비 유지 - 자동차부품","category":"car"}]},{"lat":"37.096677618","long":"126.94021614","imageIndex":0,"items":[{"name":"에이스타이어","tel":"031-8059-4661","addr":"경기도 화성시 양감면 대양리 1112-2번지","indutype":"자동차정비 유지 - 자동차시트·타이어","category":"car"}]},{"lat":"37.088367357","long":"126.93560032","imageIndex":0,"items":[{"name":"하이파츠","tel":"031-691-1316","addr":"경기도 화성시 양감면 대양리 782번지 나동","indutype":"자동차정비 유지 - 자동차부품","category":"car"}]},{"lat":"37.095866651","long":"126.94018307","imageIndex":0,"items":[{"name":"화성서비스","tel":"031-359-8812","addr":"경기도 화성시 양감면 대양리 1121번지","indutype":"자동차정비 유지 - 자동차정비","category":"car"},{"name":"화성서비스","tel":"031-359-8812","addr":"경기도 화성시 양감면 대양리 1121번지","indutype":"자동차정비 유지 - 자동차부품","category":"car"}]}]