[{"lat":"37.3593674659","long":"126.9670661988","imageIndex":7,"items":[{"name":"메가25","tel":"031-457-0866","addr":"경기도 의왕시 오전동 108번지 현대프라자 111호","indutype":"유통업 영리 - 슈퍼마켓","category":"mart"}]},{"lat":"37.3492251445","long":"126.9795083527","imageIndex":7,"items":[{"name":"민들레마트","tel":"031-429-5857","addr":"경기도 의왕시 오전동 388-1번지 민들레베스파트 상가 101호","indutype":"유통업 영리 - 슈퍼마켓","category":"mart"}]},{"lat":"37.3520628847","long":"126.9772840179","imageIndex":7,"items":[{"name":"삼신하이마트","tel":"","addr":"경기도 의왕시 오전동 산149-3","indutype":"유통업 영리 - 슈퍼마켓","category":"mart"},{"name":"스타슈퍼","tel":"031-456-6029","addr":"경기도 의왕시 오전동 산149-3번지 삼신9차 상가-2","indutype":"유통업 영리 - 슈퍼마켓","category":"mart"}]},{"lat":"37.3571685506","long":"126.9656450395","imageIndex":7,"items":[{"name":"삼화슈퍼","tel":"031-454-5835","addr":"경기도 의왕시 오전동 211-8","indutype":"유통업 영리 - 슈퍼마켓","category":"mart"}]},{"lat":"37.3531702271","long":"126.9733897171","imageIndex":7,"items":[{"name":"아름슈퍼","tel":"031-457-5117","addr":"경기도 의왕시 오전동 283-4번지","indutype":"유통업 영리 - 슈퍼마켓","category":"mart"}]},{"lat":"37.3507292776","long":"126.9768104432","imageIndex":7,"items":[{"name":"엘지마트","tel":"031-456-4676","addr":"경기도 의왕시 오전동 363-2번지 까치빌딩 1층","indutype":"유통업 영리 - 슈퍼마켓","category":"mart"}]},{"lat":"37.3536749407","long":"126.9739764339","imageIndex":7,"items":[{"name":"영마트","tel":"031-452-2989","addr":"경기도 의왕시 오전동 286번지","indutype":"유통업 영리 - 슈퍼마켓","category":"mart"}]},{"lat":"37.3574798908","long":"126.9885582741","imageIndex":7,"items":[{"name":"오전상회","tel":"","addr":"경기도 의왕시 오전동 613-10번지","indutype":"유통업 영리 - 슈퍼마켓","category":"mart"}]},{"lat":"37.3645296372","long":"126.9650092491","imageIndex":7,"items":[{"name":"우리마트","tel":"031-427-8240","addr":"경기도 의왕시 오전동 25-10번지 한이프라자 1층","indutype":"유통업 영리 - 슈퍼마켓","category":"mart"}]},{"lat":"37.3499727454","long":"126.9783117774","imageIndex":7,"items":[{"name":"우리홈마트","tel":"031-477-8945","addr":"경기도 의왕시 오전동 383-2번지 외5필지","indutype":"유통업 영리 - 슈퍼마켓","category":"mart"}]},{"lat":"37.3534762563","long":"126.9721480511","imageIndex":7,"items":[{"name":"의왕마트","tel":"031-455-6675","addr":"경기도 의왕시 오전동 846-10번지","indutype":"유통업 영리 - 슈퍼마켓","category":"mart"}]},{"lat":"37.3525302745","long":"126.9724757495","imageIndex":7,"items":[{"name":"하나마트","tel":"031-306-0266","addr":"경기도 의왕시 오전동 281-3번지","indutype":"유통업 영리 - 슈퍼마켓","category":"mart"}]},{"lat":"37.3640615361","long":"126.9663640887","imageIndex":7,"items":[{"name":"한진마트","tel":"031-427-1011","addr":"경기도 의왕시 오전동 27-1번지 한진로즈힐","indutype":"유통업 영리 - 슈퍼마켓","category":"mart"}]}]