[{"lat":"37.16910686","long":"126.70511869","imageIndex":4,"items":[{"name":"갑부보신원","tel":"031-357-5456","addr":"경기도 화성시 서신면 매화리 359-3번지","indutype":"일반휴게음식 - 일반한식","category":"restaurant"}]},{"lat":"37.169242241","long":"126.70520824","imageIndex":4,"items":[{"name":"거북이감자탕","tel":"031-357-9867","addr":"경기도 화성시 서신면 매화리 359-1번지","indutype":"일반휴게음식 - 일반한식","category":"restaurant"}]},{"lat":"37.168826918","long":"126.70487209","imageIndex":4,"items":[{"name":"고향식당","tel":"031-356-5227","addr":"경기도 화성시 서신면 매화리 361-2번지 (2동1층일부)","indutype":"일반휴게음식 - 일반한식","category":"restaurant"},{"name":"캠퍼스피자치킨","tel":"031-357-2883","addr":"경기도 화성시 서신면 매화리 361-2번지 2동 1층","indutype":"일반휴게음식 - 서양음식","category":"restaurant"}]},{"lat":"37.169241194","long":"126.70479165","imageIndex":4,"items":[{"name":"그집치킨","tel":"031-357-8088","addr":"경기도 화성시 서신면 매화리 358-3번지","indutype":"일반휴게음식 - 서양음식","category":"restaurant"},{"name":"돈이짱!3900","tel":"031-356-2145","addr":"경기도 화성시 서신면 매화리 358-3","indutype":"일반휴게음식 - 일반한식","category":"restaurant"},{"name":"백미 뻘낙지","tel":"031-356-5456","addr":"경기도 화성시 서신면 매화리 358-3번지","indutype":"일반휴게음식 - 일반한식","category":"restaurant"}]},{"lat":"37.168745202","long":"126.70462471","imageIndex":4,"items":[{"name":"길목포차","tel":"031-356-7321","addr":"경기도 화성시 서신면 매화리 364-2번지 1층","indutype":"일반휴게음식 - 일반한식","category":"restaurant"},{"name":"둥지","tel":"031-356-8824","addr":"경기도 화성시 서신면 매화리 364-2번지 2층","indutype":"일반휴게음식 - 주점","category":"restaurant"}]},{"lat":"37.163301062","long":"126.70748322","imageIndex":4,"items":[{"name":"대박이네","tel":"031-355-1036","addr":"경기도 화성시 서신면 매화리 489-1번지","indutype":"일반휴게음식 - 일반한식","category":"restaurant"}]},{"lat":"37.168881263","long":"126.70498447","imageIndex":4,"items":[{"name":"레인보우","tel":"031-357-3729","addr":"경기도 화성시 서신면 매화리 361-1번지 1층","indutype":"일반휴게음식 - 주점","category":"restaurant"},{"name":"매화다방","tel":"031-357-3851","addr":"경기도 화성시 서신면 매화리 361-1번지","indutype":"일반휴게음식 - 서양음식","category":"restaurant"}]},{"lat":"37.161831958","long":"126.70732006","imageIndex":4,"items":[{"name":"불타는생선구이","tel":"031-357-0074","addr":"경기도 화성시 서신면 매화리 505-1번지 101.102.103호","indutype":"일반휴게음식 - 일반한식","category":"restaurant"},{"name":"송어앤퓨전","tel":"031-357-1179","addr":"경기도 화성시 서신면 매화리 505-1번지 1층 106호","indutype":"일반휴게음식 - 일반한식","category":"restaurant"}]},{"lat":"37.168795315","long":"126.70305948","imageIndex":4,"items":[{"name":"서신식당","tel":"031-357-1457","addr":"경기도 화성시 서신면 매화리 376-3번지","indutype":"일반휴게음식 - 일반한식","category":"restaurant"}]},{"lat":"37.168547739","long":"126.70492948","imageIndex":4,"items":[{"name":"솔잎식당","tel":"","addr":"경기도 화성시 서신면 매화리 322-13번지","indutype":"일반휴게음식 - 일반한식","category":"restaurant"}]},{"lat":"37.167439442","long":"126.70492257","imageIndex":4,"items":[{"name":"양자강","tel":"031-357-0094","addr":"경기도 화성시 서신면 매화리 318-6번지 1층","indutype":"일반휴게음식 - 중국식","category":"restaurant"}]},{"lat":"37.171354515","long":"126.69961519","imageIndex":4,"items":[{"name":"오리마을","tel":"031-357-0089","addr":"경기도 화성시 서신면 매화리 759-3번지","indutype":"일반휴게음식 - 일반한식","category":"restaurant"}]},{"lat":"37.168882309","long":"126.70540105","imageIndex":4,"items":[{"name":"우가돈가","tel":"031-357-5166","addr":"경기도 화성시 서신면 매화리 342","indutype":"일반휴게음식 - 일반한식","category":"restaurant"}]},{"lat":"37.164077828","long":"126.70823451","imageIndex":4,"items":[{"name":"이맛이면","tel":"031-357-3952","addr":"경기도 화성시 서신면 매화리 477-5번지","indutype":"일반휴게음식 - 일반한식","category":"restaurant"}]},{"lat":"37.169990098","long":"126.7052053","imageIndex":4,"items":[{"name":"진용이네 해장국","tel":"031-356-7852","addr":"경기도 화성시 서신면 매화리 351-1","indutype":"일반휴게음식 - 일반한식","category":"restaurant"}]},{"lat":"37.167462898","long":"126.70350384","imageIndex":4,"items":[{"name":"통큰생고기","tel":"031-355-6335","addr":"경기도 화성시 서신면 매화리 392-2번지","indutype":"일반휴게음식 - 일반한식","category":"restaurant"}]},{"lat":"37.169331439","long":"126.70484759","imageIndex":4,"items":[{"name":"평화식당","tel":"031-357-2578","addr":"경기도 화성시 서신면 매화리 358-2","indutype":"일반휴게음식 - 일반한식","category":"restaurant"}]},{"lat":"37.168493394","long":"126.7048171","imageIndex":4,"items":[{"name":"호식이두마리치킨서신점","tel":"031-357-3600","addr":"경기도 화성시 서신면 매화리 322-4번지","indutype":"일반휴게음식 - 스넥","category":"restaurant"}]},{"lat":"37.168857845","long":"126.7028453","imageIndex":4,"items":[{"name":"흙토랑","tel":"031-357-3554","addr":"경기도 화성시 서신면 매화리 375-3","indutype":"일반휴게음식 - 일반한식","category":"restaurant"}]}]