[{"lat":"37.776624338","long":"127.1507488","imageIndex":7,"items":[{"name":"굿피플코리아","tel":"070-8836-8681","addr":"경기도 포천시 소흘읍 이곡리 214번지 1층","indutype":"음료식품 - 기타음료식품","category":"food"}]},{"lat":"37.764235195","long":"127.14427795","imageIndex":7,"items":[{"name":"매점","tel":"031-544-1260","addr":"경기도 포천시 소흘읍 이곡리 524-1번지","indutype":"음료식품 - 기타음료식품","category":"food"}]},{"lat":"37.770647226","long":"127.15375596","imageIndex":7,"items":[{"name":"봉쥬르농원","tel":"031-543-2528","addr":"경기도 포천시 소흘읍 이곡리 51-3 52-2","indutype":"음료식품 - 농·축·수산품","category":"food"}]},{"lat":"37.777841796","long":"127.14980909","imageIndex":7,"items":[{"name":"수목원농장","tel":"031-544-7693","addr":"경기도 포천시 소흘읍 이곡리 206-5번지","indutype":"음료식품 - 농·축·수산품","category":"food"}]},{"lat":"37.771454753","long":"127.15633405","imageIndex":7,"items":[{"name":"승현","tel":"031-514-9988","addr":"경기도 포천시 소흘읍 이곡리 48-6번지 인화병원 2층","indutype":"음료식품 - 기타음료식품","category":"food"}]},{"lat":"37.774785176","long":"127.15172128","imageIndex":7,"items":[{"name":"양주골한우정육점","tel":"031-544-3341","addr":"경기도 포천시 소흘읍 이곡리 180-10번지","indutype":"음료식품 - 정육점","category":"food"}]},{"lat":"37.784459069","long":"127.15353429","imageIndex":7,"items":[{"name":"종원농원","tel":"031-544-7740","addr":"경기도 포천시 소흘읍 이곡리 392번지","indutype":"음료식품 - 농·축·수산품","category":"food"}]},{"lat":"37.773398374","long":"127.15119638","imageIndex":7,"items":[{"name":"직골식품","tel":"541-1243","addr":"경기도 포천시 소흘읍 이곡리 171-12번지","indutype":"도소매 - 식품제조가공,농산물","category":"food"},{"name":"직골식품","tel":"031-542-1243","addr":"경기도 포천시 소흘읍 이곡리 171-12번지","indutype":"음료식품 - 기타음료식품","category":"food"}]},{"lat":"37.777230561","long":"127.14867279","imageIndex":7,"items":[{"name":"태우네","tel":"031-541-9351","addr":"경기도 포천시 소흘읍 이곡리 195-3번지","indutype":"음료식품 - 기타음료식품","category":"food"}]}]