[{"lat":"38.02514745","long":"127.0706466","imageIndex":5,"items":[{"name":"궁전장여관","tel":"031-839-5800","addr":"경기도 연천군 전곡읍 전곡리 333-376번지 궁전모텔","indutype":"숙박업 - 여관/기타숙박업","category":"hotel"}]},{"lat":"38.0220119","long":"127.0712815","imageIndex":5,"items":[{"name":"꿀잠","tel":"031-832-7399","addr":"경기도 연천군 전곡읍 전곡리 315-19번지","indutype":"숙박업 - 여관/기타숙박업","category":"hotel"}]},{"lat":"38.0269772","long":"127.0690652","imageIndex":5,"items":[{"name":"동해파크","tel":"031-832-2147","addr":"경기도 연천군 전곡읍 전곡리 333-7번지","indutype":"숙박업 - 여관/기타숙박업","category":"hotel"}]},{"lat":"38.02820233","long":"127.0692599","imageIndex":5,"items":[{"name":"라이프텔","tel":"031-832-2821","addr":"경기도 연천군 전곡읍 전곡리 454-13번지","indutype":"숙박업 - 여관/기타숙박업","category":"hotel"}]},{"lat":"38.0098147","long":"127.0692547","imageIndex":5,"items":[{"name":"럭셔리풀빌라펜션 스텔라또","tel":"","addr":"경기도 연천군 전곡읍 전곡리 89-21번지","indutype":"숙박업 - 여관/기타숙박업","category":"hotel"}]},{"lat":"38.02642716","long":"127.0699189","imageIndex":5,"items":[{"name":"롯데장여관","tel":"031-835-0777","addr":"경기도 연천군 전곡읍 전곡리 333-251번지","indutype":"숙박업 - 여관/기타숙박업","category":"hotel"}]},{"lat":"38.01445447","long":"127.0691451","imageIndex":5,"items":[{"name":"맨하탄모텔","tel":"031-832-3018","addr":"경기도 연천군 전곡읍 전곡리 85-33번지","indutype":"숙박업 - 여관/기타숙박업","category":"hotel"}]},{"lat":"38.0152846","long":"127.0668114","imageIndex":5,"items":[{"name":"별을보는돔하우스","tel":"031-833-2234","addr":"경기도 연천군 전곡읍 전곡리 211번지","indutype":"숙박업 - 여관/기타숙박업","category":"hotel"}]},{"lat":"38.00909466","long":"127.0680016","imageIndex":5,"items":[{"name":"씨엘모텔","tel":"031-835-2033","addr":"경기도 연천군 전곡읍 전곡리 108-11번지","indutype":"숙박업 - 여관/기타숙박업","category":"hotel"}]},{"lat":"38.0272293","long":"127.0693388","imageIndex":5,"items":[{"name":"아라모텔","tel":"031-833.-4111","addr":"경기도 연천군 전곡읍 전곡리 333-149번지","indutype":"숙박업 - 여관/기타숙박업","category":"hotel"}]},{"lat":"38.02494952","long":"127.0701681","imageIndex":5,"items":[{"name":"아비숑모텔","tel":"031-832-6670","addr":"경기도 연천군 전곡읍 전곡리 333-201번지","indutype":"숙박업 - 여관/기타숙박업","category":"hotel"}]},{"lat":"38.00886969","long":"127.0675345","imageIndex":5,"items":[{"name":"아침하늘","tel":"031-832-8321","addr":"경기도 연천군 전곡읍 전곡리 108-12번지","indutype":"숙박업 - 여관/기타숙박업","category":"hotel"}]},{"lat":"38.01545487","long":"127.0684513","imageIndex":5,"items":[{"name":"알프스펜션ll","tel":"031-833-2234","addr":"경기도 연천군 전곡읍 전곡리 217-15번지 외2필지","indutype":"숙박업 - 여관/기타숙박업","category":"hotel"}]},{"lat":"38.01512175","long":"127.0680638","imageIndex":5,"items":[{"name":"알프스하우스펜션","tel":"031-833-5853","addr":"경기도 연천군 전곡읍 전곡리 217-23 외 2필지(233-23, 217-5)","indutype":"숙박업 - 여관/기타숙박업","category":"hotel"}]},{"lat":"38.02869797","long":"127.0690098","imageIndex":5,"items":[{"name":"엔모텔","tel":"031-832-5757","addr":"경기도 연천군 전곡읍 전곡리 454-9번지 앤모텔","indutype":"숙박업 - 여관/기타숙박업","category":"hotel"}]},{"lat":"38.02664364","long":"127.0694521","imageIndex":5,"items":[{"name":"여기서 자자","tel":"031-832-9321","addr":"경기도 연천군 전곡읍 전곡리 333-188번지","indutype":"숙박업 - 여관/기타숙박업","category":"hotel"}]},{"lat":"38.00809524","long":"127.066919","imageIndex":5,"items":[{"name":"왕의자택","tel":"031-832-0625","addr":"경기도 연천군 전곡읍 전곡리 111-2번지","indutype":"숙박업 - 여관/기타숙박업","category":"hotel"}]},{"lat":"38.00847727","long":"127.0598369","imageIndex":5,"items":[{"name":"인강파크","tel":"031-832-7717","addr":"경기도 연천군 전곡읍 전곡리 639-1번지","indutype":"숙박업 - 여관/기타숙박업","category":"hotel"}]},{"lat":"38.01656663","long":"127.0774714","imageIndex":5,"items":[{"name":"한탄강 소나무 캠핑","tel":"031-833-9998","addr":"경기도 연천군 전곡읍 전곡리 58-1","indutype":"숙박업 - 여관/기타숙박업","category":"hotel"}]},{"lat":"38.00937466","long":"127.0667037","imageIndex":5,"items":[{"name":"한탄강모텔","tel":"031-832-7330","addr":"경기도 연천군 전곡읍 전곡리 108-3번지","indutype":"숙박업 - 여관/기타숙박업","category":"hotel"}]},{"lat":"38.00892396","long":"127.0671474","imageIndex":5,"items":[{"name":"홀인원모텔","tel":"031-832-5064","addr":"경기도 연천군 전곡읍 전곡리 108-7번지","indutype":"숙박업 - 여관/기타숙박업","category":"hotel"}]}]