[{"lat":"37.237921139","long":"127.51586931","imageIndex":4,"items":[{"name":"계경순대국","tel":"031-635-7220","addr":"경기도 이천시 부발읍 응암리 103-2번지 2동 1층","indutype":"일반휴게음식 - 일반한식","category":"restaurant"},{"name":"쌀통닭","tel":"031-638-5235","addr":"경기도 이천시 부발읍 응암리 103-2번지 2동 1층","indutype":"일반휴게음식 - 스넥","category":"restaurant"},{"name":"치요남치킨","tel":"031-633-2070","addr":"경기도 이천시 부발읍 응암리 103-2번지","indutype":"일반휴게음식 - 일반한식","category":"restaurant"}]},{"lat":"37.239447066","long":"127.51720947","imageIndex":4,"items":[{"name":"다솜감자탕","tel":"031-631-5369","addr":"경기도 이천시 부발읍 응암리 109-9번지 주은다솜상가 B-1호","indutype":"일반휴게음식 - 일반한식","category":"restaurant"}]},{"lat":"37.234139887","long":"127.52137669","imageIndex":4,"items":[{"name":"당가구이집","tel":"031-635-9291","addr":"경기도 이천시 부발읍 응암리 174-3번지","indutype":"일반휴게음식 - 일반한식","category":"restaurant"}]},{"lat":"37.239837185","long":"127.51659228","imageIndex":4,"items":[{"name":"뒷고기집","tel":"031-632-1238","addr":"경기도 이천시 부발읍 응암리 97-12번지 이화아파트 102호","indutype":"일반휴게음식 - 일반한식","category":"restaurant"}]},{"lat":"37.229778566","long":"127.52145951","imageIndex":4,"items":[{"name":"마야돈까스","tel":"031-637-0437","addr":"경기도 이천시 부발읍 응암리 270-6번지","indutype":"일반휴게음식 - 서양음식","category":"restaurant"},{"name":"응암휴게소","tel":"031-635-8058","addr":"경기도 이천시 부발읍 응암리 270-6번지 응암휴게소","indutype":"일반휴게음식 - 일반한식","category":"restaurant"}]},{"lat":"37.239639783","long":"127.51222958","imageIndex":4,"items":[{"name":"세명뼈해장국","tel":"031-637-6573","addr":"경기도 이천시 부발읍 응암리 14-4번지","indutype":"일반휴게음식 - 일반한식","category":"restaurant"}]},{"lat":"37.234554854","long":"127.52331779","imageIndex":4,"items":[{"name":"소담정","tel":"031-636-4872","addr":"경기도 이천시 부발읍 응암리 184번지","indutype":"일반휴게음식 - 일반한식","category":"restaurant"}]},{"lat":"37.240610233","long":"127.51701451","imageIndex":4,"items":[{"name":"소망식당","tel":"031-633-7709","addr":"경기도 이천시 부발읍 응암리 109-7번지","indutype":"일반휴게음식 - 일반한식","category":"restaurant"}]},{"lat":"37.235310495","long":"127.51948025","imageIndex":4,"items":[{"name":"손짜장","tel":"031-631-5711","addr":"경기도 이천시 부발읍 응암리 165-5번지 1층","indutype":"일반휴게음식 - 중국식","category":"restaurant"}]},{"lat":"37.233835987","long":"127.52287336","imageIndex":4,"items":[{"name":"안성순해장국","tel":"031-634-8808","addr":"경기도 이천시 부발읍 응암리 368-1번지","indutype":"일반휴게음식 - 일반한식","category":"restaurant"}]},{"lat":"37.233750639","long":"127.52384189","imageIndex":4,"items":[{"name":"오.늘(O.Neul)","tel":"070-6464-6758","addr":"경기도 이천시 부발읍 응암리 360-3번지 1층 101호","indutype":"일반휴게음식 - 서양음식","category":"restaurant"}]},{"lat":"37.23411188","long":"127.52365281","imageIndex":4,"items":[{"name":"오대산송어횟집","tel":"031-637-7887","addr":"경기도 이천시 부발읍 응암리 182-1","indutype":"일반휴게음식 - 일반한식","category":"restaurant"}]},{"lat":"37.234476312","long":"127.52068033","imageIndex":4,"items":[{"name":"온정손만두","tel":"031-636-2281","addr":"경기도 이천시 부발읍 응암리 159-2번지 1동 1층","indutype":"일반휴게음식 - 일반한식","category":"restaurant"}]},{"lat":"37.233640191","long":"127.52231985","imageIndex":4,"items":[{"name":"응암리막국수","tel":"02-1635-5935","addr":"경기도 이천시 부발읍 응암리 370-4번지","indutype":"일반휴게음식 - 일반한식","category":"restaurant"}]},{"lat":"37.237610325","long":"127.51481915","imageIndex":4,"items":[{"name":"장터양평해장국","tel":"031-631-5133","addr":"경기도 이천시 부발읍 응암리 41번지 1동 1층","indutype":"일반휴게음식 - 일반한식","category":"restaurant"}]},{"lat":"37.239390984","long":"127.51559753","imageIndex":4,"items":[{"name":"짬뽕명가","tel":"03-632-8890","addr":"경기도 이천시 부발읍 응암리 97-11번지 이화아파트 202호","indutype":"일반휴게음식 - 중국식","category":"restaurant"},{"name":"한나수제돈까스","tel":"031-635-3277","addr":"경기도 이천시 부발읍 응암리 97-11번지","indutype":"일반휴게음식 - 일반한식","category":"restaurant"}]},{"lat":"37.238059752","long":"127.51507012","imageIndex":4,"items":[{"name":"커피빈스,커피콩","tel":"031-694-2220","addr":"경기도 이천시 부발읍 응암리 92-3번지 1층","indutype":"일반휴게음식 - 서양음식","category":"restaurant"}]},{"lat":"37.235636426","long":"127.51912186","imageIndex":4,"items":[{"name":"토담한정식","tel":"031-634-7870","addr":"경기도 이천시 부발읍 응암리 165외1필지","indutype":"일반휴게음식 - 일반한식","category":"restaurant"}]}]