[{"lat":"37.333904771","long":"127.59169336","imageIndex":17,"items":[{"name":"가가가석수와퓨리스","tel":"031-884-4814","addr":"경기도 여주시 능서면 백석리 448-4번지","indutype":"유통업 영리 - 기타유통업","category":"other"}]},{"lat":"37.335434887","long":"127.58655983","imageIndex":17,"items":[{"name":"건양공예사","tel":"031-883-7865","addr":"경기도 여주시 능서면 백석리 29-198번지","indutype":"회원제형태 - 기타4","category":"other"}]},{"lat":"37.33479464","long":"127.58666771","imageIndex":17,"items":[{"name":"다복건축","tel":"031-883-4378","addr":"경기도 여주시 능서면 백석리 35-140번지","indutype":"회원제형태 - 기타4","category":"other"}]},{"lat":"37.325548465","long":"127.58886395","imageIndex":17,"items":[{"name":"미스바성구사","tel":"031-882-4872","addr":"경기도 여주시 능서면 백석리 368-9번지","indutype":"신변잡화 - 기념품점","category":"other"}]},{"lat":"37.32555109","long":"127.5883337","imageIndex":17,"items":[{"name":"지엘정공","tel":"031-882-0535","addr":"경기도 여주시 능서면 백석리 369-10번지","indutype":"기타 - 기계공구","category":"other"}]},{"lat":"37.332076701","long":"127.59510925","imageIndex":4,"items":[{"name":"강변가든","tel":"031-881-3861","addr":"경기도 여주시 능서면 백석리 306번지","indutype":"일반휴게음식 - 일반한식","category":"restaurant"}]},{"lat":"37.335846662","long":"127.58527664","imageIndex":4,"items":[{"name":"농부네 갈비","tel":"031-886-7892","addr":"경기도 여주시 능서면 백석리 29-59번지","indutype":"일반휴게음식 - 일반한식","category":"restaurant"}]},{"lat":"37.3352409","long":"127.58570075","imageIndex":4,"items":[{"name":"백석구판장","tel":"031-884-9465","addr":"경기도 여주시 능서면 백석리 29-215번지","indutype":"일반휴게음식 - 일반한식","category":"restaurant"}]},{"lat":"37.334153446","long":"127.58513945","imageIndex":4,"items":[{"name":"사랑방식당","tel":"031-881-4517","addr":"경기도 여주시 능서면 백석리 457-112번지","indutype":"일반휴게음식 - 일반한식","category":"restaurant"}]},{"lat":"37.332986964","long":"127.59505998","imageIndex":4,"items":[{"name":"여주카페","tel":"031-882-5204","addr":"경기도 여주시 능서면 백석리 265-1번지","indutype":"일반휴게음식 - 서양음식","category":"restaurant"}]},{"lat":"37.333853589","long":"127.59472827","imageIndex":4,"items":[{"name":"티롤(Tirol)","tel":"031-881-2535","addr":"경기도 여주시 능서면 백석리 272-1번지","indutype":"일반휴게음식 - 일반한식","category":"restaurant"}]},{"lat":"37.333239232","long":"127.59145121","imageIndex":16,"items":[{"name":"능북초등학교","tel":"031-884-6237","addr":"경기도 여주시 능서면 백석리 442-4번지 능북초등학교","indutype":"학원 - 초중고교육기관","category":"study"},{"name":"능북초등학교병설유치원[아이행복]","tel":"031-884-5286","addr":"경기도 여주시 능서면 백석리 442-4번지","indutype":"학원 - 유치원","category":"study"}]},{"lat":"37.333573185","long":"127.58036198","imageIndex":7,"items":[{"name":"여주능서미곡처리장","tel":"031-884-5720","addr":"경기도 여주시 능서면 백석리 618-2번지 여주능서미곡처리장","indutype":"음료식품 - 미곡상","category":"food"}]}]