[{"lat":"37.308246672","long":"127.64157575","imageIndex":13,"items":[{"name":"나이스당구장","tel":"031-885-4442","addr":"경기도 여주시 현암동 190-3번지","indutype":"레저업소 - 당 구 장","category":"leisure"},{"name":"칸타빌레노래연습장","tel":"031-886-6030","addr":"경기도 여주시 현암동 190-3번지 2층","indutype":"레저업소 - 노 래 방","category":"leisure"}]},{"lat":"37.304914356","long":"127.63964136","imageIndex":13,"items":[{"name":"뉴평화수상레져","tel":"","addr":"경기도 여주시 현암동 219-6번지 662호","indutype":"레저업소 - 기타레져업소","category":"leisure"}]},{"lat":"37.308273506","long":"127.6399404","imageIndex":13,"items":[{"name":"도예스크린골프","tel":"","addr":"경기도 여주시 현암동 179-7번지 유진빌딩 1동 201호","indutype":"레저업소 - 스크린골프","category":"leisure"},{"name":"코코핏(CoCo Fit)","tel":"","addr":"경기도 여주시 현암동 179-7번지 1동 202호","indutype":"레저업소 - 헬스클럽","category":"leisure"}]},{"lat":"37.308134597","long":"127.64230799","imageIndex":13,"items":[{"name":"럭셔리노래연습장","tel":"031-881-0883","addr":"경기도 여주시 현암동 191-22번지 지하1층","indutype":"레저업소 - 노 래 방","category":"leisure"}]},{"lat":"37.307326398","long":"127.64013544","imageIndex":13,"items":[{"name":"몽도리당구장","tel":"031-885-6504","addr":"경기도 여주시 현암동 188-1번지 상가동 지층","indutype":"레저업소 - 당 구 장","category":"leisure"},{"name":"피노키오방방","tel":"031-886-0702","addr":"경기도 여주시 현암동 188-1번지 여주벽산아파트","indutype":"레저업소 - 기타레져업소","category":"leisure"}]},{"lat":"37.312161976","long":"127.63224612","imageIndex":13,"items":[{"name":"숨 필라테스","tel":"031-881-1070","addr":"경기도 여주시 현암동 668-6번지 2층 201호","indutype":"레저업소 - 헬스클럽","category":"leisure"}]},{"lat":"37.308045597","long":"127.6421042","imageIndex":13,"items":[{"name":"어울림노래연습장","tel":"031-886-1717","addr":"경기도 여주시 현암동 191-32번지","indutype":"레저업소 - 노 래 방","category":"leisure"}]},{"lat":"37.306049104","long":"127.64141053","imageIndex":13,"items":[{"name":"오렌지PC방","tel":"031-885-7393","addr":"경기도 여주시 현암동 195번지 이안여주강변아파트","indutype":"레저업소 - 기타레져업소","category":"leisure"}]},{"lat":"37.307908441","long":"127.64247527","imageIndex":13,"items":[{"name":"와와 노래연습장","tel":"031-881-5566","addr":"경기도 여주시 현암동 192-2번지","indutype":"레저업소 - 노 래 방","category":"leisure"},{"name":"점핑N쉐이킹","tel":"031-635-2000","addr":"경기도 여주시 현암동 192-2번지 401호","indutype":"레저업소 - 헬스클럽","category":"leisure"},{"name":"점핑하이 현암점","tel":"","addr":"경기도 여주시 현암동 192-2번지 4층","indutype":"레저업소 - 헬스클럽","category":"leisure"}]},{"lat":"37.303104","long":"127.63447156","imageIndex":13,"items":[{"name":"팀우노수상레저","tel":"031-1111-1111","addr":"경기도 여주시 현암동 217-3","indutype":"레저업소 - 기타레져업소","category":"leisure"}]}]