[{"lat":"37.66832259","long":"126.76326388","imageIndex":13,"items":[{"name":"(주)관절 관절훈련Gym","tel":"031-818-3957","addr":"경기도 고양시 일산서구 주엽동 102-2번지","indutype":"레저업소 - 헬스클럽","category":"leisure"},{"name":"김성민샘&빼고더하기운동","tel":"031-917-7030","addr":"경기도 고양시 일산서구 주엽동 102-2번지","indutype":"레저업소 - 헬스클럽","category":"leisure"}]},{"lat":"37.667739561","long":"126.76454652","imageIndex":13,"items":[{"name":"SUN다이버스","tel":"031-1800-7123","addr":"경기도 고양시 일산서구 주엽동 83번지 강선마을12단지아파트","indutype":"레저업소 - 기타레져업소","category":"leisure"},{"name":"피지에이스크린골프","tel":"031-911-7111","addr":"경기도 고양시 일산서구 주엽동 83번지 강선마을12단지아파트","indutype":"레저업소 - 스크린골프","category":"leisure"}]},{"lat":"37.669269747","long":"126.76382755","imageIndex":13,"items":[{"name":"TG 댄스아카데미","tel":"031-916-4505","addr":"경기도 고양시 일산서구 주엽동 72-2번지","indutype":"레저업소 - 헬스클럽","category":"leisure"},{"name":"원업필라테스","tel":"","addr":"경기도 고양시 일산서구 주엽동 72-2번지","indutype":"레저업소 - 헬스클럽","category":"leisure"},{"name":"일산 아쉬탕가 요가","tel":"031-921-1103","addr":"경기도 고양시 일산서구 주엽동 72-2번지","indutype":"레저업소 - 헬스클럽","category":"leisure"},{"name":"하이런당구클럽","tel":"","addr":"경기도 고양시 일산서구 주엽동 72-2번지","indutype":"레저업소 - 당 구 장","category":"leisure"},{"name":"한솔골프존","tel":"031-919-0753","addr":"경기도 고양시 일산서구 주엽동 72-2번지","indutype":"레저업소 - 스크린골프","category":"leisure"}]},{"lat":"37.669212393","long":"126.76220692","imageIndex":13,"items":[{"name":"YG스포츠센타","tel":"031-911-5345","addr":"경기도 고양시 일산서구 주엽동 106-1번지","indutype":"레저업소 - 헬스클럽","category":"leisure"}]},{"lat":"37.674152462","long":"126.76357385","imageIndex":13,"items":[{"name":"pc bin","tel":"070-2441-3678","addr":"경기도 고양시 일산서구 주엽동 30-2번지","indutype":"레저업소 - 기타레져업소","category":"leisure"}]},{"lat":"37.670097111","long":"126.76307682","imageIndex":13,"items":[{"name":"가인노래연습장","tel":"031-924-7725","addr":"경기도 고양시 일산서구 주엽동 68번지","indutype":"레저업소 - 노 래 방","category":"leisure"}]},{"lat":"37.669657274","long":"126.76388298","imageIndex":13,"items":[{"name":"검무산 당구클럽","tel":"070-7543-2134","addr":"경기도 고양시 일산서구 주엽동 72번지","indutype":"레저업소 - 당 구 장","category":"leisure"},{"name":"일산피티맥스짐","tel":"031-911-8861","addr":"경기도 고양시 일산서구 주엽동 72번지","indutype":"레저업소 - 헬스클럽","category":"leisure"}]},{"lat":"37.670903948","long":"126.76110199","imageIndex":13,"items":[{"name":"그랜드골프연습장","tel":"031-922-0737","addr":"경기도 고양시 일산서구 주엽동 22번지","indutype":"레저업소 - 골프연습장","category":"leisure"}]},{"lat":"37.670491547","long":"126.76210078","imageIndex":13,"items":[{"name":"그랜드노래연습장","tel":"031-918-3141","addr":"경기도 고양시 일산서구 주엽동 66번지","indutype":"레저업소 - 노 래 방","category":"leisure"},{"name":"투와이짐","tel":"031-913-2215","addr":"경기도 고양시 일산서구 주엽동 66번지","indutype":"레저업소 - 헬스클럽","category":"leisure"}]},{"lat":"37.670324421","long":"126.75968705","imageIndex":13,"items":[{"name":"그린당구장","tel":"070-8955-9732","addr":"경기도 고양시 일산서구 주엽동 110-2번지","indutype":"레저업소 - 당 구 장","category":"leisure"},{"name":"헬로방방 주엽점","tel":"070-7862-1697","addr":"경기도 고양시 일산서구 주엽동 110-2번지","indutype":"레저업소 - 기타레져업소","category":"leisure"}]},{"lat":"37.674157615","long":"126.76168087","imageIndex":13,"items":[{"name":"넘버원 피티짐(NO.1  P.T GYM)","tel":"031-913-9020","addr":"경기도 고양시 일산서구 주엽동 29번지 문촌마을4단지아파트","indutype":"레저업소 - 헬스클럽","category":"leisure"}]},{"lat":"37.669658856","long":"126.76024461","imageIndex":13,"items":[{"name":"노블 핏 짐","tel":"031-912-8830","addr":"경기도 고양시 일산서구 주엽동 109-1번지","indutype":"레저업소 - 헬스클럽","category":"leisure"},{"name":"노블라인 필라테스","tel":"031-912-8830","addr":"경기도 고양시 일산서구 주엽동 109-1번지","indutype":"레저업소 - 헬스클럽","category":"leisure"},{"name":"요가비채","tel":"031-815-7776","addr":"경기도 고양시 일산서구 주엽동 109-1번지","indutype":"레저업소 - 헬스클럽","category":"leisure"},{"name":"주엽피티","tel":"031-918-5658","addr":"경기도 고양시 일산서구 주엽동 109-1번지","indutype":"레저업소 - 헬스클럽","category":"leisure"},{"name":"킹노래연습장","tel":"031-971-7731","addr":"경기도 고양시 일산서구 주엽동 109-1번지","indutype":"레저업소 - 노 래 방","category":"leisure"}]},{"lat":"37.674603561","long":"126.76387845","imageIndex":13,"items":[{"name":"더캄필라잉요가&필라테스","tel":"031-911-5088","addr":"경기도 고양시 일산서구 주엽동 31-2번지","indutype":"레저업소 - 헬스클럽","category":"leisure"}]},{"lat":"37.671352612","long":"126.76021643","imageIndex":13,"items":[{"name":"삼원","tel":"031-915-4033","addr":"경기도 고양시 일산서구 주엽동 19-3번지","indutype":"레저업소 - 당 구 장","category":"leisure"},{"name":"제이제이(JJ)노래방","tel":"031-919-3880","addr":"경기도 고양시 일산서구 주엽동 19-3번지","indutype":"레저업소 - 노 래 방","category":"leisure"}]},{"lat":"37.670627465","long":"126.75809922","imageIndex":13,"items":[{"name":"셀럽집","tel":"031-919-6607","addr":"경기도 고양시 일산서구 주엽동 115-1번지","indutype":"레저업소 - 헬스클럽","category":"leisure"},{"name":"아쉬탕가요가일산","tel":"031-922-8259","addr":"경기도 고양시 일산서구 주엽동 115-1번지","indutype":"레저업소 - 헬스클럽","category":"leisure"}]},{"lat":"37.671458085","long":"126.75893526","imageIndex":13,"items":[{"name":"시네마노래연습장","tel":"031-919-5587","addr":"경기도 고양시 일산서구 주엽동 18-2번지","indutype":"레저업소 - 노 래 방","category":"leisure"},{"name":"주엽골프존","tel":"031-925-0797","addr":"경기도 고양시 일산서구 주엽동 18-2번지","indutype":"레저업소 - 스크린골프","category":"leisure"},{"name":"테니스빌리지","tel":"","addr":"경기도 고양시 일산서구 주엽동 18-2번지","indutype":"레저업소 - 테니스장","category":"leisure"}]},{"lat":"37.669965625","long":"126.76045897","imageIndex":13,"items":[{"name":"아이비스 PC방 주엽역점","tel":"","addr":"경기도 고양시 일산서구 주엽동 109번지","indutype":"레저업소 - 기타레져업소","category":"leisure"}]},{"lat":"37.670184828","long":"126.76190908","imageIndex":13,"items":[{"name":"에스(S)바디워크필라테스 주엽점","tel":"031-922-5353","addr":"경기도 고양시 일산서구 주엽동 66-1번지","indutype":"레저업소 - 헬스클럽","category":"leisure"},{"name":"엠타운 노래연습장","tel":"031-811-0059","addr":"경기도 고양시 일산서구 주엽동 66-1번지","indutype":"레저업소 - 노 래 방","category":"leisure"}]},{"lat":"37.670240573","long":"126.76273632","imageIndex":13,"items":[{"name":"영스타노래방","tel":"031-915-6455","addr":"경기도 고양시 일산서구 주엽동 67번지","indutype":"레저업소 - 노 래 방","category":"leisure"},{"name":"일산 주엽 복싱 체육관","tel":"031-911-3320","addr":"경기도 고양시 일산서구 주엽동 67번지","indutype":"레저업소 - 헬스클럽","category":"leisure"}]},{"lat":"37.670575544","long":"126.75913084","imageIndex":13,"items":[{"name":"온핫요가","tel":"031-917-6611","addr":"경기도 고양시 일산서구 주엽동 110번지","indutype":"레저업소 - 헬스클럽","category":"leisure"}]},{"lat":"37.668493104","long":"126.76293464","imageIndex":13,"items":[{"name":"용천태극권수련원","tel":"031-919-6668","addr":"경기도 고양시 일산서구 주엽동 102-1번지","indutype":"레저업소 - 헬스클럽","category":"leisure"}]},{"lat":"37.674322976","long":"126.76324458","imageIndex":13,"items":[{"name":"일산시온탁구클럽","tel":"070-6678-5557","addr":"경기도 고양시 일산서구 주엽동 30번지","indutype":"레저업소 - 기타레져업소","category":"leisure"}]},{"lat":"37.67387452","long":"126.76424352","imageIndex":13,"items":[{"name":"재우스짐","tel":"031-922-1755","addr":"경기도 고양시 일산서구 주엽동 51번지","indutype":"레저업소 - 헬스클럽","category":"leisure"},{"name":"채플린","tel":"031-947-6254","addr":"경기도 고양시 일산서구 주엽동 51번지","indutype":"레저업소 - 노 래 방","category":"leisure"}]},{"lat":"37.674325618","long":"126.76454812","imageIndex":13,"items":[{"name":"점핑펀파크","tel":"031-923-3302","addr":"경기도 고양시 일산서구 주엽동 35번지","indutype":"레저업소 - 기타레져업소","category":"leisure"}]},{"lat":"37.674182128","long":"126.7648773","imageIndex":13,"items":[{"name":"터보소닉","tel":"","addr":"경기도 고양시 일산서구 주엽동 35-2번지","indutype":"레저업소 - 헬스클럽","category":"leisure"}]},{"lat":"37.668431924","long":"126.76835262","imageIndex":13,"items":[{"name":"핀스크린골프","tel":"031-915-2005","addr":"경기도 고양시 일산서구 주엽동 60번지","indutype":"레저업소 - 스크린골프","category":"leisure"}]},{"lat":"37.67254316","long":"126.76526792","imageIndex":13,"items":[{"name":"한국전통체험","tel":"031-911-7753","addr":"경기도 고양시 일산서구 주엽동 50번지","indutype":"레저업소 - 기타레져업소","category":"leisure"}]},{"lat":"37.666625316","long":"126.76601216","imageIndex":13,"items":[{"name":"해피데이PC방","tel":"070-3656-6546","addr":"경기도 고양시 일산서구 주엽동 81번지 강선마을13단지아파트","indutype":"레저업소 - 기타레져업소","category":"leisure"}]},{"lat":"37.668521197","long":"126.75473985","imageIndex":13,"items":[{"name":"호수탁구교실","tel":"031-913-7900","addr":"경기도 고양시 일산서구 주엽동 128번지","indutype":"레저업소 - 기타레져업소","category":"leisure"}]}]