[{"lat":"37.193586772","long":"127.558672","imageIndex":17,"items":[{"name":"GN종합공구/전기","tel":"031-881-0929","addr":"경기도 여주시 가남읍 심석리 97-1번지","indutype":"기타 - 기계공구","category":"other"},{"name":"가남철물건재","tel":"031-881-0929","addr":"경기도 여주시 가남읍 심석리 97-1번지","indutype":"건축자재 - 목재·석재·철물","category":"other"}]},{"lat":"37.191142108","long":"127.55928478","imageIndex":17,"items":[{"name":"가나목재","tel":"031-882-3471","addr":"경기도 여주시 가남읍 심석리 84번지","indutype":"건축자재 - 기타건축자재","category":"other"}]},{"lat":"37.202454299","long":"127.54867815","imageIndex":17,"items":[{"name":"가남농기계","tel":"031-882-2751","addr":"경기도 여주시 가남읍 심석리 397번지","indutype":"농업 - 농기계","category":"other"}]},{"lat":"37.19570115","long":"127.55159173","imageIndex":17,"items":[{"name":"가남파렛트","tel":"031-881-1442","addr":"경기도 여주시 가남읍 심석리 470-1번지","indutype":"회원제형태 - 기타4","category":"other"}]},{"lat":"37.194122003","long":"127.55789878","imageIndex":17,"items":[{"name":"기공선원","tel":"031-884-4720","addr":"경기도 여주시 가남읍 심석리 107-1번지","indutype":"기타 - 비영리/대상","category":"other"}]},{"lat":"37.197252982","long":"127.55308973","imageIndex":17,"items":[{"name":"꼼지락아트","tel":"031-881-3362","addr":"경기도 여주시 가남읍 심석리 118번지 세광리치타운아파트","indutype":"문화.취미 - 문화취미기타","category":"other"},{"name":"태평종합광고사","tel":"031-8051-1551","addr":"경기도 여주시 가남읍 심석리 118번지 세광리치타운아파트","indutype":"서적문구 - 출판 및 인쇄물","category":"other"}]},{"lat":"37.205755203","long":"127.55383858","imageIndex":17,"items":[{"name":"대림원예농원","tel":"031-882-5933","addr":"경기도 여주시 가남읍 심석리 329-20번지","indutype":"농업 - 비료,사료,종자","category":"other"}]},{"lat":"37.206313926","long":"127.55382011","imageIndex":17,"items":[{"name":"대산농자재","tel":"031-883-1813","addr":"경기도 여주시 가남읍 심석리 329-10번지","indutype":"농업 - 기타농업관련","category":"other"}]},{"lat":"37.203675105","long":"127.55356438","imageIndex":17,"items":[{"name":"동명농기구","tel":"031-883-1176","addr":"경기도 여주시 가남읍 심석리 362-1번지","indutype":"수리서비스 - 기타수리서비스","category":"other"}]},{"lat":"37.204116162","long":"127.55559517","imageIndex":17,"items":[{"name":"보도블럭KR","tel":"","addr":"경기도 여주시 가남읍 심석리 364-15번지","indutype":"건축자재 - 기타건축자재","category":"other"}]},{"lat":"37.202259323","long":"127.54992706","imageIndex":17,"items":[{"name":"삼화페인트가남칠공사","tel":"031-884-1205","addr":"경기도 여주시 가남읍 심석리 422-3번지","indutype":"건축자재 - 페인트","category":"other"},{"name":"와우전기공사","tel":"031-882-9904","addr":"경기도 여주시 가남읍 심석리 422-3번지","indutype":"전기제품 - 기타전기제품","category":"other"}]},{"lat":"37.202256443","long":"127.54859788","imageIndex":17,"items":[{"name":"성동공업사","tel":"031-884-1527","addr":"경기도 여주시 가남읍 심석리 398번지","indutype":"기타 - 기계공구","category":"other"},{"name":"청화퇴비","tel":"031-883-5448","addr":"경기도 여주시 가남읍 심석리 398번지 외4필지 F동 1층","indutype":"농업 - 비료,사료,종자","category":"other"},{"name":"형제철물","tel":"031-883-9517","addr":"경기도 여주시 가남읍 심석리 398번지","indutype":"건축자재 - 목재·석재·철물","category":"other"}]},{"lat":"37.208338809","long":"127.55434176","imageIndex":17,"items":[{"name":"씨알  원","tel":"031-882-2994","addr":"경기도 여주시 가남읍 심석리 305-3번지","indutype":"문화.취미 - 화원","category":"other"}]},{"lat":"37.205669082","long":"127.55298185","imageIndex":17,"items":[{"name":"씨유여주제일점","tel":"080-080-3663","addr":"경기도 여주시 가남읍 심석리 358-2번지","indutype":"유통업 영리 - 편 의 점","category":"other"}]},{"lat":"37.195423381","long":"127.55320034","imageIndex":17,"items":[{"name":"영우건축","tel":"031-8833-2227","addr":"경기도 여주시 가남읍 심석리 114-2번지","indutype":"용역 서비스 - 기타용역서비스","category":"other"}]},{"lat":"37.208617489","long":"127.55447897","imageIndex":17,"items":[{"name":"원 종합 ENG","tel":"031-884-6305","addr":"경기도 여주시 가남읍 심석리 305-9번지","indutype":"용역 서비스 - 기타용역서비스","category":"other"}]},{"lat":"37.187620301","long":"127.56475475","imageIndex":17,"items":[{"name":"준엔지니어링","tel":"031-881-1172","addr":"경기도 여주시 가남읍 심석리 69-1번지","indutype":"용역 서비스 - 기타용역서비스","category":"other"}]},{"lat":"37.201723297","long":"127.54893196","imageIndex":17,"items":[{"name":"충주낚시슈퍼","tel":"031-883-2955","addr":"경기도 여주시 가남읍 심석리 411-2번지","indutype":"레져용품 - 스포츠·레져용품","category":"other"}]},{"lat":"37.201228388","long":"127.56230995","imageIndex":17,"items":[{"name":"하나건축설비","tel":"031-882-3454","addr":"경기도 여주시 가남읍 심석리 208-1번지","indutype":"건축자재 - 인테리어전문","category":"other"}]}]