[{"lat":"37.007353671","long":"127.26867778","imageIndex":7,"items":[{"name":"WORLD FOOD","tel":"031-678-8088","addr":"경기도 안성시 서인동 87-2번지","indutype":"음료식품 - 기타음료식품","category":"food"}]},{"lat":"37.006715277","long":"127.26806885","imageIndex":7,"items":[{"name":"고향떡집","tel":"031-673-7874","addr":"경기도 안성시 서인동 103번지","indutype":"음료식품 - 제과점","category":"food"}]},{"lat":"37.006775356","long":"127.26940606","imageIndex":7,"items":[{"name":"금산인삼","tel":"031-673-0333","addr":"경기도 안성시 서인동 58번지 1층","indutype":"건강식품 - 인삼제품","category":"food"}]},{"lat":"37.006607777","long":"127.2677876","imageIndex":7,"items":[{"name":"농가축산정육점","tel":"031-677-0377","addr":"경기도 안성시 서인동 105-1번지","indutype":"음료식품 - 정육점","category":"food"}]},{"lat":"37.006993248","long":"127.26867653","imageIndex":7,"items":[{"name":"대성청과","tel":"031-675-3044","addr":"경기도 안성시 서인동 82-3번지","indutype":"음료식품 - 농·축·수산품","category":"food"}]},{"lat":"37.006913007","long":"127.26829425","imageIndex":7,"items":[{"name":"떡마루","tel":"031-675-5082","addr":"경기도 안성시 서인동 84","indutype":"음료식품 - 제과점","category":"food"}]},{"lat":"37.006858441","long":"127.26851876","imageIndex":7,"items":[{"name":"만복닭집","tel":"031-675-1749","addr":"경기도 안성시 서인동 83번지","indutype":"음료식품 - 정육점","category":"food"}]},{"lat":"37.006053625","long":"127.26979677","imageIndex":7,"items":[{"name":"미원부산물직매장","tel":"031-674-7105","addr":"경기도 안성시 서인동 51-1번지","indutype":"음료식품 - 정육점","category":"food"}]},{"lat":"37.006884668","long":"127.26887838","imageIndex":7,"items":[{"name":"믿음건강원","tel":"031-672-1981","addr":"경기도 안성시 서인동 69-2번지","indutype":"건강식품 - 기타건강식품","category":"food"}]},{"lat":"37.006328624","long":"127.26770798","imageIndex":7,"items":[{"name":"바른축산","tel":"031-676-0322","addr":"경기도 안성시 서인동 117번지 103,104,105호","indutype":"음료식품 - 정육점","category":"food"},{"name":"상도락유통","tel":"031-674-9335","addr":"경기도 안성시 서인동 117번지","indutype":"음료식품 - 농·축·수산품","category":"food"},{"name":"생선마트","tel":"031-676-1805","addr":"경기도 안성시 서인동 117번지 집합건물 107호","indutype":"음료식품 - 농·축·수산품","category":"food"}]},{"lat":"37.006389463","long":"127.26870813","imageIndex":7,"items":[{"name":"밥도둑","tel":"031-674-5461","addr":"경기도 안성시 서인동 80번지 외1필지 1층","indutype":"음료식품 - 기타음료식품","category":"food"}]},{"lat":"37.006714975","long":"127.26820368","imageIndex":7,"items":[{"name":"보령떡방앗간","tel":"031-675-6700","addr":"경기도 안성시 서인동 102번지 1층","indutype":"음료식품 - 제과점","category":"food"},{"name":"유림슈퍼","tel":"031-675-6600","addr":"경기도 안성시 서인동 102번지","indutype":"음료식품 - 기타음료식품","category":"food"}]},{"lat":"37.006742685","long":"127.26790042","imageIndex":7,"items":[{"name":"보체수산","tel":"031-674-5992","addr":"경기도 안성시 서인동 104번지","indutype":"음료식품 - 농·축·수산품","category":"food"},{"name":"태평양수산","tel":"031-672-0528","addr":"경기도 안성시 서인동 104번지 3호","indutype":"음료식품 - 농·축·수산품","category":"food"}]},{"lat":"37.007019776","long":"127.26890132","imageIndex":7,"items":[{"name":"빚은안성서인점","tel":"031-675-8651","addr":"경기도 안성시 서인동 68번지","indutype":"음료식품 - 제과점","category":"food"}]},{"lat":"37.006937244","long":"127.26954145","imageIndex":7,"items":[{"name":"삼진방앗간","tel":"031-674-3024","addr":"경기도 안성시 서인동 55-4번지","indutype":"음료식품 - 기타음료식품","category":"food"}]},{"lat":"37.00682942","long":"127.26940625","imageIndex":7,"items":[{"name":"삼진탕제원","tel":"031-675-3364","addr":"경기도 안성시 서인동 57-2번지","indutype":"건강식품 - 기타건강식품","category":"food"}]},{"lat":"37.006660409","long":"127.26842819","imageIndex":7,"items":[{"name":"새한우정육점","tel":"031-675-1857","addr":"경기도 안성시 서인동 102-1번지","indutype":"음료식품 - 정육점","category":"food"}]},{"lat":"37.006578509","long":"127.26878743","imageIndex":7,"items":[{"name":"안성복떡집","tel":"031-675-2752","addr":"경기도 안성시 서인동 81번지","indutype":"음료식품 - 제과점","category":"food"}]},{"lat":"37.006056373","long":"127.26857215","imageIndex":7,"items":[{"name":"양푼정육점","tel":"031-677-7786","addr":"경기도 안성시 서인동 78번지","indutype":"음료식품 - 정육점","category":"food"}]},{"lat":"37.006161626","long":"127.26985333","imageIndex":7,"items":[{"name":"오행생식","tel":"031-677-2238","addr":"경기도 안성시 서인동 51","indutype":"회원제형태 - 건강식품","category":"food"}]},{"lat":"37.006746581","long":"127.2701812","imageIndex":7,"items":[{"name":"우주청년카페","tel":"","addr":"경기도 안성시 서인동 13-1번지 B동 18호,19호","indutype":"음료식품 - 제과점","category":"food"}]},{"lat":"37.007024846","long":"127.27065405","imageIndex":7,"items":[{"name":"이든네이처","tel":"031-673-4234","addr":"경기도 안성시 서인동 5번지","indutype":"건강식품 - 기타건강식품","category":"food"}]},{"lat":"37.007215815","long":"127.26987948","imageIndex":7,"items":[{"name":"제일약초","tel":"031-676-5833","addr":"경기도 안성시 서인동 53번지","indutype":"음료식품 - 농·축·수산품","category":"food"}]},{"lat":"37.006854202","long":"127.27040628","imageIndex":7,"items":[{"name":"중앙흑염소","tel":"031-675-6765","addr":"경기도 안성시 서인동 13-16번지","indutype":"건강식품 - 기타건강식품","category":"food"}]},{"lat":"37.005910213","long":"127.26945922","imageIndex":7,"items":[{"name":"코털네고기백화점","tel":"031-675-4545","addr":"경기도 안성시 서인동 61-2번지","indutype":"음료식품 - 정육점","category":"food"}]},{"lat":"37.006830806","long":"127.26878831","imageIndex":7,"items":[{"name":"풍년상회","tel":"031-675-3734","addr":"경기도 안성시 서인동 69-3번지","indutype":"음료식품 - 농·축·수산품","category":"food"}]},{"lat":"37.006055819","long":"127.26881932","imageIndex":7,"items":[{"name":"홍익탕제원","tel":"031-677-7750","addr":"경기도 안성시 서인동 76","indutype":"건강식품 - 기타건강식품","category":"food"}]}]