[{"lat":"37.166557161","long":"127.03522889","imageIndex":4,"items":[{"name":"(주)신세계인터코스코리아신세계푸드","tel":"02-3397-6176","addr":"경기도 오산시 가장동 387-2번지 공장동 5층","indutype":"일반휴게음식 - 위탁급식업","category":"restaurant"}]},{"lat":"37.161969779","long":"127.03891964","imageIndex":4,"items":[{"name":"가람","tel":"031-377-3944","addr":"경기도 오산시 가장동 375-8번지 1층","indutype":"일반휴게음식 - 일반한식","category":"restaurant"},{"name":"이룸푸드","tel":"031-373-2238","addr":"경기도 오산시 가장동 375-8번지 1층 107호","indutype":"일반휴게음식 - 일반한식","category":"restaurant"},{"name":"이룸푸드","tel":"","addr":"경기도 오산시 가장동 375-8번지","indutype":"일반휴게음식 - 일반한식","category":"restaurant"},{"name":"커피에반하다(오산가장점)","tel":"031-376-7950","addr":"경기도 오산시 가장동 375-8번지 1층","indutype":"일반휴게음식 - 서양음식","category":"restaurant"}]},{"lat":"37.158059277","long":"127.03880521","imageIndex":4,"items":[{"name":"가장한식부페","tel":"","addr":"경기도 오산시 가장동 271-6번지 1층","indutype":"일반휴게음식 - 일반한식","category":"restaurant"}]},{"lat":"37.15736523","long":"127.03959291","imageIndex":4,"items":[{"name":"강원도양구손두부","tel":"031-376-8890","addr":"경기도 오산시 가장동 269-2번지","indutype":"일반휴게음식 - 일반한식","category":"restaurant"}]},{"lat":"37.162359136","long":"127.03197345","imageIndex":4,"items":[{"name":"고향한식뷔페","tel":"031-000-0000","addr":"경기도 오산시 가장동 397-1번지 B동 1층","indutype":"일반휴게음식 - 일반한식","category":"restaurant"}]},{"lat":"37.162583903","long":"127.03392123","imageIndex":4,"items":[{"name":"동네사람들","tel":"031-377-8592","addr":"경기도 오산시 가장동 399-3번지 1층 5호","indutype":"일반휴게음식 - 서양음식","category":"restaurant"},{"name":"진태옥설렁탕","tel":"031-374-2377","addr":"경기도 오산시 가장동 399-3번지 1,2,3호","indutype":"일반휴게음식 - 일반한식","category":"restaurant"}]},{"lat":"37.165168681","long":"127.03827941","imageIndex":4,"items":[{"name":"삼성웰스토리(주)아모레퍼시픽오산","tel":"031-8047-1440","addr":"경기도 오산시 가장동 382번지 지하1층","indutype":"일반휴게음식 - 위탁급식업","category":"restaurant"},{"name":"삼성웰스토리(주)아모레퍼시픽오산","tel":"031-8047-1440","addr":"경기도 오산시 가장동 382번지","indutype":"일반휴게음식 - 위탁급식업","category":"restaurant"}]},{"lat":"37.162611121","long":"127.03320071","imageIndex":4,"items":[{"name":"스트라스카페","tel":"","addr":"경기도 오산시 가장동 399-1번지 1층일부,2층","indutype":"일반휴게음식 - 서양음식","category":"restaurant"}]},{"lat":"37.167638777","long":"127.033867","imageIndex":4,"items":[{"name":"아늑한뜨락","tel":"031-377-4592","addr":"경기도 오산시 가장동 84-2번지","indutype":"일반휴게음식 - 일반한식","category":"restaurant"}]},{"lat":"37.158753157","long":"127.03855787","imageIndex":4,"items":[{"name":"양평해장국(가장점)","tel":"031-378-5083","addr":"경기도 오산시 가장동 248-2번지 1층","indutype":"일반휴게음식 - 일반한식","category":"restaurant"}]},{"lat":"37.159311986","long":"127.0379502","imageIndex":4,"items":[{"name":"최고봉만두","tel":"031-377-8882","addr":"경기도 오산시 가장동 244번지 2동 1층","indutype":"일반휴게음식 - 일반한식","category":"restaurant"}]},{"lat":"37.162420291","long":"127.03895363","imageIndex":4,"items":[{"name":"킹콩부대찌개","tel":"031-372-2604","addr":"경기도 오산시 가장동 375-1번지 103호 제102","indutype":"일반휴게음식 - 일반한식","category":"restaurant"},{"name":"화인셀프식당","tel":"031-377-8862","addr":"경기도 오산시 가장동 375-1번지 102호","indutype":"일반휴게음식 - 일반한식","category":"restaurant"}]},{"lat":"37.160555378","long":"127.03811965","imageIndex":4,"items":[{"name":"풀무원푸드앤컬처 와이솔","tel":"070-7837-2833","addr":"경기도 오산시 가장동 373-7번지 2층","indutype":"일반휴게음식 - 위탁급식업","category":"restaurant"}]},{"lat":"37.163863596","long":"127.03311114","imageIndex":4,"items":[{"name":"풀무원푸드앤컬처아모레퍼시픽제2뷰티사업","tel":"02-3400-7544","addr":"경기도 오산시 가장동 394-10번지 아모레퍼시픽뷰티제2사업장","indutype":"일반휴게음식 - 위탁급식업","category":"restaurant"}]}]