[{"lat":"37.241355682","long":"127.07019795","imageIndex":16,"items":[{"name":"(사)한국성품협회","tel":"031-203-0228","addr":"경기도 용인시 기흥구 서천동 395번지","indutype":"회원제형태 - 학원","category":"study"},{"name":"용인 오렌지에듀어학원","tel":"031-695-5435","addr":"경기도 용인시 기흥구 서천동 395번지","indutype":"학원 - 외국어학원","category":"study"},{"name":"지아이에스좋은나무어린이집","tel":"031-204-1122","addr":"경기도 용인시 기흥구 서천동 395번지","indutype":"학원 - 유아원","category":"study"}]},{"lat":"37.240883243","long":"127.07674539","imageIndex":16,"items":[{"name":"3030서천러닝센터영어교습소","tel":"031-000-0000","addr":"경기도 용인시 기흥구 서천동 755번지 서천2차아이파크 상가동 106호","indutype":"학원 - 외국어학원","category":"study"}]},{"lat":"37.242912295","long":"127.07391853","imageIndex":16,"items":[{"name":"KCT 서천 태권도","tel":"031-202-0060","addr":"경기도 용인시 기흥구 서천동 256-4번지 4층","indutype":"학원 - 예·체능계학원","category":"study"},{"name":"대한 검도회 박연정 검도관","tel":"031-206-3111","addr":"경기도 용인시 기흥구 서천동 256-4번지","indutype":"학원 - 예·체능계학원","category":"study"}]},{"lat":"37.237630304","long":"127.0770803","imageIndex":16,"items":[{"name":"감수학 수학교습소","tel":"031-203-9091","addr":"경기도 용인시 기흥구 서천동 791-2번지 1층","indutype":"학원 - 보습학원","category":"study"}]},{"lat":"37.237047298","long":"127.07269593","imageIndex":16,"items":[{"name":"경희대 석다 다온 태권도장","tel":"031-111-1111","addr":"경기도 용인시 기흥구 서천동 813번지 원희캐슬 6층 605호","indutype":"학원 - 예·체능계학원","category":"study"},{"name":"경희대효태권도","tel":"070-4222-3256","addr":"경기도 용인시 기흥구 서천동 813번지 원희캐슬서천프라자 6층 605호","indutype":"학원 - 예·체능계학원","category":"study"},{"name":"뮤직아이음악학원","tel":"070-4125-4229","addr":"경기도 용인시 기흥구 서천동 813번지 원희캐슬서천프라자 604호","indutype":"학원 - 예·체능계학원","category":"study"},{"name":"발레스튜디오톡톡입시전문학원","tel":"031-273-0999","addr":"경기도 용인시 기흥구 서천동 813번지 원희캐슬 506호 서천동,원희캐슬서천프라자","indutype":"회원제형태 - 학원","category":"study"},{"name":"비상잉글리시아이학원","tel":"031-335-3177","addr":"경기도 용인시 기흥구 서천동 813번지 서천원희캐슬프라자 505호","indutype":"학원 - 외국어학원","category":"study"},{"name":"스터디온독서실","tel":"031-755-5022","addr":"경기도 용인시 기흥구 서천동 813번지 원희캐슬 서천프라자 702,703호","indutype":"학원 - 독서실","category":"study"},{"name":"영수마스터클럼학원","tel":"031-202-0501","addr":"경기도 용인시 기흥구 서천동 813번지 원희캐슬 5층 503호","indutype":"학원 - 보습학원","category":"study"}]},{"lat":"37.24379945","long":"127.06663868","imageIndex":16,"items":[{"name":"경희대 신화 태권도장","tel":"031-205-0305","addr":"경기도 용인시 기흥구 서천동 366외4필지 301,302호","indutype":"학원 - 예·체능계학원","category":"study"},{"name":"지니잉글리쉬영어학원","tel":"02-111-1111","addr":"경기도 용인시 기흥구 서천동 366번지 303호 302호,303호","indutype":"학원 - 외국어학원","category":"study"}]},{"lat":"37.236714095","long":"127.07239135","imageIndex":16,"items":[{"name":"그담미술학원","tel":"031-204-2555","addr":"경기도 용인시 기흥구 서천동 814번지 에스비타운 602호","indutype":"학원 - 예·체능계학원","category":"study"},{"name":"무림합기도","tel":"031-205-0902","addr":"경기도 용인시 기흥구 서천동 814번지 201호","indutype":"학원 - 예·체능계학원","category":"study"},{"name":"뮤엠영어이젠수학학원","tel":"031-206-3363","addr":"경기도 용인시 기흥구 서천동 814번지 에스비타운 603호","indutype":"학원 - 보습학원","category":"study"},{"name":"비상 태권도장","tel":"031-206-5111","addr":"경기도 용인시 기흥구 서천동 814번지 605,606호","indutype":"학원 - 예·체능계학원","category":"study"},{"name":"서천바로크음악학원","tel":"031-202-3044","addr":"경기도 용인시 기흥구 서천동 814번지 에스비타운 6층 601호","indutype":"학원 - 예·체능계학원","category":"study"},{"name":"퀸학원","tel":"031-205-0533","addr":"경기도 용인시 기흥구 서천동 814번지 205호","indutype":"학원 - 보습학원","category":"study"},{"name":"탑벤에듀학원","tel":"031-206-0979","addr":"경기도 용인시 기흥구 서천동 814번지 에스비타운 2층 206호","indutype":"학원 - 보습학원","category":"study"}]},{"lat":"37.237882367","long":"127.07744117","imageIndex":16,"items":[{"name":"그림나래미술학원","tel":"070-4204-3696","addr":"경기도 용인시 기흥구 서천동 789-3번지 1층","indutype":"학원 - 예·체능계학원","category":"study"}]},{"lat":"37.238746759","long":"127.07838867","imageIndex":16,"items":[{"name":"기탄 사고력 교실 용인 서천세인트교실","tel":"","addr":"경기도 용인시 기흥구 서천동 765번지 142동 1층 101호","indutype":"학원 - 기타 교육기관","category":"study"}]},{"lat":"37.241293857","long":"127.06796643","imageIndex":16,"items":[{"name":"나토얀 올림픽 태권도","tel":"031-273-0750","addr":"경기도 용인시 기흥구 서천동 705 현대홈타운상가동301~307호","indutype":"학원 - 예·체능계학원","category":"study"},{"name":"반올림음악학원","tel":"031-890-6486","addr":"경기도 용인시 기흥구 서천동 705번지 예현마을현대홈타운 201호,205호~207호","indutype":"학원 - 예·체능계학원","category":"study"}]},{"lat":"37.237739592","long":"127.0751984","imageIndex":16,"items":[{"name":"니하오해법중국어교습소","tel":"033-373-8873","addr":"경기도 용인시 기흥구 서천동 801번지 힐스테이트서천 상가동 202호","indutype":"학원 - 외국어학원","category":"study"},{"name":"더클래식피아노교습소","tel":"031-203-8801","addr":"경기도 용인시 기흥구 서천동 801번지 힐스테이트서천 상가동 201호","indutype":"학원 - 예·체능계학원","category":"study"},{"name":"셀파우등생교실","tel":"","addr":"경기도 용인시 기흥구 서천동 801번지 힐스테이트서천 508동 701호","indutype":"학원 - 기타 교육기관","category":"study"},{"name":"안은진개인과외","tel":"","addr":"경기도 용인시 기흥구 서천동 801번지 힐스테이트서천 507동 1401호","indutype":"학원 - 기타 교육기관","category":"study"},{"name":"파파태권도","tel":"031-203-0301","addr":"경기도 용인시 기흥구 서천동 801번지 힐스테이트서천 상가동 2층 203호 ,204호,205호","indutype":"학원 - 예·체능계학원","category":"study"}]},{"lat":"37.244995588","long":"127.07066328","imageIndex":16,"items":[{"name":"딴생각창의미술학원","tel":"070-7724-8793","addr":"경기도 용인시 기흥구 서천동 339-9번지 해듬빌 201호","indutype":"학원 - 예·체능계학원","category":"study"}]},{"lat":"37.246659816","long":"127.07519565","imageIndex":16,"items":[{"name":"라임평생교육원","tel":"031-211-5026","addr":"경기도 용인시 기흥구 서천동 319-6번지 1,2층 일부","indutype":"학원 - 기타 교육기관","category":"study"},{"name":"주식회사 라임하우스","tel":"070-8878-5026","addr":"경기도 용인시 기흥구 서천동 319-6번지","indutype":"학원 - 기타 교육기관","category":"study"}]},{"lat":"37.237909674","long":"127.07700169","imageIndex":16,"items":[{"name":"리딩팜영어교습소","tel":"031-863-0840","addr":"경기도 용인시 기흥구 서천동 791번지 1동","indutype":"학원 - 보습학원","category":"study"},{"name":"젝스잉글리쉬영어교습소","tel":"070-4220-8385","addr":"경기도 용인시 기흥구 서천동 791번지 1층","indutype":"학원 - 외국어학원","category":"study"}]},{"lat":"37.236911399","long":"127.07394671","imageIndex":16,"items":[{"name":"리버티어학원","tel":"070-4220-8385","addr":"경기도 용인시 기흥구 서천동 807번지 604호","indutype":"학원 - 외국어학원","category":"study"},{"name":"리틀팍스어학원","tel":"031-203-3808","addr":"경기도 용인시 기흥구 서천동 807번지 506,507호","indutype":"학원 - 외국어학원","category":"study"},{"name":"서천예종음악학원","tel":"031-206-2333","addr":"경기도 용인시 기흥구 서천동 807번지 원희캐슬서천2 505호","indutype":"학원 - 예·체능계학원","category":"study"},{"name":"수학의달인윤선생영어서천서농점학원","tel":"031-204-0963","addr":"경기도 용인시 기흥구 서천동 807번지 601호","indutype":"학원 - 외국어학원","category":"study"},{"name":"아카데미라운지 서천독서실","tel":"031-308-0905","addr":"경기도 용인시 기흥구 서천동 807번지 406전체, 407일부호","indutype":"학원 - 독서실","category":"study"},{"name":"이상영어학원","tel":"","addr":"경기도 용인시 기흥구 서천동 807번지 원희캐슬 607호","indutype":"학원 - 외국어학원","category":"study"},{"name":"창의로운미술학원","tel":"031-203-1765","addr":"경기도 용인시 기흥구 서천동 807번지 원희캐슬서천2 5층 501호","indutype":"학원 - 예·체능계학원","category":"study"},{"name":"크림실용음악학원(용인서천점)","tel":"031-205-7174","addr":"경기도 용인시 기흥구 서천동 807번지 원희캐슬서천2 605호","indutype":"학원 - 예·체능계학원","category":"study"},{"name":"해법&엠베스트SE학원","tel":"031-203-2504","addr":"경기도 용인시 기흥구 서천동 807번지 원희캐슬 서천2 504호","indutype":"학원 - 외국어학원","category":"study"},{"name":"해법&엠베스트SE학원","tel":"031-203-2504","addr":"경기도 용인시 기흥구 서천동 807번지 504호","indutype":"학원 - 보습학원","category":"study"}]},{"lat":"37.239624397","long":"127.07245037","imageIndex":16,"items":[{"name":"메릭스해법수학교습소","tel":"031-203-6055","addr":"경기도 용인시 기흥구 서천동 736번지 서천마을 1단지 2층 202호 상가","indutype":"회원제형태 - 학원","category":"study"},{"name":"서천해법영어교실영어교습소","tel":"031-202-4416","addr":"경기도 용인시 기흥구 서천동 736번지 서천마을1단지 상가동 2층 203호","indutype":"학원 - 외국어학원","category":"study"},{"name":"준피아노교습소","tel":"031-273-7008","addr":"경기도 용인시 기흥구 서천동 736번지 서천마을1단지 상가동 204호","indutype":"학원 - 예·체능계학원","category":"study"},{"name":"투래빗 영어교습소","tel":"031-206-5100","addr":"경기도 용인시 기흥구 서천동 736번지 서천마을1단지 상가동 201호","indutype":"학원 - 외국어학원","category":"study"}]},{"lat":"37.235604583","long":"127.07447513","imageIndex":16,"items":[{"name":"모차르트음악교습소","tel":"031-204-6449","addr":"경기도 용인시 기흥구 서천동 823번지 서천마을4단지 상가동 103호","indutype":"학원 - 예·체능계학원","category":"study"}]},{"lat":"37.238188874","long":"127.07719354","imageIndex":16,"items":[{"name":"미술생각미술교습소","tel":"070-8873-9151","addr":"경기도 용인시 기흥구 서천동 789-10번지 101호","indutype":"학원 - 예·체능계학원","category":"study"}]},{"lat":"37.237711256","long":"127.07730577","imageIndex":16,"items":[{"name":"삼성영어서농학원","tel":"031-205-3405","addr":"경기도 용인시 기흥구 서천동 789-7번지 1층 전체","indutype":"회원제형태 - 학원","category":"study"}]},{"lat":"37.243655701","long":"127.0658609","imageIndex":16,"items":[{"name":"삼성영어서천학원","tel":"031-205-2052","addr":"경기도 용인시 기흥구 서천동 368번지 천일프라자 202호","indutype":"학원 - 보습학원","category":"study"},{"name":"하늘검도3관","tel":"031-205-0999","addr":"경기도 용인시 기흥구 서천동 368번지 천일프라자 2층 202-1호","indutype":"학원 - 예·체능계학원","category":"study"}]},{"lat":"37.238017642","long":"127.07724972","imageIndex":16,"items":[{"name":"서천1호점 수학의달인","tel":"031-202-0971","addr":"경기도 용인시 기흥구 서천동 789-9번지 1층","indutype":"회원제형태 - 학원","category":"study"}]},{"lat":"37.244627396","long":"127.06847647","imageIndex":16,"items":[{"name":"스터디엔카페서천센터독서실","tel":"031-206-8610","addr":"경기도 용인시 기흥구 서천동 360번지 201호,202호","indutype":"학원 - 독서실","category":"study"},{"name":"신화태권도장","tel":"031-111-1111","addr":"경기도 용인시 기흥구 서천동 360번지 307호","indutype":"학원 - 예·체능계학원","category":"study"},{"name":"와이비엠(YBM)잉글루엠제이학원","tel":"031-205-5641","addr":"경기도 용인시 기흥구 서천동 360번지 3층 301호","indutype":"학원 - 보습학원","category":"study"},{"name":"위캔매쓰학원","tel":"031-204-1920","addr":"경기도 용인시 기흥구 서천동 360번지 3층 302호","indutype":"학원 - 보습학원","category":"study"},{"name":"유어멜로디음악학원","tel":"031-206-1205","addr":"경기도 용인시 기흥구 서천동 360번지 303호","indutype":"학원 - 예·체능계학원","category":"study"}]},{"lat":"37.23771115","long":"127.07747481","imageIndex":16,"items":[{"name":"스프라우트영어학원","tel":"070-8802-7894","addr":"경기도 용인시 기흥구 서천동 789-4번지 1층","indutype":"학원 - 외국어학원","category":"study"}]},{"lat":"37.238044588","long":"127.07738498","imageIndex":16,"items":[{"name":"아이엘스튜디오음악학원","tel":"070-8250-3160","addr":"경기도 용인시 기흥구 서천동 789-2번지 1층","indutype":"학원 - 예·체능계학원","category":"study"}]},{"lat":"37.237855442","long":"127.0772721","imageIndex":16,"items":[{"name":"아이엘음악교습소","tel":"070-8251-7272","addr":"경기도 용인시 기흥구 서천동 789-8번지 1층","indutype":"학원 - 예·체능계학원","category":"study"}]},{"lat":"37.236323701","long":"127.07724806","imageIndex":16,"items":[{"name":"엔제이(NJ)수학교습소","tel":"031-206-1675","addr":"경기도 용인시 기흥구 서천동 778-7번지 102호","indutype":"학원 - 보습학원","category":"study"}]},{"lat":"37.24326775","long":"127.06680728","imageIndex":16,"items":[{"name":"오육일이삼수학교습소","tel":"031-000-0000","addr":"경기도 용인시 기흥구 서천동 370-7번지 2층 일부호","indutype":"학원 - 보습학원","category":"study"}]},{"lat":"37.236968664","long":"127.06839095","imageIndex":16,"items":[{"name":"와이디케이(YDK)어학원","tel":"070-4069-1708","addr":"경기도 용인시 기흥구 서천동 750번지 예닮유치원","indutype":"학원 - 보습학원","category":"study"}]},{"lat":"37.24224012","long":"127.06764041","imageIndex":16,"items":[{"name":"유혜경수학교실","tel":"","addr":"경기도 용인시 기흥구 서천동 405번지 용우원룸 101호","indutype":"학원 - 기타 교육기관","category":"study"}]},{"lat":"37.237495149","long":"127.07708017","imageIndex":16,"items":[{"name":"제니잉글리쉬(JennyEnglish)영어교습소","tel":"031-111-1111","addr":"경기도 용인시 기흥구 서천동 791-3번지 1층 전체","indutype":"학원 - 외국어학원","category":"study"}]},{"lat":"37.241354644","long":"127.07200116","imageIndex":16,"items":[{"name":"캡틴FC","tel":"031-204-3636","addr":"경기도 용인시 기흥구 서천동 274번지","indutype":"학원 - 예·체능계학원","category":"study"}]},{"lat":"37.243493026","long":"127.06677366","imageIndex":16,"items":[{"name":"타임잉글리쉬학원","tel":"031-202-9538","addr":"경기도 용인시 기흥구 서천동 370번지 3층","indutype":"학원 - 보습학원","category":"study"}]},{"lat":"37.236271915","long":"127.07352914","imageIndex":16,"items":[{"name":"플레이팩토앤블럭수학교습소","tel":"","addr":"경기도 용인시 기흥구 서천동 809번지 202호","indutype":"학원 - 기타 교육기관","category":"study"}]},{"lat":"37.238324064","long":"127.07713733","imageIndex":16,"items":[{"name":"한우리서천독서토론논술교습소","tel":"031-204-0118","addr":"경기도 용인시 기흥구 서천동 789-11번지 1층","indutype":"학원 - 보습학원","category":"study"}]},{"lat":"37.244572199","long":"127.07049385","imageIndex":16,"items":[{"name":"해내는공부방","tel":"","addr":"경기도 용인시 기흥구 서천동 700번지 서그내마을에스케이아파트","indutype":"학원 - 기타 교육기관","category":"study"}]}]