[{"lat":"37.700771974","long":"127.11940382","imageIndex":7,"items":[{"name":"(주)섬기는 사람들","tel":"070-4147-0093","addr":"경기도 남양주시 별내면 광전리 142-2번지","indutype":"음료식품 - 미곡상","category":"food"}]},{"lat":"37.693047003","long":"127.13164816","imageIndex":7,"items":[{"name":"(주)힐링토탈시스템","tel":"","addr":"경기도 남양주시 별내면 광전리 272-14번지","indutype":"음료식품 - 기타음료식품","category":"food"},{"name":"바른푸드유통","tel":"031-111-1111","addr":"경기도 남양주시 별내면 광전리 272-14번지","indutype":"음료식품 - 기타음료식품","category":"food"}]},{"lat":"37.700191","long":"127.12373446","imageIndex":7,"items":[{"name":"광진농원","tel":"031-841-1083","addr":"경기도 남양주시 별내면 광전리 102-11","indutype":"음료식품 - 농·축·수산품","category":"food"}]},{"lat":"37.689521393","long":"127.13422702","imageIndex":7,"items":[{"name":"대양수산","tel":"031-574-0731","addr":"경기도 남양주시 별내면 광전리 304-3번지","indutype":"음료식품 - 농·축·수산품","category":"food"}]},{"lat":"37.683105567","long":"127.13508862","imageIndex":7,"items":[{"name":"대지농원","tel":"031-528-8177","addr":"경기도 남양주시 별내면 광전리 372-8","indutype":"음료식품 - 농·축·수산품","category":"food"}]},{"lat":"37.67577357","long":"127.13342064","imageIndex":7,"items":[{"name":"대통청과","tel":"","addr":"경기도 남양주시 별내면 광전리 576-95번지","indutype":"음료식품 - 농·축·수산품","category":"food"}]},{"lat":"37.675855507","long":"127.13264997","imageIndex":7,"items":[{"name":"라온테크","tel":"","addr":"경기도 남양주시 별내면 광전리 618-21번지 1층 102호","indutype":"음료식품 - 농·축·수산품","category":"food"}]},{"lat":"37.695439116","long":"127.12740039","imageIndex":7,"items":[{"name":"부엉이농원","tel":"070-7435-3993","addr":"경기도 남양주시 별내면 광전리 233-3번지","indutype":"음료식품 - 농·축·수산품","category":"food"}]},{"lat":"37.695771618","long":"127.12820598","imageIndex":7,"items":[{"name":"석수농원","tel":"02-111-1111","addr":"경기도 남양주시 별내면 광전리 237-1번지","indutype":"음료식품 - 농·축·수산품","category":"food"}]},{"lat":"37.697407854","long":"127.12292489","imageIndex":7,"items":[{"name":"시드미","tel":"031-574-7371","addr":"경기도 남양주시 별내면 광전리 163-2번지 1층","indutype":"음료식품 - 기타음료식품","category":"food"},{"name":"푸른농원","tel":"031-527-8011","addr":"경기도 남양주시 별내면 광전리 163-2","indutype":"음료식품 - 농·축·수산품","category":"food"}]},{"lat":"37.689414535","long":"127.13309308","imageIndex":7,"items":[{"name":"연오농원","tel":"070-7435-3987","addr":"경기도 남양주시 별내면 광전리 293-2번지","indutype":"음료식품 - 농·축·수산품","category":"food"}]},{"lat":"37.679414898","long":"127.13212338","imageIndex":7,"items":[{"name":"영광농원","tel":"","addr":"경기도 남양주시 별내면 광전리 393-2,393-3","indutype":"음료식품 - 농·축·수산품","category":"food"}]},{"lat":"37.697386252","long":"127.1263945","imageIndex":7,"items":[{"name":"은주농원","tel":"031-528-5269","addr":"경기도 남양주시 별내면 광전리 181-4번지 은주농원","indutype":"음료식품 - 농·축·수산품","category":"food"}]},{"lat":"37.678549638","long":"127.13242795","imageIndex":7,"items":[{"name":"이용우과수원","tel":"031-527-8644","addr":"경기도 남양주시 별내면 광전리 601-1번지","indutype":"음료식품 - 농·축·수산품","category":"food"}]},{"lat":"37.685052268","long":"127.13453657","imageIndex":7,"items":[{"name":"주식회사범진수산","tel":"031-527-3216","addr":"경기도 남양주시 별내면 광전리 370-5번지 1층","indutype":"음료식품 - 농·축·수산품","category":"food"}]},{"lat":"37.676107815","long":"127.1326164","imageIndex":7,"items":[{"name":"주식회사푸드앤","tel":"031-111-1111","addr":"경기도 남양주시 별내면 광전리 617-2번지 1층","indutype":"음료식품 - 기타음료식품","category":"food"}]},{"lat":"37.68229662","long":"127.13336405","imageIndex":7,"items":[{"name":"중산농원","tel":"031-529-9850","addr":"경기도 남양주시 별내면 광전리 376-2번지","indutype":"음료식품 - 농·축·수산품","category":"food"}]},{"lat":"37.697711874","long":"127.12517046","imageIndex":7,"items":[{"name":"청명농원","tel":"0000-0000-0000","addr":"경기도 남양주시 별내면 광전리 180-13","indutype":"음료식품 - 농·축·수산품","category":"food"}]},{"lat":"37.702438818","long":"127.11933839","imageIndex":7,"items":[{"name":"태기농원","tel":"031-527-8919","addr":"경기도 남양주시 별내면 광전리 산 78-3","indutype":"음료식품 - 농·축·수산품","category":"food"}]},{"lat":"37.689187974","long":"127.13428311","imageIndex":7,"items":[{"name":"평화농원","tel":"031-527-8928","addr":"경기도 남양주시 별내면 광전리 289번지","indutype":"음료식품 - 농·축·수산품","category":"food"}]},{"lat":"37.69574424","long":"127.12853475","imageIndex":7,"items":[{"name":"풍년농원","tel":"031-575-5040","addr":"경기도 남양주시 별내면 광전리 237-7","indutype":"음료식품 - 농·축·수산품","category":"food"}]},{"lat":"37.681190619","long":"127.13939299","imageIndex":7,"items":[{"name":"홍농원","tel":"031-841-0431","addr":"경기도 남양주시 별내면 광전리 산171-1","indutype":"음료식품 - 농·축·수산품","category":"food"}]},{"lat":"37.698105876","long":"127.12748422","imageIndex":7,"items":[{"name":"황금농원","tel":"031-528-6762","addr":"경기도 남양주시 별내면 광전리 198-1 10/3","indutype":"음료식품 - 농·축·수산품","category":"food"}]},{"lat":"37.691017946","long":"127.13336799","imageIndex":7,"items":[{"name":"황소농원","tel":"031-527-8388","addr":"경기도 남양주시 별내면 광전리 316-1","indutype":"음료식품 - 농·축·수산품","category":"food"}]}]