[{"lat":"37.3166171475","long":"126.9508414665","imageIndex":4,"items":[{"name":"BHC치킨","tel":"031-461-1020","addr":"경기도 의왕시 삼동 150-37번지","indutype":"일반휴게음식 - 스넥","category":"restaurant"}]},{"lat":"37.3215116967","long":"126.9556216602","imageIndex":4,"items":[{"name":"CK치킨의왕본점","tel":"031-461-8811","addr":"경기도 의왕시 삼동 277-6번지 제일프라자 202호","indutype":"일반휴게음식 - 주점","category":"restaurant"},{"name":"구구닭치킨호프","tel":"031-462-9988","addr":"경기도 의왕시 삼동 277-6번지 제일프라자 114호","indutype":"일반휴게음식 - 스넥","category":"restaurant"},{"name":"김엄마해장국","tel":"031-462-0901","addr":"경기도 의왕시 삼동 277-6번지 제일프라자 104호","indutype":"일반휴게음식 - 일반한식","category":"restaurant"},{"name":"송가네보신탕","tel":"031-461-5660","addr":"경기도 의왕시 삼동 277-6번지 제일프라자 109호","indutype":"일반휴게음식 - 일반한식","category":"restaurant"},{"name":"장가네칼국수","tel":"031-461-1472","addr":"경기도 의왕시 삼동 277-6번지","indutype":"일반휴게음식 - 일반한식","category":"restaurant"},{"name":"푸드딜라이트","tel":"031-462-3006","addr":"경기도 의왕시 삼동 277-6번지 제일프라자 102호","indutype":"일반휴게음식 - 스넥","category":"restaurant"},{"name":"호식이두마리치킨의왕역점","tel":"031-432-9925","addr":"경기도 의왕시 삼동 277-6번지 제일프라자 105호","indutype":"일반휴게음식 - 스넥","category":"restaurant"}]},{"lat":"37.3211764355","long":"126.9511203715","imageIndex":4,"items":[{"name":"가본숯불닭갈비","tel":"031-462-0537","addr":"경기도 의왕시 삼동 192-21번지 1층","indutype":"일반휴게음식 - 일반한식","category":"restaurant"},{"name":"친구야","tel":"031-462-3338","addr":"경기도 의왕시 삼동 192-21번지 1층 4호","indutype":"일반휴게음식 - 주점","category":"restaurant"},{"name":"할매두루치기냉면","tel":"031-462-3350","addr":"경기도 의왕시 삼동 192-21번지","indutype":"일반휴게음식 - 일반한식","category":"restaurant"}]},{"lat":"37.3198421984","long":"126.9494854326","imageIndex":4,"items":[{"name":"가본풍천민물장어","tel":"031-461-8097","addr":"경기도 의왕시 삼동 192-62번지","indutype":"일반휴게음식 - 일반한식","category":"restaurant"}]},{"lat":"37.3211492713","long":"126.9508157775","imageIndex":4,"items":[{"name":"가장맛있는족발","tel":"031-462-5849","addr":"경기도 의왕시 삼동 192-24번지 2층","indutype":"일반휴게음식 - 일반한식","category":"restaurant"},{"name":"애요커피컴퍼니","tel":"031-111-1111","addr":"경기도 의왕시 삼동 192-24번지 1층","indutype":"일반휴게음식 - 서양음식","category":"restaurant"}]},{"lat":"37.3206996134","long":"126.9527904168","imageIndex":4,"items":[{"name":"감탄","tel":"031-462-1183","addr":"경기도 의왕시 삼동 200-54번지","indutype":"일반휴게음식 - 스넥","category":"restaurant"}]},{"lat":"37.3199237092","long":"126.9504217613","imageIndex":4,"items":[{"name":"강원칡냉면","tel":"031-462-8009","addr":"경기도 의왕시 삼동 192-55번지","indutype":"일반휴게음식 - 일반한식","category":"restaurant"}]},{"lat":"37.3183119090","long":"126.9527920015","imageIndex":4,"items":[{"name":"건강이네","tel":"031-461-3939","addr":"경기도 의왕시 삼동 192-467번지 1층","indutype":"일반휴게음식 - 일반한식","category":"restaurant"},{"name":"복죽전문점","tel":"031-462-9288","addr":"경기도 의왕시 삼동 192-467번지 1층 102호","indutype":"일반휴게음식 - 일반한식","category":"restaurant"}]},{"lat":"37.3172034615","long":"126.9523414829","imageIndex":4,"items":[{"name":"고봉순대국","tel":"031-462-2115","addr":"경기도 의왕시 삼동 146-81번지 가,나호 일부","indutype":"일반휴게음식 - 일반한식","category":"restaurant"}]},{"lat":"37.3199238339","long":"126.9507038053","imageIndex":4,"items":[{"name":"고집","tel":"031-462-7730","addr":"경기도 의왕시 삼동 192-51번지 부곡프라자1 102호","indutype":"일반휴게음식 - 일반한식","category":"restaurant"},{"name":"돈이조아","tel":"031-461-6363","addr":"경기도 의왕시 삼동 192-51번지 부곡프라자1 103,104호","indutype":"일반휴게음식 - 일반한식","category":"restaurant"},{"name":"안부자닭갈비","tel":"031-462-5355","addr":"경기도 의왕시 삼동 192-51번지 부곡프라자 105호","indutype":"일반휴게음식 - 일반한식","category":"restaurant"}]},{"lat":"37.3192296669","long":"126.9498468791","imageIndex":4,"items":[{"name":"고향샤브샤브칼국수","tel":"031-461-0004","addr":"경기도 의왕시 삼동 165-1번지 1층","indutype":"일반휴게음식 - 일반한식","category":"restaurant"},{"name":"대구생막창","tel":"031-461-9967","addr":"경기도 의왕시 삼동 165-1번지","indutype":"일반휴게음식 - 일반한식","category":"restaurant"}]},{"lat":"37.3202030155","long":"126.9503990036","imageIndex":4,"items":[{"name":"골목고깃집","tel":"","addr":"경기도 의왕시 삼동 192-53번지","indutype":"일반휴게음식 - 일반한식","category":"restaurant"},{"name":"초석촌영양탕","tel":"031-461-0999","addr":"경기도 의왕시 삼동 192-53번지","indutype":"일반휴게음식 - 일반한식","category":"restaurant"}]},{"lat":"37.3191218009","long":"126.9504223187","imageIndex":4,"items":[{"name":"골뱅이가갑이다","tel":"031-461-5834","addr":"경기도 의왕시 삼동 160-166번지 성도빌딩 1호","indutype":"일반휴게음식 - 일반한식","category":"restaurant"},{"name":"곰만두","tel":"031-461-1543","addr":"경기도 의왕시 삼동 160-166번지","indutype":"일반휴게음식 - 일반한식","category":"restaurant"},{"name":"투덜이생선구이","tel":"031-461-8900","addr":"경기도 의왕시 삼동 160-166번지 성도빌딩","indutype":"일반휴게음식 - 일반한식","category":"restaurant"}]},{"lat":"37.3212025859","long":"126.9491460114","imageIndex":4,"items":[{"name":"관악식당","tel":"031-461-7380","addr":"경기도 의왕시 삼동 471-45번지","indutype":"일반휴게음식 - 칵테일바","category":"restaurant"}]},{"lat":"37.3213130209","long":"126.9545048694","imageIndex":4,"items":[{"name":"국수나무 의왕역점","tel":"031-461-5677","addr":"경기도 의왕시 삼동 208-3번지 태광빌딩 103호","indutype":"일반휴게음식 - 일반한식","category":"restaurant"},{"name":"데일리커피73(Daily Coffee 73)","tel":"031-462-8386","addr":"경기도 의왕시 삼동 208-3번지 태광빌딩 102호","indutype":"일반휴게음식 - 서양음식","category":"restaurant"},{"name":"맛있쭈~꾸미","tel":"031-462-9974","addr":"경기도 의왕시 삼동 208-3번지 태광빌딩 1층","indutype":"일반휴게음식 - 일반한식","category":"restaurant"},{"name":"사발에술내리고","tel":"031-297-2250","addr":"경기도 의왕시 삼동 208-3번지 대광빌딩 202호","indutype":"일반휴게음식 - 주점","category":"restaurant"}]},{"lat":"37.3191215899","long":"126.9499484898","imageIndex":4,"items":[{"name":"굴다리숯불돼지갈비","tel":"031-461-3565","addr":"경기도 의왕시 삼동 160-6번지 1호","indutype":"일반휴게음식 - 일반한식","category":"restaurant"}]},{"lat":"37.3167619033","long":"126.9522064030","imageIndex":4,"items":[{"name":"굽네치킨 삼동부곡점","tel":"031-462-9297","addr":"경기도 의왕시 삼동 147-21번지","indutype":"일반휴게음식 - 스넥","category":"restaurant"},{"name":"칠복식당","tel":"","addr":"경기도 의왕시 삼동 147-21번지 1층 4호","indutype":"일반휴게음식 - 일반한식","category":"restaurant"}]},{"lat":"37.3206441930","long":"126.9496766570","imageIndex":4,"items":[{"name":"김명자 낙지마당","tel":"031-461-5252","addr":"경기도 의왕시 삼동 471-25번지 대복빌딩 104호","indutype":"일반휴게음식 - 일반한식","category":"restaurant"},{"name":"커피룩(coffee look)","tel":"031-461-7685","addr":"경기도 의왕시 삼동 471-25번지 대복빌딩 103호","indutype":"일반휴게음식 - 서양음식","category":"restaurant"}]},{"lat":"37.3185639932","long":"126.9523180087","imageIndex":4,"items":[{"name":"김밥나라","tel":"031-461-1233","addr":"경기도 의왕시 삼동 166-50번지 103,104호","indutype":"일반휴게음식 - 스넥","category":"restaurant"}]},{"lat":"37.3148152536","long":"126.9511811389","imageIndex":4,"items":[{"name":"김셰프","tel":"031-461-4588","addr":"경기도 의왕시 삼동 571-5번지","indutype":"일반휴게음식 - 일반한식","category":"restaurant"}]},{"lat":"37.3188158358","long":"126.9512912145","imageIndex":4,"items":[{"name":"까망","tel":"031-461-9438","addr":"경기도 의왕시 삼동 168-6번지","indutype":"일반휴게음식 - 일반한식","category":"restaurant"}]},{"lat":"37.3215385052","long":"126.9550688251","imageIndex":4,"items":[{"name":"끼니분식","tel":"031-461-2638","addr":"경기도 의왕시 삼동 462-16번지","indutype":"일반휴게음식 - 스넥","category":"restaurant"},{"name":"양자강","tel":"031-461-6686","addr":"경기도 의왕시 삼동 462-16번지","indutype":"일반휴게음식 - 중국식","category":"restaurant"}]},{"lat":"37.3170960403","long":"126.9540111933","imageIndex":4,"items":[{"name":"네네치킨부곡점","tel":"031-462-4472","addr":"경기도 의왕시 삼동 563번지","indutype":"일반휴게음식 - 일반한식","category":"restaurant"},{"name":"하루애김밥","tel":"031-461-5554","addr":"경기도 의왕시 삼동 563번지 1층","indutype":"일반휴게음식 - 일반한식","category":"restaurant"}]},{"lat":"37.3204217926","long":"126.9564571988","imageIndex":4,"items":[{"name":"늘푸른쌈밥","tel":"02-1234-1234","addr":"경기도 의왕시 삼동 246-1번지 2층","indutype":"일반휴게음식 - 일반한식","category":"restaurant"}]},{"lat":"37.3200946718","long":"126.9499026802","imageIndex":4,"items":[{"name":"다이꼬지","tel":"","addr":"경기도 의왕시 삼동 192-59번지 우리은행 2층 201호","indutype":"일반휴게음식 - 일식·회집","category":"restaurant"},{"name":"마녀호프","tel":"070-4332-9171","addr":"경기도 의왕시 삼동 192-59번지 우리은행 지하1층 2호","indutype":"일반휴게음식 - 주점","category":"restaurant"},{"name":"브라더양꼬치","tel":"031-461-0211","addr":"경기도 의왕시 삼동 192-59번지 1층","indutype":"일반휴게음식 - 중국식","category":"restaurant"},{"name":"소세지야 의왕점","tel":"031-0000-0000","addr":"경기도 의왕시 삼동 192-59번지 1층","indutype":"일반휴게음식 - 서양음식","category":"restaurant"}]},{"lat":"37.3186452627","long":"126.9527353724","imageIndex":4,"items":[{"name":"대박날삼겹","tel":"","addr":"경기도 의왕시 삼동 166-12번지 1층","indutype":"일반휴게음식 - 일반한식","category":"restaurant"},{"name":"조마루뼈다귀","tel":"031-462-0304","addr":"경기도 의왕시 삼동 166-12번지 1층","indutype":"일반휴게음식 - 일반한식","category":"restaurant"}]},{"lat":"37.3206442791","long":"126.9498684487","imageIndex":4,"items":[{"name":"대빈생고기","tel":"031-462-1588","addr":"경기도 의왕시 삼동 471-24번지 2층 201호","indutype":"일반휴게음식 - 일반한식","category":"restaurant"},{"name":"배부장찌개 의왕역점","tel":"031-462-3515","addr":"경기도 의왕시 삼동 471-24번지 102호","indutype":"일반휴게음식 - 일반한식","category":"restaurant"},{"name":"천구백칠십칠 라운지펍","tel":"","addr":"경기도 의왕시 삼동 471-24번지 401호","indutype":"일반휴게음식 - 주점","category":"restaurant"}]},{"lat":"37.3184279649","long":"126.9503099856","imageIndex":4,"items":[{"name":"대원식당","tel":"031-461-4469","addr":"경기도 의왕시 삼동 160-90번지","indutype":"일반휴게음식 - 일반한식","category":"restaurant"}]},{"lat":"37.3210950106","long":"126.9503645374","imageIndex":4,"items":[{"name":"더셰프포차","tel":"031-462-8869","addr":"경기도 의왕시 삼동 471-99번지 우성빌딩 3층","indutype":"일반휴게음식 - 일반한식","category":"restaurant"},{"name":"옛날장터치킨의왕삼동점","tel":"031-461-2222","addr":"경기도 의왕시 삼동 471-99번지 101,102,102호","indutype":"일반휴게음식 - 스넥","category":"restaurant"},{"name":"오오뎅뎅","tel":"031-462-7787","addr":"경기도 의왕시 삼동 471-99번지 1층","indutype":"일반휴게음식 - 일반한식","category":"restaurant"}]},{"lat":"37.3171756211","long":"126.9504800782","imageIndex":4,"items":[{"name":"도레미호프","tel":"031-461-2023","addr":"경기도 의왕시 삼동 146-6번지","indutype":"일반휴게음식 - 주점","category":"restaurant"},{"name":"반달커피","tel":"","addr":"경기도 의왕시 삼동 146-6번지 1층 103호","indutype":"일반휴게음식 - 서양음식","category":"restaurant"},{"name":"시앙차이나","tel":"031-462-7900","addr":"경기도 의왕시 삼동 146-6번지 ,1,2층","indutype":"일반휴게음식 - 중국식","category":"restaurant"}]},{"lat":"37.3206440811","long":"126.9494284559","imageIndex":4,"items":[{"name":"돈까스킹","tel":"070-4223-2472","addr":"경기도 의왕시 삼동 471-34번지 태림빌딩 202호","indutype":"일반휴게음식 - 일반한식","category":"restaurant"}]},{"lat":"37.3186722071","long":"126.9525322861","imageIndex":4,"items":[{"name":"돈통마늘보쌈 의왕삼동점","tel":"031-462-5382","addr":"경기도 의왕시 삼동 166-48번지 1층","indutype":"일반휴게음식 - 일반한식","category":"restaurant"}]},{"lat":"37.3175094882","long":"126.9515967053","imageIndex":4,"items":[{"name":"동유산야초카페","tel":"031-462-3733","addr":"경기도 의왕시 삼동 146-18번지","indutype":"일반휴게음식 - 일반한식","category":"restaurant"}]},{"lat":"37.3211765193","long":"126.9513121646","imageIndex":4,"items":[{"name":"동해아구해물찜","tel":"031-461-7244","addr":"경기도 의왕시 삼동 196-1번지 신흥빌딩 103호","indutype":"일반휴게음식 - 일반한식","category":"restaurant"},{"name":"피자스쿨부국점","tel":"031-462-3825","addr":"경기도 의왕시 삼동 196-1번지","indutype":"일반휴게음식 - 서양음식","category":"restaurant"}]},{"lat":"37.3206178128","long":"126.9511433184","imageIndex":4,"items":[{"name":"돼지대첩 의왕역점","tel":"","addr":"경기도 의왕시 삼동 192-335번지 1층","indutype":"일반휴게음식 - 일반한식","category":"restaurant"}]},{"lat":"37.3200673873","long":"126.9493386100","imageIndex":4,"items":[{"name":"돼지마을","tel":"03-146-1312","addr":"경기도 의왕시 삼동 192-263번지","indutype":"일반휴게음식 - 일반한식","category":"restaurant"},{"name":"신전떡뽁이의왕역점","tel":"031-461-0050","addr":"경기도 의왕시 삼동 192-263번지 1층","indutype":"일반휴게음식 - 스넥","category":"restaurant"},{"name":"추억의포차","tel":"031-461-0677","addr":"경기도 의왕시 삼동 192-263번지 지하층","indutype":"일반휴게음식 - 일반한식","category":"restaurant"}]},{"lat":"37.3212037555","long":"126.9517859881","imageIndex":4,"items":[{"name":"드림호프&치킨","tel":"031-461-1448","addr":"경기도 의왕시 삼동 192-6번지","indutype":"일반휴게음식 - 주점","category":"restaurant"},{"name":"맥주팩토리","tel":"070-4200-3121","addr":"경기도 의왕시 삼동 192-6번지 2층","indutype":"일반휴게음식 - 주점","category":"restaurant"},{"name":"해오름가마솥두부","tel":"031-462-3294","addr":"경기도 의왕시 삼동 192-6번지","indutype":"일반휴게음식 - 일반한식","category":"restaurant"}]},{"lat":"37.3206444152","long":"126.9501730592","imageIndex":4,"items":[{"name":"롯데리아의왕부곡","tel":"031-461-1818","addr":"경기도 의왕시 삼동 192-42번지 동서빌딩 1층","indutype":"일반휴게음식 - 서양음식","category":"restaurant"},{"name":"아라","tel":"031-461-1558","addr":"경기도 의왕시 삼동 192-42번지","indutype":"일반휴게음식 - 주점","category":"restaurant"},{"name":"파도수산","tel":"031-462-8808","addr":"경기도 의왕시 삼동 192-42번지","indutype":"일반휴게음식 - 일식·회집","category":"restaurant"}]},{"lat":"37.3282046106","long":"126.9516232852","imageIndex":4,"items":[{"name":"마당기픈집","tel":"031-461-3777","addr":"경기도 의왕시 삼동 418번지 1층","indutype":"일반휴게음식 - 일반한식","category":"restaurant"}]},{"lat":"37.3171762518","long":"126.9519240910","imageIndex":4,"items":[{"name":"마실터","tel":"031-461-9917","addr":"경기도 의왕시 삼동 147-16","indutype":"일반휴게음식 - 일반한식","category":"restaurant"}]},{"lat":"37.3206991109","long":"126.9516171016","imageIndex":4,"items":[{"name":"만나고쪽갈비 의왕역점","tel":"031-461-9331","addr":"경기도 의왕시 삼동 192-12번지 태웅빌딩 102호","indutype":"일반휴게음식 - 일반한식","category":"restaurant"},{"name":"장가네숯불갈비","tel":"031-461-2441","addr":"경기도 의왕시 삼동 192-12번지 태웅빌딩 1층 101호","indutype":"일반휴게음식 - 일반한식","category":"restaurant"}]},{"lat":"37.3179781992","long":"126.9520138013","imageIndex":4,"items":[{"name":"만두쟁이","tel":"031-462-8259","addr":"경기도 의왕시 삼동 170-47번지 1층","indutype":"일반휴게음식 - 스넥","category":"restaurant"},{"name":"볼트피자","tel":"031-461-4222","addr":"경기도 의왕시 삼동 170-47번지 1층 2호","indutype":"일반휴게음식 - 서양음식","category":"restaurant"},{"name":"볼트피자/주식회사 볼트에프앤비","tel":"031-461-4222","addr":"경기도 의왕시 삼동 170-47번지","indutype":"일반휴게음식 - 서양음식","category":"restaurant"}]},{"lat":"37.3161216355","long":"126.9509546201","imageIndex":4,"items":[{"name":"만리향","tel":"031-461-2420","addr":"경기도 의왕시 삼동 151-8번지","indutype":"일반휴게음식 - 중국식","category":"restaurant"},{"name":"본가가마솥설렁탕","tel":"031-461-2116","addr":"경기도 의왕시 삼동 151-8번지","indutype":"일반휴게음식 - 일반한식","category":"restaurant"}]},{"lat":"37.3179774946","long":"126.9504005511","imageIndex":4,"items":[{"name":"만복식당","tel":"031-461-3506","addr":"경기도 의왕시 삼동 160-42번지","indutype":"일반휴게음식 - 일반한식","category":"restaurant"}]},{"lat":"37.3208440896","long":"126.9535349264","imageIndex":4,"items":[{"name":"만세족발","tel":"031-461-5811","addr":"경기도 의왕시 삼동 208-19번지 해성빌딩 103~105호","indutype":"일반휴게음식 - 일반한식","category":"restaurant"},{"name":"수원갈비","tel":"031-461-1145","addr":"경기도 의왕시 삼동 208-19 103,104,105호","indutype":"일반휴게음식 - 일반한식","category":"restaurant"},{"name":"시골순대","tel":"031-461-6387","addr":"경기도 의왕시 삼동 208-19,208-52 해성빌딩1층101호","indutype":"일반휴게음식 - 일반한식","category":"restaurant"}]},{"lat":"37.3205089026","long":"126.9493721423","imageIndex":4,"items":[{"name":"맘스터치 의왕역점","tel":"031-462-3887","addr":"경기도 의왕시 삼동 193-10번지 벽강빌딩 1층","indutype":"일반휴게음식 - 서양음식","category":"restaurant"}]},{"lat":"37.3201216113","long":"126.9496995890","imageIndex":4,"items":[{"name":"맵꼬만명태","tel":"031-461-1232","addr":"경기도 의왕시 삼동 192-60번지 동진빌딩 101호 일부","indutype":"일반휴게음식 - 일반한식","category":"restaurant"}]},{"lat":"37.3219238287","long":"126.9500931911","imageIndex":4,"items":[{"name":"먹쇠네생고기","tel":"031-462-3888","addr":"경기도 의왕시 삼동 192-327번지 1층","indutype":"일반휴게음식 - 일반한식","category":"restaurant"}]},{"lat":"37.3223674210","long":"126.9550118893","imageIndex":4,"items":[{"name":"명동쌈밥","tel":"031-461-7459","addr":"경기도 의왕시 삼동 462-62번지 103호,104호","indutype":"일반휴게음식 - 일반한식","category":"restaurant"}]},{"lat":"37.3177903007","long":"126.9551727327","imageIndex":4,"items":[{"name":"미가스시","tel":"031-462-7979","addr":"경기도 의왕시 삼동 124-6번지","indutype":"일반휴게음식 - 일식·회집","category":"restaurant"}]},{"lat":"37.3174826232","long":"126.9519802911","imageIndex":4,"items":[{"name":"미락촌","tel":"031-461-5207","addr":"경기도 의왕시 삼동 146-40번지","indutype":"일반휴게음식 - 일반한식","category":"restaurant"}]},{"lat":"37.3194822840","long":"126.9505912936","imageIndex":4,"items":[{"name":"미친꽈배기","tel":"070-3646-5148","addr":"경기도 의왕시 삼동 529-1번지 정안빌딩 1층 4호","indutype":"일반휴게음식 - 스넥","category":"restaurant"},{"name":"부곡김밥","tel":"031-461-3339","addr":"경기도 의왕시 삼동 529-1번지 1층","indutype":"일반휴게음식 - 스넥","category":"restaurant"}]},{"lat":"37.3210610736","long":"126.9553398940","imageIndex":4,"items":[{"name":"바보스 (의왕역점)","tel":"031-462-1522","addr":"경기도 의왕시 삼동 244-10번지","indutype":"일반휴게음식 - 스넥","category":"restaurant"}]},{"lat":"37.3176997010","long":"126.9539543953","imageIndex":4,"items":[{"name":"바오밥","tel":"031-461-1501","addr":"경기도 의왕시 삼동 144-25번지","indutype":"일반휴게음식 - 주점","category":"restaurant"}]},{"lat":"37.3207264425","long":"126.9523165599","imageIndex":4,"items":[{"name":"밤새노가리","tel":"","addr":"경기도 의왕시 삼동 199-8번지 벽상빌딩 1층 1호","indutype":"일반휴게음식 - 일반한식","category":"restaurant"},{"name":"전주콩나물국밥","tel":"031-462-7788","addr":"경기도 의왕시 삼동 199-8번지 벽상빌딩 102호","indutype":"일반휴게음식 - 일반한식","category":"restaurant"}]},{"lat":"37.3177891395","long":"126.9523749350","imageIndex":4,"items":[{"name":"방실이포차","tel":"031-461-3688","addr":"경기도 의왕시 삼동 174-6번지 1층","indutype":"일반휴게음식 - 일반한식","category":"restaurant"},{"name":"흔한식당","tel":"031-461-4315","addr":"경기도 의왕시 삼동 174-6번지","indutype":"일반휴게음식 - 일반한식","category":"restaurant"}]},{"lat":"37.3171761788","long":"126.9517548707","imageIndex":4,"items":[{"name":"본만두","tel":"031-462-7755","addr":"경기도 의왕시 삼동 147-14번지","indutype":"일반휴게음식 - 일반한식","category":"restaurant"}]},{"lat":"37.3210946167","long":"126.9494845464","imageIndex":4,"items":[{"name":"부곡맛전","tel":"031-462-1556","addr":"경기도 의왕시 삼동 471-31번지 1층","indutype":"일반휴게음식 - 일반한식","category":"restaurant"}]},{"lat":"37.3195094637","long":"126.9509297259","imageIndex":4,"items":[{"name":"부곡통닭집","tel":"031-461-8451","addr":"경기도 의왕시 삼동 166-23번지","indutype":"일반휴게음식 - 일반한식","category":"restaurant"}]},{"lat":"37.3162837449","long":"126.9507852903","imageIndex":4,"items":[{"name":"부일각","tel":"031-461-2360","addr":"경기도 의왕시 삼동 151-16번지 2층","indutype":"일반휴게음식 - 중국식","category":"restaurant"}]},{"lat":"37.3210951255","long":"126.9506240219","imageIndex":4,"items":[{"name":"사다코","tel":"","addr":"경기도 의왕시 삼동 192-25번지 삼동빌라 3층 1호","indutype":"일반휴게음식 - 일반한식","category":"restaurant"},{"name":"스시네코","tel":"","addr":"경기도 의왕시 삼동 192-25번지 삼동빌라 1층 2호","indutype":"일반휴게음식 - 일식·회집","category":"restaurant"},{"name":"이차돌 의왕역점","tel":"031-461-6649","addr":"경기도 의왕시 삼동 192-25번지 삼동빌라","indutype":"일반휴게음식 - 일반한식","category":"restaurant"}]},{"lat":"37.3175109614","long":"126.9551165022","imageIndex":4,"items":[{"name":"삼호푸드","tel":"031-461-5033","addr":"경기도 의왕시 삼동 124-8번지 1층 101호","indutype":"일반휴게음식 - 서양음식","category":"restaurant"}]},{"lat":"37.3169507916","long":"126.9514504278","imageIndex":4,"items":[{"name":"소담","tel":"031-461-3334","addr":"경기도 의왕시 삼동 150-70번지 1층","indutype":"일반휴게음식 - 일반한식","category":"restaurant"},{"name":"황철수피자본스치킨","tel":"031-461-8300","addr":"경기도 의왕시 삼동 150-70번지 104,105호","indutype":"일반휴게음식 - 서양음식","category":"restaurant"}]},{"lat":"37.3175628493","long":"126.9500059901","imageIndex":4,"items":[{"name":"소돈주","tel":"031-461-7773","addr":"경기도 의왕시 삼동 160-63번지 부곡꿈마을 103,104호","indutype":"일반휴게음식 - 일반한식","category":"restaurant"}]},{"lat":"37.3188154539","long":"126.9504225317","imageIndex":4,"items":[{"name":"소문난대구왕뽈찜(의왕역점)","tel":"031-461-7373","addr":"경기도 의왕시 삼동 160-16번지 1층","indutype":"일반휴게음식 - 일반한식","category":"restaurant"}]},{"lat":"37.3211215811","long":"126.9493378621","imageIndex":4,"items":[{"name":"손만두손찐빵","tel":"031-461-3032","addr":"경기도 의왕시 삼동 471-39번지","indutype":"일반휴게음식 - 일반한식","category":"restaurant"}]},{"lat":"37.3205389341","long":"126.9564796904","imageIndex":4,"items":[{"name":"손커피연구소","tel":"","addr":"경기도 의왕시 삼동 259-3번지","indutype":"일반휴게음식 - 서양음식","category":"restaurant"}]},{"lat":"37.3175094245","long":"126.9514500471","imageIndex":4,"items":[{"name":"솔밭길샤브","tel":"031-462-5882","addr":"경기도 의왕시 삼동 146-17번지 1층","indutype":"일반휴게음식 - 일반한식","category":"restaurant"}]},{"lat":"37.3208713402","long":"126.9540651582","imageIndex":4,"items":[{"name":"술이랑소풍가자","tel":"031-461-3100","addr":"경기도 의왕시 삼동 208-13번지","indutype":"일반휴게음식 - 주점","category":"restaurant"}]},{"lat":"37.3173122481","long":"126.9539208024","imageIndex":4,"items":[{"name":"스마일우체국우짜(WOOZZA)","tel":"","addr":"경기도 의왕시 삼동 144-22번지 1층 일부","indutype":"일반휴게음식 - 서양음식","category":"restaurant"}]},{"lat":"37.3169505401","long":"126.9508750806","imageIndex":4,"items":[{"name":"스몰푸드 앤 비어","tel":"031-461-7009","addr":"경기도 의왕시 삼동 150-16번지 2층","indutype":"일반휴게음식 - 스넥","category":"restaurant"},{"name":"피자노베","tel":"031-461-0698","addr":"경기도 의왕시 삼동 150-16번지","indutype":"일반휴게음식 - 서양음식","category":"restaurant"}]},{"lat":"37.3177348993","long":"126.9519575581","imageIndex":4,"items":[{"name":"시골밥상","tel":"031-461-2939","addr":"경기도 의왕시 삼동 146-12번지 1층","indutype":"일반휴게음식 - 일반한식","category":"restaurant"},{"name":"페리카나치킨","tel":"031-461-9292","addr":"경기도 의왕시 삼동 146-12번지","indutype":"일반휴게음식 - 일반한식","category":"restaurant"}]},{"lat":"37.3189504464","long":"126.9500614260","imageIndex":4,"items":[{"name":"시골얼큰이추어탕","tel":"031-461-0343","addr":"경기도 의왕시 삼동 160-73번지","indutype":"일반휴게음식 - 일반한식","category":"restaurant"}]},{"lat":"37.3147879752","long":"126.9506171077","imageIndex":4,"items":[{"name":"신림순대","tel":"031-462-3566","addr":"경기도 의왕시 삼동 산112-1번지","indutype":"일반휴게음식 - 일반한식","category":"restaurant"},{"name":"신림순대","tel":"031-462-3566","addr":"경기도 의왕시 삼동 산112-1번지","indutype":"일반휴게음식 - 일반한식","category":"restaurant"}]},{"lat":"37.3198153150","long":"126.9498126223","imageIndex":4,"items":[{"name":"쌀국수마을402의왕점","tel":"02-2642-9244","addr":"경기도 의왕시 삼동 185-1번지 1층","indutype":"일반휴게음식 - 일반한식","category":"restaurant"},{"name":"의왕삼동점본죽","tel":"031-462-6288","addr":"경기도 의왕시 삼동 185-1번지","indutype":"일반휴게음식 - 일반한식","category":"restaurant"},{"name":"커피 체리빈(coffe cherryBean)","tel":"070-8615-3889","addr":"경기도 의왕시 삼동 185-1번지","indutype":"일반휴게음식 - 서양음식","category":"restaurant"},{"name":"큰맘할매순대국","tel":"031-462-6649","addr":"경기도 의왕시 삼동 185-1번지","indutype":"일반휴게음식 - 일반한식","category":"restaurant"}]},{"lat":"37.3177898031","long":"126.9539543369","imageIndex":4,"items":[{"name":"쓰리닷커피 (3-Dot Coffee)","tel":"","addr":"경기도 의왕시 삼동 134-28번지","indutype":"일반휴게음식 - 서양음식","category":"restaurant"}]},{"lat":"37.3189789206","long":"126.9534007665","imageIndex":4,"items":[{"name":"안동장","tel":"031-462-8282","addr":"경기도 의왕시 삼동 166-4번지 즐거운예일음악학원 1층 3호","indutype":"일반휴게음식 - 중국식","category":"restaurant"}]},{"lat":"37.3210949153","long":"126.9501501806","imageIndex":4,"items":[{"name":"알바트로스","tel":"031-462-5004","addr":"경기도 의왕시 삼동 471-100번지 성우빌딩 2층","indutype":"일반휴게음식 - 주점","category":"restaurant"},{"name":"중평떡볶이","tel":"031-462-3002","addr":"경기도 의왕시 삼동 471-100번지 성우빌딩 1층 1호","indutype":"일반휴게음식 - 스넥","category":"restaurant"}]},{"lat":"37.3207262244","long":"126.9518088752","imageIndex":4,"items":[{"name":"어사출또 의왕점","tel":"031-462-8842","addr":"경기도 의왕시 삼동 192-11번지","indutype":"일반휴게음식 - 일반한식","category":"restaurant"}]},{"lat":"37.3196719867","long":"126.9517080531","imageIndex":4,"items":[{"name":"엄청난대구왕뽈찜","tel":"031-419-5392","addr":"경기도 의왕시 삼동 215-71번지 광명빌딩 101호","indutype":"일반휴게음식 - 일반한식","category":"restaurant"}]},{"lat":"37.3182568111","long":"126.9504003569","imageIndex":4,"items":[{"name":"엘리시아파스타 (ELYSIA PASTA)","tel":"031-347-1767","addr":"경기도 의왕시 삼동 160-91번지 2층 201호","indutype":"일반휴게음식 - 서양음식","category":"restaurant"}]},{"lat":"37.3212583604","long":"126.9530608131","imageIndex":4,"items":[{"name":"영구스피자의왕역점","tel":"031-461-0982","addr":"경기도 의왕시 삼동 200-47번지","indutype":"일반휴게음식 - 서양음식","category":"restaurant"},{"name":"춘천명동닭갈비","tel":"031-461-4344","addr":"경기도 의왕시 삼동 200-47번지 1호","indutype":"일반휴게음식 - 일반한식","category":"restaurant"}]},{"lat":"37.3187612068","long":"126.9500051505","imageIndex":4,"items":[{"name":"영심이꽃게찜","tel":"031-461-5350","addr":"경기도 의왕시 삼동 160-7번지","indutype":"일반휴게음식 - 일반한식","category":"restaurant"}]},{"lat":"37.3208986114","long":"126.9546517999","imageIndex":4,"items":[{"name":"옛날멸치국수","tel":"031-462-4189","addr":"경기도 의왕시 삼동 208-29번지 한성블루빌 103호","indutype":"일반휴게음식 - 스넥","category":"restaurant"},{"name":"춘천명동닭갈비","tel":"031-341-3394","addr":"경기도 의왕시 삼동 208-29번지 101,102호","indutype":"일반휴게음식 - 일반한식","category":"restaurant"}]},{"lat":"37.3173115599","long":"126.9522850036","imageIndex":4,"items":[{"name":"옛날통닭","tel":"031-461-4140","addr":"경기도 의왕시 삼동 146-82번지 1층","indutype":"일반휴게음식 - 스넥","category":"restaurant"},{"name":"오복식당","tel":"031-461-7799","addr":"경기도 의왕시 삼동 146-82번지 1층 2호","indutype":"일반휴게음식 - 일반한식","category":"restaurant"},{"name":"큰집 멸치국수","tel":"031-462-3330","addr":"경기도 의왕시 삼동 146-82번지 1층 2호","indutype":"일반휴게음식 - 일반한식","category":"restaurant"}]},{"lat":"37.3212590425","long":"126.9547079793","imageIndex":4,"items":[{"name":"오감발","tel":"031-462-3111","addr":"경기도 의왕시 삼동 208-2번지","indutype":"일반휴게음식 - 일반한식","category":"restaurant"},{"name":"훌랄라치킨바베큐","tel":"031-461-9929","addr":"경기도 의왕시 삼동 208-2번지","indutype":"일반휴게음식 - 주점","category":"restaurant"}]},{"lat":"37.3206717404","long":"126.9508386708","imageIndex":4,"items":[{"name":"옥빙설","tel":"031-461-3232","addr":"경기도 의왕시 삼동 192-37번지","indutype":"일반휴게음식 - 서양음식","category":"restaurant"}]},{"lat":"37.3150046692","long":"126.9516435313","imageIndex":4,"items":[{"name":"왕송스낵","tel":"031-462-4602","addr":"경기도 의왕시 삼동 571번지 연산빌딩 101호","indutype":"일반휴게음식 - 스넥","category":"restaurant"}]},{"lat":"37.3185901487","long":"126.9503098726","imageIndex":4,"items":[{"name":"왕짜장","tel":"031-461-9262","addr":"경기도 의왕시 삼동 160-17번지 1층","indutype":"일반휴게음식 - 중국식","category":"restaurant"}]},{"lat":"37.3186712906","long":"126.9504226319","imageIndex":4,"items":[{"name":"용왕의딸","tel":"031-461-8334","addr":"경기도 의왕시 삼동 160-149번지 1층","indutype":"일반휴게음식 - 일식·회집","category":"restaurant"}]},{"lat":"37.3207346025","long":"126.9503647882","imageIndex":4,"items":[{"name":"우기화로","tel":"031-461-6092","addr":"경기도 의왕시 삼동 192-41번지","indutype":"일반휴게음식 - 일반한식","category":"restaurant"}]},{"lat":"37.3170050092","long":"126.9518113933","imageIndex":4,"items":[{"name":"우리밀100%슈퍼크레페","tel":"070-817-6970","addr":"경기도 의왕시 삼동 147-2번지","indutype":"일반휴게음식 - 일반한식","category":"restaurant"}]},{"lat":"37.3185908690","long":"126.9519569806","imageIndex":4,"items":[{"name":"우리집강정치킨","tel":"031-461-2858","addr":"경기도 의왕시 삼동 166-34번지","indutype":"일반휴게음식 - 스넥","category":"restaurant"}]},{"lat":"37.3212856694","long":"126.9537264311","imageIndex":4,"items":[{"name":"웰빙엄마손 꼬마김밥","tel":"","addr":"경기도 의왕시 삼동 208-9번지 1층","indutype":"일반휴게음식 - 스넥","category":"restaurant"}]},{"lat":"37.3212038769","long":"126.9520680369","imageIndex":4,"items":[{"name":"이디야커피 의왕역점","tel":"031-461-2785","addr":"경기도 의왕시 삼동 199-5번지","indutype":"일반휴게음식 - 서양음식","category":"restaurant"}]},{"lat":"37.3189788355","long":"126.9531976973","imageIndex":4,"items":[{"name":"이자카야(IZAKAYA)오카에리","tel":"070-7745-3481","addr":"경기도 의왕시 삼동 166-5번지 주은교회 101호","indutype":"일반휴게음식 - 일식·회집","category":"restaurant"},{"name":"홀커피 (WHOLE COFFEE)","tel":"070-997-9970","addr":"경기도 의왕시 삼동 166-5번지 주은교회 1층 103호","indutype":"일반휴게음식 - 서양음식","category":"restaurant"}]},{"lat":"37.3175097748","long":"126.9522623079","imageIndex":4,"items":[{"name":"잔비었어","tel":"031-461-8858","addr":"경기도 의왕시 삼동 146-72번지 지하1층 1호","indutype":"일반휴게음식 - 주점","category":"restaurant"}]},{"lat":"37.3224493127","long":"126.9570313407","imageIndex":4,"items":[{"name":"장수한우촌","tel":"031-461-7229","addr":"경기도 의왕시 삼동 278번지 1층","indutype":"일반휴게음식 - 일반한식","category":"restaurant"}]},{"lat":"37.3192033337","long":"126.9514263295","imageIndex":4,"items":[{"name":"장충왕족발","tel":"031-462-1416","addr":"경기도 의왕시 삼동 166-49번지 1층","indutype":"일반휴게음식 - 일반한식","category":"restaurant"}]},{"lat":"37.3206716559","long":"126.9506468789","imageIndex":4,"items":[{"name":"족발예찬","tel":"031-462-1555","addr":"경기도 의왕시 삼동 192-38번지","indutype":"일반휴게음식 - 일반한식","category":"restaurant"},{"name":"포베이 의왕점","tel":"031-462-5574","addr":"경기도 의왕시 삼동 192-38번지 2층 202호","indutype":"일반휴게음식 - 일반한식","category":"restaurant"}]},{"lat":"37.3190871935","long":"126.9537617080","imageIndex":4,"items":[{"name":"지담","tel":"","addr":"경기도 의왕시 삼동 216-13번지 1층","indutype":"일반휴게음식 - 서양음식","category":"restaurant"}]},{"lat":"37.3196987966","long":"126.9512003571","imageIndex":4,"items":[{"name":"진국 설렁탕","tel":"031-462-6718","addr":"경기도 의왕시 삼동 192-36번지 한양빌딩","indutype":"일반휴게음식 - 일반한식","category":"restaurant"}]},{"lat":"37.3196984790","long":"126.9504783265","imageIndex":4,"items":[{"name":"착한통닭","tel":"031-346-6116","addr":"경기도 의왕시 삼동 192-57번지","indutype":"일반휴게음식 - 스넥","category":"restaurant"},{"name":"항아리","tel":"031-461-0572","addr":"경기도 의왕시 삼동 192-57번지","indutype":"일반휴게음식 - 칵테일바","category":"restaurant"}]},{"lat":"37.3174556410","long":"126.9520931233","imageIndex":4,"items":[{"name":"참맛의왕곱창","tel":"","addr":"경기도 의왕시 삼동 146-41번지 정안빌딩 3호","indutype":"일반휴게음식 - 일반한식","category":"restaurant"}]},{"lat":"37.3196175614","long":"126.9508732429","imageIndex":4,"items":[{"name":"찾아가는한우","tel":"031-461-0161","addr":"경기도 의왕시 삼동 192-288번지 1층","indutype":"일반휴게음식 - 일반한식","category":"restaurant"}]},{"lat":"37.3207816573","long":"126.9550918684","imageIndex":4,"items":[{"name":"청도왕양꼬치","tel":"070-4108-3792","addr":"경기도 의왕시 삼동 208-61번지","indutype":"일반휴게음식 - 일반한식","category":"restaurant"}]},{"lat":"37.3171760958","long":"126.9515630878","imageIndex":4,"items":[{"name":"초대석","tel":"031-462-2171","addr":"경기도 의왕시 삼동 147-12번지 그린주택 103호","indutype":"일반휴게음식 - 서양음식","category":"restaurant"}]},{"lat":"37.3187262251","long":"126.9524307158","imageIndex":4,"items":[{"name":"최고옛날통닭","tel":"031-461-9992","addr":"경기도 의왕시 삼동 166-13번지 1층 참사랑치과","indutype":"일반휴게음식 - 스넥","category":"restaurant"}]},{"lat":"37.3213394046","long":"126.9529479398","imageIndex":4,"items":[{"name":"춘천명동닭갈비","tel":"031-462-4343","addr":"경기도 의왕시 삼동 200-47번지 7호","indutype":"일반휴게음식 - 일반한식","category":"restaurant"}]},{"lat":"37.3169510693","long":"126.9520934628","imageIndex":4,"items":[{"name":"치킨 존 버거","tel":"031-461-2333","addr":"경기도 의왕시 삼동 147-18번지 1층","indutype":"일반휴게음식 - 스넥","category":"restaurant"},{"name":"희망손칼국수","tel":"031-462-1479","addr":"경기도 의왕시 삼동 147-18번지","indutype":"일반휴게음식 - 스넥","category":"restaurant"}]},{"lat":"37.3208987443","long":"126.9549789752","imageIndex":4,"items":[{"name":"카페드모모(cafe de momo)","tel":"000-0000-0000","addr":"경기도 의왕시 삼동 208-28번지 우성자동차공업사 다동 1층","indutype":"일반휴게음식 - 서양음식","category":"restaurant"}]},{"lat":"37.3148424414","long":"126.9515421124","imageIndex":4,"items":[{"name":"커피데이","tel":"031-462-8782","addr":"경기도 의왕시 삼동 571-6번지 1층 2호","indutype":"일반휴게음식 - 서양음식","category":"restaurant"},{"name":"한마당","tel":"031-461-3366","addr":"경기도 의왕시 삼동 571-6번지 1층","indutype":"일반휴게음식 - 일반한식","category":"restaurant"}]},{"lat":"37.3171758547","long":"126.9510103016","imageIndex":4,"items":[{"name":"커피라고(coffee Lago)","tel":"070-5858-8228","addr":"경기도 의왕시 삼동 150-11번지 지성빌딩 102호","indutype":"일반휴게음식 - 서양음식","category":"restaurant"}]},{"lat":"37.3211755809","long":"126.9492024404","imageIndex":4,"items":[{"name":"콩닥콩닭의왕역점","tel":"031-462-5678","addr":"경기도 의왕시 삼동 471-43번지","indutype":"일반휴게음식 - 스넥","category":"restaurant"}]},{"lat":"37.3213106725","long":"126.9490669606","imageIndex":4,"items":[{"name":"크래프트","tel":"031-461-5707","addr":"경기도 의왕시 삼동 471-68번지 영화빌딩 3층 301호","indutype":"일반휴게음식 - 일반한식","category":"restaurant"}]},{"lat":"37.3212309898","long":"126.9522598120","imageIndex":4,"items":[{"name":"킹콩부대찌개의왕역점","tel":"031-342-7711","addr":"경기도 의왕시 삼동 199-4번지 1층","indutype":"일반휴게음식 - 일반한식","category":"restaurant"}]},{"lat":"37.3179249422","long":"126.9539204049","imageIndex":4,"items":[{"name":"태능포차","tel":"031-461-1550","addr":"경기도 의왕시 삼동 134-27번지 2층","indutype":"일반휴게음식 - 일반한식","category":"restaurant"}]},{"lat":"37.3202026066","long":"126.9494851776","imageIndex":4,"items":[{"name":"태영생막창","tel":"031-461-9295","addr":"경기도 의왕시 삼동 192-22번지","indutype":"일반휴게음식 - 일반한식","category":"restaurant"}]},{"lat":"37.3211218097","long":"126.9498455494","imageIndex":4,"items":[{"name":"팔도 실비집 의왕역점","tel":"031-461-2636","addr":"경기도 의왕시 삼동 471-23번지 2층","indutype":"일반휴게음식 - 일반한식","category":"restaurant"}]},{"lat":"37.3184286853","long":"126.9519570900","imageIndex":4,"items":[{"name":"평남옥","tel":"070-7862-1697","addr":"경기도 의왕시 삼동 170-26번지 1층","indutype":"일반휴게음식 - 일반한식","category":"restaurant"}]},{"lat":"37.3212854621","long":"126.9532300247","imageIndex":4,"items":[{"name":"풀코스","tel":"031-461-0826","addr":"경기도 의왕시 삼동 200-46번지","indutype":"일반휴게음식 - 일반한식","category":"restaurant"}]},{"lat":"37.3189784241","long":"126.9522274780","imageIndex":4,"items":[{"name":"피자마루","tel":"031-461-1253","addr":"경기도 의왕시 삼동 166-15번지 부영빌딩 1층 103호","indutype":"일반휴게음식 - 서양음식","category":"restaurant"}]},{"lat":"37.3169249718","long":"126.9543158996","imageIndex":4,"items":[{"name":"하림멕시칸치킨","tel":"031-461-5583","addr":"경기도 의왕시 삼동 561-12번지","indutype":"일반휴게음식 - 주점","category":"restaurant"}]},{"lat":"37.3164210735","long":"126.9559858475","imageIndex":4,"items":[{"name":"한아름","tel":"031-461-5004","addr":"경기도 의왕시 삼동 115-1번지 한아름 상가 101동 103호","indutype":"일반휴게음식 - 일반한식","category":"restaurant"}]},{"lat":"37.3171486902","long":"126.9507057239","imageIndex":4,"items":[{"name":"해동포차","tel":"031-226-4025","addr":"경기도 의왕시 삼동 150-10번지 101호","indutype":"일반휴게음식 - 일반한식","category":"restaurant"}]},{"lat":"37.3208443885","long":"126.9542569679","imageIndex":4,"items":[{"name":"해바라기 김밥","tel":"031-462-7778","addr":"경기도 의왕시 삼동 208-12번지","indutype":"일반휴게음식 - 스넥","category":"restaurant"}]},{"lat":"37.3186995333","long":"126.9532317259","imageIndex":4,"items":[{"name":"홍두께 칼국수","tel":"031-462-4664","addr":"경기도 의왕시 삼동 166-7번지 문가빌딩 1층","indutype":"일반휴게음식 - 일반한식","category":"restaurant"}]}]