[{"lat":"37.239218165","long":"127.03031249","imageIndex":13,"items":[{"name":"1ST PC방","tel":"031-000-0000","addr":"경기도 수원시 권선구 곡반정동 556-1번지 4층","indutype":"레저업소 - 기타레져업소","category":"leisure"},{"name":"산타페 노래연습장","tel":"031-223-5214","addr":"경기도 수원시 권선구 곡반정동 556-1번지 한양프라자 301호","indutype":"레저업소 - 노 래 방","category":"leisure"},{"name":"휘트니스클럽S","tel":"031-235-6400","addr":"경기도 수원시 권선구 곡반정동 556-1번지 ,5,6층","indutype":"레저업소 - 헬스클럽","category":"leisure"}]},{"lat":"37.238912196","long":"127.02861066","imageIndex":13,"items":[{"name":"BMW노래연습장","tel":"031-223-5545","addr":"경기도 수원시 권선구 곡반정동 564-3번지 2층","indutype":"레저업소 - 노 래 방","category":"leisure"}]},{"lat":"37.237578597","long":"127.02892575","imageIndex":13,"items":[{"name":"S노래연습장","tel":"031-204-0910","addr":"경기도 수원시 권선구 곡반정동 570-14번지 5층","indutype":"레저업소 - 노 래 방","category":"leisure"},{"name":"한미체육관","tel":"031-235-1118","addr":"경기도 수원시 권선구 곡반정동 570-14번지 3층 301호","indutype":"레저업소 - 헬스클럽","category":"leisure"}]},{"lat":"37.240542509","long":"127.03105679","imageIndex":13,"items":[{"name":"곡반정동PT하우스","tel":"070-7198-4929","addr":"경기도 수원시 권선구 곡반정동 544-15번지 201호","indutype":"레저업소 - 헬스클럽","category":"leisure"}]},{"lat":"37.235434706","long":"127.02619788","imageIndex":13,"items":[{"name":"곡반킥복싱&주짓수","tel":"031-232-6482","addr":"경기도 수원시 권선구 곡반정동 584-4번지 3층","indutype":"레저업소 - 헬스클럽","category":"leisure"},{"name":"썸투더낚실내낚시터","tel":"031-231-9934","addr":"경기도 수원시 권선구 곡반정동 584-4번지 지하1층","indutype":"레저업소 - 기타레져업소","category":"leisure"}]},{"lat":"37.245208771","long":"127.03530755","imageIndex":13,"items":[{"name":"나라골프연습장","tel":"031-237-5900","addr":"경기도 수원시 권선구 곡반정동 103-1번지 3층","indutype":"레저업소 - 골프연습장","category":"leisure"},{"name":"나라골프존","tel":"031-224-6420","addr":"경기도 수원시 권선구 곡반정동 103-1번지 4층","indutype":"레저업소 - 골프연습장","category":"leisure"}]},{"lat":"37.23532656","long":"127.02631054","imageIndex":13,"items":[{"name":"동네당구장","tel":"","addr":"경기도 수원시 권선구 곡반정동 584-5번지 2층","indutype":"레저업소 - 당 구 장","category":"leisure"},{"name":"해동검도수원총본관","tel":"031-232-1680","addr":"경기도 수원시 권선구 곡반정동 584-5번지 5층","indutype":"레저업소 - 기타레져업소","category":"leisure"},{"name":"해피 노래연습장","tel":"031-236-3132","addr":"경기도 수원시 권선구 곡반정동 584-5번지 3층","indutype":"레저업소 - 노 래 방","category":"leisure"}]},{"lat":"37.238767939","long":"127.02902759","imageIndex":13,"items":[{"name":"루팡노래연습장","tel":"031-231-9667","addr":"경기도 수원시 권선구 곡반정동 564-5번지 4층","indutype":"레저업소 - 노 래 방","category":"leisure"},{"name":"보니따필라테스 수원곡반점","tel":"","addr":"경기도 수원시 권선구 곡반정동 564-5번지 7층","indutype":"레저업소 - 헬스클럽","category":"leisure"}]},{"lat":"37.239326627","long":"127.02881366","imageIndex":13,"items":[{"name":"만화카페통툰 곡반정점","tel":"031-222-4355","addr":"경기도 수원시 권선구 곡반정동 558-2번지 201호","indutype":"레저업소 - 기타레져업소","category":"leisure"}]},{"lat":"37.24074075","long":"127.03100051","imageIndex":13,"items":[{"name":"모아당구장","tel":"031-223-5214","addr":"경기도 수원시 권선구 곡반정동 544-1번지 3층","indutype":"레저업소 - 당 구 장","category":"leisure"},{"name":"본피씨엔까페 (Born PC&cafe)","tel":"031-234-3599","addr":"경기도 수원시 권선구 곡반정동 544-1번지 2층","indutype":"레저업소 - 기타레져업소","category":"leisure"}]},{"lat":"37.23860564","long":"127.02953467","imageIndex":13,"items":[{"name":"뮤직노래연습장","tel":"031-237-9887","addr":"경기도 수원시 권선구 곡반정동 564-8번지 5층","indutype":"레저업소 - 노 래 방","category":"leisure"},{"name":"이지원필라테스 수원점","tel":"031-226-0781","addr":"경기도 수원시 권선구 곡반정동 564-8번지 6동","indutype":"레저업소 - 헬스클럽","category":"leisure"}]},{"lat":"37.23793887","long":"127.02955697","imageIndex":13,"items":[{"name":"발리","tel":"031-236-5532","addr":"경기도 수원시 권선구 곡반정동 568-1번지 3층","indutype":"레저업소 - 노 래 방","category":"leisure"}]},{"lat":"37.237605544","long":"127.02930892","imageIndex":13,"items":[{"name":"블루스타코인 노래연습장","tel":"070-4686-9412","addr":"경기도 수원시 권선구 곡반정동 571-1번지 3층","indutype":"레저업소 - 노 래 방","category":"leisure"},{"name":"킹당구클럽","tel":"070-4245-2981","addr":"경기도 수원시 권선구 곡반정동 571-1번지 201호","indutype":"레저업소 - 당 구 장","category":"leisure"}]},{"lat":"37.237100909","long":"127.02955667","imageIndex":13,"items":[{"name":"비너스노래연습장","tel":"031-226-2003","addr":"경기도 수원시 권선구 곡반정동 575-4번지 2층","indutype":"레저업소 - 노 래 방","category":"leisure"}]},{"lat":"37.239046995","long":"127.03019973","imageIndex":13,"items":[{"name":"쁘띠몽드 곡반정점","tel":"031-298-8525","addr":"경기도 수원시 권선구 곡반정동 556-2번지 601호","indutype":"레저업소 - 기타레져업소","category":"leisure"},{"name":"엔젤S노래연습장","tel":"031-222-2554","addr":"경기도 수원시 권선구 곡반정동 556-2번지 5층 502호","indutype":"레저업소 - 노 래 방","category":"leisure"},{"name":"콰트로","tel":"","addr":"경기도 수원시 권선구 곡반정동 556-2번지 4층","indutype":"레저업소 - 기타레져업소","category":"leisure"},{"name":"홀인원스크린골프","tel":"031-234-0753","addr":"경기도 수원시 권선구 곡반정동 556-2번지 6층 602호","indutype":"레저업소 - 스크린골프","category":"leisure"}]},{"lat":"37.235245451","long":"127.02638939","imageIndex":13,"items":[{"name":"사이버블루PC방","tel":"070-8082-7161","addr":"경기도 수원시 권선구 곡반정동 584-6번지 201호","indutype":"레저업소 - 기타레져업소","category":"leisure"}]},{"lat":"37.235632971","long":"127.02600636","imageIndex":13,"items":[{"name":"세븐 노래연습장","tel":"031-232-4928","addr":"경기도 수원시 권선구 곡반정동 584-2번지 3층","indutype":"레저업소 - 노 래 방","category":"leisure"}]},{"lat":"37.240686351","long":"127.03238669","imageIndex":13,"items":[{"name":"세종당구장","tel":"","addr":"경기도 수원시 권선구 곡반정동 543-6번지 2층","indutype":"레저업소 - 당 구 장","category":"leisure"}]},{"lat":"37.238407287","long":"127.03008681","imageIndex":13,"items":[{"name":"스타당구클럽","tel":"031-233-1363","addr":"경기도 수원시 권선구 곡반정동 563-2번지 2층","indutype":"레저업소 - 당 구 장","category":"leisure"}]},{"lat":"37.235551856","long":"127.02611903","imageIndex":13,"items":[{"name":"실크로이드노래연습장","tel":"031-000-0000","addr":"경기도 수원시 권선구 곡반정동 584-3번지 2층","indutype":"레저업소 - 노 래 방","category":"leisure"}]},{"lat":"37.234884947","long":"127.02684005","imageIndex":13,"items":[{"name":"썬노래연습장","tel":"031-239-1088","addr":"경기도 수원시 권선구 곡반정동 593-2,593-3 3층","indutype":"레저업소 - 노 래 방","category":"leisure"},{"name":"용스짐(Yong''s gym)","tel":"031-222-0889","addr":"경기도 수원시 권선구 곡반정동 593-2번지 202호","indutype":"레저업소 - 헬스클럽","category":"leisure"}]},{"lat":"37.245353395","long":"127.0335832","imageIndex":13,"items":[{"name":"원베스트다이브 (ONE BEST DIVE)","tel":"031-235-3772","addr":"경기도 수원시 권선구 곡반정동 507-11번지 1층","indutype":"레저업소 - 기타레져업소","category":"leisure"}]},{"lat":"37.238488424","long":"127.02989525","imageIndex":13,"items":[{"name":"월드컵당구장","tel":"031-222-5288","addr":"경기도 수원시 권선구 곡반정동 563-1번지 오성빌딩 2층","indutype":"레저업소 - 당 구 장","category":"leisure"},{"name":"탑피씨카페(TOP PC CAFE)","tel":"031-232-0118","addr":"경기도 수원시 권선구 곡반정동 563-1번지 오성빌딩 6층","indutype":"레저업소 - 기타레져업소","category":"leisure"}]},{"lat":"37.238272036","long":"127.03050373","imageIndex":13,"items":[{"name":"정선화","tel":"031-302-5161","addr":"경기도 수원시 권선구 곡반정동 563-5번지 5층","indutype":"레저업소 - 헬스클럽","category":"leisure"}]},{"lat":"37.238353186","long":"127.03025583","imageIndex":13,"items":[{"name":"준 노래연습장","tel":"031-226-3531","addr":"경기도 수원시 권선구 곡반정동 563-3번지 2층","indutype":"레저업소 - 노 래 방","category":"leisure"}]},{"lat":"37.239209251","long":"127.02989551","imageIndex":13,"items":[{"name":"짱","tel":"031-234-5596","addr":"경기도 수원시 권선구 곡반정동 557-11번지 2층","indutype":"레저업소 - 노 래 방","category":"leisure"}]},{"lat":"37.234659592","long":"127.02731327","imageIndex":13,"items":[{"name":"찬스노래연습장","tel":"031-233-3373","addr":"경기도 수원시 권선구 곡반정동 593-6번지","indutype":"레저업소 - 노 래 방","category":"leisure"}]},{"lat":"37.240686773","long":"127.03063985","imageIndex":13,"items":[{"name":"초콜릿PC방","tel":"031-225-2433","addr":"경기도 수원시 권선구 곡반정동 545-7번지","indutype":"레저업소 - 기타레져업소","category":"leisure"}]},{"lat":"37.234434214","long":"127.02788792","imageIndex":13,"items":[{"name":"큐당구장","tel":"031-235-0972","addr":"경기도 수원시 권선구 곡반정동 593-10번지","indutype":"레저업소 - 당 구 장","category":"leisure"}]},{"lat":"37.241605285","long":"127.0328604","imageIndex":13,"items":[{"name":"테마 노래연습장","tel":"031-235-3383","addr":"경기도 수원시 권선구 곡반정동 532-6번지 2층","indutype":"레저업소 - 노 래 방","category":"leisure"}]},{"lat":"37.234515347","long":"127.02769637","imageIndex":13,"items":[{"name":"프라임휘트니스","tel":"031-224-3352","addr":"경기도 수원시 권선구 곡반정동 593-9번지 3층","indutype":"레저업소 - 헬스클럽","category":"leisure"}]},{"lat":"37.238326129","long":"127.03036852","imageIndex":13,"items":[{"name":"프렌즈 노래연습장","tel":"031-235-3383","addr":"경기도 수원시 권선구 곡반정동 563-4번지 2층 201호","indutype":"레저업소 - 노 래 방","category":"leisure"}]},{"lat":"37.235128294","long":"127.02650205","imageIndex":13,"items":[{"name":"필노래연습장","tel":"031-232-0085","addr":"경기도 수원시 권선구 곡반정동 584-7번지 2층","indutype":"레저업소 - 노 래 방","category":"leisure"}]},{"lat":"37.239821773","long":"127.03067335","imageIndex":13,"items":[{"name":"필라테스희","tel":"","addr":"경기도 수원시 권선구 곡반정동 552-16번지 1층 105호","indutype":"레저업소 - 헬스클럽","category":"leisure"}]},{"lat":"37.239272356","long":"127.02974903","imageIndex":13,"items":[{"name":"해피로PC 수원곡반점","tel":"","addr":"경기도 수원시 권선구 곡반정동 557-12번지 코지프라자 2층","indutype":"레저업소 - 기타레져업소","category":"leisure"}]},{"lat":"37.237794723","long":"127.02947803","imageIndex":13,"items":[{"name":"허브노래연습장","tel":"031-234-3459","addr":"경기도 수원시 권선구 곡반정동 568-12번지 2층","indutype":"레저업소 - 노 래 방","category":"leisure"}]},{"lat":"37.23796602","long":"127.02902731","imageIndex":13,"items":[{"name":"휴 노래연습장","tel":"031-238-7734","addr":"경기도 수원시 권선구 곡반정동 569-10번지 2층","indutype":"레저업소 - 노 래 방","category":"leisure"}]},{"lat":"37.238244973","long":"127.03063896","imageIndex":13,"items":[{"name":"힐링","tel":"070-9148-7335","addr":"경기도 수원시 권선구 곡반정동 563-6번지 효성빌딩 6층","indutype":"레저업소 - 헬스클럽","category":"leisure"}]}]