[{"lat":"37.383143842","long":"126.96284326","imageIndex":0,"items":[{"name":"대성오토바이","tel":"031-381-2604","addr":"경기도 안양시 동안구 평촌동 920-3번지","indutype":"자동차판매 - 이륜차판매","category":"car"}]},{"lat":"37.381443502","long":"126.97133498","imageIndex":0,"items":[{"name":"대한민국월남전참전자회안양시지회","tel":"031-426-0378","addr":"경기도 안양시 동안구 평촌동 214-2번지","indutype":"자동차정비 유지 - 주차장","category":"car"}]},{"lat":"37.391300956","long":"126.97286662","imageIndex":0,"items":[{"name":"두산벤처다임입주사대표회의","tel":"031-478-3114","addr":"경기도 안양시 동안구 평촌동","indutype":"자동차정비 유지 - 주차장","category":"car"},{"name":"주식회사 그리너스(GREENUS CO.Ltd)","tel":"031-1588-5101","addr":"경기도 안양시 동안구 평촌동 126-1번지","indutype":"자동차판매 - 이륜차판매","category":"car"}]},{"lat":"37.383639879","long":"126.96428829","imageIndex":0,"items":[{"name":"스카이오토","tel":"031-388-0057","addr":"경기도 안양시 동안구 평촌동 913-8번지","indutype":"자동차정비 유지 - 자동차정비","category":"car"}]},{"lat":"37.384503395","long":"126.96006485","imageIndex":0,"items":[{"name":"신세기타운관리소","tel":"031-386-7740","addr":"경기도 안양시 동안구 평촌동 900-4번지","indutype":"자동차정비 유지 - 주차장","category":"car"}]},{"lat":"37.393725305","long":"126.9754743","imageIndex":0,"items":[{"name":"신원모터싸이클","tel":"031-422-0331","addr":"경기도 안양시 동안구 평촌동 93-6번지","indutype":"자동차판매 - 이륜차판매","category":"car"}]},{"lat":"37.381891209","long":"126.96217776","imageIndex":0,"items":[{"name":"아우스","tel":"031-384-2924","addr":"경기도 안양시 동안구 평촌동 925-2번지","indutype":"자동차정비 유지 - 자동차부품","category":"car"}]},{"lat":"37.391165474","long":"126.97159063","imageIndex":0,"items":[{"name":"아이에스비즈타워입주자대표회의","tel":"","addr":"경기도 안양시 동안구 평촌동 160-1번지","indutype":"자동차정비 유지 - 주차장","category":"car"}]},{"lat":"37.38183709","long":"126.96200842","imageIndex":0,"items":[{"name":"카매니저","tel":"","addr":"경기도 안양시 동안구 평촌동 925-1번지","indutype":"자동차정비 유지 - 자동차정비","category":"car"}]},{"lat":"37.388858783","long":"126.97119637","imageIndex":0,"items":[{"name":"평촌세차장","tel":"031-423-6332","addr":"경기도 안양시 동안구 평촌동 169번지","indutype":"자동차정비 유지 - 세차장","category":"car"},{"name":"평화자동차정비공업사","tel":"031-421-4200","addr":"경기도 안양시 동안구 평촌동 169번지","indutype":"자동차정비 유지 - 자동차정비","category":"car"}]},{"lat":"37.395001794","long":"126.96483582","imageIndex":0,"items":[{"name":"하이카워시","tel":"","addr":"경기도 안양시 동안구 평촌동 897번지","indutype":"자동차정비 유지 - 세차장","category":"car"},{"name":"한빛 주차장","tel":"","addr":"경기도 안양시 동안구 평촌동 897번지","indutype":"자동차정비 유지 - 주차장","category":"car"}]}]