[{"lat":"37.482663233","long":"127.48542852","imageIndex":17,"items":[{"name":"(주)새누리렌트카양평영업소","tel":"031-774-1206","addr":"경기도 양평군 강상면 교평리 465-19번지","indutype":"여행 - 렌터카","category":"other"}]},{"lat":"37.482944701","long":"127.48489894","imageIndex":17,"items":[{"name":"GS25양평대교점","tel":"","addr":"경기도 양평군 강상면 교평리 453-4번지","indutype":"유통업 영리 - 편 의 점","category":"other"}]},{"lat":"37.477998323","long":"127.48267393","imageIndex":17,"items":[{"name":"LEDOK","tel":"","addr":"경기도 양평군 강상면 교평리 615-1번지","indutype":"건축자재 - 조명기구","category":"other"}]},{"lat":"37.485995379","long":"127.48136828","imageIndex":17,"items":[{"name":"SAVIOR DELIVERER 세이비어 딜리버러","tel":"","addr":"경기도 양평군 강상면 교평리 404-4번지 102호","indutype":"의류 - 정장","category":"other"}]},{"lat":"37.473471132","long":"127.48592335","imageIndex":17,"items":[{"name":"꽃닮꽃담","tel":"","addr":"경기도 양평군 강상면 교평리 669-6번지 가동 1층","indutype":"신변잡화 - 액세서리","category":"other"}]},{"lat":"37.485805718","long":"127.48148013","imageIndex":17,"items":[{"name":"대영철물건재","tel":"031-774-4666","addr":"경기도 양평군 강상면 교평리 404-7번지","indutype":"건축자재 - 기타건축자재","category":"other"}]},{"lat":"37.482612589","long":"127.48459155","imageIndex":17,"items":[{"name":"드림","tel":"031-774-1905","addr":"경기도 양평군 강상면 교평리 449-8번지","indutype":"레져용품 - 스포츠·레져용품","category":"other"}]},{"lat":"37.479831926","long":"127.48375969","imageIndex":17,"items":[{"name":"백운설비","tel":"031-771-1674","addr":"경기도 양평군 강상면 교평리 483-1","indutype":"용역 서비스 - 기타용역서비스","category":"other"}]},{"lat":"37.48035898","long":"127.48487103","imageIndex":17,"items":[{"name":"벽지촌","tel":"031-774-6882","addr":"경기도 양평군 강상면 교평리 480-2","indutype":"직물 - 카페트,커튼,천막,지물","category":"other"},{"name":"유진설비","tel":"031-772-2826","addr":"경기도 양평군 강상면 교평리 480-2번지","indutype":"용역 서비스 - 기타용역서비스","category":"other"}]},{"lat":"37.483634316","long":"127.48370491","imageIndex":17,"items":[{"name":"봉우공방","tel":"031-772-5907","addr":"경기도 양평군 강상면 교평리 447-4번지","indutype":"레져용품 - 악기점","category":"other"}]},{"lat":"37.485498474","long":"127.4817043","imageIndex":17,"items":[{"name":"뿔라광고기획","tel":"031-774-3479","addr":"경기도 양평군 강상면 교평리 399-1번지 1층","indutype":"용역 서비스 - 종합용역","category":"other"}]},{"lat":"37.480051638","long":"127.48511778","imageIndex":17,"items":[{"name":"세븐일레븐양평교평리점","tel":"031-1577-0711","addr":"경기도 양평군 강상면 교평리 480-5번지 1층","indutype":"유통업 영리 - 편 의 점","category":"other"}]},{"lat":"37.478806461","long":"127.485562","imageIndex":17,"items":[{"name":"씨유양평강상점","tel":"031-771-9011","addr":"경기도 양평군 강상면 교평리 477-4번지","indutype":"유통업 영리 - 편 의 점","category":"other"}]},{"lat":"37.462193615","long":"127.4896147","imageIndex":17,"items":[{"name":"아이슬린.오거스트하우스","tel":"070-4225-3011","addr":"경기도 양평군 강상면 교평리 38-31번지","indutype":"문화.취미 - 화랑","category":"other"}]},{"lat":"37.463527378","long":"127.49172574","imageIndex":17,"items":[{"name":"알지오","tel":"031-775-7036","addr":"경기도 양평군 강상면 교평리 47-1번지","indutype":"건축자재 - 기타건축자재","category":"other"}]},{"lat":"37.479610257","long":"127.48509233","imageIndex":17,"items":[{"name":"양평농협 하나로마트 강상점","tel":"031-771-0442","addr":"경기도 양평군 강상면 교평리 478-7번지","indutype":"유통업 비영리 - 농,축협 직영매장","category":"other"},{"name":"양평농협강상지점","tel":"031-773-5666","addr":"경기도 양평군 강상면 교평리 478-7번지 양평농협강상지점","indutype":"유통업 비영리 - 농,축협 직영매장","category":"other"}]},{"lat":"37.465749558","long":"127.48814568","imageIndex":17,"items":[{"name":"양평에어컨","tel":"","addr":"경기도 양평군 강상면 교평리 65-4번지","indutype":"용역 서비스 - 기타용역서비스","category":"other"}]},{"lat":"37.4816919","long":"127.48500396","imageIndex":17,"items":[{"name":"양평탑스크린골프","tel":"031-774-1098","addr":"경기도 양평군 강상면 교평리 469-1번지 (외)","indutype":"회원제형태 - 레져업소","category":"other"}]},{"lat":"37.476390675","long":"127.4858404","imageIndex":17,"items":[{"name":"예혼국악기","tel":"070-8742-6928","addr":"경기도 양평군 강상면 교평리 576-2번지","indutype":"레져용품 - 악기점","category":"other"}]},{"lat":"37.482331584","long":"127.48500807","imageIndex":17,"items":[{"name":"온천지하수개발","tel":"031-774-6347","addr":"경기도 양평군 강상면 교평리 449-6","indutype":"용역 서비스 - 기타용역서비스","category":"other"},{"name":"주식회사국제드림항공여행사","tel":"02-1670-5168","addr":"경기도 양평군 강상면 교평리 449-6번지 2층","indutype":"여행 - 관광여행","category":"other"}]},{"lat":"37.474555798","long":"127.49165059","imageIndex":17,"items":[{"name":"우신기획","tel":"031-774-2300","addr":"경기도 양평군 강상면 교평리 213-9","indutype":"수리서비스 - 사무·통신기기수리","category":"other"}]},{"lat":"37.478308065","long":"127.48625973","imageIndex":17,"items":[{"name":"유미디어","tel":"031-774-5781","addr":"경기도 양평군 강상면 교평리 562-1","indutype":"회원제형태 - 사무서비스","category":"other"}]},{"lat":"37.475973377","long":"127.48873181","imageIndex":17,"items":[{"name":"인디(in D)","tel":"031-636-0180","addr":"경기도 양평군 강상면 교평리 243-17번지","indutype":"신변잡화 - 기타잡화","category":"other"}]},{"lat":"37.475916441","long":"127.48503469","imageIndex":17,"items":[{"name":"중앙OA시스템","tel":"031-771-2040","addr":"경기도 양평군 강상면 교평리 586","indutype":"사무통신 - 사무용 OA기기","category":"other"}]},{"lat":"37.476334599","long":"127.48853066","imageIndex":17,"items":[{"name":"책보고 가게","tel":"031-000-0000","addr":"경기도 양평군 강상면 교평리 243-18번지","indutype":"서적문구 - 일반서적","category":"other"}]},{"lat":"37.479555771","long":"127.48076193","imageIndex":17,"items":[{"name":"천년목 다육농장","tel":"031-000-0000","addr":"경기도 양평군 강상면 교평리 521-2번지 천년목 다육농장","indutype":"문화.취미 - 화원","category":"other"}]},{"lat":"37.479051467","long":"127.48733855","imageIndex":17,"items":[{"name":"축구인의 집 체육사","tel":"031-773-2956","addr":"경기도 양평군 강상면 교평리 295-1번지 에벤에빌 102동 301호","indutype":"레져용품 - 스포츠·레져용품","category":"other"}]},{"lat":"37.482415391","long":"127.48434155","imageIndex":17,"items":[{"name":"함평철물건재","tel":"031-773-7007","addr":"경기도 양평군 강상면 교평리 468-5번지","indutype":"건축자재 - 목재·석재·철물","category":"other"}]}]