[{"lat":"37.710768817","long":"126.90175646","imageIndex":0,"items":[{"name":"Detailing Car (디테일링 카)","tel":"031-960-6690","addr":"경기도 고양시 덕양구 고양동 457번지","indutype":"자동차정비 유지 - 카인테리어","category":"car"}]},{"lat":"37.706542229","long":"126.90050345","imageIndex":0,"items":[{"name":"경서자동차용품","tel":"031-963-9887","addr":"경기도 고양시 덕양구 고양동 31-59번지","indutype":"자동차정비 유지 - 자동차부품","category":"car"},{"name":"친절 카센타","tel":"031-963-9257","addr":"경기도 고양시 덕양구 고양동 31-59번지","indutype":"자동차정비 유지 - 자동차정비","category":"car"}]},{"lat":"37.709516239","long":"126.90147464","imageIndex":0,"items":[{"name":"고양상사","tel":"031-964-7165","addr":"경기도 고양시 덕양구 고양동 444-1번지","indutype":"자동차정비 유지 - 자동차부품","category":"car"},{"name":"대신신카센타","tel":"031-969-2440","addr":"경기도 고양시 덕양구 고양동 444-1번지","indutype":"자동차정비 유지 - 자동차시트·타이어","category":"car"}]},{"lat":"37.702100878","long":"126.90095179","imageIndex":0,"items":[{"name":"고양점기아오토큐","tel":"031-962-8538","addr":"경기도 고양시 덕양구 고양동 240-42번지","indutype":"자동차정비 유지 - 자동차정비","category":"car"}]},{"lat":"37.716570063","long":"126.90067112","imageIndex":0,"items":[{"name":"벽제세차","tel":"031-963-6460","addr":"경기도 고양시 덕양구 고양동 841번지","indutype":"자동차정비 유지 - 세차장","category":"car"}]},{"lat":"37.715183116","long":"126.90128546","imageIndex":0,"items":[{"name":"블랙스톤","tel":"070-6769-0403","addr":"경기도 고양시 덕양구 고양동 848번지","indutype":"자동차정비 유지 - 자동차부품","category":"car"}]},{"lat":"37.700715174","long":"126.90302877","imageIndex":0,"items":[{"name":"시내카","tel":"031-962-7515","addr":"경기도 고양시 덕양구 고양동","indutype":"자동차정비 유지 - 자동차부품","category":"car"}]},{"lat":"37.705771831","long":"126.89535615","imageIndex":0,"items":[{"name":"신도시오토바이(신화)","tel":"031-962-4482","addr":"경기도 고양시 덕양구 고양동 414-17번지 윤창아파트","indutype":"자동차판매 - 이륜차판매","category":"car"}]},{"lat":"37.717291691","long":"126.9016682","imageIndex":0,"items":[{"name":"신원자동차공업사","tel":"031-963-8958","addr":"경기도 고양시 덕양구 고양동 984번지","indutype":"자동차정비 유지 - 자동차정비","category":"car"}]},{"lat":"37.706544886","long":"126.90361063","imageIndex":0,"items":[{"name":"월드세차장","tel":"031-964-6922","addr":"경기도 고양시 덕양구 고양동 176-12번지","indutype":"자동차정비 유지 - 세차장","category":"car"},{"name":"월드타이어","tel":"031-962-0824","addr":"경기도 고양시 덕양구 고양동 176-12번지","indutype":"자동차정비 유지 - 자동차정비","category":"car"}]},{"lat":"37.706490571","long":"126.90330452","imageIndex":0,"items":[{"name":"중앙오토바이","tel":"031-964-9331","addr":"경기도 고양시 덕양구 고양동 176-13번지","indutype":"자동차판매 - 이륜차판매","category":"car"}]},{"lat":"37.701929352","long":"126.90055515","imageIndex":0,"items":[{"name":"카앤피플 고양덕양구지점","tel":"","addr":"경기도 고양시 덕양구 고양동 240-38번지","indutype":"자동차정비 유지 - 세차장","category":"car"}]},{"lat":"37.716706184","long":"126.90180509","imageIndex":0,"items":[{"name":"페인터스","tel":"031-962-9377","addr":"경기도 고양시 덕양구 고양동 901번지","indutype":"자동차정비 유지 - 자동차정비","category":"car"}]},{"lat":"37.707597691","long":"126.90205561","imageIndex":0,"items":[{"name":"황금타이어","tel":"031-964-2340","addr":"경기도 고양시 덕양구 고양동","indutype":"자동차정비 유지 - 자동차부품","category":"car"}]}]