[{"lat":"37.486568651","long":"126.81318827","imageIndex":8,"items":[{"name":"경희보명한의원","tel":"032-351-2800","addr":"경기도 부천시 역곡동 111-9번지 로하스타워 3층 303호","indutype":"의원 - 한의원","category":"medical"},{"name":"공선희소아청소년과","tel":"032-346-2100","addr":"경기도 부천시 역곡동 111-9번지 9.13로하스타워 302호","indutype":"의원 - 의원","category":"medical"},{"name":"보영약국","tel":"032-349-9777","addr":"경기도 부천시 역곡동 111-9번지 로하스타워 1층 102호","indutype":"약국 - 약국","category":"medical"},{"name":"주의원","tel":"032-206-7600","addr":"경기도 부천시 역곡동 111-9번지 로하스타워 304호","indutype":"의원 - 의원","category":"medical"}]},{"lat":"37.486487162","long":"126.81293972","imageIndex":8,"items":[{"name":"고려한의원","tel":"032-349-7576","addr":"경기도 부천시 역곡동 111-10번지 2층","indutype":"의원 - 한의원","category":"medical"},{"name":"서울가정의학과의원","tel":"032-345-4154","addr":"경기도 부천시 역곡동 111-10번지","indutype":"의원 - 의원","category":"medical"}]},{"lat":"37.486342549","long":"126.81265742","imageIndex":8,"items":[{"name":"고운누리치과의원","tel":"032-349-2875","addr":"경기도 부천시 역곡동 82-6번지 2층","indutype":"의원 - 치과의원","category":"medical"}]},{"lat":"37.487322069","long":"126.81107198","imageIndex":8,"items":[{"name":"고운얼굴치과","tel":"032-343-5007","addr":"경기도 부천시 역곡동 84번지 덕산빌딩 301호","indutype":"의원 - 치과의원","category":"medical"},{"name":"누가약국","tel":"032-345-5453","addr":"경기도 부천시 역곡동 84번지 덕산빌딩 105호","indutype":"약국 - 약국","category":"medical"},{"name":"신통의원","tel":"032-469-7582","addr":"경기도 부천시 역곡동 84번지 덕산프라자 302호","indutype":"의원 - 의원","category":"medical"}]},{"lat":"37.4879252","long":"126.81074253","imageIndex":8,"items":[{"name":"늘푸른소나무약국","tel":"032-345-7873","addr":"경기도 부천시 역곡동 85번지 104호","indutype":"약국 - 약국","category":"medical"},{"name":"아이샘 소아청소년과의원","tel":"032-343-5275","addr":"경기도 부천시 역곡동 85번지 401호","indutype":"의원 - 의원","category":"medical"}]},{"lat":"37.486647499","long":"126.81179733","imageIndex":8,"items":[{"name":"맑은샘한의원","tel":"032-652-3656","addr":"경기도 부천시 역곡동 83-23번지","indutype":"의원 - 한의원","category":"medical"}]},{"lat":"37.488765556","long":"126.81224422","imageIndex":8,"items":[{"name":"메디팜한사랑약국","tel":"032-342-1007","addr":"경기도 부천시 역곡동 107-6번지","indutype":"약국 - 약국","category":"medical"}]},{"lat":"37.485735518","long":"126.81057854","imageIndex":8,"items":[{"name":"미드림의원","tel":"032-343-8575","addr":"경기도 부천시 역곡동 77-10번지 3층","indutype":"의원 - 의원","category":"medical"}]},{"lat":"37.488874113","long":"126.81251532","imageIndex":8,"items":[{"name":"미소하나치과의원","tel":"032-349-3230","addr":"경기도 부천시 역곡동 106-7번지 신영빌딩 3층","indutype":"의원 - 치과의원","category":"medical"},{"name":"우리들가정의원","tel":"032-342-0147","addr":"경기도 부천시 역곡동 106-7번지 신영빌딩 2층 202호","indutype":"의원 - 의원","category":"medical"}]},{"lat":"37.485538604","long":"126.81138181","imageIndex":8,"items":[{"name":"백두산한의원","tel":"032-345-1002","addr":"경기도 부천시 역곡동 80-5번지 덕지빌딩 201호","indutype":"의원 - 한의원","category":"medical"},{"name":"연세이비인후과","tel":"032-345-3600","addr":"경기도 부천시 역곡동 80-5번지 덕지빌딩 401호","indutype":"의원 - 의원","category":"medical"},{"name":"오케이약국","tel":"032-343-7494","addr":"경기도 부천시 역곡동 80-5번지 덕지빌딩 502호","indutype":"약국 - 약국","category":"medical"},{"name":"우리치과","tel":"032-677-2828","addr":"경기도 부천시 역곡동 80-5번지 덕지빌딩 4층","indutype":"의원 - 치과의원","category":"medical"},{"name":"은누리현대약국","tel":"032-345-4322","addr":"경기도 부천시 역곡동 80-5번지 덕지빌딩 4층","indutype":"약국 - 약국","category":"medical"},{"name":"편안한연합의원","tel":"032-347-3936","addr":"경기도 부천시 역곡동 80-5번지 덕지빌딩 2층 201호","indutype":"의원 - 의원","category":"medical"}]},{"lat":"37.485737718","long":"126.81193533","imageIndex":8,"items":[{"name":"부천보스톤치과의원","tel":"032-346-2828","addr":"경기도 부천시 역곡동 81번지 2층","indutype":"의원 - 치과의원","category":"medical"}]},{"lat":"37.48495674","long":"126.80818355","imageIndex":8,"items":[{"name":"사랑이꽃피는약국","tel":"032-344-1643","addr":"경기도 부천시 역곡동 50-6번지 우승메디칼빌딩 1층","indutype":"약국 - 약국","category":"medical"}]},{"lat":"37.485961886","long":"126.81126767","imageIndex":8,"items":[{"name":"삼성웰의원","tel":"032-348-6660","addr":"경기도 부천시 역곡동 77-6번지 스카이빌딩 801호","indutype":"의원 - 의원","category":"medical"},{"name":"소리코이비인후과","tel":"032-347-1806","addr":"경기도 부천시 역곡동 77-6번지 스카이빌딩 7층","indutype":"의원 - 의원","category":"medical"},{"name":"역곡경희한의원","tel":"032-344-1075","addr":"경기도 부천시 역곡동 77-6번지 스카이빌딩 401호","indutype":"의원 - 한의원","category":"medical"}]},{"lat":"37.485817103","long":"126.81088361","imageIndex":8,"items":[{"name":"서울이비인후과의원","tel":"032-342-8258","addr":"경기도 부천시 역곡동 77-8번지","indutype":"의원 - 의원","category":"medical"},{"name":"은혜약국","tel":"032-342-4220","addr":"경기도 부천시 역곡동 77-8번지","indutype":"약국 - 약국","category":"medical"}]},{"lat":"37.486703164","long":"126.81279219","imageIndex":8,"items":[{"name":"서울재활의학과의원","tel":"032-347-1194","addr":"경기도 부천시 역곡동 111번지 로하스타워 203호","indutype":"의원 - 의원","category":"medical"}]},{"lat":"37.488711168","long":"126.81204083","imageIndex":8,"items":[{"name":"성심약국","tel":"032-345-2979","addr":"경기도 부천시 역곡동 107-7번지","indutype":"약국 - 약국","category":"medical"},{"name":"임동현외과의원","tel":"032-345-2208","addr":"경기도 부천시 역곡동 107-7번지 대명빌딩 2층","indutype":"의원 - 의원","category":"medical"}]},{"lat":"37.486259762","long":"126.81160611","imageIndex":8,"items":[{"name":"성심한의원","tel":"032-342-5056","addr":"경기도 부천시 역곡동 82-1번지","indutype":"의원 - 한의원","category":"medical"}]},{"lat":"37.488234009","long":"126.81226819","imageIndex":8,"items":[{"name":"성약국","tel":"032-341-6341","addr":"경기도 부천시 역곡동 108 101,102,103호","indutype":"약국 - 약국","category":"medical"},{"name":"허경한의원","tel":"032-341-6556","addr":"경기도 부천시 역곡동 108번지 역곡시장 2층 8호","indutype":"의원 - 한의원","category":"medical"}]},{"lat":"37.48779256","long":"126.81229192","imageIndex":8,"items":[{"name":"수석한의원","tel":"032-343-9788","addr":"경기도 부천시 역곡동 109번지 2층","indutype":"의원 - 한의원","category":"medical"}]},{"lat":"37.485789835","long":"126.81073669","imageIndex":8,"items":[{"name":"신세계재활의학과","tel":"032-341-0340","addr":"경기도 부천시 역곡동 77-9번지 2층","indutype":"의원 - 의원","category":"medical"},{"name":"유종필치과의원","tel":"032-341-0058","addr":"경기도 부천시 역곡동 77-9번지","indutype":"의원 - 치과의원","category":"medical"}]},{"lat":"37.486622964","long":"126.81334642","imageIndex":8,"items":[{"name":"역곡항도외과의원","tel":"032-343-6200","addr":"경기도 부천시 역곡동 111-8,9,13로하스타워5층501호~503호","indutype":"의원 - 의원","category":"medical"}]},{"lat":"37.488926839","long":"126.81168976","imageIndex":8,"items":[{"name":"영백한의원","tel":"032-347-1075","addr":"경기도 부천시 역곡동 107-20번지 1층","indutype":"의원 - 한의원","category":"medical"}]},{"lat":"37.486151717","long":"126.81165161","imageIndex":8,"items":[{"name":"유내과의원","tel":"032-344-4552","addr":"경기도 부천시 역곡동 82-11번지","indutype":"의원 - 의원","category":"medical"},{"name":"한피부과의원","tel":"032-341-5573","addr":"경기도 부천시 역곡동 82-11번지","indutype":"의원 - 의원","category":"medical"}]},{"lat":"37.484515255","long":"126.8081847","imageIndex":8,"items":[{"name":"유명한약국","tel":"032-343-4787","addr":"경기도 부천시 역곡동 49-2번지 상가 1층","indutype":"약국 - 약국","category":"medical"}]},{"lat":"37.484986238","long":"126.80968724","imageIndex":8,"items":[{"name":"임혜영치과의원","tel":"032-342-0160","addr":"경기도 부천시 역곡동 79-2번지","indutype":"의원 - 치과의원","category":"medical"}]},{"lat":"37.488794405","long":"126.81337486","imageIndex":8,"items":[{"name":"자연한의원","tel":"032-348-2228","addr":"경기도 부천시 역곡동 201번지 호진빌딩 201호","indutype":"의원 - 한의원","category":"medical"}]},{"lat":"37.488457775","long":"126.81135175","imageIndex":8,"items":[{"name":"즐거운치과","tel":"032-342-8275","addr":"경기도 부천시 역곡동 97-6번지 에이빌하우스 201호","indutype":"의원 - 치과의원","category":"medical"}]},{"lat":"37.486043689","long":"126.81170842","imageIndex":8,"items":[{"name":"청한의원","tel":"032-345-1112","addr":"경기도 부천시 역곡동 82-10번지 201호","indutype":"의원 - 한의원","category":"medical"}]},{"lat":"37.486376799","long":"126.81154927","imageIndex":8,"items":[{"name":"홍치과","tel":"032-341-9912","addr":"경기도 부천시 역곡동 82번지","indutype":"의원 - 치과의원","category":"medical"}]},{"lat":"37.486510994","long":"126.81096098","imageIndex":8,"items":[{"name":"황종대정형외과","tel":"032-342-4842","addr":"경기도 부천시 역곡동 76-5번지","indutype":"의원 - 의원","category":"medical"}]}]