[{"lat":"37.3537903","long":"127.3408882","imageIndex":4,"items":[{"name":"더문","tel":"031-762-6162","addr":"경기도 광주시 곤지암읍 신대리 45-3번지 1층","indutype":"일반휴게음식 - 서양음식","category":"restaurant"}]},{"lat":"37.35612603","long":"127.3369707","imageIndex":4,"items":[{"name":"로프트1010","tel":"031-762-7593","addr":"경기도 광주시 곤지암읍 신대리 12-9번지","indutype":"일반휴게음식 - 서양음식","category":"restaurant"}]},{"lat":"37.35765319","long":"127.3289183","imageIndex":4,"items":[{"name":"사슴목장보리밥집","tel":"031-761-6288","addr":"경기도 광주시 곤지암읍 신대리 277-9번지","indutype":"일반휴게음식 - 일반한식","category":"restaurant"},{"name":"소반","tel":"","addr":"경기도 광주시 곤지암읍 신대리 277-9번지 1층","indutype":"일반휴게음식 - 일반한식","category":"restaurant"}]},{"lat":"37.35345937","long":"127.3400289","imageIndex":4,"items":[{"name":"소문난평창송어회","tel":"031-767-3988","addr":"경기도 광주시 곤지암읍 신대리 48-5번지","indutype":"일반휴게음식 - 일반한식","category":"restaurant"}]},{"lat":"37.35353643","long":"127.3382798","imageIndex":4,"items":[{"name":"일화갈비","tel":"","addr":"경기도 광주시 곤지암읍 신대리 56-1번지 1층","indutype":"일반휴게음식 - 일반한식","category":"restaurant"}]},{"lat":"37.35606554","long":"127.3360562","imageIndex":4,"items":[{"name":"자기랑도기랑","tel":"031-762-8001","addr":"경기도 광주시 곤지암읍 신대리 97번지","indutype":"일반휴게음식 - 일반한식","category":"restaurant"}]},{"lat":"37.35364551","long":"127.3379417","imageIndex":4,"items":[{"name":"장원가마솥 설렁탕 해장국","tel":"031-798-9292","addr":"경기도 광주시 곤지암읍 신대리 54","indutype":"일반휴게음식 - 일반한식","category":"restaurant"}]},{"lat":"37.35262305","long":"127.336278","imageIndex":4,"items":[{"name":"전곡양평해장국","tel":"031-797-4716","addr":"경기도 광주시 곤지암읍 신대리 70-1번지","indutype":"일반휴게음식 - 일반한식","category":"restaurant"}]},{"lat":"37.35347939","long":"127.3393292","imageIndex":4,"items":[{"name":"착한밥집","tel":"031-764-1955","addr":"경기도 광주시 곤지암읍 신대리 51번지 1층","indutype":"일반휴게음식 - 일반한식","category":"restaurant"}]},{"lat":"37.35215243","long":"127.3370208","imageIndex":4,"items":[{"name":"착한장소","tel":"031-797-7171","addr":"경기도 광주시 곤지암읍 신대리 70-4번지","indutype":"일반휴게음식 - 일반한식","category":"restaurant"}]},{"lat":"37.35176114","long":"127.3383848","imageIndex":4,"items":[{"name":"청호수산","tel":"031-763-1188","addr":"경기도 광주시 곤지암읍 신대리 69-10번지","indutype":"일반휴게음식 - 일식·회집","category":"restaurant"}]},{"lat":"37.35750595","long":"127.3332746","imageIndex":4,"items":[{"name":"초가삼겹살","tel":"031-761-3250","addr":"경기도 광주시 곤지암읍 신대리 119-14번지","indutype":"일반휴게음식 - 일반한식","category":"restaurant"}]},{"lat":"37.35737282","long":"127.3293009","imageIndex":4,"items":[{"name":"카페in","tel":"070-9148-1164","addr":"경기도 광주시 곤지암읍 신대리 277-15번지 1층","indutype":"일반휴게음식 - 서양음식","category":"restaurant"}]},{"lat":"37.35772981","long":"127.3337722","imageIndex":4,"items":[{"name":"프렌드호프","tel":"031-769-6974","addr":"경기도 광주시 곤지암읍 신대리 114-2","indutype":"일반휴게음식 - 주점","category":"restaurant"}]}]