[{"lat":"36.974359206","long":"127.31906664","imageIndex":4,"items":[{"name":"광생가든","tel":"031-675-3280","addr":"경기도 안성시 금광면 장죽리 38번지","indutype":"일반휴게음식 - 일반한식","category":"restaurant"}]},{"lat":"36.966279976","long":"127.30743333","imageIndex":4,"items":[{"name":"다리골가든","tel":"031-671-9290","addr":"경기도 안성시 금광면 장죽리 599번지","indutype":"일반휴게음식 - 일반한식","category":"restaurant"}]},{"lat":"36.968194038","long":"127.31293223","imageIndex":4,"items":[{"name":"더나이스뷰","tel":"031-671-2085","addr":"경기도 안성시 금광면 장죽리 530-4번지 가동 1층","indutype":"일반휴게음식 - 서양음식","category":"restaurant"}]},{"lat":"36.96622288","long":"127.31209327","imageIndex":4,"items":[{"name":"송어마을","tel":"031-675-9945","addr":"경기도 안성시 금광면 장죽리 499번지","indutype":"일반휴게음식 - 일반한식","category":"restaurant"}]},{"lat":"36.96691915","long":"127.31115282","imageIndex":4,"items":[{"name":"유빈식당","tel":"031-677-2253","addr":"경기도 안성시 금광면 장죽리 558-1번지","indutype":"일반휴게음식 - 일반한식","category":"restaurant"}]},{"lat":"36.96694294","long":"127.31239938","imageIndex":4,"items":[{"name":"콩세르","tel":"031-677-4592","addr":"경기도 안성시 금광면 장죽리 497-1번지","indutype":"일반휴게음식 - 서양음식","category":"restaurant"}]},{"lat":"36.971836031","long":"127.31573208","imageIndex":4,"items":[{"name":"통돼지와도토리중앙점","tel":"031-675-1292","addr":"경기도 안성시 금광면 장죽리 163-2번지","indutype":"일반휴게음식 - 일반한식","category":"restaurant"}]},{"lat":"36.966977312","long":"127.31303959","imageIndex":4,"items":[{"name":"향정원","tel":"031-673-8885","addr":"경기도 안성시 금광면 장죽리 494-2번지","indutype":"일반휴게음식 - 일반한식","category":"restaurant"}]}]