[{"lat":"37.415591266","long":"127.54022396","imageIndex":9,"items":[{"name":"(주)한강주유소","tel":"031-774-4438","addr":"경기도 양평군 개군면 상자포리 265-1번지","indutype":"연료판매점 - 쌍용S-OIL","category":"oil"}]},{"lat":"37.422364391","long":"127.53875856","imageIndex":9,"items":[{"name":"개군농협주유소","tel":"031-772-0334","addr":"경기도 양평군 개군면 상자포리 410-2번지","indutype":"연료판매점 - 주유소","category":"oil"}]},{"lat":"37.421254155","long":"127.53920252","imageIndex":9,"items":[{"name":"개군한진가스","tel":"031-773-8755","addr":"경기도 양평군 개군면 상자포리 366-14번지","indutype":"연료판매점 - LPG 취급점","category":"oil"}]},{"lat":"37.419926209","long":"127.54194942","imageIndex":17,"items":[{"name":"CY요셉트레이딩","tel":"","addr":"경기도 양평군 개군면 상자포리 323-1번지","indutype":"문화.취미 - 애완동물","category":"other"}]},{"lat":"37.416203307","long":"127.54036389","imageIndex":17,"items":[{"name":"나성건설(주)","tel":"031-773-0150","addr":"경기도 양평군 개군면 상자포리 291-2번지","indutype":"건축자재 - 부동산 분양","category":"other"}]},{"lat":"37.418898593","long":"127.54205502","imageIndex":17,"items":[{"name":"엘지냉동","tel":"","addr":"경기도 양평군 개군면 상자포리 316-13번지 1층","indutype":"용역 서비스 - 기타용역서비스","category":"other"},{"name":"엘지냉동전자","tel":"","addr":"경기도 양평군 개군면 상자포리 316-13번지","indutype":"수리서비스 - 가정용품수리","category":"other"}]},{"lat":"37.424894567","long":"127.53911551","imageIndex":17,"items":[{"name":"형제부동산컨설팅","tel":"031-772-0933","addr":"경기도 양평군 개군면 상자포리 402-1번지","indutype":"회원제형태 - 기타4","category":"other"}]},{"lat":"37.415869859","long":"127.538396","imageIndex":7,"items":[{"name":"농업회사법인 건강한사람들 주식회사","tel":"031-775-4478","addr":"경기도 양평군 개군면 상자포리 275-5번지","indutype":"음료식품 - 농·축·수산품","category":"food"}]},{"lat":"37.413258173","long":"127.54011693","imageIndex":7,"items":[{"name":"도형푸드","tel":"031-764-4404","addr":"경기도 양평군 개군면 상자포리 237번지","indutype":"음료식품 - 기타음료식품","category":"food"}]},{"lat":"37.423003801","long":"127.54080789","imageIndex":7,"items":[{"name":"백운수산","tel":"","addr":"경기도 양평군 개군면 상자포리 386번지","indutype":"음료식품 - 농·축·수산품","category":"food"},{"name":"송림수산","tel":"031-773-5965","addr":"경기도 양평군 개군면 상자포리 386번지","indutype":"음료식품 - 농·축·수산품","category":"food"}]},{"lat":"37.417059225","long":"127.54037","imageIndex":4,"items":[{"name":"따윙","tel":"031-775-1250","addr":"경기도 양평군 개군면 상자포리 296-1번지","indutype":"일반휴게음식 - 중국식","category":"restaurant"}]},{"lat":"37.423203467","long":"127.5385047","imageIndex":4,"items":[{"name":"비바치킨개군점","tel":"031-772-4452","addr":"경기도 양평군 개군면 상자포리 412-7번지","indutype":"일반휴게음식 - 스넥","category":"restaurant"}]},{"lat":"37.424894567","long":"127.53911551","imageIndex":4,"items":[{"name":"휘모리","tel":"031-775-3998","addr":"경기도 양평군 개군면 상자포리 402-1","indutype":"일반휴게음식 - 일반한식","category":"restaurant"}]},{"lat":"37.424004865","long":"127.53861209","imageIndex":13,"items":[{"name":"비상노래연습장","tel":"031-772-4119","addr":"경기도 양평군 개군면 상자포리 404-12번지","indutype":"레저업소 - 노 래 방","category":"leisure"}]},{"lat":"37.422732477","long":"127.54300887","imageIndex":16,"items":[{"name":"영신어린이집[아이행복]","tel":"031-775-2994","addr":"경기도 양평군 개군면 상자포리 85번지","indutype":"학원 - 유아원","category":"study"}]}]