[{"lat":"37.482623507","long":"126.77793432","imageIndex":5,"items":[{"name":"경인","tel":"032-651-4001","addr":"경기도 부천시 심곡본동 591-10번지","indutype":"숙박업 - 여관/기타숙박업","category":"hotel"}]},{"lat":"37.482737893","long":"126.77649809","imageIndex":5,"items":[{"name":"광명여관","tel":"032-655-5431","addr":"경기도 부천시 심곡본동 593-15번지","indutype":"숙박업 - 여관/기타숙박업","category":"hotel"}]},{"lat":"37.483266857","long":"126.78468223","imageIndex":5,"items":[{"name":"둥지여관","tel":"032-663-3085","addr":"경기도 부천시 심곡본동 553-20번지","indutype":"숙박업 - 여관/기타숙박업","category":"hotel"}]},{"lat":"37.483064625","long":"126.77774079","imageIndex":5,"items":[{"name":"로망스여관","tel":"032-612-3135","addr":"경기도 부천시 심곡본동 590-3번지","indutype":"숙박업 - 여관/기타숙박업","category":"hotel"}]},{"lat":"37.482957561","long":"126.77829512","imageIndex":5,"items":[{"name":"리젠시","tel":"070-7862-1510","addr":"경기도 부천시 심곡본동 666-1번지","indutype":"숙박업 - 여관/기타숙박업","category":"hotel"}]},{"lat":"37.482735162","long":"126.77979951","imageIndex":5,"items":[{"name":"모아장","tel":"032-663-3321","addr":"경기도 부천시 심곡본동 669번지","indutype":"숙박업 - 여관/기타숙박업","category":"hotel"}]},{"lat":"37.483320101","long":"126.78424113","imageIndex":5,"items":[{"name":"목화장여관","tel":"032-661-0353","addr":"경기도 부천시 심곡본동 553-8번지","indutype":"숙박업 - 여관/기타숙박업","category":"hotel"}]},{"lat":"37.482401866","long":"126.78466213","imageIndex":5,"items":[{"name":"부흥장","tel":"032-664-3944","addr":"경기도 부천시 심곡본동 746-1번지","indutype":"숙박업 - 여관/기타숙박업","category":"hotel"}]},{"lat":"37.48262546","long":"126.78376829","imageIndex":5,"items":[{"name":"산장여관","tel":"","addr":"경기도 부천시 심곡본동 738-18번지","indutype":"숙박업 - 여관/기타숙박업","category":"hotel"}]},{"lat":"37.482179739","long":"126.78149707","imageIndex":5,"items":[{"name":"신신모텔","tel":"032-651-6342","addr":"경기도 부천시 심곡본동 677-5번지","indutype":"숙박업 - 여관/기타숙박업","category":"hotel"}]},{"lat":"37.483204692","long":"126.77560349","imageIndex":5,"items":[{"name":"엠여관","tel":"032-613-3169","addr":"경기도 부천시 심곡본동 561-5번지","indutype":"숙박업 - 여관/기타숙박업","category":"hotel"}]},{"lat":"37.483203952","long":"126.77521908","imageIndex":5,"items":[{"name":"오성장여관","tel":"032-612-5533","addr":"경기도 부천시 심곡본동 560-6번지","indutype":"숙박업 - 여관/기타숙박업","category":"hotel"}]},{"lat":"37.479571258","long":"126.77905143","imageIndex":5,"items":[{"name":"이화","tel":"032-662-5167","addr":"경기도 부천시 심곡본동 649-5","indutype":"숙박업 - 여관/기타숙박업","category":"hotel"}]},{"lat":"37.482509659","long":"126.7796645","imageIndex":5,"items":[{"name":"장미여인숙","tel":"032-656-8935","addr":"경기도 부천시 심곡본동 669-14번지","indutype":"숙박업 - 여관/기타숙박업","category":"hotel"}]},{"lat":"37.483036906","long":"126.77737908","imageIndex":5,"items":[{"name":"초콜릿모텔","tel":"070-4952-9370","addr":"경기도 부천시 심곡본동 589-9번지","indutype":"숙박업 - 여관/기타숙박업","category":"hotel"}]},{"lat":"37.483375945","long":"126.77563689","imageIndex":5,"items":[{"name":"카라","tel":"032-665-8301","addr":"경기도 부천시 심곡본동 561-2번지","indutype":"숙박업 - 여관/기타숙박업","category":"hotel"}]},{"lat":"37.482239687","long":"126.7846626","imageIndex":5,"items":[{"name":"카프리","tel":"032-679-0063","addr":"경기도 부천시 심곡본동 746-2번지","indutype":"숙박업 - 여관/기타숙박업","category":"hotel"}]},{"lat":"37.482564444","long":"126.78004875","imageIndex":5,"items":[{"name":"코펜하겐모텔","tel":"032-664-5025","addr":"경기도 부천시 심곡본동 669-6번지","indutype":"숙박업 - 여관/기타숙박업","category":"hotel"}]},{"lat":"37.483318361","long":"126.78330271","imageIndex":5,"items":[{"name":"태평여관","tel":"032-657-4782","addr":"경기도 부천시 심곡본동 551-2번지","indutype":"숙박업 - 여관/기타숙박업","category":"hotel"}]},{"lat":"37.482901714","long":"126.77735687","imageIndex":5,"items":[{"name":"헤라모텔","tel":"032-664-2213","addr":"경기도 부천시 심곡본동 589-10번지","indutype":"숙박업 - 여관/기타숙박업","category":"hotel"}]},{"lat":"37.482902296","long":"126.77766214","imageIndex":5,"items":[{"name":"화초장여관","tel":"032-611-3609","addr":"경기도 부천시 심곡본동 590-5번지","indutype":"숙박업 - 여관/기타숙박업","category":"hotel"}]},{"lat":"37.483294262","long":"126.78488566","imageIndex":5,"items":[{"name":"황금","tel":"032-517-9777","addr":"경기도 부천시 심곡본동 553-23번지","indutype":"숙박업 - 여관/기타숙박업","category":"hotel"},{"name":"황금장여관","tel":"032-664-8537","addr":"경기도 부천시 심곡본동 553-23번지","indutype":"숙박업 - 여관/기타숙박업","category":"hotel"}]}]