[{"lat":"37.564980437","long":"127.19884103","imageIndex":4,"items":[{"name":"(주)송추가마골 하남미사지점","tel":"031-794-9566","addr":"경기도 하남시 망월동 1149","indutype":"일반휴게음식 - 일반한식","category":"restaurant"}]},{"lat":"37.572285268","long":"127.19464924","imageIndex":4,"items":[{"name":"(주)아워홈 산은아카데미하남점","tel":"02-6966-9040","addr":"경기도 하남시 망월동 290-1번지 1층","indutype":"일반휴게음식 - 위탁급식업","category":"restaurant"}]},{"lat":"37.571203052","long":"127.1838929","imageIndex":4,"items":[{"name":"(주)애플디아이하남","tel":"031-791-9532","addr":"경기도 하남시 망월동 508-6 A8BL","indutype":"일반휴게음식 - 일반한식","category":"restaurant"},{"name":"주식회사애플디아이하남","tel":"031-791-9532","addr":"경기도 하남시 망월동 508-6 A-8BL 1층","indutype":"일반휴게음식 - 일반한식","category":"restaurant"}]},{"lat":"37.566258647","long":"127.18841977","imageIndex":4,"items":[{"name":"(주)얌샘김밥 하남 미사 중앙점","tel":"031-793-3357","addr":"경기도 하남시 망월동 1077-1번지 센트럴파크2 107호","indutype":"일반휴게음식 - 일반한식","category":"restaurant"},{"name":"교동짬뽕","tel":"031-791-5004","addr":"경기도 하남시 망월동 1077-1번지 센트럴파크2 201,202호","indutype":"일반휴게음식 - 중국식","category":"restaurant"},{"name":"두찜 하남미사점","tel":"031-794-3848","addr":"경기도 하남시 망월동 1077-1번지 센트럴파크 205호","indutype":"일반휴게음식 - 일반한식","category":"restaurant"},{"name":"맥쓰 (MEXX)세계치킨 미사강변도시점","tel":"031-793-0084","addr":"경기도 하남시 망월동 1077-1번지 센트럴파크2 114호","indutype":"일반휴게음식 - 스넥","category":"restaurant"},{"name":"명륜진사갈비 하남미사점","tel":"031-724-2005","addr":"경기도 하남시 망월동 1077-1번지 2층 207호,208호","indutype":"일반휴게음식 - 일반한식","category":"restaurant"},{"name":"미스사이공 미사강변점","tel":"031-795-0422","addr":"경기도 하남시 망월동 1077-1번지 센트럴파크2 101호","indutype":"일반휴게음식 - 서양음식","category":"restaurant"},{"name":"바오밥 미사호수공원점","tel":"031-794-3665","addr":"경기도 하남시 망월동 1077-1번지 센트럴파크2 1층 110,111호","indutype":"일반휴게음식 - 서양음식","category":"restaurant"},{"name":"베니스스타","tel":"031-795-0046","addr":"경기도 하남시 망월동 1077-1번지 센트럴파크2 2층 205-208호","indutype":"일반휴게음식 - 서양음식","category":"restaurant"},{"name":"이디야커피 하남미사중앙점","tel":"031-793-7184","addr":"경기도 하남시 망월동 1077-1번지 센트럴파크2 1층 104,105호","indutype":"일반휴게음식 - 서양음식","category":"restaurant"},{"name":"족발예찬","tel":"031-792-2344","addr":"경기도 하남시 망월동 1077-1번지 센트럴파크2 1층 109호","indutype":"일반휴게음식 - 일반한식","category":"restaurant"},{"name":"추닭집하남미사점","tel":"031-793-7185","addr":"경기도 하남시 망월동 1077-1번지","indutype":"일반휴게음식 - 일반한식","category":"restaurant"}]},{"lat":"37.569122525","long":"127.19483356","imageIndex":4,"items":[{"name":"(주)이비가푸드이비가짬뽕하남본점","tel":"031-793-7485","addr":"경기도 하남시 망월동 927번지 한강타워 2층 201호,202호,203호","indutype":"일반휴게음식 - 중국식","category":"restaurant"},{"name":"한국피자헛 하남미사점","tel":"031-796-5515","addr":"경기도 하남시 망월동 927번지 한강타워 114호,115호","indutype":"일반휴게음식 - 서양음식","category":"restaurant"},{"name":"호천당 미사점","tel":"031-795-5585","addr":"경기도 하남시 망월동 927번지 한강타워 112호,113호","indutype":"일반휴게음식 - 일반한식","category":"restaurant"}]},{"lat":"37.56151188","long":"127.19319555","imageIndex":4,"items":[{"name":"153e참치","tel":"031-795-9102","addr":"경기도 하남시 망월동 1117번지 미사강변노블레스 3층 322호","indutype":"일반휴게음식 - 일식·회집","category":"restaurant"},{"name":"FROMMINA (프롬미나)","tel":"050-5306-1472","addr":"경기도 하남시 망월동 1117번지 미사강변노블레스 104호,105호","indutype":"일반휴게음식 - 서양음식","category":"restaurant"},{"name":"미사강변호프치킨","tel":"031-792-7783","addr":"경기도 하남시 망월동 1117번지 2층 221,222호","indutype":"일반휴게음식 - 주점","category":"restaurant"},{"name":"수라상","tel":"031-793-6343","addr":"경기도 하남시 망월동 1117번지 미사강변노블레스 2층 208호","indutype":"일반휴게음식 - 일반한식","category":"restaurant"},{"name":"올레 김밥","tel":"031-000-0000","addr":"경기도 하남시 망월동 1117번지 미사강변노블레스 103호","indutype":"일반휴게음식 - 일반한식","category":"restaurant"},{"name":"졸리","tel":"","addr":"경기도 하남시 망월동 1117번지 미사강변노블레스 1층 119호","indutype":"일반휴게음식 - 서양음식","category":"restaurant"},{"name":"주식회사 큐브스튜디오","tel":"031-795-3580","addr":"경기도 하남시 망월동 1117번지 12층","indutype":"일반휴게음식 - 일반한식","category":"restaurant"},{"name":"하남 동태탕","tel":"031-0000-0004","addr":"경기도 하남시 망월동 1117번지 미사강변노블레스 2층 201,222호","indutype":"일반휴게음식 - 일반한식","category":"restaurant"}]},{"lat":"37.568813475","long":"127.1851775","imageIndex":4,"items":[{"name":"1950할매손집밥","tel":"031-791-7676","addr":"경기도 하남시 망월동 976-2번지 디럭스프라자1 205호","indutype":"일반휴게음식 - 일반한식","category":"restaurant"},{"name":"Bee BAR (비바)","tel":"070-4210-5061","addr":"경기도 하남시 망월동 976-2번지 디럭스프라자1, 2층 201호","indutype":"일반휴게음식 - 일반한식","category":"restaurant"},{"name":"마카홍","tel":"","addr":"경기도 하남시 망월동 976-2번지 디럭스프라자1 2층 203호","indutype":"일반휴게음식 - 주점","category":"restaurant"},{"name":"메가커피 하남미사점","tel":"031-793-6611","addr":"경기도 하남시 망월동 976-2번지 디럭스프라자1 111호","indutype":"일반휴게음식 - 서양음식","category":"restaurant"},{"name":"미사소곱창","tel":"031-795-9280","addr":"경기도 하남시 망월동 976-2번지 디럭스프라자1 103호","indutype":"일반휴게음식 - 일반한식","category":"restaurant"},{"name":"최선장생선구이","tel":"031-791-6007","addr":"경기도 하남시 망월동 976-2번지 디럭스프라자1 106,107호","indutype":"일반휴게음식 - 일반한식","category":"restaurant"}]},{"lat":"37.569421981","long":"127.18200959","imageIndex":4,"items":[{"name":"1977방서방 코다리한상","tel":"031-795-7995","addr":"경기도 하남시 망월동 1022-8번지 101호","indutype":"일반휴게음식 - 일반한식","category":"restaurant"}]},{"lat":"37.566645408","long":"127.18883953","imageIndex":4,"items":[{"name":"24시 히메노라멘 미사점","tel":"","addr":"경기도 하남시 망월동 1079번지 우성르보아파크 122호","indutype":"일반휴게음식 - 일식·회집","category":"restaurant"},{"name":"김가네(미사중앙점)","tel":"031-795-5355","addr":"경기도 하남시 망월동 1079번지 우성르보아파크 1층 124호","indutype":"일반휴게음식 - 스넥","category":"restaurant"},{"name":"네모오징어 미사강변점","tel":"031-793-5245","addr":"경기도 하남시 망월동 1079번지 우성르보아파크 127,128호","indutype":"일반휴게음식 - 일반한식","category":"restaurant"},{"name":"라무진","tel":"031-795-9092","addr":"경기도 하남시 망월동 1079번지 우성르부아파크 2층 207호","indutype":"일반휴게음식 - 일반한식","category":"restaurant"},{"name":"말뚝곱창","tel":"","addr":"경기도 하남시 망월동 1079번지 우성르보아파크 1층 121호","indutype":"일반휴게음식 - 일반한식","category":"restaurant"},{"name":"블랙앤쿡(BLACK&COOK)미사점","tel":"031-529-9875","addr":"경기도 하남시 망월동 1079번지 우성르보아파크 1층 131호","indutype":"일반휴게음식 - 일반한식","category":"restaurant"},{"name":"오늘밤 노가리","tel":"031-791-0538","addr":"경기도 하남시 망월동 1079번지 우성르보아파크 123호","indutype":"일반휴게음식 - 일반한식","category":"restaurant"},{"name":"오징어시대","tel":"031-795-3647","addr":"경기도 하남시 망월동 1079번지 우성르보아파크 125호,126호","indutype":"일반휴게음식 - 일반한식","category":"restaurant"},{"name":"이바돔감자탕 하남미사점","tel":"031-791-2252","addr":"경기도 하남시 망월동 1079번지 우성르보아파크 201-1,201,202,203,204호","indutype":"일반휴게음식 - 일반한식","category":"restaurant"},{"name":"주인의 주방","tel":"031-792-0874","addr":"경기도 하남시 망월동 1079번지 우성르보아파크 1층 120호","indutype":"일반휴게음식 - 일식·회집","category":"restaurant"},{"name":"짚신매운갈비찜 미사강변점","tel":"031-796-9233","addr":"경기도 하남시 망월동 1079번지 우성르보아파크 1층 102,103호","indutype":"일반휴게음식 - 일반한식","category":"restaurant"},{"name":"파주 닭국수 하남미사점","tel":"031-796-1311","addr":"경기도 하남시 망월동 1079번지 우성르보아파크 130호","indutype":"일반휴게음식 - 일반한식","category":"restaurant"},{"name":"하나샤브샤브 미사리점","tel":"031-796-6877","addr":"경기도 하남시 망월동 1079번지 미사우성르보아파크 211호","indutype":"일반휴게음식 - 일반한식","category":"restaurant"},{"name":"홍콩반점 미사강변중앙점","tel":"031-795-0410","addr":"경기도 하남시 망월동 1079번지 미사우성르보아파크 214호","indutype":"일반휴게음식 - 중국식","category":"restaurant"},{"name":"회식가","tel":"031-791-1833","addr":"경기도 하남시 망월동 1079번지 우성르보아파크 1층 101호","indutype":"일반휴게음식 - 일식·회집","category":"restaurant"}]},{"lat":"37.566121483","long":"127.18969845","imageIndex":4,"items":[{"name":"3POP카페","tel":"","addr":"경기도 하남시 망월동 1079-2번지 성산타워 4층 406호","indutype":"일반휴게음식 - 서양음식","category":"restaurant"},{"name":"땅땅치킨 미사점","tel":"031-792-9215","addr":"경기도 하남시 망월동 1079-2번지 성산타워 1층 104호","indutype":"일반휴게음식 - 스넥","category":"restaurant"},{"name":"램프리","tel":"031-792-6602","addr":"경기도 하남시 망월동 1079-2번지 성산타워 3층 305호","indutype":"일반휴게음식 - 일반한식","category":"restaurant"},{"name":"롯데리아 미사역점","tel":"","addr":"경기도 하남시 망월동 1079-2번지 성산타워 111,112,205호","indutype":"일반휴게음식 - 서양음식","category":"restaurant"},{"name":"막창자부심 하남미사점","tel":"031-0000-0000","addr":"경기도 하남시 망월동 1079-2번지 성산타워 110호","indutype":"일반휴게음식 - 일반한식","category":"restaurant"},{"name":"메가박스하남미사강변호랑이굴매점","tel":"031-795-2206","addr":"경기도 하남시 망월동 1079-2번지 성산타워 4층","indutype":"일반휴게음식 - 일반한식","category":"restaurant"},{"name":"미스터깐풍 미사점","tel":"031-795-6705","addr":"경기도 하남시 망월동 1079-2번지 성산타워 102호","indutype":"일반휴게음식 - 주점","category":"restaurant"},{"name":"보울룸","tel":"031-000-0000","addr":"경기도 하남시 망월동 1079-2번지 성산타워 118호","indutype":"일반휴게음식 - 서양음식","category":"restaurant"},{"name":"생활맥주(미사수변공원점)","tel":"031-791-9806","addr":"경기도 하남시 망월동 1079-2번지 성산타워 117호","indutype":"일반휴게음식 - 주점","category":"restaurant"},{"name":"소담촌 하남미사점","tel":"031-794-2770","addr":"경기도 하남시 망월동 1079-2번지 성산타워 303,304호","indutype":"일반휴게음식 - 일반한식","category":"restaurant"},{"name":"송하정 참치","tel":"031-000-0000","addr":"경기도 하남시 망월동 1079-2번지 성산타워 1층 105호","indutype":"일반휴게음식 - 일반한식","category":"restaurant"},{"name":"신(  )발통","tel":"031-792-9253","addr":"경기도 하남시 망월동 1079-2번지 성산타워 1층 101호","indutype":"일반휴게음식 - 일반한식","category":"restaurant"},{"name":"오늘밤골뱅이","tel":"","addr":"경기도 하남시 망월동 1079-2번지 성산타워 1층 109호","indutype":"일반휴게음식 - 일반한식","category":"restaurant"},{"name":"유케야 미사점","tel":"","addr":"경기도 하남시 망월동 1079-2번지 성산타워 1층 106호","indutype":"일반휴게음식 - 일반한식","category":"restaurant"},{"name":"이심닭심","tel":"","addr":"경기도 하남시 망월동 1079-2번지 성산타워 1층 107호","indutype":"일반휴게음식 - 일반한식","category":"restaurant"},{"name":"주식회사 박씨네","tel":"031-242-9242","addr":"경기도 하남시 망월동 1079-2번지 4,5층","indutype":"일반휴게음식 - 일반한식","category":"restaurant"}]},{"lat":"37.570593476","long":"127.18186524","imageIndex":4,"items":[{"name":"60계 미사점","tel":"031-795-6082","addr":"경기도 하남시 망월동 1015-4번지 101호","indutype":"일반휴게음식 - 스넥","category":"restaurant"},{"name":"기호네 곱창 미사점","tel":"031-792-6287","addr":"경기도 하남시 망월동 1015-4번지 1층 102호","indutype":"일반휴게음식 - 일반한식","category":"restaurant"}]},{"lat":"37.562429305","long":"127.19417125","imageIndex":4,"items":[{"name":"6월","tel":"","addr":"경기도 하남시 망월동 1132번지 퀸즈파크미사1차 116호","indutype":"일반휴게음식 - 서양음식","category":"restaurant"},{"name":"여주한식부페","tel":"031-8028-8700","addr":"경기도 하남시 망월동 1132번지 2층 234호~237호","indutype":"일반휴게음식 - 일반한식","category":"restaurant"},{"name":"퀴즈노스","tel":"070-8716-5180","addr":"경기도 하남시 망월동 1132번지 퀸즈파크미사1차 1층 115호","indutype":"일반휴게음식 - 서양음식","category":"restaurant"}]},{"lat":"37.569789867","long":"127.18300657","imageIndex":4,"items":[{"name":"988 다이닝 펍","tel":"070-4142-1471","addr":"경기도 하남시 망월동 988-5번지 101호","indutype":"일반휴게음식 - 일반한식","category":"restaurant"},{"name":"미삼회관","tel":"031-795-9671","addr":"경기도 하남시 망월동 988-5번지 1층 102호","indutype":"일반휴게음식 - 일반한식","category":"restaurant"}]},{"lat":"37.570089887","long":"127.18123015","imageIndex":4,"items":[{"name":"Awesome","tel":"031-792-1018","addr":"경기도 하남시 망월동 1018번지","indutype":"일반휴게음식 - 서양음식","category":"restaurant"}]},{"lat":"37.568562021","long":"127.18464489","imageIndex":4,"items":[{"name":"BBQ하남미사점","tel":"031-795-9285","addr":"경기도 하남시 망월동 968-1번지 미사센트럴프라자 1층 120호","indutype":"일반휴게음식 - 스넥","category":"restaurant"},{"name":"boil(보일)","tel":"031-792-8055","addr":"경기도 하남시 망월동 968-1번지 미사센트럴프라자 1층 115호","indutype":"일반휴게음식 - 일반한식","category":"restaurant"},{"name":"강변미사점 첸첸","tel":"031-796-6796","addr":"경기도 하남시 망월동 968-1번지 208호,209호","indutype":"일반휴게음식 - 중국식","category":"restaurant"},{"name":"김가네 미사1호점","tel":"031-791-1203","addr":"경기도 하남시 망월동 968-1번지 미사센트럴프라자 1층 105호","indutype":"일반휴게음식 - 일반한식","category":"restaurant"},{"name":"꼬마마녀 매직슬라임 카페","tel":"031-1111-1111","addr":"경기도 하남시 망월동 968-1번지 미사센트럴프라자 407호","indutype":"일반휴게음식 - 서양음식","category":"restaurant"},{"name":"사골먹은 감자탕","tel":"031-796-1538","addr":"경기도 하남시 망월동 968-1번지 미사센트럴프라자 1층 117호","indutype":"일반휴게음식 - 일반한식","category":"restaurant"},{"name":"스시노백쉐프 하남미사점","tel":"031-796-5801","addr":"경기도 하남시 망월동 968-1번지 미사센트럴프라자 201호","indutype":"일반휴게음식 - 일반한식","category":"restaurant"},{"name":"신의주 순대와 쭈꾸미","tel":"031-792-5077","addr":"경기도 하남시 망월동 968-1번지 미사센트럴프라자 210호","indutype":"일반휴게음식 - 일반한식","category":"restaurant"},{"name":"인포레(Infore)","tel":"","addr":"경기도 하남시 망월동 968-1번지 미사센트럴프라자 1층 116호","indutype":"일반휴게음식 - 서양음식","category":"restaurant"},{"name":"전주콩각시콩나물국밥","tel":"031-794-2438","addr":"경기도 하남시 망월동 968-1번지 122, 123호","indutype":"일반휴게음식 - 일반한식","category":"restaurant"},{"name":"파파존스미사점","tel":"031-791-8081","addr":"경기도 하남시 망월동 968-1번지 미사센트럴프라자 207호","indutype":"일반휴게음식 - 서양음식","category":"restaurant"}]},{"lat":"37.569810755","long":"127.18111629","imageIndex":4,"items":[{"name":"BY THE CREEK(바이 더 크릭)","tel":"031-794-1942","addr":"경기도 하남시 망월동 1022-2번지 1층","indutype":"일반휴게음식 - 일반한식","category":"restaurant"}]},{"lat":"37.569285578","long":"127.18283557","imageIndex":4,"items":[{"name":"Claire fleur (끌레르플루)","tel":"031-000-0000","addr":"경기도 하남시 망월동 1004-2번지 1층 101호","indutype":"일반휴게음식 - 서양음식","category":"restaurant"},{"name":"요거스토리","tel":"","addr":"경기도 하남시 망월동 1004-2번지 1층 101호","indutype":"일반휴게음식 - 서양음식","category":"restaurant"}]},{"lat":"37.568095128","long":"127.18359108","imageIndex":4,"items":[{"name":"Individual(인디비주얼)","tel":"031-795-3504","addr":"경기도 하남시 망월동 1000-4번지 1층","indutype":"일반휴게음식 - 서양음식","category":"restaurant"}]},{"lat":"37.560984199","long":"127.19076084","imageIndex":4,"items":[{"name":"KIM'S KITCHEN","tel":"031-796-8683","addr":"경기도 하남시 망월동 1104-1번지 미사파크뷰 118호","indutype":"일반휴게음식 - 서양음식","category":"restaurant"},{"name":"동방푸드","tel":"","addr":"경기도 하남시 망월동 1104-1번지 동양파라곤 현장식당","indutype":"일반휴게음식 - 일반한식","category":"restaurant"},{"name":"땡기네곱창","tel":"031-793-3647","addr":"경기도 하남시 망월동 1104-1번지 미사파크뷰 116호","indutype":"일반휴게음식 - 일반한식","category":"restaurant"},{"name":"레드175 미사지구","tel":"031-793-1750","addr":"경기도 하남시 망월동 1104-1번지 미사파크뷰 102호","indutype":"일반휴게음식 - 스넥","category":"restaurant"},{"name":"비에치씨 미사역점","tel":"031-794-9233","addr":"경기도 하남시 망월동 1104-1번지 파크뷰프라자 1층 1호 120호","indutype":"일반휴게음식 - 스넥","category":"restaurant"},{"name":"이디야 미사수변공원점","tel":"031-794-4442","addr":"경기도 하남시 망월동 1104-1번지 미사파크뷰 106호","indutype":"일반휴게음식 - 서양음식","category":"restaurant"},{"name":"치킨플러스 하남미사점","tel":"","addr":"경기도 하남시 망월동 1104-1번지 미사파크뷰 1층 111호","indutype":"일반휴게음식 - 스넥","category":"restaurant"},{"name":"황금덕장","tel":"031-791-7234","addr":"경기도 하남시 망월동 1104-1번지 201,202호","indutype":"일반휴게음식 - 일반한식","category":"restaurant"}]},{"lat":"37.566149478","long":"127.18908731","imageIndex":4,"items":[{"name":"LP그루브","tel":"031-796-0129","addr":"경기도 하남시 망월동 1079-1번지 우성미사타워 7층 703호","indutype":"일반휴게음식 - 서양음식","category":"restaurant"},{"name":"교동전선생","tel":"031-796-6333","addr":"경기도 하남시 망월동 1079-1번지 우성미사타워 1층 114호","indutype":"일반휴게음식 - 일반한식","category":"restaurant"},{"name":"꽃길오뎅","tel":"","addr":"경기도 하남시 망월동 1079-1번지 우성미사타워 110호","indutype":"일반휴게음식 - 일식·회집","category":"restaurant"},{"name":"늘푸른목장","tel":"031-793-1070","addr":"경기도 하남시 망월동 1079-1번지 우성미사타워 116,117,118호","indutype":"일반휴게음식 - 일반한식","category":"restaurant"},{"name":"돌리고제주도야지","tel":"031-795-5588","addr":"경기도 하남시 망월동 1079-1번지 우성미사타워 1층 101호","indutype":"일반휴게음식 - 일반한식","category":"restaurant"},{"name":"마부마라탕 마라샹궈","tel":"031-792-7284","addr":"경기도 하남시 망월동 1079-1번지 우성미사타워 2층 205-1호","indutype":"일반휴게음식 - 중국식","category":"restaurant"},{"name":"맛닭꼬","tel":"031-792-5592","addr":"경기도 하남시 망월동 1079-1번지 우성미사타워 1층 107호","indutype":"일반휴게음식 - 스넥","category":"restaurant"},{"name":"메고지고","tel":"031-111-1111","addr":"경기도 하남시 망월동 1079-1번지 우성미사타워 111호","indutype":"일반휴게음식 - 서양음식","category":"restaurant"},{"name":"미아리우동","tel":"031-795-0911","addr":"경기도 하남시 망월동 1079-1번지 우성미사타워 105호","indutype":"일반휴게음식 - 일반한식","category":"restaurant"},{"name":"샤우칭","tel":"031-794-6687","addr":"경기도 하남시 망월동 1079-1번지 우성미사타워 2층 206-1,206-2,207호","indutype":"일반휴게음식 - 중국식","category":"restaurant"},{"name":"스푼더마켓 하남미사점","tel":"031-795-4540","addr":"경기도 하남시 망월동 1079-1번지 우성미사타워 1103동 1108호","indutype":"일반휴게음식 - 일반한식","category":"restaurant"},{"name":"신의주찹쌀순대","tel":"031-795-9344","addr":"경기도 하남시 망월동 1079-1번지 우성미사타워 106호","indutype":"일반휴게음식 - 일반한식","category":"restaurant"},{"name":"오아시스(OASIS)","tel":"","addr":"경기도 하남시 망월동 1079-1번지 우성미사타워 103호","indutype":"일반휴게음식 - 서양음식","category":"restaurant"},{"name":"이도비어 미사점","tel":"031-796-7477","addr":"경기도 하남시 망월동 1079-1번지 우성미사타워 115호","indutype":"일반휴게음식 - 주점","category":"restaurant"},{"name":"이진항","tel":"","addr":"경기도 하남시 망월동 1079-1번지 우성미사타워 2층 204-1호","indutype":"일반휴게음식 - 일반한식","category":"restaurant"},{"name":"주식회사 돈화지","tel":"031-793-3492","addr":"경기도 하남시 망월동 1079-1번지 우성미사타워 203호","indutype":"일반휴게음식 - 일반한식","category":"restaurant"},{"name":"황소곱창and수라면가","tel":"031-792-1933","addr":"경기도 하남시 망월동 1079-1번지 우성미사타워 2층 202호","indutype":"일반휴게음식 - 일반한식","category":"restaurant"}]},{"lat":"37.575339574","long":"127.18903095","imageIndex":4,"items":[{"name":"M BEER(엠 비어)","tel":"031-792-0043","addr":"경기도 하남시 망월동 843번지","indutype":"일반휴게음식 - 주점","category":"restaurant"},{"name":"어쏨","tel":"031-795-3395","addr":"경기도 하남시 망월동 843번지","indutype":"일반휴게음식 - 일반한식","category":"restaurant"}]},{"lat":"37.575149833","long":"127.18937008","imageIndex":4,"items":[{"name":"MR.촌돼지","tel":"031-793-1202","addr":"경기도 하남시 망월동 843-17번지 1층 101호","indutype":"일반휴게음식 - 일반한식","category":"restaurant"}]},{"lat":"37.568897812","long":"127.18306102","imageIndex":4,"items":[{"name":"RICCO (리꼬)","tel":"031-000-0000","addr":"경기도 하남시 망월동 1002-6번지 1층","indutype":"일반휴게음식 - 서양음식","category":"restaurant"}]},{"lat":"37.569674306","long":"127.18197624","imageIndex":4,"items":[{"name":"The Nest (더 네스트)","tel":"031-792-0703","addr":"경기도 하남시 망월동 1020-5번지 1층","indutype":"일반휴게음식 - 서양음식","category":"restaurant"},{"name":"전곱 하남미사점","tel":"031-754-8542","addr":"경기도 하남시 망월동 1020-5번지 1층","indutype":"일반휴게음식 - 일반한식","category":"restaurant"}]},{"lat":"37.569928002","long":"127.18103734","imageIndex":4,"items":[{"name":"WHITE HAVEN COFFEE(화이트 헤이븐 커피)","tel":"070-4120-5597","addr":"경기도 하남시 망월동 1022-1번지 1층","indutype":"일반휴게음식 - 서양음식","category":"restaurant"}]},{"lat":"37.576200233","long":"127.19172732","imageIndex":4,"items":[{"name":"cafe 열매 맺은 무화과나무","tel":"031-528-6263","addr":"경기도 하남시 망월동 855-4번지 1층","indutype":"일반휴게음식 - 서양음식","category":"restaurant"}]},{"lat":"37.569232257","long":"127.19383775","imageIndex":4,"items":[{"name":"ch공감","tel":"031-792-7863","addr":"경기도 하남시 망월동 924-4번지 101호","indutype":"일반휴게음식 - 서양음식","category":"restaurant"}]},{"lat":"37.56195407","long":"127.19275526","imageIndex":4,"items":[{"name":"crabber 대게나라","tel":"031-8027-6789","addr":"경기도 하남시 망월동 1116-1번지 미사역타워 201동 203호","indutype":"일반휴게음식 - 일반한식","category":"restaurant"},{"name":"명동찌개마을","tel":"031-791-2722","addr":"경기도 하남시 망월동 1116-1번지 미사역타워 206호","indutype":"일반휴게음식 - 일반한식","category":"restaurant"},{"name":"배고을산골순대국 미사역점","tel":"031-791-1329","addr":"경기도 하남시 망월동 1116-1번지 미사역타워 2층 207호","indutype":"일반휴게음식 - 일반한식","category":"restaurant"},{"name":"초려","tel":"","addr":"경기도 하남시 망월동 1116-1번지 미사역타워 2층 204호","indutype":"일반휴게음식 - 중국식","category":"restaurant"}]},{"lat":"37.563625988","long":"127.1895564","imageIndex":4,"items":[{"name":"for a day(포러데이)","tel":"031-796-1048","addr":"경기도 하남시 망월동 1098번지 에코브리지 1동 1층 112호","indutype":"일반휴게음식 - 일반한식","category":"restaurant"},{"name":"맛나푸드","tel":"031-9584-4888","addr":"경기도 하남시 망월동 1098번지 3층 309,310,311호","indutype":"일반휴게음식 - 일반한식","category":"restaurant"},{"name":"모던라멘","tel":"031-794-9528","addr":"경기도 하남시 망월동 1098번지 에코브리지 2층 211호","indutype":"일반휴게음식 - 서양음식","category":"restaurant"},{"name":"미미곱창","tel":"","addr":"경기도 하남시 망월동 1098번지 에코브리지 1층 120,121호","indutype":"일반휴게음식 - 일반한식","category":"restaurant"},{"name":"어빌리지커피","tel":"031-643-8782","addr":"경기도 하남시 망월동 1098번지 에코브리지 1층 114호","indutype":"일반휴게음식 - 서양음식","category":"restaurant"},{"name":"오리지널시카고피자 미사강변점","tel":"031-792-5935","addr":"경기도 하남시 망월동 1098번지 에코브리지 2층 208호","indutype":"일반휴게음식 - 서양음식","category":"restaurant"},{"name":"오후다섯시","tel":"070-4159-1234","addr":"경기도 하남시 망월동 1098번지 에코브리지 1층 119호","indutype":"일반휴게음식 - 서양음식","category":"restaurant"},{"name":"원할머니보쌈 미사 강변배달점","tel":"031-791-4445","addr":"경기도 하남시 망월동 1098번지 에코브리지 1층 103호","indutype":"일반휴게음식 - 일반한식","category":"restaurant"}]},{"lat":"37.564895001","long":"127.19601116","imageIndex":4,"items":[{"name":"가마치통닭 (하남미사역점)","tel":"031-699-8070","addr":"경기도 하남시 망월동 1127번지 미사강변호반써밋 1동 1층 195호","indutype":"일반휴게음식 - 스넥","category":"restaurant"},{"name":"일조수산","tel":"031-792-4052","addr":"경기도 하남시 망월동 1127번지 1층 1-168호","indutype":"일반휴게음식 - 일식·회집","category":"restaurant"}]},{"lat":"37.559785598","long":"127.18520078","imageIndex":4,"items":[{"name":"가마치통닭 하남고점","tel":"031-794-0759","addr":"경기도 하남시 망월동 1066-1번지 광장프라자 105호","indutype":"일반휴게음식 - 스넥","category":"restaurant"}]},{"lat":"37.570538265","long":"127.18262351","imageIndex":4,"items":[{"name":"가장맛있는족발","tel":"031-791-5844","addr":"경기도 하남시 망월동 988번지 1층","indutype":"일반휴게음식 - 일반한식","category":"restaurant"},{"name":"풍년 가정식 백반","tel":"","addr":"경기도 하남시 망월동 988번지 1층","indutype":"일반휴게음식 - 일반한식","category":"restaurant"}]},{"lat":"37.562396984","long":"127.19186225","imageIndex":4,"items":[{"name":"감성커피 미사역점","tel":"031-792-9724","addr":"경기도 하남시 망월동 1106번지 힐스테이트에코미사 137호","indutype":"일반휴게음식 - 서양음식","category":"restaurant"},{"name":"그리드채플린 미사점","tel":"031-000-0000","addr":"경기도 하남시 망월동 1106번지 311,312호","indutype":"일반휴게음식 - 서양음식","category":"restaurant"},{"name":"민아네 한상","tel":"031-791-0287","addr":"경기도 하남시 망월동 1106번지 힐스테이트 에코 미사 135,136호","indutype":"일반휴게음식 - 일반한식","category":"restaurant"},{"name":"참치야","tel":"031-793-8258","addr":"경기도 하남시 망월동 1106번지 힐스테이트에코미사 1층 124호","indutype":"일반휴게음식 - 일식·회집","category":"restaurant"}]},{"lat":"37.562011855","long":"127.19042387","imageIndex":4,"items":[{"name":"강변 최부자국밥","tel":"031-793-7884","addr":"경기도 하남시 망월동 1102번지 미사리버에비뉴 2층 202호","indutype":"일반휴게음식 - 일반한식","category":"restaurant"},{"name":"곤지암소머리국밥","tel":"","addr":"경기도 하남시 망월동 1102번지 미사리버에비뉴 206호","indutype":"일반휴게음식 - 일반한식","category":"restaurant"},{"name":"굿맘할매순대국&양선지해장국","tel":"031-791-0058","addr":"경기도 하남시 망월동 1102번지","indutype":"일반휴게음식 - 일반한식","category":"restaurant"},{"name":"귀한족발","tel":"031-795-5988","addr":"경기도 하남시 망월동 1102번지 미사리버에비뉴 1층 123호","indutype":"일반휴게음식 - 일반한식","category":"restaurant"},{"name":"까페망월천(cafe mangwolchun)","tel":"02-1111-1111","addr":"경기도 하남시 망월동 1102번지 미사리버에비뉴 1층 114호","indutype":"일반휴게음식 - 서양음식","category":"restaurant"},{"name":"밥먹는집 미사점","tel":"031-2794-3900","addr":"경기도 하남시 망월동 1102번지 미사리버에비뉴 2층 210호","indutype":"일반휴게음식 - 일반한식","category":"restaurant"},{"name":"브릴이언트","tel":"","addr":"경기도 하남시 망월동 1102번지","indutype":"일반휴게음식 - 서양음식","category":"restaurant"},{"name":"블랙(Black)","tel":"","addr":"경기도 하남시 망월동 1102번지 미사 리버에비뉴 1층 119-1,2호","indutype":"일반휴게음식 - 주점","category":"restaurant"},{"name":"요리사의 식탁","tel":"031-796-7906","addr":"경기도 하남시 망월동 1102번지 미사리버에비뉴 1층 120호","indutype":"일반휴게음식 - 서양음식","category":"restaurant"},{"name":"우등생(미사강변점)","tel":"031-791-5002","addr":"경기도 하남시 망월동 1102번지 116,117,118호","indutype":"일반휴게음식 - 일반한식","category":"restaurant"},{"name":"처갓집양념치킨 미사1점","tel":"","addr":"경기도 하남시 망월동 1102번지 미사리버에비뉴 1층 122호","indutype":"일반휴게음식 - 스넥","category":"restaurant"},{"name":"카페갤러리","tel":"031-794-9495","addr":"경기도 하남시 망월동 1102번지 1층 117,118호","indutype":"일반휴게음식 - 서양음식","category":"restaurant"},{"name":"프롬마이룸","tel":"031-795-4557","addr":"경기도 하남시 망월동 1102번지 미사리버에비뉴 121호","indutype":"일반휴게음식 - 서양음식","category":"restaurant"},{"name":"하남돼지집 미사역점","tel":"031-796-0706","addr":"경기도 하남시 망월동 1102번지 미사리버에비뉴 207호","indutype":"일반휴게음식 - 일반한식","category":"restaurant"}]},{"lat":"37.576178588","long":"127.19398","imageIndex":4,"items":[{"name":"강변손두부","tel":"031-791-6470","addr":"경기도 하남시 망월동 314-6","indutype":"일반휴게음식 - 일반한식","category":"restaurant"}]},{"lat":"37.564956125","long":"127.19164234","imageIndex":4,"items":[{"name":"강변자연한식부페","tel":"031-792-5225","addr":"경기도 하남시 망월동 1096-2번지 우성르보아리버 301호302호","indutype":"일반휴게음식 - 일반한식","category":"restaurant"},{"name":"공차 (미사강변점)","tel":"031-796-4422","addr":"경기도 하남시 망월동 1096-2번지 우성르보아리버 1층 112호","indutype":"일반휴게음식 - 서양음식","category":"restaurant"},{"name":"몽땅","tel":"031-795-7812","addr":"경기도 하남시 망월동 1096-2번지 우성르보아리버 1층 105호","indutype":"일반휴게음식 - 스넥","category":"restaurant"},{"name":"양꼬치랑 짜장면(영빈각)","tel":"031-795-1585","addr":"경기도 하남시 망월동 1096-2번지 2층 202-1호","indutype":"일반휴게음식 - 중국식","category":"restaurant"},{"name":"옥이네한중식뷔페","tel":"031-795-1585","addr":"경기도 하남시 망월동 1096-2번지 우성르보아리버 201호","indutype":"일반휴게음식 - 일반한식","category":"restaurant"}]},{"lat":"37.563483477","long":"127.19964072","imageIndex":4,"items":[{"name":"거궁 하남점","tel":"031-796-8123","addr":"경기도 하남시 망월동 1155번지 라파르코 4층 410-417호","indutype":"일반휴게음식 - 일반한식","category":"restaurant"},{"name":"다원","tel":"031-792-1576","addr":"경기도 하남시 망월동 1155번지 2층 218호,219호,220호","indutype":"일반휴게음식 - 일반한식","category":"restaurant"}]},{"lat":"37.56070486","long":"127.19078277","imageIndex":4,"items":[{"name":"건강한밥상","tel":"031-795-8813","addr":"경기도 하남시 망월동 1104-2번지 2층 201-1호망월동","indutype":"일반휴게음식 - 일반한식","category":"restaurant"},{"name":"별빛개냥","tel":"031-8027-0025","addr":"경기도 하남시 망월동 1104-2번지 112,113호","indutype":"일반휴게음식 - 서양음식","category":"restaurant"},{"name":"지코바 미사1호점","tel":"","addr":"경기도 하남시 망월동 1104-2번지 리버테라스 103호","indutype":"일반휴게음식 - 스넥","category":"restaurant"},{"name":"참맛깔곱창","tel":"031-791-9600","addr":"경기도 하남시 망월동 1104-2번지 리버테라스 1층 107호","indutype":"일반휴게음식 - 일반한식","category":"restaurant"},{"name":"청아대하구이","tel":"","addr":"경기도 하남시 망월동 1104-2번지 리버테라스 1층 115호","indutype":"일반휴게음식 - 일반한식","category":"restaurant"}]},{"lat":"37.559731924","long":"127.18495166","imageIndex":4,"items":[{"name":"걸작떡볶이치킨 하남미사점","tel":"031-793-5029","addr":"경기도 하남시 망월동 1066번지 마인드프라자 1층 1호","indutype":"일반휴게음식 - 스넥","category":"restaurant"}]},{"lat":"37.575762408","long":"127.18942821","imageIndex":4,"items":[{"name":"경성집","tel":"02-000-0000","addr":"경기도 하남시 망월동 847번지","indutype":"일반휴게음식 - 일반한식","category":"restaurant"}]},{"lat":"37.564839612","long":"127.19125722","imageIndex":4,"items":[{"name":"계몽돈까스 미사점","tel":"031-795-1090","addr":"경기도 하남시 망월동 1096-1번지 미사푸르지오시티 202호","indutype":"일반휴게음식 - 서양음식","category":"restaurant"},{"name":"장안우동","tel":"","addr":"경기도 하남시 망월동 1096-1번지 미사푸르지오시티 B동 1층 105호","indutype":"일반휴게음식 - 스넥","category":"restaurant"}]},{"lat":"37.575812414","long":"127.19197539","imageIndex":4,"items":[{"name":"고래식당 미사강변점","tel":"031-795-7092","addr":"경기도 하남시 망월동 859-3번지","indutype":"일반휴게음식 - 일반한식","category":"restaurant"}]},{"lat":"37.57473359","long":"127.19050105","imageIndex":4,"items":[{"name":"고봉민김밥  하남구신성지점","tel":"031-793-5677","addr":"경기도 하남시 망월동 870-7번지 제이제이빌딩 1층","indutype":"일반휴게음식 - 일반한식","category":"restaurant"},{"name":"흑우","tel":"070-8832-7111","addr":"경기도 하남시 망월동 870-7번지 제이제이빌딩 1층 101호","indutype":"일반휴게음식 - 일반한식","category":"restaurant"}]},{"lat":"37.569537213","long":"127.18325499","imageIndex":4,"items":[{"name":"고봉민김밥인 하남미사2동점","tel":"031-792-6556","addr":"경기도 하남시 망월동 990번지 윈더스위트 101호,112호","indutype":"일반휴게음식 - 스넥","category":"restaurant"},{"name":"대왕참치","tel":"031-793-3782","addr":"경기도 하남시 망월동 990번지 2층 201호","indutype":"일반휴게음식 - 일식·회집","category":"restaurant"},{"name":"류길상 피자","tel":"031-796-7004","addr":"경기도 하남시 망월동 990번지 1층 103호","indutype":"일반휴게음식 - 서양음식","category":"restaurant"},{"name":"명랑시대쌀핫도그(미사점)","tel":"070-7806-6659","addr":"경기도 하남시 망월동 990번지","indutype":"일반휴게음식 - 일반한식","category":"restaurant"}]},{"lat":"37.561537831","long":"127.19386338","imageIndex":4,"items":[{"name":"고봉민김밥인 하남미사역점","tel":"031-791-8993","addr":"경기도 하남시 망월동 1134-1번지 에스비비즈타워 1층 101호","indutype":"일반휴게음식 - 스넥","category":"restaurant"},{"name":"참맛옛날통닭미사역점","tel":"001-0000-0000","addr":"경기도 하남시 망월동 1134-1번지 에스비비즈타워 105호","indutype":"일반휴게음식 - 스넥","category":"restaurant"}]},{"lat":"37.560478731","long":"127.19133678","imageIndex":4,"items":[{"name":"곱분이곱창","tel":"031-794-5383","addr":"경기도 하남시 망월동 1119번지 스타파크 109호","indutype":"일반휴게음식 - 일반한식","category":"restaurant"},{"name":"스푼스토리 하남미사점","tel":"031-792-3010","addr":"경기도 하남시 망월동 1119번지 스타파크 1층 117, 118호","indutype":"일반휴게음식 - 서양음식","category":"restaurant"},{"name":"진스시","tel":"031-792-6270","addr":"경기도 하남시 망월동 1119번지 스타파크 1층 115호","indutype":"일반휴게음식 - 일식·회집","category":"restaurant"}]},{"lat":"37.574733842","long":"127.19034257","imageIndex":4,"items":[{"name":"곱창스토리","tel":"031-793-3939","addr":"경기도 하남시 망월동 870-6번지 1층","indutype":"일반휴게음식 - 일반한식","category":"restaurant"}]},{"lat":"37.561425859","long":"127.19064876","imageIndex":4,"items":[{"name":"공릉동 원조 멸치국수","tel":"031-111-1111","addr":"경기도 하남시 망월동 1104번지 강변신성프라자 1층 107호","indutype":"일반휴게음식 - 일반한식","category":"restaurant"},{"name":"리자카야","tel":"","addr":"경기도 하남시 망월동 1104번지 강변신성프라자 1층 111호","indutype":"일반휴게음식 - 일반한식","category":"restaurant"},{"name":"비엔나 커피 하우스","tel":"031-795-2552","addr":"경기도 하남시 망월동 1104번지 신성프라자 2 1층 102호112호","indutype":"일반휴게음식 - 서양음식","category":"restaurant"},{"name":"오향밀면 미사점","tel":"031-793-6748","addr":"경기도 하남시 망월동 1104번지 강변신성프라자 1동 109호","indutype":"일반휴게음식 - 일반한식","category":"restaurant"},{"name":"용대리김밥","tel":"031-796-0281","addr":"경기도 하남시 망월동 1104번지 강변신성프라자 1층 107호","indutype":"일반휴게음식 - 일반한식","category":"restaurant"},{"name":"차오차오 미사점","tel":"031-796-3382","addr":"경기도 하남시 망월동 1104번지 강변신성프라자 2층 204호","indutype":"일반휴게음식 - 중국식","category":"restaurant"},{"name":"행복한 낙지","tel":"031-796-0281","addr":"경기도 하남시 망월동 1104번지 신성프라자 3층 301호","indutype":"일반휴게음식 - 일반한식","category":"restaurant"},{"name":"호수신의주토종순대국","tel":"031-796-9388","addr":"경기도 하남시 망월동 1104번지 201,202호","indutype":"일반휴게음식 - 일반한식","category":"restaurant"}]},{"lat":"37.569093127","long":"127.1849518","imageIndex":4,"items":[{"name":"공차","tel":"","addr":"경기도 하남시 망월동 972-1번지 상아프라자 104,105호","indutype":"일반휴게음식 - 서양음식","category":"restaurant"},{"name":"맵스벅","tel":"","addr":"경기도 하남시 망월동 972-1번지 상아프라자 4층 405호","indutype":"일반휴게음식 - 스넥","category":"restaurant"},{"name":"설맥 미사점","tel":"070-7848-4869","addr":"경기도 하남시 망월동 972-1번지 상아프라자","indutype":"일반휴게음식 - 주점","category":"restaurant"},{"name":"에그머거(eggmurger)","tel":"031-791-0430","addr":"경기도 하남시 망월동 972-1번지 상아프라자 1층 103호","indutype":"일반휴게음식 - 서양음식","category":"restaurant"},{"name":"오징어랑 육회랑","tel":"02-795-2263","addr":"경기도 하남시 망월동 972-1번지 상아프라자 1층 104,105호","indutype":"일반휴게음식 - 일반한식","category":"restaurant"}]},{"lat":"37.56953354","long":"127.18564335","imageIndex":4,"items":[{"name":"광진소곱창","tel":"031-793-6660","addr":"경기도 하남시 망월동 974-1번지 1층 108호,109호","indutype":"일반휴게음식 - 일반한식","category":"restaurant"},{"name":"등촌샤브칼국수","tel":"031-796-2344","addr":"경기도 하남시 망월동 974-1번지 APPLE빌딩 204호","indutype":"일반휴게음식 - 일반한식","category":"restaurant"},{"name":"제주백정의필살기 미사강변점","tel":"031-000-0000","addr":"경기도 하남시 망월동 974-1번지 APPLE빌딩 106,107호","indutype":"일반휴게음식 - 일반한식","category":"restaurant"},{"name":"족발야시장 미사점","tel":"","addr":"경기도 하남시 망월동 974-1번지 애플빌딩 103호,104호105호","indutype":"일반휴게음식 - 일반한식","category":"restaurant"}]},{"lat":"37.575588888","long":"127.1908994","imageIndex":4,"items":[{"name":"광평도새기촌 미사강변점","tel":"031-791-5577","addr":"경기도 하남시 망월동 864번지","indutype":"일반휴게음식 - 일반한식","category":"restaurant"}]},{"lat":"37.569366442","long":"127.18298291","imageIndex":4,"items":[{"name":"교촌치킨 미사1호점","tel":"031-796-7337","addr":"경기도 하남시 망월동 1004-1번지 1층","indutype":"일반휴게음식 - 스넥","category":"restaurant"}]},{"lat":"37.570457573","long":"127.18236297","imageIndex":4,"items":[{"name":"국민전통갈비","tel":"031-796-8295","addr":"경기도 하남시 망월동 1008번지","indutype":"일반휴게음식 - 일반한식","category":"restaurant"}]},{"lat":"37.56673309","long":"127.19036779","imageIndex":4,"items":[{"name":"국민학교","tel":"","addr":"경기도 하남시 망월동 1081번지 미사역효성해링턴타워더퍼스트 1층 1016호","indutype":"일반휴게음식 - 일반한식","category":"restaurant"},{"name":"만선식당","tel":"","addr":"경기도 하남시 망월동 1081번지 미사역효성해링턴타워더퍼스트 1층 1023호","indutype":"일반휴게음식 - 일반한식","category":"restaurant"},{"name":"미가수산","tel":"","addr":"경기도 하남시 망월동 1081번지 미사역효성해링턴타워더퍼스트 1층 1022호","indutype":"일반휴게음식 - 일반한식","category":"restaurant"},{"name":"미카도스시 미사강변점","tel":"070-1111-1111","addr":"경기도 하남시 망월동 1081번지 1층 1085호,1086호","indutype":"일반휴게음식 - 일식·회집","category":"restaurant"},{"name":"별을품은곱창 미사점","tel":"070-9175-0610","addr":"경기도 하남시 망월동 1081번지 미사역효성해링턴타워더퍼스트 1층 1024호","indutype":"일반휴게음식 - 일반한식","category":"restaurant"},{"name":"보드람치킨 미사강변점","tel":"031-792-2932","addr":"경기도 하남시 망월동 1081번지 미사역효성해링턴타워더퍼스트 1층 1025호","indutype":"일반휴게음식 - 스넥","category":"restaurant"},{"name":"에머이 하남미사역점","tel":"02-1111-1111","addr":"경기도 하남시 망월동 1081번지 미사역효성해링턴타워더퍼스트 2층 2059호","indutype":"일반휴게음식 - 서양음식","category":"restaurant"},{"name":"오 유니통닭","tel":"031-793-8316","addr":"경기도 하남시 망월동 1081번지 미사역효성해령턴타워더퍼스트 1층 1026호","indutype":"일반휴게음식 - 일반한식","category":"restaurant"},{"name":"오시오 상회","tel":"070-4149-2222","addr":"경기도 하남시 망월동 1081번지 미사역효성해링턴타워더퍼스트 1층 1018호","indutype":"일반휴게음식 - 주점","category":"restaurant"},{"name":"이거시 통닭이닭","tel":"031-795-7282","addr":"경기도 하남시 망월동 1081번지 미사역효성해링턴타워더퍼스트 1층 1020호","indutype":"일반휴게음식 - 일반한식","category":"restaurant"},{"name":"제이에이치(JH)하오란","tel":"031-792-9283","addr":"경기도 하남시 망월동 1081번지 미사역효성해링턴타워더퍼스트 2층 2061호","indutype":"일반휴게음식 - 중국식","category":"restaurant"},{"name":"쥬씨&차얌 하남호수공원점","tel":"02-000-0000","addr":"경기도 하남시 망월동 1081번지 미사역효성해링턴타워더퍼스트 1층 1010호","indutype":"일반휴게음식 - 서양음식","category":"restaurant"},{"name":"쿠로","tel":"","addr":"경기도 하남시 망월동 1081번지 미사역효성해링턴타워더퍼스트 1052호","indutype":"일반휴게음식 - 일식·회집","category":"restaurant"},{"name":"티드루(TDLU)","tel":"","addr":"경기도 하남시 망월동 1081번지 미사역효성해링턴타워더퍼스트 1113호","indutype":"일반휴게음식 - 서양음식","category":"restaurant"},{"name":"풍촌코다리네","tel":"031-796-0772","addr":"경기도 하남시 망월동 1081번지 1062,1063호","indutype":"일반휴게음식 - 일반한식","category":"restaurant"},{"name":"한스케익 미사강변점","tel":"","addr":"경기도 하남시 망월동 1081번지 미사역효성해링턴타워더퍼스트 1층 1084호","indutype":"일반휴게음식 - 서양음식","category":"restaurant"},{"name":"홍춘천치즈닭갈비","tel":"031-792-3579","addr":"경기도 하남시 망월동 1081번지 미사역효성해링턴타워더퍼스트 2층 2006호","indutype":"일반휴게음식 - 일반한식","category":"restaurant"},{"name":"흑화당","tel":"","addr":"경기도 하남시 망월동 1081번지 미사역효성해링턴타워더퍼스트 1층 1008호","indutype":"일반휴게음식 - 서양음식","category":"restaurant"}]},{"lat":"37.569678763","long":"127.18495323","imageIndex":4,"items":[{"name":"국수나무미사강변점","tel":"031-792-6003","addr":"경기도 하남시 망월동 970-1번지 미사원프라자 1층 105호","indutype":"일반휴게음식 - 스넥","category":"restaurant"},{"name":"더불어","tel":"031-790-8560","addr":"경기도 하남시 망월동 970-1번지 미사원프라자 109호","indutype":"일반휴게음식 - 일반한식","category":"restaurant"},{"name":"미사한돈한우정육식당","tel":"031-796-9228","addr":"경기도 하남시 망월동 970-1번지 미사원프라자 201호","indutype":"일반휴게음식 - 일반한식","category":"restaurant"},{"name":"신바람떡볶이","tel":"031-111-1111","addr":"경기도 하남시 망월동 970-1번지 미사원프라자 1층 111호","indutype":"일반휴게음식 - 일반한식","category":"restaurant"},{"name":"이디야 미사강변도시점","tel":"070-7691-5181","addr":"경기도 하남시 망월동 970-1번지 미사원프라자 1층 103호","indutype":"일반휴게음식 - 서양음식","category":"restaurant"},{"name":"청진동 해장국(미사점)","tel":"031-795-0888","addr":"경기도 하남시 망월동 970-1번지","indutype":"일반휴게음식 - 일반한식","category":"restaurant"},{"name":"치앤강 하남미사점","tel":"","addr":"경기도 하남시 망월동 970-1번지 미사원프라자 1층 107호","indutype":"일반휴게음식 - 스넥","category":"restaurant"},{"name":"카츠젠 미사점","tel":"031-795-1110","addr":"경기도 하남시 망월동 970-1번지 미사원프라자 1층 110호","indutype":"일반휴게음식 - 서양음식","category":"restaurant"},{"name":"홍대쌀국수 미사강변점","tel":"","addr":"경기도 하남시 망월동 970-1번지 미사원프라자 1층 102호","indutype":"일반휴게음식 - 서양음식","category":"restaurant"}]},{"lat":"37.569007854","long":"127.19331649","imageIndex":4,"items":[{"name":"군산아구","tel":"031-791-8897","addr":"경기도 하남시 망월동 922-1번지 1층 103호","indutype":"일반휴게음식 - 일반한식","category":"restaurant"}]},{"lat":"37.576227787","long":"127.1913991","imageIndex":4,"items":[{"name":"군산오징어 하남미사점","tel":"031-791-9484","addr":"경기도 하남시 망월동 855-2번지","indutype":"일반휴게음식 - 일반한식","category":"restaurant"}]},{"lat":"37.560959755","long":"127.20022262","imageIndex":4,"items":[{"name":"굴뚝집","tel":"","addr":"경기도 하남시 망월동 1184-1번지 1층","indutype":"일반휴게음식 - 일반한식","category":"restaurant"}]},{"lat":"37.569979969","long":"127.18241842","imageIndex":4,"items":[{"name":"굽네치킨하남미사1호점","tel":"031-795-9294","addr":"경기도 하남시 망월동 1008-6번지 1층","indutype":"일반휴게음식 - 스넥","category":"restaurant"},{"name":"땡촌닭발","tel":"031-791-3564","addr":"경기도 하남시 망월동 1008-6번지 1층","indutype":"일반휴게음식 - 일반한식","category":"restaurant"}]},{"lat":"37.569172763","long":"127.18589149","imageIndex":4,"items":[{"name":"그래도참치","tel":"031-791-6226","addr":"경기도 하남시 망월동 976-6번지 디럭스프라자2 104호","indutype":"일반휴게음식 - 일식·회집","category":"restaurant"},{"name":"레드락 하남미사점","tel":"031-791-4524","addr":"경기도 하남시 망월동 976-6번지 105,106호","indutype":"일반휴게음식 - 주점","category":"restaurant"}]},{"lat":"37.569175278","long":"127.18426153","imageIndex":4,"items":[{"name":"금강산감자탕","tel":"031-792-8202","addr":"경기도 하남시 망월동 966-1번지 한강트윈프라자1차 204호","indutype":"일반휴게음식 - 일반한식","category":"restaurant"},{"name":"배달돼지 미사강변점","tel":"031-793-6116","addr":"경기도 하남시 망월동 966-1번지 2층","indutype":"일반휴게음식 - 일반한식","category":"restaurant"},{"name":"정 스시","tel":"031-792-6272","addr":"경기도 하남시 망월동 966-1번지 한강트윈프라자1 1층 103호","indutype":"일반휴게음식 - 일식·회집","category":"restaurant"},{"name":"컴포즈커피 하남미사점","tel":"031-000-0000","addr":"경기도 하남시 망월동 966-1번지 한강트윈프라자1 1층 109호","indutype":"일반휴게음식 - 서양음식","category":"restaurant"},{"name":"포베이(미사강변)","tel":"031-794-6777","addr":"경기도 하남시 망월동 966-1번지 한강트윈프라자1 2층 203호","indutype":"일반휴게음식 - 서양음식","category":"restaurant"}]},{"lat":"37.563202385","long":"127.18964589","imageIndex":4,"items":[{"name":"기와집냉칼","tel":"031-111-1111","addr":"경기도 하남시 망월동 1098-1번지 에코브리지2 111호","indutype":"일반휴게음식 - 일반한식","category":"restaurant"},{"name":"꼬지사께","tel":"031-793-7848","addr":"경기도 하남시 망월동 1098-1번지 에코브리지2 1층 120호","indutype":"일반휴게음식 - 일반한식","category":"restaurant"},{"name":"송치킨(song치킨)","tel":"031-796-9006","addr":"경기도 하남시 망월동 1098-1번지 에코브릿지2 1층 115호","indutype":"일반휴게음식 - 스넥","category":"restaurant"},{"name":"오닭발오곱창 (미사점)","tel":"031-795-6070","addr":"경기도 하남시 망월동 1098-1번지 에코브리지2 1층 109호","indutype":"일반휴게음식 - 일반한식","category":"restaurant"},{"name":"인생포차","tel":"031-795-6874","addr":"경기도 하남시 망월동 1098-1번지 에코브리지2 1층 121호","indutype":"일반휴게음식 - 서양음식","category":"restaurant"}]},{"lat":"37.56100724","long":"127.19325085","imageIndex":4,"items":[{"name":"김가네 랑데르점","tel":"031-791-2294","addr":"경기도 하남시 망월동 1121-2번지 미사랑데르III 110호","indutype":"일반휴게음식 - 스넥","category":"restaurant"},{"name":"미사한식부페","tel":"","addr":"경기도 하남시 망월동 1121-2번지 미사랑데르lll 208,209호","indutype":"일반휴게음식 - 일반한식","category":"restaurant"},{"name":"에그드랍 미사역점","tel":"","addr":"경기도 하남시 망월동 1121-2번지 미사랑데르III 1층 106호","indutype":"일반휴게음식 - 서양음식","category":"restaurant"},{"name":"연안식당 하남미사역점","tel":"031-791-7174","addr":"경기도 하남시 망월동 1121-2번지 108,109호","indutype":"일반휴게음식 - 일반한식","category":"restaurant"}]},{"lat":"37.569704463","long":"127.18581356","imageIndex":4,"items":[{"name":"김간지","tel":"031-793-7944","addr":"경기도 하남시 망월동 974번지 A+구산프라자 110호","indutype":"일반휴게음식 - 스넥","category":"restaurant"},{"name":"닭찬들 마켓","tel":"031-794-4445","addr":"경기도 하남시 망월동 974번지 A+구산프라자 1층 106호","indutype":"일반휴게음식 - 스넥","category":"restaurant"},{"name":"미사리스테이크/(주)하남에프앤비","tel":"032-794-2451","addr":"경기도 하남시 망월동 974번지 A+구산프라자 112호 113호","indutype":"일반휴게음식 - 서양음식","category":"restaurant"},{"name":"미생","tel":"031-795-0049","addr":"경기도 하남시 망월동 974번지 A+구산프라자 109호","indutype":"일반휴게음식 - 일반한식","category":"restaurant"},{"name":"산울림삼겹살","tel":"031-796-2779","addr":"경기도 하남시 망월동 974번지 2층 203,204호","indutype":"일반휴게음식 - 일반한식","category":"restaurant"},{"name":"수다","tel":"031-796-2554","addr":"경기도 하남시 망월동 974번지 A+구산프라자 1층 114호","indutype":"일반휴게음식 - 서양음식","category":"restaurant"},{"name":"아이큐로봇키즈카페","tel":"031-8028-2282","addr":"경기도 하남시 망월동 974번지 A+구산프라자 301호","indutype":"일반휴게음식 - 서양음식","category":"restaurant"}]},{"lat":"37.569400696","long":"127.18414888","imageIndex":4,"items":[{"name":"김밥킹 미사강변점","tel":"031-795-5644","addr":"경기도 하남시 망월동 966번지 미사중앙프라자 1층 103호","indutype":"일반휴게음식 - 스넥","category":"restaurant"},{"name":"백남옥손만두","tel":"","addr":"경기도 하남시 망월동 966번지 미사중앙프라자 1층 102호","indutype":"일반휴게음식 - 스넥","category":"restaurant"},{"name":"유촌","tel":"031-792-9422","addr":"경기도 하남시 망월동 966번지 미사중앙프라자 203호","indutype":"일반휴게음식 - 일반한식","category":"restaurant"},{"name":"이삭토스트하남미사점","tel":"031-795-5584","addr":"경기도 하남시 망월동 966번지 미사중앙프라자 1층 101호","indutype":"일반휴게음식 - 서양음식","category":"restaurant"}]},{"lat":"37.568645279","long":"127.1832302","imageIndex":4,"items":[{"name":"까사밍고 미사강변점","tel":"031-794-9070","addr":"경기도 하남시 망월동 1002-4번지 1층","indutype":"일반휴게음식 - 서양음식","category":"restaurant"}]},{"lat":"37.576145903","long":"127.19189699","imageIndex":4,"items":[{"name":"꼬꼬마","tel":"070-4337-1255","addr":"경기도 하남시 망월동 855-5번지 101호","indutype":"일반휴게음식 - 서양음식","category":"restaurant"}]},{"lat":"37.568536694","long":"127.18353555","imageIndex":4,"items":[{"name":"꼴통 참숯구이","tel":"031-111-1111","addr":"경기도 하남시 망월동 1000번지 101호","indutype":"일반휴게음식 - 일반한식","category":"restaurant"}]},{"lat":"37.560230322","long":"127.20000565","imageIndex":4,"items":[{"name":"꽃찬찜닭(하남점)","tel":"031-792-9640","addr":"경기도 하남시 망월동 1190-1번지 1층","indutype":"일반휴게음식 - 일반한식","category":"restaurant"},{"name":"유앤아이푸드","tel":"031-796-5321","addr":"경기도 하남시 망월동 1190-1번지","indutype":"일반휴게음식 - 일반한식","category":"restaurant"}]},{"lat":"37.559876284","long":"127.20158921","imageIndex":4,"items":[{"name":"남도밥상","tel":"031-791-0987","addr":"경기도 하남시 망월동 1202-1번지 1층 101호","indutype":"일반휴게음식 - 일반한식","category":"restaurant"}]},{"lat":"37.570846418","long":"127.18142439","imageIndex":4,"items":[{"name":"남자피자 미사점","tel":"031-794-5571","addr":"경기도 하남시 망월동 1015-8번지","indutype":"일반휴게음식 - 서양음식","category":"restaurant"}]},{"lat":"37.570394745","long":"127.18220435","imageIndex":4,"items":[{"name":"내담","tel":"031-793-0098","addr":"경기도 하남시 망월동 1008-9번지 1층","indutype":"일반휴게음식 - 일반한식","category":"restaurant"}]},{"lat":"37.569593854","long":"127.19309159","imageIndex":4,"items":[{"name":"네네치킨 미사1호점","tel":"031-792-7792","addr":"경기도 하남시 망월동 930번지","indutype":"일반휴게음식 - 스넥","category":"restaurant"},{"name":"불닭발 동대문 엽기떡볶이","tel":"031-791-8592","addr":"경기도 하남시 망월동 930번지 103호","indutype":"일반휴게음식 - 스넥","category":"restaurant"},{"name":"테트리스찜닭 하남미사점","tel":"031-791-9530","addr":"경기도 하남시 망월동 930번지 1층","indutype":"일반휴게음식 - 일반한식","category":"restaurant"}]},{"lat":"37.569232751","long":"127.19353213","imageIndex":4,"items":[{"name":"네오피자하남점","tel":"031-794-4426","addr":"경기도 하남시 망월동 924번지 세현하우스 1층","indutype":"일반휴게음식 - 서양음식","category":"restaurant"}]},{"lat":"37.575704605","long":"127.19178267","imageIndex":4,"items":[{"name":"노란황태 하남점","tel":"","addr":"경기도 하남시 망월동 859-4번지 1층","indutype":"일반휴게음식 - 일반한식","category":"restaurant"}]},{"lat":"37.570899637","long":"127.18197917","imageIndex":4,"items":[{"name":"노랑통닭","tel":"031-795-3455","addr":"경기도 하남시 망월동 1010-7번지 1층","indutype":"일반휴게음식 - 스넥","category":"restaurant"}]},{"lat":"37.561425156","long":"127.19109017","imageIndex":4,"items":[{"name":"노블레스카페","tel":"031-795-7940","addr":"경기도 하남시 망월동 1108-1번지 미타워 6층 605호","indutype":"일반휴게음식 - 서양음식","category":"restaurant"},{"name":"레드썬","tel":"","addr":"경기도 하남시 망월동 1108-1번지 미타워 5층 503호","indutype":"일반휴게음식 - 주점","category":"restaurant"},{"name":"맨하탄슈퍼 미사중앙점","tel":"","addr":"경기도 하남시 망월동 1108-1번지 미타워 1층 111호","indutype":"일반휴게음식 - 주점","category":"restaurant"},{"name":"미성양꼬치엔훠궈","tel":"031-000-0000","addr":"경기도 하남시 망월동 1108-1번지 미타워 2층 204-206호","indutype":"일반휴게음식 - 일반한식","category":"restaurant"}]},{"lat":"37.565895216","long":"127.19034306","imageIndex":4,"items":[{"name":"놀고먹소","tel":"070-7543-4770","addr":"경기도 하남시 망월동 1089번지 2층205-1,206","indutype":"일반휴게음식 - 일반한식","category":"restaurant"},{"name":"맘스터치 미사역점","tel":"031-794-6969","addr":"경기도 하남시 망월동 1089번지 성산타워플러스 104,105호","indutype":"일반휴게음식 - 서양음식","category":"restaurant"},{"name":"바365","tel":"031-795-7728","addr":"경기도 하남시 망월동 1089번지 성산타워플러스 6층 604호","indutype":"일반휴게음식 - 주점","category":"restaurant"},{"name":"백운양꼬치","tel":"031-795-9989","addr":"경기도 하남시 망월동 1089번지 성산타워플러스 2층 204호","indutype":"일반휴게음식 - 일반한식","category":"restaurant"},{"name":"시크릿쥬쥬&또봇프리미엄키즈카페 미사점","tel":"","addr":"경기도 하남시 망월동 1089번지 803-805호","indutype":"일반휴게음식 - 서양음식","category":"restaurant"},{"name":"어거스토Agosto20","tel":"031-000-0000","addr":"경기도 하남시 망월동 1089번지 성산타워플러스 301호","indutype":"일반휴게음식 - 서양음식","category":"restaurant"},{"name":"용범이네인계동껍데기미사점","tel":"","addr":"경기도 하남시 망월동 1089번지 1층 102호 103호","indutype":"일반휴게음식 - 일반한식","category":"restaurant"},{"name":"육쌈냉면 미사점","tel":"031-795-6392","addr":"경기도 하남시 망월동 1089번지 성산타워플러스 2층 205호","indutype":"일반휴게음식 - 일반한식","category":"restaurant"},{"name":"추억의미사리 카페","tel":"031-795-7728","addr":"경기도 하남시 망월동 1089번지 성산타워플러스 6층 605호","indutype":"일반휴게음식 - 주점","category":"restaurant"},{"name":"호오탕 훠꿔","tel":"031-793-8638","addr":"경기도 하남시 망월동 1089번지 성산타워플러스 304호","indutype":"일반휴게음식 - 중국식","category":"restaurant"}]},{"lat":"37.570259478","long":"127.18228326","imageIndex":4,"items":[{"name":"누나홀닭 하남미사점","tel":"031-791-9922","addr":"경기도 하남시 망월동 1008-8번지 1층","indutype":"일반휴게음식 - 스넥","category":"restaurant"}]},{"lat":"37.565952136","long":"127.1885322","imageIndex":4,"items":[{"name":"뉴욕야시장(미사강변점)","tel":"031-792-7474","addr":"경기도 하남시 망월동 1077-2번지 레이크힐 2층 204호","indutype":"일반휴게음식 - 서양음식","category":"restaurant"},{"name":"달빛맥주 하남미사점","tel":"031-795-4442","addr":"경기도 하남시 망월동 1077-2번지 레이크힐 1층 102호","indutype":"일반휴게음식 - 주점","category":"restaurant"},{"name":"더리터","tel":"031-791-0522","addr":"경기도 하남시 망월동 1077-2번지 레이크힐 1층 104호","indutype":"일반휴게음식 - 서양음식","category":"restaurant"},{"name":"메가엠지씨커피 미사중앙점","tel":"031-791-7751","addr":"경기도 하남시 망월동 1077-2번지 레이크힐 1층 106호","indutype":"일반휴게음식 - 서양음식","category":"restaurant"},{"name":"미술관 하남미사점","tel":"031-793-0294","addr":"경기도 하남시 망월동 1077-2번지 레이크힐 111호 112호","indutype":"일반휴게음식 - 일반한식","category":"restaurant"},{"name":"슈팅스타","tel":"031-791-0966","addr":"경기도 하남시 망월동 1077-2번지 1층 107,108호","indutype":"일반휴게음식 - 일반한식","category":"restaurant"},{"name":"스토리카페","tel":"031-792-1254","addr":"경기도 하남시 망월동 1077-2번지 레이크힐 3층 304호","indutype":"일반휴게음식 - 서양음식","category":"restaurant"},{"name":"시골여행","tel":"031-791-5838","addr":"경기도 하남시 망월동 1077-2번지 레이크힐 205호","indutype":"일반휴게음식 - 일반한식","category":"restaurant"},{"name":"역전우동0410 미사강변중앙점","tel":"031-796-0410","addr":"경기도 하남시 망월동 1077-2번지 레이크힐 1층 103호","indutype":"일반휴게음식 - 스넥","category":"restaurant"},{"name":"캔디독","tel":"","addr":"경기도 하남시 망월동 1077-2번지 레이크힐 1동 305호","indutype":"일반휴게음식 - 서양음식","category":"restaurant"},{"name":"파스타 트리(PAsta Tree)","tel":"031-794-9879","addr":"경기도 하남시 망월동 1077-2번지 레이크힐 1층 110호","indutype":"일반휴게음식 - 서양음식","category":"restaurant"},{"name":"한돈한우생고기마을","tel":"031-791-9238","addr":"경기도 하남시 망월동 1077-2번지 레이크힐 2층 201,202호","indutype":"일반휴게음식 - 일반한식","category":"restaurant"},{"name":"혼다라멘 미사중앙점","tel":"031-792-8276","addr":"경기도 하남시 망월동 1077-2번지 레이크힐 1층 105호","indutype":"일반휴게음식 - 일식·회집","category":"restaurant"}]},{"lat":"37.575479705","long":"127.19156702","imageIndex":4,"items":[{"name":"늘푸른밥상","tel":"031-111-1111","addr":"경기도 하남시 망월동 864-4번지 101호","indutype":"일반휴게음식 - 일반한식","category":"restaurant"}]},{"lat":"37.56892408","long":"127.18355913","imageIndex":4,"items":[{"name":"닌자초밥하남미사점","tel":"031-791-3577","addr":"경기도 하남시 망월동 994-1번지 1층","indutype":"일반휴게음식 - 일식·회집","category":"restaurant"}]},{"lat":"37.565120734","long":"127.19011474","imageIndex":4,"items":[{"name":"다른식당/주식회사 화우","tel":"031-796-8285","addr":"경기도 하남시 망월동 1087번지 마들렌오피스텔 206호,207호","indutype":"일반휴게음식 - 일반한식","category":"restaurant"},{"name":"도야족발 미사하남점","tel":"031-791-1250","addr":"경기도 하남시 망월동 1087번지 1층 105, 106호","indutype":"일반휴게음식 - 일반한식","category":"restaurant"},{"name":"브롱스 하남미사점","tel":"031-791-5935","addr":"경기도 하남시 망월동 1087번지 303호","indutype":"일반휴게음식 - 일반한식","category":"restaurant"},{"name":"형노가(하남5호점)","tel":"031-796-2992","addr":"경기도 하남시 망월동 1087번지 102호 101호, 102호","indutype":"일반휴게음식 - 일반한식","category":"restaurant"}]},{"lat":"37.568644465","long":"127.1837622","imageIndex":4,"items":[{"name":"다온정","tel":"02-000-0000","addr":"경기도 하남시 망월동 997번지 1층","indutype":"일반휴게음식 - 일식·회집","category":"restaurant"}]},{"lat":"37.571314138","long":"127.1819462","imageIndex":4,"items":[{"name":"다올횟집","tel":"031-792-9988","addr":"경기도 하남시 망월동 1010번지 1층","indutype":"일반휴게음식 - 일식·회집","category":"restaurant"}]},{"lat":"37.570314087","long":"127.18192117","imageIndex":4,"items":[{"name":"단단라멘","tel":"031-795-7882","addr":"경기도 하남시 망월동 1018-5번지 101호","indutype":"일반휴게음식 - 일식·회집","category":"restaurant"},{"name":"홍루이젠 하남미사","tel":"031-8028-0119","addr":"경기도 하남시 망월동 1018-5번지","indutype":"일반휴게음식 - 스넥","category":"restaurant"}]},{"lat":"37.564732162","long":"127.19083816","imageIndex":4,"items":[{"name":"닭장수 후라이드(미사점)","tel":"031-794-2700","addr":"경기도 하남시 망월동 1096번지 미사마이움센트럴아케이드 1층 112호","indutype":"일반휴게음식 - 스넥","category":"restaurant"},{"name":"이디야 미사로데오점","tel":"","addr":"경기도 하남시 망월동 1096번지 미사마이움센트럴아케이드 114호","indutype":"일반휴게음식 - 서양음식","category":"restaurant"},{"name":"전주콩나물국밥","tel":"031-111-1111","addr":"경기도 하남시 망월동 1096번지 미사마이움센트럴아케이드 2층 202호","indutype":"일반휴게음식 - 일반한식","category":"restaurant"}]},{"lat":"37.568817661","long":"127.19392724","imageIndex":4,"items":[{"name":"담아내기","tel":"070-7736-6116","addr":"경기도 하남시 망월동 920-3번지 1층","indutype":"일반휴게음식 - 일식·회집","category":"restaurant"}]},{"lat":"37.566092369","long":"127.19101136","imageIndex":4,"items":[{"name":"대구막창 짜장짬뽕","tel":"","addr":"경기도 하남시 망월동 1093번지 경서타워 2층 202호","indutype":"일반휴게음식 - 일반한식","category":"restaurant"},{"name":"박경수 스시","tel":"031-793-1189","addr":"경기도 하남시 망월동 1093번지 경서타워 1층 116호","indutype":"일반휴게음식 - 일식·회집","category":"restaurant"},{"name":"삐사감김밥에빠지다 하남미사점","tel":"031-476-1376","addr":"경기도 하남시 망월동 1093번지 경서타워 1층 107호","indutype":"일반휴게음식 - 스넥","category":"restaurant"},{"name":"셀렉토 커피 미사중앙점","tel":"031-795-6928","addr":"경기도 하남시 망월동 1093번지 경서타워 1층 110호","indutype":"일반휴게음식 - 서양음식","category":"restaurant"},{"name":"아지툰","tel":"","addr":"경기도 하남시 망월동 1093번지 경서타워 805호","indutype":"일반휴게음식 - 서양음식","category":"restaurant"},{"name":"일품훠궈","tel":"031-8027-8867","addr":"경기도 하남시 망월동 1093번지 경서타워 203호","indutype":"일반휴게음식 - 일반한식","category":"restaurant"},{"name":"주식회사 쿠우쿠우 미사점","tel":"031-795-1998","addr":"경기도 하남시 망월동 1093번지 경서타워 11층","indutype":"일반휴게음식 - 일식·회집","category":"restaurant"}]},{"lat":"37.57023341","long":"127.18164931","imageIndex":4,"items":[{"name":"대동집미사점","tel":"063-0000-0000","addr":"경기도 하남시 망월동 1018-3번지","indutype":"일반휴게음식 - 일반한식","category":"restaurant"}]},{"lat":"37.571007874","long":"127.18190019","imageIndex":4,"items":[{"name":"대양부양꼬치","tel":"031-793-7959","addr":"경기도 하남시 망월동 1010-8번지 에덴빌 1층","indutype":"일반휴게음식 - 중국식","category":"restaurant"}]},{"lat":"37.569985444","long":"127.18472759","imageIndex":4,"items":[{"name":"더램","tel":"031-794-1599","addr":"경기도 하남시 망월동 962-2번지 예스프라자포틴 2층 201호,202호","indutype":"일반휴게음식 - 일반한식","category":"restaurant"},{"name":"신소양강닭갈비","tel":"031-792-2045","addr":"경기도 하남시 망월동 962-2번지 예스프라자포틴 205호 204호, 205호","indutype":"일반휴게음식 - 일반한식","category":"restaurant"},{"name":"하남소한마리","tel":"031-794-7989","addr":"경기도 하남시 망월동 962-2번지 예스프라자포틴 2층 205호","indutype":"일반휴게음식 - 일반한식","category":"restaurant"}]},{"lat":"37.575093495","long":"127.19080759","imageIndex":4,"items":[{"name":"더베이커 시티","tel":"031-762-1358","addr":"경기도 하남시 망월동 866-2번지 1층","indutype":"일반휴게음식 - 서양음식","category":"restaurant"}]},{"lat":"37.563479148","long":"127.19681111","imageIndex":4,"items":[{"name":"더불닭","tel":"031-794-0150","addr":"경기도 하남시 망월동 1140번지 미사강변도시씨3단지 상가동 1층 113호","indutype":"일반휴게음식 - 스넥","category":"restaurant"},{"name":"모노키친","tel":"031-794-3734","addr":"경기도 하남시 망월동 1140번지 미사강변도시씨3단지 1층 103호","indutype":"일반휴게음식 - 일반한식","category":"restaurant"},{"name":"미사옥","tel":"031-000-0000","addr":"경기도 하남시 망월동 1140번지 미사강변도시씨3단지 상가동 207호","indutype":"일반휴게음식 - 일반한식","category":"restaurant"},{"name":"쁘띠씨엘로","tel":"","addr":"경기도 하남시 망월동 1140번지 미사강변도시씨3단지 1층 110호","indutype":"일반휴게음식 - 서양음식","category":"restaurant"},{"name":"오늘도라라라","tel":"031-000-0000","addr":"경기도 하남시 망월동 1140번지 미사강변도시씨3단지 116호","indutype":"일반휴게음식 - 서양음식","category":"restaurant"},{"name":"오봉도시락","tel":"031-796-8089","addr":"경기도 하남시 망월동 1140번지 미사강변도시씨3단지 상가동 1층 125호","indutype":"일반휴게음식 - 스넥","category":"restaurant"},{"name":"왕(  )짬뽕","tel":"031-795-1325","addr":"경기도 하남시 망월동 1140번지 미사강변도시씨3단지 1층 130호","indutype":"일반휴게음식 - 중국식","category":"restaurant"},{"name":"원데이노마드/(주)앤스페이스","tel":"070-7439-9495","addr":"경기도 하남시 망월동 1140번지 상가동 229,230,231,232호","indutype":"일반휴게음식 - 서양음식","category":"restaurant"},{"name":"이디야커피 하남미사가로수길점","tel":"","addr":"경기도 하남시 망월동 1140번지 미사강변도시씨3단지 1층 109호","indutype":"일반휴게음식 - 서양음식","category":"restaurant"},{"name":"톰쿡스토리(TOMCOOKSTORY)","tel":"031-793-2019","addr":"경기도 하남시 망월동 1140번지 미사강변도시씨3단지 상가동 2층 216호","indutype":"일반휴게음식 - 일반한식","category":"restaurant"},{"name":"하남추어탕매운탕","tel":"031-1111-1111","addr":"경기도 하남시 망월동 1140번지 미사강변도시씨3단지 상가동 1층 135호","indutype":"일반휴게음식 - 일반한식","category":"restaurant"},{"name":"한돌곱창","tel":"031-794-0102","addr":"경기도 하남시 망월동 1140번지 미사강변도시씨3단지 1층 117호","indutype":"일반휴게음식 - 일반한식","category":"restaurant"},{"name":"호정의 식탁","tel":"031-791-0932","addr":"경기도 하남시 망월동 1140번지 미사강변도시씨3단지 상가동 1층 102호","indutype":"일반휴게음식 - 일반한식","category":"restaurant"}]},{"lat":"37.575178218","long":"127.18850982","imageIndex":4,"items":[{"name":"더코너(THE CORNER)","tel":"070-5030-4893","addr":"경기도 하남시 망월동 841-5번지 1층","indutype":"일반휴게음식 - 서양음식","category":"restaurant"},{"name":"킴보 하남점","tel":"031-794-1884","addr":"경기도 하남시 망월동 841-5번지 1층","indutype":"일반휴게음식 - 서양음식","category":"restaurant"}]},{"lat":"37.565672601","long":"127.18867865","imageIndex":4,"items":[{"name":"도어 투더 테라스(door to the terrace)","tel":"","addr":"경기도 하남시 망월동 1077-3번지 미사호수의아침 3층 306호","indutype":"일반휴게음식 - 서양음식","category":"restaurant"},{"name":"독도왕새우튀김 (미사역점)","tel":"031-792-7944","addr":"경기도 하남시 망월동 1077-3번지 미사호수의아침 111호","indutype":"일반휴게음식 - 일반한식","category":"restaurant"},{"name":"뚱이순대국미사점","tel":"031-000-0000","addr":"경기도 하남시 망월동 1077-3번지 미사호수의아침 1층 113호","indutype":"일반휴게음식 - 일반한식","category":"restaurant"},{"name":"설빙","tel":"031-794-9214","addr":"경기도 하남시 망월동 1077-3번지 미사호수의아침","indutype":"일반휴게음식 - 서양음식","category":"restaurant"},{"name":"소양간 미사본점/주식회사 에스엠디코퍼레","tel":"031-000-0000","addr":"경기도 하남시 망월동 1077-3번지 미사호수의아침 112호","indutype":"일반휴게음식 - 일반한식","category":"restaurant"},{"name":"쉼(Counceling Cafe)","tel":"031-793-1320","addr":"경기도 하남시 망월동 1077-3번지 미사호수의아침 3층 304호","indutype":"일반휴게음식 - 서양음식","category":"restaurant"},{"name":"신천장원보쌈족발","tel":"031-796-6692","addr":"경기도 하남시 망월동 1077-3번지 미사호수의아침 1층 104호","indutype":"일반휴게음식 - 일반한식","category":"restaurant"},{"name":"옛날참숯왕소금구이(2호점)","tel":"031-794-7475","addr":"경기도 하남시 망월동 1077-3번지 108호,109호","indutype":"일반휴게음식 - 일반한식","category":"restaurant"},{"name":"이가원","tel":"031-792-0567","addr":"경기도 하남시 망월동 1077-3번지 2층 201호,202호","indutype":"일반휴게음식 - 일반한식","category":"restaurant"},{"name":"잔월 하남미사점","tel":"031-791-5359","addr":"경기도 하남시 망월동 1077-3번지","indutype":"일반휴게음식 - 주점","category":"restaurant"},{"name":"카페 미스터리","tel":"031-791-0099","addr":"경기도 하남시 망월동 1077-3번지 미사호수의 아침 110,205호","indutype":"일반휴게음식 - 서양음식","category":"restaurant"},{"name":"컴포즈커피이사중앙점","tel":"031-795-2046","addr":"경기도 하남시 망월동 1077-3번지 호수의아침 1층 101호","indutype":"일반휴게음식 - 서양음식","category":"restaurant"}]},{"lat":"37.575235208","long":"127.19233617","imageIndex":4,"items":[{"name":"독도쭈꾸미","tel":"031-795-7186","addr":"경기도 하남시 망월동 874-4번지 1층","indutype":"일반휴게음식 - 일반한식","category":"restaurant"}]},{"lat":"37.562146246","long":"127.19089957","imageIndex":4,"items":[{"name":"돈까스클럽","tel":"031-793-5982","addr":"경기도 하남시 망월동 1105번지 207호,208호,209호,210호,211호","indutype":"일반휴게음식 - 일반한식","category":"restaurant"},{"name":"명품빨강오뎅","tel":"070-7817-1117","addr":"경기도 하남시 망월동 1105번지 해링턴타워레이크파크 1층 119호","indutype":"일반휴게음식 - 스넥","category":"restaurant"},{"name":"파미에","tel":"","addr":"경기도 하남시 망월동 1105번지 해링턴타워 레이크파크 2층 216,217호","indutype":"일반휴게음식 - 서양음식","category":"restaurant"},{"name":"한국통닭 미사중앙점","tel":"02-1111-1111","addr":"경기도 하남시 망월동 1105번지 해링턴타워레이크파크 121호","indutype":"일반휴게음식 - 스넥","category":"restaurant"}]},{"lat":"37.560062885","long":"127.18650301","imageIndex":4,"items":[{"name":"돈스타 치킨","tel":"031-792-1822","addr":"경기도 하남시 망월동 1067번지 골든브릿지 202호","indutype":"일반휴게음식 - 스넥","category":"restaurant"},{"name":"동명카츠","tel":"031-792-1822","addr":"경기도 하남시 망월동 1067번지 골든브릿지 202호","indutype":"일반휴게음식 - 일반한식","category":"restaurant"},{"name":"순곱이네 하남미사점","tel":"031-796-5813","addr":"경기도 하남시 망월동 1067번지 골든브릿지 123호","indutype":"일반휴게음식 - 일반한식","category":"restaurant"},{"name":"완도식당","tel":"031-796-5813","addr":"경기도 하남시 망월동 1067번지 골든브릿지 123호","indutype":"일반휴게음식 - 일반한식","category":"restaurant"},{"name":"응급실국물떡볶이 하남미사점","tel":"031-792-2378","addr":"경기도 하남시 망월동 1067번지 골든브릿지 상가 1층 101호","indutype":"일반휴게음식 - 일반한식","category":"restaurant"},{"name":"이디야 미사센트럴점","tel":"031-796-7969","addr":"경기도 하남시 망월동 1067번지 골든브릿지 1층 118,119호","indutype":"일반휴게음식 - 서양음식","category":"restaurant"},{"name":"홍베이팡 미사망월점","tel":"031-792-5028","addr":"경기도 하남시 망월동 1067번지 골든브릿지 1층 102호","indutype":"일반휴게음식 - 서양음식","category":"restaurant"}]},{"lat":"37.575561606","long":"127.19105782","imageIndex":4,"items":[{"name":"돌삼닭 하남점","tel":"031-792-2604","addr":"경기도 하남시 망월동 864-1번지 1층 101호","indutype":"일반휴게음식 - 일반한식","category":"restaurant"}]},{"lat":"37.565839933","long":"127.19111259","imageIndex":4,"items":[{"name":"디에이치오프닝","tel":"","addr":"경기도 하남시 망월동 1093-1번지 미사푸르지오시티 ,A동 3층 319호","indutype":"일반휴게음식 - 스넥","category":"restaurant"},{"name":"뚱뎅이감자탕","tel":"031-795-0605","addr":"경기도 하남시 망월동 1093-1번지 미사푸르지오시티 A동 2층 S202호","indutype":"일반휴게음식 - 일반한식","category":"restaurant"},{"name":"죽 이야기 미사역점","tel":"031-794-6233","addr":"경기도 하남시 망월동 1093-1번지 미사푸르지오시티 A동 1층 111호","indutype":"일반휴게음식 - 일반한식","category":"restaurant"},{"name":"큰맘할매순대국 미사역점","tel":"031-792-5955","addr":"경기도 하남시 망월동 1093-1번지 미사푸르지오시티 1층 108호","indutype":"일반휴게음식 - 일반한식","category":"restaurant"},{"name":"탐앤탐스 미사강변점","tel":"031-792-4565","addr":"경기도 하남시 망월동 1093-1번지 미사푸르지오시티 A동 101,102,201,202호","indutype":"일반휴게음식 - 서양음식","category":"restaurant"}]},{"lat":"37.562508237","long":"127.18989316","imageIndex":4,"items":[{"name":"디저트39 하남미사역점","tel":"031-795-4639","addr":"경기도 하남시 망월동 1098-3번지 2층 더퍼스트테라스 210호","indutype":"일반휴게음식 - 서양음식","category":"restaurant"},{"name":"라미향마라탕","tel":"031-792-9196","addr":"경기도 하남시 망월동 1098-3번지 더퍼스트테라스 2층 201호","indutype":"일반휴게음식 - 중국식","category":"restaurant"},{"name":"보노","tel":"031-791-2825","addr":"경기도 하남시 망월동 1098-3번지 2층 218,219호","indutype":"일반휴게음식 - 서양음식","category":"restaurant"},{"name":"인바이트","tel":"","addr":"경기도 하남시 망월동 1098-3번지 2층 220호","indutype":"일반휴게음식 - 일반한식","category":"restaurant"},{"name":"티앙웨이 하남미사역점","tel":"031-791-0403","addr":"경기도 하남시 망월동 1098-3번지 1층 111호","indutype":"일반휴게음식 - 서양음식","category":"restaurant"},{"name":"펀비어킹","tel":"","addr":"경기도 하남시 망월동 1098-3번지 1층 121~123호","indutype":"일반휴게음식 - 일반한식","category":"restaurant"}]},{"lat":"37.561451173","long":"127.19172404","imageIndex":4,"items":[{"name":"딘딘향","tel":"031-1234-1234","addr":"경기도 하남시 망월동 1111번지 1층 108,109호","indutype":"일반휴게음식 - 중국식","category":"restaurant"},{"name":"롤링팝카페","tel":"070-7576-4222","addr":"경기도 하남시 망월동 1111번지 신성프라자1 4층 402호","indutype":"일반휴게음식 - 서양음식","category":"restaurant"},{"name":"모두와","tel":"031-793-6667","addr":"경기도 하남시 망월동 1111번지 신성프라자 3층 306호","indutype":"일반휴게음식 - 일반한식","category":"restaurant"},{"name":"몬스터족발","tel":"031-000-0000","addr":"경기도 하남시 망월동 1111번지 신성프라자I 105호","indutype":"일반휴게음식 - 일반한식","category":"restaurant"},{"name":"미사힐링스파 치킨&호프","tel":"","addr":"경기도 하남시 망월동 1111번지 9층","indutype":"일반휴게음식 - 스넥","category":"restaurant"},{"name":"미사힐링스파식당","tel":"","addr":"경기도 하남시 망월동 1111번지 9층","indutype":"일반휴게음식 - 일반한식","category":"restaurant"},{"name":"볼원카페","tel":"","addr":"경기도 하남시 망월동 1111번지 신성프라자I 1101호","indutype":"일반휴게음식 - 서양음식","category":"restaurant"},{"name":"부자곱 미사역점","tel":"","addr":"경기도 하남시 망월동 1111번지 신성프라자 110, 111호","indutype":"일반휴게음식 - 일반한식","category":"restaurant"},{"name":"비스트로 운","tel":"","addr":"경기도 하남시 망월동 1111번지 신성프라자 207동 209호","indutype":"일반휴게음식 - 일반한식","category":"restaurant"},{"name":"샤브마니아","tel":"031-794-5581","addr":"경기도 하남시 망월동 1111번지 202,203호","indutype":"일반휴게음식 - 일반한식","category":"restaurant"},{"name":"수산시장 미사점","tel":"031-796-3006","addr":"경기도 하남시 망월동 1111번지 신성프라자 101호","indutype":"일반휴게음식 - 일반한식","category":"restaurant"},{"name":"시나본 미사점","tel":"","addr":"경기도 하남시 망월동 1111번지 신성프라자1 112호","indutype":"일반휴게음식 - 서양음식","category":"restaurant"},{"name":"오늘밤노가리","tel":"031-0000-0000","addr":"경기도 하남시 망월동 1111번지 신성프라자 1층 106호","indutype":"일반휴게음식 - 일반한식","category":"restaurant"},{"name":"이차돌 미사역점","tel":"031-795-8929","addr":"경기도 하남시 망월동 1111번지 1층 102,103,104호","indutype":"일반휴게음식 - 일반한식","category":"restaurant"}]},{"lat":"37.574788385","long":"127.19003706","imageIndex":4,"items":[{"name":"땅끝굴마을","tel":"02-793-9289","addr":"경기도 하남시 망월동 870-4번지 1층","indutype":"일반휴게음식 - 일반한식","category":"restaurant"}]},{"lat":"37.575758845","long":"127.1916696","imageIndex":4,"items":[{"name":"또봉이통닭 미사점","tel":"031-796-5992","addr":"경기도 하남시 망월동 859-5번지 1층","indutype":"일반휴게음식 - 스넥","category":"restaurant"},{"name":"쓰나미퓨전호프","tel":"031-792-7305","addr":"경기도 하남시 망월동 859-5번지 1층","indutype":"일반휴게음식 - 주점","category":"restaurant"}]},{"lat":"37.569841845","long":"127.18436502","imageIndex":4,"items":[{"name":"뚱이순대국 미사강변점","tel":"031-791-0421","addr":"경기도 하남시 망월동 962-1번지 송하빌딩 109호","indutype":"일반휴게음식 - 일반한식","category":"restaurant"},{"name":"명인만두 미사점","tel":"031-794-3323","addr":"경기도 하남시 망월동 962-1번지 송하빌딩 102호","indutype":"일반휴게음식 - 일반한식","category":"restaurant"},{"name":"미아리우동집","tel":"031-791-1189","addr":"경기도 하남시 망월동 962-1번지 송하빌딩 107호","indutype":"일반휴게음식 - 스넥","category":"restaurant"},{"name":"봉봉키즈 하남미사","tel":"031-8028-0932","addr":"경기도 하남시 망월동 962-1번지 송하빌딩 3층 301호","indutype":"일반휴게음식 - 서양음식","category":"restaurant"},{"name":"비에이치씨 미사강변점","tel":"031-796-5757","addr":"경기도 하남시 망월동 962-1번지 송하빌딩 2층 202호","indutype":"일반휴게음식 - 스넥","category":"restaurant"},{"name":"전설의왕만두","tel":"031-123-4567","addr":"경기도 하남시 망월동 962-1번지 송하빌딩 103호","indutype":"일반휴게음식 - 스넥","category":"restaurant"},{"name":"콩나라팥나라","tel":"031-791-0868","addr":"경기도 하남시 망월동 962-1번지 송하빌딩 1층 110호","indutype":"일반휴게음식 - 일반한식","category":"restaurant"}]},{"lat":"37.569844736","long":"127.1824747","imageIndex":4,"items":[{"name":"뜨겁개핫도그","tel":"031-793-4060","addr":"경기도 하남시 망월동 1008-5번지 103호","indutype":"일반휴게음식 - 서양음식","category":"restaurant"}]},{"lat":"37.5749575","long":"127.1913393","imageIndex":4,"items":[{"name":"라떼킹","tel":"070-4351-1237","addr":"경기도 하남시 망월동 872-4번지 1층","indutype":"일반휴게음식 - 서양음식","category":"restaurant"}]},{"lat":"37.576255051","long":"127.19125201","imageIndex":4,"items":[{"name":"라비앙","tel":"031-792-6106","addr":"경기도 하남시 망월동 855-1번지 1층 103호","indutype":"일반휴게음식 - 서양음식","category":"restaurant"}]},{"lat":"37.559925234","long":"127.19925787","imageIndex":4,"items":[{"name":"레테(Lethe)","tel":"031-793-8060","addr":"경기도 하남시 망월동 1188번지","indutype":"일반휴게음식 - 서양음식","category":"restaurant"}]},{"lat":"37.568482895","long":"127.18336564","imageIndex":4,"items":[{"name":"로이식당","tel":"031-794-0701","addr":"경기도 하남시 망월동 1000-7번지 1층","indutype":"일반휴게음식 - 일식·회집","category":"restaurant"}]},{"lat":"37.569089361","long":"127.19305635","imageIndex":4,"items":[{"name":"리얼푸드","tel":"031-795-9727","addr":"경기도 하남시 망월동 916-4번지 102호","indutype":"일반휴게음식 - 일반한식","category":"restaurant"}]},{"lat":"37.568868702","long":"127.18441925","imageIndex":4,"items":[{"name":"릴리펏 미사점","tel":"031-795-3032","addr":"경기도 하남시 망월동 968번지 한강트윈프라자2 302호 301호,302호","indutype":"일반휴게음식 - 서양음식","category":"restaurant"},{"name":"마구로 진","tel":"031-795-7233","addr":"경기도 하남시 망월동 968번지 한강트윈프라자2 108, 109, 111호","indutype":"일반휴게음식 - 일식·회집","category":"restaurant"},{"name":"명동찌개마을","tel":"","addr":"경기도 하남시 망월동 968번지 2층","indutype":"일반휴게음식 - 일반한식","category":"restaurant"},{"name":"명품 도너츠","tel":"","addr":"경기도 하남시 망월동 968번지 한강트윈프라자2 108호","indutype":"일반휴게음식 - 서양음식","category":"restaurant"},{"name":"방이샤브샤브칼국수(미사강변점)","tel":"031-793-4885","addr":"경기도 하남시 망월동 968번지 한강트윈프라자 101호","indutype":"일반휴게음식 - 일반한식","category":"restaurant"},{"name":"본죽&비빔밥cafe (하남미사점)","tel":"031-793-6233","addr":"경기도 하남시 망월동 968번지 한강윈프라자2 1층 103호","indutype":"일반휴게음식 - 일반한식","category":"restaurant"},{"name":"신김밥천국(미사)","tel":"031-791-7422","addr":"경기도 하남시 망월동 968번지 한강트윈프라자2 1층 104호","indutype":"일반휴게음식 - 스넥","category":"restaurant"}]},{"lat":"37.560595225","long":"127.1917332","imageIndex":4,"items":[{"name":"맛닭꼬","tel":"031-796-9252","addr":"경기도 하남시 망월동 1119-1번지 르보아파크2 1층 111호","indutype":"일반휴게음식 - 스넥","category":"restaurant"},{"name":"서가네기절닭발","tel":"031-791-1357","addr":"경기도 하남시 망월동 1119-1번지 르보아파크2 2층 218호","indutype":"일반휴게음식 - 일반한식","category":"restaurant"},{"name":"커피베이 미사역중앙호수공원점","tel":"031-795-2713","addr":"경기도 하남시 망월동 1119-1번지 르보아파크II 1층 127호","indutype":"일반휴게음식 - 서양음식","category":"restaurant"}]},{"lat":"37.559704774","long":"127.20178116","imageIndex":4,"items":[{"name":"맛있는집밥","tel":"031-791-3998","addr":"경기도 하남시 망월동 1202-3번지 스탠다드하우스 1층 102호","indutype":"일반휴게음식 - 일반한식","category":"restaurant"}]},{"lat":"37.574985863","long":"127.19050168","imageIndex":4,"items":[{"name":"매워도 가고픈 떡볶이","tel":"031-794-0703","addr":"경기도 하남시 망월동 843-10번지 1층 103호","indutype":"일반휴게음식 - 스넥","category":"restaurant"},{"name":"블랙빈(BLACK BEAN)","tel":"031-793-0079","addr":"경기도 하남시 망월동 843-10번지","indutype":"일반휴게음식 - 서양음식","category":"restaurant"}]},{"lat":"37.574843465","long":"127.18939195","imageIndex":4,"items":[{"name":"맥쓰(MEXX)세계치킨 하남미사 한강점","tel":"031-794-7210","addr":"경기도 하남시 망월동 870번지 1층 101호","indutype":"일반휴게음식 - 스넥","category":"restaurant"}]},{"lat":"37.560455567","long":"127.20000625","imageIndex":4,"items":[{"name":"맥주고래","tel":"","addr":"경기도 하남시 망월동 1190-7번지 1층","indutype":"일반휴게음식 - 일반한식","category":"restaurant"}]},{"lat":"37.566537808","long":"127.18851102","imageIndex":4,"items":[{"name":"머거봐","tel":"","addr":"경기도 하남시 망월동 1077번지 센트럴파크1 105호","indutype":"일반휴게음식 - 스넥","category":"restaurant"},{"name":"쏘닭발맛있는집","tel":"02-481-5592","addr":"경기도 하남시 망월동 1077번지 센트럴파크1 1층 1115호","indutype":"일반휴게음식 - 일반한식","category":"restaurant"},{"name":"에그드랍 미사점","tel":"","addr":"경기도 하남시 망월동 1077번지 센트럴파크1 102호","indutype":"일반휴게음식 - 서양음식","category":"restaurant"},{"name":"천호독도쭈꾸미","tel":"03-111-1111","addr":"경기도 하남시 망월동 1077번지 센트럴파크1 111호","indutype":"일반휴게음식 - 일반한식","category":"restaurant"},{"name":"치어스","tel":"031-796-4508","addr":"경기도 하남시 망월동 1077번지 센트럴파크1 1,2층 114호,207호,208호","indutype":"일반휴게음식 - 일반한식","category":"restaurant"},{"name":"타이지엔(미사점)","tel":"031-795-4272","addr":"경기도 하남시 망월동 1077번지 센트럴파크1 1층 103호","indutype":"일반휴게음식 - 서양음식","category":"restaurant"},{"name":"투썸플레이스 미사호수공원점","tel":"031-792-4567","addr":"경기도 하남시 망월동 1077번지 센트럴파크1 109호 204호","indutype":"일반휴게음식 - 서양음식","category":"restaurant"}]},{"lat":"37.575564515","long":"127.18922395","imageIndex":4,"items":[{"name":"멕시카나 하남미사점","tel":"031-791-1888","addr":"경기도 하남시 망월동 845번지","indutype":"일반휴게음식 - 스넥","category":"restaurant"}]},{"lat":"37.575731942","long":"127.19159029","imageIndex":4,"items":[{"name":"모두의 만족","tel":"031-791-7723","addr":"경기도 하남시 망월동 859-6번지 1층 102호","indutype":"일반휴게음식 - 일반한식","category":"restaurant"}]},{"lat":"37.562403301","long":"127.19353736","imageIndex":4,"items":[{"name":"무봉리토종순대국(미사점)","tel":"031-793-8849","addr":"경기도 하남시 망월동 1131번지 서건미사메트로타워 2층 206호-208호","indutype":"일반휴게음식 - 일반한식","category":"restaurant"}]},{"lat":"37.56173064","long":"127.19162289","imageIndex":4,"items":[{"name":"미남곱창","tel":"070-4413-7700","addr":"경기도 하남시 망월동 1110번지 미사신성타워 105,106호","indutype":"일반휴게음식 - 일반한식","category":"restaurant"},{"name":"미락","tel":"","addr":"경기도 하남시 망월동 1110번지 미사신성타워 8층 802호","indutype":"일반휴게음식 - 일반한식","category":"restaurant"},{"name":"제이비비J.B.B","tel":"02-866-8222","addr":"경기도 하남시 망월동 1110번지 미사신성타워 107호","indutype":"일반휴게음식 - 서양음식","category":"restaurant"}]},{"lat":"37.575734859","long":"127.18975643","imageIndex":4,"items":[{"name":"미니펍미사강변점","tel":"031-795-6670","addr":"경기도 하남시 망월동 847-2번지 101호","indutype":"일반휴게음식 - 서양음식","category":"restaurant"}]},{"lat":"37.568926693","long":"127.19336156","imageIndex":4,"items":[{"name":"미미돈","tel":"031-792-4410","addr":"경기도 하남시 망월동 922-2번지 103호","indutype":"일반휴게음식 - 일반한식","category":"restaurant"},{"name":"제주안방갈비","tel":"031-793-9223","addr":"경기도 하남시 망월동 922-2번지 1층 102호","indutype":"일반휴게음식 - 일반한식","category":"restaurant"}]},{"lat":"37.568815824","long":"127.18364942","imageIndex":4,"items":[{"name":"미사구르메","tel":"02-1111-1111","addr":"경기도 하남시 망월동 994-2번지 101호","indutype":"일반휴게음식 - 주점","category":"restaurant"}]},{"lat":"37.559706827","long":"127.20055885","imageIndex":4,"items":[{"name":"미사실내포차","tel":"","addr":"경기도 하남시 망월동 1196-8번지 1층 101호","indutype":"일반휴게음식 - 주점","category":"restaurant"}]},{"lat":"37.57573225","long":"127.19139785","imageIndex":4,"items":[{"name":"미사차이나","tel":"02-791-8898","addr":"경기도 하남시 망월동 859-7번지 1층","indutype":"일반휴게음식 - 중국식","category":"restaurant"}]},{"lat":"37.569589136","long":"127.18464739","imageIndex":4,"items":[{"name":"미정국수0410 미사강변점","tel":"070-7756-0410","addr":"경기도 하남시 망월동 970번지 예스프라자미사 1층 107호","indutype":"일반휴게음식 - 일반한식","category":"restaurant"},{"name":"오래참숯수제갈비","tel":"031-793-7573","addr":"경기도 하남시 망월동 970번지 예스프라자미사 203호","indutype":"일반휴게음식 - 일반한식","category":"restaurant"},{"name":"오마뎅","tel":"031-791-7430","addr":"경기도 하남시 망월동 970번지 예스프라자 미사 1층 104호","indutype":"일반휴게음식 - 일반한식","category":"restaurant"},{"name":"쥬씨 하남미사점","tel":"031-792-0978","addr":"경기도 하남시 망월동 970번지 예스프라자 1층 105호","indutype":"일반휴게음식 - 일반한식","category":"restaurant"},{"name":"참맛옛날통닭","tel":"031-791-9249","addr":"경기도 하남시 망월동 970번지 예스프라자 미사 1층 108호","indutype":"일반휴게음식 - 스넥","category":"restaurant"}]},{"lat":"37.569233645","long":"127.19297749","imageIndex":4,"items":[{"name":"바른치킨 미사강변파밀리에","tel":"031-793-8277","addr":"경기도 하남시 망월동 916-3번지 102호","indutype":"일반휴게음식 - 스넥","category":"restaurant"}]},{"lat":"37.56945778","long":"127.18216815","imageIndex":4,"items":[{"name":"바얼리반","tel":"031-793-7859","addr":"경기도 하남시 망월동 1022-9번지","indutype":"일반휴게음식 - 서양음식","category":"restaurant"}]},{"lat":"37.568701668","long":"127.19322516","imageIndex":4,"items":[{"name":"바질12","tel":"","addr":"경기도 하남시 망월동 916-6번지 1층","indutype":"일반휴게음식 - 서양음식","category":"restaurant"}]},{"lat":"37.574870101","long":"127.18964106","imageIndex":4,"items":[{"name":"배고을산골순대국","tel":"031-791-1320","addr":"경기도 하남시 망월동 870-1번지 1층 101호","indutype":"일반휴게음식 - 일반한식","category":"restaurant"}]},{"lat":"37.569484036","long":"127.19414401","imageIndex":4,"items":[{"name":"베테랑짬뽕","tel":"031-791-7555","addr":"경기도 하남시 망월동 926-5번지 101호","indutype":"일반휴게음식 - 중국식","category":"restaurant"}]},{"lat":"37.565428213","long":"127.18939112","imageIndex":4,"items":[{"name":"베풀장어 미사강변점","tel":"032-000-0000","addr":"경기도 하남시 망월동 1083-1번지 미사강변안강프라이빗뷰 1층 101호","indutype":"일반휴게음식 - 일반한식","category":"restaurant"},{"name":"햇살품은 파스타","tel":"","addr":"경기도 하남시 망월동 1083-1번지 미사강변안강프라이빗뷰 2층 204호","indutype":"일반휴게음식 - 서양음식","category":"restaurant"}]},{"lat":"37.575065039","long":"127.19170181","imageIndex":4,"items":[{"name":"보물섬","tel":"031-795-3590","addr":"경기도 하남시 망월동 874번지","indutype":"일반휴게음식 - 스넥","category":"restaurant"}]},{"lat":"37.560590335","long":"127.20023296","imageIndex":4,"items":[{"name":"보정골","tel":"031-1111-1111","addr":"경기도 하남시 망월동 1191번지","indutype":"일반휴게음식 - 일반한식","category":"restaurant"}]},{"lat":"37.569844922","long":"127.19383931","imageIndex":4,"items":[{"name":"본스치킨 하남미사점","tel":"031-792-5092","addr":"경기도 하남시 망월동 932번지 프랑프랑 101호","indutype":"일반휴게음식 - 스넥","category":"restaurant"},{"name":"하회탈 국수마당","tel":"031-793-3369","addr":"경기도 하남시 망월동 932번지 1층","indutype":"일반휴게음식 - 스넥","category":"restaurant"}]},{"lat":"37.576037695","long":"127.19195331","imageIndex":4,"items":[{"name":"봉수아피자(미사점)","tel":"031-794-6226","addr":"경기도 하남시 망월동 855-6번지 1층","indutype":"일반휴게음식 - 서양음식","category":"restaurant"}]},{"lat":"37.569818205","long":"127.18214637","imageIndex":4,"items":[{"name":"북촌 순두부","tel":"031-794-9732","addr":"경기도 하남시 망월동 1020-3번지 1층","indutype":"일반휴게음식 - 일반한식","category":"restaurant"}]},{"lat":"37.575734016","long":"127.19028847","imageIndex":4,"items":[{"name":"브룩스버거앤비어","tel":"031-699-3317","addr":"경기도 하남시 망월동 847-5번지 1충 101호","indutype":"일반휴게음식 - 서양음식","category":"restaurant"}]},{"lat":"37.559265537","long":"127.2004445","imageIndex":4,"items":[{"name":"블랭킷","tel":"","addr":"경기도 하남시 망월동 1199번지 101호","indutype":"일반휴게음식 - 서양음식","category":"restaurant"}]},{"lat":"37.569483655","long":"127.1829266","imageIndex":4,"items":[{"name":"블레스롤 하남미사점","tel":"031-795-7298","addr":"경기도 하남시 망월동 1004번지 1층","indutype":"일반휴게음식 - 서양음식","category":"restaurant"}]},{"lat":"37.569954535","long":"127.18136566","imageIndex":4,"items":[{"name":"사심i","tel":"","addr":"경기도 하남시 망월동 1018-11번지 1층 101호","indutype":"일반휴게음식 - 일식·회집","category":"restaurant"}]},{"lat":"37.574897863","long":"127.18917701","imageIndex":4,"items":[{"name":"사찌","tel":"031-792-8081","addr":"경기도 하남시 망월동 868-5번지 1층","indutype":"일반휴게음식 - 일반한식","category":"restaurant"}]},{"lat":"37.570727643","long":"127.18251077","imageIndex":4,"items":[{"name":"산카이 미사점","tel":"031-794-3425","addr":"경기도 하남시 망월동 985-6번지 1층","indutype":"일반휴게음식 - 일반한식","category":"restaurant"}]},{"lat":"37.562562244","long":"127.19552978","imageIndex":4,"items":[{"name":"살렘(Salem)","tel":"070-7670-0833","addr":"경기도 하남시 망월동 1138번지 퀸즈파크미사2차 2층 216호","indutype":"일반휴게음식 - 서양음식","category":"restaurant"}]},{"lat":"37.568789055","long":"127.18347957","imageIndex":4,"items":[{"name":"삼곱식당(미사신도시점)","tel":"031-794-3992","addr":"경기도 하남시 망월동 1002-3번지 1층","indutype":"일반휴게음식 - 일반한식","category":"restaurant"}]},{"lat":"37.571062276","long":"127.18167393","imageIndex":4,"items":[{"name":"삼구닭갈비","tel":"031-793-0730","addr":"경기도 하남시 망월동 1015번지 1층","indutype":"일반휴게음식 - 일반한식","category":"restaurant"}]},{"lat":"37.559924819","long":"127.19950686","imageIndex":4,"items":[{"name":"샐리앤린","tel":"070-8734-0911","addr":"경기도 하남시 망월동 1188-6번지","indutype":"일반휴게음식 - 서양음식","category":"restaurant"}]},{"lat":"37.569701044","long":"127.18216873","imageIndex":4,"items":[{"name":"생활맥주 미사강변도시점","tel":"031-794-5315","addr":"경기도 하남시 망월동 1020-4번지 1층","indutype":"일반휴게음식 - 주점","category":"restaurant"}]},{"lat":"37.571152082","long":"127.18186658","imageIndex":4,"items":[{"name":"섬마을도야지","tel":"031-792-9474","addr":"경기도 하남시 망월동 1010-9번지 1층","indutype":"일반휴게음식 - 일반한식","category":"restaurant"}]},{"lat":"37.560122997","long":"127.19953002","imageIndex":4,"items":[{"name":"소반상","tel":"","addr":"경기도 하남시 망월동 1188-2번지","indutype":"일반휴게음식 - 일식·회집","category":"restaurant"}]},{"lat":"37.569620625","long":"127.18172708","imageIndex":4,"items":[{"name":"순수치킨 하남미사점","tel":"","addr":"경기도 하남시 망월동 1022-6번지 101호","indutype":"일반휴게음식 - 스넥","category":"restaurant"}]},{"lat":"37.570700992","long":"127.18226168","imageIndex":4,"items":[{"name":"스마일찹쌀꽈배기","tel":"031-796-6269","addr":"경기도 하남시 망월동 1010-4번지 와이큐브하우스 1층 101호","indutype":"일반휴게음식 - 일반한식","category":"restaurant"}]},{"lat":"37.570012003","long":"127.18503327","imageIndex":4,"items":[{"name":"스카이푸드","tel":"","addr":"경기도 하남시 망월동 962-3번지 미사프라자 2층 205호","indutype":"일반휴게음식 - 일반한식","category":"restaurant"}]},{"lat":"37.57015275","long":"127.18136614","imageIndex":4,"items":[{"name":"시엔","tel":"031-1111-1111","addr":"경기도 하남시 망월동 1018-1번지 1층","indutype":"일반휴게음식 - 중국식","category":"restaurant"}]},{"lat":"37.570179574","long":"127.18150203","imageIndex":4,"items":[{"name":"식호락 하남미사강변점","tel":"","addr":"경기도 하남시 망월동 1018-2번지 1층","indutype":"일반휴게음식 - 일반한식","category":"restaurant"}]},{"lat":"37.569952325","long":"127.19428104","imageIndex":4,"items":[{"name":"신전떡볶이 미사강변도시점","tel":"031-791-9111","addr":"경기도 하남시 망월동 932-3번지","indutype":"일반휴게음식 - 스넥","category":"restaurant"}]},{"lat":"37.570702142","long":"127.18150328","imageIndex":4,"items":[{"name":"아기숟가락 하남점","tel":"031-796-2610","addr":"경기도 하남시 망월동 1015-7번지 1층","indutype":"일반휴게음식 - 일반한식","category":"restaurant"}]},{"lat":"37.56979176","long":"127.18176145","imageIndex":4,"items":[{"name":"아르떼칠드런 하남미사점","tel":"031-791-7275","addr":"경기도 하남시 망월동 1020번지 1층 102호","indutype":"일반휴게음식 - 서양음식","category":"restaurant"}]},{"lat":"37.575317457","long":"127.19161189","imageIndex":4,"items":[{"name":"아임홈","tel":"070-8840-1143","addr":"경기도 하남시 망월동 864-5번지 concept house 1층","indutype":"일반휴게음식 - 서양음식","category":"restaurant"}]},{"lat":"37.575095076","long":"127.18981143","imageIndex":4,"items":[{"name":"아토 ATO","tel":"","addr":"경기도 하남시 망월동 843-14번지 1층","indutype":"일반휴게음식 - 일식·회집","category":"restaurant"}]},{"lat":"37.569899379","long":"127.18208997","imageIndex":4,"items":[{"name":"안성깍두기 하남점","tel":"031-796-7277","addr":"경기도 하남시 망월동 1020-2번지","indutype":"일반휴게음식 - 일반한식","category":"restaurant"}]},{"lat":"37.570119561","long":"127.18539575","imageIndex":4,"items":[{"name":"어사출또 하남미사점","tel":"","addr":"경기도 하남시 망월동 963번지 미사강변주차타워 1층","indutype":"일반휴게음식 - 일식·회집","category":"restaurant"}]},{"lat":"37.568978641","long":"127.183231","imageIndex":4,"items":[{"name":"연안식당 미사 망월점","tel":"","addr":"경기도 하남시 망월동 1002-1번지","indutype":"일반휴게음식 - 일반한식","category":"restaurant"}]},{"lat":"37.565540149","long":"127.1981747","imageIndex":4,"items":[{"name":"연푸드","tel":"031-791-8159","addr":"경기도 하남시 망월동 1147-2번지 힐스테이트에코미사강변 1층 131-133호","indutype":"일반휴게음식 - 일반한식","category":"restaurant"},{"name":"호수식당","tel":"031-795-0788","addr":"경기도 하남시 망월동 1147-2번지 2층 215~218호","indutype":"일반휴게음식 - 일반한식","category":"restaurant"}]},{"lat":"37.569204862","long":"127.19406406","imageIndex":4,"items":[{"name":"연푸드(한식뷔페)","tel":"031-792-7923","addr":"경기도 하남시 망월동 926-1번지 1층","indutype":"일반휴게음식 - 일반한식","category":"restaurant"}]},{"lat":"37.561236175","long":"127.18520431","imageIndex":4,"items":[{"name":"오복식당","tel":"031-793-6572","addr":"경기도 하남시 망월동 780-6","indutype":"일반휴게음식 - 일반한식","category":"restaurant"}]},{"lat":"37.560094532","long":"127.2003901","imageIndex":4,"items":[{"name":"오투닭갈비","tel":"","addr":"경기도 하남시 망월동 1190-4번지 1층 101호","indutype":"일반휴게음식 - 일반한식","category":"restaurant"}]},{"lat":"37.56856643","long":"127.19328141","imageIndex":4,"items":[{"name":"옥루","tel":"031-793-5521","addr":"경기도 하남시 망월동 916-7번지 1층","indutype":"일반휴게음식 - 중국식","category":"restaurant"}]},{"lat":"37.569675147","long":"127.18142159","imageIndex":4,"items":[{"name":"옥수수 통닭 하남미사점","tel":"031-794-3795","addr":"경기도 하남시 망월동 1022-4번지","indutype":"일반휴게음식 - 스넥","category":"restaurant"}]},{"lat":"37.575841089","long":"127.19094532","imageIndex":4,"items":[{"name":"올레닭갈비","tel":"031-729-9369","addr":"경기도 하남시 망월동 857-1번지 1층","indutype":"일반휴게음식 - 일반한식","category":"restaurant"}]},{"lat":"37.56104288","long":"127.19900049","imageIndex":4,"items":[{"name":"우현수산","tel":"031-796-0531","addr":"경기도 하남시 망월동 35-8","indutype":"일반휴게음식 - 일식·회집","category":"restaurant"}]},{"lat":"37.568978847","long":"127.19453889","imageIndex":4,"items":[{"name":"원조감자탕닭갈비","tel":"","addr":"경기도 하남시 망월동 920-7번지 1층","indutype":"일반휴게음식 - 일반한식","category":"restaurant"}]},{"lat":"37.570124245","long":"127.18233953","imageIndex":4,"items":[{"name":"유로코피자","tel":"031-791-1838","addr":"경기도 하남시 망월동 1008-7번지 1층","indutype":"일반휴게음식 - 서양음식","category":"restaurant"}]},{"lat":"37.575122589","long":"127.18950585","imageIndex":4,"items":[{"name":"유은자 참숯과 닭발 미사점","tel":"","addr":"경기도 하남시 망월동 843-16번지 1층","indutype":"일반휴게음식 - 일반한식","category":"restaurant"}]},{"lat":"37.569619267","long":"127.18262131","imageIndex":4,"items":[{"name":"육감만족 하남미사점","tel":"031-795-1399","addr":"경기도 하남시 망월동 1006-1번지 1층","indutype":"일반휴게음식 - 일반한식","category":"restaurant"}]},{"lat":"37.568230396","long":"127.18351218","imageIndex":4,"items":[{"name":"육풍미사신도시점","tel":"031-796-1518","addr":"경기도 하남시 망월동 1000-5번지 1층","indutype":"일반휴게음식 - 일반한식","category":"restaurant"}]},{"lat":"37.560013614","long":"127.20028803","imageIndex":4,"items":[{"name":"율담프룻","tel":"","addr":"경기도 하남시 망월동 1190-3번지 1층","indutype":"일반휴게음식 - 서양음식","category":"restaurant"}]},{"lat":"37.560042963","long":"127.19889601","imageIndex":4,"items":[{"name":"이디야커피 미사강변한강로점","tel":"","addr":"경기도 하남시 망월동 1186-8번지 1층","indutype":"일반휴게음식 - 서양음식","category":"restaurant"}]},{"lat":"37.570954073","long":"127.18173027","imageIndex":4,"items":[{"name":"이디야커피(미사망월점)","tel":"031-791-3391","addr":"경기도 하남시 망월동 1015-1번지 1층","indutype":"일반휴게음식 - 서양음식","category":"restaurant"}]},{"lat":"37.568175956","long":"127.18376106","imageIndex":4,"items":[{"name":"이차돌 하남미사","tel":"","addr":"경기도 하남시 망월동 1000-3번지 1층","indutype":"일반휴게음식 - 일반한식","category":"restaurant"}]},{"lat":"37.575786579","long":"127.19122818","imageIndex":4,"items":[{"name":"이차집","tel":"031-791-1992","addr":"경기도 하남시 망월동 859-8번지 1층","indutype":"일반휴게음식 - 일반한식","category":"restaurant"}]},{"lat":"37.576068346","long":"127.18967802","imageIndex":4,"items":[{"name":"인정","tel":"031-792-0208","addr":"경기도 하남시 망월동 849-6번지 1층 102호","indutype":"일반휴게음식 - 일반한식","category":"restaurant"}]},{"lat":"37.57075536","long":"127.18205806","imageIndex":4,"items":[{"name":"일미양구이","tel":"031-795-6908","addr":"경기도 하남시 망월동 1010-6번지 1층","indutype":"일반휴게음식 - 일반한식","category":"restaurant"}]},{"lat":"37.570512799","long":"127.18159338","imageIndex":4,"items":[{"name":"일방통행 국물즉석떡볶이와 화덕피자","tel":"031-793-7957","addr":"경기도 하남시 망월동 1015-5번지 1층","indutype":"일반휴게음식 - 스넥","category":"restaurant"}]},{"lat":"37.569871768","long":"127.19395257","imageIndex":4,"items":[{"name":"정다운한식부페","tel":"","addr":"경기도 하남시 망월동 932-1번지 1층","indutype":"일반휴게음식 - 일반한식","category":"restaurant"}]},{"lat":"37.575313026","long":"127.18872524","imageIndex":4,"items":[{"name":"정담은 코다리","tel":"031-794-0998","addr":"경기도 하남시 망월동 841-4번지 1층","indutype":"일반휴게음식 - 일반한식","category":"restaurant"}]},{"lat":"37.569952474","long":"127.18272398","imageIndex":4,"items":[{"name":"제주근고기 도니랑","tel":"031-792-9242","addr":"경기도 하남시 망월동 1008-4번지 1층","indutype":"일반휴게음식 - 일반한식","category":"restaurant"}]},{"lat":"37.569700114","long":"127.18277997","imageIndex":4,"items":[{"name":"조카와 이모가 만드는 조이감자탕","tel":"031-791-7477","addr":"경기도 하남시 망월동 1006번지","indutype":"일반휴게음식 - 일반한식","category":"restaurant"}]},{"lat":"37.576282874","long":"127.19075398","imageIndex":4,"items":[{"name":"존앤맷타코","tel":"070-8615-7977","addr":"경기도 하남시 망월동 853-3번지 큰가람루 103호","indutype":"일반휴게음식 - 서양음식","category":"restaurant"}]},{"lat":"37.570063285","long":"127.18094711","imageIndex":4,"items":[{"name":"종로맥가 하남미사점","tel":"","addr":"경기도 하남시 망월동 1022번지","indutype":"일반휴게음식 - 주점","category":"restaurant"}]},{"lat":"37.570952042","long":"127.19450999","imageIndex":4,"items":[{"name":"중아트 구내식당/(주)중아트그룹중아트갤러","tel":"031-791-5134","addr":"경기도 하남시 망월동 941번지","indutype":"일반휴게음식 - 위탁급식업","category":"restaurant"}]},{"lat":"37.575950484","long":"127.19014185","imageIndex":4,"items":[{"name":"차고집칡냉면 미사점","tel":"031-793-2292","addr":"경기도 하남시 망월동 849-3번지 1층","indutype":"일반휴게음식 - 일반한식","category":"restaurant"}]},{"lat":"37.56890254","long":"127.18584555","imageIndex":4,"items":[{"name":"차오차오 미사 2동점","tel":"031-791-0038","addr":"경기도 하남시 망월동 976-5번지 라임프라자 2층 201호","indutype":"일반휴게음식 - 중국식","category":"restaurant"}]},{"lat":"37.576005063","long":"127.1898137","imageIndex":4,"items":[{"name":"착한전","tel":"031-792-2425","addr":"경기도 하남시 망월동 849-5번지 101호","indutype":"일반휴게음식 - 일반한식","category":"restaurant"}]},{"lat":"37.568202569","long":"127.18403279","imageIndex":4,"items":[{"name":"참치요리전문점 참꽃","tel":"031-795-2570","addr":"경기도 하남시 망월동 997-3번지 지하1층","indutype":"일반휴게음식 - 일식·회집","category":"restaurant"}]},{"lat":"37.570674598","long":"127.1818428","imageIndex":4,"items":[{"name":"청년다방미사강변점","tel":"031-793-5671","addr":"경기도 하남시 망월동 1015-3번지 율하우스 1층 101호","indutype":"일반휴게음식 - 스넥","category":"restaurant"}]},{"lat":"37.575921292","long":"127.19150021","imageIndex":4,"items":[{"name":"청년피자 (미사점)","tel":"070-4922-1261","addr":"경기도 하남시 망월동 859-1번지 로사펠리스","indutype":"일반휴게음식 - 서양음식","category":"restaurant"},{"name":"호세야","tel":"","addr":"경기도 하남시 망월동 859-1번지 로사펠리스 102호","indutype":"일반휴게음식 - 일반한식","category":"restaurant"}]},{"lat":"37.568898309","long":"127.19419911","imageIndex":4,"items":[{"name":"최고집(하남미사직영점)","tel":"02-0000-0000","addr":"경기도 하남시 망월동 920-5번지 101호","indutype":"일반휴게음식 - 일반한식","category":"restaurant"}]},{"lat":"37.575983237","long":"127.19220222","imageIndex":4,"items":[{"name":"치요남치킨 하남미사점","tel":"031-795-1178","addr":"경기도 하남시 망월동 855-7번지 1층 101호","indutype":"일반휴게음식 - 스넥","category":"restaurant"}]},{"lat":"37.568620123","long":"127.19350793","imageIndex":4,"items":[{"name":"치킨욜로 미사점","tel":"031-791-9288","addr":"경기도 하남시 망월동 920번지 1층","indutype":"일반휴게음식 - 스넥","category":"restaurant"}]},{"lat":"37.569762881","long":"127.1944277","imageIndex":4,"items":[{"name":"카르페디엠","tel":"031-792-0291","addr":"경기도 하남시 망월동 932-4번지 1층","indutype":"일반휴게음식 - 서양음식","category":"restaurant"}]},{"lat":"37.569952164","long":"127.18292773","imageIndex":4,"items":[{"name":"카페 길","tel":"","addr":"경기도 하남시 망월동 988-4번지 1층","indutype":"일반휴게음식 - 서양음식","category":"restaurant"}]},{"lat":"37.568758821","long":"127.18556222","imageIndex":4,"items":[{"name":"카페 더치즈케이크","tel":"","addr":"경기도 하남시 망월동 976-4번지 명성빌딩 101호","indutype":"일반휴게음식 - 서양음식","category":"restaurant"}]},{"lat":"37.569429855","long":"127.18275668","imageIndex":4,"items":[{"name":"카페 보보스","tel":"031-792-8221","addr":"경기도 하남시 망월동 1004-3번지 1층","indutype":"일반휴게음식 - 서양음식","category":"restaurant"}]},{"lat":"37.575533999","long":"127.19141999","imageIndex":4,"items":[{"name":"카페비니(cate bini)","tel":"031-794-2544","addr":"경기도 하남시 망월동 864-3번지 101호","indutype":"일반휴게음식 - 서양음식","category":"restaurant"}]},{"lat":"37.560788985","long":"127.19997317","imageIndex":4,"items":[{"name":"커피,담다","tel":"02-1111-1111","addr":"경기도 하남시 망월동 1184-3번지 1층","indutype":"일반휴게음식 - 서양음식","category":"restaurant"}]},{"lat":"37.560093774","long":"127.20084281","imageIndex":4,"items":[{"name":"커피나한잔","tel":"031-000-0000","addr":"경기도 하남시 망월동 1194번지 1층","indutype":"일반휴게음식 - 서양음식","category":"restaurant"}]},{"lat":"37.566736622","long":"127.1937861","imageIndex":4,"items":[{"name":"코파카바나","tel":"031-796-0404","addr":"경기도 하남시 망월동 200 하남종합체육관3층","indutype":"일반휴게음식 - 서양음식","category":"restaurant"}]},{"lat":"37.569788586","long":"127.1838442","imageIndex":4,"items":[{"name":"키즈필 키즈카페","tel":"031-793-9277","addr":"경기도 하남시 망월동 962번지 미사메디프라자 7층","indutype":"일반휴게음식 - 서양음식","category":"restaurant"}]},{"lat":"37.569458616","long":"127.19314785","imageIndex":4,"items":[{"name":"투존치킨 미사점","tel":"031-793-4789","addr":"경기도 하남시 망월동 930-7번지 1층","indutype":"일반휴게음식 - 스넥","category":"restaurant"}]},{"lat":"37.56973653","long":"127.19400882","imageIndex":4,"items":[{"name":"티바두마리","tel":"031-795-1344","addr":"경기도 하남시 망월동 932-6번지 1층 101호","indutype":"일반휴게음식 - 스넥","category":"restaurant"},{"name":"피자헤븐 하남점","tel":"031-792-5795","addr":"경기도 하남시 망월동 932-6번지 102호","indutype":"일반휴게음식 - 서양음식","category":"restaurant"}]},{"lat":"37.568844434","long":"127.19408578","imageIndex":4,"items":[{"name":"풍년식당","tel":"031-572-4242","addr":"경기도 하남시 망월동 920-4 번지","indutype":"일반휴게음식 - 일반한식","category":"restaurant"}]},{"lat":"37.569033045","long":"127.18300475","imageIndex":4,"items":[{"name":"플랩잭팬트리","tel":"031-793-6422","addr":"경기도 하남시 망월동 1002-7번지 1층","indutype":"일반휴게음식 - 일반한식","category":"restaurant"}]},{"lat":"37.575866871","long":"127.19172648","imageIndex":4,"items":[{"name":"피자나라치킨공주하남미사점","tel":"031-796-4201","addr":"경기도 하남시 망월동 859-2번지 1층 101호","indutype":"일반휴게음식 - 서양음식","category":"restaurant"}]},{"lat":"37.569620882","long":"127.18155729","imageIndex":4,"items":[{"name":"하나미","tel":"031-794-2868","addr":"경기도 하남시 망월동 1022-5번지 1층 101호","indutype":"일반휴게음식 - 일반한식","category":"restaurant"}]},{"lat":"37.569756491","long":"127.181252","imageIndex":4,"items":[{"name":"하남돼지집 미사신도시점","tel":"031-791-7992","addr":"경기도 하남시 망월동 1022-3번지 1층","indutype":"일반휴게음식 - 일반한식","category":"restaurant"}]},{"lat":"37.58001205","long":"127.19130675","imageIndex":4,"items":[{"name":"하이난","tel":"031-796-4173","addr":"경기도 하남시 망월동 333-2","indutype":"일반휴게음식 - 중국식","category":"restaurant"}]},{"lat":"37.564479804","long":"127.18514431","imageIndex":4,"items":[{"name":"할타스","tel":"","addr":"경기도 하남시 망월동 1060번지 미사강변푸르지오 111동 6층 602호","indutype":"일반휴게음식 - 일반한식","category":"restaurant"}]},{"lat":"37.571566618","long":"127.18181097","imageIndex":4,"items":[{"name":"홍","tel":"031-795-8615","addr":"경기도 하남시 망월동 1012-1번지 103호","indutype":"일반휴게음식 - 중국식","category":"restaurant"}]},{"lat":"37.568843373","long":"127.18330991","imageIndex":4,"items":[{"name":"화포식당하남미사점","tel":"031-794-0822","addr":"경기도 하남시 망월동 1002-2번지 1층","indutype":"일반휴게음식 - 일반한식","category":"restaurant"}]},{"lat":"37.56951158","long":"127.18233806","imageIndex":4,"items":[{"name":"황제제면소","tel":"031-793-9870","addr":"경기도 하남시 망월동 1022-10번지","indutype":"일반휴게음식 - 일반한식","category":"restaurant"}]},{"lat":"37.574815163","long":"127.19019561","imageIndex":4,"items":[{"name":"황제푸드","tel":"031-753-6001","addr":"경기도 하남시 망월동 870-5번지","indutype":"일반휴게음식 - 일반한식","category":"restaurant"}]},{"lat":"37.569673113","long":"127.19422373","imageIndex":4,"items":[{"name":"황토향기/주식회사 푸짐한푸드","tel":"","addr":"경기도 하남시 망월동 932-5번지 101호","indutype":"일반휴게음식 - 일반한식","category":"restaurant"}]}]