[{"lat":"37.2923746614","long":"126.8822675218","imageIndex":5,"items":[{"name":"감골오리향","tel":"031-438-1868","addr":"경기도 안산시 상록구 팔곡이동 477번지","indutype":"숙박 및 음식점업 - 기타음식","category":"hotel"}]},{"lat":"37.2973167774","long":"126.8867709838","imageIndex":5,"items":[{"name":"고기나라 팔곡점","tel":"031-407-9233","addr":"경기도 안산시 상록구 팔곡이동 364-6번지","indutype":"숙박 및 음식점업 - 한식","category":"hotel"}]},{"lat":"37.2938729407","long":"126.8848252058","imageIndex":5,"items":[{"name":"담원골","tel":"031-437-2233","addr":"경기도 안산시 상록구 팔곡이동 442-13번지","indutype":"숙박 및 음식점업 - 한식","category":"hotel"}]},{"lat":"37.2971730996","long":"126.8872674525","imageIndex":5,"items":[{"name":"동네감자탕","tel":"031-501-4642","addr":"경기도 안산시 상록구 팔곡이동 357-3번지","indutype":"숙박 및 음식점업 - 한식","category":"hotel"},{"name":"또봉이통닭","tel":"031-501-9292","addr":"경기도 안산시 상록구 팔곡이동 357-3번지","indutype":"숙박 및 음식점업 - 치킨","category":"hotel"},{"name":"현대한식뷔페","tel":"031-403-7100","addr":"경기도 안산시 상록구 팔곡이동 357-3번지","indutype":"숙박 및 음식점업 - 한식","category":"hotel"}]},{"lat":"37.2901183533","long":"126.8875489035","imageIndex":5,"items":[{"name":"만리장성","tel":"031-438-0566","addr":"경기도 안산시 상록구 팔곡이동 51-1번지","indutype":"숙박 및 음식점업 - 중식","category":"hotel"}]},{"lat":"37.2973692456","long":"126.8851580934","imageIndex":5,"items":[{"name":"손커피연구소","tel":"070-8268-3357","addr":"경기도 안산시 상록구 팔곡이동 377-1번지","indutype":"숙박 및 음식점업 - 휴게음식점","category":"hotel"}]},{"lat":"37.2964794224","long":"126.8873812968","imageIndex":5,"items":[{"name":"청담 추어정","tel":"","addr":"경기도 안산시 상록구 팔곡이동 358-6번지","indutype":"숙박 및 음식점업 - 음식","category":"hotel"}]},{"lat":"37.2966224355","long":"126.8862081372","imageIndex":5,"items":[{"name":"친구네김치찌개","tel":"","addr":"경기도 안산시 상록구 팔곡이동 405-5번지 다운주택","indutype":"숙박 및 음식점업 - 한식","category":"hotel"}]}]