[{"lat":"37.266180667","long":"127.10563086","imageIndex":4,"items":[{"name":"Cafe wlllow/주식회사 이글","tel":"070-4184-1110","addr":"경기도 용인시 기흥구 상갈동 474번지 한솔학원 101호","indutype":"일반휴게음식 - 서양음식","category":"restaurant"},{"name":"강릉동화가든짬뽕순두부","tel":"031-282-3661","addr":"경기도 용인시 기흥구 상갈동 474번지 중앙프라자 1층 101호","indutype":"일반휴게음식 - 일반한식","category":"restaurant"},{"name":"좀마니포차","tel":"031-287-0910","addr":"경기도 용인시 기흥구 상갈동 474번지 한솔학원 1층 104호","indutype":"일반휴게음식 - 일반한식","category":"restaurant"}]},{"lat":"37.266126115","long":"127.10619447","imageIndex":4,"items":[{"name":"가온칼국수","tel":"","addr":"경기도 용인시 기흥구 상갈동 474-2번지 그린프라자2 지하1층 107호,108호","indutype":"일반휴게음식 - 일반한식","category":"restaurant"},{"name":"본죽","tel":"031-281-2020","addr":"경기도 용인시 기흥구 상갈동 474-2번지 그린프라자 101호","indutype":"일반휴게음식 - 일반한식","category":"restaurant"},{"name":"술이달다","tel":"","addr":"경기도 용인시 기흥구 상갈동 474-2번지 그린프라자2 1층 204호","indutype":"일반휴게음식 - 일반한식","category":"restaurant"},{"name":"스마일찹쌀꽈배기","tel":"031-8019-8215","addr":"경기도 용인시 기흥구 상갈동 474-2번지 그린프라자2 지하1층 104호","indutype":"일반휴게음식 - 일반한식","category":"restaurant"},{"name":"싱싱활어직판장","tel":"070-3525-6868","addr":"경기도 용인시 기흥구 상갈동 474-2번지 그린프라자2 지하1층 105,106호","indutype":"일반휴게음식 - 일식·회집","category":"restaurant"},{"name":"피자스쿨(금화마을점)","tel":"031-693-9953","addr":"경기도 용인시 기흥구 상갈동 474-2번지 그린프라자2차 103호","indutype":"일반휴게음식 - 서양음식","category":"restaurant"}]},{"lat":"37.266486092","long":"127.10669101","imageIndex":4,"items":[{"name":"고철상상갈직영점","tel":"031-281-9222","addr":"경기도 용인시 기흥구 상갈동 125-18번지","indutype":"일반휴게음식 - 일반한식","category":"restaurant"}]},{"lat":"37.268991244","long":"127.10635622","imageIndex":4,"items":[{"name":"골목식당","tel":"031-281-8527","addr":"경기도 용인시 기흥구 상갈동 100-16번지","indutype":"일반휴게음식 - 일반한식","category":"restaurant"},{"name":"백암왕순대소머리국밥","tel":"031-205-0288","addr":"경기도 용인시 기흥구 상갈동 100-16번지","indutype":"일반휴게음식 - 일반한식","category":"restaurant"}]},{"lat":"37.269180627","long":"127.10616482","imageIndex":4,"items":[{"name":"구구식당","tel":"031-284-9957","addr":"경기도 용인시 기흥구 상갈동 100-9번지","indutype":"일반휴게음식 - 일반한식","category":"restaurant"}]},{"lat":"37.266430777","long":"127.10811143","imageIndex":4,"items":[{"name":"국수나무 상갈점","tel":"031-287-9399","addr":"경기도 용인시 기흥구 상갈동 472-2번지 한솔프라자 106호","indutype":"일반휴게음식 - 스넥","category":"restaurant"},{"name":"인더그레이(in the gray)","tel":"031-281-7773","addr":"경기도 용인시 기흥구 상갈동 472-2번지 한솔프라자 111호-114호","indutype":"일반휴게음식 - 서양음식","category":"restaurant"}]},{"lat":"37.269631121","long":"127.10618798","imageIndex":4,"items":[{"name":"금호숯불갈비","tel":"031-282-9009","addr":"경기도 용인시 기흥구 상갈동 100-2번지","indutype":"일반휴게음식 - 갈비전문점","category":"restaurant"},{"name":"대박순대국","tel":"031-281-3223","addr":"경기도 용인시 기흥구 상갈동 100-2번지","indutype":"일반휴게음식 - 일반한식","category":"restaurant"},{"name":"정남진식당","tel":"070-7543-1803","addr":"경기도 용인시 기흥구 상갈동 100-2번지","indutype":"일반휴게음식 - 일반한식","category":"restaurant"},{"name":"해녀랑","tel":"031-281-9285","addr":"경기도 용인시 기흥구 상갈동 100-2번지 1층","indutype":"일반휴게음식 - 일반한식","category":"restaurant"}]},{"lat":"37.270569924","long":"127.11421663","imageIndex":4,"items":[{"name":"기와집","tel":"031-282-2708","addr":"경기도 용인시 기흥구 상갈동 142번지 1층","indutype":"일반휴게음식 - 일반한식","category":"restaurant"}]},{"lat":"37.268352884","long":"127.10477698","imageIndex":4,"items":[{"name":"김정훈 해물찜 아구찜 낙지볶음","tel":"031-275-0770","addr":"경기도 용인시 기흥구 상갈동 175-1번지 1,2층","indutype":"일반휴게음식 - 일반한식","category":"restaurant"}]},{"lat":"37.269486493","long":"127.10671768","imageIndex":4,"items":[{"name":"꼬꼬치킨","tel":"031-208-2533","addr":"경기도 용인시 기흥구 상갈동 101-22번지 가동 1층 일부","indutype":"일반휴게음식 - 스넥","category":"restaurant"}]},{"lat":"37.266576658","long":"127.10616126","imageIndex":4,"items":[{"name":"꽃돼지삼겹살","tel":"031-283-7723","addr":"경기도 용인시 기흥구 상갈동 124-12번지 1층 일부","indutype":"일반휴게음식 - 일반한식","category":"restaurant"},{"name":"상구비어","tel":"031-284-9291","addr":"경기도 용인시 기흥구 상갈동 124-12번지 1층","indutype":"일반휴게음식 - 주점","category":"restaurant"}]},{"lat":"37.269070717","long":"127.10819402","imageIndex":4,"items":[{"name":"노리타","tel":"031-275-0038","addr":"경기도 용인시 기흥구 상갈동 119-8번지 진빌딩 1층 103호","indutype":"일반휴게음식 - 서양음식","category":"restaurant"},{"name":"베뉴31(Venue31)","tel":"031-282-3131","addr":"경기도 용인시 기흥구 상갈동 119-8번지 104호, 201호","indutype":"일반휴게음식 - 서양음식","category":"restaurant"}]},{"lat":"37.266153421","long":"127.10587884","imageIndex":4,"items":[{"name":"니커피카페","tel":"031-000-0000","addr":"경기도 용인시 기흥구 상갈동 474-1번지 그린프라자1 1층 204호","indutype":"일반휴게음식 - 서양음식","category":"restaurant"}]},{"lat":"37.267711054","long":"127.10718874","imageIndex":4,"items":[{"name":"달래흑염소옻닭","tel":"031-282-2241","addr":"경기도 용인시 기흥구 상갈동 122-27번지 2층","indutype":"일반휴게음식 - 일반한식","category":"restaurant"}]},{"lat":"37.269846438","long":"127.10724806","imageIndex":4,"items":[{"name":"대가식당","tel":"031-283-6688","addr":"경기도 용인시 기흥구 상갈동 101-9번지 1층","indutype":"일반휴게음식 - 일반한식","category":"restaurant"}]},{"lat":"37.269576892","long":"127.10637957","imageIndex":4,"items":[{"name":"대보식당","tel":"031-281-8894","addr":"경기도 용인시 기흥구 상갈동 100-4번지","indutype":"일반휴게음식 - 일반한식","category":"restaurant"}]},{"lat":"37.267378867","long":"127.10582414","imageIndex":4,"items":[{"name":"더(the)한음식 미가","tel":"031-286-0322","addr":"경기도 용인시 기흥구 상갈동 124-2번지 지하1층 일부","indutype":"일반휴게음식 - 일반한식","category":"restaurant"}]},{"lat":"37.266098482","long":"127.10688213","imageIndex":4,"items":[{"name":"더커피스토리","tel":"070-8992-0105","addr":"경기도 용인시 기흥구 상갈동 473-1번지 그린빌프라자 108호","indutype":"일반휴게음식 - 서양음식","category":"restaurant"},{"name":"이디야커피 용인상갈점","tel":"031-287-7579","addr":"경기도 용인시 기흥구 상갈동 473-1번지 그린빌프라자 102동 103호","indutype":"일반휴게음식 - 서양음식","category":"restaurant"}]},{"lat":"37.267179616","long":"127.10699636","imageIndex":4,"items":[{"name":"도토리마을","tel":"031-274-2767","addr":"경기도 용인시 기흥구 상갈동 125-2번지","indutype":"일반휴게음식 - 일반한식","category":"restaurant"}]},{"lat":"37.268792772","long":"127.1066378","imageIndex":4,"items":[{"name":"돼박고깃집","tel":"031-281-5887","addr":"경기도 용인시 기흥구 상갈동 121번지 1층","indutype":"일반휴게음식 - 일반한식","category":"restaurant"},{"name":"라이야양꼬치","tel":"031-286-9950","addr":"경기도 용인시 기흥구 상갈동 121번지","indutype":"일반휴게음식 - 일반한식","category":"restaurant"},{"name":"불로불러참숯바베큐치킨","tel":"","addr":"경기도 용인시 기흥구 상갈동 121번지 1층","indutype":"일반휴게음식 - 스넥","category":"restaurant"},{"name":"샹하이","tel":"031-284-1988","addr":"경기도 용인시 기흥구 상갈동 121번지 1층","indutype":"일반휴게음식 - 중국식","category":"restaurant"}]},{"lat":"37.269126102","long":"127.10669463","imageIndex":4,"items":[{"name":"두레박","tel":"031-284-5822","addr":"경기도 용인시 기흥구 상갈동 120번지","indutype":"일반휴게음식 - 일반한식","category":"restaurant"},{"name":"연해식당","tel":"031-285-4689","addr":"경기도 용인시 기흥구 상갈동 120번지","indutype":"일반휴게음식 - 일반한식","category":"restaurant"},{"name":"페리양념통닭","tel":"031-283-3502","addr":"경기도 용인시 기흥구 상갈동 120번지","indutype":"일반휴게음식 - 스넥","category":"restaurant"}]},{"lat":"37.266882762","long":"127.10644353","imageIndex":4,"items":[{"name":"또봉이통닭","tel":"031-284-9933","addr":"경기도 용인시 기흥구 상갈동 125-11번지 1층 102호","indutype":"일반휴게음식 - 스넥","category":"restaurant"},{"name":"옛날빈대떡","tel":"031-281-5959","addr":"경기도 용인시 기흥구 상갈동 125-11번지","indutype":"일반휴게음식 - 일반한식","category":"restaurant"},{"name":"최가네한식","tel":"031-308-9387","addr":"경기도 용인시 기흥구 상갈동 125-11번지","indutype":"일반휴게음식 - 일반한식","category":"restaurant"}]},{"lat":"37.270381311","long":"127.11357372","imageIndex":4,"items":[{"name":"로타리가든","tel":"031-285-5030","addr":"경기도 용인시 기흥구 상갈동 143-1번지","indutype":"일반휴게음식 - 일반한식","category":"restaurant"}]},{"lat":"37.265021143","long":"127.11255125","imageIndex":4,"items":[{"name":"루터대학교 구내식당","tel":"070-7553-7066","addr":"경기도 용인시 기흥구 상갈동 17번지 루터대학교 구내식당","indutype":"일반휴게음식 - 위탁급식업","category":"restaurant"}]},{"lat":"37.266070835","long":"127.10758106","imageIndex":4,"items":[{"name":"마냐나","tel":"031-285-0206","addr":"경기도 용인시 기흥구 상갈동 466-3번지 신화빌 101호","indutype":"일반휴게음식 - 일반한식","category":"restaurant"}]},{"lat":"37.26651334","long":"127.10644302","imageIndex":4,"items":[{"name":"마포족발","tel":"031-287-5018","addr":"경기도 용인시 기흥구 상갈동 125-14번지 1층","indutype":"일반휴게음식 - 일반한식","category":"restaurant"},{"name":"영참치&스시","tel":"031-282-3545","addr":"경기도 용인시 기흥구 상갈동 125-14번지 1층 102호","indutype":"일반휴게음식 - 일반한식","category":"restaurant"}]},{"lat":"37.2661258","long":"127.10655523","imageIndex":4,"items":[{"name":"맘스터치 용인상갈점","tel":"031-284-9284","addr":"경기도 용인시 기흥구 상갈동 473번지 정진프라자 1층 02호","indutype":"일반휴게음식 - 서양음식","category":"restaurant"}]},{"lat":"37.268090207","long":"127.10636626","imageIndex":4,"items":[{"name":"바다회사랑","tel":"031-283-1236","addr":"경기도 용인시 기흥구 상갈동 102-3번지 넥스빌아파트 4동 102호","indutype":"일반휴게음식 - 일식·회집","category":"restaurant"}]},{"lat":"37.267071958","long":"127.10646633","imageIndex":4,"items":[{"name":"박도수","tel":"031-284-0611","addr":"경기도 용인시 기흥구 상갈동 125-10번지 1층","indutype":"일반휴게음식 - 일반한식","category":"restaurant"}]},{"lat":"37.270043976","long":"127.10802626","imageIndex":4,"items":[{"name":"밥과술이만났을때","tel":"031-285-1522","addr":"경기도 용인시 기흥구 상갈동 123-2번지","indutype":"일반휴게음식 - 일반한식","category":"restaurant"}]},{"lat":"37.261243434","long":"127.10516196","imageIndex":4,"items":[{"name":"밥집","tel":"031-287-0883","addr":"경기도 용인시 기흥구 상갈동 485-2번지 이석민피자 102호","indutype":"일반휴게음식 - 일반한식","category":"restaurant"}]},{"lat":"37.269430584","long":"127.10880333","imageIndex":4,"items":[{"name":"버섯이랑","tel":"031-281-7880","addr":"경기도 용인시 기흥구 상갈동 119-25번지","indutype":"일반휴게음식 - 일반한식","category":"restaurant"}]},{"lat":"37.266485924","long":"127.10688266","imageIndex":4,"items":[{"name":"벨","tel":"031-274-0313","addr":"경기도 용인시 기흥구 상갈동 125-22번지 지하1층","indutype":"일반휴게음식 - 일반한식","category":"restaurant"},{"name":"최고네떡볶이","tel":"","addr":"경기도 용인시 기흥구 상갈동 125-22번지 1층","indutype":"일반휴게음식 - 스넥","category":"restaurant"},{"name":"한솥도시락 용인상갈점","tel":"031-284-0039","addr":"경기도 용인시 기흥구 상갈동 125-22번지","indutype":"일반휴게음식 - 일반한식","category":"restaurant"}]},{"lat":"37.267990907","long":"127.10658033","imageIndex":4,"items":[{"name":"별다방","tel":"031-223-3222","addr":"경기도 용인시 기흥구 상갈동 122-16번지 지하1층","indutype":"일반휴게음식 - 서양음식","category":"restaurant"},{"name":"풀잎향기","tel":"031-287-1811","addr":"경기도 용인시 기흥구 상갈동 122-16번지","indutype":"일반휴게음식 - 일반한식","category":"restaurant"}]},{"lat":"37.268820069","long":"127.10633344","imageIndex":4,"items":[{"name":"별밤치킨","tel":"031-283-3180","addr":"경기도 용인시 기흥구 상갈동 100-23번지","indutype":"일반휴게음식 - 일반한식","category":"restaurant"},{"name":"복돼지식당","tel":"031-282-0411","addr":"경기도 용인시 기흥구 상갈동 100-23번지","indutype":"일반휴게음식 - 일반한식","category":"restaurant"}]},{"lat":"37.265935342","long":"127.10796418","imageIndex":4,"items":[{"name":"브리즈커피","tel":"","addr":"경기도 용인시 기흥구 상갈동 466-6번지 통문장영어 101호","indutype":"일반휴게음식 - 서양음식","category":"restaurant"}]},{"lat":"37.267324196","long":"127.10652305","imageIndex":4,"items":[{"name":"비에치씨(bhc)치킨상갈점","tel":"031-281-1541","addr":"경기도 용인시 기흥구 상갈동 125번지 1층 103호","indutype":"일반휴게음식 - 스넥","category":"restaurant"},{"name":"이레식당","tel":"070-7420-2746","addr":"경기도 용인시 기흥구 상갈동 125번지 1층","indutype":"일반휴게음식 - 일반한식","category":"restaurant"}]},{"lat":"37.268180123","long":"127.10658059","imageIndex":4,"items":[{"name":"뽀글이","tel":"031-285-5807","addr":"경기도 용인시 기흥구 상갈동 122-14번지 1층","indutype":"일반휴게음식 - 일반한식","category":"restaurant"}]},{"lat":"37.268767123","long":"127.10504812","imageIndex":4,"items":[{"name":"삼대째 손두부","tel":"031-286-7620","addr":"경기도 용인시 기흥구 상갈동 165-4번지","indutype":"일반휴게음식 - 일반한식","category":"restaurant"}]},{"lat":"37.263240848","long":"127.10843392","imageIndex":4,"items":[{"name":"삼미김밥","tel":"031-274-3552","addr":"경기도 용인시 기흥구 상갈동 481-1번지 상갈프라자 108호","indutype":"일반휴게음식 - 스넥","category":"restaurant"},{"name":"신통치킨","tel":"031-281-3383","addr":"경기도 용인시 기흥구 상갈동 481-1번지 상갈프라자 105호","indutype":"일반휴게음식 - 일반한식","category":"restaurant"},{"name":"커피나무숲","tel":"070-8270-0111","addr":"경기도 용인시 기흥구 상갈동 481-1번지 상갈프라자 1층 110호","indutype":"일반휴게음식 - 서양음식","category":"restaurant"}]},{"lat":"37.26937842","long":"127.10666116","imageIndex":4,"items":[{"name":"상갈분식","tel":"031-283-5400","addr":"경기도 용인시 기흥구 상갈동 101-23번지 1층","indutype":"일반휴게음식 - 스넥","category":"restaurant"}]},{"lat":"37.261243648","long":"127.10491395","imageIndex":4,"items":[{"name":"생고기가맛있는집","tel":"031-302-8818","addr":"경기도 용인시 기흥구 상갈동 485번지 1층","indutype":"일반휴게음식 - 일반한식","category":"restaurant"}]},{"lat":"37.267099274","long":"127.10613943","imageIndex":4,"items":[{"name":"서양육식당","tel":"031-1111-1111","addr":"경기도 용인시 기흥구 상갈동 124-7번지 107,108호","indutype":"일반휴게음식 - 일반한식","category":"restaurant"},{"name":"연금술사","tel":"02-1234-1234","addr":"경기도 용인시 기흥구 상갈동 124-7번지 삼우프라자 1층 105,106호","indutype":"일반휴게음식 - 일반한식","category":"restaurant"},{"name":"올레 세계맥주","tel":"031-283-1136","addr":"경기도 용인시 기흥구 상갈동 124-7번지 상가 105,106호","indutype":"일반휴게음식 - 일반한식","category":"restaurant"},{"name":"이모내식당","tel":"070-8844-5757","addr":"경기도 용인시 기흥구 상갈동 124-7번지 삼우프라자 1층 102호","indutype":"일반휴게음식 - 일반한식","category":"restaurant"},{"name":"황소곱창이야기","tel":"","addr":"경기도 용인시 기흥구 상갈동 124-7번지 삼우프라자 101호","indutype":"일반휴게음식 - 일반한식","category":"restaurant"}]},{"lat":"37.269963303","long":"127.10755263","imageIndex":4,"items":[{"name":"서울녹각삼계탕","tel":"031-285-3475","addr":"경기도 용인시 기흥구 상갈동 101-12번지","indutype":"일반휴게음식 - 일반한식","category":"restaurant"}]},{"lat":"37.270214155","long":"127.10916521","imageIndex":4,"items":[{"name":"서해회바다","tel":"031-284-8811","addr":"경기도 용인시 기흥구 상갈동 123-12번지","indutype":"일반휴게음식 - 일식·회집","category":"restaurant"}]},{"lat":"37.268930857","long":"127.11335739","imageIndex":4,"items":[{"name":"소나무정원","tel":"031-283-3410","addr":"경기도 용인시 기흥구 상갈동 144-8 지층-2층","indutype":"일반휴게음식 - 일반한식","category":"restaurant"}]},{"lat":"37.269325086","long":"127.10582679","imageIndex":4,"items":[{"name":"소마을","tel":"031-281-0824","addr":"경기도 용인시 기흥구 상갈동 100번지 루블루시네마 1층 115,116호","indutype":"일반휴게음식 - 일반한식","category":"restaurant"}]},{"lat":"37.270097616","long":"127.10849986","imageIndex":4,"items":[{"name":"속초코다리찜","tel":"031-282-0868","addr":"경기도 용인시 기흥구 상갈동 123-7번지 1층","indutype":"일반휴게음식 - 일반한식","category":"restaurant"}]},{"lat":"37.265683563","long":"127.10738887","imageIndex":4,"items":[{"name":"술집","tel":"031-281-0282","addr":"경기도 용인시 기흥구 상갈동 467-8번지 외 1필지 평화빌 1층 108호","indutype":"일반휴게음식 - 일반한식","category":"restaurant"}]},{"lat":"37.269684986","long":"127.10641354","imageIndex":4,"items":[{"name":"신.생태,동태.현","tel":"031-281-6333","addr":"경기도 용인시 기흥구 상갈동 100-3번지 금호장","indutype":"일반휴게음식 - 일반한식","category":"restaurant"}]},{"lat":"37.26735166","long":"127.10602704","imageIndex":4,"items":[{"name":"신기라성","tel":"031-283-1199","addr":"경기도 용인시 기흥구 상갈동 124-3번지 1층","indutype":"일반휴게음식 - 중국식","category":"restaurant"}]},{"lat":"37.261658247","long":"127.10476796","imageIndex":4,"items":[{"name":"싱싱수산","tel":"031-282-2866","addr":"경기도 용인시 기흥구 상갈동 482-1번지 주공프라자 104호","indutype":"일반휴게음식 - 일식·회집","category":"restaurant"},{"name":"엉클스치킨(상갈점)","tel":"031-283-9969","addr":"경기도 용인시 기흥구 상갈동 482-1번지 주공프라자 112호","indutype":"일반휴게음식 - 스넥","category":"restaurant"},{"name":"줄줄이쭈김밥","tel":"031-281-3186","addr":"경기도 용인시 기흥구 상갈동 482-1번지 주공프라자 105호","indutype":"일반휴게음식 - 일반한식","category":"restaurant"},{"name":"한씨네왕족발","tel":"031-274-5464","addr":"경기도 용인시 기흥구 상갈동 482-1번지 주공프라자 111호","indutype":"일반휴게음식 - 일반한식","category":"restaurant"}]},{"lat":"37.26165779","long":"127.1052978","imageIndex":4,"items":[{"name":"씨에프숯불바베큐","tel":"031-284-5592","addr":"경기도 용인시 기흥구 상갈동 482-3번지","indutype":"일반휴게음식 - 스넥","category":"restaurant"},{"name":"커피마마","tel":"031-283-2516","addr":"경기도 용인시 기흥구 상갈동 482-3번지 금화타운 109호","indutype":"일반휴게음식 - 서양음식","category":"restaurant"},{"name":"토담","tel":"","addr":"경기도 용인시 기흥구 상갈동 482-3번지 금화타운 104호","indutype":"일반휴게음식 - 일반한식","category":"restaurant"}]},{"lat":"37.261270367","long":"127.10527472","imageIndex":4,"items":[{"name":"웅이네오돌뼈","tel":"031-282-1191","addr":"경기도 용인시 기흥구 상갈동 485-3번지 MUC 101호","indutype":"일반휴게음식 - 일반한식","category":"restaurant"}]},{"lat":"37.270937904","long":"127.11573923","imageIndex":4,"items":[{"name":"유나인(u9) 상갈점","tel":"031-693-6664","addr":"경기도 용인시 기흥구 상갈동 142-5번지 1,2층","indutype":"일반휴게음식 - 서양음식","category":"restaurant"}]},{"lat":"37.269568197","long":"127.10601878","imageIndex":4,"items":[{"name":"인생이야기","tel":"031-284-2684","addr":"경기도 용인시 기흥구 상갈동 100-1번지 1층","indutype":"일반휴게음식 - 일반한식","category":"restaurant"}]},{"lat":"37.267153845","long":"127.10555326","imageIndex":4,"items":[{"name":"장가계","tel":"031-283-6668","addr":"경기도 용인시 기흥구 상갈동 124번지","indutype":"일반휴게음식 - 중국식","category":"restaurant"}]},{"lat":"37.270124305","long":"127.10888322","imageIndex":4,"items":[{"name":"장어가 두근두근","tel":"031-281-9202","addr":"경기도 용인시 기흥구 상갈동 123-10번지","indutype":"일반휴게음식 - 일반한식","category":"restaurant"}]},{"lat":"37.268127219","long":"127.10525019","imageIndex":4,"items":[{"name":"장원","tel":"031-285-2770","addr":"경기도 용인시 기흥구 상갈동 109-11번지","indutype":"일반휴게음식 - 일반한식","category":"restaurant"}]},{"lat":"37.269100649","long":"127.10487945","imageIndex":4,"items":[{"name":"진화식당","tel":"031-281-7727","addr":"경기도 용인시 기흥구 상갈동 173-9번지","indutype":"일반휴게음식 - 일반한식","category":"restaurant"}]},{"lat":"37.26654098","long":"127.10574409","imageIndex":4,"items":[{"name":"착한오리","tel":"031-282-5295","addr":"경기도 용인시 기흥구 상갈동 124-14번지 1층 일부호","indutype":"일반휴게음식 - 일반한식","category":"restaurant"},{"name":"회사모","tel":"031-284-2245","addr":"경기도 용인시 기흥구 상갈동 124-14 외15번지","indutype":"일반휴게음식 - 일반한식","category":"restaurant"}]},{"lat":"37.267819958","long":"127.10629825","imageIndex":4,"items":[{"name":"최배달 떡순튀","tel":"031-286-7878","addr":"경기도 용인시 기흥구 상갈동 102-4번지 1층 101호","indutype":"일반휴게음식 - 일반한식","category":"restaurant"}]},{"lat":"37.267324097","long":"127.10663579","imageIndex":4,"items":[{"name":"치즈군고구마&카페(cafe)","tel":"","addr":"경기도 용인시 기흥구 상갈동 125-24번지 1층","indutype":"일반휴게음식 - 서양음식","category":"restaurant"}]},{"lat":"37.266070935","long":"127.10746833","imageIndex":4,"items":[{"name":"치킨마루 용인상갈점","tel":"031-274-8892","addr":"경기도 용인시 기흥구 상갈동 466-2번지 스카이하우스 103호","indutype":"일반휴게음식 - 스넥","category":"restaurant"},{"name":"투다리상갈점","tel":"031-285-8667","addr":"경기도 용인시 기흥구 상갈동 466-2번지 스카이하우스 103호","indutype":"일반휴게음식 - 일반한식","category":"restaurant"}]},{"lat":"37.269270079","long":"127.10690904","imageIndex":4,"items":[{"name":"칭도양꼬치","tel":"070-7804-1944","addr":"경기도 용인시 기흥구 상갈동 120-1번지","indutype":"일반휴게음식 - 중국식","category":"restaurant"}]},{"lat":"37.270097445","long":"127.10869152","imageIndex":4,"items":[{"name":"큰마루감자탕","tel":"","addr":"경기도 용인시 기흥구 상갈동 123-8번지 효광빌딩 1층","indutype":"일반휴게음식 - 일반한식","category":"restaurant"}]},{"lat":"37.266937335","long":"127.10585736","imageIndex":4,"items":[{"name":"큰집추어탕","tel":"031-282-2877","addr":"경기도 용인시 기흥구 상갈동 124-8번지","indutype":"일반휴게음식 - 일반한식","category":"restaurant"}]},{"lat":"37.268630587","long":"127.10663758","imageIndex":4,"items":[{"name":"포대인 대구막창","tel":"031-274-2759","addr":"경기도 용인시 기흥구 상갈동 121-1번지 1층","indutype":"일반휴게음식 - 일반한식","category":"restaurant"}]},{"lat":"37.267549433","long":"127.10654591","imageIndex":4,"items":[{"name":"포트오브모카 (상갈점)","tel":"031-8001-1161","addr":"경기도 용인시 기흥구 상갈동 122-31번지 1층","indutype":"일반휴게음식 - 서양음식","category":"restaurant"}]},{"lat":"37.267631321","long":"127.10563283","imageIndex":4,"items":[{"name":"푸드딜라이트 용인점","tel":"031-283-6988","addr":"경기도 용인시 기흥구 상갈동 102-6번지 1층 103호","indutype":"일반휴게음식 - 일반한식","category":"restaurant"}]},{"lat":"37.268630932","long":"127.10624299","imageIndex":4,"items":[{"name":"푸드월드","tel":"031-287-3334","addr":"경기도 용인시 기흥구 상갈동 100-18번지 1층","indutype":"일반휴게음식 - 일반한식","category":"restaurant"}]},{"lat":"37.268965203","long":"127.1052175","imageIndex":4,"items":[{"name":"푸주옥","tel":"031-284-4888","addr":"경기도 용인시 기흥구 상갈동 165-3번지","indutype":"일반휴게음식 - 일반한식","category":"restaurant"}]},{"lat":"37.266540784","long":"127.10596956","imageIndex":4,"items":[{"name":"호미곶","tel":"031-285-6600","addr":"경기도 용인시 기흥구 상갈동 124-13번지 102호","indutype":"일반휴게음식 - 스넥","category":"restaurant"}]},{"lat":"37.26948679","long":"127.10637945","imageIndex":4,"items":[{"name":"화끈한포차","tel":"031-284-1793","addr":"경기도 용인시 기흥구 상갈동 100-5번지","indutype":"일반휴게음식 - 일반한식","category":"restaurant"}]},{"lat":"37.269846319","long":"127.10738335","imageIndex":4,"items":[{"name":"황소매운갈비찜","tel":"031-274-3222","addr":"경기도 용인시 기흥구 상갈동 101-10번지","indutype":"일반휴게음식 - 일반한식","category":"restaurant"}]}]