[{"lat":"37.487890216","long":"127.47845188","imageIndex":4,"items":[{"name":"가을동화","tel":"","addr":"경기도 양평군 강상면 병산리 66번지 1층","indutype":"일반휴게음식 - 일반한식","category":"restaurant"},{"name":"콤비왕돈까스","tel":"031-775-5359","addr":"경기도 양평군 강상면 병산리 66번지","indutype":"일반휴게음식 - 서양음식","category":"restaurant"}]},{"lat":"37.489360171","long":"127.47587187","imageIndex":4,"items":[{"name":"강상또바기","tel":"031-775-6842","addr":"경기도 양평군 강상면 병산리 753-1번지","indutype":"일반휴게음식 - 일반한식","category":"restaurant"}]},{"lat":"37.489328565","long":"127.47701369","imageIndex":4,"items":[{"name":"갱여사네홍떡","tel":"","addr":"경기도 양평군 강상면 병산리 756-3번지 1층","indutype":"일반휴게음식 - 스넥","category":"restaurant"}]},{"lat":"37.496380353","long":"127.45712199","imageIndex":4,"items":[{"name":"공감","tel":"031-771-7960","addr":"경기도 양평군 강상면 병산리 1049번지","indutype":"일반휴게음식 - 서양음식","category":"restaurant"},{"name":"돈끼오떼","tel":"031-774-4040","addr":"경기도 양평군 강상면 병산리 1049번지","indutype":"일반휴게음식 - 일반한식","category":"restaurant"},{"name":"양평한방보쌈초계국수","tel":"031-774-5571","addr":"경기도 양평군 강상면 병산리 1049번지","indutype":"일반휴게음식 - 일반한식","category":"restaurant"}]},{"lat":"37.492634383","long":"127.47270378","imageIndex":4,"items":[{"name":"구름에달가듯이","tel":"031-74-3020","addr":"경기도 양평군 강상면 병산리 174번지","indutype":"일반휴게음식 - 일반한식","category":"restaurant"}]},{"lat":"37.493747978","long":"127.47361537","imageIndex":4,"items":[{"name":"길조","tel":"031-774-7020","addr":"경기도 양평군 강상면 병산리 181-5번지","indutype":"일반휴게음식 - 일식·회집","category":"restaurant"}]},{"lat":"37.488550531","long":"127.46875468","imageIndex":4,"items":[{"name":"농가집","tel":"031-771-0998","addr":"경기도 양평군 강상면 병산리 483-2번지","indutype":"일반휴게음식 - 일반한식","category":"restaurant"},{"name":"어시장회썸조개","tel":"031-774-9242","addr":"경기도 양평군 강상면 병산리 483-2번지","indutype":"일반휴게음식 - 일반한식","category":"restaurant"}]},{"lat":"37.493160274","long":"127.46269978","imageIndex":4,"items":[{"name":"메이플 수제버거","tel":"031-775-3226","addr":"경기도 양평군 강상면 병산리 370번지","indutype":"일반휴게음식 - 서양음식","category":"restaurant"}]},{"lat":"37.498747348","long":"127.45545135","imageIndex":4,"items":[{"name":"바베큐타운","tel":"031-773-7676","addr":"경기도 양평군 강상면 병산리 1075-6번지","indutype":"일반휴게음식 - 일반한식","category":"restaurant"},{"name":"양평고바우설렁탕","tel":"031-773-7676","addr":"경기도 양평군 강상면 병산리 1075-6번지 1층","indutype":"일반휴게음식 - 일반한식","category":"restaurant"}]},{"lat":"37.498108968","long":"127.45978993","imageIndex":4,"items":[{"name":"밤벌","tel":"","addr":"경기도 양평군 강상면 병산리 244-37번지 외8필지","indutype":"일반휴게음식 - 서양음식","category":"restaurant"}]},{"lat":"37.49333311","long":"127.45995307","imageIndex":4,"items":[{"name":"병산짬뽕","tel":"031-774-4204","addr":"경기도 양평군 강상면 병산리 362-1번지","indutype":"일반휴게음식 - 일반한식","category":"restaurant"},{"name":"양근살롱","tel":"031-7942-7202","addr":"경기도 양평군 강상면 병산리 362-1번지 1층","indutype":"일반휴게음식 - 일반한식","category":"restaurant"}]},{"lat":"37.489415587","long":"127.47553301","imageIndex":4,"items":[{"name":"비에이치씨 (bhc)치킨 강상점","tel":"031-775-9982","addr":"경기도 양평군 강상면 병산리 753번지","indutype":"일반휴게음식 - 스넥","category":"restaurant"},{"name":"커피휴","tel":"070-8878-3412","addr":"경기도 양평군 강상면 병산리 753번지 1동 106호","indutype":"일반휴게음식 - 서양음식","category":"restaurant"}]},{"lat":"37.493415886","long":"127.46184196","imageIndex":4,"items":[{"name":"선나린","tel":"031-775-7795","addr":"경기도 양평군 강상면 병산리 289-4번지","indutype":"일반휴게음식 - 서양음식","category":"restaurant"},{"name":"해성갈비","tel":"031-775-7070","addr":"경기도 양평군 강상면 병산리 289-4번지","indutype":"일반휴게음식 - 일반한식","category":"restaurant"}]},{"lat":"37.493385548","long":"127.46037178","imageIndex":4,"items":[{"name":"쇠뿔국밥앤국시(쇠뿔국밥&국시)","tel":"031-774-1666","addr":"경기도 양평군 강상면 병산리 364번지 1층","indutype":"일반휴게음식 - 일반한식","category":"restaurant"}]},{"lat":"37.493694458","long":"127.4597065","imageIndex":4,"items":[{"name":"스시유","tel":"","addr":"경기도 양평군 강상면 병산리 362-10번지 1층","indutype":"일반휴게음식 - 일반한식","category":"restaurant"},{"name":"양평꽈쉑","tel":"031-774-0949","addr":"경기도 양평군 강상면 병산리 362-10번지","indutype":"일반휴게음식 - 일반한식","category":"restaurant"},{"name":"연바다꾸이","tel":"031-772-5692","addr":"경기도 양평군 강상면 병산리 362-10번지 1층","indutype":"일반휴게음식 - 일반한식","category":"restaurant"},{"name":"연불국수","tel":"031-774-0949","addr":"경기도 양평군 강상면 병산리 362-10번지","indutype":"일반휴게음식 - 일반한식","category":"restaurant"}]},{"lat":"37.497074879","long":"127.45692264","imageIndex":4,"items":[{"name":"심원","tel":"031-774-4619","addr":"경기도 양평군 강상면 병산리 1057-3번지","indutype":"일반휴게음식 - 일반한식","category":"restaurant"}]},{"lat":"37.486941927","long":"127.47901121","imageIndex":4,"items":[{"name":"얌샘김밥 (양평강상점)","tel":"031-774-1245","addr":"경기도 양평군 강상면 병산리 1208번지 양평2차휴먼빌 1층 108호 상가","indutype":"일반휴게음식 - 일반한식","category":"restaurant"},{"name":"일호","tel":"031-771-5280","addr":"경기도 양평군 강상면 병산리 1208번지 양평2차휴먼빌 1층","indutype":"일반휴게음식 - 일식·회집","category":"restaurant"},{"name":"페리카나양평강상점","tel":"031-775-8259","addr":"경기도 양평군 강상면 병산리 1208번지 양평2차휴먼빌 107호","indutype":"일반휴게음식 - 스넥","category":"restaurant"}]},{"lat":"37.486862912","long":"127.48072933","imageIndex":4,"items":[{"name":"양평참불쭈꾸미","tel":"031-775-8853","addr":"경기도 양평군 강상면 병산리 31-2번지 1층","indutype":"일반휴게음식 - 일반한식","category":"restaurant"}]},{"lat":"37.491411221","long":"127.46759648","imageIndex":4,"items":[{"name":"와따오리&쭈꾸미","tel":"031-771-9792","addr":"경기도 양평군 강상면 병산리 464번지","indutype":"일반휴게음식 - 일반한식","category":"restaurant"}]},{"lat":"37.499055495","long":"127.45497825","imageIndex":4,"items":[{"name":"용문산가든","tel":"031-774-3322","addr":"경기도 양평군 강상면 병산리 1074-3번지","indutype":"일반휴게음식 - 일반한식","category":"restaurant"}]},{"lat":"37.493908546","long":"127.46026189","imageIndex":4,"items":[{"name":"웰컵커피","tel":"031-773-6732","addr":"경기도 양평군 강상면 병산리 301-1번지","indutype":"일반휴게음식 - 스넥","category":"restaurant"}]},{"lat":"37.497409713","long":"127.45654019","imageIndex":4,"items":[{"name":"이도휘옛날홍두깨칼국수","tel":"031-772-5195","addr":"경기도 양평군 강상면 병산리 1057번지","indutype":"일반휴게음식 - 일반한식","category":"restaurant"}]},{"lat":"37.498856417","long":"127.45520322","imageIndex":4,"items":[{"name":"정우원","tel":"031-771-3989","addr":"경기도 양평군 강상면 병산리 1074-2번지","indutype":"일반휴게음식 - 일반한식","category":"restaurant"},{"name":"주식회사 안티바이러스","tel":"031-775-8600","addr":"경기도 양평군 강상면 병산리 1074-2번지","indutype":"일반휴게음식 - 일반한식","category":"restaurant"}]},{"lat":"37.496604115","long":"127.45750782","imageIndex":4,"items":[{"name":"카페(CAFE)수다","tel":"","addr":"경기도 양평군 강상면 병산리 1056-9번지 1층 103호","indutype":"일반휴게음식 - 서양음식","category":"restaurant"}]},{"lat":"37.490639496","long":"127.47136833","imageIndex":4,"items":[{"name":"커피앤가든","tel":"031-772-3362","addr":"경기도 양평군 강상면 병산리 135-2번지","indutype":"일반휴게음식 - 서양음식","category":"restaurant"}]},{"lat":"37.488493862","long":"127.47845571","imageIndex":4,"items":[{"name":"태성추어탕양평점","tel":"031-772-4871","addr":"경기도 양평군 강상면 병산리 46-4번지","indutype":"일반휴게음식 - 일반한식","category":"restaurant"}]},{"lat":"37.485049505","long":"127.45853452","imageIndex":4,"items":[{"name":"토박이","tel":"031-772-1020","addr":"경기도 양평군 강상면 병산리 945-3번지 1층","indutype":"일반휴게음식 - 일반한식","category":"restaurant"}]},{"lat":"37.488080192","long":"127.47826087","imageIndex":4,"items":[{"name":"한양곰탕","tel":"031-771-1033","addr":"경기도 양평군 강상면 병산리 65번지","indutype":"일반휴게음식 - 일반한식","category":"restaurant"}]}]