[{"lat":"37.309068975","long":"127.00614193","imageIndex":16,"items":[{"name":"경기과학고등학교","tel":"031-259-0499","addr":"경기도 수원시 장안구 송죽동 68-23번지","indutype":"학원 - 초중고교육기관","category":"study"},{"name":"경기과학고등학교_수업료","tel":"031-259-0499","addr":"경기도 수원시 장안구 송죽동 68-23번지","indutype":"학원 - 초중고교육기관","category":"study"}]},{"lat":"37.300707399","long":"127.00834096","imageIndex":16,"items":[{"name":"공부의비밀프리미엄독서실","tel":"031-245-7335","addr":"경기도 수원시 장안구 송죽동 506-8번지 신성빌딩 5층","indutype":"학원 - 독서실","category":"study"}]},{"lat":"37.29612131","long":"127.00347972","imageIndex":16,"items":[{"name":"국민대경호태권도장","tel":"031-246-5222","addr":"경기도 수원시 장안구 송죽동 398-4번지 2층","indutype":"학원 - 예·체능계학원","category":"study"}]},{"lat":"37.296175372","long":"127.00241956","imageIndex":16,"items":[{"name":"그린스토리협동조합","tel":"031-000-0000","addr":"경기도 수원시 장안구 송죽동 398-31번지 둘리분식 301호","indutype":"학원 - 기타 교육기관","category":"study"}]},{"lat":"37.299707356","long":"127.00566782","imageIndex":16,"items":[{"name":"김성범유도멀티짐","tel":"031-245-8265","addr":"경기도 수원시 장안구 송죽동 503-1번지 2층","indutype":"학원 - 예·체능계학원","category":"study"}]},{"lat":"37.306897554","long":"127.00338956","imageIndex":16,"items":[{"name":"꼬꼬마몬테소리어린이집[아이행복]","tel":"031-243-9238","addr":"경기도 수원시 장안구 송죽동 133번지 1층","indutype":"학원 - 유아원","category":"study"},{"name":"꼬꼬마몬테소리어린이집[아이행복]","tel":"031-243-9238","addr":"경기도 수원시 장안구 송죽동 133번지","indutype":"학원 - 유아원","category":"study"}]},{"lat":"37.303149172","long":"126.99742281","imageIndex":16,"items":[{"name":"나나어린이집[아이행복]","tel":"031-248-2999","addr":"경기도 수원시 장안구 송죽동 277-66번지 1층","indutype":"학원 - 유아원","category":"study"}]},{"lat":"37.307510241","long":"127.00441604","imageIndex":16,"items":[{"name":"뉴최강영수전문학원","tel":"031-241-7784","addr":"경기도 수원시 장안구 송죽동 73번지 현광프라자 401호","indutype":"학원 - 보습학원","category":"study"},{"name":"피아노블음악교습소","tel":"","addr":"경기도 수원시 장안구 송죽동 73번지 현광프라자 1층 107호","indutype":"학원 - 보습학원","category":"study"}]},{"lat":"37.301040867","long":"127.0058145","imageIndex":16,"items":[{"name":"단음피아노학원","tel":"031-253-6780","addr":"경기도 수원시 장안구 송죽동 461-20번지","indutype":"학원 - 예·체능계학원","category":"study"}]},{"lat":"37.299148688","long":"127.00680694","imageIndex":16,"items":[{"name":"대일교육","tel":"031-245-2900","addr":"경기도 수원시 장안구 송죽동 503-16 월드타워405호~406호","indutype":"학원 - 기타 교육기관","category":"study"}]},{"lat":"37.306176734","long":"127.00367155","imageIndex":16,"items":[{"name":"돌체음악학원","tel":"","addr":"경기도 수원시 장안구 송죽동 197번지 이현빌딩 3층","indutype":"학원 - 예·체능계학원","category":"study"},{"name":"한일열정태권도","tel":"031-241-2228","addr":"경기도 수원시 장안구 송죽동 197번지 4층","indutype":"학원 - 예·체능계학원","category":"study"},{"name":"한일학원","tel":"031-258-8344","addr":"경기도 수원시 장안구 송죽동 197번지 5층","indutype":"학원 - 보습학원","category":"study"}]},{"lat":"37.30681646","long":"127.00375051","imageIndex":16,"items":[{"name":"드림수학학원","tel":"031-255-9493","addr":"경기도 수원시 장안구 송죽동 195번지 광교프라자 302호","indutype":"학원 - 보습학원","category":"study"},{"name":"사계음악학원","tel":"070-5022-4846","addr":"경기도 수원시 장안구 송죽동 195번지 광교프라자 205호 206호","indutype":"학원 - 예·체능계학원","category":"study"},{"name":"세스영어전문학원","tel":"031-246-8805","addr":"경기도 수원시 장안구 송죽동 195번지 광교프라자 7층 701호","indutype":"회원제형태 - 학원","category":"study"},{"name":"아이비티토킹돔한일학원","tel":"031-243-5673","addr":"경기도 수원시 장안구 송죽동 195 광교프라자3층 302호","indutype":"학원 - 보습학원","category":"study"},{"name":"케이에스엠피경호무술학교","tel":"031-248-6222","addr":"경기도 수원시 장안구 송죽동 195번지 광교프라자 6층","indutype":"회원제형태 - 학원","category":"study"}]},{"lat":"37.296013114","long":"127.00708874","imageIndex":16,"items":[{"name":"로얄팰리스음악교습소","tel":"031-888-7117","addr":"경기도 수원시 장안구 송죽동 514번지 수원로얄팰리스 상가동 102호","indutype":"학원 - 예·체능계학원","category":"study"},{"name":"이해법수학로얄팰리스교습소","tel":"031-245-3847","addr":"경기도 수원시 장안구 송죽동 514번지 수원로얄팰리스 101호","indutype":"회원제형태 - 학원","category":"study"}]},{"lat":"37.301626519","long":"127.00633335","imageIndex":16,"items":[{"name":"리조이스음악학원","tel":"031-243-2346","addr":"경기도 수원시 장안구 송죽동 460-23번지 인아빌딩 2층","indutype":"학원 - 예·체능계학원","category":"study"}]},{"lat":"37.305762259","long":"127.00420169","imageIndex":16,"items":[{"name":"뮤엠영어한일학원","tel":"031-243-1980","addr":"경기도 수원시 장안구 송죽동 200-8번지 가동 2층 200-8외2필지","indutype":"학원 - 보습학원","category":"study"}]},{"lat":"37.296202404","long":"127.00261129","imageIndex":16,"items":[{"name":"버디버디영어교습소","tel":"070-4898-0551","addr":"경기도 수원시 장안구 송죽동 398-32번지 1층 1호","indutype":"학원 - 외국어학원","category":"study"}]},{"lat":"37.305428877","long":"127.00133666","imageIndex":16,"items":[{"name":"블럭연기학원","tel":"031-256-2545","addr":"경기도 수원시 장안구 송죽동 445-4번지 운학빌딩 4층 전체","indutype":"회원제형태 - 학원","category":"study"}]},{"lat":"37.310285388","long":"127.0045853","imageIndex":16,"items":[{"name":"사단법인 청소년미디어네트워크","tel":"070-4196-5780","addr":"경기도 수원시 장안구 송죽동 48-1번지 201호","indutype":"학원 - 기타 교육기관","category":"study"}]},{"lat":"37.307203896","long":"127.00408892","imageIndex":16,"items":[{"name":"사단법인역사체험인성교육협회","tel":"031-252-2017","addr":"경기도 수원시 장안구 송죽동 85-1번지 4층","indutype":"학원 - 기타 교육기관","category":"study"},{"name":"오투솔로몬독서실","tel":"031-247-3575","addr":"경기도 수원시 장안구 송죽동 85-1번지","indutype":"학원 - 독서실","category":"study"},{"name":"위너학원","tel":"031-242-1577","addr":"경기도 수원시 장안구 송죽동 85-1번지 수천빌딩 301호","indutype":"학원 - 보습학원","category":"study"},{"name":"탑음악교습소","tel":"031-242-1577","addr":"경기도 수원시 장안구 송죽동 85-1번지 수천빌딩 303호","indutype":"학원 - 예·체능계학원","category":"study"},{"name":"힘찬태권도장","tel":"031-242-1577","addr":"경기도 수원시 장안구 송죽동 85-1번지 수천빌딩 302호","indutype":"학원 - 예·체능계학원","category":"study"}]},{"lat":"37.30825809","long":"127.00141557","imageIndex":16,"items":[{"name":"새피카소미술교습소","tel":"031-254-0150","addr":"경기도 수원시 장안구 송죽동 476-3","indutype":"학원 - 예·체능계학원","category":"study"}]},{"lat":"37.301725662","long":"127.00502499","imageIndex":16,"items":[{"name":"선경어린이집[아이행복]","tel":"031-242-3451","addr":"경기도 수원시 장안구 송죽동 461번지 선경아트빌 101동 103호","indutype":"학원 - 유아원","category":"study"}]},{"lat":"37.305924449","long":"127.00245334","imageIndex":16,"items":[{"name":"세광실용음악학원","tel":"031-295-1160","addr":"경기도 수원시 장안구 송죽동 216-1번지 5층","indutype":"학원 - 예·체능계학원","category":"study"}]},{"lat":"37.309564577","long":"127.00399871","imageIndex":16,"items":[{"name":"솔대어린이집[아이행복]","tel":"031-258-1199","addr":"경기도 수원시 장안구 송죽동 54-4번지","indutype":"학원 - 유아원","category":"study"}]},{"lat":"37.297481858","long":"127.00258873","imageIndex":16,"items":[{"name":"송원중학교","tel":"031-252-3545","addr":"경기도 수원시 장안구 송죽동 376번지 송원중학교","indutype":"학원 - 초중고교육기관","category":"study"}]},{"lat":"37.29667994","long":"127.00164136","imageIndex":16,"items":[{"name":"송정초등학교","tel":"031-256-0085","addr":"경기도 수원시 장안구 송죽동 404번지 송정초등학교","indutype":"학원 - 초중고교육기관","category":"study"},{"name":"송정초등학교_수업료","tel":"031-256-0085","addr":"경기도 수원시 장안구 송죽동 404번지 송정초등학교","indutype":"학원 - 초중고교육기관","category":"study"}]},{"lat":"37.301347208","long":"127.0060852","imageIndex":16,"items":[{"name":"송죽대성초등제넥스학원","tel":"031-241-4777","addr":"경기도 수원시 장안구 송죽동 460-29번지 2층","indutype":"학원 - 기타 교육기관","category":"study"},{"name":"송죽동 유니팝미술교습소","tel":"","addr":"경기도 수원시 장안구 송죽동 460-29번지 1층 왼편일부","indutype":"학원 - 예·체능계학원","category":"study"}]},{"lat":"37.299707346","long":"127.00606258","imageIndex":16,"items":[{"name":"송죽멘토해법영어전문학원","tel":"031-255-3140","addr":"경기도 수원시 장안구 송죽동 503-3번지 1층","indutype":"학원 - 외국어학원","category":"study"}]},{"lat":"37.297229554","long":"127.00494591","imageIndex":16,"items":[{"name":"송죽아름드리어린이집[아이행복]","tel":"031-257-2956","addr":"경기도 수원시 장안구 송죽동 385-19번지","indutype":"학원 - 유아원","category":"study"}]},{"lat":"37.302626586","long":"126.99759203","imageIndex":16,"items":[{"name":"송죽어린이집[아이행복]","tel":"031-258-3432","addr":"경기도 수원시 장안구 송죽동 277-48번지","indutype":"학원 - 유아원","category":"study"}]},{"lat":"37.300482222","long":"127.00623179","imageIndex":16,"items":[{"name":"송죽초등학교","tel":"","addr":"경기도 수원시 장안구 송죽동 502번지 송죽초등학교","indutype":"학원 - 초중고교육기관","category":"study"}]},{"lat":"37.30373495","long":"127.00108855","imageIndex":16,"items":[{"name":"송춘석음악학원","tel":"031-258-2555","addr":"경기도 수원시 장안구 송죽동 447-12번지 2층","indutype":"학원 - 예·체능계학원","category":"study"}]},{"lat":"37.299932608","long":"127.00581445","imageIndex":16,"items":[{"name":"수원이레태권도","tel":"031-245-6123","addr":"경기도 수원시 장안구 송죽동 503-20번지 2층","indutype":"학원 - 예·체능계학원","category":"study"}]},{"lat":"37.296121294","long":"127.00492333","imageIndex":16,"items":[{"name":"스카이플러스학원","tel":"031-252-4129","addr":"경기도 수원시 장안구 송죽동 395-11번지 1층","indutype":"학원 - 보습학원","category":"study"}]},{"lat":"37.296986232","long":"127.00675044","imageIndex":16,"items":[{"name":"시립위즈어린이집[아이행복]","tel":"031-243-0876","addr":"경기도 수원시 장안구 송죽동 517번지 수원아너스빌위즈 관리동","indutype":"학원 - 유아원","category":"study"}]},{"lat":"37.296238443","long":"127.00214889","imageIndex":16,"items":[{"name":"신이룸학원","tel":"031-255-1774","addr":"경기도 수원시 장안구 송죽동 402-7번지 2층","indutype":"회원제형태 - 학원","category":"study"}]},{"lat":"37.29657182","long":"127.00389702","imageIndex":16,"items":[{"name":"에듀포커스학원","tel":"031-251-2578","addr":"경기도 수원시 장안구 송죽동 392-17번지 2층","indutype":"학원 - 보습학원","category":"study"},{"name":"예스영수전문학원","tel":"031-251-2578","addr":"경기도 수원시 장안구 송죽동 392-17번지 2층","indutype":"학원 - 보습학원","category":"study"}]},{"lat":"37.307041696","long":"127.00059216","imageIndex":16,"items":[{"name":"영재학원","tel":"031-245-0824","addr":"경기도 수원시 장안구 송죽동 481번지 신일빌딩 3층","indutype":"학원 - 보습학원","category":"study"},{"name":"영재학원","tel":"031-245-0824","addr":"경기도 수원시 장안구 송죽동 481번지 신일빌딩 3층","indutype":"학원 - 보습학원","category":"study"}]},{"lat":"37.297707079","long":"127.00581437","imageIndex":16,"items":[{"name":"오쌤이해법셀파수학학원","tel":"031-245-3847","addr":"경기도 수원시 장안구 송죽동 385-4번지 송화부동산 301호","indutype":"학원 - 보습학원","category":"study"}]},{"lat":"37.301455344","long":"127.00555509","imageIndex":16,"items":[{"name":"원플러스렛츠고천재영어교습소","tel":"031-243-1714","addr":"경기도 수원시 장안구 송죽동 461-9번지","indutype":"회원제형태 - 학원","category":"study"}]},{"lat":"37.300536241","long":"127.00747247","imageIndex":16,"items":[{"name":"유클리드보습학원","tel":"031-892-1777","addr":"경기도 수원시 장안구 송죽동 501-4번지 2층","indutype":"학원 - 기타 교육기관","category":"study"}]},{"lat":"37.303455617","long":"127.00555517","imageIndex":16,"items":[{"name":"제이뮤직학원","tel":"031-247-0770","addr":"경기도 수원시 장안구 송죽동 495-10번지 4층","indutype":"학원 - 예·체능계학원","category":"study"}]},{"lat":"37.301959936","long":"127.00452872","imageIndex":16,"items":[{"name":"조은새피아노교습소","tel":"031-251-7940","addr":"경기도 수원시 장안구 송죽동 458-8번지","indutype":"학원 - 예·체능계학원","category":"study"}]},{"lat":"37.301788699","long":"127.00647999","imageIndex":16,"items":[{"name":"청록태권도장","tel":"031-256-2263","addr":"경기도 수원시 장안구 송죽동 497-31번지","indutype":"학원 - 예·체능계학원","category":"study"}]},{"lat":"37.303734947","long":"127.00488969","imageIndex":16,"items":[{"name":"탑클래스학원","tel":"031-256-6757","addr":"경기도 수원시 장안구 송죽동 495-13번지 명성빌딩 4층 1호","indutype":"학원 - 보습학원","category":"study"}]},{"lat":"37.297932344","long":"127.00541963","imageIndex":16,"items":[{"name":"프라임엠스쿨학원","tel":"031-252-0984","addr":"경기도 수원시 장안구 송죽동 385-1번지 2층","indutype":"학원 - 보습학원","category":"study"}]},{"lat":"37.30465392","long":"126.99833634","imageIndex":16,"items":[{"name":"하늘꼬마숲어린이집[아이행복]","tel":"031-255-6787","addr":"경기도 수원시 장안구 송죽동 443-31번지","indutype":"학원 - 유아원","category":"study"}]},{"lat":"37.296986287","long":"127.00425793","imageIndex":16,"items":[{"name":"하늘샘피아노교습소","tel":"070-7529-5302","addr":"경기도 수원시 장안구 송죽동 391-11번지 일부 1층","indutype":"학원 - 예·체능계학원","category":"study"}]},{"lat":"37.300707434","long":"127.00752888","imageIndex":16,"items":[{"name":"한울어린이집[아이행복]","tel":"031-254-9080","addr":"경기도 수원시 장안구 송죽동 501-13번지 옥경빌딩 2층","indutype":"학원 - 유아원","category":"study"}]}]