[{"lat":"37.486068372","long":"126.77955215","imageIndex":8,"items":[{"name":"24시동물병원","tel":"032-613-8398","addr":"경기도 부천시 심곡동 394-3번지 1층","indutype":"기타의료기관 - 동물병원","category":"medical"}]},{"lat":"37.486733529","long":"126.78351885","imageIndex":8,"items":[{"name":"가나안약국","tel":"032-652-7582","addr":"경기도 부천시 심곡동 168-1번지 (1층라젤로전부)","indutype":"약국 - 약국","category":"medical"},{"name":"김우진비뇨기과의원","tel":"032-655-4004","addr":"경기도 부천시 심곡동 168-1번지 2층","indutype":"의원 - 의원","category":"medical"},{"name":"김이비인후과","tel":"032-655-6433","addr":"경기도 부천시 심곡동 168-1번지","indutype":"의원 - 의원","category":"medical"}]},{"lat":"37.491042075","long":"126.78449","imageIndex":8,"items":[{"name":"가야동물병원","tel":"032-655-3500","addr":"경기도 부천시 심곡동 121번지 1층","indutype":"기타의료기관 - 동물병원","category":"medical"}]},{"lat":"37.487318493","long":"126.7880512","imageIndex":8,"items":[{"name":"가톨릭외과의원","tel":"032-654-6661","addr":"경기도 부천시 심곡동 133-4번지","indutype":"의원 - 의원","category":"medical"}]},{"lat":"37.491734915","long":"126.78399045","imageIndex":8,"items":[{"name":"강남신경외과의원","tel":"032-614-7100","addr":"경기도 부천시 심곡동 105-2번지","indutype":"의원 - 의원","category":"medical"},{"name":"박재석한의원","tel":"032-657-0124","addr":"경기도 부천시 심곡동 105-2번지 보림빌딩 2층","indutype":"의원 - 한의원","category":"medical"}]},{"lat":"37.487460521","long":"126.77724141","imageIndex":8,"items":[{"name":"건양유통약업사","tel":"032-661-9500","addr":"경기도 부천시 심곡동 457-10번지 2층","indutype":"약국 - 한약방","category":"medical"}]},{"lat":"37.490509257","long":"126.78382442","imageIndex":8,"items":[{"name":"경인마취과의원","tel":"032-611-5533","addr":"경기도 부천시 심곡동 367-12번지","indutype":"의원 - 의원","category":"medical"},{"name":"김제헌신경정신과의원","tel":"0312-613-1769","addr":"경기도 부천시 심곡동 367-12번지","indutype":"의원 - 의원","category":"medical"}]},{"lat":"37.491204608","long":"126.78468175","imageIndex":8,"items":[{"name":"경희고래한의원","tel":"032-611-4591","addr":"경기도 부천시 심곡동 120-22번지 풍산메디칼프라자 4층 402호","indutype":"의원 - 한의원","category":"medical"},{"name":"김시환이비인후과","tel":"032-664-5201","addr":"경기도 부천시 심곡동 120-22번지 풍산메디칼프라자 301호","indutype":"의원 - 의원","category":"medical"},{"name":"동서영상의학과의원","tel":"032-657-6268","addr":"경기도 부천시 심곡동 120-22번지 풍산빌딩 5층 501호","indutype":"의원 - 의원","category":"medical"},{"name":"중부치과의원","tel":"032-611-3547","addr":"경기도 부천시 심곡동 120-22번지 풍산메디칼프라자 302호","indutype":"의원 - 치과의원","category":"medical"}]},{"lat":"37.495286583","long":"126.78494127","imageIndex":8,"items":[{"name":"경희튼튼한의원","tel":"032-667-3335","addr":"경기도 부천시 심곡동 89-13번지 지하1층, 지상 2-4층","indutype":"의원 - 한의원","category":"medical"}]},{"lat":"37.489592611","long":"126.78510481","imageIndex":8,"items":[{"name":"그린비타민약국","tel":"032-611-3330","addr":"경기도 부천시 심곡동 155-1번지","indutype":"약국 - 약국","category":"medical"}]},{"lat":"37.487094239","long":"126.7836874","imageIndex":8,"items":[{"name":"김산부인과의원","tel":"032-666-6203","addr":"경기도 부천시 심곡동 164-3번지 2층","indutype":"의원 - 의원","category":"medical"},{"name":"변주원내과의원","tel":"032-668-5275","addr":"경기도 부천시 심곡동 164-3번지 2층","indutype":"의원 - 의원","category":"medical"}]},{"lat":"37.485596368","long":"126.78249328","imageIndex":8,"items":[{"name":"김종우정신건강의학과의원","tel":"032-654-8708","addr":"경기도 부천시 심곡동 175-3번지 1층","indutype":"의원 - 의원","category":"medical"},{"name":"명성치과의원","tel":"032-651-0406","addr":"경기도 부천시 심곡동 175-3번지 영진빌딩 3층 명성치과의원","indutype":"의원 - 치과의원","category":"medical"}]},{"lat":"37.487038477","long":"126.78277171","imageIndex":8,"items":[{"name":"김현치과","tel":"032-665-0388","addr":"경기도 부천시 심곡동 190-14번지","indutype":"의원 - 치과의원","category":"medical"}]},{"lat":"37.49212127","long":"126.78341264","imageIndex":8,"items":[{"name":"다누리약국","tel":"032-654-4005","addr":"경기도 부천시 심곡동 98-4번지","indutype":"약국 - 약국","category":"medical"}]},{"lat":"37.486099929","long":"126.78196038","imageIndex":8,"items":[{"name":"다미치과의원","tel":"032-654-6555","addr":"경기도 부천시 심곡동 176-4번지 2층","indutype":"의원 - 치과의원","category":"medical"}]},{"lat":"37.494871649","long":"126.78468239","imageIndex":8,"items":[{"name":"다사랑약국","tel":"032-611-6123","addr":"경기도 부천시 심곡동 93-1번지 심곡메가밸리 210호","indutype":"약국 - 약국","category":"medical"},{"name":"미소샘치과의원","tel":"032-668-7528","addr":"경기도 부천시 심곡동 93-1심곡메가벨리2층동207호~208호","indutype":"의원 - 치과의원","category":"medical"},{"name":"원미내과","tel":"032-664-7400","addr":"경기도 부천시 심곡동 93-1번지 201호-206호","indutype":"의원 - 의원","category":"medical"}]},{"lat":"37.487264577","long":"126.7881305","imageIndex":8,"items":[{"name":"더사랑약국","tel":"032-652-9500","addr":"경기도 부천시 심곡동 133-3번지 1층","indutype":"약국 - 약국","category":"medical"}]},{"lat":"37.488039248","long":"126.7831306","imageIndex":8,"items":[{"name":"더조은치과의원","tel":"031-555-5555","addr":"경기도 부천시 심곡동 349-10번지 동아빌딩 2층 201호","indutype":"의원 - 치과의원","category":"medical"}]},{"lat":"37.485120906","long":"126.78360271","imageIndex":8,"items":[{"name":"도곡한의원","tel":"032-652-1075","addr":"경기도 부천시 심곡동 170-21번지 2층","indutype":"의원 - 한의원","category":"medical"},{"name":"부천프라자약국","tel":"032-207-7573","addr":"경기도 부천시 심곡동 170-21번지 1층 101호","indutype":"약국 - 약국","category":"medical"}]},{"lat":"37.4912023","long":"126.77393968","imageIndex":8,"items":[{"name":"도성약국","tel":"032-667-8275","addr":"경기도 부천시 심곡동 323-13번지","indutype":"약국 - 약국","category":"medical"},{"name":"마학기가정의학과의원","tel":"032-652-8275","addr":"경기도 부천시 심곡동 323-13번지","indutype":"의원 - 의원","category":"medical"}]},{"lat":"37.48598575","long":"126.78354365","imageIndex":8,"items":[{"name":"두리이비인후과 부천점","tel":"032-666-1900","addr":"경기도 부천시 심곡동 168-8번지 삼영빌딩 2층 일부","indutype":"의원 - 의원","category":"medical"},{"name":"백화점약국","tel":"032-612-6981","addr":"경기도 부천시 심곡동 168-8번지 삼영빌딩 1층","indutype":"약국 - 약국","category":"medical"},{"name":"부천연세안과의원","tel":"032-664-2100","addr":"경기도 부천시 심곡동 168-8번지","indutype":"의원 - 의원","category":"medical"},{"name":"아주편한내과의원","tel":"032-667-2277","addr":"경기도 부천시 심곡동 168-8번지 삼영빌딩 4층 6-8호","indutype":"의원 - 의원","category":"medical"},{"name":"유앤이피부과의원","tel":"032-655-7575","addr":"경기도 부천시 심곡동 168-8번지","indutype":"의원 - 의원","category":"medical"},{"name":"은삼성성형외과","tel":"032-665-8200","addr":"경기도 부천시 심곡동 168-8번지","indutype":"의원 - 의원","category":"medical"},{"name":"제중한의원","tel":"032-666-0075","addr":"경기도 부천시 심곡동 168-8번지 삼영빌딩 2층","indutype":"의원 - 한의원","category":"medical"}]},{"lat":"37.486822556","long":"126.78294195","imageIndex":8,"items":[{"name":"디딤병원","tel":"032-666-0777","addr":"경기도 부천시 심곡동 177-1번지 ,5-10층","indutype":"의원 - 의원","category":"medical"},{"name":"마음미소정신건강의학과의원","tel":"032-710-7511","addr":"경기도 부천시 심곡동 177-1번지 3층 302호","indutype":"의원 - 의원","category":"medical"},{"name":"스타약국","tel":"032-612-8881","addr":"경기도 부천시 심곡동 177-1번지 부천역메디칼약국 104호","indutype":"약국 - 약국","category":"medical"},{"name":"큐프라임치과의원","tel":"032-675-2875","addr":"경기도 부천시 심곡동 177-1번지 602호","indutype":"의원 - 치과의원","category":"medical"}]},{"lat":"37.491733572","long":"126.78326677","imageIndex":8,"items":[{"name":"디에스팜약국","tel":"032-675-2984","addr":"경기도 부천시 심곡동 118-2번지","indutype":"약국 - 약국","category":"medical"}]},{"lat":"37.485147579","long":"126.78341043","imageIndex":8,"items":[{"name":"백제약국","tel":"032-655-1146","addr":"경기도 부천시 심곡동 170-8번지 일부 1층","indutype":"약국 - 약국","category":"medical"}]},{"lat":"37.49167787","long":"126.78238495","imageIndex":8,"items":[{"name":"부일마취과의원","tel":"032-267-9936","addr":"경기도 부천시 심곡동 368-19번지","indutype":"의원 - 의원","category":"medical"}]},{"lat":"37.4894038","long":"126.78532019","imageIndex":8,"items":[{"name":"부천노옥당한의원","tel":"032-666-8000","addr":"경기도 부천시 심곡동 155-2번지 1층, 5층","indutype":"의원 - 한의원","category":"medical"}]},{"lat":"37.490757791","long":"126.77705057","imageIndex":8,"items":[{"name":"부천힐링팜약국","tel":"070-7365-7575","addr":"경기도 부천시 심곡동 327-10번지 1층","indutype":"약국 - 약국","category":"medical"}]},{"lat":"37.485513812","long":"126.7865752","imageIndex":8,"items":[{"name":"삼세한의원","tel":"032-664-3434","addr":"경기도 부천시 심곡동 138-5번지 부천메디칼센터 2층 202호","indutype":"의원 - 한의원","category":"medical"}]},{"lat":"37.485398087","long":"126.78245994","imageIndex":8,"items":[{"name":"서안치과의원","tel":"032-663-2371","addr":"경기도 부천시 심곡동 175-6번지 해태쇼핑 10층","indutype":"의원 - 치과의원","category":"medical"}]},{"lat":"37.487959754","long":"126.78399016","imageIndex":8,"items":[{"name":"성가김안과의원","tel":"032-667-5600","addr":"경기도 부천시 심곡동 161-20번지","indutype":"의원 - 의원","category":"medical"},{"name":"우주약국","tel":"032-656-1515","addr":"경기도 부천시 심곡동 161-20번지","indutype":"약국 - 약국","category":"medical"}]},{"lat":"37.486623706","long":"126.78260333","imageIndex":8,"items":[{"name":"성모치과의원","tel":"032-664-4701","addr":"경기도 부천시 심곡동 177-3번지","indutype":"의원 - 치과의원","category":"medical"}]},{"lat":"37.485593221","long":"126.78565914","imageIndex":8,"items":[{"name":"성심의원","tel":"032-651-5118","addr":"경기도 부천시 심곡동 146-12번지","indutype":"의원 - 의원","category":"medical"}]},{"lat":"37.490238079","long":"126.7833503","imageIndex":8,"items":[{"name":"소원약국","tel":"032-662-7778","addr":"경기도 부천시 심곡동 365-1번지","indutype":"약국 - 약국","category":"medical"},{"name":"효메디한방병원","tel":"032-666-8090","addr":"경기도 부천시 심곡동 365-1번지","indutype":"병원 - 한방병원","category":"medical"}]},{"lat":"37.487123578","long":"126.77537679","imageIndex":8,"items":[{"name":"신이당한의원","tel":"032-652-1096","addr":"경기도 부천시 심곡동 351-2번지","indutype":"의원 - 한의원","category":"medical"}]},{"lat":"37.486954107","long":"126.77627054","imageIndex":8,"items":[{"name":"엄치과의원","tel":"032-655-6728","addr":"경기도 부천시 심곡동 351-25번지","indutype":"의원 - 치과의원","category":"medical"}]},{"lat":"37.487150129","long":"126.77512796","imageIndex":8,"items":[{"name":"연세약국","tel":"032-664-1231","addr":"경기도 부천시 심곡동 352-9번지 우성빌딩 101호","indutype":"약국 - 약국","category":"medical"},{"name":"장메디의원","tel":"032-655-2332","addr":"경기도 부천시 심곡동 352-9번지","indutype":"의원 - 의원","category":"medical"}]},{"lat":"37.484850399","long":"126.78349044","imageIndex":8,"items":[{"name":"오장균치과교정과치과의원","tel":"032-667-2885","addr":"경기도 부천시 심곡동 171-14번지","indutype":"의원 - 치과의원","category":"medical"}]},{"lat":"37.491095407","long":"126.77457322","imageIndex":8,"items":[{"name":"이수용소아과의원","tel":"032-668-1782","addr":"경기도 부천시 심곡동 326번지 2층","indutype":"의원 - 의원","category":"medical"},{"name":"이화약국","tel":"032-652-8684","addr":"경기도 부천시 심곡동 326번지","indutype":"약국 - 약국","category":"medical"}]},{"lat":"37.487345339","long":"126.78305348","imageIndex":8,"items":[{"name":"이안산부인과의원","tel":"032-611-9935","addr":"경기도 부천시 심곡동 190-9번지 2층","indutype":"의원 - 의원","category":"medical"}]},{"lat":"37.48521061","long":"126.78829467","imageIndex":8,"items":[{"name":"일죽약국","tel":"032-651-2034","addr":"경기도 부천시 심곡동 130-12번지","indutype":"약국 - 약국","category":"medical"}]},{"lat":"37.485210333","long":"126.78324064","imageIndex":8,"items":[{"name":"전혜만치과의원","tel":"032-662-7879","addr":"경기도 부천시 심곡동 170-14번지","indutype":"의원 - 치과의원","category":"medical"}]},{"lat":"37.485791983","long":"126.78110199","imageIndex":8,"items":[{"name":"정의택의원","tel":"032-655-3020","addr":"경기도 부천시 심곡동 383-1번지 시네마존 201호","indutype":"의원 - 의원","category":"medical"},{"name":"청약국","tel":"032-651-2878","addr":"경기도 부천시 심곡동 383-1번지 일부 1층 104호","indutype":"약국 - 약국","category":"medical"}]},{"lat":"37.487955204","long":"126.78154787","imageIndex":8,"items":[{"name":"제일약국","tel":"032-664-0969","addr":"경기도 부천시 심곡동 378-1번지","indutype":"약국 - 약국","category":"medical"}]},{"lat":"37.485623925","long":"126.78277586","imageIndex":8,"items":[{"name":"조영래정신과의원","tel":"032-656-8275","addr":"경기도 부천시 심곡동 175-1번지","indutype":"의원 - 의원","category":"medical"}]},{"lat":"37.485427871","long":"126.78394101","imageIndex":8,"items":[{"name":"진희정산부인과","tel":"032-651-6439","addr":"경기도 부천시 심곡동 170-18번지","indutype":"의원 - 의원","category":"medical"}]},{"lat":"37.491843285","long":"126.78412583","imageIndex":8,"items":[{"name":"최동식치과의원","tel":"032-654-6633","addr":"경기도 부천시 심곡동 104-3번지","indutype":"의원 - 치과의원","category":"medical"}]},{"lat":"37.486375434","long":"126.77993567","imageIndex":8,"items":[{"name":"큐피트동물병원","tel":"032-666-7975","addr":"경기도 부천시 심곡동 399-11번지","indutype":"기타의료기관 - 동물병원","category":"medical"}]},{"lat":"37.488431684","long":"126.77624347","imageIndex":8,"items":[{"name":"한국케이씨엘(주)","tel":"032-662-0780","addr":"경기도 부천시 심곡동 343-4번지","indutype":"약국 - 약국","category":"medical"}]},{"lat":"37.485789501","long":"126.78460705","imageIndex":8,"items":[{"name":"화이트사과나무치과","tel":"032-612-7353","addr":"경기도 부천시 심곡동 169-8번지 4층","indutype":"의원 - 치과의원","category":"medical"}]}]