[{"lat":"37.811005464","long":"127.20991421","imageIndex":4,"items":[{"name":"153설농탕","tel":"534-2229","addr":"경기도 포천시 내촌면 진목리 313-2번지","indutype":"음식 - 한식","category":"restaurant"},{"name":"153설농탕","tel":"031-534-2229","addr":"경기도 포천시 내촌면 진목리 313-2번지","indutype":"일반휴게음식 - 일반한식","category":"restaurant"}]},{"lat":"37.809116927","long":"127.2079444","imageIndex":4,"items":[{"name":"고향송어닭집","tel":"533-6945","addr":"경기도 포천시 내촌면 진목리 324-1번지","indutype":"음식 - 한식","category":"restaurant"}]},{"lat":"37.803097089","long":"127.21391175","imageIndex":4,"items":[{"name":"마을식당","tel":"","addr":"경기도 포천시 내촌면 진목리 435-1번지","indutype":"음식 - 한식","category":"restaurant"},{"name":"마을식당","tel":"031-533-8262","addr":"경기도 포천시 내촌면 진목리 435-1번지","indutype":"일반휴게음식 - 일반한식","category":"restaurant"}]},{"lat":"37.796231187","long":"127.21430096","imageIndex":4,"items":[{"name":"미성식당","tel":"031-532-4737","addr":"경기도 포천시 내촌면 진목리 586-2 1층","indutype":"일반휴게음식 - 일반한식","category":"restaurant"}]},{"lat":"37.803007442","long":"127.21366169","imageIndex":4,"items":[{"name":"버들식당","tel":"031-534-7746","addr":"경기도 포천시 내촌면 진목리 462-3번지","indutype":"일반휴게음식 - 일반한식","category":"restaurant"}]},{"lat":"37.783621221","long":"127.20732905","imageIndex":4,"items":[{"name":"수목식당","tel":"531-9455","addr":"경기도 포천시 내촌면 진목리 714-7번지","indutype":"음식 - 한식","category":"restaurant"},{"name":"수목식당","tel":"031-531-0649","addr":"경기도 포천시 내촌면 진목리 714-7번지 1층","indutype":"일반휴게음식 - 일반한식","category":"restaurant"}]},{"lat":"37.808950183","long":"127.21055575","imageIndex":4,"items":[{"name":"오림포멧돼지","tel":"031-534-0310","addr":"경기도 포천시 내촌면 진목리 348-2번지","indutype":"일반휴게음식 - 일반한식","category":"restaurant"}]},{"lat":"37.803013597","long":"127.21525138","imageIndex":4,"items":[{"name":"진목식당","tel":"031-531-8471","addr":"경기도 포천시 내촌면 진목리 430-1번지","indutype":"일반휴게음식 - 일반한식","category":"restaurant"}]},{"lat":"37.794345271","long":"127.21088953","imageIndex":4,"items":[{"name":"한우사골국밥","tel":"031-534-8933","addr":"경기도 포천시 내촌면 진목리 615-2번지","indutype":"일반휴게음식 - 일반한식","category":"restaurant"}]}]