[{"lat":"37.660658502","long":"126.76931772","imageIndex":13,"items":[{"name":"(주)몬스터볼링장","tel":"","addr":"경기도 고양시 일산동구 장항동 766번지","indutype":"레저업소 - 볼 링 장","category":"leisure"},{"name":"핑크클럽","tel":"070-4206-9242","addr":"경기도 고양시 일산동구 장항동 766번지","indutype":"레저업소 - 기타레져업소","category":"leisure"}]},{"lat":"37.658963707","long":"126.76882439","imageIndex":13,"items":[{"name":"(주)스포츠앤드비지니스컴퍼니","tel":"070-8860-8522","addr":"경기도 고양시 일산동구 장항동 755번지","indutype":"레저업소 - 기타레져업소","category":"leisure"}]},{"lat":"37.66332762","long":"126.76593198","imageIndex":13,"items":[{"name":"(주)포스링크 맥스피드PC 라페스타점","tel":"070-9900-7693","addr":"경기도 고양시 일산동구 장항동 740-5번지","indutype":"레저업소 - 기타레져업소","category":"leisure"},{"name":"뉴로데오노래연습장","tel":"031-924-8911","addr":"경기도 고양시 일산동구 장항동 740-5번지","indutype":"레저업소 - 노 래 방","category":"leisure"},{"name":"다함께 야구왕 일산라페스타점","tel":"031-911-5952","addr":"경기도 고양시 일산동구 장항동 740-5번지","indutype":"레저업소 - 기타레져업소","category":"leisure"},{"name":"로데오노래연습장","tel":"031-924-8911","addr":"경기도 고양시 일산동구 장항동 740-5번지","indutype":"레저업소 - 노 래 방","category":"leisure"},{"name":"맥스피드 PC 라떼스타점","tel":"070-9065-9419","addr":"경기도 고양시 일산동구 장항동 740-5번지","indutype":"레저업소 - 기타레져업소","category":"leisure"},{"name":"제이에스빌리어드클럽(JS billiard club)","tel":"031-915-3949","addr":"경기도 고양시 일산동구 장항동 740-5번지","indutype":"레저업소 - 당 구 장","category":"leisure"},{"name":"클럽하우스","tel":"031-000-0000","addr":"경기도 고양시 일산동구 장항동 740-5번지","indutype":"레저업소 - 스크린골프","category":"leisure"}]},{"lat":"37.661739184","long":"126.76907634","imageIndex":13,"items":[{"name":"1박2일당구클럽","tel":"031-979-3434","addr":"경기도 고양시 일산동구 장항동 776-2번지","indutype":"레저업소 - 당 구 장","category":"leisure"},{"name":"대한임상요가자연치유협회(     CHIROPRACT","tel":"031-947-0088","addr":"경기도 고양시 일산동구 장항동 776-2번지","indutype":"레저업소 - 헬스클럽","category":"leisure"},{"name":"빈노래연습장","tel":"031-905-8277","addr":"경기도 고양시 일산동구 장항동 776-2번지","indutype":"레저업소 - 노 래 방","category":"leisure"}]},{"lat":"37.66351083","long":"126.76743875","imageIndex":13,"items":[{"name":"3POP PC방","tel":"070-2000-3617","addr":"경기도 고양시 일산동구 장항동 733-2번지","indutype":"레저업소 - 기타레져업소","category":"leisure"},{"name":"K1당구클럽","tel":"031-919-3949","addr":"경기도 고양시 일산동구 장항동","indutype":"레저업소 - 당 구 장","category":"leisure"},{"name":"삼푸노래연습장","tel":"031-913-4512","addr":"경기도 고양시 일산동구 장항동 733-2번지","indutype":"레저업소 - 노 래 방","category":"leisure"},{"name":"하트노래연습장","tel":"031-919-4512","addr":"경기도 고양시 일산동구 장항동 733-2번지","indutype":"레저업소 - 노 래 방","category":"leisure"}]},{"lat":"37.65132241","long":"126.77751711","imageIndex":13,"items":[{"name":"7PC(세븐)방","tel":"070-4102-1366","addr":"경기도 고양시 일산동구 장항동 895번지","indutype":"레저업소 - 기타레져업소","category":"leisure"},{"name":"주식회사더블에잇(Double Eight)","tel":"031-907-7998","addr":"경기도 고양시 일산동구 장항동 895번지","indutype":"레저업소 - 헬스클럽","category":"leisure"}]},{"lat":"37.65721104","long":"126.77096041","imageIndex":13,"items":[{"name":"BMW노래연습장","tel":"031-908-1823","addr":"경기도 고양시 일산동구 장항동 861-1번지","indutype":"레저업소 - 노 래 방","category":"leisure"},{"name":"S","tel":"031-932-1117","addr":"경기도 고양시 일산동구 장항동 861-1번지","indutype":"레저업소 - 노 래 방","category":"leisure"},{"name":"김치당구클럽","tel":"031-901-5554","addr":"경기도 고양시 일산동구 장항동 861-1번지","indutype":"레저업소 - 당 구 장","category":"leisure"},{"name":"티에프엘(TFL)","tel":"070-7757-9009","addr":"경기도 고양시 일산동구 장항동 861-1번지","indutype":"레저업소 - 기타레져업소","category":"leisure"}]},{"lat":"37.656647648","long":"126.77311534","imageIndex":13,"items":[{"name":"J.PC방","tel":"031-904-5348","addr":"경기도 고양시 일산동구 장항동","indutype":"레저업소 - 기타레져업소","category":"leisure"},{"name":"락앤롤게임","tel":"031-902-1998","addr":"경기도 고양시 일산동구 장항동 855번지","indutype":"레저업소 - 기타레져업소","category":"leisure"},{"name":"일산디스코팡팡","tel":"031-901-9449","addr":"경기도 고양시 일산동구 장항동 855번지","indutype":"레저업소 - 기타레져업소","category":"leisure"},{"name":"코모도","tel":"031-000-0000","addr":"경기도 고양시 일산동구 장항동 855번지","indutype":"레저업소 - 기타레져업소","category":"leisure"},{"name":"푸른노래연습장","tel":"031-908-0045","addr":"경기도 고양시 일산동구 장항동 855번지","indutype":"레저업소 - 노 래 방","category":"leisure"}]},{"lat":"37.655297021","long":"126.7735388","imageIndex":13,"items":[{"name":"JK 노래연습장","tel":"031-909-0911","addr":"경기도 고양시 일산동구 장항동 853-1번지","indutype":"레저업소 - 노 래 방","category":"leisure"},{"name":"PILATES STUDIO6(필라테스 식스)","tel":"031-000-0000","addr":"경기도 고양시 일산동구 장항동 853-1번지","indutype":"레저업소 - 헬스클럽","category":"leisure"},{"name":"팀 리스펙트 (Team Respect)","tel":"031-8073-8877","addr":"경기도 고양시 일산동구 장항동 853-1번지","indutype":"레저업소 - 헬스클럽","category":"leisure"}]},{"lat":"37.657299664","long":"126.77021219","imageIndex":13,"items":[{"name":"K 스크린골프클럽","tel":"031-908-0066","addr":"경기도 고양시 일산동구 장항동 864번지","indutype":"레저업소 - 스크린골프","category":"leisure"},{"name":"뮤트짐","tel":"031-901-7048","addr":"경기도 고양시 일산동구 장항동 864번지","indutype":"레저업소 - 헬스클럽","category":"leisure"},{"name":"와와댄스","tel":"031-905-3339","addr":"경기도 고양시 일산동구 장항동 864번지","indutype":"레저업소 - 헬스클럽","category":"leisure"}]},{"lat":"37.656878063","long":"126.7711541","imageIndex":13,"items":[{"name":"KPOP노래연습장","tel":"031-903-1650","addr":"경기도 고양시 일산동구 장항동 862번지","indutype":"레저업소 - 노 래 방","category":"leisure"}]},{"lat":"37.663437077","long":"126.76660031","imageIndex":13,"items":[{"name":"Luxury쌍뚜노래연습장","tel":"031-918-0009","addr":"경기도 고양시 일산동구 장항동 736-6번지","indutype":"레저업소 - 노 래 방","category":"leisure"},{"name":"에코 노래연습장","tel":"","addr":"경기도 고양시 일산동구 장항동 736-6번지","indutype":"레저업소 - 노 래 방","category":"leisure"},{"name":"킹 노래연습장","tel":"031-111-1111","addr":"경기도 고양시 일산동구 장항동 736-6번지","indutype":"레저업소 - 노 래 방","category":"leisure"}]},{"lat":"37.656408694","long":"126.7707136","imageIndex":13,"items":[{"name":"MBC당구클럽","tel":"031-819-3949","addr":"경기도 고양시 일산동구 장항동","indutype":"레저업소 - 당 구 장","category":"leisure"},{"name":"올라고 노래연습장","tel":"031-932-0158","addr":"경기도 고양시 일산동구 장항동 863-1번지","indutype":"레저업소 - 노 래 방","category":"leisure"},{"name":"하모니당구클럽","tel":"031-819-3949","addr":"경기도 고양시 일산동구 장항동 863-1번지","indutype":"레저업소 - 당 구 장","category":"leisure"}]},{"lat":"37.660351255","long":"126.76885403","imageIndex":13,"items":[{"name":"M노래연습장","tel":"031-904-9222","addr":"경기도 고양시 일산동구 장항동 768번지","indutype":"레저업소 - 노 래 방","category":"leisure"},{"name":"놀숲일산라페스타점","tel":"070-8871-8965","addr":"경기도 고양시 일산동구 장항동 768번지","indutype":"레저업소 - 기타레져업소","category":"leisure"}]},{"lat":"37.663958588","long":"126.76607731","imageIndex":13,"items":[{"name":"NIC PC방","tel":"031-000-0000","addr":"경기도 고양시 일산동구 장항동 736-3번지","indutype":"레저업소 - 기타레져업소","category":"leisure"},{"name":"리얼야구존 일산라페스타점","tel":"031-925-0909","addr":"경기도 고양시 일산동구 장항동 736-3번지","indutype":"레저업소 - 기타레져업소","category":"leisure"},{"name":"스트라이크팡 라페2호점","tel":"031-907-8941","addr":"경기도 고양시 일산동구 장항동 736-3번지","indutype":"레저업소 - 기타레져업소","category":"leisure"},{"name":"에이스 스크린골프","tel":"031-925-5488","addr":"경기도 고양시 일산동구 장항동 736-3번지","indutype":"레저업소 - 스크린골프","category":"leisure"}]},{"lat":"37.657078938","long":"126.77251339","imageIndex":13,"items":[{"name":"NIC PC방 (2)","tel":"031-903-2581","addr":"경기도 고양시 일산동구 장항동 856-3번지","indutype":"레저업소 - 기타레져업소","category":"leisure"},{"name":"TAKE5(일산점)","tel":"031-908-3245","addr":"경기도 고양시 일산동구 장항동 856-3번지","indutype":"레저업소 - 기타레져업소","category":"leisure"},{"name":"노천사랑방 부성무에타이","tel":"031-111-1111","addr":"경기도 고양시 일산동구 장항동 856-3번지","indutype":"레저업소 - 헬스클럽","category":"leisure"},{"name":"퀸앤킹 노래연습장","tel":"031-904-5900","addr":"경기도 고양시 일산동구 장항동 856-3번지","indutype":"레저업소 - 노 래 방","category":"leisure"},{"name":"퀸앤킹노래연습장","tel":"031-904-5900","addr":"경기도 고양시 일산동구 장항동 856-3번지","indutype":"레저업소 - 노 래 방","category":"leisure"},{"name":"플러스짐","tel":"031-901-7597","addr":"경기도 고양시 일산동구 장항동 856-3번지","indutype":"레저업소 - 헬스클럽","category":"leisure"},{"name":"피지오필라테스일산점","tel":"031-000-0000","addr":"경기도 고양시 일산동구 장항동 856-3번지","indutype":"레저업소 - 헬스클럽","category":"leisure"}]},{"lat":"37.660439684","long":"126.76801511","imageIndex":13,"items":[{"name":"OK노래연습장","tel":"031-904-9001","addr":"경기도 고양시 일산동구 장항동 757번지","indutype":"레저업소 - 노 래 방","category":"leisure"},{"name":"김현우","tel":"","addr":"경기도 고양시 일산동구 장항동 757번지","indutype":"레저업소 - 헬스클럽","category":"leisure"},{"name":"몬스터하우스","tel":"031-902-1135","addr":"경기도 고양시 일산동구 장항동 757번지","indutype":"레저업소 - 헬스클럽","category":"leisure"},{"name":"양상훈","tel":"","addr":"경기도 고양시 일산동구 장항동 757번지","indutype":"레저업소 - 헬스클럽","category":"leisure"}]},{"lat":"37.66082238","long":"126.76565661","imageIndex":13,"items":[{"name":"OYU FIT Wellness center","tel":"031-901-8173","addr":"경기도 고양시 일산동구 장항동 751번지","indutype":"레저업소 - 헬스클럽","category":"leisure"},{"name":"에버유필라테스(EVER YOU PILATES)","tel":"031-914-2935","addr":"경기도 고양시 일산동구 장항동 751번지","indutype":"레저업소 - 헬스클럽","category":"leisure"}]},{"lat":"37.65957773","long":"126.76951377","imageIndex":13,"items":[{"name":"가자스크린골프","tel":"031-905-9907","addr":"경기도 고양시 일산동구 장항동 769번지","indutype":"레저업소 - 스크린골프","category":"leisure"},{"name":"스크린승마 라페스타점","tel":"031-905-3332","addr":"경기도 고양시 일산동구 장항동 769번지","indutype":"레저업소 - 기타레져업소","category":"leisure"},{"name":"엔조이쓰리칼라","tel":"031-903-7895","addr":"경기도 고양시 일산동구 장항동 769번지","indutype":"레저업소 - 당 구 장","category":"leisure"},{"name":"자이언트 빌리어드","tel":"","addr":"경기도 고양시 일산동구 장항동 769번지","indutype":"레저업소 - 당 구 장","category":"leisure"}]},{"lat":"37.659711348","long":"126.76874271","imageIndex":13,"items":[{"name":"갈채 노래연습장","tel":"","addr":"경기도 고양시 일산동구 장항동 756-3번지","indutype":"레저업소 - 노 래 방","category":"leisure"},{"name":"트리플 엑스","tel":"031-908-3739","addr":"경기도 고양시 일산동구 장항동 756-3번지","indutype":"레저업소 - 기타레져업소","category":"leisure"}]},{"lat":"37.650160536","long":"126.77771326","imageIndex":13,"items":[{"name":"갤러리노래연습장","tel":"","addr":"경기도 고양시 일산동구 장항동 898-1번지","indutype":"레저업소 - 노 래 방","category":"leisure"}]},{"lat":"37.657269179","long":"126.77304543","imageIndex":13,"items":[{"name":"갤럭시 노래연습장","tel":"031-905-0814","addr":"경기도 고양시 일산동구 장항동 856-1번지","indutype":"레저업소 - 노 래 방","category":"leisure"},{"name":"대박노래연습장","tel":"031-905-3770","addr":"경기도 고양시 일산동구 장항동 856-1번지","indutype":"레저업소 - 노 래 방","category":"leisure"},{"name":"대한웰빙 건강연구쎈터","tel":"031-813-1511","addr":"경기도 고양시 일산동구 장항동 856-1번지","indutype":"레저업소 - 헬스클럽","category":"leisure"},{"name":"웨돔 당구클럽","tel":"031-814-9278","addr":"경기도 고양시 일산동구 장항동 856-1번지","indutype":"레저업소 - 당 구 장","category":"leisure"}]},{"lat":"37.654682534","long":"126.77260011","imageIndex":13,"items":[{"name":"게임토피아","tel":"031-901-9703","addr":"경기도 고양시 일산동구 장항동 868번지","indutype":"레저업소 - 기타레져업소","category":"leisure"},{"name":"아토네다락방","tel":"070-4901-9699","addr":"경기도 고양시 일산동구 장항동 868번지","indutype":"레저업소 - 기타레져업소","category":"leisure"},{"name":"알크래프트 레이싱파크 일산점","tel":"031-452-5541","addr":"경기도 고양시 일산동구 장항동 868번지","indutype":"레저업소 - 기타레져업소","category":"leisure"},{"name":"주식회사 에스브이디씨일산지점","tel":"031-905-3661","addr":"경기도 고양시 일산동구 장항동 868번지","indutype":"레저업소 - 기타레져업소","category":"leisure"}]},{"lat":"37.654715042","long":"126.77079819","imageIndex":13,"items":[{"name":"고포잇짐","tel":"031-901-5550","addr":"경기도 고양시 일산동구 장항동 869번지","indutype":"레저업소 - 헬스클럽","category":"leisure"},{"name":"리뉴필라테스","tel":"070-5121-6771","addr":"경기도 고양시 일산동구 장항동 869번지","indutype":"레저업소 - 헬스클럽","category":"leisure"}]},{"lat":"37.662521535","long":"126.76832588","imageIndex":13,"items":[{"name":"나비 노래연습장","tel":"031-901-2932","addr":"경기도 고양시 일산동구 장항동 778-2번지","indutype":"레저업소 - 노 래 방","category":"leisure"},{"name":"다오리노래연습장","tel":"031-932-3366","addr":"경기도 고양시 일산동구 장항동 778-2번지","indutype":"레저업소 - 노 래 방","category":"leisure"},{"name":"더엑스PC 라페스타점","tel":"070-5165-2127","addr":"경기도 고양시 일산동구 장항동 778-2번지","indutype":"레저업소 - 기타레져업소","category":"leisure"},{"name":"바디코드","tel":"","addr":"경기도 고양시 일산동구 장항동 778-2번지","indutype":"레저업소 - 헬스클럽","category":"leisure"},{"name":"조이스크린골프","tel":"031-932-7775","addr":"경기도 고양시 일산동구 장항동 778-2번지","indutype":"레저업소 - 스크린골프","category":"leisure"},{"name":"코코아DVD영화관","tel":"031-901-3567","addr":"경기도 고양시 일산동구 장항동 778-2번지","indutype":"레저업소 - 기타레져업소","category":"leisure"},{"name":"헬쓰학원","tel":"031-901-8930","addr":"경기도 고양시 일산동구 장항동 778-2번지","indutype":"레저업소 - 헬스클럽","category":"leisure"}]},{"lat":"37.661840967","long":"126.7659027","imageIndex":13,"items":[{"name":"나이스바디","tel":"070-8259-2798","addr":"경기도 고양시 일산동구 장항동 742-1번지","indutype":"레저업소 - 헬스클럽","category":"leisure"}]},{"lat":"37.663214891","long":"126.76813103","imageIndex":13,"items":[{"name":"노블 노래연습장","tel":"","addr":"경기도 고양시 일산동구 장항동 734-1번지","indutype":"레저업소 - 노 래 방","category":"leisure"},{"name":"락다이어트복싱짐","tel":"070-8822-8212","addr":"경기도 고양시 일산동구 장항동 734-1번지","indutype":"레저업소 - 헬스클럽","category":"leisure"},{"name":"명인당구장","tel":"031-912-1042","addr":"경기도 고양시 일산동구 장항동 734-1번지","indutype":"레저업소 - 당 구 장","category":"leisure"},{"name":"빅풋주짓수","tel":"","addr":"경기도 고양시 일산동구 장항동 734-1번지","indutype":"레저업소 - 헬스클럽","category":"leisure"},{"name":"웰빙","tel":"031-919-3337","addr":"경기도 고양시 일산동구 장항동 734-1번지","indutype":"레저업소 - 헬스클럽","category":"leisure"}]},{"lat":"37.656825317","long":"126.77182289","imageIndex":13,"items":[{"name":"놀숲 일산웨스턴돔점","tel":"031-901-6628","addr":"경기도 고양시 일산동구 장항동 859-1번지","indutype":"레저업소 - 기타레져업소","category":"leisure"},{"name":"예신","tel":"031-902-2918","addr":"경기도 고양시 일산동구 장항동 859-1번지","indutype":"레저업소 - 헬스클럽","category":"leisure"}]},{"lat":"37.657490071","long":"126.77082355","imageIndex":13,"items":[{"name":"누리노래연습장","tel":"031-905-1711","addr":"경기도 고양시 일산동구 장항동 861번지","indutype":"레저업소 - 노 래 방","category":"leisure"},{"name":"코코아DVD","tel":"031-907-3567","addr":"경기도 고양시 일산동구 장항동 861번지","indutype":"레저업소 - 기타레져업소","category":"leisure"}]},{"lat":"37.662654782","long":"126.76737346","imageIndex":13,"items":[{"name":"니스코 스나이퍼","tel":"031-912-0399","addr":"경기도 고양시 일산동구 장항동","indutype":"레저업소 - 기타레져업소","category":"leisure"},{"name":"명품노래연습장","tel":"031-941-4646","addr":"경기도 고양시 일산동구 장항동 735-3번지","indutype":"레저업소 - 노 래 방","category":"leisure"}]},{"lat":"37.663158391","long":"126.76690719","imageIndex":13,"items":[{"name":"다트프린스","tel":"031-948-6825","addr":"경기도 고양시 일산동구 장항동 735번지","indutype":"레저업소 - 기타레져업소","category":"leisure"},{"name":"루키 당구 클럽","tel":"031-1111-1111","addr":"경기도 고양시 일산동구 장항동 735번지","indutype":"레저업소 - 당 구 장","category":"leisure"},{"name":"아이센스PC방 라페스타점","tel":"","addr":"경기도 고양시 일산동구 장항동 735번지","indutype":"레저업소 - 기타레져업소","category":"leisure"},{"name":"양우","tel":"031-924-5352","addr":"경기도 고양시 일산동구 장항동","indutype":"레저업소 - 노 래 방","category":"leisure"}]},{"lat":"37.664185055","long":"126.7666886","imageIndex":13,"items":[{"name":"당구왕 대니스","tel":"070-8721-7992","addr":"경기도 고양시 일산동구 장항동 731-2번지","indutype":"레저업소 - 당 구 장","category":"leisure"},{"name":"스타노래연습장","tel":"031-914-7698","addr":"경기도 고양시 일산동구 장항동 731-2번지","indutype":"레저업소 - 노 래 방","category":"leisure"},{"name":"플렉스짐","tel":"031-919-3798","addr":"경기도 고양시 일산동구 장항동 731-2번지","indutype":"레저업소 - 헬스클럽","category":"leisure"}]},{"lat":"37.662127809","long":"126.76968712","imageIndex":13,"items":[{"name":"당구의 신","tel":"031-907-0806","addr":"경기도 고양시 일산동구 장항동 776번지","indutype":"레저업소 - 당 구 장","category":"leisure"},{"name":"팡팡 노래연습장","tel":"031-111-1111","addr":"경기도 고양시 일산동구 장항동 776번지","indutype":"레저업소 - 노 래 방","category":"leisure"}]},{"lat":"37.66296052","long":"126.76707782","imageIndex":13,"items":[{"name":"당큐당구장","tel":"02-111-1111","addr":"경기도 고양시 일산동구 장항동 735-1번지","indutype":"레저업소 - 당 구 장","category":"leisure"},{"name":"로티플 노래연습장","tel":"031-924-6627","addr":"경기도 고양시 일산동구 장항동 735-1번지","indutype":"레저업소 - 노 래 방","category":"leisure"},{"name":"센스","tel":"031-911-2414","addr":"경기도 고양시 일산동구 장항동","indutype":"레저업소 - 노 래 방","category":"leisure"},{"name":"실내야구사격","tel":"031-111-1111","addr":"경기도 고양시 일산동구 장항동 735-1번지","indutype":"레저업소 - 기타레져업소","category":"leisure"}]},{"lat":"37.664462124","long":"126.76557703","imageIndex":13,"items":[{"name":"더 도어즈 이스케이프","tel":"031-911-2003","addr":"경기도 고양시 일산동구 장항동 736번지","indutype":"레저업소 - 기타레져업소","category":"leisure"},{"name":"스고이당구클럽","tel":"031-925-3949","addr":"경기도 고양시 일산동구 장항동 736번지","indutype":"레저업소 - 당 구 장","category":"leisure"},{"name":"헬로 노래연습장","tel":"031-919-3535","addr":"경기도 고양시 일산동구 장항동 736번지","indutype":"레저업소 - 노 래 방","category":"leisure"}]},{"lat":"37.650682467","long":"126.77738306","imageIndex":13,"items":[{"name":"더짐","tel":"031-815-0010","addr":"경기도 고양시 일산동구 장항동 897번지","indutype":"레저업소 - 헬스클럽","category":"leisure"},{"name":"메이저 피시(MAJOR PC방)","tel":"031-000-0000","addr":"경기도 고양시 일산동구 장항동 897번지","indutype":"레저업소 - 기타레져업소","category":"leisure"},{"name":"아이푸른","tel":"031-932-9979","addr":"경기도 고양시 일산동구 장항동 897번지","indutype":"레저업소 - 수 영 장","category":"leisure"}]},{"lat":"37.663625892","long":"126.76640704","imageIndex":13,"items":[{"name":"두바이노래연습장","tel":"070-8885-8950","addr":"경기도 고양시 일산동구 장항동 736-5번지","indutype":"레저업소 - 노 래 방","category":"leisure"},{"name":"주식회사 야누스","tel":"031-909-0923","addr":"경기도 고양시 일산동구 장항동 736-5번지","indutype":"레저업소 - 볼 링 장","category":"leisure"}]},{"lat":"37.662851066","long":"126.76640949","imageIndex":13,"items":[{"name":"둥지노래연습장","tel":"031-911-2787","addr":"경기도 고양시 일산동구 장항동 741번지","indutype":"레저업소 - 노 래 방","category":"leisure"},{"name":"라페스타골프존","tel":"031-913-0070","addr":"경기도 고양시 일산동구 장항동 741번지","indutype":"레저업소 - 골프연습장","category":"leisure"},{"name":"루비 노래연습장","tel":"031-911-2787","addr":"경기도 고양시 일산동구 장항동 741번지","indutype":"레저업소 - 노 래 방","category":"leisure"},{"name":"멀티-스페이스룸","tel":"031-919-5234","addr":"경기도 고양시 일산동구 장항동 741번지","indutype":"레저업소 - 기타레져업소","category":"leisure"},{"name":"송송노래연습장","tel":"031-917-8896","addr":"경기도 고양시 일산동구 장항동 741번지","indutype":"레저업소 - 노 래 방","category":"leisure"},{"name":"앵콜 노래연습장","tel":"031-917-7175","addr":"경기도 고양시 일산동구 장항동 741번지","indutype":"레저업소 - 노 래 방","category":"leisure"},{"name":"온에어코인 노래연습장 라페스타점","tel":"031-915-9992","addr":"경기도 고양시 일산동구 장항동 741번지","indutype":"레저업소 - 노 래 방","category":"leisure"},{"name":"유한회사 레전드라페스타점","tel":"031-922-1672","addr":"경기도 고양시 일산동구 장항동 741번지","indutype":"레저업소 - 기타레져업소","category":"leisure"},{"name":"주식회사 코마","tel":"031-923-7077","addr":"경기도 고양시 일산동구 장항동 741번지","indutype":"레저업소 - 기타레져업소","category":"leisure"},{"name":"코마","tel":"031-923-7077","addr":"경기도 고양시 일산동구 장항동 741번지","indutype":"레저업소 - 기타레져업소","category":"leisure"},{"name":"클라스코인노래연습장","tel":"","addr":"경기도 고양시 일산동구 장항동 741번지","indutype":"레저업소 - 노 래 방","category":"leisure"},{"name":"플러스원노래연습장","tel":"031-919-9388","addr":"경기도 고양시 일산동구 장항동 741번지","indutype":"레저업소 - 노 래 방","category":"leisure"},{"name":"한신당구장","tel":"070-8862-7934","addr":"경기도 고양시 일산동구 장항동 741번지","indutype":"레저업소 - 당 구 장","category":"leisure"}]},{"lat":"37.659381175","long":"126.77035302","imageIndex":13,"items":[{"name":"디지털노래연습장","tel":"031-908-0617","addr":"경기도 고양시 일산동구 장항동 770-2번지","indutype":"레저업소 - 노 래 방","category":"leisure"},{"name":"토투","tel":"","addr":"경기도 고양시 일산동구 장항동 770-2번지","indutype":"레저업소 - 기타레져업소","category":"leisure"}]},{"lat":"37.661960884","long":"126.76729632","imageIndex":13,"items":[{"name":"라페스타노래연습장","tel":"031-111-1111","addr":"경기도 고양시 일산동구 장항동 761번지","indutype":"레저업소 - 노 래 방","category":"leisure"},{"name":"컬러오브머니","tel":"031-920-9900","addr":"경기도 고양시 일산동구 장항동 761번지","indutype":"레저업소 - 당 구 장","category":"leisure"},{"name":"할리갈리 풋켓볼","tel":"031-905-9242","addr":"경기도 고양시 일산동구 장항동 761번지","indutype":"레저업소 - 기타레져업소","category":"leisure"}]},{"lat":"37.659822042","long":"126.77004565","imageIndex":13,"items":[{"name":"로데오 멀티방","tel":"031-907-8150","addr":"경기도 고양시 일산동구 장항동 770번지","indutype":"레저업소 - 기타레져업소","category":"leisure"}]},{"lat":"37.658187342","long":"126.77262329","imageIndex":13,"items":[{"name":"리바디짐","tel":"031-901-9699","addr":"경기도 고양시 일산동구 장항동 857번지","indutype":"레저업소 - 헬스클럽","category":"leisure"},{"name":"메인노래연습장","tel":"031-902-6196","addr":"경기도 고양시 일산동구 장항동 857번지","indutype":"레저업소 - 노 래 방","category":"leisure"},{"name":"호수만화","tel":"031-904-4566","addr":"경기도 고양시 일산동구 장항동 857번지","indutype":"레저업소 - 기타레져업소","category":"leisure"}]},{"lat":"37.657294904","long":"126.77237673","imageIndex":13,"items":[{"name":"리밸런스","tel":"031-902-1210","addr":"경기도 고양시 일산동구 장항동 856-2번지","indutype":"레저업소 - 헬스클럽","category":"leisure"},{"name":"아카데미당구장","tel":"031-932-6646","addr":"경기도 고양시 일산동구 장항동 856-2번지","indutype":"레저업소 - 당 구 장","category":"leisure"},{"name":"폴로노래연습장","tel":"031-921-3168","addr":"경기도 고양시 일산동구 장항동 856-2번지","indutype":"레저업소 - 노 래 방","category":"leisure"},{"name":"황제노래연습장","tel":"031-904-8835","addr":"경기도 고양시 일산동구 장항동 856-2번지","indutype":"레저업소 - 노 래 방","category":"leisure"}]},{"lat":"37.663016071","long":"126.76782565","imageIndex":13,"items":[{"name":"리오노래방","tel":"031-811-6006","addr":"경기도 고양시 일산동구 장항동 734-2번지","indutype":"레저업소 - 노 래 방","category":"leisure"},{"name":"싸이팅 노래연습장","tel":"031-921-4240","addr":"경기도 고양시 일산동구 장항동 734-2번지","indutype":"레저업소 - 노 래 방","category":"leisure"},{"name":"온피씨방","tel":"070-2200-2191","addr":"경기도 고양시 일산동구 장항동 734-2번지","indutype":"레저업소 - 기타레져업소","category":"leisure"},{"name":"파티노래방","tel":"031-922-6533","addr":"경기도 고양시 일산동구 장항동 734-2번지","indutype":"레저업소 - 노 래 방","category":"leisure"}]},{"lat":"37.664020037","long":"126.76527243","imageIndex":13,"items":[{"name":"마돈나 노래연습장","tel":"","addr":"경기도 고양시 일산동구 장항동 740-1번지","indutype":"레저업소 - 노 래 방","category":"leisure"},{"name":"쥬얼리 노래연습장","tel":"","addr":"경기도 고양시 일산동구 장항동 740-1번지","indutype":"레저업소 - 노 래 방","category":"leisure"},{"name":"캐슬노래연습장","tel":"031-914-2503","addr":"경기도 고양시 일산동구 장항동 740-1번지","indutype":"레저업소 - 노 래 방","category":"leisure"}]},{"lat":"37.653221467","long":"126.77648016","imageIndex":13,"items":[{"name":"마두GOLFZON","tel":"031-902-0757","addr":"경기도 고양시 일산동구 장항동 890-3번지","indutype":"레저업소 - 골프연습장","category":"leisure"}]},{"lat":"37.658547214","long":"126.76779441","imageIndex":13,"items":[{"name":"마이크로스튜디오일산점","tel":"031-813-2020","addr":"경기도 고양시 일산동구 장항동 754번지","indutype":"레저업소 - 헬스클럽","category":"leisure"}]},{"lat":"37.661494868","long":"126.76854444","imageIndex":13,"items":[{"name":"맥스라이더","tel":"032-215-2086","addr":"경기도 고양시 일산동구 장항동 764번지","indutype":"레저업소 - 기타레져업소","category":"leisure"}]},{"lat":"37.659850701","long":"126.77087287","imageIndex":13,"items":[{"name":"머슬케어필라테스일산점","tel":"031-907-9675","addr":"경기도 고양시 일산동구 장항동 771-1번지","indutype":"레저업소 - 헬스클럽","category":"leisure"},{"name":"뮤토 스튜디오","tel":"031-902-5588","addr":"경기도 고양시 일산동구 장항동 771-1번지","indutype":"레저업소 - 헬스클럽","category":"leisure"},{"name":"샵필라리나","tel":"","addr":"경기도 고양시 일산동구 장항동 771-1번지","indutype":"레저업소 - 헬스클럽","category":"leisure"}]},{"lat":"37.660076085","long":"126.76640696","imageIndex":13,"items":[{"name":"바디투마인드스튜디오","tel":"","addr":"경기도 고양시 일산동구 장항동 752번지","indutype":"레저업소 - 헬스클럽","category":"leisure"},{"name":"핑크필라","tel":"070-7872-4298","addr":"경기도 고양시 일산동구 장항동 752번지","indutype":"레저업소 - 헬스클럽","category":"leisure"}]},{"lat":"37.663687343","long":"126.76560216","imageIndex":13,"items":[{"name":"발리 노래연습장","tel":"031-918-7948","addr":"경기도 고양시 일산동구 장항동 740-3번지","indutype":"레저업소 - 노 래 방","category":"leisure"},{"name":"채플린 노래연습장","tel":"","addr":"경기도 고양시 일산동구 장항동 740-3번지","indutype":"레저업소 - 노 래 방","category":"leisure"},{"name":"퍼플펍","tel":"","addr":"경기도 고양시 일산동구 장항동 740-3번지","indutype":"레저업소 - 기타레져업소","category":"leisure"}]},{"lat":"37.657521183","long":"126.77290866","imageIndex":13,"items":[{"name":"벤츠노래연습장","tel":"031-907-8868","addr":"경기도 고양시 일산동구 장항동 856번지","indutype":"레저업소 - 노 래 방","category":"leisure"},{"name":"엠바디핏(M Body Fit)","tel":"","addr":"경기도 고양시 일산동구 장항동 856번지","indutype":"레저업소 - 헬스클럽","category":"leisure"},{"name":"헤라노래연습장","tel":"031-908-8688","addr":"경기도 고양시 일산동구 장항동 856번지","indutype":"레저업소 - 노 래 방","category":"leisure"}]},{"lat":"37.657689329","long":"126.77135557","imageIndex":13,"items":[{"name":"샵노래연습장","tel":"031-902-6817","addr":"경기도 고양시 일산동구 장항동 858번지","indutype":"레저업소 - 노 래 방","category":"leisure"},{"name":"캡틴코믹","tel":"031-902-4406","addr":"경기도 고양시 일산동구 장항동 858번지","indutype":"레저업소 - 기타레져업소","category":"leisure"}]},{"lat":"37.661938001","long":"126.76938171","imageIndex":13,"items":[{"name":"세븐 노래연습장","tel":"031-903-0222","addr":"경기도 고양시 일산동구 장항동 776-1번지","indutype":"레저업소 - 노 래 방","category":"leisure"},{"name":"지존당구장","tel":"","addr":"경기도 고양시 일산동구 장항동 776-1번지","indutype":"레저업소 - 당 구 장","category":"leisure"}]},{"lat":"37.662383565","long":"126.76690965","imageIndex":13,"items":[{"name":"셜록홈즈 일산점","tel":"031-915-2077","addr":"경기도 고양시 일산동구 장항동 741-3번지","indutype":"레저업소 - 기타레져업소","category":"leisure"},{"name":"수노래연습장","tel":"031-921-1014","addr":"경기도 고양시 일산동구 장항동 741-3번지","indutype":"레저업소 - 노 래 방","category":"leisure"}]},{"lat":"37.661025917","long":"126.76831925","imageIndex":13,"items":[{"name":"수(SOO)","tel":"031-901-6256","addr":"경기도 고양시 일산동구 장항동 765번지","indutype":"레저업소 - 헬스클럽","category":"leisure"},{"name":"클래식 필라테스 205","tel":"","addr":"경기도 고양시 일산동구 장항동 765번지","indutype":"레저업소 - 헬스클럽","category":"leisure"}]},{"lat":"37.658269842","long":"126.77334833","imageIndex":13,"items":[{"name":"쉐르 필라테스","tel":"031-901-9019","addr":"경기도 고양시 일산동구 장항동 846번지","indutype":"레저업소 - 헬스클럽","category":"leisure"},{"name":"용구의 바디 스토리","tel":"031-902-9590","addr":"경기도 고양시 일산동구 장항동 846번지","indutype":"레저업소 - 헬스클럽","category":"leisure"},{"name":"유니몬","tel":"","addr":"경기도 고양시 일산동구 장항동 846번지","indutype":"레저업소 - 헬스클럽","category":"leisure"},{"name":"주식회사 썸","tel":"031-1600-3274","addr":"경기도 고양시 일산동구 장항동 846번지","indutype":"레저업소 - 기타레져업소","category":"leisure"}]},{"lat":"37.657077364","long":"126.77170878","imageIndex":13,"items":[{"name":"스위치","tel":"031-908-8006","addr":"경기도 고양시 일산동구 장항동 859번지","indutype":"레저업소 - 기타레져업소","category":"leisure"},{"name":"콜노래연습장","tel":"031-906-2408","addr":"경기도 고양시 일산동구 장항동 859번지","indutype":"레저업소 - 노 래 방","category":"leisure"}]},{"lat":"37.66162669","long":"126.76687804","imageIndex":13,"items":[{"name":"스카이골프연습장","tel":"031-908-8207","addr":"경기도 고양시 일산동구 장항동 760번지","indutype":"레저업소 - 골프연습장","category":"leisure"},{"name":"윤채림요가&페이스바디교정","tel":"031-905-4477","addr":"경기도 고양시 일산동구 장항동 760번지","indutype":"레저업소 - 헬스클럽","category":"leisure"},{"name":"쿨노래연습장","tel":"031-902-8768","addr":"경기도 고양시 일산동구 장항동 760번지","indutype":"레저업소 - 노 래 방","category":"leisure"}]},{"lat":"37.651186529","long":"126.77713224","imageIndex":13,"items":[{"name":"스카이당구장","tel":"031-905-8726","addr":"경기도 고양시 일산동구 장항동 895-1번지","indutype":"레저업소 - 당 구 장","category":"leisure"}]},{"lat":"37.663796734","long":"126.76623649","imageIndex":13,"items":[{"name":"스트라이크존 라페스타점","tel":"031-918-1011","addr":"경기도 고양시 일산동구 장항동 736-4번지","indutype":"레저업소 - 기타레져업소","category":"leisure"},{"name":"퍼펙트노래연습장","tel":"031-913-9922","addr":"경기도 고양시 일산동구 장항동 736-4번지","indutype":"레저업소 - 노 래 방","category":"leisure"}]},{"lat":"37.657410342","long":"126.77151509","imageIndex":13,"items":[{"name":"스트라이크팡 웨돔점","tel":"031-907-8941","addr":"경기도 고양시 일산동구 장항동 858-1번지","indutype":"레저업소 - 기타레져업소","category":"leisure"},{"name":"철구피시(PC)방 일산웨스턴돔점","tel":"","addr":"경기도 고양시 일산동구 장항동 858-1번지","indutype":"레저업소 - 기타레져업소","category":"leisure"}]},{"lat":"37.644851675","long":"126.76290873","imageIndex":13,"items":[{"name":"스포츠당구장","tel":"031-901-1308","addr":"경기도 고양시 일산동구 장항동 540-9번지","indutype":"레저업소 - 당 구 장","category":"leisure"}]},{"lat":"37.662876525","long":"126.76562741","imageIndex":13,"items":[{"name":"아름다움","tel":"070-8621-1124","addr":"경기도 고양시 일산동구 장항동 744번지","indutype":"레저업소 - 헬스클럽","category":"leisure"},{"name":"엘필라테스","tel":"","addr":"경기도 고양시 일산동구 장항동 744번지","indutype":"레저업소 - 헬스클럽","category":"leisure"}]},{"lat":"37.663299132","long":"126.76520672","imageIndex":13,"items":[{"name":"에스에이치 매니지먼트","tel":"","addr":"경기도 고양시 일산동구 장항동 745번지","indutype":"레저업소 - 헬스클럽","category":"leisure"}]},{"lat":"37.662773758","long":"126.76381439","imageIndex":13,"items":[{"name":"에일린 필라테스 (EILEEN PILATES)","tel":"031-000-0000","addr":"경기도 고양시 일산동구 장항동 749번지","indutype":"레저업소 - 헬스클럽","category":"leisure"}]},{"lat":"37.652023513","long":"126.77665377","imageIndex":13,"items":[{"name":"위너스 노래연습장","tel":"031-903-5550","addr":"경기도 고양시 일산동구 장항동 893-1번지","indutype":"레저업소 - 노 래 방","category":"leisure"}]},{"lat":"37.659628322","long":"126.76776834","imageIndex":13,"items":[{"name":"위너스당구클럽","tel":"031-901-4939","addr":"경기도 고양시 일산동구 장항동","indutype":"레저업소 - 당 구 장","category":"leisure"},{"name":"주식회사 씨앤에스글로벌","tel":"","addr":"경기도 고양시 일산동구 장항동 756-2번지","indutype":"레저업소 - 기타레져업소","category":"leisure"}]},{"lat":"37.664383879","long":"126.76699398","imageIndex":13,"items":[{"name":"이글골프연습장","tel":"031-914-9087","addr":"경기도 고양시 일산동구 장항동 731-1번지","indutype":"레저업소 - 골프연습장","category":"leisure"}]},{"lat":"37.655487257","long":"126.77407083","imageIndex":13,"items":[{"name":"자연치유","tel":"031-901-2686","addr":"경기도 고양시 일산동구 장항동 853번지","indutype":"레저업소 - 헬스클럽","category":"leisure"}]},{"lat":"37.636387186","long":"126.77901239","imageIndex":13,"items":[{"name":"장항 25시 야구센터","tel":"","addr":"경기도 고양시 일산동구 장항동 616-4번지","indutype":"레저업소 - 기타레져업소","category":"leisure"}]},{"lat":"37.642466162","long":"126.76841161","imageIndex":13,"items":[{"name":"장항ic골프존","tel":"031-904-0753","addr":"경기도 고양시 일산동구 장항동 566-3번지","indutype":"레저업소 - 스크린골프","category":"leisure"}]},{"lat":"37.660494578","long":"126.75520856","imageIndex":13,"items":[{"name":"주식회사 비욘드피시엘","tel":"032-918-2235","addr":"경기도 고양시 일산동구 장항동 1791번지","indutype":"레저업소 - 기타레져업소","category":"leisure"}]},{"lat":"37.662106552","long":"126.76805519","imageIndex":13,"items":[{"name":"주식회사 빠삐용락볼링","tel":"031-902-8500","addr":"경기도 고양시 일산동구 장항동 763번지","indutype":"레저업소 - 볼 링 장","category":"leisure"}]},{"lat":"37.661213019","long":"126.76726468","imageIndex":13,"items":[{"name":"준 노래연습장","tel":"031-917-3535","addr":"경기도 고양시 일산동구 장항동 759번지","indutype":"레저업소 - 노 래 방","category":"leisure"},{"name":"준1노래연습장","tel":"03-901-3049","addr":"경기도 고양시 일산동구 장항동 759번지","indutype":"레저업소 - 노 래 방","category":"leisure"},{"name":"카리스 당구클럽","tel":"031-903-4433","addr":"경기도 고양시 일산동구 장항동 759번지","indutype":"레저업소 - 당 구 장","category":"leisure"}]},{"lat":"37.660017066","long":"126.76843576","imageIndex":13,"items":[{"name":"채플린노래연습장","tel":"070-4900-5343","addr":"경기도 고양시 일산동구 장항동 756번지","indutype":"레저업소 - 노 래 방","category":"leisure"}]},{"lat":"37.652491383","long":"126.77632373","imageIndex":13,"items":[{"name":"천마스포츠","tel":"031-907-8835","addr":"경기도 고양시 일산동구 장항동 892번지","indutype":"레저업소 - 기타레져업소","category":"leisure"}]},{"lat":"37.657020634","long":"126.77034905","imageIndex":13,"items":[{"name":"청노래연습장","tel":"031-904-2018","addr":"경기도 고양시 일산동구 장항동","indutype":"레저업소 - 노 래 방","category":"leisure"}]},{"lat":"37.659131912","long":"126.76732792","imageIndex":13,"items":[{"name":"청원노래연습장","tel":"031-906-9677","addr":"경기도 고양시 일산동구 장항동 753번지","indutype":"레저업소 - 노 래 방","category":"leisure"}]},{"lat":"37.664181867","long":"126.7651019","imageIndex":13,"items":[{"name":"체리노래연습장","tel":"031-911-6570","addr":"경기도 고양시 일산동구 장항동 740번지","indutype":"레저업소 - 노 래 방","category":"leisure"},{"name":"체리노래연습장","tel":"031-111-1111","addr":"경기도 고양시 일산동구 장항동 740번지","indutype":"레저업소 - 노 래 방","category":"leisure"}]},{"lat":"37.642939329","long":"126.76623469","imageIndex":13,"items":[{"name":"최신노래연습장","tel":"031-906-2117","addr":"경기도 고양시 일산동구 장항동 547-13번지","indutype":"레저업소 - 노 래 방","category":"leisure"}]},{"lat":"37.66430027","long":"126.76573621","imageIndex":13,"items":[{"name":"카플 노래연습장","tel":"031-918-1515","addr":"경기도 고양시 일산동구 장항동 736-1번지","indutype":"레저업소 - 노 래 방","category":"leisure"}]},{"lat":"37.657684922","long":"126.77371277","imageIndex":13,"items":[{"name":"코마이스케이프","tel":"070-8818-7577","addr":"경기도 고양시 일산동구 장항동 847번지","indutype":"레저업소 - 기타레져업소","category":"leisure"},{"name":"티파니노래연습장","tel":"031-907-2374","addr":"경기도 고양시 일산동구 장항동 847번지","indutype":"레저업소 - 노 래 방","category":"leisure"}]},{"lat":"37.652690443","long":"126.77676507","imageIndex":13,"items":[{"name":"파리스짐","tel":"031-901-4312","addr":"경기도 고양시 일산동구 장항동 890-6번지","indutype":"레저업소 - 헬스클럽","category":"leisure"}]},{"lat":"37.656660696","long":"126.77057682","imageIndex":13,"items":[{"name":"풀잎노래연습장","tel":"031-901-6695","addr":"경기도 고양시 일산동구 장항동 863번지","indutype":"레저업소 - 노 래 방","category":"leisure"}]},{"lat":"37.655768004","long":"126.7748179","imageIndex":13,"items":[{"name":"필라테스온","tel":"","addr":"경기도 고양시 일산동구 장항동 849번지","indutype":"레저업소 - 헬스클럽","category":"leisure"}]},{"lat":"37.66226816","long":"126.76777135","imageIndex":13,"items":[{"name":"할리갈리 인 더 룸","tel":"031-904-9242","addr":"경기도 고양시 일산동구 장항동 763번지","indutype":"레저업소 - 기타레져업소","category":"leisure"}]},{"lat":"37.661324225","long":"126.76881698","imageIndex":13,"items":[{"name":"할리갈리보드카페","tel":"031-920-9242","addr":"경기도 고양시 일산동구 장항동","indutype":"레저업소 - 기타레져업소","category":"leisure"}]},{"lat":"37.659716427","long":"126.76677076","imageIndex":13,"items":[{"name":"호수노래연습장","tel":"031-906-8668","addr":"경기도 고양시 일산동구 장항동 752-1번지","indutype":"레저업소 - 노 래 방","category":"leisure"}]}]