[{"lat":"37.831557875","long":"127.06773166","imageIndex":17,"items":[{"name":"(아동도서)가이드북","tel":"031-857-5389","addr":"경기도 양주시 고암동 128-1번지","indutype":"서적문구 - 전문서적","category":"other"}]},{"lat":"37.818976735","long":"127.07459181","imageIndex":17,"items":[{"name":"(주)고려인더스트리","tel":"031-858-3311","addr":"경기도 양주시 고암동 363-4,5","indutype":"직물 - 침구·수예점","category":"other"}]},{"lat":"37.815509362","long":"127.07248746","imageIndex":17,"items":[{"name":"(주)인텍","tel":"031-866-9424","addr":"경기도 양주시 고암동 459번지","indutype":"용역 서비스 - 종합용역","category":"other"}]},{"lat":"37.817195154","long":"127.0707287","imageIndex":17,"items":[{"name":"C.D.C","tel":"031-859-4264","addr":"경기도 양주시 고암동 451-5번지","indutype":"의류 - 내의판매","category":"other"},{"name":"케이앤에이치(K&H)무역","tel":"031-846-8878","addr":"경기도 양주시 고암동 451-5번지 1층","indutype":"의류 - 기타의류","category":"other"}]},{"lat":"37.831557612","long":"127.06820875","imageIndex":17,"items":[{"name":"GS25고암두언점","tel":"","addr":"경기도 양주시 고암동 128-3번지 두언비젼센터 101~105호","indutype":"유통업 영리 - 편 의 점","category":"other"}]},{"lat":"37.830639083","long":"127.06742416","imageIndex":17,"items":[{"name":"GS25양주고암점","tel":"","addr":"경기도 양주시 고암동 157번지 1층","indutype":"유통업 영리 - 편 의 점","category":"other"}]},{"lat":"37.834475203","long":"127.07078996","imageIndex":17,"items":[{"name":"GS25양주동안점","tel":"","addr":"경기도 양주시 고암동 122-4번지 동안마을주공3단지아파트 상가동 107호","indutype":"유통업 영리 - 편 의 점","category":"other"},{"name":"가랑","tel":"031-859-8288","addr":"경기도 양주시 고암동 122-4번지 동안마을 상가 106호","indutype":"건축자재 - 인테리어전문","category":"other"}]},{"lat":"37.836230346","long":"127.07366563","imageIndex":17,"items":[{"name":"GS25양주조은점","tel":"02-2006-2485","addr":"경기도 양주시 고암동 580번지 조은마을제나상가동102호~103호 제나상가-102","indutype":"유통업 영리 - 편 의 점","category":"other"}]},{"lat":"37.809590384","long":"127.0720958","imageIndex":17,"items":[{"name":"OK 365 (경동대점)","tel":"031-821-1035","addr":"경기도 양주시 고암동 417-52번지 2동 101호","indutype":"유통업 영리 - 편 의 점","category":"other"}]},{"lat":"37.836061146","long":"127.07029158","imageIndex":17,"items":[{"name":"Socks4 (삭스포)","tel":"031-4221-3849","addr":"경기도 양주시 고암동 121-2번지 주원마을","indutype":"의류 - 기타의류","category":"other"}]},{"lat":"37.821727186","long":"127.07023311","imageIndex":17,"items":[{"name":"YS통상","tel":"031-8082-4009","addr":"경기도 양주시 고암동 342-1번지","indutype":"주방용구 - 주방용구","category":"other"}]},{"lat":"37.832085454","long":"127.07459313","imageIndex":17,"items":[{"name":"가전몰","tel":"031-858-9114","addr":"경기도 양주시 고암동 586-3번지","indutype":"전기제품 - 가전제품","category":"other"}]},{"lat":"37.825836693","long":"127.06809012","imageIndex":17,"items":[{"name":"경기창호금속","tel":"031-848-6354","addr":"경기도 양주시 고암동 541-8번지","indutype":"용역 서비스 - 기타용역서비스","category":"other"}]},{"lat":"37.832193753","long":"127.07428654","imageIndex":17,"items":[{"name":"김윤미 피부샵","tel":"031-863-0488","addr":"경기도 양주시 고암동 587번지","indutype":"회원제형태 - 기타4","category":"other"}]},{"lat":"37.838754822","long":"127.0705326","imageIndex":17,"items":[{"name":"꾸미오리선교센타","tel":"031-827-0691","addr":"경기도 양주시 고암동 182-3번지","indutype":"기타 - 비영리/대상","category":"other"}]},{"lat":"37.831557994","long":"127.06751583","imageIndex":17,"items":[{"name":"다광고","tel":"031-861-9942","addr":"경기도 양주시 고암동 128번지 성광프라자 105호","indutype":"용역 서비스 - 종합용역","category":"other"},{"name":"임마누엘 장식","tel":"031-862-3278","addr":"경기도 양주시 고암동 128번지 성광프라자 1층 101호","indutype":"직물 - 카페트,커튼,천막,지물","category":"other"}]},{"lat":"37.820591422","long":"127.07123154","imageIndex":17,"items":[{"name":"다빛테크","tel":"031-840-7781","addr":"경기도 양주시 고암동 351-10번지","indutype":"건축자재 - 조명기구","category":"other"}]},{"lat":"37.8178915","long":"127.06601614","imageIndex":17,"items":[{"name":"더불어재활용","tel":"031-825-4989","addr":"경기도 양주시 고암동 493-75번지","indutype":"신변잡화 - 기타잡화","category":"other"}]},{"lat":"37.817645013","long":"127.07178532","imageIndex":17,"items":[{"name":"더좋은날","tel":"031-844-1113","addr":"경기도 양주시 고암동 468-25번지","indutype":"서적문구 - 출판 및 인쇄물","category":"other"}]},{"lat":"37.826972503","long":"127.06695527","imageIndex":17,"items":[{"name":"동서철물공구","tel":"031-859-4294","addr":"경기도 양주시 고암동 543번지","indutype":"건축자재 - 목재·석재·철물","category":"other"}]},{"lat":"37.83155688","long":"127.06951505","imageIndex":17,"items":[{"name":"드림디포","tel":"031-863-4652","addr":"경기도 양주시 고암동 129-2번지","indutype":"서적문구 - 문구용품","category":"other"},{"name":"행복애견방","tel":"031-859-3175","addr":"경기도 양주시 고암동 129-2번지 한성빌딩 104호","indutype":"문화.취미 - 애완동물","category":"other"}]},{"lat":"37.831557021","long":"127.06926515","imageIndex":17,"items":[{"name":"로얄동물병원","tel":"031-857-7570","addr":"경기도 양주시 고암동 129-1번지 재성빌딩 103호","indutype":"문화.취미 - 애완동물","category":"other"},{"name":"자전거탄풍경","tel":"070-8682-2632","addr":"경기도 양주시 고암동 129-1번지 재성빌딩 102호","indutype":"레져용품 - 스포츠·레져용품","category":"other"},{"name":"장원교육","tel":"031-858-0979","addr":"경기도 양주시 고암동 129-1번지 201호","indutype":"회원제형태 - 서적","category":"other"}]},{"lat":"37.818647679","long":"127.0671525","imageIndex":17,"items":[{"name":"링크","tel":"031-863-1922","addr":"경기도 양주시 고암동 486-2번지","indutype":"의류 - 정장","category":"other"},{"name":"양주자동차극장","tel":"031-866-5080","addr":"경기도 양주시 고암동 486-2","indutype":"문화.취미 - 티켓","category":"other"}]},{"lat":"37.826143919","long":"127.06643207","imageIndex":17,"items":[{"name":"멋내기 대박","tel":"031-857-8182","addr":"경기도 양주시 고암동 538-2번지 102호","indutype":"의류 - 정장","category":"other"}]},{"lat":"37.80975195","long":"127.07311798","imageIndex":17,"items":[{"name":"비전","tel":"070-7763-6343","addr":"경기도 양주시 고암동 416-2,3,4","indutype":"전기제품 - 가전제품","category":"other"}]},{"lat":"37.832257134","long":"127.07376407","imageIndex":17,"items":[{"name":"빠빠독","tel":"031-861-3233","addr":"경기도 양주시 고암동 585-4번지","indutype":"문화.취미 - 애완동물","category":"other"}]},{"lat":"37.836223992","long":"127.06909893","imageIndex":17,"items":[{"name":"세븐일레븐양주덕정주공점","tel":"031-1577-0711","addr":"경기도 양주시 고암동 121-5번지","indutype":"유통업 영리 - 편 의 점","category":"other"},{"name":"한솔세탁","tel":"031-857-7627","addr":"경기도 양주시 고암동 121-5번지 주원마을 상가 203호","indutype":"수리서비스 - 세탁소","category":"other"}]},{"lat":"37.82114154","long":"127.07028937","imageIndex":17,"items":[{"name":"수인유통","tel":"031-860-4802","addr":"경기도 양주시 고암동 342-11번지 1동","indutype":"의류 - 정장","category":"other"}]},{"lat":"37.836809437","long":"127.06939482","imageIndex":17,"items":[{"name":"숲","tel":"","addr":"경기도 양주시 고암동 121-2번지 주원마을 201동 1704호","indutype":"건축자재 - 인테리어전문","category":"other"}]},{"lat":"37.825035235","long":"127.06739656","imageIndex":17,"items":[{"name":"스포피아","tel":"031-848-3324","addr":"경기도 양주시 고암동 527-1번지","indutype":"회원제형태 - 기타4","category":"other"}]},{"lat":"37.82814097","long":"127.07184051","imageIndex":17,"items":[{"name":"신영합성공업사","tel":"031-858-7248","addr":"경기도 양주시 고암동 294-4번지","indutype":"기타 - 기타 전문점","category":"other"}]},{"lat":"37.830891755","long":"127.06667468","imageIndex":17,"items":[{"name":"씨유양주고암행복점","tel":"031-862-4109","addr":"경기도 양주시 고암동 134-6번지","indutype":"유통업 영리 - 편 의 점","category":"other"}]},{"lat":"37.831557181","long":"127.06898117","imageIndex":17,"items":[{"name":"씨유양주회천점","tel":"031-861-7761","addr":"경기도 양주시 고암동 129번지 동아프라자 101,102호","indutype":"유통업 영리 - 편 의 점","category":"other"},{"name":"양주스포츠","tel":"031-859-8404","addr":"경기도 양주시 고암동 129번지 동아프라자 103호","indutype":"레져용품 - 스포츠·레져용품","category":"other"}]},{"lat":"37.834616472","long":"127.07561795","imageIndex":17,"items":[{"name":"씨유주영고암점","tel":"031-866-2046","addr":"경기도 양주시 고암동 582번지 중흥에스클래스상가108호~109호 108호","indutype":"유통업 영리 - 편 의 점","category":"other"},{"name":"인홈인테리어","tel":"031-859-4237","addr":"경기도 양주시 고암동 582번지 덕정중흥에스클래스 상가동 101호","indutype":"건축자재 - 인테리어전문","category":"other"}]},{"lat":"37.83152938","long":"127.07034425","imageIndex":17,"items":[{"name":"양주공구.전기철물","tel":"031-858-1176","addr":"경기도 양주시 고암동 130-2번지","indutype":"건축자재 - 목재·석재·철물","category":"other"}]},{"lat":"37.831529522","long":"127.07009435","imageIndex":17,"items":[{"name":"양주문구도소매쎈타","tel":"031-863-6610","addr":"경기도 양주시 고암동 130번지","indutype":"서적문구 - 문구용품","category":"other"}]},{"lat":"37.825944862","long":"127.06798799","imageIndex":17,"items":[{"name":"양주전단","tel":"031-111-1111","addr":"경기도 양주시 고암동 541-7번지","indutype":"용역 서비스 - 종합용역","category":"other"}]},{"lat":"37.826638987","long":"127.06726166","imageIndex":17,"items":[{"name":"양주종합광고기획","tel":"031-858-9595","addr":"경기도 양주시 고암동 541-2번지","indutype":"용역 서비스 - 종합용역","category":"other"}]},{"lat":"37.809842173","long":"127.07290231","imageIndex":17,"items":[{"name":"엘프라자 (EL Plaza)","tel":"070-4100-5668","addr":"경기도 양주시 고암동 416-3번지","indutype":"가구 - 일반가구","category":"other"}]},{"lat":"37.830225492","long":"127.06586762","imageIndex":17,"items":[{"name":"예능(인)","tel":"031-821-2017","addr":"경기도 양주시 고암동 185-1번지 103호","indutype":"건축자재 - 인테리어전문","category":"other"}]},{"lat":"37.831558193","long":"127.06715234","imageIndex":17,"items":[{"name":"오드리","tel":"","addr":"경기도 양주시 고암동 126-7번지 1층","indutype":"의류 - 정장","category":"other"}]},{"lat":"37.831306188","long":"127.06667504","imageIndex":17,"items":[{"name":"요나스 Flower shop","tel":"","addr":"경기도 양주시 고암동 134번지 301호","indutype":"문화.취미 - 화원","category":"other"}]},{"lat":"37.826089094","long":"127.06784046","imageIndex":17,"items":[{"name":"은곡도마","tel":"031-858-6019","addr":"경기도 양주시 고암동 541-6번지 가동 1층","indutype":"가구 - 일반가구","category":"other"}]},{"lat":"37.826170831","long":"127.0666479","imageIndex":17,"items":[{"name":"이마트24 고암지혜점","tel":"031-111-1111","addr":"경기도 양주시 고암동 528-1번지","indutype":"유통업 영리 - 편 의 점","category":"other"}]},{"lat":"37.825972364","long":"127.06712478","imageIndex":17,"items":[{"name":"이성중고가전마트","tel":"031-859-0036","addr":"경기도 양주시 고암동 540-1번지 가동","indutype":"전기제품 - 가전제품","category":"other"}]},{"lat":"37.819195052","long":"127.07107125","imageIndex":17,"items":[{"name":"자연맞춤가구","tel":"031-847-4007","addr":"경기도 양주시 고암동 348-14번지","indutype":"주방용구 - 주방용구","category":"other"}]},{"lat":"37.830646852","long":"127.06965055","imageIndex":17,"items":[{"name":"자연지향","tel":"032-123-1234","addr":"경기도 양주시 고암동 166-4번지 101호","indutype":"가구 - 일반가구","category":"other"}]},{"lat":"37.832311075","long":"127.07395723","imageIndex":17,"items":[{"name":"짱PC","tel":"031-858-0405","addr":"경기도 양주시 고암동 585-3번지 104호","indutype":"수리서비스 - 사무·통신기기수리","category":"other"}]},{"lat":"37.831169494","long":"127.06948063","imageIndex":17,"items":[{"name":"천운장묘컨설팅","tel":"031-859-3990","addr":"경기도 양주시 고암동 146-3번지 102호","indutype":"용역 서비스 - 가례서비스업","category":"other"}]},{"lat":"37.837403975","long":"127.06954303","imageIndex":17,"items":[{"name":"쿨워터피아","tel":"031-866-3316","addr":"경기도 양주시 고암동 121-2 주원마을 202-101 4/3","indutype":"주방용구 - 정수기","category":"other"}]},{"lat":"37.834833614","long":"127.07411869","imageIndex":17,"items":[{"name":"크린토피아덕정신시가지점","tel":"031-878-2259","addr":"경기도 양주시 고암동 580-8번지 골드프라자 105호 (고암동 580-8,9,10 )","indutype":"수리서비스 - 세탁소","category":"other"}]},{"lat":"37.840393415","long":"127.07245403","imageIndex":17,"items":[{"name":"하나로스포츠","tel":"031-859-0086","addr":"경기도 양주시 고암동 산13-1","indutype":"레져용품 - 스포츠·레져용품","category":"other"}]},{"lat":"37.831529092","long":"127.07084406","imageIndex":17,"items":[{"name":"하트이불","tel":"","addr":"경기도 양주시 고암동 130-6번지 1층","indutype":"직물 - 침구·수예점","category":"other"}]}]