[{"lat":"37.162719979","long":"126.97559172","imageIndex":4,"items":[{"name":"그루","tel":"031-352-4848","addr":"경기도 화성시 정남면 신리 143-7번지","indutype":"일반휴게음식 - 서양음식","category":"restaurant"},{"name":"용궁옛날짜장","tel":"031-352-7789","addr":"경기도 화성시 정남면 신리 143-7번지 1층","indutype":"일반휴게음식 - 중국식","category":"restaurant"}]},{"lat":"37.158918858","long":"126.98193123","imageIndex":4,"items":[{"name":"금오식당","tel":"031-354-7471","addr":"경기도 화성시 정남면 신리 197-3번지","indutype":"일반휴게음식 - 일반한식","category":"restaurant"},{"name":"돈천년","tel":"031-354-9240","addr":"경기도 화성시 정남면 신리 197-3번지","indutype":"일반휴게음식 - 일반한식","category":"restaurant"},{"name":"우경소곱창구이","tel":"031-352-0727","addr":"경기도 화성시 정남면 신리 197-3번지 1층","indutype":"일반휴게음식 - 일반한식","category":"restaurant"}]},{"lat":"37.161638288","long":"126.97375702","imageIndex":4,"items":[{"name":"끼니끼니한식부페","tel":"031-353-4293","addr":"경기도 화성시 정남면 신리 259-9번지","indutype":"일반휴게음식 - 일반한식","category":"restaurant"}]},{"lat":"37.16266621","long":"126.97689771","imageIndex":4,"items":[{"name":"다나한부페","tel":"031-353-2606","addr":"경기도 화성시 정남면 신리 160-2번지","indutype":"일반휴게음식 - 일반한식","category":"restaurant"}]},{"lat":"37.161665063","long":"126.97273252","imageIndex":4,"items":[{"name":"더행복한밥상한식뷔페","tel":"031-353-1158","addr":"경기도 화성시 정남면 신리 149-10번지","indutype":"일반휴게음식 - 일반한식","category":"restaurant"}]},{"lat":"37.163892107","long":"126.97917151","imageIndex":4,"items":[{"name":"도화루","tel":"031-359-9551","addr":"경기도 화성시 정남면 신리 139번지","indutype":"일반휴게음식 - 중국식","category":"restaurant"},{"name":"신성가든","tel":"031-354-9978","addr":"경기도 화성시 정남면 신리 139번지","indutype":"일반휴게음식 - 일반한식","category":"restaurant"}]},{"lat":"37.160718844","long":"126.97226005","imageIndex":4,"items":[{"name":"돈가네옛날돼지김치찌개","tel":"031-354-4985","addr":"경기도 화성시 정남면 신리 260번지","indutype":"일반휴게음식 - 일반한식","category":"restaurant"},{"name":"시리폰(SIRIPHORN)","tel":"031-352-9890","addr":"경기도 화성시 정남면 신리 260번지 (지하층b-1)","indutype":"일반휴게음식 - 일반한식","category":"restaurant"},{"name":"신의주찹쌀순대","tel":"031-352-1233","addr":"경기도 화성시 정남면 신리 260번지 108호","indutype":"일반휴게음식 - 일반한식","category":"restaurant"}]},{"lat":"37.162802511","long":"126.98278579","imageIndex":4,"items":[{"name":"돌아온돼지","tel":"031-297-3401","addr":"경기도 화성시 정남면 신리 111-4번지 101동일부","indutype":"일반휴게음식 - 일반한식","category":"restaurant"},{"name":"본가왕뼈감자탕","tel":"031-354-7830","addr":"경기도 화성시 정남면 신리 111-4번지 101동 1층","indutype":"일반휴게음식 - 일반한식","category":"restaurant"}]},{"lat":"37.166892664","long":"126.97956464","imageIndex":4,"items":[{"name":"따봉식당","tel":"031-352-3385","addr":"경기도 화성시 정남면 신리 48-3번지 양지타운파크빌 102호","indutype":"일반휴게음식 - 일반한식","category":"restaurant"}]},{"lat":"37.167307891","long":"126.98373036","imageIndex":4,"items":[{"name":"뚱이소주방","tel":"031-8059-6889","addr":"경기도 화성시 정남면 신리 29-4번지 101호","indutype":"일반휴게음식 - 일반한식","category":"restaurant"},{"name":"불로불러참숯바베큐치킨","tel":"031-353-5408","addr":"경기도 화성시 정남면 신리 29-4번지","indutype":"일반휴게음식 - 일반한식","category":"restaurant"}]},{"lat":"37.16374865","long":"126.98303323","imageIndex":4,"items":[{"name":"레드호프","tel":"031-353-1510","addr":"경기도 화성시 정남면 신리 108-5번지 지하1층","indutype":"일반휴게음식 - 주점","category":"restaurant"}]},{"lat":"37.163829418","long":"126.98117555","imageIndex":4,"items":[{"name":"마루한식부페","tel":"031-354-2849","addr":"경기도 화성시 정남면 신리 119-2번지","indutype":"일반휴게음식 - 일반한식","category":"restaurant"},{"name":"산골전통남원추어탕","tel":"031-353-8965","addr":"경기도 화성시 정남면 신리 119-2번지 나동 1층","indutype":"일반휴게음식 - 일반한식","category":"restaurant"}]},{"lat":"37.161333614","long":"126.98167162","imageIndex":4,"items":[{"name":"명품셀프식당","tel":"031-663-0447","addr":"경기도 화성시 정남면 신리 114-4번지 나동 1층","indutype":"일반휴게음식 - 일반한식","category":"restaurant"}]},{"lat":"37.166694489","long":"126.97984617","imageIndex":4,"items":[{"name":"목우촌또래오래정남점","tel":"031-354-8247","addr":"경기도 화성시 정남면 신리 48-6번지","indutype":"일반휴게음식 - 스넥","category":"restaurant"}]},{"lat":"37.167280075","long":"126.97937312","imageIndex":4,"items":[{"name":"무한리필뷔페","tel":"031-366-3625","addr":"경기도 화성시 정남면 신리 51-13번지 (2동 1층 전체)","indutype":"일반휴게음식 - 일반한식","category":"restaurant"}]},{"lat":"37.161448407","long":"126.97117897","imageIndex":4,"items":[{"name":"소나무가든","tel":"031-354-5455","addr":"경기도 화성시 정남면 신리 304-24","indutype":"일반휴게음식 - 일반한식","category":"restaurant"},{"name":"장원식당","tel":"031-354-5455","addr":"경기도 화성시 정남면 신리 304-24번지 외1필지","indutype":"일반휴게음식 - 일반한식","category":"restaurant"}]},{"lat":"37.159225214","long":"126.98193114","imageIndex":4,"items":[{"name":"알라스카참치","tel":"031-366-1881","addr":"경기도 화성시 정남면 신리 197-2번지 덕진 상가 102호","indutype":"일반휴게음식 - 일식·회집","category":"restaurant"}]},{"lat":"37.163415292","long":"126.98320219","imageIndex":4,"items":[{"name":"양평해장국 정남점","tel":"031-366-3230","addr":"경기도 화성시 정남면 신리 111-5번지","indutype":"일반휴게음식 - 일반한식","category":"restaurant"}]},{"lat":"37.16130475","long":"126.97314921","imageIndex":4,"items":[{"name":"우정한식뷔페","tel":"031-354-6736","addr":"경기도 화성시 정남면 신리 259-5번지 B동","indutype":"일반휴게음식 - 일반한식","category":"restaurant"}]},{"lat":"37.162025684","long":"126.97354297","imageIndex":4,"items":[{"name":"울엄마김치찌개전문점","tel":"031-353-5786","addr":"경기도 화성시 정남면 신리 149-8번지","indutype":"일반휴게음식 - 일반한식","category":"restaurant"}]},{"lat":"37.158414158","long":"126.98128968","imageIndex":4,"items":[{"name":"은행나무집","tel":"031-366-2781","addr":"경기도 화성시 정남면 신리 211번지","indutype":"일반휴게음식 - 일반한식","category":"restaurant"}]},{"lat":"37.16336114","long":"126.98267306","imageIndex":4,"items":[{"name":"이화수 정남신리점","tel":"031-352-6030","addr":"경기도 화성시 정남면 신리 108-13번지 1층","indutype":"일반휴게음식 - 일반한식","category":"restaurant"}]},{"lat":"37.160081187","long":"126.98181833","imageIndex":4,"items":[{"name":"정남기똥찬족발","tel":"031-366-2230","addr":"경기도 화성시 정남면 신리 196-4번지 1층 전체","indutype":"일반휴게음식 - 일반한식","category":"restaurant"}]},{"lat":"37.162469063","long":"126.98242561","imageIndex":4,"items":[{"name":"정남이야기","tel":"031-353-4598","addr":"경기도 화성시 정남면 신리 111-23번지","indutype":"일반휴게음식 - 서양음식","category":"restaurant"}]},{"lat":"37.163973823","long":"126.98251527","imageIndex":4,"items":[{"name":"주식회사에이치티에스정남점","tel":"031-354-9330","addr":"경기도 화성시 정남면 신리 109번지 1층","indutype":"일반휴게음식 - 서양음식","category":"restaurant"},{"name":"화성옥 (정남점)","tel":"031-366-6141","addr":"경기도 화성시 정남면 신리 109번지 1층","indutype":"일반휴게음식 - 일반한식","category":"restaurant"}]},{"lat":"37.159693721","long":"126.98172837","imageIndex":4,"items":[{"name":"즐거운한식부페","tel":"031-353-0667","addr":"경기도 화성시 정남면 신리 196-5번지","indutype":"일반휴게음식 - 일반한식","category":"restaurant"}]},{"lat":"37.163559398","long":"126.98284188","imageIndex":4,"items":[{"name":"카페루체","tel":"070-0000-0000","addr":"경기도 화성시 정남면 신리 108-2번지 1층","indutype":"일반휴게음식 - 서양음식","category":"restaurant"}]},{"lat":"37.16372118","long":"126.98056762","imageIndex":4,"items":[{"name":"콩맛","tel":"031-366-4338","addr":"경기도 화성시 정남면 신리 136-11","indutype":"일반휴게음식 - 일반한식","category":"restaurant"}]},{"lat":"37.15755828","long":"126.9819316","imageIndex":4,"items":[{"name":"큰집설렁탕","tel":"031-352-9676","addr":"경기도 화성시 정남면 신리 200-1","indutype":"일반휴게음식 - 일반한식","category":"restaurant"}]},{"lat":"37.167416003","long":"126.98365152","imageIndex":4,"items":[{"name":"태광분식","tel":"031-352-2438","addr":"경기도 화성시 정남면 신리 29-3번지 2층","indutype":"일반휴게음식 - 스넥","category":"restaurant"}]},{"lat":"37.164081412","long":"126.97959928","imageIndex":4,"items":[{"name":"평안도찹쌀순대 화성점","tel":"031-352-3524","addr":"경기도 화성시 정남면 신리 138-3번지 1층","indutype":"일반휴게음식 - 일반한식","category":"restaurant"}]},{"lat":"37.163054842","long":"126.98301089","imageIndex":4,"items":[{"name":"피플","tel":"031-0000-0000","addr":"경기도 화성시 정남면 신리 111-27번지","indutype":"일반휴게음식 - 일반한식","category":"restaurant"}]},{"lat":"37.160892108","long":"126.98170552","imageIndex":4,"items":[{"name":"행복한밥상협동조합","tel":"031-204-3446","addr":"경기도 화성시 정남면 신리 190-15번지","indutype":"일반휴게음식 - 스넥","category":"restaurant"}]},{"lat":"37.160024806","long":"126.97137095","imageIndex":4,"items":[{"name":"화성시니어클럽 노노카페 정남면사무소점","tel":"031-8059-4349","addr":"경기도 화성시 정남면 신리 260-1번지 1층","indutype":"일반휴게음식 - 서양음식","category":"restaurant"}]}]