[{"lat":"36.96091002","long":"126.85449636","imageIndex":4,"items":[{"name":"가마솥 진곰탕 선지해장국","tel":"031-684-1288","addr":"경기도 평택시 포승읍 만호리 315-4번지","indutype":"일반휴게음식 - 일반한식","category":"restaurant"},{"name":"호호상사.커피뷰","tel":"031-681-7300","addr":"경기도 평택시 포승읍 만호리 315-4번지","indutype":"일반휴게음식 - 서양음식","category":"restaurant"}]},{"lat":"36.960191642","long":"126.85649642","imageIndex":4,"items":[{"name":"계림마을치킨천국(포승2호점)","tel":"031-682-4646","addr":"경기도 평택시 포승읍 만호리 314-4번지","indutype":"일반휴게음식 - 스넥","category":"restaurant"},{"name":"자매홍어찜","tel":"031-686-8885","addr":"경기도 평택시 포승읍 만호리 314-4번지","indutype":"일반휴게음식 - 일반한식","category":"restaurant"}]},{"lat":"36.960498145","long":"126.85660812","imageIndex":4,"items":[{"name":"계림마을치킨천국(포승2호점)","tel":"","addr":"경기도 평택시 포승읍 만호리 314-3번지 4동","indutype":"음식점 - 치킨","category":"restaurant"},{"name":"만땡포차","tel":"031-684-5722","addr":"경기도 평택시 포승읍 만호리 314-3번지 해오름 1동 102호","indutype":"일반휴게음식 - 일반한식","category":"restaurant"},{"name":"서해한식당","tel":"031-683-4818","addr":"경기도 평택시 포승읍 만호리 314-3번지 A동 101호","indutype":"일반휴게음식 - 일반한식","category":"restaurant"},{"name":"아리랑한식부페1호점","tel":"031-682-8878","addr":"경기도 평택시 포승읍 만호리 314-3번지 B동 101호","indutype":"일반휴게음식 - 일반한식","category":"restaurant"},{"name":"카페더브릿지(cafe the bridge)","tel":"","addr":"경기도 평택시 포승읍 만호리 314-3번지 해오름 B동 2층 201호","indutype":"일반휴게음식 - 서양음식","category":"restaurant"},{"name":"호가든","tel":"031-000-0000","addr":"경기도 평택시 포승읍 만호리 314-3번지 201호","indutype":"일반휴게음식 - 주점","category":"restaurant"}]},{"lat":"36.974466765","long":"126.84411547","imageIndex":4,"items":[{"name":"고잔골한방보쌈","tel":"031-684-5240","addr":"경기도 평택시 포승읍 만호리 577-4번지 B동 111호","indutype":"일반휴게음식 - 일반한식","category":"restaurant"},{"name":"하버스토리커피","tel":"031-684-4577","addr":"경기도 평택시 포승읍 만호리 577-4번지 A동 101호","indutype":"일반휴게음식 - 서양음식","category":"restaurant"}]},{"lat":"36.961467573","long":"126.85360821","imageIndex":4,"items":[{"name":"국수집","tel":"031-682-0855","addr":"경기도 평택시 포승읍 만호리 311-11번지","indutype":"음식점 - 한식","category":"restaurant"},{"name":"국수집","tel":"031-684-1102","addr":"경기도 평택시 포승읍 만호리 311-11번지","indutype":"일반휴게음식 - 일반한식","category":"restaurant"}]},{"lat":"36.961136713","long":"126.85564124","imageIndex":4,"items":[{"name":"끼리끼리","tel":"031-681-7289","addr":"경기도 평택시 포승읍 만호리 313-7번지 항만빌딩","indutype":"일반휴게음식 - 일반한식","category":"restaurant"}]},{"lat":"36.975547041","long":"126.84336076","imageIndex":4,"items":[{"name":"나드리 김밥","tel":"031-8094-1254","addr":"경기도 평택시 포승읍 만호리 574-5번지 스마트빌듀오1차 108호","indutype":"일반휴게음식 - 스넥","category":"restaurant"},{"name":"별난뒷고기","tel":"031-647-4140","addr":"경기도 평택시 포승읍 만호리 574-5번지 스마트빌듀오1차 111호","indutype":"일반휴게음식 - 일반한식","category":"restaurant"},{"name":"브라보커피","tel":"","addr":"경기도 평택시 포승읍 만호리 574-5번지 스마트빌듀오1차 106호","indutype":"일반휴게음식 - 서양음식","category":"restaurant"},{"name":"솔마루한식뷔페","tel":"031-683-9405","addr":"경기도 평택시 포승읍 만호리 574-5번지 스마트빌듀오1차 1층 120,121,122호","indutype":"일반휴게음식 - 일반한식","category":"restaurant"},{"name":"신포밀가(평택항로점)","tel":"031-8094-9438","addr":"경기도 평택시 포승읍 만호리 574-5번지 스마트빌듀오1차 109,110호","indutype":"일반휴게음식 - 일반한식","category":"restaurant"},{"name":"안군비어(만호점)","tel":"02-1111-1111","addr":"경기도 평택시 포승읍 만호리 574-5번지 스마트빌듀오1차 1층 115호","indutype":"일반휴게음식 - 주점","category":"restaurant"},{"name":"이모포차","tel":"031-681-6509","addr":"경기도 평택시 포승읍 만호리 574-5번지 스마트빌듀오1차 1층 103호","indutype":"일반휴게음식 - 주점","category":"restaurant"},{"name":"치킨퐁(포승점)","tel":"031-8029-7170","addr":"경기도 평택시 포승읍 만호리 574-5번지 스마트빌듀오1차 116,117,118호","indutype":"일반휴게음식 - 스넥","category":"restaurant"}]},{"lat":"36.960378975","long":"126.85496899","imageIndex":4,"items":[{"name":"대교한식부페","tel":"031-681-0474","addr":"경기도 평택시 포승읍 만호리 314-22번지 2층205,206,207,208","indutype":"일반휴게음식 - 일반한식","category":"restaurant"}]},{"lat":"36.961413169","long":"126.85333883","imageIndex":4,"items":[{"name":"대원정","tel":"031-681-4688","addr":"경기도 평택시 포승읍 만호리 311-10","indutype":"일반휴게음식 - 일반한식","category":"restaurant"}]},{"lat":"36.957415782","long":"126.85605261","imageIndex":4,"items":[{"name":"대풍식당","tel":"031-681-9710","addr":"경기도 평택시 포승읍 만호리 390-13번지","indutype":"일반휴게음식 - 일반한식","category":"restaurant"}]},{"lat":"36.977015861","long":"126.84341385","imageIndex":4,"items":[{"name":"대한선산곱창","tel":"","addr":"경기도 평택시 포승읍 만호리 575-1번지 스마트빌듀오3차 106호","indutype":"일반휴게음식 - 일반한식","category":"restaurant"},{"name":"딜리버리킹 조선닭볶음탕 포승점","tel":"","addr":"경기도 평택시 포승읍 만호리 575-1번지 스마트빌듀오3차 114호","indutype":"일반휴게음식 - 일반한식","category":"restaurant"},{"name":"떡킹","tel":"031-681-3356","addr":"경기도 평택시 포승읍 만호리 575-1번지 스마트빌듀오3차 1층 115호","indutype":"일반휴게음식 - 스넥","category":"restaurant"},{"name":"바지락칼국수","tel":"031-681-2588","addr":"경기도 평택시 포승읍 만호리 575-1번지 스마트빌듀오3차 1층 101,102호","indutype":"일반휴게음식 - 일반한식","category":"restaurant"},{"name":"위치커피 포승점","tel":"031-616-5050","addr":"경기도 평택시 포승읍 만호리 575-1번지 스마트빌듀오3차 1층 112호","indutype":"일반휴게음식 - 서양음식","category":"restaurant"},{"name":"이플비어","tel":"031-647-4050","addr":"경기도 평택시 포승읍 만호리 575-1번지 스마트빌듀오3차 1층 117호","indutype":"일반휴게음식 - 일반한식","category":"restaurant"}]},{"lat":"36.950108826","long":"126.84953253","imageIndex":4,"items":[{"name":"더밀","tel":"031-682-9001","addr":"경기도 평택시 포승읍 만호리 671번지","indutype":"일반휴게음식 - 위탁급식업","category":"restaurant"},{"name":"유가네푸드","tel":"031-8053-5160","addr":"경기도 평택시 포승읍 만호리 671번지 1층","indutype":"일반휴게음식 - 위탁급식업","category":"restaurant"}]},{"lat":"36.974519927","long":"126.84344152","imageIndex":4,"items":[{"name":"도담한식부페","tel":"031-686-5453","addr":"경기도 평택시 포승읍 만호리 578-7번지 만호빌딩","indutype":"일반휴게음식 - 일반한식","category":"restaurant"},{"name":"도담한식뷔페","tel":"031-683-0794","addr":"경기도 평택시 포승읍 만호리 578-7번지 1층","indutype":"음식점 - 한식","category":"restaurant"}]},{"lat":"36.967047409","long":"126.84827455","imageIndex":4,"items":[{"name":"도담한식부페2호점","tel":"031-684-7925","addr":"경기도 평택시 포승읍 만호리 639번지 가동 1층","indutype":"일반휴게음식 - 일반한식","category":"restaurant"}]},{"lat":"36.962080175","long":"126.85350596","imageIndex":4,"items":[{"name":"도현식당","tel":"031-684-9254","addr":"경기도 평택시 포승읍 만호리 311-25번지","indutype":"일반휴게음식 - 일반한식","category":"restaurant"},{"name":"마장동토종순대국","tel":"031-681-5564","addr":"경기도 평택시 포승읍 만호리 311-25번지 1층,2층","indutype":"일반휴게음식 - 일반한식","category":"restaurant"},{"name":"아대구해장국","tel":"031-682-6460","addr":"경기도 평택시 포승읍 만호리 311-25번지","indutype":"일반휴게음식 - 일반한식","category":"restaurant"},{"name":"일품양평해장국 포승점","tel":"031-000-0000","addr":"경기도 평택시 포승읍 만호리 311-25번지","indutype":"일반휴게음식 - 일반한식","category":"restaurant"},{"name":"한식웰빙부페","tel":"031-682-3324","addr":"경기도 평택시 포승읍 만호리 311-25번지","indutype":"일반휴게음식 - 일반한식","category":"restaurant"}]},{"lat":"36.974602361","long":"126.84444087","imageIndex":4,"items":[{"name":"돌판구이 평택옥","tel":"031-0000-0000","addr":"경기도 평택시 포승읍 만호리 577-7번지","indutype":"일반휴게음식 - 일반한식","category":"restaurant"}]},{"lat":"36.976627327","long":"126.84261727","imageIndex":4,"items":[{"name":"레스토랑 보르도/(주)알호텔이삼칠평택지점","tel":"031-220-7816","addr":"경기도 평택시 포승읍 만호리 574-1번지 2층","indutype":"일반휴게음식 - 일반한식","category":"restaurant"}]},{"lat":"36.976683248","long":"126.84399855","imageIndex":4,"items":[{"name":"롱커피","tel":"031-681-3004","addr":"경기도 평택시 포승읍 만호리 575-10번지 메트로하임 107호","indutype":"음식점 - 커피","category":"restaurant"},{"name":"티버즈카페(포승2호점)","tel":"","addr":"경기도 평택시 포승읍 만호리 575-10번지 평택메트로하임 112호","indutype":"일반휴게음식 - 서양음식","category":"restaurant"},{"name":"해운대회천국","tel":"031-616-0133","addr":"경기도 평택시 포승읍 만호리 575-10번지 평택메트로하임 104 105 106","indutype":"일반휴게음식 - 일반한식","category":"restaurant"},{"name":"해피빈(행복한카페)","tel":"031-616-2003","addr":"경기도 평택시 포승읍 만호리 575-10번지 평택메트로하임 107호","indutype":"일반휴게음식 - 서양음식","category":"restaurant"},{"name":"홍짜장","tel":"031-8094-2255","addr":"경기도 평택시 포승읍 만호리 575-10번지 평택메트로하임 1층 103호","indutype":"일반휴게음식 - 중국식","category":"restaurant"}]},{"lat":"36.957051839","long":"126.84625126","imageIndex":4,"items":[{"name":"만나한식뷔페","tel":"031-681-5139","addr":"경기도 평택시 포승읍 만호리 570-2번지","indutype":"음식점 - 한식","category":"restaurant"},{"name":"만나한식뷔페","tel":"031-683-8230","addr":"경기도 평택시 포승읍 만호리 570-2번지 평택항 국제여객터미널 타동 2층","indutype":"일반휴게음식 - 일반한식","category":"restaurant"}]},{"lat":"36.962712815","long":"126.84794645","imageIndex":4,"items":[{"name":"만호중국관","tel":"031-681-9253","addr":"경기도 평택시 포승읍 만호리 268-9번지","indutype":"일반휴게음식 - 중국식","category":"restaurant"},{"name":"순창식당","tel":"031-682-3661","addr":"경기도 평택시 포승읍 만호리 268-9번지","indutype":"일반휴게음식 - 일반한식","category":"restaurant"}]},{"lat":"36.959964859","long":"126.85527295","imageIndex":4,"items":[{"name":"모박사부대찌개","tel":"031-681-0283","addr":"경기도 평택시 포승읍 만호리 314-34번지 1층","indutype":"일반휴게음식 - 일반한식","category":"restaurant"},{"name":"씩씩이네한식부페","tel":"031-682-2229","addr":"경기도 평택시 포승읍 만호리 314-34번지 1층","indutype":"일반휴게음식 - 일반한식","category":"restaurant"}]},{"lat":"36.957324897","long":"126.84833912","imageIndex":4,"items":[{"name":"몬테비안코","tel":"031-8053-7777","addr":"경기도 평택시 포승읍 만호리 570-1번지 14,15층","indutype":"일반휴게음식 - 일반한식","category":"restaurant"},{"name":"몬테비안코","tel":"","addr":"경기도 평택시 포승읍 만호리 570-1번지 마린센터 15층","indutype":"음식점 - 양식","category":"restaurant"},{"name":"커피베이평택항점","tel":"031-681-7756","addr":"경기도 평택시 포승읍 만호리 570-1번지 1층","indutype":"일반휴게음식 - 서양음식","category":"restaurant"}]},{"lat":"36.963688702","long":"126.85721961","imageIndex":4,"items":[{"name":"미채원","tel":"031-681-8733","addr":"경기도 평택시 포승읍 만호리 696-2번지 101호,102호","indutype":"일반휴게음식 - 일반한식","category":"restaurant"}]},{"lat":"36.961658959","long":"126.85533706","imageIndex":4,"items":[{"name":"봉평막국수랑코다리","tel":"031-682-6866","addr":"경기도 평택시 포승읍 만호리 313-11번지","indutype":"일반휴게음식 - 일반한식","category":"restaurant"},{"name":"시골밥상","tel":"031-686-6292","addr":"경기도 평택시 포승읍 만호리 313-11번지","indutype":"일반휴게음식 - 일반한식","category":"restaurant"},{"name":"장모님닭개장","tel":"031-681-4796","addr":"경기도 평택시 포승읍 만호리 313-11번지","indutype":"일반휴게음식 - 일반한식","category":"restaurant"},{"name":"진맛집낙지해장국","tel":"031-683-7941","addr":"경기도 평택시 포승읍 만호리 313-11번지","indutype":"일반휴게음식 - 일반한식","category":"restaurant"}]},{"lat":"36.976467216","long":"126.84416747","imageIndex":4,"items":[{"name":"비버스치킨닭개장","tel":"031-681-8858","addr":"경기도 평택시 포승읍 만호리 575-9번지","indutype":"일반휴게음식 - 스넥","category":"restaurant"}]},{"lat":"36.962271976","long":"126.8484751","imageIndex":4,"items":[{"name":"새로이통닭","tel":"031-682-2808","addr":"경기도 평택시 포승읍 만호리 281-2번지","indutype":"일반휴게음식 - 주점","category":"restaurant"}]},{"lat":"36.962276156","long":"126.84480328","imageIndex":4,"items":[{"name":"서해꽃게","tel":"031-681-2222","addr":"경기도 평택시 포승읍 만호리 260-3번지 1층","indutype":"일반휴게음식 - 일반한식","category":"restaurant"},{"name":"항구식당","tel":"031-681-9971","addr":"경기도 평택시 포승읍 만호리 260-3번지","indutype":"일반휴게음식 - 일반한식","category":"restaurant"}]},{"lat":"36.975826116","long":"126.84316926","imageIndex":4,"items":[{"name":"시골손순대","tel":"031-683-0664","addr":"경기도 평택시 포승읍 만호리 574-4번지 제1동5,6호","indutype":"일반휴게음식 - 일반한식","category":"restaurant"}]},{"lat":"36.962629235","long":"126.85303328","imageIndex":4,"items":[{"name":"양자강포승점","tel":"031-684-3090","addr":"경기도 평택시 포승읍 만호리 311-22번지","indutype":"일반휴게음식 - 중국식","category":"restaurant"}]},{"lat":"36.96193552","long":"126.8461402","imageIndex":4,"items":[{"name":"연암포차","tel":"031-681-8250","addr":"경기도 평택시 포승읍 만호리 265-25","indutype":"일반휴게음식 - 주점","category":"restaurant"},{"name":"청정해","tel":"031-681-0717","addr":"경기도 평택시 포승읍 만호리 265-25번지 1층 101호","indutype":"일반휴게음식 - 일반한식","category":"restaurant"}]},{"lat":"36.96149717","long":"126.855663","imageIndex":4,"items":[{"name":"요모쪼모호프","tel":"031-682-5155","addr":"경기도 평택시 포승읍 만호리 313-6번지 2층","indutype":"일반휴게음식 - 주점","category":"restaurant"},{"name":"전라도맛집","tel":"031-682-5155","addr":"경기도 평택시 포승읍 만호리 313-6번지 2층 전체","indutype":"일반휴게음식 - 일반한식","category":"restaurant"},{"name":"정인시골멋집","tel":"031-682-5049","addr":"경기도 평택시 포승읍 만호리 313-6번지","indutype":"일반휴게음식 - 일반한식","category":"restaurant"}]},{"lat":"36.970435101","long":"126.84124897","imageIndex":4,"items":[{"name":"우리식당","tel":"031-682-3725","addr":"경기도 평택시 포승읍 만호리 620번지 B동102,103호","indutype":"일반휴게음식 - 일반한식","category":"restaurant"}]},{"lat":"36.96163279","long":"126.85603328","imageIndex":4,"items":[{"name":"유전","tel":"031-686-6779","addr":"경기도 평택시 포승읍 만호리 314-11번지","indutype":"일반휴게음식 - 일반한식","category":"restaurant"},{"name":"유전식당","tel":"031-681-8851","addr":"경기도 평택시 포승읍 만호리 314-11번지","indutype":"음식점 - 한식","category":"restaurant"}]},{"lat":"36.962467665","long":"126.85352766","imageIndex":4,"items":[{"name":"일월","tel":"031-683-4165","addr":"경기도 평택시 포승읍 만호리 311-17번지 1층","indutype":"일반휴게음식 - 중국식","category":"restaurant"}]},{"lat":"36.960686414","long":"126.85583299","imageIndex":4,"items":[{"name":"장안칼국수","tel":"031-684-8790","addr":"경기도 평택시 포승읍 만호리 313-9번지","indutype":"일반휴게음식 - 일반한식","category":"restaurant"}]},{"lat":"36.961997823","long":"126.84555618","imageIndex":4,"items":[{"name":"전망대","tel":"031-681-8333","addr":"경기도 평택시 포승읍 만호리 260-7번지","indutype":"일반휴게음식 - 일식·회집","category":"restaurant"}]},{"lat":"36.974853036","long":"126.84322745","imageIndex":4,"items":[{"name":"조이분식","tel":"031-684-6867","addr":"경기도 평택시 포승읍 만호리 578-4번지","indutype":"일반휴게음식 - 스넥","category":"restaurant"}]},{"lat":"36.961719485","long":"126.84630907","imageIndex":4,"items":[{"name":"진흥식당","tel":"031-682-3995","addr":"경기도 평택시 포승읍 만호리 265-28번지","indutype":"일반휴게음식 - 일반한식","category":"restaurant"}]},{"lat":"36.96176784","long":"126.8559432","imageIndex":4,"items":[{"name":"창희네연탄구이","tel":"031-684-6100","addr":"경기도 평택시 포승읍 만호리 314-10번지","indutype":"일반휴게음식 - 일반한식","category":"restaurant"}]},{"lat":"36.957164547","long":"126.85691765","imageIndex":4,"items":[{"name":"카페이앙","tel":"031-681-6581","addr":"경기도 평택시 포승읍 만호리 389-3번지","indutype":"일반휴게음식 - 서양음식","category":"restaurant"}]},{"lat":"36.960884511","long":"126.85572032","imageIndex":4,"items":[{"name":"커피킹","tel":"031-682-5073","addr":"경기도 평택시 포승읍 만호리 313-8번지 1층","indutype":"일반휴게음식 - 서양음식","category":"restaurant"}]},{"lat":"36.975519193","long":"126.84275436","imageIndex":4,"items":[{"name":"코업호텔","tel":"031-323-7666","addr":"경기도 평택시 포승읍 만호리 573-14번지 201호","indutype":"일반휴게음식 - 일반한식","category":"restaurant"}]},{"lat":"36.962802599","long":"126.8409507","imageIndex":4,"items":[{"name":"평택항레스토랑","tel":"031-612-0921","addr":"경기도 평택시 포승읍 만호리 564번지","indutype":"일반휴게음식 - 위탁급식업","category":"restaurant"}]},{"lat":"36.977185201","long":"126.84203209","imageIndex":4,"items":[{"name":"포승공단한식부페","tel":"031-681-1870","addr":"경기도 평택시 포승읍 만호리 573-6번지 101호","indutype":"일반휴게음식 - 일반한식","category":"restaurant"}]},{"lat":"36.962468511","long":"126.84717216","imageIndex":4,"items":[{"name":"포승민물장어수산","tel":"031-681-9285","addr":"경기도 평택시 포승읍 만호리 264-15번지 82호","indutype":"일반휴게음식 - 일반한식","category":"restaurant"}]},{"lat":"36.961884882","long":"126.85586437","imageIndex":4,"items":[{"name":"한우푸줏간","tel":"031-682-9229","addr":"경기도 평택시 포승읍 만호리 314-9번지","indutype":"일반휴게음식 - 일반한식","category":"restaurant"}]},{"lat":"36.962351225","long":"126.84706011","imageIndex":4,"items":[{"name":"해송식당","tel":"031-681-9838","addr":"경기도 평택시 포승읍 만호리 264-19번지","indutype":"음식점 - 한식","category":"restaurant"},{"name":"해송식당","tel":"031-681-5202","addr":"경기도 평택시 포승읍 만호리 264-19번지","indutype":"일반휴게음식 - 일반한식","category":"restaurant"}]},{"lat":"36.962189576","long":"126.8474759","imageIndex":4,"items":[{"name":"행랑채","tel":"031-683-5392","addr":"경기도 평택시 포승읍 만호리 264-22번지","indutype":"일반휴게음식 - 일반한식","category":"restaurant"}]},{"lat":"36.960966121","long":"126.85613562","imageIndex":4,"items":[{"name":"호오양꼬치","tel":"031-684-7991","addr":"경기도 평택시 포승읍 만호리 313-4번지","indutype":"일반휴게음식 - 일반한식","category":"restaurant"}]},{"lat":"36.962188072","long":"126.84633057","imageIndex":4,"items":[{"name":"홍두깨식당","tel":"031-686-6577","addr":"경기도 평택시 포승읍 만호리 262-8번지","indutype":"음식점 - 한식","category":"restaurant"},{"name":"홍두께식당","tel":"031-682-5397","addr":"경기도 평택시 포승읍 만호리 262-8번지","indutype":"일반휴게음식 - 일반한식","category":"restaurant"}]}]