[{"lat":"37.303707134","long":"126.86366108","imageIndex":17,"items":[{"name":"(주)고고렌트카","tel":"031-417-7799","addr":"경기도 안산시 상록구 일동 661-10번지 102호","indutype":"여행 - 렌터카","category":"other"}]},{"lat":"37.309225916","long":"126.87568684","imageIndex":17,"items":[{"name":"(주)두드림","tel":"031-475-2151","addr":"경기도 안산시 상록구 일동 752번지 안산1대학창업보육센터 309호","indutype":"주방용구 - 정수기","category":"other"},{"name":"(주)월드TNC","tel":"031-406-1139","addr":"경기도 안산시 상록구 일동 752번지 창업보육센타 402호","indutype":"사무통신 - 통신기기","category":"other"},{"name":"북스벨리(안산대점)","tel":"031-438-2707","addr":"경기도 안산시 상록구 일동 752번지 안산대학교진리관B13호","indutype":"서적문구 - 일반서적","category":"other"},{"name":"씨유안산대기숙사점","tel":"031-419-3453","addr":"경기도 안산시 상록구 일동 752번지 안산대학교","indutype":"유통업 영리 - 편 의 점","category":"other"},{"name":"씨유안산대자유관점","tel":"031-419-3453","addr":"경기도 안산시 상록구 일동 752번지 안산대학교","indutype":"유통업 영리 - 편 의 점","category":"other"},{"name":"씨유안산대진리관점","tel":"031-419-3453","addr":"경기도 안산시 상록구 일동 752번지 안산대학교","indutype":"유통업 영리 - 편 의 점","category":"other"},{"name":"에스비전테크(S-Vision Tech)","tel":"000-000-0000","addr":"경기도 안산시 상록구 일동 752번지 안산대학교","indutype":"전기제품 - 기타전기제품","category":"other"},{"name":"주식회사 대단","tel":"031-419-5316","addr":"경기도 안산시 상록구 일동 752번지 안산대학교창업보육센타 5층 504호","indutype":"전기제품 - 기타전기제품","category":"other"},{"name":"주식회사 마이포브","tel":"031-000-0000","addr":"경기도 안산시 상록구 일동 752번지 안산대학교 창업보육센터 302호","indutype":"신변잡화 - 기타잡화","category":"other"}]},{"lat":"37.309199467","long":"126.86807278","imageIndex":17,"items":[{"name":"(주)삼원색","tel":"031-417-8500","addr":"경기도 안산시 상록구 일동 632-1번지","indutype":"의류 - 정장","category":"other"},{"name":"(주)삼원색","tel":"031-417-8500","addr":"경기도 안산시 상록구 일동 632-1번지","indutype":"의류 - 정장","category":"other"},{"name":"(주)삼원색","tel":"031-417-8500","addr":"경기도 안산시 상록구 일동 632-1번지","indutype":"의류 - 정장","category":"other"},{"name":"그린헬스클럽","tel":"031-408-6990","addr":"경기도 안산시 상록구 일동 632-1번지 301동 302호","indutype":"회원제형태 - 레져업소","category":"other"}]},{"lat":"37.303619873","long":"126.86609758","imageIndex":17,"items":[{"name":"(주)유영통신","tel":"031-406-6192","addr":"경기도 안산시 상록구 일동 667-9번지","indutype":"전기제품 - 냉열기기","category":"other"}]},{"lat":"37.305476054","long":"126.86616189","imageIndex":17,"items":[{"name":"(주)일일사렌트카 일동지점","tel":"031-437-9090","addr":"경기도 안산시 상록구 일동 654-1번지 101호","indutype":"여행 - 렌터카","category":"other"},{"name":"뜰광고기획","tel":"031-408-1109","addr":"경기도 안산시 상록구 일동 654-1번지","indutype":"용역 서비스 - 종합용역","category":"other"},{"name":"영화철물","tel":"031-416-0945","addr":"경기도 안산시 상록구 일동 654-1 1층103,104호","indutype":"건축자재 - 목재·석재·철물","category":"other"}]},{"lat":"37.315755288","long":"126.8649362","imageIndex":17,"items":[{"name":"(주)조연산업","tel":"031-408-6527","addr":"경기도 안산시 상록구 일동 538-6","indutype":"건축자재 - 기타건축자재","category":"other"},{"name":"크린토피아 안산일동점","tel":"031-409-8633","addr":"경기도 안산시 상록구 일동 538-6, 104호","indutype":"수리서비스 - 세탁소","category":"other"}]},{"lat":"37.309642234","long":"126.86918873","imageIndex":17,"items":[{"name":"(주)코리아세븐안산상록수3호점/1234호점","tel":"031-418-6485","addr":"경기도 안산시 상록구 일동 632-15번지","indutype":"유통업 영리 - 편 의 점","category":"other"},{"name":"열린음악회","tel":"031-407-6611","addr":"경기도 안산시 상록구 일동 632-15번지 금신빌딩 2층 201호","indutype":"전기제품 - 가전제품","category":"other"}]},{"lat":"37.313922827","long":"126.86984672","imageIndex":17,"items":[{"name":"(주)크린마켓","tel":"","addr":"경기도 안산시 상록구 일동 84-10번지 지하 103호","indutype":"용역 서비스 - 종합용역","category":"other"}]},{"lat":"37.310506229","long":"126.86831861","imageIndex":17,"items":[{"name":"(주)화성종합유리","tel":"031-406-4450","addr":"경기도 안산시 상록구 일동 120-1번지","indutype":"건축자재 - 유리","category":"other"}]},{"lat":"37.31120018","long":"126.86846402","imageIndex":17,"items":[{"name":"119누수탐지","tel":"031-1661-0487","addr":"경기도 안산시 상록구 일동 122-7번지 현대빌라 402호","indutype":"용역 서비스 - 기타용역서비스","category":"other"}]},{"lat":"37.315169941","long":"126.86520801","imageIndex":17,"items":[{"name":"123패션","tel":"031-407-1137","addr":"경기도 안산시 상록구 일동 585-1번지 올림피아드학원 1층 103호","indutype":"의류 - 정장","category":"other"}]},{"lat":"37.3151699406","long":"126.8652080098","imageIndex":17,"items":[{"name":"123패션","tel":"031-362-6001","addr":"경기도 안산시 상록구 일동 585-1번지","indutype":"도매 및 소매업 - 여성의류","category":"other"}]},{"lat":"37.309787388","long":"126.87006833","imageIndex":17,"items":[{"name":"B.Y.C","tel":"031-501-7078","addr":"경기도 안산시 상록구 일동 615-18,101번지","indutype":"의류 - 내의판매","category":"other"}]},{"lat":"37.304313241","long":"126.86573538","imageIndex":17,"items":[{"name":"Bridge of 디자인","tel":"031-503-1500","addr":"경기도 안산시 상록구 일동 666-9번지 101호","indutype":"의류 - 정장","category":"other"}]},{"lat":"37.3140329414","long":"126.8637435694","imageIndex":17,"items":[{"name":"CU 안산일동점","tel":"031-419-3932","addr":"경기도 안산시 상록구 일동 583-9번지","indutype":"도매 및 소매업 - 편의점,담배","category":"other"},{"name":"동이노래연습장","tel":"031-418-2585","addr":"경기도 안산시 상록구 일동 583-9번지","indutype":"협회 및 단체, 수리 및 기타 개인서","category":"other"}]},{"lat":"37.3088174049","long":"126.8728787795","imageIndex":17,"items":[{"name":"CU안산1대학점","tel":"031-407-7068","addr":"경기도 안산시 상록구 일동 610-5번지","indutype":"도매 및 소매업 - 편의점","category":"other"},{"name":"팡팡노래연습장","tel":"031-408-7671","addr":"경기도 안산시 상록구 일동 610-5번지","indutype":"예술, 스포츠 및 여가관련 서비스업","category":"other"}]},{"lat":"37.316593564","long":"126.86521669","imageIndex":17,"items":[{"name":"DH공조","tel":"02-000-0000","addr":"경기도 안산시 상록구 일동 538-1번지 101호","indutype":"용역 서비스 - 기타용역서비스","category":"other"}]},{"lat":"37.316088862","long":"126.8651048","imageIndex":17,"items":[{"name":"DM 냉난방 에어컨","tel":"032-000-0000","addr":"경기도 안산시 상록구 일동 538-4번지 대경마로니에 501호","indutype":"용역 서비스 - 기타용역서비스","category":"other"}]},{"lat":"37.311287959","long":"126.86643338","imageIndex":17,"items":[{"name":"GS25상록구룡로점","tel":"","addr":"경기도 안산시 상록구 일동 601-22번지 1층","indutype":"유통업 영리 - 편 의 점","category":"other"}]},{"lat":"37.315814325","long":"126.8615179","imageIndex":17,"items":[{"name":"GS25상록성호로점","tel":"","addr":"경기도 안산시 상록구 일동 566번지 1층","indutype":"유통업 영리 - 편 의 점","category":"other"},{"name":"위드미안산성호로","tel":"031-409-4004","addr":"경기도 안산시 상록구 일동 566번지","indutype":"유통업 영리 - 편 의 점","category":"other"}]},{"lat":"37.303485137","long":"126.86645876","imageIndex":17,"items":[{"name":"GS25상록수역점","tel":"","addr":"경기도 안산시 상록구 일동 667-7번지 103, 104호","indutype":"유통업 영리 - 편 의 점","category":"other"}]},{"lat":"37.314122201","long":"126.87087293","imageIndex":17,"items":[{"name":"GS25안산구룡점","tel":"","addr":"경기도 안산시 상록구 일동 113번지 1층","indutype":"유통업 영리 - 편 의 점","category":"other"},{"name":"오토키랜드","tel":"070-8632-6173","addr":"경기도 안산시 상록구 일동 113번지 301호","indutype":"수리서비스 - 기타수리서비스","category":"other"}]},{"lat":"37.308339131","long":"126.87221408","imageIndex":17,"items":[{"name":"GS25안산대학로점","tel":"031-407-8123","addr":"경기도 안산시 상록구 일동 611-10번지 101호","indutype":"유통업 영리 - 편 의 점","category":"other"}]},{"lat":"37.315286889","long":"126.86504986","imageIndex":17,"items":[{"name":"GS25안산일동점","tel":"","addr":"경기도 안산시 상록구 일동 585번지 101호","indutype":"유통업 영리 - 편 의 점","category":"other"}]},{"lat":"37.313644024","long":"126.86249212","imageIndex":17,"items":[{"name":"GS25일동베스트점","tel":"","addr":"경기도 안산시 상록구 일동 580-8번지 101호","indutype":"유통업 영리 - 편 의 점","category":"other"},{"name":"센스가구","tel":"031-416-5799","addr":"경기도 안산시 상록구 일동 580-8번지","indutype":"가구 - 일반가구","category":"other"}]},{"lat":"37.317203289","long":"126.86268856","imageIndex":17,"items":[{"name":"GS25일동빌라점","tel":"00-6431-8781","addr":"경기도 안산시 상록구 일동 541-13번지 1층","indutype":"유통업 영리 - 편 의 점","category":"other"}]},{"lat":"37.314759728","long":"126.86118145","imageIndex":17,"items":[{"name":"G앤S","tel":"031-111-1111","addr":"경기도 안산시 상록구 일동 568-4번지","indutype":"의류 - 내의판매","category":"other"}]},{"lat":"37.314229072","long":"126.86975593","imageIndex":17,"items":[{"name":"HOME난방시설관리","tel":"070-4090-0320","addr":"경기도 안산시 상록구 일동 83-3번지 묵산트윈풍경채 A동 303호","indutype":"용역 서비스 - 기타용역서비스","category":"other"}]},{"lat":"37.3160873309","long":"126.8637961888","imageIndex":17,"items":[{"name":"J.one","tel":"031-418-7487","addr":"경기도 안산시 상록구 일동 574-3번지","indutype":"도매 및 소매업 - 의류","category":"other"},{"name":"좋은친구들","tel":"","addr":"경기도 안산시 상록구 일동 574-3번지","indutype":"도매 및 소매업 - 농수산물","category":"other"}]},{"lat":"37.30814844","long":"126.87088337","imageIndex":17,"items":[{"name":"LEE55","tel":"031-407-6244","addr":"경기도 안산시 상록구 일동 617-3번지 연번지 101호","indutype":"문화.취미 - 화방·표구점","category":"other"}]},{"lat":"37.3138976160","long":"126.8635971677","imageIndex":17,"items":[{"name":"M&K머리의 자부심","tel":"031-418-5610","addr":"경기도 안산시 상록구 일동 581번지","indutype":"협회 및 단체, 수리 및 기타 개인서","category":"other"},{"name":"베스트공부방","tel":"070-8615-8433","addr":"경기도 안산시 상록구 일동 581번지","indutype":"교육서비스업 - 공부방","category":"other"}]},{"lat":"37.304754034","long":"126.86512549","imageIndex":17,"items":[{"name":"MS종합상사","tel":"031-409-8604","addr":"경기도 안산시 상록구 일동 666-15","indutype":"주방용구 - 정수기","category":"other"}]},{"lat":"37.3100112692","long":"126.8688496654","imageIndex":17,"items":[{"name":"M미트델리?","tel":"","addr":"경기도 안산시 상록구 일동 632-13번지","indutype":"도매 및 소매업 - 식육즉석판매가공업","category":"other"},{"name":"㈜조은이엔지","tel":"031-502-3191","addr":"경기도 안산시 상록구 일동 632-13번지","indutype":"도매 및 소매업 - 전기및조명자재","category":"other"}]},{"lat":"37.307761453","long":"126.87129013","imageIndex":17,"items":[{"name":"OS전자/원격지","tel":"031-408-7837","addr":"경기도 안산시 상록구 일동 617-6번지","indutype":"기타 - 기타 전문점","category":"other"}]},{"lat":"37.313339408","long":"126.86395918","imageIndex":17,"items":[{"name":"SH상사","tel":"031-408-0203","addr":"경기도 안산시 상록구 일동 582-3번지 103호","indutype":"용역 서비스 - 기타용역서비스","category":"other"},{"name":"제이앤스토리","tel":"031-418-6009","addr":"경기도 안산시 상록구 일동 582-3번지 102호","indutype":"회원제형태 - 기타4","category":"other"}]},{"lat":"37.311811445","long":"126.86721079","imageIndex":17,"items":[{"name":"YOUNG FLOWER","tel":"031-408-8003","addr":"경기도 안산시 상록구 일동 89-7번지","indutype":"문화.취미 - 화원","category":"other"}]},{"lat":"37.3133366692","long":"126.8694078004","imageIndex":17,"items":[{"name":"㈜참좋은 육가공","tel":"031-502-9963","addr":"경기도 안산시 상록구 일동 85-3번지","indutype":"도매 및 소매업 - 식육","category":"other"},{"name":"㈜참좋은육가공","tel":"031-502-9963","addr":"경기도 안산시 상록구 일동 85-3번지","indutype":"도매 및 소매업 - 축산물,식육포장처","category":"other"}]},{"lat":"37.312759136","long":"126.86863045","imageIndex":17,"items":[{"name":"가람정보시스템","tel":"031-416-4911","addr":"경기도 안산시 상록구 일동 88-3번지 103호","indutype":"사무통신 - 컴퓨터","category":"other"}]},{"lat":"37.315060725","long":"126.86427188","imageIndex":17,"items":[{"name":"간지아","tel":"031-409-5790","addr":"경기도 안산시 상록구 일동 576-6번지 102호","indutype":"의류 - 정장","category":"other"},{"name":"코인워시 안산일동점","tel":"031-409-8633","addr":"경기도 안산시 상록구 일동 576-6번지 101,102호","indutype":"수리서비스 - 세탁소","category":"other"}]},{"lat":"37.310229733","long":"126.87082333","imageIndex":17,"items":[{"name":"강아지가정부","tel":"031-438-4046","addr":"경기도 안산시 상록구 일동 612-12번지 40호","indutype":"문화.취미 - 애완동물","category":"other"}]},{"lat":"37.3135909107","long":"126.8632931517","imageIndex":17,"items":[{"name":"개미철물건재","tel":"031-409-7474","addr":"경기도 안산시 상록구 일동 581-11번지","indutype":"도매 및 소매업 - 철물","category":"other"}]},{"lat":"37.313590911","long":"126.86329315","imageIndex":17,"items":[{"name":"개미철물건재","tel":"031-409-7474","addr":"경기도 안산시 상록구 일동 581-11번지","indutype":"기타 - 기계공구","category":"other"}]},{"lat":"37.31317395","long":"126.8689343","imageIndex":17,"items":[{"name":"개조심","tel":"031-407-1183","addr":"경기도 안산시 상록구 일동 85-7번지","indutype":"문화.취미 - 애완동물","category":"other"},{"name":"디앤피 (d&p)","tel":"","addr":"경기도 안산시 상록구 일동 85-7번지 1층","indutype":"기타 - 기계공구","category":"other"},{"name":"진현냉동","tel":"","addr":"경기도 안산시 상록구 일동 85-7번지","indutype":"용역 서비스 - 기타용역서비스","category":"other"}]},{"lat":"37.304509069","long":"126.86368216","imageIndex":17,"items":[{"name":"건강지키","tel":"031-408-5789","addr":"경기도 안산시 상록구 일동 661-17번지","indutype":"의류 - 정장","category":"other"},{"name":"멋내기(양품점)","tel":"031-419-1181","addr":"경기도 안산시 상록구 일동 661-17번지 우측 101호 상가","indutype":"의류 - 정장","category":"other"}]},{"lat":"37.3140668059","long":"126.8619047234","imageIndex":17,"items":[{"name":"경안자동차공업사","tel":"031-417-0092","addr":"경기도 안산시 상록구 일동 569-5번지","indutype":"협회 및 단체, 수리 및 기타 개인서","category":"other"}]},{"lat":"37.308508445","long":"126.87052178","imageIndex":17,"items":[{"name":"골든세탁소","tel":"031-416-8409","addr":"경기도 안산시 상록구 일동 617번지 1층","indutype":"수리서비스 - 세탁소","category":"other"}]},{"lat":"37.315923669","long":"126.86254428","imageIndex":17,"items":[{"name":"공간사랑인테리어","tel":"031-409-2680","addr":"경기도 안산시 상록구 일동 564-7번지 동원교회 104호","indutype":"건축자재 - 인테리어전문","category":"other"},{"name":"중고가전재활용센타","tel":"031-415-4984","addr":"경기도 안산시 상록구 일동 564-7번지","indutype":"전기제품 - 가전제품","category":"other"}]},{"lat":"37.309227062","long":"126.86856905","imageIndex":17,"items":[{"name":"광명공구철물","tel":"031-438-4909","addr":"경기도 안산시 상록구 일동 632-4번지 104호","indutype":"건축자재 - 목재·석재·철물","category":"other"},{"name":"대지 공구철물","tel":"031-438-4909","addr":"경기도 안산시 상록구 일동 632-4번지 104호","indutype":"건축자재 - 목재·석재·철물","category":"other"}]},{"lat":"37.3162056","long":"126.86476615","imageIndex":17,"items":[{"name":"광명옵틱스","tel":"02-446-8388","addr":"경기도 안산시 상록구 일동 539-2번지","indutype":"사무통신 - 통신기기","category":"other"}]},{"lat":"37.316447738","long":"126.86379552","imageIndex":17,"items":[{"name":"구제아울렛","tel":"","addr":"경기도 안산시 상록구 일동 540-9번지","indutype":"의류 - 기타의류","category":"other"}]},{"lat":"37.304033742","long":"126.86557797","imageIndex":17,"items":[{"name":"구제아울렛","tel":"","addr":"경기도 안산시 상록구 일동 664-5번지 1층","indutype":"의류 - 정장","category":"other"}]},{"lat":"37.314366676","long":"126.86404754","imageIndex":17,"items":[{"name":"구제힐링","tel":"","addr":"경기도 안산시 상록구 일동 584-9번지 일동제일의원 102호","indutype":"의류 - 정장","category":"other"}]},{"lat":"37.316230376","long":"126.8628483","imageIndex":17,"items":[{"name":"국민열쇠","tel":"031-419-1303","addr":"경기도 안산시 상록구 일동 564-4번지 1층","indutype":"건축자재 - 목재·석재·철물","category":"other"},{"name":"나윤뷰티라인","tel":"031-408-8453","addr":"경기도 안산시 상록구 일동 564-4번지","indutype":"회원제형태 - 기타4","category":"other"}]},{"lat":"37.31659477","long":"126.87429811","imageIndex":17,"items":[{"name":"국화향기","tel":"031-501-4646","addr":"경기도 안산시 상록구 일동 95번지","indutype":"회원제형태 - 기타4","category":"other"},{"name":"카페홀릭 안산병원점","tel":"031-111-1111","addr":"경기도 안산시 상록구 일동 95번지 근로복지공단안산병원 A동 1층","indutype":"유통업 영리 - 편 의 점","category":"other"}]},{"lat":"37.315114712","long":"126.87212339","imageIndex":17,"items":[{"name":"그린데코빌","tel":"031-408-4315","addr":"경기도 안산시 상록구 일동 102-2번지 1층 2호","indutype":"건축자재 - 인테리어전문","category":"other"}]},{"lat":"37.3102831132","long":"126.8702141011","imageIndex":17,"items":[{"name":"그미용실","tel":"031-507-7373","addr":"경기도 안산시 상록구 일동 603-17번지","indutype":"협회 및 단체, 수리 및 기타 개인서","category":"other"}]},{"lat":"37.3162303763","long":"126.8628483041","imageIndex":17,"items":[{"name":"금메달 헤어샵","tel":"070-4922-1261","addr":"경기도 안산시 상록구 일동 564-4번지","indutype":"협회 및 단체, 수리 및 기타 개인서","category":"other"}]},{"lat":"37.3146175526","long":"126.8628512958","imageIndex":17,"items":[{"name":"김윤희헤어","tel":"031-506-9917","addr":"경기도 안산시 상록구 일동 578-7번지","indutype":"협회 및 단체, 수리 및 기타 개인서","category":"other"}]},{"lat":"37.314287649","long":"126.86581879","imageIndex":17,"items":[{"name":"꼬마모자","tel":"","addr":"경기도 안산시 상록구 일동 595-13번지 대경그린빌 301층","indutype":"의류 - 기타의류","category":"other"}]},{"lat":"37.309426422","long":"126.86957264","imageIndex":17,"items":[{"name":"꽃망울","tel":"031-416-3666","addr":"경기도 안산시 상록구 일동 618번지","indutype":"문화.취미 - 화원","category":"other"}]},{"lat":"37.311558719","long":"126.86682771","imageIndex":17,"items":[{"name":"나눔노인요양공동생활가정3","tel":"031-409-9295","addr":"경기도 안산시 상록구 일동 601-8번지 3층","indutype":"기타의료기관 - 기타의료기관 및 기타","category":"other"},{"name":"디씨백화점","tel":"031-418-0801","addr":"경기도 안산시 상록구 일동 601-8번지 102호","indutype":"신변잡화 - 기타잡화","category":"other"}]},{"lat":"37.319230287","long":"126.8624366","imageIndex":17,"items":[{"name":"나다운","tel":"","addr":"경기도 안산시 상록구 일동 544-6번지 드림빌 202호","indutype":"신변잡화 - 액세서리","category":"other"}]},{"lat":"37.3168974902","long":"126.8631516618","imageIndex":17,"items":[{"name":"나래전기조명","tel":"031-406-3866","addr":"경기도 안산시 상록구 일동 541-9번지","indutype":"건설업 - 창호공사","category":"other"}]},{"lat":"37.316978462","long":"126.86304998","imageIndex":17,"items":[{"name":"나로인테리어","tel":"031-406-3866","addr":"경기도 안산시 상록구 일동 541-10번지 삼원 1호","indutype":"건축자재 - 인테리어전문","category":"other"},{"name":"삼원식품","tel":"031-419-6263","addr":"경기도 안산시 상록구 일동 541-10번지 삼원","indutype":"유통업 영리 - 기타유통업","category":"other"}]},{"lat":"37.3163128770","long":"126.8640439600","imageIndex":17,"items":[{"name":"나무","tel":"","addr":"경기도 안산시 상록구 일동 540-7번지","indutype":"도매 및 소매업 - 의류","category":"other"}]},{"lat":"37.316312877","long":"126.86404396","imageIndex":17,"items":[{"name":"나무","tel":"","addr":"경기도 안산시 상록구 일동 540-7번지 102호","indutype":"의류 - 정장","category":"other"}]},{"lat":"37.316093141","long":"126.86109998","imageIndex":17,"items":[{"name":"나주철물공사","tel":"031-407-4865","addr":"경기도 안산시 상록구 일동 558번지","indutype":"용역 서비스 - 기타용역서비스","category":"other"}]},{"lat":"37.3149253344","long":"126.8640690740","imageIndex":17,"items":[{"name":"남경약국","tel":"031-437-7722","addr":"경기도 안산시 상록구 일동 577-1번지","indutype":"도매 및 소매업 - 양약","category":"other"}]},{"lat":"37.305401119","long":"126.86371436","imageIndex":17,"items":[{"name":"남지아마켓","tel":"031-406-1430","addr":"경기도 안산시 상록구 일동 659번지 1층","indutype":"신변잡화 - 기타잡화","category":"other"}]},{"lat":"37.3119205212","long":"126.8680453562","imageIndex":17,"items":[{"name":"내고향축산물","tel":"031-417-5110","addr":"경기도 안산시 상록구 일동 126-12번지","indutype":"도매 및 소매업 - 식육","category":"other"}]},{"lat":"37.3160063717","long":"126.8639091497","imageIndex":17,"items":[{"name":"노디아","tel":"031-416-9007","addr":"경기도 안산시 상록구 일동 574-4번지","indutype":"도매 및 소매업 - 의류","category":"other"},{"name":"전주반찬","tel":"031-409-2356","addr":"경기도 안산시 상록구 일동 574-4번지","indutype":"도매 및 소매업 - 반찬","category":"other"}]},{"lat":"37.316006372","long":"126.86390915","imageIndex":17,"items":[{"name":"노디아","tel":"031-416-9007","addr":"경기도 안산시 상록구 일동 574-4번지 101호","indutype":"의류 - 정장","category":"other"},{"name":"세븐일레븐안산일동점","tel":"02-3284-8168","addr":"경기도 안산시 상록구 일동 574-4번지 102호","indutype":"유통업 영리 - 편 의 점","category":"other"}]},{"lat":"37.3158436310","long":"126.8634356411","imageIndex":17,"items":[{"name":"노래하는 음악교습소","tel":"031-406-7570","addr":"경기도 안산시 상록구 일동 572번지","indutype":"교육서비스업 - 음악교습소","category":"other"}]},{"lat":"37.309122432","long":"126.87168256","imageIndex":17,"items":[{"name":"노블랜드휘트니스라이프","tel":"070-8885-2192","addr":"경기도 안산시 상록구 일동 613-6번지","indutype":"회원제형태 - 레져업소","category":"other"}]},{"lat":"37.312781464","long":"126.8645468","imageIndex":17,"items":[{"name":"농부네하우스","tel":"031-495-1122","addr":"경기도 안산시 상록구 일동 600-4번지 1층","indutype":"농업 - 농기계","category":"other"}]},{"lat":"37.3136440243","long":"126.8624921154","imageIndex":17,"items":[{"name":"뉴캐슬노래방","tel":"","addr":"경기도 안산시 상록구 일동 580-8번지","indutype":"협회 및 단체, 수리 및 기타 개인서","category":"other"},{"name":"센스가구","tel":"031-416-5799","addr":"경기도 안산시 상록구 일동 580-8번지","indutype":"도매 및 소매업 - 가구","category":"other"}]},{"lat":"37.305924914","long":"126.86473984","imageIndex":17,"items":[{"name":"뉴텍솔류션 주식회사","tel":"02-1811-1805","addr":"경기도 안산시 상록구 일동 656-10번지 지층 1호","indutype":"건축자재 - 조명기구","category":"other"}]},{"lat":"37.3153665158","long":"126.8637975169","imageIndex":17,"items":[{"name":"다비다세탁소","tel":"031-501-0486","addr":"경기도 안산시 상록구 일동 576-8번지 현대쉐르빌","indutype":"협회 및 단체, 수리 및 기타 개인서","category":"other"}]},{"lat":"37.308562934","long":"126.87090521","imageIndex":17,"items":[{"name":"다온시스템","tel":"031-418-0977","addr":"경기도 안산시 상록구 일동 616-10번지 101호","indutype":"수리서비스 - 기타수리서비스","category":"other"},{"name":"조훈세탁소","tel":"031-417-1335","addr":"경기도 안산시 상록구 일동 616-10번지 102호","indutype":"수리서비스 - 세탁소","category":"other"}]},{"lat":"37.30517826","long":"126.86576765","imageIndex":17,"items":[{"name":"다온홈크린","tel":"031-407-3339","addr":"경기도 안산시 상록구 일동 654-4번지 상가 101호","indutype":"용역 서비스 - 종합용역","category":"other"}]},{"lat":"37.3110630545","long":"126.8667383573","imageIndex":17,"items":[{"name":"다원현수막","tel":"031-437-9988","addr":"경기도 안산시 상록구 일동 92번지","indutype":"제조업 - 현수막","category":"other"}]},{"lat":"37.311063055","long":"126.86673836","imageIndex":17,"items":[{"name":"다원현수막","tel":"031-437-9988","addr":"경기도 안산시 상록구 일동 92번지","indutype":"용역 서비스 - 종합용역","category":"other"}]},{"lat":"37.31275368","long":"126.86390386","imageIndex":17,"items":[{"name":"다이소안산일동점","tel":"031-407-0805","addr":"경기도 안산시 상록구 일동 599-5번지 연세빌딩 1,2,3층","indutype":"신변잡화 - 기타잡화","category":"other"}]},{"lat":"37.309146978","long":"126.86946033","imageIndex":17,"items":[{"name":"대성공업사","tel":"070-8816-8255","addr":"경기도 안산시 상록구 일동 618-13번지 202호","indutype":"건축자재 - 보일러·펌프·샷시","category":"other"}]},{"lat":"37.316645018","long":"126.86299419","imageIndex":17,"items":[{"name":"대성세탁소","tel":"031-407-8734","addr":"경기도 안산시 상록구 일동 564번지","indutype":"수리서비스 - 세탁소","category":"other"}]},{"lat":"37.313535148","long":"126.86963307","imageIndex":17,"items":[{"name":"대성택스","tel":"031-493-2530","addr":"경기도 안산시 상록구 일동 85-1번지 1층","indutype":"건축자재 - 인테리어전문","category":"other"}]},{"lat":"37.316537708","long":"126.86368255","imageIndex":17,"items":[{"name":"대영상사","tel":"031-405-3931","addr":"경기도 안산시 상록구 일동 540-10번지","indutype":"건축자재 - 보일러·펌프·샷시","category":"other"}]},{"lat":"37.3165377076","long":"126.8636825465","imageIndex":17,"items":[{"name":"대영상사","tel":"031-417-6762","addr":"경기도 안산시 상록구 일동 540-10번지","indutype":"도매 및 소매업 - 보일러","category":"other"}]},{"lat":"37.313977887","long":"126.87073781","imageIndex":17,"items":[{"name":"대우보일러서비스","tel":"031-426-7337","addr":"경기도 안산시 상록구 일동 129번지 1층","indutype":"건축자재 - 보일러·펌프·샷시","category":"other"}]},{"lat":"37.310149595","long":"126.87168077","imageIndex":17,"items":[{"name":"대윤에어컨","tel":"","addr":"경기도 안산시 상록구 일동 608-6번지 명성아트빌 201호","indutype":"용역 서비스 - 기타용역서비스","category":"other"}]},{"lat":"37.3132033127","long":"126.8631584993","imageIndex":17,"items":[{"name":"대일","tel":"031-418-1241","addr":"경기도 안산시 상록구 일동 581-7번지","indutype":"도매 및 소매업 - 침구류","category":"other"}]},{"lat":"37.313203313","long":"126.8631585","imageIndex":17,"items":[{"name":"대일","tel":"031-418-1241","addr":"경기도 안산시 상록구 일동 581-7번지","indutype":"직물 - 침구·수예점","category":"other"}]},{"lat":"37.3138419","long":"126.86999351","imageIndex":17,"items":[{"name":"대지상재","tel":"031-415-0440","addr":"경기도 안산시 상록구 일동 84-5번지","indutype":"건축자재 - 인테리어전문","category":"other"}]},{"lat":"37.314122485","long":"126.86326961","imageIndex":17,"items":[{"name":"대풍지물장식","tel":"031-406-5047","addr":"경기도 안산시 상록구 일동 580-1번지","indutype":"건축자재 - 인테리어전문","category":"other"}]},{"lat":"37.3152868892","long":"126.8650498617","imageIndex":17,"items":[{"name":"더놀자노래연습장","tel":"031-406-5612","addr":"경기도 안산시 상록구 일동 585번지","indutype":"협회 및 단체, 수리 및 기타 개인서","category":"other"},{"name":"미모아미용실","tel":"031-419-1688","addr":"경기도 안산시 상록구 일동 585번지","indutype":"협회 및 단체, 수리 및 기타 개인서","category":"other"}]},{"lat":"37.307671201","long":"126.87115492","imageIndex":17,"items":[{"name":"데이데이패션","tel":"031-502-3389","addr":"경기도 안산시 상록구 일동 617-7번지 1층","indutype":"의류 - 기타의류","category":"other"}]},{"lat":"37.314927085","long":"126.86556945","imageIndex":17,"items":[{"name":"도매공판장","tel":"031-406-3475","addr":"경기도 안산시 상록구 일동 586-1번지","indutype":"유통업 영리 - 기타유통업","category":"other"},{"name":"이마트24 안산일동점","tel":"","addr":"경기도 안산시 상록구 일동 586-1번지 1층","indutype":"유통업 영리 - 편 의 점","category":"other"}]},{"lat":"37.314203419","long":"126.87098559","imageIndex":17,"items":[{"name":"도어키퍼","tel":"031-341-6134","addr":"경기도 안산시 상록구 일동 113-1번지","indutype":"용역 서비스 - 기타용역서비스","category":"other"}]},{"lat":"37.315644514","long":"126.86268017","imageIndex":17,"items":[{"name":"동경인테리어","tel":"031-418-4517","addr":"경기도 안산시 상록구 일동 573-7번지 103호","indutype":"직물 - 카페트,커튼,천막,지물","category":"other"},{"name":"애견천사들","tel":"031-407-5734","addr":"경기도 안산시 상록구 일동 573-7번지 101호","indutype":"문화.취미 - 애완동물","category":"other"}]},{"lat":"37.31544701","long":"126.86328972","imageIndex":17,"items":[{"name":"동막골분재원","tel":"","addr":"경기도 안산시 상록구 일동 572-4번지 수하이츠빌 202호","indutype":"문화.취미 - 화원","category":"other"}]},{"lat":"37.308561848","long":"126.86993512","imageIndex":17,"items":[{"name":"동신창호","tel":"02-1566-7827","addr":"경기도 안산시 상록구 일동 619-3번지 302호","indutype":"용역 서비스 - 기타용역서비스","category":"other"}]},{"lat":"37.306702429","long":"126.86701693","imageIndex":17,"items":[{"name":"동심에드피아","tel":"031-416-8656","addr":"경기도 안산시 상록구 일동 653-3,1층101,102호","indutype":"서적문구 - 기타서적문구","category":"other"}]},{"lat":"37.30348485","long":"126.86621061","imageIndex":17,"items":[{"name":"동호유통","tel":"031-111-1111","addr":"경기도 안산시 상록구 일동 667-8번지","indutype":"기타 - 기계공구","category":"other"}]},{"lat":"37.316337051","long":"126.86162973","imageIndex":17,"items":[{"name":"두레화원","tel":"","addr":"경기도 안산시 상록구 일동 559-5번지 대림주택","indutype":"문화.취미 - 화원","category":"other"}]},{"lat":"37.304727619","long":"126.86565567","imageIndex":17,"items":[{"name":"디씨유통","tel":"","addr":"경기도 안산시 상록구 일동 666-12번지 501호","indutype":"신변잡화 - 기타잡화","category":"other"}]},{"lat":"37.315616961","long":"126.86224026","imageIndex":17,"items":[{"name":"디와이모바일","tel":"031-366-2567","addr":"경기도 안산시 상록구 일동 565-6번지 1층 101호","indutype":"사무통신 - 통신기기","category":"other"}]},{"lat":"37.307534368","long":"126.86965494","imageIndex":17,"items":[{"name":"디자인웍스","tel":"031-415-1444","addr":"경기도 안산시 상록구 일동 622-9번지 1층 102호","indutype":"건축자재 - 인테리어전문","category":"other"}]},{"lat":"37.31681279","long":"126.86012843","imageIndex":17,"items":[{"name":"디자인펀","tel":"031-2261-2005","addr":"경기도 안산시 상록구 일동 554-8번지 401호","indutype":"서적문구 - 출판 및 인쇄물","category":"other"}]},{"lat":"37.314817119","long":"126.86399031","imageIndex":17,"items":[{"name":"라라정보통신","tel":"031-415-5011","addr":"경기도 안산시 상록구 일동 577-2번지 1층","indutype":"사무통신 - 통신기기","category":"other"}]},{"lat":"37.3090939437","long":"126.8703741125","imageIndex":17,"items":[{"name":"라온헤어","tel":"","addr":"경기도 안산시 상록구 일동 615-12번지","indutype":"협회 및 단체, 수리 및 기타 개인서","category":"other"}]},{"lat":"37.3135361027","long":"126.8626615281","imageIndex":17,"items":[{"name":"라인헤어","tel":"","addr":"경기도 안산시 상록구 일동 580-7번지","indutype":"협회 및 단체, 수리 및 기타 개인서","category":"other"}]},{"lat":"37.315697919","long":"126.8621273","imageIndex":17,"items":[{"name":"렘","tel":"070-5822-7001","addr":"경기도 안산시 상록구 일동 565-7번지 순덕여사 102호","indutype":"의류 - 정장","category":"other"}]},{"lat":"37.3058097829","long":"126.8664658375","imageIndex":17,"items":[{"name":"로곤아트헤어","tel":"031-418-3201","addr":"경기도 안산시 상록구 일동 653-10번지","indutype":"협회 및 단체, 수리 및 기타 개인서","category":"other"}]},{"lat":"37.3138419002","long":"126.8699935113","imageIndex":17,"items":[{"name":"로드하우징","tel":"","addr":"경기도 안산시 상록구 일동 84-5번지","indutype":"건설업 - 인테리어공사,벽지,데코타일","category":"other"}]},{"lat":"37.3089224465","long":"126.8701036907","imageIndex":17,"items":[{"name":"롱롱마카롱","tel":"","addr":"경기도 안산시 상록구 일동 618-4번지","indutype":"제조업 - 제과","category":"other"}]},{"lat":"37.310369269","long":"126.86673961","imageIndex":17,"items":[{"name":"루디아","tel":"031-407-4554","addr":"경기도 안산시 상록구 일동 118-9번지 정석빌딩 1층 103호","indutype":"의류 - 정장","category":"other"}]},{"lat":"37.310563638","long":"126.87129652","imageIndex":17,"items":[{"name":"리베로","tel":"031-502-0392","addr":"경기도 안산시 상록구 일동 608-17번지 상가 1층 26/3호","indutype":"주방용구 - 주방용구","category":"other"}]},{"lat":"37.309812071","long":"126.86799272","imageIndex":17,"items":[{"name":"리오관광호텔/삼원(담배)","tel":"031-417-4100","addr":"경기도 안산시 상록구 일동 119-2번지","indutype":"기타 - 기타 전문점","category":"other"}]},{"lat":"37.30370116","long":"126.86626662","imageIndex":17,"items":[{"name":"마이펫스토리","tel":"031-415-2007","addr":"경기도 안산시 상록구 일동 667-5번지 102호","indutype":"문화.취미 - 애완동물","category":"other"},{"name":"소마달","tel":"","addr":"경기도 안산시 상록구 일동 667-5번지 103호","indutype":"문화.취미 - 화원","category":"other"},{"name":"프리(FREE)통신","tel":"031-8044-4949","addr":"경기도 안산시 상록구 일동 667-5번지 102호","indutype":"사무통신 - 통신기기","category":"other"}]},{"lat":"37.3141477363","long":"126.8617692016","imageIndex":17,"items":[{"name":"만나떡집","tel":"031-418-0809","addr":"경기도 안산시 상록구 일동 569-6번지","indutype":"제조업 - 떡","category":"other"}]},{"lat":"37.3037011605","long":"126.8662666184","imageIndex":17,"items":[{"name":"만능세탁소","tel":"031-417-4291","addr":"경기도 안산시 상록구 일동 667-5번지","indutype":"협회 및 단체, 수리 및 기타 개인서","category":"other"},{"name":"소마달","tel":"","addr":"경기도 안산시 상록구 일동 667-5번지","indutype":"도매 및 소매업 - 화초 및 신식물","category":"other"}]},{"lat":"37.310285795","long":"126.87262808","imageIndex":17,"items":[{"name":"만능세탁소","tel":"031-417-4291","addr":"경기도 안산시 상록구 일동 607-5","indutype":"수리서비스 - 세탁소","category":"other"},{"name":"세븐일레븐안산대학점","tel":"031-1577-0711","addr":"경기도 안산시 상록구 일동 607-5번지 1층 101호","indutype":"유통업 영리 - 편 의 점","category":"other"}]},{"lat":"37.310059004","long":"126.871241","imageIndex":17,"items":[{"name":"메이크믹스(Make Mix)","tel":"050-5303-6303","addr":"경기도 안산시 상록구 일동 612-2번지 104호","indutype":"건축자재 - 조명기구","category":"other"}]},{"lat":"37.304340468","long":"126.86590452","imageIndex":17,"items":[{"name":"멜론노래뮤비방","tel":"031-408-4874","addr":"경기도 안산시 상록구 일동 666-8번지 B01호","indutype":"용역 서비스 - 종합용역","category":"other"},{"name":"버드나무,무,DC마트","tel":"031-418-8622","addr":"경기도 안산시 상록구 일동 666-8번지","indutype":"신변잡화 - 기타잡화","category":"other"}]},{"lat":"37.318149091","long":"126.86246117","imageIndex":17,"items":[{"name":"명성의류","tel":"070-7425-2892","addr":"경기도 안산시 상록구 일동 543-5번지 401호","indutype":"의류 - 정장","category":"other"}]},{"lat":"37.313313749","long":"126.86513243","imageIndex":17,"items":[{"name":"모닝글로리 일동점","tel":"031-407-2070","addr":"경기도 안산시 상록구 일동 598-4번지","indutype":"서적문구 - 문구용품","category":"other"}]},{"lat":"37.31111744","long":"126.86702027","imageIndex":17,"items":[{"name":"모둠공방-사이시옷","tel":"031-406-5277","addr":"경기도 안산시 상록구 일동 91-14번지 1층","indutype":"문화.취미 - 민예·공예품","category":"other"}]},{"lat":"37.309011226","long":"126.8689304","imageIndex":17,"items":[{"name":"미남통신","tel":"031-409-8949","addr":"경기도 안산시 상록구 일동 621번지 101호","indutype":"사무통신 - 통신기기","category":"other"}]},{"lat":"37.309922794","long":"126.8702937","imageIndex":17,"items":[{"name":"미남통신본점","tel":"070-7808-2446","addr":"경기도 안산시 상록구 일동 615번지 1층 101호","indutype":"사무통신 - 통신기기","category":"other"},{"name":"미니스톱안산1대학점","tel":"031-790-4504","addr":"경기도 안산시 상록구 일동 615 1층","indutype":"유통업 영리 - 편 의 점","category":"other"},{"name":"부광메디칼","tel":"031-417-7579","addr":"경기도 안산시 상록구 일동 615번지 지하1층","indutype":"기타의료기관 - 기타의료기관 및 기타","category":"other"}]},{"lat":"37.313673182","long":"126.86429699","imageIndex":17,"items":[{"name":"미니스톱 안산호동점","tel":"031-1577-9621","addr":"경기도 안산시 상록구 일동 583-6번지","indutype":"유통업 영리 - 편 의 점","category":"other"}]},{"lat":"37.308841911","long":"126.87060016","imageIndex":17,"items":[{"name":"미니스톱안산일동로점","tel":"031-1577-9621","addr":"경기도 안산시 상록구 일동 615-10번지 1층","indutype":"유통업 영리 - 편 의 점","category":"other"}]},{"lat":"37.31533948","long":"126.87168304","imageIndex":17,"items":[{"name":"미래도어키퍼","tel":"031-419-2174","addr":"경기도 안산시 상록구 일동 110-5번지","indutype":"용역 서비스 - 기타용역서비스","category":"other"}]},{"lat":"37.3144837","long":"126.87185374","imageIndex":17,"items":[{"name":"미래도어테크","tel":"031-406-9132","addr":"경기도 안산시 상록구 일동 114-5번지 정원에버빌 401호","indutype":"용역 서비스 - 기타용역서비스","category":"other"}]},{"lat":"37.311425934","long":"126.86890356","imageIndex":17,"items":[{"name":"미르시스템","tel":"","addr":"경기도 안산시 상록구 일동 123번지","indutype":"용역 서비스 - 기타용역서비스","category":"other"}]},{"lat":"37.307233486","long":"126.86654222","imageIndex":17,"items":[{"name":"미림상사","tel":"031-417-6077","addr":"경기도 안산시 상록구 일동 650-1번지","indutype":"전기제품 - 가전제품","category":"other"},{"name":"상록수낚시슈퍼","tel":"031-408-9912","addr":"경기도 안산시 상록구 일동 650-1번지 3호","indutype":"레져용품 - 스포츠·레져용품","category":"other"}]},{"lat":"37.3045907834","long":"126.8642121463","imageIndex":17,"items":[{"name":"미모","tel":"031-438-3088","addr":"경기도 안산시 상록구 일동 662번지","indutype":"협회 및 단체, 수리 및 기타 개인서","category":"other"}]},{"lat":"37.3131739504","long":"126.8689342967","imageIndex":17,"items":[{"name":"미소반찬점","tel":"031-406-4005","addr":"경기도 안산시 상록구 일동 85-7번지","indutype":"도매 및 소매업 - 김치,조림","category":"other"},{"name":"장지영 미용실","tel":"031-406-3989","addr":"경기도 안산시 상록구 일동 85-7번지","indutype":"협회 및 단체, 수리 및 기타 개인서","category":"other"}]},{"lat":"37.3145922483","long":"126.8643178675","imageIndex":17,"items":[{"name":"미소헤어","tel":"031-416-1568","addr":"경기도 안산시 상록구 일동 585-9번지","indutype":"협회 및 단체, 수리 및 기타 개인서","category":"other"},{"name":"우돈축산물도소매센타","tel":"","addr":"경기도 안산시 상록구 일동 585-9번지","indutype":"도매 및 소매업 - 식육","category":"other"}]},{"lat":"37.314147736","long":"126.8617692","imageIndex":17,"items":[{"name":"바이크앤유","tel":"031-407-5956","addr":"경기도 안산시 상록구 일동 569-6번지 1층","indutype":"레져용품 - 스포츠·레져용품","category":"other"}]},{"lat":"37.309037476","long":"126.86824227","imageIndex":17,"items":[{"name":"반월농업협동조합일동지점","tel":"031-418-0070","addr":"경기도 안산시 상록구 일동 632-2.105~107호","indutype":"유통업 비영리 - 농,축협 직영매장","category":"other"},{"name":"이앤케이(E&K)스킨케어","tel":"031-419-4588","addr":"경기도 안산시 상록구 일동 632-2번지 원영빌딩 4층 401호","indutype":"회원제형태 - 기타4","category":"other"}]},{"lat":"37.3090374762","long":"126.8682422669","imageIndex":17,"items":[{"name":"반월농협 일동지점","tel":"031-418-0070","addr":"경기도 안산시 상록구 일동 632-2번지","indutype":"금융 및 보험업 - 농협","category":"other"}]},{"lat":"37.319113355","long":"126.86260604","imageIndex":17,"items":[{"name":"밝은해바라기","tel":"","addr":"경기도 안산시 상록구 일동 544-5번지 302호","indutype":"문화.취미 - 화원","category":"other"}]},{"lat":"37.311505318","long":"126.86740311","imageIndex":17,"items":[{"name":"벅스모바일","tel":"031-363-3301","addr":"경기도 안산시 상록구 일동 90번지 1층","indutype":"사무통신 - 통신기기","category":"other"},{"name":"벅스모바일","tel":"031-365-3301","addr":"경기도 안산시 상록구 일동 90번지 1층 상가","indutype":"사무통신 - 통신기기","category":"other"}]},{"lat":"37.312705701","long":"126.8691833","imageIndex":17,"items":[{"name":"법산","tel":"031-408-5160","addr":"경기도 안산시 상록구 일동 126번지 정우테크빌 201호","indutype":"신변잡화 - 기념품점","category":"other"}]},{"lat":"37.310477262","long":"126.86662661","imageIndex":17,"items":[{"name":"베스트올 안산일동점","tel":"031-416-7992","addr":"경기도 안산시 상록구 일동 118-10번지 서광빌딩 10호","indutype":"유통업 영리 - 편 의 점","category":"other"},{"name":"엠 스토리(M.story)","tel":"031-487-2800","addr":"경기도 안산시 상록구 일동 118-10번지 서광빌딩 1층 102호","indutype":"의류 - 정장","category":"other"}]},{"lat":"37.3104772618","long":"126.8666266101","imageIndex":17,"items":[{"name":"베스트올 일동점","tel":"","addr":"경기도 안산시 상록구 일동 118-10번지","indutype":"도매 및 소매업 - 편의점","category":"other"}]},{"lat":"37.304151319","long":"126.86596126","imageIndex":17,"items":[{"name":"벧엘설비도배","tel":"031-408-1127","addr":"경기도 안산시 상록구 일동 667-1번지 1층 103호","indutype":"건축자재 - 인테리어전문","category":"other"}]},{"lat":"37.3123085881","long":"126.8685974134","imageIndex":17,"items":[{"name":"보나온나","tel":"","addr":"경기도 안산시 상록구 일동 126-17번지","indutype":"도매 및 소매업 - 의류판매,문구팬시","category":"other"},{"name":"좋은친구들","tel":"031-439-4438","addr":"경기도 안산시 상록구 일동 126-17번지","indutype":"도매 및 소매업 - 액세서리,사무용품","category":"other"}]},{"lat":"37.312308588","long":"126.86859741","imageIndex":17,"items":[{"name":"보나온나","tel":"","addr":"경기도 안산시 상록구 일동 126-17번지 101호","indutype":"의류 - 정장","category":"other"},{"name":"삐까번쩍클린","tel":"031-418-0126","addr":"경기도 안산시 상록구 일동 126-17번지 303호","indutype":"용역 서비스 - 종합용역","category":"other"},{"name":"좋은친구들","tel":"031-439-4438","addr":"경기도 안산시 상록구 일동 126-17번지 1층 102호","indutype":"서적문구 - 기타서적문구","category":"other"}]},{"lat":"37.3143995906","long":"126.8614077410","imageIndex":17,"items":[{"name":"본사렌탈접수처","tel":"1544-3173","addr":"경기도 안산시 상록구 일동 569-9번지","indutype":"도매 및 소매업 - 전자상거래업","category":"other"}]},{"lat":"37.304924676","long":"126.86465143","imageIndex":17,"items":[{"name":"뷰티라인","tel":"031-416-1990","addr":"경기도 안산시 상록구 일동 660-5번지 1층 101호","indutype":"의류 - 정장","category":"other"},{"name":"설악크리닝","tel":"031-407-6047","addr":"경기도 안산시 상록구 일동 660-5번지 101호","indutype":"수리서비스 - 세탁소","category":"other"}]},{"lat":"37.309453922","long":"126.86998995","imageIndex":17,"items":[{"name":"블랙핏","tel":"031-501-2223","addr":"경기도 안산시 상록구 일동 615-15번지","indutype":"의류 - 정장","category":"other"}]},{"lat":"37.315203122","long":"126.87060029","imageIndex":17,"items":[{"name":"블루리본","tel":"","addr":"경기도 안산시 상록구 일동 108번지 로젠하임 204호","indutype":"의류 - 정장","category":"other"}]},{"lat":"37.316032938","long":"126.86351426","imageIndex":17,"items":[{"name":"비즈리치","tel":"070-8031-4038","addr":"경기도 안산시 상록구 일동 574-7번지 대풍아트빌 401호","indutype":"주방용구 - 주방용구","category":"other"}]},{"lat":"37.3095889226","long":"126.8698543541","imageIndex":17,"items":[{"name":"사랑의 약국","tel":"031-419-0071","addr":"경기도 안산시 상록구 일동 615-16번지","indutype":"도매 및 소매업 - 양약,의료기기","category":"other"}]},{"lat":"37.316453981","long":"126.8614603","imageIndex":17,"items":[{"name":"삼성에어컨","tel":"","addr":"경기도 안산시 상록구 일동 559-10번지 서원럭스빌 201호","indutype":"용역 서비스 - 기타용역서비스","category":"other"}]},{"lat":"37.307726126","long":"126.87193314","imageIndex":17,"items":[{"name":"삼화철물건재","tel":"031-417-6733","addr":"경기도 안산시 상록구 일동 626번지","indutype":"건축자재 - 목재·석재·철물","category":"other"},{"name":"삼화철물건재","tel":"031-417-6733","addr":"경기도 안산시 상록구 일동 626번지","indutype":"건축자재 - 기타건축자재","category":"other"}]},{"lat":"37.3072602304","long":"126.8662940193","imageIndex":17,"items":[{"name":"삿뽀로노래연습장","tel":"031-409-4300","addr":"경기도 안산시 상록구 일동 650-19번지","indutype":"예술, 스포츠 및 여가관련 서비스업","category":"other"}]},{"lat":"37.305700211","long":"126.865214","imageIndex":17,"items":[{"name":"상록수 종합설비","tel":"031-000-0000","addr":"경기도 안산시 상록구 일동 655-8번지 402호","indutype":"용역 서비스 - 기타용역서비스","category":"other"}]},{"lat":"37.30576162","long":"126.86379265","imageIndex":17,"items":[{"name":"상록수기독문화센터","tel":"031-406-6774","addr":"경기도 안산시 상록구 일동 657-10번지","indutype":"문화.취미 - 문화취미기타","category":"other"}]},{"lat":"37.3041513189","long":"126.8659612603","imageIndex":17,"items":[{"name":"상록수떡방앗간","tel":"031-501-7789","addr":"경기도 안산시 상록구 일동 667-1번지","indutype":"제조업 - 방앗간","category":"other"}]},{"lat":"37.310261277","long":"126.86685261","imageIndex":17,"items":[{"name":"상록재활용매장","tel":"031-418-2422","addr":"경기도 안산시 상록구 일동 118-8번지 1층","indutype":"전기제품 - 가전제품","category":"other"}]},{"lat":"37.309201915","long":"126.87023856","imageIndex":17,"items":[{"name":"상록활인기공체육관","tel":"031-417-6707","addr":"경기도 안산시 상록구 일동 615-13번지","indutype":"회원제형태 - 레져업소","category":"other"}]},{"lat":"37.314921614","long":"126.86093296","imageIndex":17,"items":[{"name":"상유산업","tel":"031-486-8004","addr":"경기도 안산시 상록구 일동 568-2번지 부곡캐슬","indutype":"기타 - 기계공구","category":"other"}]},{"lat":"37.3149216142","long":"126.8609329604","imageIndex":17,"items":[{"name":"상유산업","tel":"031-486-8004","addr":"경기도 안산시 상록구 일동 568-2번지 부곡캐슬","indutype":"도매 및 소매업 - 잡자재","category":"other"}]},{"lat":"37.3045090692","long":"126.8636821620","imageIndex":17,"items":[{"name":"상투와댕기머리","tel":"031-502-1695","addr":"경기도 안산시 상록구 일동 661-17번지","indutype":"협회 및 단체, 수리 및 기타 개인서","category":"other"}]},{"lat":"37.3148171195","long":"126.8639903060","imageIndex":17,"items":[{"name":"새우깡노래연습장","tel":"031-406-1601","addr":"경기도 안산시 상록구 일동 577-2번지","indutype":"협회 및 단체, 수리 및 기타 개인서","category":"other"}]},{"lat":"37.316645657","long":"126.87141002","imageIndex":17,"items":[{"name":"샐리","tel":"031-414-2950","addr":"경기도 안산시 상록구 일동 105-4번지","indutype":"의류 - 정장","category":"other"},{"name":"크리스탈생수","tel":"031-406-1405","addr":"경기도 안산시 상록구 일동 105-4번지","indutype":"유통업 영리 - 기타유통업","category":"other"}]},{"lat":"37.311703865","long":"126.86768477","imageIndex":17,"items":[{"name":"샤인","tel":"","addr":"경기도 안산시 상록구 일동 122-21번지 1층","indutype":"의류 - 정장","category":"other"},{"name":"주식회사 함께가는여행","tel":"031-409-8433","addr":"경기도 안산시 상록구 일동 122-21번지","indutype":"여행 - 관광여행","category":"other"}]},{"lat":"37.308785601","long":"126.86860368","imageIndex":17,"items":[{"name":"서울상사","tel":"031-407-6877","addr":"경기도 안산시 상록구 일동 621-17번지","indutype":"건축자재 - 페인트","category":"other"}]},{"lat":"37.306339317","long":"126.86468268","imageIndex":17,"items":[{"name":"성원목재","tel":"031-419-3311","addr":"경기도 안산시 상록구 일동 657-17번지 1층","indutype":"건축자재 - 건축용 요업제품","category":"other"}]},{"lat":"37.3063393172","long":"126.8646826840","imageIndex":17,"items":[{"name":"성원목재","tel":"031-419-3311","addr":"경기도 안산시 상록구 일동 657-17번지","indutype":"도매 및 소매업 - 합판,목재,실내장","category":"other"}]},{"lat":"37.307034532","long":"126.86591091","imageIndex":17,"items":[{"name":"성현샷시부속","tel":"031-415-0876","addr":"경기도 안산시 상록구 일동 650-16번지","indutype":"건축자재 - 보일러·펌프·샷시","category":"other"}]},{"lat":"37.3070345321","long":"126.8659109132","imageIndex":17,"items":[{"name":"성현샷시부속","tel":"031-415-0876","addr":"경기도 안산시 상록구 일동 650-16번지","indutype":"도매 및 소매업 - 샷시부속","category":"other"}]},{"lat":"37.311143222","long":"126.8659373","imageIndex":17,"items":[{"name":"성환주방가구","tel":"031-404-1571","addr":"경기도 안산시 상록구 일동 601-36번지","indutype":"주방용구 - 주방용구","category":"other"},{"name":"태성철물점","tel":"031-507-7081","addr":"경기도 안산시 상록구 일동 601-36 1층 102호,103호","indutype":"건축자재 - 목재·석재·철물","category":"other"}]},{"lat":"37.3096422338","long":"126.8691887271","imageIndex":17,"items":[{"name":"세븐일레븐","tel":"031-418-6485","addr":"경기도 안산시 상록구 일동 632-15번지","indutype":"도매 및 소매업 - 상품대리","category":"other"},{"name":"아이슈타인안경원","tel":"031-406-3222","addr":"경기도 안산시 상록구 일동 632-15번지","indutype":"도매 및 소매업 - 안경","category":"other"}]},{"lat":"37.3102857948","long":"126.8726280843","imageIndex":17,"items":[{"name":"세븐일레븐 안산대학점","tel":"","addr":"경기도 안산시 상록구 일동 607-5번지","indutype":"도매 및 소매업 - 편의점","category":"other"}]},{"lat":"37.311512011","long":"126.87338176","imageIndex":17,"items":[{"name":"세영공조","tel":"02-1577-3321","addr":"경기도 안산시 상록구 일동 604-7번지 202호","indutype":"용역 서비스 - 기타용역서비스","category":"other"}]},{"lat":"37.315366516","long":"126.86379752","imageIndex":17,"items":[{"name":"세탁다비다","tel":"031-501-0486","addr":"경기도 안산시 상록구 일동 576-8번지 현대쉐르빌 101호","indutype":"수리서비스 - 세탁소","category":"other"}]},{"lat":"37.304061021","long":"126.86579223","imageIndex":17,"items":[{"name":"세탁마을","tel":"031-406-7227","addr":"경기도 안산시 상록구 일동 667번지 1층 3호","indutype":"수리서비스 - 세탁소","category":"other"}]},{"lat":"37.3090340457","long":"126.8732393707","imageIndex":17,"items":[{"name":"세현네트웍스","tel":"031-406-0684","addr":"경기도 안산시 상록구 일동 610-2번지","indutype":"도매 및 소매업 - 사무기기,인쇄복사","category":"other"}]},{"lat":"37.309034046","long":"126.87323937","imageIndex":17,"items":[{"name":"세현네트웍스","tel":"031-406-0684","addr":"경기도 안산시 상록구 일동 610-2번지","indutype":"사무통신 - 사무용 OA기기","category":"other"}]},{"lat":"37.310864479","long":"126.86643414","imageIndex":17,"items":[{"name":"소망비디오전파사","tel":"031-406-6272","addr":"경기도 안산시 상록구 일동 118번지 경동 102호","indutype":"수리서비스 - 가정용품수리","category":"other"},{"name":"일동사진관","tel":"031-406-4081","addr":"경기도 안산시 상록구 일동 118번지 경동빌딩","indutype":"광학제품 - 사진관","category":"other"}]},{"lat":"37.3044009468","long":"126.8636823613","imageIndex":17,"items":[{"name":"소망이발소","tel":"","addr":"경기도 안산시 상록구 일동 661-16번지","indutype":"협회 및 단체, 수리 및 기타 개인서","category":"other"}]},{"lat":"37.314202054","long":"126.86976726","imageIndex":17,"items":[{"name":"솔지","tel":"070-8625-8891","addr":"경기도 안산시 상록구 일동 83-3번지 묵산트윈풍경채 1층","indutype":"용역 서비스 - 종합용역","category":"other"}]},{"lat":"37.311312136","long":"126.8718818","imageIndex":17,"items":[{"name":"송산분재원","tel":"031-437-6615","addr":"경기도 안산시 상록구 일동 603-4번지","indutype":"문화.취미 - 화원","category":"other"}]},{"lat":"37.313645795","long":"126.86399246","imageIndex":17,"items":[{"name":"수공예아토","tel":"031-409-7311","addr":"경기도 안산시 상록구 일동 582번지 1층 102호","indutype":"직물 - 침구·수예점","category":"other"},{"name":"큐사랑안산점","tel":"070-8229-3788","addr":"경기도 안산시 상록구 일동 582번지 103호","indutype":"의류 - 정장","category":"other"}]},{"lat":"37.3159530904","long":"126.8645748364","imageIndex":17,"items":[{"name":"수미네반찬","tel":"031-502-3583","addr":"경기도 안산시 상록구 일동 539-4번지","indutype":"도매 및 소매업 - 반찬","category":"other"}]},{"lat":"37.3155114592","long":"126.8644628346","imageIndex":17,"items":[{"name":"슈가네일&뷰티","tel":"","addr":"경기도 안산시 상록구 일동 575-2번지","indutype":"협회 및 단체, 수리 및 기타 개인서","category":"other"},{"name":"일동태권도장","tel":"031-406-3039","addr":"경기도 안산시 상록구 일동 575-2번지","indutype":"교육서비스업 - 태권도","category":"other"}]},{"lat":"37.315060564","long":"126.87204451","imageIndex":17,"items":[{"name":"스마트에어컨(S&S)","tel":"070-7110-7075","addr":"경기도 안산시 상록구 일동 102-21번지","indutype":"용역 서비스 - 기타용역서비스","category":"other"}]},{"lat":"37.3086729936","long":"126.8726534266","imageIndex":17,"items":[{"name":"스타노래연습장","tel":"031-406-0606","addr":"경기도 안산시 상록구 일동 611-6번지","indutype":"예술, 스포츠 및 여가관련 서비스업","category":"other"}]},{"lat":"37.314868955","long":"126.86210628","imageIndex":17,"items":[{"name":"스타일도어","tel":"031-1644-6768","addr":"경기도 안산시 상록구 일동 570-4번지","indutype":"건축자재 - 인테리어전문","category":"other"}]},{"lat":"37.3085917776","long":"126.8725407661","imageIndex":17,"items":[{"name":"스펀지피시방","tel":"","addr":"경기도 안산시 상록구 일동 611-7번지","indutype":"협회 및 단체, 수리 및 기타 개인서","category":"other"}]},{"lat":"37.311920842","long":"126.86832737","imageIndex":17,"items":[{"name":"신안엔지니어링","tel":"031-419-8110","addr":"경기도 안산시 상록구 일동 126-9번지","indutype":"전기제품 - 냉열기기","category":"other"}]},{"lat":"37.316419938","long":"126.870993","imageIndex":17,"items":[{"name":"신풍무역","tel":"","addr":"경기도 안산시 상록구 일동 105-5번지 남영골든빌라 402호","indutype":"신변잡화 - 기타잡화","category":"other"}]},{"lat":"37.311368255","long":"126.86574512","imageIndex":17,"items":[{"name":"실리콘한국","tel":"031-407-8001","addr":"경기도 안산시 상록구 일동 601-38번지 104호","indutype":"건축자재 - 기타건축자재","category":"other"}]},{"lat":"37.316032446","long":"126.86309686","imageIndex":17,"items":[{"name":"실버데이","tel":"","addr":"경기도 안산시 상록구 일동 573번지 102호","indutype":"신변잡화 - 액세서리","category":"other"},{"name":"아이뿌다","tel":"031-407-7009","addr":"경기도 안산시 상록구 일동 573번지","indutype":"의류 - 아동의류","category":"other"}]},{"lat":"37.312091972","long":"126.86827066","imageIndex":17,"items":[{"name":"썬애드","tel":"031-406-0219","addr":"경기도 안산시 상록구 일동 126-14번지 101호","indutype":"용역 서비스 - 종합용역","category":"other"}]},{"lat":"37.307120646","long":"126.87032118","imageIndex":17,"items":[{"name":"쓰던컴","tel":"","addr":"경기도 안산시 상록구 일동 622-4번지 1층 102호","indutype":"사무통신 - 컴퓨터","category":"other"}]},{"lat":"37.303115998","long":"126.87477223","imageIndex":17,"items":[{"name":"씨유SK반월주유소점","tel":"031-406-5991","addr":"경기도 안산시 상록구 일동 648번지","indutype":"유통업 영리 - 편 의 점","category":"other"}]},{"lat":"37.303618169","long":"126.86463127","imageIndex":17,"items":[{"name":"씨유상록수밀레니엄점","tel":"031-408-9598","addr":"경기도 안산시 상록구 일동 663-16번지","indutype":"유통업 영리 - 편 의 점","category":"other"}]},{"lat":"37.308817405","long":"126.87287878","imageIndex":17,"items":[{"name":"씨유안산1대학점","tel":"031-407-7068","addr":"경기도 안산시 상록구 일동 610-5번지 1층","indutype":"유통업 영리 - 편 의 점","category":"other"}]},{"lat":"37.315393816","long":"126.87193113","imageIndex":17,"items":[{"name":"씨유안산구룡점","tel":"031-898-6568","addr":"경기도 안산시 상록구 일동 110-8번지 1층","indutype":"유통업 영리 - 편 의 점","category":"other"}]},{"lat":"37.310645218","long":"126.87173631","imageIndex":17,"items":[{"name":"씨유안산대학로점","tel":"031-898-6568","addr":"경기도 안산시 상록구 일동 608-1번지 1층 101,102호","indutype":"유통업 영리 - 편 의 점","category":"other"},{"name":"하나음향","tel":"031-407-2945","addr":"경기도 안산시 상록구 일동 608-1번지 1층 104호","indutype":"전기제품 - 가전제품","category":"other"}]},{"lat":"37.316537056","long":"126.86312977","imageIndex":17,"items":[{"name":"씨유안산일동빌리지점","tel":"031-239-6692","addr":"경기도 안산시 상록구 일동 564-1번지 1층","indutype":"유통업 영리 - 편 의 점","category":"other"}]},{"lat":"37.308705199","long":"126.86921295","imageIndex":17,"items":[{"name":"씨유안산일동센터점","tel":"031-898-6568","addr":"경기도 안산시 상록구 일동 620번지 1층 101호","indutype":"유통업 영리 - 편 의 점","category":"other"},{"name":"일등농심가","tel":"031-418-2355","addr":"경기도 안산시 상록구 일동 620번지","indutype":"유통업 영리 - 기타유통업","category":"other"}]},{"lat":"37.314032941","long":"126.86374357","imageIndex":17,"items":[{"name":"씨유안산일동점","tel":"031-419-3932","addr":"경기도 안산시 상록구 일동 583-9 1층(102호)","indutype":"유통업 영리 - 편 의 점","category":"other"},{"name":"에스케이(SK)텔레콤일동점","tel":"070-7639-8200","addr":"경기도 안산시 상록구 일동 583-9번지 104호","indutype":"사무통신 - 통신기기","category":"other"}]},{"lat":"37.306484321","long":"126.86540432","imageIndex":17,"items":[{"name":"씨유안산일동하트점","tel":"031-403-3780","addr":"경기도 안산시 상록구 일동 650-10번지 1층","indutype":"유통업 영리 - 편 의 점","category":"other"}]},{"lat":"37.3064843212","long":"126.8654043226","imageIndex":17,"items":[{"name":"씨유안산일동하트점","tel":"031-407-3786","addr":"경기도 안산시 상록구 일동 650-10번지","indutype":"도매 및 소매업 - 편의점,담배","category":"other"}]},{"lat":"37.311676072","long":"126.86701927","imageIndex":17,"items":[{"name":"씨유안산지연점","tel":"031-502-2014","addr":"경기도 안산시 상록구 일동 601-7번지 103동 104호","indutype":"유통업 영리 - 편 의 점","category":"other"},{"name":"윤보석","tel":"031-406-0640","addr":"경기도 안산시 상록구 일동 601-7번지","indutype":"신변잡화 - 시계","category":"other"},{"name":"지정서점","tel":"031-406-0454","addr":"경기도 안산시 상록구 일동 601-7번지","indutype":"서적문구 - 일반서적","category":"other"}]},{"lat":"37.316982836","long":"126.85918048","imageIndex":17,"items":[{"name":"씨유안산호동로점","tel":"031-898-6568","addr":"경기도 안산시 상록구 일동 550-5번지 101호","indutype":"유통업 영리 - 편 의 점","category":"other"}]},{"lat":"37.315177908","long":"126.87223609","imageIndex":17,"items":[{"name":"아가페요양원","tel":"031-406-0674","addr":"경기도 안산시 상록구 일동 102-3번지","indutype":"기타의료기관 - 기타의료기관 및 기타","category":"other"}]},{"lat":"37.3154545497","long":"126.8620487860","imageIndex":17,"items":[{"name":"아름다운헤어샵","tel":"","addr":"경기도 안산시 상록구 일동 567-1번지","indutype":"협회 및 단체, 수리 및 기타 개인서","category":"other"}]},{"lat":"37.314365294","long":"126.86287433","imageIndex":17,"items":[{"name":"아산리소경서대리점","tel":"031-415-5211","addr":"경기도 안산시 상록구 일동 579-1번지 103호","indutype":"서적문구 - 문구용품","category":"other"}]},{"lat":"37.309924615","long":"126.87192933","imageIndex":17,"items":[{"name":"아이니셜(I''nitial)","tel":"031-507-6909","addr":"경기도 안산시 상록구 일동 608-8번지 정인빌리지 301호","indutype":"의류 - 정장","category":"other"}]},{"lat":"37.3160324456","long":"126.8630968571","imageIndex":17,"items":[{"name":"아이뿌다","tel":"031-407-7009","addr":"경기도 안산시 상록구 일동 573번지","indutype":"도매 및 소매업 - 아동복, 숙녀복","category":"other"},{"name":"헤어노디","tel":"070-4038-1310","addr":"경기도 안산시 상록구 일동 573번지","indutype":"협회 및 단체, 수리 및 기타 개인서","category":"other"}]},{"lat":"37.3052045444","long":"126.8651246634","imageIndex":17,"items":[{"name":"아장헤어","tel":"031-416-0072","addr":"경기도 안산시 상록구 일동 654-8번지","indutype":"협회 및 단체, 수리 및 기타 개인서","category":"other"}]},{"lat":"37.307256819","long":"126.87123461","imageIndex":17,"items":[{"name":"아주타일","tel":"031-408-8182","addr":"경기도 안산시 상록구 일동 626-11번지 1층","indutype":"건축자재 - 건축용 요업제품","category":"other"}]},{"lat":"37.317563027","long":"126.86212382","imageIndex":17,"items":[{"name":"아크로매틱 (achromatic)","tel":"031-000-0000","addr":"경기도 안산시 상록구 일동 542-10번지 1층","indutype":"의류 - 정장","category":"other"}]},{"lat":"37.3173111709","long":"126.8624852954","imageIndex":17,"items":[{"name":"안미영 헤어샵","tel":"031-406-6836","addr":"경기도 안산시 상록구 일동 542-7번지","indutype":"협회 및 단체, 수리 및 기타 개인서","category":"other"}]},{"lat":"37.309394206","long":"126.87301315","imageIndex":17,"items":[{"name":"안산고속복사","tel":"031-418-4643","addr":"경기도 안산시 상록구 일동 609-9번지","indutype":"서적문구 - 출판 및 인쇄물","category":"other"}]},{"lat":"37.313150618","long":"126.86432051","imageIndex":17,"items":[{"name":"안산열쇠","tel":"031-000-0000","addr":"경기도 안산시 상록구 일동 599-2번지","indutype":"수리서비스 - 기타수리서비스","category":"other"}]},{"lat":"37.3035385595","long":"126.8659059746","imageIndex":17,"items":[{"name":"안산폰사요","tel":"070-7868-8861","addr":"경기도 안산시 상록구 일동 663-8번지","indutype":"도매 및 소매업 - 휴대폰,액세서리","category":"other"}]},{"lat":"37.303538559","long":"126.86590597","imageIndex":17,"items":[{"name":"안산폰싸요","tel":"070-7868-8861","addr":"경기도 안산시 상록구 일동 663-8번지 101호","indutype":"사무통신 - 통신기기","category":"other"}]},{"lat":"37.3130115752","long":"126.8687653739","imageIndex":17,"items":[{"name":"에덴피부샵","tel":"031-409-8773","addr":"경기도 안산시 상록구 일동 88번지","indutype":"협회 및 단체, 수리 및 기타 개인서","category":"other"}]},{"lat":"37.3150049907","long":"126.8628505772","imageIndex":17,"items":[{"name":"에벤에셀","tel":"031-418-2675","addr":"경기도 안산시 상록구 일동 571-1번지","indutype":"협회 및 단체, 수리 및 기타 개인서","category":"other"}]},{"lat":"37.316420891","long":"126.87185037","imageIndex":17,"items":[{"name":"에스앤컨트롤","tel":"","addr":"경기도 안산시 상록구 일동 104-4번지 302호","indutype":"용역 서비스 - 기타용역서비스","category":"other"}]},{"lat":"37.316197914","long":"126.86590557","imageIndex":17,"items":[{"name":"에스컴퍼니","tel":"031-408-9121","addr":"경기도 안산시 상록구 일동 589-10번지 402호","indutype":"용역 서비스 - 기타용역서비스","category":"other"}]},{"lat":"37.31845385","long":"126.86112939","imageIndex":17,"items":[{"name":"에이치디알워터","tel":"","addr":"경기도 안산시 상록구 일동 548-3번지 301호","indutype":"주방용구 - 정수기","category":"other"}]},{"lat":"37.314088139","long":"126.86471362","imageIndex":17,"items":[{"name":"에코디스포져(중앙점)","tel":"031-403-5678","addr":"경기도 안산시 상록구 일동 584-3번지 중앙빌라3차 101호","indutype":"주방용구 - 주방용구","category":"other"}]},{"lat":"37.31595309","long":"126.86457484","imageIndex":17,"items":[{"name":"에프샵","tel":"031-502-0402","addr":"경기도 안산시 상록구 일동 539-4번지 102호","indutype":"의류 - 정장","category":"other"},{"name":"에프샵(F SHOP)","tel":"031-502-0402","addr":"경기도 안산시 상록구 일동 539-4번지 102호","indutype":"의류 - 정장","category":"other"}]},{"lat":"37.3160340502","long":"126.8644618763","imageIndex":17,"items":[{"name":"열쇠집","tel":"031-502-1313","addr":"경기도 안산시 상록구 일동 539-5번지","indutype":"도매 및 소매업 - 열쇠 및 열쇠고리","category":"other"}]},{"lat":"37.31603405","long":"126.86446188","imageIndex":17,"items":[{"name":"열쇠집","tel":"031-502-1313","addr":"경기도 안산시 상록구 일동 539-5번지 103호","indutype":"건축자재 - 목재·석재·철물","category":"other"},{"name":"인디안썸머","tel":"031-485-8228","addr":"경기도 안산시 상록구 일동 539-5번지 102호","indutype":"의류 - 정장","category":"other"}]},{"lat":"37.308339802","long":"126.8728232","imageIndex":17,"items":[{"name":"영인렌탈","tel":"031-415-0221","addr":"경기도 안산시 상록구 일동 628-19번지 선경쉐르빌 201호","indutype":"기타 - 기계공구","category":"other"}]},{"lat":"37.310559053","long":"126.8672356","imageIndex":17,"items":[{"name":"예다원","tel":"","addr":"경기도 안산시 상록구 일동 92-4번지","indutype":"용역 서비스 - 혼례서비스","category":"other"},{"name":"오신","tel":"070-4152-1341","addr":"경기도 안산시 상록구 일동 92-4번지 쌍용개발 101호","indutype":"신변잡화 - 기타잡화","category":"other"}]},{"lat":"37.3151763844","long":"126.8630194750","imageIndex":17,"items":[{"name":"예담떡시루","tel":"070-8944-7341","addr":"경기도 안산시 상록구 일동 572-7번지","indutype":"제조업 - 떡","category":"other"}]},{"lat":"37.315205666","long":"126.8649372","imageIndex":17,"items":[{"name":"오알지","tel":"070-8692-7758","addr":"경기도 안산시 상록구 일동 585-15번지 1층","indutype":"사무통신 - 통신기기","category":"other"}]},{"lat":"37.313897616","long":"126.86359717","imageIndex":17,"items":[{"name":"옷판다","tel":"","addr":"경기도 안산시 상록구 일동 581번지 지하전부","indutype":"의류 - 정장","category":"other"}]},{"lat":"37.3069480109","long":"126.8612976248","imageIndex":17,"items":[{"name":"왕발이 장터","tel":"031-407-8880","addr":"경기도 안산시 상록구 일동 607-9번지","indutype":"도매 및 소매업 - 소매","category":"other"}]},{"lat":"37.305618567","long":"126.8647404","imageIndex":17,"items":[{"name":"용민여객","tel":"","addr":"경기도 안산시 상록구 일동 656-8번지 301호","indutype":"여행 - 관광여행","category":"other"}]},{"lat":"37.308704381","long":"126.86849102","imageIndex":17,"items":[{"name":"우정DC생활용품","tel":"031-417-1553","addr":"경기도 안산시 상록구 일동 621-16번지 (1층및2층)","indutype":"신변잡화 - 기타잡화","category":"other"}]},{"lat":"37.305809783","long":"126.86646584","imageIndex":17,"items":[{"name":"원인테리어","tel":"031-415-6473","addr":"경기도 안산시 상록구 일동 653-10번지 101호","indutype":"건축자재 - 인테리어전문","category":"other"}]},{"lat":"37.311143535","long":"126.86620803","imageIndex":17,"items":[{"name":"월드건축","tel":"031-502-8204","addr":"경기도 안산시 상록구 일동 601-34번지","indutype":"용역 서비스 - 기타용역서비스","category":"other"}]},{"lat":"37.316618666","long":"126.86356958","imageIndex":17,"items":[{"name":"월드크리닝 일동점","tel":"031-406-3339","addr":"경기도 안산시 상록구 일동 540-11번지 1층","indutype":"수리서비스 - 세탁소","category":"other"}]},{"lat":"37.3154192323","long":"126.8626580304","imageIndex":17,"items":[{"name":"월피현대수학교습소","tel":"031-406-9004","addr":"경기도 안산시 상록구 일동 573-5번지","indutype":"교육서비스업 - 수학교습소","category":"other"},{"name":"코코헤어","tel":"","addr":"경기도 안산시 상록구 일동 573-5번지","indutype":"협회 및 단체, 수리 및 기타 개인서","category":"other"}]},{"lat":"37.3142286934","long":"126.8616562412","imageIndex":17,"items":[{"name":"유니드정육식당","tel":"031-1670-8892","addr":"경기도 안산시 상록구 일동 569-7번지","indutype":"도매 및 소매업 - 식육","category":"other"}]},{"lat":"37.306260007","long":"126.86621687","imageIndex":17,"items":[{"name":"유일공조","tel":"070-8186-4473","addr":"경기도 안산시 상록구 일동 652-9번지 103호","indutype":"용역 서비스 - 기타용역서비스","category":"other"}]},{"lat":"37.312064144","long":"126.86757132","imageIndex":17,"items":[{"name":"으뜸종합장식","tel":"031-408-6320","addr":"경기도 안산시 상록구 일동 89-4번지","indutype":"직물 - 카페트,커튼,천막,지물","category":"other"}]},{"lat":"37.316839343","long":"126.85973354","imageIndex":17,"items":[{"name":"은규냉동","tel":"","addr":"경기도 안산시 상록구 일동 551-6번지 올리브하우스 A동 501호","indutype":"용역 서비스 - 기타용역서비스","category":"other"}]},{"lat":"37.3046171917","long":"126.8636819627","imageIndex":17,"items":[{"name":"은혜이불","tel":"031-417-2989","addr":"경기도 안산시 상록구 일동 661번지","indutype":"도매 및 소매업 - 침구류","category":"other"}]},{"lat":"37.3166450183","long":"126.8629941914","imageIndex":17,"items":[{"name":"이경임헤어뱅크","tel":"031-411-5925","addr":"경기도 안산시 상록구 일동 564번지","indutype":"협회 및 단체, 수리 및 기타 개인서","category":"other"}]},{"lat":"37.3052054477","long":"126.8659029513","imageIndex":17,"items":[{"name":"이미숙헤어샵","tel":"031-437-4494","addr":"경기도 안산시 상록구 일동 654-3번지","indutype":"협회 및 단체, 수리 및 기타 개인서","category":"other"}]},{"lat":"37.314726662","long":"126.87157129","imageIndex":17,"items":[{"name":"일광세탁소","tel":"031-417-4040","addr":"경기도 안산시 상록구 일동 113-7번지 1층","indutype":"수리서비스 - 세탁소","category":"other"}]},{"lat":"37.3115587190","long":"126.8668277076","imageIndex":17,"items":[{"name":"일동D.C.백화점","tel":"031-418-0801","addr":"경기도 안산시 상록구 일동 601-8번지","indutype":"도매 및 소매업 - 잡화","category":"other"}]},{"lat":"37.3115053179","long":"126.8674031092","imageIndex":17,"items":[{"name":"일동노래연습장","tel":"031-406-6062","addr":"경기도 안산시 상록구 일동 90번지","indutype":"협회 및 단체, 수리 및 기타 개인서","category":"other"}]},{"lat":"37.3094526624","long":"126.8688732174","imageIndex":17,"items":[{"name":"일동비취사우나","tel":"031-419-4141","addr":"경기도 안산시 상록구 일동 632-9번지","indutype":"협회 및 단체, 수리 및 기타 개인서","category":"other"}]},{"lat":"37.308922446","long":"126.87010369","imageIndex":17,"items":[{"name":"일동인테리어","tel":"031-415-0804","addr":"경기도 안산시 상록구 일동 618-4번지","indutype":"건축자재 - 인테리어전문","category":"other"}]},{"lat":"37.3144479267","long":"126.8641827612","imageIndex":17,"items":[{"name":"일동종합D.C백화점","tel":"031-417-4042","addr":"경기도 안산시 상록구 일동 584번지","indutype":"도매 및 소매업 - 잡화","category":"other"}]},{"lat":"37.314447927","long":"126.86418276","imageIndex":17,"items":[{"name":"일동종합DC백화점","tel":"031-417-4042","addr":"경기도 안산시 상록구 일동 584번지 1층","indutype":"신변잡화 - 기타잡화","category":"other"}]},{"lat":"37.3121453900","long":"126.8677065367","imageIndex":17,"items":[{"name":"일리떡방앗간","tel":"031-409-6560","addr":"경기도 안산시 상록구 일동 89-3번지","indutype":"제조업 - 방앗간","category":"other"}]},{"lat":"37.317253511","long":"126.85948456","imageIndex":17,"items":[{"name":"자은종기령암","tel":"031-409-0937","addr":"경기도 안산시 상록구 일동 550-3번지 성우에이스빌 202호","indutype":"기타 - 비영리/대상","category":"other"}]},{"lat":"37.310011269","long":"126.86884967","imageIndex":17,"items":[{"name":"자은종일월당","tel":"0505-600-8457","addr":"경기도 안산시 상록구 일동 632-13번지 원영빌딩 1층 109호","indutype":"기타 - 비영리/대상","category":"other"},{"name":"조은이엔지","tel":"031-502-3191","addr":"경기도 안산시 상록구 일동 632-13번지 원영빌딩 306호","indutype":"용역 서비스 - 기타용역서비스","category":"other"},{"name":"주식회사 조은이엔지","tel":"031-502-3191","addr":"경기도 안산시 상록구 일동 632-13번지 원영빌딩 306호","indutype":"용역 서비스 - 기타용역서비스","category":"other"},{"name":"진 인테리어","tel":"031-419-4662","addr":"경기도 안산시 상록구 일동 632-13번지 원영빌딩 205호","indutype":"건축자재 - 인테리어전문","category":"other"}]},{"lat":"37.305256956","long":"126.86371462","imageIndex":17,"items":[{"name":"장군통신","tel":"031-407-8810","addr":"경기도 안산시 상록구 일동 659-15번지 102호","indutype":"사무통신 - 통신기기","category":"other"},{"name":"크린팩토리","tel":"031-408-1010","addr":"경기도 안산시 상록구 일동 659-15번지 101호","indutype":"수리서비스 - 세탁소","category":"other"}]},{"lat":"37.310921171","long":"126.86873525","imageIndex":17,"items":[{"name":"전라도집","tel":"031-406-1008","addr":"경기도 안산시 상록구 일동 122-10번지 101호","indutype":"신변잡화 - 액세서리","category":"other"}]},{"lat":"37.315975874","long":"126.86098738","imageIndex":17,"items":[{"name":"정인중기","tel":"","addr":"경기도 안산시 상록구 일동 558-13번지 501호","indutype":"기타 - 기계공구","category":"other"}]},{"lat":"37.31748211","long":"126.86227063","imageIndex":17,"items":[{"name":"정진","tel":"031-502-5945","addr":"경기도 안산시 상록구 일동 542-9번지","indutype":"주방용구 - 주방용구","category":"other"}]},{"lat":"37.3035650409","long":"126.8654321955","imageIndex":17,"items":[{"name":"정혜민헤어","tel":"","addr":"경기도 안산시 상록구 일동 663-11번지","indutype":"협회 및 단체, 수리 및 기타 개인서","category":"other"}]},{"lat":"37.311172868","long":"126.8682159","imageIndex":17,"items":[{"name":"정화인테리어","tel":"031-407-7615","addr":"경기도 안산시 상록구 일동 122-15번지 1층","indutype":"건축자재 - 인테리어전문","category":"other"}]},{"lat":"37.3100663364","long":"126.8697407101","imageIndex":17,"items":[{"name":"제로마트정육점","tel":"031-415-0555","addr":"경기도 안산시 상록구 일동 631-1번지","indutype":"도매 및 소매업 - 식육판매","category":"other"}]},{"lat":"37.316087331","long":"126.86379619","imageIndex":17,"items":[{"name":"제이.원(J.one)","tel":"031-418-7487","addr":"경기도 안산시 상록구 일동 574-3번지 1층","indutype":"의류 - 정장","category":"other"}]},{"lat":"37.304060576","long":"126.86540873","imageIndex":17,"items":[{"name":"제이드레스","tel":"","addr":"경기도 안산시 상록구 일동 664-4번지","indutype":"의류 - 정장","category":"other"}]},{"lat":"37.3149816688","long":"126.8660205865","imageIndex":17,"items":[{"name":"젤라헤어","tel":"031-406-6591","addr":"경기도 안산시 상록구 일동 593-4번지","indutype":"협회 및 단체, 수리 및 기타 개인서","category":"other"}]},{"lat":"37.3092259161","long":"126.8756868358","imageIndex":17,"items":[{"name":"주식회사 테크인","tel":"","addr":"경기도 안산시 상록구 일동 752번지","indutype":"제조업 - 정보통신,CCTV,통신자재","category":"other"},{"name":"행복네트웍스 주식회사","tel":"031-404-0701","addr":"경기도 안산시 상록구 일동 752번지","indutype":"제조업 - 정보통신,CCTV,통신자재","category":"other"}]},{"lat":"37.30392622","long":"126.86609702","imageIndex":17,"items":[{"name":"주식회사오스코라이프","tel":"031-409-0056","addr":"경기도 안산시 상록구 일동 667-3번지 2층","indutype":"신변잡화 - 기타잡화","category":"other"}]},{"lat":"37.310289611","long":"126.86799187","imageIndex":17,"items":[{"name":"주식회사창대","tel":"031-407-3037","addr":"경기도 안산시 상록구 일동 120-7번지","indutype":"서적문구 - 출판 및 인쇄물","category":"other"},{"name":"창대광고기획","tel":"031-502-7555","addr":"경기도 안산시 상록구 일동 120-7번지 2층","indutype":"서적문구 - 출판 및 인쇄물","category":"other"}]},{"lat":"37.315511459","long":"126.86446283","imageIndex":17,"items":[{"name":"준 휘트니스","tel":"031-501-1230","addr":"경기도 안산시 상록구 일동 575-2번지 원인영빌딩 3층","indutype":"회원제형태 - 레져업소","category":"other"}]},{"lat":"37.3093704424","long":"126.8678807074","imageIndex":17,"items":[{"name":"준스크린골프","tel":"","addr":"경기도 안산시 상록구 일동 632번지","indutype":"예술, 스포츠 및 여가관련 서비스업","category":"other"},{"name":"키키카페","tel":"031-501-7722","addr":"경기도 안산시 상록구 일동 632번지","indutype":"협회 및 단체, 수리 및 기타 개인서","category":"other"}]},{"lat":"37.318260579","long":"126.86532647","imageIndex":17,"items":[{"name":"중앙난방관리","tel":"080-098-0404","addr":"경기도 안산시 상록구 일동 534-7번지","indutype":"수리서비스 - 기타수리서비스","category":"other"}]},{"lat":"37.3161430784","long":"126.8732158815","imageIndex":17,"items":[{"name":"중앙메티칼약국","tel":"031-269-9494","addr":"경기도 안산시 상록구 일동 98-4번지","indutype":"도매 및 소매업 - 양약의료기기판매","category":"other"},{"name":"중앙프라자약국","tel":"031-406-7676","addr":"경기도 안산시 상록구 일동 98-4번지","indutype":"도매 및 소매업 - 의약품","category":"other"}]},{"lat":"37.3141224853","long":"126.8632696070","imageIndex":17,"items":[{"name":"지유샵","tel":"02-6340-5359","addr":"경기도 안산시 상록구 일동 580-1번지","indutype":"협회 및 단체, 수리 및 기타 개인서","category":"other"}]},{"lat":"37.3116760719","long":"126.8670192650","imageIndex":17,"items":[{"name":"지정서점","tel":"031-406-0454","addr":"경기도 안산시 상록구 일동 601-7번지","indutype":"도매 및 소매업 - 서점","category":"other"}]},{"lat":"37.306616856","long":"126.87102141","imageIndex":17,"items":[{"name":"진도건어물","tel":"031-501-0716","addr":"경기도 안산시 상록구 일동 625-8번지 201호","indutype":"회원제형태 - 기타1","category":"other"}]},{"lat":"37.3092270622","long":"126.8685690535","imageIndex":17,"items":[{"name":"찬드라미용실","tel":"031-437-8899","addr":"경기도 안산시 상록구 일동 632-4번지","indutype":"협회 및 단체, 수리 및 기타 개인서","category":"other"}]},{"lat":"37.309282449","long":"126.86974209","imageIndex":17,"items":[{"name":"참좋은D/C마트","tel":"031-404-0049","addr":"경기도 안산시 상록구 일동 618-1번지","indutype":"신변잡화 - 기타잡화","category":"other"}]},{"lat":"37.3152319850","long":"126.8643279744","imageIndex":17,"items":[{"name":"창원 목욕탕","tel":"031-409-3329","addr":"경기도 안산시 상록구 일동 576-2번지","indutype":"협회 및 단체, 수리 및 기타 개인서","category":"other"}]},{"lat":"37.3038152568","long":"126.8636608822","imageIndex":17,"items":[{"name":"채식주의자","tel":"031-416-1222","addr":"경기도 안산시 상록구 일동 661-11번지","indutype":"도매 및 소매업 - 과일 및 채소","category":"other"}]},{"lat":"37.3117840387","long":"126.8668837042","imageIndex":17,"items":[{"name":"천사피아노교습소","tel":"031-409-3909","addr":"경기도 안산시 상록구 일동 601-6번지","indutype":"교육서비스업 - 피아노교습소","category":"other"}]},{"lat":"37.3052307061","long":"126.8643801647","imageIndex":17,"items":[{"name":"체리블라썸","tel":"","addr":"경기도 안산시 상록구 일동 659-11번지","indutype":"도매 및 소매업 - 화장품,공예품부자","category":"other"}]},{"lat":"37.3119829228","long":"126.8674586551","imageIndex":17,"items":[{"name":"체인지헤어","tel":"031-416-5562","addr":"경기도 안산시 상록구 일동 89-5번지","indutype":"협회 및 단체, 수리 및 기타 개인서","category":"other"}]},{"lat":"37.304484605","long":"126.8658817","imageIndex":17,"items":[{"name":"최군게임","tel":"070-8865-7900","addr":"경기도 안산시 상록구 일동 666-7번지 1층","indutype":"용역 서비스 - 소프트웨어","category":"other"}]},{"lat":"37.31734349","long":"126.85938286","imageIndex":17,"items":[{"name":"케이스퀘어","tel":"031-406-1455","addr":"경기도 안산시 상록구 일동 550-8번지 동광맨션 202호","indutype":"기타 - 기타 전문점","category":"other"}]},{"lat":"37.315033271","long":"126.86391094","imageIndex":17,"items":[{"name":"코로나","tel":"031-407-6158","addr":"경기도 안산시 상록구 일동 577번지","indutype":"신변잡화 - 기타잡화","category":"other"}]},{"lat":"37.3150607253","long":"126.8642718835","imageIndex":17,"items":[{"name":"코인워시 안산일동점","tel":"031-409-8633","addr":"경기도 안산시 상록구 일동 576-6번지","indutype":"협회 및 단체, 수리 및 기타 개인서","category":"other"},{"name":"해피원노래연습장","tel":"031-408-7701","addr":"경기도 안산시 상록구 일동 576-6번지","indutype":"협회 및 단체, 수리 및 기타 개인서","category":"other"}]},{"lat":"37.306781828","long":"126.86555042","imageIndex":17,"items":[{"name":"쿨웨이(안산점)","tel":"02-111-1111","addr":"경기도 안산시 상록구 일동 650-13번지 403호","indutype":"용역 서비스 - 종합용역","category":"other"}]},{"lat":"37.312534252","long":"126.86895799","imageIndex":17,"items":[{"name":"크린토피아","tel":"031-501-1065","addr":"경기도 안산시 상록구 일동 126-20번지 1층","indutype":"수리서비스 - 세탁소","category":"other"}]},{"lat":"37.3049242271","long":"126.8642679316","imageIndex":17,"items":[{"name":"탑모터스","tel":"031-502-0430","addr":"경기도 안산시 상록구 일동 660-3번지","indutype":"협회 및 단체, 수리 및 기타 개인서","category":"other"}]},{"lat":"37.317311171","long":"126.8624853","imageIndex":17,"items":[{"name":"탑종합인테리어","tel":"031-406-5563","addr":"경기도 안산시 상록구 일동 542-7번지 102호","indutype":"건축자재 - 인테리어전문","category":"other"}]},{"lat":"37.314898964","long":"126.86463317","imageIndex":17,"items":[{"name":"태광","tel":"","addr":"경기도 안산시 상록구 일동 585-12번지","indutype":"용역 서비스 - 기타용역서비스","category":"other"}]},{"lat":"37.315809151","long":"126.86476688","imageIndex":17,"items":[{"name":"태광텔레콤","tel":"031-406-0075","addr":"경기도 안산시 상록구 일동 538-7번지 101호","indutype":"사무통신 - 통신기기","category":"other"}]},{"lat":"37.310175986","long":"126.87110543","imageIndex":17,"items":[{"name":"태영자원","tel":"031-405-7429","addr":"경기도 안산시 상록구 일동 612-1","indutype":"기타 - 기타 전문점","category":"other"}]},{"lat":"37.3157285725","long":"126.8731827501","imageIndex":17,"items":[{"name":"태웅의료기상사","tel":"031-407-7340","addr":"경기도 안산시 상록구 일동 99-1번지","indutype":"도매 및 소매업 - 의료기","category":"other"}]},{"lat":"37.3049510329","long":"126.8640761306","imageIndex":17,"items":[{"name":"태후사랑","tel":"031-407-3390","addr":"경기도 안산시 상록구 일동 660-2번지","indutype":"도매 및 소매업 - 화장품","category":"other"}]},{"lat":"37.315066614","long":"126.86163211","imageIndex":17,"items":[{"name":"펫컴상사","tel":"031-406-7487","addr":"경기도 안산시 상록구 일동 567-5번지","indutype":"문화.취미 - 애완동물","category":"other"},{"name":"현에어컨","tel":"","addr":"경기도 안산시 상록구 일동 567-5번지 204호","indutype":"용역 서비스 - 기타용역서비스","category":"other"}]},{"lat":"37.308670931","long":"126.87079222","imageIndex":17,"items":[{"name":"프로모터스","tel":"031-000-0000","addr":"경기도 안산시 상록구 일동 616-11번지 102호","indutype":"수리서비스 - 레져용품수리","category":"other"}]},{"lat":"37.315864445","long":"126.86582721","imageIndex":17,"items":[{"name":"프리모서점","tel":"031-319-0533","addr":"경기도 안산시 상록구 일동 589-8번지 203호","indutype":"서적문구 - 일반서적","category":"other"},{"name":"프리모서점","tel":"031-319-0533","addr":"경기도 안산시 상록구 일동 589-8번지 203호","indutype":"서적문구 - 일반서적","category":"other"}]},{"lat":"37.307428814","long":"126.87195622","imageIndex":17,"items":[{"name":"플라워스튜디오헵시바","tel":"031-416-1269","addr":"경기도 안산시 상록구 일동 626-2번지 201호","indutype":"문화.취미 - 화원","category":"other"}]},{"lat":"37.309511215","long":"126.87290015","imageIndex":17,"items":[{"name":"픽시(Pick See)","tel":"","addr":"경기도 안산시 상록구 일동 609-8번지 지층","indutype":"의류 - 아동의류","category":"other"}]},{"lat":"37.310228304","long":"126.86954866","imageIndex":17,"items":[{"name":"핑크드림","tel":"070-4028-1351","addr":"경기도 안산시 상록구 일동 630-6번지","indutype":"회원제형태 - 기타1","category":"other"}]},{"lat":"37.3049246756","long":"126.8646514343","imageIndex":17,"items":[{"name":"하나정육점","tel":"031-438-9245","addr":"경기도 안산시 상록구 일동 660-5번지","indutype":"도매 및 소매업 - 식육","category":"other"}]},{"lat":"37.313617315","long":"126.8627629","imageIndex":17,"items":[{"name":"하니펫","tel":"031-407-8875","addr":"경기도 안산시 상록구 일동 580-6번지 1층","indutype":"문화.취미 - 애완동물","category":"other"}]},{"lat":"37.310567234","long":"126.86651364","imageIndex":17,"items":[{"name":"하니펫","tel":"031-407-7077","addr":"경기도 안산시 상록구 일동 118-11번지","indutype":"문화.취미 - 애완동물","category":"other"}]},{"lat":"37.309178234","long":"126.87326168","imageIndex":17,"items":[{"name":"학사복사문구","tel":"031-407-3561","addr":"경기도 안산시 상록구 일동 610번지","indutype":"서적문구 - 문구용품","category":"other"}]},{"lat":"37.315619171","long":"126.87202098","imageIndex":17,"items":[{"name":"한국 아쿠아 안산지사","tel":"031-407-5411","addr":"경기도 안산시 상록구 일동 103번지","indutype":"주방용구 - 정수기","category":"other"}]},{"lat":"37.315229791","long":"126.8624666","imageIndex":17,"items":[{"name":"한국난방ENG","tel":"031-111-1111","addr":"경기도 안산시 상록구 일동 570-1번지","indutype":"수리서비스 - 기타수리서비스","category":"other"}]},{"lat":"37.310225495","long":"126.86707828","imageIndex":17,"items":[{"name":"한국난방관리(주)","tel":"031-501-3072","addr":"경기도 안산시 상록구 일동 118-6번지 2층","indutype":"건축자재 - 보일러·펌프·샷시","category":"other"}]},{"lat":"37.309254948","long":"126.86932477","imageIndex":17,"items":[{"name":"한국난방시스템","tel":"031-409-4403","addr":"경기도 안산시 상록구 일동 618-18번지","indutype":"회원제형태 - 기타4","category":"other"}]},{"lat":"37.309951371","long":"126.87168112","imageIndex":17,"items":[{"name":"한국불교승가종","tel":"02-2677-7765","addr":"경기도 안산시 상록구 일동 608-12번지 비1-3","indutype":"기타 - 비영리/대상","category":"other"}]},{"lat":"37.315286615","long":"126.87276611","imageIndex":17,"items":[{"name":"한국태권도도구수련원","tel":"031-406-7034","addr":"경기도 안산시 상록구 일동 102-11번지 에코타운 403호","indutype":"레져용품 - 스포츠·레져용품","category":"other"}]},{"lat":"37.316704872","long":"126.86029786","imageIndex":17,"items":[{"name":"한빛난방관리","tel":"031-111-1111","addr":"경기도 안산시 상록구 일동 554-4번지 101호","indutype":"용역 서비스 - 기타용역서비스","category":"other"}]},{"lat":"37.3069544942","long":"126.8668247238","imageIndex":17,"items":[{"name":"한승자동차","tel":"031-406-4088","addr":"경기도 안산시 상록구 일동 653-1번지","indutype":"협회 및 단체, 수리 및 기타 개인서","category":"other"}]},{"lat":"37.3122808","long":"126.86793191","imageIndex":17,"items":[{"name":"한일전기","tel":"031-406-6725","addr":"경기도 안산시 상록구 일동 89-1번지","indutype":"건축자재 - 조명기구","category":"other"}]},{"lat":"37.3122808005","long":"126.8679319066","imageIndex":17,"items":[{"name":"한일전기","tel":"031-406-6725","addr":"경기도 안산시 상록구 일동 89-1번지","indutype":"도매 및 소매업 - 기타조명기구및전기","category":"other"}]},{"lat":"37.3161476075","long":"126.8614383087","imageIndex":17,"items":[{"name":"해피미용실","tel":"031-419-5313","addr":"경기도 안산시 상록구 일동 559-7번지","indutype":"협회 및 단체, 수리 및 기타 개인서","category":"other"}]},{"lat":"37.315282818","long":"126.86159786","imageIndex":17,"items":[{"name":"해피크린케어","tel":"","addr":"경기도 안산시 상록구 일동 567-15번지 202호","indutype":"용역 서비스 - 종합용역","category":"other"}]},{"lat":"37.317975769","long":"126.86067902","imageIndex":17,"items":[{"name":"햇빛요양원","tel":"031-408-3400","addr":"경기도 안산시 상록구 일동 552-13번지","indutype":"기타의료기관 - 기타의료기관 및 기타","category":"other"}]},{"lat":"37.310123213","long":"126.8722674","imageIndex":17,"items":[{"name":"허리우드전자","tel":"031-407-2208","addr":"경기도 안산시 상록구 일동 609-3번지","indutype":"수리서비스 - 가정용품수리","category":"other"}]},{"lat":"37.3089769374","long":"126.8704871191","imageIndex":17,"items":[{"name":"헤어스타일","tel":"031-419-9397","addr":"경기도 안산시 상록구 일동 615-11번지","indutype":"협회 및 단체, 수리 및 기타 개인서","category":"other"}]},{"lat":"37.3070672658","long":"126.8709303809","imageIndex":17,"items":[{"name":"헤어아르떼","tel":"","addr":"경기도 안산시 상록구 일동 623번지","indutype":"협회 및 단체, 수리 및 기타 개인서","category":"other"}]},{"lat":"37.3118114448","long":"126.8672107907","imageIndex":17,"items":[{"name":"헤어피카소","tel":"031-409-4094","addr":"경기도 안산시 상록구 일동 89-7번지","indutype":"협회 및 단체, 수리 및 기타 개인서","category":"other"}]},{"lat":"37.304095974","long":"126.86485598","imageIndex":17,"items":[{"name":"현대상사","tel":"031-406-4557","addr":"경기도 안산시 상록구 일동 664-1번지 503호","indutype":"건축자재 - 기타건축자재","category":"other"}]},{"lat":"37.310424068","long":"126.86738249","imageIndex":17,"items":[{"name":"현우원단","tel":"","addr":"경기도 안산시 상록구 일동 92-5번지 오앤디빌 101호","indutype":"직물 - 옷감·직물","category":"other"}]},{"lat":"37.3053664389","long":"126.8648762173","imageIndex":17,"items":[{"name":"형제쌀상회","tel":"","addr":"경기도 안산시 상록구 일동 659-7번지","indutype":"도매 및 소매업 - 쌀,김치","category":"other"}]},{"lat":"37.3112602241","long":"126.8658242843","imageIndex":17,"items":[{"name":"호동건강원","tel":"031-419-7993","addr":"경기도 안산시 상록구 일동 601-37번지","indutype":"협회 및 단체, 수리 및 기타 개인서","category":"other"}]},{"lat":"37.316031885","long":"126.86262305","imageIndex":17,"items":[{"name":"호클바이오(HOCL Bio)","tel":"031-408-5779","addr":"경기도 안산시 상록구 일동 564-6번지 103호","indutype":"전기제품 - 가전제품","category":"other"}]},{"lat":"37.303898968","long":"126.86590532","imageIndex":17,"items":[{"name":"홍코리아","tel":"031-501-8032","addr":"경기도 안산시 상록구 일동 667-11번지 203호","indutype":"의류 - 정장","category":"other"}]},{"lat":"37.306393536","long":"126.86481794","imageIndex":17,"items":[{"name":"화이트21","tel":"031-416-1482","addr":"경기도 안산시 상록구 일동 657-18번지","indutype":"수리서비스 - 세탁소","category":"other"}]},{"lat":"37.3063935364","long":"126.8648179416","imageIndex":17,"items":[{"name":"화이트21","tel":"031-416-1482","addr":"경기도 안산시 상록구 일동 657-18번지","indutype":"협회 및 단체, 수리 및 기타 개인서","category":"other"}]},{"lat":"37.309257159","long":"126.8712988","imageIndex":17,"items":[{"name":"황금열쇠","tel":"02-994-3536","addr":"경기도 안산시 상록구 일동 613-15번지 102호","indutype":"수리서비스 - 기타수리서비스","category":"other"}]},{"lat":"37.3080954192","long":"126.8718197035","imageIndex":17,"items":[{"name":"효원지물인테리어","tel":"031-406-6197","addr":"경기도 안산시 상록구 일동 616-3번지","indutype":"도매 및 소매업 - 지물,장판","category":"other"}]},{"lat":"37.308095419","long":"126.8718197","imageIndex":17,"items":[{"name":"효원지물인테리어","tel":"031-406-6197","addr":"경기도 안산시 상록구 일동 616-3번지","indutype":"직물 - 카페트,커튼,천막,지물","category":"other"}]},{"lat":"37.315451816","long":"126.85977001","imageIndex":17,"items":[{"name":"흙광고기획","tel":"031-416-0563","addr":"경기도 안산시 상록구 일동 557-11번지","indutype":"용역 서비스 - 종합용역","category":"other"}]},{"lat":"37.3133137494","long":"126.8651324295","imageIndex":17,"items":[{"name":"희경피아노교습소","tel":"031-406-1333","addr":"경기도 안산시 상록구 일동 598-4번지","indutype":"교육서비스업 - 피아노교습소","category":"other"}]}]