[{"lat":"37.159384609","long":"126.96970506","imageIndex":17,"items":[{"name":"(주)신나라종합물류","tel":"031-352-5024","addr":"경기도 화성시 정남면 문학리 531-12번지 102호","indutype":"레져용품 - 골프용품 전문점","category":"other"},{"name":"신일천막산업","tel":"031-354-5120","addr":"경기도 화성시 정남면 문학리 531-12번지 나동","indutype":"직물 - 카페트,커튼,천막,지물","category":"other"}]},{"lat":"37.152282747","long":"126.96434992","imageIndex":17,"items":[{"name":"(주)토탈모빌리티","tel":"031-353-1663","addr":"경기도 화성시 정남면 문학리 278-3번지","indutype":"기타 - 기계공구","category":"other"}]},{"lat":"37.150858204","long":"126.96170534","imageIndex":17,"items":[{"name":"GS25정남서봉로점","tel":"","addr":"경기도 화성시 정남면 문학리 286-13번지 1층","indutype":"유통업 영리 - 편 의 점","category":"other"},{"name":"씨에스툴링","tel":"031-354-6239","addr":"경기도 화성시 정남면 문학리 286-13번지 1층 102호","indutype":"기타 - 기계공구","category":"other"}]},{"lat":"37.147445953","long":"126.97045317","imageIndex":17,"items":[{"name":"SC워크","tel":"031-352-6978","addr":"경기도 화성시 정남면 문학리 88","indutype":"건축자재 - 기타건축자재","category":"other"}]},{"lat":"37.152086384","long":"126.97059753","imageIndex":17,"items":[{"name":"건영와이어컷팅","tel":"031-000-0000","addr":"경기도 화성시 정남면 문학리 340번지","indutype":"기타 - 기계공구","category":"other"}]},{"lat":"37.151140545","long":"126.971566","imageIndex":17,"items":[{"name":"남호","tel":"031-354-7918","addr":"경기도 화성시 정남면 문학리 351-1번지 나동","indutype":"기타 - 기계공구","category":"other"}]},{"lat":"37.156752663","long":"126.96665543","imageIndex":17,"items":[{"name":"대성어패럴","tel":"031-353-6793","addr":"경기도 화성시 정남면 문학리 506-3번지 1층","indutype":"의류 - 단체복","category":"other"}]},{"lat":"37.151358011","long":"126.97656388","imageIndex":17,"items":[{"name":"대원레이저","tel":"031-354-8408","addr":"경기도 화성시 정남면 문학리 366-4번지","indutype":"기타 - 기계공구","category":"other"}]},{"lat":"37.151113608","long":"126.97192623","imageIndex":17,"items":[{"name":"대원콤프레샤","tel":"031-984-8552","addr":"경기도 화성시 정남면 문학리 350-1번지","indutype":"기타 - 기계공구","category":"other"}]},{"lat":"37.148471864","long":"126.9660628","imageIndex":17,"items":[{"name":"디아이테크","tel":"031-373-3163","addr":"경기도 화성시 정남면 문학리 200-1번지 B동","indutype":"전기제품 - 기타전기제품","category":"other"},{"name":"해냄이엔지/원격지","tel":"031-8059-2452","addr":"경기도 화성시 정남면 문학리 200-1번지","indutype":"기타 - 기타 전문점","category":"other"}]},{"lat":"37.150113226","long":"126.97109366","imageIndex":17,"items":[{"name":"로얄테크","tel":"031-354-6124","addr":"경기도 화성시 정남면 문학리 347-1번지 2동","indutype":"레져용품 - 스포츠·레져용품","category":"other"}]},{"lat":"37.15164258","long":"126.96306698","imageIndex":17,"items":[{"name":"미니스톱 화성문학대로점","tel":"031-1577-9621","addr":"경기도 화성시 정남면 문학리 284-1번지","indutype":"유통업 영리 - 편 의 점","category":"other"}]},{"lat":"37.158330053","long":"126.96853471","imageIndex":17,"items":[{"name":"미주","tel":"02-952-8142","addr":"경기도 화성시 정남면 문학리 525-1번지","indutype":"회원제형태 - 서적","category":"other"}]},{"lat":"37.160222725","long":"126.97022256","imageIndex":17,"items":[{"name":"바로공구","tel":"031-234-8509","addr":"경기도 화성시 정남면 문학리 531-9번지 2동 1호","indutype":"기타 - 기계공구","category":"other"}]},{"lat":"37.151393613","long":"126.97465023","imageIndex":17,"items":[{"name":"부일기아","tel":"031-8059-5246","addr":"경기도 화성시 정남면 문학리 393-2","indutype":"기타 - 기계공구","category":"other"}]},{"lat":"37.159168484","long":"126.97015546","imageIndex":17,"items":[{"name":"삼농엔지니어링","tel":"031-366-4252","addr":"경기도 화성시 정남면 문학리 531-16번지","indutype":"기타 - 기계공구","category":"other"}]},{"lat":"37.153671557","long":"126.96823288","imageIndex":17,"items":[{"name":"성민엔지니어링","tel":"031-831-3955","addr":"경기도 화성시 정남면 문학리 329번지","indutype":"전기제품 - 기타전기제품","category":"other"}]},{"lat":"37.159303289","long":"126.96890578","imageIndex":17,"items":[{"name":"세계만물공구","tel":"031-358-6682","addr":"경기도 화성시 정남면 문학리 532-3번지 1층","indutype":"기타 - 기계공구","category":"other"}]},{"lat":"37.157662795","long":"126.96690266","imageIndex":17,"items":[{"name":"수원종합기계","tel":"031-353-9963","addr":"경기도 화성시 정남면 문학리 509-8번지 A동 509-9호 B동","indutype":"기타 - 기계공구","category":"other"}]},{"lat":"37.152723475","long":"126.96200826","imageIndex":17,"items":[{"name":"수호프렌즈","tel":"","addr":"경기도 화성시 정남면 문학리 604-3번지 B동 1층","indutype":"농업 - 농기계","category":"other"}]},{"lat":"37.155031964","long":"126.96764689","imageIndex":17,"items":[{"name":"시온테크","tel":"031-8059-6448","addr":"경기도 화성시 정남면 문학리 466번지","indutype":"기타 - 기계공구","category":"other"},{"name":"협성전기","tel":"","addr":"경기도 화성시 정남면 문학리 466번지 1층","indutype":"수리서비스 - 기타수리서비스","category":"other"}]},{"lat":"37.156392378","long":"126.96709464","imageIndex":17,"items":[{"name":"씨유화성문학교차로점","tel":"080-080-3663","addr":"경기도 화성시 정남면 문학리 461-14번지 1층","indutype":"유통업 영리 - 편 의 점","category":"other"}]},{"lat":"37.150834707","long":"126.97359232","imageIndex":17,"items":[{"name":"씨유화성봉황점","tel":"080-080-3663","addr":"경기도 화성시 정남면 문학리 356번지","indutype":"유통업 영리 - 편 의 점","category":"other"}]},{"lat":"37.151748071","long":"126.95587387","imageIndex":17,"items":[{"name":"아이스크린테크","tel":"031-657-4135","addr":"경기도 화성시 정남면 문학리 667-3번지","indutype":"주방용구 - 주방용구","category":"other"}]},{"lat":"37.150362857","long":"126.96236974","imageIndex":17,"items":[{"name":"에스씨e","tel":"031-2853-0125","addr":"경기도 화성시 정남면 문학리 223-13번지 B1동","indutype":"전기제품 - 기타전기제품","category":"other"}]},{"lat":"37.156391924","long":"126.96561992","imageIndex":17,"items":[{"name":"영재종합유통","tel":"031-352-4849","addr":"경기도 화성시 정남면 문학리 501-8번지 C동","indutype":"유통업 영리 - 기타유통업","category":"other"}]},{"lat":"37.155914817","long":"126.96707235","imageIndex":17,"items":[{"name":"오성","tel":"031-353-5688","addr":"경기도 화성시 정남면 문학리 461-6번지","indutype":"전기제품 - 기타전기제품","category":"other"}]},{"lat":"37.152972372","long":"126.95312642","imageIndex":17,"items":[{"name":"오성산업","tel":"","addr":"경기도 화성시 정남면 문학리 662-3번지","indutype":"직물 - 기타직물","category":"other"}]},{"lat":"37.152086068","long":"126.9694606","imageIndex":17,"items":[{"name":"와이지에스디(YGSD)테크","tel":"031-353-3481","addr":"경기도 화성시 정남면 문학리 261-1번지","indutype":"기타 - 기계공구","category":"other"},{"name":"주식회사 제이에스메탈","tel":"031-111-1111","addr":"경기도 화성시 정남면 문학리 261-1번지","indutype":"용역 서비스 - 기타용역서비스","category":"other"},{"name":"평화테크","tel":"031-353-9318","addr":"경기도 화성시 정남면 문학리 261-1번지","indutype":"기타 - 기계공구","category":"other"}]},{"lat":"37.1515828","long":"126.97451508","imageIndex":17,"items":[{"name":"용접나라(3공장)","tel":"031-8059-1638","addr":"경기도 화성시 정남면 문학리 393번지 D","indutype":"기타 - 기계공구","category":"other"}]},{"lat":"37.152527729","long":"126.96998947","imageIndex":17,"items":[{"name":"우리건드릴","tel":"031-8047-0157","addr":"경기도 화성시 정남면 문학리 335-3번지 B동","indutype":"기타 - 기계공구","category":"other"}]},{"lat":"37.151609044","long":"126.97139696","imageIndex":17,"items":[{"name":"우리수지","tel":"031-8059-7768","addr":"경기도 화성시 정남면 문학리 404-2번지","indutype":"기타 - 기계공구","category":"other"}]},{"lat":"37.15086199","long":"126.97462791","imageIndex":17,"items":[{"name":"우성샤링","tel":"031-352-5126","addr":"경기도 화성시 정남면 문학리 362","indutype":"건축자재 - 목재·석재·철물","category":"other"}]},{"lat":"37.14697393","long":"126.9595688","imageIndex":17,"items":[{"name":"유클린(U-Clean)","tel":"","addr":"경기도 화성시 정남면 문학리 714-27번지","indutype":"기타 - 기계공구","category":"other"}]},{"lat":"37.148254112","long":"126.96151539","imageIndex":17,"items":[{"name":"인광스프링","tel":"031-353-6421","addr":"경기도 화성시 정남면 문학리 220-3 1층A","indutype":"건축자재 - 기타건축자재","category":"other"}]},{"lat":"37.152221442","long":"126.97023726","imageIndex":17,"items":[{"name":"인성(    )정밀","tel":"031-366-5306","addr":"경기도 화성시 정남면 문학리 341-2번지","indutype":"기타 - 기계공구","category":"other"}]},{"lat":"37.152058244","long":"126.96675898","imageIndex":17,"items":[{"name":"제이엔씨","tel":"031-644-7491","addr":"경기도 화성시 정남면 문학리 269-3번지","indutype":"기타 - 기계공구","category":"other"}]},{"lat":"37.150834348","long":"126.97217399","imageIndex":17,"items":[{"name":"주식회사 프로파일테크","tel":"031-354-9356","addr":"경기도 화성시 정남면 문학리 350-16번지 1동","indutype":"건축자재 - 인테리어전문","category":"other"}]},{"lat":"37.151944827","long":"126.9522941","imageIndex":17,"items":[{"name":"지브이솔루션","tel":"031-309-9922","addr":"경기도 화성시 정남면 문학리 659-2번지","indutype":"건축자재 - 보일러·펌프·샷시","category":"other"}]},{"lat":"37.159723888","long":"126.95998933","imageIndex":17,"items":[{"name":"태권코리아","tel":"031-231-9896","addr":"경기도 화성시 정남면 문학리 568-1번지","indutype":"레져용품 - 스포츠·레져용품","category":"other"}]},{"lat":"37.157059094","long":"126.96690295","imageIndex":17,"items":[{"name":"태안천막건축","tel":"031-374-9405","addr":"경기도 화성시 정남면 문학리 508-2","indutype":"건축자재 - 기타건축자재","category":"other"}]},{"lat":"37.152246402","long":"126.96342688","imageIndex":17,"items":[{"name":"평산종합상사","tel":"031-353-7812","addr":"경기도 화성시 정남면 문학리 295-10","indutype":"기타 - 기타 전문점","category":"other"}]},{"lat":"37.156050001","long":"126.96716235","imageIndex":17,"items":[{"name":"한신콤프레샤","tel":"031-298-4907","addr":"경기도 화성시 정남면 문학리 461-6 1-103","indutype":"기타 - 기계공구","category":"other"}]},{"lat":"37.148748402","long":"126.95798065","imageIndex":17,"items":[{"name":"협성유리","tel":"031-234-0702","addr":"경기도 화성시 정남면 문학리 694-4번지 외1필지","indutype":"건축자재 - 유리","category":"other"}]},{"lat":"37.149364834","long":"126.9692029","imageIndex":17,"items":[{"name":"혜성공업사","tel":"031-239-0184","addr":"경기도 화성시 정남면 문학리 144-5번지","indutype":"기타 - 기계공구","category":"other"}]},{"lat":"37.154059106","long":"126.96857042","imageIndex":17,"items":[{"name":"화남 레이져 조각","tel":"031-359-8247","addr":"경기도 화성시 정남면 문학리 433번지","indutype":"기타 - 기계공구","category":"other"}]},{"lat":"37.155058824","long":"126.96707276","imageIndex":0,"items":[{"name":"JK모터스","tel":"031-352-9907","addr":"경기도 화성시 정남면 문학리 468-10번지","indutype":"자동차정비 유지 - 자동차정비","category":"car"}]},{"lat":"37.150858204","long":"126.96170534","imageIndex":0,"items":[{"name":"모릭스오일","tel":"031-354-2751","addr":"경기도 화성시 정남면 문학리 286-13번지 경기빌딩 103호","indutype":"자동차정비 유지 - 윤활유 전문 판매","category":"car"}]},{"lat":"37.15164258","long":"126.96306698","imageIndex":0,"items":[{"name":"카와라자동차용품","tel":"070-8848-3981","addr":"경기도 화성시 정남면 문학리 284-1번지","indutype":"자동차정비 유지 - 자동차부품","category":"car"}]},{"lat":"37.159166118","long":"126.96248888","imageIndex":0,"items":[{"name":"한진유화","tel":"031-366-4170","addr":"경기도 화성시 정남면 문학리 569번지","indutype":"자동차정비 유지 - 자동차부품","category":"car"}]},{"lat":"37.154445629","long":"126.9655083","imageIndex":0,"items":[{"name":"현대오토클럽","tel":"031-353-7140","addr":"경기도 화성시 정남면 문학리 321-1번지","indutype":"자동차정비 유지 - 자동차정비","category":"car"}]},{"lat":"37.155914817","long":"126.96707235","imageIndex":4,"items":[{"name":"강릉옹심이메밀칼국수","tel":"031-353-9938","addr":"경기도 화성시 정남면 문학리 461-6번지 1층 일부호","indutype":"일반휴게음식 - 일반한식","category":"restaurant"}]},{"lat":"37.152282201","long":"126.96270642","imageIndex":4,"items":[{"name":"따뜻한밥상","tel":"031-8059-2354","addr":"경기도 화성시 정남면 문학리 294-21번지","indutype":"일반휴게음식 - 일반한식","category":"restaurant"}]},{"lat":"37.154553808","long":"126.96567711","imageIndex":4,"items":[{"name":"미가웰빙한식뷔페","tel":"031-353-6640","addr":"경기도 화성시 정남면 문학리 321-23번지","indutype":"일반휴게음식 - 일반한식","category":"restaurant"}]},{"lat":"37.150946511","long":"126.95681992","imageIndex":4,"items":[{"name":"서봉산밥집","tel":"031-353-5971","addr":"경기도 화성시 정남면 문학리 681번지","indutype":"일반휴게음식 - 일반한식","category":"restaurant"}]},{"lat":"37.159384609","long":"126.96970506","imageIndex":4,"items":[{"name":"세종한식부페","tel":"031-354-2807","addr":"경기도 화성시 정남면 문학리 531-12번지 1층","indutype":"일반휴게음식 - 일반한식","category":"restaurant"}]},{"lat":"37.152976129","long":"126.96306628","imageIndex":4,"items":[{"name":"송탄정가부대찌개코다리찜","tel":"031-354-2432","addr":"경기도 화성시 정남면 문학리 294-17번지","indutype":"일반휴게음식 - 일반한식","category":"restaurant"}]},{"lat":"37.155275207","long":"126.96751169","imageIndex":4,"items":[{"name":"순이네닭칼국수","tel":"031-352-2399","addr":"경기도 화성시 정남면 문학리 463-2번지","indutype":"일반휴게음식 - 일반한식","category":"restaurant"}]},{"lat":"37.151444369","long":"126.96312336","imageIndex":4,"items":[{"name":"장금이한식뷔페","tel":"031-8059-0148","addr":"경기도 화성시 정남면 문학리 285번지","indutype":"일반휴게음식 - 일반한식","category":"restaurant"}]},{"lat":"37.158501034","long":"126.96779163","imageIndex":4,"items":[{"name":"전학우 신동태탕","tel":"031-111-1111","addr":"경기도 화성시 정남면 문학리 524-7번지 1동 1층","indutype":"일반휴게음식 - 일반한식","category":"restaurant"}]},{"lat":"37.154310199","long":"126.96465283","imageIndex":4,"items":[{"name":"종가집한식부페","tel":"031-353-6429","addr":"경기도 화성시 정남면 문학리 475-5번지 2층","indutype":"일반휴게음식 - 일반한식","category":"restaurant"}]},{"lat":"37.15450053","long":"126.96826628","imageIndex":4,"items":[{"name":"짱좋은한식부페","tel":"013-352-1469","addr":"경기도 화성시 정남면 문학리 435-2번지","indutype":"일반휴게음식 - 일반한식","category":"restaurant"}]},{"lat":"37.149915714","long":"126.9738966","imageIndex":4,"items":[{"name":"청미한식뷔페","tel":"031-354-9993","addr":"경기도 화성시 정남면 문학리 36-1번지","indutype":"일반휴게음식 - 일반한식","category":"restaurant"}]},{"lat":"37.161087701","long":"126.97012086","imageIndex":4,"items":[{"name":"촌닭치킨","tel":"031-353-7665","addr":"경기도 화성시 정남면 문학리 537-1번지","indutype":"일반휴게음식 - 일반한식","category":"restaurant"}]},{"lat":"37.155499334","long":"126.96389799","imageIndex":7,"items":[{"name":"대승정육점","tel":"031-1111-1111","addr":"경기도 화성시 정남면 문학리 486","indutype":"음료식품 - 정육점","category":"food"}]},{"lat":"37.159384609","long":"126.96970506","imageIndex":7,"items":[{"name":"동원그린식자재","tel":"02-892-0700","addr":"경기도 화성시 정남면 문학리 531-12번지 나동 일부","indutype":"음료식품 - 기타음료식품","category":"food"}]},{"lat":"37.152782524","long":"126.95165189","imageIndex":7,"items":[{"name":"드래곤통상","tel":"031-352-0251","addr":"경기도 화성시 정남면 문학리 658-13번지","indutype":"음료식품 - 기타음료식품","category":"food"}]},{"lat":"37.154833262","long":"126.96609349","imageIndex":7,"items":[{"name":"주식회사 대한물산","tel":"031-1600-8973","addr":"경기도 화성시 정남면 문학리 323-1,101","indutype":"음료식품 - 농·축·수산품","category":"food"}]},{"lat":"37.152586057","long":"126.95590712","imageIndex":7,"items":[{"name":"주식회사 데일리후레쉬","tel":"031-352-8058","addr":"경기도 화성시 정남면 문학리 643번지","indutype":"음료식품 - 기타음료식품","category":"food"}]},{"lat":"37.160024477","long":"126.97015509","imageIndex":8,"items":[{"name":"산약초","tel":"031-352-1673","addr":"경기도 화성시 정남면 문학리 531-9번지 1동 1,2호","indutype":"약국 - 한약방","category":"medical"}]},{"lat":"37.154669535","long":"126.9614331","imageIndex":13,"items":[{"name":"어울림자마","tel":"031-359-9364","addr":"경기도 화성시 정남면 문학리 592-1번지","indutype":"레저업소 - 기타레져업소","category":"leisure"}]},{"lat":"37.152976129","long":"126.96306628","imageIndex":7,"items":[{"name":"오렌지마트","tel":"031-352-1605","addr":"경기도 화성시 정남면 문학리 294-17","indutype":"유통업 영리 - 슈퍼마켓","category":"mart"}]},{"lat":"37.160610329","long":"126.97078529","imageIndex":7,"items":[{"name":"플러스상회","tel":"031-374-8814","addr":"경기도 화성시 정남면 문학리 531-6번지","indutype":"유통업 영리 - 슈퍼마켓","category":"mart"}]}]