[{"lat":"37.251767292","long":"127.07740976","imageIndex":0,"items":[{"name":"(주) 우진시스템","tel":"031-204-7400","addr":"경기도 수원시 영통구 영통동 1012-1번지 영통역 아이파크 지하2층 1호","indutype":"자동차정비 유지 - 주차장","category":"car"},{"name":"영통역 아이파크 관리단","tel":"031-204-7400","addr":"경기도 수원시 영통구 영통동 1012-1번지 지하2층 관리사무소","indutype":"자동차정비 유지 - 주차장","category":"car"}]},{"lat":"37.247910259","long":"127.07838654","imageIndex":0,"items":[{"name":"(주)마이즈텍","tel":"031-202-1149","addr":"경기도 수원시 영통구 영통동 1024-14번지 경희유니빌 1104호","indutype":"자동차정비 유지 - 자동차부품","category":"car"}]},{"lat":"37.252045782","long":"127.07871755","imageIndex":0,"items":[{"name":"A1AUTOSERVICE","tel":"031-273-8581","addr":"경기도 수원시 영통구 영통동 1034-13번지","indutype":"자동차정비 유지 - 자동차정비","category":"car"}]},{"lat":"37.250047728","long":"127.07514253","imageIndex":0,"items":[{"name":"NK디젤","tel":"031-205-8585","addr":"경기도 수원시 영통구 영통동 1003-13번지 1층","indutype":"자동차정비 유지 - 자동차정비","category":"car"},{"name":"크로바카센타","tel":"031-205-8585","addr":"경기도 수원시 영통구 영통동 1003-13번지","indutype":"자동차정비 유지 - 자동차부품","category":"car"}]},{"lat":"37.255264238","long":"127.07589147","imageIndex":0,"items":[{"name":"autoOasis영통점","tel":"031-273-0864","addr":"경기도 수원시 영통구 영통동 996-2번지","indutype":"자동차정비 유지 - 자동차정비","category":"car"}]},{"lat":"37.25423684","long":"127.07625118","imageIndex":0,"items":[{"name":"공영주차장","tel":"070-8197-7008","addr":"경기도 수원시 영통구 영통동 997번지 수원우편집중국","indutype":"자동차정비 유지 - 주차장","category":"car"},{"name":"영통노상주차장","tel":"031-111-1111","addr":"경기도 수원시 영통구 영통동 997번지","indutype":"자동차정비 유지 - 주차장","category":"car"}]},{"lat":"37.249794276","long":"127.07702459","imageIndex":0,"items":[{"name":"곽오토바이","tel":"031-206-8355","addr":"경기도 수원시 영통구 영통동 1014-1번지","indutype":"자동차판매 - 이륜차판매","category":"car"}]},{"lat":"37.257018365","long":"127.06516186","imageIndex":0,"items":[{"name":"금성카모터스","tel":"031-205-0964","addr":"경기도 수원시 영통구 영통동 64-8번지","indutype":"자동차정비 유지 - 자동차정비","category":"car"}]},{"lat":"37.251987415","long":"127.07097388","imageIndex":0,"items":[{"name":"뉴월드프라자 번영회","tel":"031-202-7225","addr":"경기도 수원시 영통구 영통동 960-3번지 뉴월드프라자","indutype":"자동차정비 유지 - 주차장","category":"car"}]},{"lat":"37.253266139","long":"127.07224875","imageIndex":0,"items":[{"name":"다모아 프라자 관리협의회","tel":"031-203-8712","addr":"경기도 수원시 영통구 영통동 959-4번지 다모아프라자 1층","indutype":"자동차정비 유지 - 주차장","category":"car"}]},{"lat":"37.246102066","long":"127.05658711","imageIndex":0,"items":[{"name":"대우자동차신영통영업","tel":"031-206-6868","addr":"경기도 수원시 영통구 영통동 979-7번지","indutype":"자동차판매 - 국산신차판매","category":"car"},{"name":"주식회사 씨엠오오토파트","tel":"031-206-2040","addr":"경기도 수원시 영통구 영통동 979-7번지","indutype":"자동차정비 유지 - 자동차부품","category":"car"}]},{"lat":"37.256991435","long":"127.06497021","imageIndex":0,"items":[{"name":"동서자동차종합칼라","tel":"031-204-4664","addr":"경기도 수원시 영통구 영통동 64-7번지","indutype":"자동차정비 유지 - 자동차부품","category":"car"}]},{"lat":"37.255850672","long":"127.07464082","imageIndex":0,"items":[{"name":"드림피아번영회","tel":"070-4755-8741","addr":"경기도 수원시 영통구 영통동 958-1번지 드림피아빌딩 9층","indutype":"자동차정비 유지 - 주차장","category":"car"}]},{"lat":"37.244991866","long":"127.06068881","imageIndex":0,"items":[{"name":"디지털엠파이어협의회","tel":"031-303-8114","addr":"경기도 수원시 영통구 영통동 980-3번지 디지털엠파이어빌딩 F동 3층","indutype":"자동차정비 유지 - 주차장","category":"car"}]},{"lat":"37.252487019","long":"127.07913504","imageIndex":0,"items":[{"name":"리메이커","tel":"031-273-7982","addr":"경기도 수원시 영통구 영통동 1044-8번지 1층","indutype":"자동차정비 유지 - 가타자동차서비스","category":"car"}]},{"lat":"37.25245966","long":"127.07964224","imageIndex":0,"items":[{"name":"매직터치영통점","tel":"031-204-7233","addr":"경기도 수원시 영통구 영통동 1033-5번지","indutype":"자동차정비 유지 - 카인테리어","category":"car"}]},{"lat":"37.251543528","long":"127.07499743","imageIndex":0,"items":[{"name":"매직프라자관리단","tel":"031-203-1139","addr":"경기도 수원시 영통구 영통동 1009-6번지 매직프라자 1층 관리사무소","indutype":"자동차정비 유지 - 주차장","category":"car"}]},{"lat":"37.257180491","long":"127.06527472","imageIndex":0,"items":[{"name":"메아리 세차광택","tel":"02-1577-0000","addr":"경기도 수원시 영통구 영통동 64-9번지 1층","indutype":"자동차정비 유지 - 세차장","category":"car"},{"name":"써클케이모터스","tel":"031-203-1382","addr":"경기도 수원시 영통구 영통동 64-9번지","indutype":"자동차정비 유지 - 자동차정비","category":"car"}]},{"lat":"37.254463837","long":"127.07338831","imageIndex":0,"items":[{"name":"수원영통모던타운관리협의회","tel":"031-203-8600","addr":"경기도 수원시 영통구 영통동 959-1번지 지하1층","indutype":"자동차정비 유지 - 주차장","category":"car"}]},{"lat":"37.249659501","long":"127.07641581","imageIndex":0,"items":[{"name":"스타트라인","tel":"031-204-3996","addr":"경기도 수원시 영통구 영통동 1005-12번지 1층 영일로21번길 8-6,1층","indutype":"자동차정비 유지 - 자동차정비","category":"car"}]},{"lat":"37.253379039","long":"127.07913594","imageIndex":0,"items":[{"name":"스피드메이트 영통점","tel":"031-205-9827","addr":"경기도 수원시 영통구 영통동 1045-3번지","indutype":"자동차정비 유지 - 자동차정비","category":"car"}]},{"lat":"37.244433851","long":"127.05939228","imageIndex":0,"items":[{"name":"신동점기아오토큐","tel":"031-206-8572","addr":"경기도 수원시 영통구 영통동 1111번지","indutype":"자동차정비 유지 - 자동차정비","category":"car"}]},{"lat":"37.248188614","long":"127.07988587","imageIndex":0,"items":[{"name":"썬가드동수원점","tel":"031-202-2770","addr":"경기도 수원시 영통구 영통동 1025-15번지 107호","indutype":"자동차정비 유지 - 카인테리어","category":"car"}]},{"lat":"37.266235372","long":"127.08122327","imageIndex":0,"items":[{"name":"에이치앤에이치","tel":"031-201-9870","addr":"경기도 수원시 영통구 영통동 946-9","indutype":"자동차정비 유지 - 주차장","category":"car"}]},{"lat":"37.252576743","long":"127.07972126","imageIndex":0,"items":[{"name":"에프3모터스(F3 MOTORS)","tel":"031-273-2855","addr":"경기도 수원시 영통구 영통동 1033-4번지 1층 상가전체","indutype":"자동차정비 유지 - 자동차정비","category":"car"},{"name":"큐비스트(수원점)","tel":"031-202-1816","addr":"경기도 수원시 영통구 영통동 1033-4번지","indutype":"자동차정비 유지 - 카인테리어","category":"car"}]},{"lat":"37.259541344","long":"127.0802807","imageIndex":0,"items":[{"name":"영통점기아오토큐","tel":"031-205-0865","addr":"경기도 수원시 영통구 영통동 1051-11번지","indutype":"자동차정비 유지 - 카인테리어","category":"car"}]},{"lat":"37.252604095","long":"127.07922533","imageIndex":0,"items":[{"name":"영통카모터스","tel":"031-202-0158","addr":"경기도 수원시 영통구 영통동 1044-9번지","indutype":"자동차정비 유지 - 자동차정비","category":"car"}]},{"lat":"37.255049224","long":"127.07386229","imageIndex":0,"items":[{"name":"영통하우스토리관리단대표회의","tel":"031-205-0284","addr":"경기도 수원시 영통구 영통동 958-3번지 영통하우스토리","indutype":"자동차정비 유지 - 주차장","category":"car"}]},{"lat":"37.255518076","long":"127.07333294","imageIndex":0,"items":[{"name":"오닉스코리아 수원점","tel":"","addr":"경기도 수원시 영통구 영통동 961-4번지 1층 118-1호","indutype":"자동차정비 유지 - 카인테리어","category":"car"}]},{"lat":"37.247910115","long":"127.07861196","imageIndex":0,"items":[{"name":"오토데이즈","tel":"031-273-0992","addr":"경기도 수원시 영통구 영통동 1024-15번지 경희레스피아 6층 601호","indutype":"자동차정비 유지 - 가타자동차서비스","category":"car"}]},{"lat":"37.248406405","long":"127.07747408","imageIndex":0,"items":[{"name":"오토웨이","tel":"031-204-4224","addr":"경기도 수원시 영통구 영통동 1022-2번지","indutype":"자동차정비 유지 - 자동차정비","category":"car"}]},{"lat":"37.252571126","long":"127.07429956","imageIndex":0,"items":[{"name":"이폴리스빌딩관리단","tel":"031-206-9086","addr":"경기도 수원시 영통구 영통동 998-4번지","indutype":"자동차정비 유지 - 주차장","category":"car"}]},{"lat":"37.253848051","long":"127.07839247","imageIndex":0,"items":[{"name":"자동차와사람들","tel":"031-204-6701","addr":"경기도 수원시 영통구 영통동 1038-15번지","indutype":"자동차정비 유지 - 자동차정비","category":"car"}]},{"lat":"37.251522141","long":"127.08032885","imageIndex":0,"items":[{"name":"제이제이모터스","tel":"","addr":"경기도 수원시 영통구 영통동 1032-10번지","indutype":"자동차판매 - 이륜차판매","category":"car"}]},{"lat":"37.254408805","long":"127.07500016","imageIndex":0,"items":[{"name":"주식회사 성지관리시스템","tel":"031-203-1055","addr":"경기도 수원시 영통구 영통동 996-4번지 보보스프라자 220호","indutype":"자동차정비 유지 - 주차장","category":"car"}]},{"lat":"37.252327596","long":"127.07471638","imageIndex":0,"items":[{"name":"주식회사 영통클래시아","tel":"031-273-2882","addr":"경기도 수원시 영통구 영통동 998-7번지 1층","indutype":"자동차정비 유지 - 주차장","category":"car"}]},{"lat":"37.265490514","long":"127.07655521","imageIndex":0,"items":[{"name":"주식회사 카이로스트레이드","tel":"031-202-6191","addr":"경기도 수원시 영통구 영통동 950-3번지 3층","indutype":"자동차정비 유지 - 자동차부품","category":"car"}]},{"lat":"37.24501833","long":"127.06183843","imageIndex":0,"items":[{"name":"지에스파크24(주)더판타지움 주차장","tel":"02-3272-0722","addr":"경기도 수원시 영통구 영통동 981-2번지","indutype":"자동차정비 유지 - 주차장","category":"car"}]},{"lat":"37.25237864","long":"127.07952944","imageIndex":0,"items":[{"name":"킴스카팩토리","tel":"031-202-7785","addr":"경기도 수원시 영통구 영통동 1033-6번지 1층","indutype":"자동차정비 유지 - 카인테리어","category":"car"}]},{"lat":"37.265848331","long":"127.08061409","imageIndex":0,"items":[{"name":"틴펠스","tel":"031-204-7531","addr":"경기도 수원시 영통구 영통동 947-8번지 와이티오피스텔 201호","indutype":"자동차정비 유지 - 자동차부품","category":"car"}]},{"lat":"37.251380811","long":"127.07586518","imageIndex":0,"items":[{"name":"플러스개발","tel":"031-203-0075","addr":"경기도 수원시 영통구 영통동 1009-2번지","indutype":"자동차정비 유지 - 주차장","category":"car"}]},{"lat":"37.265463308","long":"127.07683702","imageIndex":0,"items":[{"name":"해성상사원천점","tel":"031-214-0056","addr":"경기도 수원시 영통구 영통동 950-5번지","indutype":"자동차정비 유지 - 자동차부품","category":"car"}]},{"lat":"37.256514539","long":"127.06371859","imageIndex":0,"items":[{"name":"현대영통써비스주식회사","tel":"031-204-9977","addr":"경기도 수원시 영통구 영통동 77-8번지","indutype":"자동차정비 유지 - 자동차정비","category":"car"}]},{"lat":"37.256325136","long":"127.06407915","imageIndex":0,"items":[{"name":"현대자동차영통중부점","tel":"031-205-1472","addr":"경기도 수원시 영통구 영통동 77-7번지","indutype":"자동차정비 유지 - 카인테리어","category":"car"}]},{"lat":"37.246075546","long":"127.05544874","imageIndex":0,"items":[{"name":"화인사","tel":"031-236-7636","addr":"경기도 수원시 영통구 영통동 979-2번지 늘푸른빌딩 6층","indutype":"자동차정비 유지 - 가타자동차서비스","category":"car"}]},{"lat":"37.255463467","long":"127.07424593","imageIndex":0,"items":[{"name":"훼미리타워 입주자대표회의","tel":"031-201-1235","addr":"경기도 수원시 영통구 영통동 958-2번지 훼미리타워 602호","indutype":"자동차정비 유지 - 주차장","category":"car"}]}]