[{"lat":"37.127254328","long":"126.7745904","imageIndex":17,"items":[{"name":"(주)에펠코리아","tel":"031-432-3874","addr":"경기도 화성시 우정읍 호곡리 230-190번지","indutype":"건축자재 - 인테리어전문","category":"other"}]},{"lat":"37.125801943","long":"126.77842074","imageIndex":17,"items":[{"name":"(주)퍼니스템","tel":"070-7450-4489","addr":"경기도 화성시 우정읍 호곡리 216-49번지","indutype":"가구 - 일반가구","category":"other"}]},{"lat":"37.123164953","long":"126.77531159","imageIndex":17,"items":[{"name":"강산애ENV","tel":"031-410-0458","addr":"경기도 화성시 우정읍 호곡리 314번지","indutype":"용역 서비스 - 사무서비스","category":"other"}]},{"lat":"37.126390214","long":"126.77505437","imageIndex":17,"items":[{"name":"씨유호곡산업단지점","tel":"080-080-3663","addr":"경기도 화성시 우정읍 호곡리 230-92번지 1층","indutype":"유통업 영리 - 편 의 점","category":"other"}]},{"lat":"37.125838643","long":"126.79355575","imageIndex":17,"items":[{"name":"이림전기","tel":"031-358-8280","addr":"경기도 화성시 우정읍 호곡리 1-84번지","indutype":"용역 서비스 - 기타용역서비스","category":"other"}]},{"lat":"37.118810479","long":"126.77877893","imageIndex":4,"items":[{"name":"구판장식당","tel":"031-351-9811","addr":"경기도 화성시 우정읍 호곡리 393-1번지","indutype":"일반휴게음식 - 일반한식","category":"restaurant"}]},{"lat":"37.128246354","long":"126.79464068","imageIndex":4,"items":[{"name":"호남한식뷔폐","tel":"031-351-7989","addr":"경기도 화성시 우정읍 호곡리 1-114번지 1층","indutype":"일반휴게음식 - 일반한식","category":"restaurant"}]},{"lat":"37.106835274","long":"126.7647854","imageIndex":7,"items":[{"name":"농업회사법인 (주)하늘누리","tel":"031-351-7992","addr":"경기도 화성시 우정읍 호곡리 959-1번지","indutype":"음료식품 - 농·축·수산품","category":"food"}]},{"lat":"37.113775431","long":"126.77036671","imageIndex":7,"items":[{"name":"화성딸기","tel":"02-1111-1111","addr":"경기도 화성시 우정읍 호곡리 924","indutype":"음료식품 - 농·축·수산품","category":"food"}]},{"lat":"37.128499515","long":"126.79513513","imageIndex":7,"items":[{"name":"선창1번가마트","tel":"031-351-1284","addr":"경기도 화성시 우정읍 호곡리 1104-50번지","indutype":"유통업 영리 - 슈퍼마켓","category":"mart"}]},{"lat":"37.132002111","long":"126.78374798","imageIndex":0,"items":[{"name":"주식회사 만롱코리아","tel":"031-358-9372","addr":"경기도 화성시 우정읍 호곡리 228-141번지","indutype":"자동차정비 유지 - 자동차부품","category":"car"}]}]