[{"lat":"37.334418842","long":"126.86024181","imageIndex":8,"items":[{"name":"(주)한국피엠지제약","tel":"031-439-0889","addr":"경기도 안산시 상록구 부곡동 726-4번지","indutype":"약국 - 제약회사","category":"medical"},{"name":"(주)한국피엠지제약","tel":"031-439-0889","addr":"경기도 안산시 상록구 부곡동 726-4번지","indutype":"약국 - 제약회사","category":"medical"}]},{"lat":"37.335227194","long":"126.85813017","imageIndex":8,"items":[{"name":"365열린의원","tel":"031-405-0365","addr":"경기도 안산시 상록구 부곡동 727-16번지 도원빌딩 2층","indutype":"의원 - 의원","category":"medical"},{"name":"부곡늘푸른약국","tel":"031-411-6325","addr":"경기도 안산시 상록구 부곡동 727-16번지 도원빌딩 1층","indutype":"약국 - 약국","category":"medical"}]},{"lat":"37.33308953","long":"126.86376485","imageIndex":8,"items":[{"name":"박승철내과의원","tel":"031-438-1175","addr":"경기도 안산시 상록구 부곡동 533-11번지 2층","indutype":"의원 - 의원","category":"medical"},{"name":"정민약국","tel":"031-417-8160","addr":"경기도 안산시 상록구 부곡동 533-11번지","indutype":"약국 - 약국","category":"medical"}]},{"lat":"37.325784321","long":"126.85796776","imageIndex":8,"items":[{"name":"봄빛치과의원","tel":"031-418-2822","addr":"경기도 안산시 상록구 부곡동 688-1번지 2층","indutype":"의원 - 치과의원","category":"medical"}]},{"lat":"37.333891567","long":"126.86387621","imageIndex":8,"items":[{"name":"부곡고려정형외과의원","tel":"031-417-7588","addr":"경기도 안산시 상록구 부곡동 661-4번지 지상1층~3층","indutype":"의원 - 의원","category":"medical"},{"name":"삼성약국","tel":"031-417-9517","addr":"경기도 안산시 상록구 부곡동 661-4번지 제일빌딩 1층","indutype":"약국 - 약국","category":"medical"},{"name":"효성한의원","tel":"031-408-7576","addr":"경기도 안산시 상록구 부곡동 661-4번지 302호","indutype":"의원 - 한의원","category":"medical"}]},{"lat":"37.333251819","long":"126.86385482","imageIndex":8,"items":[{"name":"부곡라성약국","tel":"031-8044-8180","addr":"경기도 안산시 상록구 부곡동 533번지","indutype":"약국 - 약국","category":"medical"},{"name":"연세성모의원","tel":"031-502-7575","addr":"경기도 안산시 상록구 부곡동 533번지","indutype":"의원 - 의원","category":"medical"}]},{"lat":"37.332728991","long":"126.86365268","imageIndex":8,"items":[{"name":"부곡치과의원","tel":"031-416-2994","addr":"경기도 안산시 상록구 부곡동 538번지 부곡프라자 301호","indutype":"의원 - 치과의원","category":"medical"},{"name":"손한의원","tel":"031-409-8856","addr":"경기도 안산시 상록구 부곡동 538번지 부곡프라자","indutype":"의원 - 한의원","category":"medical"}]},{"lat":"37.3327289911","long":"126.8636526775","imageIndex":8,"items":[{"name":"손한의원","tel":"031-409-8856","addr":"경기도 안산시 상록구 부곡동 538번지","indutype":"보건업 및 사회복지서비스업 - 한의원","category":"medical"}]},{"lat":"37.33164708","long":"126.86306793","imageIndex":8,"items":[{"name":"자연생생한의원","tel":"031-502-0075","addr":"경기도 안산시 상록구 부곡동 628-3번지 4층","indutype":"의원 - 한의원","category":"medical"}]},{"lat":"37.32492146","long":"126.85970692","imageIndex":8,"items":[{"name":"정성약국","tel":"031-416-6272","addr":"경기도 안산시 상록구 부곡동 606번지","indutype":"약국 - 약국","category":"medical"},{"name":"참사랑의원","tel":"031-502-4077","addr":"경기도 안산시 상록구 부곡동 606번지","indutype":"의원 - 의원","category":"medical"}]},{"lat":"37.333197294","long":"126.86345999","imageIndex":8,"items":[{"name":"지리산약국","tel":"031-409-5596","addr":"경기도 안산시 상록구 부곡동 662-5번지","indutype":"약국 - 약국","category":"medical"}]},{"lat":"37.333585023","long":"126.86370752","imageIndex":8,"items":[{"name":"해바라기치과","tel":"031-417-8275","addr":"경기도 안산시 상록구 부곡동 661-7.1층1,2,3호","indutype":"의원 - 치과의원","category":"medical"}]},{"lat":"37.3338915673","long":"126.8638762088","imageIndex":8,"items":[{"name":"효성한의원","tel":"031-408-7576","addr":"경기도 안산시 상록구 부곡동 661-4번지","indutype":"보건업 및 사회복지서비스업 - 한의원","category":"medical"}]}]