[{"lat":"36.993163755","long":"127.09317542","imageIndex":7,"items":[{"name":"감초당건강원","tel":"031-653-6183","addr":"경기도 평택시 합정동 740-5번지","indutype":"건강식품 - 기타건강식품","category":"food"}]},{"lat":"36.991022581","long":"127.10030585","imageIndex":7,"items":[{"name":"길음수산","tel":"031-651-1231","addr":"경기도 평택시 합정동 893-5번지","indutype":"음료식품 - 농·축·수산품","category":"food"}]},{"lat":"36.99063162","long":"127.09334092","imageIndex":7,"items":[{"name":"김씨네정육점","tel":"031-654-6988","addr":"경기도 평택시 합정동 834번지 주공아파트 상가동 101호","indutype":"음료식품 - 정육점","category":"food"},{"name":"알뜰한반찬즉석두부","tel":"031-655-8004","addr":"경기도 평택시 합정동 834번지","indutype":"음료식품 - 농·축·수산품","category":"food"}]},{"lat":"36.990992347","long":"127.0929482","imageIndex":7,"items":[{"name":"김창준베이커리","tel":"031-651-1177","addr":"경기도 평택시 합정동 735-14번지","indutype":"음료식품 - 제과점","category":"food"}]},{"lat":"36.988527651","long":"127.09903338","imageIndex":7,"items":[{"name":"남궁유통","tel":"031-651-8582","addr":"경기도 평택시 합정동 941-4번지","indutype":"음료식품 - 정육점","category":"food"}]},{"lat":"36.991019524","long":"127.09275727","imageIndex":7,"items":[{"name":"농촌돼지","tel":"031-653-6682","addr":"경기도 평택시 합정동 735-12번지","indutype":"음료식품 - 정육점","category":"food"}]},{"lat":"36.988381451","long":"127.11181591","imageIndex":7,"items":[{"name":"던킨도우넛롯데마트점","tel":"031-655-9009","addr":"경기도 평택시 합정동 968-1번지 롯데마트평택점","indutype":"음료식품 - 제과점","category":"food"}]},{"lat":"36.993189945","long":"127.09427632","imageIndex":7,"items":[{"name":"라마즈산부인과의원","tel":"031-618-9792","addr":"경기도 평택시 합정동 741번지","indutype":"건강식품 - 기타건강식품","category":"food"}]},{"lat":"36.989551071","long":"127.10361764","imageIndex":7,"items":[{"name":"맥심상회","tel":"031-653-7688","addr":"경기도 평택시 합정동 905-2번지 대명하우스","indutype":"음료식품 - 기타음료식품","category":"food"}]},{"lat":"36.990885941","long":"127.10209172","imageIndex":7,"items":[{"name":"메이저타바코","tel":"031-656-1420","addr":"경기도 평택시 합정동 765-9번지 1층 왼쪽","indutype":"음료식품 - 기타음료식품","category":"food"}]},{"lat":"36.989964957","long":"127.09317164","imageIndex":7,"items":[{"name":"몽니스샵","tel":"","addr":"경기도 평택시 합정동 833번지","indutype":"건강식품 - 기타건강식품","category":"food"}]},{"lat":"36.988499187","long":"127.10078563","imageIndex":7,"items":[{"name":"미트랜드","tel":"031-658-7749","addr":"경기도 평택시 합정동 924-4번지 1층","indutype":"음료식품 - 정육점","category":"food"}]},{"lat":"36.988553679","long":"127.11069289","imageIndex":7,"items":[{"name":"비앙비앙","tel":"","addr":"경기도 평택시 합정동 353-1번지 1층 101호","indutype":"음료식품 - 기타음료식품","category":"food"}]},{"lat":"36.990692975","long":"127.10647232","imageIndex":7,"items":[{"name":"사계절 청과","tel":"031-656-0371","addr":"경기도 평택시 합정동 773-4번지 조일빌딩 1층 왼쪽끝","indutype":"음료식품 - 농·축·수산품","category":"food"}]},{"lat":"36.992354895","long":"127.09036617","imageIndex":7,"items":[{"name":"새시장기름집","tel":"031-656-3881","addr":"경기도 평택시 합정동 732-1번지 1층","indutype":"음료식품 - 기타음료식품","category":"food"}]},{"lat":"36.992435743","long":"127.09070326","imageIndex":7,"items":[{"name":"새시장방아간","tel":"031-655-0384","addr":"경기도 평택시 합정동 731-33번지","indutype":"음료식품 - 제과점","category":"food"}]},{"lat":"36.990494972","long":"127.11608743","imageIndex":7,"items":[{"name":"샤론베이커리","tel":"031-657-0445","addr":"경기도 평택시 합정동 866-5번지","indutype":"음료식품 - 제과점","category":"food"}]},{"lat":"36.989774298","long":"127.11589541","imageIndex":7,"items":[{"name":"솔잎떡방","tel":"031-658-8300","addr":"경기도 평택시 합정동 869-4번지 1층","indutype":"음료식품 - 제과점","category":"food"}]},{"lat":"36.992496095","long":"127.09430919","imageIndex":7,"items":[{"name":"수신제가유통","tel":"","addr":"경기도 평택시 합정동 743-8번지","indutype":"음료식품 - 미곡상","category":"food"}]},{"lat":"36.991915136","long":"127.0997004","imageIndex":7,"items":[{"name":"수입육직매장평택대리점","tel":"031-656-3326","addr":"경기도 평택시 합정동 757-11번지","indutype":"음료식품 - 정육점","category":"food"}]},{"lat":"36.990774404","long":"127.10609051","imageIndex":7,"items":[{"name":"스포맥스(평택점)","tel":"","addr":"경기도 평택시 합정동 773-2번지 1층","indutype":"건강식품 - 기타건강식품","category":"food"}]},{"lat":"36.991859844","long":"127.10119433","imageIndex":7,"items":[{"name":"시루떡","tel":"031-691-5587","addr":"경기도 평택시 합정동 763-1번지","indutype":"음료식품 - 제과점","category":"food"}]},{"lat":"36.993551853","long":"127.09233338","imageIndex":7,"items":[{"name":"신앙촌상회","tel":"031-654-5760","addr":"경기도 평택시 합정동 672-33번지","indutype":"음료식품 - 기타음료식품","category":"food"}]},{"lat":"36.989381594","long":"127.10156182","imageIndex":7,"items":[{"name":"신평한우 정육점","tel":"031-654-2624","addr":"경기도 평택시 합정동 912-12번지","indutype":"음료식품 - 정육점","category":"food"}]},{"lat":"36.988743909","long":"127.10958112","imageIndex":7,"items":[{"name":"아침노을협동조합","tel":"031-692-5776","addr":"경기도 평택시 합정동 361-8번지","indutype":"음료식품 - 기타음료식품","category":"food"}]},{"lat":"36.990218215","long":"127.10320291","imageIndex":7,"items":[{"name":"왕박식품","tel":"070-8658-5579","addr":"경기도 평택시 합정동 896-4번지 수신리치빌 204호","indutype":"음료식품 - 기타음료식품","category":"food"}]},{"lat":"36.990388387","long":"127.10441628","imageIndex":7,"items":[{"name":"외골수반찬카페","tel":"031-658-7433","addr":"경기도 평택시 합정동 775번지 1층","indutype":"음료식품 - 기타음료식품","category":"food"}]},{"lat":"36.981731272","long":"127.11210968","imageIndex":7,"items":[{"name":"우리굼벵이","tel":"031-692-2114","addr":"경기도 평택시 합정동 121-8번지 합정동자동차매매단지 C동 118호","indutype":"건강식품 - 기타건강식품","category":"food"}]},{"lat":"36.990161394","long":"127.1162779","imageIndex":7,"items":[{"name":"이슬과일","tel":"","addr":"경기도 평택시 합정동 871-3번지 1층","indutype":"음료식품 - 농·축·수산품","category":"food"}]},{"lat":"36.989137753","long":"127.10222424","imageIndex":7,"items":[{"name":"조개터신영축산","tel":"031-655-9295","addr":"경기도 평택시 합정동 913-16번지","indutype":"음료식품 - 정육점","category":"food"}]},{"lat":"36.99132724","long":"127.10236188","imageIndex":7,"items":[{"name":"착한정육점","tel":"031-658-6692","addr":"경기도 평택시 합정동 766-2번지 평택합정 SK VIEW 주상복합 상가동 128호","indutype":"음료식품 - 정육점","category":"food"}]},{"lat":"36.991769392","long":"127.10160984","imageIndex":7,"items":[{"name":"토리","tel":"031-654-3559","addr":"경기도 평택시 합정동 763-4번지","indutype":"음료식품 - 기타음료식품","category":"food"},{"name":"팔도한우직판장","tel":"031-618-5453","addr":"경기도 평택시 합정동 763-4번지","indutype":"음료식품 - 정육점","category":"food"}]},{"lat":"36.99196852","long":"127.10053172","imageIndex":7,"items":[{"name":"파리바게뜨평택여중점","tel":"031-657-9888","addr":"경기도 평택시 합정동 762-3번지","indutype":"음료식품 - 제과점","category":"food"}]},{"lat":"36.988721398","long":"127.1044253","imageIndex":7,"items":[{"name":"평일상사","tel":"031-658-7171","addr":"경기도 평택시 합정동 903-7번지","indutype":"음료식품 - 기타음료식품","category":"food"}]},{"lat":"36.989080453","long":"127.11591684","imageIndex":7,"items":[{"name":"평택베지밀","tel":"031-618-3390","addr":"경기도 평택시 합정동 874-2번지","indutype":"음료식품 - 기타음료식품","category":"food"}]},{"lat":"36.992074806","long":"127.09138806","imageIndex":7,"items":[{"name":"푸른아침건강녹즙","tel":"031-654-5898","addr":"경기도 평택시 합정동 731-14번지 1층","indutype":"건강식품 - 기타건강식품","category":"food"}]},{"lat":"36.991248097","long":"127.10000284","imageIndex":7,"items":[{"name":"하이축산","tel":"031-692-9233","addr":"경기도 평택시 합정동 761-1번지","indutype":"음료식품 - 정육점","category":"food"}]},{"lat":"36.980555078","long":"127.09664228","imageIndex":7,"items":[{"name":"한신농원","tel":"031-655-2237","addr":"경기도 평택시 합정동 853-15번지","indutype":"음료식품 - 농·축·수산품","category":"food"}]},{"lat":"36.989858024","long":"127.10292161","imageIndex":7,"items":[{"name":"한우마을","tel":"031-655-8333","addr":"경기도 평택시 합정동 907-3번지 1층","indutype":"음료식품 - 정육점","category":"food"}]},{"lat":"36.991353132","long":"127.09247683","imageIndex":7,"items":[{"name":"합정떡방앗간","tel":"031-657-5271","addr":"경기도 평택시 합정동 736-11번지","indutype":"음료식품 - 기타음료식품","category":"food"}]},{"lat":"36.991190053","long":"127.09364488","imageIndex":7,"items":[{"name":"합정수입쇠고기전문점","tel":"031-656-3721","addr":"경기도 평택시 합정동 654-5번지","indutype":"음료식품 - 정육점","category":"food"}]},{"lat":"36.989469378","long":"127.1143673","imageIndex":7,"items":[{"name":"합정착한아이스크림","tel":"","addr":"경기도 평택시 합정동 967-2번지 유정빌딩 101호","indutype":"음료식품 - 기타음료식품","category":"food"}]},{"lat":"36.990992262","long":"127.09306053","imageIndex":7,"items":[{"name":"합정청과","tel":"031-651-5382","addr":"경기도 평택시 합정동 735-15번지","indutype":"음료식품 - 농·축·수산품","category":"food"}]},{"lat":"36.987797553","long":"127.10983815","imageIndex":7,"items":[{"name":"해진","tel":"","addr":"경기도 평택시 합정동 318-5번지 301호","indutype":"음료식품 - 농·축·수산품","category":"food"}]},{"lat":"36.992270888","long":"127.09423029","imageIndex":7,"items":[{"name":"효건강원","tel":"031-656-8022","addr":"경기도 평택시 합정동 744-9번지","indutype":"건강식품 - 기타건강식품","category":"food"}]}]