[{"lat":"37.418354005","long":"126.91184337","imageIndex":8,"items":[{"name":"24시 마음든든동물병원","tel":"031-474-2475","addr":"경기도 안양시 만안구 석수동 168-27번지","indutype":"기타의료기관 - 동물병원","category":"medical"}]},{"lat":"37.410964914","long":"126.91075666","imageIndex":8,"items":[{"name":"가톨릭성모의원","tel":"031-473-5005","addr":"경기도 안양시 만안구 석수동 317-5번지","indutype":"의원 - 의원","category":"medical"},{"name":"큰사랑약국","tel":"031-473-6354","addr":"경기도 안양시 만안구 석수동 317-5번지","indutype":"약국 - 약국","category":"medical"}]},{"lat":"37.433853765","long":"126.90373463","imageIndex":8,"items":[{"name":"경인한의원","tel":"031-471-9900","addr":"경기도 안양시 만안구 석수동 374-12번지","indutype":"의원 - 한의원","category":"medical"},{"name":"유용재치과의원","tel":"031-342-6930","addr":"경기도 안양시 만안구 석수동 374-12번지","indutype":"의원 - 치과의원","category":"medical"}]},{"lat":"37.41652246","long":"126.90864875","imageIndex":8,"items":[{"name":"경희한의원","tel":"031-473-7790","addr":"경기도 안양시 만안구 석수동 275-1번지","indutype":"의원 - 한의원","category":"medical"}]},{"lat":"37.415081248","long":"126.90914758","imageIndex":8,"items":[{"name":"곰약국","tel":"031-472-0606","addr":"경기도 안양시 만안구 석수동 274-1번지","indutype":"약국 - 약국","category":"medical"}]},{"lat":"37.419658468","long":"126.90928874","imageIndex":8,"items":[{"name":"관악가정의학과의원","tel":"031-472-1175","addr":"경기도 안양시 만안구 석수동 104-150번지","indutype":"의원 - 의원","category":"medical"},{"name":"관악약국","tel":"031-472-3214","addr":"경기도 안양시 만안구 석수동 104-150번지","indutype":"약국 - 약국","category":"medical"},{"name":"월드치과의원","tel":"031-471-8827","addr":"경기도 안양시 만안구 석수동 104-150번지","indutype":"의원 - 치과의원","category":"medical"}]},{"lat":"37.413801955","long":"126.90931861","imageIndex":8,"items":[{"name":"관악연세의원","tel":"031-474-8275","addr":"경기도 안양시 만안구 석수동 279-1번지","indutype":"의원 - 의원","category":"medical"}]},{"lat":"37.420108665","long":"126.90890408","imageIndex":8,"items":[{"name":"관악한의원","tel":"031-473-8333","addr":"경기도 안양시 만안구 석수동","indutype":"의원 - 한의원","category":"medical"}]},{"lat":"37.412666285","long":"126.90881172","imageIndex":8,"items":[{"name":"김병수내과의원","tel":"031-473-3575","addr":"경기도 안양시 만안구 석수동 289-8번지","indutype":"의원 - 의원","category":"medical"},{"name":"동아당약국","tel":"031-472-0329","addr":"경기도 안양시 만안구 석수동 289-8번지","indutype":"약국 - 약국","category":"medical"}]},{"lat":"37.411910996","long":"126.91078939","imageIndex":8,"items":[{"name":"김형식내과의원","tel":"031-472-2006","addr":"경기도 안양시 만안구 석수동 320-20번지","indutype":"의원 - 의원","category":"medical"}]},{"lat":"37.414936494","long":"126.90840223","imageIndex":8,"items":[{"name":"다나약국","tel":"031-471-1599","addr":"경기도 안양시 만안구 석수동 277-2번지","indutype":"약국 - 약국","category":"medical"},{"name":"사랑으로치과의원","tel":"031-474-2882","addr":"경기도 안양시 만안구 석수동 277-2번지","indutype":"의원 - 치과의원","category":"medical"}]},{"lat":"37.433052543","long":"126.9045379","imageIndex":8,"items":[{"name":"다인치과","tel":"031-472-2820","addr":"경기도 안양시 만안구 석수동","indutype":"의원 - 치과의원","category":"medical"}]},{"lat":"37.409749379","long":"126.9118199","imageIndex":8,"items":[{"name":"독도는우리땅약국","tel":"031-474-1221","addr":"경기도 안양시 만안구 석수동 314-10번지","indutype":"약국 - 약국","category":"medical"}]},{"lat":"37.407467768","long":"126.89842694","imageIndex":8,"items":[{"name":"동의보감한의원","tel":"031-474-3375","addr":"경기도 안양시 만안구 석수동 785-16번지","indutype":"의원 - 한의원","category":"medical"}]},{"lat":"37.412468529","long":"126.90939934","imageIndex":8,"items":[{"name":"명성치과","tel":"031-471-2784","addr":"경기도 안양시 만안구 석수동 319-1번지","indutype":"의원 - 치과의원","category":"medical"}]},{"lat":"37.412028066","long":"126.91071017","imageIndex":8,"items":[{"name":"백제의원","tel":"031-471-7171","addr":"경기도 안양시 만안구 석수동 320-13번지","indutype":"의원 - 의원","category":"medical"}]},{"lat":"37.413576703","long":"126.90931889","imageIndex":8,"items":[{"name":"비타민약국","tel":"031-349-6676","addr":"경기도 안양시 만안구 석수동 279-2번지","indutype":"약국 - 약국","category":"medical"}]},{"lat":"37.414913893","long":"126.91411803","imageIndex":8,"items":[{"name":"삼아약국","tel":"031-474-1077","addr":"경기도 안양시 만안구 석수동 182-2번지","indutype":"약국 - 약국","category":"medical"}]},{"lat":"37.41643626","long":"126.91367568","imageIndex":8,"items":[{"name":"생명약국","tel":"031-473-2155","addr":"경기도 안양시 만안구 석수동 177-6번지","indutype":"약국 - 약국","category":"medical"}]},{"lat":"37.410443301","long":"126.91201108","imageIndex":8,"items":[{"name":"서울유엔이치과","tel":"031-472-8282","addr":"경기도 안양시 만안구 석수동 326-5번지","indutype":"의원 - 치과의원","category":"medical"}]},{"lat":"37.412774585","long":"126.9090375","imageIndex":8,"items":[{"name":"서울한의원","tel":"031-473-6432","addr":"경기도 안양시 만안구 석수동 280-6번지","indutype":"의원 - 한의원","category":"medical"}]},{"lat":"37.410190357","long":"126.91115294","imageIndex":8,"items":[{"name":"서정호이비인후과의원","tel":"031-472-7800","addr":"경기도 안양시 만안구 석수동 314번지","indutype":"의원 - 의원","category":"medical"}]},{"lat":"37.408053859","long":"126.8989231","imageIndex":8,"items":[{"name":"석수경희한의원","tel":"031-471-3300","addr":"경기도 안양시 만안구 석수동","indutype":"의원 - 한의원","category":"medical"}]},{"lat":"37.432518151","long":"126.9012281","imageIndex":8,"items":[{"name":"석수동물병원","tel":"031-474-1275","addr":"경기도 안양시 만안구 석수동 417-3번지 석수두산위브아파트","indutype":"기타의료기관 - 동물병원","category":"medical"}]},{"lat":"37.409605322","long":"126.91195561","imageIndex":8,"items":[{"name":"석수약국","tel":"031-473-0510","addr":"경기도 안양시 만안구 석수동 314-9번지","indutype":"약국 - 약국","category":"medical"},{"name":"이기철여성의원","tel":"031-473-0181","addr":"경기도 안양시 만안구 석수동 314-9번지","indutype":"의원 - 의원","category":"medical"},{"name":"치아사랑치과의원","tel":"031-441-2858","addr":"경기도 안양시 만안구 석수동 314-9번지","indutype":"의원 - 치과의원","category":"medical"}]},{"lat":"37.433655591","long":"126.90379139","imageIndex":8,"items":[{"name":"석수연합의원","tel":"031-474-7575","addr":"경기도 안양시 만안구 석수동 374-7번지","indutype":"의원 - 의원","category":"medical"},{"name":"성원약국","tel":"070-8833-1704","addr":"경기도 안양시 만안구 석수동 374-7번지","indutype":"약국 - 약국","category":"medical"}]},{"lat":"37.433572904","long":"126.9019046","imageIndex":8,"items":[{"name":"석수우리들한의원","tel":"031-472-9119","addr":"경기도 안양시 만안구 석수동 424번지","indutype":"의원 - 한의원","category":"medical"}]},{"lat":"37.407304946","long":"126.89770429","imageIndex":8,"items":[{"name":"성모의원","tel":"031-474-8050","addr":"경기도 안양시 만안구 석수동 785번지","indutype":"의원 - 의원","category":"medical"},{"name":"오치과의원","tel":"031-471-6878","addr":"경기도 안양시 만안구 석수동 785번지","indutype":"의원 - 치과의원","category":"medical"}]},{"lat":"37.407360065","long":"126.89890147","imageIndex":8,"items":[{"name":"세종치과의원","tel":"031-474-2804","addr":"경기도 안양시 만안구 석수동 785-18번지","indutype":"의원 - 치과의원","category":"medical"}]},{"lat":"37.410496716","long":"126.91117516","imageIndex":8,"items":[{"name":"세화약국","tel":"031-471-4122","addr":"경기도 안양시 만안구 석수동 317-15번지","indutype":"약국 - 약국","category":"medical"}]},{"lat":"37.407413926","long":"126.8986755","imageIndex":8,"items":[{"name":"엔젤메디칼의원","tel":"031-471-6424","addr":"경기도 안양시 만안구 석수동 785-17번지","indutype":"의원 - 의원","category":"medical"}]},{"lat":"37.410658792","long":"126.91103942","imageIndex":8,"items":[{"name":"연세S치과의원","tel":"031-474-2875","addr":"경기도 안양시 만안구 석수동 317-11번지","indutype":"의원 - 치과의원","category":"medical"},{"name":"최소아과의원","tel":"031-472-4132","addr":"경기도 안양시 만안구 석수동 317-11번지","indutype":"의원 - 의원","category":"medical"}]},{"lat":"37.430914493","long":"126.90137714","imageIndex":8,"items":[{"name":"오창수소아청소년과의원","tel":"031-472-6651","addr":"경기도 안양시 만안구 석수동 425-28번지","indutype":"의원 - 의원","category":"medical"},{"name":"튼튼치과의원","tel":"031-473-2876","addr":"경기도 안양시 만안구 석수동 425-28번지","indutype":"의원 - 치과의원","category":"medical"}]},{"lat":"37.407161006","long":"126.89795298","imageIndex":8,"items":[{"name":"충훈미소이비인후과","tel":"031-471-5550","addr":"경기도 안양시 만안구 석수동 785-13번지","indutype":"의원 - 의원","category":"medical"}]},{"lat":"37.406909244","long":"126.89854066","imageIndex":8,"items":[{"name":"충훈한의원","tel":"031-472-0179","addr":"경기도 안양시 만안구 석수동 785-28번지","indutype":"의원 - 한의원","category":"medical"}]},{"lat":"37.427607639","long":"126.90117825","imageIndex":8,"items":[{"name":"프라임내과의원","tel":"031-471-6830","addr":"경기도 안양시 만안구 석수동","indutype":"의원 - 의원","category":"medical"}]},{"lat":"37.420686378","long":"126.91025899","imageIndex":8,"items":[{"name":"한마음한의원","tel":"031-473-8978","addr":"경기도 안양시 만안구 석수동 805번지","indutype":"의원 - 한의원","category":"medical"}]},{"lat":"37.411388149","long":"126.91045116","imageIndex":8,"items":[{"name":"호박한의원","tel":"031-474-5008","addr":"경기도 안양시 만안구 석수동 318-13번지","indutype":"의원 - 한의원","category":"medical"}]}]