[{"lat":"37.151081518","long":"127.00756475","imageIndex":17,"items":[{"name":"(주)칠성종합안전","tel":"031-8059-0452","addr":"경기도 화성시 정남면 망월리 314번지","indutype":"의류 - 기타의류","category":"other"}]},{"lat":"37.150027014","long":"127.01228115","imageIndex":17,"items":[{"name":"갑신알미늄","tel":"031-252-6815","addr":"경기도 화성시 정남면 망월리 54-2번지","indutype":"주방용구 - 주방용식기","category":"other"}]},{"lat":"37.146143585","long":"127.01114382","imageIndex":17,"items":[{"name":"노트북컴퓨터A/S","tel":"031-353-6561","addr":"경기도 화성시 정남면 망월리 83번지","indutype":"수리서비스 - 사무·통신기기수리","category":"other"}]},{"lat":"37.150306617","long":"127.00758721","imageIndex":17,"items":[{"name":"대성기계공업주식화사","tel":"031-213-0092","addr":"경기도 화성시 정남면 망월리 290","indutype":"기타 - 기타 전문점","category":"other"},{"name":"대성기계공업주식회사/원격지","tel":"031-213-0093","addr":"경기도 화성시 정남면 망월리 290","indutype":"기타 - 기타 전문점","category":"other"}]},{"lat":"37.148693645","long":"127.0096245","imageIndex":17,"items":[{"name":"대성상사","tel":"031-455-3657","addr":"경기도 화성시 정남면 망월리 200","indutype":"기타 - 기계공구","category":"other"},{"name":"씨유화성정남로드점","tel":"031-898-6569","addr":"경기도 화성시 정남면 망월리 200번지","indutype":"유통업 영리 - 편 의 점","category":"other"}]},{"lat":"37.150054307","long":"127.00800369","imageIndex":17,"items":[{"name":"세븐일레븐화성정남동로점","tel":"031-1577-0711","addr":"경기도 화성시 정남면 망월리 290-2번지 라동 101,102,103호","indutype":"유통업 영리 - 편 의 점","category":"other"}]},{"lat":"37.150279478","long":"127.00978223","imageIndex":17,"items":[{"name":"수진전기주식회사","tel":"031-352-9486","addr":"경기도 화성시 정남면 망월리 284-16번지","indutype":"전기제품 - 기타전기제품","category":"other"}]},{"lat":"37.151198686","long":"127.00667548","imageIndex":17,"items":[{"name":"우리테크","tel":"031-8059-6498","addr":"경기도 화성시 정남면 망월리 297-2번지","indutype":"기타 - 기계공구","category":"other"}]},{"lat":"37.148558364","long":"127.01153805","imageIndex":17,"items":[{"name":"우진정공","tel":"031-352-7106","addr":"경기도 화성시 정남면 망월리 64","indutype":"기타 - 기계공구","category":"other"}]},{"lat":"37.149919119","long":"127.00867907","imageIndex":17,"items":[{"name":"주식회사 서울프린팩","tel":"031-353-4981","addr":"경기도 화성시 정남면 망월리 285-6번지 1층","indutype":"유통업 영리 - 기타유통업","category":"other"}]},{"lat":"37.151504813","long":"127.01117817","imageIndex":17,"items":[{"name":"태봉산업","tel":"031-353-1175","addr":"경기도 화성시 정남면 망월리 280-3","indutype":"유통업 영리 - 기타유통업","category":"other"}]}]