[{"lat":"37.702459663","long":"126.82395625","imageIndex":0,"items":[{"name":"(주)명진자동차","tel":"031-977-4850","addr":"경기도 고양시 일산동구 문봉동 168-56번지","indutype":"자동차정비 유지 - 자동차정비","category":"car"}]},{"lat":"37.702208699","long":"126.82481865","imageIndex":0,"items":[{"name":"(주)에이치엔테크","tel":"031-000-0000","addr":"경기도 고양시 일산동구 문봉동 168-52번지","indutype":"자동차정비 유지 - 자동차부품","category":"car"},{"name":"대성타이어","tel":"031-962-7725","addr":"경기도 고양시 일산동구 문봉동 168-52번지","indutype":"자동차정비 유지 - 자동차부품","category":"car"}]},{"lat":"37.706233674","long":"126.82328946","imageIndex":0,"items":[{"name":"Just Drift(저스트 드리프트)","tel":"031-976-2343","addr":"경기도 고양시 일산동구 문봉동 171-8번지","indutype":"자동차정비 유지 - 자동차부품","category":"car"}]},{"lat":"37.703068328","long":"126.82134669","imageIndex":0,"items":[{"name":"MS카모터스","tel":"031-977-3929","addr":"경기도 고양시 일산동구 문봉동 164-46번지","indutype":"자동차정비 유지 - 자동차정비","category":"car"}]},{"lat":"37.700458293","long":"126.8291544","imageIndex":0,"items":[{"name":"경도카센타","tel":"031-977-0117","addr":"경기도 고양시 일산동구 문봉동 51번지","indutype":"자동차정비 유지 - 자동차정비","category":"car"}]},{"lat":"37.694406644","long":"126.81912284","imageIndex":0,"items":[{"name":"문봉공업사","tel":"031-976-0548","addr":"경기도 고양시 일산동구 문봉동 100-35번지","indutype":"자동차정비 유지 - 중장비수리","category":"car"},{"name":"문봉공업사","tel":"031-976-0548","addr":"경기도 고양시 일산동구 문봉동 100-35번지","indutype":"자동차정비 유지 - 중장비수리","category":"car"},{"name":"문봉공업사","tel":"031-976-0548","addr":"경기도 고양시 일산동구 문봉동 100-35번지","indutype":"자동차정비 유지 - 중장비수리","category":"car"}]},{"lat":"37.701984161","long":"126.82528411","imageIndex":0,"items":[{"name":"문봉자동차","tel":"031-977-7115","addr":"경기도 고양시 일산동구 문봉동 58-16번지","indutype":"자동차정비 유지 - 자동차부품","category":"car"}]},{"lat":"37.69682264","long":"126.8200353","imageIndex":0,"items":[{"name":"문봉현대공업사","tel":"031-969-0054","addr":"경기도 고양시 일산동구 문봉동 101-22번지","indutype":"자동차정비 유지 - 자동차정비","category":"car"}]},{"lat":"37.703732405","long":"126.81964412","imageIndex":0,"items":[{"name":"믿음차안전유리","tel":"031-975-4655","addr":"경기도 고양시 일산동구 문봉동 164-24번지","indutype":"자동차정비 유지 - 자동차부품","category":"car"}]},{"lat":"37.694405777","long":"126.81856727","imageIndex":0,"items":[{"name":"상아MOTORS","tel":"031-977-0737","addr":"경기도 고양시 일산동구 문봉동 269-15번지","indutype":"자동차정비 유지 - 자동차정비","category":"car"}]},{"lat":"37.699880433","long":"126.8345078","imageIndex":0,"items":[{"name":"오대양공업사","tel":"031-963-4970","addr":"경기도 고양시 일산동구 문봉동","indutype":"자동차정비 유지 - 자동차정비","category":"car"}]},{"lat":"37.695213991","long":"126.82268109","imageIndex":0,"items":[{"name":"주식회사 랩루브리컨츠코리아","tel":"031-975-0066","addr":"경기도 고양시 일산동구 문봉동 98-1번지","indutype":"자동차정비 유지 - 윤활유 전문 판매","category":"car"}]},{"lat":"37.69634522","long":"126.82009317","imageIndex":0,"items":[{"name":"코닉모터스","tel":"070-4222-0741","addr":"경기도 고양시 일산동구 문봉동 101-20번지","indutype":"자동차정비 유지 - 자동차정비","category":"car"}]},{"lat":"37.695795512","long":"126.82001515","imageIndex":0,"items":[{"name":"텔미자동차정비","tel":"031-965-4572","addr":"경기도 고양시 일산동구 문봉동 100-16번지","indutype":"자동차정비 유지 - 자동차정비","category":"car"}]},{"lat":"37.702486227","long":"126.82365002","imageIndex":0,"items":[{"name":"포엠커스텀","tel":"031-975-1766","addr":"경기도 고양시 일산동구 문봉동 168-32번지","indutype":"자동차정비 유지 - 자동차부품","category":"car"}]},{"lat":"37.706177008","long":"126.81581651","imageIndex":0,"items":[{"name":"한미모터스","tel":"031-977-8033","addr":"경기도 고양시 일산동구 문봉동","indutype":"자동차정비 유지 - 자동차정비","category":"car"}]},{"lat":"37.702961015","long":"126.82186857","imageIndex":0,"items":[{"name":"한새미카센타","tel":"031-975-9509","addr":"경기도 고양시 일산동구 문봉동 168번지","indutype":"자동차정비 유지 - 자동차정비","category":"car"}]},{"lat":"37.698991064","long":"126.83006494","imageIndex":0,"items":[{"name":"행복중고타이어","tel":"031-975-4500","addr":"경기도 고양시 일산동구 문봉동 80-1번지","indutype":"자동차정비 유지 - 자동차시트·타이어","category":"car"}]},{"lat":"37.70440593","long":"126.81823633","imageIndex":0,"items":[{"name":"화성사","tel":"031-976-9515","addr":"경기도 고양시 일산동구 문봉동 224-33번지","indutype":"자동차정비 유지 - 자동차부품","category":"car"}]}]