[{"lat":"37.373653426","long":"127.58513978","imageIndex":7,"items":[{"name":"금강떡방앗간","tel":"031-882-8601","addr":"경기도 여주시 대신면 율촌리 339-12번지","indutype":"음료식품 - 제과점","category":"food"}]},{"lat":"37.374151012","long":"127.58472591","imageIndex":7,"items":[{"name":"남양미트","tel":"031-881-2310","addr":"경기도 여주시 대신면 율촌리 372-1번지 1층","indutype":"음료식품 - 정육점","category":"food"}]},{"lat":"37.375314121","long":"127.59002986","imageIndex":7,"items":[{"name":"다애메디칼","tel":"031-882-7636","addr":"경기도 여주시 대신면 율촌리 269-7번지","indutype":"건강식품 - 기타건강식품","category":"food"}]},{"lat":"37.372485139","long":"127.58269223","imageIndex":7,"items":[{"name":"대신할인마트정육코너","tel":"031-884-4399","addr":"경기도 여주시 대신면 율촌리 360번지","indutype":"음료식품 - 정육점","category":"food"}]},{"lat":"37.373790237","long":"127.58480215","imageIndex":7,"items":[{"name":"별이네베이커리","tel":"031-883-0775","addr":"경기도 여주시 대신면 율촌리 364-10번지","indutype":"음료식품 - 제과점","category":"food"}]},{"lat":"37.375566672","long":"127.58997538","imageIndex":7,"items":[{"name":"산골짝건강원","tel":"031-881-5551","addr":"경기도 여주시 대신면 율촌리 270-1번지","indutype":"건강식품 - 기타건강식품","category":"food"}]},{"lat":"37.373737512","long":"127.58453079","imageIndex":7,"items":[{"name":"시장정육점","tel":"031-886-3339","addr":"경기도 여주시 대신면 율촌리 364-4번지","indutype":"음료식품 - 정육점","category":"food"}]},{"lat":"37.373092478","long":"127.5837807","imageIndex":7,"items":[{"name":"신광떡방앗간","tel":"031-882-8932","addr":"경기도 여주시 대신면 율촌리 363-7번지","indutype":"음료식품 - 제과점","category":"food"}]},{"lat":"37.373985949","long":"127.5853117","imageIndex":7,"items":[{"name":"한길주","tel":"031-584-6855","addr":"경기도 여주시 대신면 율촌리 376번지","indutype":"음료식품 - 주류 판매점","category":"food"}]}]