[{"lat":"37.395191791","long":"126.91539482","imageIndex":13,"items":[{"name":"(주)팀원플레이","tel":"031-454-8296","addr":"경기도 안양시 만안구 안양동 714-35번지","indutype":"레저업소 - 헬스클럽","category":"leisure"},{"name":"(주)팀원플레이","tel":"031-427-8296","addr":"경기도 안양시 만안구 안양동 714-35번지","indutype":"레저업소 - 헬스클럽","category":"leisure"},{"name":"(주)팀원플레이","tel":"031-466-8296","addr":"경기도 안양시 만안구 안양동 714-35번지","indutype":"레저업소 - 헬스클럽","category":"leisure"},{"name":"청수골프연습장","tel":"031-469-0753","addr":"경기도 안양시 만안구 안양동 714-35번지","indutype":"레저업소 - 골프연습장","category":"leisure"}]},{"lat":"37.415051221","long":"126.91706613","imageIndex":13,"items":[{"name":"21세기노래연습장","tel":"031-474-7840","addr":"경기도 안양시 만안구 안양동 30-4번지","indutype":"레저업소 - 노 래 방","category":"leisure"},{"name":"라온캐롬클럽","tel":"","addr":"경기도 안양시 만안구 안양동 30-4번지","indutype":"레저업소 - 당 구 장","category":"leisure"}]},{"lat":"37.382109941","long":"126.92987388","imageIndex":13,"items":[{"name":"GG PC","tel":"031-466-6487","addr":"경기도 안양시 만안구 안양동 560-11번지","indutype":"레저업소 - 기타레져업소","category":"leisure"}]},{"lat":"37.40018841","long":"126.92248151","imageIndex":13,"items":[{"name":"OK당구클럽","tel":"031-464-6993","addr":"경기도 안양시 만안구 안양동 674-11번지","indutype":"레저업소 - 당 구 장","category":"leisure"},{"name":"뮤직뱅크노래연습장","tel":"031-441-1900","addr":"경기도 안양시 만안구 안양동 674-11번지","indutype":"레저업소 - 노 래 방","category":"leisure"},{"name":"샹떼PC방 안양본점","tel":"","addr":"경기도 안양시 만안구 안양동 674-11번지","indutype":"레저업소 - 기타레져업소","category":"leisure"}]},{"lat":"37.399664252","long":"126.92020074","imageIndex":13,"items":[{"name":"Odyssey VR Park/(주)와이에이치월드 안양","tel":"031-464-0900","addr":"경기도 안양시 만안구 안양동 676-1번지","indutype":"레저업소 - 기타레져업소","category":"leisure"},{"name":"리얼야구존 안양점","tel":"031-466-1119","addr":"경기도 안양시 만안구 안양동 676-1번지","indutype":"레저업소 - 기타레져업소","category":"leisure"}]},{"lat":"37.386635267","long":"126.93361835","imageIndex":13,"items":[{"name":"SBS당구클럽","tel":"031-444-3949","addr":"경기도 안양시 만안구 안양동 529-5번지","indutype":"레저업소 - 당 구 장","category":"leisure"}]},{"lat":"37.399944814","long":"126.92200743","imageIndex":13,"items":[{"name":"VJ노래연습장","tel":"031-448-2132","addr":"경기도 안양시 만안구 안양동 674-76번지","indutype":"레저업소 - 노 래 방","category":"leisure"}]},{"lat":"37.382415779","long":"126.92906062","imageIndex":13,"items":[{"name":"ZEUS PC","tel":"","addr":"경기도 안양시 만안구 안양동 559-2번지","indutype":"레저업소 - 기타레져업소","category":"leisure"},{"name":"세븐스타코인노래연습장","tel":"","addr":"경기도 안양시 만안구 안양동 559-2번지","indutype":"레저업소 - 노 래 방","category":"leisure"}]},{"lat":"37.39466594","long":"126.92353765","imageIndex":13,"items":[{"name":"감사랑 당구클럽","tel":"","addr":"경기도 안양시 만안구 안양동 627-29번지","indutype":"레저업소 - 당 구 장","category":"leisure"}]},{"lat":"37.39836024","long":"126.92378221","imageIndex":13,"items":[{"name":"갤러리노래연습장","tel":"031-441-1898","addr":"경기도 안양시 만안구 안양동 674-152번지","indutype":"레저업소 - 노 래 방","category":"leisure"},{"name":"제임스진당구장","tel":"031-447-1043","addr":"경기도 안양시 만안구 안양동 674-152번지","indutype":"레저업소 - 당 구 장","category":"leisure"}]},{"lat":"37.406218702","long":"126.91348449","imageIndex":13,"items":[{"name":"경기노래연습장","tel":"031-447-8413","addr":"경기도 안양시 만안구 안양동 823-33번지","indutype":"레저업소 - 노 래 방","category":"leisure"}]},{"lat":"37.396943961","long":"126.92128788","imageIndex":13,"items":[{"name":"공주노래방","tel":"031-441-0332","addr":"경기도 안양시 만안구 안양동 676-118번지","indutype":"레저업소 - 노 래 방","category":"leisure"}]},{"lat":"37.400915278","long":"126.91825681","imageIndex":13,"items":[{"name":"궁전노래연습장","tel":"031-465-3047","addr":"경기도 안양시 만안구 안양동 695-157번지","indutype":"레저업소 - 노 래 방","category":"leisure"}]},{"lat":"37.400079164","long":"126.92084403","imageIndex":13,"items":[{"name":"그레이스 피씨(PC)방","tel":"070-4516-1964","addr":"경기도 안양시 만안구 안양동 674-40번지","indutype":"레저업소 - 기타레져업소","category":"leisure"},{"name":"닉pc방","tel":"","addr":"경기도 안양시 만안구 안양동 674-40번지","indutype":"레저업소 - 기타레져업소","category":"leisure"},{"name":"싸인이스케이프","tel":"031-443-8782","addr":"경기도 안양시 만안구 안양동 674-40번지","indutype":"레저업소 - 기타레져업소","category":"leisure"}]},{"lat":"37.402636388","long":"126.91851464","imageIndex":13,"items":[{"name":"극진공수도안양지부대한극진회","tel":"031-442-7695","addr":"경기도 안양시 만안구 안양동 689-179번지","indutype":"레저업소 - 헬스클럽","category":"leisure"}]},{"lat":"37.418025296","long":"126.93178202","imageIndex":13,"items":[{"name":"금수노래연습장","tel":"031-471-2226","addr":"경기도 안양시 만안구 안양동 1367번지","indutype":"레저업소 - 노 래 방","category":"leisure"}]},{"lat":"37.397250607","long":"126.92172799","imageIndex":13,"items":[{"name":"기쁜날","tel":"031-445-2257","addr":"경기도 안양시 만안구 안양동 676-235번지","indutype":"레저업소 - 노 래 방","category":"leisure"}]},{"lat":"37.400690164","long":"126.91844906","imageIndex":13,"items":[{"name":"길목당구장","tel":"","addr":"경기도 안양시 만안구 안양동 695-168번지","indutype":"레저업소 - 당 구 장","category":"leisure"}]},{"lat":"37.39353009","long":"126.9226806","imageIndex":13,"items":[{"name":"까치노래연습장","tel":"031-469-7730","addr":"경기도 안양시 만안구 안양동 627-148번지","indutype":"레저업소 - 노 래 방","category":"leisure"}]},{"lat":"37.396333363","long":"126.92437159","imageIndex":13,"items":[{"name":"남부당구장","tel":"031-465-1845","addr":"경기도 안양시 만안구 안양동 622-119번지","indutype":"레저업소 - 당 구 장","category":"leisure"}]},{"lat":"37.386939937","long":"126.93081771","imageIndex":13,"items":[{"name":"네이처PC방","tel":"070-9198-5108","addr":"경기도 안양시 만안구 안양동 504-6번지","indutype":"레저업소 - 기타레져업소","category":"leisure"}]},{"lat":"37.398746774","long":"126.92244916","imageIndex":13,"items":[{"name":"놀이터","tel":"031-448-9002","addr":"경기도 안양시 만안구 안양동 674-229번지","indutype":"레저업소 - 기타레져업소","category":"leisure"},{"name":"코인싱어동전노래연습장","tel":"031-443-0729","addr":"경기도 안양시 만안구 안양동 674-229번지","indutype":"레저업소 - 노 래 방","category":"leisure"}]},{"lat":"37.393804688","long":"126.91600624","imageIndex":13,"items":[{"name":"뉴본PC방","tel":"070-6340-1735","addr":"경기도 안양시 만안구 안양동 710-98번지","indutype":"레저업소 - 기타레져업소","category":"leisure"}]},{"lat":"37.38239","long":"126.93109305","imageIndex":13,"items":[{"name":"다모여당구장","tel":"070-8961-7514","addr":"경기도 안양시 만안구 안양동 599-8번지","indutype":"레저업소 - 당 구 장","category":"leisure"}]},{"lat":"37.406245937","long":"126.91375553","imageIndex":13,"items":[{"name":"당구마당","tel":"031-464-2429","addr":"경기도 안양시 만안구 안양동 834-1번지","indutype":"레저업소 - 당 구 장","category":"leisure"}]},{"lat":"37.41522233","long":"126.91695297","imageIndex":13,"items":[{"name":"당구박사","tel":"031-471-7595","addr":"경기도 안양시 만안구 안양동 30-3번지","indutype":"레저업소 - 당 구 장","category":"leisure"}]},{"lat":"37.400914759","long":"126.917534","imageIndex":13,"items":[{"name":"당구박사","tel":"031-469-1497","addr":"경기도 안양시 만안구 안양동 873-123번지","indutype":"레저업소 - 당 구 장","category":"leisure"}]},{"lat":"37.400663254","long":"126.9186185","imageIndex":13,"items":[{"name":"대농당구장","tel":"","addr":"경기도 안양시 만안구 안양동 695-170번지","indutype":"레저업소 - 당 구 장","category":"leisure"},{"name":"즐거운노래연습장","tel":"031-444-9467","addr":"경기도 안양시 만안구 안양동 695-170번지","indutype":"레저업소 - 노 래 방","category":"leisure"}]},{"lat":"37.398747226","long":"126.92311548","imageIndex":13,"items":[{"name":"더 캠프PC방 안양1번가점","tel":"","addr":"경기도 안양시 만안구 안양동 674-208번지","indutype":"레저업소 - 기타레져업소","category":"leisure"},{"name":"팜타이청화","tel":"031-443-3886","addr":"경기도 안양시 만안구 안양동 674-208번지","indutype":"레저업소 - 헬스클럽","category":"leisure"}]},{"lat":"37.385669931","long":"126.93150771","imageIndex":13,"items":[{"name":"더메이커","tel":"031-441-1210","addr":"경기도 안양시 만안구 안양동 505-11번지","indutype":"레저업소 - 헬스클럽","category":"leisure"}]},{"lat":"37.385248244","long":"126.93453425","imageIndex":13,"items":[{"name":"더메이커 필라테스","tel":"031-465-6326","addr":"경기도 안양시 만안구 안양동 533-31번지","indutype":"레저업소 - 헬스클럽","category":"leisure"}]},{"lat":"37.387614889","long":"126.9295072","imageIndex":13,"items":[{"name":"더블에이치골프","tel":"","addr":"경기도 안양시 만안구 안양동 492-19번지 이화연립","indutype":"레저업소 - 골프연습장","category":"leisure"}]},{"lat":"37.395301935","long":"126.91817278","imageIndex":13,"items":[{"name":"더샵PC방","tel":"","addr":"경기도 안양시 만안구 안양동 711-410번지","indutype":"레저업소 - 기타레져업소","category":"leisure"},{"name":"필당구클럽","tel":"070-7535-0018","addr":"경기도 안양시 만안구 안양동 711-410번지","indutype":"레저업소 - 당 구 장","category":"leisure"}]},{"lat":"37.393967076","long":"126.91628838","imageIndex":13,"items":[{"name":"더캠프PC방 안양동점","tel":"070-5020-5331","addr":"경기도 안양시 만안구 안양동 710-118번지","indutype":"레저업소 - 기타레져업소","category":"leisure"}]},{"lat":"37.414582575","long":"126.91689722","imageIndex":13,"items":[{"name":"독도노래연습장","tel":"031-472-2168","addr":"경기도 안양시 만안구 안양동 30-37번지","indutype":"레저업소 - 노 래 방","category":"leisure"}]},{"lat":"37.394550148","long":"126.92555921","imageIndex":13,"items":[{"name":"동명노래방","tel":"031-442-8484","addr":"경기도 안양시 만안구 안양동 622-358번지","indutype":"레저업소 - 노 래 방","category":"leisure"}]},{"lat":"37.398610033","long":"126.92014543","imageIndex":13,"items":[{"name":"동원노래방","tel":"031-445-9424","addr":"경기도 안양시 만안구 안양동 676-50번지","indutype":"레저업소 - 노 래 방","category":"leisure"}]},{"lat":"37.394358316","long":"126.92165206","imageIndex":13,"items":[{"name":"돼지가목청따는날 노래연습장","tel":"031-469-0323","addr":"경기도 안양시 만안구 안양동 707-133번지","indutype":"레저업소 - 노 래 방","category":"leisure"}]},{"lat":"37.394110889","long":"126.91581391","imageIndex":13,"items":[{"name":"딜라잇 필라테스","tel":"","addr":"경기도 안양시 만안구 안양동 710-37번지","indutype":"레저업소 - 헬스클럽","category":"leisure"}]},{"lat":"37.40033045","long":"126.91942073","imageIndex":13,"items":[{"name":"또와노래방","tel":"031-468-5478","addr":"경기도 안양시 만안구 안양동 1195-59번지","indutype":"레저업소 - 노 래 방","category":"leisure"}]},{"lat":"37.394778675","long":"126.91723605","imageIndex":13,"items":[{"name":"라이또PC방 안양동점","tel":"070-3144-2847","addr":"경기도 안양시 만안구 안양동 714-107번지","indutype":"레저업소 - 기타레져업소","category":"leisure"}]},{"lat":"37.399215925","long":"126.92337474","imageIndex":13,"items":[{"name":"락휴노래연습장안양1번가점","tel":"031-445-0005","addr":"경기도 안양시 만안구 안양동","indutype":"레저업소 - 노 래 방","category":"leisure"}]},{"lat":"37.399078912","long":"126.92065312","imageIndex":13,"items":[{"name":"러브실내낚시카페","tel":"031-448-0524","addr":"경기도 안양시 만안구 안양동 676-10번지","indutype":"레저업소 - 기타레져업소","category":"leisure"}]},{"lat":"37.399079413","long":"126.92137592","imageIndex":13,"items":[{"name":"럭셔리PC방","tel":"","addr":"경기도 안양시 만안구 안양동 674-122번지","indutype":"레저업소 - 기타레져업소","category":"leisure"},{"name":"바디핏요가","tel":"031-441-3265","addr":"경기도 안양시 만안구 안양동 674-122번지","indutype":"레저업소 - 헬스클럽","category":"leisure"},{"name":"볼원볼링장&당구장","tel":"","addr":"경기도 안양시 만안구 안양동 674-122번지","indutype":"레저업소 - 볼 링 장","category":"leisure"},{"name":"일번가 콜라텍","tel":"","addr":"경기도 안양시 만안구 안양동 674-122번지","indutype":"레저업소 - 기타레져업소","category":"leisure"},{"name":"할리갈리 보드게임카페","tel":"","addr":"경기도 안양시 만안구 안양동 674-122번지","indutype":"레저업소 - 기타레져업소","category":"leisure"}]},{"lat":"37.398359287","long":"126.92237052","imageIndex":13,"items":[{"name":"럭셔리노래연습장","tel":"031-465-6911","addr":"경기도 안양시 만안구 안양동 674-145번지","indutype":"레저업소 - 노 래 방","category":"leisure"},{"name":"쇼타임PC방 안양1번가점","tel":"","addr":"경기도 안양시 만안구 안양동 674-145번지","indutype":"레저업소 - 기타레져업소","category":"leisure"},{"name":"케이팝(K-POP)코인노래연습장","tel":"","addr":"경기도 안양시 만안구 안양동 674-145번지","indutype":"레저업소 - 노 래 방","category":"leisure"}]},{"lat":"37.398747416","long":"126.92339782","imageIndex":13,"items":[{"name":"럭키노래연습장","tel":"031-466-7560","addr":"경기도 안양시 만안구 안양동 674-232번지","indutype":"레저업소 - 노 래 방","category":"leisure"},{"name":"럭키노래연습장","tel":"031-466-8894","addr":"경기도 안양시 만안구 안양동 674-232번지","indutype":"레저업소 - 노 래 방","category":"leisure"}]},{"lat":"37.396938838","long":"126.91417311","imageIndex":13,"items":[{"name":"로또당구장 (1호점)","tel":"","addr":"경기도 안양시 만안구 안양동 952-5번지","indutype":"레저업소 - 당 구 장","category":"leisure"}]},{"lat":"37.400439355","long":"126.9205387","imageIndex":13,"items":[{"name":"롤러클럽 안양일번가점","tel":"031-1234-1234","addr":"경기도 안양시 만안구 안양동 668-33번지","indutype":"레저업소 - 기타레져업소","category":"leisure"},{"name":"주식회사 제이앤제이인터내셔널","tel":"031-464-0923","addr":"경기도 안양시 만안구 안양동 668-33번지","indutype":"레저업소 - 볼 링 장","category":"leisure"}]},{"lat":"37.401217814","long":"126.91309514","imageIndex":13,"items":[{"name":"롯데프라자스포츠센터","tel":"031-441-4310","addr":"경기도 안양시 만안구 안양동 900-10번지","indutype":"레저업소 - 수 영 장","category":"leisure"},{"name":"롯데프라자스포츠쎈터","tel":"031-441-4310","addr":"경기도 안양시 만안구 안양동 900-10번지","indutype":"레저업소 - 수 영 장","category":"leisure"},{"name":"월드탁구클럽","tel":"031-444-1235","addr":"경기도 안양시 만안구 안양동 900-10번지","indutype":"레저업소 - 기타레져업소","category":"leisure"}]},{"lat":"37.401834249","long":"126.91817672","imageIndex":13,"items":[{"name":"리얼바디짐","tel":"031-464-6661","addr":"경기도 안양시 만안구 안양동 695-150번지","indutype":"레저업소 - 헬스클럽","category":"leisure"}]},{"lat":"37.399224615","long":"126.9229004","imageIndex":13,"items":[{"name":"리얼타겟 사격장","tel":"","addr":"경기도 안양시 만안구 안양동 674-105번지","indutype":"레저업소 - 기타레져업소","category":"leisure"},{"name":"크라우드피씨방","tel":"070-8656-0977","addr":"경기도 안양시 만안구 안양동 674-105번지","indutype":"레저업소 - 기타레져업소","category":"leisure"}]},{"lat":"37.394107647","long":"126.92403512","imageIndex":13,"items":[{"name":"마스타승마클럽","tel":"031-449-3995","addr":"경기도 안양시 만안구 안양동 627-188번지","indutype":"레저업소 - 기타레져업소","category":"leisure"}]},{"lat":"37.39641818","long":"126.9301988","imageIndex":13,"items":[{"name":"만안특공무술","tel":"031-466-0700","addr":"경기도 안양시 만안구 안양동 1388-1번지","indutype":"레저업소 - 헬스클럽","category":"leisure"},{"name":"쇼타임 PC방 비산동점","tel":"02-222-2222","addr":"경기도 안양시 만안구 안양동 1388-1번지","indutype":"레저업소 - 기타레져업소","category":"leisure"},{"name":"필라테스 비비","tel":"031-445-0045","addr":"경기도 안양시 만안구 안양동 1388-1번지","indutype":"레저업소 - 헬스클럽","category":"leisure"}]},{"lat":"37.385807824","long":"126.9362049","imageIndex":13,"items":[{"name":"매니아당구클럽","tel":"031-445-0009","addr":"경기도 안양시 만안구 안양동 201-23번지","indutype":"레저업소 - 당 구 장","category":"leisure"}]},{"lat":"37.388029598","long":"126.92990202","imageIndex":13,"items":[{"name":"메가프로피씨","tel":"070-3314-4976","addr":"경기도 안양시 만안구 안양동 491-2번지","indutype":"레저업소 - 기타레져업소","category":"leisure"}]},{"lat":"37.392276587","long":"126.90895013","imageIndex":13,"items":[{"name":"명가 Physical Fitness Center","tel":"031-342-8330","addr":"경기도 안양시 만안구 안양동 995-4번지","indutype":"레저업소 - 헬스클럽","category":"leisure"},{"name":"처음처럼당구장","tel":"031-443-2656","addr":"경기도 안양시 만안구 안양동 995-4번지","indutype":"레저업소 - 당 구 장","category":"leisure"},{"name":"하늘다리PC방","tel":"031-111-2522","addr":"경기도 안양시 만안구 안양동 995-4번지","indutype":"레저업소 - 기타레져업소","category":"leisure"}]},{"lat":"37.393224583","long":"126.92392312","imageIndex":13,"items":[{"name":"명동당구클럽","tel":"031-441-0744","addr":"경기도 안양시 만안구 안양동 613-11번지","indutype":"레저업소 - 당 구 장","category":"leisure"}]},{"lat":"37.419771478","long":"126.92889971","imageIndex":13,"items":[{"name":"명작노래연습장","tel":"031-473-6969","addr":"경기도 안양시 만안구 안양동 1361-7번지","indutype":"레저업소 - 노 래 방","category":"leisure"}]},{"lat":"37.383613918","long":"126.928732","imageIndex":13,"items":[{"name":"명작노래연습장","tel":"031-447-9197","addr":"경기도 안양시 만안구 안양동 555-2번지 세양아파트","indutype":"레저업소 - 노 래 방","category":"leisure"}]},{"lat":"37.385140789","long":"126.93569737","imageIndex":13,"items":[{"name":"명학노래연습장","tel":"031-445-5566","addr":"경기도 안양시 만안구 안양동 202-4번지","indutype":"레저업소 - 노 래 방","category":"leisure"}]},{"lat":"37.386166973","long":"126.93401399","imageIndex":13,"items":[{"name":"명학스크린골프존","tel":"031-464-0753","addr":"경기도 안양시 만안구 안양동 533-6번지 빌로채","indutype":"레저업소 - 스크린골프","category":"leisure"}]},{"lat":"37.384670291","long":"126.93231035","imageIndex":13,"items":[{"name":"문화당구장","tel":"031-469-9079","addr":"경기도 안양시 만안구 안양동 548-5번지","indutype":"레저업소 - 당 구 장","category":"leisure"},{"name":"송&song노래연습장","tel":"031-446-8425","addr":"경기도 안양시 만안구 안양동 548-5번지","indutype":"레저업소 - 노 래 방","category":"leisure"}]},{"lat":"37.397383899","long":"126.91906261","imageIndex":13,"items":[{"name":"미그린체조교실","tel":"031-443-8868","addr":"경기도 안양시 만안구 안양동 711-14번지","indutype":"레저업소 - 헬스클럽","category":"leisure"}]},{"lat":"37.391330255","long":"126.9348675","imageIndex":13,"items":[{"name":"미소노래연습장","tel":"031-469-8867","addr":"경기도 안양시 만안구 안양동 193-5번지","indutype":"레저업소 - 노 래 방","category":"leisure"}]},{"lat":"37.396634884","long":"126.93095524","imageIndex":13,"items":[{"name":"미스트롯 노래연습장","tel":"031-466-2282","addr":"경기도 안양시 만안구 안양동 1389-1번지","indutype":"레저업소 - 노 래 방","category":"leisure"}]},{"lat":"37.398107403","long":"126.92295805","imageIndex":13,"items":[{"name":"바디핏","tel":"031-442-7222","addr":"경기도 안양시 만안구 안양동 674-259번지","indutype":"레저업소 - 헬스클럽","category":"leisure"},{"name":"비엔티레오","tel":"031-442-7222","addr":"경기도 안양시 만안구 안양동 674-259번지","indutype":"레저업소 - 헬스클럽","category":"leisure"}]},{"lat":"37.385662256","long":"126.93375475","imageIndex":13,"items":[{"name":"발리노래연습장","tel":"031-468-8063","addr":"경기도 안양시 만안구 안양동 533-21번지","indutype":"레저업소 - 노 래 방","category":"leisure"}]},{"lat":"37.400053105","long":"126.92225577","imageIndex":13,"items":[{"name":"방탈출카페 마스터키 안양일번가점","tel":"031-441-0612","addr":"경기도 안양시 만안구 안양동 674-83번지","indutype":"레저업소 - 기타레져업소","category":"leisure"},{"name":"와 노래연습장","tel":"","addr":"경기도 안양시 만안구 안양동 674-83번지","indutype":"레저업소 - 노 래 방","category":"leisure"}]},{"lat":"37.387335939","long":"126.93009465","imageIndex":13,"items":[{"name":"벌집노래연습장","tel":"031-456-7080","addr":"경기도 안양시 만안구 안양동 491-14번지","indutype":"레저업소 - 노 래 방","category":"leisure"}]},{"lat":"37.398386563","long":"126.92273189","imageIndex":13,"items":[{"name":"보물섬실내낚시카페","tel":"031-911-4689","addr":"경기도 안양시 만안구 안양동 674-257번지","indutype":"레저업소 - 기타레져업소","category":"leisure"},{"name":"천수무술학원","tel":"031-422-0759","addr":"경기도 안양시 만안구 안양동 674-257번지","indutype":"레저업소 - 헬스클럽","category":"leisure"}]},{"lat":"37.395410715","long":"126.91909869","imageIndex":13,"items":[{"name":"봉봉","tel":"031-441-0664","addr":"경기도 안양시 만안구 안양동 707-14번지","indutype":"레저업소 - 노 래 방","category":"leisure"}]},{"lat":"37.399549366","long":"126.92347603","imageIndex":13,"items":[{"name":"불독(BULLDOG)빌리어드","tel":"070-8256-8868","addr":"경기도 안양시 만안구 안양동 674-98번지","indutype":"레저업소 - 당 구 장","category":"leisure"},{"name":"에이스핏","tel":"031-468-5555","addr":"경기도 안양시 만안구 안양동 674-98번지","indutype":"레저업소 - 헬스클럽","category":"leisure"},{"name":"헤라피씨방","tel":"","addr":"경기도 안양시 만안구 안양동 674-98번지","indutype":"레저업소 - 기타레져업소","category":"leisure"}]},{"lat":"37.398693786","long":"126.92404161","imageIndex":13,"items":[{"name":"뷰락볼링장","tel":"031-465-3533","addr":"경기도 안양시 만안구 안양동 674-163번지","indutype":"레저업소 - 볼 링 장","category":"leisure"},{"name":"원펀치쓰리칼로리","tel":"031-385-9713","addr":"경기도 안양시 만안구 안양동 674-163번지","indutype":"레저업소 - 헬스클럽","category":"leisure"},{"name":"조이당구장","tel":"031-464-4939","addr":"경기도 안양시 만안구 안양동 674-163번지","indutype":"레저업소 - 당 구 장","category":"leisure"}]},{"lat":"37.395970119","long":"126.9202048","imageIndex":13,"items":[{"name":"블랙스완","tel":"031-731-9709","addr":"경기도 안양시 만안구 안양동 707-1번지","indutype":"레저업소 - 헬스클럽","category":"leisure"},{"name":"와와노래연습장","tel":"031-464-3857","addr":"경기도 안양시 만안구 안양동 707-1번지","indutype":"레저업소 - 노 래 방","category":"leisure"}]},{"lat":"37.383472522","long":"126.93328253","imageIndex":13,"items":[{"name":"블루노래연습장","tel":"031-444-9046","addr":"경기도 안양시 만안구 안양동 574-3번지","indutype":"레저업소 - 노 래 방","category":"leisure"}]},{"lat":"37.390528102","long":"126.93442782","imageIndex":13,"items":[{"name":"비박스","tel":"031-443-9636","addr":"경기도 안양시 만안구 안양동 194-5번지","indutype":"레저업소 - 헬스클럽","category":"leisure"},{"name":"우성당구장","tel":"031-449-4121","addr":"경기도 안양시 만안구 안양동 194-5번지","indutype":"레저업소 - 당 구 장","category":"leisure"}]},{"lat":"37.406299493","long":"126.91308908","imageIndex":13,"items":[{"name":"빠빠레노래방","tel":"031-448-0016","addr":"경기도 안양시 만안구 안양동 822-38번지","indutype":"레저업소 - 노 래 방","category":"leisure"}]},{"lat":"37.387029935","long":"126.93064825","imageIndex":13,"items":[{"name":"뿌야PC방","tel":"","addr":"경기도 안양시 만안구 안양동 504-4번지","indutype":"레저업소 - 기타레져업소","category":"leisure"}]},{"lat":"37.40491402","long":"126.91586918","imageIndex":13,"items":[{"name":"사이버노래연습장","tel":"","addr":"경기도 안양시 만안구 안양동 838-3번지","indutype":"레저업소 - 노 래 방","category":"leisure"}]},{"lat":"37.394941636","long":"126.91831999","imageIndex":13,"items":[{"name":"새천년 노래연습장","tel":"031-465-7436","addr":"경기도 안양시 만안구 안양동 707-23번지","indutype":"레저업소 - 노 래 방","category":"leisure"},{"name":"안양당구클럽","tel":"","addr":"경기도 안양시 만안구 안양동 707-23번지","indutype":"레저업소 - 당 구 장","category":"leisure"}]},{"lat":"37.400662018","long":"126.91690184","imageIndex":13,"items":[{"name":"새천년노래연습장","tel":"","addr":"경기도 안양시 만안구 안양동 873-166번지","indutype":"레저업소 - 노 래 방","category":"leisure"}]},{"lat":"37.39649985","long":"126.93114735","imageIndex":13,"items":[{"name":"샹떼PC방 안양동점","tel":"","addr":"경기도 안양시 만안구 안양동 1389-2번지","indutype":"레저업소 - 기타레져업소","category":"leisure"}]},{"lat":"37.394219276","long":"126.91617516","imageIndex":13,"items":[{"name":"세계로노래방","tel":"031-444-5050","addr":"경기도 안양시 만안구 안양동 714-145번지","indutype":"레저업소 - 노 래 방","category":"leisure"}]},{"lat":"37.398855461","long":"126.92328477","imageIndex":13,"items":[{"name":"세븐노래연습장","tel":"031-445-1590","addr":"경기도 안양시 만안구 안양동 674-146번지","indutype":"레저업소 - 노 래 방","category":"leisure"}]},{"lat":"37.400662599","long":"126.9177037","imageIndex":13,"items":[{"name":"세븐당구장","tel":"031-461-1465","addr":"경기도 안양시 만안구 안양동 873-174번지","indutype":"레저업소 - 당 구 장","category":"leisure"}]},{"lat":"37.413636297","long":"126.91659332","imageIndex":13,"items":[{"name":"셀리네(MY MO.1 PC Sally)","tel":"070-5207-4855","addr":"경기도 안양시 만안구 안양동 32-5번지","indutype":"레저업소 - 기타레져업소","category":"leisure"},{"name":"싱글벙글 노래연습장","tel":"031-472-5545","addr":"경기도 안양시 만안구 안양동 32-5번지","indutype":"레저업소 - 노 래 방","category":"leisure"}]},{"lat":"37.39863886","long":"126.92275421","imageIndex":13,"items":[{"name":"셜록홈즈 안양점","tel":"031-469-3003","addr":"경기도 안양시 만안구 안양동 674-262번지","indutype":"레저업소 - 기타레져업소","category":"leisure"}]},{"lat":"37.387191909","long":"126.93030933","imageIndex":13,"items":[{"name":"소리공간노래연습장","tel":"031-443-6601","addr":"경기도 안양시 만안구 안양동 504-1번지","indutype":"레저업소 - 노 래 방","category":"leisure"}]},{"lat":"37.399719469","long":"126.92187215","imageIndex":13,"items":[{"name":"솔","tel":"031-443-3599","addr":"경기도 안양시 만안구 안양동 674-66번지","indutype":"레저업소 - 기타레져업소","category":"leisure"}]},{"lat":"37.406136933","long":"126.91259231","imageIndex":13,"items":[{"name":"쇼킹노래연습장","tel":"031-447-5161","addr":"경기도 안양시 만안구 안양동 822-72번지","indutype":"레저업소 - 노 래 방","category":"leisure"},{"name":"신화당구장","tel":"","addr":"경기도 안양시 만안구 안양동 822-72번지","indutype":"레저업소 - 당 구 장","category":"leisure"}]},{"lat":"37.418776855","long":"126.92347833","imageIndex":13,"items":[{"name":"수노래연습장","tel":"031-474-3311","addr":"경기도 안양시 만안구 안양동 1349-4번지","indutype":"레저업소 - 노 래 방","category":"leisure"}]},{"lat":"37.397746053","long":"126.92156935","imageIndex":13,"items":[{"name":"쉬즈플라잉요가&필라테스","tel":"","addr":"경기도 안양시 만안구 안양동 676-113번지","indutype":"레저업소 - 헬스클럽","category":"leisure"}]},{"lat":"37.419047677","long":"126.92425751","imageIndex":13,"items":[{"name":"슈퍼스타 노래연습장","tel":"031-471-8475","addr":"경기도 안양시 만안구 안양동 1349-10번지","indutype":"레저업소 - 노 래 방","category":"leisure"}]},{"lat":"37.399188006","long":"126.92206471","imageIndex":13,"items":[{"name":"슈퍼스타코인노래연습장","tel":"031-464-5747","addr":"경기도 안양시 만안구 안양동 674-235번지","indutype":"레저업소 - 노 래 방","category":"leisure"},{"name":"아이맥스죤","tel":"031-446-3478","addr":"경기도 안양시 만안구 안양동 674-235번지","indutype":"레저업소 - 기타레져업소","category":"leisure"}]},{"lat":"37.401826496","long":"126.91994989","imageIndex":13,"items":[{"name":"스타","tel":"031-442-5610","addr":"경기도 안양시 만안구 안양동 689-72번지","indutype":"레저업소 - 노 래 방","category":"leisure"}]},{"lat":"37.39849784","long":"126.92753152","imageIndex":13,"items":[{"name":"스타노래연습장","tel":"031-465-3006","addr":"경기도 안양시 만안구 안양동 97-3번지","indutype":"레저업소 - 노 래 방","category":"leisure"}]},{"lat":"37.381884806","long":"126.93006605","imageIndex":13,"items":[{"name":"스타노래연습장","tel":"031-442-6925","addr":"경기도 안양시 만안구 안양동 601-18번지","indutype":"레저업소 - 노 래 방","category":"leisure"}]},{"lat":"37.398857026","long":"126.92564513","imageIndex":13,"items":[{"name":"스타점핑","tel":"031-442-8244","addr":"경기도 안양시 만안구 안양동 1384번지","indutype":"레저업소 - 헬스클럽","category":"leisure"}]},{"lat":"37.400106941","long":"126.9219282","imageIndex":13,"items":[{"name":"스타프라자","tel":"031-442-5799","addr":"경기도 안양시 만안구 안양동 674-171번지","indutype":"레저업소 - 당 구 장","category":"leisure"}]},{"lat":"37.390608996","long":"126.93408898","imageIndex":13,"items":[{"name":"스터닝짐","tel":"031-469-7776","addr":"경기도 안양시 만안구 안양동 194번지","indutype":"레저업소 - 헬스클럽","category":"leisure"},{"name":"현대당구클럽","tel":"","addr":"경기도 안양시 만안구 안양동 194번지","indutype":"레저업소 - 당 구 장","category":"leisure"}]},{"lat":"37.395085376","long":"126.9177326","imageIndex":13,"items":[{"name":"스토리PC방","tel":"070-4512-5335","addr":"경기도 안양시 만안구 안양동 714-109번지","indutype":"레저업소 - 기타레져업소","category":"leisure"},{"name":"일번지노래연습장","tel":"031-442-2207","addr":"경기도 안양시 만안구 안양동 714-109번지","indutype":"레저업소 - 노 래 방","category":"leisure"}]},{"lat":"37.414024132","long":"126.91714637","imageIndex":13,"items":[{"name":"스포츠당구클럽","tel":"070-8699-3053","addr":"경기도 안양시 만안구 안양동 41-1번지 세림연립","indutype":"레저업소 - 당 구 장","category":"leisure"}]},{"lat":"37.393524472","long":"126.91478695","imageIndex":13,"items":[{"name":"신나는블럭세상","tel":"031-468-2683","addr":"경기도 안양시 만안구 안양동 718-16번지","indutype":"레저업소 - 기타레져업소","category":"leisure"}]},{"lat":"37.385328849","long":"126.9336986","imageIndex":13,"items":[{"name":"쌍쌍노래연습장","tel":"031-449-7417","addr":"경기도 안양시 만안구 안양동 532-8번지","indutype":"레저업소 - 노 래 방","category":"leisure"}]},{"lat":"37.399719924","long":"126.92253847","imageIndex":13,"items":[{"name":"썸1당구장","tel":"031-445-6171","addr":"경기도 안양시 만안구 안양동 674-215번지","indutype":"레저업소 - 당 구 장","category":"leisure"},{"name":"하이넷피씨방","tel":"070-4015-0984","addr":"경기도 안양시 만안구 안양동 674-215번지","indutype":"레저업소 - 기타레져업소","category":"leisure"}]},{"lat":"37.399521364","long":"126.92204176","imageIndex":13,"items":[{"name":"썸코인노래연습장","tel":"","addr":"경기도 안양시 만안구 안양동 674-114번지","indutype":"레저업소 - 노 래 방","category":"leisure"},{"name":"아이센스PC 안양일번가점","tel":"070-7712-1925","addr":"경기도 안양시 만안구 안양동 674-114번지","indutype":"레저업소 - 기타레져업소","category":"leisure"}]},{"lat":"37.398054086","long":"126.92406487","imageIndex":13,"items":[{"name":"쎄리당구장","tel":"031-449-9602","addr":"경기도 안양시 만안구 안양동 622-189번지","indutype":"레저업소 - 당 구 장","category":"leisure"}]},{"lat":"37.39980039","long":"126.9216236","imageIndex":13,"items":[{"name":"쓰리팝PC방","tel":"070-8260-2163","addr":"경기도 안양시 만안구 안양동 674-62번지","indutype":"레저업소 - 기타레져업소","category":"leisure"}]},{"lat":"37.382804534","long":"126.93120557","imageIndex":13,"items":[{"name":"아레나 피씨방","tel":"","addr":"경기도 안양시 만안구 안양동 564-23번지","indutype":"레저업소 - 기타레져업소","category":"leisure"}]},{"lat":"37.391359645","long":"126.92415093","imageIndex":13,"items":[{"name":"아이오PC방","tel":"031-122-1111","addr":"경기도 안양시 만안구 안양동 452-2번지","indutype":"레저업소 - 기타레져업소","category":"leisure"}]},{"lat":"37.390475692","long":"126.93734129","imageIndex":13,"items":[{"name":"아지트당구장","tel":"","addr":"경기도 안양시 만안구 안양동 192-20번지","indutype":"레저업소 - 당 구 장","category":"leisure"}]},{"lat":"37.398972294","long":"126.9228442","imageIndex":13,"items":[{"name":"아트노래연습장","tel":"031-464-1858","addr":"경기도 안양시 만안구 안양동 674-188번지","indutype":"레저업소 - 노 래 방","category":"leisure"}]},{"lat":"37.387138021","long":"126.93059168","imageIndex":13,"items":[{"name":"안양꾼낚시카페","tel":"031-441-7885","addr":"경기도 안양시 만안구 안양동 504-3번지","indutype":"레저업소 - 기타레져업소","category":"leisure"},{"name":"에이치엔씨","tel":"031-441-7885","addr":"경기도 안양시 만안구 안양동 504-3번지","indutype":"레저업소 - 기타레져업소","category":"leisure"},{"name":"프라임당구","tel":"","addr":"경기도 안양시 만안구 안양동 504-3번지","indutype":"레저업소 - 당 구 장","category":"leisure"}]},{"lat":"37.405051616","long":"126.91925737","imageIndex":13,"items":[{"name":"안양스크린골프","tel":"031-468-5077","addr":"경기도 안양시 만안구 안양동 861-32번지 마인빌","indutype":"레저업소 - 스크린골프","category":"leisure"}]},{"lat":"37.418161847","long":"126.92009003","imageIndex":13,"items":[{"name":"알프스노래연습장","tel":"031-472-0318","addr":"경기도 안양시 만안구 안양동 1319-14번지","indutype":"레저업소 - 노 래 방","category":"leisure"}]},{"lat":"37.396139213","long":"126.91725709","imageIndex":13,"items":[{"name":"앗싸점핑다이어트","tel":"","addr":"경기도 안양시 만안구 안양동 711-310번지","indutype":"레저업소 - 헬스클럽","category":"leisure"}]},{"lat":"37.392556498","long":"126.90970639","imageIndex":13,"items":[{"name":"애니콜노래연습장","tel":"031-442-3760","addr":"경기도 안양시 만안구 안양동 759-11번지","indutype":"레저업소 - 노 래 방","category":"leisure"}]},{"lat":"37.400858786","long":"126.91492518","imageIndex":13,"items":[{"name":"앵콜노래연습장","tel":"031-443-0883","addr":"경기도 안양시 만안구 안양동 873-95번지","indutype":"레저업소 - 노 래 방","category":"leisure"}]},{"lat":"37.390495393","long":"126.92523589","imageIndex":13,"items":[{"name":"야미노래연습장","tel":"031-466-0787","addr":"경기도 안양시 만안구 안양동 469-23번지","indutype":"레저업소 - 노 래 방","category":"leisure"}]},{"lat":"37.3968314","long":"126.91508799","imageIndex":13,"items":[{"name":"양지노래연습장","tel":"031-448-0900","addr":"경기도 안양시 만안구 안양동 1195-18번지","indutype":"레저업소 - 노 래 방","category":"leisure"}]},{"lat":"37.39769366","long":"126.92403137","imageIndex":13,"items":[{"name":"에스비에스 노래연습장","tel":"031-441-5557","addr":"경기도 안양시 만안구 안양동 622-180번지","indutype":"레저업소 - 노 래 방","category":"leisure"}]},{"lat":"37.391114349","long":"126.9354549","imageIndex":13,"items":[{"name":"에이원골프클럽","tel":"031-449-0707","addr":"경기도 안양시 만안구 안양동 192-4번지","indutype":"레저업소 - 골프연습장","category":"leisure"}]},{"lat":"37.400106616","long":"126.92145386","imageIndex":13,"items":[{"name":"엑스텐 실내양궁","tel":"031-469-8884","addr":"경기도 안양시 만안구 안양동 674-38번지","indutype":"레저업소 - 기타레져업소","category":"leisure"}]},{"lat":"37.399556962","long":"126.92139799","imageIndex":13,"items":[{"name":"엔젤노래연습장","tel":"031-447-8250","addr":"경기도 안양시 만안구 안양동","indutype":"레저업소 - 노 래 방","category":"leisure"}]},{"lat":"37.400915399","long":"126.91842622","imageIndex":13,"items":[{"name":"엠브이피노래연습장","tel":"031-442-5630","addr":"경기도 안양시 만안구 안양동 695-158번지","indutype":"레저업소 - 노 래 방","category":"leisure"}]},{"lat":"37.398521637","long":"126.92261881","imageIndex":13,"items":[{"name":"엣지노래연습장","tel":"","addr":"경기도 안양시 만안구 안양동 674-256번지","indutype":"레저업소 - 노 래 방","category":"leisure"},{"name":"훼미리당구장","tel":"031-446-2335","addr":"경기도 안양시 만안구 안양동 674-256번지","indutype":"레저업소 - 당 구 장","category":"leisure"}]},{"lat":"37.400886883","long":"126.91637077","imageIndex":13,"items":[{"name":"영상노래연습장","tel":"031-444-5585","addr":"경기도 안양시 만안구 안양동 873-111번지","indutype":"레저업소 - 노 래 방","category":"leisure"}]},{"lat":"37.390915842","long":"126.93495821","imageIndex":13,"items":[{"name":"오렌지노래연습장","tel":"031-442-6995","addr":"경기도 안양시 만안구 안양동 193-12번지","indutype":"레저업소 - 노 래 방","category":"leisure"}]},{"lat":"37.387940291","long":"126.93120068","imageIndex":13,"items":[{"name":"오빠야노래연습장","tel":"031-469-1736","addr":"경기도 안양시 만안구 안양동 510-36번지","indutype":"레저업소 - 노 래 방","category":"leisure"}]},{"lat":"37.399799828","long":"126.92081045","imageIndex":13,"items":[{"name":"오월필라테스","tel":"031-466-9633","addr":"경기도 안양시 만안구 안양동 674-297번지","indutype":"레저업소 - 헬스클럽","category":"leisure"}]},{"lat":"37.383948714","long":"126.93103511","imageIndex":13,"items":[{"name":"올리브노래연습장","tel":"031-466-8278","addr":"경기도 안양시 만안구 안양동 551-12번지","indutype":"레저업소 - 노 래 방","category":"leisure"}]},{"lat":"37.396213099","long":"126.91978668","imageIndex":13,"items":[{"name":"옵티멈 피티(Optimum P.T)","tel":"","addr":"경기도 안양시 만안구 안양동 711-222번지","indutype":"레저업소 - 헬스클럽","category":"leisure"}]},{"lat":"37.400689905","long":"126.91808766","imageIndex":13,"items":[{"name":"와와노래연습장","tel":"031-466-1730","addr":"경기도 안양시 만안구 안양동 695-164번지","indutype":"레저업소 - 노 래 방","category":"leisure"}]},{"lat":"37.397244516","long":"126.91329187","imageIndex":13,"items":[{"name":"와우노래연습장","tel":"031-441-6968","addr":"경기도 안양시 만안구 안양동 944-2번지","indutype":"레저업소 - 노 래 방","category":"leisure"}]},{"lat":"37.406219634","long":"126.9147269","imageIndex":13,"items":[{"name":"와이에스바디피트(YS BODY FIT)","tel":"031-444-0726","addr":"경기도 안양시 만안구 안양동 837-16번지","indutype":"레저업소 - 헬스클럽","category":"leisure"}]},{"lat":"37.392305426","long":"126.92373211","imageIndex":13,"items":[{"name":"왕노래연습장","tel":"031-468-3152","addr":"경기도 안양시 만안구 안양동 448-11번지","indutype":"레저업소 - 노 래 방","category":"leisure"}]},{"lat":"37.394469111","long":"126.91289992","imageIndex":13,"items":[{"name":"요가로빅","tel":"070-8820-8876","addr":"경기도 안양시 만안구 안양동 765-8번지","indutype":"레저업소 - 헬스클럽","category":"leisure"}]},{"lat":"37.393494719","long":"126.9236744","imageIndex":13,"items":[{"name":"우노PC Cafe","tel":"070-4501-4903","addr":"경기도 안양시 만안구 안양동 627-158번지","indutype":"레저업소 - 기타레져업소","category":"leisure"}]},{"lat":"37.39683253","long":"126.91662388","imageIndex":13,"items":[{"name":"우리노래방","tel":"031-444-4466","addr":"경기도 안양시 만안구 안양동 711-334번지","indutype":"레저업소 - 노 래 방","category":"leisure"}]},{"lat":"37.390474406","long":"126.93506024","imageIndex":13,"items":[{"name":"울랄라노래연습장","tel":"031-465-8075","addr":"경기도 안양시 만안구 안양동 194-18번지","indutype":"레저업소 - 노 래 방","category":"leisure"}]},{"lat":"37.390111895","long":"126.93148092","imageIndex":13,"items":[{"name":"원당구클럽","tel":"031-442-2447","addr":"경기도 안양시 만안구 안양동 438-14번지","indutype":"레저업소 - 당 구 장","category":"leisure"},{"name":"위드PC","tel":"02-222-2222","addr":"경기도 안양시 만안구 안양동 438-14번지","indutype":"레저업소 - 기타레져업소","category":"leisure"}]},{"lat":"37.403358642","long":"126.92056939","imageIndex":13,"items":[{"name":"원평","tel":"031-465-0707","addr":"경기도 안양시 만안구 안양동 815-9번지","indutype":"레저업소 - 스크린골프","category":"leisure"}]},{"lat":"37.400632091","long":"126.91300549","imageIndex":13,"items":[{"name":"월드노래연습장","tel":"031-464-2387","addr":"경기도 안양시 만안구 안양동","indutype":"레저업소 - 노 래 방","category":"leisure"}]},{"lat":"37.396942605","long":"126.91934544","imageIndex":13,"items":[{"name":"월드컵노래연습장","tel":"031-444-1077","addr":"경기도 안양시 만안구 안양동 711-42번지","indutype":"레저업소 - 노 래 방","category":"leisure"}]},{"lat":"37.406055713","long":"126.91242299","imageIndex":13,"items":[{"name":"웰컴 당구클럽","tel":"","addr":"경기도 안양시 만안구 안양동 822-73번지","indutype":"레저업소 - 당 구 장","category":"leisure"},{"name":"유달산노래연습장","tel":"031-468-7462","addr":"경기도 안양시 만안구 안양동 822-73번지","indutype":"레저업소 - 노 래 방","category":"leisure"}]},{"lat":"37.399529839","long":"126.92126249","imageIndex":13,"items":[{"name":"유럭셔리 코인 노래연습장","tel":"070-4848-4545","addr":"경기도 안양시 만안구 안양동 674-51번지","indutype":"레저업소 - 노 래 방","category":"leisure"},{"name":"유럭셔리코인노래연습장","tel":"070-4848-4545","addr":"경기도 안양시 만안구 안양동 674-51번지","indutype":"레저업소 - 노 래 방","category":"leisure"}]},{"lat":"37.383246896","long":"126.93265042","imageIndex":13,"items":[{"name":"유에프오노래방","tel":"031-449-9092","addr":"경기도 안양시 만안구 안양동 571-36번지","indutype":"레저업소 - 노 래 방","category":"leisure"}]},{"lat":"37.418659443","long":"126.92306048","imageIndex":13,"items":[{"name":"유원지노래연습장","tel":"031-471-0203","addr":"경기도 안양시 만안구 안양동 1349번지","indutype":"레저업소 - 노 래 방","category":"leisure"}]},{"lat":"37.406416709","long":"126.91320189","imageIndex":13,"items":[{"name":"을지당구장","tel":"031-342-5859","addr":"경기도 안양시 만안구 안양동 822-39번지","indutype":"레저업소 - 당 구 장","category":"leisure"}]},{"lat":"37.402388995","long":"126.91292433","imageIndex":13,"items":[{"name":"이벤트노래연습장","tel":"","addr":"경기도 안양시 만안구 안양동 900-34번지","indutype":"레저업소 - 노 래 방","category":"leisure"}]},{"lat":"37.399584565","long":"126.92223369","imageIndex":13,"items":[{"name":"이브노래연습장","tel":"031-446-0987","addr":"경기도 안양시 만안구 안양동 674-113번지","indutype":"레저업소 - 노 래 방","category":"leisure"}]},{"lat":"37.415853255","long":"126.91725725","imageIndex":13,"items":[{"name":"이용도에어로빅","tel":"031-471-8888","addr":"경기도 안양시 만안구 안양동 16-3번지","indutype":"레저업소 - 헬스클럽","category":"leisure"},{"name":"최경화골프아카데미","tel":"031-474-7175","addr":"경기도 안양시 만안구 안양동 16-3번지","indutype":"레저업소 - 골프연습장","category":"leisure"}]},{"lat":"37.385608016","long":"126.93344993","imageIndex":13,"items":[{"name":"이큐노래연습장","tel":"031-446-3620","addr":"경기도 안양시 만안구 안양동 532-6번지","indutype":"레저업소 - 노 래 방","category":"leisure"}]},{"lat":"37.401716516","long":"126.9173411","imageIndex":13,"items":[{"name":"인생 당구클럽","tel":"","addr":"경기도 안양시 만안구 안양동 695-138번지","indutype":"레저업소 - 당 구 장","category":"leisure"}]},{"lat":"37.383056967","long":"126.93145373","imageIndex":13,"items":[{"name":"자이언트 PC방","tel":"070-3363-0321","addr":"경기도 안양시 만안구 안양동 570-5번지","indutype":"레저업소 - 기타레져업소","category":"leisure"}]},{"lat":"37.395419268","long":"126.91845497","imageIndex":13,"items":[{"name":"쟁반노래연습장","tel":"070-8947-6949","addr":"경기도 안양시 만안구 안양동 711-235번지","indutype":"레저업소 - 노 래 방","category":"leisure"}]},{"lat":"37.408444502","long":"126.91389976","imageIndex":13,"items":[{"name":"제이제이노래연습장","tel":"031-468-7250","addr":"경기도 안양시 만안구 안양동 857-2번지","indutype":"레저업소 - 노 래 방","category":"leisure"}]},{"lat":"37.385969519","long":"126.93534659","imageIndex":13,"items":[{"name":"제이제이빌리아드클럽","tel":"","addr":"경기도 안양시 만안구 안양동 232-5번지","indutype":"레저업소 - 당 구 장","category":"leisure"}]},{"lat":"37.394661862","long":"126.91767661","imageIndex":13,"items":[{"name":"죠이노래연습장","tel":"031-445-0653","addr":"경기도 안양시 만안구 안양동 710-57번지","indutype":"레저업소 - 노 래 방","category":"leisure"}]},{"lat":"37.416520178","long":"126.917505","imageIndex":13,"items":[{"name":"준노래연습장","tel":"031-471-1605","addr":"경기도 안양시 만안구 안양동 14-14번지","indutype":"레저업소 - 노 래 방","category":"leisure"}]},{"lat":"37.397780086","long":"126.91870078","imageIndex":13,"items":[{"name":"중앙당구장","tel":"031-466-8839","addr":"경기도 안양시 만안구 안양동 711-11번지","indutype":"레저업소 - 당 구 장","category":"leisure"}]},{"lat":"37.396222267","long":"126.92001253","imageIndex":13,"items":[{"name":"즐거운노래연습장","tel":"031-443-9950","addr":"경기도 안양시 만안구 안양동 711-221번지","indutype":"레저업소 - 노 래 방","category":"leisure"}]},{"lat":"37.40611035","long":"126.91317966","imageIndex":13,"items":[{"name":"지코당구클럽","tel":"","addr":"경기도 안양시 만안구 안양동 823-15번지","indutype":"레저업소 - 당 구 장","category":"leisure"}]},{"lat":"37.405328748","long":"126.91623012","imageIndex":13,"items":[{"name":"진용종합무술","tel":"031-445-6060","addr":"경기도 안양시 만안구 안양동 848-4번지","indutype":"레저업소 - 기타레져업소","category":"leisure"}]},{"lat":"37.391636389","long":"126.93450586","imageIndex":13,"items":[{"name":"진진노래연습장","tel":"","addr":"경기도 안양시 만안구 안양동 193-1번지","indutype":"레저업소 - 노 래 방","category":"leisure"}]},{"lat":"37.386969498","long":"126.93509727","imageIndex":13,"items":[{"name":"질러짱 노래연습장","tel":"031-134-1710","addr":"경기도 안양시 만안구 안양동 228-6번지","indutype":"레저업소 - 노 래 방","category":"leisure"}]},{"lat":"37.395913615","long":"126.93019929","imageIndex":13,"items":[{"name":"짐레몬","tel":"031-441-7779","addr":"경기도 안양시 만안구 안양동 1390번지","indutype":"레저업소 - 헬스클럽","category":"leisure"}]},{"lat":"37.406245329","long":"126.91295361","imageIndex":13,"items":[{"name":"짱노래연습장","tel":"031-468-0280","addr":"경기도 안양시 만안구 안양동 822-35번지","indutype":"레저업소 - 노 래 방","category":"leisure"}]},{"lat":"37.395500968","long":"126.91931316","imageIndex":13,"items":[{"name":"짱노래연습장","tel":"031-442-0370","addr":"경기도 안양시 만안구 안양동 707-10번지","indutype":"레저업소 - 노 래 방","category":"leisure"}]},{"lat":"37.389941366","long":"126.93258772","imageIndex":13,"items":[{"name":"차차차노래방","tel":"031-442-2891","addr":"경기도 안양시 만안구 안양동 509-9번지","indutype":"레저업소 - 노 래 방","category":"leisure"}]},{"lat":"37.399414071","long":"126.9232616","imageIndex":13,"items":[{"name":"철구PC방 안양역점","tel":"070-2797-1815","addr":"경기도 안양시 만안구 안양동 674-97번지","indutype":"레저업소 - 기타레져업소","category":"leisure"}]},{"lat":"37.385085629","long":"126.93378915","imageIndex":13,"items":[{"name":"체리 당구클럽","tel":"","addr":"경기도 안양시 만안구 안양동 532-12번지","indutype":"레저업소 - 당 구 장","category":"leisure"}]},{"lat":"37.397053778","long":"126.92378358","imageIndex":13,"items":[{"name":"초특급노래연습장","tel":"031-442-8993","addr":"경기도 안양시 만안구 안양동 622-257번지","indutype":"레저업소 - 노 래 방","category":"leisure"},{"name":"특급노래연습장","tel":"031-442-8993","addr":"경기도 안양시 만안구 안양동 622-257번지","indutype":"레저업소 - 노 래 방","category":"leisure"}]},{"lat":"37.394412601","long":"126.92197949","imageIndex":13,"items":[{"name":"캠퍼스당구장","tel":"031-445-6669","addr":"경기도 안양시 만안구 안양동 627-168번지","indutype":"레저업소 - 당 구 장","category":"leisure"},{"name":"히트노래연습장","tel":"031-441-7686","addr":"경기도 안양시 만안구 안양동 627-168번지","indutype":"레저업소 - 노 래 방","category":"leisure"}]},{"lat":"37.385554233","long":"126.93392422","imageIndex":13,"items":[{"name":"케이팝(KPOP) 노래연습장","tel":"031-441-8726","addr":"경기도 안양시 만안구 안양동 533-22번지 서희아리채","indutype":"레저업소 - 노 래 방","category":"leisure"}]},{"lat":"37.400661631","long":"126.91637102","imageIndex":13,"items":[{"name":"콘서트","tel":"031-360-8152","addr":"경기도 안양시 만안구 안양동 873-160번지","indutype":"레저업소 - 노 래 방","category":"leisure"}]},{"lat":"37.404329257","long":"126.91708965","imageIndex":13,"items":[{"name":"쿨노래연습장","tel":"031-443-8892","addr":"경기도 안양시 만안구 안양동 847-13번지","indutype":"레저업소 - 노 래 방","category":"leisure"}]},{"lat":"37.398000557","long":"126.92486676","imageIndex":13,"items":[{"name":"큐브클럽","tel":"02-347-5105","addr":"경기도 안양시 만안구 안양동 622-5번지","indutype":"레저업소 - 당 구 장","category":"leisure"}]},{"lat":"37.396411653","long":"126.92026078","imageIndex":13,"items":[{"name":"크로바노래연습장","tel":"031-466-3232","addr":"경기도 안양시 만안구 안양동 676-255번지","indutype":"레저업소 - 노 래 방","category":"leisure"}]},{"lat":"37.399080354","long":"126.92275374","imageIndex":13,"items":[{"name":"킬링타임 실내낚시터","tel":"031-444-2332","addr":"경기도 안양시 만안구 안양동 674-270번지","indutype":"레저업소 - 기타레져업소","category":"leisure"}]},{"lat":"37.396665561","long":"126.92262079","imageIndex":13,"items":[{"name":"킹락볼링장","tel":"031-465-8883","addr":"경기도 안양시 만안구 안양동 627-287번지","indutype":"레저업소 - 볼 링 장","category":"leisure"}]},{"lat":"37.414411671","long":"126.91729277","imageIndex":13,"items":[{"name":"타임당구클럽","tel":"031-471-4066","addr":"경기도 안양시 만안구 안양동 42-1번지","indutype":"레저업소 - 당 구 장","category":"leisure"}]},{"lat":"37.382217957","long":"126.92970441","imageIndex":13,"items":[{"name":"탁구장","tel":"","addr":"경기도 안양시 만안구 안양동 560-10번지","indutype":"레저업소 - 기타레져업소","category":"leisure"}]},{"lat":"37.402417302","long":"126.91461842","imageIndex":13,"items":[{"name":"탁틴노래연습장","tel":"031-441-9540","addr":"경기도 안양시 만안구 안양동 695-66번지","indutype":"레저업소 - 노 래 방","category":"leisure"}]},{"lat":"37.39197045","long":"126.90921025","imageIndex":13,"items":[{"name":"토토노래방","tel":"031-468-6204","addr":"경기도 안양시 만안구 안양동 996-1번지","indutype":"레저업소 - 노 래 방","category":"leisure"}]},{"lat":"37.400161998","long":"126.92339633","imageIndex":13,"items":[{"name":"투투노래연습장","tel":"031-466-0367","addr":"경기도 안양시 만안구 안양동 641-14번지","indutype":"레저업소 - 노 래 방","category":"leisure"}]},{"lat":"37.393777458","long":"126.91573525","imageIndex":13,"items":[{"name":"트리플와이짐","tel":"031-472-8044","addr":"경기도 안양시 만안구 안양동 716-3번지","indutype":"레저업소 - 헬스클럽","category":"leisure"}]},{"lat":"37.418352232","long":"126.9217843","imageIndex":13,"items":[{"name":"파크노래연습장","tel":"031-472-4857","addr":"경기도 안양시 만안구 안양동 1327-3번지","indutype":"레저업소 - 노 래 방","category":"leisure"}]},{"lat":"37.386085638","long":"126.93359628","imageIndex":13,"items":[{"name":"팡팡노래방","tel":"031-448-8884","addr":"경기도 안양시 만안구 안양동 533-3번지","indutype":"레저업소 - 노 래 방","category":"leisure"}]},{"lat":"37.393359044","long":"126.92289534","imageIndex":13,"items":[{"name":"팡팡노래연습장","tel":"031-466-8483","addr":"경기도 안양시 만안구 안양동 627-149번지","indutype":"레저업소 - 노 래 방","category":"leisure"}]},{"lat":"37.386831864","long":"126.93089685","imageIndex":13,"items":[{"name":"퍼펙트당구장","tel":"031-445-7265","addr":"경기도 안양시 만안구 안양동 504-14번지","indutype":"레저업소 - 당 구 장","category":"leisure"}]},{"lat":"37.396355455","long":"126.93076352","imageIndex":13,"items":[{"name":"펀펀안양점핑다이어트","tel":"031-347-2774","addr":"경기도 안양시 만안구 안양동 1390-1번지","indutype":"레저업소 - 헬스클럽","category":"leisure"},{"name":"피디에스피씨방안양덕천마을점","tel":"070-4646-8759","addr":"경기도 안양시 만안구 안양동 1390-1번지","indutype":"레저업소 - 기타레져업소","category":"leisure"},{"name":"헐크빌리어드클럽","tel":"031-447-3949","addr":"경기도 안양시 만안구 안양동 1390-1번지","indutype":"레저업소 - 당 구 장","category":"leisure"},{"name":"헬로밀가루 안양점","tel":"031-465-9451","addr":"경기도 안양시 만안구 안양동 1390-1번지","indutype":"레저업소 - 기타레져업소","category":"leisure"}]},{"lat":"37.419860128","long":"126.92661768","imageIndex":13,"items":[{"name":"폭포수노래방","tel":"031-471-8476","addr":"경기도 안양시 만안구 안양동 1355-2번지","indutype":"레저업소 - 노 래 방","category":"leisure"}]},{"lat":"37.400857813","long":"126.91362639","imageIndex":13,"items":[{"name":"프라자노래방","tel":"031-447-5590","addr":"경기도 안양시 만안구 안양동 873-81번지","indutype":"레저업소 - 노 래 방","category":"leisure"}]},{"lat":"37.395582977","long":"126.92062306","imageIndex":13,"items":[{"name":"프린스노래연습장","tel":"","addr":"경기도 안양시 만안구 안양동 707-78번지","indutype":"레저업소 - 노 래 방","category":"leisure"}]},{"lat":"37.406579776","long":"126.91437635","imageIndex":13,"items":[{"name":"필당구클럽","tel":"031-446-4670","addr":"경기도 안양시 만안구 안양동 837-1번지","indutype":"레저업소 - 당 구 장","category":"leisure"}]},{"lat":"37.395832993","long":"126.91742684","imageIndex":13,"items":[{"name":"하미용 탁구교실","tel":"031-462-1212","addr":"경기도 안양시 만안구 안양동 711-123번지","indutype":"레저업소 - 기타레져업소","category":"leisure"}]},{"lat":"37.386030355","long":"126.93154125","imageIndex":13,"items":[{"name":"하이바 Training","tel":"070-5434-3154","addr":"경기도 안양시 만안구 안양동 505-8번지","indutype":"레저업소 - 헬스클럽","category":"leisure"}]},{"lat":"37.393746232","long":"126.92253356","imageIndex":13,"items":[{"name":"학사당구장","tel":"070-8236-4308","addr":"경기도 안양시 만안구 안양동 627-132번지","indutype":"레저업소 - 당 구 장","category":"leisure"}]},{"lat":"37.420050442","long":"126.92834589","imageIndex":13,"items":[{"name":"한강노래연습장","tel":"031-474-4567","addr":"경기도 안양시 만안구 안양동 1360-3번지","indutype":"레저업소 - 노 래 방","category":"leisure"}]},{"lat":"37.39216304","long":"126.92643119","imageIndex":13,"items":[{"name":"한국교육행사기획","tel":"031-442-1467","addr":"경기도 안양시 만안구 안양동 458-1번지","indutype":"레저업소 - 기타레져업소","category":"leisure"}]},{"lat":"37.392944166","long":"126.92228597","imageIndex":13,"items":[{"name":"한소리노래연습장","tel":"031-448-2923","addr":"경기도 안양시 만안구 안양동 707-377번지","indutype":"레저업소 - 노 래 방","category":"leisure"}]},{"lat":"37.412412315","long":"126.91851498","imageIndex":13,"items":[{"name":"한송골프클럽","tel":"031-472-4941","addr":"경기도 안양시 만안구 안양동 45-1번지","indutype":"레저업소 - 골프연습장","category":"leisure"}]},{"lat":"37.384976506","long":"126.93209553","imageIndex":13,"items":[{"name":"행운노래연습장","tel":"031-442-0338","addr":"경기도 안양시 만안구 안양동 548-3번지","indutype":"레저업소 - 노 래 방","category":"leisure"}]},{"lat":"37.383219718","long":"126.93240204","imageIndex":13,"items":[{"name":"헌터피씨성결대점","tel":"070-3913-8756","addr":"경기도 안양시 만안구 안양동 571-10번지","indutype":"레저업소 - 기타레져업소","category":"leisure"}]},{"lat":"37.399918276","long":"126.92273026","imageIndex":13,"items":[{"name":"헌터피씨안양본점","tel":"070-3264-1208","addr":"경기도 안양시 만안구 안양동 674-91번지","indutype":"레저업소 - 기타레져업소","category":"leisure"}]},{"lat":"37.399917482","long":"126.921567","imageIndex":13,"items":[{"name":"헐리우드비디오방","tel":"031-468-0260","addr":"경기도 안양시 만안구 안양동 674-68번지","indutype":"레저업소 - 기타레져업소","category":"leisure"}]},{"lat":"37.395941098","long":"126.91740413","imageIndex":13,"items":[{"name":"호정노래연습장","tel":"031-444-0003","addr":"경기도 안양시 만안구 안양동 711-122번지","indutype":"레저업소 - 노 래 방","category":"leisure"}]},{"lat":"37.387581281","long":"126.93353844","imageIndex":13,"items":[{"name":"호정스크린골프존","tel":"031-384-4848","addr":"경기도 안양시 만안구 안양동 528-13번지","indutype":"레저업소 - 스크린골프","category":"leisure"}]},{"lat":"37.399113126","long":"126.91806685","imageIndex":13,"items":[{"name":"화성당구장","tel":"031-464-5808","addr":"경기도 안양시 만안구 안양동 1195-55번지","indutype":"레저업소 - 당 구 장","category":"leisure"}]},{"lat":"37.395666059","long":"126.9235366","imageIndex":13,"items":[{"name":"황궁노래연습장","tel":"031-466-7557","addr":"경기도 안양시 만안구 안양동 627-202번지","indutype":"레저업소 - 노 래 방","category":"leisure"}]},{"lat":"37.400384103","long":"126.91884469","imageIndex":13,"items":[{"name":"황제노래연습장","tel":"031-443-1488","addr":"경기도 안양시 만안구 안양동 695-174번지","indutype":"레저업소 - 노 래 방","category":"leisure"}]},{"lat":"37.390996914","long":"126.93492426","imageIndex":13,"items":[{"name":"황진이노래연습장","tel":"031-466-3476","addr":"경기도 안양시 만안구 안양동 193-10번지","indutype":"레저업소 - 노 래 방","category":"leisure"}]},{"lat":"37.392078285","long":"126.90884875","imageIndex":13,"items":[{"name":"힐링노래연습장","tel":"031-465-0243","addr":"경기도 안양시 만안구 안양동 995-9번지","indutype":"레저업소 - 노 래 방","category":"leisure"}]}]