[{"lat":"37.179136661","long":"127.11966768","imageIndex":7,"items":[{"name":"(주)농민농축산물유통","tel":"031-373-9755","addr":"경기도 화성시 산척동 674-47번지","indutype":"음료식품 - 농·축·수산품","category":"food"}]},{"lat":"37.167533732","long":"127.1073324","imageIndex":7,"items":[{"name":"국선생동탄호수공원점","tel":"031-373-5445","addr":"경기도 화성시 산척동 728-2번지 동탄2우성에듀파크 1층 101호","indutype":"음료식품 - 기타음료식품","category":"food"},{"name":"미담떡","tel":"031-373-7953","addr":"경기도 화성시 산척동 728-2번지 우성에듀파크 1층 102호","indutype":"음료식품 - 제과점","category":"food"},{"name":"점핑하이 동탄호수공원점","tel":"","addr":"경기도 화성시 산척동 728-2번지 동탄2 우성에듀파크 3층 304호","indutype":"건강식품 - 기타건강식품","category":"food"}]},{"lat":"37.167558096","long":"127.1286346","imageIndex":7,"items":[{"name":"니키네","tel":"","addr":"경기도 화성시 산척동 744번지 그린힐반도유보라아이비파크10 3655동 지하1층 B132호","indutype":"음료식품 - 기타음료식품","category":"food"},{"name":"반찬마켓","tel":"","addr":"경기도 화성시 산척동 744번지 그린힐반도유보라아이비파크10 지1층 B127호","indutype":"음료식품 - 기타음료식품","category":"food"},{"name":"정연","tel":"031-8055-0662","addr":"경기도 화성시 산척동 744번지 그린힐 반도유보라 아이비파크10, 3653동 지하1층 B107","indutype":"음료식품 - 기타음료식품","category":"food"},{"name":"청춘수산","tel":"","addr":"경기도 화성시 산척동 744번지 그린힐반도유보라아이비파크10 지하1층 B126호","indutype":"음료식품 - 농·축·수산품","category":"food"},{"name":"픽미픽미 아이스크림 할인점","tel":"031-000-0000","addr":"경기도 화성시 산척동 744번지 그린힐반도유보라아이비파크10상가 3655동 지1층 비131호","indutype":"음료식품 - 기타음료식품","category":"food"}]},{"lat":"37.174000944","long":"127.10988607","imageIndex":7,"items":[{"name":"돌쇠네푸줏간","tel":"031-378-4294","addr":"경기도 화성시 산척동 699번지 동탄더샵레이크에듀타운 B13호","indutype":"음료식품 - 정육점","category":"food"}]},{"lat":"37.166642046","long":"127.10693711","imageIndex":7,"items":[{"name":"뚜레쥬르 동탄호수공원점","tel":"","addr":"경기도 화성시 산척동 728-5번지 109, 110, 111호","indutype":"음료식품 - 제과점","category":"food"}]},{"lat":"37.166171016","long":"127.12813691","imageIndex":7,"items":[{"name":"라인파워점프","tel":"02-4316-4616","addr":"경기도 화성시 산척동 745번지 레이크힐 반도유보라 아이비파크 10.2 2층 205,206호","indutype":"건강식품 - 기타건강식품","category":"food"},{"name":"명품한우","tel":"031-305-9900","addr":"경기도 화성시 산척동 745번지 레이크힐반도유보라아이비파크10.2 B130 ,B131,B132호","indutype":"음료식품 - 정육점","category":"food"},{"name":"반도장터","tel":"","addr":"경기도 화성시 산척동 745번지 레이크힐반도유보라아이비파크10.2 3625동 B108호","indutype":"음료식품 - 농·축·수산품","category":"food"},{"name":"베이크이삼공","tel":"031-8077-2230","addr":"경기도 화성시 산척동 745번지 레이크힐반도유보라아이비파크10.2 지하1층 B138(S138)호","indutype":"음료식품 - 제과점","category":"food"},{"name":"쉐프엠 카림3차점","tel":"031-372-7769","addr":"경기도 화성시 산척동 745번지 레이크힐반도유보라아이비파크10.2 지하1층 B124호","indutype":"음료식품 - 기타음료식품","category":"food"},{"name":"영달아저씨빵.도넛","tel":"031-376-7905","addr":"경기도 화성시 산척동 745번지 레이크힐반도유보라아이비파크10.2 지하1층 B106호","indutype":"음료식품 - 제과점","category":"food"},{"name":"올후레쉬(ALL FRESH)","tel":"031-239-5998","addr":"경기도 화성시 산척동 745번지 제3626동 제지1층 제비129호","indutype":"음료식품 - 농·축·수산품","category":"food"},{"name":"이두부야 동탄카림점","tel":"","addr":"경기도 화성시 산척동 745번지 레이크힐반도유보라아이비파크10.2 3627동 지하1층 B142호","indutype":"음료식품 - 기타음료식품","category":"food"},{"name":"지소환유니","tel":"031-0000-0000","addr":"경기도 화성시 산척동 745번지 레이크힐반도유보라아이비파크10.2 2층 230,231호","indutype":"음료식품 - 기타음료식품","category":"food"},{"name":"파리바게뜨 동탄산척점","tel":"031-376-0149","addr":"경기도 화성시 산척동 745번지 레이크힐반도유보라아이비파크10.2 지하1층","indutype":"음료식품 - 제과점","category":"food"},{"name":"한우자리","tel":"031-261-7075","addr":"경기도 화성시 산척동 745번지 레이크힐반도유보라아이비파크10.2 3625동 지1층 비105호","indutype":"음료식품 - 정육점","category":"food"}]},{"lat":"37.177555097","long":"127.11525111","imageIndex":7,"items":[{"name":"레이크 펜테리움 도서관","tel":"02-4948-4646","addr":"경기도 화성시 산척동 48번지 동탄호수공원금강펜테리움센트럴파크II","indutype":"음료식품 - 기타음료식품","category":"food"},{"name":"무대포수산","tel":"031-376-4661","addr":"경기도 화성시 산척동 48번지 금강펜테리움센트럴파크 단지내 상가 125호","indutype":"음료식품 - 농·축·수산품","category":"food"}]},{"lat":"37.170804158","long":"127.10774225","imageIndex":7,"items":[{"name":"루나파워점프 점핑다이어트","tel":"02-1455-6822","addr":"경기도 화성시 산척동 717-5번지 1동 3층 306호","indutype":"건강식품 - 기타건강식품","category":"food"}]},{"lat":"37.170533391","long":"127.11794299","imageIndex":7,"items":[{"name":"리치 파워점프","tel":"02-4689-1886","addr":"경기도 화성시 산척동 723번지 507호","indutype":"건강식품 - 기타건강식품","category":"food"}]},{"lat":"37.173665556","long":"127.11208129","imageIndex":7,"items":[{"name":"마카롱&청","tel":"02-111-1111","addr":"경기도 화성시 산척동 712-1번지 1층","indutype":"음료식품 - 기타음료식품","category":"food"}]},{"lat":"37.169893356","long":"127.11824603","imageIndex":7,"items":[{"name":"베스킨라빈스 동탄산척신리점","tel":"031-373-6828","addr":"경기도 화성시 산척동 724-2번지 104호 103호,104호","indutype":"음료식품 - 제과점","category":"food"},{"name":"아이스비어","tel":"02-1234-1234","addr":"경기도 화성시 산척동 724-1번지 종산타워 1층 115호","indutype":"음료식품 - 기타음료식품","category":"food"},{"name":"파리바게뜨","tel":"031-0000-0000","addr":"경기도 화성시 산척동 724-1번지 1층 104-106호","indutype":"음료식품 - 제과점","category":"food"}]},{"lat":"37.167029395","long":"127.10705024","imageIndex":7,"items":[{"name":"브레드데이","tel":"031-376-3202","addr":"경기도 화성시 산척동 728-4번지 112호","indutype":"음료식품 - 제과점","category":"food"}]},{"lat":"37.171858327","long":"127.1078","imageIndex":7,"items":[{"name":"오색미찬&강정바스켓","tel":"031-111-1111","addr":"경기도 화성시 산척동 717-1번지 드림타워 1층 109호","indutype":"음료식품 - 기타음료식품","category":"food"},{"name":"찹쌀 미친 꽈배기","tel":"031-373-0325","addr":"경기도 화성시 산척동 717-1번지 1층 110호","indutype":"음료식품 - 기타음료식품","category":"food"},{"name":"키즈웰","tel":"031-376-6619","addr":"경기도 화성시 산척동 717-1번지 드림타워 4층 406호","indutype":"건강식품 - 기타건강식품","category":"food"}]},{"lat":"37.175641869","long":"127.11838989","imageIndex":7,"items":[{"name":"케이몰","tel":"031-8098-6894","addr":"경기도 화성시 산척동 50-5번지 1층","indutype":"음료식품 - 기타음료식품","category":"food"}]},{"lat":"37.165920666","long":"127.10755536","imageIndex":7,"items":[{"name":"파리바게트 동탄호수공원점","tel":"","addr":"경기도 화성시 산척동 728-6번지 우선센트럴타워 1층 113,114호","indutype":"음료식품 - 제과점","category":"food"},{"name":"파워점프","tel":"02-4679-7676","addr":"경기도 화성시 산척동 728-6번지 10층 1012호","indutype":"건강식품 - 기타건강식품","category":"food"}]},{"lat":"37.17386227","long":"127.11371428","imageIndex":7,"items":[{"name":"픽미픽미아이스동탄점","tel":"","addr":"경기도 화성시 산척동 711-4번지","indutype":"음료식품 - 기타음료식품","category":"food"},{"name":"행복더드림","tel":"031-376-5989","addr":"경기도 화성시 산척동 715-2번지 102호","indutype":"음료식품 - 정육점","category":"food"}]},{"lat":"37.173056264","long":"127.11799186","imageIndex":7,"items":[{"name":"한아름과일야채","tel":"031-377-7740","addr":"경기도 화성시 산척동 642번지 스타힐스24단지 101,102,103호","indutype":"음료식품 - 농·축·수산품","category":"food"}]},{"lat":"37.17397093","long":"127.11314018","imageIndex":7,"items":[{"name":"화개장터","tel":"031-8055-8853","addr":"경기도 화성시 산척동 708-8번지","indutype":"음료식품 - 농·축·수산품","category":"food"}]},{"lat":"37.167558096","long":"127.1286346","imageIndex":16,"items":[{"name":"(주)대치누리교육","tel":"031-372-9914","addr":"경기도 화성시 산척동 744번지 그린힐반도유보라아이비파크10 상가동 1층 1F32호","indutype":"학원 - 보습학원","category":"study"},{"name":"더브릿츠(TheBrits)학원","tel":"031-8050-4693","addr":"경기도 화성시 산척동 744번지 그린힐반도유보라아이비파크10 2층 N216-218호","indutype":"학원 - 보습학원","category":"study"},{"name":"바른영어 캐피타운","tel":"","addr":"경기도 화성시 산척동 744번지 그린힐반도유보라아이비파크10 3634동 2층 205호","indutype":"학원 - 기타 교육기관","category":"study"},{"name":"반도사랑어린이집[아이행복]","tel":"031-8058-8928","addr":"경기도 화성시 산척동 744번지 그린힐반도유보라아이비파크10 3636동 101호","indutype":"학원 - 유아원","category":"study"},{"name":"반도쇼팽음악학원","tel":"031-375-1955","addr":"경기도 화성시 산척동 744번지 그린힐반도유보라아이비파크10 상가동 1F층 24,25,26,27호","indutype":"학원 - 예·체능계학원","category":"study"},{"name":"보라요정어린이집[아이행복]","tel":"031-8050-4156","addr":"경기도 화성시 산척동 744번지 그린힐반도유보라아이비파크10 3636동 102호","indutype":"학원 - 유아원","category":"study"},{"name":"셀파우등생교실","tel":"","addr":"경기도 화성시 산척동 744번지 그린힐반도유보라아이비파크10 3635동 1103호","indutype":"학원 - 기타 교육기관","category":"study"},{"name":"수피아어린이집[아이행복]","tel":"031-8050-4731","addr":"경기도 화성시 산척동 744번지 그린힐 반도유보라 아이비파크10 3639동 101호","indutype":"학원 - 유아원","category":"study"},{"name":"슈페리어수학교습소","tel":"","addr":"경기도 화성시 산척동 744번지 그린힐반도유보라아이비파크10 219,220호","indutype":"학원 - 보습학원","category":"study"},{"name":"아름솔어린이집[아이행복]","tel":"031-375-1671","addr":"경기도 화성시 산척동 744번지 그린힐반도유보라아이비파크10","indutype":"학원 - 유아원","category":"study"},{"name":"용인대청호MBA태권도장","tel":"031-374-1215","addr":"경기도 화성시 산척동 744번지 그린힐 반도유보라 아이비파크10 3656동 1층 N228-N231호","indutype":"학원 - 예·체능계학원","category":"study"}]},{"lat":"37.166865952","long":"127.10846864","imageIndex":16,"items":[{"name":"2동탄부영4단지네스트(NEST)","tel":"","addr":"경기도 화성시 산척동 729번지 더레이크시티부영4단지 3007동 104호","indutype":"학원 - 기타 교육기관","category":"study"},{"name":"리틀엔젤어린이집[아이행복]","tel":"031-377-1710","addr":"경기도 화성시 산척동 729번지 더레이크시티부영4단지 3004동 103호","indutype":"학원 - 유아원","category":"study"},{"name":"셀라(SELAH)음악학원","tel":"031-8058-5116","addr":"경기도 화성시 산척동 729번지 더레이크시티부영4단지 상가동 401호","indutype":"학원 - 예·체능계학원","category":"study"},{"name":"시립동탄호수사랑어린이집[아이행복]","tel":"031-8050-9050","addr":"경기도 화성시 산척동 729번지 더레이크시티부영4단지 관리동","indutype":"학원 - 유아원","category":"study"},{"name":"이아이이(EIE)남동탄고려대국제어학원","tel":"031-377-7870","addr":"경기도 화성시 산척동 729번지 더레이크시티부영4단지 상가동 201호","indutype":"학원 - 외국어학원","category":"study"},{"name":"호수카라어린이집[아이행복]","tel":"031-8050-8808","addr":"경기도 화성시 산척동 729번지 더레이크시티부영4단지 3004동 101호","indutype":"학원 - 유아원","category":"study"}]},{"lat":"37.166171016","long":"127.12813691","imageIndex":16,"items":[{"name":"3030영어 동탄세정센터","tel":"","addr":"경기도 화성시 산척동 745번지 레이크힐반도유보라아이비파크10.2 3604동 201호","indutype":"학원 - 기타 교육기관","category":"study"},{"name":"3030영어 동탄세정센터","tel":"","addr":"경기도 화성시 산척동 745번지 레이크힐반도유보라아이비파크10.2 3604동 201호","indutype":"학원 - 기타 교육기관","category":"study"},{"name":"달콩어린이집[아이행복]","tel":"031-8043-1970","addr":"경기도 화성시 산척동 745번지 레이크힐반도유보라아이비파크10.2 3604동 101호","indutype":"학원 - 유아원","category":"study"},{"name":"동화나라 어린이집[아이행복]","tel":"031-377-0026","addr":"경기도 화성시 산척동 745번지 레이크힐반도유보라아이비파크10.2 3607동 103호","indutype":"학원 - 유아원","category":"study"},{"name":"뮤엠카림영어교습소","tel":"031-373-8002","addr":"경기도 화성시 산척동 745번지 레이크힐반도유보라아이비파크 상가 3625동 116호","indutype":"학원 - 외국어학원","category":"study"},{"name":"반도비엔나음악학원","tel":"031-375-1955","addr":"경기도 화성시 산척동 745번지 레이크힐반도유보라아이비파크10.2 3628동 242-244호","indutype":"학원 - 예·체능계학원","category":"study"},{"name":"반도오감놀이어린이집[아이행복]","tel":"031-8043-4438","addr":"경기도 화성시 산척동 745번지 레이크힐반도유보라아이비파크10.2 3604동 102호","indutype":"학원 - 유아원","category":"study"},{"name":"비상잉글리시아이세정학원","tel":"031-378-1939","addr":"경기도 화성시 산척동 745번지 카림애비뉴3차 105,106호","indutype":"학원 - 외국어학원","category":"study"},{"name":"셀파우등생","tel":"","addr":"경기도 화성시 산척동 745번지 레이크힐반도유보라아이비파크10.2 3621동 303호","indutype":"학원 - 기타 교육기관","category":"study"},{"name":"영영아어린이집[아이행복]","tel":"031-8043-3471","addr":"경기도 화성시 산척동 745번지 레이크힐반도유보라아이비파크10.2 3606동 102호","indutype":"학원 - 유아원","category":"study"},{"name":"예봄 피아노음악","tel":"031-374-0839","addr":"경기도 화성시 산척동 745번지 레이크힐반도유보라아이비파크10.2 3621동 104호","indutype":"학원 - 기타 교육기관","category":"study"},{"name":"예봄피아노","tel":"031-374-0839","addr":"경기도 화성시 산척동 745번지 레이크힐반도유보라아이비파크10.2 3621동 104호","indutype":"학원 - 기타 교육기관","category":"study"},{"name":"이화미술학원","tel":"","addr":"경기도 화성시 산척동 745번지 레이크힐반도유보라아이비파크10.2 3628동 245-247호","indutype":"학원 - 예·체능계학원","category":"study"},{"name":"잉글리쉬트리","tel":"","addr":"경기도 화성시 산척동 745번지 레이크힐반도유보라아이비파크10.2 3621동 902호","indutype":"학원 - 기타 교육기관","category":"study"},{"name":"초록나무어린이집[아이행복]","tel":"031-8043-9921","addr":"경기도 화성시 산척동 745번지 레이크힐반도유보라아이비파크10.2 3603동 102호","indutype":"학원 - 유아원","category":"study"},{"name":"파파합기도","tel":"","addr":"경기도 화성시 산척동 745번지 레이크힐반도유보라아이비파크10.2 3625동 201,202,203호","indutype":"학원 - 예·체능계학원","category":"study"},{"name":"한국파워점핑줄넘기클럽(세정점)","tel":"031-375-6746","addr":"경기도 화성시 산척동 745번지 레이크힐반도유보라아이비파크10.2 3625동 101-104호","indutype":"학원 - 예·체능계학원","category":"study"},{"name":"해법영어반도유보라캠퍼스영어교습소","tel":"031-377-5056","addr":"경기도 화성시 산척동 745번지 레이크힐반도유보라아이비파크10.2 228호 227호,228호","indutype":"학원 - 외국어학원","category":"study"}]},{"lat":"37.170533391","long":"127.11794299","imageIndex":16,"items":[{"name":"강류 합기도","tel":"031-376-6639","addr":"경기도 화성시 산척동 723번지 501호","indutype":"학원 - 예·체능계학원","category":"study"},{"name":"그랜드음악학원","tel":"031-376-3393","addr":"경기도 화성시 산척동 723번지 풍산리치안타워 604호","indutype":"학원 - 예·체능계학원","category":"study"},{"name":"더레이크시티1단지부영사랑으로어린이집[아","tel":"031-374-2025","addr":"경기도 화성시 산척동 722번지 더레이크시티부영1단지 관리동","indutype":"학원 - 유아원","category":"study"},{"name":"동탄플러스수학","tel":"","addr":"경기도 화성시 산척동 722번지 더레이크시티부영1단지 2456동 5층 504호","indutype":"학원 - 기타 교육기관","category":"study"},{"name":"레드스타영어수학전문학원","tel":"031-377-0507","addr":"경기도 화성시 산척동 723번지 풍산리치타워 6층 606,607호","indutype":"학원 - 보습학원","category":"study"},{"name":"로고스영어전문","tel":"","addr":"경기도 화성시 산척동 722번지 더레이크시티부영1단지 2455동 204호","indutype":"학원 - 기타 교육기관","category":"study"},{"name":"발레스튜디오톡톡 입시학원","tel":"031-337-7262","addr":"경기도 화성시 산척동 723번지 풍산리치안타워 6층 603호","indutype":"학원 - 예·체능계학원","category":"study"},{"name":"블럭팡팡","tel":"031-658-3583","addr":"경기도 화성시 산척동 723번지 풍산리치안타워 401호","indutype":"학원 - 기타 교육기관","category":"study"},{"name":"소은파음악학원","tel":"031-374-0799","addr":"경기도 화성시 산척동 723번지 5층 509호","indutype":"학원 - 예·체능계학원","category":"study"},{"name":"수학의결실연세수학학원","tel":"031-663-0447","addr":"경기도 화성시 산척동 723번지 302호","indutype":"학원 - 보습학원","category":"study"},{"name":"씽크앤아트(THINK&ARTt)남동탄미술학원","tel":"031-373-0130","addr":"경기도 화성시 산척동 723번지 풍산리치안타워 5층 510호","indutype":"학원 - 예·체능계학원","category":"study"},{"name":"아이캔수학학원","tel":"031-377-0787","addr":"경기도 화성시 산척동 723번지 풍산리치안타워 505,506호","indutype":"학원 - 보습학원","category":"study"},{"name":"엄마맘어린이집[아이행복]","tel":"031-377-0259","addr":"경기도 화성시 산척동 722번지 더레이크시티부영1단지 2457동 101호","indutype":"학원 - 유아원","category":"study"},{"name":"에스앤영어학원","tel":"031-373-0860","addr":"경기도 화성시 산척동 723번지 풍산리치안타워 610호","indutype":"학원 - 외국어학원","category":"study"},{"name":"에이아이클레버어학원/주식회사클레버에듀","tel":"031-377-0507","addr":"경기도 화성시 산척동 723번지 풍산리치안타워 607호","indutype":"학원 - 외국어학원","category":"study"},{"name":"엘에스더블유 논술학원","tel":"031-376-6939","addr":"경기도 화성시 산척동 723번지 풍산리치안타워 502호","indutype":"학원 - 보습학원","category":"study"},{"name":"진강학원","tel":"031-377-1307","addr":"경기도 화성시 산척동 723번지 풍산리치타워 310호","indutype":"학원 - 보습학원","category":"study"},{"name":"케이투수학과학입시학원","tel":"031-377-1806","addr":"경기도 화성시 산척동 723번지 풍산리치안타워 503호","indutype":"학원 - 보습학원","category":"study"},{"name":"한국체대 가온태권도장","tel":"031-373-7771","addr":"경기도 화성시 산척동 723번지 6층 601호 602호","indutype":"학원 - 예·체능계학원","category":"study"},{"name":"한솔플러스러닝센터 정현학원","tel":"031-8077-2204","addr":"경기도 화성시 산척동 723번지 605호","indutype":"학원 - 보습학원","category":"study"}]},{"lat":"37.174000944","long":"127.10988607","imageIndex":16,"items":[{"name":"개인과외","tel":"","addr":"경기도 화성시 산척동 699번지 동탄더샵레이크에듀타운 2507동 304호","indutype":"학원 - 기타 교육기관","category":"study"},{"name":"꿈과길 수학","tel":"070-4191-6556","addr":"경기도 화성시 산척동 699번지 동탄더샵레이크에듀타운 2503동 5층 501호","indutype":"학원 - 기타 교육기관","category":"study"},{"name":"나무아트","tel":"","addr":"경기도 화성시 산척동 699번지 동탄더샵레이크에듀타운 2515동 404호","indutype":"학원 - 기타 교육기관","category":"study"},{"name":"노리어린이집[아이행복]","tel":"031-8043-6923","addr":"경기도 화성시 산척동 699번지 동탄더샵레이크에듀타운 2510층 104호","indutype":"학원 - 유아원","category":"study"},{"name":"더샵피아노 개인과외교습","tel":"031-377-5503","addr":"경기도 화성시 산척동 699번지 동탄더샵레이크에듀타운 2509동 101호","indutype":"학원 - 기타 교육기관","category":"study"},{"name":"뮤엠 영어","tel":"","addr":"경기도 화성시 산척동 699번지 동탄더샵레이크에듀타운 2514동 404호","indutype":"학원 - 기타 교육기관","category":"study"},{"name":"사랑별어린이집[아이행복]","tel":"031-8050-5419","addr":"경기도 화성시 산척동 699번지 동탄더샵레이크에듀타운 2509동 103호","indutype":"학원 - 유아원","category":"study"},{"name":"수학의 달인 포스코3차점","tel":"031-223-5214","addr":"경기도 화성시 산척동 699번지 동탄더샵레이크에듀타운 2512동 304호","indutype":"학원 - 기타 교육기관","category":"study"},{"name":"숲의요정수피아어린이집[아이행복]","tel":"031-375-1598","addr":"경기도 화성시 산척동 699번지 동탄더샵레이크에듀타운 2504동 101호","indutype":"학원 - 유아원","category":"study"},{"name":"시립포스코더샵어린이집[아이행복]","tel":"031-8043-3669","addr":"경기도 화성시 산척동 699번지 동탄더샵레이크에듀타운 관리동","indutype":"학원 - 유아원","category":"study"},{"name":"연세메타수학","tel":"","addr":"경기도 화성시 산척동 699번지 동탄더샵레이크에듀타운 2509동 504호","indutype":"학원 - 기타 교육기관","category":"study"},{"name":"연세트로피영어","tel":"","addr":"경기도 화성시 산척동 699번지 동탄더샵레이크에듀타운 2501동 502호","indutype":"학원 - 보습학원","category":"study"},{"name":"이지영개인과외","tel":"","addr":"경기도 화성시 산척동 699번지 동탄더샵레이크에듀타운 2512동 1층 102호","indutype":"학원 - 기타 교육기관","category":"study"},{"name":"이피피 개인과외","tel":"031-376-2870","addr":"경기도 화성시 산척동 699번지 동탄더샵레이크에듀타운 2509동 203호","indutype":"학원 - 기타 교육기관","category":"study"},{"name":"정스터디","tel":"","addr":"경기도 화성시 산척동 699번지 동탄더샵레이크에듀타운 2505동 202호","indutype":"학원 - 기타 교육기관","category":"study"},{"name":"정철우국어과외","tel":"","addr":"경기도 화성시 산척동 699번지 동탄더샵레이크에듀타운 2507동 201호","indutype":"학원 - 기타 교육기관","category":"study"},{"name":"한피아노","tel":"","addr":"경기도 화성시 산척동 699번지 동탄더샵레이크에듀타운 2507동 101호","indutype":"학원 - 기타 교육기관","category":"study"}]},{"lat":"37.171858327","long":"127.1078","imageIndex":16,"items":[{"name":"경희대리더스태권도교육관","tel":"","addr":"경기도 화성시 산척동 717-1번지 드림타워 401,402호","indutype":"학원 - 예·체능계학원","category":"study"},{"name":"그림아트스튜디오동탄호수공원미술학원","tel":"031-377-0253","addr":"경기도 화성시 산척동 717-1번지 301호","indutype":"학원 - 예·체능계학원","category":"study"},{"name":"동탄SJ실용음악학원","tel":"031-376-7627","addr":"경기도 화성시 산척동 717-1번지 501호","indutype":"학원 - 예·체능계학원","category":"study"},{"name":"동탄호수강의하는아이들수학학원","tel":"031-374-8586","addr":"경기도 화성시 산척동 717-1번지 303호","indutype":"학원 - 보습학원","category":"study"},{"name":"라인발레2호점학원","tel":"031-376-2212","addr":"경기도 화성시 산척동 717-1번지 드림타워 701,702호","indutype":"학원 - 예·체능계학원","category":"study"},{"name":"리베음악학원","tel":"031-378-0941","addr":"경기도 화성시 산척동 717-1번지 302호","indutype":"학원 - 예·체능계학원","category":"study"},{"name":"스터디온동탄2관학원","tel":"031-375-0477","addr":"경기도 화성시 산척동 717-1번지 405호","indutype":"학원 - 보습학원","category":"study"},{"name":"아크 어학원","tel":"031-372-8006","addr":"경기도 화성시 산척동 717-1번지 705호","indutype":"학원 - 외국어학원","category":"study"},{"name":"엠베스트SE학원동탄호수캠퍼스학원","tel":"031-372-2551","addr":"경기도 화성시 산척동 717-1번지 드림타워 703호","indutype":"학원 - 보습학원","category":"study"},{"name":"이보영의토킹클럽동탄호수학원","tel":"031-831-8508","addr":"경기도 화성시 산척동 717-1번지 307호","indutype":"학원 - 외국어학원","category":"study"},{"name":"이엠멘토영수전문학원","tel":"031-377-2530","addr":"경기도 화성시 산척동 717-1번지 드림타워 7층 704호","indutype":"학원 - 보습학원","category":"study"},{"name":"페트라에듀학원","tel":"070-7469-5050","addr":"경기도 화성시 산척동 717-1번지 산척동드림타워 3층 305호","indutype":"학원 - 보습학원","category":"study"},{"name":"호수음악학원","tel":"031-377-4577","addr":"경기도 화성시 산척동 717-1번지 407호","indutype":"학원 - 예·체능계학원","category":"study"}]},{"lat":"37.165920666","long":"127.10755536","imageIndex":16,"items":[{"name":"공터영어동탄호수센터학원","tel":"031-8043-5270","addr":"경기도 화성시 산척동 728-6번지 우성센트럴타워 401, 402호","indutype":"학원 - 보습학원","category":"study"},{"name":"남동탄바둑교습소","tel":"","addr":"경기도 화성시 산척동 728-6번지 우성센트럴타워 806호","indutype":"학원 - 기타 교육기관","category":"study"},{"name":"대한검도회 도의검도관","tel":"031-372-3303","addr":"경기도 화성시 산척동 728-6번지 우성센트럴타워 1013,1014호","indutype":"학원 - 예·체능계학원","category":"study"},{"name":"스즈키음악학원","tel":"031-0000-0000","addr":"경기도 화성시 산척동 728-6번지 1011호","indutype":"학원 - 예·체능계학원","category":"study"},{"name":"에스디에이치남동탄영어학원","tel":"031-376-5351","addr":"경기도 화성시 산척동 728-6번지 우성센트럴타워 801호,802호","indutype":"학원 - 외국어학원","category":"study"},{"name":"유니팝미술학원동탄호수공원센터학원","tel":"","addr":"경기도 화성시 산척동 728-6번지 우성센트럴타워 701호","indutype":"학원 - 예·체능계학원","category":"study"},{"name":"팔레트미술치료스튜디오","tel":"","addr":"경기도 화성시 산척동 728-6번지 동탄2신도시 일상 14-2 센트럴타워 10층 1010호","indutype":"학원 - 기타 교육기관","category":"study"}]},{"lat":"37.167060136","long":"127.11291622","imageIndex":16,"items":[{"name":"국가대표 용인대박사 태권도장","tel":"031-375-8022","addr":"경기도 화성시 산척동 730번지 더레이크시티부영5단지 상가동 302호","indutype":"학원 - 예·체능계학원","category":"study"},{"name":"김미애 (잉글리시아이 정현부영1점)","tel":"","addr":"경기도 화성시 산척동 730번지 더레이크시티부영5단지 3032동 203호","indutype":"학원 - 기타 교육기관","category":"study"},{"name":"뮤직하우스음악학원","tel":"","addr":"경기도 화성시 산척동 730번지 더레이크시티부영5단지 상가 301호","indutype":"학원 - 예·체능계학원","category":"study"},{"name":"이엠수학","tel":"","addr":"경기도 화성시 산척동 730번지 더레이크시티부영5단지 3033동 104호","indutype":"학원 - 기타 교육기관","category":"study"},{"name":"정수학학원","tel":"070-4078-2652","addr":"경기도 화성시 산척동 730번지 더레이크시티부영5단지 상가동 401호","indutype":"학원 - 보습학원","category":"study"},{"name":"즐거운어린이집[아이행복]","tel":"031-8043-5904","addr":"경기도 화성시 산척동 730번지 더레이크시티부영5단지 3036동 101호","indutype":"학원 - 유아원","category":"study"},{"name":"크리아트아동미술교습소","tel":"031-111-1111","addr":"경기도 화성시 산척동 730번지 더레이크시티부영5단지 상가동 201호","indutype":"학원 - 예·체능계학원","category":"study"}]},{"lat":"37.170860647","long":"127.11493719","imageIndex":16,"items":[{"name":"그릿잉글리쉬","tel":"","addr":"경기도 화성시 산척동 721번지 더레이크시티부영2단지 2483동 1503호","indutype":"학원 - 기타 교육기관","category":"study"},{"name":"더레이크시티2단지부영사랑으로어린이집[아","tel":"031-376-7768","addr":"경기도 화성시 산척동 721번지 더레이크시티부영2단지 관리동","indutype":"학원 - 유아원","category":"study"},{"name":"뮤엠영어 부영2단지 NEST","tel":"031-375-3417","addr":"경기도 화성시 산척동 721번지 더레이크시티부영2단지 2481동 201호","indutype":"학원 - 기타 교육기관","category":"study"},{"name":"베이스영어","tel":"","addr":"경기도 화성시 산척동 721번지 더레이크시티부영2단지 2482동 304호","indutype":"학원 - 기타 교육기관","category":"study"},{"name":"아소비공부방(동탄호수부영2단지점)","tel":"","addr":"경기도 화성시 산척동 721번지 더레이크시티부영2단지 2481동 2401호","indutype":"학원 - 기타 교육기관","category":"study"},{"name":"에스에이치공부방","tel":"","addr":"경기도 화성시 산척동 721번지 더레이크시티부영2단지 2481동 201호","indutype":"학원 - 기타 교육기관","category":"study"},{"name":"예시바","tel":"","addr":"경기도 화성시 산척동 721번지 더레이크시티부영2단지 2483동 604호","indutype":"학원 - 기타 교육기관","category":"study"},{"name":"용인대 정현 태권도장","tel":"","addr":"경기도 화성시 산척동 721번지 더레이크시티부영2단지 상가 201호","indutype":"학원 - 예·체능계학원","category":"study"},{"name":"이화올림음악학원","tel":"031-373-7030","addr":"경기도 화성시 산척동 721번지 더레이크시티부영2단지 상가동 202호","indutype":"학원 - 예·체능계학원","category":"study"},{"name":"해법영어","tel":"","addr":"경기도 화성시 산척동 721번지 더레이크시티부영2단지 2483동 403호","indutype":"학원 - 기타 교육기관","category":"study"},{"name":"호수아이꿈 어린이집[아이행복]","tel":"031-375-5956","addr":"경기도 화성시 산척동 721번지 더레이크시티부영2단지 2483동 102호","indutype":"학원 - 유아원","category":"study"}]},{"lat":"37.177555097","long":"127.11525111","imageIndex":16,"items":[{"name":"금강숲어린이집[아이행복]","tel":"070-7761-7777","addr":"경기도 화성시 산척동 48번지 금강펜테리움센트럴파크II","indutype":"학원 - 유아원","category":"study"},{"name":"석영미 개인교습","tel":"","addr":"경기도 화성시 산척동 48번지 동탄호수공원금강펜테리움센트럴파크II 1933동 403호","indutype":"학원 - 기타 교육기관","category":"study"},{"name":"클라비음악학원","tel":"031-376-3020","addr":"경기도 화성시 산척동 48번지 동탄호수공원금강펜테리움센트럴파크II상가 117호 118호","indutype":"학원 - 예·체능계학원","category":"study"}]},{"lat":"37.167029395","long":"127.10705024","imageIndex":16,"items":[{"name":"꿈과길수학학원","tel":"031-375-6557","addr":"경기도 화성시 산척동 728-4번지 우성메디피아 808호,809호","indutype":"학원 - 보습학원","category":"study"},{"name":"남동탄리딩타운어학원","tel":"031-372-0355","addr":"경기도 화성시 산척동 728-4번지 우성메디피아 6층 605호~607호","indutype":"학원 - 외국어학원","category":"study"},{"name":"더시크릿수학프리미엄관학원","tel":"031-8077-9009","addr":"경기도 화성시 산척동 728-4번지 603, 604호","indutype":"학원 - 보습학원","category":"study"},{"name":"더채널미술학원","tel":"031-374-5552","addr":"경기도 화성시 산척동 728-4번지 701동 704호","indutype":"학원 - 예·체능계학원","category":"study"},{"name":"동탄차이랑중국어어학원","tel":"031-374-2668","addr":"경기도 화성시 산척동 728-4번지 705,706호","indutype":"학원 - 외국어학원","category":"study"},{"name":"마인츠 뮤직슐레","tel":"031-6781-7006","addr":"경기도 화성시 산척동 728-4번지 우성메디피아 803,804호 마인츠 뮤직슐레","indutype":"학원 - 예·체능계학원","category":"study"},{"name":"일강수학학원","tel":"031-374-5213","addr":"경기도 화성시 산척동 728-4번지 우성메디피아 613호","indutype":"학원 - 보습학원","category":"study"},{"name":"한국파워점핑줄넘기","tel":"031-375-9625","addr":"경기도 화성시 산척동 728-4번지 601호,602호","indutype":"학원 - 예·체능계학원","category":"study"},{"name":"해동검도","tel":"031-372-7001","addr":"경기도 화성시 산척동 728-4번지 동탄우성메디피아 801,802호","indutype":"학원 - 예·체능계학원","category":"study"}]},{"lat":"37.166642046","long":"127.10693711","imageIndex":16,"items":[{"name":"남동탄관YEP이언어학원","tel":"031-8003-6949","addr":"경기도 화성시 산척동 728-5번지 7층 704~708호","indutype":"학원 - 외국어학원","category":"study"},{"name":"데이원프리미엄독서실","tel":"031-376-2810","addr":"경기도 화성시 산척동 728-5번지 우성애비뉴타워 1011동 1014호","indutype":"학원 - 독서실","category":"study"},{"name":"레이첼피아노음악교습소","tel":"","addr":"경기도 화성시 산척동 728-5번지 우성애비뉴타워 701호","indutype":"학원 - 예·체능계학원","category":"study"},{"name":"리드인독서논술학원","tel":"031-372-9747","addr":"경기도 화성시 산척동 728-5번지 우성애비뉴타워 809호","indutype":"학원 - 보습학원","category":"study"},{"name":"메싸 수학학원","tel":"031-8003-0174","addr":"경기도 화성시 산척동 728-5번지 우성애비뉴타워 811,812호","indutype":"학원 - 보습학원","category":"study"},{"name":"아지트 미술 교습소","tel":"","addr":"경기도 화성시 산척동 728-5번지 우성애비뉴타워 6층 611호","indutype":"학원 - 예·체능계학원","category":"study"},{"name":"에듀셀파수학전문학원","tel":"031-375-8864","addr":"경기도 화성시 산척동 728-5번지 우성애비뉴타워 801호","indutype":"학원 - 보습학원","category":"study"},{"name":"엘리나무용학원","tel":"031-8077-9924","addr":"경기도 화성시 산척동 728-5번지 1007,1008호","indutype":"학원 - 예·체능계학원","category":"study"},{"name":"윤선생스마트랜드화성동탄학원","tel":"031-477-5800","addr":"경기도 화성시 산척동 728-5번지 910호","indutype":"학원 - 보습학원","category":"study"},{"name":"이룸수학학원","tel":"031-375-7172","addr":"경기도 화성시 산척동 728-5번지 우성애비뉴타워 711,712호","indutype":"학원 - 보습학원","category":"study"},{"name":"펜타수학프리미엄학원/주식회사 지성인","tel":"031-8043-5238","addr":"경기도 화성시 산척동 728-5번지 우성애비뉴타워 907호 908호","indutype":"학원 - 보습학원","category":"study"},{"name":"하늘리듬체조","tel":"","addr":"경기도 화성시 산척동 728-5번지 7층 710호","indutype":"학원 - 예·체능계학원","category":"study"}]},{"lat":"37.167533732","long":"127.1073324","imageIndex":16,"items":[{"name":"남동탄베를린음악학원","tel":"031-377-7559","addr":"경기도 화성시 산척동 728-2번지 우성에듀파크 1005,1012호","indutype":"학원 - 예·체능계학원","category":"study"},{"name":"남동탄새싹바둑교습소","tel":"031-376-1104","addr":"경기도 화성시 산척동 728-2번지 우성에듀파크 707호","indutype":"학원 - 기타 교육기관","category":"study"},{"name":"남동탄외대어학원","tel":"031-374-0325","addr":"경기도 화성시 산척동 728-1번지 우성메디피아 608~612호","indutype":"학원 - 외국어학원","category":"study"},{"name":"렘브란트의풍차호수공원학원","tel":"031-8077-9888","addr":"경기도 화성시 산척동 728-2번지 동탄2우성에듀파크 703,704호","indutype":"학원 - 예·체능계학원","category":"study"},{"name":"벤자민로봇코딩교습소","tel":"070-8977-6907","addr":"경기도 화성시 산척동 728-2번지 동탄2우성에듀파크 813호","indutype":"학원 - 컴퓨터학원","category":"study"},{"name":"블럭쟁이","tel":"031-377-0240","addr":"경기도 화성시 산척동 728-2번지 802호","indutype":"학원 - 기타 교육기관","category":"study"},{"name":"세잔미술학원","tel":"031-0000-0000","addr":"경기도 화성시 산척동 728-2번지 812호","indutype":"학원 - 예·체능계학원","category":"study"},{"name":"앤피아노교습소","tel":"","addr":"경기도 화성시 산척동 728-2번지 5층 501호","indutype":"학원 - 예·체능계학원","category":"study"},{"name":"오스틴영어전문학원","tel":"031-373-5202","addr":"경기도 화성시 산척동 728-2번지 814호","indutype":"학원 - 외국어학원","category":"study"},{"name":"케이뮤직아카데미학원","tel":"031-377-3556","addr":"경기도 화성시 산척동 728-2번지 803,804호","indutype":"학원 - 예·체능계학원","category":"study"}]},{"lat":"37.167642867","long":"127.11604709","imageIndex":16,"items":[{"name":"느루교육","tel":"031-374-4516","addr":"경기도 화성시 산척동 730번지 더레이크시티부영6단지 3061동 903호","indutype":"학원 - 기타 교육기관","category":"study"},{"name":"달콤한수학","tel":"031-111-1111","addr":"경기도 화성시 산척동 730번지 더레이크시티부영6단지 3066동 104호","indutype":"학원 - 기타 교육기관","category":"study"},{"name":"비상영어","tel":"","addr":"경기도 화성시 산척동 730번지 더레이크시티부영6단지 3066동 1층 102호","indutype":"학원 - 기타 교육기관","category":"study"},{"name":"호수아이편한어린이집[아이행복]","tel":"031-8050-3942","addr":"경기도 화성시 산척동 730번지 더레이크시티부영6단지 3069동 103호","indutype":"학원 - 유아원","category":"study"},{"name":"호수이레어린이집[아이행복]","tel":"031-8043-3065","addr":"경기도 화성시 산척동 730번지 더레이크시티부영6단지 3065동 103호","indutype":"학원 - 유아원","category":"study"}]},{"lat":"37.173056264","long":"127.11799186","imageIndex":16,"items":[{"name":"다온음악학원","tel":"031-375-2078","addr":"경기도 화성시 산척동 642번지 서희스타힐스NHF 상가동 2층 201호, 202호","indutype":"학원 - 예·체능계학원","category":"study"},{"name":"동탄라임 어린이집[아이행복]","tel":"031-376-2722","addr":"경기도 화성시 산척동 642번지 스타힐스24단지","indutype":"학원 - 유아원","category":"study"},{"name":"비욘드S","tel":"070-4111-9496","addr":"경기도 화성시 산척동 642번지 스타힐스24단지 2425동 13층 5호","indutype":"학원 - 기타 교육기관","category":"study"},{"name":"혜음국어논술","tel":"","addr":"경기도 화성시 산척동 642번지 서희스타힐스NHF 2428동 603호","indutype":"학원 - 기타 교육기관","category":"study"}]},{"lat":"37.171505575","long":"127.10930831","imageIndex":16,"items":[{"name":"더레이크시티3단지 부영사랑으로어린이집[","tel":"031-376-3037","addr":"경기도 화성시 산척동 718번지 더레이크시티부영3단지 관리동","indutype":"학원 - 유아원","category":"study"},{"name":"동탄산척필아트미술학원","tel":"031-372-9400","addr":"경기도 화성시 산척동 718번지 더레이크시티부영3단지 상가동 2층 202호","indutype":"학원 - 예·체능계학원","category":"study"},{"name":"솔솔음악학원","tel":"031-3779-1111","addr":"경기도 화성시 산척동 718번지 더레이크시티부영3단지 상가 2층 201호","indutype":"학원 - 예·체능계학원","category":"study"},{"name":"최쌤수학","tel":"","addr":"경기도 화성시 산척동 718번지 더레이크시티부영3단지 2566동 404호","indutype":"학원 - 기타 교육기관","category":"study"},{"name":"호수리라어린이집[아이행복]","tel":"031-8050-3873","addr":"경기도 화성시 산척동 718번지 더레이크시티부영3단지 2562동 102호","indutype":"학원 - 유아원","category":"study"}]},{"lat":"37.175557899","long":"127.11191511","imageIndex":16,"items":[{"name":"동탄국제유치원[아이행복]","tel":"031-378-7707","addr":"경기도 화성시 산척동 703번지","indutype":"학원 - 유치원","category":"study"},{"name":"한뜻학원","tel":"031-000-0000","addr":"경기도 화성시 산척동 703번지 404~411호","indutype":"학원 - 보습학원","category":"study"}]},{"lat":"37.177893313","long":"127.11957568","imageIndex":16,"items":[{"name":"동탄한국체대태권스쿨태권도장","tel":"031-374-7388","addr":"경기도 화성시 산척동 산155-4번지 5층 504,505,506호","indutype":"학원 - 예·체능계학원","category":"study"},{"name":"세움영어학원","tel":"031-376-0512","addr":"경기도 화성시 산척동 산155-4번지 401호","indutype":"학원 - 외국어학원","category":"study"}]},{"lat":"37.173665556","long":"127.11208129","imageIndex":16,"items":[{"name":"라라키즈가든동탄융합과학교습소","tel":"","addr":"경기도 화성시 산척동 707-8번지 1층 일부층","indutype":"학원 - 보습학원","category":"study"},{"name":"봄앤피아노음악학원","tel":"","addr":"경기도 화성시 산척동 712-1번지 1층","indutype":"학원 - 예·체능계학원","category":"study"},{"name":"예맘학습터","tel":"","addr":"경기도 화성시 산척동 713-1번지 2층","indutype":"학원 - 기타 교육기관","category":"study"}]},{"lat":"37.169893356","long":"127.11824603","imageIndex":16,"items":[{"name":"라이즈동탄2어학원","tel":"031-376-9297","addr":"경기도 화성시 산척동 724-2번지 모닝그레이스 7층","indutype":"학원 - 외국어학원","category":"study"},{"name":"미래인재학원","tel":"031-374-3927","addr":"경기도 화성시 산척동 724-3번지 효천프라자 604호","indutype":"학원 - 보습학원","category":"study"},{"name":"수학의숲학원","tel":"031-373-0590","addr":"경기도 화성시 산척동 724-1번지 중산타워 1동 701 702호","indutype":"학원 - 보습학원","category":"study"},{"name":"스폴남동탄어학원","tel":"031-373-0594","addr":"경기도 화성시 산척동 724-1번지 중산타워 703호 704호 705호","indutype":"학원 - 외국어학원","category":"study"},{"name":"씨엠댄스아카데미","tel":"031-377-1788","addr":"경기도 화성시 산척동 724-2번지 모닝그레이스빌딩 602호","indutype":"학원 - 예·체능계학원","category":"study"},{"name":"최문식 축구 트레이닝 센터","tel":"","addr":"경기도 화성시 산척동 724-1번지 종산타워 3층 304호, 305호","indutype":"학원 - 예·체능계학원","category":"study"},{"name":"토킹스타남동탄점학원","tel":"031-000-0000","addr":"경기도 화성시 산척동 724-3번지 4층 1호","indutype":"학원 - 외국어학원","category":"study"},{"name":"한국파워점핑","tel":"031-376-5344","addr":"경기도 화성시 산척동 724-3번지 효천프라자 701, 702호","indutype":"학원 - 기타 교육기관","category":"study"}]},{"lat":"37.173358306","long":"127.11304921","imageIndex":16,"items":[{"name":"박사 백호 태권도","tel":"","addr":"경기도 화성시 산척동 712-3번지 1동 박사 백호 태권도","indutype":"학원 - 예·체능계학원","category":"study"}]},{"lat":"37.166533534","long":"127.12613342","imageIndex":16,"items":[{"name":"세정초등학교","tel":"031-8019-9223","addr":"경기도 화성시 산척동 408-5번지","indutype":"학원 - 초중고교육기관","category":"study"}]},{"lat":"37.179140243","long":"127.11597415","imageIndex":16,"items":[{"name":"아이원유치원[아이행복]","tel":"031-375-8000","addr":"경기도 화성시 산척동 산155-1번지","indutype":"학원 - 유치원","category":"study"},{"name":"월드조이2관학원/주식회사 월드조이","tel":"031-375-8000","addr":"경기도 화성시 산척동 산155-1번지","indutype":"학원 - 외국어학원","category":"study"},{"name":"월드조이학원/(주)월드조이","tel":"03-375-8000","addr":"경기도 화성시 산척동 산155-1번지 4층","indutype":"학원 - 외국어학원","category":"study"}]},{"lat":"37.17386227","long":"127.11371428","imageIndex":16,"items":[{"name":"에스이에스영어(SES영어)","tel":"","addr":"경기도 화성시 산척동 711-6번지 2층","indutype":"학원 - 기타 교육기관","category":"study"},{"name":"지윤수학과학","tel":"070-4032-9002","addr":"경기도 화성시 산척동 712-6번지 201호","indutype":"학원 - 기타 교육기관","category":"study"},{"name":"케이타이거즈태권도장(KTIGERS)","tel":"031-376-8846","addr":"경기도 화성시 산척동 714-5번지 1층","indutype":"학원 - 예·체능계학원","category":"study"},{"name":"튼튼영어 마스터클럽 화성정현초점","tel":"","addr":"경기도 화성시 산척동 716-8번지 201호","indutype":"학원 - 기타 교육기관","category":"study"}]},{"lat":"37.170804158","long":"127.10774225","imageIndex":16,"items":[{"name":"원프로교육동탄학원","tel":"031-893-1004","addr":"경기도 화성시 산척동 717-5번지 4층 405호","indutype":"학원 - 보습학원","category":"study"}]},{"lat":"37.173081301","long":"127.11052659","imageIndex":16,"items":[{"name":"정현고등학교","tel":"031-630-5600","addr":"경기도 화성시 산척동 705번지","indutype":"학원 - 초중고교육기관","category":"study"},{"name":"정현고등학교_수업료","tel":"","addr":"경기도 화성시 산척동 705번지","indutype":"학원 - 초중고교육기관","category":"study"}]},{"lat":"37.171222962","long":"127.11291099","imageIndex":16,"items":[{"name":"정현초등학교","tel":"031-377-9450","addr":"경기도 화성시 산척동 산126번지 정현초등학교","indutype":"학원 - 초중고교육기관","category":"study"}]},{"lat":"37.174531094","long":"127.11149701","imageIndex":16,"items":[{"name":"청림초등학교","tel":"031-378-7846","addr":"경기도 화성시 산척동 704번지","indutype":"학원 - 초중고교육기관","category":"study"},{"name":"청림초등학교_수업료","tel":"031-378-7846","addr":"경기도 화성시 산척동 704번지","indutype":"학원 - 초중고교육기관","category":"study"}]},{"lat":"37.176670387","long":"127.10724364","imageIndex":16,"items":[{"name":"화성시동탄아르딤복지관","tel":"031-8077-0813","addr":"경기도 화성시 산척동 676번지","indutype":"학원 - 기타 교육기관","category":"study"}]},{"lat":"37.16864016","long":"127.10941689","imageIndex":17,"items":[{"name":"(주)더 제이스/스몰어덜트","tel":"031-8016-3334","addr":"경기도 화성시 산척동 727-8번지 비층 101,102호","indutype":"용역 서비스 - 사무서비스","category":"other"},{"name":"이마트24 동탄호수공원 2호점","tel":"031-000-0000","addr":"경기도 화성시 산척동 727-8번지 1층 109호","indutype":"유통업 영리 - 편 의 점","category":"other"}]},{"lat":"37.170533391","long":"127.11794299","imageIndex":17,"items":[{"name":"(주)시그니쳐클럽","tel":"031-111-1111","addr":"경기도 화성시 산척동 723번지 풍산리치안타워 405호","indutype":"여행 - 관광여행","category":"other"},{"name":"남동탄24","tel":"031-378-6060","addr":"경기도 화성시 산척동 723번지 201~203호,214호","indutype":"레져용품 - 골프용품 전문점","category":"other"}]},{"lat":"37.167642867","long":"127.11604709","imageIndex":17,"items":[{"name":"GS25동탄호수길점","tel":"","addr":"경기도 화성시 산척동 730번지 더레이크시티부영6단지 상가동 1층 101 일부호","indutype":"유통업 영리 - 편 의 점","category":"other"}]},{"lat":"37.177555097","long":"127.11525111","imageIndex":17,"items":[{"name":"가나하수구","tel":"031-373-8813","addr":"경기도 화성시 산척동 48번지 동탄호수공원금강펜테리움센트럴파크II 1940동 2003호","indutype":"용역 서비스 - 기타용역서비스","category":"other"},{"name":"끌라떼비베","tel":"","addr":"경기도 화성시 산척동 48번지 동탄호수공원금강펜테리움센트럴파크II 1934동 2204호","indutype":"신변잡화 - 액세서리","category":"other"},{"name":"대림남부지정점(화성,오산)","tel":"031-374-3882","addr":"경기도 화성시 산척동 48번지 동탄호수공원금강펜테리움센트럴파크II 1938동 1202호","indutype":"건축자재 - 인테리어전문","category":"other"},{"name":"비비스토어55지점","tel":"","addr":"경기도 화성시 산척동 48번지 동탄호수공원금강펜테리움센트럴파크II 1983동 1802호","indutype":"직물 - 카페트,커튼,천막,지물","category":"other"},{"name":"이마트24 동탄펜테리움점","tel":"","addr":"경기도 화성시 산척동 48번지 동탄호수공원금강펜테리움센트럴파크II 상가동 101-103호","indutype":"유통업 영리 - 편 의 점","category":"other"},{"name":"쿠보옴므 동탄점","tel":"","addr":"경기도 화성시 산척동 48번지 동탄호수공원금강펜테리움센트럴파크II 1932동 1001호","indutype":"의류 - 정장","category":"other"},{"name":"크린토피아 코인워시 동탄2 금강2차점","tel":"031-373-2550","addr":"경기도 화성시 산척동 48번지 동탄호수공원금강펜테리움센트럴파크2단지 상가 105호","indutype":"수리서비스 - 세탁소","category":"other"},{"name":"화이트비","tel":"070-4024-9750","addr":"경기도 화성시 산척동 48번지 동탄호수공원금강펜테리움센트럴파크II 1940동 401호","indutype":"용역 서비스 - 사무서비스","category":"other"}]},{"lat":"37.173056264","long":"127.11799186","imageIndex":17,"items":[{"name":"골드에어컨","tel":"031-269-3928","addr":"경기도 화성시 산척동 642번지 서희스타힐스NHF 2422동 801호","indutype":"용역 서비스 - 기타용역서비스","category":"other"},{"name":"디자인스페이스","tel":"031-217-8882","addr":"경기도 화성시 산척동 642번지 스타힐스24단지 2424동 16층 04호","indutype":"건축자재 - 인테리어전문","category":"other"},{"name":"씨유동탄스타힐스점","tel":"080-080-3663","addr":"경기도 화성시 산척동 642번지 서희스타힐스 NHF 상가동 103,104호","indutype":"유통업 영리 - 편 의 점","category":"other"},{"name":"이레산업","tel":"","addr":"경기도 화성시 산척동 642번지 서희스타힐스NHF,24단지 2423동 504호","indutype":"용역 서비스 - 기타용역서비스","category":"other"}]},{"lat":"37.17386227","long":"127.11371428","imageIndex":17,"items":[{"name":"공감인 중문","tel":"031-375-6583","addr":"경기도 화성시 산척동 711-4번지 103호","indutype":"용역 서비스 - 기타용역서비스","category":"other"},{"name":"동탄산내들화원","tel":"031-373-2642","addr":"경기도 화성시 산척동 716-7번지 102호","indutype":"문화.취미 - 화원","category":"other"},{"name":"동탄어린이서점","tel":"031-262-1414","addr":"경기도 화성시 산척동 712-6번지 103호","indutype":"서적문구 - 일반서적","category":"other"},{"name":"리베라컨설팅","tel":"031-613-5678","addr":"경기도 화성시 산척동 715-5번지 101호","indutype":"신변잡화 - 기타잡화","category":"other"},{"name":"문(MOON)","tel":"031-8178-4136","addr":"경기도 화성시 산척동 712-5번지 1충 102호","indutype":"의류 - 정장","category":"other"},{"name":"삼천리자전거","tel":"031-374-3312","addr":"경기도 화성시 산척동 709번지 102호","indutype":"레져용품 - 스포츠·레져용품","category":"other"},{"name":"우아한옷장","tel":"","addr":"경기도 화성시 산척동 711-2번지 1층 402호","indutype":"의류 - 정장","category":"other"},{"name":"이마트24 동탄중흥점","tel":"","addr":"경기도 화성시 산척동 712-7번지 101,102호","indutype":"유통업 영리 - 편 의 점","category":"other"},{"name":"이마트24 동탄중흥점","tel":"031-000-0000","addr":"경기도 화성시 산척동 712-7번지 101,102","indutype":"유통업 영리 - 편 의 점","category":"other"},{"name":"코코아린","tel":"031-374-3660","addr":"경기도 화성시 산척동 712-7번지 1동 1층 101호 코코아린","indutype":"의류 - 아동의류","category":"other"},{"name":"크린토피아 코인워시 동탄2중흥호수점","tel":"031-372-7588","addr":"경기도 화성시 산척동 716-7번지 1층 101호","indutype":"수리서비스 - 세탁소","category":"other"}]},{"lat":"37.166642046","long":"127.10693711","imageIndex":17,"items":[{"name":"동탄서점","tel":"031-376-5955","addr":"경기도 화성시 산척동 728-5번지 우성애비뉴타워 2층 213호,214호","indutype":"서적문구 - 일반서적","category":"other"},{"name":"산척동 사진관","tel":"","addr":"경기도 화성시 산척동 728-5번지 112호","indutype":"광학제품 - 사진관","category":"other"},{"name":"알파 남동탄점","tel":"031-374-0700","addr":"경기도 화성시 산척동 728-5번지 209 ,210,211호","indutype":"서적문구 - 문구용품","category":"other"},{"name":"핑크짐","tel":"031-6586-0804","addr":"경기도 화성시 산척동 728-5번지 901,902,903,904","indutype":"의류 - 정장","category":"other"}]},{"lat":"37.168695908","long":"127.10752541","imageIndex":17,"items":[{"name":"따스한 산책","tel":"","addr":"경기도 화성시 산척동 584번지 B205호","indutype":"문화.취미 - 애완동물","category":"other"},{"name":"세븐일레븐 동탄산척호수점","tel":"031-1577-0711","addr":"경기도 화성시 산척동 584번지 1160호","indutype":"유통업 영리 - 편 의 점","category":"other"},{"name":"스마트타임","tel":"","addr":"경기도 화성시 산척동 584번지 지하2층 204호","indutype":"서적문구 - 완구점","category":"other"},{"name":"호수세탁","tel":"031-373-5821","addr":"경기도 화성시 산척동 584번지 산척호수프라자 112호","indutype":"수리서비스 - 세탁소","category":"other"}]},{"lat":"37.167029395","long":"127.10705024","imageIndex":17,"items":[{"name":"라온볼링스포렉스 프로샵","tel":"031-372-8464","addr":"경기도 화성시 산척동 728-4번지","indutype":"레져용품 - 스포츠·레져용품","category":"other"},{"name":"씨유동탄레이크시티점","tel":"080-080-3663","addr":"경기도 화성시 산척동 728-4번지 우성메디피아 107호","indutype":"유통업 영리 - 편 의 점","category":"other"},{"name":"잉글리시에그 동탄호수지사","tel":"031-372-0521","addr":"경기도 화성시 산척동 728-4번지 우성메디피아 813,814호","indutype":"서적문구 - 일반서적","category":"other"},{"name":"잉글리시에그 동탄호수지사-문화비","tel":"031-372-0521","addr":"경기도 화성시 산척동 728-4번지 우성메디피아 813,814호","indutype":"서적문구 - 일반서적","category":"other"},{"name":"제이쥬플라워","tel":"","addr":"경기도 화성시 산척동 728-4번지 9층 904호","indutype":"문화.취미 - 화원","category":"other"},{"name":"쿨키즈북","tel":"031-831-8561","addr":"경기도 화성시 산척동 728-4번지 2층 208호","indutype":"서적문구 - 일반서적","category":"other"}]},{"lat":"37.167558096","long":"127.1286346","imageIndex":17,"items":[{"name":"라온하제","tel":"070-7757-4787","addr":"경기도 화성시 산척동 744번지 그린힐반도유보라아이비파크10 3634동 705호","indutype":"의류 - 정장","category":"other"},{"name":"세븐일레븐동탄반도점","tel":"031-1577-0711","addr":"경기도 화성시 산척동 744번지 반도유보라 아이비파크 10.0 지하1층 N125호","indutype":"유통업 영리 - 편 의 점","category":"other"},{"name":"올리브","tel":"031-222-3543","addr":"경기도 화성시 산척동 744번지 그린힐반도유보라아이비파크10 3638동 702호","indutype":"의류 - 정장","category":"other"},{"name":"우와도어","tel":"031-355-1712","addr":"경기도 화성시 산척동 744번지 그린힐반도유보라아이비파크10 3636동 1203호","indutype":"건축자재 - 기타건축자재","category":"other"},{"name":"제일공간","tel":"","addr":"경기도 화성시 산척동 744번지 그린힐반도유보라아이비파크10 3640동 1202호","indutype":"용역 서비스 - 종합용역","category":"other"},{"name":"코인워시 동탄2 반도10차점","tel":"031-373-1959","addr":"경기도 화성시 산척동 744번지 그린힐 반도유보라아이비파크10 카림애비뉴3차 1단지 N119~120호","indutype":"수리서비스 - 세탁소","category":"other"},{"name":"하얀크리닝반도10차점","tel":"031-376-8248","addr":"경기도 화성시 산척동 744번지 그린힐반도유보라아이비파크10 103호","indutype":"수리서비스 - 세탁소","category":"other"},{"name":"하얀크리닝반도10차점","tel":"031-376-8248","addr":"경기도 화성시 산척동 744번지 그린힐반도유보라아이비파크10 카림애비뉴3차1단지 130호","indutype":"수리서비스 - 세탁소","category":"other"}]},{"lat":"37.169893356","long":"127.11824603","imageIndex":17,"items":[{"name":"라이즈book","tel":"031-376-9297","addr":"경기도 화성시 산척동 724-2번지 701호","indutype":"서적문구 - 기타서적문구","category":"other"},{"name":"매드(MAD)","tel":"070-3715-2337","addr":"경기도 화성시 산척동 724-3번지 503,504호","indutype":"수리서비스 - 사무·통신기기수리","category":"other"},{"name":"블루미미","tel":"","addr":"경기도 화성시 산척동 724-3번지 호천프라자 4층 403호","indutype":"문화.취미 - 문화취미기타","category":"other"},{"name":"씨유동탄호수부영점","tel":"080-080-3663","addr":"경기도 화성시 산척동 724-2번지 모닝그레이스프라자 116호","indutype":"유통업 영리 - 편 의 점","category":"other"},{"name":"씨제이올리브네트웍스(주)동탄산척점","tel":"031-372-5260","addr":"경기도 화성시 산척동 724-1번지","indutype":"유통업 영리 - 편 의 점","category":"other"},{"name":"어라운드스터디센터 남동탄점","tel":"070-7358-0904","addr":"경기도 화성시 산척동 724-2번지 모닝그레이스빌딩 501,502호","indutype":"용역 서비스 - 사무서비스","category":"other"},{"name":"하비인더룸","tel":"","addr":"경기도 화성시 산척동 724-3번지 306호","indutype":"직물 - 카페트,커튼,천막,지물","category":"other"}]},{"lat":"37.167533732","long":"127.1073324","imageIndex":17,"items":[{"name":"레이크프리미엄골프아카데미","tel":"031-375-0534","addr":"경기도 화성시 산척동 728-2번지 동탄2우성에듀파크 908동 914호","indutype":"레져용품 - 골프용품 전문점","category":"other"},{"name":"스타일노리터 동탄 호수공원점","tel":"031-378-0458","addr":"경기도 화성시 산척동 728-2번지 104호","indutype":"의류 - 아동의류","category":"other"},{"name":"유에스티","tel":"","addr":"경기도 화성시 산척동 728-2번지 우성에듀파크 105호","indutype":"수리서비스 - 사무·통신기기수리","category":"other"}]},{"lat":"37.167588141","long":"127.10693841","imageIndex":17,"items":[{"name":"미니스톱 동탄호수공원점","tel":"031-1577-9621","addr":"경기도 화성시 산척동 610-1번지 109호","indutype":"유통업 영리 - 편 의 점","category":"other"}]},{"lat":"37.173665556","long":"127.11208129","imageIndex":17,"items":[{"name":"바느질하는농부(동탄호수점)","tel":"031-376-0201","addr":"경기도 화성시 산척동 707-8번지 102호","indutype":"의류 - 정장","category":"other"}]},{"lat":"37.166171016","long":"127.12813691","imageIndex":17,"items":[{"name":"바른","tel":"031-8054-8877","addr":"경기도 화성시 산척동 745번지 3625동 111호, 112호","indutype":"서적문구 - 문구용품","category":"other"},{"name":"호수사진관","tel":"031-831-3755","addr":"경기도 화성시 산척동 745번지 레이크힐반도유보라아이비파크10.2 3626동 1층 118호","indutype":"광학제품 - 사진관","category":"other"}]},{"lat":"37.165920666","long":"127.10755536","imageIndex":17,"items":[{"name":"세븐일레븐동탄대로점","tel":"031-1577-0711","addr":"경기도 화성시 산척동 728-6번지 1층 122호","indutype":"유통업 영리 - 편 의 점","category":"other"},{"name":"케이탑 법무사 손기선 사무소","tel":"031-283-0000","addr":"경기도 화성시 산척동 728-6번지 9층 913호","indutype":"용역 서비스 - 법률회계서비스(개인)","category":"other"},{"name":"케이탑 법무사 양경훈 사무소","tel":"031-284-1919","addr":"경기도 화성시 산척동 728-6번지 9층 913호","indutype":"용역 서비스 - 법률회계서비스(개인)","category":"other"}]},{"lat":"37.167060136","long":"127.11291622","imageIndex":17,"items":[{"name":"세븐일레븐동탄부영5단지점","tel":"031-1577-0711","addr":"경기도 화성시 산척동 730번지 더레이크시티부영5단지 201-1호","indutype":"유통업 영리 - 편 의 점","category":"other"}]},{"lat":"37.174223128","long":"127.11324188","imageIndex":17,"items":[{"name":"세븐일레븐동탄산척로점","tel":"031-1577-0711","addr":"경기도 화성시 산척동 708-7번지 102호","indutype":"유통업 영리 - 편 의 점","category":"other"},{"name":"코지앳홈(cozy at home)","tel":"031-372-8868","addr":"경기도 화성시 산척동 708-7번지 101호","indutype":"직물 - 카페트,커튼,천막,지물","category":"other"}]},{"lat":"37.174000944","long":"127.10988607","imageIndex":17,"items":[{"name":"씨유동탄레이크더샵점","tel":"080-080-3663","addr":"경기도 화성시 산척동 699번지 동탄더샵레이크에듀타운 B04호","indutype":"유통업 영리 - 편 의 점","category":"other"}]},{"lat":"37.171505575","long":"127.10930831","imageIndex":17,"items":[{"name":"씨유동탄부영3단지점","tel":"02-1577-8007","addr":"경기도 화성시 산척동 718번지 더레이크시티부영3단지 상가동 105호","indutype":"유통업 영리 - 편 의 점","category":"other"}]},{"lat":"37.168749252","long":"127.10833615","imageIndex":17,"items":[{"name":"이마트24 동탄호수공원점","tel":"","addr":"경기도 화성시 산척동 727-5번지 1층 104호","indutype":"유통업 영리 - 편 의 점","category":"other"}]},{"lat":"37.171858327","long":"127.1078","imageIndex":17,"items":[{"name":"착한통신","tel":"","addr":"경기도 화성시 산척동 717-1번지 드림타워 107호","indutype":"사무통신 - 통신기기","category":"other"},{"name":"프렌즈 스터디카페(동탄센터점)","tel":"","addr":"경기도 화성시 산척동 717-1번지 드림타워 605호","indutype":"용역 서비스 - 사무서비스","category":"other"}]},{"lat":"37.17269189","long":"127.1126654","imageIndex":17,"items":[{"name":"팀바이크","tel":"070-4686-9412","addr":"경기도 화성시 산척동 716-2번지 1층 일부","indutype":"레져용품 - 스포츠·레져용품","category":"other"}]},{"lat":"37.170360735","long":"127.10988094","imageIndex":17,"items":[{"name":"화성시동탄노인복지관","tel":"031-8077-1804","addr":"경기도 화성시 산척동 726번지 C동 1층","indutype":"기타의료기관 - 기타의료기관 및 기타","category":"other"}]},{"lat":"37.174223128","long":"127.11324188","imageIndex":4,"items":[{"name":"2동탄대반점","tel":"031-378-8463","addr":"경기도 화성시 산척동 708-3번지 1층","indutype":"일반휴게음식 - 중국식","category":"restaurant"},{"name":"신진미통닭산척점","tel":"031-376-0688","addr":"경기도 화성시 산척동 708-10번지 1층","indutype":"일반휴게음식 - 스넥","category":"restaurant"},{"name":"아띠랑스","tel":"031-378-7777","addr":"경기도 화성시 산척동 710-1번지 1층","indutype":"일반휴게음식 - 서양음식","category":"restaurant"},{"name":"처갓집양념치킨 동탄중앙점","tel":"031-375-8292","addr":"경기도 화성시 산척동 249번지 1층 일부","indutype":"일반휴게음식 - 스넥","category":"restaurant"},{"name":"하오츠 양꼬치","tel":"031-378-7553","addr":"경기도 화성시 산척동 708-6번지","indutype":"일반휴게음식 - 중국식","category":"restaurant"}]},{"lat":"37.17386227","long":"127.11371428","imageIndex":4,"items":[{"name":"60계치킨 동탄호수점","tel":"031-373-6066","addr":"경기도 화성시 산척동 712-6번지 1층 일부호","indutype":"일반휴게음식 - 스넥","category":"restaurant"},{"name":"8딱8딱 활어회전문점","tel":"031-111-1111","addr":"경기도 화성시 산척동 715-4번지 1층 일부호","indutype":"일반휴게음식 - 일식·회집","category":"restaurant"},{"name":"노랑통닭 호수중앙점","tel":"","addr":"경기도 화성시 산척동 714-6번지 1층 102호","indutype":"일반휴게음식 - 스넥","category":"restaurant"},{"name":"다경감자탕 동탄2호점","tel":"031-376-1044","addr":"경기도 화성시 산척동 715-1번지 1층 전부","indutype":"일반휴게음식 - 일반한식","category":"restaurant"},{"name":"동탄김밥나라","tel":"031-377-0887","addr":"경기도 화성시 산척동 711-5번지 102호","indutype":"일반휴게음식 - 스넥","category":"restaurant"},{"name":"마망카롱","tel":"","addr":"경기도 화성시 산척동 712-7번지 1층 103호","indutype":"일반휴게음식 - 서양음식","category":"restaurant"},{"name":"버무리떡볶이 동탄호수공원점","tel":"031-372-5209","addr":"경기도 화성시 산척동 712-5번지 1층 101호","indutype":"일반휴게음식 - 일반한식","category":"restaurant"},{"name":"본도시락 동탄호수공원점","tel":"031-378-4282","addr":"경기도 화성시 산척동 716-5번지 1층 101호","indutype":"일반휴게음식 - 일반한식","category":"restaurant"},{"name":"비에이치씨(bhc) 동탄산척동점","tel":"031-376-0264","addr":"경기도 화성시 산척동 711-5번지 1층 일부 103호","indutype":"일반휴게음식 - 스넥","category":"restaurant"},{"name":"손조오향각","tel":"","addr":"경기도 화성시 산척동 716-8번지 1층","indutype":"일반휴게음식 - 중국식","category":"restaurant"},{"name":"수미반점","tel":"031-374-7456","addr":"경기도 화성시 산척동 715-5번지","indutype":"일반휴게음식 - 중국식","category":"restaurant"},{"name":"용인순대국","tel":"031-378-2009","addr":"경기도 화성시 산척동 714-4번지 1층","indutype":"일반휴게음식 - 일반한식","category":"restaurant"},{"name":"용인토종순대국","tel":"031-378-2009","addr":"경기도 화성시 산척동 714-4번지 1층","indutype":"일반휴게음식 - 일반한식","category":"restaurant"},{"name":"웰빙 월람 삼겹쌈","tel":"","addr":"경기도 화성시 산척동 715-2번지 1층 일부호","indutype":"일반휴게음식 - 일반한식","category":"restaurant"},{"name":"진수성찬 캐더링","tel":"031-000-0000","addr":"경기도 화성시 산척동 710-2번지 1층 전부호","indutype":"일반휴게음식 - 일반한식","category":"restaurant"},{"name":"청기와감자탕순대철판볶음","tel":"031-000-0000","addr":"경기도 화성시 산척동 710-4번지 1층 전부호","indutype":"일반휴게음식 - 일반한식","category":"restaurant"}]},{"lat":"37.167558096","long":"127.1286346","imageIndex":4,"items":[{"name":"7분통닭반도10차점","tel":"","addr":"경기도 화성시 산척동 744번지 그린힐반도유보라아이비파크10 3654동 B124호","indutype":"일반휴게음식 - 스넥","category":"restaurant"},{"name":"메가엠지씨커피","tel":"070-9122-5972","addr":"경기도 화성시 산척동 744번지 그린힐반도유보라아이비파크10 3653동 지하1층 106호","indutype":"일반휴게음식 - 서양음식","category":"restaurant"},{"name":"모두의만족","tel":"031-377-6332","addr":"경기도 화성시 산척동 744번지 그린힐 반도유보라 아이비파크 10 3655동 지1층 B128호","indutype":"일반휴게음식 - 일반한식","category":"restaurant"},{"name":"바사칸 왕새우튀김","tel":"","addr":"경기도 화성시 산척동 744번지 그린힐반도유보라10차 카림에비뉴3차 1단지 B117호","indutype":"일반휴게음식 - 스넥","category":"restaurant"},{"name":"백채김치찌개","tel":"031-378-7503","addr":"경기도 화성시 산척동 744번지 그린힐반도유보라아이비파크10 3654동 지하1층 B118호","indutype":"일반휴게음식 - 일반한식","category":"restaurant"},{"name":"오마뎅","tel":"070-8846-4340","addr":"경기도 화성시 산척동 744번지 그린힐반도유보라 아이비파크10 지1층 B122호","indutype":"일반휴게음식 - 일반한식","category":"restaurant"},{"name":"커피에 반하다","tel":"031-375-4670","addr":"경기도 화성시 산척동 744번지 그린힐반도유보라아이비파크10 지하1층 123호","indutype":"일반휴게음식 - 서양음식","category":"restaurant"},{"name":"호수꼬치 동탄2신도시점","tel":"031-8055-8508","addr":"경기도 화성시 산척동 744번지 그린힐반도유보라아이비파크10 3653동 지하1층 B108호","indutype":"일반휴게음식 - 일반한식","category":"restaurant"},{"name":"혼곱창","tel":"","addr":"경기도 화성시 산척동 744번지 그린힐반도유보라아이비파크10 지하1층 115호","indutype":"일반휴게음식 - 일반한식","category":"restaurant"}]},{"lat":"37.168695908","long":"127.10752541","imageIndex":4,"items":[{"name":"BBQ동탄호수공원점","tel":"031-377-9282","addr":"경기도 화성시 산척동 584번지 지2층 B206,B207호","indutype":"일반휴게음식 - 스넥","category":"restaurant"},{"name":"가족생각","tel":"031-8077-9590","addr":"경기도 화성시 산척동 584번지 3층 306호","indutype":"일반휴게음식 - 일반한식","category":"restaurant"},{"name":"남도연","tel":"","addr":"경기도 화성시 산척동 584번지 산척프라자 2층 207, 208, 209호","indutype":"일반휴게음식 - 일반한식","category":"restaurant"},{"name":"더치앤빈","tel":"070-8840-1829","addr":"경기도 화성시 산척동 584번지 1층 111호","indutype":"일반휴게음식 - 서양음식","category":"restaurant"},{"name":"모닝딜라이트","tel":"031-376-0418","addr":"경기도 화성시 산척동 584번지 202호 201호, 202호","indutype":"일반휴게음식 - 서양음식","category":"restaurant"},{"name":"뽕뜨락동탄호수공원점","tel":"031-373-8004","addr":"경기도 화성시 산척동 584번지 1층 101호","indutype":"일반휴게음식 - 서양음식","category":"restaurant"},{"name":"열정갈비","tel":"031-372-9366","addr":"경기도 화성시 산척동 584번지 2층 203,204호","indutype":"일반휴게음식 - 일반한식","category":"restaurant"},{"name":"티바두마리치킨 동탄호수점","tel":"","addr":"경기도 화성시 산척동 584번지 110호","indutype":"일반휴게음식 - 일반한식","category":"restaurant"},{"name":"프래그런스","tel":"031-372-8125","addr":"경기도 화성시 산척동 584번지 산척프라자 지하2층 B210호","indutype":"일반휴게음식 - 서양음식","category":"restaurant"},{"name":"한식사랑","tel":"031-111-1111","addr":"경기도 화성시 산척동 584번지 산척호수프라자 3층 301,302호","indutype":"일반휴게음식 - 일반한식","category":"restaurant"},{"name":"호수포차","tel":"031-372-0708","addr":"경기도 화성시 산척동 584번지 지층 B208호","indutype":"일반휴게음식 - 일반한식","category":"restaurant"},{"name":"황소곱창구이","tel":"031-375-5593","addr":"경기도 화성시 산척동 584번지 산척호수프라자 B211호","indutype":"일반휴게음식 - 일반한식","category":"restaurant"},{"name":"히노아지 동탄호수공원점","tel":"031-373-3637","addr":"경기도 화성시 산척동 584번지 호수산척프라자 지하2층 B203호","indutype":"일반휴게음식 - 일식·회집","category":"restaurant"}]},{"lat":"37.16864016","long":"127.10941689","imageIndex":4,"items":[{"name":"가든한식뷔페","tel":"031-377-1188","addr":"경기도 화성시 산척동 727-8번지 3층 302호","indutype":"일반휴게음식 - 일반한식","category":"restaurant"},{"name":"경성주막1929동탄호수공원점","tel":"031-377-7108","addr":"경기도 화성시 산척동 727-8번지 지하2층 201호202호","indutype":"일반휴게음식 - 일반한식","category":"restaurant"},{"name":"밸런스키친","tel":"031-000-0000","addr":"경기도 화성시 산척동 727-8번지 지하1층 파케이드스텔라 B-104호","indutype":"일반휴게음식 - 일반한식","category":"restaurant"},{"name":"비엔나커피하우스","tel":"031-313-1313","addr":"경기도 화성시 산척동 727-8번지 3층 301호","indutype":"일반휴게음식 - 일반한식","category":"restaurant"},{"name":"유어스","tel":"031-374-0447","addr":"경기도 화성시 산척동 727-8번지 파케이드스텔라 지하 B103호","indutype":"일반휴게음식 - 서양음식","category":"restaurant"},{"name":"크래프트한스 동탄호수공원점","tel":"","addr":"경기도 화성시 산척동 727-8번지 파케이드스텔라 지하2층 B-203호","indutype":"일반휴게음식 - 스넥","category":"restaurant"},{"name":"행복한집","tel":"031-376-7056","addr":"경기도 화성시 산척동 727-8번지 파케이드스텔라 2층 205호","indutype":"일반휴게음식 - 일반한식","category":"restaurant"}]},{"lat":"37.173358306","long":"127.11304921","imageIndex":4,"items":[{"name":"가보족발동탄점","tel":"031-375-5530","addr":"경기도 화성시 산척동 714-9번지","indutype":"일반휴게음식 - 일반한식","category":"restaurant"},{"name":"나무카페","tel":"","addr":"경기도 화성시 산척동 714-7번지 1층 일부호","indutype":"일반휴게음식 - 서양음식","category":"restaurant"},{"name":"장원꼼장어닭발","tel":"","addr":"경기도 화성시 산척동 714-1번지 1층 일부호","indutype":"일반휴게음식 - 일반한식","category":"restaurant"}]},{"lat":"37.171858327","long":"127.1078","imageIndex":4,"items":[{"name":"감성커피 동탄호수공원점","tel":"","addr":"경기도 화성시 산척동 717-1번지 드림타워 108호","indutype":"일반휴게음식 - 서양음식","category":"restaurant"},{"name":"순수치킨 동탄호수점","tel":"031-372-6226","addr":"경기도 화성시 산척동 717-1번지 드림타워 111호","indutype":"일반휴게음식 - 스넥","category":"restaurant"},{"name":"아딸 동탄호수점","tel":"031-375-1725","addr":"경기도 화성시 산척동 717-1번지 드림타워 103호","indutype":"일반휴게음식 - 일반한식","category":"restaurant"},{"name":"청년다방 남동탄점","tel":"031-8077-4859","addr":"경기도 화성시 산척동 717-1번지 1층 104호","indutype":"일반휴게음식 - 스넥","category":"restaurant"}]},{"lat":"37.167029395","long":"127.10705024","imageIndex":4,"items":[{"name":"감성커피(동탄호수공원우성점)","tel":"031-372-4008","addr":"경기도 화성시 산척동 728-4번지 우성메디피아 1층 106호","indutype":"일반휴게음식 - 서양음식","category":"restaurant"},{"name":"공감식탁 씬","tel":"","addr":"경기도 화성시 산척동 728-4번지 동탄2우성메디피아 2층 205,206호","indutype":"일반휴게음식 - 일반한식","category":"restaurant"},{"name":"라온카페","tel":"031-372-8464","addr":"경기도 화성시 산척동 728-4번지 동탄2우성메디피아 10층 1007호","indutype":"일반휴게음식 - 서양음식","category":"restaurant"},{"name":"얌샘김밥 동탄호수공원점","tel":"031-372-4706","addr":"경기도 화성시 산척동 728-4번지 동탄2우성메디피아 1층 103호","indutype":"일반휴게음식 - 스넥","category":"restaurant"}]},{"lat":"37.170804158","long":"127.10774225","imageIndex":4,"items":[{"name":"겟201동탄점","tel":"031-377-3201","addr":"경기도 화성시 산척동 717-5번지 1동 3층 301,302호","indutype":"일반휴게음식 - 일반한식","category":"restaurant"},{"name":"총각네 옛날통닭","tel":"031-0000-0000","addr":"경기도 화성시 산척동 717-5번지 1동 1층 114호","indutype":"일반휴게음식 - 스넥","category":"restaurant"},{"name":"하한정","tel":"","addr":"경기도 화성시 산척동 717-5번지 레이크파로스 1동 2층 205호","indutype":"일반휴게음식 - 일반한식","category":"restaurant"}]},{"lat":"37.170533391","long":"127.11794299","imageIndex":4,"items":[{"name":"고봉민김밥인 화성산척점","tel":"031-376-2029","addr":"경기도 화성시 산척동 723번지 풍산리치안타워 116호","indutype":"일반휴게음식 - 스넥","category":"restaurant"},{"name":"닭장수후라이드 산척점","tel":"031-376-1882","addr":"경기도 화성시 산척동 723번지 풍산리치안타워 1층 112호","indutype":"일반휴게음식 - 스넥","category":"restaurant"},{"name":"메가엠지씨커피 동탄산척점","tel":"","addr":"경기도 화성시 산척동 723번지 1동 11호","indutype":"일반휴게음식 - 서양음식","category":"restaurant"},{"name":"신사부대찌개품격삼겹살(동탄호수점)","tel":"031-374-8859","addr":"경기도 화성시 산척동 723번지 풍산리치안타워 2층 206호","indutype":"일반휴게음식 - 일반한식","category":"restaurant"},{"name":"신사품격고기전문점","tel":"","addr":"경기도 화성시 산척동 723번지 2층 207호","indutype":"일반휴게음식 - 일반한식","category":"restaurant"}]},{"lat":"37.166171016","long":"127.12813691","imageIndex":4,"items":[{"name":"김복남맥주","tel":"031-372-0449","addr":"경기도 화성시 산척동 745번지 레이크힐반도유보라아이비파크10.2 3627동 B133호","indutype":"일반휴게음식 - 주점","category":"restaurant"},{"name":"달빛맥주 동탄카림3차점","tel":"02-1234-1234","addr":"경기도 화성시 산척동 745번지 레이크힐반도유보라아이비파크10.2 1층 136,137호","indutype":"일반휴게음식 - 주점","category":"restaurant"},{"name":"닭강정5반하다 동탄2호점","tel":"031-378-0038","addr":"경기도 화성시 산척동 745번지 레이크힐반도유보라아이비파크10.2 3236동 지하1층 B126호","indutype":"일반휴게음식 - 일반한식","category":"restaurant"},{"name":"돼지랑닭이랑","tel":"","addr":"경기도 화성시 산척동 745번지 레이크힐반도유보라아이비파크10.2 2층 225,226호","indutype":"일반휴게음식 - 일반한식","category":"restaurant"},{"name":"맥주활력수(동탄카림3차점)","tel":"031-8055-0679","addr":"경기도 화성시 산척동 745번지 레이크힐 반도유보라 아이비파크 10.2 1층 138,139,140호","indutype":"일반휴게음식 - 주점","category":"restaurant"},{"name":"미스터빠삭","tel":"031-372-6788","addr":"경기도 화성시 산척동 745번지 레이크힐반도유보라아이비파크10.2 지하1층 123호","indutype":"일반휴게음식 - 서양음식","category":"restaurant"},{"name":"바쭈삼술쭈삼","tel":"031-375-3131","addr":"경기도 화성시 산척동 745번지 레이크힐반도유보라아이비파크10.2 3626동 1충 127호 ,128,129호","indutype":"일반휴게음식 - 일반한식","category":"restaurant"},{"name":"셀렉토커피 동탄2반도10차점","tel":"","addr":"경기도 화성시 산척동 745번지 레이크힐반도유보라아이비파크10.2 3625동 지층 B104호","indutype":"일반휴게음식 - 서양음식","category":"restaurant"},{"name":"얌샘김밥 동탄2세정초점","tel":"031-377-2399","addr":"경기도 화성시 산척동 745번지 레이크힐 반도유보라 아이비파크10.2 3625동 지하1층 B107호","indutype":"일반휴게음식 - 일반한식","category":"restaurant"},{"name":"육끝","tel":"031-000-0000","addr":"경기도 화성시 산척동 745번지 레이크힐 반도유보라 아이비파크 10.2 3627동 지하 1층 B134호,B135호","indutype":"일반휴게음식 - 일반한식","category":"restaurant"},{"name":"자담치킨 산척점","tel":"031-376-4560","addr":"경기도 화성시 산척동 745번지 레이크힐 반도유보라 아이비파크 10.2 3627동 지1층 B144호","indutype":"일반휴게음식 - 스넥","category":"restaurant"},{"name":"카페드프랑","tel":"031-375-9072","addr":"경기도 화성시 산척동 745번지 레이크힐 반도유보라 아이비파크 10.2 2층 223호,224호","indutype":"일반휴게음식 - 서양음식","category":"restaurant"},{"name":"피자마루 산척점","tel":"031-8058-5425","addr":"경기도 화성시 산척동 745번지 레이크힐반도유보라아이비파크10.2 3625동 지하1층 B114호","indutype":"일반휴게음식 - 서양음식","category":"restaurant"}]},{"lat":"37.168748739","long":"127.10891037","imageIndex":4,"items":[{"name":"남문떡볶이","tel":"031-831-3519","addr":"경기도 화성시 산척동 727-6번지 1층 109호","indutype":"일반휴게음식 - 스넥","category":"restaurant"},{"name":"동탄야시장","tel":"","addr":"경기도 화성시 산척동 727-6번지 피페이드스타 1층 101~103호","indutype":"일반휴게음식 - 일반한식","category":"restaurant"},{"name":"민'S비어","tel":"","addr":"경기도 화성시 산척동 727-6번지 파케이드스타 지하2층 201호","indutype":"일반휴게음식 - 주점","category":"restaurant"},{"name":"신계동장어","tel":"031-376-3588","addr":"경기도 화성시 산척동 727-6번지 3층 304호(파케이드 스타)","indutype":"일반휴게음식 - 일반한식","category":"restaurant"},{"name":"아빠가튀긴닭동탄호수공원점","tel":"031-377-9272","addr":"경기도 화성시 산척동 727-6번지 파케이트스타 지하2층 B204호","indutype":"일반휴게음식 - 스넥","category":"restaurant"},{"name":"월천삼계탕(동탄호수공원점)","tel":"","addr":"경기도 화성시 산척동 727-6번지 피케이드스타 지하1층 B-104호","indutype":"일반휴게음식 - 일반한식","category":"restaurant"},{"name":"카페나인(cafe nine)","tel":"031-375-2729","addr":"경기도 화성시 산척동 727-6번지 B101호","indutype":"일반휴게음식 - 서양음식","category":"restaurant"},{"name":"하늘아래","tel":"031-376-3775","addr":"경기도 화성시 산척동 727-6번지 파케이드스타 2층 203호","indutype":"일반휴게음식 - 일반한식","category":"restaurant"}]},{"lat":"37.168749252","long":"127.10833615","imageIndex":4,"items":[{"name":"대만샌드위치 메이젠","tel":"031-8077-2492","addr":"경기도 화성시 산척동 727-5번지 B103호","indutype":"일반휴게음식 - 스넥","category":"restaurant"},{"name":"두찜 동탄호수공원점","tel":"031-378-2725","addr":"경기도 화성시 산척동 727-5번지 지하2층 B201호","indutype":"일반휴게음식 - 스넥","category":"restaurant"},{"name":"에드가","tel":"","addr":"경기도 화성시 산척동 727-5번지 레이크스카이 지하2층 B204호","indutype":"일반휴게음식 - 일반한식","category":"restaurant"},{"name":"푸라닭화성동탄호수공원점","tel":"031-378-9206","addr":"경기도 화성시 산척동 727-5번지 지하2층 레이크스카이 B202,203호","indutype":"일반휴게음식 - 스넥","category":"restaurant"},{"name":"플린","tel":"","addr":"경기도 화성시 산척동 727-5번지 3층 302,303호","indutype":"일반휴게음식 - 서양음식","category":"restaurant"}]},{"lat":"37.174530328","long":"127.11233026","imageIndex":4,"items":[{"name":"대찬대박식당","tel":"031-376-5611","addr":"경기도 화성시 산척동 707-11번지 101호","indutype":"일반휴게음식 - 일반한식","category":"restaurant"},{"name":"바사칸 동네치킨동탄호수점","tel":"070-8116-9282","addr":"경기도 화성시 산척동 707-11번지 1층 일부호","indutype":"일반휴게음식 - 스넥","category":"restaurant"},{"name":"신비한커피","tel":"031-377-0381","addr":"경기도 화성시 산척동 707-9번지 1층","indutype":"일반휴게음식 - 서양음식","category":"restaurant"},{"name":"카페우유니(cafe uyuni)","tel":"031-377-1229","addr":"경기도 화성시 산척동 707-1번지","indutype":"일반휴게음식 - 서양음식","category":"restaurant"},{"name":"황금푸드","tel":"031-375-5581","addr":"경기도 화성시 산척동 707-11번지 103호","indutype":"일반휴게음식 - 일반한식","category":"restaurant"}]},{"lat":"37.169893356","long":"127.11824603","imageIndex":4,"items":[{"name":"도쿄라멘3900 (산척점)","tel":"031-376-3905","addr":"경기도 화성시 산척동 724-2번지 모닝그레이스빌딩 1동 1층 101호","indutype":"일반휴게음식 - 일식·회집","category":"restaurant"},{"name":"동명카츠 동탄2신도시점","tel":"031-377-5764","addr":"경기도 화성시 산척동 724-2번지 1층 115호","indutype":"일반휴게음식 - 일식·회집","category":"restaurant"},{"name":"만랩커피 동탄산척점","tel":"","addr":"경기도 화성시 산척동 724-1번지 중산타워 1층 103호","indutype":"일반휴게음식 - 서양음식","category":"restaurant"},{"name":"본죽&비빔밥 cafe 동탄산척점","tel":"031-373-2311","addr":"경기도 화성시 산척동 724-2번지 모닝그레이스빌딩 1동 1층 107호","indutype":"일반휴게음식 - 일반한식","category":"restaurant"},{"name":"송정식당","tel":"031-374-9279","addr":"경기도 화성시 산척동 724-3번지 효천프라자 201호","indutype":"일반휴게음식 - 일반한식","category":"restaurant"},{"name":"신전떡볶이","tel":"031-111-1111","addr":"경기도 화성시 산척동 724-1번지 1동 114호","indutype":"일반휴게음식 - 스넥","category":"restaurant"},{"name":"이디야커피 화성동탄산척점","tel":"031-8077-9947","addr":"경기도 화성시 산척동 724-3번지 효천프라자 101,102호","indutype":"일반휴게음식 - 서양음식","category":"restaurant"},{"name":"장수동 멸치국수","tel":"031-373-6876","addr":"경기도 화성시 산척동 724-1번지 1동 1층 112호","indutype":"일반휴게음식 - 일반한식","category":"restaurant"},{"name":"투썸플레이스 동탄산척점","tel":"031-376-3611","addr":"경기도 화성시 산척동 724-2번지 모닝그레이스빌딩 108,109호","indutype":"일반휴게음식 - 서양음식","category":"restaurant"},{"name":"피자킹덤","tel":"","addr":"경기도 화성시 산척동 724-1번지 종산타워 1동 1층 118호","indutype":"일반휴게음식 - 서양음식","category":"restaurant"}]},{"lat":"37.167533732","long":"127.1073324","imageIndex":4,"items":[{"name":"동탄명가부대찌개","tel":"031-377-3877","addr":"경기도 화성시 산척동 728-2번지 우성에듀파크 2층 206,207호","indutype":"일반휴게음식 - 일반한식","category":"restaurant"},{"name":"명랑핫도그(동탄호수공원점)","tel":"031-372-5889","addr":"경기도 화성시 산척동 728-2번지 우성메디피아 113-2호","indutype":"일반휴게음식 - 스넥","category":"restaurant"},{"name":"백채김치찌개","tel":"","addr":"경기도 화성시 산척동 728-2번지 2층 204호","indutype":"일반휴게음식 - 일반한식","category":"restaurant"},{"name":"베러플레이스","tel":"031-111-1111","addr":"경기도 화성시 산척동 728-2번지 2층 214호","indutype":"일반휴게음식 - 일반한식","category":"restaurant"},{"name":"삼육칠하우스동탄호수공원점","tel":"031-374-0367","addr":"경기도 화성시 산척동 728-2번지 2층 201,202,203호","indutype":"일반휴게음식 - 일반한식","category":"restaurant"},{"name":"홍춘천치즈닭갈비 동탄호수점","tel":"031-375-7885","addr":"경기도 화성시 산척동 728-2번지 211호","indutype":"일반휴게음식 - 일반한식","category":"restaurant"}]},{"lat":"37.172754681","long":"127.11296951","imageIndex":4,"items":[{"name":"동탄식당","tel":"","addr":"경기도 화성시 산척동 716-4번지","indutype":"일반휴게음식 - 일반한식","category":"restaurant"},{"name":"봉순이바지락칼국수","tel":"031-373-4547","addr":"경기도 화성시 산척동 716-3번지","indutype":"일반휴게음식 - 일반한식","category":"restaurant"}]},{"lat":"37.177555097","long":"127.11525111","imageIndex":4,"items":[{"name":"두리아바비큐치킨동탄점","tel":"031-373-1150","addr":"경기도 화성시 산척동 48번지 동탄호수공원금강펜테리움센트럴파크II 지하3층 108호","indutype":"일반휴게음식 - 스넥","category":"restaurant"},{"name":"안심치킨 동탄2신도시점","tel":"031-373-1154","addr":"경기도 화성시 산척동 48번지 동탄호수공원금강펜테리움센트럴파크II 지하3층 104호","indutype":"일반휴게음식 - 스넥","category":"restaurant"},{"name":"커피에반하다","tel":"031-000-0000","addr":"경기도 화성시 산척동 48번지 금강펜테리움센트럴파크II 1층 107호","indutype":"일반휴게음식 - 서양음식","category":"restaurant"},{"name":"피자마루","tel":"031-377-5005","addr":"경기도 화성시 산척동 48번지 동탄호수공원 금강펜테리움 센트럴파크2 G동 2층 121호","indutype":"일반휴게음식 - 서양음식","category":"restaurant"},{"name":"홍익돈가스","tel":"031-373-4209","addr":"경기도 화성시 산척동 48번지 금강펜테리움센트럴파크 110동 112호 단지내상가","indutype":"일반휴게음식 - 일반한식","category":"restaurant"}]},{"lat":"37.166642046","long":"127.10693711","imageIndex":4,"items":[{"name":"못난이꽈배기동탄2호점","tel":"031-372-5020","addr":"경기도 화성시 산척동 728-5번지 우성애비뉴타워 1층 112호일부","indutype":"일반휴게음식 - 일반한식","category":"restaurant"},{"name":"알로하김밥","tel":"031-376-6966","addr":"경기도 화성시 산척동 728-5번지 우성애비뉴타워 119호","indutype":"일반휴게음식 - 일반한식","category":"restaurant"},{"name":"컬투치킨동탄호수공원점","tel":"","addr":"경기도 화성시 산척동 728-5번지 1층 118호","indutype":"일반휴게음식 - 스넥","category":"restaurant"},{"name":"홍짜장","tel":"","addr":"경기도 화성시 산척동 728-5번지 우성애비뉴타워 121호","indutype":"일반휴게음식 - 중국식","category":"restaurant"}]},{"lat":"37.174000944","long":"127.10988607","imageIndex":4,"items":[{"name":"보니타","tel":"031-0000-0000","addr":"경기도 화성시 산척동 699번지 동탄더샵레이크에듀타운 지1층 B11호","indutype":"일반휴게음식 - 서양음식","category":"restaurant"}]},{"lat":"37.173056264","long":"127.11799186","imageIndex":4,"items":[{"name":"보드람치킨동탄호수공원점","tel":"031-8003-2277","addr":"경기도 화성시 산척동 642번지 서희스타힐스NHF 1층","indutype":"일반휴게음식 - 스넥","category":"restaurant"}]},{"lat":"37.173665556","long":"127.11208129","imageIndex":4,"items":[{"name":"보싸마보싸마","tel":"031-377-5221","addr":"경기도 화성시 산척동 716-1번지","indutype":"일반휴게음식 - 일반한식","category":"restaurant"},{"name":"비어사케 동탄점","tel":"","addr":"경기도 화성시 산척동 713-9번지 1층 일부호","indutype":"일반휴게음식 - 주점","category":"restaurant"},{"name":"서진화로 첫번째이야기","tel":"","addr":"경기도 화성시 산척동 713-2번지 1층","indutype":"일반휴게음식 - 일반한식","category":"restaurant"},{"name":"솔다방","tel":"02-1577-0000","addr":"경기도 화성시 산척동 713-7번지 1층 일부호","indutype":"일반휴게음식 - 서양음식","category":"restaurant"},{"name":"유인순족발보쌈","tel":"031-377-4676","addr":"경기도 화성시 산척동 713-7번지 1층 일부호","indutype":"일반휴게음식 - 일반한식","category":"restaurant"},{"name":"응급실국물떡볶이 화성동탄호수공원점","tel":"031-376-6119","addr":"경기도 화성시 산척동 713-9번지 1층 일부호","indutype":"일반휴게음식 - 스넥","category":"restaurant"},{"name":"카페 다해","tel":"","addr":"경기도 화성시 산척동 707-8번지 1층 일부 103호","indutype":"일반휴게음식 - 서양음식","category":"restaurant"}]},{"lat":"37.165920666","long":"127.10755536","imageIndex":4,"items":[{"name":"본죽&비빔밥Cafe 동탄호수공원점","tel":"031-372-3688","addr":"경기도 화성시 산척동 728-6번지 1층 110호","indutype":"일반휴게음식 - 일반한식","category":"restaurant"}]},{"lat":"37.17397093","long":"127.11314018","imageIndex":4,"items":[{"name":"오꼬친","tel":"031-376-5792","addr":"경기도 화성시 산척동 708-8번지 1층 일부호","indutype":"일반휴게음식 - 스넥","category":"restaurant"}]},{"lat":"37.174610858","long":"127.11293842","imageIndex":4,"items":[{"name":"카페 하우스","tel":"031-111-1111","addr":"경기도 화성시 산척동 708-11번지 1층 전체호","indutype":"일반휴게음식 - 서양음식","category":"restaurant"}]},{"lat":"37.174782129","long":"127.11285985","imageIndex":4,"items":[{"name":"케미스트리 커피","tel":"070-0000-0000","addr":"경기도 화성시 산척동 707-2번지 1층","indutype":"일반휴게음식 - 서양음식","category":"restaurant"}]},{"lat":"37.173971192","long":"127.11285868","imageIndex":4,"items":[{"name":"파닥파닥회초밥","tel":"031-8055-8853","addr":"경기도 화성시 산척동 707-6번지 1층 전체호","indutype":"일반휴게음식 - 일반한식","category":"restaurant"}]},{"lat":"37.177555097","long":"127.11525111","imageIndex":13,"items":[{"name":"RaRa (라라헤어살롱)","tel":"031-223-3715","addr":"경기도 화성시 산척동 48번지 동탄호수공원금강펜테리움센트럴파크II 지하3층,106호","indutype":"보건위생 - 미용원","category":"beauty"},{"name":"제니스 아뜰리에 (JENNES ATELIER)","tel":"","addr":"경기도 화성시 산척동 48번지 동탄호수공원금강펜테리움센트럴파크II G동 2층 120호","indutype":"보건위생 - 미용원","category":"beauty"},{"name":"홍안경","tel":"031-372-1001","addr":"경기도 화성시 산척동 48번지 동탄호수공원금강펜테리움센트럴파크II 122호","indutype":"보건위생 - 안경","category":"beauty"}]},{"lat":"37.171858327","long":"127.1078","imageIndex":13,"items":[{"name":"W더블유헤어","tel":"","addr":"경기도 화성시 산척동 717-1번지 201호","indutype":"보건위생 - 미용원","category":"beauty"},{"name":"메이킹뷰티 동탄호수점","tel":"031-374-7611","addr":"경기도 화성시 산척동 717-1번지 드림타워 2층 202호","indutype":"보건위생 - 피부미용실","category":"beauty"},{"name":"호수안경","tel":"","addr":"경기도 화성시 산척동 717-1번지 드림타워 105호","indutype":"보건위생 - 안경","category":"beauty"}]},{"lat":"37.173665556","long":"127.11208129","imageIndex":13,"items":[{"name":"골드스킨앤바디","tel":"","addr":"경기도 화성시 산척동 712-1번지 지하","indutype":"보건위생 - 화장품","category":"beauty"}]},{"lat":"37.174000944","long":"127.10988607","imageIndex":13,"items":[{"name":"까치머리헤어샵","tel":"031-217-6163","addr":"경기도 화성시 산척동 699번지 동탄더샵레이크에듀타운 지1층 B06호","indutype":"보건위생 - 미용원","category":"beauty"}]},{"lat":"37.166171016","long":"127.12813691","imageIndex":13,"items":[{"name":"나이스가이","tel":"","addr":"경기도 화성시 산척동 745번지 레이크힐 반도유보라 아이비파크 10.2 지1층 B122호","indutype":"보건위생 - 이용원","category":"beauty"},{"name":"루아헤어터치","tel":"","addr":"경기도 화성시 산척동 745번지 레이크힐반도유보라아이비파크10.2 3625동 1층 114호","indutype":"보건위생 - 미용원","category":"beauty"},{"name":"시공간헤어","tel":"031-374-9872","addr":"경기도 화성시 산척동 745번지 레이크힐반도유보라아이비파크10.2 3628동 1층 144~146호","indutype":"보건위생 - 미용원","category":"beauty"},{"name":"엘리아","tel":"031-373-6667","addr":"경기도 화성시 산척동 745번지 레이크힐반도유보라아이비파크10.2 3627동 1층 113호","indutype":"보건위생 - 피부미용실","category":"beauty"},{"name":"오땡큐동탄카림3차점","tel":"031-377-9138","addr":"경기도 화성시 산척동 745번지 레이크힐 반도유보라 아이비파크 10.2 3627동 지1층 B137호","indutype":"보건위생 - 미용원","category":"beauty"},{"name":"유니헤어","tel":"031-000-0000","addr":"경기도 화성시 산척동 745번지 레이크힐반도유보라아이비파크10.2 3628동 1층 153,154,155호","indutype":"보건위생 - 미용원","category":"beauty"},{"name":"제이앤뷰(J&View)","tel":"031-375-5833","addr":"경기도 화성시 산척동 745번지 레이크힐반도유보라아이비파크10.2 3627동 1층 132호","indutype":"보건위생 - 피부미용실","category":"beauty"},{"name":"트윈네일","tel":"","addr":"경기도 화성시 산척동 745번지 레이크힐 반도유보라 아이비파크 10.2 3625동 1층 113호","indutype":"보건위생 - 피부미용실","category":"beauty"}]},{"lat":"37.169893356","long":"127.11824603","imageIndex":13,"items":[{"name":"남동탄심리언어발달센터","tel":"031-831-8306","addr":"경기도 화성시 산척동 724-3번지 601호","indutype":"보건위생 - 기타대인서비스","category":"beauty"},{"name":"리안헤어 동탄산척점","tel":"031-374-7567","addr":"경기도 화성시 산척동 724-3번지 3층 301호","indutype":"보건위생 - 미용원","category":"beauty"},{"name":"보네르헤어카페(남동탄점)","tel":"031-8077-2032","addr":"경기도 화성시 산척동 724-2번지 202호","indutype":"보건위생 - 미용원","category":"beauty"},{"name":"플레이 센소리(Play Sensory)감각통합발달","tel":"031-8500-0555","addr":"경기도 화성시 산척동 724-3번지 효천프라자 8층 602호","indutype":"보건위생 - 기타대인서비스","category":"beauty"}]},{"lat":"37.17386227","long":"127.11371428","imageIndex":13,"items":[{"name":"네일 드 라라라(Nail de LaLaLa)","tel":"031-000-0000","addr":"경기도 화성시 산척동 714-6번지 1층 101호","indutype":"보건위생 - 피부미용실","category":"beauty"},{"name":"네일도,예뻐","tel":"070-8736-3644","addr":"경기도 화성시 산척동 711-4번지 1층 102호","indutype":"보건위생 - 피부미용실","category":"beauty"},{"name":"메이크유(MAKE YOU)","tel":"","addr":"경기도 화성시 산척동 712-5번지 1층 103호","indutype":"보건위생 - 피부미용실","category":"beauty"}]},{"lat":"37.166642046","long":"127.10693711","imageIndex":13,"items":[{"name":"더레이크스파","tel":"","addr":"경기도 화성시 산척동 728-5번지 우성애비뉴타워 713호,714호","indutype":"보건위생 - 피부미용실","category":"beauty"},{"name":"더에비뉴헤어","tel":"","addr":"경기도 화성시 산척동 728-5번지 우성애비뉴타워 3층 309호","indutype":"보건위생 - 미용원","category":"beauty"},{"name":"레하마인드","tel":"","addr":"경기도 화성시 산척동 728-5번지 813,814호","indutype":"보건위생 - 기타대인서비스","category":"beauty"},{"name":"피아트 음악치료센터","tel":"","addr":"경기도 화성시 산척동 728-5번지 우성애비뉴타워 810호","indutype":"보건위생 - 기타대인서비스","category":"beauty"},{"name":"희망나무 심리상담센터 경기지부","tel":"031-377-7504","addr":"경기도 화성시 산척동 728-5번지 우성에비뉴타워 10층 1003호","indutype":"보건위생 - 기타대인서비스","category":"beauty"}]},{"lat":"37.167029395","long":"127.10705024","imageIndex":13,"items":[{"name":"로데오 헤어","tel":"031-378-3798","addr":"경기도 화성시 산척동 728-4번지 204호","indutype":"보건위생 - 미용원","category":"beauty"},{"name":"루나안경","tel":"031-376-8399","addr":"경기도 화성시 산척동 728-4번지 우성메디피아 507호","indutype":"보건위생 - 안경","category":"beauty"},{"name":"벨류헤어","tel":"031-374-7224","addr":"경기도 화성시 산척동 728-4번지 2층 215호","indutype":"보건위생 - 미용원","category":"beauty"},{"name":"조이스토리 상담발달 연구소","tel":"031-8055-7977","addr":"경기도 화성시 산척동 728-4번지 우성메디피아 9층 14호","indutype":"보건위생 - 기타대인서비스","category":"beauty"}]},{"lat":"37.167060136","long":"127.11291622","imageIndex":13,"items":[{"name":"리앤구 헤어","tel":"","addr":"경기도 화성시 산척동 730번지 더레이크시티부영5단지 상가동 2층 202호의 일부호","indutype":"보건위생 - 미용원","category":"beauty"},{"name":"인셀덤 고고","tel":"","addr":"경기도 화성시 산척동 730번지 더레이크시티부영5단지 3037동 504호","indutype":"보건위생 - 화장품","category":"beauty"}]},{"lat":"37.168695908","long":"127.10752541","imageIndex":13,"items":[{"name":"바라보다안경 동탄호수공원점","tel":"031-111-1111","addr":"경기도 화성시 산척동 584번지 1층 118호","indutype":"보건위생 - 안경","category":"beauty"}]},{"lat":"37.168749252","long":"127.10833615","imageIndex":13,"items":[{"name":"바비가 하는 미용실","tel":"031-374-9363","addr":"경기도 화성시 산척동 727-5번지 레이크스카이 2층 205호","indutype":"보건위생 - 미용원","category":"beauty"}]},{"lat":"37.174139034","long":"127.11641709","imageIndex":13,"items":[{"name":"블루클럽","tel":"031-373-4504","addr":"경기도 화성시 산척동 279번지 중흥에스클래스에듀하이 상가2동 지1층 117호","indutype":"보건위생 - 미용원","category":"beauty"}]},{"lat":"37.16864016","long":"127.10941689","imageIndex":13,"items":[{"name":"살롱드봄","tel":"031-224-6974","addr":"경기도 화성시 산척동 727-8번지 2층 203호","indutype":"보건위생 - 미용원","category":"beauty"}]},{"lat":"37.170804158","long":"127.10774225","imageIndex":13,"items":[{"name":"아미 아동발달센터 동탄호수점","tel":"031-8077-4782","addr":"경기도 화성시 산척동 717-5번지 레이크파로스 406호","indutype":"보건위생 - 기타대인서비스","category":"beauty"}]},{"lat":"37.170533391","long":"127.11794299","imageIndex":13,"items":[{"name":"엠유에스헤어(MUS)","tel":"031-377-6955","addr":"경기도 화성시 산척동 722번지 더레이크시티부영1단지 2층 202호","indutype":"보건위생 - 미용원","category":"beauty"},{"name":"오손도손네일","tel":"","addr":"경기도 화성시 산척동 723번지 1층 111호 일부","indutype":"보건위생 - 피부미용실","category":"beauty"},{"name":"토리헤어","tel":"031-376-7660","addr":"경기도 화성시 산척동 723번지 3층 304,305호","indutype":"보건위생 - 미용원","category":"beauty"},{"name":"헤어 미&U","tel":"031-1111-1111","addr":"경기도 화성시 산척동 723번지 풍산리치안타워 6층 609호","indutype":"보건위생 - 미용원","category":"beauty"}]},{"lat":"37.165920666","long":"127.10755536","imageIndex":13,"items":[{"name":"우성의료기","tel":"031-374-1003","addr":"경기도 화성시 산척동 728-6번지 우성센트럴타워 4층 409일부호","indutype":"보건위생 - 의료용품","category":"beauty"},{"name":"호수J속눈썹","tel":"031-000-0000","addr":"경기도 화성시 산척동 728-6번지 우성센트럴타워 7층 713호","indutype":"보건위생 - 피부미용실","category":"beauty"}]},{"lat":"37.167533732","long":"127.1073324","imageIndex":13,"items":[{"name":"클럽밸런스5","tel":"031-372-5332","addr":"경기도 화성시 산척동 728-2번지 5층 502호","indutype":"보건위생 - 의료용품","category":"beauty"},{"name":"포맨","tel":"031-378-2312","addr":"경기도 화성시 산척동 728-1번지 우성메디피아 상가 101호","indutype":"보건위생 - 미용원","category":"beauty"},{"name":"플로라헤어","tel":"031-373-4288","addr":"경기도 화성시 산척동 728-2번지 우성에듀파크 205호","indutype":"보건위생 - 미용원","category":"beauty"},{"name":"호수스킨바디","tel":"031-377-9599","addr":"경기도 화성시 산척동 728-2번지 10층 1004호","indutype":"보건위생 - 피부미용실","category":"beauty"}]},{"lat":"37.167558096","long":"127.1286346","imageIndex":13,"items":[{"name":"헤어바이준(Hair by Jun)","tel":"","addr":"경기도 화성시 산척동 744번지 그린힐 반도유보라 아이비파크 10 3653동 1층 1F01,1F02,1F03호","indutype":"보건위생 - 미용원","category":"beauty"}]},{"lat":"37.173114867","long":"127.11321775","imageIndex":13,"items":[{"name":"헤어살롱U:NEED","tel":"031-111-1111","addr":"경기도 화성시 산척동 714-8번지 1층","indutype":"보건위생 - 미용원","category":"beauty"}]},{"lat":"37.173056264","long":"127.11799186","imageIndex":13,"items":[{"name":"헤어퀸","tel":"031-373-0052","addr":"경기도 화성시 산척동 642번지 스타힐스24단지 상가동 204호","indutype":"보건위생 - 미용원","category":"beauty"}]},{"lat":"37.166171016","long":"127.12813691","imageIndex":13,"items":[{"name":"강수연골프아카데미","tel":"","addr":"경기도 화성시 산척동 745번지 레이크힐반도유보라아이비파크10.2 3607동 1001호","indutype":"레저업소 - 골프연습장","category":"leisure"}]},{"lat":"37.171858327","long":"127.1078","imageIndex":13,"items":[{"name":"긱스타PC카페(GEEKSTAR PC CAFE)","tel":"070-2682-8524","addr":"경기도 화성시 산척동 717-1번지 206호","indutype":"레저업소 - 기타레져업소","category":"leisure"}]},{"lat":"37.170533391","long":"127.11794299","imageIndex":13,"items":[{"name":"더엑스PC 동탄2신도시점","tel":"070-6426-8091","addr":"경기도 화성시 산척동 723번지 풍산리치안타워 409호,410호","indutype":"레저업소 - 기타레져업소","category":"leisure"},{"name":"마마지트(MaMazit)","tel":"031-376-0789","addr":"경기도 화성시 산척동 723번지 풍산리치안타워 404호","indutype":"레저업소 - 기타레져업소","category":"leisure"}]},{"lat":"37.167029395","long":"127.10705024","imageIndex":13,"items":[{"name":"라온볼링스포렉스","tel":"031-372-8464","addr":"경기도 화성시 산척동 728-4번지 동탄(2)신도시일상 13-38BL 동탄우성메디피아상가10층","indutype":"레저업소 - 볼 링 장","category":"leisure"},{"name":"스테이 필라테스","tel":"","addr":"경기도 화성시 산척동 728-4번지 우성메디피아 805호~807호","indutype":"레저업소 - 헬스클럽","category":"leisure"},{"name":"탑스바디","tel":"","addr":"경기도 화성시 산척동 728-4번지 707호~711호","indutype":"레저업소 - 헬스클럽","category":"leisure"}]},{"lat":"37.167533732","long":"127.1073324","imageIndex":13,"items":[{"name":"레이크프리미엄 골프존파크","tel":"031-375-0533","addr":"경기도 화성시 산척동 728-2번지 901~907호","indutype":"레저업소 - 스크린골프","category":"leisure"},{"name":"부라보노래연습장","tel":"031-375-6877","addr":"경기도 화성시 산척동 728-2번지 301~303호","indutype":"레저업소 - 노 래 방","category":"leisure"},{"name":"아이엠코인노래연습장(2동탄호수점)","tel":"","addr":"경기도 화성시 산척동 728-2번지 우성에듀파크 6층 608,609호","indutype":"레저업소 - 노 래 방","category":"leisure"},{"name":"킹콩당구장","tel":"","addr":"경기도 화성시 산척동 728-2번지 우성에듀파크 1001,1002,1003호","indutype":"레저업소 - 당 구 장","category":"leisure"},{"name":"킹콩당구장","tel":"","addr":"경기도 화성시 산척동 728-2번지 우성에듀파크 1001~1003호","indutype":"레저업소 - 당 구 장","category":"leisure"},{"name":"포텐PC방","tel":"070-6511-0204","addr":"경기도 화성시 산척동 728-2번지 우성에듀파크 601호~605호","indutype":"레저업소 - 기타레져업소","category":"leisure"}]},{"lat":"37.165920666","long":"127.10755536","imageIndex":13,"items":[{"name":"리브인필라테스스튜디오","tel":"070-9132-0906","addr":"경기도 화성시 산척동 728-6번지 4층 7호","indutype":"레저업소 - 헬스클럽","category":"leisure"}]},{"lat":"37.169893356","long":"127.11824603","imageIndex":13,"items":[{"name":"리즈핏","tel":"031-377-9337","addr":"경기도 화성시 산척동 724-2번지 모닝그레이스 603호-605호","indutype":"레저업소 - 헬스클럽","category":"leisure"},{"name":"샤크베이레슨전문수영장","tel":"031-376-4082","addr":"경기도 화성시 산척동 724-1번지 종산타워 4층 402,403호","indutype":"레저업소 - 수 영 장","category":"leisure"},{"name":"위너 테니스 동탄점","tel":"","addr":"경기도 화성시 산척동 724-2번지 모닝그레이스 503,504,505호","indutype":"레저업소 - 테니스장","category":"leisure"},{"name":"팡팡노래연습장","tel":"031-663-0447","addr":"경기도 화성시 산척동 724-3번지 303,304","indutype":"레저업소 - 노 래 방","category":"leisure"},{"name":"헬로방방 동탄호수공원점","tel":"031-375-5051","addr":"경기도 화성시 산척동 724-1번지 종산타워 5층 501호~505호","indutype":"레저업소 - 기타레져업소","category":"leisure"}]},{"lat":"37.166642046","long":"127.10693711","imageIndex":13,"items":[{"name":"썬노래연습장","tel":"031-377-0603","addr":"경기도 화성시 산척동 728-5번지 313,314호","indutype":"레저업소 - 노 래 방","category":"leisure"},{"name":"올어바웃테니스 동탄호수점","tel":"","addr":"경기도 화성시 산척동 728-5번지 802호~806호","indutype":"레저업소 - 테니스장","category":"leisure"}]},{"lat":"37.170804158","long":"127.10774225","imageIndex":13,"items":[{"name":"커브스 남동탄클럽","tel":"031-373-1930","addr":"경기도 화성시 산척동 717-5번지 3층 303호","indutype":"레저업소 - 헬스클럽","category":"leisure"}]},{"lat":"37.167533732","long":"127.1073324","imageIndex":8,"items":[{"name":"경희용한의원","tel":"031-215-1275","addr":"경기도 화성시 산척동 728-2번지 동탕2우성에듀파크 3층 314호","indutype":"의원 - 한의원","category":"medical"},{"name":"동탄미래약국","tel":"031-377-0233","addr":"경기도 화성시 산척동 728-2번지 상가동 111호 동탄2우성에듀파크","indutype":"약국 - 약국","category":"medical"},{"name":"동탄성모소아청소년과의원","tel":"031-375-1122","addr":"경기도 화성시 산척동 728-2번지 우성에듀파크 408동 4층 410호","indutype":"의원 - 의원","category":"medical"},{"name":"해든치과의원","tel":"031-378-2272","addr":"경기도 화성시 산척동 728-2번지 에듀파크 513호","indutype":"의원 - 치과의원","category":"medical"}]},{"lat":"37.169893356","long":"127.11824603","imageIndex":8,"items":[{"name":"김성진치과의원","tel":"031-831-8742","addr":"경기도 화성시 산척동 724-3번지 204호","indutype":"의원 - 치과의원","category":"medical"},{"name":"이로운동물병원","tel":"031-8055-8075","addr":"경기도 화성시 산척동 724-2번지 2층 203호","indutype":"기타의료기관 - 동물병원","category":"medical"}]},{"lat":"37.17386227","long":"127.11371428","imageIndex":8,"items":[{"name":"나인동물의료센터","tel":"031-376-9909","addr":"경기도 화성시 산척동 산716-6번지 1층","indutype":"기타의료기관 - 동물병원","category":"medical"}]},{"lat":"37.166642046","long":"127.10693711","imageIndex":8,"items":[{"name":"더욱편한치과의원","tel":"031-377-1343","addr":"경기도 화성시 산척동 728-5번지 403,404호","indutype":"의원 - 치과의원","category":"medical"},{"name":"따스랑한의원","tel":"031-831-8595","addr":"경기도 화성시 산척동 728-5번지 308호","indutype":"의원 - 한의원","category":"medical"}]},{"lat":"37.170533391","long":"127.11794299","imageIndex":8,"items":[{"name":"동탄맑은이비인후과의원","tel":"031-375-5375","addr":"경기도 화성시 산척동 723번지 풍산리치인타워 306,307호","indutype":"의원 - 의원","category":"medical"},{"name":"동탄바른정형외과","tel":"031-8077-9193","addr":"경기도 화성시 산척동 723번지 4층 402~403호","indutype":"의원 - 의원","category":"medical"},{"name":"동탄스타치과의원","tel":"","addr":"경기도 화성시 산척동 723번지 3층 303호","indutype":"의원 - 치과의원","category":"medical"},{"name":"동탄약국","tel":"031-307-0007","addr":"경기도 화성시 산척동 723번지 109,110호","indutype":"약국 - 약국","category":"medical"},{"name":"동탄약국","tel":"031-307-0007","addr":"경기도 화성시 산척동 723번지 풍산리치안타워 109,110호","indutype":"약국 - 약국","category":"medical"},{"name":"동탄이소아청소년과의원","tel":"031-8055-8737","addr":"경기도 화성시 산척동 723번지 풍산리치안타워 근린상업단지 201호","indutype":"의원 - 의원","category":"medical"},{"name":"실다움 한의원","tel":"031-831-8253","addr":"경기도 화성시 산척동 723번지 308호","indutype":"의원 - 한의원","category":"medical"},{"name":"연세키즈365소아청소년과의원","tel":"031-374-0365","addr":"경기도 화성시 산척동 723번지 406호,407호","indutype":"의원 - 의원","category":"medical"}]},{"lat":"37.165920666","long":"127.10755536","imageIndex":8,"items":[{"name":"동탄삼성이비인후과","tel":"031-374-1003","addr":"경기도 화성시 산척동 728-6번지 408 409 410호","indutype":"의원 - 의원","category":"medical"},{"name":"동탄서울내과","tel":"031-831-8363","addr":"경기도 화성시 산척동 728-6번지 우성센트럴타워 507동 511호","indutype":"의원 - 의원","category":"medical"},{"name":"몸바로한의원 동탄점","tel":"031-376-0875","addr":"경기도 화성시 산척동 728-6번지 7층 711호 712호","indutype":"의원 - 한의원","category":"medical"},{"name":"스마일피부과의원","tel":"031-8077-9400","addr":"경기도 화성시 산척동 728-6번지 4층 411-414호","indutype":"의원 - 의원","category":"medical"},{"name":"착한미소치과","tel":"031-378-4006","addr":"경기도 화성시 산척동 728-6번지 우성센트럴타워 3층 307,308,309호","indutype":"의원 - 치과의원","category":"medical"},{"name":"캠프나인정형외과의원","tel":"031-377-5511","addr":"경기도 화성시 산척동 728-6번지 센트럴타워 동탄2가신도시일반상업지역 14-2블럭 201~208호,301~306호","indutype":"의원 - 의원","category":"medical"},{"name":"코코(COCO)치과교정과치과의원","tel":"031-375-2882","addr":"경기도 화성시 산척동 728-6번지 우성센트럴타워 5층, 512호,513호,514호","indutype":"의원 - 치과의원","category":"medical"},{"name":"파란약국","tel":"031-8055-0504","addr":"경기도 화성시 산척동 728-6번지 우성센트럴타워 111호","indutype":"약국 - 약국","category":"medical"}]},{"lat":"37.167029395","long":"127.10705024","imageIndex":8,"items":[{"name":"동탄서울안과","tel":"031-111-1111","addr":"경기도 화성시 산척동 728-4번지 508동 510호","indutype":"의원 - 의원","category":"medical"},{"name":"동탄연세원구강악안면외과치과의원","tel":"031-377-1281","addr":"경기도 화성시 산척동 728-4번지 우성애비뉴타워 306,307호","indutype":"의원 - 치과의원","category":"medical"},{"name":"마음본 정신건강의학과","tel":"031-000-0000","addr":"경기도 화성시 산척동 728-4번지 408호","indutype":"의원 - 의원","category":"medical"},{"name":"연세본내과의원","tel":"031-831-8910","addr":"경기도 화성시 산척동 728-4번지 동탄(2)신도시일상13-3BL동탄우성메디피아상가 411~414호","indutype":"의원 - 의원","category":"medical"},{"name":"연세참예쁜치과교정과치과의원","tel":"031-377-2119","addr":"경기도 화성시 산척동 728-4번지 우성메디피아 3층 314호,315호","indutype":"의원 - 치과의원","category":"medical"},{"name":"이솜이비인후과","tel":"031-8055-7931","addr":"경기도 화성시 산척동 728-4번지 5층 501-503호","indutype":"의원 - 의원","category":"medical"},{"name":"킴스치과의원","tel":"031-374-2275","addr":"경기도 화성시 산척동 728-4번지 4층 409호, 410호","indutype":"의원 - 치과의원","category":"medical"},{"name":"호수율약국","tel":"031-375-0977","addr":"경기도 화성시 산척동 728-4번지 우성메디피아 110호","indutype":"약국 - 약국","category":"medical"}]},{"lat":"37.167558096","long":"127.1286346","imageIndex":8,"items":[{"name":"동탄아이비치과의원","tel":"031-377-2835","addr":"경기도 화성시 산척동 744번지 그린힐 반도유보라 아이비파크 10 S307-310호","indutype":"의원 - 치과의원","category":"medical"}]},{"lat":"37.171858327","long":"127.1078","imageIndex":8,"items":[{"name":"동탄키즈웰소아청소년과의원","tel":"031-376-6619","addr":"경기도 화성시 산척동 717-1번지 드림타워 4층 406호","indutype":"의원 - 의원","category":"medical"},{"name":"동탄호수약국","tel":"031-375-6783","addr":"경기도 화성시 산척동 717-1번지 드림타워 113호","indutype":"약국 - 약국","category":"medical"},{"name":"명당한의원","tel":"031-374-5086","addr":"경기도 화성시 산척동 717-1번지 403호","indutype":"의원 - 한의원","category":"medical"},{"name":"하이웰치과","tel":"031-8055-8253","addr":"경기도 화성시 산척동 717-1번지 드림타워 404호","indutype":"의원 - 치과의원","category":"medical"}]},{"lat":"37.166171016","long":"127.12813691","imageIndex":8,"items":[{"name":"명주한의원","tel":"031-378-9770","addr":"경기도 화성시 산척동 745번지 3625동 2층 211~213호","indutype":"의원 - 한의원","category":"medical"},{"name":"우리소아청소년과의원","tel":"031-1111-1111","addr":"경기도 화성시 산척동 745번지 109,110호","indutype":"의원 - 의원","category":"medical"}]},{"lat":"37.17386227","long":"127.11371428","imageIndex":0,"items":[{"name":"남동탄모터스","tel":"031-375-0600","addr":"경기도 화성시 산척동 710-3번지 1층","indutype":"자동차정비 유지 - 자동차정비","category":"car"}]},{"lat":"37.167029395","long":"127.10705024","imageIndex":0,"items":[{"name":"동탄메디피아","tel":"031-548-4861","addr":"경기도 화성시 산척동 728-4번지","indutype":"자동차정비 유지 - 주차장","category":"car"}]},{"lat":"37.171858327","long":"127.1078","imageIndex":0,"items":[{"name":"드림타워 상가관리단","tel":"031-372-8890","addr":"경기도 화성시 산척동 717-1번지 드림타워","indutype":"자동차정비 유지 - 주차장","category":"car"}]},{"lat":"37.174223128","long":"127.11324188","imageIndex":0,"items":[{"name":"아우토리베","tel":"031-375-6318","addr":"경기도 화성시 산척동 707-7번지 1층 101호","indutype":"자동차정비 유지 - 카인테리어","category":"car"}]},{"lat":"37.169893356","long":"127.11824603","imageIndex":0,"items":[{"name":"주식회사 제이에스토건(종산타워)","tel":"062-375-7311","addr":"경기도 화성시 산척동 724-1번지","indutype":"자동차정비 유지 - 주차장","category":"car"}]},{"lat":"37.166171016","long":"127.12813691","imageIndex":0,"items":[{"name":"차닥터","tel":"","addr":"경기도 화성시 산척동 745번지 레이크힐반도유보라아이비파크10.2 3609동 402호","indutype":"자동차정비 유지 - 자동차부품","category":"car"}]},{"lat":"37.17386227","long":"127.11371428","imageIndex":7,"items":[{"name":"농민마트","tel":"031-375-0922","addr":"경기도 화성시 산척동 709번지 1층 101호","indutype":"유통업 영리 - 슈퍼마켓","category":"mart"}]},{"lat":"37.169893356","long":"127.11824603","imageIndex":7,"items":[{"name":"초록마을(남동탄점)","tel":"031-377-8820","addr":"경기도 화성시 산척동 724-3번지 효천프라자 105호","indutype":"유통업 영리 - 슈퍼마켓","category":"mart"}]},{"lat":"37.171892283","long":"127.11013081","imageIndex":5,"items":[{"name":"아둘람수련원","tel":"031-376-7743","addr":"경기도 화성시 산척동 240","indutype":"숙박업 - 여관/기타숙박업","category":"hotel"}]}]