[{"lat":"37.241979635","long":"126.58488483","imageIndex":13,"items":[{"name":"고운미용실","tel":"032-880-9800","addr":"경기도 안산시 단원구 대부북동 505번지 1동 103호","indutype":"보건위생 - 미용원","category":"beauty"}]},{"lat":"37.242842135","long":"126.58418131","imageIndex":13,"items":[{"name":"꽃미남꽃미녀","tel":"032-885-7034","addr":"경기도 안산시 단원구 대부북동 472-5번지","indutype":"보건위생 - 미용원","category":"beauty"},{"name":"대부화장품","tel":"032-888-7850","addr":"경기도 안산시 단원구 대부북동 472-5번지 1층","indutype":"보건위생 - 화장품","category":"beauty"}]},{"lat":"37.244593212","long":"126.56510204","imageIndex":13,"items":[{"name":"대한불교법상종대선사","tel":"032-885-0996","addr":"경기도 안산시 단원구 대부북동 1570-2 외2필지","indutype":"보건위생 - 기타대인서비스","category":"beauty"}]},{"lat":"37.251396759","long":"126.58273632","imageIndex":13,"items":[{"name":"대한불교조계종자현사","tel":"032-883-9033","addr":"경기도 안산시 단원구 대부북동 123번지","indutype":"보건위생 - 기타대인서비스","category":"beauty"}]},{"lat":"37.243119893","long":"126.58374024","imageIndex":13,"items":[{"name":"머리박사","tel":"032-885-4006","addr":"경기도 안산시 단원구 대부북동 449-10번지 102호","indutype":"보건위생 - 미용원","category":"beauty"}]},{"lat":"37.2432365453","long":"126.5836043472","imageIndex":13,"items":[{"name":"바다 헤어라인","tel":"032-885-3119","addr":"경기도 안산시 단원구 대부북동 449-3번지","indutype":"도매 및 소매업 - 미용업 화장품","category":"beauty"}]},{"lat":"37.24289747","long":"126.58454165","imageIndex":13,"items":[{"name":"세명안경협동조합남대문안경","tel":"032-888-3200","addr":"경기도 안산시 단원구 대부북동 471-5번지","indutype":"보건위생 - 안경","category":"beauty"}]},{"lat":"37.243202658","long":"126.58421313","imageIndex":13,"items":[{"name":"아씨미용실","tel":"032-883-2278","addr":"경기도 안산시 단원구 대부북동 470-12번지 1층","indutype":"보건위생 - 미용원","category":"beauty"}]},{"lat":"37.247231715","long":"126.57704513","imageIndex":13,"items":[{"name":"쿠로쌀롱","tel":"","addr":"경기도 안산시 단원구 대부북동 697-3번지 1층 6호","indutype":"보건위생 - 피부미용실","category":"beauty"}]},{"lat":"37.241708616","long":"126.58468346","imageIndex":13,"items":[{"name":"파슈(passu)헤어살롱","tel":"032-880-9746","addr":"경기도 안산시 단원구 대부북동 508-8번지 1층","indutype":"보건위생 - 미용원","category":"beauty"}]}]