[{"lat":"37.256763971","long":"126.99245506","imageIndex":4,"items":[{"name":"가원 주식회사","tel":"031-308-4033","addr":"경기도 수원시 권선구 평동 40-28번지","indutype":"일반휴게음식 - 일반한식","category":"restaurant"}]},{"lat":"37.261512675","long":"126.99628724","imageIndex":4,"items":[{"name":"넓은뜰","tel":"031-296-5292","addr":"경기도 수원시 권선구 평동 15-10번지 외1필지","indutype":"일반휴게음식 - 일반한식","category":"restaurant"}]},{"lat":"37.260179016","long":"126.99420188","imageIndex":4,"items":[{"name":"덕천시골집","tel":"031-296-8322","addr":"경기도 수원시 권선구 평동 10-3번지","indutype":"일반휴게음식 - 일반한식","category":"restaurant"}]},{"lat":"37.260656645","long":"126.9954193","imageIndex":4,"items":[{"name":"돈까스랑국수랑","tel":"031-1111-1111","addr":"경기도 수원시 권선구 평동 13-96번지 104, 105호","indutype":"일반휴게음식 - 일반한식","category":"restaurant"},{"name":"집밥삼시세끼","tel":"031-291-9225","addr":"경기도 수원시 권선구 평동 13-96번지 1층 102호 103호","indutype":"일반휴게음식 - 일반한식","category":"restaurant"}]},{"lat":"37.258683455","long":"126.99653549","imageIndex":4,"items":[{"name":"밥도둑","tel":"031-000-0000","addr":"경기도 수원시 권선구 평동 23-26번지 수원공구유통타운 제이동 262호, 263호, 274호, 275호","indutype":"일반휴게음식 - 일반한식","category":"restaurant"}]},{"lat":"37.26035044","long":"126.9982601","imageIndex":4,"items":[{"name":"본구이","tel":"031-295-1256","addr":"경기도 수원시 권선구 평동 22-17번지 중심빌딩 1층","indutype":"일반휴게음식 - 일반한식","category":"restaurant"}]},{"lat":"37.257818462","long":"126.9964792","imageIndex":4,"items":[{"name":"쏭카페(SSong Cafe)","tel":"031-278-0888","addr":"경기도 수원시 권선구 평동 56-14번지 1층","indutype":"일반휴게음식 - 스넥","category":"restaurant"}]},{"lat":"37.257791404","long":"126.99598321","imageIndex":4,"items":[{"name":"엔비(envy)평동점","tel":"070-8947-4490","addr":"경기도 수원시 권선구 평동 29-6번지","indutype":"일반휴게음식 - 일반한식","category":"restaurant"}]},{"lat":"37.25845822","long":"126.99697514","imageIndex":4,"items":[{"name":"오후앤(O''who&)","tel":"031-305-7942","addr":"경기도 수원시 권선구 평동 23-28번지 수원공구유통타운A동 123,124호","indutype":"일반휴게음식 - 일반한식","category":"restaurant"},{"name":"평동국수","tel":"031-291-2403","addr":"경기도 수원시 권선구 평동 23-28번지 수원공구유통타운 A동 125호","indutype":"일반휴게음식 - 일반한식","category":"restaurant"}]},{"lat":"37.257268797","long":"126.99583672","imageIndex":4,"items":[{"name":"위대한밥상","tel":"031-296-4709","addr":"경기도 수원시 권선구 평동 55-11번지 2층","indutype":"일반휴게음식 - 일반한식","category":"restaurant"}]},{"lat":"37.260539621","long":"126.99742589","imageIndex":4,"items":[{"name":"이화수 평동점","tel":"031-292-0073","addr":"경기도 수원시 권선구 평동 21-171번지 1층","indutype":"일반휴게음식 - 일반한식","category":"restaurant"},{"name":"평동명가","tel":"031-298-0202","addr":"경기도 수원시 권선구 평동 21-171번지 102호","indutype":"일반휴게음식 - 일반한식","category":"restaurant"}]},{"lat":"37.258296088","long":"126.99817004","imageIndex":4,"items":[{"name":"중앙구내매점분식","tel":"031-298-7912","addr":"경기도 수원시 권선구 평동 57-1번지 1층 122,123호","indutype":"일반휴게음식 - 스넥","category":"restaurant"}]},{"lat":"37.261125314","long":"126.99795568","imageIndex":4,"items":[{"name":"착한수산","tel":"031-291-3001","addr":"경기도 수원시 권선구 평동 21-25번지 외3필지","indutype":"일반휴게음식 - 일반한식","category":"restaurant"}]},{"lat":"37.259323034","long":"126.99414562","imageIndex":4,"items":[{"name":"탑수원순대국","tel":"031-296-8408","addr":"경기도 수원시 권선구 평동 4-9번지 1층","indutype":"일반휴게음식 - 일반한식","category":"restaurant"}]},{"lat":"37.25771032","long":"126.99614103","imageIndex":4,"items":[{"name":"평동밥집","tel":"","addr":"경기도 수원시 권선구 평동 56-38번지 1층","indutype":"일반휴게음식 - 일반한식","category":"restaurant"}]},{"lat":"37.259268951","long":"126.9938638","imageIndex":4,"items":[{"name":"평화식당","tel":"031-295-6257","addr":"경기도 수원시 권선구 평동 4-16번지","indutype":"일반휴게음식 - 일반한식","category":"restaurant"}]},{"lat":"37.260872911","long":"126.99572365","imageIndex":4,"items":[{"name":"황용각","tel":"031-291-9796","addr":"경기도 수원시 권선구 평동 14-17번지","indutype":"일반휴게음식 - 중국식","category":"restaurant"}]}]