[{"lat":"37.128641125","long":"126.86052765","imageIndex":17,"items":[{"name":"GS25팔탄덕우점","tel":"","addr":"경기도 화성시 팔탄면 덕우리 230-6번지 1층","indutype":"유통업 영리 - 편 의 점","category":"other"}]},{"lat":"37.132949968","long":"126.86986035","imageIndex":17,"items":[{"name":"광영산업","tel":"070-8817-9646","addr":"경기도 화성시 팔탄면 덕우리 200-1번지 1층","indutype":"기타 - 기계공구","category":"other"}]},{"lat":"37.125139115","long":"126.86311109","imageIndex":17,"items":[{"name":"금강레이져","tel":"031-366-5575","addr":"경기도 화성시 팔탄면 덕우리 257-4","indutype":"용역 서비스 - 기타용역서비스","category":"other"}]},{"lat":"37.135087048","long":"126.86340792","imageIndex":17,"items":[{"name":"금성상사","tel":"031-352-4988","addr":"경기도 화성시 팔탄면 덕우리 184-5번지","indutype":"유통업 영리 - 기타유통업","category":"other"}]},{"lat":"37.130670696","long":"126.86238069","imageIndex":17,"items":[{"name":"덕우종합상사","tel":"031-352-4623","addr":"경기도 화성시 팔탄면 덕우리 220-15번지","indutype":"신변잡화 - 기타잡화","category":"other"}]},{"lat":"37.134611546","long":"126.86516444","imageIndex":17,"items":[{"name":"삼진수도","tel":"031-354-3304","addr":"경기도 화성시 팔탄면 덕우리 187-2","indutype":"건축자재 - 건축용 요업제품","category":"other"}]},{"lat":"37.138166534","long":"126.86163527","imageIndex":17,"items":[{"name":"아비만엔지니어링 주식회사","tel":"031-659-9114","addr":"경기도 화성시 팔탄면 덕우리 99-1번지","indutype":"기타 - 기계공구","category":"other"}]},{"lat":"37.129749507","long":"126.86060434","imageIndex":17,"items":[{"name":"알파산업","tel":"031-354-4913","addr":"경기도 화성시 팔탄면 덕우리 84-29","indutype":"기타 - 기계공구","category":"other"}]},{"lat":"37.142250707","long":"126.8636874","imageIndex":17,"items":[{"name":"어워크","tel":"031-651-4441","addr":"경기도 화성시 팔탄면 덕우리 121-3번지","indutype":"문화.취미 - 애완동물","category":"other"}]},{"lat":"37.131442853","long":"126.8600835","imageIndex":17,"items":[{"name":"제너럴마케팅그룹","tel":"031-388-1117","addr":"경기도 화성시 팔탄면 덕우리 84-15번지 동지프라스틱내","indutype":"레져용품 - 스포츠·레져용품","category":"other"}]},{"lat":"37.128700337","long":"126.86488257","imageIndex":17,"items":[{"name":"주식회사 대동에너지","tel":"031-433-9497","addr":"경기도 화성시 팔탄면 덕우리 214-24번지","indutype":"건축자재 - 보일러·펌프·샷시","category":"other"}]},{"lat":"37.128561148","long":"126.86146182","imageIndex":17,"items":[{"name":"태성레이져","tel":"031-8059-0595","addr":"경기도 화성시 팔탄면 덕우리 227-4번지","indutype":"용역 서비스 - 기타용역서비스","category":"other"}]}]