[{"lat":"37.790506849","long":"126.84717657","imageIndex":0,"items":[{"name":"KDS무역","tel":"031-945-2024","addr":"경기도 파주시 광탄면 신산리 313-9","indutype":"자동차정비 유지 - 자동차부품","category":"car"}]},{"lat":"37.782862388","long":"126.84386655","imageIndex":0,"items":[{"name":"광탄삼거리자동차공업사","tel":"031-947-0495","addr":"경기도 파주시 광탄면 신산리 575-7","indutype":"자동차정비 유지 - 자동차정비","category":"car"}]},{"lat":"37.7811403","long":"126.8497049","imageIndex":0,"items":[{"name":"광탄점현대자동차","tel":"031-948-8260","addr":"경기도 파주시 광탄면 신산리 217-16번지","indutype":"자동차정비 유지 - 자동차정비","category":"car"}]},{"lat":"37.789729288","long":"126.84511199","imageIndex":0,"items":[{"name":"광탄중고차매매상사","tel":"031-947-6644","addr":"경기도 파주시 광탄면 신산리 339-2번지","indutype":"자동차판매 - 중고자동차판매","category":"car"}]},{"lat":"37.789612028","long":"126.84501007","imageIndex":0,"items":[{"name":"광탄카센타","tel":"031-943-3257","addr":"경기도 파주시 광탄면 신산리 339번지","indutype":"자동차정비 유지 - 자동차정비","category":"car"}]},{"lat":"37.786309994","long":"126.85539307","imageIndex":0,"items":[{"name":"광탄현대로얄공업사","tel":"031-949-6900","addr":"경기도 파주시 광탄면 신산리 20-1","indutype":"자동차정비 유지 - 자동차정비","category":"car"}]},{"lat":"37.7786184","long":"126.85028901","imageIndex":0,"items":[{"name":"금화자동차공업사","tel":"031-947-0415","addr":"경기도 파주시 광탄면 신산리 191-2번지","indutype":"자동차정비 유지 - 자동차정비","category":"car"}]},{"lat":"37.777672684","long":"126.85050662","imageIndex":0,"items":[{"name":"대성타이어","tel":"031-948-0456","addr":"경기도 파주시 광탄면 신산리 156-1번지","indutype":"자동차정비 유지 - 자동차시트·타이어","category":"car"}]},{"lat":"37.779365068","long":"126.85650794","imageIndex":0,"items":[{"name":"대한카독크","tel":"031-948-4667","addr":"경기도 파주시 광탄면 신산리 38번지","indutype":"자동차정비 유지 - 카인테리어","category":"car"}]},{"lat":"37.782034861","long":"126.84486726","imageIndex":0,"items":[{"name":"블랙스톤","tel":"031-943-8825","addr":"경기도 파주시 광탄면 신산리 575-1번지 광탄할인매장 1층 106호","indutype":"자동차정비 유지 - 자동차부품","category":"car"}]},{"lat":"37.785945469","long":"126.84523356","imageIndex":0,"items":[{"name":"새로나 세차장","tel":"031-953-7641","addr":"경기도 파주시 광탄면 신산리 352-8번지","indutype":"자동차정비 유지 - 세차장","category":"car"},{"name":"타이어클럽","tel":"031-947-0933","addr":"경기도 파주시 광탄면 신산리 352-8번지","indutype":"자동차정비 유지 - 자동차시트·타이어","category":"car"}]},{"lat":"37.775699389","long":"126.85034041","imageIndex":0,"items":[{"name":"새로나자동차공업사","tel":"031-947-7928","addr":"경기도 파주시 광탄면 신산리 160-14","indutype":"자동차정비 유지 - 자동차정비","category":"car"}]},{"lat":"37.789918638","long":"126.84522512","imageIndex":0,"items":[{"name":"신산카프라자","tel":"070-8161-1243","addr":"경기도 파주시 광탄면 신산리 339-3번지","indutype":"자동차정비 유지 - 자동차정비","category":"car"}]},{"lat":"37.777561971","long":"126.84850908","imageIndex":0,"items":[{"name":"현대차병원공업사","tel":"031-942-4579","addr":"경기도 파주시 광탄면 신산리 170-2번지","indutype":"자동차정비 유지 - 자동차정비","category":"car"}]}]