[{"lat":"37.493174485","long":"126.78779696","imageIndex":16,"items":[{"name":"국가대표 태비 태권도","tel":"031-1111-1111","addr":"경기도 부천시 원미동 103-10번지 2층","indutype":"학원 - 예·체능계학원","category":"study"},{"name":"늘찬양음악학원","tel":"032-653-6373","addr":"경기도 부천시 원미동 103-10번지 2층","indutype":"회원제형태 - 학원","category":"study"}]},{"lat":"37.494625119","long":"126.79282485","imageIndex":16,"items":[{"name":"굿샘멘토보습학원","tel":"032-656-7089","addr":"경기도 부천시 원미동 166-6번지 2층 일부","indutype":"학원 - 보습학원","category":"study"}]},{"lat":"37.493370058","long":"126.78634901","imageIndex":16,"items":[{"name":"그림터미술학원","tel":"032-656-1028","addr":"경기도 부천시 원미동 109-17번지 전체 2층","indutype":"학원 - 예·체능계학원","category":"study"},{"name":"용인대신라태권스쿨","tel":"032-653-0820","addr":"경기도 부천시 원미동 109-17번지","indutype":"학원 - 예·체능계학원","category":"study"}]},{"lat":"37.497595108","long":"126.78602017","imageIndex":16,"items":[{"name":"김선생예체능교실","tel":"070-7621-9925","addr":"경기도 부천시 원미동 72-3번지 1층","indutype":"학원 - 예·체능계학원","category":"study"},{"name":"용인대키즈스포츠클럽","tel":"070-7621-9925","addr":"경기도 부천시 원미동 72-3번지","indutype":"학원 - 기타 교육기관","category":"study"}]},{"lat":"37.498400137","long":"126.79274642","imageIndex":16,"items":[{"name":"높은산미술.음악학원","tel":"032-656-3294","addr":"경기도 부천시 원미동 1-8번지 태진 상가 2층","indutype":"학원 - 예·체능계학원","category":"study"},{"name":"숙명필음악학원","tel":"032-666-4020","addr":"경기도 부천시 원미동 1-8번지","indutype":"학원 - 예·체능계학원","category":"study"},{"name":"해동검도,합기도","tel":"032-664-3131","addr":"경기도 부천시 원미동 1-8번지 태진빌딩 3층","indutype":"학원 - 예·체능계학원","category":"study"}]},{"lat":"37.492819304","long":"126.79068144","imageIndex":16,"items":[{"name":"뉴스카이보습음악학원","tel":"032-208-1236","addr":"경기도 부천시 원미동 95-11번지 2층","indutype":"학원 - 예·체능계학원","category":"study"}]},{"lat":"37.498563339","long":"126.7933227","imageIndex":16,"items":[{"name":"능률보습학원","tel":"032-221-7730","addr":"경기도 부천시 원미동 24-10번지 2층","indutype":"학원 - 보습학원","category":"study"}]},{"lat":"37.495563992","long":"126.78883046","imageIndex":16,"items":[{"name":"대한예수교장로회 복된교회","tel":"032-546-2280","addr":"경기도 부천시 원미동 83-8번지 대림프라우드빌 2층","indutype":"회원제형태 - 학원","category":"study"}]},{"lat":"37.4928772","long":"126.78782043","imageIndex":16,"items":[{"name":"라엘음악학원","tel":"032-664-4714","addr":"경기도 부천시 원미동 123-1번지 2층 일부","indutype":"학원 - 예·체능계학원","category":"study"}]},{"lat":"37.495176847","long":"126.79402196","imageIndex":16,"items":[{"name":"라온태권도장","tel":"032-652-0106","addr":"경기도 부천시 원미동 151-1번지","indutype":"학원 - 예·체능계학원","category":"study"}]},{"lat":"37.491397141","long":"126.79146568","imageIndex":16,"items":[{"name":"라헬영어","tel":"070-4064-8346","addr":"경기도 부천시 원미동 114-1번지 풍림아파트","indutype":"학원 - 기타 교육기관","category":"study"},{"name":"준쌤보습학원","tel":"032-666-1236","addr":"경기도 부천시 원미동 114-1번지 상가동 2층 201호,202호","indutype":"학원 - 보습학원","category":"study"},{"name":"피아첼음악학원","tel":"032-651-3496","addr":"경기도 부천시 원미동 114-1번지 103~105호","indutype":"학원 - 예·체능계학원","category":"study"}]},{"lat":"37.493730559","long":"126.79137995","imageIndex":16,"items":[{"name":"랍슨키즈영어교습소","tel":"032-612-0511","addr":"경기도 부천시 원미동 94-5번지 원미동명성프라자 502호","indutype":"회원제형태 - 학원","category":"study"},{"name":"밥(BoB)독서실","tel":"032-000-0000","addr":"경기도 부천시 원미동 94-5번지 원미동명성프라자 403호","indutype":"학원 - 독서실","category":"study"}]},{"lat":"37.493874069","long":"126.7910177","imageIndex":16,"items":[{"name":"맨투맨보습학원","tel":"032-655-7593","addr":"경기도 부천시 원미동 95-2번지","indutype":"학원 - 기타 교육기관","category":"study"}]},{"lat":"37.494760882","long":"126.78815427","imageIndex":16,"items":[{"name":"뮤엠영어수학보습학원","tel":"032-665-0588","addr":"경기도 부천시 원미동 86-12번지 2층","indutype":"학원 - 보습학원","category":"study"}]},{"lat":"37.494289333","long":"126.79146884","imageIndex":16,"items":[{"name":"박상희음악학원","tel":"032-663-0660","addr":"경기도 부천시 원미동 76-3번지 2층","indutype":"학원 - 예·체능계학원","category":"study"}]},{"lat":"37.495424234","long":"126.7912734","imageIndex":16,"items":[{"name":"반석피아노학원","tel":"032-665-0083","addr":"경기도 부천시 원미동 54-8번지 4층","indutype":"학원 - 예·체능계학원","category":"study"}]},{"lat":"37.492788026","long":"126.78832953","imageIndex":16,"items":[{"name":"삼손태권도","tel":"032-668-9294","addr":"경기도 부천시 원미동 122-4번지 4층","indutype":"학원 - 예·체능계학원","category":"study"},{"name":"정다운수학보습학원","tel":"032-661-0700","addr":"경기도 부천시 원미동 122-4번지 3층","indutype":"학원 - 보습학원","category":"study"},{"name":"정다운지앤비어학원","tel":"032-651-0584","addr":"경기도 부천시 원미동 122-4번지 2층","indutype":"학원 - 기타 교육기관","category":"study"}]},{"lat":"37.492814748","long":"126.78815984","imageIndex":16,"items":[{"name":"새로운음악교습소","tel":"032-665-9667","addr":"경기도 부천시 원미동 122-5번지 2층 일부","indutype":"학원 - 예·체능계학원","category":"study"}]},{"lat":"37.493261802","long":"126.79124558","imageIndex":16,"items":[{"name":"소리향기색소폰실용음악학원","tel":"032-654-1300","addr":"경기도 부천시 원미동 94-10번지 2층","indutype":"학원 - 예·체능계학원","category":"study"},{"name":"잉글리시아이원미보습학원","tel":"032-650-8171","addr":"경기도 부천시 원미동 94-10번지 4층","indutype":"학원 - 외국어학원","category":"study"}]},{"lat":"37.492847145","long":"126.79113367","imageIndex":16,"items":[{"name":"솔로몬보습학원","tel":"032-612-8199","addr":"경기도 부천시 원미동 94-13번지 2층","indutype":"학원 - 보습학원","category":"study"}]},{"lat":"37.494840962","long":"126.78759995","imageIndex":16,"items":[{"name":"숲음악교습소","tel":"032-654-4727","addr":"경기도 부천시 원미동 86-18번지 1층","indutype":"학원 - 예·체능계학원","category":"study"}]},{"lat":"37.492675856","long":"126.79107762","imageIndex":16,"items":[{"name":"스타트보습학원","tel":"032-654-8162","addr":"경기도 부천시 원미동 94-4번지 3층","indutype":"학원 - 보습학원","category":"study"}]},{"lat":"37.491457774","long":"126.79010861","imageIndex":16,"items":[{"name":"썬에듀보습학원","tel":"032-667-3090","addr":"경기도 부천시 원미동 116-5번지","indutype":"학원 - 보습학원","category":"study"}]},{"lat":"37.494401143","long":"126.78851715","imageIndex":16,"items":[{"name":"원미1동주민자치위원회","tel":"032-625-5663","addr":"경기도 부천시 원미동 99-2번지 2층","indutype":"학원 - 기타 교육기관","category":"study"}]},{"lat":"37.491841825","long":"126.78824178","imageIndex":16,"items":[{"name":"원미2동주민자치센터","tel":"032-625-5681","addr":"경기도 부천시 원미동 126-4번지","indutype":"학원 - 기타 교육기관","category":"study"}]},{"lat":"37.498174588","long":"126.79257743","imageIndex":16,"items":[{"name":"원미정도태권도장","tel":"032-668-7557","addr":"경기도 부천시 원미동 2-2번지 2층","indutype":"학원 - 예·체능계학원","category":"study"},{"name":"투더탑보습학원","tel":"032-208-9595","addr":"경기도 부천시 원미동 2-2번지","indutype":"학원 - 보습학원","category":"study"}]},{"lat":"37.494179206","long":"126.79034967","imageIndex":16,"items":[{"name":"유일보습학원","tel":"032-656-7997","addr":"경기도 부천시 원미동 97-1번지","indutype":"학원 - 컴퓨터학원","category":"study"}]},{"lat":"37.495231363","long":"126.7892385","imageIndex":16,"items":[{"name":"윤선생 우리집앞 영어교실 원미캠퍼스","tel":"070-4751-9338","addr":"경기도 부천시 원미동 80-5번지 우성그랑시아 2층 204호","indutype":"학원 - 보습학원","category":"study"}]},{"lat":"37.491347737","long":"126.78904602","imageIndex":16,"items":[{"name":"이화외국어속셈학원","tel":"032-652-0937","addr":"경기도 부천시 원미동 173-2번지","indutype":"학원 - 독서실","category":"study"}]},{"lat":"37.492982334","long":"126.79115591","imageIndex":16,"items":[{"name":"정다운코리아엠보습학원","tel":"032-651-0179","addr":"경기도 부천시 원미동 94-12번지 영광빌딩 3,4층","indutype":"학원 - 보습학원","category":"study"}]},{"lat":"37.494535864","long":"126.79330003","imageIndex":16,"items":[{"name":"청출어람보습학원","tel":"032-653-7841","addr":"경기도 부천시 원미동 157-16번지","indutype":"학원 - 보습학원","category":"study"}]},{"lat":"37.491956521","long":"126.78690716","imageIndex":16,"items":[{"name":"프라미스보습음악학원","tel":"070-8251-1281","addr":"경기도 부천시 원미동 128-3번지 원미종합시장 202호","indutype":"학원 - 예·체능계학원","category":"study"}]},{"lat":"37.49553731","long":"126.78902277","imageIndex":16,"items":[{"name":"합기도","tel":"032-667-9997","addr":"경기도 부천시 원미동 83-9번지 2층","indutype":"학원 - 예·체능계학원","category":"study"}]},{"lat":"37.494511737","long":"126.7898851","imageIndex":16,"items":[{"name":"해법수학원미북초1점교습소","tel":"032-455-6356","addr":"경기도 부천시 원미동 82-13번지 1층 일부","indutype":"학원 - 보습학원","category":"study"}]}]