[{"lat":"38.18410251","long":"127.1071578","imageIndex":4,"items":[{"name":"BBQ대광점","tel":"031-834-4282","addr":"경기도 연천군 신서면 도신리 285-28번지","indutype":"일반휴게음식 - 스넥","category":"restaurant"}]},{"lat":"38.18379612","long":"127.1072486","imageIndex":4,"items":[{"name":"고대산 숯불갈비","tel":"031-834-8555","addr":"경기도 연천군 신서면 도신리 285-45번지","indutype":"일반휴게음식 - 일반한식","category":"restaurant"}]},{"lat":"38.18377006","long":"127.1061643","imageIndex":4,"items":[{"name":"고향집","tel":"031-834-0370","addr":"경기도 연천군 신서면 도신리 288-4번지","indutype":"일반휴게음식 - 일반한식","category":"restaurant"}]},{"lat":"38.16027203","long":"127.1188533","imageIndex":4,"items":[{"name":"광대울골","tel":"031-834-5507","addr":"경기도 연천군 신서면 도신리 770-34번지","indutype":"일반휴게음식 - 일반한식","category":"restaurant"}]},{"lat":"38.18498529","long":"127.1072503","imageIndex":4,"items":[{"name":"뉴웨스트커피","tel":"031-834-8613","addr":"경기도 연천군 신서면 도신리 273-65번지","indutype":"일반휴게음식 - 서양음식","category":"restaurant"},{"name":"엘카페","tel":"031-834-8613","addr":"경기도 연천군 신서면 도신리 273-65번지","indutype":"일반휴게음식 - 서양음식","category":"restaurant"}]},{"lat":"38.18574219","long":"127.1070802","imageIndex":4,"items":[{"name":"다빈까페","tel":"031-834-1388","addr":"경기도 연천군 신서면 도신리 283-35번지","indutype":"일반휴게음식 - 서양음식","category":"restaurant"}]},{"lat":"38.18593187","long":"127.1065212","imageIndex":4,"items":[{"name":"대광사철탕","tel":"031-834-9097","addr":"경기도 연천군 신서면 도신리 283-43번지","indutype":"일반휴게음식 - 일반한식","category":"restaurant"}]},{"lat":"38.18470662","long":"127.1065765","imageIndex":4,"items":[{"name":"대광점굽네치킨","tel":"031-834-9554","addr":"경기도 연천군 신서면 도신리 290-20 2/8","indutype":"일반휴게음식 - 스넥","category":"restaurant"},{"name":"정김밥","tel":"031-834-9299","addr":"경기도 연천군 신서면 도신리 290-20","indutype":"일반휴게음식 - 일반한식","category":"restaurant"}]},{"lat":"38.18698546","long":"127.1070249","imageIndex":4,"items":[{"name":"대흥원","tel":"031-834-8191","addr":"경기도 연천군 신서면 도신리 280-3번지 대흥원","indutype":"일반휴게음식 - 일반한식","category":"restaurant"}]},{"lat":"38.184958","long":"127.107547","imageIndex":4,"items":[{"name":"메가커피 대광리점","tel":"031-834-9559","addr":"경기도 연천군 신서면 도신리 285-24번지 1층","indutype":"일반휴게음식 - 서양음식","category":"restaurant"}]},{"lat":"38.18540943","long":"127.1064405","imageIndex":4,"items":[{"name":"병천아우네순대","tel":"02-745-6878","addr":"경기도 연천군 신서면 도신리 283-25","indutype":"일반휴게음식 - 일반한식","category":"restaurant"}]},{"lat":"38.17649183","long":"127.1050812","imageIndex":4,"items":[{"name":"부산돼지국밥","tel":"031-834-2020","addr":"경기도 연천군 신서면 도신리 209번지 1층","indutype":"일반휴게음식 - 일반한식","category":"restaurant"}]},{"lat":"38.18521089","long":"127.1068283","imageIndex":4,"items":[{"name":"부산식당","tel":"031-834-8150","addr":"경기도 연천군 신서면 도신리 283-10번지","indutype":"일반휴게음식 - 일반한식","category":"restaurant"}]},{"lat":"38.18565304","long":"127.1060186","imageIndex":4,"items":[{"name":"서울사철탕","tel":"031-834-2346","addr":"경기도 연천군 신서면 도신리 294-23","indutype":"일반휴게음식 - 일반한식","category":"restaurant"}]},{"lat":"38.18546259","long":"127.107445","imageIndex":4,"items":[{"name":"왕돈까스","tel":"031-834-9448","addr":"경기도 연천군 신서면 도신리 273-56번지","indutype":"일반휴게음식 - 일반한식","category":"restaurant"}]},{"lat":"38.18723754","long":"127.1072193","imageIndex":4,"items":[{"name":"우리식당","tel":"031-834-1890","addr":"경기도 연천군 신서면 도신리 275-4번지","indutype":"일반휴게음식 - 일반한식","category":"restaurant"}]},{"lat":"38.15210135","long":"127.0983845","imageIndex":4,"items":[{"name":"원압산토종","tel":"031-834-8826","addr":"경기도 연천군 신서면 도신리 839-2 3/1","indutype":"일반휴게음식 - 일반한식","category":"restaurant"}]},{"lat":"38.18512959","long":"127.1070793","imageIndex":4,"items":[{"name":"이담왕돈까스","tel":"031-834-7222","addr":"경기도 연천군 신서면 도신리 273-64번지","indutype":"일반휴게음식 - 중국식","category":"restaurant"}]},{"lat":"38.15412963","long":"127.0968013","imageIndex":4,"items":[{"name":"이천푸드","tel":"","addr":"경기도 연천군 신서면 도신리 827-2번지","indutype":"일반휴게음식 - 일반한식","category":"restaurant"}]},{"lat":"38.18504856","long":"127.1070221","imageIndex":4,"items":[{"name":"장군순대국","tel":"031-834-8286","addr":"경기도 연천군 신서면 도신리 273-67번지 1층","indutype":"일반휴게음식 - 일반한식","category":"restaurant"}]},{"lat":"38.18549004","long":"127.1069657","imageIndex":4,"items":[{"name":"정든커피숍","tel":"031-834-7771","addr":"경기도 연천군 신서면 도신리 283-17번지","indutype":"일반휴게음식 - 서양음식","category":"restaurant"}]},{"lat":"38.16102202","long":"127.1068282","imageIndex":4,"items":[{"name":"제일가든","tel":"031-834-2939","addr":"경기도 연천군 신서면 도신리 778번지","indutype":"일반휴게음식 - 일반한식","category":"restaurant"}]},{"lat":"38.18454492","long":"127.1060512","imageIndex":4,"items":[{"name":"좋은친구들","tel":"031-834-8318","addr":"경기도 연천군 신서면 도신리 290-31번지","indutype":"일반휴게음식 - 주점","category":"restaurant"},{"name":"좋은친구들","tel":"031-834-8318","addr":"경기도 연천군 신서면 도신리 290-31번지","indutype":"일반휴게음식 - 주점","category":"restaurant"},{"name":"좋은친구들","tel":"031-834-8318","addr":"경기도 연천군 신서면 도신리 290-31번지 좋은친구들","indutype":"일반휴게음식 - 주점","category":"restaurant"}]},{"lat":"38.18487751","long":"127.1068849","imageIndex":4,"items":[{"name":"준이네 떡볶이&돈까스","tel":"031-834-8404","addr":"경기도 연천군 신서면 도신리 273-73번지","indutype":"일반휴게음식 - 일반한식","category":"restaurant"}]},{"lat":"38.18523747","long":"127.1073306","imageIndex":4,"items":[{"name":"중국성","tel":"031-834-6001","addr":"경기도 연천군 신서면 도신리 273-60번지","indutype":"일반휴게음식 - 중국식","category":"restaurant"}]},{"lat":"38.16315626","long":"127.0971894","imageIndex":4,"items":[{"name":"털보네촌닭","tel":"031-834-6308","addr":"경기도 연천군 신서면 도신리 620-8번지","indutype":"일반휴게음식 - 일반한식","category":"restaurant"}]},{"lat":"38.18398543","long":"127.1071119","imageIndex":4,"items":[{"name":"황금반점","tel":"031-834-1813","addr":"경기도 연천군 신서면 도신리 285-29번지","indutype":"일반휴게음식 - 중국식","category":"restaurant"}]}]