[{"lat":"37.582815319","long":"127.12964668","imageIndex":0,"items":[{"name":"DAS Auto(다스오토)","tel":"031-555-5508","addr":"경기도 구리시 교문동 684-3번지","indutype":"자동차정비 유지 - 자동차정비","category":"car"},{"name":"찬찬모터스 구리점","tel":"031-555-5109","addr":"경기도 구리시 교문동 684-3번지","indutype":"자동차정비 유지 - 자동차시트·타이어","category":"car"}]},{"lat":"37.598586839","long":"127.13387452","imageIndex":0,"items":[{"name":"GJ모터스","tel":"031-551-7676","addr":"경기도 구리시 교문동 220-8번지","indutype":"자동차정비 유지 - 자동차부품","category":"car"}]},{"lat":"37.60148075","long":"127.12376714","imageIndex":0,"items":[{"name":"구리 LPG전문 카센타","tel":"031-552-7707","addr":"경기도 구리시 교문동 303-5번지 1층","indutype":"자동차정비 유지 - 자동차정비","category":"car"}]},{"lat":"37.596947828","long":"127.13318091","imageIndex":0,"items":[{"name":"구리대우부품센타","tel":"031-551-1752","addr":"경기도 구리시 교문동 737번지","indutype":"자동차정비 유지 - 자동차부품","category":"car"}]},{"lat":"37.594284833","long":"127.12959819","imageIndex":0,"items":[{"name":"구리제작소","tel":"031-555-1778","addr":"경기도 구리시 교문동 390-1번지 구리시청 옥외주차장","indutype":"자동차정비 유지 - 가타자동차서비스","category":"car"}]},{"lat":"37.581447606","long":"127.12798016","imageIndex":0,"items":[{"name":"구리현대보링","tel":"031-568-0556","addr":"경기도 구리시 교문동 669-5번지","indutype":"자동차정비 유지 - 자동차정비","category":"car"}]},{"lat":"37.591587505","long":"127.13272999","imageIndex":0,"items":[{"name":"깔끔&  세차장","tel":"070-8283-0956","addr":"경기도 구리시 교문동 797-4번지","indutype":"자동차정비 유지 - 세차장","category":"car"},{"name":"칠할래광낼래","tel":"031-557-0631","addr":"경기도 구리시 교문동 797-4번지","indutype":"자동차정비 유지 - 자동차정비","category":"car"},{"name":"현대카인테리어","tel":"031-553-5176","addr":"경기도 구리시 교문동 797-4번지","indutype":"자동차정비 유지 - 자동차정비","category":"car"}]},{"lat":"37.597309016","long":"127.13245684","imageIndex":0,"items":[{"name":"대산카센타","tel":"031-552-6963","addr":"경기도 구리시 교문동 731-11번지","indutype":"자동차정비 유지 - 자동차정비","category":"car"}]},{"lat":"37.60131112","long":"127.12223811","imageIndex":0,"items":[{"name":"대성윤활류","tel":"031-565-6320","addr":"경기도 구리시 교문동 305-58번지","indutype":"자동차정비 유지 - 윤활유 전문 판매","category":"car"}]},{"lat":"37.599894455","long":"127.13278971","imageIndex":0,"items":[{"name":"덕현세차장","tel":"031-569-3232","addr":"경기도 구리시 교문동 212-6번지","indutype":"자동차정비 유지 - 세차장","category":"car"}]},{"lat":"37.588869414","long":"127.13009851","imageIndex":0,"items":[{"name":"동화자동차매매상사","tel":"031-569-4949","addr":"경기도 구리시 교문동 434-4번지","indutype":"자동차판매 - 중고자동차판매","category":"car"}]},{"lat":"37.601225259","long":"127.12686953","imageIndex":0,"items":[{"name":"루마썬팅 프리미엄 구리점","tel":"031-551-2236","addr":"경기도 구리시 교문동 266-10번지","indutype":"자동차정비 유지 - 카인테리어","category":"car"}]},{"lat":"37.592003982","long":"127.13087379","imageIndex":0,"items":[{"name":"르노삼성자동차서비스코너 교문점","tel":"031-553-3334","addr":"경기도 구리시 교문동 404번지","indutype":"자동차정비 유지 - 자동차정비","category":"car"}]},{"lat":"37.599697728","long":"127.13143051","imageIndex":0,"items":[{"name":"먹칠공장","tel":"","addr":"경기도 구리시 교문동 199-17번지 1층","indutype":"자동차정비 유지 - 자동차부품","category":"car"}]},{"lat":"37.597448716","long":"127.13645428","imageIndex":0,"items":[{"name":"메인카","tel":"031-000-0000","addr":"경기도 구리시 교문동 734-4번지 용덕빌딩 7층 710-13호","indutype":"자동차정비 유지 - 자동차부품","category":"car"},{"name":"클로버","tel":"","addr":"경기도 구리시 교문동 734-4번지 용덕빌딩 7층 714-3호","indutype":"자동차정비 유지 - 자동차부품","category":"car"},{"name":"킹카샵","tel":"031-595-3736","addr":"경기도 구리시 교문동 734-4번지 7층 701-8호","indutype":"자동차정비 유지 - 세차장","category":"car"}]},{"lat":"37.601008929","long":"127.11807037","imageIndex":0,"items":[{"name":"명성카센타","tel":"031-555-2418","addr":"경기도 구리시 교문동 328-80번지","indutype":"자동차정비 유지 - 자동차정비","category":"car"},{"name":"장안차바닥","tel":"031-554-7711","addr":"경기도 구리시 교문동 328-80번지","indutype":"자동차정비 유지 - 자동차부품","category":"car"}]},{"lat":"37.601417798","long":"127.12365379","imageIndex":0,"items":[{"name":"모빌리언","tel":"031-567-0868","addr":"경기도 구리시 교문동 303-4번지 1층","indutype":"자동차정비 유지 - 자동차부품","category":"car"}]},{"lat":"37.599945589","long":"127.11826124","imageIndex":0,"items":[{"name":"몬스터케이","tel":"031-510-8417","addr":"경기도 구리시 교문동 339-1번지 1층 3호","indutype":"자동차판매 - 이륜차판매","category":"car"}]},{"lat":"37.601000685","long":"127.13456952","imageIndex":0,"items":[{"name":"반도카","tel":"061-332-4861","addr":"경기도 구리시 교문동 233-5번지","indutype":"자동차정비 유지 - 자동차정비","category":"car"}]},{"lat":"37.586091494","long":"127.13276573","imageIndex":0,"items":[{"name":"배터리군단","tel":"","addr":"경기도 구리시 교문동 498번지","indutype":"자동차정비 유지 - 자동차부품","category":"car"}]},{"lat":"37.593668487","long":"127.13298271","imageIndex":0,"items":[{"name":"보스카","tel":"070-8735-7848","addr":"경기도 구리시 교문동 758-17 202 28/","indutype":"자동차정비 유지 - 자동차부품","category":"car"}]},{"lat":"37.595589389","long":"127.13132153","imageIndex":0,"items":[{"name":"삼광상사","tel":"031-551-8000","addr":"경기도 구리시 교문동 754번지","indutype":"자동차정비 유지 - 자동차부품","category":"car"}]},{"lat":"37.595640459","long":"127.1340392","imageIndex":0,"items":[{"name":"삼우상사","tel":"031-567-8566","addr":"경기도 구리시 교문동 748번지","indutype":"자동차정비 유지 - 자동차부품","category":"car"}]},{"lat":"37.601389437","long":"127.13336984","imageIndex":0,"items":[{"name":"서울주차장","tel":"031-569-5767","addr":"경기도 구리시 교문동 233-40번지","indutype":"자동차정비 유지 - 주차장","category":"car"}]},{"lat":"37.596948264","long":"127.13278459","imageIndex":0,"items":[{"name":"세덴구리점","tel":"031-567-8177","addr":"경기도 구리시 교문동 738-8번지","indutype":"자동차정비 유지 - 자동차정비","category":"car"},{"name":"세덴구리점","tel":"031-567-8177","addr":"경기도 구리시 교문동 738-8번지","indutype":"자동차정비 유지 - 자동차정비","category":"car"}]},{"lat":"37.592589825","long":"127.1306823","imageIndex":0,"items":[{"name":"신협신제작소","tel":"031-564-3341","addr":"경기도 구리시 교문동 399번지","indutype":"자동차정비 유지 - 가타자동차서비스","category":"car"},{"name":"에스제이카오디오","tel":"031-564-9478","addr":"경기도 구리시 교문동 399번지","indutype":"자동차정비 유지 - 자동차부품","category":"car"},{"name":"이글지프","tel":"031-551-9851","addr":"경기도 구리시 교문동 399번지","indutype":"자동차정비 유지 - 카인테리어","category":"car"}]},{"lat":"37.60133776","long":"127.12262317","imageIndex":0,"items":[{"name":"쌍용자동차 구리서비스프라자","tel":"031-569-5582","addr":"경기도 구리시 교문동 305-34번지","indutype":"자동차정비 유지 - 국산신차 직영부품","category":"car"}]},{"lat":"37.597112947","long":"127.13048621","imageIndex":0,"items":[{"name":"알뜰타이어","tel":"031-555-0929","addr":"경기도 구리시 교문동 361-3번지","indutype":"자동차정비 유지 - 자동차시트·타이어","category":"car"}]},{"lat":"37.597867347","long":"127.13270693","imageIndex":0,"items":[{"name":"에이치케이(H.K)모터스","tel":"031-566-9442","addr":"경기도 구리시 교문동 725-10번지 지층-1","indutype":"자동차정비 유지 - 자동차부품","category":"car"}]},{"lat":"37.596974117","long":"127.13384904","imageIndex":0,"items":[{"name":"에이플러스","tel":"031-553-8018","addr":"경기도 구리시 교문동 737-6번지","indutype":"자동차정비 유지 - 자동차부품","category":"car"},{"name":"일진자동차용품","tel":"031-553-8018","addr":"경기도 구리시 교문동 737-6번지","indutype":"자동차정비 유지 - 자동차부품","category":"car"}]},{"lat":"37.580339343","long":"127.12803491","imageIndex":0,"items":[{"name":"엘앤티모터스 (주)","tel":"031-550-5200","addr":"경기도 구리시 교문동 638-12번지 ,1,3층","indutype":"자동차판매 - 수입자동차","category":"car"}]},{"lat":"37.590148239","long":"127.13062152","imageIndex":0,"items":[{"name":"오토오아시스강변점","tel":"031-563-0934","addr":"경기도 구리시 교문동 102-5번지","indutype":"자동차정비 유지 - 자동차정비","category":"car"}]},{"lat":"37.587895674","long":"127.13073089","imageIndex":0,"items":[{"name":"우성카센타","tel":"","addr":"경기도 구리시 교문동 807번지","indutype":"자동차정비 유지 - 자동차정비","category":"car"}]},{"lat":"37.592841102","long":"127.13159988","imageIndex":0,"items":[{"name":"월드바이크샵 앤 흑기사","tel":"031-568-0777","addr":"경기도 구리시 교문동 760-4번지 1층","indutype":"자동차판매 - 이륜차판매","category":"car"}]},{"lat":"37.59728247","long":"127.13201518","imageIndex":0,"items":[{"name":"월드에이스탑","tel":"031-1600-1527","addr":"경기도 구리시 교문동 731-15번지 2층 202호","indutype":"자동차정비 유지 - 자동차부품","category":"car"}]},{"lat":"37.596948102","long":"127.1329318","imageIndex":0,"items":[{"name":"인창모터샵","tel":"031-566-1060","addr":"경기도 구리시 교문동 738-9번지","indutype":"자동차판매 - 이륜차판매","category":"car"}]},{"lat":"37.5970336","long":"127.13704236","imageIndex":0,"items":[{"name":"일군타워관리실","tel":"031-513-0177","addr":"경기도 구리시 교문동 830번지","indutype":"자동차정비 유지 - 주차장","category":"car"}]},{"lat":"37.587786683","long":"127.13153457","imageIndex":0,"items":[{"name":"자동차 내외장 토탈케어센터 F1","tel":"031-511-9693","addr":"경기도 구리시 교문동 807-7번지 수동빌딩 1층","indutype":"자동차정비 유지 - 카인테리어","category":"car"},{"name":"자동차 내외장 토탈케어센터 F1","tel":"031-511-9693","addr":"경기도 구리시 교문동 807-7번지 수동빌딩 1층","indutype":"자동차정비 유지 - 자동차정비","category":"car"}]},{"lat":"37.601146199","long":"127.13334677","imageIndex":0,"items":[{"name":"재아주차장","tel":"031-557-4236","addr":"경기도 구리시 교문동 245-11번지 재아빌딩 1동 101호","indutype":"자동차정비 유지 - 주차장","category":"car"}]},{"lat":"37.590725586","long":"127.12995447","imageIndex":0,"items":[{"name":"제일스카이","tel":"","addr":"경기도 구리시 교문동 426-41번지 동진파크빌 105동 202호","indutype":"자동차판매 - 기타운송","category":"car"}]},{"lat":"37.589203105","long":"127.12979337","imageIndex":0,"items":[{"name":"제일현대자동차공업사","tel":"031-552-9442","addr":"경기도 구리시 교문동 434-5번지","indutype":"자동차정비 유지 - 자동차정비","category":"car"}]},{"lat":"37.587922273","long":"127.13112721","imageIndex":0,"items":[{"name":"조은카서비스","tel":"031-562-7660","addr":"경기도 구리시 교문동 807-2번지 1층","indutype":"자동차정비 유지 - 자동차정비","category":"car"}]},{"lat":"37.596836053","long":"127.13645319","imageIndex":0,"items":[{"name":"주식회사 에이치씨앤엠","tel":"031-564-1136","addr":"경기도 구리시 교문동 735-6번지 동진빌딩 6층","indutype":"자동차정비 유지 - 주차장","category":"car"}]},{"lat":"37.590642633","long":"127.13167535","imageIndex":0,"items":[{"name":"주식회사 엠칠오바이크","tel":"031-556-1222","addr":"경기도 구리시 교문동 798-11번지","indutype":"자동차판매 - 이륜차판매","category":"car"}]},{"lat":"37.600810692","long":"127.11809271","imageIndex":0,"items":[{"name":"진성모터스","tel":"031-566-4113","addr":"경기도 구리시 교문동 334-35번지","indutype":"자동차정비 유지 - 자동차부품","category":"car"}]},{"lat":"37.591862572","long":"127.12831462","imageIndex":0,"items":[{"name":"팀에이원(TEAM A1)","tel":"031-556-8484","addr":"경기도 구리시 교문동 415-4번지 지층","indutype":"자동차정비 유지 - 카인테리어","category":"car"}]},{"lat":"37.596782531","long":"127.13597751","imageIndex":0,"items":[{"name":"한일오토밋션","tel":"031-552-2668","addr":"경기도 구리시 교문동 735-9번지","indutype":"자동차정비 유지 - 자동차정비","category":"car"}]},{"lat":"37.596948625","long":"127.13245621","imageIndex":0,"items":[{"name":"현대오토밋션","tel":"031-510-0470","addr":"경기도 구리시 교문동 738-5번지","indutype":"자동차정비 유지 - 자동차정비","category":"car"}]},{"lat":"37.601140472","long":"127.1217056","imageIndex":0,"items":[{"name":"현승공업사","tel":"031-557-7300","addr":"경기도 구리시 교문동 306-1번지","indutype":"자동차정비 유지 - 세차장","category":"car"}]},{"lat":"37.580204747","long":"127.12751392","imageIndex":0,"items":[{"name":"협력카센타","tel":"031-551-2117","addr":"경기도 구리시 교문동 640-6번지 1층","indutype":"자동차정비 유지 - 자동차정비","category":"car"}]}]