[{"lat":"37.196579445","long":"127.03678477","imageIndex":13,"items":[{"name":"대일화학공업(주)","tel":"031-372-4991","addr":"경기도 오산시 세교동 26번지","indutype":"보건위생 - 의료용품","category":"beauty"}]},{"lat":"37.186277446","long":"127.0463077","imageIndex":13,"items":[{"name":"디앤씨(D&C)메디칼","tel":"031-8050-7759","addr":"경기도 오산시 세교동 587번지 행복주택 504동 201호","indutype":"보건위생 - 의료용품","category":"beauty"},{"name":"정헤어","tel":"031-372-3829","addr":"경기도 오산시 세교동 587번지 행복주택 504동 206호","indutype":"보건위생 - 미용원","category":"beauty"}]},{"lat":"37.183494067","long":"127.04395247","imageIndex":13,"items":[{"name":"모드니 네일","tel":"031-0000-0000","addr":"경기도 오산시 세교동 609-1번지 102호","indutype":"보건위생 - 피부미용실","category":"beauty"}]},{"lat":"37.18266514","long":"127.04386193","imageIndex":13,"items":[{"name":"백옥생세교점","tel":"031-221-2793","addr":"경기도 오산시 세교동 612-7번지 1층","indutype":"보건위생 - 화장품","category":"beauty"}]},{"lat":"37.186134815","long":"127.04189298","imageIndex":13,"items":[{"name":"블루","tel":"031-373-6580","addr":"경기도 오산시 세교동 600-3번지 세마타워 502호","indutype":"보건위생 - 화장품","category":"beauty"},{"name":"용운미장","tel":"031-372-4003","addr":"경기도 오산시 세교동 600-3번지 세마타워 1층 107호","indutype":"보건위생 - 미용원","category":"beauty"}]},{"lat":"37.18594554","long":"127.04206181","imageIndex":13,"items":[{"name":"비즈헤어","tel":"031-000-0000","addr":"경기도 오산시 세교동 600-4번지 오산세교CL타워 127호","indutype":"보건위생 - 미용원","category":"beauty"},{"name":"악마손톱","tel":"031-000-0000","addr":"경기도 오산시 세교동 600-4번지 오산세교CL타워 1층 121호","indutype":"보건위생 - 피부미용실","category":"beauty"}]},{"lat":"37.183052892","long":"127.04297249","imageIndex":13,"items":[{"name":"스물로","tel":"070-4110-3134","addr":"경기도 오산시 세교동 611-5번지 상가 102호 상가좌측","indutype":"보건위생 - 피부미용실","category":"beauty"},{"name":"제이비헤어앤메이크업","tel":"031-373-6442","addr":"경기도 오산시 세교동 611-5번지 1층","indutype":"보건위생 - 미용원","category":"beauty"}]},{"lat":"37.182863338","long":"127.04395212","imageIndex":13,"items":[{"name":"오블리비아테","tel":"031-373-6894","addr":"경기도 오산시 세교동 612-5번지 1층","indutype":"보건위생 - 미용원","category":"beauty"}]},{"lat":"37.185324372","long":"127.04036097","imageIndex":13,"items":[{"name":"올리브헤어","tel":"031-372-4889","addr":"경기도 오산시 세교동 622번지 잔다리마을상가 102호 우측","indutype":"보건위생 - 미용원","category":"beauty"},{"name":"헤어락","tel":"031-375-1833","addr":"경기도 오산시 세교동 622번지 잔다리마을","indutype":"보건위생 - 미용원","category":"beauty"}]},{"lat":"37.184052764","long":"127.04380637","imageIndex":13,"items":[{"name":"잇(it)샵","tel":"070-4140-6674","addr":"경기도 오산시 세교동 606-5번지 102호","indutype":"보건위생 - 피부미용실","category":"beauty"},{"name":"잇샵","tel":"070-4140-6674","addr":"경기도 오산시 세교동 606-5번지 103호","indutype":"보건위생 - 피부미용실","category":"beauty"}]},{"lat":"37.183971466","long":"127.04439192","imageIndex":13,"items":[{"name":"주식회사 그린에비뉴","tel":"070-4255-7287","addr":"경기도 오산시 세교동 607-7번지 향기빌 101호","indutype":"보건위생 - 화장품","category":"beauty"}]},{"lat":"37.183197067","long":"127.04295004","imageIndex":13,"items":[{"name":"하루헤어","tel":"070-4132-1155","addr":"경기도 오산시 세교동 611-4번지","indutype":"보건위생 - 미용원","category":"beauty"}]},{"lat":"37.183025631","long":"127.04364815","imageIndex":13,"items":[{"name":"할리데이","tel":"031-362-6006","addr":"경기도 오산시 세교동 610-3번지 102호","indutype":"보건위생 - 피부미용실","category":"beauty"}]},{"lat":"37.187161946","long":"127.04206244","imageIndex":13,"items":[{"name":"핸아트살롱","tel":"","addr":"경기도 오산시 세교동 598-3번지 세교테라스뷰 107호","indutype":"보건위생 - 화장품","category":"beauty"}]},{"lat":"37.183358805","long":"127.04425645","imageIndex":13,"items":[{"name":"힐링문화센터","tel":"031-376-3940","addr":"경기도 오산시 세교동 609-4번지","indutype":"보건위생 - 피부미용실","category":"beauty"}]}]