[{"lat":"37.577260894","long":"127.1932809","imageIndex":0,"items":[{"name":"A모터","tel":"031-792-0339","addr":"경기도 하남시 망월동 320-2","indutype":"자동차정비 유지 - 자동차부품","category":"car"}]},{"lat":"37.576346338","long":"127.19050509","imageIndex":0,"items":[{"name":"GT GLASS(지티글라스)","tel":"031-793-6282","addr":"경기도 하남시 망월동 853-2번지 103호","indutype":"자동차정비 유지 - 자동차부품","category":"car"}]},{"lat":"37.575313193","long":"127.1942608","imageIndex":0,"items":[{"name":"구산 세차장","tel":"031-792-0902","addr":"경기도 하남시 망월동 835번지","indutype":"자동차정비 유지 - 세차장","category":"car"}]},{"lat":"37.569704463","long":"127.18581356","imageIndex":0,"items":[{"name":"구산프라자관리단","tel":"070-5167-2386","addr":"경기도 하남시 망월동 974번지 A+구산프라자","indutype":"자동차정비 유지 - 주차장","category":"car"}]},{"lat":"37.561451173","long":"127.19172404","imageIndex":0,"items":[{"name":"덕인자산관리 (주)미사지점","tel":"031-111-1111","addr":"경기도 하남시 망월동 1111번지 지하1층","indutype":"자동차정비 유지 - 주차장","category":"car"}]},{"lat":"37.559371451","long":"127.20175764","imageIndex":0,"items":[{"name":"덱스크루 하남점","tel":"031-792-2533","addr":"경기도 하남시 망월동 1203-2번지 1층","indutype":"자동차정비 유지 - 자동차부품","category":"car"}]},{"lat":"37.561425859","long":"127.19064876","imageIndex":0,"items":[{"name":"동림건설(주)","tel":"031-793-7570","addr":"경기도 하남시 망월동 1104번지 강변신성프라자 302호","indutype":"자동차정비 유지 - 주차장","category":"car"}]},{"lat":"37.575533999","long":"127.19141999","imageIndex":0,"items":[{"name":"두남자스팀","tel":"","addr":"경기도 하남시 망월동 864-3번지 1층 101호","indutype":"자동차정비 유지 - 세차장","category":"car"}]},{"lat":"37.569511999","long":"127.1935668","imageIndex":0,"items":[{"name":"러스터","tel":"031-794-4458","addr":"경기도 하남시 망월동 930-5번지","indutype":"자동차정비 유지 - 자동차부품","category":"car"}]},{"lat":"37.570119561","long":"127.18539575","imageIndex":0,"items":[{"name":"레브","tel":"031-791-0703","addr":"경기도 하남시 망월동 963번지","indutype":"자동차정비 유지 - 주차장","category":"car"}]},{"lat":"37.569007854","long":"127.19331649","imageIndex":0,"items":[{"name":"리커버리(RECOVERY)","tel":"031-795-4527","addr":"경기도 하남시 망월동 922-1번지 1층 일부 101호","indutype":"자동차정비 유지 - 카인테리어","category":"car"}]},{"lat":"37.568952954","long":"127.19383703","imageIndex":0,"items":[{"name":"멜로니아","tel":"031-528-6263","addr":"경기도 하남시 망월동 924-3번지","indutype":"자동차정비 유지 - 자동차부품","category":"car"}]},{"lat":"37.568620123","long":"127.19350793","imageIndex":0,"items":[{"name":"모비원","tel":"031-528-6263","addr":"경기도 하남시 망월동 920번지 1층 104호","indutype":"자동차정비 유지 - 자동차부품","category":"car"}]},{"lat":"37.568844434","long":"127.19408578","imageIndex":0,"items":[{"name":"모터엑스 하남미사직영점","tel":"","addr":"경기도 하남시 망월동 920-4번지 101호, 102호","indutype":"자동차정비 유지 - 카인테리어","category":"car"}]},{"lat":"37.567874096","long":"127.18081738","imageIndex":0,"items":[{"name":"미사강변5단지아파트입주자대표회의","tel":"031-796-1496","addr":"경기도 하남시 망월동 1034번지 미사강변루나리움","indutype":"자동차정비 유지 - 주차장","category":"car"}]},{"lat":"37.568562021","long":"127.18464489","imageIndex":0,"items":[{"name":"미사센트럴프라자관리단","tel":"031-793-8898","addr":"경기도 하남시 망월동 968-1번지 미사센트럴프라자","indutype":"자동차정비 유지 - 주차장","category":"car"}]},{"lat":"37.569678763","long":"127.18495323","imageIndex":0,"items":[{"name":"미사원프라자관리단","tel":"031-791-7086","addr":"경기도 하남시 망월동 970-1번지 미사원프라자","indutype":"자동차정비 유지 - 주차장","category":"car"}]},{"lat":"37.569841845","long":"127.18436502","imageIndex":0,"items":[{"name":"송하프라자관리단","tel":"070-5165-7133","addr":"경기도 하남시 망월동 962-1번지 송하빌딩","indutype":"자동차정비 유지 - 주차장","category":"car"}]},{"lat":"37.575257216","long":"127.18983447","imageIndex":0,"items":[{"name":"스팀보이 하남미사점","tel":"031-796-1002","addr":"경기도 하남시 망월동 843-5번지 1층 101호","indutype":"자동차정비 유지 - 세차장","category":"car"}]},{"lat":"37.569537213","long":"127.18325499","imageIndex":0,"items":[{"name":"원더스위트 주차빌딩","tel":"070-4247-1298","addr":"경기도 하남시 망월동 990번지 ,2,3층","indutype":"자동차정비 유지 - 주차장","category":"car"}]},{"lat":"37.569458178","long":"127.19341951","imageIndex":0,"items":[{"name":"이팀장오토미션","tel":"031-8028-0577","addr":"경기도 하남시 망월동 930-6번지 1층","indutype":"자동차정비 유지 - 자동차부품","category":"car"}]},{"lat":"37.566289528","long":"127.18595235","imageIndex":0,"items":[{"name":"주식회사 씨앤제이오토모티브","tel":"02-778-4169","addr":"경기도 하남시 망월동 575-1번지","indutype":"자동차정비 유지 - 자동차시트·타이어","category":"car"},{"name":"찬찬모터스","tel":"031-795-4305","addr":"경기도 하남시 망월동 575-1번지","indutype":"자동차정비 유지 - 세차장","category":"car"}]},{"lat":"37.569125072","long":"127.19326019","imageIndex":0,"items":[{"name":"주식회사 피앤씨위드","tel":"","addr":"경기도 하남시 망월동 922번지 1층","indutype":"자동차정비 유지 - 카인테리어","category":"car"}]},{"lat":"37.564839612","long":"127.19125722","imageIndex":0,"items":[{"name":"총각네 출장 손세차","tel":"","addr":"경기도 하남시 망월동 1096-1번지 미사푸르지오시티 B동 4층 411호","indutype":"자동차정비 유지 - 세차장","category":"car"}]},{"lat":"37.569096304","long":"127.19433544","imageIndex":0,"items":[{"name":"카스페이스","tel":"031-974-9932","addr":"경기도 하남시 망월동 926-3번지 몬테오로 101호","indutype":"자동차정비 유지 - 카인테리어","category":"car"}]},{"lat":"37.575312062","long":"127.18933652","imageIndex":0,"items":[{"name":"카앤덴트 미사점","tel":"031-8028-0812","addr":"경기도 하남시 망월동 843-2번지 1층","indutype":"자동차정비 유지 - 카인테리어","category":"car"}]},{"lat":"37.573983776","long":"127.19175568","imageIndex":0,"items":[{"name":"카앤피플 강동구2","tel":"","addr":"경기도 하남시 망월동 904번지 미사강변한신휴플러스 1102동 904호","indutype":"자동차정비 유지 - 세차장","category":"car"}]},{"lat":"37.570700992","long":"127.18226168","imageIndex":0,"items":[{"name":"코코오일","tel":"031-792-4975","addr":"경기도 하남시 망월동 1010-4번지 1층","indutype":"자동차정비 유지 - 윤활유 전문 판매","category":"car"}]},{"lat":"37.566284321","long":"127.18928006","imageIndex":0,"items":[{"name":"태광상사","tel":"031-795-7860","addr":"경기도 하남시 망월동 179-3","indutype":"자동차정비 유지 - 자동차부품","category":"car"}]},{"lat":"37.569457135","long":"127.19406471","imageIndex":0,"items":[{"name":"투엑스원(하남점)","tel":"","addr":"경기도 하남시 망월동 926번지 1층 101호","indutype":"자동차정비 유지 - 세차장","category":"car"}]},{"lat":"37.560562245","long":"127.20086669","imageIndex":0,"items":[{"name":"프리미엄 카 스파","tel":"031-791-0456","addr":"경기도 하남시 망월동 1192-3번지 1층","indutype":"자동차정비 유지 - 세차장","category":"car"}]},{"lat":"37.569067379","long":"127.19550125","imageIndex":0,"items":[{"name":"한강자동차공업사","tel":"031-495-6903","addr":"경기도 하남시 망월동 236-3","indutype":"자동차정비 유지 - 자동차정비","category":"car"}]},{"lat":"37.569122525","long":"127.19483356","imageIndex":0,"items":[{"name":"한강타워","tel":"031-796-8200","addr":"경기도 하남시 망월동 927번지 한강타워 3층 301호","indutype":"자동차정비 유지 - 주차장","category":"car"}]}]