[{"lat":"36.992165023","long":"127.1389157","imageIndex":8,"items":[{"name":"광동약국","tel":"070-7782-7575","addr":"경기도 안성시 공도읍 진사리 20-29번지 광동아이비타운 B동 103호","indutype":"약국 - 약국","category":"medical"}]},{"lat":"36.992832353","long":"127.13844509","imageIndex":8,"items":[{"name":"삼성키즈소아청소년과의원","tel":"031-692-7500","addr":"경기도 안성시 공도읍 진사리 20-28번지 광동아이비타운 A동 203호","indutype":"의원 - 의원","category":"medical"},{"name":"솔한의원","tel":"031-937-8575","addr":"경기도 안성시 공도읍 진사리 20-28번지 302호","indutype":"의원 - 한의원","category":"medical"},{"name":"튼튼약국","tel":"070-4129-5081","addr":"경기도 안성시 공도읍 진사리 20-28번지 광동아이비 상가 A동 2층","indutype":"약국 - 약국","category":"medical"}]},{"lat":"36.992633514","long":"127.1389727","imageIndex":8,"items":[{"name":"자연한의원","tel":"031-655-3657","addr":"경기도 안성시 공도읍 진사리 20-40번지 201호","indutype":"의원 - 한의원","category":"medical"}]},{"lat":"36.993409957","long":"127.13763731","imageIndex":8,"items":[{"name":"정다운치과의원","tel":"031-655-2758","addr":"경기도 안성시 공도읍 진사리 22-8번지 태지빌딩 3층 302호","indutype":"의원 - 치과의원","category":"medical"},{"name":"코아이비인후과","tel":"031-692-8276","addr":"경기도 안성시 공도읍 진사리 22-8번지 태지빌딩 2층","indutype":"의원 - 의원","category":"medical"},{"name":"파란약국","tel":"031-657-4670","addr":"경기도 안성시 공도읍 진사리 22-8번지","indutype":"약국 - 약국","category":"medical"}]},{"lat":"36.994188372","long":"127.14241291","imageIndex":8,"items":[{"name":"주하약국","tel":"031-658-2839","addr":"경기도 안성시 공도읍 진사리 13-9번지 101호","indutype":"약국 - 약국","category":"medical"}]},{"lat":"36.992355197","long":"127.13808478","imageIndex":8,"items":[{"name":"한국한의원","tel":"031-653-1075","addr":"경기도 안성시 공도읍 진사리 20-19번지 3층","indutype":"의원 - 한의원","category":"medical"}]},{"lat":"36.991522236","long":"127.14153186","imageIndex":8,"items":[{"name":"해맑은치과","tel":"031-652-7522","addr":"경기도 안성시 공도읍 진사리 348-8번지 207호","indutype":"의원 - 치과의원","category":"medical"}]},{"lat":"36.994386699","long":"127.14233464","imageIndex":8,"items":[{"name":"허리편한병원","tel":"031-656-2110","addr":"경기도 안성시 공도읍 진사리 13번지","indutype":"의원 - 의원","category":"medical"}]}]