[{"lat":"37.324028361","long":"126.78760303","imageIndex":16,"items":[{"name":"JY국제뷰티아카데미학원","tel":"031-495-8286","addr":"경기도 안산시 단원구 원곡동 994-5번지 유통상가 편익 A동 403호","indutype":"학원 - 기능학원","category":"study"}]},{"lat":"37.329029437","long":"126.79799179","imageIndex":16,"items":[{"name":"가온국어전문학원","tel":"031-364-8114","addr":"경기도 안산시 단원구 원곡동 822-3번지 401호","indutype":"학원 - 보습학원","category":"study"},{"name":"가우스수학전문학원","tel":"031-508-0100","addr":"경기도 안산시 단원구 원곡동 822-3 3,4층","indutype":"회원제형태 - 학원","category":"study"}]},{"lat":"37.330476006","long":"126.80086511","imageIndex":16,"items":[{"name":"가온누리셀파우등생교실","tel":"","addr":"경기도 안산시 단원구 원곡동 937번지 안산8차푸르지오 802동 102호","indutype":"학원 - 기타 교육기관","category":"study"}]},{"lat":"37.329313601","long":"126.79052157","imageIndex":16,"items":[{"name":"경기도교육청등록평생교육시설안산용신학교","tel":"031-494-0675","addr":"경기도 안산시 단원구 원곡동 795번지","indutype":"학원 - 기타 교육기관","category":"study"}]},{"lat":"37.328895042","long":"126.80371268","imageIndex":16,"items":[{"name":"경남어린이집[아이행복]","tel":"031-503-8557","addr":"경기도 안산시 단원구 원곡동 938번지 경남아너스빌복지시설내","indutype":"학원 - 유아원","category":"study"}]},{"lat":"37.328175254","long":"126.80432386","imageIndex":16,"items":[{"name":"경남초록별어린이집[아이행복]","tel":"031-403-1912","addr":"경기도 안산시 단원구 원곡동 938번지 경남아너스빌 101동 101호","indutype":"학원 - 유아원","category":"study"}]},{"lat":"37.32764025","long":"126.80230563","imageIndex":16,"items":[{"name":"경희엄지YG효자태권도","tel":"031-485-9695","addr":"경기도 안산시 단원구 원곡동 846-4번지 베스트프라자 303호","indutype":"학원 - 예·체능계학원","category":"study"},{"name":"그린엔젤음악학원","tel":"031-401-7655","addr":"경기도 안산시 단원구 원곡동 846-4번지 베스트플라자 601-1호","indutype":"학원 - 예·체능계학원","category":"study"},{"name":"에듀메카마스터학원","tel":"031-493-7297","addr":"경기도 안산시 단원구 원곡동 846-4번지 베스트프라자 602동 603호","indutype":"회원제형태 - 학원","category":"study"},{"name":"에듀메카마스터학원","tel":"031-403-0205","addr":"경기도 안산시 단원구 원곡동 846-4번지 베스트프라자 602호","indutype":"학원 - 외국어학원","category":"study"},{"name":"집중력독서실","tel":"031-414-5909","addr":"경기도 안산시 단원구 원곡동 846-4번지 베스트프라자 605호","indutype":"학원 - 독서실","category":"study"},{"name":"탑영수전문학원","tel":"031-495-0070","addr":"경기도 안산시 단원구 원곡동 846-4번지 베스트플라자 3층 306호","indutype":"학원 - 보습학원","category":"study"},{"name":"효자엄지태권도","tel":"031-485-9695","addr":"경기도 안산시 단원구 원곡동 846-4번지 베스트프라자 305호","indutype":"학원 - 예·체능계학원","category":"study"}]},{"lat":"37.329513727","long":"126.8019283","imageIndex":16,"items":[{"name":"곤지곤지어린이집[아이행복]","tel":"031-411-8442","addr":"경기도 안산시 단원구 원곡동 937번지 안산8차푸르지오 811동 106호","indutype":"학원 - 유아원","category":"study"}]},{"lat":"37.33436322","long":"126.79785318","imageIndex":16,"items":[{"name":"관산중학교","tel":"031-487-8095","addr":"경기도 안산시 단원구 원곡동 965번지 관산중학교","indutype":"학원 - 초중고교육기관","category":"study"}]},{"lat":"37.329556388","long":"126.79025009","imageIndex":16,"items":[{"name":"국가대표F4전문평생교육시설(오성기술전문","tel":"031-508-3456","addr":"경기도 안산시 단원구 원곡동 789-1번지 3층","indutype":"학원 - 기타 교육기관","category":"study"}]},{"lat":"37.329588982","long":"126.79852058","imageIndex":16,"items":[{"name":"그린오투독서실","tel":"031-419-2738","addr":"경기도 안산시 단원구 원곡동 826-12번지 3층","indutype":"학원 - 독서실","category":"study"},{"name":"그린오투독서실","tel":"031-419-2738","addr":"경기도 안산시 단원구 원곡동 826-12번지 3층","indutype":"학원 - 독서실","category":"study"}]},{"lat":"37.328390206","long":"126.79313055","imageIndex":16,"items":[{"name":"근로복지공단안산어린이집[아이행복]","tel":"031-491-4210","addr":"경기도 안산시 단원구 원곡동 805-1번지 근로복지공단어린이집","indutype":"학원 - 유아원","category":"study"}]},{"lat":"37.328192213","long":"126.80369197","imageIndex":16,"items":[{"name":"꿈의천사어린이집[아이행복]","tel":"031-403-5242","addr":"경기도 안산시 단원구 원곡동 938번지 경남아너스빌 112동 103호","indutype":"학원 - 유아원","category":"study"}]},{"lat":"37.328659255","long":"126.80281066","imageIndex":16,"items":[{"name":"꿈초롱빛초롱어린이집[아이행복]","tel":"031-504-9897","addr":"경기도 안산시 단원구 원곡동 938번지 경남아너스빌 110동 104호","indutype":"학원 - 유아원","category":"study"},{"name":"아기사랑어린이집[아이행복]","tel":"031-480-3234","addr":"경기도 안산시 단원구 원곡동 938번지 경남아너스빌 110동 101호","indutype":"학원 - 유아원","category":"study"}]},{"lat":"37.330035778","long":"126.80161098","imageIndex":16,"items":[{"name":"대우푸르니어린이집[아이행복]","tel":"031-298-9387","addr":"경기도 안산시 단원구 원곡동 937번지 안산8차푸르지오","indutype":"학원 - 유아원","category":"study"},{"name":"생각하는교육백운캠퍼스학원","tel":"031-413-1213","addr":"경기도 안산시 단원구 원곡동 937번지 2층 202~204호","indutype":"학원 - 보습학원","category":"study"},{"name":"용인대타이거즈태권도장","tel":"031-402-8222","addr":"경기도 안산시 단원구 원곡동 937번지 202,203,204호","indutype":"학원 - 예·체능계학원","category":"study"}]},{"lat":"37.335055696","long":"126.79198361","imageIndex":16,"items":[{"name":"란쌤중국어","tel":"070-7728-2009","addr":"경기도 안산시 단원구 원곡동 959-5번지 비에스빌 다동 301호","indutype":"학원 - 기타 교육기관","category":"study"}]},{"lat":"37.328278974","long":"126.80171721","imageIndex":16,"items":[{"name":"메이커스","tel":"031-405-4637","addr":"경기도 안산시 단원구 원곡동 846번지 보성프라자 205호","indutype":"학원 - 기타 교육기관","category":"study"},{"name":"상승합기도","tel":"031-487-2766","addr":"경기도 안산시 단원구 원곡동 846번지 보성프라자 4층 402,403호","indutype":"학원 - 예·체능계학원","category":"study"},{"name":"천인합기도","tel":"031-487-2766","addr":"경기도 안산시 단원구 원곡동 846번지 보성프라자 402호","indutype":"학원 - 예·체능계학원","category":"study"}]},{"lat":"37.327469254","long":"126.79717237","imageIndex":16,"items":[{"name":"미소사랑어린이집[아이행복]","tel":"031-493-1253","addr":"경기도 안산시 단원구 원곡동 830번지 범신연립 가동 105호","indutype":"학원 - 유아원","category":"study"}]},{"lat":"37.329119694","long":"126.79808181","imageIndex":16,"items":[{"name":"박진영피아노전문학원","tel":"031-494-7508","addr":"경기도 안산시 단원구 원곡동 822-2번지 전체 2층","indutype":"학원 - 예·체능계학원","category":"study"},{"name":"에이치이씨영어학원","tel":"031-413-7824","addr":"경기도 안산시 단원구 원곡동 822-2번지 서울빌딩 4층","indutype":"회원제형태 - 학원","category":"study"},{"name":"엠케이수학전문학원","tel":"031-491-3770","addr":"경기도 안산시 단원구 원곡동 822-2번지 서울빌딩 3층","indutype":"회원제형태 - 학원","category":"study"}]},{"lat":"37.3274745491","long":"126.8002413017","imageIndex":16,"items":[{"name":"반석학원","tel":"031-411-5138","addr":"경기도 안산시 단원구 원곡동 828-6번지","indutype":"교육서비스업 - 보습학원","category":"study"},{"name":"쎈수학러닝센터비상잉글리시아이원곡학원","tel":"031-508-0100","addr":"경기도 안산시 단원구 원곡동 828-6번지","indutype":"교육서비스업 - 학원","category":"study"}]},{"lat":"37.329200981","long":"126.79819442","imageIndex":16,"items":[{"name":"백운영어수학학원","tel":"031-508-0107","addr":"경기도 안산시 단원구 원곡동 822-1번지 2층","indutype":"학원 - 보습학원","category":"study"},{"name":"엠케이수학이씨엔영어학원","tel":"031-491-3770","addr":"경기도 안산시 단원구 원곡동 822-1번지 3층 301호","indutype":"학원 - 보습학원","category":"study"},{"name":"이근재수학학원","tel":"031-401-8791","addr":"경기도 안산시 단원구 원곡동 822-1번지 4층","indutype":"학원 - 보습학원","category":"study"},{"name":"태풍고등부수학전문학원","tel":"031-495-0978","addr":"경기도 안산시 단원구 원곡동 822-1번지 201호","indutype":"회원제형태 - 학원","category":"study"}]},{"lat":"37.327474549","long":"126.8002413","imageIndex":16,"items":[{"name":"빼어날수학교습소","tel":"070-8845-2048","addr":"경기도 안산시 단원구 원곡동 828-6번지 벽산블루밍상가407-1","indutype":"회원제형태 - 학원","category":"study"},{"name":"윤선생아이지에스이(IGSE)원곡학원","tel":"031-494-0579","addr":"경기도 안산시 단원구 원곡동 828-6번지 벽산블루밍상가 412 413","indutype":"학원 - 보습학원","category":"study"}]},{"lat":"37.3281730127","long":"126.8029924731","imageIndex":16,"items":[{"name":"상승학원","tel":"031-402-7891","addr":"경기도 안산시 단원구 원곡동 938-1번지","indutype":"교육서비스업 - 보습학원,서적","category":"study"},{"name":"아뜰리에미술학원","tel":"031-484-0219","addr":"경기도 안산시 단원구 원곡동 938-1번지","indutype":"교육서비스업 - 미술학원","category":"study"},{"name":"엘리트지지이영어학원","tel":"031-491-9661","addr":"경기도 안산시 단원구 원곡동 938-1번지","indutype":"교육서비스업 - 영어학원","category":"study"},{"name":"케이투컴퓨터학원","tel":"031-495-9904","addr":"경기도 안산시 단원구 원곡동 938-1번지","indutype":"교육서비스업 - 컴퓨터학원","category":"study"},{"name":"클랑음악학원","tel":"031-484-0209","addr":"경기도 안산시 단원구 원곡동 938-1번지","indutype":"교육서비스업 - 음악학원","category":"study"}]},{"lat":"37.328173013","long":"126.80299247","imageIndex":16,"items":[{"name":"상승학원","tel":"031-402-7891","addr":"경기도 안산시 단원구 원곡동 938-1번지 4층 402호","indutype":"학원 - 보습학원","category":"study"},{"name":"아뜰리에미술학원","tel":"031-484-0219","addr":"경기도 안산시 단원구 원곡동 938-1번지 301호","indutype":"학원 - 예·체능계학원","category":"study"},{"name":"엘리트지지이영어전문학원","tel":"031-402-0566","addr":"경기도 안산시 단원구 원곡동 938-1번지 군자빌딩 201호","indutype":"회원제형태 - 학원","category":"study"},{"name":"용인대백호태권도","tel":"031-402-1486","addr":"경기도 안산시 단원구 원곡동 938-1번지 4층","indutype":"학원 - 예·체능계학원","category":"study"},{"name":"케이투컴퓨터학원","tel":"031-495-9904","addr":"경기도 안산시 단원구 원곡동 938-1번지 202호","indutype":"회원제형태 - 학원","category":"study"},{"name":"클랑음악학원","tel":"031-484-0209","addr":"경기도 안산시 단원구 원곡동 938-1번지 302호","indutype":"학원 - 예·체능계학원","category":"study"}]},{"lat":"37.329945369","long":"126.80143069","imageIndex":16,"items":[{"name":"숲속아이어린이집[아이행복]","tel":"031-475-7935","addr":"경기도 안산시 단원구 원곡동 937번지 안산8차푸르지오 807동 103호","indutype":"학원 - 유아원","category":"study"}]},{"lat":"37.329198513","long":"126.79677275","imageIndex":16,"items":[{"name":"스타체육관","tel":"031-495-1170","addr":"경기도 안산시 단원구 원곡동 779-24번지","indutype":"학원 - 예·체능계학원","category":"study"}]},{"lat":"37.332416196","long":"126.80263144","imageIndex":16,"items":[{"name":"시립대덕어린이집[아이행복]","tel":"031-491-1292","addr":"경기도 안산시 단원구 원곡동 936-6번지","indutype":"학원 - 유아원","category":"study"}]},{"lat":"37.331724814","long":"126.79360647","imageIndex":16,"items":[{"name":"신라고시원","tel":"031-483-3060","addr":"경기도 안산시 단원구 원곡동 750-7번지","indutype":"학원 - 독서실","category":"study"}]},{"lat":"37.331504497","long":"126.79641666","imageIndex":16,"items":[{"name":"안산미용학원","tel":"031-495-2727","addr":"경기도 안산시 단원구 원곡동 775번지 2층","indutype":"학원 - 기능학원","category":"study"}]},{"lat":"37.330944449","long":"126.79560579","imageIndex":16,"items":[{"name":"안산삼성어린이집[아이행복]","tel":"031-508-0084","addr":"경기도 안산시 단원구 원곡동 762-3번지","indutype":"학원 - 유아원","category":"study"}]},{"lat":"37.330978331","long":"126.79955489","imageIndex":16,"items":[{"name":"안산서초등학교","tel":"031-487-4548","addr":"경기도 안산시 단원구 원곡동 936-4번지 안산서초등학교","indutype":"학원 - 초중고교육기관","category":"study"}]},{"lat":"37.330611667","long":"126.79085642","imageIndex":16,"items":[{"name":"안산평생교육원","tel":"031-492-8786","addr":"경기도 안산시 단원구 원곡동 791-4번지 ,1-4층","indutype":"학원 - 기타 교육기관","category":"study"}]},{"lat":"37.330820599","long":"126.80216177","imageIndex":16,"items":[{"name":"앙팡어린이집[아이행복]","tel":"031-494-5952","addr":"경기도 안산시 단원구 원곡동 937번지 안산8차푸르지오 804동104호","indutype":"학원 - 유아원","category":"study"}]},{"lat":"37.3276402497","long":"126.8023056274","imageIndex":16,"items":[{"name":"에듀메카마스터학원","tel":"031-403-0205","addr":"경기도 안산시 단원구 원곡동 846-4번지","indutype":"교육서비스업 - 학원","category":"study"}]},{"lat":"37.329811005","long":"126.79665824","imageIndex":16,"items":[{"name":"에이엠에이음악학원","tel":"031-403-1616","addr":"경기도 안산시 단원구 원곡동 778-8번지 문화빌딩 2층","indutype":"학원 - 예·체능계학원","category":"study"}]},{"lat":"37.330171568","long":"126.79674753","imageIndex":16,"items":[{"name":"엘큐치 중국어","tel":"","addr":"경기도 안산시 단원구 원곡동 776-9번지 301호","indutype":"학원 - 기타 교육기관","category":"study"}]},{"lat":"37.330283833","long":"126.79913928","imageIndex":16,"items":[{"name":"영어1년안에끝내드립니다학원","tel":"031-494-0599","addr":"경기도 안산시 단원구 원곡동 827-2번지 301호","indutype":"학원 - 외국어학원","category":"study"},{"name":"유레카영재학원","tel":"031-491-8585","addr":"경기도 안산시 단원구 원곡동 827-2번지 2,3층","indutype":"회원제형태 - 학원","category":"study"},{"name":"제이엠고등수학전문학원","tel":"031-411-6454","addr":"경기도 안산시 단원구 원곡동 827-2번지 4층","indutype":"학원 - 보습학원","category":"study"},{"name":"퍼스트영어수학학원","tel":"031-000-0000","addr":"경기도 안산시 단원구 원곡동 827-2번지 4층","indutype":"학원 - 보습학원","category":"study"}]},{"lat":"37.3300357780","long":"126.8016109807","imageIndex":16,"items":[{"name":"예쁜소리음악학원","tel":"031-509-7272","addr":"경기도 안산시 단원구 원곡동 937번지 안산8차푸르지오","indutype":"교육서비스업 - 음악학원","category":"study"}]},{"lat":"37.330364768","long":"126.79904879","imageIndex":16,"items":[{"name":"예솔어린이집[아이행복]","tel":"031-492-2168","addr":"경기도 안산시 단원구 원곡동 827-1번지 예솔어린이집","indutype":"학원 - 유아원","category":"study"}]},{"lat":"37.329145494","long":"126.79224836","imageIndex":16,"items":[{"name":"우리고시원","tel":"031-491-9192","addr":"경기도 안산시 단원구 원곡동 800-20번지","indutype":"학원 - 독서실","category":"study"}]},{"lat":"37.332452211","long":"126.79736189","imageIndex":16,"items":[{"name":"우리고시텔","tel":"031-493-0071","addr":"경기도 안산시 단원구 원곡동 765-1","indutype":"학원 - 독서실","category":"study"}]},{"lat":"37.33308339","long":"126.79763098","imageIndex":16,"items":[{"name":"원곡고등학교","tel":"031-8085-0009","addr":"경기도 안산시 단원구 원곡동 965-1번지 원곡고등학교","indutype":"학원 - 초중고교육기관","category":"study"},{"name":"원곡고등학교_수업료","tel":"031-8085-0009","addr":"경기도 안산시 단원구 원곡동 965-1번지 원곡고등학교","indutype":"학원 - 초중고교육기관","category":"study"}]},{"lat":"37.331448946","long":"126.80077223","imageIndex":16,"items":[{"name":"원곡중학교","tel":"031-599-9613","addr":"경기도 안산시 단원구 원곡동 936-1번지 원곡중학교","indutype":"학원 - 초중고교육기관","category":"study"}]},{"lat":"37.329034735","long":"126.79585927","imageIndex":16,"items":[{"name":"원곡초등학교","tel":"031-487-2856","addr":"경기도 안산시 단원구 원곡동 821번지 안산원곡초등학교","indutype":"학원 - 초중고교육기관","category":"study"}]},{"lat":"37.3285005243","long":"126.7995502816","imageIndex":16,"items":[{"name":"음악나라음악학원","tel":"031-410-3994","addr":"경기도 안산시 단원구 원곡동 828-5번지 벽산블루밍아파트","indutype":"교육서비스업 - 음악학원","category":"study"}]},{"lat":"37.3298415580","long":"126.7986891424","imageIndex":16,"items":[{"name":"이엠에스최상어학원","tel":"031-508-0582","addr":"경기도 안산시 단원구 원곡동 826-10번지","indutype":"교육서비스업 - 학원,서적","category":"study"}]},{"lat":"37.329841558","long":"126.79868914","imageIndex":16,"items":[{"name":"이엠에스최상어학원","tel":"","addr":"경기도 안산시 단원구 원곡동 826-10번지 2층,3층","indutype":"회원제형태 - 학원","category":"study"}]},{"lat":"37.327115378","long":"126.80096437","imageIndex":16,"items":[{"name":"자격증왕평생교육시설","tel":"031-402-4118","addr":"경기도 안산시 단원구 원곡동 846-3번지 303,304호","indutype":"학원 - 기타 교육기관","category":"study"}]},{"lat":"37.328452025","long":"126.79755332","imageIndex":16,"items":[{"name":"제이엠수학전문학원","tel":"031-411-6454","addr":"경기도 안산시 단원구 원곡동 779-16번지 이용주산부인과의원 4층 9호","indutype":"회원제형태 - 학원","category":"study"},{"name":"진수학전문학원","tel":"031-411-6454","addr":"경기도 안산시 단원구 원곡동 779-16번지 3층,4층","indutype":"학원 - 보습학원","category":"study"}]},{"lat":"37.330841482","long":"126.7934171","imageIndex":16,"items":[{"name":"주식회사 안산중앙기술학원","tel":"031-401-1351","addr":"경기도 안산시 단원구 원곡동 755-3번지 3층","indutype":"회원제형태 - 학원","category":"study"}]},{"lat":"37.331170196","long":"126.79588726","imageIndex":16,"items":[{"name":"주식회사 안산중앙학원","tel":"031-504-3772","addr":"경기도 안산시 단원구 원곡동 762-1번지 201호","indutype":"회원제형태 - 학원","category":"study"}]},{"lat":"37.320731114","long":"126.7980256","imageIndex":16,"items":[{"name":"중소기업진흥공단 중소기업연수원","tel":"031-490-1214","addr":"경기도 안산시 단원구 원곡동 931번지 중소기업연수원","indutype":"학원 - 기타 교육기관","category":"study"},{"name":"중소벤처기업진흥공단","tel":"031-490-1214","addr":"경기도 안산시 단원구 원곡동 931번지 중소기업연수원 1층","indutype":"학원 - 기타 교육기관","category":"study"}]},{"lat":"37.32946448","long":"126.80478308","imageIndex":16,"items":[{"name":"키즈스마일어린이집[아이행복]","tel":"031-509-3545","addr":"경기도 안산시 단원구 원곡동 938번지 경남아너스빌 104동 105호","indutype":"학원 - 유아원","category":"study"},{"name":"키즈스마일어린이집[아이행복]","tel":"031-509-3545","addr":"경기도 안산시 단원구 원곡동 938번지 경남아너스빌 104동 105호","indutype":"학원 - 유아원","category":"study"}]},{"lat":"37.328894187","long":"126.79793574","imageIndex":16,"items":[{"name":"키즈아일랜드어린이집[아이행복]","tel":"031-492-1211","addr":"경기도 안산시 단원구 원곡동 822-4번지 1층","indutype":"학원 - 유아원","category":"study"}]},{"lat":"37.3268913160","long":"126.8016644992","imageIndex":16,"items":[{"name":"탑영수학원","tel":"","addr":"경기도 안산시 단원구 원곡동 846-6번지","indutype":"교육서비스업 - 일반교과학원","category":"study"}]},{"lat":"37.329010345","long":"126.8026292","imageIndex":16,"items":[{"name":"푸르지오윤정어린이집[아이행복]","tel":"031-411-6769","addr":"경기도 안산시 단원구 원곡동 938번지 경남아너스빌 109동 103호","indutype":"학원 - 유아원","category":"study"}]},{"lat":"37.329949913","long":"126.79882425","imageIndex":16,"items":[{"name":"풀앤풀아트미술교습소","tel":"031-411-4684","addr":"경기도 안산시 단원구 원곡동 826-9번지 1층 102호 일부","indutype":"학원 - 예·체능계학원","category":"study"},{"name":"풀앤풀학원","tel":"031-486-3605","addr":"경기도 안산시 단원구 원곡동 826-9번지 2층","indutype":"학원 - 보습학원","category":"study"}]},{"lat":"37.3299499132","long":"126.7988242481","imageIndex":16,"items":[{"name":"풀앤풀학원","tel":"031-486-3605","addr":"경기도 안산시 단원구 원곡동 826-9번지","indutype":"교육서비스업 - 교습,보습학원","category":"study"}]},{"lat":"37.327278901","long":"126.79651849","imageIndex":16,"items":[{"name":"하늘땅어린이집[아이행복]","tel":"031-493-7204","addr":"경기도 안산시 단원구 원곡동 820-4번지","indutype":"학원 - 유아원","category":"study"}]},{"lat":"37.337754718","long":"126.79479717","imageIndex":16,"items":[{"name":"한도병원어린이집[아이행복]","tel":"031-495-8062","addr":"경기도 안산시 단원구 원곡동 947번지 1층","indutype":"학원 - 유아원","category":"study"}]},{"lat":"37.329841675","long":"126.80404868","imageIndex":16,"items":[{"name":"한빛어린이집[아이행복]","tel":"031-401-9882","addr":"경기도 안산시 단원구 원곡동 938번지 경남아너스빌 106동 101호","indutype":"학원 - 유아원","category":"study"}]},{"lat":"37.327979554","long":"126.79022069","imageIndex":16,"items":[{"name":"한스미용학원","tel":"031-493-0938","addr":"경기도 안산시 단원구 원곡동 798-9번지 3층 일부","indutype":"학원 - 기능학원","category":"study"}]},{"lat":"37.330390476","long":"126.79313627","imageIndex":16,"items":[{"name":"합격왕평생교육원","tel":"031-492-8878","addr":"경기도 안산시 단원구 원곡동 755-6번지 3층","indutype":"학원 - 기능학원","category":"study"}]},{"lat":"37.329001055","long":"126.79721333","imageIndex":16,"items":[{"name":"해나무어린이집[아이행복]","tel":"031-492-0770","addr":"경기도 안산시 단원구 원곡동 779-10번지 1층","indutype":"학원 - 유아원","category":"study"},{"name":"해나무어린이집[아이행복]","tel":"031-494-8543","addr":"경기도 안산시 단원구 원곡동 779-10번지","indutype":"학원 - 유아원","category":"study"}]},{"lat":"37.328832824","long":"126.80422058","imageIndex":16,"items":[{"name":"해법수학","tel":"031-480-3871","addr":"경기도 안산시 단원구 원곡동 938번지 경남아너스빌 102동 1029호","indutype":"학원 - 기타 교육기관","category":"study"}]},{"lat":"37.330839613","long":"126.7974904","imageIndex":16,"items":[{"name":"해아어린이집[아이행복]","tel":"031-495-8410","addr":"경기도 안산시 단원구 원곡동 771-7번지","indutype":"학원 - 유아원","category":"study"}]}]