[{"lat":"37.687296771","long":"126.86434166","imageIndex":7,"items":[{"name":"21세기축산물백화점","tel":"031-963-9955","addr":"경기도 고양시 덕양구 관산동 226-1번지","indutype":"음료식품 - 정육점","category":"food"},{"name":"착한빵집","tel":"031-962-8887","addr":"경기도 고양시 덕양구 관산동 226-1번지","indutype":"음료식품 - 제과점","category":"food"}]},{"lat":"37.712212943","long":"126.86062081","imageIndex":7,"items":[{"name":"EDP고양장흥점","tel":"070-7425-4545","addr":"경기도 고양시 덕양구 관산동 576-2번지","indutype":"음료식품 - 기타음료식품","category":"food"}]},{"lat":"37.688378841","long":"126.86512192","imageIndex":7,"items":[{"name":"건강지킴이기름집","tel":"031-962-8147","addr":"경기도 고양시 덕양구 관산동 181-55번지","indutype":"음료식품 - 기타음료식품","category":"food"},{"name":"벽제떡건강지킴이방앗간","tel":"031-962-8147","addr":"경기도 고양시 덕양구 관산동 181-55번지","indutype":"음료식품 - 제과점","category":"food"}]},{"lat":"37.685847284","long":"126.86525131","imageIndex":7,"items":[{"name":"고양남양가정우유","tel":"031-966-6507","addr":"경기도 고양시 덕양구 관산동","indutype":"음료식품 - 기타음료식품","category":"food"}]},{"lat":"37.685567296","long":"126.86466231","imageIndex":7,"items":[{"name":"과일나라","tel":"070-4324-5080","addr":"경기도 고양시 덕양구 관산동 193-17번지 희망빌라","indutype":"음료식품 - 농·축·수산품","category":"food"}]},{"lat":"37.68621519","long":"126.86398089","imageIndex":7,"items":[{"name":"남도반찬","tel":"","addr":"경기도 고양시 덕양구 관산동 210번지 대도빌라","indutype":"음료식품 - 기타음료식품","category":"food"}]},{"lat":"37.688630061","long":"126.86422581","imageIndex":7,"items":[{"name":"대가떡집","tel":"031-964-1660","addr":"경기도 고양시 덕양구 관산동 231-4번지","indutype":"음료식품 - 제과점","category":"food"},{"name":"뽀글뽀글","tel":"001-0000-0000","addr":"경기도 고양시 덕양구 관산동 231-4번지","indutype":"음료식품 - 기타음료식품","category":"food"}]},{"lat":"37.688319904","long":"126.86870463","imageIndex":7,"items":[{"name":"대성우리농산","tel":"031-964-1532","addr":"경기도 고양시 덕양구 관산동 162-1번지","indutype":"음료식품 - 기타음료식품","category":"food"}]},{"lat":"37.687793216","long":"126.86512301","imageIndex":7,"items":[{"name":"뚜레쥬르 고양관산점","tel":"031-963-0453","addr":"경기도 고양시 덕양구 관산동 910-1번지","indutype":"음료식품 - 제과점","category":"food"}]},{"lat":"37.687461952","long":"126.86692623","imageIndex":7,"items":[{"name":"마이산건강원","tel":"031-963-6688","addr":"경기도 고양시 덕양구 관산동 178-29번지","indutype":"건강식품 - 기타건강식품","category":"food"}]},{"lat":"37.689125856","long":"126.86445163","imageIndex":7,"items":[{"name":"미소집","tel":"031-964-7672","addr":"경기도 고양시 덕양구 관산동 337번지","indutype":"음료식품 - 농·축·수산품","category":"food"}]},{"lat":"37.688324903","long":"126.86522406","imageIndex":7,"items":[{"name":"민속떡전문점","tel":"031-963-2425","addr":"경기도 고양시 덕양구 관산동 181-15번지","indutype":"음료식품 - 제과점","category":"food"}]},{"lat":"37.687766015","long":"126.86497567","imageIndex":7,"items":[{"name":"배스킨라빈스 고양관산점","tel":"031-963-3130","addr":"경기도 고양시 덕양구 관산동 182-2번지","indutype":"음료식품 - 제과점","category":"food"}]},{"lat":"37.688215004","long":"126.86370506","imageIndex":7,"items":[{"name":"벽제흑염소","tel":"031-962-8827","addr":"경기도 고양시 덕양구 관산동 231-16번지","indutype":"건강식품 - 기타건강식품","category":"food"}]},{"lat":"37.69027082","long":"126.86508441","imageIndex":7,"items":[{"name":"산야초건강원","tel":"031-962-1812","addr":"경기도 고양시 덕양구 관산동 113-2번지","indutype":"건강식품 - 기타건강식품","category":"food"}]},{"lat":"37.688099437","long":"126.86503174","imageIndex":7,"items":[{"name":"신흥상회","tel":"031-962-8086","addr":"경기도 고양시 덕양구 관산동 181-12번지","indutype":"음료식품 - 기타음료식품","category":"food"}]},{"lat":"37.690269984","long":"126.86437014","imageIndex":7,"items":[{"name":"아이스크림할인점","tel":"02-1234-1234","addr":"경기도 고양시 덕양구 관산동 1005번지","indutype":"음료식품 - 기타음료식품","category":"food"}]},{"lat":"37.705623737","long":"126.86553227","imageIndex":7,"items":[{"name":"영자야채","tel":"","addr":"경기도 고양시 덕양구 관산동 46-4번지","indutype":"음료식품 - 농·축·수산품","category":"food"}]},{"lat":"37.688604306","long":"126.86531424","imageIndex":7,"items":[{"name":"우리농산물직거래장터","tel":"","addr":"경기도 고양시 덕양구 관산동 181-2번지","indutype":"음료식품 - 농·축·수산품","category":"food"}]},{"lat":"37.711823978","long":"126.85934003","imageIndex":7,"items":[{"name":"월드소이빈","tel":"032-362-1155","addr":"경기도 고양시 덕양구 관산동 574-3번지","indutype":"음료식품 - 기타음료식품","category":"food"}]},{"lat":"37.688152524","long":"126.86420402","imageIndex":7,"items":[{"name":"으뜸 (막퍼주는집)","tel":"070-0000-0000","addr":"경기도 고양시 덕양구 관산동 231-1번지","indutype":"음료식품 - 농·축·수산품","category":"food"}]},{"lat":"37.688709405","long":"126.8627518","imageIndex":7,"items":[{"name":"일품축산마트","tel":"031-963-7111","addr":"경기도 고양시 덕양구 관산동 231-28번지","indutype":"음료식품 - 정육점","category":"food"}]},{"lat":"37.703018045","long":"126.85645409","imageIndex":7,"items":[{"name":"조은농원","tel":"031-962-1890","addr":"경기도 고양시 덕양구 관산동 727-4번지","indutype":"음료식품 - 농·축·수산품","category":"food"}]},{"lat":"37.689153337","long":"126.86483705","imageIndex":7,"items":[{"name":"조이푸드(Joy Food)","tel":"","addr":"경기도 고양시 덕양구 관산동 112-24번지","indutype":"음료식품 - 기타음료식품","category":"food"}]},{"lat":"37.686323439","long":"126.86409406","imageIndex":7,"items":[{"name":"주식회사 자연플러스","tel":"031-989-5561","addr":"경기도 고양시 덕양구 관산동 211-2번지","indutype":"음료식품 - 미곡상","category":"food"}]},{"lat":"37.687021055","long":"126.86742587","imageIndex":7,"items":[{"name":"코다리유통","tel":"031-969-3305","addr":"경기도 고양시 덕양구 관산동 992-1번지","indutype":"음료식품 - 기타음료식품","category":"food"}]},{"lat":"37.688935116","long":"126.86314818","imageIndex":7,"items":[{"name":"킨더푸드","tel":"","addr":"경기도 고양시 덕양구 관산동 336-17번지","indutype":"음료식품 - 기타음료식품","category":"food"}]},{"lat":"37.68801774","long":"126.86451038","imageIndex":7,"items":[{"name":"파리바게트고양관산점","tel":"031-962-8284","addr":"경기도 고양시 덕양구 관산동 227-6번지","indutype":"음료식품 - 제과점","category":"food"}]},{"lat":"37.687767243","long":"126.86603003","imageIndex":7,"items":[{"name":"프라임떡담","tel":"031-963-2524","addr":"경기도 고양시 덕양구 관산동 1015번지 더퍼스트프라임","indutype":"음료식품 - 제과점","category":"food"}]},{"lat":"37.705570941","long":"126.85903458","imageIndex":7,"items":[{"name":"하나유통","tel":"","addr":"경기도 고양시 덕양구 관산동 540번지 비채빌","indutype":"음료식품 - 농·축·수산품","category":"food"}]},{"lat":"37.689937928","long":"126.86548184","imageIndex":7,"items":[{"name":"한아름푸드시스템","tel":"031-968-6432","addr":"경기도 고양시 덕양구 관산동 112-22번지","indutype":"음료식품 - 기타음료식품","category":"food"}]},{"lat":"37.708017442","long":"126.87092585","imageIndex":7,"items":[{"name":"한울꼬마김치서부사업소","tel":"070-4119-1212","addr":"경기도 고양시 덕양구 관산동 17-51번지","indutype":"음료식품 - 기타음료식품","category":"food"}]},{"lat":"37.700880788","long":"126.86222996","imageIndex":7,"items":[{"name":"한일종합식품","tel":"031-964-9967","addr":"경기도 고양시 덕양구 관산동 440번지","indutype":"음료식품 - 농·축·수산품","category":"food"}]},{"lat":"37.711870976","long":"126.86095035","imageIndex":7,"items":[{"name":"해초인","tel":"","addr":"경기도 고양시 덕양구 관산동 576-12번지","indutype":"음료식품 - 농·축·수산품","category":"food"}]},{"lat":"37.690103963","long":"126.86883746","imageIndex":7,"items":[{"name":"현푸드시스템","tel":"031-962-7868","addr":"경기도 고양시 덕양구 관산동 137번지","indutype":"음료식품 - 정육점","category":"food"}]},{"lat":"37.712489773","long":"126.85859024","imageIndex":7,"items":[{"name":"형제식품","tel":"031-963-7571","addr":"경기도 고양시 덕양구 관산동 657-7번지","indutype":"음료식품 - 기타음료식품","category":"food"}]},{"lat":"37.710680972","long":"126.86034022","imageIndex":7,"items":[{"name":"화인푸드","tel":"031-962-6222","addr":"경기도 고양시 덕양구 관산동 573-12번지","indutype":"음료식품 - 기타음료식품","category":"food"}]}]