[{"lat":"37.726297871","long":"127.05340417","imageIndex":8,"items":[{"name":"나은동물병원","tel":"031-876-7511","addr":"경기도 의정부시 장암동 20-14번지 발곡프라자 1층 제101호,102호","indutype":"기타의료기관 - 동물병원","category":"medical"},{"name":"라임약국","tel":"031-825-1100","addr":"경기도 의정부시 장암동 20-14번지 발곡프라자 109동 110호","indutype":"약국 - 약국","category":"medical"},{"name":"맑은 한의원","tel":"031-855-7575","addr":"경기도 의정부시 장암동 20-14번지 발곡프라자 1층 120호","indutype":"의원 - 한의원","category":"medical"},{"name":"발곡서울이비인후과의원","tel":"031-855-0822","addr":"경기도 의정부시 장암동 20-14번지 발곡프라자 2층 207호,208호","indutype":"의원 - 의원","category":"medical"},{"name":"임플라인치과의원 의정부점","tel":"031-877-2080","addr":"경기도 의정부시 장암동 20-14번지 301,302호","indutype":"의원 - 치과의원","category":"medical"},{"name":"장암성모병원","tel":"031-877-4230","addr":"경기도 의정부시 장암동 20-14번지 3층 305호 306","indutype":"의원 - 의원","category":"medical"}]},{"lat":"37.726270361","long":"127.05451578","imageIndex":8,"items":[{"name":"봄약국","tel":"031-872-0691","addr":"경기도 의정부시 장암동 20-9번지 장암골드프라자 109호","indutype":"약국 - 약국","category":"medical"},{"name":"서울선치과의원","tel":"031-879-7528","addr":"경기도 의정부시 장암동 20-9번지 골드프라자상가 303호","indutype":"의원 - 치과의원","category":"medical"},{"name":"세인트폴외괴의원","tel":"031-842-7033","addr":"경기도 의정부시 장암동 20-9번지 2층 203,204호","indutype":"의원 - 의원","category":"medical"},{"name":"싱그런한내과의원","tel":"031-841-8416","addr":"경기도 의정부시 장암동 20-9번지 장암골드프라자 3층 302호","indutype":"의원 - 의원","category":"medical"},{"name":"허준한의원","tel":"031-878-7606","addr":"경기도 의정부시 장암동 20-9번지 골드프라자 3층 301호","indutype":"의원 - 한의원","category":"medical"}]},{"lat":"37.723658122","long":"127.05326627","imageIndex":8,"items":[{"name":"소나무약국","tel":"070-4214-3902","addr":"경기도 의정부시 장암동 38-10번지 롯데마트장암점 2층","indutype":"약국 - 약국","category":"medical"},{"name":"이윤정쑥쑥소아청소년과의원","tel":"031-829-0026","addr":"경기도 의정부시 장암동 38-10번지 3층","indutype":"의원 - 의원","category":"medical"}]},{"lat":"37.725377834","long":"127.0558196","imageIndex":8,"items":[{"name":"싱싱한의원","tel":"031-855-7553","addr":"경기도 의정부시 장암동 17-15번지 대현건물 202호","indutype":"의원 - 한의원","category":"medical"},{"name":"우리의원","tel":"031-879-0120","addr":"경기도 의정부시 장암동 17-15번지 대현빌딩 201호","indutype":"의원 - 의원","category":"medical"}]}]