[{"lat":"37.226494755","long":"126.97217713","imageIndex":17,"items":[{"name":"(주)꾸밈방","tel":"031-223-5554","addr":"경기도 화성시 기안동 335-8번지 1층","indutype":"직물 - 침구·수예점","category":"other"}]},{"lat":"37.226488006","long":"126.98270129","imageIndex":17,"items":[{"name":"(주)나무조각에코사인","tel":"031-8273-0625","addr":"경기도 화성시 기안동 200-4번지 1층","indutype":"용역 서비스 - 종합용역","category":"other"}]},{"lat":"37.229939203","long":"126.98412018","imageIndex":17,"items":[{"name":"(주)디케이 대경","tel":"070-7779-5518","addr":"경기도 화성시 기안동 139번지","indutype":"신변잡화 - 신발","category":"other"}]},{"lat":"37.22429857","long":"126.98317511","imageIndex":17,"items":[{"name":"(주)이트리스/원격지","tel":"031-267-4317","addr":"경기도 화성시 기안동 442번지 성호빌딩 202호","indutype":"기타 - 기타 전문점","category":"other"},{"name":"모든기업","tel":"031-898-8955","addr":"경기도 화성시 기안동 442번지","indutype":"건축자재 - 보일러·펌프·샷시","category":"other"},{"name":"씨유화성기안점","tel":"031-224-1459","addr":"경기도 화성시 기안동 442번지 101호","indutype":"유통업 영리 - 편 의 점","category":"other"}]},{"lat":"37.223324356","long":"126.97742901","imageIndex":17,"items":[{"name":"GS25화성신일점","tel":"02-2006-2485","addr":"경기도 화성시 기안동 910","indutype":"유통업 영리 - 편 의 점","category":"other"},{"name":"MAX체육관","tel":"031-232-2566","addr":"경기도 화성시 기안동 910번지 신일해피트리상가 203호204호204호","indutype":"회원제형태 - 레져업소","category":"other"}]},{"lat":"37.226576532","long":"126.97493772","imageIndex":17,"items":[{"name":"HK통신","tel":"031-7906-6555","addr":"경기도 화성시 기안동 290번지 광도와이드빌 109동 1601호","indutype":"용역 서비스 - 기타용역서비스","category":"other"}]},{"lat":"37.226182584","long":"126.98920289","imageIndex":17,"items":[{"name":"O.K사무용가구","tel":"070-4190-4485","addr":"경기도 화성시 기안동 20-287번지 1층","indutype":"가구 - 일반가구","category":"other"}]},{"lat":"37.225993395","long":"126.98945081","imageIndex":17,"items":[{"name":"OK가구할인매장","tel":"031-221-8862","addr":"경기도 화성시 기안동 20-188번지","indutype":"가구 - 일반가구","category":"other"}]},{"lat":"37.227333163","long":"126.97394586","imageIndex":17,"items":[{"name":"가가공설비","tel":"031-298-8266","addr":"경기도 화성시 기안동 290번지 광도와이드빌 104동 702호","indutype":"용역 서비스 - 기타용역서비스","category":"other"}]},{"lat":"37.223379299","long":"126.98192467","imageIndex":17,"items":[{"name":"경기유리","tel":"031-225-3862","addr":"경기도 화성시 기안동 448-2번지","indutype":"건축자재 - 유리","category":"other"}]},{"lat":"37.226326368","long":"126.98622816","imageIndex":17,"items":[{"name":"경기종합유리","tel":"031-294-4462","addr":"경기도 화성시 기안동 216번지","indutype":"건축자재 - 유리","category":"other"}]},{"lat":"37.219469782","long":"126.98848302","imageIndex":17,"items":[{"name":"그녀는 이뻐이뻐","tel":"031-225-0994","addr":"경기도 화성시 기안동 897번지 신미주쇼핑타운 114호","indutype":"의류 - 정장","category":"other"},{"name":"꽃담은 설기","tel":"","addr":"경기도 화성시 기안동 897번지 신미주쇼핑타운 114호","indutype":"문화.취미 - 문화취미기타","category":"other"},{"name":"메타스(meatas)","tel":"031-233-0209","addr":"경기도 화성시 기안동 897번지 풍성신미주쇼핑타운 1층 116호","indutype":"주방용구 - 주방용식기","category":"other"},{"name":"벧엘인테리어","tel":"031-222-1788","addr":"경기도 화성시 기안동 897번지 신미주쇼핑타운 108호","indutype":"건축자재 - 인테리어전문","category":"other"},{"name":"신미주세탁소","tel":"031-225-8012","addr":"경기도 화성시 기안동 897번지 신미주쇼핑타운 103호","indutype":"수리서비스 - 세탁소","category":"other"}]},{"lat":"37.22632611","long":"126.98448165","imageIndex":17,"items":[{"name":"금호상사","tel":"031-226-2301","addr":"경기도 화성시 기안동 175-2번지","indutype":"건축자재 - 기타건축자재","category":"other"}]},{"lat":"37.225990211","long":"126.97231255","imageIndex":17,"items":[{"name":"기안동땡샵","tel":"031-222-0780","addr":"경기도 화성시 기안동 338-3번지 남수원씨티프라자 2층 214호","indutype":"의류 - 정장","category":"other"},{"name":"수예스킨앤바디","tel":"031-225-6544","addr":"경기도 화성시 기안동 338-3번지 남수원씨티프라자 2층 211호","indutype":"회원제형태 - 기타4","category":"other"},{"name":"주식회사마리아엘카임","tel":"031-222-4127","addr":"경기도 화성시 기안동 338-3번지 남수원씨티프라자 2층","indutype":"의류 - 정장","category":"other"},{"name":"호랭이눈꼽","tel":"031-267-1935","addr":"경기도 화성시 기안동 338-3번지","indutype":"의류 - 정장","category":"other"}]},{"lat":"37.225107408","long":"126.97314671","imageIndex":17,"items":[{"name":"기안펫","tel":"031-222-7775","addr":"경기도 화성시 기안동 354-1번지 우림그린빌리지 상가동 106호","indutype":"문화.취미 - 애완동물","category":"other"},{"name":"우림세탁소","tel":"031-232-5040","addr":"경기도 화성시 기안동 354-1번지 우림그린빌리지","indutype":"수리서비스 - 세탁소","category":"other"}]},{"lat":"37.223767812","long":"126.98922586","imageIndex":17,"items":[{"name":"길우시스템","tel":"031-226-2431","addr":"경기도 화성시 기안동 20-206번지","indutype":"기타 - 기타 전문점","category":"other"}]},{"lat":"37.231155357","long":"126.9826437","imageIndex":17,"items":[{"name":"다오기술","tel":"031-225-1695","addr":"경기도 화성시 기안동 93-2번지","indutype":"서적문구 - 과학기자재","category":"other"}]},{"lat":"37.22435086","long":"126.97445404","imageIndex":17,"items":[{"name":"다해건설","tel":"","addr":"경기도 화성시 기안동 360-1번지","indutype":"건축자재 - 인테리어전문","category":"other"}]},{"lat":"37.225819534","long":"126.97439715","imageIndex":17,"items":[{"name":"단미옷장","tel":"070-8688-3106","addr":"경기도 화성시 기안동 349번지 우림그린빌리지 106동 203호","indutype":"회원제형태 - 기타4","category":"other"}]},{"lat":"37.223191242","long":"126.99005974","imageIndex":17,"items":[{"name":"대광엔지니어링","tel":"031-239-0289","addr":"경기도 화성시 기안동 20-135번지","indutype":"기타 - 기계공구","category":"other"}]},{"lat":"37.224632935","long":"126.99039753","imageIndex":17,"items":[{"name":"대성정공/원격지","tel":"031-225-7304","addr":"경기도 화성시 기안동 20-158번지","indutype":"기타 - 기타 전문점","category":"other"}]},{"lat":"37.228155938","long":"126.98998003","imageIndex":17,"items":[{"name":"동영코튼트레이드","tel":"031-222-3774","addr":"경기도 화성시 기안동 17번지","indutype":"유통업 영리 - 기타유통업","category":"other"}]},{"lat":"37.222656991","long":"126.97478143","imageIndex":17,"items":[{"name":"둥근힘 프롭테라피","tel":"031-222-9451","addr":"경기도 화성시 기안동 371-2번지 보보스프라자 4층 내","indutype":"레져용품 - 스포츠·레져용품","category":"other"},{"name":"박성철복싱클럽","tel":"031-232-5001","addr":"경기도 화성시 기안동 371-2번지 보보스프라자 208호","indutype":"회원제형태 - 레져업소","category":"other"},{"name":"박성철복싱클럽","tel":"031-233-5003","addr":"경기도 화성시 기안동 371-2번지 보보스프라자 205호","indutype":"회원제형태 - 레져업소","category":"other"},{"name":"뷰티","tel":"031-223-9893","addr":"경기도 화성시 기안동 371-2번지 보보스프라자 4층 일부","indutype":"회원제형태 - 기타4","category":"other"},{"name":"스킨앤허브갤러리(Skin&HerbGallery)","tel":"031-222-5433","addr":"경기도 화성시 기안동 371-2번지 보브스프라자 213호","indutype":"기타 - 기타 전문점","category":"other"},{"name":"이뿌지요","tel":"031-111-1111","addr":"경기도 화성시 기안동 371-2번지 보보스프라자 1층 105호","indutype":"의류 - 정장","category":"other"}]},{"lat":"37.224548695","long":"126.97286524","imageIndex":17,"items":[{"name":"라파엘라의 마법의 손뜨개","tel":"070-7648-0206","addr":"경기도 화성시 기안동 355-14번지 건영빌딩 101호","indutype":"문화.취미 - 문화취미기타","category":"other"},{"name":"명실업","tel":"031-898-5002","addr":"경기도 화성시 기안동 355-14번지 건영 102호","indutype":"건축자재 - 조명기구","category":"other"},{"name":"에스엔토탈 주식회사","tel":"031-267-1883","addr":"경기도 화성시 기안동 355-14번지 건영 102호","indutype":"용역 서비스 - 기타용역서비스","category":"other"}]},{"lat":"37.224684059","long":"126.97369899","imageIndex":17,"items":[{"name":"로미오","tel":"031-223-3252","addr":"경기도 화성시 기안동 354-5번지 신영메디칼센터 103호","indutype":"의류 - 정장","category":"other"},{"name":"은 에스테틱","tel":"031-228-9848","addr":"경기도 화성시 기안동 354-5번지 신여이메디컬센타 102호","indutype":"회원제형태 - 기타4","category":"other"}]},{"lat":"37.223658931","long":"126.98376118","imageIndex":17,"items":[{"name":"리브마트","tel":"050-5252-9652","addr":"경기도 화성시 기안동 457-70번지","indutype":"레져용품 - 스포츠·레져용품","category":"other"}]},{"lat":"37.227963921","long":"126.97408084","imageIndex":17,"items":[{"name":"맵시","tel":"031-000-0000","addr":"경기도 화성시 기안동 290번지 광도와이드빌 102동 902호","indutype":"의류 - 정장","category":"other"}]},{"lat":"37.225927892","long":"126.97538867","imageIndex":17,"items":[{"name":"베로나(Verona)","tel":"031-328-7556","addr":"경기도 화성시 기안동 290번지 광도와이드빌 114동 1001호","indutype":"신변잡화 - 액세서리","category":"other"}]},{"lat":"37.226658628","long":"126.97956878","imageIndex":17,"items":[{"name":"부성공업","tel":"031-294-9662","addr":"경기도 화성시 기안동 241번지","indutype":"레져용품 - 스포츠·레져용품","category":"other"}]},{"lat":"37.228993693","long":"126.98819951","imageIndex":17,"items":[{"name":"부엌장","tel":"","addr":"경기도 화성시 기안동 41번지","indutype":"가구 - 일반가구","category":"other"}]},{"lat":"37.23227238","long":"126.98117847","imageIndex":17,"items":[{"name":"비전스포츠","tel":"031-294-6559","addr":"경기도 화성시 기안동 92-9번지","indutype":"용역 서비스 - 종합용역","category":"other"}]},{"lat":"37.22999374","long":"126.98739926","imageIndex":17,"items":[{"name":"산적다육","tel":"031-234-9050","addr":"경기도 화성시 기안동 103-7","indutype":"문화.취미 - 화원","category":"other"},{"name":"성화림","tel":"031-222-0922","addr":"경기도 화성시 기안동 103-7번지","indutype":"문화.취미 - 화원","category":"other"},{"name":"승지농원","tel":"02-238-1101","addr":"경기도 화성시 기안동 103-7","indutype":"문화.취미 - 화원","category":"other"},{"name":"호매실분재","tel":"","addr":"경기도 화성시 기안동 103-7번지","indutype":"문화.취미 - 화원","category":"other"}]},{"lat":"37.226218177","long":"126.98575493","imageIndex":17,"items":[{"name":"삼미식품기계","tel":"031-222-7340","addr":"경기도 화성시 기안동 207번지","indutype":"주방용구 - 주방용구","category":"other"},{"name":"아이작퍼니처","tel":"031-8077-2018","addr":"경기도 화성시 기안동 207번지","indutype":"가구 - 일반가구","category":"other"}]},{"lat":"37.227740435","long":"126.98264462","imageIndex":17,"items":[{"name":"삼천케이(3000K)디자인","tel":"031-227-0109","addr":"경기도 화성시 기안동 190-12번지","indutype":"건축자재 - 인테리어전문","category":"other"}]},{"lat":"37.225323885","long":"126.97407057","imageIndex":17,"items":[{"name":"생수유통","tel":"031-236-6999","addr":"경기도 화성시 기안동 349번지 우림그린빌리지 102동 606호","indutype":"유통업 영리 - 기타유통업","category":"other"},{"name":"진로석수","tel":"","addr":"경기도 화성시 기안동 349번지 우림그린빌리지 102동 806호","indutype":"유통업 영리 - 기타유통업","category":"other"}]},{"lat":"37.228966582","long":"126.98756849","imageIndex":17,"items":[{"name":"서울엣칭제경사","tel":"031-225-5580","addr":"경기도 화성시 기안동 108-3번지","indutype":"건축자재 - 유리","category":"other"}]},{"lat":"37.214684425","long":"126.98264811","imageIndex":17,"items":[{"name":"성화환경","tel":"031-221-8147","addr":"경기도 화성시 기안동 457-40번지","indutype":"건축자재 - 기타건축자재","category":"other"},{"name":"자연속으로","tel":"031-223-5888","addr":"경기도 화성시 기안동 457-40번지","indutype":"문화.취미 - 화원","category":"other"},{"name":"한울북","tel":"031-503-1241","addr":"경기도 화성시 기안동 457-40번지 1호","indutype":"서적문구 - 일반서적","category":"other"}]},{"lat":"37.226353612","long":"126.98781691","imageIndex":17,"items":[{"name":"스마트핸드레일","tel":"031-225-9607","addr":"경기도 화성시 기안동 23-2번지","indutype":"용역 서비스 - 기타용역서비스","category":"other"}]},{"lat":"37.227885336","long":"126.98753491","imageIndex":17,"items":[{"name":"신성골재","tel":"","addr":"경기도 화성시 기안동 28번지","indutype":"건축자재 - 기타건축자재","category":"other"}]},{"lat":"37.22660587","long":"126.98756897","imageIndex":17,"items":[{"name":"신영공조","tel":"031-000-0000","addr":"경기도 화성시 기안동 23-1번지","indutype":"전기제품 - 냉열기기","category":"other"}]},{"lat":"37.227603199","long":"126.97284149","imageIndex":17,"items":[{"name":"씨유화성광도점","tel":"031-239-6693","addr":"경기도 화성시 기안동 328-1번지 1층 101호","indutype":"유통업 영리 - 편 의 점","category":"other"},{"name":"호랑디자인","tel":"031-8043-1633","addr":"경기도 화성시 기안동 328-1번지 104호","indutype":"용역 서비스 - 사무서비스","category":"other"},{"name":"화성네트워크","tel":"031-352-3800","addr":"경기도 화성시 기안동 328-1번지 광도와이드빌단지내상가 108호","indutype":"사무통신 - 컴퓨터","category":"other"}]},{"lat":"37.229966355","long":"126.98489769","imageIndex":17,"items":[{"name":"씨유화성기안주유소점","tel":"080-080-3663","addr":"경기도 화성시 기안동 100번지","indutype":"유통업 영리 - 편 의 점","category":"other"}]},{"lat":"37.228632903","long":"126.98542761","imageIndex":17,"items":[{"name":"아트그린","tel":"","addr":"경기도 화성시 기안동 129-1번지","indutype":"용역 서비스 - 종합용역","category":"other"}]},{"lat":"37.22307409","long":"126.98990202","imageIndex":17,"items":[{"name":"애플정보","tel":"031-238-0482","addr":"경기도 화성시 기안동 20-175번지 1층 103호","indutype":"사무통신 - 컴퓨터","category":"other"}]},{"lat":"37.226963273","long":"126.97209807","imageIndex":17,"items":[{"name":"엠지핸드폰아울렛(기안점)","tel":"","addr":"경기도 화성시 기안동 336-6번지 1층","indutype":"사무통신 - 통신기기","category":"other"}]},{"lat":"37.226180085","long":"126.97497167","imageIndex":17,"items":[{"name":"열정기획","tel":"070-7518-3241","addr":"경기도 화성시 기안동 290번지 광도와이드빌 112동 1702호","indutype":"문화.취미 - 티켓","category":"other"},{"name":"즐겨찾기","tel":"031-893-8052","addr":"경기도 화성시 기안동 290번지 광도와이드빌 112동 1002호","indutype":"회원제형태 - 기타4","category":"other"}]},{"lat":"37.228630228","long":"126.97225514","imageIndex":17,"items":[{"name":"영근전자","tel":"031-224-2089","addr":"경기도 화성시 기안동 333-4번지","indutype":"전기제품 - 가전제품","category":"other"},{"name":"주식회사 영진와이에스","tel":"031-224-2089","addr":"경기도 화성시 기안동 333-4번지","indutype":"전기제품 - 기타전기제품","category":"other"}]},{"lat":"37.214242821","long":"126.98209619","imageIndex":17,"items":[{"name":"예쁜꽃밭","tel":"031-225-9019","addr":"경기도 화성시 기안동 457-53번지","indutype":"문화.취미 - 화원","category":"other"}]},{"lat":"37.224683916","long":"126.97312434","imageIndex":17,"items":[{"name":"와우리가게","tel":"","addr":"경기도 화성시 기안동 355-16번지 A동 5호","indutype":"의류 - 기타의류","category":"other"}]},{"lat":"37.225966303","long":"126.98892123","imageIndex":17,"items":[{"name":"욕쟁이가구","tel":"031-221-1870","addr":"경기도 화성시 기안동 20-87번지 20동 252호","indutype":"가구 - 일반가구","category":"other"}]},{"lat":"37.22463037","long":"126.97525393","imageIndex":17,"items":[{"name":"우리마을샵협동조합","tel":"070-7582-4756","addr":"경기도 화성시 기안동 363-3번지","indutype":"의류 - 정장","category":"other"}]},{"lat":"37.224440698","long":"126.97337232","imageIndex":17,"items":[{"name":"우석지물인테리어","tel":"031-224-6550","addr":"경기도 화성시 기안동 355-8번지","indutype":"건축자재 - 인테리어전문","category":"other"}]},{"lat":"37.225521643","long":"126.97220006","imageIndex":17,"items":[{"name":"우진하우징","tel":"031-234-2034","addr":"경기도 화성시 기안동 338-4번지 101호","indutype":"건축자재 - 보일러·펌프·샷시","category":"other"}]},{"lat":"37.232047225","long":"126.98175324","imageIndex":17,"items":[{"name":"월드이벤트","tel":"031-296-3450","addr":"경기도 화성시 기안동 92-1번지","indutype":"용역 서비스 - 종합용역","category":"other"},{"name":"튼튼뮤직,웃는아이","tel":"031-292-3887","addr":"경기도 화성시 기안동 92-1번지 1층","indutype":"회원제형태 - 서적","category":"other"}]},{"lat":"37.226315474","long":"126.97598572","imageIndex":17,"items":[{"name":"은성전자","tel":"","addr":"경기도 화성시 기안동 290번지 광도와이드빌 115동 101호","indutype":"용역 서비스 - 기타용역서비스","category":"other"}]},{"lat":"37.225100622","long":"126.9839749","imageIndex":17,"items":[{"name":"이든오디오","tel":"031-223-7873","addr":"경기도 화성시 기안동 222-17번지","indutype":"전기제품 - 가전제품","category":"other"}]},{"lat":"37.226794856","long":"126.98586748","imageIndex":17,"items":[{"name":"이든주방","tel":"031-236-3982","addr":"경기도 화성시 기안동 210-8번지","indutype":"주방용구 - 주방용식기","category":"other"}]},{"lat":"37.215883002","long":"126.98384201","imageIndex":17,"items":[{"name":"이안퍼니쳐","tel":"031-891-8700","addr":"경기도 화성시 기안동 457-580","indutype":"가구 - 일반가구","category":"other"}]},{"lat":"37.227190708","long":"126.98209263","imageIndex":17,"items":[{"name":"인스토탈","tel":"031-227-0109","addr":"경기도 화성시 기안동 198-1번지 G동","indutype":"가구 - 일반가구","category":"other"}]},{"lat":"37.226675772","long":"126.97547854","imageIndex":17,"items":[{"name":"인트라랩","tel":"031-898-5373","addr":"경기도 화성시 기안동 290번지 광도와이드빌 111동 801호","indutype":"서적문구 - 과학기자재","category":"other"}]},{"lat":"37.228579498","long":"126.99067858","imageIndex":17,"items":[{"name":"정원하우징","tel":"031-267-2203","addr":"경기도 화성시 기안동 15번지","indutype":"건축자재 - 기타건축자재","category":"other"}]},{"lat":"37.229020243","long":"126.98472889","imageIndex":17,"items":[{"name":"제일쇼파","tel":"031-257-7052","addr":"경기도 화성시 기안동 132번지","indutype":"가구 - 일반가구","category":"other"}]},{"lat":"37.225353657","long":"126.98942839","imageIndex":17,"items":[{"name":"주식회사 다가실리콘","tel":"031-222-8878","addr":"경기도 화성시 기안동 20-190번지","indutype":"건축자재 - 기타건축자재","category":"other"}]},{"lat":"37.228629959","long":"126.97122974","imageIndex":17,"items":[{"name":"주식회사 태원씨앤씨","tel":"031-224-1274","addr":"경기도 화성시 기안동 333-1번지 3층","indutype":"용역 서비스 - 종합용역","category":"other"}]},{"lat":"37.225882587","long":"126.97431825","imageIndex":17,"items":[{"name":"채우다","tel":"070-7573-6668","addr":"경기도 화성시 기안동 349번지 우림그린빌리지","indutype":"의류 - 정장","category":"other"}]},{"lat":"37.221271516","long":"126.98592506","imageIndex":17,"items":[{"name":"코디톡","tel":"031-528-6263","addr":"경기도 화성시 기안동 904-2번지 JK빌리지 101동 101호","indutype":"의류 - 정장","category":"other"}]},{"lat":"37.224495779","long":"126.97778918","imageIndex":17,"items":[{"name":"태안꽃농원","tel":"031-223-0149","addr":"경기도 화성시 기안동 271번지","indutype":"문화.취미 - 화원","category":"other"}]},{"lat":"37.225794597","long":"126.98512404","imageIndex":17,"items":[{"name":"티제이산업(TJ산업)","tel":"000-0000-0000","addr":"경기도 화성시 기안동 205-7번지","indutype":"유통업 영리 - 기타유통업","category":"other"}]},{"lat":"37.227018042","long":"126.97494883","imageIndex":17,"items":[{"name":"피오레","tel":"070-2712-4300","addr":"경기도 화성시 기안동 290번지 광도와이드빌 107동 1102호","indutype":"의류 - 내의판매","category":"other"}]},{"lat":"37.22421579","long":"126.97481465","imageIndex":17,"items":[{"name":"한결종합상사","tel":"031-305-2976","addr":"경기도 화성시 기안동 360-5번지 1층 1호","indutype":"전기제품 - 기타전기제품","category":"other"}]},{"lat":"37.215495525","long":"126.98365058","imageIndex":17,"items":[{"name":"해당화협동조합","tel":"031-234-6067","addr":"경기도 화성시 기안동 457-51번지","indutype":"문화.취미 - 화원","category":"other"}]},{"lat":"37.224353417","long":"126.98865111","imageIndex":17,"items":[{"name":"현대건업","tel":"031-298-1612","addr":"경기도 화성시 기안동 21-41번지","indutype":"건축자재 - 기타건축자재","category":"other"}]},{"lat":"37.220684921","long":"126.98039311","imageIndex":17,"items":[{"name":"홈코코","tel":"031-248-0562","addr":"경기도 화성시 기안동 456-54번지 1층","indutype":"전기제품 - 기타전기제품","category":"other"}]},{"lat":"37.224127115","long":"126.98167658","imageIndex":17,"items":[{"name":"화성종합피아노","tel":"031-222-1171","addr":"경기도 화성시 기안동 443번지","indutype":"레져용품 - 피아노대리점","category":"other"}]},{"lat":"37.225244364","long":"126.98148472","imageIndex":17,"items":[{"name":"화인텍주식회사","tel":"031-353-1749","addr":"경기도 화성시 기안동 237-7번지 1층","indutype":"기타 - 기계공구","category":"other"}]},{"lat":"37.228073967","long":"126.9835347","imageIndex":17,"items":[{"name":"휴 company","tel":"","addr":"경기도 화성시 기안동 190-6번지 2층 206호","indutype":"용역 서비스 - 종합용역","category":"other"}]},{"lat":"37.227794646","long":"126.98353478","imageIndex":17,"items":[{"name":"희망노인전문요양원","tel":"031-267-1208","addr":"경기도 화성시 기안동 190-1번지","indutype":"기타의료기관 - 기타의료기관 및 기타","category":"other"}]},{"lat":"37.225072069","long":"126.97608757","imageIndex":0,"items":[{"name":"239Motors","tel":"031-224-9870","addr":"경기도 화성시 기안동 287-3번지","indutype":"자동차정비 유지 - 자동차부품","category":"car"}]},{"lat":"37.224298066","long":"126.98034697","imageIndex":0,"items":[{"name":"YJ Tech","tel":"070-4400-7559","addr":"경기도 화성시 기안동 261-1번지","indutype":"자동차정비 유지 - 자동차부품","category":"car"}]},{"lat":"37.223036247","long":"126.97848823","imageIndex":0,"items":[{"name":"가이즈(guy's)","tel":"","addr":"경기도 화성시 기안동 910번지 신일해피트리 109동 104호","indutype":"자동차정비 유지 - 자동차부품","category":"car"}]},{"lat":"37.22713451","long":"126.97225575","imageIndex":0,"items":[{"name":"경도카센타","tel":"031-234-5109","addr":"경기도 화성시 기안동 336-1번지","indutype":"자동차정비 유지 - 자동차정비","category":"car"}]},{"lat":"37.216991429","long":"126.98481064","imageIndex":0,"items":[{"name":"리모시스","tel":"070-7696-7371","addr":"경기도 화성시 기안동 457-555번지","indutype":"자동차정비 유지 - 자동차부품","category":"car"}]},{"lat":"37.228128989","long":"126.99075753","imageIndex":0,"items":[{"name":"마스터피스","tel":"031-221-7654","addr":"경기도 화성시 기안동 18번지 1층","indutype":"자동차정비 유지 - 카인테리어","category":"car"}]},{"lat":"37.223379299","long":"126.98192467","imageIndex":0,"items":[{"name":"민영캐미칼","tel":"031-294-3101","addr":"경기도 화성시 기안동 448-2번지","indutype":"자동차정비 유지 - 윤활유 전문 판매","category":"car"}]},{"lat":"37.225188283","long":"126.97229034","imageIndex":0,"items":[{"name":"빛광손세차장","tel":"070-8968-4158","addr":"경기도 화성시 기안동 340번지","indutype":"자동차정비 유지 - 세차장","category":"car"}]},{"lat":"37.2228836","long":"126.9812037","imageIndex":0,"items":[{"name":"쎄븐모터스","tel":"031-296-3305","addr":"경기도 화성시 기안동 451번지","indutype":"자동차정비 유지 - 자동차부품","category":"car"},{"name":"에이프로","tel":"031-237-7600","addr":"경기도 화성시 기안동 451번지","indutype":"자동차정비 유지 - 자동차부품","category":"car"},{"name":"에이프로 (오토오아시스기안점)","tel":"031-237-7600","addr":"경기도 화성시 기안동 451번지","indutype":"자동차정비 유지 - 자동차정비","category":"car"}]},{"lat":"37.228630228","long":"126.97225514","imageIndex":0,"items":[{"name":"영근정비공업사","tel":"031-224-2089","addr":"경기도 화성시 기안동 333-4번지","indutype":"자동차정비 유지 - 자동차정비","category":"car"}]},{"lat":"37.225990211","long":"126.97231255","imageIndex":0,"items":[{"name":"오일특별시 수원점","tel":"031-221-1447","addr":"경기도 화성시 기안동 338-3번지 123,124호","indutype":"자동차정비 유지 - 자동차부품","category":"car"},{"name":"정석대로","tel":"02-1111-1111","addr":"경기도 화성시 기안동 338-3번지 남수원씨티프라자 104호","indutype":"자동차정비 유지 - 카인테리어","category":"car"}]},{"lat":"37.228629959","long":"126.97122974","imageIndex":0,"items":[{"name":"와우타이어","tel":"031-222-1285","addr":"경기도 화성시 기안동 333-1번지","indutype":"자동차정비 유지 - 자동차시트·타이어","category":"car"}]},{"lat":"37.217072334","long":"126.98361638","imageIndex":0,"items":[{"name":"주식회사 수레와바퀴","tel":"031-296-2556","addr":"경기도 화성시 기안동 459-2번지","indutype":"자동차정비 유지 - 자동차정비","category":"car"}]},{"lat":"37.216522848","long":"126.98454036","imageIndex":0,"items":[{"name":"중앙A+공업사","tel":"031-292-8880","addr":"경기도 화성시 기안동 457-603번지","indutype":"자동차정비 유지 - 자동차정비","category":"car"}]},{"lat":"37.223298652","long":"126.98461759","imageIndex":0,"items":[{"name":"착한카프라자","tel":"031-224-9395","addr":"경기도 화성시 기안동 457-372번지","indutype":"자동차정비 유지 - 자동차부품","category":"car"}]},{"lat":"37.222488432","long":"126.99003733","imageIndex":0,"items":[{"name":"태인카워시멀티샵","tel":"031-8058-2139","addr":"경기도 화성시 기안동 20-308번지 외 2필지","indutype":"자동차정비 유지 - 세차장","category":"car"}]},{"lat":"37.22307409","long":"126.98990202","imageIndex":0,"items":[{"name":"파크라인 주식회사","tel":"070-4370-7610","addr":"경기도 화성시 기안동 20-175번지 B동 2층","indutype":"자동차정비 유지 - 주차장","category":"car"},{"name":"파크라인 주식회사(다락골)","tel":"070-4370-7610","addr":"경기도 화성시 기안동 20-175번지 B동 2층","indutype":"자동차정비 유지 - 주차장","category":"car"},{"name":"파크라인 주식회사(양천문화회관)","tel":"070-4370-7610","addr":"경기도 화성시 기안동 20-175번지 B동 2층","indutype":"자동차정비 유지 - 주차장","category":"car"}]},{"lat":"37.224683916","long":"126.97312434","imageIndex":4,"items":[{"name":"60계치킨 화성기안점","tel":"031-225-5302","addr":"경기도 화성시 기안동 355-16번지","indutype":"일반휴게음식 - 스넥","category":"restaurant"},{"name":"기안푸드","tel":"","addr":"경기도 화성시 기안동 355-16번지 A동 1층 3호","indutype":"일반휴게음식 - 일반한식","category":"restaurant"},{"name":"스마일명품찹쌀꽈배기","tel":"031-223-4711","addr":"경기도 화성시 기안동 355-16번지 A동 1층","indutype":"일반휴게음식 - 일반한식","category":"restaurant"}]},{"lat":"37.225243191","long":"126.97576075","imageIndex":4,"items":[{"name":"HappyDay","tel":"031-241-6566","addr":"경기도 화성시 기안동 288-7번지 101호","indutype":"일반휴게음식 - 스넥","category":"restaurant"}]},{"lat":"37.223189921","long":"126.9810346","imageIndex":4,"items":[{"name":"강릉모녀장칼국수","tel":"031-000-0000","addr":"경기도 화성시 기안동 450번지 1층","indutype":"일반휴게음식 - 일반한식","category":"restaurant"}]},{"lat":"37.224991034","long":"126.97634676","imageIndex":4,"items":[{"name":"광장","tel":"031-222-4073","addr":"경기도 화성시 기안동 287번지 1층 우측 7호","indutype":"일반휴게음식 - 일반한식","category":"restaurant"},{"name":"구이구이","tel":"031-239-8292","addr":"경기도 화성시 기안동 287번지 1층 일부호","indutype":"일반휴게음식 - 일반한식","category":"restaurant"},{"name":"남문떡볶이","tel":"031-234-5787","addr":"경기도 화성시 기안동 287번지 1층","indutype":"일반휴게음식 - 일반한식","category":"restaurant"},{"name":"토박이","tel":"031-223-1282","addr":"경기도 화성시 기안동 287번지 외1필지","indutype":"일반휴게음식 - 일반한식","category":"restaurant"}]},{"lat":"37.225521643","long":"126.97220006","imageIndex":4,"items":[{"name":"교촌치킨와우리점","tel":"031-223-9272","addr":"경기도 화성시 기안동 338-4번지","indutype":"일반휴게음식 - 서양음식","category":"restaurant"},{"name":"낭만순대국","tel":"031-238-7978","addr":"경기도 화성시 기안동 338-4번지 102호","indutype":"일반휴게음식 - 일반한식","category":"restaurant"}]},{"lat":"37.225990211","long":"126.97231255","imageIndex":4,"items":[{"name":"남원식당","tel":"031-297-3401","addr":"경기도 화성시 기안동 338-3번지 남수원씨티프라자 103호","indutype":"일반휴게음식 - 일반한식","category":"restaurant"},{"name":"델리킹","tel":"031-224-7653","addr":"경기도 화성시 기안동 338-3번지 남수원시티프라자 118호","indutype":"일반휴게음식 - 칵테일바","category":"restaurant"},{"name":"동해","tel":"031-225-6555","addr":"경기도 화성시 기안동 338-3번지 남수원씨티프라자 111호","indutype":"일반휴게음식 - 일반한식","category":"restaurant"},{"name":"동해두루치기","tel":"031-225-6555","addr":"경기도 화성시 기안동 338-3번지 남수원씨티프라자 110호","indutype":"일반휴게음식 - 일반한식","category":"restaurant"},{"name":"마당화로구이","tel":"031-225-9011","addr":"경기도 화성시 기안동 338-3번지 남수원시티프라자 116동 117호","indutype":"일반휴게음식 - 일반한식","category":"restaurant"},{"name":"밥한끼","tel":"031-227-3010","addr":"경기도 화성시 기안동 338-3번지 남수원씨티프라자 105호","indutype":"일반휴게음식 - 일반한식","category":"restaurant"},{"name":"브로스","tel":"031-221-1588","addr":"경기도 화성시 기안동 338-3번지 남수원씨티프라자 112호,113호","indutype":"일반휴게음식 - 주점","category":"restaurant"},{"name":"육회본가 기안점","tel":"031-267-0343","addr":"경기도 화성시 기안동 338-3번지 남수원씨티프라자 1층 101호","indutype":"일반휴게음식 - 일반한식","category":"restaurant"},{"name":"이과장 장어집","tel":"031-227-1474","addr":"경기도 화성시 기안동 338-3번지 108,109호","indutype":"일반휴게음식 - 일반한식","category":"restaurant"},{"name":"장터치킨","tel":"031-221-0086","addr":"경기도 화성시 기안동 338-3번지 남수원씨티프라자 126호","indutype":"일반휴게음식 - 일반한식","category":"restaurant"},{"name":"투다리와우리점","tel":"031-224-6101","addr":"경기도 화성시 기안동 338-3번지 남수원씨티프라자 125호","indutype":"일반휴게음식 - 주점","category":"restaurant"}]},{"lat":"37.224188275","long":"126.97284285","imageIndex":4,"items":[{"name":"대갈장군동태찜.탕","tel":"031-226-0098","addr":"경기도 화성시 기안동 356-9번지 외1필지","indutype":"일반휴게음식 - 일반한식","category":"restaurant"},{"name":"장어만","tel":"031-282-8807","addr":"경기도 화성시 기안동 356-9번지","indutype":"일반휴게음식 - 일반한식","category":"restaurant"}]},{"lat":"37.222854985","long":"126.97381237","imageIndex":4,"items":[{"name":"더 진국(화성와우점)","tel":"031-222-1010","addr":"경기도 화성시 기안동 369-1번지 1층 일부호","indutype":"일반휴게음식 - 일반한식","category":"restaurant"},{"name":"족꾼 화성와우점","tel":"","addr":"경기도 화성시 기안동 369-1번지 1층","indutype":"일반휴게음식 - 일반한식","category":"restaurant"}]},{"lat":"37.224440698","long":"126.97337232","imageIndex":4,"items":[{"name":"돈까스교실","tel":"","addr":"경기도 화성시 기안동 355-8번지 1층 8호","indutype":"일반휴게음식 - 서양음식","category":"restaurant"},{"name":"미소통닭","tel":"031-297-9779","addr":"경기도 화성시 기안동 355-8번지","indutype":"일반휴게음식 - 스넥","category":"restaurant"},{"name":"춘천참맛닭갈비","tel":"031-236-3356","addr":"경기도 화성시 기안동 355-8번지","indutype":"일반휴게음식 - 일반한식","category":"restaurant"},{"name":"카페하나","tel":"070-4239-3322","addr":"경기도 화성시 기안동 355-8번지 103호","indutype":"일반휴게음식 - 서양음식","category":"restaurant"}]},{"lat":"37.221045103","long":"126.9791987","imageIndex":4,"items":[{"name":"디디치킨 (수원대점)","tel":"031-225-9282","addr":"경기도 화성시 기안동 453-11번지","indutype":"일반휴게음식 - 주점","category":"restaurant"}]},{"lat":"37.222656991","long":"126.97478143","imageIndex":4,"items":[{"name":"롯데리아화성기안점","tel":"031-224-9711","addr":"경기도 화성시 기안동 371-2번지 보보스프라자 106호","indutype":"일반휴게음식 - 서양음식","category":"restaurant"},{"name":"빨봉분식","tel":"031-261-3335","addr":"경기도 화성시 기안동 371-2번지 보보스프라자 114호","indutype":"일반휴게음식 - 일반한식","category":"restaurant"},{"name":"카페 엘리스","tel":"031-226-0906","addr":"경기도 화성시 기안동 371-2번지 보보스프라자 113호","indutype":"일반휴게음식 - 서양음식","category":"restaurant"},{"name":"카페블루스탬프","tel":"031-8055-8065","addr":"경기도 화성시 기안동 371-2번지 보보스프라자 105호","indutype":"일반휴게음식 - 서양음식","category":"restaurant"},{"name":"토마토김밥","tel":"031-223-1006","addr":"경기도 화성시 기안동 371-2번지 보보스프라자 111호","indutype":"일반휴게음식 - 스넥","category":"restaurant"},{"name":"훌랄라 참숯 바베큐 치킨","tel":"031-221-5454","addr":"경기도 화성시 기안동 371-2번지 보보스프라자 112호","indutype":"일반휴게음식 - 스넥","category":"restaurant"}]},{"lat":"37.225189173","long":"126.97595232","imageIndex":4,"items":[{"name":"미르팜(까망미르)","tel":"031-222-1337","addr":"경기도 화성시 기안동 288-6번지 103호","indutype":"일반휴게음식 - 서양음식","category":"restaurant"}]},{"lat":"37.225044454","long":"126.97361998","imageIndex":4,"items":[{"name":"반찬가게","tel":"031-221-6065","addr":"경기도 화성시 기안동 353번지 1층 103호","indutype":"일반휴게음식 - 일반한식","category":"restaurant"}]},{"lat":"37.228461879","long":"126.98664461","imageIndex":4,"items":[{"name":"베리굿","tel":"031-223-1277","addr":"경기도 화성시 기안동 112-1번지 1층","indutype":"일반휴게음식 - 일반한식","category":"restaurant"}]},{"lat":"37.227603199","long":"126.97284149","imageIndex":4,"items":[{"name":"비비큐","tel":"031-223-9277","addr":"경기도 화성시 기안동 328-1번지 광도와이드빌 상가 102호","indutype":"일반휴게음식 - 서양음식","category":"restaurant"}]},{"lat":"37.225107408","long":"126.97314671","imageIndex":4,"items":[{"name":"사천","tel":"031-222-8638","addr":"경기도 화성시 기안동 354-1번지 우림그린빌리지 상가동 204호","indutype":"일반휴게음식 - 중국식","category":"restaurant"},{"name":"처가집통닭","tel":"031-224-5646","addr":"경기도 화성시 기안동 354-1번지 우림그린빌리지 상가 101호","indutype":"일반휴게음식 - 주점","category":"restaurant"}]},{"lat":"37.221937162","long":"126.97936743","imageIndex":4,"items":[{"name":"산골우렁쌈밥","tel":"031-239-5457","addr":"경기도 화성시 기안동 426-6번지 1층","indutype":"일반휴게음식 - 일반한식","category":"restaurant"}]},{"lat":"37.22524238","long":"126.97242553","imageIndex":4,"items":[{"name":"산들소리오리주물럭","tel":"031-226-8415","addr":"경기도 화성시 기안동 340-1번지 1층 전체호","indutype":"일반휴게음식 - 일반한식","category":"restaurant"}]},{"lat":"37.216018188","long":"126.9840335","imageIndex":4,"items":[{"name":"아토아쿠아커피","tel":"031-223-2248","addr":"경기도 화성시 기안동 457-50번지 1층","indutype":"일반휴게음식 - 서양음식","category":"restaurant"}]},{"lat":"37.224992516","long":"126.98408761","imageIndex":4,"items":[{"name":"와! 우리밥집","tel":"031-221-4473","addr":"경기도 화성시 기안동 223-1번지","indutype":"일반휴게음식 - 일반한식","category":"restaurant"}]},{"lat":"37.22519108","long":"126.98634108","imageIndex":4,"items":[{"name":"이조참나무장작불곰탕","tel":"031-222-1823","addr":"경기도 화성시 기안동 21-23번지 1층","indutype":"일반휴게음식 - 일반한식","category":"restaurant"}]},{"lat":"37.224684059","long":"126.97369899","imageIndex":4,"items":[{"name":"즐겨찾기","tel":"031-225-7282","addr":"경기도 화성시 기안동 354-5번지 신염메디칼센타 104호","indutype":"일반휴게음식 - 스넥","category":"restaurant"}]},{"lat":"37.223685738","long":"126.98242035","imageIndex":4,"items":[{"name":"커피밤 (Coffee Balm)","tel":"02-1111-1111","addr":"경기도 화성시 기안동 447-7번지 1층","indutype":"일반휴게음식 - 서양음식","category":"restaurant"}]},{"lat":"37.226774061","long":"126.97212068","imageIndex":4,"items":[{"name":"커피볶는집","tel":"031-224-5454","addr":"경기도 화성시 기안동 336번지 1층","indutype":"일반휴게음식 - 서양음식","category":"restaurant"}]},{"lat":"37.227855253","long":"126.97192868","imageIndex":4,"items":[{"name":"택이네","tel":"031-222-8458","addr":"경기도 화성시 기안동 333-6번지 대원빌딩 1층","indutype":"일반휴게음식 - 일반한식","category":"restaurant"}]},{"lat":"37.21754905","long":"126.97904206","imageIndex":4,"items":[{"name":"하이푸드","tel":"031-223-7965","addr":"경기도 화성시 기안동 460-97번지","indutype":"일반휴게음식 - 위탁급식업","category":"restaurant"}]},{"lat":"37.223324356","long":"126.97742901","imageIndex":4,"items":[{"name":"해피분식","tel":"031-224-9236","addr":"경기도 화성시 기안동 910번지 신일해피트리 상가동 101호","indutype":"일반휴게음식 - 스넥","category":"restaurant"}]},{"lat":"37.225990211","long":"126.97231255","imageIndex":13,"items":[{"name":"OK당구클럽","tel":"070-7518-7419","addr":"경기도 화성시 기안동 338-3번지 남수원씨티프라자 214호","indutype":"레저업소 - 당 구 장","category":"leisure"},{"name":"까치노래연습장","tel":"031-225-9272","addr":"경기도 화성시 기안동 338-3번지 남수원씨티프라자 2층205호~206호","indutype":"레저업소 - 노 래 방","category":"leisure"},{"name":"청춘스크린골프","tel":"031-226-5432","addr":"경기도 화성시 기안동 338-3번지 남수원씨티프라자 202동 204호","indutype":"레저업소 - 스크린골프","category":"leisure"}]},{"lat":"37.224684059","long":"126.97369899","imageIndex":13,"items":[{"name":"SG골프아카데미","tel":"031-831-5654","addr":"경기도 화성시 기안동 354-5번지 신영메디칼센터 지하1층","indutype":"레저업소 - 골프연습장","category":"leisure"}]},{"lat":"37.224440698","long":"126.97337232","imageIndex":13,"items":[{"name":"목장방방","tel":"031-221-4788","addr":"경기도 화성시 기안동 355-8번지 2층","indutype":"레저업소 - 기타레져업소","category":"leisure"}]},{"lat":"37.222656991","long":"126.97478143","imageIndex":13,"items":[{"name":"살린요가","tel":"031-232-7754","addr":"경기도 화성시 기안동 371-2번지 보보스프라자 208호","indutype":"레저업소 - 헬스클럽","category":"leisure"},{"name":"스피닝짐","tel":"02-6340-5359","addr":"경기도 화성시 기안동 371-2번지 보보스프라자 210호","indutype":"레저업소 - 헬스클럽","category":"leisure"},{"name":"커뮤스 다이빙 팀(Commus Diving Team)","tel":"031-222-7058","addr":"경기도 화성시 기안동 371-2번지 보보스프라자 209호","indutype":"레저업소 - 기타레져업소","category":"leisure"},{"name":"화성클라이밍클럽","tel":"031-226-5016","addr":"경기도 화성시 기안동 371-2번지 보보스프라자 207호","indutype":"레저업소 - 기타레져업소","category":"leisure"}]},{"lat":"37.223189921","long":"126.9810346","imageIndex":13,"items":[{"name":"이니 요가짐","tel":"031-235-0285","addr":"경기도 화성시 기안동 450번지","indutype":"레저업소 - 헬스클럽","category":"leisure"}]},{"lat":"37.225521643","long":"126.97220006","imageIndex":13,"items":[{"name":"파브노래연습장","tel":"031-222-2802","addr":"경기도 화성시 기안동 338-4번지 201호","indutype":"레저업소 - 노 래 방","category":"leisure"}]},{"lat":"37.224404475","long":"126.97265122","imageIndex":13,"items":[{"name":"파우피씨카페","tel":"070-3281-0354","addr":"경기도 화성시 기안동 355-2번지","indutype":"레저업소 - 기타레져업소","category":"leisure"}]},{"lat":"37.228073967","long":"126.9835347","imageIndex":13,"items":[{"name":"휴 house","tel":"031-223-3393","addr":"경기도 화성시 기안동 190-6번지 2층 205호","indutype":"레저업소 - 기타레져업소","category":"leisure"}]},{"lat":"37.227632152","long":"126.98173194","imageIndex":13,"items":[{"name":"휴 컴퍼니","tel":"031-223-3393","addr":"경기도 화성시 기안동 240-1번지 외 1필지","indutype":"레저업소 - 기타레져업소","category":"leisure"}]},{"lat":"37.224188275","long":"126.97284285","imageIndex":13,"items":[{"name":"힐링노래연습장","tel":"031-898-7999","addr":"경기도 화성시 기안동 356-9번지 2층","indutype":"레저업소 - 노 래 방","category":"leisure"}]},{"lat":"37.222656991","long":"126.97478143","imageIndex":16,"items":[{"name":"SM수학학원","tel":"031-355-0147","addr":"경기도 화성시 기안동 371-2번지 보보스프라자 213호","indutype":"학원 - 보습학원","category":"study"},{"name":"제이잉글리쉬존초중고영어전문보습학원","tel":"031-222-2272","addr":"경기도 화성시 기안동 371-2번지 보보스프라자 113호","indutype":"학원 - 보습학원","category":"study"}]},{"lat":"37.232047225","long":"126.98175324","imageIndex":16,"items":[{"name":"개구쟁이어린이체육교실","tel":"031-296-3450","addr":"경기도 화성시 기안동 92-1번지 E동 1층","indutype":"학원 - 기타 교육기관","category":"study"}]},{"lat":"37.219469782","long":"126.98848302","imageIndex":16,"items":[{"name":"경희대수석태권도체육관","tel":"031-234-8708","addr":"경기도 화성시 기안동 897번지 쇼핑타운 206호","indutype":"학원 - 예·체능계학원","category":"study"},{"name":"기안학원","tel":"031-233-3809","addr":"경기도 화성시 기안동 897번지 신미주쇼핑타운 1층 117호","indutype":"학원 - 보습학원","category":"study"},{"name":"새론 음악학원","tel":"031-236-8270","addr":"경기도 화성시 기안동 897번지 신미주쇼핑타운 201호,207호","indutype":"학원 - 예·체능계학원","category":"study"},{"name":"아이풍경미창조미술학원","tel":"031-221-2721","addr":"경기도 화성시 기안동 897번지 기안마을풍성신미주쇼핑타운 202호","indutype":"학원 - 예·체능계학원","category":"study"},{"name":"투탑학원","tel":"031-267-1507","addr":"경기도 화성시 기안동 897번지 풍성신미주쇼핑타운 203호","indutype":"학원 - 보습학원","category":"study"},{"name":"해법영어","tel":"031-891-3454","addr":"경기도 화성시 기안동 897번지 풍성신미주쇼핑타운 205호","indutype":"학원 - 외국어학원","category":"study"}]},{"lat":"37.227018042","long":"126.97494883","imageIndex":16,"items":[{"name":"광도어린이집[아이행복]","tel":"031-233-2474","addr":"경기도 화성시 기안동 290번지 광도와이드빌 107동 102호","indutype":"학원 - 유아원","category":"study"}]},{"lat":"37.224684059","long":"126.97369899","imageIndex":16,"items":[{"name":"국가대표 태권도","tel":"031-233-7981","addr":"경기도 화성시 기안동 354-5번지 신영메디칼센타 5층 1호","indutype":"학원 - 예·체능계학원","category":"study"},{"name":"에듀탑클래스학원","tel":"031-221-0058","addr":"경기도 화성시 기안동 354-5번지 신영메디칼센터 401호","indutype":"회원제형태 - 학원","category":"study"}]},{"lat":"37.225072242","long":"126.97686504","imageIndex":16,"items":[{"name":"기안A플러스학원","tel":"070-4388-7624","addr":"경기도 화성시 기안동 285-2번지 1층","indutype":"학원 - 보습학원","category":"study"}]},{"lat":"37.225476884","long":"126.97334938","imageIndex":16,"items":[{"name":"기안우림어린이집[아이행복]","tel":"031-221-1190","addr":"경기도 화성시 기안동 349번지 우림그린빌리지 101동 102호","indutype":"학원 - 유아원","category":"study"}]},{"lat":"37.224161928","long":"126.975671","imageIndex":16,"items":[{"name":"기안중학교","tel":"031-290-1804","addr":"경기도 화성시 기안동 365번지 기안중학교","indutype":"학원 - 초중고교육기관","category":"study"}]},{"lat":"37.225243191","long":"126.97576075","imageIndex":16,"items":[{"name":"기안하버드학원","tel":"031-223-0887","addr":"경기도 화성시 기안동 288-7번지 2층 201호","indutype":"학원 - 보습학원","category":"study"},{"name":"시편음악학원","tel":"031-222-4822","addr":"경기도 화성시 기안동 288-7번지 104,105,202호","indutype":"학원 - 예·체능계학원","category":"study"}]},{"lat":"37.225017919","long":"126.97570449","imageIndex":16,"items":[{"name":"꽃무지풀무지유치원[아이행복]","tel":"031-224-7474","addr":"경기도 화성시 기안동 362-8번지 외1필지(363-6번지)","indutype":"학원 - 유치원","category":"study"}]},{"lat":"37.226657265","long":"126.97345033","imageIndex":16,"items":[{"name":"네오가베어린이집[아이행복]","tel":"031-221-4633","addr":"경기도 화성시 기안동 344-3번지","indutype":"학원 - 유아원","category":"study"}]},{"lat":"37.225189173","long":"126.97595232","imageIndex":16,"items":[{"name":"뉴필립에듀학원","tel":"031-239-9379","addr":"경기도 화성시 기안동 288-6번지 2층","indutype":"회원제형태 - 학원","category":"study"}]},{"lat":"37.226675772","long":"126.97547854","imageIndex":16,"items":[{"name":"또래나라어린이집[아이행복]","tel":"031-234-3248","addr":"경기도 화성시 기안동 290번지 광도와이드빌 제111동 103호","indutype":"학원 - 유아원","category":"study"},{"name":"또래나라어린이집[아이행복]","tel":"031-234-3248","addr":"경기도 화성시 기안동 290번지 광도와이드빌 111동 103호","indutype":"학원 - 유아원","category":"study"}]},{"lat":"37.226828774","long":"126.97473481","imageIndex":16,"items":[{"name":"봄빛어린이집[아이행복]","tel":"031-236-6889","addr":"경기도 화성시 기안동 290번지 광도와이드빌 관리동 1호","indutype":"학원 - 유아원","category":"study"}]},{"lat":"37.22362973","long":"126.97322616","imageIndex":16,"items":[{"name":"상상수학영어전문학원","tel":"031-226-2016","addr":"경기도 화성시 기안동 357-1번지","indutype":"회원제형태 - 학원","category":"study"},{"name":"이룸독서실","tel":"070-4617-1237","addr":"경기도 화성시 기안동 357-1번지 3층","indutype":"학원 - 독서실","category":"study"}]},{"lat":"37.224991034","long":"126.97634676","imageIndex":16,"items":[{"name":"서울정진학원","tel":"031-8043-1239","addr":"경기도 화성시 기안동 287번지 202호","indutype":"학원 - 보습학원","category":"study"},{"name":"용인대코리아태권도","tel":"031-222-3626","addr":"경기도 화성시 기안동 287번지 제일프라자 2층","indutype":"학원 - 예·체능계학원","category":"study"}]},{"lat":"37.217162895","long":"126.98666956","imageIndex":16,"items":[{"name":"수원삼성블루윙즈 유소년아카데미(수원대점","tel":"031-000-0000","addr":"경기도 화성시 기안동 457-250번지","indutype":"학원 - 예·체능계학원","category":"study"}]},{"lat":"37.223324356","long":"126.97742901","imageIndex":16,"items":[{"name":"신일해피트리해법수학학원","tel":"031-898-6555","addr":"경기도 화성시 기안동 910번지 상가동 207~208호","indutype":"학원 - 보습학원","category":"study"},{"name":"해피트리어린이집[아이행복]","tel":"031-221-4106","addr":"경기도 화성시 기안동 910번지 신일해피트리 관리동 1층","indutype":"학원 - 유아원","category":"study"}]},{"lat":"37.222045315","long":"126.97951387","imageIndex":16,"items":[{"name":"아름드리미술어린이집[아이행복]","tel":"031-223-7600","addr":"경기도 화성시 기안동 426-1번지 1필지","indutype":"학원 - 유아원","category":"study"}]},{"lat":"37.224991161","long":"126.97692141","imageIndex":16,"items":[{"name":"애프터학원","tel":"031-222-2422","addr":"경기도 화성시 기안동 285-11번지","indutype":"학원 - 보습학원","category":"study"}]},{"lat":"37.227603199","long":"126.97284149","imageIndex":16,"items":[{"name":"엘사음악학원","tel":"031-223-1626","addr":"경기도 화성시 기안동 328-1번지 3층 302호","indutype":"학원 - 예·체능계학원","category":"study"}]},{"lat":"37.220217416","long":"126.98672525","imageIndex":16,"items":[{"name":"예일유치원[아이행복]","tel":"031-226-6978","addr":"경기도 화성시 기안동 908번지","indutype":"학원 - 유치원","category":"study"}]},{"lat":"37.224548695","long":"126.97286524","imageIndex":16,"items":[{"name":"올리브 미술 교습소","tel":"","addr":"경기도 화성시 기안동 355-14번지 건영 상가동 201호","indutype":"학원 - 예·체능계학원","category":"study"}]},{"lat":"37.226180085","long":"126.97497167","imageIndex":16,"items":[{"name":"와이비엠(YBM)리딩클럽","tel":"031-278-6352","addr":"경기도 화성시 기안동 290번지 광도와이드빌 112동 201호","indutype":"학원 - 기타 교육기관","category":"study"},{"name":"초록나무어린이집[아이행복]","tel":"031-232-8705","addr":"경기도 화성시 기안동 290번지 광도와이드빌 112동 103호","indutype":"학원 - 유아원","category":"study"}]},{"lat":"37.225819534","long":"126.97439715","imageIndex":16,"items":[{"name":"우리누리어린이집[아이행복]","tel":"031-223-0095","addr":"경기도 화성시 기안동 349번지 우림그린빌리지 106동 101호","indutype":"학원 - 유아원","category":"study"}]},{"lat":"37.225882587","long":"126.97431825","imageIndex":16,"items":[{"name":"우림별초롱 어린이집[아이행복]","tel":"031-226-9959","addr":"경기도 화성시 기안동 349번지 우림그린빌리지 관리동","indutype":"학원 - 유아원","category":"study"}]},{"lat":"37.226494755","long":"126.97217713","imageIndex":16,"items":[{"name":"정일외국어보습학원","tel":"031-222-2005","addr":"경기도 화성시 기안동 335-8번지 2층","indutype":"학원 - 보습학원","category":"study"}]},{"lat":"37.225405421","long":"126.97595224","imageIndex":16,"items":[{"name":"튼튼영어마스터클럽기안학원","tel":"031-226-0505","addr":"경기도 화성시 기안동 288-5번지","indutype":"학원 - 보습학원","category":"study"}]},{"lat":"37.225297421","long":"126.9765044","imageIndex":16,"items":[{"name":"퍼니퍼니아트미술학원","tel":"031-238-7034","addr":"경기도 화성시 기안동 286-3번지 1층","indutype":"학원 - 예·체능계학원","category":"study"}]},{"lat":"37.223342219","long":"126.97670789","imageIndex":16,"items":[{"name":"푸른나무어린이집[아이행복]","tel":"031-226-3805","addr":"경기도 화성시 기안동 910번지 신일해피트리 107동 104호","indutype":"학원 - 유아원","category":"study"}]},{"lat":"37.224774557","long":"126.97534402","imageIndex":16,"items":[{"name":"푸른밭어린이집[아이행복]","tel":"031-235-7800","addr":"경기도 화성시 기안동 363-2번지","indutype":"학원 - 유아원","category":"study"}]},{"lat":"37.225189372","long":"126.97684246","imageIndex":16,"items":[{"name":"하늘검도관","tel":"031-224-5105","addr":"경기도 화성시 기안동 285-8번지","indutype":"학원 - 예·체능계학원","category":"study"}]},{"lat":"37.21754905","long":"126.97904206","imageIndex":16,"items":[{"name":"홍익디자인고등학교","tel":"031-8055-3004","addr":"경기도 화성시 기안동 460-97번지 홍익디자인고등학교","indutype":"학원 - 초중고교육기관","category":"study"}]},{"lat":"37.230155469","long":"126.98423281","imageIndex":16,"items":[{"name":"힘찬어린이체육교실","tel":"070-8173-1337","addr":"경기도 화성시 기안동 98번지 1층","indutype":"학원 - 기타 교육기관","category":"study"}]},{"lat":"37.225990211","long":"126.97231255","imageIndex":13,"items":[{"name":"가위손헤어","tel":"031-224-3075","addr":"경기도 화성시 기안동 338-3번지 남수원씨티프라자 1층 102호","indutype":"보건위생 - 미용원","category":"beauty"},{"name":"궁","tel":"031-898-7809","addr":"경기도 화성시 기안동 338-3번지 남수원씨티프라자 2층 201호","indutype":"보건위생 - 피부미용실","category":"beauty"},{"name":"주식회사 휴참사랑","tel":"031-267-2575","addr":"경기도 화성시 기안동 338-3번지 남수원씨티프라자 지층","indutype":"보건위생 - 사우나","category":"beauty"}]},{"lat":"37.221711643","long":"126.97809431","imageIndex":13,"items":[{"name":"금당","tel":"031-222-0276","addr":"경기도 화성시 기안동 412","indutype":"보건위생 - 화장품","category":"beauty"}]},{"lat":"37.224440698","long":"126.97337232","imageIndex":13,"items":[{"name":"꿈꾸는네일","tel":"031-111-1111","addr":"경기도 화성시 기안동 355-8번지","indutype":"보건위생 - 피부미용실","category":"beauty"},{"name":"헤어스케치","tel":"031-225-6824","addr":"경기도 화성시 기안동 355-8번지","indutype":"보건위생 - 미용원","category":"beauty"}]},{"lat":"37.224188275","long":"126.97284285","imageIndex":13,"items":[{"name":"나라뷰티","tel":"031-8058-2044","addr":"경기도 화성시 기안동 356-9번지 206호","indutype":"보건위생 - 화장품","category":"beauty"}]},{"lat":"37.227603199","long":"126.97284149","imageIndex":13,"items":[{"name":"다&모 hair","tel":"031-239-1835","addr":"경기도 화성시 기안동 328-1번지 2층","indutype":"보건위생 - 미용원","category":"beauty"},{"name":"뷰티#","tel":"031-222-5745","addr":"경기도 화성시 기안동 328-1번지 광도와이드빌 상가 203호","indutype":"보건위생 - 피부미용실","category":"beauty"}]},{"lat":"37.22545928","long":"126.97507335","imageIndex":13,"items":[{"name":"도도샵","tel":"","addr":"경기도 화성시 기안동 349번지 우림그린빌리지 107동 104호","indutype":"보건위생 - 화장품","category":"beauty"}]},{"lat":"37.222656991","long":"126.97478143","imageIndex":13,"items":[{"name":"디젤","tel":"031-224-2793","addr":"경기도 화성시 기안동 371-2번지 보보스프라자 205호","indutype":"보건위생 - 피부미용실","category":"beauty"},{"name":"보보스스파랜드","tel":"031-000-0000","addr":"경기도 화성시 기안동 371-2번지 ,3,4층","indutype":"보건위생 - 기타대인서비스","category":"beauty"},{"name":"보보헤어클럽","tel":"031-224-1968","addr":"경기도 화성시 기안동 371-2번지 보보스프라자 110호","indutype":"보건위생 - 미용원","category":"beauty"}]},{"lat":"37.22713451","long":"126.97225575","imageIndex":13,"items":[{"name":"라므에이 (ramhei)","tel":"070-4110-7777","addr":"경기도 화성시 기안동 336-1번지 2층","indutype":"보건위생 - 화장품","category":"beauty"},{"name":"비엠헤어살롱","tel":"031-222-0154","addr":"경기도 화성시 기안동 336-1번지 외1필지","indutype":"보건위생 - 미용원","category":"beauty"}]},{"lat":"37.224683916","long":"126.97312434","imageIndex":13,"items":[{"name":"머리가","tel":"031-221-2809","addr":"경기도 화성시 기안동 355-16번지 우림그린빌리지 일반상가 104호","indutype":"보건위생 - 미용원","category":"beauty"}]},{"lat":"37.224684059","long":"126.97369899","imageIndex":13,"items":[{"name":"신데렐라","tel":"031-223-7365","addr":"경기도 화성시 기안동 354-5번지 신영빌딩 105호","indutype":"보건위생 - 미용원","category":"beauty"}]},{"lat":"37.224548695","long":"126.97286524","imageIndex":13,"items":[{"name":"아룸뷰티","tel":"","addr":"경기도 화성시 기안동 355-14번지 건영 2층 208호","indutype":"보건위생 - 피부미용실","category":"beauty"}]},{"lat":"37.223189921","long":"126.9810346","imageIndex":13,"items":[{"name":"에스지","tel":"031-292-2212","addr":"경기도 화성시 기안동 450번지 외1필지 1층 102호","indutype":"보건위생 - 미용재료","category":"beauty"},{"name":"제이디피부공방","tel":"","addr":"경기도 화성시 기안동 450번지","indutype":"보건위생 - 피부미용실","category":"beauty"}]},{"lat":"37.220684777","long":"126.97964949","imageIndex":13,"items":[{"name":"에스지","tel":"031-292-2212","addr":"경기도 화성시 기안동 456-71번지 1층 101호","indutype":"보건위생 - 미용재료","category":"beauty"}]},{"lat":"37.22463037","long":"126.97525393","imageIndex":13,"items":[{"name":"오케이헤어","tel":"031-224-2330","addr":"경기도 화성시 기안동 363-3번지 101호","indutype":"보건위생 - 미용원","category":"beauty"}]},{"lat":"37.225107408","long":"126.97314671","imageIndex":13,"items":[{"name":"우림미용실","tel":"031-239-7677","addr":"경기도 화성시 기안동 354-1번지 우림그린빌리지 상가동 107호","indutype":"보건위생 - 미용원","category":"beauty"}]},{"lat":"37.219469782","long":"126.98848302","imageIndex":13,"items":[{"name":"유미현아트","tel":"031-235-9859","addr":"경기도 화성시 기안동 897번지 신미주쇼핑타운 116호","indutype":"보건위생 - 미용원","category":"beauty"},{"name":"코디헤어","tel":"031-226-9055","addr":"경기도 화성시 기안동 897번지 신미주쇼핑타운 104호","indutype":"보건위생 - 미용원","category":"beauty"}]},{"lat":"37.225189173","long":"126.97595232","imageIndex":13,"items":[{"name":"트렌디헤어","tel":"031-222-0171","addr":"경기도 화성시 기안동 288-6번지 해피트리빌딩 102호","indutype":"보건위생 - 미용원","category":"beauty"}]},{"lat":"37.224909604","long":"126.974882","imageIndex":13,"items":[{"name":"파타야","tel":"","addr":"경기도 화성시 기안동 349번지 우림그린빌리지 103동 502호","indutype":"보건위생 - 화장품","category":"beauty"}]},{"lat":"37.223324356","long":"126.97742901","imageIndex":13,"items":[{"name":"해피(Happy)","tel":"070-7666-5985","addr":"경기도 화성시 기안동 910번지 107호일부","indutype":"보건위생 - 미용원","category":"beauty"}]},{"lat":"37.224991034","long":"126.97634676","imageIndex":13,"items":[{"name":"헤어글리터","tel":"031-8050-8889","addr":"경기도 화성시 기안동 287번지 101호","indutype":"보건위생 - 미용원","category":"beauty"}]},{"lat":"37.22429857","long":"126.98317511","imageIndex":13,"items":[{"name":"현헤어라인","tel":"031-225-2932","addr":"경기도 화성시 기안동 442번지","indutype":"보건위생 - 미용원","category":"beauty"}]},{"lat":"37.225521643","long":"126.97220006","imageIndex":13,"items":[{"name":"홍콩","tel":"031-221-6657","addr":"경기도 화성시 기안동 338-4번지 2층","indutype":"보건위생 - 피부미용실","category":"beauty"}]},{"lat":"37.226774061","long":"126.97212068","imageIndex":8,"items":[{"name":"감초한의원","tel":"031-225-4357","addr":"경기도 화성시 기안동 336번지 2층","indutype":"의원 - 한의원","category":"medical"}]},{"lat":"37.222656991","long":"126.97478143","imageIndex":8,"items":[{"name":"굿모닝약국","tel":"031-221-7275","addr":"경기도 화성시 기안동 371-2번지 보보스프라자 203호","indutype":"약국 - 약국","category":"medical"},{"name":"수이비인후과","tel":"031-221-8580","addr":"경기도 화성시 기안동 371-2번지 외4필지 보보스프라자상가 2층 204호","indutype":"의원 - 의원","category":"medical"}]},{"lat":"37.219469782","long":"126.98848302","imageIndex":8,"items":[{"name":"신미주가정의학과의원","tel":"031-223-1355","addr":"경기도 화성시 기안동 897번지 풍성신미주타운 B02호","indutype":"의원 - 의원","category":"medical"},{"name":"우리약국","tel":"031-898-7997","addr":"경기도 화성시 기안동 897번지 풍성신미주타운 B105호","indutype":"약국 - 약국","category":"medical"}]},{"lat":"37.224188275","long":"126.97284285","imageIndex":8,"items":[{"name":"연세화이트치과의원","tel":"031-224-8422","addr":"경기도 화성시 기안동 356-9번지","indutype":"의원 - 치과의원","category":"medical"}]},{"lat":"37.224684059","long":"126.97369899","imageIndex":8,"items":[{"name":"윤내과의원","tel":"031-222-2180","addr":"경기도 화성시 기안동 354-5번지","indutype":"의원 - 의원","category":"medical"}]},{"lat":"37.224992516","long":"126.98408761","imageIndex":8,"items":[{"name":"형재약국","tel":"031-224-6212","addr":"경기도 화성시 기안동 223-1번지","indutype":"약국 - 약국","category":"medical"}]},{"lat":"37.222656991","long":"126.97478143","imageIndex":7,"items":[{"name":"고기야야채야과일아","tel":"031-221-7079","addr":"경기도 화성시 기안동 371-2번지 보보스프라자 109호","indutype":"음료식품 - 정육점","category":"food"},{"name":"떡빚는궁전","tel":"031-226-5588","addr":"경기도 화성시 기안동 371-2번지 보보스프라자 107호","indutype":"음료식품 - 제과점","category":"food"},{"name":"미소&시후","tel":"031-223-5246","addr":"경기도 화성시 기안동 371-2번지 보보스프라자 206호","indutype":"음료식품 - 기타음료식품","category":"food"},{"name":"파리바게뜨 화성보보스","tel":"031-224-8201","addr":"경기도 화성시 기안동 371-2번지 보보스프라자 108호","indutype":"음료식품 - 제과점","category":"food"},{"name":"파리바게뜨화성보보스","tel":"031-224-8201","addr":"경기도 화성시 기안동 371-2번지 보보스프라자11상가 1층 108호","indutype":"음료식품 - 제과점","category":"food"}]},{"lat":"37.219469782","long":"126.98848302","imageIndex":7,"items":[{"name":"기안동빵가게","tel":"031-226-0908","addr":"경기도 화성시 기안동 897번지 풍성신미주쇼핑센터 106호","indutype":"음료식품 - 제과점","category":"food"}]},{"lat":"37.225990211","long":"126.97231255","imageIndex":7,"items":[{"name":"농협홍삼경기남부점","tel":"031-234-5345","addr":"경기도 화성시 기안동 338-3번지 남수원프라자 104호","indutype":"건강식품 - 홍삼제품","category":"food"},{"name":"한양떡방앗간","tel":"031-222-2959","addr":"경기도 화성시 기안동 338-3번지 남수원씨티프라자 107호","indutype":"음료식품 - 제과점","category":"food"}]},{"lat":"37.223658931","long":"126.98376118","imageIndex":7,"items":[{"name":"소문난진숙이네김치","tel":"031-222-1363","addr":"경기도 화성시 기안동 457-70번지 1층 일부호","indutype":"음료식품 - 기타음료식품","category":"food"},{"name":"풍년축산3호점","tel":"031-225-3566","addr":"경기도 화성시 기안동 457-70번지 1층","indutype":"음료식품 - 정육점","category":"food"}]},{"lat":"37.222802471","long":"126.98101218","imageIndex":7,"items":[{"name":"신우미트","tel":"031-232-1515","addr":"경기도 화성시 기안동 451-3번지","indutype":"음료식품 - 정육점","category":"food"}]},{"lat":"37.217162895","long":"126.98666956","imageIndex":7,"items":[{"name":"영농조합법인미일식품","tel":"031-223-5021","addr":"경기도 화성시 기안동 457-250번지","indutype":"음료식품 - 기타음료식품","category":"food"}]},{"lat":"37.225378572","long":"126.97676353","imageIndex":7,"items":[{"name":"예스미푸드시스템","tel":"031-295-0646","addr":"경기도 화성시 기안동 285-1번지","indutype":"음료식품 - 기타음료식품","category":"food"}]},{"lat":"37.225323885","long":"126.97407057","imageIndex":7,"items":[{"name":"우림청과","tel":"","addr":"경기도 화성시 기안동 349번지 우림그린빌리지 102동 906호","indutype":"음료식품 - 농·축·수산품","category":"food"}]},{"lat":"37.225019449","long":"126.98347915","imageIndex":7,"items":[{"name":"주식회사 제이에스올미트","tel":"031-235-0856","addr":"경기도 화성시 기안동 222-3번지 C동","indutype":"음료식품 - 정육점","category":"food"}]},{"lat":"37.224216875","long":"126.97983995","imageIndex":7,"items":[{"name":"해담 CO.","tel":"041-459-4158","addr":"경기도 화성시 기안동 269번지","indutype":"음료식품 - 기타음료식품","category":"food"}]},{"lat":"37.229966355","long":"126.98489769","imageIndex":9,"items":[{"name":"기안 셀프 주유소","tel":"031-225-1225","addr":"경기도 화성시 기안동 100번지","indutype":"연료판매점 - SK주유소","category":"oil"}]},{"lat":"37.223551681","long":"126.99028503","imageIndex":9,"items":[{"name":"배양석유","tel":"032-222-2400","addr":"경기도 화성시 기안동 20-182번지","indutype":"연료판매점 - 유류판매","category":"oil"}]},{"lat":"37.219469782","long":"126.98848302","imageIndex":7,"items":[{"name":"신세계할인유통","tel":"031-221-8254","addr":"경기도 화성시 기안동 897번지 풍성신미주쇼핑타운 B01동 897호 B01B02","indutype":"유통업 영리 - 슈퍼마켓","category":"mart"}]},{"lat":"37.223324356","long":"126.97742901","imageIndex":7,"items":[{"name":"신일마트&축산","tel":"031-226-7740","addr":"경기도 화성시 기안동 910번지 신일해피트리 상가동 104-5호","indutype":"유통업 영리 - 슈퍼마켓","category":"mart"}]},{"lat":"37.224991034","long":"126.97634676","imageIndex":7,"items":[{"name":"와글와글","tel":"031-234-5758","addr":"경기도 화성시 기안동 287번지","indutype":"유통업 영리 - 슈퍼마켓","category":"mart"}]},{"lat":"37.225107408","long":"126.97314671","imageIndex":7,"items":[{"name":"우림마트","tel":"031-226-0194","addr":"경기도 화성시 기안동 354-1번지 우림그린빌리지 103호,104호","indutype":"유통업 영리 - 슈퍼마켓","category":"mart"}]},{"lat":"37.223019378","long":"126.98492188","imageIndex":7,"items":[{"name":"풍성할인마트","tel":"031-224-4946","addr":"경기도 화성시 기안동 457-79번지","indutype":"유통업 영리 - 슈퍼마켓","category":"mart"}]}]