[{"lat":"37.245041501","long":"126.99189315","imageIndex":17,"items":[{"name":"(주)에스엠프리미엄렌트카","tel":"02-1811-9770","addr":"경기도 수원시 권선구 평리동 201-2번지 4층","indutype":"여행 - 렌터카","category":"other"},{"name":"(주)에스엠프리미엄렌트카","tel":"","addr":"경기도 수원시 권선구 평리동 201-2번지 4층","indutype":"여행 - 렌터카","category":"other"}]},{"lat":"37.243410521","long":"126.99075508","imageIndex":17,"items":[{"name":"주식회사발해항공여행사","tel":"031-224-0244","addr":"경기도 수원시 권선구 평리동 216-4번지","indutype":"여행 - 관광여행","category":"other"}]},{"lat":"37.244131504","long":"126.99240045","imageIndex":9,"items":[{"name":"경인영진가스","tel":"031-278-5523","addr":"경기도 수원시 권선구 평리동 203-3","indutype":"연료판매점 - LPG 취급점","category":"oil"},{"name":"영진가스","tel":"031-294-8584","addr":"경기도 수원시 권선구 평리동 203-3번지","indutype":"연료판매점 - LPG 취급점","category":"oil"}]},{"lat":"37.244131453","long":"126.99183693","imageIndex":7,"items":[{"name":"나무유통","tel":"031-214-2075","addr":"경기도 수원시 권선구 평리동 203-2번지 1층","indutype":"음료식품 - 기타음료식품","category":"food"}]},{"lat":"37.244654037","long":"126.99167906","imageIndex":4,"items":[{"name":"로뎀나무 무한리필 돈까스","tel":"031-307-6419","addr":"경기도 수원시 권선구 평리동 202-4번지 한호빌딩 1층","indutype":"일반휴게음식 - 일반한식","category":"restaurant"}]},{"lat":"37.243599763","long":"126.991003","imageIndex":4,"items":[{"name":"투썸플레이스 수원고색점","tel":"031-293-3151","addr":"경기도 수원시 권선구 평리동 215-4번지 ,1,2층","indutype":"일반휴게음식 - 서양음식","category":"restaurant"}]},{"lat":"37.242905937","long":"126.99069881","imageIndex":0,"items":[{"name":"오토패션","tel":"070-4686-9412","addr":"경기도 수원시 권선구 평리동 217번지","indutype":"자동차정비 유지 - 자동차부품","category":"car"}]},{"lat":"37.243410521","long":"126.99075508","imageIndex":0,"items":[{"name":"현대상사","tel":"","addr":"경기도 수원시 권선구 평리동 216-4번지","indutype":"자동차정비 유지 - 자동차부품","category":"car"}]},{"lat":"37.245041501","long":"126.99189315","imageIndex":13,"items":[{"name":"포시즌","tel":"","addr":"경기도 수원시 권선구 평리동 201-2번지 3층","indutype":"보건위생 - 미용재료","category":"beauty"}]}]