[{"lat":"37.344695875","long":"126.93856607","imageIndex":17,"items":[{"name":"(무인)셀프빨래방","tel":"031-393-7178","addr":"경기도 군포시 당동 970-5번지 태양빌라 101호","indutype":"수리서비스 - 세탁소","category":"other"}]},{"lat":"37.349647608","long":"126.94886616","imageIndex":17,"items":[{"name":"(주)SY이노베이션","tel":"031-427-9330","addr":"경기도 군포시 당동 159-4번지","indutype":"전기제품 - 기타전기제품","category":"other"},{"name":"대영래핑","tel":"070-4406-1280","addr":"경기도 군포시 당동 159-4번지 1층","indutype":"기타 - 기계공구","category":"other"}]},{"lat":"37.347140129","long":"126.9433379","imageIndex":17,"items":[{"name":"(주)군포삼성프라자","tel":"031-395-3800","addr":"경기도 군포시 당동 920-5번지","indutype":"전기제품 - 가전제품","category":"other"},{"name":"삼성전자서비스(주)모바일군포센터","tel":"031-391-2711","addr":"경기도 군포시 당동 920-5번지 디지털프라자 3층","indutype":"수리서비스 - 가정용품수리","category":"other"},{"name":"삼성특판","tel":"031-322-9845","addr":"경기도 군포시 당동 920-5번지 디지털프라자 1층","indutype":"사무통신 - 통신기기","category":"other"}]},{"lat":"37.346196716","long":"126.94886863","imageIndex":17,"items":[{"name":"(주)군포환경건설","tel":"031-477-2080","addr":"경기도 군포시 당동 178-4번지","indutype":"용역 서비스 - 기타용역서비스","category":"other"}]},{"lat":"37.342091524","long":"126.9378122","imageIndex":17,"items":[{"name":"(주)더핀클래식","tel":"031-397-6612","addr":"경기도 군포시 당동 978-5번지 진방빌딩 2층","indutype":"건축자재 - 인테리어전문","category":"other"}]},{"lat":"37.358865137","long":"126.94917561","imageIndex":17,"items":[{"name":"(주)디에스/원격지","tel":"031-404-4803","addr":"경기도 군포시 당동 14-1번지 군포아이밸리 104호","indutype":"기타 - 기타 전문점","category":"other"},{"name":"(주)디지탈뱅크","tel":"031-429-1430","addr":"경기도 군포시 당동 14-1번지 아이밸리군포 402호","indutype":"전기제품 - 기타전기제품","category":"other"},{"name":"(주)에스피텍","tel":"031-477-8852","addr":"경기도 군포시 당동 14-1번지 아이밸리군포 101호","indutype":"기타 - 기타 전문점","category":"other"},{"name":"(주)인터제로시스템/원격지","tel":"031-427-2240","addr":"경기도 군포시 당동 14-1번지 아이밸리 503호","indutype":"기타 - 기타 전문점","category":"other"},{"name":"(주)플러스텍/원격지","tel":"031-477-9429","addr":"경기도 군포시 당동 14-1번지 군포아이벨리 801호","indutype":"기타 - 기타 전문점","category":"other"},{"name":"(주)한국럭키라이트","tel":"031-453-0520","addr":"경기도 군포시 당동 14-1번지 군포아이밸리 609호","indutype":"기타 - 기타 전문점","category":"other"},{"name":"다우텍","tel":"","addr":"경기도 군포시 당동 14-1번지 아이밸리 군포 5층 507호","indutype":"전기제품 - 가전제품","category":"other"},{"name":"비나텍주식회사","tel":"031-448-3066","addr":"경기도 군포시 당동 14-1번지 현대아이밸리 303호","indutype":"전기제품 - 기타전기제품","category":"other"},{"name":"서울레디안트주식회사","tel":"031-427-1957","addr":"경기도 군포시 당동 14-1번지 아이밸리군포 305호","indutype":"전기제품 - 냉열기기","category":"other"},{"name":"센서피아광전자(주)","tel":"031-477-9310","addr":"경기도 군포시 당동 14-1번지 현대군포아이밸리 702호","indutype":"기타 - 기타 전문점","category":"other"},{"name":"쓰리알랩주식회사","tel":"031-429-6379","addr":"경기도 군포시 당동 14-1번지 현대아이밸리군포 303호","indutype":"전기제품 - 기타전기제품","category":"other"},{"name":"쓰리알랩주식회사/원격지","tel":"031-429-6379","addr":"경기도 군포시 당동 14-1번지 현대아이벨리 604호","indutype":"기타 - 기타 전문점","category":"other"},{"name":"주식회사 아람미디어","tel":"031-427-0789","addr":"경기도 군포시 당동 14-1번지 아이밸리군포 B동 102호","indutype":"기타 - 기타 전문점","category":"other"},{"name":"주식회사브이씨텍","tel":"031-477-5050","addr":"경기도 군포시 당동 14-1번지 군포아이밸리 808호","indutype":"기타 - 기타 전문점","category":"other"},{"name":"현대산업","tel":"031-451-7832","addr":"경기도 군포시 당동 14-1번지 아이밸리군포 607호","indutype":"기타 - 기계공구","category":"other"}]},{"lat":"37.352980065","long":"126.94608724","imageIndex":17,"items":[{"name":"(주)새롬통신","tel":"031-458-9010","addr":"경기도 군포시 당동 777-24번지 102호","indutype":"사무통신 - 통신기기","category":"other"}]},{"lat":"37.346751828","long":"126.94164534","imageIndex":17,"items":[{"name":"(주)선우팜","tel":"031-687-8288","addr":"경기도 군포시 당동 961-4번지 홍솔주상복합 202호","indutype":"유통업 영리 - 인터넷 Mall","category":"other"},{"name":"벽진종합건축사사무소 (주)","tel":"031-442-8280","addr":"경기도 군포시 당동 961-4번지 홍솔주상복합 2층 201호","indutype":"용역 서비스 - 사무서비스","category":"other"},{"name":"주식회사 서담","tel":"031-707-1197","addr":"경기도 군포시 당동 961-4번지 홍솔주상복합 1301호","indutype":"전기제품 - 가전제품","category":"other"}]},{"lat":"37.352338813","long":"126.94298391","imageIndex":17,"items":[{"name":"(주)성화","tel":"031-453-9005","addr":"경기도 군포시 당동 768-5번지","indutype":"기타 - 기타 전문점","category":"other"}]},{"lat":"37.354035744","long":"126.94928063","imageIndex":17,"items":[{"name":"(주)셀지노텔레콤","tel":"031-455-0525","addr":"경기도 군포시 당동 135-1번지 동영벤처스텔 6층","indutype":"광학제품 - 기타광학제품","category":"other"},{"name":"씨유동군포역점","tel":"031-454-5788","addr":"경기도 군포시 당동 135-1번지 동영벤처스텔 4동 107호","indutype":"유통업 영리 - 편 의 점","category":"other"},{"name":"핸즈앤레그(HANDS&LEG)","tel":"031-459-7701","addr":"경기도 군포시 당동 135-1외1필지동영벤처스텔203","indutype":"신변잡화 - 액세서리","category":"other"}]},{"lat":"37.350336748","long":"126.93950931","imageIndex":17,"items":[{"name":"(주)아델정보","tel":"031-399-6976","addr":"경기도 군포시 당동 9블럭1롯트광개토프라자401호","indutype":"용역 서비스 - 소프트웨어","category":"other"},{"name":"(주)티켓센터","tel":"031-438-5400","addr":"경기도 군포시 당동 951-2번지 광개토프라자 204호","indutype":"기타 - 기계공구","category":"other"},{"name":"두성테크","tel":"031-397-0320","addr":"경기도 군포시 당동 951-2번지 광개토프라자 201호","indutype":"전기제품 - 기타전기제품","category":"other"},{"name":"스킨&바디케어","tel":"031-392-6410","addr":"경기도 군포시 당동 951-2번지 광개토프라자 201호","indutype":"회원제형태 - 기타4","category":"other"},{"name":"열ENG","tel":"031-343-9070","addr":"경기도 군포시 당동 951-2번지 광개토프라자 지층 B02호","indutype":"용역 서비스 - 기타용역서비스","category":"other"},{"name":"피지에이골프아카데미","tel":"031-397-5979","addr":"경기도 군포시 당동 951-2번지 광개토프라자 B06,07호","indutype":"회원제형태 - 레져업소","category":"other"}]},{"lat":"37.351447841","long":"126.94506133","imageIndex":17,"items":[{"name":"(주)에스비채널","tel":"031-427-8118","addr":"경기도 군포시 당동 784-9번지 4층 408호","indutype":"용역 서비스 - 종합용역","category":"other"},{"name":"매니아","tel":"070-4143-9519","addr":"경기도 군포시 당동 784-9번지","indutype":"의류 - 정장","category":"other"},{"name":"사랑과봉사회","tel":"031-427-8118","addr":"경기도 군포시 당동 784-9번지 408호","indutype":"기타 - 비영리/대상","category":"other"}]},{"lat":"37.341145226","long":"126.93739547","imageIndex":17,"items":[{"name":"(주)에이케어/원격지","tel":"070-7685-2279","addr":"경기도 군포시 당동 1033-4번지 101호","indutype":"기타 - 기타 전문점","category":"other"},{"name":"명장","tel":"","addr":"경기도 군포시 당동 1033-4번지 101호","indutype":"직물 - 카페트,커튼,천막,지물","category":"other"}]},{"lat":"37.345500545","long":"126.94386962","imageIndex":17,"items":[{"name":"(주)오렌지투어","tel":"031-397-5335","addr":"경기도 군포시 당동 872-5번지 무광프라자 202호","indutype":"여행 - 관광여행","category":"other"},{"name":"(주)코리아세븐군포주공점","tel":"02-3284-8184","addr":"경기도 군포시 당동 무광프라자 103호","indutype":"유통업 영리 - 편 의 점","category":"other"},{"name":"럭스시스템","tel":"031-1111-1111","addr":"경기도 군포시 당동 872-5번지 무광프라자 503호 일부","indutype":"사무통신 - 컴퓨터","category":"other"},{"name":"진심담은힐링케어","tel":"031-391-7258","addr":"경기도 군포시 당동 872-5번지 무광프라자 205호","indutype":"회원제형태 - 기타4","category":"other"},{"name":"크린토피아 당동 쌍용점","tel":"031-392-2582","addr":"경기도 군포시 당동 872-5번지 무광프라자 105호","indutype":"수리서비스 - 세탁소","category":"other"}]},{"lat":"37.34083888","long":"126.93739574","imageIndex":17,"items":[{"name":"(주)웨스칼코리아","tel":"031-381-1002","addr":"경기도 군포시 당동 1034-1번지 5층","indutype":"전기제품 - 기타전기제품","category":"other"}]},{"lat":"37.350841761","long":"126.94034408","imageIndex":17,"items":[{"name":"(주)지젠","tel":"031-391-6166","addr":"경기도 군포시 당동 789-16번지 2층","indutype":"서적문구 - 과학기자재","category":"other"},{"name":"행운인테리어","tel":"031-456-9623","addr":"경기도 군포시 당동 789-16번지 2층","indutype":"건축자재 - 인테리어전문","category":"other"}]},{"lat":"37.349591214","long":"126.94397928","imageIndex":17,"items":[{"name":"(주)코리아세븐군포당동대로점","tel":"02-3284-8184","addr":"경기도 군포시 당동 785-20번지 101,1층","indutype":"유통업 영리 - 편 의 점","category":"other"}]},{"lat":"37.35308843","long":"126.94659506","imageIndex":17,"items":[{"name":"(주)코리아세븐군포역점","tel":"031-427-9901","addr":"경기도 군포시 당동 777-3번지 1층 102호","indutype":"유통업 영리 - 편 의 점","category":"other"}]},{"lat":"37.343227249","long":"126.93862375","imageIndex":17,"items":[{"name":"(주)코리아크린시스템","tel":"031-459-4158","addr":"경기도 군포시 당동 974-4번지 3층 302호","indutype":"기타 - 기타 전문점","category":"other"},{"name":"시스템&Co","tel":"031-348-7269","addr":"경기도 군포시 당동 974-4번지 102호","indutype":"신변잡화 - 가방","category":"other"}]},{"lat":"37.354504251","long":"126.94923515","imageIndex":17,"items":[{"name":"(주)탑공구","tel":"031-477-0989","addr":"경기도 군포시 당동 134-7번지 105,106호","indutype":"기타 - 기계공구","category":"other"},{"name":"다현상사","tel":"031-477-0987","addr":"경기도 군포시 당동 134-7 105호~106호","indutype":"기타 - 기계공구","category":"other"},{"name":"우성건업","tel":"031-396-2266","addr":"경기도 군포시 당동 134-7번지","indutype":"건축자재 - 기타건축자재","category":"other"},{"name":"은기획","tel":"031-455-7807","addr":"경기도 군포시 당동 134-7번지","indutype":"용역 서비스 - 종합용역","category":"other"}]},{"lat":"37.350895305","long":"126.93937341","imageIndex":17,"items":[{"name":"(주)토이토이","tel":"031-391-1533","addr":"경기도 군포시 당동 950-1","indutype":"서적문구 - 완구점","category":"other"},{"name":"브릭엘(주)","tel":"031-398-1533","addr":"경기도 군포시 당동 950-1번지","indutype":"서적문구 - 완구점","category":"other"}]},{"lat":"37.344227298","long":"126.93847619","imageIndex":17,"items":[{"name":"(주)포커스","tel":"031-443-4499","addr":"경기도 군포시 당동 971-4번지 서암빌딩 2층","indutype":"주방용구 - 주방용구","category":"other"}]},{"lat":"37.354583969","long":"126.9462892","imageIndex":17,"items":[{"name":"(주)하이투어","tel":"031-477-2297","addr":"경기도 군포시 당동 745-5번지 한림오피스텔 502호","indutype":"여행 - 관광여행","category":"other"},{"name":"인펙테크/원격지","tel":"02-553-7155","addr":"경기도 군포시 당동 745-5번지 한림오피스텔 8층 804호","indutype":"기타 - 기타 전문점","category":"other"}]},{"lat":"37.350807709","long":"126.94422663","imageIndex":17,"items":[{"name":"(주)현대걸리버투어","tel":"031-459-9200","addr":"경기도 군포시 당동 771-10번지","indutype":"여행 - 관광여행","category":"other"},{"name":"씨유군포중앙점","tel":"031-452-5006","addr":"경기도 군포시 당동 771-10번지 1층","indutype":"유통업 영리 - 편 의 점","category":"other"},{"name":"투에이치(Two H)","tel":"031-455-9092","addr":"경기도 군포시 당동 771-10번지 1층","indutype":"사무통신 - 통신기기","category":"other"}]},{"lat":"37.353783372","long":"126.94908893","imageIndex":17,"items":[{"name":"21세기기계/원격지","tel":"031-429-2993","addr":"경기도 군포시 당동 134-12번지","indutype":"기타 - 기타 전문점","category":"other"}]},{"lat":"37.348881208","long":"126.94770424","imageIndex":17,"items":[{"name":"519랩","tel":"070-7687-5047","addr":"경기도 군포시 당동 900-2번지 뷰티개나리 가동 4층 401호","indutype":"용역 서비스 - 사무서비스","category":"other"}]},{"lat":"37.354825815","long":"126.94337697","imageIndex":17,"items":[{"name":"AMT","tel":"070-7696-5536","addr":"경기도 군포시 당동 737-7번지 삼성미도아파트","indutype":"서적문구 - 과학기자재","category":"other"}]},{"lat":"37.354447939","long":"126.94448339","imageIndex":17,"items":[{"name":"AND","tel":"031-458-1677","addr":"경기도 군포시 당동 739-9번지 105호","indutype":"서적문구 - 출판 및 인쇄물","category":"other"},{"name":"필기획","tel":"031-427-1301","addr":"경기도 군포시 당동 739-9번지","indutype":"용역 서비스 - 종합용역","category":"other"}]},{"lat":"37.350168454","long":"126.94517517","imageIndex":17,"items":[{"name":"GS25군포동아점","tel":"","addr":"경기도 군포시 당동 898-24번지","indutype":"유통업 영리 - 편 의 점","category":"other"}]},{"lat":"37.353781784","long":"126.94570289","imageIndex":17,"items":[{"name":"GS25군포역점","tel":"","addr":"경기도 군포시 당동 751-11번지 1층","indutype":"유통업 영리 - 편 의 점","category":"other"}]},{"lat":"37.351977923","long":"126.94203612","imageIndex":17,"items":[{"name":"GS25군포열린점","tel":"02-2006-2485","addr":"경기도 군포시 당동 763-3번지","indutype":"유통업 영리 - 편 의 점","category":"other"},{"name":"대한종합공사","tel":"031-393-9380","addr":"경기도 군포시 당동 763-3번지 101동","indutype":"건축자재 - 인테리어전문","category":"other"}]},{"lat":"37.354979755","long":"126.94492317","imageIndex":17,"items":[{"name":"GS25군포으뜸점","tel":"","addr":"경기도 군포시 당동 743-19번지 1층","indutype":"유통업 영리 - 편 의 점","category":"other"}]},{"lat":"37.356393467","long":"126.94314999","imageIndex":17,"items":[{"name":"GS25군포일동점","tel":"02-2006-2118","addr":"경기도 군포시 당동 853-3번지","indutype":"유통업 영리 - 편 의 점","category":"other"}]},{"lat":"37.342642376","long":"126.94009132","imageIndex":17,"items":[{"name":"GS25군포주공점","tel":"02-2006-2485","addr":"경기도 군포시 당동 874-3번지","indutype":"유통업 영리 - 편 의 점","category":"other"}]},{"lat":"37.346501153","long":"126.94483941","imageIndex":17,"items":[{"name":"GS25군포흥안점","tel":"02-2006-2485","addr":"경기도 군포시 당동 922번지","indutype":"유통업 영리 - 편 의 점","category":"other"},{"name":"깜댕이네","tel":"070-4187-1379","addr":"경기도 군포시 당동 922번지 미림빌딩 402호","indutype":"회원제형태 - 기타1","category":"other"}]},{"lat":"37.351834591","long":"126.94367279","imageIndex":17,"items":[{"name":"LG에어컨","tel":"0505-555-2448","addr":"경기도 군포시 당동 773-3번지","indutype":"전기제품 - 냉열기기","category":"other"}]},{"lat":"37.354169459","long":"126.94619921","imageIndex":17,"items":[{"name":"LG전자군포제일대리점","tel":"031-52-1014","addr":"경기도 군포시 당동 745-9번지","indutype":"전기제품 - 가전제품","category":"other"},{"name":"강산지물포","tel":"031-452-8633","addr":"경기도 군포시 당동 745-9번지","indutype":"직물 - 카페트,커튼,천막,지물","category":"other"},{"name":"나래피오군포대리점","tel":"031-53-1977","addr":"경기도 군포시 당동 745-9번지","indutype":"가구 - 일반가구","category":"other"},{"name":"센스박","tel":"031-454-1331","addr":"경기도 군포시 당동 745-9번지 104호","indutype":"의류 - 정장","category":"other"}]},{"lat":"37.351195191","long":"126.94431662","imageIndex":17,"items":[{"name":"SB통신","tel":"031-477-8038","addr":"경기도 군포시 당동 772-15번지 1층 3호","indutype":"사무통신 - 통신기기","category":"other"},{"name":"알파통신","tel":"031-348-5225","addr":"경기도 군포시 당동 772-15번지 103호","indutype":"사무통신 - 통신기기","category":"other"}]},{"lat":"37.351258026","long":"126.94384254","imageIndex":17,"items":[{"name":"SK공사","tel":"031-452-7555","addr":"경기도 군포시 당동 772-29번지 1층","indutype":"용역 서비스 - 기타용역서비스","category":"other"}]},{"lat":"37.346194797","long":"126.94481707","imageIndex":17,"items":[{"name":"ms유통","tel":"031-396-2007","addr":"경기도 군포시 당동 922-30번지 은하프라자 303호","indutype":"의류 - 정장","category":"other"}]},{"lat":"37.354250191","long":"126.94545422","imageIndex":17,"items":[{"name":"가나안건축설비","tel":"031-452-1185","addr":"경기도 군포시 당동 744-13번지","indutype":"건축자재 - 인테리어전문","category":"other"}]},{"lat":"37.351031283","long":"126.94093082","imageIndex":17,"items":[{"name":"가나인테리어","tel":"031-457-9904","addr":"경기도 군포시 당동 788번지 1층","indutype":"건축자재 - 인테리어전문","category":"other"}]},{"lat":"37.350366501","long":"126.94481386","imageIndex":17,"items":[{"name":"가빈스킨케어","tel":"031-446-0828","addr":"경기도 군포시 당동 898번지 당동빌딩 203호","indutype":"회원제형태 - 기타4","category":"other"}]},{"lat":"37.354088712","long":"126.94692164","imageIndex":17,"items":[{"name":"감성마켓","tel":"070-7814-5769","addr":"경기도 군포시 당동 749-41번지 102호","indutype":"의류 - 아동의류","category":"other"},{"name":"안성신발","tel":"031-451-3542","addr":"경기도 군포시 당동 749-41번지 1층","indutype":"신변잡화 - 신발","category":"other"}]},{"lat":"37.351392193","long":"126.94190116","imageIndex":17,"items":[{"name":"갑을전산","tel":"031-399-5075","addr":"경기도 군포시 당동 763-12번지 102호","indutype":"사무통신 - 기타 사무용품","category":"other"}]},{"lat":"37.351312678","long":"126.94503886","imageIndex":17,"items":[{"name":"강연옥에스테틱","tel":"031-459-0776","addr":"경기도 군포시 당동 784-8번지","indutype":"회원제형태 - 기타4","category":"other"}]},{"lat":"37.35050194","long":"126.94540064","imageIndex":17,"items":[{"name":"개방산업주식회사","tel":"031-455-6669","addr":"경기도 군포시 당동 898-6번지 2층","indutype":"용역 서비스 - 기타용역서비스","category":"other"},{"name":"나드리양품","tel":"031-54-8340","addr":"경기도 군포시 당동 898-6번지","indutype":"의류 - 정장","category":"other"}]},{"lat":"37.348338943","long":"126.9442624","imageIndex":17,"items":[{"name":"거성씨엔에스","tel":"031-348-8188","addr":"경기도 군포시 당동 904-3번지 군포벤처텔 403호","indutype":"주방용구 - 정수기","category":"other"},{"name":"명문지사","tel":"031-399-7866","addr":"경기도 군포시 당동 904-3번지 군포벤쳐텔 104호","indutype":"전기제품 - 냉열기기","category":"other"},{"name":"신도네트안양점","tel":"031-452-1373","addr":"경기도 군포시 당동 904-3번지 군포벤처텔 203호","indutype":"사무통신 - 사무용 OA기기","category":"other"},{"name":"신도네트안양점/특별할부","tel":"031-452-1373","addr":"경기도 군포시 당동 904-3번지 군포벤처텔 203호","indutype":"사무통신 - 사무용 OA기기","category":"other"},{"name":"트렌드샵(Trend#)","tel":"070-8837-7524","addr":"경기도 군포시 당동 904-3번지 군포벤처텔 2층 204호","indutype":"레져용품 - 스포츠·레져용품","category":"other"},{"name":"펫몰","tel":"031-399-9119","addr":"경기도 군포시 당동 904-3번지 군포벤처텔 104호","indutype":"문화.취미 - 애완동물","category":"other"}]},{"lat":"37.353980235","long":"126.94617678","imageIndex":17,"items":[{"name":"거성정보통신","tel":"031-454-9800","addr":"경기도 군포시 당동 751-6번지","indutype":"사무통신 - 통신기기","category":"other"},{"name":"명동의류타운","tel":"031-452-6718","addr":"경기도 군포시 당동 751-6번지 1층 동편우측","indutype":"의류 - 정장","category":"other"},{"name":"정금당","tel":"031-452-1155","addr":"경기도 군포시 당동 751-6번지","indutype":"신변잡화 - 시계","category":"other"}]},{"lat":"37.347201639","long":"126.94031324","imageIndex":17,"items":[{"name":"건영종합관리센터(주)","tel":"031-397-6071","addr":"경기도 군포시 당동 23블럭8-1롯트대림프라자204","indutype":"회원제형태 - 기타4","category":"other"},{"name":"루크스튜디오","tel":"070-8773-5353","addr":"경기도 군포시 당동 960-3번지 대림프라자 306호","indutype":"광학제품 - 사진관","category":"other"},{"name":"블럭업","tel":"031-389-3777","addr":"경기도 군포시 당동 960-3번지 대림프라자 203호","indutype":"서적문구 - 기타서적문구","category":"other"},{"name":"세일 하우스","tel":"02-1111-1111","addr":"경기도 군포시 당동 960-3번지 대림프라자 지층 5호","indutype":"의류 - 정장","category":"other"},{"name":"어썸커뮤니티","tel":"031-393-0959","addr":"경기도 군포시 당동 960-3번지 대림프라자 502-1호","indutype":"용역 서비스 - 사무서비스","category":"other"},{"name":"온누리비젼","tel":"","addr":"경기도 군포시 당동 960-3번지 대림프라자 401호","indutype":"신변잡화 - 기타잡화","category":"other"},{"name":"주식회사하이픈","tel":"031-396-6657","addr":"경기도 군포시 당동 960-3번지 대림프라자 114호,115호","indutype":"의류 - 정장","category":"other"},{"name":"차인설영의 도자기와 차","tel":"031-395-1889","addr":"경기도 군포시 당동 960-3번지 대림프라자 제지 지하 제7호","indutype":"주방용구 - 주방용식기","category":"other"},{"name":"홈데코피아","tel":"031-395-8336","addr":"경기도 군포시 당동 960-3번지 대림프라자 104호","indutype":"건축자재 - 인테리어전문","category":"other"}]},{"lat":"37.354728449","long":"126.94695502","imageIndex":17,"items":[{"name":"건우스포츠","tel":"031-458-8631","addr":"경기도 군포시 당동 749-29번지","indutype":"의류 - 정장","category":"other"}]},{"lat":"37.343948154","long":"126.93879242","imageIndex":17,"items":[{"name":"경기서림","tel":"031-398-0222","addr":"경기도 군포시 당동 973-5번지 천수프라자 B-1","indutype":"서적문구 - 일반서적","category":"other"},{"name":"스카이골프연습장","tel":"031-399-7508","addr":"경기도 군포시 당동 973-5번지 천수프라자 3층","indutype":"회원제형태 - 레져업소","category":"other"},{"name":"스카이스크린골프","tel":"031-399-7507","addr":"경기도 군포시 당동 973-5번지 천수프라자 201호","indutype":"회원제형태 - 레져업소","category":"other"}]},{"lat":"37.35572835","long":"126.94648022","imageIndex":17,"items":[{"name":"경기페인트","tel":"031-454-7777","addr":"경기도 군포시 당동 746-10번지","indutype":"건축자재 - 페인트","category":"other"}]},{"lat":"37.354169739","long":"126.94678613","imageIndex":17,"items":[{"name":"경민상사","tel":"031-455-0418","addr":"경기도 군포시 당동 749-45번지","indutype":"의류 - 내의판매","category":"other"}]},{"lat":"37.3551151","long":"126.94531812","imageIndex":17,"items":[{"name":"경북유리","tel":"031-452-0805","addr":"경기도 군포시 당동 743-2번지","indutype":"건축자재 - 유리","category":"other"}]},{"lat":"37.349861203","long":"126.94334703","imageIndex":17,"items":[{"name":"경안인터내셔널","tel":"031-763-2233","addr":"경기도 군포시 당동 785-31번지","indutype":"수리서비스 - 기타수리서비스","category":"other"}]},{"lat":"37.356367963","long":"126.946254","imageIndex":17,"items":[{"name":"경원전기통신","tel":"031-458-2136","addr":"경기도 군포시 당동 746번지","indutype":"사무통신 - 통신기기","category":"other"}]},{"lat":"37.351700153","long":"126.94511757","imageIndex":17,"items":[{"name":"고려의료기","tel":"031-452-0010","addr":"경기도 군포시 당동 784번지 2층","indutype":"기타의료기관 - 기타의료기관 및 기타","category":"other"},{"name":"쉬즈","tel":"031-8091-5056","addr":"경기도 군포시 당동 784번지 2층 6호","indutype":"의류 - 정장","category":"other"},{"name":"인테리가구","tel":"031-55-8919","addr":"경기도 군포시 당동 784번지","indutype":"가구 - 일반가구","category":"other"}]},{"lat":"37.350978177","long":"126.94278183","imageIndex":17,"items":[{"name":"고려인테리어","tel":"031-456-0865","addr":"경기도 군포시 당동 770-13번지 제1층 1-2호","indutype":"건축자재 - 인테리어전문","category":"other"}]},{"lat":"37.3595318","long":"126.94898324","imageIndex":17,"items":[{"name":"고릴라키즈 군포점","tel":"031-455-4550","addr":"경기도 군포시 당동 7-6번지 클로버빌딩 1층","indutype":"레져용품 - 스포츠·레져용품","category":"other"}]},{"lat":"37.348564224","long":"126.94431866","imageIndex":17,"items":[{"name":"고소영세무회계사무소","tel":"031-399-6628","addr":"경기도 군포시 당동 904번지 201호","indutype":"용역 서비스 - 법률회계서비스(개인)","category":"other"},{"name":"주식회사 안양럭키엔제이","tel":"031-394-0532","addr":"경기도 군포시 당동 904번지","indutype":"건축자재 - 기타건축자재","category":"other"}]},{"lat":"37.345833988","long":"126.94400478","imageIndex":17,"items":[{"name":"공간샘스터디카페 당동점","tel":"031-000-0000","addr":"경기도 군포시 당동 871-4번지 용호프라자 701호","indutype":"용역 서비스 - 사무서비스","category":"other"},{"name":"법무사김인석사무소","tel":"031-394-4500","addr":"경기도 군포시 당동 871-4번지 용호프라자 501호","indutype":"용역 서비스 - 법률회계서비스(개인)","category":"other"},{"name":"원일지물포","tel":"031-398-3372","addr":"경기도 군포시 당동 871-4번지 용호프라자 102호","indutype":"직물 - 카페트,커튼,천막,지물","category":"other"},{"name":"주시회사로코시스텍/원격지","tel":"031-395-9800","addr":"경기도 군포시 당동 871-4번지 용호빌딩 6층","indutype":"기타 - 기타 전문점","category":"other"}]},{"lat":"37.352366427","long":"126.94414641","imageIndex":17,"items":[{"name":"공감하우징","tel":"070-4922-1261","addr":"경기도 군포시 당동 774-10번지 102호","indutype":"건축자재 - 인테리어전문","category":"other"},{"name":"당리건재토건","tel":"031-452-0461","addr":"경기도 군포시 당동 774-10번지 101,103호","indutype":"건축자재 - 목재·석재·철물","category":"other"},{"name":"세림산업","tel":"031-429-3583","addr":"경기도 군포시 당동 774-10번지 1층 103호","indutype":"건축자재 - 목재·석재·철물","category":"other"}]},{"lat":"37.34647385","long":"126.94428643","imageIndex":17,"items":[{"name":"국민휘트니스 군포점","tel":"031-393-6262","addr":"경기도 군포시 당동 921-5번지 금강프라자 501동 506호","indutype":"레져용품 - 스포츠·레져용품","category":"other"},{"name":"너싱홈간호박사네","tel":"031-395-6700","addr":"경기도 군포시 당동 921-5번지 금강프라자402~406호 402호","indutype":"기타의료기관 - 기타의료기관 및 기타","category":"other"},{"name":"미소미소(군포당동)","tel":"031-391-9689","addr":"경기도 군포시 당동 921-5번지 금강프라자 108호","indutype":"의류 - 정장","category":"other"},{"name":"이언니","tel":"","addr":"경기도 군포시 당동 921-5번지 금강프라자 1층 110호","indutype":"의류 - 정장","category":"other"},{"name":"이엘스튜디오","tel":"031-391-0001","addr":"경기도 군포시 당동 921-5번지 금강프라자 제 2층 205호","indutype":"광학제품 - 사진관","category":"other"}]},{"lat":"37.349472925","long":"126.94169956","imageIndex":17,"items":[{"name":"국제에어컨","tel":"","addr":"경기도 군포시 당동 792-33번지 타워빌라","indutype":"용역 서비스 - 기타용역서비스","category":"other"}]},{"lat":"37.353529472","long":"126.94564664","imageIndex":17,"items":[{"name":"군포1동사무소","tel":"031-390-0600","addr":"경기도 군포시 당동 751-15번지","indutype":"기타 - 비영리/대상","category":"other"}]},{"lat":"37.353007258","long":"126.94642582","imageIndex":17,"items":[{"name":"군포DC마트","tel":"031-454-8682","addr":"경기도 군포시 당동 777-2번지 1층","indutype":"신변잡화 - 기타잡화","category":"other"}]},{"lat":"37.351169411","long":"126.94690123","imageIndex":17,"items":[{"name":"군포꽃화원,반도장식","tel":"031-51-2508","addr":"경기도 군포시 당동 783-72번지","indutype":"직물 - 카페트,커튼,천막,지물","category":"other"},{"name":"신우냉열","tel":"070-4155-5957","addr":"경기도 군포시 당동 783-72번지 1층","indutype":"수리서비스 - 가정용품수리","category":"other"}]},{"lat":"37.354277915","long":"126.94689892","imageIndex":17,"items":[{"name":"군포농협당동지소","tel":"031-458-5787","addr":"경기도 군포시 당동 749-30번지","indutype":"유통업 비영리 - 농,축협 직영매장","category":"other"}]},{"lat":"37.358062737","long":"126.94809258","imageIndex":17,"items":[{"name":"군포시재활용센타","tel":"031-455-8272","addr":"경기도 군포시 당동 797-1번지","indutype":"기타 - 기타 전문점","category":"other"}]},{"lat":"37.350727423","long":"126.9458745","imageIndex":17,"items":[{"name":"군포지물","tel":"031-452-5109","addr":"경기도 군포시 당동 783-58번지","indutype":"직물 - 카페트,커튼,천막,지물","category":"other"}]},{"lat":"37.352195712","long":"126.94511719","imageIndex":17,"items":[{"name":"군포철물점","tel":"031-452-1226","addr":"경기도 군포시 당동 776-15번지","indutype":"건축자재 - 기타건축자재","category":"other"},{"name":"금이옷방","tel":"","addr":"경기도 군포시 당동 776-15번지","indutype":"의류 - 정장","category":"other"},{"name":"샤트렌 군포대리점","tel":"031-477-0122","addr":"경기도 군포시 당동 776-15번지","indutype":"의류 - 스포츠의류","category":"other"}]},{"lat":"37.354503168","long":"126.94689875","imageIndex":17,"items":[{"name":"군포칼라","tel":"031-452-0717","addr":"경기도 군포시 당동 749-27번지","indutype":"신변잡화 - 기타잡화","category":"other"}]},{"lat":"37.353421779","long":"126.94653838","imageIndex":17,"items":[{"name":"군포텔레콤(GUNPOTELECOM)","tel":"070-4062-8668","addr":"경기도 군포시 당동 750-25번지","indutype":"사무통신 - 통신기기","category":"other"},{"name":"군포화원","tel":"031-456-9777","addr":"경기도 군포시 당동 750-25번지","indutype":"문화.취미 - 화원","category":"other"},{"name":"정보당","tel":"031-453-5849","addr":"경기도 군포시 당동 750-25번지 점포 1층","indutype":"신변잡화 - 귀금속","category":"other"},{"name":"퍼스트올로 군포점","tel":"031-452-6394","addr":"경기도 군포시 당동 750-25번지","indutype":"의류 - 내의판매","category":"other"},{"name":"황금피부관리(스포츠맛사지)","tel":"031-452-8334","addr":"경기도 군포시 당동 750-25번지 지하층","indutype":"회원제형태 - 기타4","category":"other"}]},{"lat":"37.347753433","long":"126.94456758","imageIndex":17,"items":[{"name":"군포효사랑요양원","tel":"031-392-9805","addr":"경기도 군포시 당동 905-1번지 폴리프라자 501호 502호","indutype":"기타의료기관 - 기타의료기관 및 기타","category":"other"}]},{"lat":"37.348617976","long":"126.94369788","imageIndex":17,"items":[{"name":"굿모닝인테리어","tel":"031-399-1313","addr":"경기도 군포시 당동 794-12번지","indutype":"직물 - 카페트,커튼,천막,지물","category":"other"}]},{"lat":"37.341640572","long":"126.93701135","imageIndex":17,"items":[{"name":"굿바이골프","tel":"031-398-0982","addr":"경기도 군포시 당동 1027-9번지 101호","indutype":"레져용품 - 스포츠·레져용품","category":"other"}]},{"lat":"37.350168832","long":"126.94595392","imageIndex":17,"items":[{"name":"굿솝","tel":"031-465-2645","addr":"경기도 군포시 당동 898-14번지 동아아파트 1층 5호","indutype":"신변잡화 - 기타잡화","category":"other"}]},{"lat":"37.35436771","long":"126.9462555","imageIndex":17,"items":[{"name":"그린스포츠체육사","tel":"031-458-0764","addr":"경기도 군포시 당동 745-7번지","indutype":"레져용품 - 스포츠·레져용품","category":"other"}]},{"lat":"37.352835422","long":"126.94509412","imageIndex":17,"items":[{"name":"그린컴퓨터","tel":"070-8245-4239","addr":"경기도 군포시 당동 775-9번지 1층","indutype":"사무통신 - 컴퓨터","category":"other"},{"name":"그린컴퓨터","tel":"031-429-5510","addr":"경기도 군포시 당동 775-9번지","indutype":"용역 서비스 - 정보서비스","category":"other"},{"name":"동명산업(주)","tel":"031-457-9900","addr":"경기도 군포시 당동 775-9번지","indutype":"전기제품 - 기타전기제품","category":"other"},{"name":"서문인쇄사","tel":"031-456-7010","addr":"경기도 군포시 당동 775-9번지","indutype":"서적문구 - 출판 및 인쇄물","category":"other"}]},{"lat":"37.346284732","long":"126.94447843","imageIndex":17,"items":[{"name":"금나라쥬얼리","tel":"031-452-4105","addr":"경기도 군포시 당동 921-6번지 용문빌딩 105호","indutype":"신변잡화 - 귀금속","category":"other"}]},{"lat":"37.353529874","long":"126.94648187","imageIndex":17,"items":[{"name":"금성당","tel":"031-56-9850","addr":"경기도 군포시 당동 750-26번지","indutype":"신변잡화 - 시계","category":"other"},{"name":"라인","tel":"031-454-9710","addr":"경기도 군포시 당동 750-26번지","indutype":"신변잡화 - 기타잡화","category":"other"},{"name":"조은기획인쇄(군포점)","tel":"031-444-5777","addr":"경기도 군포시 당동 750-26번지","indutype":"서적문구 - 출판 및 인쇄물","category":"other"}]},{"lat":"37.352501897","long":"126.94478964","imageIndex":17,"items":[{"name":"꼬리치는강아지","tel":"031-395-6414","addr":"경기도 군포시 당동 775-14번지 1층","indutype":"문화.취미 - 애완동물","category":"other"}]},{"lat":"37.35572768","long":"126.94509191","imageIndex":17,"items":[{"name":"꽃길따라","tel":"031-427-2234","addr":"경기도 군포시 당동 742-32번지 103호","indutype":"문화.취미 - 화원","category":"other"},{"name":"리본 종합 인테리어","tel":"031-429-7929","addr":"경기도 군포시 당동 742-32번지 1층 2호","indutype":"건축자재 - 인테리어전문","category":"other"}]},{"lat":"37.350195688","long":"126.94559274","imageIndex":17,"items":[{"name":"꽃무리","tel":"070-7718-2081","addr":"경기도 군포시 당동 898-18번지","indutype":"문화.취미 - 화원","category":"other"}]},{"lat":"37.346366636","long":"126.94614865","imageIndex":17,"items":[{"name":"꽃송이가","tel":"","addr":"경기도 군포시 당동 922-8번지 휴스토리 501호","indutype":"신변잡화 - 기타잡화","category":"other"}]},{"lat":"37.353060797","long":"126.94534226","imageIndex":17,"items":[{"name":"꽃수레","tel":"031-453-2675","addr":"경기도 군포시 당동 775-6번지 101호","indutype":"문화.취미 - 화원","category":"other"},{"name":"동양전기","tel":"031-453-7773","addr":"경기도 군포시 당동 775-6번지","indutype":"전기제품 - 기타전기제품","category":"other"},{"name":"컴퓨터세상","tel":"031-455-0586","addr":"경기도 군포시 당동 775-6번지","indutype":"수리서비스 - 사무·통신기기수리","category":"other"},{"name":"플라이멀티","tel":"","addr":"경기도 군포시 당동 775-6번지 101호","indutype":"의류 - 정장","category":"other"}]},{"lat":"37.349337082","long":"126.94037919","imageIndex":17,"items":[{"name":"꽃이요","tel":"031-391-4478","addr":"경기도 군포시 당동 954번지 무지개마을대림아파트","indutype":"문화.취미 - 화원","category":"other"}]},{"lat":"37.348086557","long":"126.94405945","imageIndex":17,"items":[{"name":"꽃향기농원","tel":"031-396-9332","addr":"경기도 군포시 당동 904-4번지 경림빌딩 1층 103호","indutype":"문화.취미 - 화원","category":"other"},{"name":"아름다운가게군포점","tel":"031-395-3004","addr":"경기도 군포시 당동 904-4번지 경림빌딩 108호","indutype":"기타 - 비영리/대상","category":"other"},{"name":"알파군포당동점","tel":"031-391-8985","addr":"경기도 군포시 당동 904-4번지 경림빌딩 104호","indutype":"서적문구 - 문구용품","category":"other"},{"name":"주식회사해피버스투어","tel":"031-394-6622","addr":"경기도 군포시 당동 904-4번지 경림빌딩 107호","indutype":"여행 - 관광여행","category":"other"}]},{"lat":"37.347444913","long":"126.94031304","imageIndex":17,"items":[{"name":"꾸미","tel":"031-111-1111","addr":"경기도 군포시 당동 960-1번지 태평양프라자 102호","indutype":"직물 - 침구·수예점","category":"other"},{"name":"명성정보통신","tel":"031-1566-4335","addr":"경기도 군포시 당동 960-1번지 태평양프라자 202호","indutype":"사무통신 - 통신기기","category":"other"},{"name":"무지개환경개발","tel":"","addr":"경기도 군포시 당동 960-1번지 태평양프라자 404B호","indutype":"용역 서비스 - 종합용역","category":"other"},{"name":"백산하우징","tel":"031-393-3323","addr":"경기도 군포시 당동 960-1번지 태평양프라자 1층 105호","indutype":"용역 서비스 - 기타용역서비스","category":"other"},{"name":"한원덴탈","tel":"031-397-0110","addr":"경기도 군포시 당동 960-1번지 태평양프라자 404호","indutype":"사무통신 - 컴퓨터","category":"other"}]},{"lat":"37.351168554","long":"126.94511797","imageIndex":17,"items":[{"name":"꾸밈방수예","tel":"031-427-6612","addr":"경기도 군포시 당동 784-7번지 1층","indutype":"직물 - 침구·수예점","category":"other"}]},{"lat":"37.351645709","long":"126.94433884","imageIndex":17,"items":[{"name":"나닥스","tel":"031-346-6188","addr":"경기도 군포시 당동 772-13번지 1층","indutype":"신변잡화 - 신발","category":"other"},{"name":"민트","tel":"031-429-2867","addr":"경기도 군포시 당동 772-13번지","indutype":"의류 - 정장","category":"other"},{"name":"올마인(all mine)","tel":"031-427-4998","addr":"경기도 군포시 당동 772-13 14","indutype":"의류 - 정장","category":"other"},{"name":"우성원","tel":"031-457-7677","addr":"경기도 군포시 당동 772-13번지","indutype":"문화.취미 - 화원","category":"other"}]},{"lat":"37.354944915","long":"126.94742891","imageIndex":17,"items":[{"name":"남양총포사","tel":"031-459-0100","addr":"경기도 군포시 당동 748-39","indutype":"레져용품 - 총포류판매점","category":"other"}]},{"lat":"37.346364906","long":"126.94265008","imageIndex":17,"items":[{"name":"농협은행(주)군포용호지점","tel":"031-392-8311","addr":"경기도 군포시 당동 871번지","indutype":"유통업 비영리 - 농,축협 직영매장","category":"other"}]},{"lat":"37.355115193","long":"126.94550999","imageIndex":17,"items":[{"name":"늑대와여우컴퓨터(당동점)","tel":"02-2254-4575","addr":"경기도 군포시 당동 743-12","indutype":"수리서비스 - 사무·통신기기수리","category":"other"},{"name":"늑대와여우컴퓨터(당동점)","tel":"031-429-1245","addr":"경기도 군포시 당동 743-12번지","indutype":"사무통신 - 컴퓨터","category":"other"}]},{"lat":"37.356395459","long":"126.94723596","imageIndex":17,"items":[{"name":"니스룩","tel":"031-427-0798","addr":"경기도 군포시 당동 747-34번지 1층","indutype":"직물 - 침구·수예점","category":"other"}]},{"lat":"37.35750351","long":"126.94681751","imageIndex":17,"items":[{"name":"다민테크놀로지","tel":"070-8183-1191","addr":"경기도 군포시 당동 731-26번지 101호","indutype":"전기제품 - 가전제품","category":"other"}]},{"lat":"37.353952531","long":"126.94478852","imageIndex":17,"items":[{"name":"다온시스템","tel":"","addr":"경기도 군포시 당동 752-25번지","indutype":"용역 서비스 - 기타용역서비스","category":"other"},{"name":"알파건축공사","tel":"02-1577-0000","addr":"경기도 군포시 당동 752-25번지 103호","indutype":"건축자재 - 인테리어전문","category":"other"}]},{"lat":"37.349591516","long":"126.94458873","imageIndex":17,"items":[{"name":"다이소군포당동점","tel":"031-396-5230","addr":"경기도 군포시 당동 903-4번지 유니빌딩 1,2층","indutype":"신변잡화 - 기타잡화","category":"other"},{"name":"주식회사황금통신","tel":"031-391-5522","addr":"경기도 군포시 당동 903-4번지 1층","indutype":"사무통신 - 통신기기","category":"other"}]},{"lat":"37.35766598","long":"126.94742691","imageIndex":17,"items":[{"name":"닥터박컴퓨터","tel":"031-427-2244","addr":"경기도 군포시 당동 731-7번지 104호","indutype":"사무통신 - 컴퓨터","category":"other"}]},{"lat":"37.343506441","long":"126.93839781","imageIndex":17,"items":[{"name":"담쟁이꽃다육식물전문점","tel":"031-392-8280","addr":"경기도 군포시 당동 974-3번지 재우빌딩 107호","indutype":"문화.취미 - 화원","category":"other"},{"name":"동양매직서비스안양3호점","tel":"031-395-7784","addr":"경기도 군포시 당동 974-3번지 재우빌딩 201호","indutype":"용역 서비스 - 기타용역서비스","category":"other"},{"name":"스타일#","tel":"031-390-6311","addr":"경기도 군포시 당동 974-3번지 재우빌딩 105호","indutype":"의류 - 정장","category":"other"}]},{"lat":"37.350528366","long":"126.94417041","imageIndex":17,"items":[{"name":"당동우체국","tel":"031-396-1205","addr":"경기도 군포시 당동 785-4번지","indutype":"용역 서비스 - 공공요금대행서비스/소","category":"other"}]},{"lat":"37.35400795","long":"126.94762148","imageIndex":17,"items":[{"name":"대도의류","tel":"031-457-7381","addr":"경기도 군포시 당동 749-16번지","indutype":"의류 - 기타의류","category":"other"}]},{"lat":"37.350475068","long":"126.94572797","imageIndex":17,"items":[{"name":"대명상사","tel":"031-457-4222","addr":"경기도 군포시 당동 898-12번지","indutype":"건축자재 - 페인트","category":"other"},{"name":"오꼬매까","tel":"","addr":"경기도 군포시 당동 898-12번지 상가 1층","indutype":"직물 - 옷감·직물","category":"other"}]},{"lat":"37.350366733","long":"126.94528788","imageIndex":17,"items":[{"name":"대명전기조명","tel":"031-477-8266","addr":"경기도 군포시 당동 898-3번지","indutype":"건축자재 - 조명기구","category":"other"}]},{"lat":"37.351340588","long":"126.94686724","imageIndex":17,"items":[{"name":"대선인테리어","tel":"031-429-1916","addr":"경기도 군포시 당동 783-2번지","indutype":"건축자재 - 인테리어전문","category":"other"}]},{"lat":"37.351367046","long":"126.94567086","imageIndex":17,"items":[{"name":"대성종합건재","tel":"031-455-5345","addr":"경기도 군포시 당동 781-3번지 101호","indutype":"건축자재 - 기타건축자재","category":"other"}]},{"lat":"37.35470044","long":"126.94492339","imageIndex":17,"items":[{"name":"대성철물건재","tel":"031-456-5262","addr":"경기도 군포시 당동 744번지","indutype":"레져용품 - 스포츠·레져용품","category":"other"}]},{"lat":"37.351058195","long":"126.94070507","imageIndex":17,"items":[{"name":"대승세탁","tel":"031-392-1005","addr":"경기도 군포시 당동 789-14번지 1층 102호","indutype":"수리서비스 - 세탁소","category":"other"},{"name":"에델바이스화원","tel":"031-399-4677","addr":"경기도 군포시 당동 789-14번지 102호","indutype":"문화.취미 - 화원","category":"other"},{"name":"중동악세사리","tel":"031-397-8702","addr":"경기도 군포시 당동 789-14번지 4층","indutype":"신변잡화 - 액세서리","category":"other"}]},{"lat":"37.357639245","long":"126.94805903","imageIndex":17,"items":[{"name":"대신목재","tel":"031-451-3668","addr":"경기도 군포시 당동 54-4번지","indutype":"건축자재 - 기타건축자재","category":"other"}]},{"lat":"37.349392991","long":"126.94397943","imageIndex":17,"items":[{"name":"대웅철물건재","tel":"031-395-7893","addr":"경기도 군포시 당동 794-1번지","indutype":"기타 - 기계공구","category":"other"}]},{"lat":"37.353395063","long":"126.94720432","imageIndex":17,"items":[{"name":"대종사","tel":"031-312-6105","addr":"경기도 군포시 당동 750-20번지","indutype":"의류 - 정장","category":"other"},{"name":"여성의류전문","tel":"031-452-0231","addr":"경기도 군포시 당동 750-20번지","indutype":"의류 - 정장","category":"other"}]},{"lat":"37.356141125","long":"126.94303732","imageIndex":17,"items":[{"name":"대풍종합공사","tel":"031-398-2658","addr":"경기도 군포시 당동 858-8번지 102호","indutype":"건축자재 - 인테리어전문","category":"other"}]},{"lat":"37.356086049","long":"126.94106211","imageIndex":17,"items":[{"name":"대한불교법해사","tel":"031-394-7253","addr":"경기도 군포시 당동 860번지","indutype":"기타 - 비영리/대상","category":"other"}]},{"lat":"37.358422255","long":"126.9462073","imageIndex":17,"items":[{"name":"대화상사","tel":"031-449-4771","addr":"경기도 군포시 당동 729-17번지","indutype":"건축자재 - 페인트","category":"other"}]},{"lat":"37.347168043","long":"126.94512104","imageIndex":17,"items":[{"name":"더고은수선","tel":"031-393-0399","addr":"경기도 군포시 당동 917-3번지 103호","indutype":"수리서비스 - 세탁소","category":"other"}]},{"lat":"37.352339631","long":"126.94462046","imageIndex":17,"items":[{"name":"더스타일","tel":"070-4155-4884","addr":"경기도 군포시 당동 775-16번지","indutype":"의류 - 정장","category":"other"},{"name":"더스타일","tel":"031-429-4883","addr":"경기도 군포시 당동 775-16번지","indutype":"의류 - 정장","category":"other"},{"name":"한국전자담배군포지점","tel":"031-427-8080","addr":"경기도 군포시 당동 775-16번지 103호","indutype":"기타 - 기타 전문점","category":"other"}]},{"lat":"37.357530696","long":"126.94714483","imageIndex":17,"items":[{"name":"도란도란꿈벗","tel":"","addr":"경기도 군포시 당동 731-29번지 성도빌라 301호","indutype":"회원제형태 - 기타4","category":"other"}]},{"lat":"37.341090119","long":"126.9355335","imageIndex":17,"items":[{"name":"도로시","tel":"031-396-2920","addr":"경기도 군포시 당동 1029번지 102호","indutype":"의류 - 내의판매","category":"other"}]},{"lat":"37.356251271","long":"126.94717964","imageIndex":17,"items":[{"name":"동광페인트","tel":"031-452-5829","addr":"경기도 군포시 당동 747-33번지 1층","indutype":"건축자재 - 페인트","category":"other"}]},{"lat":"37.341063688","long":"126.93659431","imageIndex":17,"items":[{"name":"동명상재","tel":"031-419-7788","addr":"경기도 군포시 당동 1031-3번지","indutype":"직물 - 카페트,커튼,천막,지물","category":"other"}]},{"lat":"37.350114531","long":"126.94545737","imageIndex":17,"items":[{"name":"동아세탁소","tel":"031-458-7386","addr":"경기도 군포시 당동 898-20번지 1층","indutype":"수리서비스 - 세탁소","category":"other"},{"name":"와이지라이팅(YG)","tel":"031-429-0810","addr":"경기도 군포시 당동 898-20번지 101호","indutype":"건축자재 - 조명기구","category":"other"}]},{"lat":"37.355924369","long":"126.94203294","imageIndex":17,"items":[{"name":"동아일보군포독자센터","tel":"031-395-1920","addr":"경기도 군포시 당동 858번지","indutype":"서적문구 - 정기간행물","category":"other"},{"name":"신성기획/스포츠","tel":"031-394-5275","addr":"경기도 군포시 당동 858번지","indutype":"레져용품 - 스포츠·레져용품","category":"other"},{"name":"주식회사 리컴퍼니 경기지사","tel":"031-393-9401","addr":"경기도 군포시 당동 858번지 102호","indutype":"건축자재 - 인테리어전문","category":"other"}]},{"lat":"37.352085876","long":"126.94170872","imageIndex":17,"items":[{"name":"동양유리샤시","tel":"031-461-6262","addr":"경기도 군포시 당동 763번지 3층","indutype":"건축자재 - 인테리어전문","category":"other"}]},{"lat":"37.357224636","long":"126.94775457","imageIndex":17,"items":[{"name":"동은앵글진열장","tel":"031-427-9747","addr":"경기도 군포시 당동 747-1번지","indutype":"가구 - 일반가구","category":"other"},{"name":"인생나자작업장사회적협동조합","tel":"031-458-7972","addr":"경기도 군포시 당동 747-1번지 3층","indutype":"기타 - 비영리/비대상","category":"other"}]},{"lat":"37.346948508","long":"126.93873344","imageIndex":17,"items":[{"name":"동진기업","tel":"031-441-1847","addr":"경기도 군포시 당동 958번지 용호마을엘지 상가동 1층 109호","indutype":"용역 서비스 - 기타용역서비스","category":"other"}]},{"lat":"37.35697928","long":"126.94345429","imageIndex":17,"items":[{"name":"두루욕실하우징","tel":"031-393-1574","addr":"경기도 군포시 당동 852-3번지","indutype":"건축자재 - 인테리어전문","category":"other"},{"name":"서준건설","tel":"031-391-6040","addr":"경기도 군포시 당동 852-3번지 103호","indutype":"건축자재 - 인테리어전문","category":"other"},{"name":"제승세탁","tel":"031-397-1100","addr":"경기도 군포시 당동 852-3번지 1층","indutype":"수리서비스 - 세탁소","category":"other"}]},{"lat":"37.359143276","long":"126.94664698","imageIndex":17,"items":[{"name":"등대전파사","tel":"031-442-3224","addr":"경기도 군포시 당동 835-90번지 1층 102호","indutype":"수리서비스 - 가정용품수리","category":"other"}]},{"lat":"37.355006636","long":"126.9446184","imageIndex":17,"items":[{"name":"디자인다움","tel":"031-427-7903","addr":"경기도 군포시 당동 739-3번지 103호","indutype":"용역 서비스 - 사무서비스","category":"other"}]},{"lat":"37.344842004","long":"126.94229016","imageIndex":17,"items":[{"name":"디지탈랜드","tel":"031-399-8220","addr":"경기도 군포시 당동 873쌍용상가지하104","indutype":"사무통신 - 컴퓨터","category":"other"}]},{"lat":"37.352754665","long":"126.94578267","imageIndex":17,"items":[{"name":"딥댄스학원","tel":"031-429-9002","addr":"경기도 군포시 당동 776-23번지 2층","indutype":"회원제형태 - 레져업소","category":"other"},{"name":"마코","tel":"031-457-6566","addr":"경기도 군포시 당동 776-23번지 1층 2호","indutype":"의류 - 스포츠의류","category":"other"},{"name":"올리비아로렌군포점","tel":"031-457-0716","addr":"경기도 군포시 당동 776-23번지","indutype":"레져용품 - 스포츠·레져용품","category":"other"}]},{"lat":"37.350806955","long":"126.94272554","imageIndex":17,"items":[{"name":"뚱딴지","tel":"031-453-4087","addr":"경기도 군포시 당동 786-1번지 102호","indutype":"의류 - 정장","category":"other"}]},{"lat":"37.352781306","long":"126.9449813","imageIndex":17,"items":[{"name":"라미야.미샤전자담배","tel":"031-427-9450","addr":"경기도 군포시 당동 775-10번지 1층","indutype":"기타 - 기타 전문점","category":"other"}]},{"lat":"37.357141011","long":"126.94256246","imageIndex":17,"items":[{"name":"라온","tel":"031-8033-8883","addr":"경기도 군포시 당동 851-10번지 1층 119호","indutype":"기타 - 기계공구","category":"other"},{"name":"에쇼 트레이드(AESHO Trade)","tel":"031-392-5142","addr":"경기도 군포시 당동 851-10번지 102호","indutype":"건축자재 - 인테리어전문","category":"other"}]},{"lat":"37.355590242","long":"126.94058846","imageIndex":17,"items":[{"name":"람세스","tel":"031-314-1698","addr":"경기도 군포시 당동 861-4번지","indutype":"신변잡화 - 기타잡화","category":"other"}]},{"lat":"37.351447486","long":"126.94433899","imageIndex":17,"items":[{"name":"럭키샤시 유리","tel":"031-429-0382","addr":"경기도 군포시 당동 772-14번지","indutype":"용역 서비스 - 기타용역서비스","category":"other"},{"name":"시민알뜰매장","tel":"031-456-0089","addr":"경기도 군포시 당동 772-14번지","indutype":"신변잡화 - 기타잡화","category":"other"},{"name":"육일전기공사","tel":"031-454-1607","addr":"경기도 군포시 당동 772-14번지","indutype":"용역 서비스 - 기타용역서비스","category":"other"}]},{"lat":"37.355007474","long":"126.94634532","imageIndex":17,"items":[{"name":"로이젠 군포점","tel":"031-342-7736","addr":"경기도 군포시 당동 745-3번지","indutype":"의류 - 스포츠의류","category":"other"},{"name":"쿠쿠군포점주식회사","tel":"031-427-9991","addr":"경기도 군포시 당동 745-3번지","indutype":"전기제품 - 가전제품","category":"other"}]},{"lat":"37.354863311","long":"126.94634542","imageIndex":17,"items":[{"name":"롯데하이마트(주) 당동","tel":"031-429-8800","addr":"경기도 군포시 당동 745-4,18,24","indutype":"전기제품 - 가전제품","category":"other"}]},{"lat":"37.348951426","long":"126.94384434","imageIndex":17,"items":[{"name":"리드사인","tel":"031-399-2996","addr":"경기도 군포시 당동 794-7번지","indutype":"직물 - 카페트,커튼,천막,지물","category":"other"}]},{"lat":"37.352060669","long":"126.94534302","imageIndex":17,"items":[{"name":"리베르인군포","tel":"031-477-8332","addr":"경기도 군포시 당동 776-12번지 정인빌딩","indutype":"용역 서비스 - 부동산 중개·임대","category":"other"},{"name":"이브자리","tel":"031-453-6202","addr":"경기도 군포시 당동 776-12번지 1층","indutype":"직물 - 침구·수예점","category":"other"}]},{"lat":"37.351364439","long":"126.94051294","imageIndex":17,"items":[{"name":"리에나","tel":"070-5123-7560","addr":"경기도 군포시 당동 761-29번지 비앤비아트빌1차 201호","indutype":"의류 - 정장","category":"other"},{"name":"티티카카","tel":"070-5123-7560","addr":"경기도 군포시 당동 761-29번지 비앤비아트빌1차 201호","indutype":"의류 - 정장","category":"other"}]},{"lat":"37.354638331","long":"126.94692123","imageIndex":17,"items":[{"name":"리퍼브샵군포점","tel":"031-397-0078","addr":"경기도 군포시 당동 749-28번지 1층","indutype":"전기제품 - 가전제품","category":"other"}]},{"lat":"37.35069913","long":"126.94331251","imageIndex":17,"items":[{"name":"마니샵","tel":"031-393-7128","addr":"경기도 군포시 당동 786-6번지 1층 102호","indutype":"의류 - 정장","category":"other"}]},{"lat":"37.359693432","long":"126.94778663","imageIndex":17,"items":[{"name":"마라톤공구","tel":"02-904-3604","addr":"경기도 군포시 당동 835-9번지","indutype":"레져용품 - 스포츠·레져용품","category":"other"},{"name":"한양기계제작소","tel":"031-457-5167","addr":"경기도 군포시 당동 835-9번지","indutype":"기타 - 기계공구","category":"other"}]},{"lat":"37.355502712","long":"126.94567901","imageIndex":17,"items":[{"name":"만도열쇠","tel":"031-454-1122","addr":"경기도 군포시 당동 742-19번지 1층","indutype":"기타 - 기계공구","category":"other"},{"name":"제일종합인테리어","tel":"031-458-9464","addr":"경기도 군포시 당동 742-19번지","indutype":"직물 - 카페트,커튼,천막,지물","category":"other"}]},{"lat":"37.346393263","long":"126.94531349","imageIndex":17,"items":[{"name":"맑음피부","tel":"031-392-9989","addr":"경기도 군포시 당동 922-3 정명프라자 2층","indutype":"회원제형태 - 기타4","category":"other"}]},{"lat":"37.355674578","long":"126.94708976","imageIndex":17,"items":[{"name":"맘모스수족관","tel":"031-457-4822","addr":"경기도 군포시 당동 748-17번지 1층","indutype":"문화.취미 - 수족관","category":"other"}]},{"lat":"37.346245746","long":"126.93879047","imageIndex":17,"items":[{"name":"매직라이팅","tel":"031-406-0567","addr":"경기도 군포시 당동 957-2번지 용호마을엘지아파트","indutype":"건축자재 - 조명기구","category":"other"}]},{"lat":"37.356501617","long":"126.94320634","imageIndex":17,"items":[{"name":"매직크리트시스템주식회사","tel":"031-427-2629","addr":"경기도 군포시 당동 853-2번지 101호","indutype":"건축자재 - 기타건축자재","category":"other"}]},{"lat":"37.347618074","long":"126.94415011","imageIndex":17,"items":[{"name":"맥스문구프라자","tel":"031-399-0989","addr":"경기도 군포시 당동 905-3번지 1층","indutype":"서적문구 - 문구용품","category":"other"},{"name":"모어룩스(MORELOOKS)","tel":"","addr":"경기도 군포시 당동 905-3번지 301호","indutype":"의류 - 정장","category":"other"}]},{"lat":"37.355563371","long":"126.94089323","imageIndex":17,"items":[{"name":"메디칼자이","tel":"031-394-7801","addr":"경기도 군포시 당동 861-6번지","indutype":"기타의료기관 - 기타의료기관 및 기타","category":"other"},{"name":"에코디자인","tel":"031-381-3877","addr":"경기도 군포시 당동 861-6번지 103호","indutype":"건축자재 - 인테리어전문","category":"other"}]},{"lat":"37.350834605","long":"126.94395573","imageIndex":17,"items":[{"name":"명보석","tel":"031-456-1109","addr":"경기도 군포시 당동 771-13번지","indutype":"신변잡화 - 귀금속","category":"other"}]},{"lat":"37.346834871","long":"126.94553887","imageIndex":17,"items":[{"name":"명성 에어컨","tel":"070-4158-7412","addr":"경기도 군포시 당동 916-5번지","indutype":"용역 서비스 - 기타용역서비스","category":"other"}]},{"lat":"37.341063593","long":"126.93642504","imageIndex":17,"items":[{"name":"모던데코","tel":"031-394-0970","addr":"경기도 군포시 당동 1031-2번지 101호","indutype":"직물 - 카페트,커튼,천막,지물","category":"other"}]},{"lat":"37.353257792","long":"126.94287031","imageIndex":17,"items":[{"name":"모든 열쇠. 통신","tel":"","addr":"경기도 군포시 당동 766-1번지 102호","indutype":"건축자재 - 목재·석재·철물","category":"other"}]},{"lat":"37.349089168","long":"126.94928415","imageIndex":17,"items":[{"name":"모아주방가구","tel":"031-424-8779","addr":"경기도 군포시 당동 168-5번지 1층","indutype":"주방용구 - 주방용구","category":"other"}]},{"lat":"37.344978706","long":"126.94539357","imageIndex":17,"items":[{"name":"몬난둥이네 그릇가게","tel":"031-391-7747","addr":"경기도 군포시 당동 886번지 주공3단지아파트","indutype":"주방용구 - 주방용식기","category":"other"}]},{"lat":"37.355114935","long":"126.9449795","imageIndex":17,"items":[{"name":"몽띠끄펫","tel":"","addr":"경기도 군포시 당동 743-17번지 1층 1호","indutype":"문화.취미 - 애완동물","category":"other"}]},{"lat":"37.356755652","long":"126.94678421","imageIndex":17,"items":[{"name":"무지개요양원","tel":"031-451-4678","addr":"경기도 군포시 당동 732-12번지","indutype":"기타의료기관 - 기타의료기관 및 기타","category":"other"}]},{"lat":"37.350138657","long":"126.93975778","imageIndex":17,"items":[{"name":"무지개인테리어","tel":"031-394-9113","addr":"경기도 군포시 당동 951-3번지 정마프라자 103호","indutype":"건축자재 - 인테리어전문","category":"other"}]},{"lat":"37.346869937","long":"126.94356383","imageIndex":17,"items":[{"name":"미건의료기","tel":"031-392-0377","addr":"경기도 군포시 당동 921번지 3층","indutype":"기타의료기관 - 기타의료기관 및 기타","category":"other"}]},{"lat":"37.3517278","long":"126.94639292","imageIndex":17,"items":[{"name":"미광사","tel":"031-461-6090","addr":"경기도 군포시 당동 782-10번지","indutype":"서적문구 - 일반서적","category":"other"},{"name":"미광사","tel":"031-461-6090","addr":"경기도 군포시 당동 782-10번지","indutype":"신변잡화 - 기타잡화","category":"other"},{"name":"청계","tel":"031-349-5040","addr":"경기도 군포시 당동 782-10번지 201호","indutype":"직물 - 카페트,커튼,천막,지물","category":"other"}]},{"lat":"37.357918907","long":"126.94881508","imageIndex":17,"items":[{"name":"미니스톱 군포공단점","tel":"031-1577-9621","addr":"경기도 군포시 당동 51-4번지 1층","indutype":"유통업 영리 - 편 의 점","category":"other"}]},{"lat":"37.355726954","long":"126.94362458","imageIndex":17,"items":[{"name":"미래하우징","tel":"031-458-8724","addr":"경기도 군포시 당동 736-4번지","indutype":"건축자재 - 인테리어전문","category":"other"}]},{"lat":"37.351086045","long":"126.94228514","imageIndex":17,"items":[{"name":"미림가구","tel":"031-429-9180","addr":"경기도 군포시 당동 769-26번지","indutype":"가구 - 일반가구","category":"other"}]},{"lat":"37.346535337","long":"126.94117151","imageIndex":17,"items":[{"name":"미성골프멤버쉽클럽","tel":"031-394-9898","addr":"경기도 군포시 당동 962-3번지 미성데코프라자 B02호","indutype":"회원제형태 - 레져업소","category":"other"},{"name":"미성골프멤버쉽클럽","tel":"031-394-9898","addr":"경기도 군포시 당동 962-3번지 미성데코플라자 지하2층","indutype":"회원제형태 - 레져업소","category":"other"},{"name":"미성산업개발주식회사","tel":"031-399-9009","addr":"경기도 군포시 당동 962-3번지 미성데코플라자","indutype":"기타의료기관 - 기타의료기관 및 기타","category":"other"}]},{"lat":"37.347834194","long":"126.94390165","imageIndex":17,"items":[{"name":"미소미소","tel":"031-391-9680","addr":"경기도 군포시 당동 904-5번지 그린프라자 제 1층 113호","indutype":"의류 - 정장","category":"other"}]},{"lat":"37.353446734","long":"126.94233968","imageIndex":17,"items":[{"name":"민영세탁소","tel":"031-452-1902","addr":"경기도 군포시 당동 756-12번지 1층","indutype":"수리서비스 - 세탁소","category":"other"}]},{"lat":"37.345474711","long":"126.94631861","imageIndex":17,"items":[{"name":"민찬시스템","tel":"","addr":"경기도 군포시 당동 886번지 주공3단지아파트","indutype":"용역 서비스 - 기타용역서비스","category":"other"}]},{"lat":"37.352646087","long":"126.94484596","imageIndex":17,"items":[{"name":"바오광고기획","tel":"031-477-7727","addr":"경기도 군포시 당동 775-12번지 1층 101호","indutype":"회원제형태 - 기타4","category":"other"},{"name":"백만장자구제","tel":"070-4112-1772","addr":"경기도 군포시 당동 775-12번지 1층 101호","indutype":"의류 - 정장","category":"other"}]},{"lat":"37.345060103","long":"126.94602549","imageIndex":17,"items":[{"name":"바이온텍서비스","tel":"031-398-7041","addr":"경기도 군포시 당동 886번지 주공3단지아파트","indutype":"회원제형태 - 기타4","category":"other"}]},{"lat":"37.35561036","long":"126.94470823","imageIndex":17,"items":[{"name":"바이올렛","tel":"031-457-7545","addr":"경기도 군포시 당동 740-10번지","indutype":"의류 - 정장","category":"other"},{"name":"현대광고디자인","tel":"031-458-2354","addr":"경기도 군포시 당동 740-10번지 2층","indutype":"용역 서비스 - 종합용역","category":"other"}]},{"lat":"37.343424371","long":"126.93662609","imageIndex":17,"items":[{"name":"바이올렛","tel":"031-000-0000","addr":"경기도 군포시 당동 979-1번지 용호마을e편한세상상가2 1층","indutype":"의류 - 정장","category":"other"},{"name":"용호세탁소","tel":"031-399-8982","addr":"경기도 군포시 당동 979-1번지","indutype":"수리서비스 - 세탁소","category":"other"}]},{"lat":"37.349364792","long":"126.94167707","imageIndex":17,"items":[{"name":"반디인테리어","tel":"031-392-3235","addr":"경기도 군포시 당동 792-31번지 1층 102호","indutype":"건축자재 - 인테리어전문","category":"other"}]},{"lat":"37.35095062","long":"126.94175479","imageIndex":17,"items":[{"name":"백조세탁소","tel":"031-396-8887","addr":"경기도 군포시 당동 788-5번지","indutype":"수리서비스 - 세탁소","category":"other"}]},{"lat":"37.341784966","long":"126.93742877","imageIndex":17,"items":[{"name":"베스트골프샵","tel":"031-456-3376","addr":"경기도 군포시 당동 978-4번지 다우빌 102호","indutype":"레져용품 - 골프용품 전문점","category":"other"},{"name":"아름다운욕실e바스","tel":"031-392-8460","addr":"경기도 군포시 당동 978-4번지 다우빌 101호","indutype":"건축자재 - 기타건축자재","category":"other"}]},{"lat":"37.350779269","long":"126.9414502","imageIndex":17,"items":[{"name":"벧엘 비닐하우스 수리","tel":"031-456-8579","addr":"경기도 군포시 당동 788-12번지","indutype":"건축자재 - 기타건축자재","category":"other"}]},{"lat":"37.349924618","long":"126.94403545","imageIndex":17,"items":[{"name":"벽산화원","tel":"031-399-7377","addr":"경기도 군포시 당동 785-16번지 동영프라자2차 106호","indutype":"문화.취미 - 화원","category":"other"},{"name":"장미솜씨","tel":"031-399-9469","addr":"경기도 군포시 당동 785-16번지","indutype":"직물 - 침구·수예점","category":"other"}]},{"lat":"37.350951221","long":"126.94292858","imageIndex":17,"items":[{"name":"보람철물","tel":"031-457-0220","addr":"경기도 군포시 당동 770-15번지 101호","indutype":"회원제형태 - 기타4","category":"other"}]},{"lat":"37.354835443","long":"126.94461854","imageIndex":17,"items":[{"name":"부강인테리어","tel":"031-459-0390","addr":"경기도 군포시 당동 739-5번지","indutype":"직물 - 카페트,커튼,천막,지물","category":"other"}]},{"lat":"37.348950119","long":"126.9412824","imageIndex":17,"items":[{"name":"부성침장","tel":"031-388-1638","addr":"경기도 군포시 당동 791-10번지","indutype":"직물 - 침구·수예점","category":"other"},{"name":"세븐일레븐군포로점","tel":"031-1577-0711","addr":"경기도 군포시 당동 791-10번지 한미상가 1층 5호","indutype":"유통업 영리 - 편 의 점","category":"other"}]},{"lat":"37.353809253","long":"126.9466171","imageIndex":17,"items":[{"name":"부흥수예,털실","tel":"031-453-5466","addr":"경기도 군포시 당동 750번지","indutype":"직물 - 침구·수예점","category":"other"}]},{"lat":"37.349146711","long":"126.93822369","imageIndex":17,"items":[{"name":"뷰클린종합화장품","tel":"031-398-1148","addr":"경기도 군포시 당동 954번지 무지개마을대림아파트","indutype":"회원제형태 - 기타4","category":"other"},{"name":"유진써플라이","tel":"031-347-9235","addr":"경기도 군포시 당동 954번지 무지개마을대림아파트","indutype":"신변잡화 - 기타잡화","category":"other"},{"name":"히어라이크","tel":"070-1111-1111","addr":"경기도 군포시 당동 954번지 무지개마을대림아파트","indutype":"의류 - 정장","category":"other"}]},{"lat":"37.352421059","long":"126.94530889","imageIndex":17,"items":[{"name":"비너스 솔브 군포점","tel":"032-435-6653","addr":"경기도 군포시 당동 776-17번지 1층","indutype":"의류 - 내의판매","category":"other"},{"name":"소망당","tel":"031-455-7743","addr":"경기도 군포시 당동 776-17번지","indutype":"신변잡화 - 귀금속","category":"other"}]},{"lat":"37.353980116","long":"126.94592847","imageIndex":17,"items":[{"name":"비비펫","tel":"031-343-5373","addr":"경기도 군포시 당동 751-4번지","indutype":"문화.취미 - 애완동물","category":"other"}]},{"lat":"37.348591389","long":"126.9445895","imageIndex":17,"items":[{"name":"비젼인테리어","tel":"031-395-4701","addr":"경기도 군포시 당동 904-1번지 103호","indutype":"건축자재 - 인테리어전문","category":"other"}]},{"lat":"37.351139833","long":"126.94175464","imageIndex":17,"items":[{"name":"비채코리아","tel":"031-6902-3578","addr":"경기도 군포시 당동 763-20번지 5층 401호","indutype":"의류 - 정장","category":"other"},{"name":"씨유군포본점","tel":"031-429-3753","addr":"경기도 군포시 당동 763-20번지 101호","indutype":"유통업 영리 - 편 의 점","category":"other"}]},{"lat":"37.35480954","long":"126.94695496","imageIndex":17,"items":[{"name":"빅신발아울렛","tel":"031-458-6859","addr":"경기도 군포시 당동 749번지 1층 1호","indutype":"신변잡화 - 신발","category":"other"}]},{"lat":"37.351031495","long":"126.94133713","imageIndex":17,"items":[{"name":"뽀쌤쿠킹스튜디오","tel":"","addr":"경기도 군포시 당동 788-4번지 수성빌리지 다동 101호","indutype":"문화.취미 - 문화취미기타","category":"other"}]},{"lat":"37.35930598","long":"126.94775305","imageIndex":17,"items":[{"name":"사고팔구마을","tel":"031-453-2774","addr":"경기도 군포시 당동 835-61번지 1층","indutype":"전기제품 - 기타전기제품","category":"other"}]},{"lat":"37.343641912","long":"126.93898453","imageIndex":17,"items":[{"name":"사랑서적","tel":"031-395-0023","addr":"경기도 군포시 당동 973-13번지 창의마을유치원 402호","indutype":"서적문구 - 일반서적","category":"other"}]},{"lat":"37.344669459","long":"126.93970593","imageIndex":17,"items":[{"name":"사랑행복실버타운","tel":"031-398-7004","addr":"경기도 군포시 당동 966-12번지 3층","indutype":"기타의료기관 - 기타의료기관 및 기타","category":"other"},{"name":"엔젤정보통신","tel":"031-1544-0135","addr":"경기도 군포시 당동 966-12번지 대림프라자 201호","indutype":"사무통신 - 통신기기","category":"other"},{"name":"엠선트래블(M SUN TRAVEL)","tel":"070-4649-1101","addr":"경기도 군포시 당동 966-12번지 대림프라자 2층 204호","indutype":"용역 서비스 - 사무서비스","category":"other"}]},{"lat":"37.351888944","long":"126.94425964","imageIndex":17,"items":[{"name":"산본구제샵","tel":"031-427-4700","addr":"경기도 군포시 당동 772-11번지 103호","indutype":"의류 - 기타의류","category":"other"}]},{"lat":"37.34616786","long":"126.94500895","imageIndex":17,"items":[{"name":"산본말씀교회","tel":"031-398-4873","addr":"경기도 군포시 당동 922-29번지 4층","indutype":"기타 - 비영리/대상","category":"other"}]},{"lat":"37.349726685","long":"126.94462248","imageIndex":17,"items":[{"name":"산본삼천리중앙점","tel":"031-394-3004","addr":"경기도 군포시 당동 903-3번지 1층","indutype":"레져용품 - 스포츠·레져용품","category":"other"}]},{"lat":"37.353088241","long":"126.94620003","imageIndex":17,"items":[{"name":"산호당","tel":"031-452-0018","addr":"경기도 군포시 당동 777번지","indutype":"신변잡화 - 귀금속","category":"other"},{"name":"삼일종합상사","tel":"031-452-3199","addr":"경기도 군포시 당동 777번지","indutype":"서적문구 - 문구용품","category":"other"}]},{"lat":"37.346699432","long":"126.94495211","imageIndex":17,"items":[{"name":"삼성스마트폰당동점","tel":"031-396-5772","addr":"경기도 군포시 당동 917-6번지 YB프라자 103,104호","indutype":"사무통신 - 통신기기","category":"other"},{"name":"템프업 힐링카페","tel":"031-477-2917","addr":"경기도 군포시 당동 917-6번지 YB프라자 3층 302호","indutype":"의류 - 내의판매","category":"other"}]},{"lat":"37.353421015","long":"126.94495823","imageIndex":17,"items":[{"name":"삼성인테리어","tel":"031-399-0388","addr":"경기도 군포시 당동 752-14번지","indutype":"건축자재 - 인테리어전문","category":"other"},{"name":"씨유군포당동점","tel":"080-080-3663","addr":"경기도 군포시 당동 752-14번지 1층 2호","indutype":"유통업 영리 - 편 의 점","category":"other"}]},{"lat":"37.345444729","long":"126.94045013","imageIndex":17,"items":[{"name":"삼성전자서비스(주)디지털군포센터","tel":"070-7878-9792","addr":"경기도 군포시 당동 966-7번지 지영빌딩 3층","indutype":"수리서비스 - 가정용품수리","category":"other"}]},{"lat":"37.34670899","long":"126.94608068","imageIndex":17,"items":[{"name":"샘장례토탈","tel":"031-882-0202","addr":"경기도 군포시 당동 915-12번지 금호맘오스타 2동 102호","indutype":"용역 서비스 - 가례서비스업","category":"other"}]},{"lat":"37.353639133","long":"126.94891973","imageIndex":17,"items":[{"name":"서광공조","tel":"031-459-6566","addr":"경기도 군포시 당동 134-14번지 1층","indutype":"전기제품 - 냉열기기","category":"other"},{"name":"서광공조","tel":"031-459-6566","addr":"경기도 군포시 당동 134-14번지 1층","indutype":"전기제품 - 냉열기기","category":"other"}]},{"lat":"37.350727543","long":"126.9461228","imageIndex":17,"items":[{"name":"서울광고","tel":"031-458-7285","addr":"경기도 군포시 당동 783-54번지","indutype":"용역 서비스 - 종합용역","category":"other"}]},{"lat":"37.349888974","long":"126.9448368","imageIndex":17,"items":[{"name":"서정건축","tel":"031-429-2882","addr":"경기도 군포시 당동 903-1번지 101호","indutype":"건축자재 - 인테리어전문","category":"other"}]},{"lat":"37.350755257","long":"126.94756743","imageIndex":17,"items":[{"name":"선유종합설비","tel":"031-349-0655","addr":"경기도 군포시 당동 783-20번지 1층 102호","indutype":"용역 서비스 - 기타용역서비스","category":"other"}]},{"lat":"37.352168175","long":"126.94409013","imageIndex":17,"items":[{"name":"선일도료","tel":"031-383-7703","addr":"경기도 군포시 당동 772-1번지 1층","indutype":"건축자재 - 페인트","category":"other"}]},{"lat":"37.357278438","long":"126.94720145","imageIndex":17,"items":[{"name":"성도상사","tel":"031-456-6513","addr":"경기도 군포시 당동 731-10번지 1층","indutype":"건축자재 - 페인트","category":"other"},{"name":"승주전자","tel":"031-454-7611","addr":"경기도 군포시 당동 731-10번지","indutype":"전기제품 - 가전제품","category":"other"}]},{"lat":"37.35693515","long":"126.94531673","imageIndex":17,"items":[{"name":"성실엔지니어링","tel":"031-429-8242","addr":"경기도 군포시 당동 733-19번지 성명빌라 1동 102호","indutype":"전기제품 - 냉열기기","category":"other"}]},{"lat":"37.356557418","long":"126.94676178","imageIndex":17,"items":[{"name":"성원인테리어","tel":"031-429-7034","addr":"경기도 군포시 당동 732-13번지 대창빌딩","indutype":"건축자재 - 인테리어전문","category":"other"},{"name":"예원","tel":"032-427-5204","addr":"경기도 군포시 당동 732-13번지 대창빌딩 102호","indutype":"직물 - 카페트,커튼,천막,지물","category":"other"}]},{"lat":"37.347311588","long":"126.9438682","imageIndex":17,"items":[{"name":"세렌디퍼제이","tel":"031-429-1372","addr":"경기도 군포시 당동 919-4번지 문원주택 301호","indutype":"신변잡화 - 액세서리","category":"other"}]},{"lat":"37.346592208","long":"126.94681434","imageIndex":17,"items":[{"name":"세븐일레븐군포당동점","tel":"","addr":"경기도 군포시 당동 914-4번지 썬빌리지 101호","indutype":"유통업 영리 - 편 의 점","category":"other"}]},{"lat":"37.352061218","long":"126.94648296","imageIndex":17,"items":[{"name":"세븐일레븐군포온누리점","tel":"","addr":"경기도 군포시 당동 780-2번지 당동누리에뜰해밀 1층 106,107호","indutype":"유통업 영리 - 편 의 점","category":"other"},{"name":"시온공조","tel":"031-443-0078","addr":"경기도 군포시 당동 780-2번지 당동누리에뜰해밀 1층 113호","indutype":"전기제품 - 냉열기기","category":"other"},{"name":"존케이지빌리어즈(군포점)","tel":"070-3643-1945","addr":"경기도 군포시 당동 780-2번지 당동누리에뜰해밀 3층 309호,310호","indutype":"레져용품 - 스포츠·레져용품","category":"other"},{"name":"크린가가","tel":"00-1522-3630","addr":"경기도 군포시 당동 780-2번지 당동누리에뜰해밀 101,102호","indutype":"수리서비스 - 세탁소","category":"other"},{"name":"피앙새","tel":"031-427-0040","addr":"경기도 군포시 당동 780-2번지 당동누리에뜰해밀 1층 108,109호","indutype":"회원제형태 - 기타4","category":"other"},{"name":"흥업디퓨저","tel":"031-303-9953","addr":"경기도 군포시 당동 780-2번지 누리에뜰해밀 1404호","indutype":"신변잡화 - 기타잡화","category":"other"}]},{"lat":"37.354727282","long":"126.94453961","imageIndex":17,"items":[{"name":"세아크린","tel":"","addr":"경기도 군포시 당동 739-7번지 102호","indutype":"신변잡화 - 기타잡화","category":"other"}]},{"lat":"37.346619039","long":"126.94639675","imageIndex":17,"items":[{"name":"세탁나라","tel":"031-391-2280","addr":"경기도 군포시 당동 915-8번지","indutype":"수리서비스 - 세탁소","category":"other"}]},{"lat":"37.353809344","long":"126.94680897","imageIndex":17,"items":[{"name":"소라의류","tel":"031-455-9835","addr":"경기도 군포시 당동 750-2번지 1층","indutype":"의류 - 정장","category":"other"}]},{"lat":"37.355341192","long":"126.94706744","imageIndex":17,"items":[{"name":"송월타올","tel":"031-427-7700","addr":"경기도 군포시 당동 748-51번지 1층","indutype":"직물 - 옷감·직물","category":"other"},{"name":"형제상사","tel":"031-52-4743","addr":"경기도 군포시 당동 748-51번지","indutype":"의류 - 내의판매","category":"other"},{"name":"효 재가복지센터","tel":"031-459-1377","addr":"경기도 군포시 당동 748-51번지","indutype":"기타의료기관 - 기타의료기관 및 기타","category":"other"}]},{"lat":"37.352341045","long":"126.94756627","imageIndex":17,"items":[{"name":"수도119군포점","tel":"031-111-1111","addr":"경기도 군포시 당동 778-8번지 705호","indutype":"용역 서비스 - 종합용역","category":"other"},{"name":"제이알시스템(JR SYSTEM)","tel":"031-456-6631","addr":"경기도 군포시 당동 778-8번지 202호","indutype":"사무통신 - 통신기기","category":"other"}]},{"lat":"37.350976895","long":"126.94031011","imageIndex":17,"items":[{"name":"수와린","tel":"070-8202-9151","addr":"경기도 군포시 당동 789-13번지 외1필지","indutype":"의류 - 정장","category":"other"}]},{"lat":"37.353394829","long":"126.9467077","imageIndex":17,"items":[{"name":"슈발제화","tel":"031-452-0716","addr":"경기도 군포시 당동 750-24번지","indutype":"신변잡화 - 제화","category":"other"}]},{"lat":"37.347339347","long":"126.94534662","imageIndex":17,"items":[{"name":"슈즈쿨","tel":"031-458-1919","addr":"경기도 군포시 당동 916 1층 3","indutype":"수리서비스 - 세탁소","category":"other"}]},{"lat":"37.355725179","long":"126.94018201","imageIndex":17,"items":[{"name":"스타설비","tel":"070-4078-0939","addr":"경기도 군포시 당동 861-1번지 중앙빌라 나동 101호","indutype":"용역 서비스 - 기타용역서비스","category":"other"}]},{"lat":"37.346112478","long":"126.94236814","imageIndex":17,"items":[{"name":"스타일하우스","tel":"031-392-2221","addr":"경기도 군포시 당동 872번지 서일빌딩 501호","indutype":"건축자재 - 인테리어전문","category":"other"}]},{"lat":"37.342839535","long":"126.93811625","imageIndex":17,"items":[{"name":"스튜디오율","tel":"031-391-5255","addr":"경기도 군포시 당동 977-2번지 2층","indutype":"광학제품 - 사진관","category":"other"},{"name":"해인스토어","tel":"031-398-0118","addr":"경기도 군포시 당동 977-2번지 101호","indutype":"신변잡화 - 기타잡화","category":"other"}]},{"lat":"37.354674817","long":"126.94786931","imageIndex":17,"items":[{"name":"스피드전기","tel":"","addr":"경기도 군포시 당동 115-19번지 B08호","indutype":"용역 서비스 - 기타용역서비스","category":"other"}]},{"lat":"37.350088516","long":"126.9475905","imageIndex":17,"items":[{"name":"신명조명","tel":"031-455-9365","addr":"경기도 군포시 당동 899-19번지","indutype":"건축자재 - 조명기구","category":"other"}]},{"lat":"37.344227193","long":"126.93828434","imageIndex":17,"items":[{"name":"신모바일","tel":"031-396-4343","addr":"경기도 군포시 당동 971-2번지 에벤에셀빌딩 1동 101층","indutype":"사무통신 - 통신기기","category":"other"}]},{"lat":"37.353230491","long":"126.94233985","imageIndex":17,"items":[{"name":"신성인테리어","tel":"031-429-3932","addr":"경기도 군포시 당동 765-17번지","indutype":"직물 - 카페트,커튼,천막,지물","category":"other"}]},{"lat":"37.354448128","long":"126.94486715","imageIndex":17,"items":[{"name":"신일서비스","tel":"031-477-7837","addr":"경기도 군포시 당동 744-26번지 101,102호","indutype":"전기제품 - 가전제품","category":"other"},{"name":"우석정보통신","tel":"031-59-3011","addr":"경기도 군포시 당동 744-26번지","indutype":"사무통신 - 통신기기","category":"other"},{"name":"태진종합전기","tel":"031-451-5334","addr":"경기도 군포시 당동 744-26번지 1층","indutype":"전기제품 - 기타전기제품","category":"other"}]},{"lat":"37.344254871","long":"126.93948057","imageIndex":17,"items":[{"name":"신창시스템창호","tel":"031-395-0415","addr":"경기도 군포시 당동 973-9번지","indutype":"건축자재 - 기타건축자재","category":"other"}]},{"lat":"37.353446993","long":"126.94284758","imageIndex":17,"items":[{"name":"신화O.A","tel":"031-452-2179","addr":"경기도 군포시 당동 755-7번지 104호","indutype":"사무통신 - 사무용 OA기기","category":"other"},{"name":"우리씨앤씨","tel":"031-456-9949","addr":"경기도 군포시 당동 755-7번지 104호","indutype":"사무통신 - 사무용 OA기기","category":"other"}]},{"lat":"37.356530307","long":"126.94659249","imageIndex":17,"items":[{"name":"썬가드 공식총판 코코필름","tel":"070-4207-3389","addr":"경기도 군포시 당동 732-14번지 2층","indutype":"건축자재 - 기타건축자재","category":"other"}]},{"lat":"37.352724751","long":"126.94009421","imageIndex":17,"items":[{"name":"씨유군포금당점","tel":"02-1577-8007","addr":"경기도 군포시 당동 759번지 1층","indutype":"유통업 영리 - 편 의 점","category":"other"}]},{"lat":"37.348889023","long":"126.94519872","imageIndex":17,"items":[{"name":"씨유군포덕산점","tel":"031-399-3949","addr":"경기도 군포시 당동 902번지 먹산상가 1층","indutype":"유통업 영리 - 편 의 점","category":"other"},{"name":"연희민정보통신","tel":"031-455-2630","addr":"경기도 군포시 당동 902번지 덕산빌딩 4층","indutype":"사무통신 - 통신기기","category":"other"}]},{"lat":"37.347339598","long":"126.94586577","imageIndex":17,"items":[{"name":"씨유군포두산점","tel":"080-080-3663","addr":"경기도 군포시 당동 913번지 이정빌딩 1층","indutype":"유통업 영리 - 편 의 점","category":"other"},{"name":"초크 앤 브러쉬","tel":"031-392-0991","addr":"경기도 군포시 당동 913번지 이정빌딩 1층 4호","indutype":"건축자재 - 인테리어전문","category":"other"},{"name":"핸디앤닥터","tel":"031-397-0025","addr":"경기도 군포시 당동 913번지 이정빌딩 102호","indutype":"건축자재 - 인테리어전문","category":"other"}]},{"lat":"37.353061884","long":"126.94762217","imageIndex":17,"items":[{"name":"씨유군포역전점","tel":"031-429-4943","addr":"경기도 군포시 당동 778-3번지 1층","indutype":"유통업 영리 - 편 의 점","category":"other"}]},{"lat":"37.358611982","long":"126.94729077","imageIndex":17,"items":[{"name":"씨유군포지샘병원점","tel":"031-451-4277","addr":"경기도 군포시 당동 730번지 지샘병원 1층","indutype":"유통업 영리 - 편 의 점","category":"other"}]},{"lat":"37.356062105","long":"126.94728136","imageIndex":17,"items":[{"name":"씨유군포팰리스점","tel":"02-1577-8007","addr":"경기도 군포시 당동 747-22번지 상훈휴팰리스 1층 103호","indutype":"유통업 영리 - 편 의 점","category":"other"}]},{"lat":"37.341090292","long":"126.9358382","imageIndex":17,"items":[{"name":"씨유당동삼성마을점","tel":"031-393-9845","addr":"경기도 군포시 당동 1029-2번지 1층","indutype":"유통업 영리 - 편 의 점","category":"other"}]},{"lat":"37.348625523","long":"126.94084251","imageIndex":17,"items":[{"name":"아넥도트 (ANECDOTE)","tel":"","addr":"경기도 군포시 당동 796번지 무지개마을케이씨씨아파트","indutype":"신변잡화 - 액세서리","category":"other"}]},{"lat":"37.344239341","long":"126.94431073","imageIndex":17,"items":[{"name":"아르 디자인","tel":"032-461-4599","addr":"경기도 군포시 당동 885번지 주공4단지아파트","indutype":"용역 서비스 - 기타용역서비스","category":"other"}]},{"lat":"37.354448801","long":"126.94625544","imageIndex":17,"items":[{"name":"아르페지오","tel":"031-427-8944","addr":"경기도 군포시 당동 745-6번지 1층","indutype":"직물 - 침구·수예점","category":"other"}]},{"lat":"37.346592116","long":"126.94662248","imageIndex":17,"items":[{"name":"아산종합설비","tel":"031-397-4313","addr":"경기도 군포시 당동 914-5번지 102호","indutype":"건축자재 - 인테리어전문","category":"other"}]},{"lat":"37.356673812","long":"126.94522663","imageIndex":17,"items":[{"name":"아이니학생복","tel":"031-454-9389","addr":"경기도 군포시 당동 733-18번지","indutype":"의류 - 정장","category":"other"},{"name":"아이지에이군포중학교점","tel":"02-3453-0708","addr":"경기도 군포시 당동 733-18번지 1층","indutype":"유통업 영리 - 편 의 점","category":"other"}]},{"lat":"37.346923748","long":"126.94306721","imageIndex":17,"items":[{"name":"아이존스튜디오","tel":"031-393-0151","addr":"경기도 군포시 당동 920-7번지 동협빌딩 401호","indutype":"광학제품 - 사진관","category":"other"}]},{"lat":"37.350475415","long":"126.94645029","imageIndex":17,"items":[{"name":"아이테크","tel":"031-427-8225","addr":"경기도 군포시 당동 899-1번지 1층","indutype":"사무통신 - 컴퓨터","category":"other"}]},{"lat":"37.357114233","long":"126.94305912","imageIndex":17,"items":[{"name":"알찬기획","tel":"031-391-4927","addr":"경기도 군포시 당동 851-4 하나빌라 202 25/9","indutype":"용역 서비스 - 종합용역","category":"other"}]},{"lat":"37.359143212","long":"126.94651153","imageIndex":17,"items":[{"name":"알파산업/원격지","tel":"031-451-4913","addr":"경기도 군포시 당동 835-86번지 103호","indutype":"기타 - 기타 전문점","category":"other"},{"name":"여성시대","tel":"031-56-3950","addr":"경기도 군포시 당동 835-86번지","indutype":"의류 - 정장","category":"other"}]},{"lat":"37.35100636","long":"126.94509552","imageIndex":17,"items":[{"name":"야와라스포츠","tel":"031-455-0808","addr":"경기도 군포시 당동 784-5번지 외1필지","indutype":"레져용품 - 스포츠·레져용품","category":"other"}]},{"lat":"37.350951872","long":"126.94422651","imageIndex":17,"items":[{"name":"양지공인중개사 사무소","tel":"031-458-0606","addr":"경기도 군포시 당동 771-8번지 104호","indutype":"용역 서비스 - 부동산 중개·임대","category":"other"}]},{"lat":"37.357034993","long":"126.94684044","imageIndex":17,"items":[{"name":"어린왕자교육사","tel":"070-8600-9777","addr":"경기도 군포시 당동 732-3번지 럭키베스티빌 1402호","indutype":"회원제형태 - 기타4","category":"other"}]},{"lat":"37.345200457","long":"126.93858822","imageIndex":17,"items":[{"name":"어썸제이","tel":"070-3217-6037","addr":"경기도 군포시 당동 969-2번지 102호","indutype":"의류 - 정장","category":"other"},{"name":"파티랑뷰티랑","tel":"070-4763-5091","addr":"경기도 군포시 당동 969-2번지 102호","indutype":"용역 서비스 - 종합용역","category":"other"}]},{"lat":"37.346833732","long":"126.94323657","imageIndex":17,"items":[{"name":"얼짱몸짱군포당동점","tel":"031-394-1991","addr":"경기도 군포시 당동 920-6번지 2층","indutype":"회원제형태 - 기타4","category":"other"}]},{"lat":"37.348552815","long":"126.93965753","imageIndex":17,"items":[{"name":"에덴바이오","tel":"070-3415-8755","addr":"경기도 군포시 당동 954번지 무지개마을대림아파트","indutype":"회원제형태 - 기타4","category":"other"}]},{"lat":"37.355141497","long":"126.94403137","imageIndex":17,"items":[{"name":"에덴창호건축","tel":"031-749-0605","addr":"경기도 군포시 당동 738-9번지 부성빌라 102호","indutype":"건축자재 - 인테리어전문","category":"other"}]},{"lat":"37.352688794","long":"126.94025226","imageIndex":17,"items":[{"name":"에스.에이치테크(SH테크)","tel":"031-1544-7924","addr":"경기도 군포시 당동 759-3번지 대림주택 바동 202호","indutype":"용역 서비스 - 기타용역서비스","category":"other"}]},{"lat":"37.355500648","long":"126.94155922","imageIndex":17,"items":[{"name":"에스케미칼","tel":"031-392-9251","addr":"경기도 군포시 당동 862-1번지","indutype":"건축자재 - 페인트","category":"other"}]},{"lat":"37.348421018","long":"126.94628254","imageIndex":17,"items":[{"name":"에어컨밸리","tel":"031-458-9110","addr":"경기도 군포시 당동 906-12,27,28다오상가A-101","indutype":"전기제품 - 냉열기기","category":"other"}]},{"lat":"37.356862119","long":"126.94339794","imageIndex":17,"items":[{"name":"에어테크시스템","tel":"031-398-7133","addr":"경기도 군포시 당동 852-4번지 102호","indutype":"전기제품 - 냉열기기","category":"other"}]},{"lat":"37.341615975","long":"126.94153666","imageIndex":17,"items":[{"name":"에코미스트","tel":"070-4210-6074","addr":"경기도 군포시 당동 878-5번지 301호","indutype":"신변잡화 - 기타잡화","category":"other"}]},{"lat":"37.357276683","long":"126.9435895","imageIndex":17,"items":[{"name":"엔에스코리아(NS KOREA)","tel":"0000-1661-7360","addr":"경기도 군포시 당동 852번지 1층 103호","indutype":"직물 - 카페트,커튼,천막,지물","category":"other"}]},{"lat":"37.348698681","long":"126.94293037","imageIndex":17,"items":[{"name":"엘림문구","tel":"031-469-5717","addr":"경기도 군포시 당동 794-18번지 102호","indutype":"서적문구 - 문구용품","category":"other"}]},{"lat":"37.351980665","long":"126.94762297","imageIndex":17,"items":[{"name":"여자의방","tel":"031-429-8419","addr":"경기도 군포시 당동 778-13번지 점포1호","indutype":"의류 - 정장","category":"other"}]},{"lat":"37.340835744","long":"126.93195642","imageIndex":17,"items":[{"name":"연(  ) 사진방","tel":"","addr":"경기도 군포시 당동 1020번지 삼성마을3단지","indutype":"광학제품 - 사진관","category":"other"},{"name":"제이박스","tel":"031-343-8967","addr":"경기도 군포시 당동 1020번지 삼성마을3단지","indutype":"직물 - 침구·수예점","category":"other"}]},{"lat":"37.347590807","long":"126.94367612","imageIndex":17,"items":[{"name":"열린문고","tel":"031-397-7963","addr":"경기도 군포시 당동 920번지 광진빌딩 지하층","indutype":"서적문구 - 일반서적","category":"other"}]},{"lat":"37.354033975","long":"126.94551082","imageIndex":17,"items":[{"name":"영숙녀복","tel":"031-456-5177","addr":"경기도 군포시 당동 751번지","indutype":"의류 - 정장","category":"other"}]},{"lat":"37.355422257","long":"126.94701094","imageIndex":17,"items":[{"name":"예술표구화랑","tel":"031-453-6687","addr":"경기도 군포시 당동 748-20번지","indutype":"문화.취미 - 화방·표구점","category":"other"},{"name":"우리씽크공장","tel":"031-455-5008","addr":"경기도 군포시 당동 748-20번지","indutype":"주방용구 - 주방용구","category":"other"}]},{"lat":"37.351340233","long":"126.94612234","imageIndex":17,"items":[{"name":"예진엔지니어링","tel":"031-455-0592","addr":"경기도 군포시 당동 781-9번지","indutype":"기타 - 기계공구","category":"other"}]},{"lat":"37.350003685","long":"126.94009648","imageIndex":17,"items":[{"name":"오케이(OK) 냉동시스템","tel":"","addr":"경기도 군포시 당동 951-6번지 남광팰리스 502호","indutype":"수리서비스 - 가정용품수리","category":"other"}]},{"lat":"37.355170951","long":"126.9491218","imageIndex":17,"items":[{"name":"오케이DPF 재생크리닝센타","tel":"031-451-7585","addr":"경기도 군포시 당동 134-23번지","indutype":"용역 서비스 - 종합용역","category":"other"}]},{"lat":"37.346924879","long":"126.94534694","imageIndex":17,"items":[{"name":"오토메(otome)","tel":"","addr":"경기도 군포시 당동 916-9번지 뷰티하우스 402호","indutype":"의류 - 정장","category":"other"}]},{"lat":"37.35283581","long":"126.94589548","imageIndex":17,"items":[{"name":"올리비아하슬러 군포점","tel":"031-452-8800","addr":"경기도 군포시 당동 776번지 1층","indutype":"레져용품 - 스포츠·레져용품","category":"other"}]},{"lat":"37.356675169","long":"126.9480823","imageIndex":17,"items":[{"name":"올유시스템","tel":"031-292-9455","addr":"경기도 군포시 당동 67-7번지 은성빌라 나동 102호","indutype":"사무통신 - 통신기기","category":"other"}]},{"lat":"37.352619485","long":"126.94572634","imageIndex":17,"items":[{"name":"올포유군포점","tel":"031-453-4057","addr":"경기도 군포시 당동 776-21번지","indutype":"레져용품 - 스포츠·레져용품","category":"other"}]},{"lat":"37.348274521","long":"126.94159896","imageIndex":17,"items":[{"name":"요리꿈터","tel":"031-456-2103","addr":"경기도 군포시 당동 795번지 무지개마을마빌르스위트아파트","indutype":"문화.취미 - 문화취미기타","category":"other"},{"name":"플라워송","tel":"","addr":"경기도 군포시 당동 795번지 무지개마을마빌르스위트아파트","indutype":"가구 - 기타가구","category":"other"}]},{"lat":"37.3568377","long":"126.94883843","imageIndex":17,"items":[{"name":"용기닷컴","tel":"031-477-1002","addr":"경기도 군포시 당동 48-12번지 2층","indutype":"용역 서비스 - 종합용역","category":"other"}]},{"lat":"37.346700034","long":"126.94619354","imageIndex":17,"items":[{"name":"용선라이프","tel":"031-395-2448","addr":"경기도 군포시 당동 915-11번지 금호맘모스타운 3동 B02호","indutype":"용역 서비스 - 가례서비스업","category":"other"}]},{"lat":"37.350917619","long":"126.94795105","imageIndex":17,"items":[{"name":"우리디자인","tel":"031-456-0491","addr":"경기도 군포시 당동 262-1번지","indutype":"용역 서비스 - 종합용역","category":"other"}]},{"lat":"37.356493614","long":"126.94523805","imageIndex":17,"items":[{"name":"우유(Ooh! U!)","tel":"070-8289-3469","addr":"경기도 군포시 당동 742번지 금광아트빌 A동 1층 102호","indutype":"신변잡화 - 액세서리","category":"other"}]},{"lat":"37.354141578","long":"126.94444977","imageIndex":17,"items":[{"name":"우일설비","tel":"031-455-3597","addr":"경기도 군포시 당동 754-4번지","indutype":"용역 서비스 - 기타용역서비스","category":"other"}]},{"lat":"37.356257774","long":"126.9420891","imageIndex":17,"items":[{"name":"우진컴","tel":"070-4110-4319","addr":"경기도 군포시 당동 856-5번지 지층 103호","indutype":"수리서비스 - 사무·통신기기수리","category":"other"}]},{"lat":"37.353393679","long":"126.94433748","imageIndex":17,"items":[{"name":"원목종합인테리어","tel":"031-442-5571","addr":"경기도 군포시 당동 753-6번지 1층","indutype":"건축자재 - 인테리어전문","category":"other"}]},{"lat":"37.358034721","long":"126.94600442","imageIndex":17,"items":[{"name":"위드미군포당동점","tel":"02-6916-1500","addr":"경기도 군포시 당동 729-15번지","indutype":"유통업 영리 - 편 의 점","category":"other"}]},{"lat":"37.343785971","long":"126.93879256","imageIndex":17,"items":[{"name":"유엠씨인터네셔널","tel":"031-469-1544","addr":"경기도 군포시 당동 973-6번지 201호","indutype":"서적문구 - 완구점","category":"other"}]},{"lat":"37.345923983","long":"126.94379028","imageIndex":17,"items":[{"name":"유오(YU5)","tel":"","addr":"경기도 군포시 당동 871-3번지 금당빌딩 101호","indutype":"의류 - 정장","category":"other"}]},{"lat":"37.350113871","long":"126.9441143","imageIndex":17,"items":[{"name":"이(e)플러스","tel":"031-454-6600","addr":"경기도 군포시 당동 785-8번지 1층","indutype":"수리서비스 - 사무·통신기기수리","category":"other"}]},{"lat":"37.351861343","long":"126.94311972","imageIndex":17,"items":[{"name":"이마트24 군포뉴당동점","tel":"","addr":"경기도 군포시 당동 769-6번지 1층","indutype":"유통업 영리 - 편 의 점","category":"other"}]},{"lat":"37.356304962","long":"126.94640078","imageIndex":17,"items":[{"name":"이플","tel":"031-477-2882","addr":"경기도 군포시 당동 746-1번지 1층 102호","indutype":"의류 - 정장","category":"other"}]},{"lat":"37.359836912","long":"126.94634169","imageIndex":17,"items":[{"name":"이화종합설비","tel":"031-454-7200","addr":"경기도 군포시 당동 835-30번지 1층","indutype":"용역 서비스 - 종합용역","category":"other"}]},{"lat":"37.351700531","long":"126.94589634","imageIndex":17,"items":[{"name":"인광기획사","tel":"031-397-9632","addr":"경기도 군포시 당동 781번지 당동종합상가아파트 1층 116호","indutype":"직물 - 카페트,커튼,천막,지물","category":"other"}]},{"lat":"37.353103677","long":"126.94104198","imageIndex":17,"items":[{"name":"인스클린","tel":"031-427-8066","addr":"경기도 군포시 당동 758-4번지 화전빌라 A동 101호","indutype":"용역 서비스 - 종합용역","category":"other"}]},{"lat":"37.350645183","long":"126.94353828","imageIndex":17,"items":[{"name":"일신마트당동점","tel":"031-395-7935","addr":"경기도 군포시 당동 785-40번지 1층","indutype":"의류 - 내의판매","category":"other"},{"name":"창성당","tel":"031-396-4501","addr":"경기도 군포시 당동 785-40번지","indutype":"신변잡화 - 시계","category":"other"}]},{"lat":"37.352809115","long":"126.94659527","imageIndex":17,"items":[{"name":"잉글랜드양화점","tel":"031-341-5526","addr":"경기도 군포시 당동 777-13번지 2층","indutype":"신변잡화 - 제화","category":"other"}]},{"lat":"37.348725597","long":"126.94270463","imageIndex":17,"items":[{"name":"자매공방","tel":"","addr":"경기도 군포시 당동 794-21번지 1층","indutype":"신변잡화 - 기타잡화","category":"other"}]},{"lat":"37.353835383","long":"126.94475475","imageIndex":17,"items":[{"name":"자연주방가구","tel":"031-454-6111","addr":"경기도 군포시 당동 752-24지하1층","indutype":"주방용구 - 기타주방용구","category":"other"}]},{"lat":"37.353555851","long":"126.94431478","imageIndex":17,"items":[{"name":"재봉틀 놀이터","tel":"","addr":"경기도 군포시 당동 753-4번지 지층 101호","indutype":"문화.취미 - 문화취미기타","category":"other"}]},{"lat":"37.347005767","long":"126.9449293","imageIndex":17,"items":[{"name":"재활용씨티/중고삽니다","tel":"031-391-7990","addr":"경기도 군포시 당동 917-4번지","indutype":"신변잡화 - 기타잡화","category":"other"},{"name":"태영의료기","tel":"031-394-4242","addr":"경기도 군포시 당동 917-4 중앙프라자 207","indutype":"기타의료기관 - 기타의료기관 및 기타","category":"other"}]},{"lat":"37.355836777","long":"126.94712351","imageIndex":17,"items":[{"name":"제니패션","tel":"070-5031-0327","addr":"경기도 군포시 당동 748번지 1층 104호","indutype":"의류 - 내의판매","category":"other"},{"name":"한일상사","tel":"031-453-9633","addr":"경기도 군포시 당동 748번지","indutype":"수리서비스 - 기타수리서비스","category":"other"}]},{"lat":"37.359423127","long":"126.94778683","imageIndex":17,"items":[{"name":"제비표페인트건영상사","tel":"031-427-7233","addr":"경기도 군포시 당동 835-60번지","indutype":"건축자재 - 페인트","category":"other"}]},{"lat":"37.346725955","long":"126.94392509","imageIndex":17,"items":[{"name":"제이앤에스댄스로빅(J&S댄스로빅)","tel":"031-411-0307","addr":"경기도 군포시 당동 921-1번지 2층","indutype":"회원제형태 - 레져업소","category":"other"}]},{"lat":"37.345779526","long":"126.94320354","imageIndex":17,"items":[{"name":"제이원텍/원격지","tel":"070-7566-0860","addr":"경기도 군포시 당동 872-2번지 신산본리빙스텔 7층 706호","indutype":"기타 - 기타 전문점","category":"other"},{"name":"중앙페이퍼","tel":"031-317-3215","addr":"경기도 군포시 당동 872-2번지 신산본리빙스텔 310호","indutype":"신변잡화 - 기타잡화","category":"other"},{"name":"티이엠","tel":"043-733-8006","addr":"경기도 군포시 당동 872-2번지 신산본리빙스텔 609호","indutype":"전기제품 - 가전제품","category":"other"}]},{"lat":"37.351500426","long":"126.94211551","imageIndex":17,"items":[{"name":"제일에스피","tel":"031-393-1711","addr":"경기도 군포시 당동 769-32번지 다온캐슬 1층 101호","indutype":"수리서비스 - 기타수리서비스","category":"other"}]},{"lat":"37.354583297","long":"126.9449009","imageIndex":17,"items":[{"name":"제일종합건설","tel":"031-454-0472","addr":"경기도 군포시 당동 744-22번지","indutype":"건축자재 - 인테리어전문","category":"other"}]},{"lat":"37.343193909","long":"126.94380371","imageIndex":17,"items":[{"name":"조은컴퓨터","tel":"031-314-2144","addr":"경기도 군포시 당동 885번지 주공4단지아파트","indutype":"회원제형태 - 기타4","category":"other"}]},{"lat":"37.356033327","long":"126.94368078","imageIndex":17,"items":[{"name":"주식회사 보광조경개발","tel":"031-399-9936","addr":"경기도 군포시 당동 736-11번지 201호","indutype":"건축자재 - 인테리어전문","category":"other"}]},{"lat":"37.355285553","long":"126.94381681","imageIndex":17,"items":[{"name":"주식회사 인터기술","tel":"031-427-5264","addr":"경기도 군포시 당동 738-44번지 1층 101호","indutype":"사무통신 - 통신기기","category":"other"},{"name":"크린화이트","tel":"031-454-8982","addr":"경기도 군포시 당동 738-44번지 1층 103호","indutype":"수리서비스 - 세탁소","category":"other"},{"name":"희망찬교회","tel":"031-386-1109","addr":"경기도 군포시 당동 738-44","indutype":"기타 - 비영리/대상","category":"other"}]},{"lat":"37.355222868","long":"126.94459566","imageIndex":17,"items":[{"name":"주식회사 인트아이","tel":"031-456-8758","addr":"경기도 군포시 당동 738-36번지 3층","indutype":"서적문구 - 기타서적문구","category":"other"}]},{"lat":"37.35994552","long":"126.9473688","imageIndex":17,"items":[{"name":"주식회사 종이사랑","tel":"031-457-6600","addr":"경기도 군포시 당동 835-5번지 영진빌라","indutype":"유통업 영리 - 기타유통업","category":"other"}]},{"lat":"37.344696083","long":"126.93894978","imageIndex":17,"items":[{"name":"주식회사두런두런","tel":"031-395-6603","addr":"경기도 군포시 당동 972-1번지 3층 선한목자교회","indutype":"문화.취미 - 티켓","category":"other"}]},{"lat":"37.35211279","long":"126.94148297","imageIndex":17,"items":[{"name":"중앙설비","tel":"031-452-6653","addr":"경기도 군포시 당동 762-4번지 104호","indutype":"용역 서비스 - 기타용역서비스","category":"other"}]},{"lat":"37.3491947","long":"126.94384415","imageIndex":17,"items":[{"name":"중앙주방가구","tel":"031-396-1291","addr":"경기도 군포시 당동 794-4번지","indutype":"주방용구 - 주방용구","category":"other"}]},{"lat":"37.350203894","long":"126.94395622","imageIndex":17,"items":[{"name":"지아트코리아","tel":"","addr":"경기도 군포시 당동 785-9번지 청송빌라 가동 지하 102호","indutype":"문화.취미 - 민예·공예품","category":"other"}]},{"lat":"37.350869674","long":"126.94203702","imageIndex":17,"items":[{"name":"진성철물","tel":"031-398-1789","addr":"경기도 군포시 당동 787번지","indutype":"용역 서비스 - 기타용역서비스","category":"other"}]},{"lat":"37.34333726","long":"126.94220109","imageIndex":17,"items":[{"name":"집을고치는사람들","tel":"031-397-1822","addr":"경기도 군포시 당동 874-2번지 한우리교육문화센터 1층","indutype":"수리서비스 - 기타수리서비스","category":"other"}]},{"lat":"37.344093418","long":"126.94085752","imageIndex":17,"items":[{"name":"쭈니네","tel":"031-394-1937","addr":"경기도 군포시 당동 874번지 주공2단지아파트","indutype":"신변잡화 - 가방","category":"other"}]},{"lat":"37.358060384","long":"126.94322768","imageIndex":17,"items":[{"name":"창수","tel":"070-8115-4002","addr":"경기도 군포시 당동 846번지 중앙하이츠빌라 B02호","indutype":"회원제형태 - 기타1","category":"other"}]},{"lat":"37.354729402","long":"126.94900925","imageIndex":17,"items":[{"name":"청풍엔지니어링","tel":"031-451-1756","addr":"경기도 군포시 당동 134-38","indutype":"기타 - 기타 전문점","category":"other"}]},{"lat":"37.355195782","long":"126.94448281","imageIndex":17,"items":[{"name":"카리스","tel":"","addr":"경기도 군포시 당동 738-4번지 204동 305호","indutype":"유통업 영리 - 기타유통업","category":"other"},{"name":"화장품","tel":"031-456-7762","addr":"경기도 군포시 당동 738-4번지 1층","indutype":"신변잡화 - 기타잡화","category":"other"}]},{"lat":"37.352806636","long":"126.94160656","imageIndex":17,"items":[{"name":"칼의부활(안양)","tel":"031-425-2062","addr":"경기도 군포시 당동 765-8번지 화성파크타운 A동 B01호","indutype":"용역 서비스 - 기타용역서비스","category":"other"}]},{"lat":"37.353916313","long":"126.94442737","imageIndex":17,"items":[{"name":"캠브리지크린","tel":"031-455-4274","addr":"경기도 군포시 당동 754-7번지 1층 4호","indutype":"수리서비스 - 세탁소","category":"other"}]},{"lat":"37.348977326","long":"126.94162096","imageIndex":17,"items":[{"name":"컴서비스","tel":"031-399-3990","addr":"경기도 군포시 당동 792-24번지 1층","indutype":"사무통신 - 컴퓨터","category":"other"}]},{"lat":"37.355392066","long":"126.94067892","imageIndex":17,"items":[{"name":"케이스야","tel":"031-393-0045","addr":"경기도 군포시 당동 863-6번지 102호","indutype":"신변잡화 - 기타잡화","category":"other"}]},{"lat":"37.356637881","long":"126.9454524","imageIndex":17,"items":[{"name":"케이씨테크","tel":"070-4076-5358","addr":"경기도 군포시 당동 733-16번지 101호","indutype":"사무통신 - 컴퓨터","category":"other"}]},{"lat":"37.352312899","long":"126.94522996","imageIndex":17,"items":[{"name":"코렉스자전거","tel":"031-457-9095","addr":"경기도 군포시 당동 776-16번지 1층","indutype":"레져용품 - 스포츠·레져용품","category":"other"}]},{"lat":"37.353530099","long":"126.94695591","imageIndex":17,"items":[{"name":"코리아 텔레콤","tel":"070-4254-0160","addr":"경기도 군포시 당동 750-28번지 1호","indutype":"사무통신 - 통신기기","category":"other"}]},{"lat":"37.355780845","long":"126.94328592","imageIndex":17,"items":[{"name":"코리아세탁소","tel":"031-477-4727","addr":"경기도 군포시 당동 736-6번지","indutype":"수리서비스 - 세탁소","category":"other"}]},{"lat":"37.352285503","long":"126.94448507","imageIndex":17,"items":[{"name":"크로바사무용가구","tel":"031-452-7011","addr":"경기도 군포시 당동 775-20번지 1층","indutype":"가구 - 기타가구","category":"other"}]},{"lat":"37.347003925","long":"126.94128399","imageIndex":17,"items":[{"name":"크린토피아","tel":"031-395-3777","addr":"경기도 군포시 당동 961-2번지 호영빌딩 104호","indutype":"수리서비스 - 세탁소","category":"other"}]},{"lat":"37.356232138","long":"126.94486577","imageIndex":17,"items":[{"name":"클린메니저","tel":"031-447-6971","addr":"경기도 군포시 당동 741-4번지 교보타운 2동 102호","indutype":"용역 서비스 - 종합용역","category":"other"}]},{"lat":"37.348366124","long":"126.94456711","imageIndex":17,"items":[{"name":"킹콩휘트니스","tel":"031-399-6123","addr":"경기도 군포시 당동 904-2번지 3층","indutype":"회원제형태 - 레져업소","category":"other"}]},{"lat":"37.347311834","long":"126.94436478","imageIndex":17,"items":[{"name":"태미물산","tel":"031-392-7363","addr":"경기도 군포시 당동 919번지 한국유통내","indutype":"의류 - 정장","category":"other"}]},{"lat":"37.351250407","long":"126.94669801","imageIndex":17,"items":[{"name":"태풍공조","tel":"031-405-4404","addr":"경기도 군포시 당동 782-4번지 1층 103호","indutype":"전기제품 - 냉열기기","category":"other"}]},{"lat":"37.349807011","long":"126.94308749","imageIndex":17,"items":[{"name":"털보설비","tel":"","addr":"경기도 군포시 당동 786-16번지 B02호","indutype":"용역 서비스 - 기타용역서비스","category":"other"}]},{"lat":"37.346698744","long":"126.94356396","imageIndex":17,"items":[{"name":"토즈멤버십라운지 당동센터","tel":"031-391-1114","addr":"경기도 군포시 당동 921-2번지 3층","indutype":"용역 서비스 - 사무서비스","category":"other"}]},{"lat":"37.358782725","long":"126.94634248","imageIndex":17,"items":[{"name":"토탈신라인테리어","tel":"031-452-2705","addr":"경기도 군포시 당동 729-21번지","indutype":"건축자재 - 인테리어전문","category":"other"}]},{"lat":"37.349088942","long":"126.94878756","imageIndex":17,"items":[{"name":"토탈싸인","tel":"031-452-9410","addr":"경기도 군포시 당동 168-3번지 제에이동호","indutype":"기타 - 기타 전문점","category":"other"}]},{"lat":"37.359386443","long":"126.94642104","imageIndex":17,"items":[{"name":"파이팅필름","tel":"031-455-5888","addr":"경기도 군포시 당동 835-76번지 두아골드빌 B동 2층 201호","indutype":"레져용품 - 스포츠·레져용품","category":"other"}]},{"lat":"37.350141258","long":"126.9448366","imageIndex":17,"items":[{"name":"패션초이스","tel":"031-456-8488","addr":"경기도 군포시 당동 898-27번지 101호","indutype":"의류 - 정장","category":"other"}]},{"lat":"37.358945042","long":"126.94662455","imageIndex":17,"items":[{"name":"평화공인중개사사무소","tel":"031-459-3200","addr":"경기도 군포시 당동 729-2번지","indutype":"용역 서비스 - 부동산 중개·임대","category":"other"}]},{"lat":"37.34327155","long":"126.9372582","imageIndex":17,"items":[{"name":"포옌서","tel":"031-396-8208","addr":"경기도 군포시 당동 979-1번지 용호마을e-편한세상","indutype":"회원제형태 - 기타4","category":"other"},{"name":"포옌서/원격지","tel":"031-396-8208","addr":"경기도 군포시 당동 979-1번지 용호마을e-편한세상","indutype":"기타 - 기타 전문점","category":"other"}]},{"lat":"37.359476533","long":"126.9463984","imageIndex":17,"items":[{"name":"플라워 BoongBoong","tel":"031-477-5857","addr":"경기도 군포시 당동 835-77번지 1층","indutype":"문화.취미 - 화원","category":"other"}]},{"lat":"37.348869174","long":"126.94156462","imageIndex":17,"items":[{"name":"피알아이코리아","tel":"031-349-2662","addr":"경기도 군포시 당동 792-23번지 지층","indutype":"기타의료기관 - 기타의료기관 및 기타","category":"other"},{"name":"행운종합장식","tel":"031-397-9322","addr":"경기도 군포시 당동 792-23번지 1층","indutype":"직물 - 카페트,커튼,천막,지물","category":"other"}]},{"lat":"37.352978853","long":"126.94361545","imageIndex":17,"items":[{"name":"피에스공조시스템","tel":"070-7530-9734","addr":"경기도 군포시 당동 766-24 2층","indutype":"용역 서비스 - 기타용역서비스","category":"other"}]},{"lat":"37.352230588","long":"126.94278083","imageIndex":17,"items":[{"name":"핑크여우","tel":"02-6008-2918","addr":"경기도 군포시 당동 768-13번지 1층","indutype":"의류 - 기타의류","category":"other"}]},{"lat":"37.350779856","long":"126.94259012","imageIndex":17,"items":[{"name":"핑크콩","tel":"031-271-4119","addr":"경기도 군포시 당동 786번지 1층","indutype":"의류 - 정장","category":"other"}]},{"lat":"37.354313394","long":"126.94572506","imageIndex":17,"items":[{"name":"하늘방역","tel":"031-388-4802","addr":"경기도 군포시 당동 745-15번지 1층","indutype":"용역 서비스 - 종합용역","category":"other"}]},{"lat":"37.343563275","long":"126.94370185","imageIndex":17,"items":[{"name":"한마음문구","tel":"031-398-6968","addr":"경기도 군포시 당동 885번지 주공4단지아파트","indutype":"서적문구 - 문구용품","category":"other"}]},{"lat":"37.35661901","long":"126.94372546","imageIndex":17,"items":[{"name":"한빛상사","tel":"031-397-2282","addr":"경기도 군포시 당동 736번지 썬팰리스 1층","indutype":"건축자재 - 건축용 요업제품","category":"other"}]},{"lat":"37.350598241","long":"126.93988154","imageIndex":17,"items":[{"name":"한솔유니폼","tel":"","addr":"경기도 군포시 당동 950-5번지 숲예찬 2동 502호","indutype":"의류 - 정장","category":"other"}]},{"lat":"37.350114635","long":"126.94567181","imageIndex":17,"items":[{"name":"한송인테리어","tel":"031-391-0906","addr":"경기도 군포시 당동 898-17번지 1층","indutype":"건축자재 - 인테리어전문","category":"other"}]},{"lat":"37.357979406","long":"126.9434535","imageIndex":17,"items":[{"name":"한스기프트","tel":"031-398-7892","addr":"경기도 군포시 당동 846-2번지 302호","indutype":"유통업 영리 - 기타유통업","category":"other"}]},{"lat":"37.353473892","long":"126.94258797","imageIndex":17,"items":[{"name":"한신난방공사","tel":"031-472-9972","addr":"경기도 군포시 당동 755-2번지 101호","indutype":"수리서비스 - 기타수리서비스","category":"other"}]},{"lat":"37.350591274","long":"126.94384306","imageIndex":17,"items":[{"name":"할인매장","tel":"031-394-3025","addr":"경기도 군포시 당동 785-2번지","indutype":"의류 - 정장","category":"other"}]},{"lat":"37.347500637","long":"126.94354076","imageIndex":17,"items":[{"name":"핫앤스코리아","tel":"031-391-9970","addr":"경기도 군포시 당동 920-1번지 4층","indutype":"회원제형태 - 레져업소","category":"other"}]},{"lat":"37.346005936","long":"126.9455395","imageIndex":17,"items":[{"name":"해피독애견미용실","tel":"031-391-7533","addr":"경기도 군포시 당동 922-25번지 1층","indutype":"문화.취미 - 애완동물","category":"other"}]},{"lat":"37.34442554","long":"126.93850988","imageIndex":17,"items":[{"name":"행복한날","tel":"031-394-7888","addr":"경기도 군포시 당동 971-3번지 동영프라자 103호","indutype":"의류 - 정장","category":"other"}]},{"lat":"37.350341318","long":"126.94870765","imageIndex":17,"items":[{"name":"현대복층유리","tel":"031-452-1860","addr":"경기도 군포시 당동 151-5번지","indutype":"건축자재 - 유리","category":"other"}]},{"lat":"37.351755332","long":"126.94745383","imageIndex":17,"items":[{"name":"화인크린세탁전문점","tel":"031-458-0580","addr":"경기도 군포시 당동 783-8번지","indutype":"수리서비스 - 세탁소","category":"other"}]},{"lat":"37.343362444","long":"126.93870264","imageIndex":17,"items":[{"name":"희재공예방","tel":"031-398-0580","addr":"경기도 군포시 당동 974-10번지 3층","indutype":"문화.취미 - 문화취미기타","category":"other"}]}]