[{"lat":"37.015713947","long":"127.18907301","imageIndex":7,"items":[{"name":"(주)아람푸드","tel":"031-654-0955","addr":"경기도 안성시 공도읍 마정리 386-2번지","indutype":"음료식품 - 기타음료식품","category":"food"}]},{"lat":"37.014386527","long":"127.20193548","imageIndex":7,"items":[{"name":"(주)전통한방제형연구소","tel":"031-651-7975","addr":"경기도 안성시 공도읍 마정리 112-84번지 3층","indutype":"건강식품 - 기타건강식품","category":"food"}]},{"lat":"37.013520354","long":"127.19160706","imageIndex":7,"items":[{"name":"(주)참맛","tel":"031-463-1138","addr":"경기도 안성시 공도읍 마정리 427-1번지","indutype":"음료식품 - 기타음료식품","category":"food"}]},{"lat":"37.011525033","long":"127.20496174","imageIndex":7,"items":[{"name":"R.P.C포도밭","tel":"031-618-0741","addr":"경기도 안성시 공도읍 마정리 92-2","indutype":"음료식품 - 농·축·수산품","category":"food"}]},{"lat":"37.009719512","long":"127.20163118","imageIndex":7,"items":[{"name":"공도 스시앤마구로","tel":"031-000-0000","addr":"경기도 안성시 공도읍 마정리 147-20번지","indutype":"음료식품 - 농·축·수산품","category":"food"},{"name":"대가축산","tel":"","addr":"경기도 안성시 공도읍 마정리 147-20번지 1층","indutype":"음료식품 - 정육점","category":"food"}]},{"lat":"37.010465243","long":"127.20291401","imageIndex":7,"items":[{"name":"과일나라","tel":"031-1111-1111","addr":"경기도 안성시 공도읍 마정리 131-2번지","indutype":"음료식품 - 농·축·수산품","category":"food"},{"name":"대림수산직판장","tel":"031-658-5416","addr":"경기도 안성시 공도읍 마정리 131-2번지 1층","indutype":"음료식품 - 농·축·수산품","category":"food"}]},{"lat":"37.017523361","long":"127.19579708","imageIndex":7,"items":[{"name":"관연재","tel":"031-000-0000","addr":"경기도 안성시 공도읍 마정리 200-310번지 가동","indutype":"건강식품 - 기타건강식품","category":"food"}]},{"lat":"37.011103783","long":"127.20363478","imageIndex":7,"items":[{"name":"길쉐프베이커리","tel":"031-618-3477","addr":"경기도 안성시 공도읍 마정리 100-55번지 1층 103호","indutype":"음료식품 - 제과점","category":"food"}]},{"lat":"37.008910585","long":"127.18926989","imageIndex":7,"items":[{"name":"농업회사법인주식회사늘좋은푸드","tel":"031-675-1411","addr":"경기도 안성시 공도읍 마정리 570번지 101호","indutype":"음료식품 - 미곡상","category":"food"}]},{"lat":"37.016969077","long":"127.19862736","imageIndex":7,"items":[{"name":"다판다 대림동산점","tel":"031-657-3516","addr":"경기도 안성시 공도읍 마정리 200-516번지 1층","indutype":"건강식품 - 기타건강식품","category":"food"}]},{"lat":"37.011437329","long":"127.20354577","imageIndex":7,"items":[{"name":"동산떡방앗간","tel":"031-658-6685","addr":"경기도 안성시 공도읍 마정리 100-56","indutype":"음료식품 - 제과점","category":"food"},{"name":"파리바게뜨 안성대림동산점","tel":"031-658-8245","addr":"경기도 안성시 공도읍 마정리 100-56번지 용상빌딩 1동 106호","indutype":"음료식품 - 제과점","category":"food"}]},{"lat":"37.01121286","long":"127.20307327","imageIndex":7,"items":[{"name":"반찬천국","tel":"031-658-2366","addr":"경기도 안성시 공도읍 마정리 98-3번지","indutype":"음료식품 - 기타음료식품","category":"food"}]},{"lat":"37.008939143","long":"127.19949438","imageIndex":7,"items":[{"name":"삼목농원","tel":"031-618-5879","addr":"경기도 안성시 공도읍 마정리 149-15번지","indutype":"음료식품 - 농·축·수산품","category":"food"}]},{"lat":"37.012881794","long":"127.19085266","imageIndex":7,"items":[{"name":"싱싱블루베리농원","tel":"031-658-5170","addr":"경기도 안성시 공도읍 마정리 425-3","indutype":"음료식품 - 농·축·수산품","category":"food"}]},{"lat":"37.009603167","long":"127.19568718","imageIndex":7,"items":[{"name":"안성  떡방앗간","tel":"031-691-8885","addr":"경기도 안성시 공도읍 마정리 144-58번지 1층","indutype":"음료식품 - 제과점","category":"food"}]},{"lat":"37.012887009","long":"127.20940364","imageIndex":7,"items":[{"name":"안성맞춤식품","tel":"070-8876-8770","addr":"경기도 안성시 공도읍 마정리 45-58번지","indutype":"음료식품 - 기타음료식품","category":"food"}]},{"lat":"37.014047912","long":"127.2050246","imageIndex":7,"items":[{"name":"윤승재삼시세끼","tel":"031-691-8392","addr":"경기도 안성시 공도읍 마정리 100-73번지","indutype":"음료식품 - 기타음료식품","category":"food"}]},{"lat":"37.019633823","long":"127.2054327","imageIndex":7,"items":[{"name":"진솔이네 포도","tel":"031-658-1913","addr":"경기도 안성시 공도읍 마정리 325번지","indutype":"음료식품 - 농·축·수산품","category":"food"}]},{"lat":"37.006908542","long":"127.19033236","imageIndex":7,"items":[{"name":"청수과수원","tel":"031-618-3496","addr":"경기도 안성시 공도읍 마정리 514-1번지","indutype":"음료식품 - 농·축·수산품","category":"food"}]},{"lat":"37.015188472","long":"127.20193757","imageIndex":7,"items":[{"name":"코로미디저트","tel":"031-674-0789","addr":"경기도 안성시 공도읍 마정리 112-87번지 1층 대림해피빌","indutype":"음료식품 - 제과점","category":"food"}]},{"lat":"37.00854075","long":"127.19516766","imageIndex":7,"items":[{"name":"크리스탈샘물","tel":"031-618-8818","addr":"경기도 안성시 공도읍 마정리 144-15 외2필지","indutype":"음료식품 - 기타음료식품","category":"food"}]},{"lat":"37.012276625","long":"127.20277269","imageIndex":7,"items":[{"name":"홍성정육점","tel":"031-652-3195","addr":"경기도 안성시 공도읍 마정리 100-66번지","indutype":"음료식품 - 정육점","category":"food"}]},{"lat":"37.011129311","long":"127.20452249","imageIndex":7,"items":[{"name":"회화포도농원","tel":"031-653-2947","addr":"경기도 안성시 공도읍 마정리 94-3번지","indutype":"음료식품 - 농·축·수산품","category":"food"}]}]