[{"lat":"37.742182445","long":"127.08434291","imageIndex":7,"items":[{"name":"(주)지티에프엔비","tel":"031-853-3357","addr":"경기도 의정부시 용현동 527-2번지","indutype":"음료식품 - 기타음료식품","category":"food"},{"name":"지티카페(GTcafe)","tel":"031-852-5568","addr":"경기도 의정부시 용현동 527-2번지","indutype":"음료식품 - 기타음료식품","category":"food"}]},{"lat":"37.736621953","long":"127.0866171","imageIndex":7,"items":[{"name":"216홍삼나라","tel":"031-851-2410","addr":"경기도 의정부시 용현동 30-13번지","indutype":"음료식품 - 기타음료식품","category":"food"}]},{"lat":"37.745931273","long":"127.08309895","imageIndex":7,"items":[{"name":"MJ상사","tel":"031-851-0102","addr":"경기도 의정부시 용현동 519-3번지","indutype":"음료식품 - 기타음료식품","category":"food"}]},{"lat":"37.737541281","long":"127.08611896","imageIndex":7,"items":[{"name":"갈비공판장","tel":"02-3666-8100","addr":"경기도 의정부시 용현동 9번지 외 1필지","indutype":"음료식품 - 정육점","category":"food"}]},{"lat":"37.732964536","long":"127.08595502","imageIndex":7,"items":[{"name":"강경젓갈","tel":"031-841-4339","addr":"경기도 의정부시 용현동 40번지 1층","indutype":"음료식품 - 농·축·수산품","category":"food"},{"name":"재현네 과일청과","tel":"070-8551-4584","addr":"경기도 의정부시 용현동 40번지","indutype":"음료식품 - 농·축·수산품","category":"food"}]},{"lat":"37.734844192","long":"127.07748284","imageIndex":7,"items":[{"name":"고기배달닷컴","tel":"031-843-5900","addr":"경기도 의정부시 용현동 405-9번지 1층","indutype":"음료식품 - 정육점","category":"food"}]},{"lat":"37.73982342","long":"127.0821734","imageIndex":7,"items":[{"name":"길유통","tel":"031-852-0903","addr":"경기도 의정부시 용현동 290-1번지 신도10차파크힐타운 106동 1702호","indutype":"음료식품 - 미곡상","category":"food"}]},{"lat":"37.749960218","long":"127.08059567","imageIndex":7,"items":[{"name":"김나연소아과","tel":"031-852-4211","addr":"경기도 의정부시 용현동 545-8번지","indutype":"회원제형태 - 건강식품","category":"food"}]},{"lat":"37.733739319","long":"127.08601261","imageIndex":7,"items":[{"name":"김만길food","tel":"031-852-0202","addr":"경기도 의정부시 용현동 39-8번지 지원파크빌4동AB01호","indutype":"음료식품 - 기타음료식품","category":"food"}]},{"lat":"37.727155996","long":"127.08212586","imageIndex":7,"items":[{"name":"김재규우리떡연구소","tel":"031-842-8008","addr":"경기도 의정부시 용현동 130-1번지","indutype":"음료식품 - 제과점","category":"food"}]},{"lat":"37.75078819","long":"127.08195816","imageIndex":7,"items":[{"name":"깨사랑","tel":"...-1588-8678","addr":"경기도 의정부시 용현동 544-4번지 용현빌딩 107호","indutype":"음료식품 - 기타음료식품","category":"food"}]},{"lat":"37.734874779","long":"127.08565086","imageIndex":7,"items":[{"name":"꿀잼과일","tel":"031-852-5070","addr":"경기도 의정부시 용현동 253-3번지 102호","indutype":"음료식품 - 농·축·수산품","category":"food"}]},{"lat":"37.730902391","long":"127.08445533","imageIndex":7,"items":[{"name":"나르빅코리아","tel":"070-4229-8899","addr":"경기도 의정부시 용현동 189-1번지 3층","indutype":"음료식품 - 기타음료식품","category":"food"}]},{"lat":"37.732460684","long":"127.08497887","imageIndex":7,"items":[{"name":"낙원떡집","tel":"031-848-9510","addr":"경기도 의정부시 용현동 231번지 1층","indutype":"음료식품 - 제과점","category":"food"},{"name":"농가축산물도매센타","tel":"031-847-6987","addr":"경기도 의정부시 용현동 231번지","indutype":"음료식품 - 정육점","category":"food"}]},{"lat":"37.735903199","long":"127.08373477","imageIndex":7,"items":[{"name":"다원건강원","tel":"031-852-2552","addr":"경기도 의정부시 용현동 270-60번지 외1필지","indutype":"건강식품 - 기타건강식품","category":"food"}]},{"lat":"37.73507146","long":"127.07420452","imageIndex":7,"items":[{"name":"대가수산","tel":"031-848-9192","addr":"경기도 의정부시 용현동 399-34번지","indutype":"음료식품 - 농·축·수산품","category":"food"}]},{"lat":"37.737700345","long":"127.07729284","imageIndex":7,"items":[{"name":"대림산지유통","tel":"031-846-4058","addr":"경기도 의정부시 용현동 390번지 세아용현아파트 101동 1305호","indutype":"음료식품 - 농·축·수산품","category":"food"}]},{"lat":"37.73938218","long":"127.08183257","imageIndex":7,"items":[{"name":"대흥(DH)농산","tel":"031-1111-1111","addr":"경기도 의정부시 용현동 290-1번지 신도10차파크힐타운 105동 1805호","indutype":"음료식품 - 농·축·수산품","category":"food"}]},{"lat":"37.725013079","long":"127.08007051","imageIndex":7,"items":[{"name":"덕송농원","tel":"031-847-9280","addr":"경기도 의정부시 용현동 126-18번지,외3필지","indutype":"음료식품 - 농·축·수산품","category":"food"}]},{"lat":"37.736321566","long":"127.07779063","imageIndex":7,"items":[{"name":"도니돼지","tel":"","addr":"경기도 의정부시 용현동 393-6번지 1층","indutype":"음료식품 - 정육점","category":"food"}]},{"lat":"37.736150564","long":"127.07750684","imageIndex":7,"items":[{"name":"도야팡","tel":"","addr":"경기도 의정부시 용현동 393-14번지 1층","indutype":"음료식품 - 제과점","category":"food"},{"name":"잘생긴 정육점","tel":"031-823-5852","addr":"경기도 의정부시 용현동 393-14번지","indutype":"음료식품 - 정육점","category":"food"}]},{"lat":"37.735429192","long":"127.07845906","imageIndex":7,"items":[{"name":"드레이티스트 컴퍼니(DRartist Company)","tel":"031-827-5505","addr":"경기도 의정부시 용현동 404-51번지","indutype":"음료식품 - 기타음료식품","category":"food"}]},{"lat":"37.732046299","long":"127.08489901","imageIndex":7,"items":[{"name":"뚜레쥬르 의정부용현(3)","tel":"031-847-8585","addr":"경기도 의정부시 용현동 230-15번지 1층","indutype":"음료식품 - 제과점","category":"food"},{"name":"용현청과","tel":"","addr":"경기도 의정부시 용현동 230-15번지 아산빌딩","indutype":"음료식품 - 농·축·수산품","category":"food"}]},{"lat":"37.735651327","long":"127.08315592","imageIndex":7,"items":[{"name":"미스터정(Mr.Choung)","tel":"","addr":"경기도 의정부시 용현동 270-20번지","indutype":"음료식품 - 기타음료식품","category":"food"}]},{"lat":"37.7511756","long":"127.08195857","imageIndex":7,"items":[{"name":"민수산","tel":"031-852-0853","addr":"경기도 의정부시 용현동 544-1번지 102호","indutype":"음료식품 - 농·축·수산품","category":"food"}]},{"lat":"37.736405303","long":"127.08720678","imageIndex":7,"items":[{"name":"바른정형외과내매점","tel":"","addr":"경기도 의정부시 용현동 14-4번지 1층","indutype":"음료식품 - 기타음료식품","category":"food"}]},{"lat":"37.737045579","long":"127.08636799","imageIndex":7,"items":[{"name":"별별반찬","tel":"031-851-7336","addr":"경기도 의정부시 용현동 10-6번지 102호","indutype":"음료식품 - 기타음료식품","category":"food"}]},{"lat":"37.733428403","long":"127.07948934","imageIndex":7,"items":[{"name":"보충대편의점","tel":"031-843-0700","addr":"경기도 의정부시 용현동 410번지","indutype":"음료식품 - 기타음료식품","category":"food"}]},{"lat":"37.735846929","long":"127.08689984","imageIndex":7,"items":[{"name":"봄날애케이크","tel":"02-000-0000","addr":"경기도 의정부시 용현동 30-20번지 1층","indutype":"음료식품 - 제과점","category":"food"}]},{"lat":"37.738180759","long":"127.0864033","imageIndex":7,"items":[{"name":"사단법인 장애청년꿈을잡고","tel":"031-852-9203","addr":"경기도 의정부시 용현동 7번지 밀레니엄프라자 502-2호","indutype":"음료식품 - 기타음료식품","category":"food"}]},{"lat":"37.735714131","long":"127.0835417","imageIndex":7,"items":[{"name":"삼오양주오리","tel":"031-852-9629","addr":"경기도 의정부시 용현동 270-40번지","indutype":"음료식품 - 정육점","category":"food"}]},{"lat":"37.735738976","long":"127.08667283","imageIndex":7,"items":[{"name":"삼일곡산","tel":"031-852-6326","addr":"경기도 의정부시 용현동 13-15번지 1층 지상 1층","indutype":"음료식품 - 미곡상","category":"food"}]},{"lat":"37.73574133","long":"127.08329215","imageIndex":7,"items":[{"name":"삼일식자재","tel":"031-852-5521","addr":"경기도 의정부시 용현동 270-41번지","indutype":"음료식품 - 기타음료식품","category":"food"}]},{"lat":"37.734626156","long":"127.08028469","imageIndex":7,"items":[{"name":"서원홍삼","tel":"031-851-8940","addr":"경기도 의정부시 용현동 266-8번지","indutype":"건강식품 - 기타건강식품","category":"food"}]},{"lat":"37.742851814","long":"127.08039536","imageIndex":7,"items":[{"name":"성신푸드","tel":"031-851-2945","addr":"경기도 의정부시 용현동 522-6번지 2층","indutype":"음료식품 - 농·축·수산품","category":"food"},{"name":"태림유통","tel":"031-852-0500","addr":"경기도 의정부시 용현동 522-6번지 용현산업단지","indutype":"음료식품 - 기타음료식품","category":"food"}]},{"lat":"37.732597046","long":"127.08320935","imageIndex":7,"items":[{"name":"송산건강원","tel":"031-841-2377","addr":"경기도 의정부시 용현동 237-4번지","indutype":"건강식품 - 기타건강식품","category":"food"},{"name":"진주유통(천호점)","tel":"031-841-2377","addr":"경기도 의정부시 용현동 237-4번지","indutype":"음료식품 - 미곡상","category":"food"}]},{"lat":"37.747851451","long":"127.08139906","imageIndex":7,"items":[{"name":"송산떡집","tel":"031-852-3506","addr":"경기도 의정부시 용현동 547-13번지","indutype":"음료식품 - 제과점","category":"food"}]},{"lat":"37.732622856","long":"127.08497905","imageIndex":7,"items":[{"name":"수 건어물","tel":"","addr":"경기도 의정부시 용현동 39-27번지 해들녘애 501호","indutype":"음료식품 - 농·축·수산품","category":"food"}]},{"lat":"37.73529149","long":"127.08235007","imageIndex":7,"items":[{"name":"스나이퍼","tel":"031-852-7900","addr":"경기도 의정부시 용현동 268-32번지 1층 104호","indutype":"음료식품 - 기타음료식품","category":"food"}]},{"lat":"37.729154551","long":"127.08443073","imageIndex":7,"items":[{"name":"싼타모니카","tel":"031-841-1773","addr":"경기도 의정부시 용현동 187-5번지","indutype":"음료식품 - 기타음료식품","category":"food"}]},{"lat":"37.732685216","long":"127.08598874","imageIndex":7,"items":[{"name":"엄마 올때아이스크림할인매점","tel":"","addr":"경기도 의정부시 용현동 41-2번지 1층","indutype":"음료식품 - 기타음료식품","category":"food"}]},{"lat":"37.734820602","long":"127.08582096","imageIndex":7,"items":[{"name":"에녹 수제청","tel":"070-8064-4514","addr":"경기도 의정부시 용현동 253-4번지 1층","indutype":"음료식품 - 기타음료식품","category":"food"}]},{"lat":"37.734152375","long":"127.08795295","imageIndex":7,"items":[{"name":"에센브로트","tel":"070-8666-4178","addr":"경기도 의정부시 용현동 24번지 2층","indutype":"음료식품 - 제과점","category":"food"},{"name":"천지연매점","tel":"","addr":"경기도 의정부시 용현동 24번지","indutype":"음료식품 - 기타음료식품","category":"food"},{"name":"천지연매점(여)","tel":"031-852-8882","addr":"경기도 의정부시 용현동 24번지","indutype":"음료식품 - 기타음료식품","category":"food"}]},{"lat":"37.735233922","long":"127.08739831","imageIndex":7,"items":[{"name":"영일종합상사","tel":"031-840-0908","addr":"경기도 의정부시 용현동 30-38번지 1층","indutype":"음료식품 - 기타음료식품","category":"food"},{"name":"횡성서원양곡","tel":"070-8777-9089","addr":"경기도 의정부시 용현동 30-38번지","indutype":"음료식품 - 미곡상","category":"food"}]},{"lat":"37.739598765","long":"127.08129958","imageIndex":7,"items":[{"name":"와바","tel":"031-852-7776","addr":"경기도 의정부시 용현동 290-1번지 신도10차파크힐타운 104동 704호","indutype":"음료식품 - 기타음료식품","category":"food"}]},{"lat":"37.744545877","long":"127.07998867","imageIndex":7,"items":[{"name":"외삼촌네 지역장 07","tel":"031-8083-0466","addr":"경기도 의정부시 용현동 521-11번지","indutype":"음료식품 - 기타음료식품","category":"food"}]},{"lat":"37.735570771","long":"127.08237306","imageIndex":7,"items":[{"name":"용현떡방앗간","tel":"031-851-5623","addr":"경기도 의정부시 용현동 268-40번지 102호","indutype":"음료식품 - 제과점","category":"food"}]},{"lat":"37.732154296","long":"127.08506928","imageIndex":7,"items":[{"name":"용현아이파크 파리바게뜨","tel":"031-827-4848","addr":"경기도 의정부시 용현동 230번지 1층","indutype":"음료식품 - 제과점","category":"food"}]},{"lat":"37.733599805","long":"127.07914919","imageIndex":7,"items":[{"name":"용현장어","tel":"031-852-1193","addr":"경기도 의정부시 용현동 406-7","indutype":"음료식품 - 농·축·수산품","category":"food"}]},{"lat":"37.734788744","long":"127.07964957","imageIndex":7,"items":[{"name":"용현축산물직판장","tel":"031-853-1341","addr":"경기도 의정부시 용현동 267-2번지 1층","indutype":"음료식품 - 정육점","category":"food"}]},{"lat":"37.736433917","long":"127.08496057","imageIndex":7,"items":[{"name":"우리마트","tel":"031-851-4232","addr":"경기도 의정부시 용현동 275-13번지","indutype":"음료식품 - 기타음료식품","category":"food"}]},{"lat":"37.736345348","long":"127.08273692","imageIndex":7,"items":[{"name":"의정부시니어클럽 어르신건강밥상","tel":"031-826-0760","addr":"경기도 의정부시 용현동 270-78번지 2층","indutype":"음료식품 - 기타음료식품","category":"food"}]},{"lat":"37.745570822","long":"127.08320067","imageIndex":7,"items":[{"name":"장애인보호작업장솔빛터","tel":"031-821-6920","addr":"경기도 의정부시 용현동 519-4번지 2층","indutype":"음료식품 - 기타음료식품","category":"food"}]},{"lat":"37.743651018","long":"127.08432183","imageIndex":7,"items":[{"name":"정관장용현점","tel":"031-852-2304","addr":"경기도 의정부시 용현동 526-3번지 102호","indutype":"건강식품 - 홍삼제품","category":"food"},{"name":"정관장용현점","tel":"031-852-2304","addr":"경기도 의정부시 용현동 526-3번지 102호","indutype":"건강식품 - 홍삼제품","category":"food"}]},{"lat":"37.736297326","long":"127.0870138","imageIndex":7,"items":[{"name":"정임","tel":"031-747-8874","addr":"경기도 의정부시 용현동 30-29번지 1층","indutype":"음료식품 - 기타음료식품","category":"food"}]},{"lat":"37.735040042","long":"127.08112461","imageIndex":7,"items":[{"name":"종로떡집","tel":"031-851-6883","addr":"경기도 의정부시 용현동 268-2번지 1층 전부","indutype":"음료식품 - 제과점","category":"food"}]},{"lat":"37.736289105","long":"127.08590201","imageIndex":7,"items":[{"name":"중앙유통","tel":"031-851-3390","addr":"경기도 의정부시 용현동 33-9번지","indutype":"음료식품 - 기타음료식품","category":"food"}]},{"lat":"37.734846413","long":"127.087534","imageIndex":7,"items":[{"name":"차돌집","tel":"031-853-4554","addr":"경기도 의정부시 용현동 29번지","indutype":"음료식품 - 정육점","category":"food"}]},{"lat":"37.735930623","long":"127.08315622","imageIndex":7,"items":[{"name":"커피볶는집 융","tel":"031-851-9090","addr":"경기도 의정부시 용현동 270-55번지","indutype":"음료식품 - 기타음료식품","category":"food"}]},{"lat":"37.731959265","long":"127.08037266","imageIndex":7,"items":[{"name":"투웰브바스켓","tel":"031-202-8941","addr":"경기도 의정부시 용현동 209-17번지 1층 1호","indutype":"음료식품 - 제과점","category":"food"}]},{"lat":"37.734347614","long":"127.07912727","imageIndex":7,"items":[{"name":"파리바게트 (용현동306보충대점)","tel":"031-846-6976","addr":"경기도 의정부시 용현동 407-9번지 DU빌딩 나동지상 1층","indutype":"음료식품 - 제과점","category":"food"}]},{"lat":"37.735934542","long":"127.07717763","imageIndex":7,"items":[{"name":"하얀유통","tel":"031-559-8394","addr":"경기도 의정부시 용현동 395-2번지","indutype":"음료식품 - 기타음료식품","category":"food"}]},{"lat":"37.735600787","long":"127.07781259","imageIndex":7,"items":[{"name":"한아름생활용품","tel":"031-840-6214","addr":"경기도 의정부시 용현동 404-57번지 1층","indutype":"음료식품 - 기타음료식품","category":"food"}]},{"lat":"37.732658578","long":"127.08543285","imageIndex":7,"items":[{"name":"한우리축산물직판장","tel":"031-848-8448","addr":"경기도 의정부시 용현동 233-2번지 축산물직판장 상가 1층 1호","indutype":"음료식품 - 정육점","category":"food"},{"name":"현지네반찬","tel":"031-821-3778","addr":"경기도 의정부시 용현동 233-2번지 축산물직판장 1층 4호","indutype":"음료식품 - 기타음료식품","category":"food"}]},{"lat":"37.735792928","long":"127.08682037","imageIndex":7,"items":[{"name":"한울푸드","tel":"031-851-0027","addr":"경기도 의정부시 용현동 30-21번지","indutype":"음료식품 - 농·축·수산품","category":"food"}]},{"lat":"37.720102124","long":"127.08117695","imageIndex":7,"items":[{"name":"할매상회","tel":"031-847-0331","addr":"경기도 의정부시 용현동 산 62-1","indutype":"음료식품 - 미곡상","category":"food"}]},{"lat":"37.732541342","long":"127.08559154","imageIndex":7,"items":[{"name":"현대떡방아기름집","tel":"031-847-1309","addr":"경기도 의정부시 용현동 232-2석천종합상가103호","indutype":"음료식품 - 제과점","category":"food"}]},{"lat":"37.750905542","long":"127.08161787","imageIndex":7,"items":[{"name":"홀리스윗","tel":"","addr":"경기도 의정부시 용현동 544-3번지 계림프라자 1층","indutype":"음료식품 - 제과점","category":"food"}]},{"lat":"37.732434002","long":"127.0844797","imageIndex":7,"items":[{"name":"홍죽리한우직판장","tel":"031-821-8219","addr":"경기도 의정부시 용현동 235-12번지","indutype":"음료식품 - 정육점","category":"food"}]},{"lat":"37.737288555","long":"127.08676533","imageIndex":7,"items":[{"name":"황금시루","tel":"031-853-9688","addr":"경기도 의정부시 용현동 8-1번지 외1필지송산빌딩 107호","indutype":"음료식품 - 제과점","category":"food"}]}]