[{"lat":"37.19741355","long":"126.89002163","imageIndex":17,"items":[{"name":"(주)리엔텍","tel":"031-399-7323","addr":"경기도 화성시 비봉면 청요리 458-19번지","indutype":"기타 - 기계공구","category":"other"}]},{"lat":"37.196103347","long":"126.89574534","imageIndex":17,"items":[{"name":"(주)에이치케이씨","tel":"031-355-8074","addr":"경기도 화성시 비봉면 청요리 428-31번지","indutype":"건축자재 - 기타건축자재","category":"other"}]},{"lat":"37.19888068","long":"126.89812933","imageIndex":17,"items":[{"name":"다온 The korea","tel":"031-8059-0179","addr":"경기도 화성시 비봉면 청요리 292-2번지 나동 1층","indutype":"주방용구 - 주방용구","category":"other"}]},{"lat":"37.200322834","long":"126.88890217","imageIndex":17,"items":[{"name":"동양JPN","tel":"031-430-7241","addr":"경기도 화성시 비봉면 청요리 569-9","indutype":"기타 - 기계공구","category":"other"}]},{"lat":"37.198494066","long":"126.89907601","imageIndex":17,"items":[{"name":"부뚜막씽크공장","tel":"031-357-0428","addr":"경기도 화성시 비봉면 청요리 393번지","indutype":"주방용구 - 주방용구","category":"other"}]},{"lat":"37.198825525","long":"126.89690166","imageIndex":17,"items":[{"name":"수안산업","tel":"031-357-5688","addr":"경기도 화성시 비봉면 청요리 282-4번지","indutype":"건축자재 - 인테리어전문","category":"other"},{"name":"제이제이하우징","tel":"02-1111-1111","addr":"경기도 화성시 비봉면 청요리 282-4번지","indutype":"건축자재 - 인테리어전문","category":"other"}]},{"lat":"37.200440531","long":"126.88948772","imageIndex":17,"items":[{"name":"스포니스상사","tel":"031-366-7870","addr":"경기도 화성시 비봉면 청요리 570","indutype":"레져용품 - 스포츠·레져용품","category":"other"}]},{"lat":"37.20238124","long":"126.89317949","imageIndex":17,"items":[{"name":"엠알제이(MRJ)중공업","tel":"031-356-2580","addr":"경기도 화성시 비봉면 청요리 598-6번지","indutype":"기타 - 기계공구","category":"other"}]},{"lat":"37.194714043","long":"126.89387763","imageIndex":17,"items":[{"name":"주식회사 스왈로(Swallow Co.,Ltd.)","tel":"070-4115-1517","addr":"경기도 화성시 비봉면 청요리 428-45번지","indutype":"가구 - 일반가구","category":"other"}]},{"lat":"37.194802295","long":"126.89188393","imageIndex":17,"items":[{"name":"주식회사 이노에이지","tel":"031-393-9550","addr":"경기도 화성시 비봉면 청요리 467-1번지","indutype":"건축자재 - 페인트","category":"other"}]},{"lat":"37.19490819","long":"126.89937376","imageIndex":17,"items":[{"name":"추어에어컨.냉동","tel":"031-357-8943","addr":"경기도 화성시 비봉면 청요리 411-2번지","indutype":"전기제품 - 냉열기기","category":"other"}]},{"lat":"37.206548587","long":"126.89820885","imageIndex":17,"items":[{"name":"태산이엔지(ENG)","tel":"031-366-9608","addr":"경기도 화성시 비봉면 청요리 47번지","indutype":"전기제품 - 냉열기기","category":"other"}]},{"lat":"37.198240913","long":"126.89809642","imageIndex":17,"items":[{"name":"화인엔지니어링","tel":"031-355-8395","addr":"경기도 화성시 비봉면 청요리 394-2번지 외5필지","indutype":"기타 - 기계공구","category":"other"}]},{"lat":"37.197799418","long":"126.88837658","imageIndex":4,"items":[{"name":"대원식당","tel":"031-353-1278","addr":"경기도 화성시 비봉면 청요리 484-8번지","indutype":"일반휴게음식 - 일반한식","category":"restaurant"}]},{"lat":"37.20255303","long":"126.8938213","imageIndex":4,"items":[{"name":"두집메식당","tel":"031-000-0000","addr":"경기도 화성시 비봉면 청요리 606 외1필지","indutype":"일반휴게음식 - 일반한식","category":"restaurant"}]},{"lat":"37.198547246","long":"126.89807347","imageIndex":4,"items":[{"name":"산들애한식뷔페","tel":"","addr":"경기도 화성시 비봉면 청요리 289-1번지 1층","indutype":"일반휴게음식 - 일반한식","category":"restaurant"}]},{"lat":"37.200690918","long":"126.88751614","imageIndex":4,"items":[{"name":"왕소나무","tel":"031-355-5888","addr":"경기도 화성시 비봉면 청요리 574번지 1층","indutype":"일반휴게음식 - 일반한식","category":"restaurant"},{"name":"최가네 감자탕","tel":"031-355-5888","addr":"경기도 화성시 비봉면 청요리 574번지","indutype":"일반휴게음식 - 일반한식","category":"restaurant"}]},{"lat":"37.200101317","long":"126.88355215","imageIndex":4,"items":[{"name":"청풍동태탕.찜","tel":"031-357-2170","addr":"경기도 화성시 비봉면 청요리 852-3","indutype":"일반휴게음식 - 일반한식","category":"restaurant"}]},{"lat":"37.201991196","long":"126.89040906","imageIndex":4,"items":[{"name":"한식부페 (시골)","tel":"070-7420-0149","addr":"경기도 화성시 비봉면 청요리 587번지","indutype":"일반휴게음식 - 일반한식","category":"restaurant"}]},{"lat":"37.199690431","long":"126.89679907","imageIndex":0,"items":[{"name":"안전타이어","tel":"031-223-9159","addr":"경기도 화성시 비봉면 청요리 277번지","indutype":"자동차정비 유지 - 자동차시트·타이어","category":"car"}]},{"lat":"37.199493634","long":"126.89841007","imageIndex":0,"items":[{"name":"위고코리아","tel":"031-348-8868","addr":"경기도 화성시 비봉면 청요리 291-3번지","indutype":"자동차정비 유지 - 자동차정비","category":"car"}]},{"lat":"37.200905754","long":"126.88607402","imageIndex":7,"items":[{"name":"청요3리주민복지회","tel":"031-356-4002","addr":"경기도 화성시 비봉면 청요리 826-4번지","indutype":"음료식품 - 기타음료식품","category":"food"}]}]