[{"lat":"37.766097772","long":"127.16697987","imageIndex":7,"items":[{"name":"SD농산","tel":"070-1111-1111","addr":"경기도 포천시 소흘읍 직동리 87-5번지 SD농산 류승두","indutype":"음료식품 - 농·축·수산품","category":"food"}]},{"lat":"37.768342771","long":"127.16580448","imageIndex":7,"items":[{"name":"광릉식품","tel":"070-8873-7811","addr":"경기도 포천시 소흘읍 직동리 99-4","indutype":"음료식품 - 기타음료식품","category":"food"}]},{"lat":"37.770650964","long":"127.16452701","imageIndex":7,"items":[{"name":"늘푸른농장","tel":"031-542-9221","addr":"경기도 포천시 소흘읍 직동리 393-6","indutype":"음료식품 - 농·축·수산품","category":"food"}]},{"lat":"37.781677088","long":"127.16561806","imageIndex":7,"items":[{"name":"비득재농원","tel":"070-7789-4236","addr":"경기도 포천시 소흘읍 직동리 213번지","indutype":"음료식품 - 농·축·수산품","category":"food"}]},{"lat":"37.781177663","long":"127.16842078","imageIndex":7,"items":[{"name":"산책","tel":"031-543-1005","addr":"경기도 포천시 소흘읍 직동리 218번지","indutype":"음료식품 - 기타음료식품","category":"food"}]},{"lat":"37.781983388","long":"127.17203239","imageIndex":7,"items":[{"name":"세간해원","tel":"031-542-3110","addr":"경기도 포천시 소흘읍 직동리 4-1번지","indutype":"음료식품 - 농·축·수산품","category":"food"}]},{"lat":"37.780426226","long":"127.16455964","imageIndex":7,"items":[{"name":"수목스토어","tel":"031-543-1145","addr":"경기도 포천시 소흘읍 직동리 321-1번지","indutype":"음료식품 - 기타음료식품","category":"food"}]},{"lat":"37.763652426","long":"127.16966413","imageIndex":7,"items":[{"name":"수목원마트","tel":"031-544-7822","addr":"경기도 포천시 소흘읍 직동리 513번지","indutype":"음료식품 - 기타음료식품","category":"food"}]},{"lat":"37.752040752","long":"127.16852606","imageIndex":7,"items":[{"name":"우리나무알림터","tel":"070-5022-4846","addr":"경기도 포천시 소흘읍 직동리 산50-18번지 국립수목원 내","indutype":"음료식품 - 기타음료식품","category":"food"}]},{"lat":"37.768821541","long":"127.16488621","imageIndex":7,"items":[{"name":"윤씨농장건강원","tel":"031-861-0021","addr":"경기도 포천시 소흘읍 직동리 428-2번지","indutype":"건강식품 - 기타건강식품","category":"food"}]},{"lat":"37.776875607","long":"127.1651989","imageIndex":7,"items":[{"name":"재안식품","tel":"031-542-4496","addr":"경기도 포천시 소흘읍 직동리 329-1번지 2층","indutype":"음료식품 - 농·축·수산품","category":"food"}]},{"lat":"37.777785563","long":"127.16520089","imageIndex":7,"items":[{"name":"주파크","tel":"","addr":"경기도 포천시 소흘읍 직동리 328-1번지","indutype":"음료식품 - 기타음료식품","category":"food"}]},{"lat":"37.772710097","long":"127.16086538","imageIndex":7,"items":[{"name":"평창생고기","tel":"031-541-3057","addr":"경기도 포천시 소흘읍 직동리 364-1,364-6","indutype":"음료식품 - 정육점","category":"food"}]},{"lat":"37.782479666","long":"127.16508629","imageIndex":7,"items":[{"name":"하린재","tel":"031-543-7579","addr":"경기도 포천시 소흘읍 직동리 314-3, 2/1","indutype":"음료식품 - 기타음료식품","category":"food"}]}]