[{"lat":"37.205994251","long":"127.04028107","imageIndex":8,"items":[{"name":"경희동수한의원","tel":"031-236-1075","addr":"경기도 화성시 병점동 317-3번지 명신프라자 비이동 307-1호","indutype":"의원 - 한의원","category":"medical"},{"name":"병점하나치과의원","tel":"031-234-4228","addr":"경기도 화성시 병점동 317-3번지 명신프라자 3층 306호","indutype":"의원 - 치과의원","category":"medical"},{"name":"서울참소아과의원","tel":"031-232-6275","addr":"경기도 화성시 병점동 317-3번지 명신프라자 308호","indutype":"의원 - 의원","category":"medical"},{"name":"아기곰약국","tel":"031-236-6602","addr":"경기도 화성시 병점동 317-3번지 명신프라자 201호","indutype":"약국 - 약국","category":"medical"},{"name":"왕이비인후과의원","tel":"031-223-3717","addr":"경기도 화성시 병점동 317-3번지 명신프라자 302동 303호","indutype":"의원 - 의원","category":"medical"},{"name":"하마약국","tel":"031-231-8875","addr":"경기도 화성시 병점동 317-3번지 명신프라자 304호","indutype":"약국 - 약국","category":"medical"},{"name":"한사랑내과의원","tel":"031-237-8475","addr":"경기도 화성시 병점동 317-3번지 명신프라자 3층","indutype":"의원 - 의원","category":"medical"}]},{"lat":"37.204805446","long":"127.03844435","imageIndex":8,"items":[{"name":"늘푸른비뇨기과의원","tel":"031-225-3977","addr":"경기도 화성시 병점동 870번지 화성병점에스케이뷰 201호 SK뷰상가","indutype":"의원 - 의원","category":"medical"}]},{"lat":"37.204787589","long":"127.03789238","imageIndex":8,"items":[{"name":"딸기온누리약국","tel":"031-224-0700","addr":"경기도 화성시 병점동 870번지 화성병점에스케이뷰 101동 107호","indutype":"약국 - 약국","category":"medical"},{"name":"장우진동물병원","tel":"031-238-8275","addr":"경기도 화성시 병점동 870번지 화성병점에스케이뷰 101동 104호","indutype":"기타의료기관 - 동물병원","category":"medical"}]},{"lat":"37.205220981","long":"127.0347272","imageIndex":8,"items":[{"name":"미래정신과의원","tel":"031-234-7476","addr":"경기도 화성시 병점동 400-6번지 외2필지","indutype":"의원 - 의원","category":"medical"}]},{"lat":"37.202047327","long":"127.0414506","imageIndex":8,"items":[{"name":"병점뉴욕치과의원","tel":"031-221-1110","addr":"경기도 화성시 병점동 490-2번지 하이코아빌딩 301호","indutype":"의원 - 치과의원","category":"medical"},{"name":"유림한의원","tel":"031-222-7535","addr":"경기도 화성시 병점동 490-2번지 하이코아 303호","indutype":"의원 - 한의원","category":"medical"}]},{"lat":"37.204607628","long":"127.03704745","imageIndex":8,"items":[{"name":"병점베스트치과의원","tel":"070-8269-9016","addr":"경기도 화성시 병점동 871번지 병점역효성해링턴플레이스 107동 201호","indutype":"의원 - 치과의원","category":"medical"},{"name":"병점중앙약국","tel":"031-232-1114","addr":"경기도 화성시 병점동 871번지 병점역효성해링턴플레이스 107동 203호","indutype":"약국 - 약국","category":"medical"}]},{"lat":"37.206915059","long":"127.03425479","imageIndex":8,"items":[{"name":"병점수치과의원","tel":"031-223-7528","addr":"경기도 화성시 병점동 382-2번지 미라클프라자 302호","indutype":"의원 - 치과의원","category":"medical"}]},{"lat":"37.20596829","long":"127.03672138","imageIndex":8,"items":[{"name":"병점정형외과","tel":"031-222-3324","addr":"경기도 화성시 병점동 371-1번지 1층","indutype":"의원 - 의원","category":"medical"}]},{"lat":"37.206273746","long":"127.03972923","imageIndex":8,"items":[{"name":"병점한의원","tel":"031-232-1075","addr":"경기도 화성시 병점동 811번지 병점프라자 2층","indutype":"의원 - 한의원","category":"medical"}]},{"lat":"37.207966502","long":"127.0433912","imageIndex":8,"items":[{"name":"비전약국","tel":"031-226-6714","addr":"경기도 화성시 병점동 259-15번지 우남프라자 1층 105호","indutype":"약국 - 약국","category":"medical"},{"name":"비전약국","tel":"031-226-6714","addr":"경기도 화성시 병점동 259-15번지 우남프라자 105호","indutype":"약국 - 약국","category":"medical"},{"name":"우리들의원","tel":"031-223-8276","addr":"경기도 화성시 병점동 259-15번지 우남프라자 201호","indutype":"의원 - 의원","category":"medical"},{"name":"진소아청소년과의원","tel":"031-234-0029","addr":"경기도 화성시 병점동 259-15번지 우남프라자 303호","indutype":"의원 - 의원","category":"medical"},{"name":"초록한의원","tel":"031-226-3222","addr":"경기도 화성시 병점동 259-15번지 우남프라자 3층 301호","indutype":"의원 - 한의원","category":"medical"}]},{"lat":"37.213931677","long":"127.04248185","imageIndex":8,"items":[{"name":"삼대한의원","tel":"031-224-1075","addr":"경기도 화성시 병점동 844-1씨네샤르망A동401호~402호","indutype":"의원 - 한의원","category":"medical"},{"name":"아가페치과의원","tel":"031-234-5975","addr":"경기도 화성시 병점동 844-1번지 씨네샤르망 A동 4층 405호","indutype":"의원 - 치과의원","category":"medical"}]},{"lat":"37.206770601","long":"127.03533616","imageIndex":8,"items":[{"name":"새로미치과의원","tel":"031-223-2879","addr":"경기도 화성시 병점동 381-17번지 3층","indutype":"의원 - 치과의원","category":"medical"}]},{"lat":"37.20560678","long":"127.04035973","imageIndex":8,"items":[{"name":"샘물한의원","tel":"031-234-1075","addr":"경기도 화성시 병점동 431-55두산상가203~204호","indutype":"의원 - 한의원","category":"medical"}]},{"lat":"37.205382281","long":"127.03787012","imageIndex":8,"items":[{"name":"서울대동물종합병원","tel":"031-238-7979","addr":"경기도 화성시 병점동 364-4번지","indutype":"기타의료기관 - 동물병원","category":"medical"}]},{"lat":"37.205381711","long":"127.03975132","imageIndex":8,"items":[{"name":"서울성모이비인후과","tel":"031-239-5075","addr":"경기도 화성시 병점동 431-3번지 두산탑프라자 302호","indutype":"의원 - 의원","category":"medical"},{"name":"웰치과의원","tel":"031-236-2877","addr":"경기도 화성시 병점동 431-3번지 두산탑프라자 301호","indutype":"의원 - 치과의원","category":"medical"},{"name":"태안약국","tel":"031-232-6637","addr":"경기도 화성시 병점동 431-3번지 두산탑프라자 106호","indutype":"약국 - 약국","category":"medical"}]},{"lat":"37.206049302","long":"127.03700304","imageIndex":8,"items":[{"name":"서울여성의원","tel":"031-233-4411","addr":"경기도 화성시 병점동 370번지","indutype":"의원 - 의원","category":"medical"}]},{"lat":"37.206525488","long":"127.04145287","imageIndex":8,"items":[{"name":"세경한의원","tel":"031-223-0101","addr":"경기도 화성시 병점동 314-3번지","indutype":"의원 - 한의원","category":"medical"}]},{"lat":"37.204607878","long":"127.03616881","imageIndex":8,"items":[{"name":"신세계마취통증의학과의원","tel":"031-237-7577","addr":"경기도 화성시 병점동 871번지 화성병점효성 해링턴 플레이스 107동 205호,206호","indutype":"의원 - 의원","category":"medical"}]},{"lat":"37.214859129","long":"127.04428491","imageIndex":8,"items":[{"name":"씨티팜약국","tel":"031-221-8447","addr":"경기도 화성시 병점동 844-7번지 상록프라자 404호","indutype":"약국 - 약국","category":"medical"},{"name":"아름다운치과의원","tel":"031-221-7528","addr":"경기도 화성시 병점동 844-7번지 상록프라자 403호","indutype":"의원 - 치과의원","category":"medical"}]},{"lat":"37.213742445","long":"127.04252681","imageIndex":8,"items":[{"name":"아가페치과의원","tel":"031-234-6075","addr":"경기도 화성시 병점동 844-1번지 405호","indutype":"의원 - 치과의원","category":"medical"}]},{"lat":"37.206409827","long":"127.0366202","imageIndex":8,"items":[{"name":"예다움","tel":"031-898-5757","addr":"경기도 화성시 병점동 379-10번지 병점프라자 6층","indutype":"의원 - 의원","category":"medical"}]},{"lat":"37.213468733","long":"127.05164078","imageIndex":8,"items":[{"name":"예일약국","tel":"031-222-1108","addr":"경기도 화성시 병점동 203-7번지 1층 104호","indutype":"약국 - 약국","category":"medical"}]},{"lat":"37.214579713","long":"127.04455514","imageIndex":8,"items":[{"name":"오송한약사","tel":"031-889-9112","addr":"경기도 화성시 병점동 845-2번지 한마음프라자 103호","indutype":"약국 - 약국","category":"medical"}]},{"lat":"37.204967837","long":"127.03775728","imageIndex":8,"items":[{"name":"우리치과의원","tel":"031-223-2899","addr":"경기도 화성시 병점동 406-1번지 금강빌딩 4층","indutype":"의원 - 치과의원","category":"medical"}]},{"lat":"37.207689539","long":"127.03577589","imageIndex":8,"items":[{"name":"최기방 정한재 한의원","tel":"031-239-2364","addr":"경기도 화성시 병점동 349-30번지","indutype":"의원 - 한의원","category":"medical"}]},{"lat":"37.207662382","long":"127.03622648","imageIndex":8,"items":[{"name":"코끼리약국","tel":"031-224-6123","addr":"경기도 화성시 병점동 348-4번지 외2필지그린씨티1층108호","indutype":"약국 - 약국","category":"medical"}]},{"lat":"37.20657948","long":"127.04166693","imageIndex":8,"items":[{"name":"한마음약국","tel":"031-233-7675","addr":"경기도 화성시 병점동 313-4번지 태성빌딩 1층 109호","indutype":"약국 - 약국","category":"medical"}]},{"lat":"37.205553096","long":"127.03914311","imageIndex":8,"items":[{"name":"햇님한의원","tel":"031-221-0072","addr":"경기도 화성시 병점동 432번지 1층","indutype":"의원 - 한의원","category":"medical"}]}]