[{"lat":"37.032943955","long":"127.42930649","imageIndex":17,"items":[{"name":"(주)인터파크큐브릿지","tel":"031-514-4706","addr":"경기도 안성시 죽산면 당목리 726-1","indutype":"서적문구 - 문구용품","category":"other"},{"name":"(주)큐브릿지/원격지","tel":"02-514-4706","addr":"경기도 안성시 죽산면 당목리 726-1번지","indutype":"기타 - 기타 전문점","category":"other"},{"name":"모나미애견훈련소","tel":"031-674-5933","addr":"경기도 안성시 죽산면 당목리 726-1번지 1층","indutype":"문화.취미 - 애완동물","category":"other"}]},{"lat":"37.02433271","long":"127.43843966","imageIndex":17,"items":[{"name":"대제통상 (주)","tel":"031-674-8858","addr":"경기도 안성시 죽산면 당목리 444-21번지","indutype":"건축자재 - 건축용 요업제품","category":"other"}]},{"lat":"37.036054344","long":"127.42377155","imageIndex":17,"items":[{"name":"더블에스","tel":"031-677-8023","addr":"경기도 안성시 죽산면 당목리 930-1","indutype":"농업 - 비료,사료,종자","category":"other"}]},{"lat":"37.021300146","long":"127.42738725","imageIndex":17,"items":[{"name":"사단법인 홉 월드 미션","tel":"02-414-1659","addr":"경기도 안성시 죽산면 당목리 894번지","indutype":"기타 - 비영리/대상","category":"other"}]},{"lat":"37.037300077","long":"127.4256667","imageIndex":17,"items":[{"name":"세븐일레븐안성칠장사점","tel":"031-1577-0711","addr":"경기도 안성시 죽산면 당목리 691-8번지","indutype":"유통업 영리 - 편 의 점","category":"other"}]},{"lat":"37.023522266","long":"127.44075","imageIndex":17,"items":[{"name":"신흥가설재","tel":"031-674-0586","addr":"경기도 안성시 죽산면 당목리 438,437-1","indutype":"건축자재 - 기타건축자재","category":"other"}]},{"lat":"37.039299446","long":"127.42085581","imageIndex":7,"items":[{"name":"걸미골","tel":"031-674-1843","addr":"경기도 안성시 죽산면 당목리 960번지","indutype":"음료식품 - 미곡상","category":"food"}]},{"lat":"37.034634354","long":"127.44263456","imageIndex":7,"items":[{"name":"기섭농장","tel":"031-672-7918","addr":"경기도 안성시 죽산면 당목리 327-2","indutype":"음료식품 - 미곡상","category":"food"}]},{"lat":"37.023052476","long":"127.45549107","imageIndex":7,"items":[{"name":"원석농장","tel":"031-674-9921","addr":"경기도 안성시 죽산면 당목리 산99-1번지","indutype":"음료식품 - 농·축·수산품","category":"food"}]},{"lat":"37.025412225","long":"127.43891782","imageIndex":7,"items":[{"name":"주식회사 우래","tel":"031-674-3834","addr":"경기도 안성시 죽산면 당목리 444-19번지","indutype":"음료식품 - 기타음료식품","category":"food"}]},{"lat":"37.039299446","long":"127.42085581","imageIndex":4,"items":[{"name":"걸미골","tel":"031-674-1844","addr":"경기도 안성시 죽산면 당목리 960번지","indutype":"일반휴게음식 - 일반한식","category":"restaurant"}]},{"lat":"37.025881715","long":"127.43866203","imageIndex":4,"items":[{"name":"당목보리밥부페","tel":"031-677-4416","addr":"경기도 안성시 죽산면 당목리 449-8번지","indutype":"일반휴게음식 - 일반한식","category":"restaurant"}]},{"lat":"37.036215614","long":"127.42403095","imageIndex":4,"items":[{"name":"도토리","tel":"031-671-0511","addr":"경기도 안성시 죽산면 당목리 930","indutype":"일반휴게음식 - 일반한식","category":"restaurant"}]},{"lat":"37.039938392","long":"127.42108411","imageIndex":4,"items":[{"name":"동해생선구이","tel":"031-676-3492","addr":"경기도 안성시 죽산면 당목리 966-1번지","indutype":"일반휴게음식 - 일반한식","category":"restaurant"}]},{"lat":"37.039941044","long":"127.42033104","imageIndex":4,"items":[{"name":"어울림","tel":"031-671-4541","addr":"경기도 안성시 죽산면 당목리 967-1번지","indutype":"일반휴게음식 - 일반한식","category":"restaurant"}]},{"lat":"37.037300077","long":"127.4256667","imageIndex":4,"items":[{"name":"칠장기사식당","tel":"031-674-2533","addr":"경기도 안성시 죽산면 당목리 691-8번지","indutype":"일반휴게음식 - 일반한식","category":"restaurant"},{"name":"함바집","tel":"031-676-9899","addr":"경기도 안성시 죽산면 당목리 691-8","indutype":"일반휴게음식 - 일반한식","category":"restaurant"}]},{"lat":"37.036715059","long":"127.4280013","imageIndex":4,"items":[{"name":"큰손냉면","tel":"031-672-9777","addr":"경기도 안성시 죽산면 당목리 708-2번지 다동","indutype":"일반휴게음식 - 일반한식","category":"restaurant"}]},{"lat":"37.037190389","long":"127.42610444","imageIndex":9,"items":[{"name":"광선 주유소","tel":"031-672-7798","addr":"경기도 안성시 죽산면 당목리 691-5번지","indutype":"연료판매점 - 현대정유(오일뱅크)","category":"oil"},{"name":"시온주유소","tel":"031-673-1060","addr":"경기도 안성시 죽산면 당목리 691-5번지","indutype":"연료판매점 - 현대정유(오일뱅크)","category":"oil"}]},{"lat":"37.034049569","long":"127.43254958","imageIndex":9,"items":[{"name":"죽산가스","tel":"031-676-6050","addr":"경기도 안성시 죽산면 당목리 619-5번지","indutype":"연료판매점 - LPG 취급점","category":"oil"}]},{"lat":"37.021606405","long":"127.43982877","imageIndex":9,"items":[{"name":"한강주유소","tel":"031-673-0991","addr":"경기도 안성시 죽산면 당목리 436-3번지","indutype":"연료판매점 - 쌍용S-OIL","category":"oil"},{"name":"한강주유소","tel":"031-674-2662","addr":"경기도 안성시 죽산면 당목리 436-3번지","indutype":"연료판매점 - SK주유소","category":"oil"}]},{"lat":"37.023472303","long":"127.43963718","imageIndex":5,"items":[{"name":"리베라모텔","tel":"031-000-0000","addr":"경기도 안성시 죽산면 당목리 442번지","indutype":"숙박업 - 여관/기타숙박업","category":"hotel"},{"name":"리베라모텔","tel":"031-674-8872","addr":"경기도 안성시 죽산면 당목리 442번지","indutype":"숙박업 - 여관/기타숙박업","category":"hotel"}]},{"lat":"37.035358718","long":"127.43182639","imageIndex":5,"items":[{"name":"쉐르나모텔","tel":"031-674-5551","addr":"경기도 안성시 죽산면 당목리 592번지","indutype":"숙박업 - 여관/기타숙박업","category":"hotel"}]},{"lat":"37.036604257","long":"127.4236959","imageIndex":5,"items":[{"name":"아비숑모텔","tel":"031-674-8415","addr":"경기도 안성시 죽산면 당목리 930-6번지","indutype":"숙박업 - 여관/기타숙박업","category":"hotel"}]},{"lat":"37.023273454","long":"127.43980461","imageIndex":5,"items":[{"name":"오아시스여관","tel":"031-674-5700","addr":"경기도 안성시 죽산면 당목리 440-3번지","indutype":"숙박업 - 여관/기타숙박업","category":"hotel"}]},{"lat":"37.038214051","long":"127.44680271","imageIndex":5,"items":[{"name":"칠현산 민박","tel":"031-676-8879","addr":"경기도 안성시 죽산면 당목리 산15-3번지","indutype":"숙박업 - 여관/기타숙박업","category":"hotel"}]}]