[{"lat":"37.483267037","long":"126.76160616","imageIndex":16,"items":[{"name":"(주)부천유나이티드축구클럽","tel":"032-346-2731","addr":"경기도 부천시 송내동 400-16번지 동원빌딩 3층","indutype":"학원 - 예·체능계학원","category":"study"},{"name":"유앤아이용접학원","tel":"032-225-7555","addr":"경기도 부천시 송내동 400-16번지 동원빌딩 6층","indutype":"학원 - 기능학원","category":"study"},{"name":"주식회사미준아이교육/송내아이비보습어학","tel":"032-655-2888","addr":"경기도 부천시 송내동 400-16번지 동원빌딩 5층전체","indutype":"학원 - 보습학원","category":"study"}]},{"lat":"37.479433654","long":"126.76849234","imageIndex":16,"items":[{"name":"1:3(일대삼) 영어교습소","tel":"","addr":"경기도 부천시 송내동 463-71번지 1층","indutype":"학원 - 외국어학원","category":"study"},{"name":"관인대신컴퓨터학원","tel":"032-663-3811","addr":"경기도 부천시 송내동 463-71번지","indutype":"학원 - 컴퓨터학원","category":"study"}]},{"lat":"37.479318562","long":"126.76952151","imageIndex":16,"items":[{"name":"BEST체대태권스쿨","tel":"032-654-5575","addr":"경기도 부천시 송내동 614-3번지 3층","indutype":"학원 - 예·체능계학원","category":"study"},{"name":"YBM(와이비엠)시사Engloo(잉글루)송내외국","tel":"032-633-0579","addr":"경기도 부천시 송내동 614-3번지 4층","indutype":"회원제형태 - 학원","category":"study"},{"name":"삼성J&K보습학원","tel":"032-654-5576","addr":"경기도 부천시 송내동 614-3번지 201호","indutype":"학원 - 보습학원","category":"study"}]},{"lat":"37.482600353","long":"126.76163092","imageIndex":16,"items":[{"name":"THE(더)좋은보습학원","tel":"032-611-2001","addr":"경기도 부천시 송내동 398-2,3층","indutype":"학원 - 보습학원","category":"study"},{"name":"송일음악미술학원","tel":"032-611-2001","addr":"경기도 부천시 송내동 398-2, 2층","indutype":"학원 - 예·체능계학원","category":"study"}]},{"lat":"37.484842135","long":"126.76524179","imageIndex":16,"items":[{"name":"개인과외","tel":"","addr":"경기도 부천시 송내동 372번지 중동역푸르지오아파트","indutype":"학원 - 기타 교육기관","category":"study"}]},{"lat":"37.485710994","long":"126.76271766","imageIndex":16,"items":[{"name":"경희대 펀 태권도","tel":"032-666-7658","addr":"경기도 부천시 송내동 368번지","indutype":"학원 - 예·체능계학원","category":"study"},{"name":"김현수학교습소","tel":"032-656-1907","addr":"경기도 부천시 송내동 368번지 뉴서울상가3층304호","indutype":"회원제형태 - 학원","category":"study"},{"name":"박현주해법보습학원","tel":"032-656-1105","addr":"경기도 부천시 송내동 368번지 뉴서울상가 305호","indutype":"학원 - 보습학원","category":"study"},{"name":"엘리온 영어","tel":"032-657-9997","addr":"경기도 부천시 송내동 368번지 뉴서울상가 201호","indutype":"학원 - 외국어학원","category":"study"},{"name":"엠베스트 에스이(SE)시흥안산지사","tel":"031-318-1739","addr":"경기도 부천시 송내동 368번지 뉴서울아파트","indutype":"학원 - 보습학원","category":"study"},{"name":"천재바둑교습소","tel":"032-653-1128","addr":"경기도 부천시 송내동 368 뉴서울상가2층 216-2","indutype":"학원 - 기타 교육기관","category":"study"},{"name":"하늘소리음악학원","tel":"032-655-6331","addr":"경기도 부천시 송내동 368번지 상가동 208,209호","indutype":"학원 - 예·체능계학원","category":"study"}]},{"lat":"37.485348665","long":"126.76176907","imageIndex":16,"items":[{"name":"경희대체육관","tel":"032-666-7657","addr":"경기도 부천시 송내동 369번지 양지빌딩 301호","indutype":"학원 - 예·체능계학원","category":"study"}]},{"lat":"37.484263383","long":"126.76419212","imageIndex":16,"items":[{"name":"경희대효(  )태권도장","tel":"032-661-0013","addr":"경기도 부천시 송내동 373번지 대우프라자 6층 604호","indutype":"학원 - 예·체능계학원","category":"study"},{"name":"단비 무용 학원","tel":"032-612-1927","addr":"경기도 부천시 송내동 373번지 대우프라자 607호","indutype":"학원 - 예·체능계학원","category":"study"},{"name":"리틀송내스케치미술교습소","tel":"032-667-3266","addr":"경기도 부천시 송내동 373번지 대우프라자 703호","indutype":"학원 - 예·체능계학원","category":"study"},{"name":"부천공무원합격의신고시학원","tel":"032-665-7377","addr":"경기도 부천시 송내동 373번지 대우프라자 1001호","indutype":"학원 - 보습학원","category":"study"},{"name":"부천베가스어학원","tel":"032-614-1002","addr":"경기도 부천시 송내동 373번지 대우프라자 5층 506호","indutype":"학원 - 외국어학원","category":"study"},{"name":"비바체음악학원","tel":"032-663-0011","addr":"경기도 부천시 송내동 373번지 대우프라자 705호","indutype":"학원 - 예·체능계학원","category":"study"},{"name":"업앤업보습학원","tel":"032-652-1251","addr":"경기도 부천시 송내동 373번지 대우프라자 7층 707호","indutype":"회원제형태 - 학원","category":"study"},{"name":"편혜영논술학원","tel":"032-657-7720","addr":"경기도 부천시 송내동 373번지 대우프라자 706호","indutype":"회원제형태 - 학원","category":"study"}]},{"lat":"37.480181318","long":"126.76841086","imageIndex":16,"items":[{"name":"공권유술 부천송내점","tel":"032-667-1239","addr":"경기도 부천시 송내동 454번지","indutype":"학원 - 예·체능계학원","category":"study"},{"name":"송내원진해동검도","tel":"032-666-2205","addr":"경기도 부천시 송내동 454번지 4층","indutype":"학원 - 예·체능계학원","category":"study"},{"name":"에이치앤제이(HnJ)영어수학보습학원","tel":"032-665-5105","addr":"경기도 부천시 송내동 454번지 3층","indutype":"학원 - 보습학원","category":"study"}]},{"lat":"37.486842385","long":"126.7608258","imageIndex":16,"items":[{"name":"기초튼튼영어교습소","tel":"054-655-0501","addr":"경기도 부천시 송내동 363-10번지 덕산빌딩 107호","indutype":"학원 - 외국어학원","category":"study"},{"name":"기초튼튼영어교습소","tel":"","addr":"경기도 부천시 송내동 363-10번지 덕산빌딩 107호","indutype":"학원 - 외국어학원","category":"study"}]},{"lat":"37.48332172","long":"126.76191125","imageIndex":16,"items":[{"name":"김미라음악교습소","tel":"032-212-5841","addr":"경기도 부천시 송내동 396번지","indutype":"학원 - 예·체능계학원","category":"study"},{"name":"영재주니어미술학원","tel":"032-613-2232","addr":"경기도 부천시 송내동 396번지 2층","indutype":"학원 - 예·체능계학원","category":"study"}]},{"lat":"37.479295017","long":"126.76674039","imageIndex":16,"items":[{"name":"끈기와열정보습학원","tel":"032-667-3200","addr":"경기도 부천시 송내동 464-1번지 2층","indutype":"학원 - 보습학원","category":"study"},{"name":"송내지엠에스아카데미보습학원","tel":"032-8778-1005","addr":"경기도 부천시 송내동 464-1번지 3층","indutype":"학원 - 보습학원","category":"study"},{"name":"하우스터디부천송내센터독서실","tel":"032-612-3240","addr":"경기도 부천시 송내동 464-1번지 ,5,6층","indutype":"학원 - 독서실","category":"study"},{"name":"하우스터디부천송내센터모임공간","tel":"032-612-3240","addr":"경기도 부천시 송내동 464-1번지 5층 일부","indutype":"학원 - 독서실","category":"study"}]},{"lat":"37.486176233","long":"126.76555415","imageIndex":16,"items":[{"name":"노블레스태권도","tel":"031-663-5055","addr":"경기도 부천시 송내동 504번지 204호","indutype":"학원 - 예·체능계학원","category":"study"}]},{"lat":"37.479957641","long":"126.76469197","imageIndex":16,"items":[{"name":"논리수학 보습학원","tel":"032-611-3083","addr":"경기도 부천시 송내동 433-14번지 2층","indutype":"학원 - 보습학원","category":"study"}]},{"lat":"37.481454463","long":"126.76979752","imageIndex":16,"items":[{"name":"다니엘영수보습학원","tel":"032-221-7307","addr":"경기도 부천시 송내동 588-9번지 2층","indutype":"학원 - 보습학원","category":"study"}]},{"lat":"37.484404589","long":"126.7540272","imageIndex":16,"items":[{"name":"단테음악교습소","tel":"032-611-9353","addr":"경기도 부천시 송내동 315-3번지 송내역 파인푸르지오2단지 상가동지 1층 103호","indutype":"학원 - 예·체능계학원","category":"study"}]},{"lat":"37.479877326","long":"126.76507662","imageIndex":16,"items":[{"name":"독한수학보습학원","tel":"032-663-8324","addr":"경기도 부천시 송내동 433-11번지 2층","indutype":"학원 - 보습학원","category":"study"},{"name":"창작미술음악학원","tel":"032-613-7271","addr":"경기도 부천시 송내동 433-11번지 3층 일부","indutype":"학원 - 예·체능계학원","category":"study"}]},{"lat":"37.483459925","long":"126.76341455","imageIndex":16,"items":[{"name":"류수학보습학원","tel":"032-668-3524","addr":"경기도 부천시 송내동 393번지 (3,4층일부,5층)","indutype":"학원 - 보습학원","category":"study"},{"name":"송내정미정수학보습학원","tel":"032-613-1211","addr":"경기도 부천시 송내동 393번지 성보빌딩 403호","indutype":"학원 - 보습학원","category":"study"}]},{"lat":"37.48604164","long":"126.7527215","imageIndex":16,"items":[{"name":"마블러스(Marvelous)영어수학보습학원","tel":"032-613-0170","addr":"경기도 부천시 송내동 709-7번지 2층 204호","indutype":"학원 - 보습학원","category":"study"}]},{"lat":"37.48001326","long":"126.76999419","imageIndex":16,"items":[{"name":"맑은소리음악교습소","tel":"","addr":"경기도 부천시 송내동 609번지 2층","indutype":"학원 - 예·체능계학원","category":"study"}]},{"lat":"37.483872681","long":"126.76257656","imageIndex":16,"items":[{"name":"메가수학카아영어보습학원","tel":"032-661-0960","addr":"경기도 부천시 송내동 366-7,8","indutype":"학원 - 보습학원","category":"study"}]},{"lat":"37.486960814","long":"126.75279759","imageIndex":16,"items":[{"name":"메이저실용음악학원","tel":"032-612-1279","addr":"경기도 부천시 송내동 709-1번지 503동 504호","indutype":"회원제형태 - 학원","category":"study"}]},{"lat":"37.479649779","long":"126.76843513","imageIndex":16,"items":[{"name":"명문태권도","tel":"032-655-5423","addr":"경기도 부천시 송내동 454-11번지 2층","indutype":"학원 - 예·체능계학원","category":"study"}]},{"lat":"37.486678219","long":"126.7512495","imageIndex":16,"items":[{"name":"몽트레조 베이킹 스튜디오","tel":"070-7783-9919","addr":"경기도 부천시 송내동 699-9번지 1층 동쪽 12평","indutype":"학원 - 기능학원","category":"study"}]},{"lat":"37.483870468","long":"126.76149116","imageIndex":16,"items":[{"name":"바른독서실","tel":"032-668-2825","addr":"경기도 부천시 송내동 366번지 상승프라자 402호","indutype":"학원 - 독서실","category":"study"},{"name":"바른독서실","tel":"032-666-2825","addr":"경기도 부천시 송내동 366번지 상승프라자 402호","indutype":"학원 - 독서실","category":"study"},{"name":"부천직업전문학교","tel":"032-664-6688","addr":"경기도 부천시 송내동 366번지 상승프라자 제201호 ,202,203,301,302호,501호","indutype":"회원제형태 - 학원","category":"study"}]},{"lat":"37.485622129","long":"126.74616507","imageIndex":16,"items":[{"name":"바스키움농구교실","tel":"","addr":"경기도 부천시 송내동 664번지 1층","indutype":"학원 - 예·체능계학원","category":"study"}]},{"lat":"37.479651213","long":"126.76915869","imageIndex":16,"items":[{"name":"봄날피아노교습소","tel":"","addr":"경기도 부천시 송내동 461-6번지 1층","indutype":"학원 - 예·체능계학원","category":"study"}]},{"lat":"37.479343736","long":"126.76408341","imageIndex":16,"items":[{"name":"부천정도태권도","tel":"032-651-2923","addr":"경기도 부천시 송내동 453-29번지 3층","indutype":"학원 - 예·체능계학원","category":"study"}]},{"lat":"37.485627114","long":"126.75268897","imageIndex":16,"items":[{"name":"산재요양보호사교육원","tel":"032-662-5777","addr":"경기도 부천시 송내동 708-2번지 202호","indutype":"회원제형태 - 학원","category":"study"}]},{"lat":"37.479177165","long":"126.76637898","imageIndex":16,"items":[{"name":"삼성영어수학송내보습학원","tel":"032-613-3305","addr":"경기도 부천시 송내동 464-2번지 2층 2호","indutype":"학원 - 보습학원","category":"study"}]},{"lat":"37.487095191","long":"126.75672061","imageIndex":16,"items":[{"name":"새도레미피아노학원","tel":"032-656-3660","addr":"경기도 부천시 송내동 349-9번지","indutype":"학원 - 기타 교육기관","category":"study"}]},{"lat":"37.486955513","long":"126.75888067","imageIndex":16,"items":[{"name":"새샘보습학원","tel":"032-668-2388","addr":"경기도 부천시 송내동 355-8번지","indutype":"학원 - 기타 교육기관","category":"study"},{"name":"새샘속셈학원","tel":"032-664-7869","addr":"경기도 부천시 송내동 355-8번지","indutype":"학원 - 기타 교육기관","category":"study"},{"name":"서울도배학원","tel":"032-654-0331","addr":"경기도 부천시 송내동 355-8번지","indutype":"회원제형태 - 학원","category":"study"}]},{"lat":"37.479176666","long":"126.76613026","imageIndex":16,"items":[{"name":"새열린음악학원","tel":"032-666-3170","addr":"경기도 부천시 송내동 463-68번지 3층","indutype":"학원 - 예·체능계학원","category":"study"}]},{"lat":"37.479676383","long":"126.76822024","imageIndex":16,"items":[{"name":"새한음악학원","tel":"032-654-5137","addr":"경기도 부천시 송내동 454-18번지 2동","indutype":"학원 - 예·체능계학원","category":"study"}]},{"lat":"37.484154049","long":"126.77266096","imageIndex":16,"items":[{"name":"센츄리헬스","tel":"032-666-5551","addr":"경기도 부천시 송내동 564-4번지","indutype":"회원제형태 - 학원","category":"study"}]},{"lat":"37.481286564","long":"126.77147132","imageIndex":16,"items":[{"name":"셀파 우등생 그루교실","tel":"032-661-3717","addr":"경기도 부천시 송내동 592-5번지 삼송연립 라동 206호","indutype":"학원 - 기타 교육기관","category":"study"}]},{"lat":"37.480013639","long":"126.77018639","imageIndex":16,"items":[{"name":"셀파우등생무지개교실","tel":"032-656-2097","addr":"경기도 부천시 송내동 609-11번지 LG맨션나동302호","indutype":"회원제형태 - 학원","category":"study"}]},{"lat":"37.486119551","long":"126.75549138","imageIndex":16,"items":[{"name":"송내최강보습학원","tel":"032-661-1220","addr":"경기도 부천시 송내동 302-8번지 3층","indutype":"학원 - 보습학원","category":"study"}]},{"lat":"37.479373432","long":"126.76540608","imageIndex":16,"items":[{"name":"송내한맥프라임보습학원","tel":"032-664-9845","addr":"경기도 부천시 송내동 450-8번지","indutype":"학원 - 보습학원","category":"study"},{"name":"엠에이스튜디오","tel":"02-833-9620","addr":"경기도 부천시 송내동 450-8번지 4동일부","indutype":"학원 - 예·체능계학원","category":"study"}]},{"lat":"37.48270854","long":"126.76166449","imageIndex":16,"items":[{"name":"송일백호태권도","tel":"032-614-1005","addr":"경기도 부천시 송내동 398-1번지 2층","indutype":"학원 - 예·체능계학원","category":"study"}]},{"lat":"37.483404673","long":"126.7628268","imageIndex":16,"items":[{"name":"숲속산소독서실","tel":"032-668-9919","addr":"경기도 부천시 송내동 393-6번지 5층","indutype":"학원 - 독서실","category":"study"}]},{"lat":"37.480426497","long":"126.76486007","imageIndex":16,"items":[{"name":"쎈수학러닝센터 송내서진보습학원","tel":"032-613-3305","addr":"경기도 부천시 송내동 434-2번지 경원빌라 2층","indutype":"학원 - 보습학원","category":"study"}]},{"lat":"37.48540509","long":"126.75421609","imageIndex":16,"items":[{"name":"씽크앤아트부천송내점미술교습소","tel":"032-347-1218","addr":"경기도 부천시 송내동 315번지 송내역파인푸르지오1단지 가동 B115호","indutype":"학원 - 예·체능계학원","category":"study"}]},{"lat":"37.479259474","long":"126.76698923","imageIndex":16,"items":[{"name":"아르테(Arte)음악학원","tel":"032-663-6767","addr":"경기도 부천시 송내동 463-62번지 4층","indutype":"학원 - 예·체능계학원","category":"study"}]},{"lat":"37.478960089","long":"126.76596136","imageIndex":16,"items":[{"name":"아이위시영어보습학원","tel":"031-612-7025","addr":"경기도 부천시 송내동 450-3번지 유진프라자 103,104호","indutype":"학원 - 외국어학원","category":"study"}]},{"lat":"37.486678556","long":"126.7514078","imageIndex":16,"items":[{"name":"아카데미랭귀지센터","tel":"","addr":"경기도 부천시 송내동 699-8번지 3층","indutype":"학원 - 기타 교육기관","category":"study"}]},{"lat":"37.48695462","long":"126.75413181","imageIndex":16,"items":[{"name":"에이투 고시텔","tel":"032-667-2530","addr":"경기도 부천시 송내동 299-7번지 2층","indutype":"학원 - 독서실","category":"study"}]},{"lat":"37.479626547","long":"126.77035718","imageIndex":16,"items":[{"name":"에이플러스방과후보습학원","tel":"032-668-0966","addr":"경기도 부천시 송내동 609-10번지 3층","indutype":"학원 - 보습학원","category":"study"},{"name":"한양태권도체육관","tel":"032-656-8630","addr":"경기도 부천시 송내동 609-10번지","indutype":"학원 - 예·체능계학원","category":"study"}]},{"lat":"37.480037886","long":"126.7642734","imageIndex":16,"items":[{"name":"엠투유수학교습소","tel":"032-664-9845","addr":"경기도 부천시 송내동 433-17번지 2층","indutype":"학원 - 보습학원","category":"study"},{"name":"엠투유수학교습소","tel":"032-669-9845","addr":"경기도 부천시 송내동 433-17번지 2층","indutype":"학원 - 보습학원","category":"study"}]},{"lat":"37.479845195","long":"126.76255554","imageIndex":16,"items":[{"name":"영지","tel":"032-656-4200","addr":"경기도 부천시 송내동 441-13번지 3층","indutype":"학원 - 기타 교육기관","category":"study"}]},{"lat":"37.479650877","long":"126.76898911","imageIndex":16,"items":[{"name":"예율음악교습소","tel":"032-661-3538","addr":"경기도 부천시 송내동 461-4번지 1층","indutype":"학원 - 예·체능계학원","category":"study"}]},{"lat":"37.484898019","long":"126.77069134","imageIndex":16,"items":[{"name":"예인미술 (개인과외)","tel":"032-663-4198","addr":"경기도 부천시 송내동 558-1번지 송원씨티홈 101동 101호","indutype":"학원 - 기타 교육기관","category":"study"}]},{"lat":"37.4848764","long":"126.75993893","imageIndex":16,"items":[{"name":"우성공부방","tel":"032-662-1212","addr":"경기도 부천시 송내동 340번지 우성아파트","indutype":"학원 - 보습학원","category":"study"}]},{"lat":"37.48523149","long":"126.76174683","imageIndex":16,"items":[{"name":"이쌤수학교습소","tel":"032-655-0826","addr":"경기도 부천시 송내동 369-1번지 서진빌딩 3층 2호","indutype":"학원 - 보습학원","category":"study"},{"name":"하이스트음악학원","tel":"032-655-3253","addr":"경기도 부천시 송내동 369-1,2층","indutype":"회원제형태 - 학원","category":"study"}]},{"lat":"37.485821749","long":"126.76401757","imageIndex":16,"items":[{"name":"이앤진호크마보습학원","tel":"032-613-0982","addr":"경기도 부천시 송내동 370-3번지 대지빌딩 5층","indutype":"학원 - 보습학원","category":"study"}]},{"lat":"37.485093496","long":"126.76930003","imageIndex":16,"items":[{"name":"자람 책놀이 연구소","tel":"070-4383-3705","addr":"경기도 부천시 송내동 378-3번지 부천 중동역 2차 푸르지오 B단지","indutype":"학원 - 기타 교육기관","category":"study"}]},{"lat":"37.485179508","long":"126.76724198","imageIndex":16,"items":[{"name":"정수학교습소","tel":"032-661-2103","addr":"경기도 부천시 송내동 377-7,중동역푸르지오A단지상가204","indutype":"회원제형태 - 학원","category":"study"},{"name":"푸르지오교실","tel":"070-4028-5615","addr":"경기도 부천시 송내동 377-7번지 부천 중동역 2차 푸르지오 A단지","indutype":"회원제형태 - 학원","category":"study"},{"name":"푸른빌피아노교습소","tel":"032-614-7464","addr":"경기도 부천시 송내동 377-7번지 중동역2차푸르지오A단지 상가동 201호","indutype":"학원 - 예·체능계학원","category":"study"}]},{"lat":"37.483480915","long":"126.7648843","imageIndex":16,"items":[{"name":"주식회사 가원조경기술학원","tel":"032-662-9066","addr":"경기도 부천시 송내동 389-2번지 2층","indutype":"회원제형태 - 학원","category":"study"},{"name":"트인수학보습학원","tel":"","addr":"경기도 부천시 송내동 389-2번지 2층 우측 일부호","indutype":"학원 - 보습학원","category":"study"}]},{"lat":"37.482570214","long":"126.76904785","imageIndex":16,"items":[{"name":"주식회사 킥스잉글리쉬","tel":"032-668-2213","addr":"경기도 부천시 송내동 382-3번지 1층","indutype":"학원 - 기타 교육기관","category":"study"}]},{"lat":"37.486182258","long":"126.76407295","imageIndex":16,"items":[{"name":"중동역 고시원","tel":"","addr":"경기도 부천시 송내동 370번지 조은빌딩 3,4층 301호","indutype":"학원 - 독서실","category":"study"}]},{"lat":"37.479678801","long":"126.76944125","imageIndex":16,"items":[{"name":"즐거운조이아트 미술교습소","tel":"032-665-2340","addr":"경기도 부천시 송내동 461-17번지","indutype":"학원 - 예·체능계학원","category":"study"}]},{"lat":"37.479984374","long":"126.76454491","imageIndex":16,"items":[{"name":"채선생보습학원","tel":"032-655-1907","addr":"경기도 부천시 송내동 433-15번지 2층","indutype":"학원 - 보습학원","category":"study"}]},{"lat":"37.483210641","long":"126.76046441","imageIndex":16,"items":[{"name":"최고보습학원","tel":"032-656-4001","addr":"경기도 부천시 송내동 400-35번지 서울빌딩 5층","indutype":"학원 - 기타 교육기관","category":"study"}]},{"lat":"37.484954621","long":"126.75854798","imageIndex":16,"items":[{"name":"코코아ing","tel":"032-897-7712","addr":"경기도 부천시 송내동 335-15번지","indutype":"학원 - 기타 교육기관","category":"study"}]},{"lat":"37.48620229","long":"126.76063565","imageIndex":16,"items":[{"name":"키즈펀펀스쿨(경기지사)","tel":"032-345-4567","addr":"경기도 부천시 송내동 367번지 욱일아파트","indutype":"회원제형태 - 학원","category":"study"}]},{"lat":"37.483732332","long":"126.76896508","imageIndex":16,"items":[{"name":"토즈스터디센터송내독서실","tel":"032-611-1557","addr":"경기도 부천시 송내동 381번지 5층 501호","indutype":"학원 - 독서실","category":"study"}]},{"lat":"37.483680083","long":"126.76988106","imageIndex":16,"items":[{"name":"파이널유도멀티짐","tel":"070-7661-6565","addr":"경기도 부천시 송내동 586번지 4층","indutype":"학원 - 예·체능계학원","category":"study"}]},{"lat":"37.48484372","long":"126.76157848","imageIndex":16,"items":[{"name":"판테온미술학원","tel":"032-668-3359","addr":"경기도 부천시 송내동 365-5번지 동궁빌딩 3층 2호","indutype":"학원 - 예·체능계학원","category":"study"}]},{"lat":"37.485682758","long":"126.75774284","imageIndex":16,"items":[{"name":"필하모니음악학원","tel":"032-653-9776","addr":"경기도 부천시 송내동 333-1번지","indutype":"학원 - 예·체능계학원","category":"study"}]},{"lat":"37.483933268","long":"126.75699103","imageIndex":16,"items":[{"name":"한국칼림바음악교육협회","tel":"032-000-0000","addr":"경기도 부천시 송내동 329-27번지 한솔빌라 106동 201호","indutype":"학원 - 기타 교육기관","category":"study"}]},{"lat":"37.484176339","long":"126.77024132","imageIndex":16,"items":[{"name":"해드림요양보호사교육원","tel":"032-613-8190","addr":"경기도 부천시 송내동 557-3번지 2층","indutype":"회원제형태 - 학원","category":"study"}]},{"lat":"37.479760652","long":"126.7653031","imageIndex":16,"items":[{"name":"현대해법영어보습학원","tel":"032-666-0507","addr":"경기도 부천시 송내동 433-25번지 2층","indutype":"학원 - 보습학원","category":"study"}]},{"lat":"37.48248159","long":"126.76979433","imageIndex":16,"items":[{"name":"홍익태권도","tel":"032-651-1034","addr":"경기도 부천시 송내동 587-3번지","indutype":"학원 - 예·체능계학원","category":"study"}]}]