[{"lat":"37.17074446","long":"126.89185157","imageIndex":0,"items":[{"name":"경기상사","tel":"","addr":"경기도 화성시 팔탄면 구장리 3-19번지 1층","indutype":"자동차정비 유지 - 자동차정비","category":"car"}]},{"lat":"37.169332797","long":"126.89507381","imageIndex":0,"items":[{"name":"광명오토","tel":"031-352-4829","addr":"경기도 화성시 팔탄면 구장리 38-35번지","indutype":"자동차정비 유지 - 자동차부품","category":"car"}]},{"lat":"37.16996969","long":"126.89198782","imageIndex":0,"items":[{"name":"대신유화","tel":"031-8059-5152","addr":"경기도 화성시 팔탄면 구장리 7-1번지 1층","indutype":"자동차정비 유지 - 윤활유 전문 판매","category":"car"}]},{"lat":"37.170330988","long":"126.89293309","imageIndex":0,"items":[{"name":"대한타이어판매카써비스(한국타이어타운)","tel":"031-366-6690","addr":"경기도 화성시 팔탄면 구장리 5번지","indutype":"자동차정비 유지 - 자동차시트·타이어","category":"car"}]},{"lat":"37.163610278","long":"126.90440396","imageIndex":0,"items":[{"name":"동화공업사","tel":"031-366-7833","addr":"경기도 화성시 팔탄면 구장리 696-1번지","indutype":"자동차정비 유지 - 자동차정비","category":"car"},{"name":"동화상사","tel":"031-354-8673","addr":"경기도 화성시 팔탄면 구장리 696-1번지 1층","indutype":"자동차정비 유지 - 자동차부품","category":"car"}]},{"lat":"37.171195204","long":"126.90218724","imageIndex":0,"items":[{"name":"디케이(DK)","tel":"070-8252-2889","addr":"경기도 화성시 팔탄면 구장리 74-7번지","indutype":"자동차정비 유지 - 카인테리어","category":"car"}]},{"lat":"37.16122309","long":"126.90510506","imageIndex":0,"items":[{"name":"비비오토서비스","tel":"031-354-5152","addr":"경기도 화성시 팔탄면 구장리 560번지","indutype":"자동차정비 유지 - 자동차정비","category":"car"}]},{"lat":"37.170997508","long":"126.89266189","imageIndex":0,"items":[{"name":"상진레이저","tel":"031-354-1955","addr":"경기도 화성시 팔탄면 구장리 3-10번지","indutype":"자동차정비 유지 - 자동차부품","category":"car"}]},{"lat":"37.168079329","long":"126.89396093","imageIndex":0,"items":[{"name":"서해카센타","tel":"031-52-0068","addr":"경기도 화성시 팔탄면 구장리 18번지","indutype":"자동차정비 유지 - 자동차정비","category":"car"}]},{"lat":"37.171306509","long":"126.89554391","imageIndex":0,"items":[{"name":"신현대특장","tel":"031-8059-0616","addr":"경기도 화성시 팔탄면 구장리 40","indutype":"자동차판매 - 기타운송","category":"car"},{"name":"오륜종합특장","tel":"031-8059-0616","addr":"경기도 화성시 팔탄면 구장리 40","indutype":"자동차판매 - 기타운송","category":"car"}]},{"lat":"37.156110573","long":"126.9119111","imageIndex":0,"items":[{"name":"에스오에스화성","tel":"070-8947-4490","addr":"경기도 화성시 팔탄면 구장리 957-10번지 3층","indutype":"자동차정비 유지 - 견인서비스","category":"car"},{"name":"에스오에스화성","tel":"031-352-1673","addr":"경기도 화성시 팔탄면 구장리 957-10번지 3층","indutype":"자동차정비 유지 - 자동차부품","category":"car"}]},{"lat":"37.170915584","long":"126.8917725","imageIndex":0,"items":[{"name":"에이케이(AK)툴마트","tel":"031-357-3981","addr":"경기도 화성시 팔탄면 구장리 3-27번지 3호","indutype":"자동차정비 유지 - 자동차부품","category":"car"}]},{"lat":"37.161222353","long":"126.90421567","imageIndex":0,"items":[{"name":"오토플러스카","tel":"031-352-5580","addr":"경기도 화성시 팔탄면 구장리 556-7번지","indutype":"자동차정비 유지 - 자동차정비","category":"car"}]},{"lat":"37.16985643","long":"126.89621026","imageIndex":0,"items":[{"name":"완리타이어코리아","tel":"031-405-1152","addr":"경기도 화성시 팔탄면 구장리 37-1번지 B동","indutype":"자동차정비 유지 - 자동차시트·타이어","category":"car"}]},{"lat":"37.161609172","long":"126.90346087","imageIndex":0,"items":[{"name":"이동빵구","tel":"070-4755-4786","addr":"경기도 화성시 팔탄면 구장리 554-2번지 201호","indutype":"자동차정비 유지 - 자동차정비","category":"car"}]},{"lat":"37.172718433","long":"126.90273695","imageIndex":0,"items":[{"name":"제일로링","tel":"031-366-2917","addr":"경기도 화성시 팔탄면 구장리 75-14번지","indutype":"자동차정비 유지 - 자동차부품","category":"car"}]},{"lat":"37.172240174","long":"126.90190436","imageIndex":0,"items":[{"name":"주식회사 내차애모터스","tel":"031-8059-7797","addr":"경기도 화성시 팔탄면 구장리 75-29번지 C동 202호","indutype":"자동차판매 - 중고자동차판매","category":"car"}]},{"lat":"37.169965974","long":"126.89779769","imageIndex":0,"items":[{"name":"주식회사성진테크","tel":"031-354-4167","addr":"경기도 화성시 팔탄면 구장리 35-4번지","indutype":"자동차판매 - 기타운송","category":"car"}]},{"lat":"37.153775549","long":"126.89932854","imageIndex":0,"items":[{"name":"카코디샵","tel":"031-354-1464","addr":"경기도 화성시 팔탄면 구장리 395-9번지 1층 2호","indutype":"자동차정비 유지 - 자동차부품","category":"car"}]},{"lat":"37.16216211","long":"126.89687406","imageIndex":0,"items":[{"name":"타이어아울렛 팔탄점","tel":"031-352-1819","addr":"경기도 화성시 팔탄면 구장리 142-4번지","indutype":"자동차정비 유지 - 자동차시트·타이어","category":"car"},{"name":"타이어아울렛 팔탄점","tel":"031-352-1819","addr":"경기도 화성시 팔탄면 구장리 142-4번지 1층","indutype":"자동차정비 유지 - 자동차시트·타이어","category":"car"}]},{"lat":"37.170437873","long":"126.89160431","imageIndex":0,"items":[{"name":"팀탑라인모터스(TEAM TOP LINE MOTORS)","tel":"031-352-3529","addr":"경기도 화성시 팔탄면 구장리 3-42번지","indutype":"자동차정비 유지 - 자동차시트·타이어","category":"car"}]},{"lat":"37.161055256","long":"126.90927078","imageIndex":0,"items":[{"name":"팔탄손세차","tel":"031-1577-0000","addr":"경기도 화성시 팔탄면 구장리 849-2번지","indutype":"자동차정비 유지 - 세차장","category":"car"}]},{"lat":"37.162690979","long":"126.9041237","imageIndex":0,"items":[{"name":"팔탄오토바이","tel":"070-4686-9412","addr":"경기도 화성시 팔탄면 구장리 567-5번지","indutype":"자동차판매 - 이륜차판매","category":"car"}]},{"lat":"37.161244608","long":"126.90943942","imageIndex":0,"items":[{"name":"팔탄카센타","tel":"031-353-5100","addr":"경기도 화성시 팔탄면 구장리 846-3번지","indutype":"자동차정비 유지 - 자동차정비","category":"car"}]},{"lat":"37.148865059","long":"126.89957162","imageIndex":0,"items":[{"name":"현성모터스","tel":"031-366-4544","addr":"경기도 화성시 팔탄면 구장리 1015-2","indutype":"자동차정비 유지 - 자동차정비","category":"car"}]}]