[{"lat":"37.825221209","long":"127.02888093","imageIndex":17,"items":[{"name":"(재)선학원 지장사","tel":"031-863-1888","addr":"경기도 양주시 덕계동 752-2번지","indutype":"기타 - 비영리/대상","category":"other"}]},{"lat":"37.822305272","long":"127.04831309","imageIndex":17,"items":[{"name":"(주)베이비플러스","tel":"031-204-5789","addr":"경기도 양주시 덕계동 480-16번지 원재빌딩 2층 1호 2호","indutype":"의류 - 아동의류","category":"other"},{"name":"베이비플러스","tel":"031-858-8589","addr":"경기도 양주시 덕계동 480-16번지 원재빌딩 A동 2층","indutype":"의류 - 아동의류","category":"other"}]},{"lat":"37.818278711","long":"127.04657298","imageIndex":17,"items":[{"name":"(주)원하환경","tel":"031-857-4077","addr":"경기도 양주시 덕계동 420-3","indutype":"용역 서비스 - 종합용역","category":"other"}]},{"lat":"37.812981607","long":"127.04534337","imageIndex":17,"items":[{"name":"3장만원","tel":"031-861-6553","addr":"경기도 양주시 덕계동 717-3","indutype":"의류 - 정장","category":"other"}]},{"lat":"37.816674069","long":"127.04909327","imageIndex":17,"items":[{"name":"GS25덕계신우점","tel":"","addr":"경기도 양주시 덕계동 411-85번지","indutype":"유통업 영리 - 편 의 점","category":"other"}]},{"lat":"37.818035591","long":"127.04620941","imageIndex":17,"items":[{"name":"GS25덕계영토점","tel":"","addr":"경기도 양주시 덕계동 420-9번지 영토빌딩 105,106호","indutype":"유통업 영리 - 편 의 점","category":"other"},{"name":"굿모닝투어","tel":"031-859-9903","addr":"경기도 양주시 덕계동 420-9번지 304호","indutype":"여행 - 관광여행","category":"other"},{"name":"덕계텔레콤","tel":"031-858-1029","addr":"경기도 양주시 덕계동 420-9번지 영토빌딩 1층 107호","indutype":"사무통신 - 통신기기","category":"other"},{"name":"별스튜디오","tel":"031-864-1654","addr":"경기도 양주시 덕계동 420-9번지 영토빌딩 1층 108호","indutype":"광학제품 - 사진관","category":"other"},{"name":"해와달요양원","tel":"031-864-0011","addr":"경기도 양주시 덕계동 420-9번지 6층 7층","indutype":"기타의료기관 - 기타의료기관 및 기타","category":"other"}]},{"lat":"37.821334055","long":"127.04337192","imageIndex":17,"items":[{"name":"GS25덕계평화점","tel":"080-555-2525","addr":"경기도 양주시 덕계동 656-6번지 1층","indutype":"유통업 영리 - 편 의 점","category":"other"}]},{"lat":"37.807037689","long":"127.0610105","imageIndex":17,"items":[{"name":"GS25덕계현진점","tel":"","addr":"경기도 양주시 덕계동 856번지 현진에버빌단지 상가동 102~103호","indutype":"유통업 영리 - 편 의 점","category":"other"}]},{"lat":"37.819863989","long":"127.04759608","imageIndex":17,"items":[{"name":"GS25양주덕계점","tel":"","addr":"경기도 양주시 덕계동 456-1번지","indutype":"유통업 영리 - 편 의 점","category":"other"},{"name":"미래패션","tel":"031-865-5274","addr":"경기도 양주시 덕계동 456-1번지","indutype":"의류 - 정장","category":"other"},{"name":"회천유리","tel":"031-868-6262","addr":"경기도 양주시 덕계동 456-1번지","indutype":"건축자재 - 유리","category":"other"}]},{"lat":"37.821782799","long":"127.04811969","imageIndex":17,"items":[{"name":"LHB행정사 사무소","tel":"031-864-1325","addr":"경기도 양주시 덕계동 475-1번지 1층","indutype":"용역 서비스 - 법률회계서비스(개인)","category":"other"},{"name":"고려행정사합동사무소","tel":"031-858-7807","addr":"경기도 양주시 덕계동 475-1번지","indutype":"용역 서비스 - 법률회계서비스(개인)","category":"other"},{"name":"삼천리덕계대리점","tel":"031-864-5285","addr":"경기도 양주시 덕계동 475-1번지","indutype":"레져용품 - 스포츠·레져용품","category":"other"},{"name":"양주 행정사 사무소","tel":"031-866-8915","addr":"경기도 양주시 덕계동 475-1번지","indutype":"용역 서비스 - 법률회계서비스(개인)","category":"other"},{"name":"주식회사휴메인","tel":"02-599-1676","addr":"경기도 양주시 덕계동 475-1번지 2층","indutype":"여행 - 관광여행","category":"other"}]},{"lat":"37.821701605","long":"127.04840359","imageIndex":17,"items":[{"name":"MRT","tel":"031-863-2008","addr":"경기도 양주시 덕계동 474-6번지 승정빌딩","indutype":"사무통신 - 통신기기","category":"other"},{"name":"주식회사 코랩","tel":"031-863-2211","addr":"경기도 양주시 덕계동 474-6번지 승정빌딩 3층","indutype":"서적문구 - 과학기자재","category":"other"}]},{"lat":"37.825583747","long":"127.05073442","imageIndex":17,"items":[{"name":"Ongolf(온골프)","tel":"070-7301-2559","addr":"경기도 양주시 덕계동 496번지 1층","indutype":"레져용품 - 골프용품 전문점","category":"other"},{"name":"대림도기","tel":"031-858-0311","addr":"경기도 양주시 덕계동 496번지 토리골프클럽1층일부","indutype":"건축자재 - 건축용 요업제품","category":"other"},{"name":"디스포츠","tel":"031-859-2498","addr":"경기도 양주시 덕계동 496번지","indutype":"레져용품 - 스포츠·레져용품","category":"other"},{"name":"지노조명전기백화점","tel":"031-858-0500","addr":"경기도 양주시 덕계동 496번지","indutype":"건축자재 - 조명기구","category":"other"},{"name":"토리골프클럽(주)","tel":"031-866-2122","addr":"경기도 양주시 덕계동 496번지","indutype":"회원제형태 - 레져업소","category":"other"}]},{"lat":"37.820476462","long":"127.04803939","imageIndex":17,"items":[{"name":"Rinnai","tel":"","addr":"경기도 양주시 덕계동 455-7번지","indutype":"건축자재 - 보일러·펌프·샷시","category":"other"}]},{"lat":"37.825305591","long":"127.04784924","imageIndex":17,"items":[{"name":"가나안유리","tel":"031-859-7703","addr":"경기도 양주시 덕계동 532-15번지","indutype":"회원제형태 - 기타4","category":"other"}]},{"lat":"37.819170241","long":"127.04765245","imageIndex":17,"items":[{"name":"개미공방","tel":"031-861-3708","addr":"경기도 양주시 덕계동 462-14번지 금광포란재아파트 101호 상가","indutype":"문화.취미 - 민예·공예품","category":"other"}]},{"lat":"37.810200764","long":"127.05945721","imageIndex":17,"items":[{"name":"거성디자인","tel":"031-859-5960","addr":"경기도 양주시 덕계동 98번지 B동","indutype":"건축자재 - 인테리어전문","category":"other"}]},{"lat":"37.816502898","long":"127.04907045","imageIndex":17,"items":[{"name":"경기유통","tel":"031-846-8701","addr":"경기도 양주시 덕계동 412-20번지","indutype":"회원제형태 - 기타1","category":"other"}]},{"lat":"37.82447612","long":"127.0494048","imageIndex":17,"items":[{"name":"경기재활용","tel":"031-863-0054","addr":"경기도 양주시 덕계동 507-3번지","indutype":"전기제품 - 가전제품","category":"other"},{"name":"코알라스튜디오","tel":"031-858-1752","addr":"경기도 양주시 덕계동 507-3번지 2층","indutype":"광학제품 - 사진관","category":"other"}]},{"lat":"37.817556905","long":"127.04932096","imageIndex":17,"items":[{"name":"광명전기LED조명공사","tel":"031-861-8904","addr":"경기도 양주시 덕계동 410번지 1층 1호","indutype":"건축자재 - 조명기구","category":"other"},{"name":"전산 O.A","tel":"031-876-8850","addr":"경기도 양주시 덕계동 410번지","indutype":"사무통신 - 기타 사무용품","category":"other"}]},{"lat":"37.823702362","long":"127.04665568","imageIndex":17,"items":[{"name":"구제몰","tel":"031-000-0000","addr":"경기도 양주시 덕계동 519-16번지 1층 3호","indutype":"의류 - 기타의류","category":"other"}]},{"lat":"37.823504133","long":"127.04671235","imageIndex":17,"items":[{"name":"극동컴퓨터세탁소","tel":"031-857-0921","addr":"경기도 양주시 덕계동 519-23번지","indutype":"수리서비스 - 세탁소","category":"other"}]},{"lat":"37.820782656","long":"127.04836895","imageIndex":17,"items":[{"name":"금산페인트","tel":"031-863-4287","addr":"경기도 양주시 덕계동 451-4번지","indutype":"건축자재 - 페인트","category":"other"},{"name":"크린토피아양주덕계점","tel":"031-862-0808","addr":"경기도 양주시 덕계동 451-4번지 1층 일부","indutype":"수리서비스 - 세탁소","category":"other"}]},{"lat":"37.813557577","long":"127.04706988","imageIndex":17,"items":[{"name":"금성산업계기","tel":"031-873-9440","addr":"경기도 양주시 덕계동 388-3","indutype":"기타 - 기타 전문점","category":"other"}]},{"lat":"37.810702085","long":"127.04570546","imageIndex":17,"items":[{"name":"금호냉동","tel":"031-863-2822","addr":"경기도 양주시 덕계동 721-10번지 B동 102호","indutype":"용역 서비스 - 기타용역서비스","category":"other"},{"name":"대성ENG","tel":"070-8624-1329","addr":"경기도 양주시 덕계동 721-10번지 C동 101호 102호","indutype":"전기제품 - 기타전기제품","category":"other"},{"name":"사람과건축","tel":"031-866-4281","addr":"경기도 양주시 덕계동 721-10번지","indutype":"건축자재 - 기타건축자재","category":"other"}]},{"lat":"37.820278306","long":"127.04790298","imageIndex":17,"items":[{"name":"낙원숲토탈인테리어","tel":"031-861-0482","addr":"경기도 양주시 덕계동 452-43번지 1층","indutype":"건축자재 - 인테리어전문","category":"other"}]},{"lat":"37.81825269","long":"127.04376774","imageIndex":17,"items":[{"name":"늘푸른가구","tel":"031-863-2760","addr":"경기도 양주시 덕계동 682-17번지","indutype":"가구 - 일반가구","category":"other"}]},{"lat":"37.821647189","long":"127.04932353","imageIndex":17,"items":[{"name":"다모아텔","tel":"","addr":"경기도 양주시 덕계동 448-1번지 양주외치빌딩 202호","indutype":"사무통신 - 통신기기","category":"other"},{"name":"베이비파스텔스튜디오","tel":"031-859-7900","addr":"경기도 양주시 덕계동 448-1번지 양주외치빌딩 3층","indutype":"광학제품 - 사진관","category":"other"},{"name":"휴하우징","tel":"031-863-3344","addr":"경기도 양주시 덕계동 448-1번지 양주외치빌딩","indutype":"용역 서비스 - 기타용역서비스","category":"other"}]},{"lat":"37.823478869","long":"127.04168076","imageIndex":17,"items":[{"name":"다엘기업","tel":"031-858-5070","addr":"경기도 양주시 덕계동 582-20유림화이트4동302","indutype":"신변잡화 - 기타잡화","category":"other"}]},{"lat":"37.811146449","long":"127.06009387","imageIndex":17,"items":[{"name":"다원냉동공조","tel":"031-866-1331","addr":"경기도 양주시 덕계동 105-3번지","indutype":"전기제품 - 냉열기기","category":"other"}]},{"lat":"37.818756254","long":"127.04645969","imageIndex":17,"items":[{"name":"다인통신2","tel":"031-864-5966","addr":"경기도 양주시 덕계동 421-1번지","indutype":"사무통신 - 통신기기","category":"other"},{"name":"신성당","tel":"031-863-0716","addr":"경기도 양주시 덕계동 421-1번지","indutype":"신변잡화 - 귀금속","category":"other"},{"name":"양주의료기","tel":"031-857-0220","addr":"경기도 양주시 덕계동 421-1번지","indutype":"기타의료기관 - 기타의료기관 및 기타","category":"other"}]},{"lat":"37.823394925","long":"127.04956314","imageIndex":17,"items":[{"name":"다힘 세무회계","tel":"031-866-5858","addr":"경기도 양주시 덕계동 509-10번지 가동 2층","indutype":"용역 서비스 - 법률회계서비스(개인)","category":"other"},{"name":"명진타일","tel":"031-866-1925","addr":"경기도 양주시 덕계동 509-10","indutype":"건축자재 - 건축용 요업제품","category":"other"},{"name":"씨유양주중앙점","tel":"031-863-7385","addr":"경기도 양주시 덕계동 509-10번지 1층","indutype":"유통업 영리 - 편 의 점","category":"other"}]},{"lat":"37.825028615","long":"127.06287599","imageIndex":17,"items":[{"name":"당구넷","tel":"031-863-3949","addr":"경기도 양주시 덕계동 175-13번지","indutype":"레져용품 - 스포츠·레져용품","category":"other"}]},{"lat":"37.820944672","long":"127.04876656","imageIndex":17,"items":[{"name":"대광함석","tel":"031-865-1547","addr":"경기도 양주시 덕계동 451-23번지","indutype":"건축자재 - 기타건축자재","category":"other"}]},{"lat":"37.817612147","long":"127.04620916","imageIndex":17,"items":[{"name":"대성공인중개사사무소","tel":"031-868-0400","addr":"경기도 양주시 덕계동 420-10 1층1호","indutype":"용역 서비스 - 부동산 중개·임대","category":"other"},{"name":"법무사정병탁사무소","tel":"031-866-0099","addr":"경기도 양주시 덕계동 420-10번지 세원빌딩 2층","indutype":"용역 서비스 - 법률회계서비스(개인)","category":"other"}]},{"lat":"37.814286598","long":"127.04901229","imageIndex":17,"items":[{"name":"대일문기","tel":"031-858-1288","addr":"경기도 양주시 덕계동 374-2","indutype":"의류 - 정장","category":"other"}]},{"lat":"37.818639059","long":"127.04665269","imageIndex":17,"items":[{"name":"대한지물","tel":"031-862-5923","addr":"경기도 양주시 덕계동 421-10번지","indutype":"직물 - 카페트,커튼,천막,지물","category":"other"}]},{"lat":"37.818945648","long":"127.04592601","imageIndex":17,"items":[{"name":"덕계 비와이씨(BYC)","tel":"031-866-3090","addr":"경기도 양주시 덕계동 681-23번지 1층","indutype":"의류 - 내의판매","category":"other"},{"name":"세탁나라","tel":"031-866-0405","addr":"경기도 양주시 덕계동 681-23번지","indutype":"수리서비스 - 세탁소","category":"other"}]},{"lat":"37.819891681","long":"127.04581298","imageIndex":17,"items":[{"name":"덕계리사진관","tel":"031-866-4730","addr":"경기도 양주시 덕계동 679-1번지","indutype":"광학제품 - 사진관","category":"other"}]},{"lat":"37.819422944","long":"127.04648279","imageIndex":17,"items":[{"name":"덕계만물사","tel":"031-866-9119","addr":"경기도 양주시 덕계동 466-19번지","indutype":"건축자재 - 목재·석재·철물","category":"other"},{"name":"왕텔레콤","tel":"031-868-4488","addr":"경기도 양주시 덕계동 466-19번지 1층 1호","indutype":"사무통신 - 통신기기","category":"other"}]},{"lat":"37.817556784","long":"127.0496276","imageIndex":17,"items":[{"name":"덕계인테리어","tel":"031-858-0022","addr":"경기도 양주시 덕계동 407-2번지 지하1층","indutype":"건축자재 - 인테리어전문","category":"other"}]},{"lat":"37.817534359","long":"127.05965588","imageIndex":17,"items":[{"name":"덕신합성(주)","tel":"031-864-5700","addr":"경기도 양주시 덕계동 271-18번지","indutype":"건축자재 - 페인트","category":"other"}]},{"lat":"37.815564712","long":"127.05204534","imageIndex":17,"items":[{"name":"동광핀.부러쉬","tel":"031-861-5630","addr":"경기도 양주시 덕계동 248-27","indutype":"신변잡화 - 액세서리","category":"other"}]},{"lat":"37.81906238","long":"127.0469823","imageIndex":17,"items":[{"name":"동문서점","tel":"031-863-9393","addr":"경기도 양주시 덕계동 424-4번지","indutype":"서적문구 - 일반서적","category":"other"},{"name":"주식회사 희성통신","tel":"031-858-9111","addr":"경기도 양주시 덕계동 424-4번지 스타프라자 상가 1동 103호","indutype":"사무통신 - 통신기기","category":"other"}]},{"lat":"37.817836451","long":"127.04867378","imageIndex":17,"items":[{"name":"드림도어","tel":"031-859-9743","addr":"경기도 양주시 덕계동 423-7번지 1층 8호","indutype":"건축자재 - 기타건축자재","category":"other"},{"name":"예쁜집","tel":"031-861-1849","addr":"경기도 양주시 덕계동 423-7번지 1층","indutype":"의류 - 정장","category":"other"},{"name":"유명세탁편의점","tel":"070-7795-5911","addr":"경기도 양주시 덕계동 423-7번지 1층","indutype":"수리서비스 - 세탁소","category":"other"},{"name":"유플라워","tel":"031-862-8798","addr":"경기도 양주시 덕계동 423-7번지","indutype":"문화.취미 - 화원","category":"other"},{"name":"크리스탈뷰티.주얼리","tel":"031-858-8084","addr":"경기도 양주시 덕계동 423-7번지","indutype":"신변잡화 - 액세서리","category":"other"}]},{"lat":"37.818422988","long":"127.04623235","imageIndex":17,"items":[{"name":"디지털HP양주점","tel":"031-864-0730","addr":"경기도 양주시 덕계동 421-2.13","indutype":"사무통신 - 사무용 OA기기","category":"other"},{"name":"폼나리","tel":"031-851-8169","addr":"경기도 양주시 덕계동 421-2번지","indutype":"의류 - 정장","category":"other"}]},{"lat":"37.8254228","long":"127.04762215","imageIndex":17,"items":[{"name":"럭셔리패션","tel":"070-8154-6023","addr":"경기도 양주시 덕계동 532-22번지","indutype":"의류 - 기타의류","category":"other"}]},{"lat":"37.824812164","long":"127.04198812","imageIndex":17,"items":[{"name":"루체인알티스","tel":"031-000-0000","addr":"경기도 양주시 덕계동 574-16번지 3층","indutype":"신변잡화 - 가방","category":"other"},{"name":"세븐일레븐덕계신도점","tel":"","addr":"경기도 양주시 덕계동 574-16번지","indutype":"유통업 영리 - 편 의 점","category":"other"}]},{"lat":"37.805091132","long":"127.06204229","imageIndex":17,"items":[{"name":"리리플라워카페","tel":"031-844-3100","addr":"경기도 양주시 덕계동 24-6번지","indutype":"문화.취미 - 화원","category":"other"}]},{"lat":"37.814729267","long":"127.04582135","imageIndex":17,"items":[{"name":"리치가구","tel":"031-866-4841","addr":"경기도 양주시 덕계동 707-20번지","indutype":"가구 - 일반가구","category":"other"}]},{"lat":"37.810314736","long":"127.04554625","imageIndex":17,"items":[{"name":"린나이 보일러 판매수리전문점","tel":"031-859-8247","addr":"경기도 양주시 덕계동 721-11 비동 101호","indutype":"건축자재 - 보일러·펌프·샷시","category":"other"}]},{"lat":"37.816368965","long":"127.04587908","imageIndex":17,"items":[{"name":"막스까르띠지오","tel":"","addr":"경기도 양주시 덕계동 698-13번지","indutype":"의류 - 스포츠의류","category":"other"},{"name":"티아이유통","tel":"070-0000-0000","addr":"경기도 양주시 덕계동 698-13번지 1층","indutype":"신변잡화 - 가방","category":"other"},{"name":"홍키통키","tel":"031-821-2078","addr":"경기도 양주시 덕계동 698-13번지","indutype":"회원제형태 - 레져업소","category":"other"}]},{"lat":"37.816810481","long":"127.0457317","imageIndex":17,"items":[{"name":"몽피크","tel":"031-866-8974","addr":"경기도 양주시 덕계동 699-3번지 1층 A-1호","indutype":"의류 - 정장","category":"other"}]},{"lat":"37.814117181","long":"127.04426515","imageIndex":17,"items":[{"name":"무진장","tel":"031-865-4429","addr":"경기도 양주시 덕계동 707-14번지","indutype":"용역 서비스 - 가례서비스업","category":"other"}]},{"lat":"37.819531137","long":"127.04626707","imageIndex":17,"items":[{"name":"민들레 옷 수선","tel":"031-861-3736","addr":"경기도 양주시 덕계동 465-1번지 1층","indutype":"수리서비스 - 세탁소","category":"other"},{"name":"예삐애견","tel":"031-867-7628","addr":"경기도 양주시 덕계동 465-1번지","indutype":"문화.취미 - 애완동물","category":"other"}]},{"lat":"37.823749073","long":"127.04191942","imageIndex":17,"items":[{"name":"민턴맨(MINTONMAN)","tel":"031-377-7793","addr":"경기도 양주시 덕계동 582-4번지 유림화이트빌라 3동 302호","indutype":"회원제형태 - 기타4","category":"other"}]},{"lat":"37.815449972","long":"127.04595805","imageIndex":17,"items":[{"name":"박상옥세무회계사무소","tel":"031-826-2271","addr":"경기도 양주시 덕계동 706-9나라빌딩,707-13,707-27.602","indutype":"용역 서비스 - 법률회계서비스(개인)","category":"other"},{"name":"법무법인 우암 양주분사무소","tel":"031-863-3388","addr":"경기도 양주시 덕계동 706-9번지 나라빌딩 9층","indutype":"용역 서비스 - 법률회계서비스(법인)","category":"other"},{"name":"세븐일레븐양주경민점","tel":"","addr":"경기도 양주시 덕계동 706-9번지 1층","indutype":"유통업 영리 - 편 의 점","category":"other"},{"name":"센타스타코리아","tel":"031-858-3245","addr":"경기도 양주시 덕계동 706-9번지 나라빌딩 2층","indutype":"직물 - 침구·수예점","category":"other"},{"name":"아모레카운셀러","tel":"031-859-2828","addr":"경기도 양주시 덕계동 706-9나라빌딩5층","indutype":"회원제형태 - 기타1","category":"other"}]},{"lat":"37.813118713","long":"127.06173071","imageIndex":17,"items":[{"name":"배드민턴나라","tel":"031-848-1841","addr":"경기도 양주시 덕계동 127-20번지","indutype":"레져용품 - 스포츠·레져용품","category":"other"}]},{"lat":"37.824310866","long":"127.03059568","imageIndex":17,"items":[{"name":"백송","tel":"031-868-0707","addr":"경기도 양주시 덕계동 산73","indutype":"문화.취미 - 화원","category":"other"}]},{"lat":"37.81122714","long":"127.06090022","imageIndex":17,"items":[{"name":"보경산업","tel":"031-859-0828","addr":"경기도 양주시 덕계동 103-9번지 나동","indutype":"건축자재 - 유리","category":"other"}]},{"lat":"37.816422171","long":"127.04815049","imageIndex":17,"items":[{"name":"보안열쇠","tel":"031-857-9119","addr":"경기도 양주시 덕계동 411-96번지","indutype":"기타 - 기계공구","category":"other"}]},{"lat":"37.820973063","long":"127.04512079","imageIndex":17,"items":[{"name":"봉봉","tel":"031-823-7395","addr":"경기도 양주시 덕계동 672-3번지","indutype":"의류 - 정장","category":"other"}]},{"lat":"37.822395159","long":"127.04884697","imageIndex":17,"items":[{"name":"부성상사","tel":"031-865-0491","addr":"경기도 양주시 덕계동 480-11번지","indutype":"기타 - 기계공구","category":"other"}]},{"lat":"37.819036248","long":"127.04451775","imageIndex":17,"items":[{"name":"부티나네","tel":"031-744-8488","addr":"경기도 양주시 덕계동 682-22번지 1층","indutype":"의류 - 정장","category":"other"}]},{"lat":"37.821223362","long":"127.05028866","imageIndex":17,"items":[{"name":"뷰티샵","tel":"031-859-1331","addr":"경기도 양주시 덕계동 445-1 2층","indutype":"회원제형태 - 기타4","category":"other"}]},{"lat":"37.811116777","long":"127.04499026","imageIndex":17,"items":[{"name":"블루페페","tel":"031-858-8253","addr":"경기도 양주시 덕계동 721-8번지","indutype":"레져용품 - 스포츠·레져용품","category":"other"},{"name":"사단법인국제피플투피플한국본부양주챕터","tel":"031-858-0144","addr":"경기도 양주시 덕계동 721-8번지","indutype":"기타 - 비영리/비대상","category":"other"}]},{"lat":"37.821757198","long":"127.04423534","imageIndex":17,"items":[{"name":"비온뒤맑음","tel":"070-7435-3993","addr":"경기도 양주시 덕계동 673-8번지 1층","indutype":"광학제품 - 사진관","category":"other"}]},{"lat":"37.821811127","long":"127.04459882","imageIndex":17,"items":[{"name":"상상나무","tel":"031-824-2416","addr":"경기도 양주시 덕계동 675-5번지","indutype":"의류 - 정장","category":"other"},{"name":"천년지음","tel":"031-857-6423","addr":"경기도 양주시 덕계동 675-5번지","indutype":"수리서비스 - 기타수리서비스","category":"other"},{"name":"할아버지의꽃","tel":"031-821-0854","addr":"경기도 양주시 덕계동 675-5번지 천년즈음옆 1동","indutype":"문화.취미 - 화원","category":"other"}]},{"lat":"37.819944504","long":"127.04907259","imageIndex":17,"items":[{"name":"상옥","tel":"031-864-1900","addr":"경기도 양주시 덕계동 452-25번지","indutype":"신변잡화 - 신발","category":"other"}]},{"lat":"37.824145846","long":"127.06256861","imageIndex":17,"items":[{"name":"선진산업","tel":"031-866-1772","addr":"경기도 양주시 덕계동 175-27번지","indutype":"건축자재 - 기타건축자재","category":"other"}]},{"lat":"37.816116894","long":"127.04534516","imageIndex":17,"items":[{"name":"성도건설","tel":"031-863-1055","addr":"경기도 양주시 덕계동 702-2번지","indutype":"용역 서비스 - 기타용역서비스","category":"other"},{"name":"한솔아트","tel":"031-857-0627","addr":"경기도 양주시 덕계동 702-2번지","indutype":"문화.취미 - 화방·표구점","category":"other"}]},{"lat":"37.809676847","long":"127.062239","imageIndex":17,"items":[{"name":"세라에듀 산아","tel":"","addr":"경기도 양주시 덕계동 68-4번지 1층","indutype":"문화.취미 - 문화취미기타","category":"other"}]},{"lat":"37.819224828","long":"127.04623282","imageIndex":17,"items":[{"name":"세무사박승열사무소","tel":"031-868-7895","addr":"경기도 양주시 덕계동 465-9번지 402호","indutype":"용역 서비스 - 법률회계서비스(개인)","category":"other"},{"name":"희성통신","tel":"031-858-9111","addr":"경기도 양주시 덕계동 465-9번지 선재빌딩 1층","indutype":"사무통신 - 통신기기","category":"other"}]},{"lat":"37.82066664","long":"127.04540456","imageIndex":17,"items":[{"name":"세븐일레븐양주덕계한주점","tel":"031-1577-0711","addr":"경기도 양주시 덕계동 678-1번지","indutype":"유통업 영리 - 편 의 점","category":"other"},{"name":"펫푸드 선","tel":"031-822-9306","addr":"경기도 양주시 덕계동 678-1번지 2층","indutype":"문화.취미 - 애완동물","category":"other"}]},{"lat":"37.817313859","long":"127.04878703","imageIndex":17,"items":[{"name":"세븐일레븐양주덕계회천점","tel":"","addr":"경기도 양주시 덕계동 411-15번지 지하","indutype":"유통업 영리 - 편 의 점","category":"other"}]},{"lat":"37.823782514","long":"127.0490977","imageIndex":17,"items":[{"name":"세비앙","tel":"031-856-0166","addr":"경기도 양주시 덕계동 513-1번지 상상타운 B호 103","indutype":"의류 - 아동의류","category":"other"}]},{"lat":"37.817675112","long":"127.04648177","imageIndex":17,"items":[{"name":"소망문구","tel":"031-865-0985","addr":"경기도 양주시 덕계동 420-11번지 정산빌리지","indutype":"서적문구 - 문구용품","category":"other"}]},{"lat":"37.819729193","long":"127.04667605","imageIndex":17,"items":[{"name":"수지의료기","tel":"031-863-4939","addr":"경기도 양주시 덕계동 466-18번지","indutype":"기타의료기관 - 기타의료기관 및 기타","category":"other"},{"name":"수플라워","tel":"031-862-0607","addr":"경기도 양주시 덕계동 466-18번지","indutype":"문화.취미 - 화원","category":"other"},{"name":"양주덕계리우편취급소","tel":"031-863-0222","addr":"경기도 양주시 덕계동 466-18번지","indutype":"용역 서비스 - 공공요금대행서비스/소","category":"other"},{"name":"양주덕계우편취급소","tel":"031-863-0222","addr":"경기도 양주시 덕계동 466-18번지","indutype":"용역 서비스 - 공공요금대행서비스/소","category":"other"}]},{"lat":"37.818918822","long":"127.04536948","imageIndex":17,"items":[{"name":"스토리샵","tel":"031-865-9170","addr":"경기도 양주시 덕계동 681-14번지 1층","indutype":"회원제형태 - 기타4","category":"other"}]},{"lat":"37.820611538","long":"127.04820984","imageIndex":17,"items":[{"name":"시대모터","tel":"031-863-2261","addr":"경기도 양주시 덕계동 455-1번지","indutype":"수리서비스 - 기타수리서비스","category":"other"}]},{"lat":"37.818702484","long":"127.04567601","imageIndex":17,"items":[{"name":"신광인테리어","tel":"031-864-0764","addr":"경기도 양주시 덕계동 681-16번지","indutype":"직물 - 카페트,커튼,천막,지물","category":"other"}]},{"lat":"37.822919828","long":"127.04304341","imageIndex":17,"items":[{"name":"신비인테리어","tel":"031-867-6907","addr":"경기도 양주시 덕계동 588-1번지 태성빌딩","indutype":"건축자재 - 인테리어전문","category":"other"}]},{"lat":"37.810813072","long":"127.0601504","imageIndex":17,"items":[{"name":"신영맞춤가구","tel":"031-857-5651","addr":"경기도 양주시 덕계동 101-5나동","indutype":"주방용구 - 주방용구","category":"other"}]},{"lat":"37.810310941","long":"127.05498305","imageIndex":17,"items":[{"name":"신한정공","tel":"031-868-7675","addr":"경기도 양주시 덕계동 333-35","indutype":"기타 - 기타 전문점","category":"other"}]},{"lat":"37.823145037","long":"127.04312304","imageIndex":17,"items":[{"name":"씨유덕계미래점","tel":"031-858-2508","addr":"경기도 양주시 덕계동 591-8번지","indutype":"유통업 영리 - 편 의 점","category":"other"}]},{"lat":"37.816530913","long":"127.04648109","imageIndex":17,"items":[{"name":"씨유덕계평화점","tel":"031-859-0236","addr":"경기도 양주시 덕계동 418-14번지","indutype":"유통업 영리 - 편 의 점","category":"other"}]},{"lat":"37.82050273","long":"127.04998154","imageIndex":17,"items":[{"name":"씨유덕계해피점","tel":"031-858-4720","addr":"경기도 양주시 덕계동 453-1번지","indutype":"유통업 영리 - 편 의 점","category":"other"}]},{"lat":"37.817313605","long":"127.04943438","imageIndex":17,"items":[{"name":"씨유양주덕산점","tel":"031-862-5436","addr":"경기도 양주시 덕계동 409-2번지","indutype":"유통업 영리 - 편 의 점","category":"other"}]},{"lat":"37.817088891","long":"127.04809411","imageIndex":17,"items":[{"name":"아세아이불","tel":"031-861-0890","addr":"경기도 양주시 덕계동 411-58번지","indutype":"직물 - 침구·수예점","category":"other"}]},{"lat":"37.821278271","long":"127.04811938","imageIndex":17,"items":[{"name":"아임주방","tel":"031-000-0000","addr":"경기도 양주시 덕계동 472-6번지","indutype":"주방용구 - 주방용구","category":"other"}]},{"lat":"37.811254524","long":"127.06017345","imageIndex":17,"items":[{"name":"안녕나무야","tel":"031-847-3476","addr":"경기도 양주시 덕계동 105-1번지","indutype":"가구 - 일반가구","category":"other"}]},{"lat":"37.828028381","long":"127.04243281","imageIndex":17,"items":[{"name":"양봉양주사업소","tel":"031-863-2260","addr":"경기도 양주시 덕계동 554-4번지","indutype":"농업 - 기타농업관련","category":"other"}]},{"lat":"37.817062521","long":"127.04634512","imageIndex":17,"items":[{"name":"양주공구","tel":"031-863-2877","addr":"경기도 양주시 덕계동 418-6번지","indutype":"건축자재 - 기타건축자재","category":"other"},{"name":"해동검도","tel":"031-866-1535","addr":"경기도 양주시 덕계동 418-6번지","indutype":"회원제형태 - 레져업소","category":"other"}]},{"lat":"37.812279146","long":"127.04457074","imageIndex":17,"items":[{"name":"양주장례문화원","tel":"031-863-4444","addr":"경기도 양주시 덕계동 723번지","indutype":"용역 서비스 - 가례서비스업","category":"other"}]},{"lat":"37.821476422","long":"127.04826715","imageIndex":17,"items":[{"name":"양주천막건설산업","tel":"031-865-2295","addr":"경기도 양주시 덕계동 473-4번지","indutype":"직물 - 카페트,커튼,천막,지물","category":"other"},{"name":"향기나는꽃집","tel":"031-858-5277","addr":"경기도 양주시 덕계동 473-4번지 현대빌딩 2호","indutype":"문화.취미 - 화원","category":"other"}]},{"lat":"37.809029508","long":"127.0595131","imageIndex":17,"items":[{"name":"에스에스(SS)퍼니처","tel":"031-868-8015","addr":"경기도 양주시 덕계동 85번지 1층(85-1,86,86-1,86-2)","indutype":"가구 - 일반가구","category":"other"}]},{"lat":"37.823061933","long":"127.04865429","imageIndex":17,"items":[{"name":"에스에이치컨설텅(주)","tel":"031-859-1231","addr":"경기도 양주시 덕계동 513-8번지","indutype":"기타의료기관 - 산후조리원","category":"other"}]},{"lat":"37.811118887","long":"127.06118404","imageIndex":17,"items":[{"name":"엔돌핀","tel":"070-7504-3119","addr":"경기도 양주시 덕계동 102-1번지","indutype":"회원제형태 - 기타4","category":"other"}]},{"lat":"37.82339602","long":"127.04671229","imageIndex":17,"items":[{"name":"엘림인테리어","tel":"031-864-2012","addr":"경기도 양주시 덕계동 519-24번지 1층","indutype":"건축자재 - 인테리어전문","category":"other"}]},{"lat":"37.808479162","long":"127.06109112","imageIndex":17,"items":[{"name":"엘씨엘씽크대공장","tel":"070-8953-6355","addr":"경기도 양주시 덕계동 59-1번지 1층","indutype":"주방용구 - 주방용구","category":"other"}]},{"lat":"37.823755212","long":"127.04979052","imageIndex":17,"items":[{"name":"엘지전자(주) 양주서비스센터","tel":"02-0000-0000","addr":"경기도 양주시 덕계동 509-7번지 1층","indutype":"수리서비스 - 가정용품수리","category":"other"}]},{"lat":"37.82036837","long":"127.04798254","imageIndex":17,"items":[{"name":"영암보일러","tel":"031-865-0549","addr":"경기도 양주시 덕계동 452-3번지","indutype":"수리서비스 - 기타수리서비스","category":"other"}]},{"lat":"37.813342349","long":"127.0443215","imageIndex":17,"items":[{"name":"영주산업","tel":"031-866-1930","addr":"경기도 양주시 덕계동 726-2번지","indutype":"수리서비스 - 기타수리서비스","category":"other"}]},{"lat":"37.81534125","long":"127.04759335","imageIndex":17,"items":[{"name":"용상철물","tel":"031-865-4008","addr":"경기도 양주시 덕계동 416-11","indutype":"건축자재 - 목재·석재·철물","category":"other"}]},{"lat":"37.825754745","long":"127.05117751","imageIndex":17,"items":[{"name":"우리주야간보호센터","tel":"031-857-1178","addr":"경기도 양주시 덕계동 534-4번지 4층","indutype":"기타의료기관 - 기타의료기관 및 기타","category":"other"}]},{"lat":"37.81117329","long":"127.06048","imageIndex":17,"items":[{"name":"유성","tel":"031-868-8687","addr":"경기도 양주시 덕계동 105번지","indutype":"주방용구 - 주방용구","category":"other"}]},{"lat":"37.823729637","long":"127.04598557","imageIndex":17,"items":[{"name":"유즈플라워","tel":"","addr":"경기도 양주시 덕계동 519-3번지 원창맨션 101호","indutype":"문화.취미 - 화원","category":"other"}]},{"lat":"37.816891329","long":"127.04637909","imageIndex":17,"items":[{"name":"은빛요양원","tel":"031-864-0766","addr":"경기도 양주시 덕계동 418-7번지 3층 301호","indutype":"기타의료기관 - 기타의료기관 및 기타","category":"other"}]},{"lat":"37.824611099","long":"127.04981378","imageIndex":17,"items":[{"name":"은한에어컨","tel":"031-000-0000","addr":"경기도 양주시 덕계동 502번지 청솔빌라 2동 301호","indutype":"용역 서비스 - 기타용역서비스","category":"other"}]},{"lat":"37.817278089","long":"127.04809423","imageIndex":17,"items":[{"name":"이마트24 덕계신우점","tel":"031-1111-1111","addr":"경기도 양주시 덕계동 411-54번지 1층","indutype":"유통업 영리 - 편 의 점","category":"other"}]},{"lat":"37.822890572","long":"127.04911986","imageIndex":17,"items":[{"name":"이마트24 양주덕계점","tel":"","addr":"경기도 양주시 덕계동 510-3번지 101호","indutype":"유통업 영리 - 편 의 점","category":"other"}]},{"lat":"37.804370682","long":"127.06142854","imageIndex":17,"items":[{"name":"이에이치","tel":"031-846-6082","addr":"경기도 양주시 덕계동 8-2번지 가동 1층","indutype":"서적문구 - 문구용품","category":"other"}]},{"lat":"37.819422724","long":"127.04707338","imageIndex":17,"items":[{"name":"재성인쇄","tel":"031-864-1877","addr":"경기도 양주시 덕계동 462-2번지","indutype":"서적문구 - 출판 및 인쇄물","category":"other"},{"name":"재성인쇄","tel":"070-3157-0671","addr":"경기도 양주시 덕계동 462-2번지","indutype":"서적문구 - 출판 및 인쇄물","category":"other"}]},{"lat":"37.812197583","long":"127.04589938","imageIndex":17,"items":[{"name":"제일목재합판","tel":"031-857-4055","addr":"경기도 양주시 덕계동 384-4","indutype":"건축자재 - 목재·석재·철물","category":"other"}]},{"lat":"37.822361064","long":"127.04356557","imageIndex":17,"items":[{"name":"종합설비","tel":"031-867-0454","addr":"경기도 양주시 덕계동 588-14번지 유림다세대주택 3동 301호","indutype":"용역 서비스 - 기타용역서비스","category":"other"}]},{"lat":"37.805532246","long":"127.06273531","imageIndex":17,"items":[{"name":"주식회사 양주렌트카","tel":"031-866-5531","addr":"경기도 양주시 덕계동 25번지","indutype":"여행 - 렌터카","category":"other"}]},{"lat":"37.822674615","long":"127.0484269","imageIndex":17,"items":[{"name":"주식회사 엠케이컨설팅","tel":"031-859-1231","addr":"경기도 양주시 덕계동 513-14번지 8층","indutype":"기타의료기관 - 산후조리원","category":"other"}]},{"lat":"37.825173019","long":"127.06237634","imageIndex":17,"items":[{"name":"주식회사 원명스틸","tel":"031-857-9001","addr":"경기도 양주시 덕계동 175-11번지","indutype":"건축자재 - 기타건축자재","category":"other"},{"name":"청오정공","tel":"031-863-0014","addr":"경기도 양주시 덕계동 175-11번지","indutype":"기타 - 기계공구","category":"other"}]},{"lat":"37.808199774","long":"127.06128394","imageIndex":17,"items":[{"name":"주식회사신우교구","tel":"031-701-3514","addr":"경기도 양주시 덕계동 61번지","indutype":"서적문구 - 과학기자재","category":"other"}]},{"lat":"37.810367704","long":"127.04845341","imageIndex":17,"items":[{"name":"주현전기","tel":"031-865-2370","addr":"경기도 양주시 덕계동 358","indutype":"용역 서비스 - 기타용역서비스","category":"other"}]},{"lat":"37.819223018","long":"127.05090067","imageIndex":17,"items":[{"name":"진성금속","tel":"02-2254-4755","addr":"경기도 양주시 덕계동 426-12번지","indutype":"기타 - 기계공구","category":"other"}]},{"lat":"37.818423192","long":"127.04567584","imageIndex":17,"items":[{"name":"천사날개","tel":"031-866-8829","addr":"경기도 양주시 덕계동 681-24번지 1층 2호","indutype":"의류 - 정장","category":"other"},{"name":"황금당","tel":"031-863-4466","addr":"경기도 양주시 덕계동 681-24번지","indutype":"신변잡화 - 시계","category":"other"}]},{"lat":"37.816116684","long":"127.04592436","imageIndex":17,"items":[{"name":"청마루(진)","tel":"031-873-1119","addr":"경기도 양주시 덕계동 698-7번지 1층 2호","indutype":"의류 - 정장","category":"other"}]},{"lat":"37.818783096","long":"127.04695942","imageIndex":17,"items":[{"name":"코디패션","tel":"","addr":"경기도 양주시 덕계동 424-15번지 1층","indutype":"의류 - 정장","category":"other"}]},{"lat":"37.817809603","long":"127.04820812","imageIndex":17,"items":[{"name":"크라우스악기","tel":"031-865-7255","addr":"경기도 양주시 덕계동 423-2번지 1층","indutype":"레져용품 - 악기점","category":"other"}]},{"lat":"37.816585224","long":"127.04578835","imageIndex":17,"items":[{"name":"크로커다일양주점","tel":"031-865-5055","addr":"경기도 양주시 덕계동 698-5번지 1층 3호","indutype":"레져용품 - 스포츠·레져용품","category":"other"}]},{"lat":"37.818644333","long":"127.0557612","imageIndex":17,"items":[{"name":"편의점","tel":"031-821-9480","addr":"경기도 양주시 덕계동 209-5번지","indutype":"유통업 영리 - 편 의 점","category":"other"}]},{"lat":"37.823586817","long":"127.04218056","imageIndex":17,"items":[{"name":"하나공사","tel":"031-862-7466","addr":"경기도 양주시 덕계동 582-9번지 103호","indutype":"용역 서비스 - 기타용역서비스","category":"other"}]},{"lat":"37.826278683","long":"127.04765674","imageIndex":17,"items":[{"name":"하나유리샤시창호금속방충망판넬방화문강화","tel":"","addr":"경기도 양주시 덕계동 533번지 하늘샘빌라 102호","indutype":"용역 서비스 - 기타용역서비스","category":"other"}]},{"lat":"37.816647735","long":"127.0472875","imageIndex":17,"items":[{"name":"하이패션","tel":"031-861-8487","addr":"경기도 양주시 덕계동 417-1번지 신우상가 1층","indutype":"의류 - 정장","category":"other"}]},{"lat":"37.819396211","long":"127.04567641","imageIndex":17,"items":[{"name":"하하스 컴퍼니","tel":"","addr":"경기도 양주시 덕계동 679-6번지 103호","indutype":"의류 - 정장","category":"other"}]},{"lat":"37.812200378","long":"127.06045809","imageIndex":17,"items":[{"name":"한국디지털로스타","tel":"031-857-2656","addr":"경기도 양주시 덕계동 125-1번지","indutype":"주방용구 - 주방용구","category":"other"}]},{"lat":"37.807587958","long":"127.05959148","imageIndex":17,"items":[{"name":"한국연합불교조계종양산덕계보현정사","tel":"070-8235-2678","addr":"경기도 양주시 덕계동 45-1","indutype":"기타 - 비영리/대상","category":"other"}]},{"lat":"37.825279168","long":"127.04623636","imageIndex":17,"items":[{"name":"한사랑에어컨","tel":"02-3272-8661","addr":"경기도 양주시 덕계동 529번지 삼익하이츠빌라 A동 104호","indutype":"용역 서비스 - 기타용역서비스","category":"other"}]},{"lat":"37.81978252","long":"127.04859548","imageIndex":17,"items":[{"name":"행복한창호","tel":"031-861-0999","addr":"경기도 양주시 덕계동 457번지","indutype":"건축자재 - 기타건축자재","category":"other"}]},{"lat":"37.820224263","long":"127.04786888","imageIndex":17,"items":[{"name":"행운만물사","tel":"031-868-1313","addr":"경기도 양주시 덕계동 452-44.45","indutype":"기타 - 기타 전문점","category":"other"}]},{"lat":"37.820115675","long":"127.04909542","imageIndex":17,"items":[{"name":"현진헬스","tel":"031-858-7789","addr":"경기도 양주시 덕계동 452-23번지","indutype":"회원제형태 - 레져업소","category":"other"}]},{"lat":"37.818142996","long":"127.04809476","imageIndex":17,"items":[{"name":"혜성산업","tel":"031-868-0580","addr":"경기도 양주시 덕계동 423-1번지","indutype":"건축자재 - 보일러·펌프·샷시","category":"other"}]},{"lat":"37.821585124","long":"127.04671122","imageIndex":17,"items":[{"name":"회천2동 주민자치센터","tel":"031-867-3354","addr":"경기도 양주시 덕계동 467-8번지","indutype":"문화.취미 - 문화취미기타","category":"other"}]}]