[{"lat":"36.988182719","long":"126.92829763","imageIndex":16,"items":[{"name":"L&S 교육학원","tel":"031-682-2650","addr":"경기도 평택시 안중읍 안중리 272-21번지 2층","indutype":"학원 - 보습학원","category":"study"}]},{"lat":"36.986741886","long":"126.92971431","imageIndex":16,"items":[{"name":"경기물류고등학교","tel":"031-650-9906","addr":"경기도 평택시 안중읍 안중리 293-46번지 경기물류고등학교","indutype":"학원 - 초중고교육기관","category":"study"},{"name":"경기물류고등학교_수업료","tel":"031-650-9906","addr":"경기도 평택시 안중읍 안중리 293-46번지 경기물류고등학교","indutype":"학원 - 초중고교육기관","category":"study"}]},{"lat":"36.988246208","long":"126.92896029","imageIndex":16,"items":[{"name":"금빛댄스스포츠","tel":"","addr":"경기도 평택시 안중읍 안중리 281-1번지 3층","indutype":"학원 - 예·체능계학원","category":"study"}]},{"lat":"36.994745243","long":"126.93277341","imageIndex":16,"items":[{"name":"꿈나래어린이집[아이행복]","tel":"031-683-3977","addr":"경기도 평택시 안중읍 안중리 196-16번지","indutype":"학원 - 유아원","category":"study"}]},{"lat":"36.985047181","long":"126.92860396","imageIndex":16,"items":[{"name":"맑고고운어린이집[아이행복]","tel":"031-682-7139","addr":"경기도 평택시 안중읍 안중리 305-36번지","indutype":"학원 - 유아원","category":"study"}]},{"lat":"36.988716649","long":"126.93204882","imageIndex":16,"items":[{"name":"서평택기술교육학원","tel":"031-684-9907","addr":"경기도 평택시 안중읍 안중리 231-3번지 3층","indutype":"회원제형태 - 학원","category":"study"}]},{"lat":"36.992130171","long":"126.92951819","imageIndex":16,"items":[{"name":"시립안중어린이집[아이행복]","tel":"031-682-4529","addr":"경기도 평택시 안중읍 안중리 243-1","indutype":"학원 - 유아원","category":"study"}]},{"lat":"36.986714093","long":"126.92849001","imageIndex":16,"items":[{"name":"아이세상어린이집[아이행복]","tel":"031-681-2123","addr":"경기도 평택시 안중읍 안중리 293-47번지","indutype":"학원 - 유아원","category":"study"}]},{"lat":"36.987238373","long":"126.93118529","imageIndex":16,"items":[{"name":"안중복싱체육관","tel":"031-686-6776","addr":"경기도 평택시 안중읍 안중리 298번지 만성빌딩 4층","indutype":"학원 - 예·체능계학원","category":"study"}]},{"lat":"36.989432998","long":"126.94004588","imageIndex":16,"items":[{"name":"안중유치원[아이행복]","tel":"031-682-1288","addr":"경기도 평택시 안중읍 안중리 148-7번지","indutype":"학원 - 유치원","category":"study"}]},{"lat":"36.98674085","long":"126.92805192","imageIndex":16,"items":[{"name":"안중점안스실용음악학원","tel":"031-681-7117","addr":"경기도 평택시 안중읍 안중리 262-65번지 2층","indutype":"회원제형태 - 학원","category":"study"}]},{"lat":"36.989523809","long":"126.92593743","imageIndex":16,"items":[{"name":"안중초등학교","tel":"031-681-7883","addr":"경기도 평택시 안중읍 안중리 247-4번지 안중초등학교","indutype":"학원 - 초중고교육기관","category":"study"},{"name":"안중초등학교병설유치원[아이행복]","tel":"031-681-2010","addr":"경기도 평택시 안중읍 안중리 247-4번지 안중초등학교","indutype":"학원 - 유치원","category":"study"}]},{"lat":"36.982939448","long":"126.92985274","imageIndex":16,"items":[{"name":"정순단 중국어","tel":"070-4245-2981","addr":"경기도 평택시 안중읍 안중리 477-4번지 303호","indutype":"학원 - 외국어학원","category":"study"}]},{"lat":"36.992215867","long":"126.93738133","imageIndex":16,"items":[{"name":"주식회사 평택안중자동차학원","tel":"031-682-1160","addr":"경기도 평택시 안중읍 안중리 185-10번지","indutype":"학원 - 기능학원","category":"study"}]},{"lat":"36.988434085","long":"126.92682591","imageIndex":16,"items":[{"name":"참좋은보습학원","tel":"031-681-3210","addr":"경기도 평택시 안중읍 안중리 253-13번지 평창빌딩 3층","indutype":"학원 - 보습학원","category":"study"},{"name":"한국태권도체육관","tel":"031-681-6329","addr":"경기도 평택시 안중읍 안중리 253-13번지 평창빌딩 2층","indutype":"학원 - 예·체능계학원","category":"study"}]},{"lat":"36.985715732","long":"126.93146752","imageIndex":16,"items":[{"name":"평택서부영어교육센터","tel":"070-4271-0509","addr":"경기도 평택시 안중읍 안중리 445-16번지 지하","indutype":"학원 - 외국어학원","category":"study"}]}]