[{"lat":"37.301208164","long":"126.97237236","imageIndex":17,"items":[{"name":"(주)디지털아이","tel":"031-245-5527","addr":"경기도 수원시 장안구 율전동 89-5번지","indutype":"전기제품 - 가전제품","category":"other"},{"name":"노무법인 혜담","tel":"031-271-5355","addr":"경기도 수원시 장안구 율전동 89-5번지 502호","indutype":"용역 서비스 - 법률회계서비스(법인)","category":"other"},{"name":"노무법인삼성노무사수원","tel":"031-244-1997","addr":"경기도 수원시 장안구 율전동 89-5번지","indutype":"용역 서비스 - 법률회계서비스(개인)","category":"other"},{"name":"숨요가","tel":"031-268-5452","addr":"경기도 수원시 장안구 율전동 89-5번지 303호","indutype":"회원제형태 - 레져업소","category":"other"},{"name":"주식회사 니즈컴기획","tel":"02-521-4160","addr":"경기도 수원시 장안구 율전동 89-5번지 성지빌딩 403호","indutype":"용역 서비스 - 종합용역","category":"other"},{"name":"태광노무법인","tel":"031-268-7068","addr":"경기도 수원시 장안구 율전동 89-5번지 301호","indutype":"용역 서비스 - 법률회계서비스(법인)","category":"other"},{"name":"합병회사노무법인퍼스트","tel":"031-247-3083","addr":"경기도 수원시 장안구 율전동 89-5번지 성지빌딩 301호","indutype":"용역 서비스 - 법률회계서비스(법인)","category":"other"}]},{"lat":"37.299369872","long":"126.97159487","imageIndex":17,"items":[{"name":"(주)라보스","tel":"031-719-3045","addr":"경기도 수원시 장안구 율전동 285-2번지 SK허브블루 6층 6004호","indutype":"가구 - 기타가구","category":"other"},{"name":"(주)이오스","tel":"031-000-0000","addr":"경기도 수원시 장안구 율전동 285-2번지 SK HUBBLUE 18013호","indutype":"용역 서비스 - 사무서비스","category":"other"},{"name":"Belyi 벨르이","tel":"031-291-3980","addr":"경기도 수원시 장안구 율전동 285-2번지 SKHUBBLUE2117,2118","indutype":"직물 - 옷감·직물","category":"other"},{"name":"뉴트리션바","tel":"031-293-7005","addr":"경기도 수원시 장안구 율전동 285-2번지 SK허브블루 7층","indutype":"레져용품 - 스포츠·레져용품","category":"other"},{"name":"두드림노무컨설팅","tel":"031-278-5700","addr":"경기도 수원시 장안구 율전동 285-2번지 2037호 ,2038,2044호","indutype":"용역 서비스 - 법률회계서비스(개인)","category":"other"},{"name":"바른스틸","tel":"031-295-3110","addr":"경기도 수원시 장안구 율전동 285-2번지 SK HUB BLUE 17층 06호","indutype":"건축자재 - 기타건축자재","category":"other"},{"name":"바이오스템","tel":"031-297-8390","addr":"경기도 수원시 장안구 율전동 285-2번지 SK허브블루 1-4001호","indutype":"기타 - 기타 전문점","category":"other"},{"name":"복수원온천 렌탈","tel":"031-293-7005","addr":"경기도 수원시 장안구 율전동 285-2번지 에스케이허브 8,9층","indutype":"의류 - 기타의류","category":"other"},{"name":"북수원스포츠센터","tel":"031-293-7005","addr":"경기도 수원시 장안구 율전동 285-2번지 7층 SKHUBBLUE","indutype":"회원제형태 - 레져업소","category":"other"},{"name":"비와(b.wha)","tel":"070-8888-0270","addr":"경기도 수원시 장안구 율전동 285-2번지 SKHUBBLUE 2007,2008호","indutype":"의류 - 정장","category":"other"},{"name":"성균관대역마음수련회","tel":"031-291-9952","addr":"경기도 수원시 장안구 율전동 285-2번지 SKHUBBLUE 6008,6009번지","indutype":"기타 - 비영리/비대상","category":"other"},{"name":"소목소목","tel":"031-291-7244","addr":"경기도 수원시 장안구 율전동 285-2번지 2층 2111-2113호","indutype":"신변잡화 - 기타잡화","category":"other"},{"name":"신꼬입꼬","tel":"031-293-0777","addr":"경기도 수원시 장안구 율전동 285-2번지 SK허브블루2056,2057,2070-2075,2081-2082,2080,2046,2076-2077","indutype":"의류 - 기타의류","category":"other"},{"name":"쌍둥이네","tel":"031-295-4848","addr":"경기도 수원시 장안구 율전동 285-2번지 에스케이허브블루 2114호","indutype":"신변잡화 - 기타잡화","category":"other"},{"name":"아이폰컴퍼니","tel":"02-111-1111","addr":"경기도 수원시 장안구 율전동 285-2번지 2010 ,2011,2012호","indutype":"수리서비스 - 사무·통신기기수리","category":"other"},{"name":"앨런컴퍼니","tel":"070-7715-1070","addr":"경기도 수원시 장안구 율전동 285-2번지 SK HUB BLUE 1동 10층 10013호","indutype":"가구 - 일반가구","category":"other"},{"name":"원(ONE)","tel":"031-293-7005","addr":"경기도 수원시 장안구 율전동 285-2번지 북수원스포츠센터","indutype":"회원제형태 - 레져업소","category":"other"},{"name":"잔피엘","tel":"031-297-2608","addr":"경기도 수원시 장안구 율전동 285-2번지 에스케이허브블루 2층","indutype":"의류 - 정장","category":"other"},{"name":"조선일보 경기광고지사","tel":"031-253-7333","addr":"경기도 수원시 장안구 율전동 285-2번지 SKHUBBLUE 15층15015호","indutype":"용역 서비스 - 종합용역","category":"other"},{"name":"한스토탈","tel":"031-298-7790","addr":"경기도 수원시 장안구 율전동 285-2번지 SK허브블루2045호 2052호","indutype":"신변잡화 - 제화","category":"other"}]},{"lat":"37.302785024","long":"126.97264242","imageIndex":17,"items":[{"name":"(주)명품레저클럽","tel":"031-225-2120","addr":"경기도 수원시 장안구 율전동 99-55번지 프라임","indutype":"회원제형태 - 기타4","category":"other"},{"name":"디자인 파트너","tel":"031-282-5514","addr":"경기도 수원시 장안구 율전동 99-55번지 프라임 602호","indutype":"서적문구 - 출판 및 인쇄물","category":"other"},{"name":"서영전자","tel":"031-000-0000","addr":"경기도 수원시 장안구 율전동 99-55번지 프라임 409호","indutype":"전기제품 - 기타전기제품","category":"other"},{"name":"이마트24 수원율전점","tel":"031-268-2639","addr":"경기도 수원시 장안구 율전동 99-55번지 프라임 104호","indutype":"유통업 영리 - 편 의 점","category":"other"}]},{"lat":"37.298983286","long":"126.97501246","imageIndex":17,"items":[{"name":"(주)비토알앤디/원격지","tel":"031-294-5509","addr":"경기도 수원시 장안구 율전동 265-37번지 정심아트빌 101호","indutype":"기타 - 기타 전문점","category":"other"}]},{"lat":"37.301595609","long":"126.97239476","imageIndex":17,"items":[{"name":"(주)삼성디지털코어","tel":"031-207-3100","addr":"경기도 수원시 장안구 율전동 92-2번지","indutype":"전기제품 - 가전제품","category":"other"},{"name":"헬스타임","tel":"031-268-8008","addr":"경기도 수원시 장안구 율전동 92-2번지 송원빌딩 401호","indutype":"회원제형태 - 레져업소","category":"other"}]},{"lat":"37.302206919","long":"126.96742042","imageIndex":17,"items":[{"name":"(주)에이스종합건설","tel":"031-243-4171","addr":"경기도 수원시 장안구 율전동 168-38번지 2층","indutype":"건축자재 - 인테리어전문","category":"other"}]},{"lat":"37.298244279","long":"126.97431346","imageIndex":17,"items":[{"name":"(주)이큐브시스템/원격지","tel":"031-292-7446","addr":"경기도 수원시 장안구 율전동 276-3,천록6-205","indutype":"기타 - 기타 전문점","category":"other"}]},{"lat":"37.307603942","long":"126.96706821","imageIndex":17,"items":[{"name":"(주)텐드","tel":"031-268-2586","addr":"경기도 수원시 장안구 율전동 544번지 송촌스페이스향 301동 1406호","indutype":"레져용품 - 스포츠·레져용품","category":"other"},{"name":"계림하우징","tel":"031-271-6550","addr":"경기도 수원시 장안구 율전동 544번지 송촌스페이스향 301동 606호","indutype":"건축자재 - 인테리어전문","category":"other"}]},{"lat":"37.298955717","long":"126.97281314","imageIndex":17,"items":[{"name":"3팩토리 짐 (3FACTORY GYM)","tel":"031-255-8944","addr":"경기도 수원시 장안구 율전동 288-2번지 지하층1층","indutype":"회원제형태 - 레져업소","category":"other"}]},{"lat":"37.301369638","long":"126.96973301","imageIndex":17,"items":[{"name":"413디자인","tel":"031-271-0075","addr":"경기도 수원시 장안구 율전동 207-5번지","indutype":"용역 서비스 - 사무서비스","category":"other"},{"name":"럭셔리전자담배","tel":"031-271-5958","addr":"경기도 수원시 장안구 율전동 207-5번지 103호","indutype":"기타 - 기타 전문점","category":"other"},{"name":"죽림원/대숯나라","tel":"031-296-5128","addr":"경기도 수원시 장안구 율전동 207-5번지","indutype":"문화.취미 - 민예·공예품","category":"other"}]},{"lat":"37.298820451","long":"126.97237332","imageIndex":17,"items":[{"name":"BIGPRINT(대형출력)","tel":"031-295-1572","addr":"경기도 수원시 장안구 율전동 288-13번지","indutype":"서적문구 - 출판 및 인쇄물","category":"other"}]},{"lat":"37.305397623","long":"126.97123143","imageIndex":17,"items":[{"name":"For you 디자인","tel":"031-268-2494","addr":"경기도 수원시 장안구 율전동 111-2번지","indutype":"주방용구 - 주방용구","category":"other"}]},{"lat":"37.298090554","long":"126.97211421","imageIndex":17,"items":[{"name":"GS25수원성대점","tel":"02-2006-2485","addr":"경기도 수원시 장안구 율전동 288-4번지 성대프라자 101동 102호","indutype":"유통업 영리 - 편 의 점","category":"other"},{"name":"세븐일레븐2174(수원성대점)","tel":"031-292-0881","addr":"경기도 수원시 장안구 율전동 288-4번지 성대프라자 101호","indutype":"유통업 영리 - 편 의 점","category":"other"},{"name":"시작스터디카페 수원성대점","tel":"031-268-6682","addr":"경기도 수원시 장안구 율전동 288-4번지 성대프라자 B01호","indutype":"용역 서비스 - 사무서비스","category":"other"}]},{"lat":"37.303982209","long":"126.9683445","imageIndex":17,"items":[{"name":"GS25율전상율점","tel":"","addr":"경기도 수원시 장안구 율전동 142-9번지 1층","indutype":"유통업 영리 - 편 의 점","category":"other"}]},{"lat":"37.296701983","long":"126.96850572","imageIndex":17,"items":[{"name":"GS25율전성대점","tel":"02-2006-2485","addr":"경기도 수원시 장안구 율전동 408-16번지","indutype":"유통업 영리 - 편 의 점","category":"other"}]},{"lat":"37.299566822","long":"126.96709458","imageIndex":17,"items":[{"name":"GS25율전신일점","tel":"","addr":"경기도 수원시 장안구 율전동 319번지 단지상가 102,103,107호","indutype":"유통업 영리 - 편 의 점","category":"other"},{"name":"신일고급세탁","tel":"031-297-5595","addr":"경기도 수원시 장안구 율전동 319번지 신일 상가 111호","indutype":"수리서비스 - 세탁소","category":"other"}]},{"lat":"37.301487142","long":"126.97108644","imageIndex":17,"items":[{"name":"GS25율전제일점","tel":"","addr":"경기도 수원시 장안구 율전동 228번지 1층","indutype":"유통업 영리 - 편 의 점","category":"other"}]},{"lat":"37.301459294","long":"126.96817647","imageIndex":17,"items":[{"name":"PC메디컬센터","tel":"031-278-5005","addr":"경기도 수원시 장안구 율전동 161-42번지 201호","indutype":"사무통신 - 컴퓨터","category":"other"}]},{"lat":"37.296701904","long":"126.96823504","imageIndex":17,"items":[{"name":"RNB기획","tel":"031-293-6179","addr":"경기도 수원시 장안구 율전동 409-5번지 의성빌딩 3층","indutype":"서적문구 - 출판 및 인쇄물","category":"other"},{"name":"르하임스터디카페 수원성대점","tel":"031-8067-5875","addr":"경기도 수원시 장안구 율전동 409-5번지 201호","indutype":"용역 서비스 - 사무서비스","category":"other"}]},{"lat":"37.303009932","long":"126.97131138","imageIndex":17,"items":[{"name":"Ruggi 루찌","tel":"070-4149-2679","addr":"경기도 수원시 장안구 율전동 104-24번지 1층","indutype":"의류 - 정장","category":"other"},{"name":"마담가이아","tel":"031-258-2715","addr":"경기도 수원시 장안구 율전동 104-24번지 4층","indutype":"의류 - 내의판매","category":"other"},{"name":"마담가이아","tel":"031-258-2715","addr":"경기도 수원시 장안구 율전동 104-24번지 4층","indutype":"의류 - 내의판매","category":"other"},{"name":"앤트윅스","tel":"031-308-0552","addr":"경기도 수원시 장안구 율전동 104-24번지 4층","indutype":"사무통신 - 컴퓨터","category":"other"},{"name":"진영","tel":"031-269-5567","addr":"경기도 수원시 장안구 율전동 104-24번지 (주)산요테크 1층 307호","indutype":"신변잡화 - 액세서리","category":"other"}]},{"lat":"37.299315519","long":"126.97051214","imageIndex":17,"items":[{"name":"SJ telecom","tel":"031-297-3137","addr":"경기도 수원시 장안구 율전동 296-29번지 101호","indutype":"사무통신 - 통신기기","category":"other"},{"name":"우리동네1등사진관 사진향기","tel":"031-298-9977","addr":"경기도 수원시 장안구 율전동 296-29번지 대복빌딩 2층","indutype":"광학제품 - 사진관","category":"other"}]},{"lat":"37.299009477","long":"126.97165141","imageIndex":17,"items":[{"name":"YOLO모바일","tel":"031-000-0000","addr":"경기도 수원시 장안구 율전동 286-4번지 1층","indutype":"사무통신 - 통신기기","category":"other"}]},{"lat":"37.302315289","long":"126.96825503","imageIndex":17,"items":[{"name":"가온","tel":"031-271-7501","addr":"경기도 수원시 장안구 율전동 163-27번지 1층","indutype":"건축자재 - 인테리어전문","category":"other"}]},{"lat":"37.29798231","long":"126.97165184","imageIndex":17,"items":[{"name":"가정열쇠","tel":"031-295-1177","addr":"경기도 수원시 장안구 율전동 285-10번지","indutype":"건축자재 - 목재·석재·철물","category":"other"},{"name":"글로벌통신성대점","tel":"031-295-8010","addr":"경기도 수원시 장안구 율전동 285-10번지 1.2층 전부","indutype":"사무통신 - 통신기기","category":"other"}]},{"lat":"37.299316112","long":"126.9727566","imageIndex":17,"items":[{"name":"경기문화사","tel":"031-227-0041","addr":"경기도 수원시 장안구 율전동 281-9번지","indutype":"서적문구 - 출판 및 인쇄물","category":"other"}]},{"lat":"37.302847307","long":"126.96969852","imageIndex":17,"items":[{"name":"골든휘트니스클럽","tel":"031-271-4074","addr":"경기도 수원시 장안구 율전동 154-1번지 201호","indutype":"회원제형태 - 레져업소","category":"other"},{"name":"팡팡열쇠","tel":"031-269-0044","addr":"경기도 수원시 장안구 율전동 154-1번지 104호","indutype":"건축자재 - 목재·석재·철물","category":"other"}]},{"lat":"37.297513042","long":"126.96897905","imageIndex":17,"items":[{"name":"공간","tel":"031-293-1252","addr":"경기도 수원시 장안구 율전동 401-4번지 3층","indutype":"사무통신 - 컴퓨터","category":"other"}]},{"lat":"37.302730284","long":"126.97009335","imageIndex":17,"items":[{"name":"공간화실","tel":"031-291-9872","addr":"경기도 수원시 장안구 율전동 217번지","indutype":"문화.취미 - 화랑","category":"other"}]},{"lat":"37.304289045","long":"126.97005883","imageIndex":17,"items":[{"name":"광명유리샷시","tel":"031-207-3810","addr":"경기도 수원시 장안구 율전동 109-12번지 1층","indutype":"건축자재 - 유리","category":"other"}]},{"lat":"37.297764275","long":"126.96548261","imageIndex":17,"items":[{"name":"규마켓","tel":"070-8833-7022","addr":"경기도 수원시 장안구 율전동 600번지 수원성균관대역동문굿모닝힐 304호","indutype":"의류 - 정장","category":"other"},{"name":"번호키프라자24시","tel":"031-392-8449","addr":"경기도 수원시 장안구 율전동 600번지 수원성균관대역동문굿모닝힐 상가 1층 104호","indutype":"건축자재 - 목재·석재·철물","category":"other"},{"name":"소소한 흑백사진관","tel":"","addr":"경기도 수원시 장안구 율전동 600번지 수원성균관대역동문굿모닝힐 상가동 302호","indutype":"광학제품 - 사진관","category":"other"},{"name":"크린에이드 율전굿모닝힐점","tel":"070-7724-0110","addr":"경기도 수원시 장안구 율전동 600번지 수원성균관대역동문굿모닝힐 2층 203호","indutype":"수리서비스 - 세탁소","category":"other"},{"name":"플라워&캔들","tel":"","addr":"경기도 수원시 장안구 율전동 600번지 수원성균관대역동문굿모닝힐 103동 13층 04호","indutype":"신변잡화 - 기타잡화","category":"other"}]},{"lat":"37.298567008","long":"126.9681778","imageIndex":17,"items":[{"name":"그대가 오는 꽃 길","tel":"031-000-0000","addr":"경기도 수원시 장안구 율전동 313-2번지 1층 5호","indutype":"문화.취미 - 화원","category":"other"},{"name":"바이올렛","tel":"031-292-1180","addr":"경기도 수원시 장안구 율전동 313-2번지 1층 4호","indutype":"의류 - 정장","category":"other"},{"name":"코인워시수원율전초등학교점","tel":"031-306-1274","addr":"경기도 수원시 장안구 율전동 313-2번지 상가동 102호","indutype":"수리서비스 - 세탁소","category":"other"}]},{"lat":"37.303622688","long":"126.97153671","imageIndex":17,"items":[{"name":"금호생활","tel":"031-264-0213","addr":"경기도 수원시 장안구 율전동 104-83번지","indutype":"직물 - 침구·수예점","category":"other"}]},{"lat":"37.298954777","long":"126.96931676","imageIndex":17,"items":[{"name":"꽃 라일린","tel":"","addr":"경기도 수원시 장안구 율전동 304-17번지 수진빌딩 1층","indutype":"문화.취미 - 화원","category":"other"}]},{"lat":"37.296233289","long":"126.9679533","imageIndex":17,"items":[{"name":"꽃가람공방","tel":"031-271-4119","addr":"경기도 수원시 장안구 율전동 413-5번지 민영주택 1층","indutype":"문화.취미 - 문화취미기타","category":"other"}]},{"lat":"37.301955357","long":"126.9699245","imageIndex":17,"items":[{"name":"꿈누리공방","tel":"031-224-3403","addr":"경기도 수원시 장안구 율전동 215-10번지 103호","indutype":"문화.취미 - 민예·공예품","category":"other"}]},{"lat":"37.305622818","long":"126.97100574","imageIndex":17,"items":[{"name":"넛지","tel":"02-0000-0000","addr":"경기도 수원시 장안구 율전동 554번지 유영타운 1층 104호","indutype":"의류 - 정장","category":"other"},{"name":"반하개","tel":"","addr":"경기도 수원시 장안구 율전동 554번지 유영타운 103호","indutype":"문화.취미 - 애완동물","category":"other"}]},{"lat":"37.298541159","long":"126.97247494","imageIndex":17,"items":[{"name":"놀숲 수원성대점","tel":"","addr":"경기도 수원시 장안구 율전동 288-3번지 2층","indutype":"서적문구 - 일반서적","category":"other"},{"name":"라스뮤직(LASMusic)합주실","tel":"031-223-5214","addr":"경기도 수원시 장안구 율전동 288-3번지 지하층","indutype":"레져용품 - 악기점","category":"other"},{"name":"제임스드림뮤직(음악작업실)","tel":"031-296-0312","addr":"경기도 수원시 장안구 율전동 288-3번지 도연빌딩 B01호","indutype":"기타 - 기타 전문점","category":"other"}]},{"lat":"37.298648957","long":"126.97123426","imageIndex":17,"items":[{"name":"다한텔레콤","tel":"070-4045-2751","addr":"경기도 수원시 장안구 율전동 291번지 1층","indutype":"사무통신 - 통신기기","category":"other"},{"name":"대운부동산","tel":"031-293-0204","addr":"경기도 수원시 장안구 율전동 291번지 지하","indutype":"용역 서비스 - 부동산 중개·임대","category":"other"}]},{"lat":"37.302702573","long":"126.96772473","imageIndex":17,"items":[{"name":"대도설비철물","tel":"031-207-0855","addr":"경기도 수원시 장안구 율전동 168-32번지","indutype":"기타 - 기계공구","category":"other"},{"name":"대도설비철물","tel":"031-207-0855","addr":"경기도 수원시 장안구 율전동 168-32번지","indutype":"기타 - 기계공구","category":"other"}]},{"lat":"37.302153535","long":"126.96975522","imageIndex":17,"items":[{"name":"대명정보통신(율전점)","tel":"031-224-5010","addr":"경기도 수원시 장안구 율전동 215-3번지","indutype":"사무통신 - 통신기기","category":"other"}]},{"lat":"37.302107657","long":"126.96692419","imageIndex":17,"items":[{"name":"대산유통","tel":"031-509-9888","addr":"경기도 수원시 장안구 율전동 168-110번지 써니하우스 가동 B02호","indutype":"유통업 영리 - 기타유통업","category":"other"}]},{"lat":"37.304811738","long":"126.97041955","imageIndex":17,"items":[{"name":"대성 E TECH","tel":"031-242-3444","addr":"경기도 수원시 장안구 율전동 109-17번지 1층","indutype":"건축자재 - 보일러·펌프·샷시","category":"other"}]},{"lat":"37.306063972","long":"126.96974223","imageIndex":17,"items":[{"name":"대우설비","tel":"","addr":"경기도 수원시 장안구 율전동 546번지 밤꽃마을뜨란채 113동 803호","indutype":"용역 서비스 - 기타용역서비스","category":"other"}]},{"lat":"37.305451795","long":"126.97164875","imageIndex":17,"items":[{"name":"더원솔루션","tel":"02-1877-5420","addr":"경기도 수원시 장안구 율전동 111-15번지 인정베스트빌 C동 2층 201호","indutype":"사무통신 - 통신기기","category":"other"}]},{"lat":"37.303152228","long":"126.96494982","imageIndex":17,"items":[{"name":"도서출판 빛샘","tel":"031-271-6420","addr":"경기도 수원시 장안구 율전동 174-26번지 예수마을셀교회 B동 101호","indutype":"서적문구 - 일반서적","category":"other"},{"name":"셀랩 (Cell Lab)","tel":"","addr":"경기도 수원시 장안구 율전동 174-26번지 1층 예수마을셀교회","indutype":"서적문구 - 문구용품","category":"other"}]},{"lat":"37.302784969","long":"126.97242812","imageIndex":17,"items":[{"name":"돌하우스월드","tel":"031-269-7667","addr":"경기도 수원시 장안구 율전동 99-102번지 홍삼빌 102호","indutype":"직물 - 침구·수예점","category":"other"}]},{"lat":"37.303117582","long":"126.96958561","imageIndex":17,"items":[{"name":"동안스킨케어","tel":"031-268-0981","addr":"경기도 수원시 장안구 율전동 149-4번지","indutype":"회원제형태 - 기타4","category":"other"},{"name":"필보유통","tel":"031-207-0707","addr":"경기도 수원시 장안구 율전동 149-4번지","indutype":"유통업 영리 - 기타유통업","category":"other"}]},{"lat":"37.296034946","long":"126.96755866","imageIndex":17,"items":[{"name":"동원샘물유수상사","tel":"031-258-4080","addr":"경기도 수원시 장안구 율전동 414-1번지","indutype":"유통업 영리 - 기타유통업","category":"other"}]},{"lat":"37.297512971","long":"126.96873092","imageIndex":17,"items":[{"name":"동화클리닉","tel":"","addr":"경기도 수원시 장안구 율전동 399-17번지 나이스빌라 105호","indutype":"용역 서비스 - 종합용역","category":"other"}]},{"lat":"37.30336925","long":"126.96745371","imageIndex":17,"items":[{"name":"듀박스","tel":"031-207-3290","addr":"경기도 수원시 장안구 율전동 169-20번지","indutype":"신변잡화 - 가방","category":"other"}]},{"lat":"37.302234642","long":"126.96981158","imageIndex":17,"items":[{"name":"드림북스","tel":"031-5286-9182","addr":"경기도 수원시 장안구 율전동 217-19번지 202호","indutype":"서적문구 - 일반서적","category":"other"},{"name":"예인테리어","tel":"031-268-7959","addr":"경기도 수원시 장안구 율전동 217-19번지","indutype":"건축자재 - 인테리어전문","category":"other"}]},{"lat":"37.302757661","long":"126.97136788","imageIndex":17,"items":[{"name":"디인디자인","tel":"031-271-3336","addr":"경기도 수원시 장안구 율전동 104-17번지","indutype":"건축자재 - 인테리어전문","category":"other"}]},{"lat":"37.298649516","long":"126.97339974","imageIndex":17,"items":[{"name":"디자인 대현","tel":"","addr":"경기도 수원시 장안구 율전동 276-1번지 1층 2호","indutype":"용역 서비스 - 사무서비스","category":"other"}]},{"lat":"37.302784931","long":"126.97228149","imageIndex":17,"items":[{"name":"디자인네오","tel":"02-2275-0530","addr":"경기도 수원시 장안구 율전동 99-56번지 아트빌 403호","indutype":"용역 서비스 - 사무서비스","category":"other"}]},{"lat":"37.303009254","long":"126.96886379","imageIndex":17,"items":[{"name":"디자인소원","tel":"031-304-8393","addr":"경기도 수원시 장안구 율전동 155-18번지 2층","indutype":"건축자재 - 인테리어전문","category":"other"},{"name":"우영침구커텐","tel":"031-207-0301","addr":"경기도 수원시 장안구 율전동 155-18번지","indutype":"직물 - 침구·수예점","category":"other"},{"name":"임광스튜디오","tel":"031-269-4317","addr":"경기도 수원시 장안구 율전동 155-18번지 2호","indutype":"광학제품 - 사진관","category":"other"},{"name":"코코블랙","tel":"031-271-0692","addr":"경기도 수원시 장안구 율전동 155-18번지","indutype":"의류 - 정장","category":"other"}]},{"lat":"37.302316011","long":"126.97081539","imageIndex":17,"items":[{"name":"라이브정보","tel":"031-268-3533","addr":"경기도 수원시 장안구 율전동 218-13번지","indutype":"서적문구 - 기타서적문구","category":"other"}]},{"lat":"37.302117547","long":"126.96994698","imageIndex":17,"items":[{"name":"렉스마(LEXMA)","tel":"031-268-8022","addr":"경기도 수원시 장안구 율전동 215-14번지","indutype":"회원제형태 - 레져업소","category":"other"}]},{"lat":"37.29848618","long":"126.9690914","imageIndex":17,"items":[{"name":"루키모바일","tel":"","addr":"경기도 수원시 장안구 율전동 298-6번지 청수빌딩 1층 102호","indutype":"사무통신 - 통신기기","category":"other"}]},{"lat":"37.30603659","long":"126.96851275","imageIndex":17,"items":[{"name":"리본스타일","tel":"070-7722-0813","addr":"경기도 수원시 장안구 율전동 546번지 밤꽃마을뜨란채상가-205","indutype":"문화.취미 - 민예·공예품","category":"other"},{"name":"망치쟁이","tel":"031-269-0479","addr":"경기도 수원시 장안구 율전동 546번지 밤꽃마을뜨란채 상가동 105호","indutype":"용역 서비스 - 기타용역서비스","category":"other"},{"name":"우진테크","tel":"031-305-5502","addr":"경기도 수원시 장안구 율전동 546번지 밤꽃마을뜨란채","indutype":"기타 - 기계공구","category":"other"}]},{"lat":"37.299343228","long":"126.97309495","imageIndex":17,"items":[{"name":"마이성균관대점","tel":"031-292-2854","addr":"경기도 수원시 장안구 율전동 281-2번지","indutype":"유통업 영리 - 편 의 점","category":"other"}]},{"lat":"37.298485432","long":"126.966565","imageIndex":17,"items":[{"name":"명도인테리어","tel":"031-271-5065","addr":"경기도 수원시 장안구 율전동 322-7번지 동명빌딩 102호","indutype":"건축자재 - 인테리어전문","category":"other"}]},{"lat":"37.297649366","long":"126.97334374","imageIndex":17,"items":[{"name":"명륜기획","tel":"031-278-4520","addr":"경기도 수원시 장안구 율전동 290-7번지 삼전상가 3","indutype":"서적문구 - 출판 및 인쇄물","category":"other"},{"name":"아이러브펫","tel":"031-278-7712","addr":"경기도 수원시 장안구 율전동 290-7번지 삼전상가","indutype":"문화.취미 - 애완동물","category":"other"}]},{"lat":"37.298567152","long":"126.96867405","imageIndex":17,"items":[{"name":"명문열쇠도장","tel":"031-296-0013","addr":"경기도 수원시 장안구 율전동 305-22번지 뚜레쥬드 110호","indutype":"기타 - 기계공구","category":"other"},{"name":"와츠업골프","tel":"070-7529-5927","addr":"경기도 수원시 장안구 율전동 305-22번지 뚜레쥬드 301호","indutype":"레져용품 - 스포츠·레져용품","category":"other"},{"name":"취미공예","tel":"031-295-6393","addr":"경기도 수원시 장안구 율전동 305-22번지","indutype":"문화.취미 - 문화취미기타","category":"other"}]},{"lat":"37.299676989","long":"126.97465128","imageIndex":17,"items":[{"name":"몽키텔레콤","tel":"031-444-0000","addr":"경기도 수원시 장안구 율전동 495-2번지 성대역사 4층 401호","indutype":"사무통신 - 통신기기","category":"other"},{"name":"소영꽃방","tel":"031-253-1848","addr":"경기도 수원시 장안구 율전동 495-2번지","indutype":"문화.취미 - 화원","category":"other"},{"name":"애견샵(Re:pet)","tel":"031-6379-4829","addr":"경기도 수원시 장안구 율전동 495-2번지","indutype":"문화.취미 - 애완동물","category":"other"}]},{"lat":"37.298458528","long":"126.96698232","imageIndex":17,"items":[{"name":"무한인테리어","tel":"031-295-5593","addr":"경기도 수원시 장안구 율전동 321-4번지 1동","indutype":"직물 - 카페트,커튼,천막,지물","category":"other"}]},{"lat":"37.300820615","long":"126.9719552","imageIndex":17,"items":[{"name":"물댄동산기독서점","tel":"031-251-3983","addr":"경기도 수원시 장안구 율전동 235-19번지","indutype":"서적문구 - 전문서적","category":"other"},{"name":"성대꽃직매장","tel":"031-268-5670","addr":"경기도 수원시 장안구 율전동 235-19번지 상가 1층 101호","indutype":"문화.취미 - 화원","category":"other"}]},{"lat":"37.297873772","long":"126.97011801","imageIndex":17,"items":[{"name":"미니스톱수원성대점","tel":"031-1577-9621","addr":"경기도 수원시 장안구 율전동 433-93번지 1층코너","indutype":"유통업 영리 - 편 의 점","category":"other"}]},{"lat":"37.297792343","long":"126.96892253","imageIndex":17,"items":[{"name":"미래","tel":"070-4154-5162","addr":"경기도 수원시 장안구 율전동 399-14번지 302호","indutype":"문화.취미 - 화원","category":"other"}]},{"lat":"37.29767521","long":"126.96892258","imageIndex":17,"items":[{"name":"미러션샤인","tel":"","addr":"경기도 수원시 장안구 율전동 399-15번지 1층","indutype":"의류 - 정장","category":"other"}]},{"lat":"37.301621978","long":"126.96992464","imageIndex":17,"items":[{"name":"미션(mission)","tel":"031-223-4627","addr":"경기도 수원시 장안구 율전동 210-5번지 성대그린빌라","indutype":"용역 서비스 - 기타용역서비스","category":"other"}]},{"lat":"37.302811686","long":"126.97123251","imageIndex":17,"items":[{"name":"미싱공방 자야스토리","tel":"031-000-0000","addr":"경기도 수원시 장안구 율전동 104-27번지 102호","indutype":"문화.취미 - 문화취미기타","category":"other"}]},{"lat":"37.301820054","long":"126.96939444","imageIndex":17,"items":[{"name":"민구텔레콤","tel":"031-268-0956","addr":"경기도 수원시 장안구 율전동 157-3번지","indutype":"사무통신 - 통신기기","category":"other"}]},{"lat":"37.304982439","long":"126.96867115","imageIndex":17,"items":[{"name":"바른손","tel":"031-254-3564","addr":"경기도 수원시 장안구 율전동 551번지 해바라기음악학원 G동 1층","indutype":"서적문구 - 문구용품","category":"other"},{"name":"엣지있게","tel":"031-247-8590","addr":"경기도 수원시 장안구 율전동 551번지","indutype":"의류 - 정장","category":"other"}]},{"lat":"37.298820535","long":"126.9727004","imageIndex":17,"items":[{"name":"바이더웨이수원성대점","tel":"031-293-0620","addr":"경기도 수원시 장안구 율전동 288-40번지 태화빌딩 1층","indutype":"유통업 영리 - 편 의 점","category":"other"},{"name":"세븐일레븐수원성대본점","tel":"","addr":"경기도 수원시 장안구 율전동 288-40번지 태화빌딩 101호-102호","indutype":"유통업 영리 - 편 의 점","category":"other"}]},{"lat":"37.298233893","long":"126.96909151","imageIndex":17,"items":[{"name":"바이민","tel":"031-306-2978","addr":"경기도 수원시 장안구 율전동 298-3번지 운화빌딩 102호","indutype":"의류 - 정장","category":"other"}]},{"lat":"37.306650265","long":"126.97206561","imageIndex":17,"items":[{"name":"밤밭노인복지관","tel":"031-271-8859","addr":"경기도 수원시 장안구 율전동 40-1번지","indutype":"문화.취미 - 티켓","category":"other"},{"name":"밤밭노인복지관","tel":"070-4047-8855","addr":"경기도 수원시 장안구 율전동 40-1번지","indutype":"기타의료기관 - 기타의료기관 및 기타","category":"other"},{"name":"밤밭노인복지관","tel":"070-4047-8855","addr":"경기도 수원시 장안구 율전동 40-1번지","indutype":"기타의료기관 - 기타의료기관 및 기타","category":"other"}]},{"lat":"37.298901116","long":"126.97076045","imageIndex":17,"items":[{"name":"백조싱크","tel":"031-293-2076","addr":"경기도 수원시 장안구 율전동 296-5번지","indutype":"주방용구 - 주방용구","category":"other"}]},{"lat":"37.303540342","long":"126.96711525","imageIndex":17,"items":[{"name":"버그클린","tel":"031-000-0000","addr":"경기도 수원시 장안구 율전동 169-12번지 102호","indutype":"용역 서비스 - 종합용역","category":"other"}]},{"lat":"37.300874776","long":"126.97233866","imageIndex":17,"items":[{"name":"베스트노무법인 경인지사","tel":"031-291-7458","addr":"경기도 수원시 장안구 율전동 236번지 제일빌딩 301호","indutype":"용역 서비스 - 법률회계서비스(법인)","category":"other"}]},{"lat":"37.298288715","long":"126.971866","imageIndex":17,"items":[{"name":"베이프갱스터 수원성대역점","tel":"031-213-1355","addr":"경기도 수원시 장안구 율전동 287번지 다래원 지하1층","indutype":"기타 - 기타 전문점","category":"other"},{"name":"삼국태국용품점","tel":"031-296-7001","addr":"경기도 수원시 장안구 율전동 287번지 3층","indutype":"신변잡화 - 기타잡화","category":"other"},{"name":"힐링엔젤스 성대점","tel":"","addr":"경기도 수원시 장안구 율전동 287번지 4층","indutype":"전기제품 - 기타전기제품","category":"other"}]},{"lat":"37.302125508","long":"126.9663715","imageIndex":17,"items":[{"name":"벽산세탁소","tel":"031-243-0230","addr":"경기도 수원시 장안구 율전동 168-100번지 용우빌라 101호","indutype":"수리서비스 - 세탁소","category":"other"}]},{"lat":"37.299009321","long":"126.97106492","imageIndex":17,"items":[{"name":"별빛통신","tel":"031-278-2232","addr":"경기도 수원시 장안구 율전동 295-1번지 1층 4호","indutype":"사무통신 - 통신기기","category":"other"}]},{"lat":"37.303847506","long":"126.96992367","imageIndex":17,"items":[{"name":"보노 (Bono)스포츠","tel":"031-271-9501","addr":"경기도 수원시 장안구 율전동 151-1번지 2층","indutype":"레져용품 - 스포츠·레져용품","category":"other"}]},{"lat":"37.297730267","long":"126.97258805","imageIndex":17,"items":[{"name":"봉성가구","tel":"031-296-1691","addr":"경기도 수원시 장안구 율전동 290-14번지 105호","indutype":"가구 - 일반가구","category":"other"},{"name":"성환철물","tel":"031-293-2159","addr":"경기도 수원시 장안구 율전동 290-14율전연립101","indutype":"건축자재 - 목재·석재·철물","category":"other"}]},{"lat":"37.304145529","long":"126.97248397","imageIndex":17,"items":[{"name":"북수원귀뚜라미보일러","tel":"031-243-3890","addr":"경기도 수원시 장안구 율전동 99-20번지 율전동제일오피스텔 102호","indutype":"건축자재 - 보일러·펌프·샷시","category":"other"},{"name":"통일원앙결혼정보회사","tel":"070-4102-8016","addr":"경기도 수원시 장안구 율전동 99-20번지 제일오피스텔 407호","indutype":"용역 서비스 - 혼례서비스","category":"other"}]},{"lat":"37.303010007","long":"126.97159336","imageIndex":17,"items":[{"name":"비와이시스템","tel":"","addr":"경기도 수원시 장안구 율전동 104-6번지 1층 103호","indutype":"사무통신 - 컴퓨터","category":"other"}]},{"lat":"37.298486748","long":"126.97114409","imageIndex":17,"items":[{"name":"사베베","tel":"031-268-1222","addr":"경기도 수원시 장안구 율전동 291-3번지 2층","indutype":"회원제형태 - 기타4","category":"other"}]},{"lat":"37.305397525","long":"126.97087048","imageIndex":17,"items":[{"name":"사진공방","tel":"031-269-1453","addr":"경기도 수원시 장안구 율전동 553번지 율전주공 201호","indutype":"광학제품 - 사진관","category":"other"},{"name":"희망둥지협동조합","tel":"031-269-1023","addr":"경기도 수원시 장안구 율전동 553번지 율전주공 201호","indutype":"용역 서비스 - 종합용역","category":"other"}]},{"lat":"37.291980758","long":"126.96900409","imageIndex":17,"items":[{"name":"삼성홈인테리어","tel":"031-227-2230","addr":"경기도 수원시 장안구 율전동 468번지 삼성 상가 105호","indutype":"건축자재 - 인테리어전문","category":"other"},{"name":"세븐일레븐수원율전삼성점","tel":"031-292-1732","addr":"경기도 수원시 장안구 율전동 468번지 상가 206호 207호","indutype":"유통업 영리 - 편 의 점","category":"other"}]},{"lat":"37.303874093","long":"126.96836711","imageIndex":17,"items":[{"name":"삼은사","tel":"031-269-8717","addr":"경기도 수원시 장안구 율전동 142-10번지","indutype":"수리서비스 - 세탁소","category":"other"}]},{"lat":"37.29728734","long":"126.96745657","imageIndex":17,"items":[{"name":"삼천리엔지니어링(주)","tel":"031-278-3014","addr":"경기도 수원시 장안구 율전동 382-4번지 삼천리엔지니어링(주) 101호","indutype":"용역 서비스 - 기타용역서비스","category":"other"}]},{"lat":"37.297847251","long":"126.97201281","imageIndex":17,"items":[{"name":"새성균기획","tel":"031-293-9152","addr":"경기도 수원시 장안구 율전동 290-43 외 필지 (290-44)","indutype":"서적문구 - 출판 및 인쇄물","category":"other"}]},{"lat":"37.303486838","long":"126.9690102","imageIndex":17,"items":[{"name":"새솔디자인","tel":"031-308-3236","addr":"경기도 수원시 장안구 율전동 145-2번지 101호","indutype":"용역 서비스 - 사무서비스","category":"other"}]},{"lat":"37.303819959","long":"126.96811898","imageIndex":17,"items":[{"name":"서정인테리어","tel":"031-268-9834","addr":"경기도 수원시 장안구 율전동 142-8번지 1층","indutype":"건축자재 - 인테리어전문","category":"other"},{"name":"시라솔루션","tel":"","addr":"경기도 수원시 장안구 율전동 142-8번지 1층 5호","indutype":"서적문구 - 과학기자재","category":"other"}]},{"lat":"37.29787465","long":"126.97345644","imageIndex":17,"items":[{"name":"성대문고","tel":"031-292-8784","addr":"경기도 수원시 장안구 율전동 290-19번지 석촌빌딩 지하1층","indutype":"사무통신 - 기타 사무용품","category":"other"},{"name":"성대서적","tel":"031-292-8784","addr":"경기도 수원시 장안구 율전동 290-19번지 석촌빌딩 지하1층","indutype":"서적문구 - 일반서적","category":"other"}]},{"lat":"37.298541066","long":"126.97211403","imageIndex":17,"items":[{"name":"성대문구","tel":"031-227-4441","addr":"경기도 수원시 장안구 율전동 288-6번지","indutype":"서적문구 - 문구용품","category":"other"},{"name":"캠프VR수원성대점","tel":"","addr":"경기도 수원시 장안구 율전동 288-6번지","indutype":"사무통신 - 컴퓨터","category":"other"}]},{"lat":"37.298729402","long":"126.96889955","imageIndex":17,"items":[{"name":"성대복싱체육관","tel":"031-294-8212","addr":"경기도 수원시 장안구 율전동 305-6번지 수일빌딩","indutype":"회원제형태 - 레져업소","category":"other"},{"name":"쉼 플레이스","tel":"070-8888-0906","addr":"경기도 수원시 장안구 율전동 305-6번지 수일빌딩 3층","indutype":"용역 서비스 - 사무서비스","category":"other"}]},{"lat":"37.297458592","long":"126.96764822","imageIndex":17,"items":[{"name":"성대세탁","tel":"031-278-5564","addr":"경기도 수원시 장안구 율전동 395-26번지","indutype":"수리서비스 - 세탁소","category":"other"}]},{"lat":"37.297179447","long":"126.96823483","imageIndex":17,"items":[{"name":"성대자전거","tel":"031-294-7155","addr":"경기도 수원시 장안구 율전동 395-41번지 1층 101호","indutype":"레져용품 - 스포츠·레져용품","category":"other"}]},{"lat":"37.297648996","long":"126.9719001","imageIndex":17,"items":[{"name":"성대중고전자제품","tel":"031-292-4545","addr":"경기도 수원시 장안구 율전동 437번지","indutype":"전기제품 - 가전제품","category":"other"}]},{"lat":"37.297764839","long":"126.96730972","imageIndex":17,"items":[{"name":"세븐일레븐수원율전동문점","tel":"031-1577-0711","addr":"경기도 수원시 장안구 율전동 395-9번지","indutype":"유통업 영리 - 편 의 점","category":"other"}]},{"lat":"37.299261614","long":"126.97108738","imageIndex":17,"items":[{"name":"세븐일레븐수원율전중앙점","tel":"031-1577-0711","addr":"경기도 수원시 장안구 율전동 296-23번지 동경빌딩 101호","indutype":"유통업 영리 - 편 의 점","category":"other"},{"name":"트라이 성대점","tel":"031-227-1334","addr":"경기도 수원시 장안구 율전동 296-23번지","indutype":"의류 - 내의판매","category":"other"}]},{"lat":"37.304316319","long":"126.97094989","imageIndex":17,"items":[{"name":"세탁나라","tel":"031-207-9560","addr":"경기도 수원시 장안구 율전동 108-1번지","indutype":"수리서비스 - 세탁소","category":"other"}]},{"lat":"37.304568471","long":"126.97045349","imageIndex":17,"items":[{"name":"센스","tel":"031-495-2337","addr":"경기도 수원시 장안구 율전동 109-4번지 1층","indutype":"의류 - 정장","category":"other"}]},{"lat":"37.297404412","long":"126.9672535","imageIndex":17,"items":[{"name":"소망인테리어","tel":"031-8004-0702","addr":"경기도 수원시 장안구 율전동 382번지","indutype":"직물 - 카페트,커튼,천막,지물","category":"other"}]},{"lat":"37.301621298","long":"126.96756732","imageIndex":17,"items":[{"name":"소예공방","tel":"031-5064-4348","addr":"경기도 수원시 장안구 율전동 166-6번지 202호","indutype":"신변잡화 - 액세서리","category":"other"}]},{"lat":"37.301422855","long":"126.96684556","imageIndex":17,"items":[{"name":"수제카페","tel":"070-4254-0160","addr":"경기도 수원시 장안구 율전동 184-15번지","indutype":"신변잡화 - 액세서리","category":"other"}]},{"lat":"37.30256723","long":"126.96709316","imageIndex":17,"items":[{"name":"스마일독","tel":"","addr":"경기도 수원시 장안구 율전동 168-48번지 102호","indutype":"문화.취미 - 애완동물","category":"other"}]},{"lat":"37.297315221","long":"126.97042277","imageIndex":17,"items":[{"name":"승현정보통신","tel":"031-294-1011","addr":"경기도 수원시 장안구 율전동 433-62번지","indutype":"사무통신 - 통신기기","category":"other"}]},{"lat":"37.297342215","long":"126.97028742","imageIndex":17,"items":[{"name":"썬더플레이스","tel":"02-2691-0962","addr":"경기도 수원시 장안구 율전동 433-69번지","indutype":"유통업 영리 - 기타유통업","category":"other"}]},{"lat":"37.2971803","long":"126.97127998","imageIndex":17,"items":[{"name":"씨유수원성균관점","tel":"031-666-5873","addr":"경기도 수원시 장안구 율전동 433-63번지 1층","indutype":"유통업 영리 - 편 의 점","category":"other"}]},{"lat":"37.302233807","long":"126.96694669","imageIndex":17,"items":[{"name":"씨유수원율전중앙점","tel":"031-269-9883","addr":"경기도 수원시 장안구 율전동 168-106번지 아트빌 1층","indutype":"유통업 영리 - 편 의 점","category":"other"}]},{"lat":"37.299090254","long":"126.9704784","imageIndex":17,"items":[{"name":"씨유율전농협사거리점","tel":"031-278-6795","addr":"경기도 수원시 장안구 율전동 295번지 1층","indutype":"유통업 영리 - 편 의 점","category":"other"}]},{"lat":"37.298541983","long":"126.97586979","imageIndex":17,"items":[{"name":"씨유율전래미안점","tel":"080-080-3663","addr":"경기도 수원시 장안구 율전동 265-5번지 1층","indutype":"유통업 영리 - 편 의 점","category":"other"}]},{"lat":"37.296567234","long":"126.96992685","imageIndex":17,"items":[{"name":"씨유율전삼성점","tel":"031-291-3131","addr":"경기도 수원시 장안구 율전동 433-86번지","indutype":"유통업 영리 - 편 의 점","category":"other"}]},{"lat":"37.298927261","long":"126.96764753","imageIndex":17,"items":[{"name":"씨유율전스카이점","tel":"02-1577-8007","addr":"경기도 수원시 장안구 율전동 314-10번지 1층","indutype":"유통업 영리 - 편 의 점","category":"other"}]},{"lat":"37.294701447","long":"126.96761567","imageIndex":17,"items":[{"name":"씨유율전원룸점","tel":"031-292-2151","addr":"경기도 수원시 장안구 율전동 416-10번지 엣지힐 101호","indutype":"유통업 영리 - 편 의 점","category":"other"}]},{"lat":"37.298396228","long":"126.96962153","imageIndex":17,"items":[{"name":"아싸비어 성균관대점","tel":"","addr":"경기도 수원시 장안구 율전동 297번지 하이파크 1층 2호","indutype":"유통업 영리 - 편 의 점","category":"other"},{"name":"아이템 (ITEM)","tel":"031-000-0000","addr":"경기도 수원시 장안구 율전동 297번지 하이파크 101호","indutype":"의류 - 정장","category":"other"},{"name":"주식회사소프트아쿠아","tel":"031-298-9953","addr":"경기도 수원시 장안구 율전동 297번지","indutype":"신변잡화 - 기타잡화","category":"other"},{"name":"화인종합장식","tel":"031-296-6704","addr":"경기도 수원시 장안구 율전동 297번지 하이파크 103호","indutype":"직물 - 카페트,커튼,천막,지물","category":"other"}]},{"lat":"37.30182014","long":"126.96969897","imageIndex":17,"items":[{"name":"아울렛DC백화점 율전점","tel":"031-207-2465","addr":"경기도 수원시 장안구 율전동 207-1번지","indutype":"신변잡화 - 기타잡화","category":"other"}]},{"lat":"37.296981262","long":"126.96837026","imageIndex":17,"items":[{"name":"아이샵","tel":"031-294-5729","addr":"경기도 수원시 장안구 율전동 409-2번지","indutype":"의류 - 정장","category":"other"}]},{"lat":"37.302316129","long":"126.97125528","imageIndex":17,"items":[{"name":"아이시엠서비스","tel":"","addr":"경기도 수원시 장안구 율전동 221-1번지 101호","indutype":"수리서비스 - 가정용품수리","category":"other"}]},{"lat":"37.303118295","long":"126.97222496","imageIndex":17,"items":[{"name":"에스엠텍미디어","tel":"","addr":"경기도 수원시 장안구 율전동 99-48번지 영하이빌 104호","indutype":"전기제품 - 가전제품","category":"other"}]},{"lat":"37.303901924","long":"126.97123205","imageIndex":17,"items":[{"name":"에이스공조냉동","tel":"031-268-5585","addr":"경기도 수원시 장안구 율전동 104-78번지 1층","indutype":"용역 서비스 - 기타용역서비스","category":"other"}]},{"lat":"37.303261825","long":"126.96986753","imageIndex":17,"items":[{"name":"에이스모바일","tel":"070-7715-9954","addr":"경기도 수원시 장안구 율전동 150-5번지 1층","indutype":"사무통신 - 통신기기","category":"other"},{"name":"위드정보통신","tel":"02-1577-0000","addr":"경기도 수원시 장안구 율전동 150-5번지 2층 202호","indutype":"사무통신 - 통신기기","category":"other"},{"name":"진조명","tel":"031-268-8860","addr":"경기도 수원시 장안구 율전동 150-5번지 102호","indutype":"건축자재 - 조명기구","category":"other"}]},{"lat":"37.29664746","long":"126.96694934","imageIndex":17,"items":[{"name":"에코","tel":"031-297-0103","addr":"경기도 수원시 장안구 율전동 375-2번지 이안 상가 101호","indutype":"의류 - 정장","category":"other"}]},{"lat":"37.304289076","long":"126.97017163","imageIndex":17,"items":[{"name":"엘림넥서스(수원지사)","tel":"031-244-9520","addr":"경기도 수원시 장안구 율전동 109-11번지","indutype":"회원제형태 - 기타4","category":"other"}]},{"lat":"37.30306414","long":"126.97186404","imageIndex":17,"items":[{"name":"엠텍","tel":"031-269-0176","addr":"경기도 수원시 장안구 율전동 100-9번지 101호","indutype":"서적문구 - 일반서적","category":"other"}]},{"lat":"37.301620907","long":"126.96628152","imageIndex":17,"items":[{"name":"영구크린","tel":"050-5306-1472","addr":"경기도 수원시 장안구 율전동 183-4번지","indutype":"용역 서비스 - 종합용역","category":"other"}]},{"lat":"37.294566725","long":"126.96909315","imageIndex":17,"items":[{"name":"영어충전소","tel":"0505-321-0579","addr":"경기도 수원시 장안구 율전동 419번지 삼성2단지 상가 312호","indutype":"회원제형태 - 서적","category":"other"}]},{"lat":"37.296901012","long":"126.97139288","imageIndex":17,"items":[{"name":"예빛문화사","tel":"031-295-8463","addr":"경기도 수원시 장안구 율전동 433-121번지 102호","indutype":"서적문구 - 출판 및 인쇄물","category":"other"},{"name":"제일기획","tel":"031-293-6288","addr":"경기도 수원시 장안구 율전동 433-121번지","indutype":"용역 서비스 - 종합용역","category":"other"}]},{"lat":"37.298036148","long":"126.97081721","imageIndex":17,"items":[{"name":"예스수원성대점","tel":"031-291-0709","addr":"경기도 수원시 장안구 율전동 402-3번지 상가 1층 1호","indutype":"의류 - 내의판매","category":"other"}]},{"lat":"37.29792801","long":"126.97076086","imageIndex":17,"items":[{"name":"오성과한음 문구","tel":"031-292-0313","addr":"경기도 수원시 장안구 율전동 402-8번지 1층,2층","indutype":"서적문구 - 문구용품","category":"other"}]},{"lat":"37.302621424","long":"126.96753302","imageIndex":17,"items":[{"name":"온기획","tel":"031-402-8762","addr":"경기도 수원시 장안구 율전동 168-23번지","indutype":"서적문구 - 출판 및 인쇄물","category":"other"}]},{"lat":"37.303848197","long":"126.97250664","imageIndex":17,"items":[{"name":"와리가리바이크","tel":"031-271-3089","addr":"경기도 수원시 장안구 율전동 99-22번지 동아빌딩 103호","indutype":"수리서비스 - 레져용품수리","category":"other"},{"name":"주식회사 다음스포츠","tel":"031-268-0322","addr":"경기도 수원시 장안구 율전동 99-22번지 4층","indutype":"용역 서비스 - 사무서비스","category":"other"},{"name":"주식회사 쿠비엔","tel":"031-271-5667","addr":"경기도 수원시 장안구 율전동 99-22번지 3층","indutype":"전기제품 - 가전제품","category":"other"}]},{"lat":"37.301648955","long":"126.96973289","imageIndex":17,"items":[{"name":"와스포츠","tel":"070-8774-4549","addr":"경기도 수원시 장안구 율전동 207-4번지 103호","indutype":"레져용품 - 스포츠·레져용품","category":"other"},{"name":"지후에스테틱","tel":"031-269-2293","addr":"경기도 수원시 장안구 율전동 207-4번지 1층","indutype":"회원제형태 - 기타4","category":"other"}]},{"lat":"37.302063212","long":"126.96897701","imageIndex":17,"items":[{"name":"왕감자문구팬시","tel":"031-207-6975","addr":"경기도 수원시 장안구 율전동 159-1번지 1층","indutype":"서적문구 - 문구용품","category":"other"}]},{"lat":"37.3029015","long":"126.97017223","imageIndex":17,"items":[{"name":"우리시대","tel":"031-8013-1555","addr":"경기도 수원시 장안구 율전동 152-2번지","indutype":"의류 - 정장","category":"other"}]},{"lat":"37.298928346","long":"126.97150483","imageIndex":17,"items":[{"name":"위키포토스튜디오","tel":"031-294-7395","addr":"경기도 수원시 장안구 율전동 285-6번지 제일빌딩 지하층","indutype":"광학제품 - 사진관","category":"other"}]},{"lat":"37.303397366","long":"126.97128866","imageIndex":17,"items":[{"name":"윈윈애드컴","tel":"031-418-3117","addr":"경기도 수원시 장안구 율전동 103-25번지 102호","indutype":"용역 서비스 - 종합용역","category":"other"},{"name":"행복만들기","tel":"031-306-2991","addr":"경기도 수원시 장안구 율전동 103-25번지 202호","indutype":"용역 서비스 - 종합용역","category":"other"}]},{"lat":"37.30231545","long":"126.9688077","imageIndex":17,"items":[{"name":"유진알뜰매장","tel":"031-207-7750","addr":"경기도 수원시 장안구 율전동 161-22번지","indutype":"전기제품 - 가전제품","category":"other"}]},{"lat":"37.301675224","long":"126.96711614","imageIndex":17,"items":[{"name":"윤윤시스템","tel":"","addr":"경기도 수원시 장안구 율전동 167-12번지 성원아트빌 4층 1호","indutype":"용역 서비스 - 기타용역서비스","category":"other"}]},{"lat":"37.29815354","long":"126.97178711","imageIndex":17,"items":[{"name":"율전문고","tel":"031-295-9944","addr":"경기도 수원시 장안구 율전동 285-8번지","indutype":"서적문구 - 일반서적","category":"other"}]},{"lat":"37.299035987","long":"126.96973403","imageIndex":17,"items":[{"name":"율전설비","tel":"031-376-9602","addr":"경기도 수원시 장안구 율전동 300번지 미주타운 101호","indutype":"용역 서비스 - 기타용역서비스","category":"other"},{"name":"클라우드 베이프","tel":"031-406-0919","addr":"경기도 수원시 장안구 율전동 300번지 율전미주타운 1층 101-2호","indutype":"신변잡화 - 기타잡화","category":"other"}]},{"lat":"37.29809004","long":"126.97019687","imageIndex":17,"items":[{"name":"율전이불마트","tel":"031-297-0069","addr":"경기도 수원시 장안구 율전동 292-7번지 우신빌딩 101호","indutype":"직물 - 침구·수예점","category":"other"}]},{"lat":"37.297927711","long":"126.96967813","imageIndex":17,"items":[{"name":"율전종합건재","tel":"031-293-3372","addr":"경기도 수원시 장안구 율전동 292-1번지","indutype":"건축자재 - 기타건축자재","category":"other"}]},{"lat":"37.296594116","long":"126.96939676","imageIndex":17,"items":[{"name":"율전화원","tel":"031-293-0506","addr":"경기도 수원시 장안구 율전동 407-6번지","indutype":"문화.취미 - 화원","category":"other"},{"name":"크린토피아(율전,성대점)","tel":"031-298-3705","addr":"경기도 수원시 장안구 율전동 407-6번지","indutype":"수리서비스 - 세탁소","category":"other"}]},{"lat":"37.297729979","long":"126.97148277","imageIndex":17,"items":[{"name":"율천동 주민자치회","tel":"","addr":"경기도 수원시 장안구 율전동 433-147번지","indutype":"문화.취미 - 문화취미기타","category":"other"}]},{"lat":"37.298620896","long":"126.96759128","imageIndex":17,"items":[{"name":"이마트24 원앙부부율전점","tel":"","addr":"경기도 수원시 장안구 율전동 321-9번지 경진빌딩 1층 3호,4호","indutype":"유통업 영리 - 편 의 점","category":"other"}]},{"lat":"37.301234575","long":"126.97006016","imageIndex":17,"items":[{"name":"이엠솔루션코리아","tel":"","addr":"경기도 수원시 장안구 율전동 208-1번지 3층","indutype":"용역 서비스 - 소프트웨어","category":"other"}]},{"lat":"37.301486762","long":"126.96969912","imageIndex":17,"items":[{"name":"이화실루엣","tel":"070-4245-2981","addr":"경기도 수원시 장안구 율전동 207-17번지 1층","indutype":"의류 - 정장","category":"other"}]},{"lat":"37.30251389","long":"126.96956332","imageIndex":17,"items":[{"name":"정안상사","tel":"031-268-9834","addr":"경기도 수원시 장안구 율전동 156-3번지 영화모음 1층 105호","indutype":"건축자재 - 페인트","category":"other"}]},{"lat":"37.3015137","long":"126.96937202","imageIndex":17,"items":[{"name":"정안컴퓨터","tel":"031-269-5112","addr":"경기도 수원시 장안구 율전동 157-16번지 1층","indutype":"수리서비스 - 사무·통신기기수리","category":"other"}]},{"lat":"37.295899517","long":"126.96664519","imageIndex":17,"items":[{"name":"제이원텍","tel":"070-7566-0860","addr":"경기도 수원시 장안구 율전동 377-3번지 1층","indutype":"서적문구 - 과학기자재","category":"other"}]},{"lat":"37.303010231","long":"126.97245059","imageIndex":17,"items":[{"name":"제이이소방(주)","tel":"031-269-2119","addr":"경기도 수원시 장안구 율전동 99-10번지 주상빌딩 301호","indutype":"용역 서비스 - 사무서비스","category":"other"}]},{"lat":"37.305973413","long":"126.96815183","imageIndex":17,"items":[{"name":"제이피스포츠 (JP SPORTS)","tel":"070-7524-7789","addr":"경기도 수원시 장안구 율전동 546번지 밤꽃마을뜨란채 108동 303호","indutype":"회원제형태 - 기타4","category":"other"}]},{"lat":"37.299153211","long":"126.97006106","imageIndex":17,"items":[{"name":"조은알뜰","tel":"031-241-8708","addr":"경기도 수원시 장안구 율전동 296-19번지","indutype":"신변잡화 - 기타잡화","category":"other"}]},{"lat":"37.306234198","long":"126.96644847","imageIndex":17,"items":[{"name":"주공꽃마을세탁소","tel":"031-269-3123","addr":"경기도 수원시 장안구 율전동 545번지 밤꽃마을주공아파트 2호","indutype":"수리서비스 - 세탁소","category":"other"}]},{"lat":"37.304343401","long":"126.97114163","imageIndex":17,"items":[{"name":"주식회사 이엠이노베이션","tel":"031-271-0502","addr":"경기도 수원시 장안구 율전동 108-7번지 퍼스트음악학원 102호","indutype":"기타 - 기계공구","category":"other"}]},{"lat":"37.301539661","long":"126.96578528","imageIndex":17,"items":[{"name":"주식회사 한양에어텍","tel":"031-271-5530","addr":"경기도 수원시 장안구 율전동 181-3번지","indutype":"전기제품 - 냉열기기","category":"other"}]},{"lat":"37.304118301","long":"126.97172826","imageIndex":17,"items":[{"name":"중앙상사","tel":"031-207-0980","addr":"경기도 수원시 장안구 율전동 107-4번지","indutype":"기타 - 기계공구","category":"other"}]},{"lat":"37.303729922","long":"126.96834461","imageIndex":17,"items":[{"name":"지구촌전기","tel":"031-269-4804","addr":"경기도 수원시 장안구 율전동 142-11번지 (1층상가2호)","indutype":"전기제품 - 기타전기제품","category":"other"}]},{"lat":"37.302208001","long":"126.97123276","imageIndex":17,"items":[{"name":"지윤인테리어","tel":"031-1544-7924","addr":"경기도 수원시 장안구 율전동 221-2번지","indutype":"용역 서비스 - 기타용역서비스","category":"other"}]},{"lat":"37.298872648","long":"126.96584298","imageIndex":17,"items":[{"name":"진명스크린골프존","tel":"031-292-8207","addr":"경기도 수원시 장안구 율전동 358-1번지","indutype":"회원제형태 - 레져업소","category":"other"}]},{"lat":"37.298873887","long":"126.97003863","imageIndex":17,"items":[{"name":"진솔상사","tel":"031-296-4228","addr":"경기도 수원시 장안구 율전동 296-37번지","indutype":"농업 - 농기계","category":"other"}]},{"lat":"37.30495536","long":"126.96850197","imageIndex":17,"items":[{"name":"진아트플라워","tel":"070-8111-3800","addr":"경기도 수원시 장안구 율전동 550번지 상지빌딩 101호","indutype":"문화.취미 - 화원","category":"other"}]},{"lat":"37.297126334","long":"126.97164091","imageIndex":17,"items":[{"name":"챌린져GYM","tel":"031-278-7863","addr":"경기도 수원시 장안구 율전동 433-118번지 지층","indutype":"회원제형태 - 레져업소","category":"other"},{"name":"태학사","tel":"031-291-4611","addr":"경기도 수원시 장안구 율전동 433-118번지","indutype":"서적문구 - 출판 및 인쇄물","category":"other"}]},{"lat":"37.304928233","long":"126.96817487","imageIndex":17,"items":[{"name":"쿠루루네옷장","tel":"031-8061-7009","addr":"경기도 수원시 장안구 율전동 548번지 금영빌딩 102호","indutype":"의류 - 아동의류","category":"other"}]},{"lat":"37.303180802","long":"126.97011571","imageIndex":17,"items":[{"name":"크린세탁광장율전점","tel":"031-268-9040","addr":"경기도 수원시 장안구 율전동 152.1층5호","indutype":"수리서비스 - 세탁소","category":"other"}]},{"lat":"37.304423297","long":"126.96695692","imageIndex":17,"items":[{"name":"크린에이드 세탁편의점/힐할인마트","tel":"031-271-5900","addr":"경기도 수원시 장안구 율전동 560번지 서희스타힐스3단지 107호~109호","indutype":"수리서비스 - 세탁소","category":"other"}]},{"lat":"37.304928283","long":"126.96834407","imageIndex":17,"items":[{"name":"크린토피아 율전뜨란채점","tel":"031-269-8856","addr":"경기도 수원시 장안구 율전동 549번지 1층 101호","indutype":"수리서비스 - 세탁소","category":"other"}]},{"lat":"37.307225759","long":"126.96789182","imageIndex":17,"items":[{"name":"탄성콜","tel":"031-251-8269","addr":"경기도 수원시 장안구 율전동 546번지 밤꽃마을뜨란채 103동 2004호","indutype":"용역 서비스 - 기타용역서비스","category":"other"}]},{"lat":"37.30220751","long":"126.96945066","imageIndex":17,"items":[{"name":"태양철물","tel":"031-245-4004","addr":"경기도 수원시 장안구 율전동 157-1번지","indutype":"건축자재 - 목재·석재·철물","category":"other"}]},{"lat":"37.298341709","long":"126.96803128","imageIndex":17,"items":[{"name":"폼","tel":"031-292-7767","addr":"경기도 수원시 장안구 율전동 394-13번지 한나텔 1호","indutype":"의류 - 정장","category":"other"}]},{"lat":"37.298792408","long":"126.96867395","imageIndex":17,"items":[{"name":"플레이솝(play soap)","tel":"031-899-0242","addr":"경기도 수원시 장안구 율전동 307-9번지 해생빌딩 1층 105호","indutype":"문화.취미 - 문화취미기타","category":"other"}]},{"lat":"37.298098675","long":"126.968866","imageIndex":17,"items":[{"name":"하지마루","tel":"031-239-9744","addr":"경기도 수원시 장안구 율전동 306-5번지 1층","indutype":"의류 - 정장","category":"other"}]},{"lat":"37.303478524","long":"126.97153677","imageIndex":17,"items":[{"name":"한국가스공영","tel":"031-207-3002","addr":"경기도 수원시 장안구 율전동 104-84번지","indutype":"건축자재 - 보일러·펌프·샷시","category":"other"}]},{"lat":"37.30082065","long":"126.97209054","imageIndex":17,"items":[{"name":"해피+성인용품점","tel":"031-271-1753","addr":"경기도 수원시 장안구 율전동 235-8번지 3층","indutype":"기타 - 기타 전문점","category":"other"}]},{"lat":"37.304090891","long":"126.97031834","imageIndex":17,"items":[{"name":"현대설비건축","tel":"031-207-4053","addr":"경기도 수원시 장안구 율전동 105-6번지","indutype":"건축자재 - 부동산 분양","category":"other"}]},{"lat":"37.298288487","long":"126.97100884","imageIndex":17,"items":[{"name":"현스테라피","tel":"031-893-7474","addr":"경기도 수원시 장안구 율전동 291-4번지","indutype":"회원제형태 - 기타4","category":"other"}]},{"lat":"37.304316267","long":"126.97075814","imageIndex":17,"items":[{"name":"현진디앤피","tel":"031-291-4395","addr":"경기도 수원시 장안구 율전동 108-6번지","indutype":"유통업 영리 - 기타유통업","category":"other"}]},{"lat":"37.302846966","long":"126.96850293","imageIndex":17,"items":[{"name":"홈스마일","tel":"031-269-1235","addr":"경기도 수원시 장안구 율전동 155-5번지 101호","indutype":"직물 - 침구·수예점","category":"other"}]},{"lat":"37.302757792","long":"126.97186417","imageIndex":17,"items":[{"name":"홈케어타임","tel":"031-000-0000","addr":"경기도 수원시 장안구 율전동 100-26번지 102호 지층 102호","indutype":"용역 서비스 - 종합용역","category":"other"}]},{"lat":"37.299342488","long":"126.97028655","imageIndex":17,"items":[{"name":"희귀애완동물전문점","tel":"","addr":"경기도 수원시 장안구 율전동 296-30번지 2층","indutype":"문화.취미 - 애완동물","category":"other"}]},{"lat":"37.299064035","long":"126.97359132","imageIndex":17,"items":[{"name":"히든플라워","tel":"031-309-3343","addr":"경기도 수원시 장안구 율전동 280-28번지","indutype":"문화.취미 - 화원","category":"other"}]},{"lat":"37.298649516","long":"126.97339974","imageIndex":13,"items":[{"name":"(주)수원사랑나눔","tel":"031-224-8679","addr":"경기도 수원시 장안구 율전동 276-1번지 2층","indutype":"보건위생 - 기타대인서비스","category":"beauty"},{"name":"이연헤어샵","tel":"031-296-1395","addr":"경기도 수원시 장안구 율전동 276-1번지 1층 1호","indutype":"보건위생 - 미용원","category":"beauty"}]},{"lat":"37.29848618","long":"126.9690914","imageIndex":13,"items":[{"name":"1001안경콘택트성대점","tel":"031-296-9001","addr":"경기도 수원시 장안구 율전동 298-6번지","indutype":"보건위생 - 안경","category":"beauty"}]},{"lat":"37.296701904","long":"126.96823504","imageIndex":13,"items":[{"name":"가휘라인","tel":"031-292-4858","addr":"경기도 수원시 장안구 율전동 409-5번지","indutype":"보건위생 - 미용원","category":"beauty"}]},{"lat":"37.304090891","long":"126.97031834","imageIndex":13,"items":[{"name":"그린헤어아트","tel":"031-207-2547","addr":"경기도 수원시 장안구 율전동 105-6번지","indutype":"보건위생 - 미용원","category":"beauty"}]},{"lat":"37.30326227","long":"126.97150302","imageIndex":13,"items":[{"name":"김현정헤어","tel":"031-268-8656","addr":"경기도 수원시 장안구 율전동 104-64번지 1층","indutype":"보건위생 - 미용원","category":"beauty"}]},{"lat":"37.297404412","long":"126.9672535","imageIndex":13,"items":[{"name":"나즈유통","tel":"031-296-9604","addr":"경기도 수원시 장안구 율전동 382","indutype":"보건위생 - 미용재료","category":"beauty"}]},{"lat":"37.295980838","long":"126.96740079","imageIndex":13,"items":[{"name":"네일. 가희","tel":"031-268-8781","addr":"경기도 수원시 장안구 율전동 414-18번지 101호","indutype":"보건위생 - 피부미용실","category":"beauty"}]},{"lat":"37.302287699","long":"126.96639398","imageIndex":13,"items":[{"name":"노벨상사","tel":"031-352-1673","addr":"경기도 수원시 장안구 율전동 168-47번지 화이트하우스 301호","indutype":"보건위생 - 미용재료","category":"beauty"}]},{"lat":"37.301595609","long":"126.97239476","imageIndex":13,"items":[{"name":"다비치안경성대점","tel":"031-269-0921","addr":"경기도 수원시 장안구 율전동 92-2번지 송원빌딩 2층","indutype":"보건위생 - 안경","category":"beauty"}]},{"lat":"37.299153211","long":"126.97006106","imageIndex":13,"items":[{"name":"다온네일","tel":"031-111-1111","addr":"경기도 수원시 장안구 율전동 296-19번지 101호","indutype":"보건위생 - 피부미용실","category":"beauty"}]},{"lat":"37.298288487","long":"126.97100884","imageIndex":13,"items":[{"name":"더제이헤어","tel":"031-295-2001","addr":"경기도 수원시 장안구 율전동 291-4번지 율전빌딩 3층","indutype":"보건위생 - 미용원","category":"beauty"},{"name":"에뛰드하우스성대점","tel":"031-293-5131","addr":"경기도 수원시 장안구 율전동 291-4번지 율전빌딩","indutype":"보건위생 - 화장품","category":"beauty"}]},{"lat":"37.305622818","long":"126.97100574","imageIndex":13,"items":[{"name":"데이브음악치료센터","tel":"","addr":"경기도 수원시 장안구 율전동 554번지 유영타운 3층 302호","indutype":"보건위생 - 기타대인서비스","category":"beauty"},{"name":"오케이미","tel":"070-4240-0025","addr":"경기도 수원시 장안구 율전동 554 유영타운 201호","indutype":"보건위생 - 안경","category":"beauty"}]},{"lat":"37.297764275","long":"126.96548261","imageIndex":13,"items":[{"name":"도도헤어","tel":"031-278-5444","addr":"경기도 수원시 장안구 율전동 600번지 수원성균관대역동문굿모닝힐 209호","indutype":"보건위생 - 미용원","category":"beauty"},{"name":"로이스(ROYCE)이용원","tel":"031-292-5677","addr":"경기도 수원시 장안구 율전동 600번지 성균관대역동문굿모닝힐단지내상가 301호","indutype":"보건위생 - 이용원","category":"beauty"},{"name":"젠틀맨남성커트","tel":"031-297-7133","addr":"경기도 수원시 장안구 율전동 600번지 수원성균관대학동문굿모닝힐 206호","indutype":"보건위생 - 이용원","category":"beauty"},{"name":"피부를디자인하다","tel":"","addr":"경기도 수원시 장안구 율전동 600번지 수원성균관대역동문굿모닝힐 상가동 204호","indutype":"보건위생 - 피부미용실","category":"beauty"}]},{"lat":"37.304928233","long":"126.96817487","imageIndex":13,"items":[{"name":"라푼젤","tel":"031-268-9114","addr":"경기도 수원시 장안구 율전동 548번지 금영빌딩 102호","indutype":"보건위생 - 미용원","category":"beauty"}]},{"lat":"37.298620896","long":"126.96759128","imageIndex":13,"items":[{"name":"레드로브룸","tel":"031-298-3864","addr":"경기도 수원시 장안구 율전동 321-9번지 경진빌딩 102호","indutype":"보건위생 - 미용원","category":"beauty"},{"name":"유정헤어라인","tel":"031-297-9600","addr":"경기도 수원시 장안구 율전동 321-9번지 경진빌딩","indutype":"보건위생 - 미용원","category":"beauty"}]},{"lat":"37.305397525","long":"126.97087048","imageIndex":13,"items":[{"name":"로뎀아동심리발달센터","tel":"031-269-4659","addr":"경기도 수원시 장안구 율전동 553번지 율전주공 상가 403호","indutype":"보건위생 - 기타대인서비스","category":"beauty"}]},{"lat":"37.297008315","long":"126.96844919","imageIndex":13,"items":[{"name":"루다헤어","tel":"031-227-2533","addr":"경기도 수원시 장안구 율전동 408-23번지 101호,102호","indutype":"보건위생 - 미용원","category":"beauty"},{"name":"에스테틱 김정순","tel":"031-294-7327","addr":"경기도 수원시 장안구 율전동 408-23번지 2층 201호","indutype":"보건위생 - 화장품","category":"beauty"},{"name":"헤이미네일","tel":"","addr":"경기도 수원시 장안구 율전동 408-23번지 201호","indutype":"보건위생 - 피부미용실","category":"beauty"}]},{"lat":"37.297431741","long":"126.96825727","imageIndex":13,"items":[{"name":"루다헤어 화이트점","tel":"031-2301-5087","addr":"경기도 수원시 장안구 율전동 395-21번지 1층","indutype":"보건위생 - 미용원","category":"beauty"}]},{"lat":"37.298233893","long":"126.96909151","imageIndex":13,"items":[{"name":"리미트헤어","tel":"031-304-7236","addr":"경기도 수원시 장안구 율전동 298-3번지 103,104호","indutype":"보건위생 - 미용원","category":"beauty"}]},{"lat":"37.300730627","long":"126.97239511","imageIndex":13,"items":[{"name":"말레(헤어샵)","tel":"031-224-4241","addr":"경기도 수원시 장안구 율전동 238-3번지 2층","indutype":"보건위생 - 미용원","category":"beauty"}]},{"lat":"37.299009321","long":"126.97106492","imageIndex":13,"items":[{"name":"머리못하는집 성대점106호점","tel":"031-227-7436","addr":"경기도 수원시 장안구 율전동 295-1번지","indutype":"보건위생 - 미용원","category":"beauty"}]},{"lat":"37.297649366","long":"126.97334374","imageIndex":13,"items":[{"name":"메이리헤어","tel":"031-269-5915","addr":"경기도 수원시 장안구 율전동 290-7번지 삼전상가 1층","indutype":"보건위생 - 미용원","category":"beauty"}]},{"lat":"37.301369638","long":"126.96973301","imageIndex":13,"items":[{"name":"미라클헤어","tel":"031-268-2056","addr":"경기도 수원시 장안구 율전동 207-5번지","indutype":"보건위생 - 미용원","category":"beauty"}]},{"lat":"37.299369872","long":"126.97159487","imageIndex":13,"items":[{"name":"미샤헤어","tel":"031-292-3135","addr":"경기도 수원시 장안구 율전동 285-2번지","indutype":"보건위생 - 미용원","category":"beauty"},{"name":"북수원온천 좌욕","tel":"031-293-7841","addr":"경기도 수원시 장안구 율전동 285-2번지 SKHUBBLUE 8층","indutype":"보건위생 - 기타대인서비스","category":"beauty"},{"name":"북수원온천남세신","tel":"031-293-4781","addr":"경기도 수원시 장안구 율전동 285-2번지 8층","indutype":"보건위생 - 기타대인서비스","category":"beauty"},{"name":"북수원온천실면도","tel":"031-293-7840","addr":"경기도 수원시 장안구 율전동 285-2번지 8층","indutype":"보건위생 - 피부미용실","category":"beauty"},{"name":"북수원온천여세신","tel":"031-293-7841","addr":"경기도 수원시 장안구 율전동 285-2번지 8층","indutype":"보건위생 - 기타대인서비스","category":"beauty"},{"name":"북수원온천여세신","tel":"031-293-7841","addr":"경기도 수원시 장안구 율전동 285-2번지 SK HUB BLUE 8층","indutype":"보건위생 - 기타대인서비스","category":"beauty"},{"name":"북수원온천이용원","tel":"031-293-7005","addr":"경기도 수원시 장안구 율전동 285-2번지","indutype":"보건위생 - 이용원","category":"beauty"},{"name":"뷰티온(뷰티ON)","tel":"","addr":"경기도 수원시 장안구 율전동 285-2번지 SK허브블루 2층 2073~2077호","indutype":"보건위생 - 피부미용실","category":"beauty"},{"name":"비에스","tel":"031-293-7005","addr":"경기도 수원시 장안구 율전동 285-2번지 9층 SKHUBBLUE","indutype":"보건위생 - 의료용품","category":"beauty"},{"name":"솔로몬스킨타운","tel":"031-293-7841","addr":"경기도 수원시 장안구 율전동 285-2번지 9층","indutype":"보건위생 - 피부미용실","category":"beauty"},{"name":"솔로몬화장품","tel":"031-293-7841","addr":"경기도 수원시 장안구 율전동 285-2번지 SK HUB BLUE 9층","indutype":"보건위생 - 화장품","category":"beauty"},{"name":"얼마나좋은지","tel":"","addr":"경기도 수원시 장안구 율전동 285-2번지 SKHUBBLUE 2062,2063호","indutype":"보건위생 - 피부미용실","category":"beauty"},{"name":"하얀뷰티","tel":"070-4223-3795","addr":"경기도 수원시 장안구 율전동 285-2번지 2층 이슈나인","indutype":"보건위생 - 화장품","category":"beauty"}]},{"lat":"37.297568341","long":"126.97361446","imageIndex":13,"items":[{"name":"미소짓는안경원","tel":"031-298-2744","addr":"경기도 수원시 장안구 율전동 290-20번지 제1.2종근린생할시설 1층 101호","indutype":"보건위생 - 안경","category":"beauty"}]},{"lat":"37.298341578","long":"126.96759142","imageIndex":13,"items":[{"name":"미스터헤어","tel":"031-308-3195","addr":"경기도 수원시 장안구 율전동 394-7번지 103호","indutype":"보건위생 - 미용원","category":"beauty"},{"name":"반하다네일","tel":"031-111-1111","addr":"경기도 수원시 장안구 율전동 394-7번지 102호","indutype":"보건위생 - 피부미용실","category":"beauty"}]},{"lat":"37.298233522","long":"126.96781704","imageIndex":13,"items":[{"name":"미인에","tel":"070-5118-2236","addr":"경기도 수원시 장안구 율전동 394-15번지 101호","indutype":"보건위생 - 화장품","category":"beauty"}]},{"lat":"37.300874776","long":"126.97233866","imageIndex":13,"items":[{"name":"민들레렌즈안경","tel":"","addr":"경기도 수원시 장안구 율전동 236번지 대명빌딩 1동 206호","indutype":"보건위생 - 안경","category":"beauty"}]},{"lat":"37.298729402","long":"126.96889955","imageIndex":13,"items":[{"name":"바꺼바헤어","tel":"070-7358-0901","addr":"경기도 수원시 장안구 율전동 305-6번지 수일빌딩 104호","indutype":"보건위생 - 미용원","category":"beauty"}]},{"lat":"37.305541816","long":"126.97134416","imageIndex":13,"items":[{"name":"바른자세교정","tel":"031-548-2600","addr":"경기도 수원시 장안구 율전동 111-14번지 인정베스트빌 A동 1층 2호","indutype":"보건위생 - 피부미용실","category":"beauty"},{"name":"송미선뷰티샵","tel":"031-297-8277","addr":"경기도 수원시 장안구 율전동 111-14번지 A동 201-1호","indutype":"보건위생 - 미용원","category":"beauty"},{"name":"이선영네일Boutique(부티크)","tel":"031-296-0702","addr":"경기도 수원시 장안구 율전동 111-14번지 A동 201-3호","indutype":"보건위생 - 피부미용실","category":"beauty"}]},{"lat":"37.296873657","long":"126.97019739","imageIndex":13,"items":[{"name":"밝은눈안경","tel":"031-296-9562","addr":"경기도 수원시 장안구 율전동 433-76번지","indutype":"보건위생 - 안경","category":"beauty"}]},{"lat":"37.301955357","long":"126.9699245","imageIndex":13,"items":[{"name":"베티네일","tel":"070-4402-1677","addr":"경기도 수원시 장안구 율전동 215-10번지 1층","indutype":"보건위생 - 피부미용실","category":"beauty"}]},{"lat":"37.298486748","long":"126.97114409","imageIndex":13,"items":[{"name":"보그헤어 수원성대점","tel":"031-298-2251","addr":"경기도 수원시 장안구 율전동 291-3번지 2층","indutype":"보건위생 - 미용원","category":"beauty"},{"name":"아이닥터안경","tel":"031-298-1393","addr":"경기도 수원시 장안구 율전동 291-3번지","indutype":"보건위생 - 안경","category":"beauty"}]},{"lat":"37.298234747","long":"126.97222694","imageIndex":13,"items":[{"name":"보네르헤어카페","tel":"031-291-0982","addr":"경기도 수원시 장안구 율전동 288-9번지 1층","indutype":"보건위생 - 미용원","category":"beauty"}]},{"lat":"37.298098675","long":"126.968866","imageIndex":13,"items":[{"name":"보니타네일","tel":"031-929-4993","addr":"경기도 수원시 장안구 율전동 306-5번지 2층","indutype":"보건위생 - 피부미용실","category":"beauty"}]},{"lat":"37.297423681","long":"126.97167463","imageIndex":13,"items":[{"name":"봄헤어","tel":"031-277-0880","addr":"경기도 수원시 장안구 율전동 433-119번지 2층","indutype":"보건위생 - 미용원","category":"beauty"}]},{"lat":"37.298566918","long":"126.96787327","imageIndex":13,"items":[{"name":"블루밍헤어","tel":"031-296-9814","addr":"경기도 수원시 장안구 율전동 321-6번지","indutype":"보건위생 - 미용원","category":"beauty"}]},{"lat":"37.30478467","long":"126.97028421","imageIndex":13,"items":[{"name":"샤샤헤어","tel":"","addr":"경기도 수원시 장안구 율전동 109-16번지","indutype":"보건위생 - 미용원","category":"beauty"}]},{"lat":"37.298423189","long":"126.96937339","imageIndex":13,"items":[{"name":"서현순헤어","tel":"031-293-9925","addr":"경기도 수원시 장안구 율전동 298-16번지 102호","indutype":"보건위생 - 미용원","category":"beauty"}]},{"lat":"37.302784931","long":"126.97228149","imageIndex":13,"items":[{"name":"송희원헤어샵","tel":"031-268-0881","addr":"경기도 수원시 장안구 율전동 99-56번지 아트빌 1층","indutype":"보건위생 - 미용원","category":"beauty"}]},{"lat":"37.301648955","long":"126.96973289","imageIndex":13,"items":[{"name":"수앤미헤어라인","tel":"070-8654-2365","addr":"경기도 수원시 장안구 율전동 207-4번지 101호","indutype":"보건위생 - 미용원","category":"beauty"}]},{"lat":"37.298036148","long":"126.97081721","imageIndex":13,"items":[{"name":"수원성대역점이훈ALL30000미용실","tel":"031-295-4578","addr":"경기도 수원시 장안구 율전동 402-3번지 3층 301호","indutype":"보건위생 - 미용원","category":"beauty"},{"name":"아리따움수원성대점","tel":"031-295-3030","addr":"경기도 수원시 장안구 율전동 402-3번지 1층 102호","indutype":"보건위생 - 화장품","category":"beauty"}]},{"lat":"37.29767521","long":"126.96892258","imageIndex":13,"items":[{"name":"순수네일","tel":"070-7436-1674","addr":"경기도 수원시 장안구 율전동 399-15번지 1층","indutype":"보건위생 - 피부미용실","category":"beauty"}]},{"lat":"37.303369776","long":"126.9692584","imageIndex":13,"items":[{"name":"쉭스헤어","tel":"031-293-4479","addr":"경기도 수원시 장안구 율전동 148-5번지 104호","indutype":"보건위생 - 미용원","category":"beauty"},{"name":"춘자네일","tel":"031-000-0000","addr":"경기도 수원시 장안구 율전동 148-5번지 103호","indutype":"보건위생 - 피부미용실","category":"beauty"}]},{"lat":"37.298982131","long":"126.97047845","imageIndex":13,"items":[{"name":"스타","tel":"031-293-1313","addr":"경기도 수원시 장안구 율전동 295-5번지 4층","indutype":"보건위생 - 기타대인서비스","category":"beauty"}]},{"lat":"37.298512386","long":"126.96631686","imageIndex":13,"items":[{"name":"신일희망이용원","tel":"031-295-1003","addr":"경기도 수원시 장안구 율전동 360-9번지 성원주택 2호","indutype":"보건위생 - 미용원","category":"beauty"}]},{"lat":"37.302396827","long":"126.96981151","imageIndex":13,"items":[{"name":"쏠레이헤어","tel":"031-890-8544","addr":"경기도 수원시 장안구 율전동 216-2번지 나우빌딩 1층","indutype":"보건위생 - 미용원","category":"beauty"}]},{"lat":"37.30603659","long":"126.96851275","imageIndex":13,"items":[{"name":"아띠헤어샵","tel":"031-296-0535","addr":"경기도 수원시 장안구 율전동 546번지 밤꽃마을뜨란채 상가동 2층 204호","indutype":"보건위생 - 미용원","category":"beauty"},{"name":"헤어파크","tel":"","addr":"경기도 수원시 장안구 율전동 546번지 밤꽃마을뜨란채 상가동 102호","indutype":"보건위생 - 미용원","category":"beauty"},{"name":"화장품나라","tel":"070-4184-1172","addr":"경기도 수원시 장안구 율전동 546번지 밤꽃마을뜨란채 상가 201호","indutype":"보건위생 - 화장품","category":"beauty"}]},{"lat":"37.298928346","long":"126.97150483","imageIndex":13,"items":[{"name":"어울림안경","tel":"031-293-1919","addr":"경기도 수원시 장안구 율전동 285-6 1층2","indutype":"보건위생 - 안경","category":"beauty"}]},{"lat":"37.298368525","long":"126.96730944","imageIndex":13,"items":[{"name":"에스와이 퀸즈","tel":"031-227-2574","addr":"경기도 수원시 장안구 율전동 394-5번지 2층","indutype":"보건위생 - 화장품","category":"beauty"}]},{"lat":"37.296792528","long":"126.97006209","imageIndex":13,"items":[{"name":"엘지(LG)보떼 수원성대점","tel":"031-295-5203","addr":"경기도 수원시 장안구 율전동 433-79번지 1층","indutype":"보건위생 - 화장품","category":"beauty"}]},{"lat":"37.304928283","long":"126.96834407","imageIndex":13,"items":[{"name":"예인헤어","tel":"070-4245-2981","addr":"경기도 수원시 장안구 율전동 549번지 1층 102호","indutype":"보건위생 - 미용원","category":"beauty"}]},{"lat":"37.30228839","long":"126.9687062","imageIndex":13,"items":[{"name":"윤헤어샵","tel":"031-271-3975","addr":"경기도 수원시 장안구 율전동 161-21번지","indutype":"보건위생 - 미용원","category":"beauty"}]},{"lat":"37.298035684","long":"126.96914799","imageIndex":13,"items":[{"name":"율전뷰티","tel":"031-294-3454","addr":"경기도 수원시 장안구 율전동 297-2번지 3층","indutype":"보건위생 - 화장품","category":"beauty"}]},{"lat":"37.299126233","long":"126.97025281","imageIndex":13,"items":[{"name":"율전종합화장품","tel":"031-293-9128","addr":"경기도 수원시 장안구 율전동 296-32번지","indutype":"보건위생 - 화장품","category":"beauty"}]},{"lat":"37.298648957","long":"126.97123426","imageIndex":13,"items":[{"name":"이니스프리","tel":"031-893-8244","addr":"경기도 수원시 장안구 율전동 291번지","indutype":"보건위생 - 화장품","category":"beauty"}]},{"lat":"37.30275783","long":"126.9720108","imageIndex":13,"items":[{"name":"이레","tel":"031-269-2640","addr":"경기도 수원시 장안구 율전동 99-50번지 103호","indutype":"보건위생 - 피부미용실","category":"beauty"}]},{"lat":"37.2977925","long":"126.96947517","imageIndex":13,"items":[{"name":"이유경헤어","tel":"031-295-2066","addr":"경기도 수원시 장안구 율전동 400-7번지 1층","indutype":"보건위생 - 미용원","category":"beauty"}]},{"lat":"37.296567165","long":"126.96967873","imageIndex":13,"items":[{"name":"인투헤어","tel":"031-291-7286","addr":"경기도 수원시 장안구 율전동 433-145번지","indutype":"보건위생 - 미용원","category":"beauty"}]},{"lat":"37.303009254","long":"126.96886379","imageIndex":13,"items":[{"name":"정미용실","tel":"031-207-0604","addr":"경기도 수원시 장안구 율전동 155-18번지","indutype":"보건위생 - 미용원","category":"beauty"}]},{"lat":"37.298567152","long":"126.96867405","imageIndex":13,"items":[{"name":"조은안경","tel":"031-293-8994","addr":"경기도 수원시 장안구 율전동 305-22번지 뚜레쥬드 1층 5호","indutype":"보건위생 - 안경","category":"beauty"},{"name":"헤어키키","tel":"031-291-8341","addr":"경기도 수원시 장안구 율전동 305-22번지","indutype":"보건위생 - 미용원","category":"beauty"}]},{"lat":"37.302316129","long":"126.97125528","imageIndex":13,"items":[{"name":"준헤어스토리","tel":"031-324-5255","addr":"경기도 수원시 장안구 율전동 221-1번지 1층","indutype":"보건위생 - 미용원","category":"beauty"}]},{"lat":"37.29664746","long":"126.96694934","imageIndex":13,"items":[{"name":"쥬비헤어","tel":"031-293-3455","addr":"경기도 수원시 장안구 율전동 375-2 율전이안(아)상가2동1층105호","indutype":"보건위생 - 미용원","category":"beauty"}]},{"lat":"37.302459307","long":"126.96775868","imageIndex":13,"items":[{"name":"지오지아헤어클럽","tel":"031-256-2558","addr":"경기도 수원시 장안구 율전동 168-35번지","indutype":"보건위생 - 미용원","category":"beauty"}]},{"lat":"37.301315481","long":"126.96939466","imageIndex":13,"items":[{"name":"지정숙헤어샵","tel":"031-258-3866","addr":"경기도 수원시 장안구 율전동 194-1번지 외1필지 1층","indutype":"보건위생 - 미용원","category":"beauty"}]},{"lat":"37.304036783","long":"126.97014918","imageIndex":13,"items":[{"name":"지혜나무심리상담센터","tel":"031-8004-1909","addr":"경기도 수원시 장안구 율전동 102-2번지 3층","indutype":"보건위생 - 기타대인서비스","category":"beauty"}]},{"lat":"37.298368693","long":"126.96787337","imageIndex":13,"items":[{"name":"짱헤어","tel":"031-227-0035","addr":"경기도 수원시 장안구 율전동 394-3번지","indutype":"보건위생 - 미용원","category":"beauty"}]},{"lat":"37.304423297","long":"126.96695692","imageIndex":13,"items":[{"name":"쮸헤어","tel":"031-297-8408","addr":"경기도 수원시 장안구 율전동 560번지 서희스타힐스3단지상가지하1층 3","indutype":"보건위생 - 미용원","category":"beauty"}]},{"lat":"37.302342257","long":"126.96804071","imageIndex":13,"items":[{"name":"찬미헤어칼라","tel":"031-269-3378","addr":"경기도 수원시 장안구 율전동 163번지","indutype":"보건위생 - 미용원","category":"beauty"}]},{"lat":"37.298820535","long":"126.9727004","imageIndex":13,"items":[{"name":"체리네일아트재료","tel":"070-7613-7004","addr":"경기도 수원시 장안구 율전동 288-40번지 1층","indutype":"보건위생 - 미용재료","category":"beauty"}]},{"lat":"37.296567234","long":"126.96992685","imageIndex":13,"items":[{"name":"타이아트","tel":"031-292-1988","addr":"경기도 수원시 장안구 율전동 433-86번지 2층,3층","indutype":"보건위생 - 미용재료","category":"beauty"}]},{"lat":"37.297035867","long":"126.97028755","imageIndex":13,"items":[{"name":"탑헤어","tel":"031-295-2224","addr":"경기도 수원시 장안구 율전동 433-75번지 2층","indutype":"보건위생 - 미용원","category":"beauty"}]},{"lat":"37.298649564","long":"126.97359148","imageIndex":13,"items":[{"name":"태리헤어(Taeri Hair)","tel":"031-292-5337","addr":"경기도 수원시 장안구 율전동 265-13번지","indutype":"보건위생 - 미용원","category":"beauty"}]},{"lat":"37.302847307","long":"126.96969852","imageIndex":13,"items":[{"name":"토모헤어","tel":"031-268-8880","addr":"경기도 수원시 장안구 율전동 154-1번지","indutype":"보건위생 - 미용원","category":"beauty"}]},{"lat":"37.304036316","long":"126.96850238","imageIndex":13,"items":[{"name":"패션머리","tel":"070-7725-0406","addr":"경기도 수원시 장안구 율전동 142-6번지 다원공인중개사 103호","indutype":"보건위생 - 미용원","category":"beauty"}]},{"lat":"37.299315519","long":"126.97051214","imageIndex":13,"items":[{"name":"펄스캠생활과학","tel":"031-296-7399","addr":"경기도 수원시 장안구 율전동 296-29번지 401호","indutype":"보건위생 - 의료용품","category":"beauty"}]},{"lat":"37.297008549","long":"126.96926123","imageIndex":13,"items":[{"name":"한숙경헤어샵","tel":"070-8734-8669","addr":"경기도 수원시 장안구 율전동 433-104번지 1층","indutype":"보건위생 - 미용원","category":"beauty"}]},{"lat":"37.296341288","long":"126.96753596","imageIndex":13,"items":[{"name":"향기미용실","tel":"031-297-6558","addr":"경기도 수원시 장안구 율전동 379-2번지","indutype":"보건위생 - 미용원","category":"beauty"}]},{"lat":"37.297341492","long":"126.96776106","imageIndex":13,"items":[{"name":"허쌤헤어","tel":"031-207-7577","addr":"경기도 수원시 장안구 율전동 395-28번지 1층 103호","indutype":"보건위생 - 미용원","category":"beauty"}]},{"lat":"37.297819335","long":"126.96878718","imageIndex":13,"items":[{"name":"헤어노블레스","tel":"031-296-7276","addr":"경기도 수원시 장안구 율전동 399-20번지","indutype":"보건위생 - 미용원","category":"beauty"}]},{"lat":"37.303261615","long":"126.9691231","imageIndex":13,"items":[{"name":"헤어빈","tel":"070-4642-3224","addr":"경기도 수원시 장안구 율전동 148-8번지 1층","indutype":"보건위생 - 미용원","category":"beauty"}]},{"lat":"37.304289045","long":"126.97005883","imageIndex":13,"items":[{"name":"헤어살롱규리","tel":"031-269-0248","addr":"경기도 수원시 장안구 율전동 109-12번지","indutype":"보건위생 - 미용원","category":"beauty"}]},{"lat":"37.30431619","long":"126.97047616","imageIndex":13,"items":[{"name":"헤어스튜디오유키노하나","tel":"031-268-1202","addr":"경기도 수원시 장안구 율전동 108-4번지 대성건강원 101호","indutype":"보건위생 - 미용원","category":"beauty"}]},{"lat":"37.297485842","long":"126.96839258","imageIndex":13,"items":[{"name":"헤어앨리스","tel":"031-292-3660","addr":"경기도 수원시 장안구 율전동 398-1번지","indutype":"보건위생 - 미용원","category":"beauty"}]},{"lat":"37.303117582","long":"126.96958561","imageIndex":13,"items":[{"name":"헤어칼라","tel":"031-207-2932","addr":"경기도 수원시 장안구 율전동 149-4번지 상가 1층","indutype":"보건위생 - 미용원","category":"beauty"}]},{"lat":"37.297765361","long":"126.96909172","imageIndex":13,"items":[{"name":"헤어커스텀","tel":"031-293-4005","addr":"경기도 수원시 장안구 율전동 400-5번지 헤어커스텀","indutype":"보건위생 - 미용원","category":"beauty"}]},{"lat":"37.2969272","long":"126.96837028","imageIndex":13,"items":[{"name":"헤어클로제","tel":"031-227-7075","addr":"경기도 수원시 장안구 율전동 409-3번지 1층","indutype":"보건위생 - 미용원","category":"beauty"}]},{"lat":"37.299009477","long":"126.97165141","imageIndex":13,"items":[{"name":"헤어팡팡 성균관대역점","tel":"031-278-3311","addr":"경기도 수원시 장안구 율전동 286-4번지 3층","indutype":"보건위생 - 미용원","category":"beauty"}]},{"lat":"37.296954303","long":"126.96861839","imageIndex":13,"items":[{"name":"헤어피카소","tel":"031-223-5214","addr":"경기도 수원시 장안구 율전동 408-1번지","indutype":"보건위생 - 미용원","category":"beauty"}]},{"lat":"37.301595609","long":"126.97239476","imageIndex":16,"items":[{"name":"(주)아이더블유","tel":"031-253-2145","addr":"경기도 수원시 장안구 율전동 92-2번지 송원빌딩 6층 601호","indutype":"회원제형태 - 학원","category":"study"}]},{"lat":"37.299342488","long":"126.97028655","imageIndex":16,"items":[{"name":"그룹액터스연기학원","tel":"070-4649-1101","addr":"경기도 수원시 장안구 율전동 296-30번지 3층","indutype":"학원 - 예·체능계학원","category":"study"},{"name":"명문어린이집[아이행복]","tel":"031-294-7248","addr":"경기도 수원시 장안구 율전동 296-30번지","indutype":"학원 - 유아원","category":"study"}]},{"lat":"37.299657712","long":"126.96980143","imageIndex":16,"items":[{"name":"김스터디","tel":"032-434-0704","addr":"경기도 수원시 장안구 율전동 303번지 힐타운 가동 105호","indutype":"학원 - 기타 교육기관","category":"study"}]},{"lat":"37.298954777","long":"126.96931676","imageIndex":16,"items":[{"name":"김영학원","tel":"031-297-2500","addr":"경기도 수원시 장안구 율전동 304-17번지 2층","indutype":"학원 - 기타 교육기관","category":"study"}]},{"lat":"37.301063558","long":"126.97070313","imageIndex":16,"items":[{"name":"대연어린이집[아이행복]","tel":"031-269-9740","addr":"경기도 수원시 장안구 율전동 204-1번지","indutype":"학원 - 유아원","category":"study"},{"name":"새대연학원","tel":"031-269-9742","addr":"경기도 수원시 장안구 율전동 204-1번지 4층 전체","indutype":"학원 - 예·체능계학원","category":"study"}]},{"lat":"37.304036316","long":"126.96850238","imageIndex":16,"items":[{"name":"대원학원","tel":"031-268-9080","addr":"경기도 수원시 장안구 율전동 142-6번지 4층","indutype":"학원 - 보습학원","category":"study"},{"name":"베로나음악학원","tel":"031-244-3933","addr":"경기도 수원시 장안구 율전동 142-6번지","indutype":"학원 - 예·체능계학원","category":"study"},{"name":"상률사랑태권도장","tel":"031-269-8003","addr":"경기도 수원시 장안구 율전동 142-6번지","indutype":"학원 - 예·체능계학원","category":"study"},{"name":"전진태권도스쿨","tel":"031-269-8003","addr":"경기도 수원시 장안구 율전동 142-6번지 3층","indutype":"학원 - 예·체능계학원","category":"study"},{"name":"캐리티처영어교습소","tel":"","addr":"경기도 수원시 장안구 율전동 142-6번지 다원공인중개사 101호","indutype":"학원 - 외국어학원","category":"study"}]},{"lat":"37.304928233","long":"126.96817487","imageIndex":16,"items":[{"name":"더봄독서논술교습소","tel":"031-271-1839","addr":"경기도 수원시 장안구 율전동 548번지 금영빌딩 101호","indutype":"학원 - 보습학원","category":"study"},{"name":"뮤엠영어상률학원","tel":"031-245-0582","addr":"경기도 수원시 장안구 율전동 548번지 2층","indutype":"회원제형태 - 학원","category":"study"},{"name":"박샘수학학원","tel":"031-268-8056","addr":"경기도 수원시 장안구 율전동 548번지 금영빌딩 3층","indutype":"학원 - 보습학원","category":"study"},{"name":"피아노이야기","tel":"031-271-3702","addr":"경기도 수원시 장안구 율전동 548번지 금영빌딩 103호","indutype":"학원 - 예·체능계학원","category":"study"}]},{"lat":"37.302847307","long":"126.96969852","imageIndex":16,"items":[{"name":"드럼테라스음악교습소","tel":"","addr":"경기도 수원시 장안구 율전동 154-1번지 107호","indutype":"학원 - 예·체능계학원","category":"study"}]},{"lat":"37.303982209","long":"126.9683445","imageIndex":16,"items":[{"name":"레지오방과후전문학원","tel":"031-241-0186","addr":"경기도 수원시 장안구 율전동 142-9번지 2층","indutype":"학원 - 보습학원","category":"study"}]},{"lat":"37.30603659","long":"126.96851275","imageIndex":16,"items":[{"name":"루벤스율전미술교습소","tel":"070-4121-0202","addr":"경기도 수원시 장안구 율전동 546번지 밤꽃마을뜨란채 상가동 2층 202호","indutype":"학원 - 예·체능계학원","category":"study"},{"name":"율전소리숲음악학원","tel":"031-248-7978","addr":"경기도 수원시 장안구 율전동 546번지 밤꽃마을뜨란채 상가동 203호","indutype":"학원 - 예·체능계학원","category":"study"},{"name":"율전소리숲음악학원","tel":"031-248-7978","addr":"경기도 수원시 장안구 율전동 546번지 밤꽃마을뜨란채 상가동 상가동 203호","indutype":"학원 - 예·체능계학원","category":"study"},{"name":"율전주공해법수학교습소","tel":"031-268-2683","addr":"경기도 수원시 장안구 율전동 546번지 밤꽃마을뜨란채 상가동 2층 206호","indutype":"회원제형태 - 학원","category":"study"}]},{"lat":"37.298541983","long":"126.97586979","imageIndex":16,"items":[{"name":"무진경희대태권도장","tel":"","addr":"경기도 수원시 장안구 율전동 265-5번지 신원빌딩 5층","indutype":"학원 - 예·체능계학원","category":"study"},{"name":"아트빌미술학원","tel":"031-278-2783","addr":"경기도 수원시 장안구 율전동 265-5번지 래미안 301호","indutype":"학원 - 예·체능계학원","category":"study"}]},{"lat":"37.301757443","long":"126.97106377","imageIndex":16,"items":[{"name":"밀알몬테소리어린이집[아이행복]","tel":"031-207-6512","addr":"경기도 수원시 장안구 율전동 211번지","indutype":"학원 - 유아원","category":"study"}]},{"lat":"37.298288487","long":"126.97100884","imageIndex":16,"items":[{"name":"바바댄스","tel":"02-1111-1111","addr":"경기도 수원시 장안구 율전동 291-4번지 4층","indutype":"학원 - 예·체능계학원","category":"study"}]},{"lat":"37.297404412","long":"126.9672535","imageIndex":16,"items":[{"name":"밤비니어린이집[아이행복]","tel":"031-291-0799","addr":"경기도 수원시 장안구 율전동 382번지 1층","indutype":"학원 - 유아원","category":"study"}]},{"lat":"37.304982439","long":"126.96867115","imageIndex":16,"items":[{"name":"백하미술교습소","tel":"031-268-9763","addr":"경기도 수원시 장안구 율전동 551번지","indutype":"학원 - 예·체능계학원","category":"study"},{"name":"율전보습학원","tel":"031-252-9905","addr":"경기도 수원시 장안구 율전동 551번지 4층","indutype":"학원 - 보습학원","category":"study"},{"name":"율전보습학원","tel":"031-252-9905","addr":"경기도 수원시 장안구 율전동 551번지 4층","indutype":"학원 - 보습학원","category":"study"},{"name":"율전해바라기음악학원","tel":"031-271-1326","addr":"경기도 수원시 장안구 율전동 551번지 2층","indutype":"학원 - 예·체능계학원","category":"study"}]},{"lat":"37.298009837","long":"126.97359173","imageIndex":16,"items":[{"name":"빛샘음악학원","tel":"031-293-8806","addr":"경기도 수원시 장안구 율전동 276-4번지","indutype":"학원 - 예·체능계학원","category":"study"}]},{"lat":"37.298260755","long":"126.96850501","imageIndex":16,"items":[{"name":"삼공삼공영어율전러닝센터학원","tel":"031-296-3030","addr":"경기도 수원시 장안구 율전동 306-2번지 광백빌딩 202호","indutype":"학원 - 보습학원","category":"study"},{"name":"스터디매니저학원","tel":"031-8945-3640","addr":"경기도 수원시 장안구 율전동 306-2번지 205호","indutype":"학원 - 보습학원","category":"study"}]},{"lat":"37.304451042","long":"126.96939327","imageIndex":16,"items":[{"name":"상률초등학교","tel":"031-207-7435","addr":"경기도 수원시 장안구 율전동 142-22번지 상률초등학교","indutype":"학원 - 초중고교육기관","category":"study"}]},{"lat":"37.304730902","long":"126.97136706","imageIndex":16,"items":[{"name":"새밀알어린이집[아이행복]","tel":"031-271-6511","addr":"경기도 수원시 장안구 율전동 112-1번지","indutype":"학원 - 유아원","category":"study"}]},{"lat":"37.30571167","long":"126.96666304","imageIndex":16,"items":[{"name":"생각의숲","tel":"031-294-3031","addr":"경기도 수원시 장안구 율전동 545번지 밤꽃마을주공아파트 204동 1054호","indutype":"학원 - 보습학원","category":"study"}]},{"lat":"37.299208232","long":"126.97372661","imageIndex":16,"items":[{"name":"서프라이즈고시원","tel":"031-296-3535","addr":"경기도 수원시 장안구 율전동 280-13번지 서프라이즈고시원","indutype":"학원 - 독서실","category":"study"}]},{"lat":"37.297764275","long":"126.96548261","imageIndex":16,"items":[{"name":"셀파수학굿모닝수학교습소","tel":"031-293-1020","addr":"경기도 수원시 장안구 율전동 600번지 수원성균관대역 동문굿모닝힐 상가동 201호","indutype":"학원 - 보습학원","category":"study"},{"name":"아이샘어린이집[아이행복]","tel":"031-292-5790","addr":"경기도 수원시 장안구 율전동 600번지 수원성균관대역동문굿모닝힐 관리동 어린이집","indutype":"학원 - 유아원","category":"study"},{"name":"아트삼일미술교습소","tel":"031-295-1498","addr":"경기도 수원시 장안구 율전동 600번지 수원성균관대역동문굿모닝힐 상가동 306호","indutype":"학원 - 예·체능계학원","category":"study"},{"name":"우루루어린이집[아이행복]","tel":"031-293-0333","addr":"경기도 수원시 장안구 율전동 600번지 수원성균관대역동문굿모닝힐 103동 102호","indutype":"학원 - 유아원","category":"study"},{"name":"이화뮤직슐레학원","tel":"031-295-0225","addr":"경기도 수원시 장안구 율전동 600번지 동문굿모닝힐 상가 307~309호","indutype":"학원 - 예·체능계학원","category":"study"}]},{"lat":"37.298567152","long":"126.96867405","imageIndex":16,"items":[{"name":"송재욱수학학원","tel":"031-278-0131","addr":"경기도 수원시 장안구 율전동 305-22번지 뚜레쥬드 402호","indutype":"회원제형태 - 학원","category":"study"}]},{"lat":"37.298730447","long":"126.97275683","imageIndex":16,"items":[{"name":"수정재활교육원","tel":"031-296-7806","addr":"경기도 수원시 장안구 율전동 288-20번지","indutype":"학원 - 기타 교육기관","category":"study"}]},{"lat":"37.305973413","long":"126.96815183","imageIndex":16,"items":[{"name":"숲속사임당어린이집[아이행복]","tel":"031-244-3123","addr":"경기도 수원시 장안구 율전동 546번지 밤꽃마을뜨란채 108동 106호","indutype":"학원 - 유아원","category":"study"}]},{"lat":"37.304928283","long":"126.96834407","imageIndex":16,"items":[{"name":"신아마데우스피아노교습소","tel":"","addr":"경기도 수원시 장안구 율전동 549번지 103호","indutype":"학원 - 예·체능계학원","category":"study"},{"name":"영어수학시간학원","tel":"02-0000-0000","addr":"경기도 수원시 장안구 율전동 549번지 4층","indutype":"학원 - 보습학원","category":"study"}]},{"lat":"37.302783864","long":"126.96840144","imageIndex":16,"items":[{"name":"아이키도 앤 소마","tel":"","addr":"경기도 수원시 장안구 율전동 155-4번지 지층","indutype":"학원 - 예·체능계학원","category":"study"}]},{"lat":"37.30495536","long":"126.96850197","imageIndex":16,"items":[{"name":"아트스토리미술교습소","tel":"031-269-1839","addr":"경기도 수원시 장안구 율전동 550번지 상지빌딩 1층","indutype":"학원 - 예·체능계학원","category":"study"}]},{"lat":"37.304730153","long":"126.96867126","imageIndex":16,"items":[{"name":"아트앤하트율전상률미술교습소","tel":"","addr":"경기도 수원시 장안구 율전동 143-3번지 202호","indutype":"학원 - 예·체능계학원","category":"study"},{"name":"한마음음악교습소","tel":"031-8002-1130","addr":"경기도 수원시 장안구 율전동 143-3번지 201호","indutype":"학원 - 예·체능계학원","category":"study"}]},{"lat":"37.303207146","long":"126.96772449","imageIndex":16,"items":[{"name":"아해뜰놀이방[아이행복]","tel":"031-207-8657","addr":"경기도 수원시 장안구 율전동 168-40번지","indutype":"학원 - 유아원","category":"study"}]},{"lat":"37.305622818","long":"126.97100574","imageIndex":16,"items":[{"name":"어메이징잉글리쉬학원","tel":"031-244-2006","addr":"경기도 수원시 장안구 율전동 554번지 유영타운 4층 402호","indutype":"회원제형태 - 학원","category":"study"},{"name":"율전체육관","tel":"031-207-0553","addr":"경기도 수원시 장안구 율전동 554번지 율전체육관 401호","indutype":"학원 - 예·체능계학원","category":"study"}]},{"lat":"37.305378781","long":"126.96829874","imageIndex":16,"items":[{"name":"엔젤키즈어린이집[아이행복]","tel":"031-268-7128","addr":"경기도 수원시 장안구 율전동 546번지 밤꽃마을뜨란채 107동 102호","indutype":"학원 - 유아원","category":"study"}]},{"lat":"37.298729402","long":"126.96889955","imageIndex":16,"items":[{"name":"연우태권도","tel":"031-296-6341","addr":"경기도 수원시 장안구 율전동 305-6번지 수일빌딩 2층","indutype":"학원 - 예·체능계학원","category":"study"}]},{"lat":"37.296701904","long":"126.96823504","imageIndex":16,"items":[{"name":"예본무용학원","tel":"031-294-1214","addr":"경기도 수원시 장안구 율전동 409-5번지 4층","indutype":"학원 - 예·체능계학원","category":"study"}]},{"lat":"37.306108326","long":"126.96733963","imageIndex":16,"items":[{"name":"예사랑어린이집[아이행복]","tel":"031-308-8476","addr":"경기도 수원시 장안구 율전동 546번지 밤꽃마을뜨란채 105동 103호","indutype":"학원 - 유아원","category":"study"}]},{"lat":"37.304595016","long":"126.96872772","imageIndex":16,"items":[{"name":"윤선생영어숲상률학원","tel":"031-269-3601","addr":"경기도 수원시 장안구 율전동 143-6번지 2층","indutype":"학원 - 외국어학원","category":"study"}]},{"lat":"37.298927344","long":"126.9679295","imageIndex":16,"items":[{"name":"윤선생우리집앞영어율전영어교습소","tel":"031-278-0015","addr":"경기도 수원시 장안구 율전동 314-8번지 2층","indutype":"학원 - 보습학원","category":"study"},{"name":"한우리논술교습소","tel":"031-293-7041","addr":"경기도 수원시 장안구 율전동 314-8번지 2층","indutype":"학원 - 기타 교육기관","category":"study"}]},{"lat":"37.299289229","long":"126.9733431","imageIndex":16,"items":[{"name":"율전고시텔","tel":"031-227-2237","addr":"경기도 수원시 장안구 율전동 280-2번지","indutype":"학원 - 독서실","category":"study"}]},{"lat":"37.296873449","long":"126.96945302","imageIndex":16,"items":[{"name":"율전아리아음악학원","tel":"031-291-1263","addr":"경기도 수원시 장안구 율전동 407-5번지 2층","indutype":"학원 - 예·체능계학원","category":"study"},{"name":"이길수학학원","tel":"031-293-2365","addr":"경기도 수원시 장안구 율전동 407-5번지 2층","indutype":"회원제형태 - 학원","category":"study"}]},{"lat":"37.303008494","long":"126.96631468","imageIndex":16,"items":[{"name":"율전중학교","tel":"031-548-8108","addr":"경기도 수원시 장안구 율전동 168-41번지 율전중학교","indutype":"학원 - 초중고교육기관","category":"study"}]},{"lat":"37.299423102","long":"126.96859471","imageIndex":16,"items":[{"name":"율전초등학교","tel":"031-296-9052","addr":"경기도 수원시 장안구 율전동 308-6번지 율전초등학교","indutype":"학원 - 초중고교육기관","category":"study"}]},{"lat":"37.29848618","long":"126.9690914","imageIndex":16,"items":[{"name":"율전필수학학원","tel":"031-217-0266","addr":"경기도 수원시 장안구 율전동 298-6번지 청수빌딩 302호","indutype":"학원 - 보습학원","category":"study"},{"name":"조슈아영어학원","tel":"031-256-0509","addr":"경기도 수원시 장안구 율전동 298-6번지 청수빌딩 301호","indutype":"학원 - 보습학원","category":"study"}]},{"lat":"37.303369776","long":"126.9692584","imageIndex":16,"items":[{"name":"이든치매예방협회","tel":"031-271-1272","addr":"경기도 수원시 장안구 율전동 148-5번지 3층","indutype":"학원 - 기타 교육기관","category":"study"}]},{"lat":"37.299070584","long":"126.96492931","imageIndex":16,"items":[{"name":"이와스어학원","tel":"031-278-0505","addr":"경기도 수원시 장안구 율전동 356-6번지 B동 2,3층","indutype":"회원제형태 - 학원","category":"study"}]},{"lat":"37.305397525","long":"126.97087048","imageIndex":16,"items":[{"name":"잉글루앤이투스학원","tel":"032-268-5355","addr":"경기도 수원시 장안구 율전동 553번지 202호,203호,204호","indutype":"학원 - 보습학원","category":"study"}]},{"lat":"37.299566822","long":"126.96709458","imageIndex":16,"items":[{"name":"정진태권도장","tel":"070-8816-8255","addr":"경기도 수원시 장안구 율전동 319번지 신일아파트 3층 301호","indutype":"학원 - 예·체능계학원","category":"study"}]},{"lat":"37.298567008","long":"126.9681778","imageIndex":16,"items":[{"name":"지엘티영수전문학원","tel":"070-5220-1234","addr":"경기도 수원시 장안구 율전동 313-2번지 2층","indutype":"학원 - 보습학원","category":"study"}]},{"lat":"37.299153999","long":"126.97303863","imageIndex":16,"items":[{"name":"천기무에타이체육관(ckgym)","tel":"031-292-5915","addr":"경기도 수원시 장안구 율전동 288번지","indutype":"학원 - 예·체능계학원","category":"study"}]},{"lat":"37.305451039","long":"126.96890781","imageIndex":16,"items":[{"name":"토마토어린이집[아이행복]","tel":"031-269-1717","addr":"경기도 수원시 장안구 율전동 546번지 밤꽃마을뜨란채 110동 101호","indutype":"학원 - 유아원","category":"study"}]},{"lat":"37.30478467","long":"126.97028421","imageIndex":16,"items":[{"name":"푸르넷율전학원","tel":"070-4060-0700","addr":"경기도 수원시 장안구 율전동 109-16번지 태영빌딩 201호","indutype":"학원 - 보습학원","category":"study"}]},{"lat":"37.303847506","long":"126.96992367","imageIndex":16,"items":[{"name":"푸른하늘태권도장","tel":"031-269-2690","addr":"경기도 수원시 장안구 율전동 151-1번지","indutype":"학원 - 예·체능계학원","category":"study"}]},{"lat":"37.303540342","long":"126.96711525","imageIndex":16,"items":[{"name":"피케이대치스마트에듀수원율전학원","tel":"031-300-3933","addr":"경기도 수원시 장안구 율전동 169-12번지 201호","indutype":"학원 - 보습학원","category":"study"}]},{"lat":"37.305468694","long":"126.96765576","imageIndex":16,"items":[{"name":"한별어린이집[아이행복]","tel":"031-302-1179","addr":"경기도 수원시 장안구 율전동 546번지 밤꽃마을뜨란채 106동 102호","indutype":"학원 - 유아원","category":"study"}]},{"lat":"37.30182014","long":"126.96969897","imageIndex":16,"items":[{"name":"한샘오투독서실","tel":"031-295-0782","addr":"경기도 수원시 장안구 율전동 207-1번지","indutype":"학원 - 독서실","category":"study"}]},{"lat":"37.30259445","long":"126.96772478","imageIndex":16,"items":[{"name":"해법셀파수학율전수학교습소","tel":"031-288-1025","addr":"경기도 수원시 장안구 율전동 168-33번지 1층","indutype":"학원 - 보습학원","category":"study"}]},{"lat":"37.30604574","long":"126.96899778","imageIndex":16,"items":[{"name":"해피잉글리쉬데이","tel":"","addr":"경기도 수원시 장안구 율전동 546번지 밤꽃마을뜨란채 109동 702호","indutype":"학원 - 기타 교육기관","category":"study"}]},{"lat":"37.303117582","long":"126.96958561","imageIndex":16,"items":[{"name":"흑룡합기도체육관","tel":"031-207-4577","addr":"경기도 수원시 장안구 율전동 149-4번지","indutype":"회원제형태 - 학원","category":"study"}]},{"lat":"37.297729692","long":"126.97042259","imageIndex":4,"items":[{"name":"1인자감자탕","tel":"031-292-1020","addr":"경기도 수원시 장안구 율전동 433-114번지","indutype":"일반휴게음식 - 일반한식","category":"restaurant"},{"name":"성대점포차어게인","tel":"031-292-9779","addr":"경기도 수원시 장안구 율전동 433-114번지 2층","indutype":"일반휴게음식 - 일반한식","category":"restaurant"}]},{"lat":"37.296648081","long":"126.96905838","imageIndex":4,"items":[{"name":"2에프(F)408","tel":"031-278-4086","addr":"경기도 수원시 장안구 율전동 408-6번지 전주생막걸리 201호","indutype":"일반휴게음식 - 주점","category":"restaurant"},{"name":"고칸 성균관대점","tel":"031-297-6488","addr":"경기도 수원시 장안구 율전동 408-6번지 1층","indutype":"일반휴게음식 - 일반한식","category":"restaurant"},{"name":"명가양꼬치","tel":"031-292-1788","addr":"경기도 수원시 장안구 율전동 408-6번지 1층","indutype":"일반휴게음식 - 일반한식","category":"restaurant"},{"name":"전주생막걸리","tel":"","addr":"경기도 수원시 장안구 율전동 408-6번지","indutype":"일반휴게음식 - 일반한식","category":"restaurant"}]},{"lat":"37.305622818","long":"126.97100574","imageIndex":4,"items":[{"name":"60계치킨율전점","tel":"031-269-6944","addr":"경기도 수원시 장안구 율전동 554번지 유영타운 106호","indutype":"일반휴게음식 - 스넥","category":"restaurant"},{"name":"김밥월드","tel":"031-269-1500","addr":"경기도 수원시 장안구 율전동 554번지 유영타운 102호","indutype":"일반휴게음식 - 일반한식","category":"restaurant"}]},{"lat":"37.303117823","long":"126.97045411","imageIndex":4,"items":[{"name":"BHC성대율전점","tel":"031-268-0092","addr":"경기도 수원시 장안구 율전동 101-1번지 102호","indutype":"일반휴게음식 - 스넥","category":"restaurant"},{"name":"대성장","tel":"031-207-2021","addr":"경기도 수원시 장안구 율전동 101-1","indutype":"일반휴게음식 - 중국식","category":"restaurant"}]},{"lat":"37.302784969","long":"126.97242812","imageIndex":4,"items":[{"name":"cafe돌하우스월드","tel":"031-248-2003","addr":"경기도 수원시 장안구 율전동 99-102번지 홍삼빌 101호","indutype":"일반휴게음식 - 서양음식","category":"restaurant"}]},{"lat":"37.298756519","long":"126.96920406","imageIndex":4,"items":[{"name":"maison de marie1(메종드마리1)","tel":"03-111-1111","addr":"경기도 수원시 장안구 율전동 298-1번지 101호","indutype":"일반휴게음식 - 서양음식","category":"restaurant"},{"name":"어반 그레이","tel":"031-297-5770","addr":"경기도 수원시 장안구 율전동 298-1번지 샤또라뚜르 7,8층","indutype":"일반휴게음식 - 주점","category":"restaurant"}]},{"lat":"37.296567165","long":"126.96967873","imageIndex":4,"items":[{"name":"가디스(Goddess)","tel":"031-291-9888","addr":"경기도 수원시 장안구 율전동 433-145번지 1층 1호","indutype":"일반휴게음식 - 서양음식","category":"restaurant"}]},{"lat":"37.298648957","long":"126.97123426","imageIndex":4,"items":[{"name":"가마로강정","tel":"031-227-7292","addr":"경기도 수원시 장안구 율전동 291번지","indutype":"일반휴게음식 - 스넥","category":"restaurant"},{"name":"먹깨비김밥","tel":"031-293-3369","addr":"경기도 수원시 장안구 율전동 291번지 태양공예가구 103호","indutype":"일반휴게음식 - 일반한식","category":"restaurant"},{"name":"명랑쌀핫도그","tel":"031-291-8838","addr":"경기도 수원시 장안구 율전동 291번지 태양공예가구 1층 104호","indutype":"일반휴게음식 - 일반한식","category":"restaurant"},{"name":"빽다방 수원성균관대역점","tel":"031-292-0410","addr":"경기도 수원시 장안구 율전동 291번지","indutype":"일반휴게음식 - 서양음식","category":"restaurant"}]},{"lat":"37.302846966","long":"126.96850293","imageIndex":4,"items":[{"name":"가마솥에빠진통닭","tel":"","addr":"경기도 수원시 장안구 율전동 155-5번지 102호","indutype":"일반휴게음식 - 일반한식","category":"restaurant"}]},{"lat":"37.298035684","long":"126.96914799","imageIndex":4,"items":[{"name":"가장맛있는족발 수원율전점","tel":"031-295-5849","addr":"경기도 수원시 장안구 율전동 297-2번지 101호","indutype":"일반휴게음식 - 일반한식","category":"restaurant"},{"name":"마누알레","tel":"031-297-9323","addr":"경기도 수원시 장안구 율전동 297-2번지 1층","indutype":"일반휴게음식 - 서양음식","category":"restaurant"}]},{"lat":"37.298035525","long":"126.96859534","imageIndex":4,"items":[{"name":"경기수산직판장","tel":"031-292-2454","addr":"경기도 수원시 장안구 율전동 399-9번지 1층","indutype":"일반휴게음식 - 일식·회집","category":"restaurant"}]},{"lat":"37.297928269","long":"126.97173081","imageIndex":4,"items":[{"name":"경성주막","tel":"031-292-2064","addr":"경기도 수원시 장안구 율전동 290-3번지","indutype":"일반휴게음식 - 일반한식","category":"restaurant"}]},{"lat":"37.298008702","long":"126.96931718","imageIndex":4,"items":[{"name":"고기굽는교실율전3반","tel":"031-297-8592","addr":"경기도 수원시 장안구 율전동 297-5번지 102호","indutype":"일반휴게음식 - 일반한식","category":"restaurant"},{"name":"택이네조개전골성대점","tel":"031-227-6200","addr":"경기도 수원시 장안구 율전동 297-5번지 1층 101호","indutype":"일반휴게음식 - 일반한식","category":"restaurant"}]},{"lat":"37.297288518","long":"126.97164085","imageIndex":4,"items":[{"name":"고씨네카레(성대점)","tel":"031-296-8333","addr":"경기도 수원시 장안구 율전동 433-128번지 2층","indutype":"일반휴게음식 - 서양음식","category":"restaurant"},{"name":"일미닭갈비파전","tel":"031-296-6641","addr":"경기도 수원시 장안구 율전동 433-128번지","indutype":"일반휴게음식 - 일반한식","category":"restaurant"}]},{"lat":"37.297910448","long":"126.97249775","imageIndex":4,"items":[{"name":"고피자/(주)라온마루 수원지점","tel":"031-000-0000","addr":"경기도 수원시 장안구 율전동 290-14번지 삼전연립 A동 102호","indutype":"일반휴게음식 - 서양음식","category":"restaurant"},{"name":"꼬치공방 수원성대직영점","tel":"","addr":"경기도 수원시 장안구 율전동 290-14번지 삼전연립 A동 101호","indutype":"일반휴게음식 - 일반한식","category":"restaurant"}]},{"lat":"37.296873449","long":"126.96945302","imageIndex":4,"items":[{"name":"곱창생각","tel":"031-297-3401","addr":"경기도 수원시 장안구 율전동 407-5번지","indutype":"일반휴게음식 - 일반한식","category":"restaurant"},{"name":"모퉁이곳간","tel":"031-223-5214","addr":"경기도 수원시 장안구 율전동 407-5번지","indutype":"일반휴게음식 - 일반한식","category":"restaurant"}]},{"lat":"37.298423543","long":"126.97064786","imageIndex":4,"items":[{"name":"곱창이야기 수원성대점","tel":"031-292-9232","addr":"경기도 수원시 장안구 율전동 292-5번지 1층(좌측점포한칸,율전동)","indutype":"일반휴게음식 - 일반한식","category":"restaurant"}]},{"lat":"37.296954303","long":"126.96861839","imageIndex":4,"items":[{"name":"공간샘스터디&카페 성대점","tel":"031-227-4377","addr":"경기도 수원시 장안구 율전동 408-1번지 2층","indutype":"일반휴게음식 - 서양음식","category":"restaurant"},{"name":"땡큐맘치킨 율전이안점","tel":"031-291-9992","addr":"경기도 수원시 장안구 율전동 408-1번지 101호","indutype":"일반휴게음식 - 스넥","category":"restaurant"},{"name":"콘야키미토","tel":"031-293-8909","addr":"경기도 수원시 장안구 율전동 408-1번지","indutype":"일반휴게음식 - 일반한식","category":"restaurant"},{"name":"키와마루아지","tel":"031-292-8858","addr":"경기도 수원시 장안구 율전동 408-1번지 103호","indutype":"일반휴게음식 - 일식·회집","category":"restaurant"}]},{"lat":"37.296792405","long":"126.96962223","imageIndex":4,"items":[{"name":"공간청년","tel":"","addr":"경기도 수원시 장안구 율전동 433-95번지 트라이속옷 3층 301호","indutype":"일반휴게음식 - 일반한식","category":"restaurant"},{"name":"깡통속의선율 7090 라이브","tel":"031-000-0000","addr":"경기도 수원시 장안구 율전동 433-95번지 트라이속옷 지층 101호","indutype":"일반휴게음식 - 주점","category":"restaurant"},{"name":"달봉감자수원성균관대점","tel":"031-278-0529","addr":"경기도 수원시 장안구 율전동 433-95번지","indutype":"일반휴게음식 - 주점","category":"restaurant"},{"name":"맥주광","tel":"031-278-2220","addr":"경기도 수원시 장안구 율전동 433-95번지 2층","indutype":"일반휴게음식 - 주점","category":"restaurant"},{"name":"맥호식당","tel":"031-278-2220","addr":"경기도 수원시 장안구 율전동 433-95번지 2층","indutype":"일반휴게음식 - 일반한식","category":"restaurant"},{"name":"비추는별","tel":"031-227-0677","addr":"경기도 수원시 장안구 율전동 433-95번지","indutype":"일반휴게음식 - 일반한식","category":"restaurant"},{"name":"예하랑","tel":"","addr":"경기도 수원시 장안구 율전동 433-95번지 트라이속옷 1층 102호","indutype":"일반휴게음식 - 중국식","category":"restaurant"},{"name":"정통집 수원성대점","tel":"031-898-9292","addr":"경기도 수원시 장안구 율전동 433-95번지","indutype":"일반휴게음식 - 일반한식","category":"restaurant"},{"name":"탕화쿵푸마라탕","tel":"031-747-8874","addr":"경기도 수원시 장안구 율전동 433-95번지 1층","indutype":"일반휴게음식 - 중국식","category":"restaurant"}]},{"lat":"37.298090554","long":"126.97211421","imageIndex":4,"items":[{"name":"공차","tel":"031-296-3613","addr":"경기도 수원시 장안구 율전동 288-4번지 성대프라자 102호","indutype":"일반휴게음식 - 서양음식","category":"restaurant"},{"name":"돈천동식당 마라부대찌개 불떡볶이","tel":"070-7782-7596","addr":"경기도 수원시 장안구 율전동 288-4번지 성대프라자 2층 201호","indutype":"일반휴게음식 - 일반한식","category":"restaurant"},{"name":"퓨전포차인생술집","tel":"031-111-1111","addr":"경기도 수원시 장안구 율전동 288-4번지 성대프라자 4층","indutype":"일반휴게음식 - 주점","category":"restaurant"}]},{"lat":"37.298486219","long":"126.96922674","imageIndex":4,"items":[{"name":"교촌치킨 율전1호점","tel":"031-292-9898","addr":"경기도 수원시 장안구 율전동 298-8번지","indutype":"일반휴게음식 - 스넥","category":"restaurant"},{"name":"짬뽕타임수원성대점","tel":"031-291-3123","addr":"경기도 수원시 장안구 율전동 298-8번지","indutype":"일반휴게음식 - 중국식","category":"restaurant"}]},{"lat":"37.297008315","long":"126.96844919","imageIndex":4,"items":[{"name":"구공사.에스티 (904.st)","tel":"","addr":"경기도 수원시 장안구 율전동 408-23번지 2층 202호","indutype":"일반휴게음식 - 일반한식","category":"restaurant"},{"name":"구공사에스티","tel":"","addr":"경기도 수원시 장안구 율전동 408-23번지 2층","indutype":"일반휴게음식 - 주점","category":"restaurant"},{"name":"예감쪽갈비 수원성대점","tel":"031-298-9866","addr":"경기도 수원시 장안구 율전동 408-23번지 1층","indutype":"일반휴게음식 - 일반한식","category":"restaurant"}]},{"lat":"37.298288395","long":"126.97067048","imageIndex":4,"items":[{"name":"국수나무(율전점)","tel":"031-296-1002","addr":"경기도 수원시 장안구 율전동 292번지 율전독서실 (1층)","indutype":"일반휴게음식 - 스넥","category":"restaurant"},{"name":"보드람치킨","tel":"031-291-8535","addr":"경기도 수원시 장안구 율전동 292번지 1층","indutype":"일반휴게음식 - 서양음식","category":"restaurant"},{"name":"설참치","tel":"031-296-9878","addr":"경기도 수원시 장안구 율전동 292번지","indutype":"일반휴게음식 - 일반한식","category":"restaurant"},{"name":"쎄시봉라이브","tel":"031-227-4479","addr":"경기도 수원시 장안구 율전동 292번지 지하1층","indutype":"일반휴게음식 - 주점","category":"restaurant"}]},{"lat":"37.303009254","long":"126.96886379","imageIndex":4,"items":[{"name":"국수들의잔치","tel":"070-7864-6628","addr":"경기도 수원시 장안구 율전동 155-18번지 101호","indutype":"일반휴게음식 - 스넥","category":"restaurant"},{"name":"민구네식당","tel":"031-207-4401","addr":"경기도 수원시 장안구 율전동 155-18번지 정미용실","indutype":"일반휴게음식 - 일반한식","category":"restaurant"}]},{"lat":"37.296792528","long":"126.97006209","imageIndex":4,"items":[{"name":"국수파동","tel":"031-291-8599","addr":"경기도 수원시 장안구 율전동 433-79번지","indutype":"일반휴게음식 - 일반한식","category":"restaurant"},{"name":"뚱보집 성대점","tel":"031-227-9244","addr":"경기도 수원시 장안구 율전동 433-79번지 1층","indutype":"일반휴게음식 - 일반한식","category":"restaurant"},{"name":"수원성균관대 설빙","tel":"031-294-0508","addr":"경기도 수원시 장안구 율전동 433-79번지 201호","indutype":"일반휴게음식 - 서양음식","category":"restaurant"},{"name":"신전떡볶이","tel":"031-305-1080","addr":"경기도 수원시 장안구 율전동 433-79번지 1층","indutype":"일반휴게음식 - 스넥","category":"restaurant"},{"name":"커피트리 (Coffee Tree)","tel":"","addr":"경기도 수원시 장안구 율전동 433-79번지 1층","indutype":"일반휴게음식 - 서양음식","category":"restaurant"}]},{"lat":"37.29690041","long":"126.96920489","imageIndex":4,"items":[{"name":"귀신반점","tel":"031-294-1089","addr":"경기도 수원시 장안구 율전동 433-103번지","indutype":"일반휴게음식 - 중국식","category":"restaurant"},{"name":"성대목장","tel":"031-295-4090","addr":"경기도 수원시 장안구 율전동 433-103번지","indutype":"일반휴게음식 - 일반한식","category":"restaurant"},{"name":"성대목장이","tel":"031-295-4090","addr":"경기도 수원시 장안구 율전동 433-103번지","indutype":"일반휴게음식 - 일반한식","category":"restaurant"}]},{"lat":"37.3033977","long":"126.97256322","imageIndex":4,"items":[{"name":"그램그램 성대점","tel":"031-271-8292","addr":"경기도 수원시 장안구 율전동 99-26번지 율전빌딩 1층","indutype":"일반휴게음식 - 일반한식","category":"restaurant"}]},{"lat":"37.302847307","long":"126.96969852","imageIndex":4,"items":[{"name":"그림이야기","tel":"031-292-0721","addr":"경기도 수원시 장안구 율전동 154-1번지 103호","indutype":"일반휴게음식 - 서양음식","category":"restaurant"},{"name":"비어메카","tel":"031-268-4977","addr":"경기도 수원시 장안구 율전동 154-1번지 105호~106호","indutype":"일반휴게음식 - 주점","category":"restaurant"}]},{"lat":"37.296179144","long":"126.96767137","imageIndex":4,"items":[{"name":"금자만두","tel":"031-278-6394","addr":"경기도 수원시 장안구 율전동 413-1번지 101호","indutype":"일반휴게음식 - 일반한식","category":"restaurant"}]},{"lat":"37.304316267","long":"126.97075814","imageIndex":4,"items":[{"name":"김밥시대","tel":"031-207-4205","addr":"경기도 수원시 장안구 율전동 108-6번지","indutype":"일반휴게음식 - 스넥","category":"restaurant"}]},{"lat":"37.300874776","long":"126.97233866","imageIndex":4,"items":[{"name":"김밥천국","tel":"031-242-0072","addr":"경기도 수원시 장안구 율전동 236번지","indutype":"일반휴게음식 - 일반한식","category":"restaurant"},{"name":"제일식당","tel":"031-293-3877","addr":"경기도 수원시 장안구 율전동 236번지","indutype":"일반휴게음식 - 일반한식","category":"restaurant"}]},{"lat":"37.299396503","long":"126.97011735","imageIndex":4,"items":[{"name":"김씨화로","tel":"031-269-9282","addr":"경기도 수원시 장안구 율전동 296-31","indutype":"일반휴게음식 - 일반한식","category":"restaurant"}]},{"lat":"37.302396827","long":"126.96981151","imageIndex":4,"items":[{"name":"김엄마밥집","tel":"031-269-4894","addr":"경기도 수원시 장안구 율전동 216-2번지 나우빌딩 1층","indutype":"일반휴게음식 - 일반한식","category":"restaurant"},{"name":"미친꽈배기","tel":"070-8111-9450","addr":"경기도 수원시 장안구 율전동 216-2번지 나우빌딩 1층","indutype":"일반휴게음식 - 일반한식","category":"restaurant"},{"name":"티바두마리치킨","tel":"031-271-6338","addr":"경기도 수원시 장안구 율전동 216-2번지 나우빌딩 1층","indutype":"일반휴게음식 - 스넥","category":"restaurant"}]},{"lat":"37.299090254","long":"126.9704784","imageIndex":4,"items":[{"name":"김프로부대찌개 성균관대역점","tel":"070-8615-9429","addr":"경기도 수원시 장안구 율전동 295번지 2층","indutype":"일반휴게음식 - 일반한식","category":"restaurant"},{"name":"생활맥주 수원성균관대점","tel":"070-4215-2056","addr":"경기도 수원시 장안구 율전동 295번지 율전치과 102호","indutype":"일반휴게음식 - 주점","category":"restaurant"}]},{"lat":"37.294845577","long":"126.96750282","imageIndex":4,"items":[{"name":"까페여행","tel":"031-223-5214","addr":"경기도 수원시 장안구 율전동 416-9번지","indutype":"일반휴게음식 - 서양음식","category":"restaurant"}]},{"lat":"37.297288053","long":"126.96992653","imageIndex":4,"items":[{"name":"껍데기클라쓰 성균관대점","tel":"031-291-0317","addr":"경기도 수원시 장안구 율전동 407-2번지 1층","indutype":"일반휴게음식 - 일반한식","category":"restaurant"},{"name":"쉐프의 부대찌개 성균관대점","tel":"031-294-0123","addr":"경기도 수원시 장안구 율전동 407-2번지 2층","indutype":"일반휴게음식 - 일반한식","category":"restaurant"}]},{"lat":"37.297847251","long":"126.97201281","imageIndex":4,"items":[{"name":"꼬꼬아찌숯불치킨 수원성균관대점","tel":"031-8002-0070","addr":"경기도 수원시 장안구 율전동 290-43번지 1층 3,4호","indutype":"일반휴게음식 - 일반한식","category":"restaurant"},{"name":"먹거리고을","tel":"031-293-9255","addr":"경기도 수원시 장안구 율전동 290-43번지","indutype":"일반휴게음식 - 일반한식","category":"restaurant"},{"name":"할리스커피수원성대역점","tel":"031-309-1660","addr":"경기도 수원시 장안구 율전동 290-43번지","indutype":"일반휴게음식 - 서양음식","category":"restaurant"}]},{"lat":"37.298008988","long":"126.97034352","imageIndex":4,"items":[{"name":"꽃가람","tel":"031-291-6155","addr":"경기도 수원시 장안구 율전동 402-5번지 2층","indutype":"일반휴게음식 - 서양음식","category":"restaurant"},{"name":"돈정","tel":"031-293-3156","addr":"경기도 수원시 장안구 율전동 402-5번지","indutype":"일반휴게음식 - 일반한식","category":"restaurant"},{"name":"크림","tel":"031-291-4583","addr":"경기도 수원시 장안구 율전동 402-5번지 지층","indutype":"일반휴게음식 - 일반한식","category":"restaurant"}]},{"lat":"37.299153999","long":"126.97303863","imageIndex":4,"items":[{"name":"꾸이꾸이돼지마을","tel":"031-293-9293","addr":"경기도 수원시 장안구 율전동 288번지","indutype":"일반휴게음식 - 일반한식","category":"restaurant"},{"name":"원조부대고기","tel":"031-295-2111","addr":"경기도 수원시 장안구 율전동 288번지 1층","indutype":"일반휴게음식 - 일반한식","category":"restaurant"},{"name":"자피(JAPI)","tel":"031-292-7491","addr":"경기도 수원시 장안구 율전동 288번지 1층","indutype":"일반휴게음식 - 주점","category":"restaurant"},{"name":"쟈스민베트남쌀국수","tel":"031-278-9886","addr":"경기도 수원시 장안구 율전동 288번지","indutype":"일반휴게음식 - 일반한식","category":"restaurant"}]},{"lat":"37.298901116","long":"126.97076045","imageIndex":4,"items":[{"name":"꿈은이루어진다","tel":"031-293-5424","addr":"경기도 수원시 장안구 율전동 296-5번지","indutype":"일반휴게음식 - 서양음식","category":"restaurant"},{"name":"따봉치킨","tel":"070-4211-1370","addr":"경기도 수원시 장안구 율전동 296-5번지 2층","indutype":"일반휴게음식 - 일반한식","category":"restaurant"}]},{"lat":"37.302730243","long":"126.96994672","imageIndex":4,"items":[{"name":"남해식당","tel":"031-268-5140","addr":"경기도 수원시 장안구 율전동 217-2번지 1층","indutype":"일반휴게음식 - 일반한식","category":"restaurant"}]},{"lat":"37.297459802","long":"126.97197913","imageIndex":4,"items":[{"name":"낮것상칼국수","tel":"031-294-4765","addr":"경기도 수원시 장안구 율전동 439-22번지","indutype":"일반휴게음식 - 일반한식","category":"restaurant"}]},{"lat":"37.297955629","long":"126.97300527","imageIndex":4,"items":[{"name":"내가찜한닭","tel":"031-293-1120","addr":"경기도 수원시 장안구 율전동 290-6번지 좌측첫번째","indutype":"일반휴게음식 - 일반한식","category":"restaurant"}]},{"lat":"37.296233289","long":"126.9679533","imageIndex":4,"items":[{"name":"네네치킨율천점","tel":"031-296-6525","addr":"경기도 수원시 장안구 율전동 413-5번지 민영주택 1층","indutype":"일반휴게음식 - 일반한식","category":"restaurant"}]},{"lat":"37.30303686","long":"126.97092788","imageIndex":4,"items":[{"name":"노다지감자탕","tel":"031-295-8978","addr":"경기도 수원시 장안구 율전동 103-2번지 101호","indutype":"일반휴게음식 - 일반한식","category":"restaurant"}]},{"lat":"37.29764851","long":"126.97009555","imageIndex":4,"items":[{"name":"노마세야성대점","tel":"031-298-4340","addr":"경기도 수원시 장안구 율전동 433-113번지","indutype":"일반휴게음식 - 일반한식","category":"restaurant"},{"name":"박가네 숯불닭갈비","tel":"031-663-0447","addr":"경기도 수원시 장안구 율전동 433-113번지 2층","indutype":"일반휴게음식 - 일반한식","category":"restaurant"},{"name":"약콩마을","tel":"031-298-5212","addr":"경기도 수원시 장안구 율전동 433-113번지","indutype":"일반휴게음식 - 일반한식","category":"restaurant"},{"name":"육회독존","tel":"031-297-6858","addr":"경기도 수원시 장안구 율전동 433-113번지 1층","indutype":"일반휴게음식 - 일반한식","category":"restaurant"},{"name":"한창희천하일면 수원성대점","tel":"031-111-1111","addr":"경기도 수원시 장안구 율전동 433-113번지","indutype":"일반휴게음식 - 서양음식","category":"restaurant"}]},{"lat":"37.299009321","long":"126.97106492","imageIndex":4,"items":[{"name":"놀부부대찌개","tel":"031-291-1238","addr":"경기도 수원시 장안구 율전동 295-1번지","indutype":"일반휴게음식 - 일반한식","category":"restaurant"},{"name":"독도참치","tel":"031-297-5554","addr":"경기도 수원시 장안구 율전동 295-1번지","indutype":"일반휴게음식 - 일식·회집","category":"restaurant"},{"name":"북한산조개구이","tel":"031-292-4855","addr":"경기도 수원시 장안구 율전동 295-1번지","indutype":"일반휴게음식 - 일반한식","category":"restaurant"}]},{"lat":"37.297756791","long":"126.97067071","imageIndex":4,"items":[{"name":"니뽕내뽕 수원성균관대점","tel":"031-294-2848","addr":"경기도 수원시 장안구 율전동 433-117번지 2층","indutype":"일반휴게음식 - 중국식","category":"restaurant"},{"name":"롯데리아(수원성대점)","tel":"031-293-7755","addr":"경기도 수원시 장안구 율전동 433-117번지 1,2층","indutype":"일반휴게음식 - 서양음식","category":"restaurant"}]},{"lat":"37.298368782","long":"126.96817789","imageIndex":4,"items":[{"name":"다올 (성대점)","tel":"031-307-7791","addr":"경기도 수원시 장안구 율전동 313-11번지 ,1,2층","indutype":"일반휴게음식 - 서양음식","category":"restaurant"}]},{"lat":"37.301063927","long":"126.97209044","imageIndex":4,"items":[{"name":"닥치고삼겹살","tel":"031-269-7757","addr":"경기도 수원시 장안구 율전동 235-1번지 1층","indutype":"일반휴게음식 - 일반한식","category":"restaurant"}]},{"lat":"37.302784931","long":"126.97228149","imageIndex":4,"items":[{"name":"달콩","tel":"031-271-2880","addr":"경기도 수원시 장안구 율전동 99-56번지 아트빌","indutype":"일반휴게음식 - 서양음식","category":"restaurant"}]},{"lat":"37.298873887","long":"126.97003863","imageIndex":4,"items":[{"name":"대동집","tel":"031-0000-0000","addr":"경기도 수원시 장안구 율전동 296-37번지","indutype":"일반휴게음식 - 일반한식","category":"restaurant"}]},{"lat":"37.301928404","long":"126.97020648","imageIndex":4,"items":[{"name":"대율식당","tel":"031-246-5111","addr":"경기도 수원시 장안구 율전동 213-2번지 1층","indutype":"일반휴게음식 - 일반한식","category":"restaurant"}]},{"lat":"37.303486838","long":"126.9690102","imageIndex":4,"items":[{"name":"대한민국피자","tel":"031-268-2503","addr":"경기도 수원시 장안구 율전동 145-2번지 1층","indutype":"일반휴게음식 - 서양음식","category":"restaurant"}]},{"lat":"37.296901012","long":"126.97139288","imageIndex":4,"items":[{"name":"더리터 (수원성대점)","tel":"031-216-2405","addr":"경기도 수원시 장안구 율전동 433-121번지 1층","indutype":"일반휴게음식 - 서양음식","category":"restaurant"},{"name":"이라면","tel":"031-291-7611","addr":"경기도 수원시 장안구 율전동 433-121번지","indutype":"일반휴게음식 - 스넥","category":"restaurant"}]},{"lat":"37.299315519","long":"126.97051214","imageIndex":4,"items":[{"name":"더맛쪽갈비","tel":"031-291-8592","addr":"경기도 수원시 장안구 율전동 296-29번지 1층","indutype":"일반휴게음식 - 일반한식","category":"restaurant"},{"name":"성대 면 사무소","tel":"031-278-1132","addr":"경기도 수원시 장안구 율전동 296-29번지 대복빌딩 1층 102호","indutype":"일반휴게음식 - 일반한식","category":"restaurant"},{"name":"피체리아295","tel":"031-223-5214","addr":"경기도 수원시 장안구 율전동 296-29번지 대복빌딩 1층 103호","indutype":"일반휴게음식 - 주점","category":"restaurant"}]},{"lat":"37.296981752","long":"126.97009584","imageIndex":4,"items":[{"name":"더진국 수원성균관대점","tel":"031-227-0615","addr":"경기도 수원시 장안구 율전동 433-80번지 1층","indutype":"일반휴게음식 - 일반한식","category":"restaurant"},{"name":"정든닭발 성대점","tel":"031-000-0000","addr":"경기도 수원시 장안구 율전동 433-80번지 2층","indutype":"일반휴게음식 - 일반한식","category":"restaurant"}]},{"lat":"37.298567152","long":"126.96867405","imageIndex":4,"items":[{"name":"도라무통","tel":"031-291-4331","addr":"경기도 수원시 장안구 율전동 305-22번지 뚜레쥬드 110호","indutype":"일반휴게음식 - 스넥","category":"restaurant"},{"name":"피자헐","tel":"031-227-8482","addr":"경기도 수원시 장안구 율전동 305-22번지 뚜레쥬드 106호","indutype":"일반휴게음식 - 서양음식","category":"restaurant"}]},{"lat":"37.297674821","long":"126.96759173","imageIndex":4,"items":[{"name":"도레미파스타","tel":"","addr":"경기도 수원시 장안구 율전동 395-23번지 다온빌 1층 101호","indutype":"일반휴게음식 - 서양음식","category":"restaurant"}]},{"lat":"37.297568341","long":"126.97361446","imageIndex":4,"items":[{"name":"도스마스(성균관대점)","tel":"031-278-1818","addr":"경기도 수원시 장안구 율전동 290-20번지 제1.2종근린생할시설 103호","indutype":"일반휴게음식 - 스넥","category":"restaurant"},{"name":"카페영(cafe.young)","tel":"031-000-0000","addr":"경기도 수원시 장안구 율전동 290-20번지 제1.2종근린생할시설 102호","indutype":"일반휴게음식 - 서양음식","category":"restaurant"}]},{"lat":"37.298872648","long":"126.96584298","imageIndex":4,"items":[{"name":"도원 포명천","tel":"031-292-2342","addr":"경기도 수원시 장안구 율전동 358-1번지 진명스크린골프 1층 101호","indutype":"일반휴게음식 - 중국식","category":"restaurant"},{"name":"부라더","tel":"031-297-1842","addr":"경기도 수원시 장안구 율전동 358-1번지 진명스크린골프 1층 101,102호","indutype":"일반휴게음식 - 스넥","category":"restaurant"}]},{"lat":"37.29809004","long":"126.97019687","imageIndex":4,"items":[{"name":"독산성족발&순대","tel":"031-293-2527","addr":"경기도 수원시 장안구 율전동 292-7번지 105,106호","indutype":"일반휴게음식 - 일반한식","category":"restaurant"},{"name":"땅땅치킨 수원성대점","tel":"031-296-7770","addr":"경기도 수원시 장안구 율전동 292-7번지 명문컴퓨터학원","indutype":"일반휴게음식 - 스넥","category":"restaurant"},{"name":"브로","tel":"031-292-2171","addr":"경기도 수원시 장안구 율전동 292-7번지 우신빌딩 2층","indutype":"일반휴게음식 - 주점","category":"restaurant"},{"name":"수참치","tel":"031-223-5213","addr":"경기도 수원시 장안구 율전동 292-7번지 우신빌딩 2층 201호","indutype":"일반휴게음식 - 일식·회집","category":"restaurant"},{"name":"이디야성균관대역점","tel":"031-204-1006","addr":"경기도 수원시 장안구 율전동 292-7번지 1층","indutype":"일반휴게음식 - 서양음식","category":"restaurant"},{"name":"청진동해장국율전성대점","tel":"031-227-2393","addr":"경기도 수원시 장안구 율전동 292-7번지 지층","indutype":"일반휴게음식 - 일반한식","category":"restaurant"}]},{"lat":"37.297314696","long":"126.96856184","imageIndex":4,"items":[{"name":"돈올림","tel":"031-111-1111","addr":"경기도 수원시 장안구 율전동 398-4번지 1층","indutype":"일반휴게음식 - 일반한식","category":"restaurant"}]},{"lat":"37.298982131","long":"126.97047845","imageIndex":4,"items":[{"name":"돈이네","tel":"031-223-5214","addr":"경기도 수원시 장안구 율전동 295-5번지","indutype":"일반휴게음식 - 일반한식","category":"restaurant"},{"name":"플레이바","tel":"031-292-5668","addr":"경기도 수원시 장안구 율전동 295-5번지 2층","indutype":"일반휴게음식 - 주점","category":"restaurant"}]},{"lat":"37.30251389","long":"126.96956332","imageIndex":4,"items":[{"name":"동네빈대떡","tel":"031-296-0530","addr":"경기도 수원시 장안구 율전동 156-3번지","indutype":"일반휴게음식 - 일반한식","category":"restaurant"}]},{"lat":"37.298206933","long":"126.96933965","imageIndex":4,"items":[{"name":"동네아저씨수원성아치","tel":"031-306-2888","addr":"경기도 수원시 장안구 율전동 297-1번지 기인빌딩","indutype":"일반휴게음식 - 일반한식","category":"restaurant"},{"name":"순풍양꼬치","tel":"031-302-3585","addr":"경기도 수원시 장안구 율전동 297-1번지 기인빌딩 1층","indutype":"일반휴게음식 - 일반한식","category":"restaurant"}]},{"lat":"37.298541159","long":"126.97247494","imageIndex":4,"items":[{"name":"동자설렁탕","tel":"031-292-8542","addr":"경기도 수원시 장안구 율전동 288-3번지","indutype":"일반휴게음식 - 일반한식","category":"restaurant"},{"name":"옛날장터치킨","tel":"031-295-1231","addr":"경기도 수원시 장안구 율전동 288-3번지 1층","indutype":"일반휴게음식 - 스넥","category":"restaurant"}]},{"lat":"37.3029015","long":"126.97017223","imageIndex":4,"items":[{"name":"두리아숯불바베큐","tel":"031-268-9293","addr":"경기도 수원시 장안구 율전동 152-2번지","indutype":"일반휴게음식 - 주점","category":"restaurant"},{"name":"비너스커피","tel":"","addr":"경기도 수원시 장안구 율전동 152-2번지 1층 105호","indutype":"일반휴게음식 - 서양음식","category":"restaurant"},{"name":"비너스커피2","tel":"070-8871-0129","addr":"경기도 수원시 장안구 율전동 152-2번지","indutype":"일반휴게음식 - 서양음식","category":"restaurant"},{"name":"족도사족발","tel":"031-269-7227","addr":"경기도 수원시 장안구 율전동 152-2번지 104호","indutype":"일반휴게음식 - 일반한식","category":"restaurant"}]},{"lat":"37.299035987","long":"126.96973403","imageIndex":4,"items":[{"name":"드럼통돌구이","tel":"031-297-7161","addr":"경기도 수원시 장안구 율전동 300번지 율전미주타운 101호","indutype":"일반휴게음식 - 일반한식","category":"restaurant"},{"name":"산이야아구찜황소곱창","tel":"031-296-1319","addr":"경기도 수원시 장안구 율전동 300번지 율전미주타운 102호","indutype":"일반휴게음식 - 일반한식","category":"restaurant"},{"name":"완벽한순간","tel":"","addr":"경기도 수원시 장안구 율전동 300번지 율전미주타운 102-1호","indutype":"일반휴게음식 - 서양음식","category":"restaurant"}]},{"lat":"37.302757661","long":"126.97136788","imageIndex":4,"items":[{"name":"디인카페","tel":"070-8614-5505","addr":"경기도 수원시 장안구 율전동 104-17번지","indutype":"일반휴게음식 - 서양음식","category":"restaurant"}]},{"lat":"37.297512971","long":"126.96873092","imageIndex":4,"items":[{"name":"디저트분양소","tel":"","addr":"경기도 수원시 장안구 율전동 399-17번지 102호","indutype":"일반휴게음식 - 서양음식","category":"restaurant"},{"name":"예술상","tel":"","addr":"경기도 수원시 장안구 율전동 399-17번지 1층 107호","indutype":"일반휴게음식 - 주점","category":"restaurant"}]},{"lat":"37.297928669","long":"126.97328724","imageIndex":4,"items":[{"name":"디저트스튜디오","tel":"","addr":"경기도 수원시 장안구 율전동 290-40번지","indutype":"일반휴게음식 - 서양음식","category":"restaurant"}]},{"lat":"37.296701904","long":"126.96823504","imageIndex":4,"items":[{"name":"떡보킹","tel":"031-291-0792","addr":"경기도 수원시 장안구 율전동 409-5번지 1층 102호","indutype":"일반휴게음식 - 일반한식","category":"restaurant"},{"name":"생각나는순대국","tel":"031-297-2545","addr":"경기도 수원시 장안구 율전동 409-5번지 103호","indutype":"일반휴게음식 - 일반한식","category":"restaurant"}]},{"lat":"37.298512341","long":"126.96617024","imageIndex":4,"items":[{"name":"또래오래치킨 목우촌참피자","tel":"031-292-0858","addr":"경기도 수원시 장안구 율전동 360-7번지 1층","indutype":"일반휴게음식 - 스넥","category":"restaurant"}]},{"lat":"37.29820776","long":"126.97239613","imageIndex":4,"items":[{"name":"라돈","tel":"031-278-4448","addr":"경기도 수원시 장안구 율전동 288-45번지 1층","indutype":"일반휴게음식 - 일반한식","category":"restaurant"}]},{"lat":"37.298424","long":"126.97237348","imageIndex":4,"items":[{"name":"라면국물편의점포차","tel":"070-4036-2326","addr":"경기도 수원시 장안구 율전동 288-75번지 2층","indutype":"일반휴게음식 - 일반한식","category":"restaurant"},{"name":"엄마순대국","tel":"031-291-1889","addr":"경기도 수원시 장안구 율전동 288-75번지 1층","indutype":"일반휴게음식 - 일반한식","category":"restaurant"}]},{"lat":"37.301153994","long":"126.97195506","imageIndex":4,"items":[{"name":"라익 댓","tel":"","addr":"경기도 수원시 장안구 율전동 235-17번지 1층","indutype":"일반휴게음식 - 일반한식","category":"restaurant"}]},{"lat":"37.297315221","long":"126.97042277","imageIndex":4,"items":[{"name":"라화쿵부","tel":"031-292-6259","addr":"경기도 수원시 장안구 율전동 433-62번지 1층 101호","indutype":"일반휴게음식 - 중국식","category":"restaurant"},{"name":"본죽앤비빔밥 율전점","tel":"031-291-6288","addr":"경기도 수원시 장안구 율전동 433-62번지","indutype":"일반휴게음식 - 일반한식","category":"restaurant"},{"name":"자연김밥","tel":"031-291-9990","addr":"경기도 수원시 장안구 율전동 433-62번지 102호","indutype":"일반휴게음식 - 스넥","category":"restaurant"}]},{"lat":"37.304541356","long":"126.97014896","imageIndex":4,"items":[{"name":"랑데부(rendezvous)","tel":"031-419-6443","addr":"경기도 수원시 장안구 율전동 109-6번지","indutype":"일반휴게음식 - 서양음식","category":"restaurant"}]},{"lat":"37.297566674","long":"126.96751283","imageIndex":4,"items":[{"name":"롤랑","tel":"031-298-8366","addr":"경기도 수원시 장안구 율전동 395-7번지 102호","indutype":"일반휴게음식 - 서양음식","category":"restaurant"}]},{"lat":"37.298792408","long":"126.96867395","imageIndex":4,"items":[{"name":"르디망슈","tel":"","addr":"경기도 수원시 장안구 율전동 307-9번지 103,104호","indutype":"일반휴게음식 - 서양음식","category":"restaurant"},{"name":"모수밀면","tel":"031-297-7327","addr":"경기도 수원시 장안구 율전동 307-9번지 해생빌딩 1층 101,102호","indutype":"일반휴게음식 - 일반한식","category":"restaurant"}]},{"lat":"37.295846059","long":"126.96867529","imageIndex":4,"items":[{"name":"리치","tel":"","addr":"경기도 수원시 장안구 율전동 410-1번지 101호","indutype":"일반휴게음식 - 일반한식","category":"restaurant"}]},{"lat":"37.302262244","long":"126.97192077","imageIndex":4,"items":[{"name":"마리","tel":"031-268-8484","addr":"경기도 수원시 장안구 율전동 100-34번지","indutype":"일반휴게음식 - 서양음식","category":"restaurant"}]},{"lat":"37.30478467","long":"126.97028421","imageIndex":4,"items":[{"name":"마리꼬끄","tel":"031-271-5001","addr":"경기도 수원시 장안구 율전동 109-16번지 태영빌딩","indutype":"일반휴게음식 - 일반한식","category":"restaurant"},{"name":"진도야족발 (수원성대점)","tel":"031-111-1111","addr":"경기도 수원시 장안구 율전동 109-16번지 태영빌딩 1층 102호","indutype":"일반휴게음식 - 일반한식","category":"restaurant"}]},{"lat":"37.297928641","long":"126.97317446","imageIndex":4,"items":[{"name":"마실","tel":"031-111-1111","addr":"경기도 수원시 장안구 율전동 290-34번지 2층","indutype":"일반휴게음식 - 서양음식","category":"restaurant"},{"name":"비에뜨반미 수원성대점","tel":"","addr":"경기도 수원시 장안구 율전동 290-34번지 1층","indutype":"일반휴게음식 - 서양음식","category":"restaurant"},{"name":"피자아이","tel":"031-292-5678","addr":"경기도 수원시 장안구 율전동 290-34번지","indutype":"일반휴게음식 - 서양음식","category":"restaurant"}]},{"lat":"37.296701983","long":"126.96850572","imageIndex":4,"items":[{"name":"마왕족발 수원성균관대점","tel":"031-297-2999","addr":"경기도 수원시 장안구 율전동 408-16번지 우정상가 102호","indutype":"일반휴게음식 - 일반한식","category":"restaurant"}]},{"lat":"37.297729546","long":"126.96989251","imageIndex":4,"items":[{"name":"마포갈비","tel":"031-227-5469","addr":"경기도 수원시 장안구 율전동 433-92번지","indutype":"일반휴게음식 - 일반한식","category":"restaurant"}]},{"lat":"37.297486394","long":"126.97034375","imageIndex":4,"items":[{"name":"마포구이촌","tel":"031-296-7672","addr":"경기도 수원시 장안구 율전동 433-116번지 1층","indutype":"일반휴게음식 - 일반한식","category":"restaurant"},{"name":"맥주클럽","tel":"031-278-1530","addr":"경기도 수원시 장안구 율전동 433-116번지 3층","indutype":"일반휴게음식 - 주점","category":"restaurant"},{"name":"백령도 생 바지락 칼국수","tel":"031-295-0727","addr":"경기도 수원시 장안구 율전동 433-116번지 2층","indutype":"일반휴게음식 - 일반한식","category":"restaurant"}]},{"lat":"37.297819335","long":"126.96878718","imageIndex":4,"items":[{"name":"막창혁명","tel":"070-7420-2356","addr":"경기도 수원시 장안구 율전동 399-20번지 1층","indutype":"일반휴게음식 - 일반한식","category":"restaurant"}]},{"lat":"37.296981595","long":"126.96953192","imageIndex":4,"items":[{"name":"만다김밥","tel":"031-296-8848","addr":"경기도 수원시 장안구 율전동 407-20번지 마이홈스텔 101호","indutype":"일반휴게음식 - 일반한식","category":"restaurant"}]},{"lat":"37.301955357","long":"126.9699245","imageIndex":4,"items":[{"name":"만리향","tel":"031-295-8808","addr":"경기도 수원시 장안구 율전동 215-10번지","indutype":"일반휴게음식 - 중국식","category":"restaurant"}]},{"lat":"37.29815354","long":"126.97178711","imageIndex":4,"items":[{"name":"맘스터치","tel":"031-298-8305","addr":"경기도 수원시 장안구 율전동 285-8번지 2층","indutype":"일반휴게음식 - 서양음식","category":"restaurant"},{"name":"부대통령 뚝배기","tel":"031-293-3555","addr":"경기도 수원시 장안구 율전동 285-8번지 3층","indutype":"일반휴게음식 - 일반한식","category":"restaurant"}]},{"lat":"37.303010007","long":"126.97159336","imageIndex":4,"items":[{"name":"멕시카나(율천점)","tel":"031-291-3041","addr":"경기도 수원시 장안구 율전동 104-6번지 1층","indutype":"일반휴게음식 - 스넥","category":"restaurant"}]},{"lat":"37.296927977","long":"126.97114475","imageIndex":4,"items":[{"name":"명동왕생돈까스","tel":"031-297-7774","addr":"경기도 수원시 장안구 율전동 433-66번지","indutype":"일반휴게음식 - 일반한식","category":"restaurant"}]},{"lat":"37.298847167","long":"126.97117778","imageIndex":4,"items":[{"name":"명륜진사갈비 수원성균관대점","tel":"031-232-9333","addr":"경기도 수원시 장안구 율전동 296-46번지","indutype":"일반휴게음식 - 일반한식","category":"restaurant"}]},{"lat":"37.297872928","long":"126.96719689","imageIndex":4,"items":[{"name":"모닝꼬마김밥","tel":"070-7420-9999","addr":"경기도 수원시 장안구 율전동 395-2번지 1층","indutype":"일반휴게음식 - 스넥","category":"restaurant"}]},{"lat":"37.299289229","long":"126.9733431","imageIndex":4,"items":[{"name":"모닝사이드","tel":"031-221-6404","addr":"경기도 수원시 장안구 율전동 280-2번지 1층","indutype":"일반휴게음식 - 서양음식","category":"restaurant"}]},{"lat":"37.297098898","long":"126.9701409","imageIndex":4,"items":[{"name":"미가라멘","tel":"031-296-3375","addr":"경기도 수원시 장안구 율전동 433-81번지 1층","indutype":"일반휴게음식 - 일반한식","category":"restaurant"},{"name":"인생삼겹","tel":"031-111-1111","addr":"경기도 수원시 장안구 율전동 433-81번지 2층","indutype":"일반휴게음식 - 일반한식","category":"restaurant"}]},{"lat":"37.298765066","long":"126.96761377","imageIndex":4,"items":[{"name":"미스꼬꼬","tel":"031-227-9330","addr":"경기도 수원시 장안구 율전동 321-17번지 그린맨션 상가 1층","indutype":"일반휴게음식 - 일반한식","category":"restaurant"}]},{"lat":"37.297873887","long":"126.97053531","imageIndex":4,"items":[{"name":"미스터철통","tel":"031-227-8295","addr":"경기도 수원시 장안구 율전동 433-94번지","indutype":"일반휴게음식 - 일반한식","category":"restaurant"},{"name":"양철통","tel":"031-227-8295","addr":"경기도 수원시 장안구 율전동 433-94번지","indutype":"일반휴게음식 - 일반한식","category":"restaurant"}]},{"lat":"37.297036205","long":"126.97153945","imageIndex":4,"items":[{"name":"밀플랜비","tel":"","addr":"경기도 수원시 장안구 율전동 433-61번지 1층","indutype":"일반휴게음식 - 일반한식","category":"restaurant"},{"name":"본찌돈까스","tel":"031-297-1001","addr":"경기도 수원시 장안구 율전동 433-61번지","indutype":"일반휴게음식 - 스넥","category":"restaurant"},{"name":"진지","tel":"032-000-0000","addr":"경기도 수원시 장안구 율전동 433-61번지 1층","indutype":"일반휴게음식 - 일식·회집","category":"restaurant"}]},{"lat":"37.298288487","long":"126.97100884","imageIndex":4,"items":[{"name":"바른스시1500 성대점","tel":"031-295-2226","addr":"경기도 수원시 장안구 율전동 291-4번지 율전빌딩 2층","indutype":"일반휴게음식 - 일반한식","category":"restaurant"},{"name":"추억집","tel":"031-307-8330","addr":"경기도 수원시 장안구 율전동 291-4번지 율전빌딩 2층","indutype":"일반휴게음식 - 일반한식","category":"restaurant"},{"name":"황금족발수원성대점","tel":"031-292-9335","addr":"경기도 수원시 장안구 율전동 291-4번지","indutype":"일반휴게음식 - 일반한식","category":"restaurant"}]},{"lat":"37.297649366","long":"126.97334374","imageIndex":4,"items":[{"name":"바바플","tel":"031-111-1111","addr":"경기도 수원시 장안구 율전동 290-7번지 삼전상가 1층 제10호,101호","indutype":"일반휴게음식 - 일반한식","category":"restaurant"},{"name":"본도시락 수원성균관대점","tel":"031-296-4282","addr":"경기도 수원시 장안구 율전동 290-7번지 삼전상가 나동 9호","indutype":"일반휴게음식 - 일반한식","category":"restaurant"},{"name":"봉구수밥버거성대2호점","tel":"031-293-5400","addr":"경기도 수원시 장안구 율전동 290-7번지 삼전상가","indutype":"일반휴게음식 - 스넥","category":"restaurant"},{"name":"코페아커피성균관대점","tel":"031-292-7177","addr":"경기도 수원시 장안구 율전동 290-7번지 삼전 상가 2호","indutype":"일반휴게음식 - 서양음식","category":"restaurant"},{"name":"행컵 성균관대점","tel":"031-251-8787","addr":"경기도 수원시 장안구 율전동 290-7번지 삼전상가","indutype":"일반휴게음식 - 일반한식","category":"restaurant"}]},{"lat":"37.298179966","long":"126.96956523","imageIndex":4,"items":[{"name":"바코드호프","tel":"031-278-7868","addr":"경기도 수원시 장안구 율전동 297-3번지 땡백화점 2층","indutype":"일반휴게음식 - 주점","category":"restaurant"},{"name":"생고기제작소 수원성대점","tel":"031-000-0000","addr":"경기도 수원시 장안구 율전동 297-3번지 땡백화점 1층","indutype":"일반휴게음식 - 일반한식","category":"restaurant"},{"name":"홍매스시","tel":"031-227-2107","addr":"경기도 수원시 장안구 율전동 297-3번지","indutype":"일반휴게음식 - 일식·회집","category":"restaurant"}]},{"lat":"37.296927603","long":"126.96978007","imageIndex":4,"items":[{"name":"박경규항아리보쌈성대점","tel":"031-298-8858","addr":"경기도 수원시 장안구 율전동 433-133번지 2층","indutype":"일반휴게음식 - 일반한식","category":"restaurant"},{"name":"춘천닭갈비","tel":"031-291-3338","addr":"경기도 수원시 장안구 율전동 433-133번지 1층","indutype":"일반휴게음식 - 일반한식","category":"restaurant"}]},{"lat":"37.296819247","long":"126.9689568","imageIndex":4,"items":[{"name":"반갑다친구야","tel":"031-297-1161","addr":"경기도 수원시 장안구 율전동 408-2번지","indutype":"일반휴게음식 - 일반한식","category":"restaurant"}]},{"lat":"37.297090338","long":"126.9718101","imageIndex":4,"items":[{"name":"밥은(화)","tel":"031-307-7948","addr":"경기도 수원시 장안구 율전동 433-164번지","indutype":"일반휴게음식 - 일반한식","category":"restaurant"}]},{"lat":"37.304036316","long":"126.96850238","imageIndex":4,"items":[{"name":"밥톨이","tel":"031-271-9010","addr":"경기도 수원시 장안구 율전동 142-6번지 다원공인중개사 102호","indutype":"일반휴게음식 - 일반한식","category":"restaurant"},{"name":"카페앤","tel":"02-1111-1111","addr":"경기도 수원시 장안구 율전동 142-6번지 다원공인중개사 101호","indutype":"일반휴게음식 - 서양음식","category":"restaurant"}]},{"lat":"37.303180802","long":"126.97011571","imageIndex":4,"items":[{"name":"배불뚝고기파티","tel":"031-269-9992","addr":"경기도 수원시 장안구 율전동 152번지 제일성모의원 1층 101호","indutype":"일반휴게음식 - 일반한식","category":"restaurant"},{"name":"태화루","tel":"031-271-6006","addr":"경기도 수원시 장안구 율전동 152번지","indutype":"일반휴게음식 - 중국식","category":"restaurant"}]},{"lat":"37.296233239","long":"126.96778413","imageIndex":4,"items":[{"name":"베베","tel":"","addr":"경기도 수원시 장안구 율전동 413-6번지 101호","indutype":"일반휴게음식 - 서양음식","category":"restaurant"}]},{"lat":"37.305397525","long":"126.97087048","imageIndex":4,"items":[{"name":"벨라","tel":"031-269-1023","addr":"경기도 수원시 장안구 율전동 553번지 1층","indutype":"일반휴게음식 - 서양음식","category":"restaurant"}]},{"lat":"37.2971803","long":"126.97127998","imageIndex":4,"items":[{"name":"벨라튀니지(Bella Tunisia)","tel":"031-296-8327","addr":"경기도 수원시 장안구 율전동 433-63번지","indutype":"일반휴게음식 - 일반한식","category":"restaurant"},{"name":"옛이야기","tel":"070-1111-1111","addr":"경기도 수원시 장안구 율전동 433-63번지 왕돈까스 1층 101호","indutype":"일반휴게음식 - 일반한식","category":"restaurant"},{"name":"왕돈까스","tel":"031-298-5415","addr":"경기도 수원시 장안구 율전동 433-63번지","indutype":"일반휴게음식 - 서양음식","category":"restaurant"}]},{"lat":"37.298369419","long":"126.97042232","imageIndex":4,"items":[{"name":"보영만두","tel":"031-227-6700","addr":"경기도 수원시 장안구 율전동 292-3번지","indutype":"일반휴게음식 - 스넥","category":"restaurant"},{"name":"사계참치","tel":"","addr":"경기도 수원시 장안구 율전동 292-3번지 2층 201호","indutype":"일반휴게음식 - 일식·회집","category":"restaurant"},{"name":"오닭꼬치","tel":"031-225-4025","addr":"경기도 수원시 장안구 율전동 292-3번지 1층 102호","indutype":"일반휴게음식 - 일반한식","category":"restaurant"},{"name":"조인호프","tel":"","addr":"경기도 수원시 장안구 율전동 292-3번지 2층","indutype":"일반휴게음식 - 주점","category":"restaurant"}]},{"lat":"37.298955717","long":"126.97281314","imageIndex":4,"items":[{"name":"볼빨간빵직이네","tel":"031-111-1111","addr":"경기도 수원시 장안구 율전동 288-2번지 지하1층","indutype":"일반휴게음식 - 주점","category":"restaurant"},{"name":"월매랑삼겹이랑","tel":"031-253-0301","addr":"경기도 수원시 장안구 율전동 288-2번지 1층","indutype":"일반휴게음식 - 일반한식","category":"restaurant"},{"name":"장보선 스터디카페","tel":"031-111-1111","addr":"경기도 수원시 장안구 율전동 288-2번지 3층","indutype":"일반휴게음식 - 서양음식","category":"restaurant"}]},{"lat":"37.298820535","long":"126.9727004","imageIndex":4,"items":[{"name":"봄봄","tel":"031-278-6092","addr":"경기도 수원시 장안구 율전동 288-40번지","indutype":"일반휴게음식 - 일반한식","category":"restaurant"},{"name":"아웃닭수원성균관대점","tel":"","addr":"경기도 수원시 장안구 율전동 288-40번지","indutype":"일반휴게음식 - 스넥","category":"restaurant"}]},{"lat":"37.298900877","long":"126.96989199","imageIndex":4,"items":[{"name":"봉수육","tel":"031-294-4285","addr":"경기도 수원시 장안구 율전동 299-6번지 1층","indutype":"일반휴게음식 - 일반한식","category":"restaurant"},{"name":"히토리","tel":"031-274-4273","addr":"경기도 수원시 장안구 율전동 299-6번지 1층","indutype":"일반휴게음식 - 일반한식","category":"restaurant"}]},{"lat":"37.299369872","long":"126.97159487","imageIndex":4,"items":[{"name":"북수원온천매점2","tel":"031-293-7005","addr":"경기도 수원시 장안구 율전동 285-2번지 9층","indutype":"일반휴게음식 - 스넥","category":"restaurant"},{"name":"북수원온천식당(1),(2)팔각정","tel":"031-293-7005","addr":"경기도 수원시 장안구 율전동 285-2번지 SKHUBBLUE 9층","indutype":"일반휴게음식 - 일반한식","category":"restaurant"},{"name":"북수원온천허브","tel":"031-293-7841","addr":"경기도 수원시 장안구 율전동 285-2번지 SK HUB BLUE 9층","indutype":"일반휴게음식 - 서양음식","category":"restaurant"},{"name":"브레드클럽성균관대역점","tel":"031-246-9992","addr":"경기도 수원시 장안구 율전동 285-2번지 SK HUB BLUE 1004호","indutype":"일반휴게음식 - 서양음식","category":"restaurant"},{"name":"아보체","tel":"031-298-3111","addr":"경기도 수원시 장안구 율전동 285-2번지 5001, SKHUBBLUE 5001호~5005호","indutype":"일반휴게음식 - 일반한식","category":"restaurant"},{"name":"찌개와조림","tel":"031-298-8838","addr":"경기도 수원시 장안구 율전동 285-2번지 외에스케이허브블루 5011호","indutype":"일반휴게음식 - 스넥","category":"restaurant"},{"name":"카페율전","tel":"031-293-0777","addr":"경기도 수원시 장안구 율전동 285-2번지 SK HUB BLUE 2056호","indutype":"일반휴게음식 - 서양음식","category":"restaurant"}]},{"lat":"37.298541066","long":"126.97211403","imageIndex":4,"items":[{"name":"불닭발동대문엽기떡볶이","tel":"031-295-8591","addr":"경기도 수원시 장안구 율전동 288-6번지","indutype":"일반휴게음식 - 일반한식","category":"restaurant"},{"name":"아이엠바리스타","tel":"031-227-0866","addr":"경기도 수원시 장안구 율전동 288-6번지 2층","indutype":"일반휴게음식 - 서양음식","category":"restaurant"}]},{"lat":"37.297594533","long":"126.97040009","imageIndex":4,"items":[{"name":"블랙스미스","tel":"02-111-1111","addr":"경기도 수원시 장안구 율전동 433-115번지","indutype":"일반휴게음식 - 서양음식","category":"restaurant"},{"name":"투다리 (성대점)","tel":"031-294-3355","addr":"경기도 수원시 장안구 율전동 433-115번지 1층","indutype":"일반휴게음식 - 일반한식","category":"restaurant"}]},{"lat":"37.298540467","long":"126.96989215","imageIndex":4,"items":[{"name":"블루펍","tel":"070-8239-6527","addr":"경기도 수원시 장안구 율전동 296-2번지 1층","indutype":"일반휴게음식 - 일반한식","category":"restaurant"}]},{"lat":"37.298423189","long":"126.96937339","imageIndex":4,"items":[{"name":"비비","tel":"031-296-1006","addr":"경기도 수원시 장안구 율전동 298-16번지 2층","indutype":"일반휴게음식 - 일반한식","category":"restaurant"},{"name":"피자스쿨성대점","tel":"031-227-0802","addr":"경기도 수원시 장안구 율전동 298-16번지 1층","indutype":"일반휴게음식 - 일반한식","category":"restaurant"}]},{"lat":"37.298036078","long":"126.9705578","imageIndex":4,"items":[{"name":"비어쵸이스","tel":"031-294-9977","addr":"경기도 수원시 장안구 율전동 402-2번지 2층","indutype":"일반휴게음식 - 일반한식","category":"restaurant"},{"name":"술술한밤","tel":"031-296-6722","addr":"경기도 수원시 장안구 율전동 402-2번지 4층","indutype":"일반휴게음식 - 일반한식","category":"restaurant"},{"name":"청년다방 수원성균관대점","tel":"031-298-0111","addr":"경기도 수원시 장안구 율전동 402-2번지 1층","indutype":"일반휴게음식 - 스넥","category":"restaurant"}]},{"lat":"37.297342215","long":"126.97028742","imageIndex":4,"items":[{"name":"비어팝","tel":"031-422-0129","addr":"경기도 수원시 장안구 율전동 433-69번지 2층","indutype":"일반휴게음식 - 주점","category":"restaurant"}]},{"lat":"37.298288715","long":"126.971866","imageIndex":4,"items":[{"name":"빌보드게임카페","tel":"031-297-3580","addr":"경기도 수원시 장안구 율전동 287번지 2층","indutype":"일반휴게음식 - 서양음식","category":"restaurant"},{"name":"화이트스노우","tel":"031-292-7766","addr":"경기도 수원시 장안구 율전동 287번지","indutype":"일반휴게음식 - 일반한식","category":"restaurant"}]},{"lat":"37.298315311","long":"126.97025316","imageIndex":4,"items":[{"name":"빨간석쇠구이","tel":"031-293-3492","addr":"경기도 수원시 장안구 율전동 292-8번지 율전하이퍼마켓 102호","indutype":"일반휴게음식 - 일반한식","category":"restaurant"},{"name":"커피볶는J2M(제이투엠)","tel":"031-278-4281","addr":"경기도 수원시 장안구 율전동 292-8번지 율전하이퍼마켓 101호","indutype":"일반휴게음식 - 서양음식","category":"restaurant"}]},{"lat":"37.297062288","long":"126.96814465","imageIndex":4,"items":[{"name":"사거리다방","tel":"031-1111-1111","addr":"경기도 수원시 장안구 율전동 395-34번지 102호","indutype":"일반휴게음식 - 서양음식","category":"restaurant"}]},{"lat":"37.297873772","long":"126.97011801","imageIndex":4,"items":[{"name":"사랑해","tel":"031-296-7708","addr":"경기도 수원시 장안구 율전동 433-93번지 2층","indutype":"일반휴게음식 - 일반한식","category":"restaurant"},{"name":"아람식당","tel":"031-293-3700","addr":"경기도 수원시 장안구 율전동 433-93번지","indutype":"일반휴게음식 - 일반한식","category":"restaurant"},{"name":"치어스성균관대점","tel":"031-8031-8080","addr":"경기도 수원시 장안구 율전동 433-93번지 2층","indutype":"일반휴게음식 - 주점","category":"restaurant"},{"name":"펀비어킹(수원성대점)","tel":"031-294-7308","addr":"경기도 수원시 장안구 율전동 433-93번지 1층","indutype":"일반휴게음식 - 일반한식","category":"restaurant"}]},{"lat":"37.298098675","long":"126.968866","imageIndex":4,"items":[{"name":"사우스 스트릿","tel":"031-269-1227","addr":"경기도 수원시 장안구 율전동 306-5번지 1층 2호","indutype":"일반휴게음식 - 일반한식","category":"restaurant"}]},{"lat":"37.305316494","long":"126.97109611","imageIndex":4,"items":[{"name":"산들에 버섯이야기","tel":"031-268-5633","addr":"경기도 수원시 장안구 율전동 110-1번지","indutype":"일반휴게음식 - 일반한식","category":"restaurant"}]},{"lat":"37.296594154","long":"126.9695321","imageIndex":4,"items":[{"name":"산쪼메수원","tel":"02-511-8355","addr":"경기도 수원시 장안구 율전동 433-85번지 2층","indutype":"일반휴게음식 - 일반한식","category":"restaurant"},{"name":"월드오징어바다","tel":"031-293-8033","addr":"경기도 수원시 장안구 율전동 433-85번지","indutype":"일반휴게음식 - 일반한식","category":"restaurant"}]},{"lat":"37.297459264","long":"126.96998285","imageIndex":4,"items":[{"name":"삼구포차","tel":"031-298-3338","addr":"경기도 수원시 장안구 율전동 433-111번지 2층","indutype":"일반휴게음식 - 일반한식","category":"restaurant"},{"name":"한마리정육식당","tel":"031-292-8729","addr":"경기도 수원시 장안구 율전동 433-111번지","indutype":"일반휴게음식 - 일반한식","category":"restaurant"}]},{"lat":"37.297648036","long":"126.96842634","imageIndex":4,"items":[{"name":"상무네닭발집","tel":"031-292-8605","addr":"경기도 수원시 장안구 율전동 399-22번지 1층","indutype":"일반휴게음식 - 일반한식","category":"restaurant"},{"name":"섬세한남자","tel":"031-293-2505","addr":"경기도 수원시 장안구 율전동 399-22번지 101호","indutype":"일반휴게음식 - 일반한식","category":"restaurant"}]},{"lat":"37.296981447","long":"126.96901312","imageIndex":4,"items":[{"name":"선참치","tel":"031-278-3785","addr":"경기도 수원시 장안구 율전동 433-102번지 1층","indutype":"일반휴게음식 - 일식·회집","category":"restaurant"},{"name":"포돈포돈","tel":"031-296-8279","addr":"경기도 수원시 장안구 율전동 433-102번지","indutype":"일반휴게음식 - 일반한식","category":"restaurant"}]},{"lat":"37.298820451","long":"126.97237332","imageIndex":4,"items":[{"name":"성균관스캔들","tel":"031-298-5525","addr":"경기도 수원시 장안구 율전동 288-13번지","indutype":"일반휴게음식 - 주점","category":"restaurant"}]},{"lat":"37.297234067","long":"126.97019724","imageIndex":4,"items":[{"name":"성대고깃간","tel":"031-000-0000","addr":"경기도 수원시 장안구 율전동 433-82번지 1층","indutype":"일반휴게음식 - 일반한식","category":"restaurant"},{"name":"영희네 고기","tel":"","addr":"경기도 수원시 장안구 율전동 433-82번지 2층","indutype":"일반휴게음식 - 일반한식","category":"restaurant"}]},{"lat":"37.297451221","long":"126.97367089","imageIndex":4,"items":[{"name":"성대밥상","tel":"031-291-7898","addr":"경기도 수원시 장안구 율전동 290-12번지 101호","indutype":"일반휴게음식 - 스넥","category":"restaurant"}]},{"lat":"37.297396198","long":"126.97000543","imageIndex":4,"items":[{"name":"성대양꼬치","tel":"","addr":"경기도 수원시 장안구 율전동 407-9번지","indutype":"일반휴게음식 - 일반한식","category":"restaurant"}]},{"lat":"37.297125688","long":"126.96928374","imageIndex":4,"items":[{"name":"성대찌개고을","tel":"031-291-1261","addr":"경기도 수원시 장안구 율전동 433-105번지 1층","indutype":"일반휴게음식 - 일반한식","category":"restaurant"}]},{"lat":"37.296594649","long":"126.97133662","imageIndex":4,"items":[{"name":"셀프호프","tel":"031-293-9968","addr":"경기도 수원시 장안구 율전동 433-68번지 지층","indutype":"일반휴게음식 - 주점","category":"restaurant"},{"name":"중경마라탕","tel":"031-278-9481","addr":"경기도 수원시 장안구 율전동 433-68번지 나동 1층","indutype":"일반휴게음식 - 중국식","category":"restaurant"}]},{"lat":"37.298954777","long":"126.96931676","imageIndex":4,"items":[{"name":"소문난김밥","tel":"031-243-5030","addr":"경기도 수원시 장안구 율전동 304-17번지","indutype":"일반휴게음식 - 스넥","category":"restaurant"}]},{"lat":"37.299009477","long":"126.97165141","imageIndex":4,"items":[{"name":"소소한식당","tel":"070-7691-1295","addr":"경기도 수원시 장안구 율전동 286-4번지 1층","indutype":"일반휴게음식 - 주점","category":"restaurant"},{"name":"엘가커피","tel":"070-8874-9424","addr":"경기도 수원시 장안구 율전동 286-4번지 2층","indutype":"일반휴게음식 - 서양음식","category":"restaurant"}]},{"lat":"37.304423297","long":"126.96695692","imageIndex":4,"items":[{"name":"소풍김밥","tel":"","addr":"경기도 수원시 장안구 율전동 560번지 서희스타힐스3단지 상가동 1층 11호","indutype":"일반휴게음식 - 일반한식","category":"restaurant"}]},{"lat":"37.298368693","long":"126.96787337","imageIndex":4,"items":[{"name":"수양버들","tel":"","addr":"경기도 수원시 장안구 율전동 394-3번지 1층 102,103호","indutype":"일반휴게음식 - 서양음식","category":"restaurant"}]},{"lat":"37.298928346","long":"126.97150483","imageIndex":4,"items":[{"name":"수원꽈배기","tel":"031-296-1456","addr":"경기도 수원시 장안구 율전동 285-6번지 1층 1호","indutype":"일반휴게음식 - 서양음식","category":"restaurant"},{"name":"큰맘원조할매순대국 성대점","tel":"031-292-8293","addr":"경기도 수원시 장안구 율전동 285-6번지 1층 7호","indutype":"일반휴게음식 - 일반한식","category":"restaurant"}]},{"lat":"37.297648266","long":"126.96922711","imageIndex":4,"items":[{"name":"수제맥주5.0(성대점)","tel":"","addr":"경기도 수원시 장안구 율전동 401-6번지 101호","indutype":"일반휴게음식 - 주점","category":"restaurant"}]},{"lat":"37.298819947","long":"126.97047852","imageIndex":4,"items":[{"name":"수코미치(수원성균관대점)","tel":"031-293-7792","addr":"경기도 수원시 장안구 율전동 294-4번지","indutype":"일반휴게음식 - 일반한식","category":"restaurant"},{"name":"역전할머니맥주 성균관대점","tel":"031-293-2213","addr":"경기도 수원시 장안구 율전동 294-4번지","indutype":"일반휴게음식 - 주점","category":"restaurant"}]},{"lat":"37.29645901","long":"126.96956599","imageIndex":4,"items":[{"name":"수해복마라탕","tel":"031-111-1111","addr":"경기도 수원시 장안구 율전동 433-88번지 1층","indutype":"일반휴게음식 - 중국식","category":"restaurant"}]},{"lat":"37.29712553","long":"126.9687311","imageIndex":4,"items":[{"name":"순","tel":"031-297-7334","addr":"경기도 수원시 장안구 율전동 433-100번지","indutype":"일반휴게음식 - 일반한식","category":"restaurant"},{"name":"청춘쭈꾸미","tel":"031-293-2361","addr":"경기도 수원시 장안구 율전동 433-100번지 1층","indutype":"일반휴게음식 - 일반한식","category":"restaurant"}]},{"lat":"37.297847463","long":"126.97283613","imageIndex":4,"items":[{"name":"순희네땡욕포차떡달","tel":"031-000-0000","addr":"경기도 수원시 장안구 율전동 290-14번지 삼전연립 B동 105호","indutype":"일반휴게음식 - 주점","category":"restaurant"},{"name":"지코바숯불양념치킨","tel":"031-296-9582","addr":"경기도 수원시 장안구 율전동 290-14외1필지,비-102","indutype":"일반휴게음식 - 서양음식","category":"restaurant"}]},{"lat":"37.302874593","long":"126.97062341","imageIndex":4,"items":[{"name":"스시야다모","tel":"031-292-9293","addr":"경기도 수원시 장안구 율전동 101번지 102호","indutype":"일반휴게음식 - 일반한식","category":"restaurant"}]},{"lat":"37.298649516","long":"126.97339974","imageIndex":4,"items":[{"name":"심","tel":"","addr":"경기도 수원시 장안구 율전동 276-1번지","indutype":"일반휴게음식 - 주점","category":"restaurant"},{"name":"오닭꾸","tel":"031-292-9269","addr":"경기도 수원시 장안구 율전동 276-1번지 1층 3호","indutype":"일반휴게음식 - 일반한식","category":"restaurant"}]},{"lat":"37.29845946","long":"126.97019671","imageIndex":4,"items":[{"name":"싱싱회센타","tel":"031-296-6100","addr":"경기도 수원시 장안구 율전동 293-3번지","indutype":"일반휴게음식 - 일식·회집","category":"restaurant"}]},{"lat":"37.298098724","long":"126.96903518","imageIndex":4,"items":[{"name":"썬더치킨","tel":"031-292-5554","addr":"경기도 수원시 장안구 율전동 298-25번지 1층","indutype":"일반휴게음식 - 일반한식","category":"restaurant"}]},{"lat":"37.298234747","long":"126.97222694","imageIndex":4,"items":[{"name":"아지트","tel":"031-227-1720","addr":"경기도 수원시 장안구 율전동 288-9번지","indutype":"일반휴게음식 - 주점","category":"restaurant"}]},{"lat":"37.297423681","long":"126.97167463","imageIndex":4,"items":[{"name":"알촌","tel":"031-1611-1907","addr":"경기도 수원시 장안구 율전동 433-119번지 1층","indutype":"일반휴게음식 - 일반한식","category":"restaurant"},{"name":"예국향","tel":"031-291-3323","addr":"경기도 수원시 장안구 율전동 433-119번지","indutype":"일반휴게음식 - 일반한식","category":"restaurant"},{"name":"쥬스스타 수원성대점","tel":"031-293-7196","addr":"경기도 수원시 장안구 율전동 433-119번지 1층","indutype":"일반휴게음식 - 서양음식","category":"restaurant"}]},{"lat":"37.299261614","long":"126.97108738","imageIndex":4,"items":[{"name":"엉터리생고기 수원성대역점","tel":"031-227-9232","addr":"경기도 수원시 장안구 율전동 296-23번지 동경빌딩 2층","indutype":"일반휴게음식 - 일반한식","category":"restaurant"}]},{"lat":"37.29742426","long":"126.97395286","imageIndex":4,"items":[{"name":"에이바우트커피 성균관대점","tel":"031-293-4777","addr":"경기도 수원시 장안구 율전동 276-13번지 1-2층","indutype":"일반휴게음식 - 서양음식","category":"restaurant"}]},{"lat":"37.302234642","long":"126.96981158","imageIndex":4,"items":[{"name":"옛날통닭","tel":"031-268-9255","addr":"경기도 수원시 장안구 율전동 217-19번지 1층","indutype":"일반휴게음식 - 일반한식","category":"restaurant"}]},{"lat":"37.29745941","long":"126.97051294","imageIndex":4,"items":[{"name":"오구피자성대점","tel":"031-298-7259","addr":"경기도 수원시 장안구 율전동 433-6번지","indutype":"일반휴게음식 - 서양음식","category":"restaurant"},{"name":"유한푸드","tel":"031-294-9641","addr":"경기도 수원시 장안구 율전동 433-6번지","indutype":"일반휴게음식 - 일반한식","category":"restaurant"},{"name":"쥬씨(성대점)","tel":"031-293-9595","addr":"경기도 수원시 장안구 율전동 433-6번지","indutype":"일반휴게음식 - 서양음식","category":"restaurant"}]},{"lat":"37.295899517","long":"126.96664519","imageIndex":4,"items":[{"name":"오늘도족발","tel":"031-227-3370","addr":"경기도 수원시 장안구 율전동 377-3번지","indutype":"일반휴게음식 - 일반한식","category":"restaurant"}]},{"lat":"37.298594607","long":"126.97017409","imageIndex":4,"items":[{"name":"옥집","tel":"031-298-5029","addr":"경기도 수원시 장안구 율전동 294 1층","indutype":"일반휴게음식 - 일반한식","category":"restaurant"},{"name":"제주항","tel":"031-291-9009","addr":"경기도 수원시 장안구 율전동 294번지 가동 1층","indutype":"일반휴게음식 - 일식·회집","category":"restaurant"}]},{"lat":"37.298540737","long":"126.97087339","imageIndex":4,"items":[{"name":"옥집2","tel":"031-298-5029","addr":"경기도 수원시 장안구 율전동 293번지","indutype":"일반휴게음식 - 일반한식","category":"restaurant"}]},{"lat":"37.303874093","long":"126.96836711","imageIndex":4,"items":[{"name":"올레","tel":"031-253-9445","addr":"경기도 수원시 장안구 율전동 142-10번지","indutype":"일반휴게음식 - 주점","category":"restaurant"}]},{"lat":"37.297152884","long":"126.9698702","imageIndex":4,"items":[{"name":"왕관식당","tel":"031-291-1046","addr":"경기도 수원시 장안구 율전동 407-12번지 금성빌딩 1층","indutype":"일반휴게음식 - 일반한식","category":"restaurant"}]},{"lat":"37.297730267","long":"126.97258805","imageIndex":4,"items":[{"name":"왕빈자삼파전","tel":"","addr":"경기도 수원시 장안구 율전동 290-14번지 103호","indutype":"일반휴게음식 - 주점","category":"restaurant"},{"name":"토마토도시락수원성대점","tel":"031-295-1117","addr":"경기도 수원시 장안구 율전동 290-14번지 삼전연립 B","indutype":"일반휴게음식 - 일반한식","category":"restaurant"}]},{"lat":"37.30256723","long":"126.96709316","imageIndex":4,"items":[{"name":"용기떡볶이","tel":"","addr":"경기도 수원시 장안구 율전동 168-48번지 103호","indutype":"일반휴게음식 - 스넥","category":"restaurant"},{"name":"트롤핫도그","tel":"031-8002-7778","addr":"경기도 수원시 장안구 율전동 168-48번지 1층 101호","indutype":"일반휴게음식 - 서양음식","category":"restaurant"}]},{"lat":"37.302785024","long":"126.97264242","imageIndex":4,"items":[{"name":"우리소양평해장국","tel":"031-268-8889","addr":"경기도 수원시 장안구 율전동 99-55번지 101호,102호,103호","indutype":"일반휴게음식 - 일반한식","category":"restaurant"}]},{"lat":"37.297126334","long":"126.97164091","imageIndex":4,"items":[{"name":"우리집","tel":"031-291-5510","addr":"경기도 수원시 장안구 율전동 433-118번지 1층 전면","indutype":"일반휴게음식 - 일반한식","category":"restaurant"}]},{"lat":"37.297314784","long":"126.96886635","imageIndex":4,"items":[{"name":"우특심한우곱창(장안구율전점)","tel":"031-292-9901","addr":"경기도 수원시 장안구 율전동 433-7번지 1층","indutype":"일반휴게음식 - 일반한식","category":"restaurant"}]},{"lat":"37.303010231","long":"126.97245059","imageIndex":4,"items":[{"name":"육콩성대점","tel":"031-223-5214","addr":"경기도 수원시 장안구 율전동 99-10번지 주상빌딩 1층 101호","indutype":"일반휴게음식 - 일반한식","category":"restaurant"},{"name":"율전족발보쌈","tel":"031-269-5689","addr":"경기도 수원시 장안구 율전동 99-10번지 주상빌딩 제지하층 2호","indutype":"일반휴게음식 - 일반한식","category":"restaurant"}]},{"lat":"37.304289123","long":"126.97034082","imageIndex":4,"items":[{"name":"율전점굽네치킨","tel":"031-269-9298","addr":"경기도 수원시 장안구 율전동 108-2번지 상가동 101호","indutype":"일반휴게음식 - 스넥","category":"restaurant"},{"name":"족발상회","tel":"031-306-0081","addr":"경기도 수원시 장안구 율전동 108-2번지","indutype":"일반휴게음식 - 일반한식","category":"restaurant"}]},{"lat":"37.299126233","long":"126.97025281","imageIndex":4,"items":[{"name":"은행나무참숯풍천민물장어","tel":"031-298-1314","addr":"경기도 수원시 장안구 율전동 296-32번지","indutype":"일반휴게음식 - 일반한식","category":"restaurant"}]},{"lat":"37.296873282","long":"126.96886655","imageIndex":4,"items":[{"name":"이까야","tel":"031-295-7716","addr":"경기도 수원시 장안구 율전동 408-14번지","indutype":"일반휴게음식 - 일반한식","category":"restaurant"}]},{"lat":"37.297513042","long":"126.96897905","imageIndex":4,"items":[{"name":"이즈미","tel":"","addr":"경기도 수원시 장안구 율전동 401-4번지 2층 201호","indutype":"일반휴게음식 - 일반한식","category":"restaurant"}]},{"lat":"37.297233669","long":"126.96878744","imageIndex":4,"items":[{"name":"인텐스커피","tel":"031-111-1111","addr":"경기도 수원시 장안구 율전동 433-99번지 1층","indutype":"일반휴게음식 - 서양음식","category":"restaurant"}]},{"lat":"37.29787465","long":"126.97345644","imageIndex":4,"items":[{"name":"일공공 스터디카페","tel":"000-000-0000","addr":"경기도 수원시 장안구 율전동 290-19번지 석촌빌딩 2층","indutype":"일반휴게음식 - 서양음식","category":"restaurant"}]},{"lat":"37.301315481","long":"126.96939466","imageIndex":4,"items":[{"name":"정가네콩나물국밥","tel":"031-269-8233","addr":"경기도 수원시 장안구 율전동 194-1번지","indutype":"일반휴게음식 - 일반한식","category":"restaurant"}]},{"lat":"37.298928729","long":"126.97298233","imageIndex":4,"items":[{"name":"정성식탁","tel":"02-1111-1111","addr":"경기도 수원시 장안구 율전동 288-12번지 1층 102호","indutype":"일반휴게음식 - 서양음식","category":"restaurant"}]},{"lat":"37.298397788","long":"126.9757345","imageIndex":4,"items":[{"name":"제이.에이치카스테라 (J.H CASTELLA)","tel":"031-292-9215","addr":"경기도 수원시 장안구 율전동 271-3번지 1층 101호","indutype":"일반휴게음식 - 일반한식","category":"restaurant"}]},{"lat":"37.303289583","long":"126.97258582","imageIndex":4,"items":[{"name":"조춘식동태탕회냉면","tel":"031-269-5454","addr":"경기도 수원시 장안구 율전동 99-27번지","indutype":"일반휴게음식 - 일반한식","category":"restaurant"}]},{"lat":"37.298486305","long":"126.96953126","imageIndex":4,"items":[{"name":"주적소","tel":"","addr":"경기도 수원시 장안구 율전동 298-17번지 1층","indutype":"일반휴게음식 - 스넥","category":"restaurant"}]},{"lat":"37.295512657","long":"126.96859649","imageIndex":4,"items":[{"name":"준펄(June-pearl)","tel":"","addr":"경기도 수원시 장안구 율전동 411-2번지 1층","indutype":"일반휴게음식 - 서양음식","category":"restaurant"}]},{"lat":"37.304982439","long":"126.96867115","imageIndex":4,"items":[{"name":"즐거운간식","tel":"031-269-4655","addr":"경기도 수원시 장안구 율전동 551번지 해바라기음악학원 102호","indutype":"일반휴게음식 - 스넥","category":"restaurant"}]},{"lat":"37.298649592","long":"126.97370427","imageIndex":4,"items":[{"name":"짜이포차","tel":"031-298-6568","addr":"경기도 수원시 장안구 율전동 265-14번지","indutype":"일반휴게음식 - 주점","category":"restaurant"}]},{"lat":"37.304036783","long":"126.97014918","imageIndex":4,"items":[{"name":"짱호프","tel":"","addr":"경기도 수원시 장안구 율전동 102-2번지 1층","indutype":"일반휴게음식 - 주점","category":"restaurant"}]},{"lat":"37.297035735","long":"126.96981386","imageIndex":4,"items":[{"name":"차돌풍 수원성균관대역점","tel":"031-292-7732","addr":"경기도 수원시 장안구 율전동 433-84번지","indutype":"일반휴게음식 - 일반한식","category":"restaurant"},{"name":"황꼬치","tel":"031-295-5293","addr":"경기도 수원시 장안구 율전동 433-84번지 2층","indutype":"일반휴게음식 - 일반한식","category":"restaurant"}]},{"lat":"37.299676989","long":"126.97465128","imageIndex":4,"items":[{"name":"착한식당","tel":"","addr":"경기도 수원시 장안구 율전동 495-2번지 성대역사 504호","indutype":"일반휴게음식 - 일반한식","category":"restaurant"},{"name":"카마타케제면소","tel":"02-1111-1111","addr":"경기도 수원시 장안구 율전동 495-2번지 성균관대역 4층 405호","indutype":"일반휴게음식 - 일반한식","category":"restaurant"}]},{"lat":"37.298756558","long":"126.9693394","imageIndex":4,"items":[{"name":"채움거진코다리네","tel":"031-296-8896","addr":"경기도 수원시 장안구 율전동 300-3번지 1층","indutype":"일반휴게음식 - 일반한식","category":"restaurant"}]},{"lat":"37.298512386","long":"126.96631686","imageIndex":4,"items":[{"name":"처갓집양념치킨율전점","tel":"031-295-9282","addr":"경기도 수원시 장안구 율전동 360-9번지 성원주택 1층 102호","indutype":"일반휴게음식 - 스넥","category":"restaurant"}]},{"lat":"37.303261518","long":"126.96878472","imageIndex":4,"items":[{"name":"천천히 스미는","tel":"070-4837-1729","addr":"경기도 수원시 장안구 율전동 163-12번지 101호","indutype":"일반휴게음식 - 주점","category":"restaurant"}]},{"lat":"37.298514181","long":"126.97267797","imageIndex":4,"items":[{"name":"청년밥상","tel":"031-298-1822","addr":"경기도 수원시 장안구 율전동 288-14번지 1층","indutype":"일반휴게음식 - 일반한식","category":"restaurant"}]},{"lat":"37.301036344","long":"126.97003769","imageIndex":4,"items":[{"name":"치킨마루 수원성대점","tel":"031-297-5290","addr":"경기도 수원시 장안구 율전동 206-2번지","indutype":"일반휴게음식 - 스넥","category":"restaurant"}]},{"lat":"37.298729402","long":"126.96889955","imageIndex":4,"items":[{"name":"카페(cafe)쿠앤크","tel":"031-298-0819","addr":"경기도 수원시 장안구 율전동 305-6번지 수일빌딩 1층 103호","indutype":"일반휴게음식 - 서양음식","category":"restaurant"}]},{"lat":"37.296567234","long":"126.96992685","imageIndex":4,"items":[{"name":"카페민","tel":"031-278-3306","addr":"경기도 수원시 장안구 율전동 433-86번지","indutype":"일반휴게음식 - 서양음식","category":"restaurant"}]},{"lat":"37.303152228","long":"126.96494982","imageIndex":4,"items":[{"name":"카페셀","tel":"","addr":"경기도 수원시 장안구 율전동 174-26번지 1,5층","indutype":"일반휴게음식 - 서양음식","category":"restaurant"}]},{"lat":"37.298458442","long":"126.96670035","imageIndex":4,"items":[{"name":"카페예가","tel":"031-000-0000","addr":"경기도 수원시 장안구 율전동 321-14번지 상가 1호,상가 2호","indutype":"일반휴게음식 - 서양음식","category":"restaurant"}]},{"lat":"37.298396228","long":"126.96962153","imageIndex":4,"items":[{"name":"카페올굿(CAFE ALL GOOD)","tel":"031-298-8517","addr":"경기도 수원시 장안구 율전동 297번지 하이파크 1층 3호","indutype":"일반휴게음식 - 서양음식","category":"restaurant"}]},{"lat":"37.302234416","long":"126.96901077","imageIndex":4,"items":[{"name":"카페유","tel":"","addr":"경기도 수원시 장안구 율전동 161-29번지 101호","indutype":"일반휴게음식 - 서양음식","category":"restaurant"}]},{"lat":"37.299151737","long":"126.96512101","imageIndex":4,"items":[{"name":"카페일구오삼","tel":"","addr":"경기도 수원시 장안구 율전동 356-3번지 A동","indutype":"일반휴게음식 - 서양음식","category":"restaurant"}]},{"lat":"37.298009837","long":"126.97359173","imageIndex":4,"items":[{"name":"커피9","tel":"031-223-9159","addr":"경기도 수원시 장안구 율전동 276-4번지 천록아파트 1층 2호","indutype":"일반휴게음식 - 서양음식","category":"restaurant"}]},{"lat":"37.296566846","long":"126.96856218","imageIndex":4,"items":[{"name":"콤마","tel":"031-304-0207","addr":"경기도 수원시 장안구 율전동 408-19번지 1층 101호","indutype":"일반휴게음식 - 칵테일바","category":"restaurant"}]},{"lat":"37.297485842","long":"126.96839258","imageIndex":4,"items":[{"name":"클라라세이지","tel":"031-294-1077","addr":"경기도 수원시 장안구 율전동 398-1번지 1층","indutype":"일반휴게음식 - 일반한식","category":"restaurant"},{"name":"하시","tel":"031-223-5214","addr":"경기도 수원시 장안구 율전동 398-1번지 1층","indutype":"일반휴게음식 - 주점","category":"restaurant"}]},{"lat":"37.297648996","long":"126.9719001","imageIndex":4,"items":[{"name":"키스커피수원성대점","tel":"031-278-1974","addr":"경기도 수원시 장안구 율전동 437번지 1층","indutype":"일반휴게음식 - 서양음식","category":"restaurant"}]},{"lat":"37.297792216","long":"126.96848267","imageIndex":4,"items":[{"name":"태영생막창","tel":"031-298-8586","addr":"경기도 수원시 장안구 율전동 399-24번지","indutype":"일반휴게음식 - 일반한식","category":"restaurant"}]},{"lat":"37.298703444","long":"126.97286963","imageIndex":4,"items":[{"name":"테라스비어","tel":"031-000-0000","addr":"경기도 수원시 장안구 율전동 288-19번지","indutype":"일반휴게음식 - 주점","category":"restaurant"}]},{"lat":"37.298567008","long":"126.9681778","imageIndex":4,"items":[{"name":"토스트인커피","tel":"031-294-5533","addr":"경기도 수원시 장안구 율전동 313-2번지 104호","indutype":"일반휴게음식 - 서양음식","category":"restaurant"}]},{"lat":"37.296007664","long":"126.96672409","imageIndex":4,"items":[{"name":"파파스(FaFas)","tel":"031-278-2064","addr":"경기도 수원시 장안구 율전동 377-3번지 A동 1층","indutype":"일반휴게음식 - 서양음식","category":"restaurant"}]},{"lat":"37.29728734","long":"126.96745657","imageIndex":4,"items":[{"name":"페리카나","tel":"031-291-9285","addr":"경기도 수원시 장안구 율전동 382-4번지","indutype":"일반휴게음식 - 스넥","category":"restaurant"}]},{"lat":"37.30431619","long":"126.97047616","imageIndex":4,"items":[{"name":"페리카나성대2점","tel":"031-207-4123","addr":"경기도 수원시 장안구 율전동 108-4번지 1층","indutype":"일반휴게음식 - 스넥","category":"restaurant"}]},{"lat":"37.297792343","long":"126.96892253","imageIndex":4,"items":[{"name":"포동이네(성대점)","tel":"031-294-4988","addr":"경기도 수원시 장안구 율전동 399-14번지 1층","indutype":"일반휴게음식 - 일식·회집","category":"restaurant"}]},{"lat":"37.296431909","long":"126.96931788","imageIndex":4,"items":[{"name":"퓨전포차","tel":"031-278-4942","addr":"경기도 수원시 장안구 율전동 408-8번지 1층","indutype":"일반휴게음식 - 일반한식","category":"restaurant"}]},{"lat":"37.29543106","long":"126.96689353","imageIndex":4,"items":[{"name":"핏자아르떼(pizzarte)","tel":"","addr":"경기도 수원시 장안구 율전동 414-29번지","indutype":"일반휴게음식 - 서양음식","category":"restaurant"}]},{"lat":"37.29745118","long":"126.97350172","imageIndex":4,"items":[{"name":"한두야밥먹자","tel":"031-293-5522","addr":"경기도 수원시 장안구 율전동 290-11번지","indutype":"일반휴게음식 - 스넥","category":"restaurant"}]},{"lat":"37.296954956","long":"126.97095301","imageIndex":4,"items":[{"name":"한솥","tel":"031-295-5113","addr":"경기도 수원시 장안구 율전동 433-67번지","indutype":"일반휴게음식 - 일반한식","category":"restaurant"}]},{"lat":"37.303369776","long":"126.9692584","imageIndex":4,"items":[{"name":"해물에반하다","tel":"070-7848-9304","addr":"경기도 수원시 장안구 율전동 148-5번지 1층 102호","indutype":"일반휴게음식 - 일반한식","category":"restaurant"}]},{"lat":"37.298487227","long":"126.9729825","imageIndex":4,"items":[{"name":"향수","tel":"031-297-7171","addr":"경기도 수원시 장안구 율전동 288-27번지","indutype":"일반휴게음식 - 일반한식","category":"restaurant"}]},{"lat":"37.302594544","long":"126.96804059","imageIndex":4,"items":[{"name":"헤이븐커피로스터즈","tel":"","addr":"경기도 수원시 장안구 율전동 163-23번지 101호","indutype":"일반휴게음식 - 서양음식","category":"restaurant"}]},{"lat":"37.303261615","long":"126.9691231","imageIndex":4,"items":[{"name":"횡성생고기","tel":"031-268-0969","addr":"경기도 수원시 장안구 율전동 148-8번지 1층","indutype":"일반휴게음식 - 일반한식","category":"restaurant"}]},{"lat":"37.2977925","long":"126.96947517","imageIndex":4,"items":[{"name":"히닭발","tel":"","addr":"경기도 수원시 장안구 율전동 400-7번지","indutype":"일반휴게음식 - 일반한식","category":"restaurant"}]},{"lat":"37.298179966","long":"126.96956523","imageIndex":7,"items":[{"name":"DC마트","tel":"031-292-1189","addr":"경기도 수원시 장안구 율전동 297-3번지","indutype":"유통업 영리 - 슈퍼마켓","category":"mart"}]},{"lat":"37.303703348","long":"126.96994629","imageIndex":7,"items":[{"name":"농민마트","tel":"031-303-9594","addr":"경기도 수원시 장안구 율전동 151-3번지 외 1필지","indutype":"유통업 영리 - 슈퍼마켓","category":"mart"}]},{"lat":"37.297764275","long":"126.96548261","imageIndex":7,"items":[{"name":"동문마트","tel":"031-292-6200","addr":"경기도 수원시 장안구 율전동 600번지 수원성균관대역동문굿모닝힐 상가 101호","indutype":"유통업 영리 - 슈퍼마켓","category":"mart"}]},{"lat":"37.30603659","long":"126.96851275","imageIndex":7,"items":[{"name":"뜨란채마트","tel":"031-258-3373","addr":"경기도 수원시 장안구 율전동 546번지 밤꽃마을뜨란채 상가동 1층 107호","indutype":"유통업 영리 - 슈퍼마켓","category":"mart"}]},{"lat":"37.301792112","long":"126.96631527","imageIndex":7,"items":[{"name":"럭키슈퍼","tel":"031-207-7509","addr":"경기도 수원시 장안구 율전동 182-9번지","indutype":"유통업 영리 - 슈퍼마켓","category":"mart"}]},{"lat":"37.297513042","long":"126.96897905","imageIndex":7,"items":[{"name":"무슬림 마트(muslim mart)","tel":"031-293-1439","addr":"경기도 수원시 장안구 율전동 401-4번지 201호","indutype":"유통업 영리 - 슈퍼마켓","category":"mart"}]},{"lat":"37.302369181","long":"126.96767977","imageIndex":7,"items":[{"name":"미성슈퍼","tel":"031-207-9449","addr":"경기도 수원시 장안구 율전동 168-37번지","indutype":"유통업 영리 - 슈퍼마켓","category":"mart"}]},{"lat":"37.299035987","long":"126.96973403","imageIndex":7,"items":[{"name":"성광슈퍼체인율전점","tel":"031-293-8323","addr":"경기도 수원시 장안구 율전동 300번지 미주타운 1층 101호","indutype":"유통업 영리 - 슈퍼마켓","category":"mart"}]},{"lat":"37.299369872","long":"126.97159487","imageIndex":7,"items":[{"name":"예스마트","tel":"031-298-1307","addr":"경기도 수원시 장안구 율전동 285-2번지 3층","indutype":"유통업 영리 - 슈퍼마켓","category":"mart"}]},{"lat":"37.30300912","long":"126.96840134","imageIndex":7,"items":[{"name":"월드할인마트","tel":"031-207-5389","addr":"경기도 수원시 장안구 율전동 163-11번지","indutype":"유통업 영리 - 슈퍼마켓","category":"mart"}]},{"lat":"37.304423297","long":"126.96695692","imageIndex":7,"items":[{"name":"힐 할인마트","tel":"031-271-5900","addr":"경기도 수원시 장안구 율전동 560번지 서희스타힐스3단지","indutype":"유통업 영리 - 슈퍼마켓","category":"mart"}]},{"lat":"37.29645901","long":"126.96956599","imageIndex":13,"items":[{"name":"J빌리아드","tel":"031-291-7760","addr":"경기도 수원시 장안구 율전동 433-88번지 2층","indutype":"레저업소 - 당 구 장","category":"leisure"}]},{"lat":"37.297873772","long":"126.97011801","imageIndex":13,"items":[{"name":"KINGS ARROW(양궁카페)","tel":"031-8001-2500","addr":"경기도 수원시 장안구 율전동 433-93번지 3층","indutype":"레저업소 - 기타레져업소","category":"leisure"}]},{"lat":"37.298234747","long":"126.97222694","imageIndex":13,"items":[{"name":"개나리노래연습장","tel":"031-293-5966","addr":"경기도 수원시 장안구 율전동 288-9번지","indutype":"레저업소 - 노 래 방","category":"leisure"},{"name":"에이블노래연습장","tel":"031-291-7107","addr":"경기도 수원시 장안구 율전동 288-9번지 2층","indutype":"레저업소 - 노 래 방","category":"leisure"}]},{"lat":"37.296701983","long":"126.96850572","imageIndex":13,"items":[{"name":"갤러리PC","tel":"","addr":"경기도 수원시 장안구 율전동 408-16번지 2층","indutype":"레저업소 - 기타레져업소","category":"leisure"},{"name":"와와노래연습장","tel":"070-4404-5614","addr":"경기도 수원시 장안구 율전동 408-16번지 3층","indutype":"레저업소 - 노 래 방","category":"leisure"}]},{"lat":"37.298288395","long":"126.97067048","imageIndex":13,"items":[{"name":"고고당구클럽","tel":"","addr":"경기도 수원시 장안구 율전동 292번지 3층","indutype":"레저업소 - 당 구 장","category":"leisure"}]},{"lat":"37.297594585","long":"126.97059183","imageIndex":13,"items":[{"name":"김옥진요가 자연치유센터","tel":"031-292-2252","addr":"경기도 수원시 장안구 율전동 433-5번지 6층","indutype":"레저업소 - 헬스클럽","category":"leisure"}]},{"lat":"37.298703834","long":"126.97444863","imageIndex":13,"items":[{"name":"김진용헬스트레이너","tel":"","addr":"경기도 수원시 장안구 율전동 271-14번지 1층","indutype":"레저업소 - 헬스클럽","category":"leisure"}]},{"lat":"37.297035735","long":"126.96981386","imageIndex":13,"items":[{"name":"끼노래연습장","tel":"031-294-2644","addr":"경기도 수원시 장안구 율전동 433-84번지","indutype":"레저업소 - 노 래 방","category":"leisure"}]},{"lat":"37.297756791","long":"126.97067071","imageIndex":13,"items":[{"name":"뉴로뎀골프연습장","tel":"031-292-0777","addr":"경기도 수원시 장안구 율전동 433-117번지 지하","indutype":"레저업소 - 골프연습장","category":"leisure"},{"name":"채플린노래연습장","tel":"031-0000-0000","addr":"경기도 수원시 장안구 율전동 433-117번지 4층","indutype":"레저업소 - 노 래 방","category":"leisure"}]},{"lat":"37.296756848","long":"126.97139294","imageIndex":13,"items":[{"name":"당구도사","tel":"031-294-4234","addr":"경기도 수원시 장안구 율전동 433-126번지","indutype":"레저업소 - 당 구 장","category":"leisure"}]},{"lat":"37.297315221","long":"126.97042277","imageIndex":13,"items":[{"name":"당근노래연습장","tel":"031-294-6701","addr":"경기도 수원시 장안구 율전동 433-62번지 2층","indutype":"레저업소 - 노 래 방","category":"leisure"},{"name":"플스팩토리","tel":"03-111-1111","addr":"경기도 수원시 장안구 율전동 433-62번지 3층","indutype":"레저업소 - 기타레져업소","category":"leisure"}]},{"lat":"37.298288487","long":"126.97100884","imageIndex":13,"items":[{"name":"대학로노래연습장","tel":"031-295-7744","addr":"경기도 수원시 장안구 율전동 291-4,7지하","indutype":"레저업소 - 노 래 방","category":"leisure"}]},{"lat":"37.296701904","long":"126.96823504","imageIndex":13,"items":[{"name":"라이또PC 율전점","tel":"070-9391-0820","addr":"경기도 수원시 장안구 율전동 409-5번지 301호","indutype":"레저업소 - 기타레져업소","category":"leisure"}]},{"lat":"37.298982131","long":"126.97047845","imageIndex":13,"items":[{"name":"라이브노래연습장(성대점)","tel":"031-293-2126","addr":"경기도 수원시 장안구 율전동 295-5번지 3층","indutype":"레저업소 - 노 래 방","category":"leisure"}]},{"lat":"37.298424","long":"126.97237348","imageIndex":13,"items":[{"name":"락노래연습장","tel":"031-278-7714","addr":"경기도 수원시 장안구 율전동 288-75번지 지하층","indutype":"레저업소 - 노 래 방","category":"leisure"}]},{"lat":"37.2971803","long":"126.97127998","imageIndex":13,"items":[{"name":"락휴코인노래연습장","tel":"031-292-0832","addr":"경기도 수원시 장안구 율전동 433-63번지 2층 왕돈까스","indutype":"레저업소 - 노 래 방","category":"leisure"}]},{"lat":"37.297568341","long":"126.97361446","imageIndex":13,"items":[{"name":"렛츠피씨(Lets PC)","tel":"031-0000-0000","addr":"경기도 수원시 장안구 율전동 290-20번지 ,2-4층","indutype":"레저업소 - 기타레져업소","category":"leisure"},{"name":"아라크네PC","tel":"","addr":"경기도 수원시 장안구 율전동 290-20번지 지하1층","indutype":"레저업소 - 기타레져업소","category":"leisure"}]},{"lat":"37.303117582","long":"126.96958561","imageIndex":13,"items":[{"name":"로얄당구장","tel":"","addr":"경기도 수원시 장안구 율전동 149-4번지 지하1층","indutype":"레저업소 - 당 구 장","category":"leisure"}]},{"lat":"37.30275783","long":"126.9720108","imageIndex":13,"items":[{"name":"멜로디노래연습장","tel":"031-246-5678","addr":"경기도 수원시 장안구 율전동 99-50번지 2층","indutype":"레저업소 - 노 래 방","category":"leisure"},{"name":"야호 pc zone","tel":"031-123-4567","addr":"경기도 수원시 장안구 율전동 99-50번지 3층","indutype":"레저업소 - 기타레져업소","category":"leisure"}]},{"lat":"37.29809004","long":"126.97019687","imageIndex":13,"items":[{"name":"명작노래연습장","tel":"031-292-7772","addr":"경기도 수원시 장안구 율전동 292-7번지 지하층","indutype":"레저업소 - 노 래 방","category":"leisure"},{"name":"방탈출카페 더 싸인(The Sign) 성대점","tel":"031-295-8287","addr":"경기도 수원시 장안구 율전동 292-7번지 우신빌딩 302호","indutype":"레저업소 - 기타레져업소","category":"leisure"}]},{"lat":"37.29815354","long":"126.97178711","imageIndex":13,"items":[{"name":"무한당구클럽","tel":"031-000-0000","addr":"경기도 수원시 장안구 율전동 285-8번지 4층","indutype":"레저업소 - 당 구 장","category":"leisure"}]},{"lat":"37.299153999","long":"126.97303863","imageIndex":13,"items":[{"name":"뮤직큐브","tel":"070-8870-8422","addr":"경기도 수원시 장안구 율전동 288번지 2층","indutype":"레저업소 - 노 래 방","category":"leisure"}]},{"lat":"37.297152884","long":"126.9698702","imageIndex":13,"items":[{"name":"뮤직큐브율전점","tel":"031-227-8422","addr":"경기도 수원시 장안구 율전동 407-12번지 2층","indutype":"레저업소 - 노 래 방","category":"leisure"}]},{"lat":"37.303847506","long":"126.96992367","imageIndex":13,"items":[{"name":"방방 스토리","tel":"","addr":"경기도 수원시 장안구 율전동 151-1번지 지하","indutype":"레저업소 - 기타레져업소","category":"leisure"},{"name":"페이스트레이닝센터","tel":"070-8270-2880","addr":"경기도 수원시 장안구 율전동 151-1번지 3층","indutype":"레저업소 - 헬스클럽","category":"leisure"}]},{"lat":"37.303261825","long":"126.96986753","imageIndex":13,"items":[{"name":"밸런스컴퍼니 (Balance company)","tel":"031-271-5020","addr":"경기도 수원시 장안구 율전동 150-5번지 3층","indutype":"레저업소 - 헬스클럽","category":"leisure"}]},{"lat":"37.297288053","long":"126.96992653","imageIndex":13,"items":[{"name":"블링블링노래연습장","tel":"031-292-8227","addr":"경기도 수원시 장안구 율전동 407-2번지 지하노래방","indutype":"레저업소 - 노 래 방","category":"leisure"}]},{"lat":"37.297035867","long":"126.97028755","imageIndex":13,"items":[{"name":"비바 노래연습장","tel":"031-892-7902","addr":"경기도 수원시 장안구 율전동 433-75번지 지하층","indutype":"레저업소 - 노 래 방","category":"leisure"}]},{"lat":"37.298541159","long":"126.97247494","imageIndex":13,"items":[{"name":"빌킹당구장","tel":"031-293-1100","addr":"경기도 수원시 장안구 율전동 288-3번지 3층","indutype":"레저업소 - 당 구 장","category":"leisure"},{"name":"허브노래연습장","tel":"031-291-8019","addr":"경기도 수원시 장안구 율전동 288-3번지","indutype":"레저업소 - 노 래 방","category":"leisure"}]},{"lat":"37.298090554","long":"126.97211421","imageIndex":13,"items":[{"name":"성대당구클럽","tel":"","addr":"경기도 수원시 장안구 율전동 288-4번지 성대프라자","indutype":"레저업소 - 당 구 장","category":"leisure"}]},{"lat":"37.298206933","long":"126.96933965","imageIndex":13,"items":[{"name":"성대역 주짓수","tel":"031-292-3426","addr":"경기도 수원시 장안구 율전동 297-1번지 3층","indutype":"레저업소 - 헬스클럽","category":"leisure"}]},{"lat":"37.301955357","long":"126.9699245","imageIndex":13,"items":[{"name":"세븐노래연습장","tel":"031-256-7865","addr":"경기도 수원시 장안구 율전동 215-10번지 지층","indutype":"레저업소 - 노 래 방","category":"leisure"}]},{"lat":"37.29764851","long":"126.97009555","imageIndex":13,"items":[{"name":"쇼 노래연습장","tel":"031-294-8333","addr":"경기도 수원시 장안구 율전동 433-113번지 3층","indutype":"레저업소 - 노 래 방","category":"leisure"}]},{"lat":"37.298541066","long":"126.97211403","imageIndex":13,"items":[{"name":"스토리피시랩수원성균관대점","tel":"","addr":"경기도 수원시 장안구 율전동 288-6번지 4층 좌측 상가","indutype":"레저업소 - 기타레져업소","category":"leisure"},{"name":"점핑스토리","tel":"031-8004-2209","addr":"경기도 수원시 장안구 율전동 288-6번지 4층","indutype":"레저업소 - 헬스클럽","category":"leisure"},{"name":"팝 코인노래연습장","tel":"02-965-2165","addr":"경기도 수원시 장안구 율전동 288-6번지 3층","indutype":"레저업소 - 노 래 방","category":"leisure"}]},{"lat":"37.298928346","long":"126.97150483","imageIndex":13,"items":[{"name":"시티파크PC방","tel":"031-216-0547","addr":"경기도 수원시 장안구 율전동 285-6번지","indutype":"레저업소 - 기타레져업소","category":"leisure"}]},{"lat":"37.296792528","long":"126.97006209","imageIndex":13,"items":[{"name":"쓰리팝PC","tel":"070-3291-1346","addr":"경기도 수원시 장안구 율전동 433-79번지 3층","indutype":"레저업소 - 기타레져업소","category":"leisure"}]},{"lat":"37.297729692","long":"126.97042259","imageIndex":13,"items":[{"name":"씨엘노래연습장","tel":"031-296-2109","addr":"경기도 수원시 장안구 율전동 433-114번지","indutype":"레저업소 - 노 래 방","category":"leisure"}]},{"lat":"37.296594649","long":"126.97133662","imageIndex":13,"items":[{"name":"아라PC방","tel":"","addr":"경기도 수원시 장안구 율전동 433-68번지 나동 2층","indutype":"레저업소 - 기타레져업소","category":"leisure"},{"name":"아라크네","tel":"","addr":"경기도 수원시 장안구 율전동 433-68번지 2층","indutype":"레저업소 - 기타레져업소","category":"leisure"},{"name":"율전대학당구장","tel":"031-298-3405","addr":"경기도 수원시 장안구 율전동 433-68번지 가동","indutype":"레저업소 - 당 구 장","category":"leisure"},{"name":"학사당구장","tel":"031-295-6895","addr":"경기도 수원시 장안구 율전동 433-68번지","indutype":"레저업소 - 당 구 장","category":"leisure"}]},{"lat":"37.296954956","long":"126.97095301","imageIndex":13,"items":[{"name":"아이센스리그PC방 성균관대점","tel":"070-3332-2829","addr":"경기도 수원시 장안구 율전동 433-67번지 4층","indutype":"레저업소 - 기타레져업소","category":"leisure"}]},{"lat":"37.298036078","long":"126.9705578","imageIndex":13,"items":[{"name":"알라딘당구클럽","tel":"070-5031-0327","addr":"경기도 수원시 장안구 율전동 402-2번지 3층","indutype":"레저업소 - 당 구 장","category":"leisure"},{"name":"애플 노래연습장","tel":"031-278-4272","addr":"경기도 수원시 장안구 율전동 402-2번지","indutype":"레저업소 - 노 래 방","category":"leisure"}]},{"lat":"37.301397384","long":"126.97239484","imageIndex":13,"items":[{"name":"어울림당구장","tel":"031-269-9322","addr":"경기도 수원시 장안구 율전동 89-4번지 3층","indutype":"레저업소 - 당 구 장","category":"leisure"}]},{"lat":"37.301208164","long":"126.97237236","imageIndex":13,"items":[{"name":"에스비씨(SBC)당구장","tel":"031-268-5753","addr":"경기도 수원시 장안구 율전동 89-5번지 성지빌딩 102호","indutype":"레저업소 - 당 구 장","category":"leisure"}]},{"lat":"37.298820535","long":"126.9727004","imageIndex":13,"items":[{"name":"에스케이케이 피시(SKK PC-1)","tel":"070-8832-1619","addr":"경기도 수원시 장안구 율전동 288-40번지 2층","indutype":"레저업소 - 기타레져업소","category":"leisure"}]},{"lat":"37.297036205","long":"126.97153945","imageIndex":13,"items":[{"name":"에스케이케이 피씨(3호점)","tel":"070-3164-7557","addr":"경기도 수원시 장안구 율전동 433-61번지 지하1층 1층,2층","indutype":"레저업소 - 기타레져업소","category":"leisure"}]},{"lat":"37.298872648","long":"126.96584298","imageIndex":13,"items":[{"name":"에이토탈휘트니스(A-total Fitness)","tel":"031-227-4727","addr":"경기도 수원시 장안구 율전동 358-1번지 진명스크린골프 2층 201호","indutype":"레저업소 - 헬스클럽","category":"leisure"},{"name":"진명스크린골프존","tel":"031-292-8207","addr":"경기도 수원시 장안구 율전동 358-1번지 지하1층","indutype":"레저업소 - 스크린골프","category":"leisure"}]},{"lat":"37.299369872","long":"126.97159487","imageIndex":13,"items":[{"name":"엠바디 필라테스","tel":"","addr":"경기도 수원시 장안구 율전동 285-2번지 SK HUB BLUE 2119호","indutype":"레저업소 - 헬스클럽","category":"leisure"},{"name":"카카오플러스","tel":"031-298-1307","addr":"경기도 수원시 장안구 율전동 285-2번지 SK허브블루 3층","indutype":"레저업소 - 볼 링 장","category":"leisure"}]},{"lat":"37.296927603","long":"126.96978007","imageIndex":13,"items":[{"name":"와우 노래연습장","tel":"031-000-0000","addr":"경기도 수원시 장안구 율전동 433-133번지 지하1층","indutype":"레저업소 - 노 래 방","category":"leisure"}]},{"lat":"37.301595609","long":"126.97239476","imageIndex":13,"items":[{"name":"요가라이프","tel":"031-269-6778","addr":"경기도 수원시 장안구 율전동 92-2번지 송원빌딩 5층 501호","indutype":"레저업소 - 헬스클럽","category":"leisure"},{"name":"탑 투 피씨(TOP TWO PC)","tel":"","addr":"경기도 수원시 장안구 율전동 92-2번지 송원빌딩 1층","indutype":"레저업소 - 기타레져업소","category":"leisure"}]},{"lat":"37.30082065","long":"126.97209054","imageIndex":13,"items":[{"name":"운동하자","tel":"031-269-9290","addr":"경기도 수원시 장안구 율전동 235-8번지 1층 및 지하","indutype":"레저업소 - 헬스클럽","category":"leisure"}]},{"lat":"37.299261614","long":"126.97108738","imageIndex":13,"items":[{"name":"윙크노래연습장","tel":"031-278-2927","addr":"경기도 수원시 장안구 율전동 296-23번지 동경빌딩 302호","indutype":"레저업소 - 노 래 방","category":"leisure"},{"name":"킹당구장","tel":"070-8117-6812","addr":"경기도 수원시 장안구 율전동 296-23번지 401,402호","indutype":"레저업소 - 당 구 장","category":"leisure"}]},{"lat":"37.304982439","long":"126.96867115","imageIndex":13,"items":[{"name":"율전점핑다이어트","tel":"031-223-5214","addr":"경기도 수원시 장안구 율전동 551번지 3층","indutype":"레저업소 - 헬스클럽","category":"leisure"}]},{"lat":"37.297396031","long":"126.96940768","imageIndex":13,"items":[{"name":"정민주","tel":"031-227-9555","addr":"경기도 수원시 장안구 율전동 406-12번지 미래하우스 C동 103호","indutype":"레저업소 - 골프연습장","category":"leisure"}]},{"lat":"37.29792801","long":"126.97076086","imageIndex":13,"items":[{"name":"초이필라테스","tel":"","addr":"경기도 수원시 장안구 율전동 402-8번지 3층","indutype":"레저업소 - 헬스클럽","category":"leisure"}]},{"lat":"37.298955717","long":"126.97281314","imageIndex":13,"items":[{"name":"칼라노래연습장","tel":"031-223-5214","addr":"경기도 수원시 장안구 율전동 288-2번지 2층","indutype":"레저업소 - 노 래 방","category":"leisure"}]},{"lat":"37.297729546","long":"126.96989251","imageIndex":13,"items":[{"name":"케이투노래연습장","tel":"031-227-1282","addr":"경기도 수원시 장안구 율전동 433-92번지 2층","indutype":"레저업소 - 노 래 방","category":"leisure"}]},{"lat":"37.300874776","long":"126.97233866","imageIndex":13,"items":[{"name":"탑플레이어","tel":"031-269-2165","addr":"경기도 수원시 장안구 율전동 236번지 3층","indutype":"레저업소 - 기타레져업소","category":"leisure"}]},{"lat":"37.298315775","long":"126.97197878","imageIndex":13,"items":[{"name":"테마노래연습장","tel":"031-278-2523","addr":"경기도 수원시 장안구 율전동 288-5번지 2층","indutype":"레저업소 - 노 래 방","category":"leisure"}]},{"lat":"37.297288518","long":"126.97164085","imageIndex":13,"items":[{"name":"테크노노래연습장","tel":"031-296-8482","addr":"경기도 수원시 장안구 율전동 433-128번지","indutype":"레저업소 - 노 래 방","category":"leisure"}]},{"lat":"37.296792405","long":"126.96962223","imageIndex":13,"items":[{"name":"팡파르노래연습장","tel":"031-295-3409","addr":"경기도 수원시 장안구 율전동 433-95번지","indutype":"레저업소 - 노 래 방","category":"leisure"}]},{"lat":"37.296954303","long":"126.96861839","imageIndex":13,"items":[{"name":"프로당구장","tel":"031-269-3975","addr":"경기도 수원시 장안구 율전동 408-1번지","indutype":"레저업소 - 당 구 장","category":"leisure"}]},{"lat":"37.298820451","long":"126.97237332","imageIndex":13,"items":[{"name":"헌터PC 성균관대점","tel":"070-8330-6946","addr":"경기도 수원시 장안구 율전동 288-13번지","indutype":"레저업소 - 기타레져업소","category":"leisure"}]},{"lat":"37.297594585","long":"126.97059183","imageIndex":8,"items":[{"name":"S&U서울외과","tel":"031-292-1115","addr":"경기도 수원시 장안구 율전동 433-5번지","indutype":"의원 - 의원","category":"medical"},{"name":"김비뇨기과의원","tel":"031-296-3226","addr":"경기도 수원시 장안구 율전동 433-5번지 4층","indutype":"의원 - 의원","category":"medical"},{"name":"참미소치과","tel":"031-293-2875","addr":"경기도 수원시 장안구 율전동 433-5번지","indutype":"의원 - 치과의원","category":"medical"}]},{"lat":"37.302846966","long":"126.96850293","imageIndex":8,"items":[{"name":"강약국","tel":"031-207-6770","addr":"경기도 수원시 장안구 율전동 155-5번지","indutype":"약국 - 한약방","category":"medical"},{"name":"서울삼성내과의원","tel":"031-892-8275","addr":"경기도 수원시 장안구 율전동 155-5번지 2층","indutype":"의원 - 의원","category":"medical"}]},{"lat":"37.299369872","long":"126.97159487","imageIndex":8,"items":[{"name":"경희허브한의원","tel":"031-297-8575","addr":"경기도 수원시 장안구 율전동 285-2번지 SK허브블루 6층 메디칼센터","indutype":"의원 - 한의원","category":"medical"},{"name":"뉴하나로외과의원","tel":"031-269-9530","addr":"경기도 수원시 장안구 율전동 285-2번지 이슈나인 602호","indutype":"의원 - 의원","category":"medical"},{"name":"세란치과","tel":"031-227-6075","addr":"경기도 수원시 장안구 율전동 285-2번지 SK허브블루제6층 6018호","indutype":"의원 - 치과의원","category":"medical"},{"name":"허브약국","tel":"031-278-7954","addr":"경기도 수원시 장안구 율전동 285-2번지 에스케이허브블루 6019호","indutype":"약국 - 약국","category":"medical"}]},{"lat":"37.298260755","long":"126.96850501","imageIndex":8,"items":[{"name":"고은이치과","tel":"031-297-0028","addr":"경기도 수원시 장안구 율전동 306-2번지 3층","indutype":"의원 - 치과의원","category":"medical"},{"name":"성균관한의원","tel":"031-292-8588","addr":"경기도 수원시 장안구 율전동 306-2번지 2층","indutype":"의원 - 한의원","category":"medical"}]},{"lat":"37.298288487","long":"126.97100884","imageIndex":8,"items":[{"name":"굿모닝이비인후과의원","tel":"031-294-7545","addr":"경기도 수원시 장안구 율전동 291-4번지 2층 우측 2층","indutype":"의원 - 의원","category":"medical"}]},{"lat":"37.298541066","long":"126.97211403","imageIndex":8,"items":[{"name":"김성록동물병원","tel":"031-297-2975","addr":"경기도 수원시 장안구 율전동 288-6번지","indutype":"기타의료기관 - 동물병원","category":"medical"},{"name":"두리치과의원","tel":"031-293-8275","addr":"경기도 수원시 장안구 율전동 288-6번지 성신빌딩 3층","indutype":"의원 - 치과의원","category":"medical"}]},{"lat":"37.303117582","long":"126.96958561","imageIndex":8,"items":[{"name":"김성철치과","tel":"031-207-3988","addr":"경기도 수원시 장안구 율전동 149-4번지","indutype":"의원 - 치과의원","category":"medical"}]},{"lat":"37.303540342","long":"126.96711525","imageIndex":8,"items":[{"name":"대하건재약업사","tel":"031-292-1800","addr":"경기도 수원시 장안구 율전동 169-12번지 외1필지 103동 104호","indutype":"약국 - 한약방","category":"medical"}]},{"lat":"37.298036148","long":"126.97081721","imageIndex":8,"items":[{"name":"동서한의원","tel":"031-297-7500","addr":"경기도 수원시 장안구 율전동 402-3번지","indutype":"의원 - 한의원","category":"medical"},{"name":"드림치과의원","tel":"031-227-2080","addr":"경기도 수원시 장안구 율전동 402-3번지","indutype":"의원 - 치과의원","category":"medical"}]},{"lat":"37.29848618","long":"126.9690914","imageIndex":8,"items":[{"name":"따뜻한치과","tel":"031-295-7522","addr":"경기도 수원시 장안구 율전동 298-6번지 청수빌딩 202호","indutype":"의원 - 치과의원","category":"medical"}]},{"lat":"37.298620896","long":"126.96759128","imageIndex":8,"items":[{"name":"래허부한약국","tel":"031-296-3275","addr":"경기도 수원시 장안구 율전동 321-9번지 경진빌딩 1층","indutype":"약국 - 약국","category":"medical"}]},{"lat":"37.301208164","long":"126.97237236","imageIndex":8,"items":[{"name":"생명나무한의원","tel":"031-268-5575","addr":"경기도 수원시 장안구 율전동 89-5번지 성지빌딩 402호","indutype":"의원 - 한의원","category":"medical"},{"name":"수원봄치과","tel":"031-252-9075","addr":"경기도 수원시 장안구 율전동 89-5번지","indutype":"의원 - 치과의원","category":"medical"}]},{"lat":"37.298233893","long":"126.96909151","imageIndex":8,"items":[{"name":"서준한의원","tel":"031-291-7001","addr":"경기도 수원시 장안구 율전동 298-3번지 운화빌딩 2층","indutype":"의원 - 한의원","category":"medical"}]},{"lat":"37.296792528","long":"126.97006209","imageIndex":8,"items":[{"name":"성균관약국","tel":"031-292-8500","addr":"경기도 수원시 장안구 율전동 433-79번지 106호","indutype":"약국 - 약국","category":"medical"}]},{"lat":"37.298928346","long":"126.97150483","imageIndex":8,"items":[{"name":"성대안과","tel":"031-298-8275","addr":"경기도 수원시 장안구 율전동 285-6번지 ***연번지,3","indutype":"의원 - 의원","category":"medical"}]},{"lat":"37.300874776","long":"126.97233866","imageIndex":8,"items":[{"name":"수원일미치과의원","tel":"031-242-2275","addr":"경기도 수원시 장안구 율전동 236번지","indutype":"의원 - 치과의원","category":"medical"}]},{"lat":"37.299676989","long":"126.97465128","imageIndex":8,"items":[{"name":"스마트치과","tel":"031-268-2855","addr":"경기도 수원시 장안구 율전동 495-2번지 성균관대역 5층","indutype":"의원 - 치과의원","category":"medical"},{"name":"장내과의원","tel":"031-294-8768","addr":"경기도 수원시 장안구 율전동 495-2번지 성대역사 505호","indutype":"의원 - 의원","category":"medical"}]},{"lat":"37.303180802","long":"126.97011571","imageIndex":8,"items":[{"name":"옵티마건강약국","tel":"031-246-3211","addr":"경기도 수원시 장안구 율전동 152번지","indutype":"약국 - 약국","category":"medical"}]},{"lat":"37.303568894","long":"126.97256315","imageIndex":8,"items":[{"name":"율전정형외과의원","tel":"031-295-9911","addr":"경기도 수원시 장안구 율전동 99-24번지","indutype":"의원 - 의원","category":"medical"}]},{"lat":"37.299090254","long":"126.9704784","imageIndex":8,"items":[{"name":"율전치과의원","tel":"031-295-2275","addr":"경기도 수원시 장안구 율전동 295번지 부영빌딩 3층","indutype":"의원 - 치과의원","category":"medical"}]},{"lat":"37.297756791","long":"126.97067071","imageIndex":8,"items":[{"name":"율전탑의원","tel":"031-291-3600","addr":"경기도 수원시 장안구 율전동 433-117번지 3층","indutype":"의원 - 의원","category":"medical"}]},{"lat":"37.298288395","long":"126.97067048","imageIndex":8,"items":[{"name":"율전한의원","tel":"031-292-2630","addr":"경기도 수원시 장안구 율전동 292번지","indutype":"의원 - 한의원","category":"medical"}]},{"lat":"37.297981542","long":"126.96886605","imageIndex":8,"items":[{"name":"율정동물병원","tel":"031-291-2830","addr":"경기도 수원시 장안구 율전동 399-10번지 1층","indutype":"기타의료기관 - 동물병원","category":"medical"}]},{"lat":"37.296701983","long":"126.96850572","imageIndex":8,"items":[{"name":"이화소아과","tel":"031-207-6755","addr":"경기도 수원시 장안구 율전동 408-16번지","indutype":"의원 - 의원","category":"medical"},{"name":"플러스약국","tel":"031-295-5549","addr":"경기도 수원시 장안구 율전동 408-16번지","indutype":"약국 - 약국","category":"medical"}]},{"lat":"37.296954956","long":"126.97095301","imageIndex":8,"items":[{"name":"이화약국","tel":"031-271-9920","addr":"경기도 수원시 장안구 율전동 433-67번지 1층 103호","indutype":"약국 - 약국","category":"medical"}]},{"lat":"37.298541983","long":"126.97586979","imageIndex":8,"items":[{"name":"제이스 팜","tel":"031-278-6361","addr":"경기도 수원시 장안구 율전동 265-5번지 래미안 601호","indutype":"약국 - 제약회사","category":"medical"}]},{"lat":"37.299009477","long":"126.97165141","imageIndex":8,"items":[{"name":"제일성모의원","tel":"031-269-8055","addr":"경기도 수원시 장안구 율전동 286-4번지","indutype":"의원 - 의원","category":"medical"}]},{"lat":"37.3029015","long":"126.97017223","imageIndex":8,"items":[{"name":"중흥한의원","tel":"031-244-5225","addr":"경기도 수원시 장안구 율전동 152-2번지 2층","indutype":"의원 - 한의원","category":"medical"}]},{"lat":"37.304036783","long":"126.97014918","imageIndex":8,"items":[{"name":"참조은소아청소년과의원","tel":"031-268-8355","addr":"경기도 수원시 장안구 율전동 102-2번지 2층 201호","indutype":"의원 - 의원","category":"medical"},{"name":"하나약국","tel":"031-207-2413","addr":"경기도 수원시 장안구 율전동 102-2번지 1층 105호","indutype":"약국 - 약국","category":"medical"}]},{"lat":"37.296873657","long":"126.97019739","imageIndex":8,"items":[{"name":"현치과의원","tel":"031-291-2844","addr":"경기도 수원시 장안구 율전동 433-76번지 율전빌딩 2층","indutype":"의원 - 치과의원","category":"medical"}]},{"lat":"37.302846966","long":"126.96850293","imageIndex":7,"items":[{"name":"개성쌀상회","tel":"031-207-7557","addr":"경기도 수원시 장안구 율전동 155-5번지","indutype":"음료식품 - 미곡상","category":"food"}]},{"lat":"37.301648955","long":"126.96973289","imageIndex":7,"items":[{"name":"고기쟁이","tel":"031-271-5949","addr":"경기도 수원시 장안구 율전동 207-4번지 102호","indutype":"음료식품 - 정육점","category":"food"},{"name":"해독으로 건강해지기","tel":"031-245-3658","addr":"경기도 수원시 장안구 율전동 207-4번지 율하우스 103호","indutype":"건강식품 - 기타건강식품","category":"food"}]},{"lat":"37.303010007","long":"126.97159336","imageIndex":7,"items":[{"name":"그래미트(신알뜰)","tel":"070-9916-0144","addr":"경기도 수원시 장안구 율전동 104-6번지 1층","indutype":"음료식품 - 정육점","category":"food"}]},{"lat":"37.298567152","long":"126.96867405","imageIndex":7,"items":[{"name":"낙원떡집","tel":"031-298-8004","addr":"경기도 수원시 장안구 율전동 305-22번지 뚜레쥬드 1층 107호","indutype":"음료식품 - 제과점","category":"food"},{"name":"뚜레쥬르 성대율전(3)","tel":"031-227-0189","addr":"경기도 수원시 장안구 율전동 305-22번지 뚜레쥬드 103호","indutype":"음료식품 - 제과점","category":"food"},{"name":"베이킹파티","tel":"031-269-8226","addr":"경기도 수원시 장안구 율전동 305-22번지 3층","indutype":"음료식품 - 기타음료식품","category":"food"},{"name":"청정식품","tel":"031-227-7154","addr":"경기도 수원시 장안구 율전동 305-22번지 뚜레쥬드 1층 9호","indutype":"음료식품 - 기타음료식품","category":"food"}]},{"lat":"37.302874593","long":"126.97062341","imageIndex":7,"items":[{"name":"다모 도소매","tel":"031-292-9293","addr":"경기도 수원시 장안구 율전동 101번지 101호","indutype":"음료식품 - 농·축·수산품","category":"food"}]},{"lat":"37.303262488","long":"126.97233769","imageIndex":7,"items":[{"name":"동현상회","tel":"070-6216-7124","addr":"경기도 수원시 장안구 율전동 99-30번지","indutype":"음료식품 - 농·축·수산품","category":"food"}]},{"lat":"37.299009321","long":"126.97106492","imageIndex":7,"items":[{"name":"르뱅베이커리","tel":"031-308-4050","addr":"경기도 수원시 장안구 율전동 295-1번지 108호","indutype":"음료식품 - 제과점","category":"food"}]},{"lat":"37.299369872","long":"126.97159487","imageIndex":7,"items":[{"name":"맑은 유통","tel":"031-298-5900","addr":"경기도 수원시 장안구 율전동 285-2번지 1층 내","indutype":"음료식품 - 농·축·수산품","category":"food"},{"name":"북수원온천 남매점","tel":"031-293-7005","addr":"경기도 수원시 장안구 율전동 285-2번지 에스케이허브 8층","indutype":"음료식품 - 기타음료식품","category":"food"},{"name":"북수원온천매점","tel":"031-293-7841","addr":"경기도 수원시 장안구 율전동 285-2번지 8층","indutype":"음료식품 - 기타음료식품","category":"food"},{"name":"비젼바이오(Vision Bio)","tel":"070-4240-1107","addr":"경기도 수원시 장안구 율전동 285-2번지 SKHUBBLUE 16015호","indutype":"음료식품 - 기타음료식품","category":"food"},{"name":"에스앤지농산","tel":"02-1111-1111","addr":"경기도 수원시 장안구 율전동 285-2번지 SK HUB BLUE 13층 13011호","indutype":"음료식품 - 농·축·수산품","category":"food"}]},{"lat":"37.30251389","long":"126.96956332","imageIndex":7,"items":[{"name":"맛있는집","tel":"031-207-3004","addr":"경기도 수원시 장안구 율전동 156-3번지 1층","indutype":"음료식품 - 기타음료식품","category":"food"}]},{"lat":"37.30220751","long":"126.96945066","imageIndex":7,"items":[{"name":"명가복떡방","tel":"031-271-1119","addr":"경기도 수원시 장안구 율전동 157-1번지 1층","indutype":"음료식품 - 제과점","category":"food"},{"name":"신앙촌상회","tel":"031-269-1433","addr":"경기도 수원시 장안구 율전동 157-1번지 1층","indutype":"음료식품 - 기타음료식품","category":"food"},{"name":"프렌즈과자점","tel":"031-271-0149","addr":"경기도 수원시 장안구 율전동 157-1번지 1층 3호","indutype":"음료식품 - 제과점","category":"food"}]},{"lat":"37.304928283","long":"126.96834407","imageIndex":7,"items":[{"name":"미요다상사","tel":"031-234-0654","addr":"경기도 수원시 장안구 율전동 549번지 에코빌딩 3층","indutype":"음료식품 - 기타음료식품","category":"food"}]},{"lat":"37.298288487","long":"126.97100884","imageIndex":7,"items":[{"name":"베스킨라빈스 수원성대점","tel":"031-278-5050","addr":"경기도 수원시 장안구 율전동 291-4번지 율전빌딩 1층","indutype":"음료식품 - 제과점","category":"food"}]},{"lat":"37.297729546","long":"126.96989251","imageIndex":7,"items":[{"name":"빼자점핑다이어트","tel":"070-8780-2150","addr":"경기도 수원시 장안구 율전동 433-92번지 3층","indutype":"건강식품 - 기타건강식품","category":"food"}]},{"lat":"37.30495536","long":"126.96850197","imageIndex":7,"items":[{"name":"삼미식품","tel":"","addr":"경기도 수원시 장안구 율전동 550번지 상지빌딩 지하1층","indutype":"음료식품 - 기타음료식품","category":"food"}]},{"lat":"37.30318049","long":"126.96901034","imageIndex":7,"items":[{"name":"새마을떡방아간","tel":"031-207-4326","addr":"경기도 수원시 장안구 율전동 148-6번지","indutype":"음료식품 - 제과점","category":"food"}]},{"lat":"37.296233289","long":"126.9679533","imageIndex":7,"items":[{"name":"서무수건강명가율전점","tel":"031-293-3111","addr":"경기도 수원시 장안구 율전동 413-5번지 민영주택","indutype":"건강식품 - 인삼제품","category":"food"}]},{"lat":"37.298756558","long":"126.9693394","imageIndex":7,"items":[{"name":"성원유통","tel":"031-297-6698","addr":"경기도 수원시 장안구 율전동 300-3번지 1층","indutype":"음료식품 - 미곡상","category":"food"}]},{"lat":"37.299567825","long":"126.9705797","imageIndex":7,"items":[{"name":"성일유통","tel":"031-269-6999","addr":"경기도 수원시 장안구 율전동 296-52번지 도시빌라 A동 102호","indutype":"음료식품 - 기타음료식품","category":"food"}]},{"lat":"37.296792528","long":"126.97006209","imageIndex":7,"items":[{"name":"세계과자할인점","tel":"","addr":"경기도 수원시 장안구 율전동 433-79번지 1층","indutype":"음료식품 - 기타음료식품","category":"food"}]},{"lat":"37.303486838","long":"126.9690102","imageIndex":7,"items":[{"name":"셀프라면타임","tel":"","addr":"경기도 수원시 장안구 율전동 145-2번지 1층","indutype":"음료식품 - 기타음료식품","category":"food"}]},{"lat":"37.303540342","long":"126.96711525","imageIndex":7,"items":[{"name":"소담유통","tel":"070-7624-6024","addr":"경기도 수원시 장안구 율전동 169-12번지 101호","indutype":"음료식품 - 기타음료식품","category":"food"}]},{"lat":"37.3029015","long":"126.97017223","imageIndex":7,"items":[{"name":"소문난떡방앗간","tel":"031-207-6966","addr":"경기도 수원시 장안구 율전동 152-2번지","indutype":"음료식품 - 제과점","category":"food"}]},{"lat":"37.303370576","long":"126.9722023","imageIndex":7,"items":[{"name":"쉐프삼촌(천천점)","tel":"02-1899-9429","addr":"경기도 수원시 장안구 율전동 99-43번지 정심쉐르빌 101호","indutype":"음료식품 - 기타음료식품","category":"food"}]},{"lat":"37.297512971","long":"126.96873092","imageIndex":7,"items":[{"name":"슈케익하우스 율전점","tel":"","addr":"경기도 수원시 장안구 율전동 399-17번지 1층 101호","indutype":"음료식품 - 제과점","category":"food"}]},{"lat":"37.296260369","long":"126.96812246","imageIndex":7,"items":[{"name":"싱싱나라","tel":"","addr":"경기도 수원시 장안구 율전동 409-14번지","indutype":"음료식품 - 농·축·수산품","category":"food"},{"name":"정육백화점","tel":"031-293-8092","addr":"경기도 수원시 장안구 율전동 409-14번지 1층","indutype":"음료식품 - 정육점","category":"food"}]},{"lat":"37.302009095","long":"126.96878528","imageIndex":7,"items":[{"name":"우리건강원","tel":"031-207-8107","addr":"경기도 수원시 장안구 율전동 159번지","indutype":"건강식품 - 기타건강식품","category":"food"},{"name":"펌라이프","tel":"070-4232-2704","addr":"경기도 수원시 장안구 율전동 159번지","indutype":"음료식품 - 기타음료식품","category":"food"}]},{"lat":"37.303397025","long":"126.97003666","imageIndex":7,"items":[{"name":"우리동네 대박과일","tel":"031-248-0237","addr":"경기도 수원시 장안구 율전동 151-4번지 1층","indutype":"음료식품 - 농·축·수산품","category":"food"}]},{"lat":"37.302206919","long":"126.96742042","imageIndex":7,"items":[{"name":"우진떡집","tel":"031-271-9667","addr":"경기도 수원시 장안구 율전동 168-38번지","indutype":"음료식품 - 기타음료식품","category":"food"}]},{"lat":"37.297756791","long":"126.97067071","imageIndex":7,"items":[{"name":"율전탑의원","tel":"031-291-3600","addr":"경기도 수원시 장안구 율전동 433-117번지 3층","indutype":"건강식품 - 기타건강식품","category":"food"},{"name":"하나로농산","tel":"031-298-6686","addr":"경기도 수원시 장안구 율전동 433-117번지","indutype":"음료식품 - 농·축·수산품","category":"food"},{"name":"하나로농축산","tel":"031-298-6686","addr":"경기도 수원시 장안구 율전동 433-117번지 (1층중일부)","indutype":"음료식품 - 정육점","category":"food"}]},{"lat":"37.298512341","long":"126.96617024","imageIndex":7,"items":[{"name":"일동후디스 수원장안대리점","tel":"070-7672-1010","addr":"경기도 수원시 장안구 율전동 360-7번지 만리향 102호","indutype":"음료식품 - 기타음료식품","category":"food"}]},{"lat":"37.303595096","long":"126.96948389","imageIndex":7,"items":[{"name":"저녁밥상","tel":"031-207-9971","addr":"경기도 수원시 장안구 율전동 148-1번지","indutype":"음료식품 - 기타음료식품","category":"food"}]},{"lat":"37.297927158","long":"126.96776079","imageIndex":7,"items":[{"name":"정성가득찬","tel":"031-295-5594","addr":"경기도 수원시 장안구 율전동 395-5번지 102호","indutype":"음료식품 - 기타음료식품","category":"food"}]},{"lat":"37.29848618","long":"126.9690914","imageIndex":7,"items":[{"name":"종로떡집","tel":"031-291-9269","addr":"경기도 수원시 장안구 율전동 298-6번지 청수빌딩 1층 105호","indutype":"음료식품 - 제과점","category":"food"}]},{"lat":"37.301036428","long":"126.97034222","imageIndex":7,"items":[{"name":"주식회사커피디오리진","tel":"031-269-6999","addr":"경기도 수원시 장안구 율전동 205-3번지 103호 104호","indutype":"음료식품 - 기타음료식품","category":"food"}]},{"lat":"37.304316267","long":"126.97075814","imageIndex":7,"items":[{"name":"최용식 황태덕장","tel":"070-7664-7183","addr":"경기도 수원시 장안구 율전동 108-6번지 율전체육관 104호","indutype":"음료식품 - 농·축·수산품","category":"food"}]},{"lat":"37.297873325","long":"126.96853903","imageIndex":7,"items":[{"name":"충북떡방앗간","tel":"031-293-5371","addr":"경기도 수원시 장안구 율전동 399-12번지","indutype":"음료식품 - 제과점","category":"food"}]},{"lat":"37.302730243","long":"126.96994672","imageIndex":7,"items":[{"name":"칠성정육점","tel":"031-207-2900","addr":"경기도 수원시 장안구 율전동 217-2번지","indutype":"음료식품 - 정육점","category":"food"}]},{"lat":"37.301955357","long":"126.9699245","imageIndex":7,"items":[{"name":"탑축산","tel":"031-305-9285","addr":"경기도 수원시 장안구 율전동 215-10번지 1층 101호","indutype":"음료식품 - 정육점","category":"food"}]},{"lat":"37.297955629","long":"126.97300527","imageIndex":7,"items":[{"name":"파리바게뜨 성대래미안","tel":"031-296-4317","addr":"경기도 수원시 장안구 율전동 290-6번지","indutype":"음료식품 - 제과점","category":"food"}]},{"lat":"37.300874776","long":"126.97233866","imageIndex":7,"items":[{"name":"파리바게뜨 수원성대역","tel":"031-268-8240","addr":"경기도 수원시 장안구 율전동 236번지 제일빙딩 203동 205호","indutype":"음료식품 - 제과점","category":"food"}]},{"lat":"37.305622818","long":"126.97100574","imageIndex":7,"items":[{"name":"파리바게뜨 율전주공점","tel":"031-241-8139","addr":"경기도 수원시 장안구 율전동 554번지 유영타운 105호,203호","indutype":"음료식품 - 제과점","category":"food"}]},{"lat":"37.299009477","long":"126.97165141","imageIndex":7,"items":[{"name":"파리바게트","tel":"031-294-6008","addr":"경기도 수원시 장안구 율전동 286-4번지 1층","indutype":"음료식품 - 제과점","category":"food"}]},{"lat":"37.304595016","long":"126.96872772","imageIndex":7,"items":[{"name":"픽미픽미아이스율전점","tel":"","addr":"경기도 수원시 장안구 율전동 143-6번지 1층 101호","indutype":"음료식품 - 기타음료식품","category":"food"}]},{"lat":"37.29690041","long":"126.96920489","imageIndex":7,"items":[{"name":"한울축산","tel":"031-295-4090","addr":"경기도 수원시 장안구 율전동 433-103번지","indutype":"음료식품 - 정육점","category":"food"}]},{"lat":"37.30604574","long":"126.96899778","imageIndex":7,"items":[{"name":"해성상회","tel":"031-271-2138","addr":"경기도 수원시 장안구 율전동 546번지 밤꽃마을뜨란채 109동 1801호","indutype":"음료식품 - 농·축·수산품","category":"food"}]},{"lat":"37.298729402","long":"126.96889955","imageIndex":7,"items":[{"name":"해피톡","tel":"031-000-0000","addr":"경기도 수원시 장안구 율전동 305-6번지 수일빌딩 1층 102호","indutype":"음료식품 - 기타음료식품","category":"food"}]},{"lat":"37.301036344","long":"126.97003769","imageIndex":7,"items":[{"name":"홍쉐프","tel":"","addr":"경기도 수원시 장안구 율전동 206-2번지","indutype":"음료식품 - 기타음료식품","category":"food"}]},{"lat":"37.304623042","long":"126.97237098","imageIndex":0,"items":[{"name":"니드(need)","tel":"031-207-5189","addr":"경기도 수원시 장안구 율전동 114-3번지 SK북수원주유소","indutype":"자동차정비 유지 - 자동차정비","category":"car"},{"name":"스피드메이트SK북수원점","tel":"031-269-9797","addr":"경기도 수원시 장안구 율전동 114-3번지","indutype":"자동차정비 유지 - 자동차정비","category":"car"}]},{"lat":"37.298458484","long":"126.9668357","imageIndex":0,"items":[{"name":"대명카센타","tel":"031-294-3888","addr":"경기도 수원시 장안구 율전동 321-12번지","indutype":"자동차정비 유지 - 자동차정비","category":"car"}]},{"lat":"37.301036148","long":"126.96933839","imageIndex":0,"items":[{"name":"마스터카랜드","tel":"031-207-8572","addr":"경기도 수원시 장안구 율전동 194-2번지","indutype":"자동차정비 유지 - 자동차정비","category":"car"}]},{"lat":"37.304145529","long":"126.97248397","imageIndex":0,"items":[{"name":"새차만들기수원율전","tel":"031-269-7737","addr":"경기도 수원시 장안구 율전동 99-20번지 제일오피스텔 101호","indutype":"자동차정비 유지 - 카인테리어","category":"car"}]},{"lat":"37.298179551","long":"126.96812158","imageIndex":0,"items":[{"name":"세차매니아","tel":"070-4789-2381","addr":"경기도 수원시 장안구 율전동 394-19번지","indutype":"자동차정비 유지 - 세차장","category":"car"}]},{"lat":"37.303289583","long":"126.97258582","imageIndex":0,"items":[{"name":"쉐보레 수원장안 대리점","tel":"031-269-5150","addr":"경기도 수원시 장안구 율전동 99-27번지 초인빌딩 1층","indutype":"자동차판매 - 수입자동차","category":"car"}]},{"lat":"37.301126234","long":"126.96928196","imageIndex":0,"items":[{"name":"스마일모터스","tel":"031-269-9732","addr":"경기도 수원시 장안구 율전동 194-3번지","indutype":"자동차정비 유지 - 자동차정비","category":"car"}]},{"lat":"37.297819335","long":"126.96878718","imageIndex":0,"items":[{"name":"스탠스웍스(Stance works)","tel":"031-271-9507","addr":"경기도 수원시 장안구 율전동 399-20번지 1층 일부","indutype":"자동차정비 유지 - 자동차부품","category":"car"}]},{"lat":"37.2969272","long":"126.96837028","imageIndex":0,"items":[{"name":"스피드모터싸이클","tel":"031-295-1827","addr":"경기도 수원시 장안구 율전동 409-3번지","indutype":"자동차판매 - 이륜차판매","category":"car"}]},{"lat":"37.302478627","long":"126.9724508","imageIndex":0,"items":[{"name":"오토오아시스(기분좋은점)","tel":"031-207-5155","addr":"경기도 수원시 장안구 율전동 99-9번지","indutype":"자동차정비 유지 - 자동차정비","category":"car"}]},{"lat":"37.299036276","long":"126.97078295","imageIndex":0,"items":[{"name":"율전카세차장","tel":"031-295-7474","addr":"경기도 수원시 장안구 율전동 295-4번지","indutype":"자동차정비 유지 - 세차장","category":"car"}]},{"lat":"37.29845946","long":"126.97019671","imageIndex":0,"items":[{"name":"클리어모터스","tel":"070-8612-9606","addr":"경기도 수원시 장안구 율전동 293-3번지","indutype":"자동차정비 유지 - 자동차정비","category":"car"},{"name":"현대공업사내 현대세차장","tel":"031-227-0817","addr":"경기도 수원시 장안구 율전동 293-3번지","indutype":"자동차정비 유지 - 세차장","category":"car"}]},{"lat":"37.303514058","long":"126.96967567","imageIndex":0,"items":[{"name":"행복한자동차정비","tel":"031-207-6941","addr":"경기도 수원시 장안구 율전동 150-3번지","indutype":"자동차정비 유지 - 자동차정비","category":"car"}]},{"lat":"37.299396752","long":"126.97103093","imageIndex":5,"items":[{"name":"동경파크","tel":"031-295-0523","addr":"경기도 수원시 장안구 율전동 296-22번지","indutype":"숙박업 - 여관/기타숙박업","category":"hotel"}]},{"lat":"37.299459711","long":"126.97061359","imageIndex":5,"items":[{"name":"탄모텔","tel":"031-292-1515","addr":"경기도 수원시 장안구 율전동 296-27번지 율전파크","indutype":"숙박업 - 여관/기타숙박업","category":"hotel"}]},{"lat":"37.298396228","long":"126.96962153","imageIndex":5,"items":[{"name":"하이파크 여관","tel":"031-293-1769","addr":"경기도 수원시 장안구 율전동 297번지","indutype":"숙박업 - 여관/기타숙박업","category":"hotel"}]}]