[{"lat":"37.39914681","long":"127.2541989","imageIndex":13,"items":[{"name":"(주) 율리너","tel":"070-8848-1024","addr":"경기도 광주시 역동 209번지","indutype":"레저업소 - 헬스클럽","category":"leisure"},{"name":"필라테스 율 경기광주점","tel":"02-1111-1111","addr":"경기도 광주시 역동 209번지 2층","indutype":"레저업소 - 헬스클럽","category":"leisure"}]},{"lat":"37.40730862","long":"127.2590039","imageIndex":13,"items":[{"name":"(주)라이프플러스경안","tel":"031-767-0663","addr":"경기도 광주시 역동 23-5번지 2층","indutype":"레저업소 - 헬스클럽","category":"leisure"},{"name":"라이프플러스 경안점","tel":"031-767-0663","addr":"경기도 광주시 역동 23-5번지","indutype":"레저업소 - 헬스클럽","category":"leisure"}]},{"lat":"37.40805801","long":"127.2582835","imageIndex":13,"items":[{"name":"ILAVUE키즈카페","tel":"031-000-0000","addr":"경기도 광주시 역동 8-19번지 성환빌딩2호동 2층","indutype":"레저업소 - 기타레져업소","category":"leisure"},{"name":"노브랜드 PC방(광주본점)","tel":"070-9280-2970","addr":"경기도 광주시 역동 8-19번지 성환빌딩 3층","indutype":"레저업소 - 기타레져업소","category":"leisure"},{"name":"리얼야구존 광주점","tel":"031-763-8800","addr":"경기도 광주시 역동 8-19번지 성환빌딩 6층","indutype":"레저업소 - 기타레져업소","category":"leisure"},{"name":"세븐스타 코인노래연습장 (광주역동점)","tel":"031-326-5345","addr":"경기도 광주시 역동 8-19번지 성환빌딩 2동 3층","indutype":"레저업소 - 노 래 방","category":"leisure"},{"name":"코리아노래연습장","tel":"","addr":"경기도 광주시 역동 8-19번지 성환빌딩 2층 201호","indutype":"레저업소 - 노 래 방","category":"leisure"}]},{"lat":"37.4050038","long":"127.2581941","imageIndex":13,"items":[{"name":"JJ스크린골프","tel":"031-761-4600","addr":"경기도 광주시 역동 40-3번지","indutype":"레저업소 - 스크린골프","category":"leisure"}]},{"lat":"37.40789113","long":"127.2604516","imageIndex":13,"items":[{"name":"골목길노래방","tel":"031-761-8812","addr":"경기도 광주시 역동 26-14번지","indutype":"레저업소 - 노 래 방","category":"leisure"}]},{"lat":"37.40764577","long":"127.2572543","imageIndex":13,"items":[{"name":"광주포켓볼당구클럽","tel":"031-699-8488","addr":"경기도 광주시 역동 8-10번지 4층","indutype":"레저업소 - 당 구 장","category":"leisure"},{"name":"샤방샤방노래연습장","tel":"031-699-6435","addr":"경기도 광주시 역동 8-10번지 2층","indutype":"레저업소 - 노 래 방","category":"leisure"}]},{"lat":"37.4006458","long":"127.2439491","imageIndex":13,"items":[{"name":"김우영골프스튜디오","tel":"","addr":"경기도 광주시 역동 95-7번지 B1층 01호","indutype":"레저업소 - 스크린골프","category":"leisure"}]},{"lat":"37.40783276","long":"127.2582828","imageIndex":13,"items":[{"name":"다모아당구장","tel":"031-767-1165","addr":"경기도 광주시 역동 8-31번지","indutype":"레저업소 - 당 구 장","category":"leisure"},{"name":"랭커PC카페 역동점","tel":"","addr":"경기도 광주시 역동 8-31번지 8층","indutype":"레저업소 - 기타레져업소","category":"leisure"}]},{"lat":"37.40066774","long":"127.2550284","imageIndex":13,"items":[{"name":"당사모","tel":"031-761-7979","addr":"경기도 광주시 역동 142-8번지 1층","indutype":"레저업소 - 당 구 장","category":"leisure"}]},{"lat":"37.40799999","long":"127.2601131","imageIndex":13,"items":[{"name":"데일리PC카페","tel":"","addr":"경기도 광주시 역동 25-7번지 행운빌딩 2층","indutype":"레저업소 - 기타레져업소","category":"leisure"}]},{"lat":"37.40797921","long":"127.2572215","imageIndex":13,"items":[{"name":"비틀즈노래연습장","tel":"031-765-5127","addr":"경기도 광주시 역동 8-5번지 낙원빌딩 2층","indutype":"레저업소 - 노 래 방","category":"leisure"}]},{"lat":"37.40822681","long":"127.259391","imageIndex":13,"items":[{"name":"스카이(노래방)","tel":"031-764-3584","addr":"경기도 광주시 역동 22-30번지","indutype":"레저업소 - 노 래 방","category":"leisure"}]},{"lat":"37.40694418","long":"127.2566985","imageIndex":13,"items":[{"name":"신황진이야노래연습장","tel":"031-761-5907","addr":"경기도 광주시 역동 3-11번지","indutype":"레저업소 - 노 래 방","category":"leisure"}]},{"lat":"37.40708954","long":"127.2603133","imageIndex":13,"items":[{"name":"오디션노래연습장","tel":"031-761-6192","addr":"경기도 광주시 역동 27-92번지 지하층","indutype":"레저업소 - 노 래 방","category":"leisure"}]},{"lat":"37.40747642","long":"127.2605631","imageIndex":13,"items":[{"name":"이즈폴댄스플라잉요가","tel":"031-766-5269","addr":"경기도 광주시 역동 27-86번지 선화빌딩 5층","indutype":"레저업소 - 헬스클럽","category":"leisure"}]},{"lat":"37.40566844","long":"127.2591677","imageIndex":13,"items":[{"name":"일번지노래연습장","tel":"031-768-1245","addr":"경기도 광주시 역동 27-30번지 지층","indutype":"레저업소 - 노 래 방","category":"leisure"}]},{"lat":"37.40730928","long":"127.2586989","imageIndex":13,"items":[{"name":"정요가","tel":"070-7018-5367","addr":"경기도 광주시 역동 16-3번지 상원오피스텔 410호","indutype":"레저업소 - 헬스클럽","category":"leisure"}]},{"lat":"37.40825696","long":"127.2579454","imageIndex":13,"items":[{"name":"지투존경안점","tel":"031-767-6301","addr":"경기도 광주시 역동 20-1번지 동부빌딩 3층 7호","indutype":"레저업소 - 기타레져업소","category":"leisure"}]},{"lat":"37.40697199","long":"127.2605049","imageIndex":13,"items":[{"name":"카카오 노래연습장","tel":"031-761-1130","addr":"경기도 광주시 역동 27-63번지 삼원빌딩 지층","indutype":"레저업소 - 노 래 방","category":"leisure"}]},{"lat":"37.4074991","long":"127.2584172","imageIndex":13,"items":[{"name":"플레이 스포츠","tel":"02-1111-1111","addr":"경기도 광주시 역동 16-1번지 2층","indutype":"레저업소 - 기타레져업소","category":"leisure"}]},{"lat":"37.39972698","long":"127.2482265","imageIndex":13,"items":[{"name":"필라테스 율","tel":"","addr":"경기도 광주시 역동 244번지 이편한세상광주역2단지 602호","indutype":"레저업소 - 헬스클럽","category":"leisure"}]},{"lat":"37.40778429","long":"127.2598639","imageIndex":13,"items":[{"name":"해피노래연습장","tel":"","addr":"경기도 광주시 역동 25-21번지 2층","indutype":"레저업소 - 노 래 방","category":"leisure"}]},{"lat":"37.39294753","long":"127.2500902","imageIndex":13,"items":[{"name":"훈민당구장","tel":"031-764-6633","addr":"경기도 광주시 역동 216-57번지","indutype":"레저업소 - 당 구 장","category":"leisure"}]}]