[{"lat":"37.800847928","long":"127.07746968","imageIndex":16,"items":[{"name":"거꾸로수학","tel":"000-000-0000","addr":"경기도 양주시 고읍동 455번지 산내들마을우남퍼스트빌 105동 1102호","indutype":"학원 - 보습학원","category":"study"}]},{"lat":"37.80047573","long":"127.081784","imageIndex":16,"items":[{"name":"그림숲미술","tel":"070-7405-0531","addr":"경기도 양주시 고읍동 446-7번지 3층","indutype":"학원 - 예·체능계학원","category":"study"}]},{"lat":"37.796946252","long":"127.07837407","imageIndex":16,"items":[{"name":"로제타스톤영어교실고읍교습소","tel":"031-825-3855","addr":"경기도 양주시 고읍동 452번지 산내들마을휴먼시아 상가동 204호","indutype":"학원 - 외국어학원","category":"study"},{"name":"수학의달인수학교습소","tel":"031-821-0333","addr":"경기도 양주시 고읍동 452번지 산내들마을휴먼시아 203호","indutype":"회원제형태 - 학원","category":"study"}]},{"lat":"37.800034744","long":"127.0810682","imageIndex":16,"items":[{"name":"뮤엠영어교습소","tel":"031-846-0582","addr":"경기도 양주시 고읍동 448번지","indutype":"학원 - 보습학원","category":"study"}]},{"lat":"37.799340773","long":"127.08143081","imageIndex":16,"items":[{"name":"소리사랑음악학원","tel":"031-858-2150","addr":"경기도 양주시 고읍동 450-4번지","indutype":"회원제형태 - 학원","category":"study"}]},{"lat":"37.804669881","long":"127.07433952","imageIndex":16,"items":[{"name":"스피드자동차운전학원","tel":"031-1577-4387","addr":"경기도 양주시 고읍동 262-15번지 16.20","indutype":"학원 - 기능학원","category":"study"}]},{"lat":"37.801866789","long":"127.07621034","imageIndex":16,"items":[{"name":"양주 고읍 유도체육관","tel":"031-848-9578","addr":"경기도 양주시 고읍동 127-1번지 2층","indutype":"학원 - 예·체능계학원","category":"study"}]},{"lat":"37.804754132","long":"127.08340097","imageIndex":16,"items":[{"name":"엔젤스포츠","tel":"031-792-8544","addr":"경기도 양주시 고읍동 20-11번지","indutype":"학원 - 기타 교육기관","category":"study"}]},{"lat":"37.801838216","long":"127.07865156","imageIndex":16,"items":[{"name":"와이에이치에스해법에듀고읍학원","tel":"031-848-1018","addr":"경기도 양주시 고읍동 439-2번지 세진빌딩 2층 201호","indutype":"학원 - 보습학원","category":"study"},{"name":"크리크리창의보드통합사고력학원","tel":"031-847-4242","addr":"경기도 양주시 고읍동 439-2번지 세진빌딩 402호","indutype":"학원 - 보습학원","category":"study"}]},{"lat":"37.803922494","long":"127.07368021","imageIndex":16,"items":[{"name":"키움스포츠","tel":"031-821-4429","addr":"경기도 양주시 고읍동 420-2번지","indutype":"학원 - 예·체능계학원","category":"study"}]},{"lat":"37.800927011","long":"127.08056954","imageIndex":16,"items":[{"name":"티에스 (T.S)영수학원","tel":"031-840-1618","addr":"경기도 양주시 고읍동 77번지 제상가동 2층 206호","indutype":"학원 - 보습학원","category":"study"}]}]