[{"lat":"37.770592103","long":"126.8915623","imageIndex":17,"items":[{"name":"(주)우전기획","tel":"031-948-1476","addr":"경기도 파주시 광탄면 마장리 70-5번지","indutype":"건축자재 - 인테리어전문","category":"other"},{"name":"주식회사 퍼스트플랜","tel":"031-911-5535","addr":"경기도 파주시 광탄면 마장리 70-5번지","indutype":"건축자재 - 인테리어전문","category":"other"}]},{"lat":"37.778282378","long":"126.87870138","imageIndex":17,"items":[{"name":"(주)유경씨앤씨","tel":"070-8639-1153","addr":"경기도 파주시 광탄면 마장리 408-37번지","indutype":"신변잡화 - 기타잡화","category":"other"},{"name":"유경산업","tel":"031-000-0000","addr":"경기도 파주시 광탄면 마장리 408-37번지","indutype":"의류 - 정장","category":"other"},{"name":"주식회사 위스트몰","tel":"031-556-1145","addr":"경기도 파주시 광탄면 마장리 408-37번지","indutype":"전기제품 - 가전제품","category":"other"}]},{"lat":"37.773475868","long":"126.8923298","imageIndex":17,"items":[{"name":"(주)화인하우스","tel":"031-948-1414","addr":"경기도 파주시 광탄면 마장리 35-23번지","indutype":"가구 - 일반가구","category":"other"}]},{"lat":"37.778868258","long":"126.87895012","imageIndex":17,"items":[{"name":"GS25마장사랑점","tel":"","addr":"경기도 파주시 광탄면 마장리 409번지","indutype":"유통업 영리 - 편 의 점","category":"other"}]},{"lat":"37.77950714","long":"126.87819987","imageIndex":17,"items":[{"name":"K.K건축자재","tel":"031-948-5777","addr":"경기도 파주시 광탄면 마장리 408-31번지","indutype":"건축자재 - 기타건축자재","category":"other"}]},{"lat":"37.771146723","long":"126.89703215","imageIndex":17,"items":[{"name":"강남구제","tel":"031-934-1534","addr":"경기도 파주시 광탄면 마장리 24-14번지","indutype":"신변잡화 - 기타잡화","category":"other"}]},{"lat":"37.774063422","long":"126.88503061","imageIndex":17,"items":[{"name":"경기종합상사","tel":"031-948-2863","addr":"경기도 파주시 광탄면 마장리 99-1번지","indutype":"건축자재 - 기타건축자재","category":"other"}]},{"lat":"37.77731629","long":"126.87675064","imageIndex":17,"items":[{"name":"깔끔중고가전","tel":"031-947-1931","addr":"경기도 파주시 광탄면 마장리 429-5번지","indutype":"전기제품 - 가전제품","category":"other"}]},{"lat":"37.780229479","long":"126.87136515","imageIndex":17,"items":[{"name":"나무다움","tel":"031-943-3511","addr":"경기도 파주시 광탄면 마장리 347-7번지","indutype":"가구 - 일반가구","category":"other"}]},{"lat":"37.784676113","long":"126.86778138","imageIndex":17,"items":[{"name":"대광 파이프 산업","tel":"031-862-1220","addr":"경기도 파주시 광탄면 마장리 306-11번지","indutype":"건축자재 - 기타건축자재","category":"other"}]},{"lat":"37.774478932","long":"126.88610824","imageIndex":17,"items":[{"name":"대한산업","tel":"031-948-3289","addr":"경기도 파주시 광탄면 마장리 105-5번지","indutype":"문화.취미 - 민예·공예품","category":"other"}]},{"lat":"37.778760549","long":"126.87933624","imageIndex":17,"items":[{"name":"덕산공예","tel":"031-942-3946","addr":"경기도 파주시 광탄면 마장리 409-8","indutype":"문화.취미 - 민예·공예품","category":"other"}]},{"lat":"37.78858905","long":"126.87852519","imageIndex":17,"items":[{"name":"동화랜드","tel":"031-947-2350","addr":"경기도 파주시 광탄면 마장리 209-8번지","indutype":"건축자재 - 목재·석재·철물","category":"other"}]},{"lat":"37.77403892","long":"126.88758449","imageIndex":17,"items":[{"name":"럭키정밀/원격지","tel":"031-943-0544","addr":"경기도 파주시 광탄면 마장리 46-4","indutype":"기타 - 기타 전문점","category":"other"}]},{"lat":"37.777725702","long":"126.88052981","imageIndex":17,"items":[{"name":"미니스톱파주마장점","tel":"111-1111-111","addr":"경기도 파주시 광탄면 마장리 413-1","indutype":"유통업 영리 - 편 의 점","category":"other"}]},{"lat":"37.783918522","long":"126.86709029","imageIndex":17,"items":[{"name":"순호기업","tel":"031-946-4816","addr":"경기도 파주시 광탄면 마장리 311번지","indutype":"건축자재 - 목재·석재·철물","category":"other"}]},{"lat":"37.771146325","long":"126.8965895","imageIndex":17,"items":[{"name":"에스닉 스타일","tel":"031-943-2748","addr":"경기도 파주시 광탄면 마장리 24-13번지","indutype":"가구 - 기타가구","category":"other"}]},{"lat":"37.790362214","long":"126.87692146","imageIndex":17,"items":[{"name":"주식회사 보미","tel":"031-957-5704","addr":"경기도 파주시 광탄면 마장리 201-7번지","indutype":"가구 - 일반가구","category":"other"}]},{"lat":"37.787007961","long":"126.88294392","imageIndex":17,"items":[{"name":"주식회사 아르몽","tel":"031-945-3223","addr":"경기도 파주시 광탄면 마장리 180-18번지","indutype":"가구 - 일반가구","category":"other"}]},{"lat":"37.78814496","long":"126.87606243","imageIndex":17,"items":[{"name":"주식회사 전영일공방","tel":"031-941-9138","addr":"경기도 파주시 광탄면 마장리 219-5번지","indutype":"문화.취미 - 민예·공예품","category":"other"}]},{"lat":"37.790701207","long":"126.87381018","imageIndex":17,"items":[{"name":"주식회사마인","tel":"031-947-4004","addr":"경기도 파주시 광탄면 마장리 261-3번지","indutype":"건축자재 - 목재·석재·철물","category":"other"}]},{"lat":"37.78580868","long":"126.88194687","imageIndex":17,"items":[{"name":"태성","tel":"031-943-9561","addr":"경기도 파주시 광탄면 마장리 177-2번지","indutype":"건축자재 - 목재·석재·철물","category":"other"}]},{"lat":"37.781176585","long":"126.8723624","imageIndex":17,"items":[{"name":"투르윈","tel":"031-947-3042","addr":"경기도 파주시 광탄면 마장리 351-4","indutype":"신변잡화 - 가방","category":"other"}]},{"lat":"37.771621372","long":"126.88455778","imageIndex":17,"items":[{"name":"파주힐링 캠핑","tel":"031-948-7737","addr":"경기도 파주시 광탄면 마장리 78-2번지","indutype":"용역 서비스 - 종합용역","category":"other"}]},{"lat":"37.771534009","long":"126.89689539","imageIndex":17,"items":[{"name":"하나정보통신","tel":"031-942-0092","addr":"경기도 파주시 광탄면 마장리 20-16","indutype":"사무통신 - 통신기기","category":"other"}]}]