[{"lat":"37.246635447","long":"127.36708696","imageIndex":4,"items":[{"name":"(주)수푸드","tel":"031-769-1343","addr":"경기도 이천시 마장면 이치리 384-43번지 1층","indutype":"일반휴게음식 - 일반한식","category":"restaurant"}]},{"lat":"37.246914823","long":"127.3728815","imageIndex":4,"items":[{"name":"coffee하우스","tel":"070-7723-2415","addr":"경기도 이천시 마장면 이치리 460-10번지 1동","indutype":"일반휴게음식 - 서양음식","category":"restaurant"}]},{"lat":"37.247471724","long":"127.3734365","imageIndex":4,"items":[{"name":"가마솥 보리밥집","tel":"031-632-8689","addr":"경기도 이천시 마장면 이치리 460-9번지 1층","indutype":"일반휴게음식 - 일반한식","category":"restaurant"},{"name":"크레마 빈(CREMA BEAN COFFEE)","tel":"031-632-8689","addr":"경기도 이천시 마장면 이치리 460-9번지","indutype":"일반휴게음식 - 서양음식","category":"restaurant"}]},{"lat":"37.247166017","long":"127.36152171","imageIndex":4,"items":[{"name":"떡볶이가족","tel":"031-000-0000","addr":"경기도 이천시 마장면 이치리 363-5번지 8호","indutype":"일반휴게음식 - 스넥","category":"restaurant"},{"name":"청춘통닭","tel":"","addr":"경기도 이천시 마장면 이치리 363-5번지 7호","indutype":"일반휴게음식 - 스넥","category":"restaurant"}]},{"lat":"37.246525903","long":"127.36754853","imageIndex":4,"items":[{"name":"미소짬뽕","tel":"031-632-2329","addr":"경기도 이천시 마장면 이치리 384-2번지","indutype":"일반휴게음식 - 중국식","category":"restaurant"},{"name":"태능숯불갈비","tel":"031-635-2828","addr":"경기도 이천시 마장면 이치리 384-2번지","indutype":"일반휴게음식 - 일반한식","category":"restaurant"}]},{"lat":"37.247444222","long":"127.37069754","imageIndex":4,"items":[{"name":"새마을한식부페","tel":"031-631-6200","addr":"경기도 이천시 마장면 이치리 397-1번지","indutype":"일반휴게음식 - 일반한식","category":"restaurant"}]},{"lat":"37.246634857","long":"127.36727856","imageIndex":4,"items":[{"name":"세명감자탕","tel":"031-632-5435","addr":"경기도 이천시 마장면 이치리 384-44번지","indutype":"일반휴게음식 - 일반한식","category":"restaurant"}]},{"lat":"37.249636729","long":"127.37549846","imageIndex":4,"items":[{"name":"여왕해물찜","tel":"031-635-2020","addr":"경기도 이천시 마장면 이치리 517-2번지 B동","indutype":"일반휴게음식 - 일반한식","category":"restaurant"}]},{"lat":"37.249330987","long":"127.37530534","imageIndex":4,"items":[{"name":"우가네한식부페","tel":"031-632-1236","addr":"경기도 이천시 마장면 이치리 517번지","indutype":"일반휴게음식 - 일반한식","category":"restaurant"},{"name":"우리집식당","tel":"031-631-5803","addr":"경기도 이천시 마장면 이치리 517번지","indutype":"일반휴게음식 - 일반한식","category":"restaurant"}]},{"lat":"37.246636071","long":"127.36688409","imageIndex":4,"items":[{"name":"원막국수.만두","tel":"031-635-3533","addr":"경기도 이천시 마장면 이치리 384-18번지","indutype":"일반휴게음식 - 일반한식","category":"restaurant"}]},{"lat":"37.248274435","long":"127.36147061","imageIndex":4,"items":[{"name":"유부장 모둠 조개칼국수","tel":"","addr":"경기도 이천시 마장면 이치리 363-1번지 1층","indutype":"일반휴게음식 - 일반한식","category":"restaurant"}]},{"lat":"37.246798536","long":"127.37261043","imageIndex":4,"items":[{"name":"이조뼈감자탕해장국전문","tel":"031-632-1566","addr":"경기도 이천시 마장면 이치리 407-1번지 A동","indutype":"일반휴게음식 - 일반한식","category":"restaurant"}]},{"lat":"37.246580629","long":"127.36439298","imageIndex":4,"items":[{"name":"천미가","tel":"031-632-7025","addr":"경기도 이천시 마장면 이치리 361번지","indutype":"일반휴게음식 - 일반한식","category":"restaurant"}]},{"lat":"37.246081484","long":"127.36260983","imageIndex":4,"items":[{"name":"커피상회","tel":"031-633-9188","addr":"경기도 이천시 마장면 이치리 363-30번지","indutype":"일반휴게음식 - 서양음식","category":"restaurant"}]}]