[{"lat":"37.291400597","long":"126.84338427","imageIndex":0,"items":[{"name":"(주)대명필름","tel":"031-419-9997","addr":"경기도 안산시 상록구 사동 1355-7번지 성원빌딩 1층","indutype":"자동차정비 유지 - 자동차부품","category":"car"}]},{"lat":"37.278180427","long":"126.84857636","imageIndex":0,"items":[{"name":"(주)대신카독크","tel":"031-415-9393","addr":"경기도 안산시 상록구 사동 1490-4번지","indutype":"자동차정비 유지 - 자동차정비","category":"car"}]},{"lat":"37.290786914","long":"126.82985268","imageIndex":0,"items":[{"name":"(주)레코디아","tel":"031-409-3280","addr":"경기도 안산시 상록구 사동 1271-11번지 경기테크노파크아이티센터 601,602호","indutype":"자동차정비 유지 - 자동차부품","category":"car"},{"name":"(주)크라운","tel":"031-500-4230","addr":"경기도 안산시 상록구 사동 1271-11번지 경기테크노파크지원편의동 3동 319호","indutype":"자동차정비 유지 - 자동차부품","category":"car"}]},{"lat":"37.281067322","long":"126.84448857","imageIndex":0,"items":[{"name":"(주)반월카독크","tel":"031-418-2900","addr":"경기도 안산시 상록구 사동 1496-19번지 2층","indutype":"자동차정비 유지 - 자동차정비","category":"car"},{"name":"CASTLE NINE","tel":"070-8808-7251","addr":"경기도 안산시 상록구 사동 1496-19번지","indutype":"자동차정비 유지 - 자동차부품","category":"car"}]},{"lat":"37.281007127","long":"126.84665368","imageIndex":0,"items":[{"name":"(주)수원종합폐차장/안산지점","tel":"031-408-8888","addr":"경기도 안산시 상록구 사동 1496-11번지","indutype":"자동차정비 유지 - 자동차부품","category":"car"},{"name":"정석모터스","tel":"031-417-8272","addr":"경기도 안산시 상록구 사동 1496-11번지","indutype":"자동차정비 유지 - 자동차정비","category":"car"}]},{"lat":"37.300956487","long":"126.84046541","imageIndex":0,"items":[{"name":"(주)에이앤모터스","tel":"031-409-1444","addr":"경기도 안산시 상록구 사동 1171-1번지 상가 101호","indutype":"자동차판매 - 이륜차판매","category":"car"},{"name":"레드바이크","tel":"031-501-5553","addr":"경기도 안산시 상록구 사동 1171-1번지 101호","indutype":"자동차판매 - 이륜차판매","category":"car"}]},{"lat":"37.280455259","long":"126.84496344","imageIndex":0,"items":[{"name":"(주)에이치엠정비공업사","tel":"031-419-2227","addr":"경기도 안산시 상록구 사동 1495-18번지","indutype":"자동차정비 유지 - 자동차정비","category":"car"}]},{"lat":"37.279098204","long":"126.84760478","imageIndex":0,"items":[{"name":"(주)태양자동차정비","tel":"031-415-0008","addr":"경기도 안산시 상록구 사동 1488-10번지","indutype":"자동차정비 유지 - 자동차정비","category":"car"}]},{"lat":"37.280705777","long":"126.8504881","imageIndex":0,"items":[{"name":"(주)현대중앙","tel":"031-407-4592","addr":"경기도 안산시 상록구 사동 1482-7번지","indutype":"자동차정비 유지 - 자동차부품","category":"car"}]},{"lat":"37.30356645","long":"126.84490385","imageIndex":0,"items":[{"name":"3마일케미컬&오일서비스","tel":"070-8241-9510","addr":"경기도 안산시 상록구 사동 1544번지","indutype":"자동차정비 유지 - 자동차부품","category":"car"}]},{"lat":"37.280209749","long":"126.85012828","imageIndex":0,"items":[{"name":"FM모터스","tel":"031-319-2524","addr":"경기도 안산시 상록구 사동 1481-8 1,2층","indutype":"자동차정비 유지 - 세차장","category":"car"},{"name":"삼성모터스","tel":"031-406-3010","addr":"경기도 안산시 상록구 사동 1481-8번지","indutype":"자동차정비 유지 - 자동차정비","category":"car"}]},{"lat":"37.302901061","long":"126.85287964","imageIndex":0,"items":[{"name":"KDC자동차외형관리","tel":"031-415-7772","addr":"경기도 안산시 상록구 사동 1209-2번지 101호","indutype":"자동차정비 유지 - 카인테리어","category":"car"},{"name":"선진차바닥","tel":"031-406-0090","addr":"경기도 안산시 상록구 사동 1209-2번지","indutype":"자동차정비 유지 - 자동차부품","category":"car"},{"name":"스팀몬스터","tel":"070-4214-5077","addr":"경기도 안산시 상록구 사동 1209-2번지 101호","indutype":"자동차정비 유지 - 세차장","category":"car"}]},{"lat":"37.285423032","long":"126.84732114","imageIndex":0,"items":[{"name":"TM모터스","tel":"031-417-7722","addr":"경기도 안산시 상록구 사동 1388번지","indutype":"자동차정비 유지 - 자동차정비","category":"car"}]},{"lat":"37.279899863","long":"126.84741144","imageIndex":0,"items":[{"name":"TUNIST(튜니스트)","tel":"031-408-7548","addr":"경기도 안산시 상록구 사동 1487번지","indutype":"자동차정비 유지 - 자동차정비","category":"car"},{"name":"프로스 (PROSS)","tel":"","addr":"경기도 안산시 상록구 사동 1487번지","indutype":"자동차정비 유지 - 자동차부품","category":"car"}]},{"lat":"37.280981121","long":"126.84743177","imageIndex":0,"items":[{"name":"경기자동차정비","tel":"031-417-9977","addr":"경기도 안산시 상록구 사동 1485-11번지","indutype":"자동차정비 유지 - 자동차정비","category":"car"}]},{"lat":"37.279315835","long":"126.84866424","imageIndex":0,"items":[{"name":"경동모터스","tel":"031-408-5200","addr":"경기도 안산시 상록구 사동 1488-5번지","indutype":"자동차정비 유지 - 자동차정비","category":"car"},{"name":"탑솔루션","tel":"","addr":"경기도 안산시 상록구 사동 1488-5번지","indutype":"자동차정비 유지 - 견인서비스","category":"car"}]},{"lat":"37.27795473","long":"126.84823855","imageIndex":0,"items":[{"name":"경동보링공업사","tel":"031-417-6294","addr":"경기도 안산시 상록구 사동 1490-6번지","indutype":"자동차정비 유지 - 자동차정비","category":"car"}]},{"lat":"37.292093973","long":"126.84307831","imageIndex":0,"items":[{"name":"고수카센타","tel":"031-418-1561","addr":"경기도 안산시 상록구 사동 1355-2번지","indutype":"자동차정비 유지 - 자동차정비","category":"car"}]},{"lat":"37.280316045","long":"126.84871858","imageIndex":0,"items":[{"name":"군자자동차공업사","tel":"031-417-9400","addr":"경기도 안산시 상록구 사동 1486-6번지","indutype":"자동차정비 유지 - 자동차정비","category":"car"}]},{"lat":"37.302979388","long":"126.85071387","imageIndex":0,"items":[{"name":"그랑프리","tel":"031-502-7878","addr":"경기도 안산시 상록구 사동 1200-5번지 1층","indutype":"자동차정비 유지 - 자동차부품","category":"car"}]},{"lat":"37.294761434","long":"126.85738445","imageIndex":0,"items":[{"name":"그린 배터리","tel":"","addr":"경기도 안산시 상록구 사동 1338-6번지 103호","indutype":"자동차정비 유지 - 자동차부품","category":"car"}]},{"lat":"37.286980493","long":"126.84632558","imageIndex":0,"items":[{"name":"그린모터스","tel":"031-503-4772","addr":"경기도 안산시 상록구 사동 1376-4번지","indutype":"자동차정비 유지 - 자동차정비","category":"car"}]},{"lat":"37.281067699","long":"126.84477047","imageIndex":0,"items":[{"name":"그린자동차정비(주)","tel":"031-407-6000","addr":"경기도 안산시 상록구 사동 1496-18번지","indutype":"자동차정비 유지 - 자동차정비","category":"car"},{"name":"현대모터스","tel":"031-415-6600","addr":"경기도 안산시 상록구 사동 1496-18번지","indutype":"자동차정비 유지 - 자동차정비","category":"car"}]},{"lat":"37.280341365","long":"126.84741053","imageIndex":0,"items":[{"name":"그린카모터스","tel":"031-408-1915","addr":"경기도 안산시 상록구 사동 1486-11번지 1층","indutype":"자동차정비 유지 - 자동차정비","category":"car"}]},{"lat":"37.30311738","long":"126.84598759","imageIndex":0,"items":[{"name":"그린카서비스","tel":"031-415-8454","addr":"경기도 안산시 상록구 사동 1182번지","indutype":"자동차정비 유지 - 자동차정비","category":"car"}]},{"lat":"37.302505823","long":"126.84015754","imageIndex":0,"items":[{"name":"그린하우스","tel":"031-419-7926","addr":"경기도 안산시 상록구 사동 1578-13번지 101호","indutype":"자동차정비 유지 - 자동차부품","category":"car"}]},{"lat":"37.303039405","long":"126.84835639","imageIndex":0,"items":[{"name":"기아카클리닉사동점","tel":"031-416-8582","addr":"경기도 안산시 상록구 사동 1186번지","indutype":"자동차정비 유지 - 자동차정비","category":"car"}]},{"lat":"37.285621079","long":"126.84718542","imageIndex":0,"items":[{"name":"나이스외형복원","tel":"031-409-7282","addr":"경기도 안산시 상록구 사동 1386-6번지","indutype":"자동차정비 유지 - 카인테리어","category":"car"}]},{"lat":"37.280647016","long":"126.84687994","imageIndex":0,"items":[{"name":"남부카센터","tel":"031-409-0235","addr":"경기도 안산시 상록구 사동 1495-7번지","indutype":"자동차정비 유지 - 자동차정비","category":"car"},{"name":"대한자동차유리","tel":"031-410-2400","addr":"경기도 안산시 상록구 사동 1495-7번지 사동","indutype":"자동차정비 유지 - 자동차정비","category":"car"}]},{"lat":"37.296398647","long":"126.84818953","imageIndex":0,"items":[{"name":"대광자동차공업사","tel":"031-415-0078","addr":"경기도 안산시 상록구 사동 1294-16번지","indutype":"자동차정비 유지 - 자동차정비","category":"car"}]},{"lat":"37.29628632","long":"126.85191157","imageIndex":0,"items":[{"name":"대덕정비공업사","tel":"031-502-3233","addr":"경기도 안산시 상록구 사동 1304-5번지","indutype":"자동차정비 유지 - 자동차정비","category":"car"}]},{"lat":"37.299895892","long":"126.85626924","imageIndex":0,"items":[{"name":"대성자동차부분정비공","tel":"031-416-4544","addr":"경기도 안산시 상록구 사동 1241-12번지","indutype":"자동차정비 유지 - 자동차정비","category":"car"}]},{"lat":"37.280621008","long":"126.84765803","imageIndex":0,"items":[{"name":"대성차유리","tel":"031-408-9082","addr":"경기도 안산시 상록구 사동 1486-1번지","indutype":"자동차정비 유지 - 자동차부품","category":"car"},{"name":"주식회사신종합정비","tel":"031-407-0053","addr":"경기도 안산시 상록구 사동 1486-1번지","indutype":"자동차정비 유지 - 자동차정비","category":"car"}]},{"lat":"37.279648773","long":"126.84832529","imageIndex":0,"items":[{"name":"대신카독크","tel":"031-415-9393","addr":"경기도 안산시 상록구 사동 1487-6번지","indutype":"자동차정비 유지 - 자동차정비","category":"car"},{"name":"세림자동차","tel":"031-415-9393","addr":"경기도 안산시 상록구 사동 1487-6번지","indutype":"자동차정비 유지 - 자동차정비","category":"car"}]},{"lat":"37.299762988","long":"126.85809665","imageIndex":0,"items":[{"name":"대우바로정비상록수코너","tel":"031-408-8225","addr":"경기도 안산시 상록구 사동 1250-1번지","indutype":"자동차정비 유지 - 자동차정비","category":"car"}]},{"lat":"37.287979041","long":"126.84512815","imageIndex":0,"items":[{"name":"대우사","tel":"031-418-4071","addr":"경기도 안산시 상록구 사동 1371-4번지","indutype":"자동차정비 유지 - 자동차부품","category":"car"}]},{"lat":"37.28092877","long":"126.84873989","imageIndex":0,"items":[{"name":"대우자동차안산정비센타(주)","tel":"031-419-8255","addr":"경기도 안산시 상록구 사동 1485-6번지","indutype":"자동차정비 유지 - 자동차정비","category":"car"}]},{"lat":"37.279980258","long":"126.84688131","imageIndex":0,"items":[{"name":"대일자동차정비","tel":"031-416-3340","addr":"경기도 안산시 상록구 사동 1495-10번지","indutype":"자동차정비 유지 - 자동차정비","category":"car"}]},{"lat":"37.293872284","long":"126.82042861","imageIndex":0,"items":[{"name":"대한상사","tel":"031-401-5056","addr":"경기도 안산시 상록구 사동 1511번지 안산고잔9차푸르지오 902동 703호","indutype":"자동차정비 유지 - 가타자동차서비스","category":"car"}]},{"lat":"37.282846358","long":"126.84751814","imageIndex":0,"items":[{"name":"대현카서비스","tel":"031-417-9937","addr":"경기도 안산시 상록구 사동 1418-5번지","indutype":"자동차정비 유지 - 자동차정비","category":"car"}]},{"lat":"37.302901446","long":"126.85318418","imageIndex":0,"items":[{"name":"동명카서비스","tel":"031-417-5109","addr":"경기도 안산시 상록구 사동 1209-4번지","indutype":"자동차정비 유지 - 자동차정비","category":"car"},{"name":"틴트어카 안산상록점","tel":"031-438-7778","addr":"경기도 안산시 상록구 사동 1209-4번지","indutype":"자동차정비 유지 - 카인테리어","category":"car"}]},{"lat":"37.285536939","long":"126.84488516","imageIndex":0,"items":[{"name":"동부상사","tel":"031-419-5224","addr":"경기도 안산시 상록구 사동 1381-2번지","indutype":"자동차정비 유지 - 자동차부품","category":"car"}]},{"lat":"37.279674563","long":"126.84737808","imageIndex":0,"items":[{"name":"동산자동차유리","tel":"031-419-0304","addr":"경기도 안산시 상록구 사동 1487-9번지","indutype":"자동차정비 유지 - 자동차부품","category":"car"},{"name":"미래자동차정비","tel":"031-407-2000","addr":"경기도 안산시 상록구 사동 1487-9번지","indutype":"자동차정비 유지 - 자동차정비","category":"car"}]},{"lat":"37.281234427","long":"126.84820929","imageIndex":0,"items":[{"name":"동양실린더헤드","tel":"031-408-2270","addr":"경기도 안산시 상록구 사동 1485-3번지 2층","indutype":"자동차정비 유지 - 자동차부품","category":"car"}]},{"lat":"37.280980468","long":"126.84693563","imageIndex":0,"items":[{"name":"동해모터스","tel":"031-520-5151","addr":"경기도 안산시 상록구 사동 1496-10번지","indutype":"자동차정비 유지 - 자동차정비","category":"car"}]},{"lat":"37.295067878","long":"126.8574628","imageIndex":0,"items":[{"name":"동호자동차정비","tel":"031-419-5152","addr":"경기도 안산시 상록구 사동 1338-4번지 프로미월드 1층","indutype":"자동차정비 유지 - 자동차정비","category":"car"}]},{"lat":"37.303865242","long":"126.84599732","imageIndex":0,"items":[{"name":"두꺼비타운","tel":"03-111-1111","addr":"경기도 안산시 상록구 사동 1542번지","indutype":"자동차정비 유지 - 주차장","category":"car"}]},{"lat":"37.30225761","long":"126.83660516","imageIndex":0,"items":[{"name":"디비튠(DB TUNE)","tel":"031-407-1576","addr":"경기도 안산시 상록구 사동 1561-3번지","indutype":"자동차정비 유지 - 자동차부품","category":"car"},{"name":"영동상사","tel":"031-408-9366","addr":"경기도 안산시 상록구 사동 1561-3번지 1층 101호","indutype":"자동차정비 유지 - 자동차부품","category":"car"}]},{"lat":"37.301227705","long":"126.84113029","imageIndex":0,"items":[{"name":"라이프카정비센타","tel":"031-415-7990","addr":"경기도 안산시 상록구 사동 1171-6번지","indutype":"자동차정비 유지 - 자동차정비","category":"car"}]},{"lat":"37.28795276","long":"126.84569205","imageIndex":0,"items":[{"name":"랑데뷰카오디오","tel":"031-505-9100","addr":"경기도 안산시 상록구 사동 1372-5번지 전체 1층","indutype":"자동차정비 유지 - 카인테리어","category":"car"}]},{"lat":"37.281312087","long":"126.84560438","imageIndex":0,"items":[{"name":"럭키자동차공업사","tel":"031-438-7774","addr":"경기도 안산시 상록구 사동 1496-4번지","indutype":"자동차정비 유지 - 자동차정비","category":"car"}]},{"lat":"37.281399884","long":"126.84387897","imageIndex":0,"items":[{"name":"르노삼성자동차 서비스코너 사동점","tel":"031-416-5195","addr":"경기도 안산시 상록구 사동 1497-1번지","indutype":"자동차정비 유지 - 자동차정비","category":"car"}]},{"lat":"37.285315102","long":"126.84746796","imageIndex":0,"items":[{"name":"메이저카안산점","tel":"031-418-9967","addr":"경기도 안산시 상록구 사동 1388-2번지 은혜빌딩 1동 101호","indutype":"자동차정비 유지 - 자동차시트·타이어","category":"car"}]},{"lat":"37.282341785","long":"126.84751918","imageIndex":0,"items":[{"name":"명음카오디오","tel":"031-418-9597","addr":"경기도 안산시 상록구 사동 1418-9번지","indutype":"자동차정비 유지 - 자동차부품","category":"car"}]},{"lat":"37.301564496","long":"126.85049114","imageIndex":0,"items":[{"name":"명진공업사","tel":"031-502-0980","addr":"경기도 안산시 상록구 사동 1197-6","indutype":"자동차정비 유지 - 세차장","category":"car"}]},{"lat":"37.278513836","long":"126.84859823","imageIndex":0,"items":[{"name":"모비스자동차정비 주식회사","tel":"031-416-1157","addr":"경기도 안산시 상록구 사동 1489-6번지","indutype":"자동차정비 유지 - 자동차정비","category":"car"}]},{"lat":"37.279900661","long":"126.84802033","imageIndex":0,"items":[{"name":"모터테크","tel":"031-406-7200","addr":"경기도 안산시 상록구 사동 1487-2번지","indutype":"자동차정비 유지 - 자동차정비","category":"car"}]},{"lat":"37.300510877","long":"126.85812905","imageIndex":0,"items":[{"name":"모토스토리","tel":"031-407-7780","addr":"경기도 안산시 상록구 사동 1248-19번지 1층","indutype":"자동차판매 - 이륜차판매","category":"car"}]},{"lat":"37.302482313","long":"126.84954184","imageIndex":0,"items":[{"name":"미래세차장","tel":"","addr":"경기도 안산시 상록구 사동 1187-2번지","indutype":"자동차정비 유지 - 세차장","category":"car"}]},{"lat":"37.302230027","long":"126.84954236","imageIndex":0,"items":[{"name":"미래카세차장","tel":"031-418-8267","addr":"경기도 안산시 상록구 사동 1187-4번지","indutype":"자동차정비 유지 - 세차장","category":"car"},{"name":"미래카인테리어","tel":"031-408-5462","addr":"경기도 안산시 상록구 사동 1187-4번지","indutype":"자동차정비 유지 - 자동차정비","category":"car"}]},{"lat":"37.283096188","long":"126.84565705","imageIndex":0,"items":[{"name":"미스터 배터리","tel":"","addr":"경기도 안산시 상록구 사동 1429번지 사르리빌 402호","indutype":"자동차정비 유지 - 자동차부품","category":"car"}]},{"lat":"37.285873187","long":"126.84704958","imageIndex":0,"items":[{"name":"브이아이피(VIP)스팀세차장","tel":"070-8182-5112","addr":"경기도 안산시 상록구 사동 1386-4번지 1층 2,3호","indutype":"자동차정비 유지 - 세차장","category":"car"}]},{"lat":"37.299366511","long":"126.85807485","imageIndex":0,"items":[{"name":"블랙박스서비스","tel":"031-407-2140","addr":"경기도 안산시 상록구 사동 1250-4번지 101호","indutype":"자동차정비 유지 - 자동차부품","category":"car"}]},{"lat":"37.295063148","long":"126.85366211","imageIndex":0,"items":[{"name":"사동남부점 기아오토큐","tel":"031-417-9985","addr":"경기도 안산시 상록구 사동 1321-7번지","indutype":"자동차정비 유지 - 카인테리어","category":"car"}]},{"lat":"37.299618825","long":"126.85809693","imageIndex":0,"items":[{"name":"사동점현대자동차","tel":"031-406-0095","addr":"경기도 안산시 상록구 사동 1250-2번지","indutype":"자동차정비 유지 - 자동차정비","category":"car"}]},{"lat":"37.2959231","long":"126.84291232","imageIndex":0,"items":[{"name":"사동중앙점현대자동차","tel":"031-408-8572","addr":"경기도 안산시 상록구 사동 1275-10번지","indutype":"자동차정비 유지 - 자동차정비","category":"car"}]},{"lat":"37.27987447","long":"126.84866311","imageIndex":0,"items":[{"name":"삼양자동차공업사","tel":"031-407-0071","addr":"경기도 안산시 상록구 사동 1487-4번지","indutype":"자동차정비 유지 - 자동차정비","category":"car"}]},{"lat":"37.295287033","long":"126.85257897","imageIndex":0,"items":[{"name":"상록라이프","tel":"031-418-9995","addr":"경기도 안산시 상록구 사동 1318-1번지 명진프라자 지하1층","indutype":"자동차정비 유지 - 주차장","category":"car"}]},{"lat":"37.301644012","long":"126.85637863","imageIndex":0,"items":[{"name":"상록중고타이어","tel":"031-417-1311","addr":"경기도 안산시 상록구 사동 1240번지","indutype":"자동차정비 유지 - 자동차시트·타이어","category":"car"}]},{"lat":"37.281148999","long":"126.85182905","imageIndex":0,"items":[{"name":"상신라이닝","tel":"031-407-4477","addr":"경기도 안산시 상록구 사동 1469-6번지 102호","indutype":"자동차정비 유지 - 자동차부품","category":"car"}]},{"lat":"37.280314985","long":"126.84790673","imageIndex":0,"items":[{"name":"상원자동차정비주식회사","tel":"031-419-1111","addr":"경기도 안산시 상록구 사동 1486-9번지","indutype":"자동차정비 유지 - 자동차정비","category":"car"}]},{"lat":"37.285288316","long":"126.85468503","imageIndex":0,"items":[{"name":"상일카센타","tel":"031-417-4377","addr":"경기도 안산시 상록구 사동 1396-5번지","indutype":"자동차정비 유지 - 자동차정비","category":"car"}]},{"lat":"37.301339885","long":"126.85818386","imageIndex":0,"items":[{"name":"샘골자동차정비공업사","tel":"031-409-8717","addr":"경기도 안산시 상록구 사동 1247-3번지","indutype":"자동차정비 유지 - 자동차정비","category":"car"}]},{"lat":"37.285061791","long":"126.8466904","imageIndex":0,"items":[{"name":"선호운수","tel":"031-502-0444","addr":"경기도 안산시 상록구 사동 1384-8번지","indutype":"자동차정비 유지 - 견인서비스","category":"car"}]},{"lat":"37.280707064","long":"126.84460208","imageIndex":0,"items":[{"name":"세기자동차정비주식회사","tel":"031-407-4800","addr":"경기도 안산시 상록구 사동 1495번지","indutype":"자동차정비 유지 - 자동차정비","category":"car"},{"name":"수성자동차유리","tel":"031-409-9044","addr":"경기도 안산시 상록구 사동 1495번지","indutype":"자동차정비 유지 - 자동차정비","category":"car"}]},{"lat":"37.301979009","long":"126.85052414","imageIndex":0,"items":[{"name":"세림자동차써비스","tel":"031-437-7473","addr":"경기도 안산시 상록구 사동 1198-6번지","indutype":"자동차정비 유지 - 자동차정비","category":"car"}]},{"lat":"37.303004583","long":"126.84929264","imageIndex":0,"items":[{"name":"쉐보레안산남부(주)","tel":"031-407-4400","addr":"경기도 안산시 상록구 사동 1186-6 (용신로244번지)","indutype":"자동차정비 유지 - 자동차부품","category":"car"}]},{"lat":"37.281260438","long":"126.8474312","imageIndex":0,"items":[{"name":"스피드메이트사동점","tel":"031-407-9981","addr":"경기도 안산시 상록구 사동 1485번지","indutype":"자동차정비 유지 - 자동차정비","category":"car"},{"name":"스피드메이트세차장","tel":"031-362-6001","addr":"경기도 안산시 상록구 사동 1485번지","indutype":"자동차정비 유지 - 세차장","category":"car"}]},{"lat":"37.278791811","long":"126.84757158","imageIndex":0,"items":[{"name":"승보모터스","tel":"031-502-1364","addr":"경기도 안산시 상록구 사동 1489-1번지","indutype":"자동차정비 유지 - 자동차정비","category":"car"}]},{"lat":"37.294534611","long":"126.84223858","imageIndex":0,"items":[{"name":"승연카서비스","tel":"031-407-9217","addr":"경기도 안산시 상록구 사동 1347번지 201호","indutype":"자동차정비 유지 - 자동차정비","category":"car"}]},{"lat":"37.284591898","long":"126.85260025","imageIndex":0,"items":[{"name":"신대지자동차정비","tel":"031-418-4268","addr":"경기도 안산시 상록구 사동 1409-10번지","indutype":"자동차정비 유지 - 자동차정비","category":"car"}]},{"lat":"37.289203542","long":"126.84446024","imageIndex":0,"items":[{"name":"쌍용샵","tel":"031-438-5582","addr":"경기도 안산시 상록구 사동 1365번지","indutype":"자동차정비 유지 - 자동차시트·타이어","category":"car"}]},{"lat":"37.277875485","long":"126.84965943","imageIndex":0,"items":[{"name":"안산기아상사","tel":"031-409-9042","addr":"경기도 안산시 상록구 사동 1475-4번지","indutype":"자동차정비 유지 - 자동차부품","category":"car"}]},{"lat":"37.302509657","long":"126.83643541","imageIndex":0,"items":[{"name":"안산드림모터스","tel":"031-409-6466","addr":"경기도 안산시 상록구 사동 1561-1번지","indutype":"자동차정비 유지 - 자동차정비","category":"car"}]},{"lat":"37.283563957","long":"126.85199337","imageIndex":0,"items":[{"name":"안산부품상사","tel":"031-417-0044","addr":"경기도 안산시 상록구 사동 1407-20번지","indutype":"자동차정비 유지 - 자동차부품","category":"car"}]},{"lat":"37.279340487","long":"126.84684881","imageIndex":0,"items":[{"name":"안산사동자동차공업사","tel":"031-408-2031","addr":"경기도 안산시 상록구 사동 1494-1번지","indutype":"자동차정비 유지 - 자동차정비","category":"car"}]},{"lat":"37.302865236","long":"126.8394349","imageIndex":0,"items":[{"name":"안산스팀세차","tel":"031-502-8880","addr":"경기도 안산시 상록구 사동 1576-2번지 101호","indutype":"자동차정비 유지 - 세차장","category":"car"}]},{"lat":"37.287564946","long":"126.84541094","imageIndex":0,"items":[{"name":"애니카랜드남부점","tel":"031-415-9285","addr":"경기도 안산시 상록구 사동 1371-8번지","indutype":"자동차정비 유지 - 자동차정비","category":"car"}]},{"lat":"37.302174268","long":"126.84148919","imageIndex":0,"items":[{"name":"에이치제이샵","tel":"031-502-3382","addr":"경기도 안산시 상록구 사동 1580-7번지 1층","indutype":"자동차정비 유지 - 자동차부품","category":"car"}]},{"lat":"37.303010782","long":"126.84043843","imageIndex":0,"items":[{"name":"엑스샵","tel":"031-417-2962","addr":"경기도 안산시 상록구 사동 1577-3번지 1층","indutype":"자동차판매 - 이륜차판매","category":"car"}]},{"lat":"37.291148599","long":"126.84359907","imageIndex":0,"items":[{"name":"엠모터스","tel":"031-409-0517","addr":"경기도 안산시 상록구 사동 1360-7번지","indutype":"자동차정비 유지 - 자동차정비","category":"car"}]},{"lat":"37.296509433","long":"126.84340732","imageIndex":0,"items":[{"name":"영민상사","tel":"031-501-5582","addr":"경기도 안산시 상록구 사동 1275-4번지","indutype":"자동차정비 유지 - 자동차부품","category":"car"}]},{"lat":"37.281207764","long":"126.84849125","imageIndex":0,"items":[{"name":"영성카써비스","tel":"031-408-1100","addr":"경기도 안산시 상록구 사동 1485-4번지","indutype":"자동차정비 유지 - 자동차정비","category":"car"}]},{"lat":"37.2805683313","long":"126.8487180689","imageIndex":0,"items":[{"name":"영신자동차유리","tel":"031-409-0623","addr":"경기도 안산시 상록구 사동 1486-5번지","indutype":"도매 및 소매업 - 자동차유리","category":"car"}]},{"lat":"37.280568331","long":"126.84871807","imageIndex":0,"items":[{"name":"영신자동차유리","tel":"031-409-0623","addr":"경기도 안산시 상록구 사동 1486-5번지","indutype":"자동차정비 유지 - 자동차부품","category":"car"},{"name":"호성자동차정비주식회사","tel":"031-409-5977","addr":"경기도 안산시 상록구 사동 1486-5번지","indutype":"자동차정비 유지 - 자동차정비","category":"car"}]},{"lat":"37.281175453","long":"126.85137796","imageIndex":0,"items":[{"name":"오.K종합타이어","tel":"031-417-0780","addr":"경기도 안산시 상록구 사동 1469-3번지","indutype":"자동차정비 유지 - 자동차시트·타이어","category":"car"}]},{"lat":"37.2811754528","long":"126.8513779592","imageIndex":0,"items":[{"name":"오K종합타이어","tel":"031-417-0780","addr":"경기도 안산시 상록구 사동 1469-3번지","indutype":"도매 및 소매업 - 자동차타이어및튜브","category":"car"}]},{"lat":"37.286430615","long":"126.84613501","imageIndex":0,"items":[{"name":"오토랜드자동차공업사","tel":"031-408-7526","addr":"경기도 안산시 상록구 사동 1377-8번지 101호","indutype":"자동차정비 유지 - 자동차정비","category":"car"}]},{"lat":"37.301761087","long":"126.84243751","imageIndex":0,"items":[{"name":"오토오아시스한양대점","tel":"031-409-8285","addr":"경기도 안산시 상록구 사동 1172-10번지 2층","indutype":"자동차정비 유지 - 자동차정비","category":"car"}]},{"lat":"37.291229615","long":"126.84354252","imageIndex":0,"items":[{"name":"오토카서비스","tel":"031-407-0912","addr":"경기도 안산시 상록구 사동 1360번지 1층","indutype":"자동차정비 유지 - 자동차정비","category":"car"}]},{"lat":"37.285648937","long":"126.85485347","imageIndex":0,"items":[{"name":"오토클리어","tel":"031-409-2344","addr":"경기도 안산시 상록구 사동 1396-2번지 103호,104호","indutype":"자동차정비 유지 - 세차장","category":"car"}]},{"lat":"37.295230132","long":"126.85751888","imageIndex":0,"items":[{"name":"외형복원전문카라","tel":"031-505-2211","addr":"경기도 안산시 상록구 사동 1338-3번지 101호","indutype":"자동차정비 유지 - 가타자동차서비스","category":"car"}]},{"lat":"37.279454281","long":"126.85121227","imageIndex":0,"items":[{"name":"용민상사","tel":"031-408-8929","addr":"경기도 안산시 상록구 사동 1473-2번지 상가우측","indutype":"자동차정비 유지 - 자동차부품","category":"car"}]},{"lat":"37.295374364","long":"126.85757499","imageIndex":0,"items":[{"name":"용왕카서비스","tel":"031-409-7800","addr":"경기도 안산시 상록구 사동 1338-2 상가101~103호","indutype":"자동차정비 유지 - 자동차정비","category":"car"}]},{"lat":"37.27934148","long":"126.84760428","imageIndex":0,"items":[{"name":"우리자동차정비(주)","tel":"031-409-0025","addr":"경기도 안산시 상록구 사동 1488-1번지 우리자동차정비(주) 2호","indutype":"자동차정비 유지 - 자동차정비","category":"car"}]},{"lat":"37.27934016","long":"126.84660074","imageIndex":0,"items":[{"name":"우성자동차공업사","tel":"031-418-9472","addr":"경기도 안산시 상록구 사동 1494번지","indutype":"자동차정비 유지 - 자동차정비","category":"car"}]},{"lat":"37.28656436","long":"126.84507472","imageIndex":0,"items":[{"name":"원스톱코너","tel":"031-000-0000","addr":"경기도 안산시 상록구 사동 1379-3번지 우정강금빌라 402호","indutype":"자동차정비 유지 - 가타자동차서비스","category":"car"}]},{"lat":"37.280595039","long":"126.84846995","imageIndex":0,"items":[{"name":"유로모터스","tel":"031-419-0780","addr":"경기도 안산시 상록구 사동 1486-4번지","indutype":"자동차정비 유지 - 자동차정비","category":"car"}]},{"lat":"37.303004378","long":"126.84913473","imageIndex":0,"items":[{"name":"유일타이어 사동점","tel":"031-410-0780","addr":"경기도 안산시 상록구 사동 1186-5번지","indutype":"자동차정비 유지 - 자동차시트·타이어","category":"car"}]},{"lat":"37.3030043778","long":"126.8491347316","imageIndex":0,"items":[{"name":"유일타이어 사동점","tel":"031-502-6006","addr":"경기도 안산시 상록구 사동 1186-5번지","indutype":"도매 및 소매업 - 밧데리,자동차타이","category":"car"}]},{"lat":"37.279098529","long":"126.84785284","imageIndex":0,"items":[{"name":"유진모터스","tel":"031-408-6231","addr":"경기도 안산시 상록구 사동 1488-9번지","indutype":"자동차정비 유지 - 자동차정비","category":"car"}]},{"lat":"37.287069788","long":"126.84571644","imageIndex":0,"items":[{"name":"이레1급카서비스","tel":"031-415-8909","addr":"경기도 안산시 상록구 사동 1377-2번지","indutype":"자동차정비 유지 - 자동차정비","category":"car"}]},{"lat":"37.279341155","long":"126.84735621","imageIndex":0,"items":[{"name":"이케이 모터스(E.K MOTORS)","tel":"031-407-5250","addr":"경기도 안산시 상록구 사동 1488번지","indutype":"자동차정비 유지 - 자동차정비","category":"car"}]},{"lat":"37.302900631","long":"126.85254126","imageIndex":0,"items":[{"name":"인카","tel":"031-406-4673","addr":"경기도 안산시 상록구 사동 1209번지 1층","indutype":"자동차정비 유지 - 자동차부품","category":"car"}]},{"lat":"37.302873294","long":"126.83874685","imageIndex":0,"items":[{"name":"일류카세차장","tel":"031-406-8668","addr":"경기도 안산시 상록구 사동 1556-6번지","indutype":"자동차정비 유지 - 자동차시트·타이어","category":"car"}]},{"lat":"37.300393744","long":"126.85812928","imageIndex":0,"items":[{"name":"자동차외형복원전문점","tel":"031-431-7676","addr":"경기도 안산시 상록구 사동 1248-20번지 1층","indutype":"자동차정비 유지 - 가타자동차서비스","category":"car"}]},{"lat":"37.277955127","long":"126.84854299","imageIndex":0,"items":[{"name":"장군자동차정비공업사","tel":"031-409-0202","addr":"경기도 안산시 상록구 사동 1490-5번지","indutype":"자동차정비 유지 - 자동차정비","category":"car"}]},{"lat":"37.302927203","long":"126.85218028","imageIndex":0,"items":[{"name":"정자동차공업사세차장","tel":"031-416-5434","addr":"경기도 안산시 상록구 사동 1201-5번지","indutype":"자동차정비 유지 - 자동차정비","category":"car"},{"name":"정자동차세차창","tel":"031-416-5434","addr":"경기도 안산시 상록구 사동 1201-5번지","indutype":"자동차정비 유지 - 세차장","category":"car"}]},{"lat":"37.288069773","long":"126.84560159","imageIndex":0,"items":[{"name":"제이디 브릴리언트 카옵션","tel":"031-408-8610","addr":"경기도 안산시 상록구 사동 1372-4번지 101호","indutype":"자동차정비 유지 - 자동차부품","category":"car"}]},{"lat":"37.287340603","long":"126.84609929","imageIndex":0,"items":[{"name":"제일중고타이어","tel":"031-409-4595","addr":"경기도 안산시 상록구 사동 1376-1번지","indutype":"자동차정비 유지 - 자동차시트·타이어","category":"car"}]},{"lat":"37.280708805","long":"126.84591008","imageIndex":0,"items":[{"name":"제일카독크","tel":"031-416-4600","addr":"경기도 안산시 상록구 사동 1495-4번지","indutype":"자동차정비 유지 - 자동차정비","category":"car"}]},{"lat":"37.288339855","long":"126.84543187","imageIndex":0,"items":[{"name":"제임스스팀세차","tel":"031-1688-4735","addr":"경기도 안산시 상록구 사동 1372-2번지","indutype":"자동차정비 유지 - 카인테리어","category":"car"},{"name":"카라","tel":"031-407-2667","addr":"경기도 안산시 상록구 사동 1372-2번지 101호","indutype":"자동차정비 유지 - 카인테리어","category":"car"}]},{"lat":"37.279124864","long":"126.84732283","imageIndex":0,"items":[{"name":"주식회사 명화모터스","tel":"031-415-8877","addr":"경기도 안산시 상록구 사동 1488-11번지","indutype":"자동차정비 유지 - 자동차정비","category":"car"}]},{"lat":"37.281234102","long":"126.84796122","imageIndex":0,"items":[{"name":"주식회사 안산종합공업사","tel":"031-417-6300","addr":"경기도 안산시 상록구 사동 1485-2번지","indutype":"자동차정비 유지 - 자동차정비","category":"car"}]},{"lat":"37.279648375","long":"126.84802085","imageIndex":0,"items":[{"name":"주식회사 태웅정비","tel":"031-416-6007","addr":"경기도 안산시 상록구 사동 1487-7번지","indutype":"자동차정비 유지 - 자동차정비","category":"car"}]},{"lat":"37.294590198","long":"126.85735094","imageIndex":0,"items":[{"name":"주식회사 한강바이크모터스","tel":"031-498-8400","addr":"경기도 안산시 상록구 사동 1338-7번지 1층","indutype":"자동차판매 - 이륜차판매","category":"car"}]},{"lat":"37.306621298","long":"126.84519073","imageIndex":0,"items":[{"name":"주식회사블루웨이브","tel":"02-1577-3969","addr":"경기도 안산시 상록구 사동 1516-6번지 2층","indutype":"자동차정비 유지 - 자동차부품","category":"car"}]},{"lat":"37.281286117","long":"126.84640503","imageIndex":0,"items":[{"name":"주식회사사동현대서비스","tel":"031-408-6336","addr":"경기도 안산시 상록구 사동 1496-7번지","indutype":"자동차정비 유지 - 자동차정비","category":"car"}]},{"lat":"37.302005156","long":"126.84302351","imageIndex":0,"items":[{"name":"주식회사우현모터스","tel":"031-418-1617","addr":"경기도 안산시 상록구 사동 1172-13번지","indutype":"자동차정비 유지 - 자동차시트·타이어","category":"car"},{"name":"주식회사우현모터스","tel":"031-415-0301","addr":"경기도 안산시 상록구 사동 1172-13번지","indutype":"자동차정비 유지 - 자동차시트·타이어","category":"car"}]},{"lat":"37.282818607","long":"126.85396819","imageIndex":0,"items":[{"name":"준카(JUN CAR)","tel":"","addr":"경기도 안산시 상록구 사동 1403-1번지 101,102호","indutype":"자동차정비 유지 - 자동차부품","category":"car"}]},{"lat":"37.293620387","long":"126.85277401","imageIndex":0,"items":[{"name":"차박사","tel":"031-406-2174","addr":"경기도 안산시 상록구 사동 1319-15번지 건영에이스빌 401호","indutype":"자동차정비 유지 - 카인테리어","category":"car"}]},{"lat":"37.28459358","long":"126.85393087","imageIndex":0,"items":[{"name":"차사랑카센타","tel":"031-417-5150","addr":"경기도 안산시 상록구 사동 1398-5번지","indutype":"자동차정비 유지 - 자동차정비","category":"car"}]},{"lat":"37.280510056","long":"126.84551584","imageIndex":0,"items":[{"name":"창성자동차정비공업사","tel":"031-502-5776","addr":"경기도 안산시 상록구 사동 1495-16번지","indutype":"자동차정비 유지 - 자동차정비","category":"car"}]},{"lat":"37.294373856","long":"126.85727241","imageIndex":0,"items":[{"name":"카맥스","tel":"031-408-0848","addr":"경기도 안산시 상록구 사동 1339-1 101호~102호","indutype":"자동차정비 유지 - 자동차정비","category":"car"}]},{"lat":"37.302644699","long":"126.83635616","imageIndex":0,"items":[{"name":"카스토리","tel":"0031-407-5310","addr":"경기도 안산시 상록구 사동 1561번지 청양빌딩 1층","indutype":"자동차정비 유지 - 카인테리어","category":"car"}]},{"lat":"37.28240361","long":"126.84657186","imageIndex":0,"items":[{"name":"카이저","tel":"031-408-1188","addr":"경기도 안산시 상록구 사동 1430-10번지","indutype":"자동차정비 유지 - 자동차시트·타이어","category":"car"}]},{"lat":"37.30106808","long":"126.84301421","imageIndex":0,"items":[{"name":"카존자동차케어서비스","tel":"031-438-3388","addr":"경기도 안산시 상록구 사동 1176-12번지 청사빌딩 1층 101호","indutype":"자동차정비 유지 - 카인테리어","category":"car"}]},{"lat":"37.294093233","long":"126.84232974","imageIndex":0,"items":[{"name":"커스텀카","tel":"031-502-2229","addr":"경기도 안산시 상록구 사동 1349번지 1층 101호","indutype":"자동차정비 유지 - 자동차부품","category":"car"}]},{"lat":"37.280315677","long":"126.84843669","imageIndex":0,"items":[{"name":"큐기아모터스","tel":"031-416-6800","addr":"경기도 안산시 상록구 사동 1486-7번지 1층","indutype":"자동차정비 유지 - 자동차정비","category":"car"}]},{"lat":"37.295562969","long":"126.85707839","imageIndex":0,"items":[{"name":"크라운종합상사","tel":"031-418-7758","addr":"경기도 안산시 상록구 사동 1336번지","indutype":"자동차정비 유지 - 자동차부품","category":"car"}]},{"lat":"37.29553641","long":"126.8574619","imageIndex":0,"items":[{"name":"크라운차차차","tel":"031-418-7757","addr":"경기도 안산시 상록구 사동 1338번지","indutype":"자동차정비 유지 - 자동차정비","category":"car"}]},{"lat":"37.301482565","long":"126.84302461","imageIndex":0,"items":[{"name":"타이어마스타","tel":"031-407-2754","addr":"경기도 안산시 상록구 사동 1172-16번지 1층","indutype":"자동차정비 유지 - 자동차시트·타이어","category":"car"}]},{"lat":"37.301484048","long":"126.85818358","imageIndex":0,"items":[{"name":"타이어스토리","tel":"031-418-0050","addr":"경기도 안산시 상록구 사동 1247-2번지","indutype":"자동차정비 유지 - 자동차시트·타이어","category":"car"}]},{"lat":"37.287871038","long":"126.84521859","imageIndex":0,"items":[{"name":"틴카(Teen)","tel":"031-502-1627","addr":"경기도 안산시 상록구 사동 1371-5번지 1층","indutype":"자동차정비 유지 - 자동차부품","category":"car"}]},{"lat":"37.303040228","long":"126.84898803","imageIndex":0,"items":[{"name":"푸른정비센타","tel":"031-418-8879","addr":"경기도 안산시 상록구 사동 1186-4번지","indutype":"자동차정비 유지 - 자동차정비","category":"car"}]},{"lat":"37.297510297","long":"126.85798819","imageIndex":0,"items":[{"name":"프로칼라","tel":"070-8272-7286","addr":"경기도 안산시 상록구 사동 1267-2번지 101호","indutype":"자동차정비 유지 - 자동차정비","category":"car"}]},{"lat":"37.295788931","long":"126.85765314","imageIndex":0,"items":[{"name":"하나로","tel":"031-406-3300","addr":"경기도 안산시 상록구 사동 1337-1번지","indutype":"자동차정비 유지 - 자동차부품","category":"car"}]},{"lat":"37.293867527","long":"126.85585238","imageIndex":0,"items":[{"name":"하이시스템","tel":"031-419-8855","addr":"경기도 안산시 상록구 사동 1341-10번지","indutype":"자동차정비 유지 - 주차장","category":"car"},{"name":"하이시스템","tel":"031-419-8855","addr":"경기도 안산시 상록구 사동 1341-10번지","indutype":"자동차정비 유지 - 주차장","category":"car"}]},{"lat":"37.306595182","long":"126.84587885","imageIndex":0,"items":[{"name":"하이카프라자 사동점","tel":"031-418-7287","addr":"경기도 안산시 상록구 사동 1517-1번지 1층 상가","indutype":"자동차정비 유지 - 자동차정비","category":"car"}]},{"lat":"37.281233777","long":"126.84771315","imageIndex":0,"items":[{"name":"한성디젤서비스","tel":"031-407-1212","addr":"경기도 안산시 상록구 사동 1485-1번지 대삼빌딩 101호 102호","indutype":"자동차정비 유지 - 자동차정비","category":"car"}]},{"lat":"37.296040385","long":"126.84302485","imageIndex":0,"items":[{"name":"한양상사","tel":"031-418-3333","addr":"경기도 안산시 상록구 사동 1275-9번지","indutype":"자동차정비 유지 - 자동차부품","category":"car"}]},{"lat":"37.2960403852","long":"126.8430248507","imageIndex":0,"items":[{"name":"한양상사","tel":"031-418-3333","addr":"경기도 안산시 상록구 사동 1275-9번지","indutype":"도매 및 소매업 - 자동차부품,자동차","category":"car"}]},{"lat":"37.296897328","long":"126.84374485","imageIndex":0,"items":[{"name":"한양카꾸밈방","tel":"031-406-7365","addr":"경기도 안산시 상록구 사동 1275번지 1층","indutype":"자동차정비 유지 - 카인테리어","category":"car"}]},{"lat":"37.281320166","long":"126.84490525","imageIndex":0,"items":[{"name":"현대대명모터스","tel":"031-407-5330","addr":"경기도 안산시 상록구 사동 1496-1번지 1층","indutype":"자동차정비 유지 - 자동차정비","category":"car"},{"name":"현대대명모터스","tel":"031-407-5333","addr":"경기도 안산시 상록구 사동 1496-1번지 1층","indutype":"자동차정비 유지 - 자동차정비","category":"car"}]},{"lat":"37.279874073","long":"126.84835866","imageIndex":0,"items":[{"name":"현대디젤","tel":"031-409-1470","addr":"경기도 안산시 상록구 사동 1487-3번지","indutype":"자동차정비 유지 - 자동차부품","category":"car"},{"name":"현대정비","tel":"031-419-8204","addr":"경기도 안산시 상록구 사동 1487-3번지","indutype":"자동차정비 유지 - 자동차정비","category":"car"}]},{"lat":"37.303730044","long":"126.84596376","imageIndex":0,"items":[{"name":"현대중장비센타","tel":"031-438-2921","addr":"경기도 안산시 상록구 사동 1542-9번지","indutype":"자동차정비 유지 - 중장비수리","category":"car"},{"name":"현대지게차경인판매(주)","tel":"031-438-5540","addr":"경기도 안산시 상록구 사동 1542-9번지","indutype":"자동차판매 - 기타운송","category":"car"},{"name":"현대지게차안산판매","tel":"031-438-5540","addr":"경기도 안산시 상록구 사동 1542-9번지","indutype":"자동차판매 - 국산신차판매","category":"car"}]},{"lat":"37.284125233","long":"126.84707573","imageIndex":0,"items":[{"name":"현대파텍스주식회사","tel":"031-407-6052","addr":"경기도 안산시 상록구 사동 1424-6번지","indutype":"자동차정비 유지 - 자동차부품","category":"car"}]},{"lat":"37.278730125","long":"126.84863161","imageIndex":0,"items":[{"name":"현진모터스정비센타","tel":"031-407-8845","addr":"경기도 안산시 상록구 사동 1489-5번지","indutype":"자동차정비 유지 - 자동차정비","category":"car"}]},{"lat":"37.303173614","long":"126.84091181","imageIndex":0,"items":[{"name":"홀릭자동차용품점","tel":"031-415-3234","addr":"경기도 안산시 상록구 사동 1577-6번지 1,2층","indutype":"자동차정비 유지 - 자동차부품","category":"car"}]}]