[{"lat":"37.41852429","long":"126.8569872","imageIndex":17,"items":[{"name":"(주)머스타드씨드","tel":"02-581-5311","addr":"경기도 광명시 가학동 115-3번지","indutype":"전기제품 - 가전제품","category":"other"}]},{"lat":"37.41688735","long":"126.8593513","imageIndex":17,"items":[{"name":"(주)몬트리(MONTREE)","tel":"02-2060-1313","addr":"경기도 광명시 가학동 213-3번지","indutype":"가구 - 일반가구","category":"other"},{"name":"몽트리공방","tel":"02-2060-1315","addr":"경기도 광명시 가학동 213-3번지","indutype":"가구 - 일반가구","category":"other"}]},{"lat":"37.4144965","long":"126.8496301","imageIndex":17,"items":[{"name":"(주)서광산업","tel":"02-2681-5544","addr":"경기도 광명시 가학동 631번지 2층","indutype":"용역 서비스 - 기타용역서비스","category":"other"}]},{"lat":"37.4172447","long":"126.8497374","imageIndex":17,"items":[{"name":"(주)제이케이라이프","tel":"02-3666-6667","addr":"경기도 광명시 가학동 476-3번지","indutype":"신변잡화 - 기타잡화","category":"other"},{"name":"D&I","tel":"02-2619-5581","addr":"경기도 광명시 가학동 476-3번지 1층","indutype":"신변잡화 - 액세서리","category":"other"}]},{"lat":"37.41163819","long":"126.8624337","imageIndex":17,"items":[{"name":"(주)하나로넥스트","tel":"","addr":"경기도 광명시 가학동 809-1번지","indutype":"가구 - 일반가구","category":"other"}]},{"lat":"37.40585425","long":"126.8628737","imageIndex":17,"items":[{"name":"AK정보","tel":"02-2619-7232","addr":"경기도 광명시 가학동 972-8번지","indutype":"사무통신 - 컴퓨터","category":"other"}]},{"lat":"37.41210991","long":"126.865155","imageIndex":17,"items":[{"name":"G.M.I 지엠아이","tel":"070-7011-7735","addr":"경기도 광명시 가학동 823번지 1층","indutype":"용역 서비스 - 사무서비스","category":"other"}]},{"lat":"37.4170221","long":"126.8517938","imageIndex":17,"items":[{"name":"GS25광명가온점","tel":"","addr":"경기도 광명시 가학동 521번지 1층","indutype":"유통업 영리 - 편 의 점","category":"other"},{"name":"한결 공인중개사사무소","tel":"02-2613-8940","addr":"경기도 광명시 가학동 521번지 103,104호","indutype":"용역 서비스 - 부동산 중개·임대","category":"other"}]},{"lat":"37.40211227","long":"126.8763771","imageIndex":17,"items":[{"name":"K-테크","tel":"031-483-9774","addr":"경기도 광명시 가학동 1071-1번지","indutype":"기타 - 기계공구","category":"other"},{"name":"대흥상사","tel":"02-2611-2486","addr":"경기도 광명시 가학동 1071-1번지","indutype":"기타 - 기타 전문점","category":"other"},{"name":"유경사","tel":"02-2616-5763","addr":"경기도 광명시 가학동 1071-1번지","indutype":"건축자재 - 목재·석재·철물","category":"other"}]},{"lat":"37.40294472","long":"126.863489","imageIndex":17,"items":[{"name":"SL퍼니처","tel":"02-6396-9599","addr":"경기도 광명시 가학동 1017-2번지","indutype":"가구 - 기타가구","category":"other"}]},{"lat":"37.40860734","long":"126.8522964","imageIndex":17,"items":[{"name":"가구 퀸","tel":"02-2060-2315","addr":"경기도 광명시 가학동 729-1번지","indutype":"가구 - 일반가구","category":"other"}]},{"lat":"37.4162204","long":"126.8591831","imageIndex":17,"items":[{"name":"가학철물건재","tel":"02-2619-0904","addr":"경기도 광명시 가학동 220-8번지","indutype":"건축자재 - 목재·석재·철물","category":"other"}]},{"lat":"37.40838882","long":"126.865207","imageIndex":17,"items":[{"name":"강원기업사","tel":"02-835-4444","addr":"경기도 광명시 가학동 847-8번지","indutype":"용역 서비스 - 가례서비스업","category":"other"},{"name":"정담의전(장례토탈서비스)","tel":"00-1588-4844","addr":"경기도 광명시 가학동 847-8번지","indutype":"용역 서비스 - 가례서비스업","category":"other"},{"name":"정담의전(장례토탈서비스)","tel":"02-1588-4844","addr":"경기도 광명시 가학동 847-8","indutype":"용역 서비스 - 가례서비스업","category":"other"}]},{"lat":"37.41724477","long":"126.8497939","imageIndex":17,"items":[{"name":"광명A.N.F","tel":"02-2683-9073","addr":"경기도 광명시 가학동 476-2번지","indutype":"문화.취미 - 애완동물","category":"other"}]},{"lat":"37.41799312","long":"126.8501878","imageIndex":17,"items":[{"name":"광명PRECEPT","tel":"02-2689-2014","addr":"경기도 광명시 가학동 481-1번지 PRECEPT","indutype":"문화.취미 - 애완동물","category":"other"}]},{"lat":"37.41699417","long":"126.8510935","imageIndex":17,"items":[{"name":"광명시원상사","tel":"02-2812-0862","addr":"경기도 광명시 가학동 518-1번지 1층 7호","indutype":"전기제품 - 냉열기기","category":"other"},{"name":"코리아사운드","tel":"02-6402-9019","addr":"경기도 광명시 가학동 518-1번지 1층 107호","indutype":"전기제품 - 가전제품","category":"other"}]},{"lat":"37.41932522","long":"126.8491232","imageIndex":17,"items":[{"name":"광명유리","tel":"02-2612-8116","addr":"경기도 광명시 가학동 438-1번지 1층","indutype":"건축자재 - 유리","category":"other"}]},{"lat":"37.40797056","long":"126.8619887","imageIndex":17,"items":[{"name":"광현기전","tel":"02-2615-9582","addr":"경기도 광명시 가학동 산95-1번지","indutype":"기타 - 기계공구","category":"other"}]},{"lat":"37.41844271","long":"126.8494865","imageIndex":17,"items":[{"name":"굿캠핑","tel":"02-897-9495","addr":"경기도 광명시 가학동 436-3번지","indutype":"레져용품 - 스포츠·레져용품","category":"other"}]},{"lat":"37.41235724","long":"126.8609639","imageIndex":17,"items":[{"name":"그린파이프","tel":"02-2612-1137","addr":"경기도 광명시 가학동 786-2번지","indutype":"건축자재 - 기타건축자재","category":"other"}]},{"lat":"37.41710414","long":"126.8525392","imageIndex":17,"items":[{"name":"김박사찌공방","tel":"02-2617-9348","addr":"경기도 광명시 가학동 522번지 102호","indutype":"레져용품 - 스포츠·레져용품","category":"other"}]},{"lat":"37.42372029","long":"126.8699012","imageIndex":17,"items":[{"name":"나폴리","tel":"02-2625-4327","addr":"경기도 광명시 가학동 1번지","indutype":"문화.취미 - 화원","category":"other"}]},{"lat":"37.41768602","long":"126.849601","imageIndex":17,"items":[{"name":"낚시천하","tel":"02-2066-0259","addr":"경기도 광명시 가학동 483-6번지","indutype":"레져용품 - 스포츠·레져용품","category":"other"}]},{"lat":"37.4033586","long":"126.8555709","imageIndex":17,"items":[{"name":"누리주방","tel":"","addr":"경기도 광명시 가학동 904-1","indutype":"전기제품 - 가전제품","category":"other"}]},{"lat":"37.41716469","long":"126.8505735","imageIndex":17,"items":[{"name":"다솜소파쿠션","tel":"","addr":"경기도 광명시 가학동 478-4번지 지층","indutype":"가구 - 일반가구","category":"other"}]},{"lat":"37.41776883","long":"126.8656756","imageIndex":17,"items":[{"name":"대경냉동","tel":"031-315-3639","addr":"경기도 광명시 가학동 184-5번지","indutype":"전기제품 - 냉열기기","category":"other"}]},{"lat":"37.42216428","long":"126.856935","imageIndex":17,"items":[{"name":"대명상사","tel":"02-893-6317","addr":"경기도 광명시 가학동 336-21번지 (21번지,23번지)","indutype":"가구 - 기타가구","category":"other"}]},{"lat":"37.42379894","long":"126.8458717","imageIndex":17,"items":[{"name":"대성용접","tel":"02-2060-1259","addr":"경기도 광명시 가학동 387-1번지 동보빌딩 103호","indutype":"기타 - 기계공구","category":"other"}]},{"lat":"37.42037984","long":"126.8565656","imageIndex":17,"items":[{"name":"더랙","tel":"02-877-3662","addr":"경기도 광명시 가학동 310-3번지","indutype":"건축자재 - 목재·석재·철물","category":"other"}]},{"lat":"37.41810183","long":"126.8506507","imageIndex":17,"items":[{"name":"론스타 남중앙대리점","tel":"02-2616-1948","addr":"경기도 광명시 가학동 485번지","indutype":"회원제형태 - 기타4","category":"other"}]},{"lat":"37.40815891","long":"126.8539351","imageIndex":17,"items":[{"name":"리스조이","tel":"02-2613-6950","addr":"경기도 광명시 가학동 909-1번지","indutype":"전기제품 - 가전제품","category":"other"}]},{"lat":"37.42019032","long":"126.8563175","imageIndex":17,"items":[{"name":"리치도어","tel":"02-514-9846","addr":"경기도 광명시 가학동 324-7번지","indutype":"기타 - 기계공구","category":"other"}]},{"lat":"37.41635627","long":"126.8525181","imageIndex":17,"items":[{"name":"만물상","tel":"02-2681-1461","addr":"경기도 광명시 가학동 535번지","indutype":"의류 - 기타의류","category":"other"}]},{"lat":"37.41810714","long":"126.862207","imageIndex":17,"items":[{"name":"메러디스(meredith)","tel":"02-3158-3991","addr":"경기도 광명시 가학동 200번지","indutype":"의류 - 내의판매","category":"other"}]},{"lat":"37.41291536","long":"126.8605449","imageIndex":17,"items":[{"name":"명성시스템","tel":"02-808-8544","addr":"경기도 광명시 가학동 782-6번지","indutype":"전기제품 - 냉열기기","category":"other"}]},{"lat":"37.41716245","long":"126.8488452","imageIndex":17,"items":[{"name":"명품갤러리","tel":"032-348-6362","addr":"경기도 광명시 가학동 472번지","indutype":"가구 - 일반가구","category":"other"}]},{"lat":"37.41269177","long":"126.8619347","imageIndex":17,"items":[{"name":"미래이노텍","tel":"02-2617-8027","addr":"경기도 광명시 가학동 818-6번지","indutype":"기타 - 기계공구","category":"other"},{"name":"여우캠핑","tel":"02-6369-6969","addr":"경기도 광명시 가학동 818-6번지","indutype":"레져용품 - 스포츠·레져용품","category":"other"}]},{"lat":"37.42160548","long":"126.8567892","imageIndex":17,"items":[{"name":"부원ENG","tel":"02-2625-7231","addr":"경기도 광명시 가학동 336-7번지","indutype":"전기제품 - 기타전기제품","category":"other"}]},{"lat":"37.41849714","long":"126.8497688","imageIndex":17,"items":[{"name":"빛그림","tel":"02-841-8150","addr":"경기도 광명시 가학동 436번지","indutype":"건축자재 - 조명기구","category":"other"}]},{"lat":"37.4222181","long":"126.8567428","imageIndex":17,"items":[{"name":"삼미산업","tel":"02-2688-3245","addr":"경기도 광명시 가학동 336-20번지","indutype":"주방용구 - 정수기","category":"other"},{"name":"삼미산업주식회사","tel":"02-2688-3245","addr":"경기도 광명시 가학동 336-20번지","indutype":"전기제품 - 기타전기제품","category":"other"}]},{"lat":"37.4031079","long":"126.8568477","imageIndex":17,"items":[{"name":"삼원기업","tel":"02-2613-2008","addr":"경기도 광명시 가학동 1002번지","indutype":"건축자재 - 기타건축자재","category":"other"}]},{"lat":"37.4167174","long":"126.8603796","imageIndex":17,"items":[{"name":"삼주산업사","tel":"02-2684-6451","addr":"경기도 광명시 가학동 212-1번지","indutype":"신변잡화 - 기타잡화","category":"other"}]},{"lat":"37.40671556","long":"126.8598225","imageIndex":17,"items":[{"name":"성인건설공사","tel":"02-897-3322","addr":"경기도 광명시 가학동 932-1","indutype":"용역 서비스 - 기타용역서비스","category":"other"}]},{"lat":"37.41622006","long":"126.8589007","imageIndex":17,"items":[{"name":"세븐일레븐광명가학공단점","tel":"031-1577-0711","addr":"경기도 광명시 가학동 220-7번지 101호","indutype":"유통업 영리 - 편 의 점","category":"other"}]},{"lat":"37.41971281","long":"126.8637968","imageIndex":17,"items":[{"name":"신화유압기계","tel":"02-684-6888","addr":"경기도 광명시 가학동 170-3번지","indutype":"기타 - 기타 전문점","category":"other"}]},{"lat":"37.41766501","long":"126.8543229","imageIndex":17,"items":[{"name":"실크","tel":"02-2060-6921","addr":"경기도 광명시 가학동 528번지","indutype":"신변잡화 - 기타잡화","category":"other"}]},{"lat":"37.42127059","long":"126.8555698","imageIndex":17,"items":[{"name":"아이스타","tel":"02-2682-6520","addr":"경기도 광명시 가학동 329번지 1층 전관","indutype":"주방용구 - 주방용구","category":"other"},{"name":"아이스타코리아","tel":"","addr":"경기도 광명시 가학동 329번지","indutype":"주방용구 - 주방용구","category":"other"}]},{"lat":"37.4231324","long":"126.84602","imageIndex":17,"items":[{"name":"아트앤플라워 (Art n Flower)","tel":"02-2611-8999","addr":"경기도 광명시 가학동 384","indutype":"문화.취미 - 화원","category":"other"},{"name":"플로라트","tel":"02-2691-8253","addr":"경기도 광명시 가학동 384","indutype":"문화.취미 - 화원","category":"other"}]},{"lat":"37.41640968","long":"126.8592393","imageIndex":17,"items":[{"name":"에스엠코리아","tel":"02-1544-1572","addr":"경기도 광명시 가학동 219-2번지 219-4,220-1,220-10","indutype":"건축자재 - 인테리어전문","category":"other"}]},{"lat":"37.41746249","long":"126.8509344","imageIndex":17,"items":[{"name":"엑스투로즈(X2ROSE)","tel":"02-6053-3090","addr":"경기도 광명시 가학동 513번지","indutype":"건축자재 - 조명기구","category":"other"}]},{"lat":"37.40980489","long":"126.8664921","imageIndex":17,"items":[{"name":"예술협동조합 이루","tel":"02-2688-7771","addr":"경기도 광명시 가학동 831-3번지","indutype":"문화.취미 - 화랑","category":"other"}]},{"lat":"37.41710343","long":"126.8519857","imageIndex":17,"items":[{"name":"예지정밀","tel":"02-2066-3197","addr":"경기도 광명시 가학동 521-2번지","indutype":"기타 - 기계공구","category":"other"}]},{"lat":"37.4168036","long":"126.8500433","imageIndex":17,"items":[{"name":"오너스가구 광명점","tel":"02-2625-8245","addr":"경기도 광명시 가학동 568-1번지","indutype":"가구 - 일반가구","category":"other"}]},{"lat":"37.41524637","long":"126.8584056","imageIndex":17,"items":[{"name":"욕실마스터","tel":"02-2066-6704","addr":"경기도 광명시 가학동 264-2번지","indutype":"용역 서비스 - 사무서비스","category":"other"}]},{"lat":"37.41543575","long":"126.8585408","imageIndex":17,"items":[{"name":"우드앤우드","tel":"02-2060-8873","addr":"경기도 광명시 가학동 265-4번지","indutype":"가구 - 일반가구","category":"other"},{"name":"제이와이통상(JY Trade)","tel":"02-899-8507","addr":"경기도 광명시 가학동 265-4번지 103호","indutype":"신변잡화 - 기타잡화","category":"other"}]},{"lat":"37.41297091","long":"126.8617874","imageIndex":17,"items":[{"name":"유영세라믹","tel":"02-2615-0605","addr":"경기도 광명시 가학동 819-7번지","indutype":"건축자재 - 건축용 요업제품","category":"other"},{"name":"제니스선반","tel":"","addr":"경기도 광명시 가학동 819-7번지","indutype":"건축자재 - 목재·석재·철물","category":"other"}]},{"lat":"37.40541699","long":"126.8588988","imageIndex":17,"items":[{"name":"융창금속","tel":"02-2066-4723","addr":"경기도 광명시 가학동 933번지","indutype":"건축자재 - 기타건축자재","category":"other"}]},{"lat":"37.40441515","long":"126.865011","imageIndex":17,"items":[{"name":"이가앨범","tel":"02-2612-5576","addr":"경기도 광명시 가학동 1029-10번지","indutype":"신변잡화 - 기타잡화","category":"other"}]},{"lat":"37.40188124","long":"126.8632425","imageIndex":17,"items":[{"name":"이인퍼니스","tel":"02-2618-3131","addr":"경기도 광명시 가학동 1011번지","indutype":"가구 - 기타가구","category":"other"}]},{"lat":"37.4171097","long":"126.8498507","imageIndex":17,"items":[{"name":"자연종묘","tel":"031-000-0000","addr":"경기도 광명시 가학동 477번지","indutype":"농업 - 비료,사료,종자","category":"other"},{"name":"효성중전기","tel":"02-2672-3352","addr":"경기도 광명시 가학동 477번지","indutype":"기타 - 기계공구","category":"other"}]},{"lat":"37.41630125","long":"126.8517614","imageIndex":17,"items":[{"name":"정상보트","tel":"02-888-4010","addr":"경기도 광명시 가학동 519-10번지","indutype":"레져용품 - 스포츠·레져용품","category":"other"}]},{"lat":"37.40761034","long":"126.8547607","imageIndex":17,"items":[{"name":"제일냉장","tel":"070-4216-3762","addr":"경기도 광명시 가학동 914번지","indutype":"전기제품 - 냉열기기","category":"other"}]},{"lat":"37.4078276","long":"126.8555735","imageIndex":17,"items":[{"name":"제일산업","tel":"02-858-2155","addr":"경기도 광명시 가학동 922-3번지 2호","indutype":"기타 - 기계공구","category":"other"}]},{"lat":"37.4188023","long":"126.8559361","imageIndex":17,"items":[{"name":"조이엔피플","tel":"02-2687-3637","addr":"경기도 광명시 가학동 304-1번지 1층","indutype":"용역 서비스 - 소프트웨어","category":"other"}]},{"lat":"37.41735884","long":"126.8544591","imageIndex":17,"items":[{"name":"주식회사 삼보에너지","tel":"02-2616-9161","addr":"경기도 광명시 가학동 530번지","indutype":"건축자재 - 기타건축자재","category":"other"}]},{"lat":"37.40888876","long":"126.8539562","imageIndex":17,"items":[{"name":"주식회사 삼진기업","tel":"031-495-9963","addr":"경기도 광명시 가학동 886번지","indutype":"기타 - 기계공구","category":"other"}]},{"lat":"37.41946993","long":"126.8566578","imageIndex":17,"items":[{"name":"주식회사엘이디싸인코리아","tel":"02-6959-5887","addr":"경기도 광명시 가학동 299-1번지 1층","indutype":"건축자재 - 인테리어전문","category":"other"}]},{"lat":"37.40579855","long":"126.8541543","imageIndex":17,"items":[{"name":"주식회사천보하이테크","tel":"02-2688-6604","addr":"경기도 광명시 가학동 995번지","indutype":"기타 - 기계공구","category":"other"}]},{"lat":"37.42162926","long":"126.8471867","imageIndex":17,"items":[{"name":"준경시스템","tel":"02-2268-4012","addr":"경기도 광명시 가학동 377-2번지","indutype":"수리서비스 - 가정용품수리","category":"other"}]},{"lat":"37.41549848","long":"126.8582695","imageIndex":17,"items":[{"name":"지티유니버셜","tel":"02-3775-3379","addr":"경기도 광명시 가학동 265번지 101호","indutype":"레져용품 - 스포츠·레져용품","category":"other"}]},{"lat":"37.41307761","long":"126.8606011","imageIndex":17,"items":[{"name":"진영중고가구가전","tel":"02-2613-0467","addr":"경기도 광명시 가학동 782-1번지","indutype":"신변잡화 - 기타잡화","category":"other"},{"name":"진영중고가구가전","tel":"070-4259-7144","addr":"경기도 광명시 가학동 782-1번지","indutype":"신변잡화 - 기타잡화","category":"other"}]},{"lat":"37.40602276","long":"126.8606257","imageIndex":17,"items":[{"name":"키즈하우스","tel":"02-2619-4222","addr":"경기도 광명시 가학동 978-5번지","indutype":"서적문구 - 출판 및 인쇄물","category":"other"}]},{"lat":"37.41807375","long":"126.864455","imageIndex":17,"items":[{"name":"태영상사","tel":"","addr":"경기도 광명시 가학동 185번지","indutype":"수리서비스 - 기타수리서비스","category":"other"}]},{"lat":"37.42221484","long":"126.847129","imageIndex":17,"items":[{"name":"태일엠투","tel":"02-2672-8259","addr":"경기도 광명시 가학동 382번지","indutype":"회원제형태 - 기타4","category":"other"}]},{"lat":"37.41215884","long":"126.8608175","imageIndex":17,"items":[{"name":"토담원","tel":"070-7722-1408","addr":"경기도 광명시 가학동 787-2번지 1층","indutype":"문화.취미 - 민예·공예품","category":"other"}]},{"lat":"37.41791061","long":"126.8561863","imageIndex":17,"items":[{"name":"토스무역","tel":"","addr":"경기도 광명시 가학동 300-6번지 1동","indutype":"레져용품 - 스포츠·레져용품","category":"other"}]},{"lat":"37.41779557","long":"126.8507078","imageIndex":17,"items":[{"name":"파워렉스디티","tel":"02-2611-1140","addr":"경기도 광명시 가학동 506번지","indutype":"기타 - 기계공구","category":"other"}]},{"lat":"37.41904685","long":"126.8498467","imageIndex":17,"items":[{"name":"파크에스티","tel":"","addr":"경기도 광명시 가학동 429번지","indutype":"신변잡화 - 기타잡화","category":"other"}]},{"lat":"37.41946951","long":"126.8563189","imageIndex":17,"items":[{"name":"퍼니트랜드","tel":"02-893-1946","addr":"경기도 광명시 가학동 309번지","indutype":"가구 - 일반가구","category":"other"}]},{"lat":"37.40718764","long":"126.8627921","imageIndex":17,"items":[{"name":"평화상사","tel":"02-2066-9221","addr":"경기도 광명시 가학동 941-6번지","indutype":"건축자재 - 목재·석재·철물","category":"other"}]},{"lat":"37.41971337","long":"126.8567929","imageIndex":17,"items":[{"name":"푸른마루","tel":"02-2060-7741","addr":"경기도 광명시 가학동 314번지 1층","indutype":"직물 - 카페트,커튼,천막,지물","category":"other"}]},{"lat":"37.41210522","long":"126.861179","imageIndex":17,"items":[{"name":"하나비 먼치킨 캐터리","tel":"070-4190-7773","addr":"경기도 광명시 가학동 792-2번지 1층","indutype":"문화.취미 - 애완동물","category":"other"}]},{"lat":"37.41241069","long":"126.8604555","imageIndex":17,"items":[{"name":"한국리텍","tel":"02-2066-3264","addr":"경기도 광명시 가학동 782-4 상가1층","indutype":"사무통신 - 통신기기","category":"other"}]},{"lat":"37.41949761","long":"126.8571774","imageIndex":17,"items":[{"name":"한국테이프","tel":"02-1588-8424","addr":"경기도 광명시 가학동 112번지","indutype":"기타 - 기타 전문점","category":"other"}]},{"lat":"37.40624828","long":"126.8608512","imageIndex":17,"items":[{"name":"한민공조시스템","tel":"031-272-7772","addr":"경기도 광명시 가학동 978-1번지 1층","indutype":"전기제품 - 냉열기기","category":"other"}]},{"lat":"37.41596682","long":"126.8509374","imageIndex":17,"items":[{"name":"한신C엔G","tel":"02-2615-8240","addr":"경기도 광명시 가학동 552-8","indutype":"주방용구 - 주방용식기","category":"other"}]},{"lat":"37.41627694","long":"126.8612389","imageIndex":17,"items":[{"name":"한신시스템","tel":"02-2686-4489","addr":"경기도 광명시 가학동 208-4번지","indutype":"기타 - 기계공구","category":"other"}]},{"lat":"37.42088196","long":"126.8475949","imageIndex":17,"items":[{"name":"한영복층유리","tel":"02-409-9001","addr":"경기도 광명시 가학동 413","indutype":"건축자재 - 유리","category":"other"}]},{"lat":"37.41594082","long":"126.8517395","imageIndex":17,"items":[{"name":"합동스포츠(SUNBIRD)","tel":"02-2614-0606","addr":"경기도 광명시 가학동 541-1번지","indutype":"레져용품 - 스포츠·레져용품","category":"other"}]},{"lat":"37.41973976","long":"126.8491788","imageIndex":17,"items":[{"name":"행복누리","tel":"02-848-2013","addr":"경기도 광명시 가학동 422-1번지 2층","indutype":"신변잡화 - 기타잡화","category":"other"}]},{"lat":"37.40441603","long":"126.8657677","imageIndex":17,"items":[{"name":"형제아트 A.D","tel":"02-2611-8576","addr":"경기도 광명시 가학동 1029-3번지 주건축물","indutype":"용역 서비스 - 종합용역","category":"other"}]},{"lat":"37.41863123","long":"126.8560381","imageIndex":17,"items":[{"name":"화이트서비스상복사업부","tel":"080-017-4422","addr":"경기도 광명시 가학동 304-8번지","indutype":"용역 서비스 - 가례서비스업","category":"other"}]}]