[{"lat":"37.300387603","long":"127.6486374","imageIndex":5,"items":[{"name":"남강호텔","tel":"031-886-0303","addr":"경기도 여주시 천송동 565-6번지","indutype":"숙박업 - 여관/기타숙박업","category":"hotel"}]},{"lat":"37.298991773","long":"127.65507674","imageIndex":5,"items":[{"name":"대성여관","tel":"031-885-2309","addr":"경기도 여주시 천송동 290-9번지","indutype":"숙박업 - 여관/기타숙박업","category":"hotel"}]},{"lat":"37.298717753","long":"127.65575108","imageIndex":5,"items":[{"name":"송학장여관","tel":"031-885-3936","addr":"경기도 여주시 천송동 290-2번지","indutype":"숙박업 - 여관/기타숙박업","category":"hotel"},{"name":"옥천유스텔","tel":"031-885-2476","addr":"경기도 여주시 천송동 290-2번지","indutype":"숙박업 - 여관/기타숙박업","category":"hotel"}]},{"lat":"37.299438401","long":"127.65577986","imageIndex":5,"items":[{"name":"신륵여관","tel":"031-885-2508","addr":"경기도 여주시 천송동 296-1번지","indutype":"숙박업 - 여관/기타숙박업","category":"hotel"}]},{"lat":"37.30174604","long":"127.65066793","imageIndex":5,"items":[{"name":"아비숑","tel":"031-886-4700","addr":"경기도 여주시 천송동 515번지 515호","indutype":"숙박업 - 여관/기타숙박업","category":"hotel"}]},{"lat":"37.304776951","long":"127.65658172","imageIndex":5,"items":[{"name":"여주펜선","tel":"","addr":"경기도 여주시 천송동 342-15번지","indutype":"숙박업 - 여관/기타숙박업","category":"hotel"}]},{"lat":"37.301443333","long":"127.64835318","imageIndex":5,"items":[{"name":"오월모텔","tel":"031-885-5585","addr":"경기도 여주시 천송동 593-2번지","indutype":"숙박업 - 여관/기타숙박업","category":"hotel"}]},{"lat":"37.301552495","long":"127.64816237","imageIndex":5,"items":[{"name":"오월모텔","tel":"031-885-5585","addr":"경기도 여주시 천송동 593-1번지","indutype":"숙박업 - 여관/기타숙박업","category":"hotel"}]}]