[{"lat":"37.750350087","long":"127.03768252","imageIndex":17,"items":[{"name":"(주)가능","tel":"031-875-6134","addr":"경기도 의정부시 가능동 617-3번지","indutype":"의류 - 내의판매","category":"other"}]},{"lat":"37.747675216","long":"127.03424332","imageIndex":17,"items":[{"name":"(주)꿈꾸는사람들","tel":"031-928-1780","addr":"경기도 의정부시 가능동 676-19번지 B1층","indutype":"건축자재 - 인테리어전문","category":"other"},{"name":"우리컴퍼니","tel":"","addr":"경기도 의정부시 가능동 676-19번지 B1층","indutype":"유통업 영리 - 기타유통업","category":"other"},{"name":"제이트래이딩","tel":"031-000-0000","addr":"경기도 의정부시 가능동 676-19번지 지하1층","indutype":"신변잡화 - 기타잡화","category":"other"},{"name":"주식회사펠트대장","tel":"031-877-3331","addr":"경기도 의정부시 가능동 676-19번지 B1층","indutype":"직물 - 옷감·직물","category":"other"}]},{"lat":"37.750674943","long":"127.03590122","imageIndex":17,"items":[{"name":"(주)씨티크리스탈","tel":"031-876-7474","addr":"경기도 의정부시 가능동 605-29번지 1층","indutype":"전기제품 - 기타전기제품","category":"other"}]},{"lat":"37.746677473","long":"127.02379302","imageIndex":17,"items":[{"name":"(주)아이마이","tel":"031-877-1977","addr":"경기도 의정부시 가능동 562-1번지 경민대학교벤처센터 754호","indutype":"건축자재 - 조명기구","category":"other"},{"name":"(주)정인이앤이","tel":"031-829-7677","addr":"경기도 의정부시 가능동 562-1번지 경민대학 507호","indutype":"서적문구 - 과학기자재","category":"other"},{"name":"(주)창조글로비즈","tel":"02-780-3669","addr":"경기도 의정부시 가능동 562-1번지 경민대학교벤쳐창업지원센터 852호","indutype":"가구 - 일반가구","category":"other"},{"name":"(주)파이브스톤즈","tel":"070-8766-9986","addr":"경기도 의정부시 가능동 562-1번지 경민대학교벤처센터 802호","indutype":"용역 서비스 - 소프트웨어","category":"other"},{"name":"koop","tel":"031-828-7609","addr":"경기도 의정부시 가능동 562-1번지 경민대학교승태웰빙센터","indutype":"서적문구 - 문구용품","category":"other"},{"name":"경민 웨딩샵","tel":"031-872-6663","addr":"경기도 의정부시 가능동 562-1번지 경민대학교 승태웰빙센터 내","indutype":"용역 서비스 - 혼례서비스","category":"other"},{"name":"경민대학복사실","tel":"031-876-8162","addr":"경기도 의정부시 가능동 562-1번지 경민대학내송림관 1층","indutype":"용역 서비스 - 사무서비스","category":"other"},{"name":"경민대학산학협력단","tel":"031-828-7083","addr":"경기도 의정부시 가능동 562-1번지 경민대학","indutype":"신변잡화 - 기타잡화","category":"other"},{"name":"다모아","tel":"031-876-6325","addr":"경기도 의정부시 가능동 562-1번지 창업보육센터 8층 806호","indutype":"건축자재 - 기타건축자재","category":"other"},{"name":"디자인탐정(design-detective)","tel":"031-872-2218","addr":"경기도 의정부시 가능동 562-1번지 경민대벤처센터 706호","indutype":"용역 서비스 - 사무서비스","category":"other"},{"name":"씨스페이스 KU","tel":"070-8865-9677","addr":"경기도 의정부시 가능동 562-1번지 경민대학교 연봉관","indutype":"유통업 영리 - 편 의 점","category":"other"},{"name":"아이시스홈","tel":"070-8810-5882","addr":"경기도 의정부시 가능동 562-1번지 8층 807-1호","indutype":"직물 - 침구·수예점","category":"other"},{"name":"알비(R.B)","tel":"","addr":"경기도 의정부시 가능동 562-1번지 경민대학 5층 507호","indutype":"서적문구 - 완구점","category":"other"},{"name":"에가든(EGARDEN)","tel":"070-4228-4586","addr":"경기도 의정부시 가능동 562-1번지 경민대학 705호","indutype":"신변잡화 - 기타잡화","category":"other"},{"name":"에이앤에프커뮤니케이션","tel":"031-836-0981","addr":"경기도 의정부시 가능동 562-1번지 경민대학창업보육센터내753호","indutype":"용역 서비스 - 종합용역","category":"other"},{"name":"에이치텍","tel":"031-855-0334","addr":"경기도 의정부시 가능동 562-1번지 경민대학교벤처센터 7층 705호","indutype":"서적문구 - 일반서적","category":"other"},{"name":"유진이앤이 (유진E&E)","tel":"031-873-6012","addr":"경기도 의정부시 가능동 562-1번지 경민대학교 창업보육센터 601-1호","indutype":"서적문구 - 과학기자재","category":"other"},{"name":"이에스코리아","tel":"031-836-4550","addr":"경기도 의정부시 가능동 562-1번지 경민대학교캠퍼스내밴쳐센터 555호","indutype":"전기제품 - 냉열기기","category":"other"},{"name":"주식회사 경민투어","tel":"031-837-3007","addr":"경기도 의정부시 가능동 562-1번지 경민대학교 승태관 1층","indutype":"여행 - 관광여행","category":"other"},{"name":"중앙스포츠","tel":"031-876-6464","addr":"경기도 의정부시 가능동 562-1번지 경민대학교 승태관 1층","indutype":"레져용품 - 스포츠·레져용품","category":"other"},{"name":"케이포토랩 (K.PhotoLab)","tel":"031-1111-1111","addr":"경기도 의정부시 가능동 562-1번지 창업센터동 6층 603호","indutype":"광학제품 - 사진관","category":"other"},{"name":"한길세무회계사무소","tel":"031-877-7900","addr":"경기도 의정부시 가능동 562-1번지 경민벤쳐센터 404호","indutype":"용역 서비스 - 법률회계서비스(개인)","category":"other"}]},{"lat":"37.747404836","long":"127.03459494","imageIndex":17,"items":[{"name":"(주)우주테크","tel":"031-874-7428","addr":"경기도 의정부시 가능동 668번지","indutype":"전기제품 - 기타전기제품","category":"other"},{"name":"옷방봄에","tel":"031-876-1082","addr":"경기도 의정부시 가능동 668번지","indutype":"의류 - 정장","category":"other"}]},{"lat":"37.741235015","long":"127.02735394","imageIndex":17,"items":[{"name":"(주)태림알.씨.알 의정부지점","tel":"031-876-4757","addr":"경기도 의정부시 가능동 581-77번지 2층","indutype":"용역 서비스 - 종합용역","category":"other"}]},{"lat":"37.745287293","long":"127.03568325","imageIndex":17,"items":[{"name":"(주)파라데우스교육","tel":"070-8272-3809","addr":"경기도 의정부시 가능동 736-3번지 3층 1호","indutype":"서적문구 - 일반서적","category":"other"}]},{"lat":"37.756682006","long":"127.04329128","imageIndex":17,"items":[{"name":"(주)피스제이앤샵","tel":"031-821-7977","addr":"경기도 의정부시 가능동 89-1번지 101, 의정부제이몰101호~102호","indutype":"레져용품 - 스포츠·레져용품","category":"other"},{"name":"S.T.L의정부점","tel":"031-821-1240","addr":"경기도 의정부시 가능동 89-1번지 나동 108호","indutype":"의류 - 스포츠의류","category":"other"},{"name":"예진","tel":"031-844-0582","addr":"경기도 의정부시 가능동 89-1티지아울렛B 가104","indutype":"의류 - 정장","category":"other"}]},{"lat":"37.74871133","long":"127.03418702","imageIndex":17,"items":[{"name":"(주)하늬","tel":"031-872-0718","addr":"경기도 의정부시 가능동 675-9번지 세광빌딩 2층","indutype":"의류 - 정장","category":"other"}]},{"lat":"37.753177284","long":"127.04332342","imageIndex":17,"items":[{"name":"(주)한빛프라자(무이자)","tel":"031-841-3377","addr":"경기도 의정부시 가능동 28-3번지","indutype":"사무통신 - 컴퓨터","category":"other"},{"name":"모든","tel":"031-821-0982","addr":"경기도 의정부시 가능동 28-3번지","indutype":"건축자재 - 목재·석재·철물","category":"other"},{"name":"애드원","tel":"031-838-1474","addr":"경기도 의정부시 가능동 28-3번지","indutype":"용역 서비스 - 종합용역","category":"other"},{"name":"온돌백화점","tel":"031-856-5204","addr":"경기도 의정부시 가능동 28-3번지","indutype":"건축자재 - 기타건축자재","category":"other"},{"name":"펫싸롱","tel":"031-846-2711","addr":"경기도 의정부시 가능동 28-3번지 1층","indutype":"문화.취미 - 애완동물","category":"other"}]},{"lat":"37.755483881","long":"127.04287077","imageIndex":17,"items":[{"name":"(주)한일상사","tel":"031-843-8183","addr":"경기도 의정부시 가능동 67-2번지","indutype":"건축자재 - 보일러·펌프·샷시","category":"other"},{"name":"동광상사","tel":"031-842-0098","addr":"경기도 의정부시 가능동 67-2번지 1층 105호","indutype":"기타 - 기계공구","category":"other"},{"name":"유니온상사","tel":"031-842-0318","addr":"경기도 의정부시 가능동 67-2번지 1층","indutype":"건축자재 - 기타건축자재","category":"other"},{"name":"현대공조닥트","tel":"031-846-6911","addr":"경기도 의정부시 가능동 67-2번지","indutype":"건축자재 - 기타건축자재","category":"other"},{"name":"현대파이프","tel":"070-8630-2139","addr":"경기도 의정부시 가능동 67-2번지","indutype":"건축자재 - 기타건축자재","category":"other"}]},{"lat":"37.746648787","long":"127.03165595","imageIndex":17,"items":[{"name":"21세기광고아크릴","tel":"031-871-5076","addr":"경기도 의정부시 가능동 685-12번지 한솔그랑빌","indutype":"건축자재 - 기타건축자재","category":"other"}]},{"lat":"37.746844422","long":"127.04076706","imageIndex":17,"items":[{"name":"25억이네","tel":"031-879-0649","addr":"경기도 의정부시 가능동 651-15번지 1층","indutype":"의류 - 정장","category":"other"},{"name":"디듀(DiDu)","tel":"070-4176-9931","addr":"경기도 의정부시 가능동 651-15번지 1층","indutype":"의류 - 정장","category":"other"}]},{"lat":"37.745766064","long":"127.03077061","imageIndex":17,"items":[{"name":"55삭스","tel":"070-7672-0089","addr":"경기도 의정부시 가능동 712-7번지 1층","indutype":"의류 - 기타의류","category":"other"}]},{"lat":"37.748627646","long":"127.04278765","imageIndex":17,"items":[{"name":"901스타일(Style)","tel":"031-873-3669","addr":"경기도 의정부시 가능동 642-6번지 102호","indutype":"신변잡화 - 기타잡화","category":"other"}]},{"lat":"37.750869988","long":"127.04573904","imageIndex":17,"items":[{"name":"C.M.S","tel":"02-3492-1998","addr":"경기도 의정부시 가능동 15-236번지","indutype":"사무통신 - 컴퓨터","category":"other"},{"name":"콩캣","tel":"031-823-3267","addr":"경기도 의정부시 가능동 15-236번지 103호","indutype":"문화.취미 - 애완동물","category":"other"}]},{"lat":"37.750539156","long":"127.03812514","imageIndex":17,"items":[{"name":"CRAFT SHOP","tel":"031-871-7477","addr":"경기도 의정부시 가능동 617-15번지","indutype":"회원제형태 - 기타4","category":"other"},{"name":"슈퍼초이스","tel":"070-7346-7826","addr":"경기도 의정부시 가능동 617-15번지 2층 205호","indutype":"유통업 영리 - 기타유통업","category":"other"}]},{"lat":"37.738600923","long":"127.0399914","imageIndex":17,"items":[{"name":"GS25R의정부4점","tel":"","addr":"경기도 의정부시 가능동 754-21번지 4층","indutype":"유통업 영리 - 편 의 점","category":"other"},{"name":"GS25R의정부5점","tel":"","addr":"경기도 의정부시 가능동 754-21번지 5층","indutype":"유통업 영리 - 편 의 점","category":"other"},{"name":"일차이차","tel":"031-826-9508","addr":"경기도 의정부시 가능동 754-21번지 안산빌딩 102-1호","indutype":"유통업 영리 - 편 의 점","category":"other"}]},{"lat":"37.742542282","long":"127.0226573","imageIndex":17,"items":[{"name":"GS25가능로드점","tel":"","addr":"경기도 의정부시 가능동 585-15번지","indutype":"유통업 영리 - 편 의 점","category":"other"}]},{"lat":"37.751068198","long":"127.04573916","imageIndex":17,"items":[{"name":"GS25가능빌리지점","tel":"","addr":"경기도 의정부시 가능동 15-279번지 1층","indutype":"유통업 영리 - 편 의 점","category":"other"}]},{"lat":"37.745152934","long":"127.03273324","imageIndex":17,"items":[{"name":"GS25가능우미점","tel":"","addr":"경기도 의정부시 가능동 718번지 1층","indutype":"유통업 영리 - 편 의 점","category":"other"}]},{"lat":"37.745260532","long":"127.03470749","imageIndex":17,"items":[{"name":"GS25가능타운점","tel":"","addr":"경기도 의정부시 가능동 737번지","indutype":"유통업 영리 - 편 의 점","category":"other"}]},{"lat":"37.741375957","long":"127.03970915","imageIndex":17,"items":[{"name":"GS25가능행복점","tel":"02-2006-2118","addr":"경기도 의정부시 가능동 749-17번지","indutype":"유통업 영리 - 편 의 점","category":"other"}]},{"lat":"37.744703943","long":"127.02612973","imageIndex":17,"items":[{"name":"GS25경민대정문점","tel":"","addr":"경기도 의정부시 가능동 566-27번지 2층","indutype":"유통업 영리 - 편 의 점","category":"other"},{"name":"금오동열쇠","tel":"031-846-6040","addr":"경기도 의정부시 가능동 566-27번지","indutype":"수리서비스 - 기타수리서비스","category":"other"},{"name":"현대건업","tel":"031-843-3862","addr":"경기도 의정부시 가능동 566-27번지","indutype":"건축자재 - 인테리어전문","category":"other"}]},{"lat":"37.753790612","long":"127.04129258","imageIndex":17,"items":[{"name":"GS25녹양힐스테이트점","tel":"","addr":"경기도 의정부시 가능동 50번지 힐스테이트녹양역 301동 101호","indutype":"유통업 영리 - 편 의 점","category":"other"},{"name":"크린에이드","tel":"031-874-0904","addr":"경기도 의정부시 가능동 50번지 힐스테이트녹양역 301동 2층 201-1호","indutype":"수리서비스 - 세탁소","category":"other"},{"name":"통하라기프트","tel":"","addr":"경기도 의정부시 가능동 50번지 힐스테이트녹양역 107동 2502호","indutype":"유통업 영리 - 기타유통업","category":"other"}]},{"lat":"37.748206789","long":"127.0342095","imageIndex":17,"items":[{"name":"GS25의정가능점","tel":"","addr":"경기도 의정부시 가능동 676-2번지","indutype":"유통업 영리 - 편 의 점","category":"other"}]},{"lat":"37.7506282","long":"127.04148384","imageIndex":17,"items":[{"name":"GS25의정반디점","tel":"","addr":"경기도 의정부시 가능동 631-18번지 1층","indutype":"유통업 영리 - 편 의 점","category":"other"}]},{"lat":"37.749927417","long":"127.03493642","imageIndex":17,"items":[{"name":"GS25의정부SK점","tel":"","addr":"경기도 의정부시 가능동 671-30번지 1층","indutype":"유통업 영리 - 편 의 점","category":"other"}]},{"lat":"37.751674891","long":"127.03629881","imageIndex":17,"items":[{"name":"GS25의정부현대점","tel":"","addr":"경기도 의정부시 가능동 607-25번지","indutype":"유통업 영리 - 편 의 점","category":"other"}]},{"lat":"37.748627558","long":"127.04304862","imageIndex":17,"items":[{"name":"HELPCOM","tel":"031-877-2743","addr":"경기도 의정부시 가능동 642-8번지","indutype":"사무통신 - 컴퓨터","category":"other"}]},{"lat":"37.742737811","long":"127.03487659","imageIndex":17,"items":[{"name":"I.P.S","tel":"031-853-0886","addr":"경기도 의정부시 가능동 742-2번지","indutype":"사무통신 - 컴퓨터","category":"other"},{"name":"자전거판매","tel":"031-871-4835","addr":"경기도 의정부시 가능동 742-2번지","indutype":"레져용품 - 스포츠·레져용품","category":"other"}]},{"lat":"37.744235408","long":"127.02632246","imageIndex":17,"items":[{"name":"JP I&C","tel":"070-8274-2292","addr":"경기도 의정부시 가능동 696-7번지","indutype":"건축자재 - 기타건축자재","category":"other"}]},{"lat":"37.752935152","long":"127.03989643","imageIndex":17,"items":[{"name":"KABO","tel":"031-877-8633","addr":"경기도 의정부시 가능동 625-19번지 우림연립 나동 203호","indutype":"회원제형태 - 기타4","category":"other"}]},{"lat":"37.753843398","long":"127.04501453","imageIndex":17,"items":[{"name":"LED-STORY","tel":"031-821-6471","addr":"경기도 의정부시 가능동 15-343번지 1층","indutype":"건축자재 - 조명기구","category":"other"}]},{"lat":"37.753738509","long":"127.03473381","imageIndex":17,"items":[{"name":"LOVE&양주","tel":"031-855-0578","addr":"경기도 의정부시 가능동 362-60번지 1층 1호","indutype":"용역 서비스 - 종합용역","category":"other"}]},{"lat":"37.752069764","long":"127.04137112","imageIndex":17,"items":[{"name":"MK유통","tel":"070-4496-2720","addr":"경기도 의정부시 가능동 634-27번지 202호","indutype":"문화.취미 - 애완동물","category":"other"},{"name":"제이제이종합공사","tel":"031-825-1015","addr":"경기도 의정부시 가능동 634-27번지","indutype":"건축자재 - 인테리어전문","category":"other"}]},{"lat":"37.740875829","long":"127.02068276","imageIndex":17,"items":[{"name":"MS 종합상사","tel":"031-875-0341","addr":"경기도 의정부시 가능동 590-27번지 스타파크빌 102동 301호","indutype":"주방용구 - 정수기","category":"other"},{"name":"유한회사햇살가득","tel":"070-5033-3745","addr":"경기도 의정부시 가능동 590-27번지 스타파크빌 101호","indutype":"의류 - 정장","category":"other"}]},{"lat":"37.742205345","long":"127.03804177","imageIndex":17,"items":[{"name":"NB-바이크","tel":"031-837-8061","addr":"경기도 의정부시 가능동 746-33번지 1층","indutype":"수리서비스 - 레져용품수리","category":"other"},{"name":"동산너머","tel":"031-872-0462","addr":"경기도 의정부시 가능동 746-33번지 영일빌딩 103호","indutype":"건축자재 - 유리","category":"other"}]},{"lat":"37.752537328","long":"127.04412871","imageIndex":17,"items":[{"name":"NZ트레이딩","tel":"031-848-7317","addr":"경기도 의정부시 가능동 22-71번지","indutype":"전기제품 - 기타전기제품","category":"other"}]},{"lat":"37.738843892","long":"127.04089913","imageIndex":17,"items":[{"name":"P&C의정사","tel":"031-837-1030","addr":"경기도 의정부시 가능동 754-11번지 승원하이츠빌라","indutype":"수리서비스 - 세탁소","category":"other"},{"name":"스위트피","tel":"070-4754-0872","addr":"경기도 의정부시 가능동 754-11번지 승원하이츠빌라 1층 101호","indutype":"의류 - 정장","category":"other"}]},{"lat":"37.748789967","long":"127.04234522","imageIndex":17,"items":[{"name":"PC닥터","tel":"031-876-7309","addr":"경기도 의정부시 가능동 648-8번지 범진빌딩 1층","indutype":"사무통신 - 컴퓨터","category":"other"}]},{"lat":"37.745153096","long":"127.03208651","imageIndex":17,"items":[{"name":"SKY","tel":"","addr":"경기도 의정부시 가능동 717-20 성신하이츠빌라 B-201","indutype":"건축자재 - 기타건축자재","category":"other"}]},{"lat":"37.750986736","long":"127.04676033","imageIndex":17,"items":[{"name":"UNI 마스타 세척기","tel":"031-853-8669","addr":"경기도 의정부시 가능동 15-174번지 1층","indutype":"전기제품 - 기타전기제품","category":"other"}]},{"lat":"37.740377254","long":"127.03506844","imageIndex":17,"items":[{"name":"YH정보통신","tel":"031-871-0001","addr":"경기도 의정부시 가능동 832-7번지 대성빌딩","indutype":"사무통신 - 통신기기","category":"other"},{"name":"세무법인 조율","tel":"031-837-0123","addr":"경기도 의정부시 가능동 832-7번지 대성빌딩 1층","indutype":"용역 서비스 - 법률회계서비스(법인)","category":"other"},{"name":"세무사진대섭사무소","tel":"031-837-9570","addr":"경기도 의정부시 가능동 832-7번지 대성빌딩 2층","indutype":"용역 서비스 - 법률회계서비스(개인)","category":"other"},{"name":"올란도어패럴","tel":"031-873-2718","addr":"경기도 의정부시 가능동 832-7번지","indutype":"의류 - 정장","category":"other"}]},{"lat":"37.750403345","long":"127.04029231","imageIndex":17,"items":[{"name":"가구DC마트","tel":"031-872-6884","addr":"경기도 의정부시 가능동 630-26번지","indutype":"가구 - 일반가구","category":"other"}]},{"lat":"37.753819219","long":"127.03609552","imageIndex":17,"items":[{"name":"가구오픈마트","tel":"031-843-7114","addr":"경기도 의정부시 가능동 362-14번지 대경빌딩 606호","indutype":"가구 - 일반가구","category":"other"},{"name":"법률사무소 정제","tel":"031-873-6166","addr":"경기도 의정부시 가능동 362-14번지 대경빌딩 301호","indutype":"용역 서비스 - 법률회계서비스(개인)","category":"other"},{"name":"변호사김희정법률사무소","tel":"031-855-4443","addr":"경기도 의정부시 가능동 362-14번지 대경빌딩","indutype":"용역 서비스 - 법률회계서비스(개인)","category":"other"}]},{"lat":"37.743656627","long":"127.03545562","imageIndex":17,"items":[{"name":"가나설비","tel":"031-876-7701","addr":"경기도 의정부시 가능동 732번지","indutype":"수리서비스 - 기타수리서비스","category":"other"}]},{"lat":"37.746369847","long":"127.03015814","imageIndex":17,"items":[{"name":"가나철물","tel":"031-872-0073","addr":"경기도 의정부시 가능동 689-12번지 1층","indutype":"유통업 영리 - 기타유통업","category":"other"}]},{"lat":"37.746594573","long":"127.03229131","imageIndex":17,"items":[{"name":"가능 셀프 빨래방","tel":"031-4097-3858","addr":"경기도 의정부시 가능동 685-9번지","indutype":"수리서비스 - 세탁소","category":"other"}]},{"lat":"37.746765252","long":"127.03424293","imageIndex":17,"items":[{"name":"가능건강원","tel":"031-873-3911","addr":"경기도 의정부시 가능동 677-6번지","indutype":"회원제형태 - 기타4","category":"other"}]},{"lat":"37.742793072","long":"127.03007741","imageIndex":17,"items":[{"name":"가능도장","tel":"031-873-5754","addr":"경기도 의정부시 가능동 706-9번지","indutype":"기타 - 기타 전문점","category":"other"},{"name":"굿모닝식기세척기","tel":"031-947-1243","addr":"경기도 의정부시 가능동 706-9번지","indutype":"전기제품 - 가전제품","category":"other"}]},{"lat":"37.748510652","long":"127.04240181","imageIndex":17,"items":[{"name":"가능보석","tel":"031-876-0904","addr":"경기도 의정부시 가능동 648-39번지","indutype":"신변잡화 - 시계","category":"other"}]},{"lat":"37.746737627","long":"127.03641005","imageIndex":17,"items":[{"name":"가능서점","tel":"031-874-6927","addr":"경기도 의정부시 가능동 667-25번지","indutype":"서적문구 - 일반서적","category":"other"}]},{"lat":"37.751458671","long":"127.03626467","imageIndex":17,"items":[{"name":"가능설비","tel":"031-879-5059","addr":"경기도 의정부시 가능동 606-18번지 1층","indutype":"건축자재 - 목재·석재·철물","category":"other"},{"name":"스몰블랑","tel":"","addr":"경기도 의정부시 가능동 606-18번지 1층","indutype":"문화.취미 - 민예·공예품","category":"other"}]},{"lat":"37.750458202","long":"127.03768257","imageIndex":17,"items":[{"name":"가능신발","tel":"031-874-9868","addr":"경기도 의정부시 가능동 617-2번지","indutype":"신변잡화 - 신발","category":"other"}]},{"lat":"37.752648918","long":"127.03257739","imageIndex":17,"items":[{"name":"가능요양복지센터","tel":"031-875-8000","addr":"경기도 의정부시 가능동 353-1번지","indutype":"기타의료기관 - 기타의료기관 및 기타","category":"other"}]},{"lat":"37.747954609","long":"127.03388035","imageIndex":17,"items":[{"name":"가능유리","tel":"031-876-4296","addr":"경기도 의정부시 가능동 676-5번지","indutype":"건축자재 - 유리","category":"other"}]},{"lat":"37.745207935","long":"127.02873946","imageIndex":17,"items":[{"name":"가능종합크린텔","tel":"031-872-0343","addr":"경기도 의정부시 가능동 710-23번지","indutype":"수리서비스 - 세탁소","category":"other"}]},{"lat":"37.750457019","long":"127.04148375","imageIndex":17,"items":[{"name":"가능통신","tel":"031-855-1011","addr":"경기도 의정부시 가능동 631-21번지 1층","indutype":"사무통신 - 통신기기","category":"other"}]},{"lat":"37.748873408","long":"127.03453883","imageIndex":17,"items":[{"name":"가정건설중기","tel":"031-851-8131","addr":"경기도 의정부시 가능동 670-9번지","indutype":"기타 - 기계공구","category":"other"},{"name":"상명건설기계","tel":"031-878-0404","addr":"경기도 의정부시 가능동 670-9번지","indutype":"기타 - 기계공구","category":"other"}]},{"lat":"37.743343831","long":"127.02438206","imageIndex":17,"items":[{"name":"강모터스","tel":"031-877-2345","addr":"경기도 의정부시 가능동 555-14번지","indutype":"수리서비스 - 레져용품수리","category":"other"}]},{"lat":"37.751564229","long":"127.04432107","imageIndex":17,"items":[{"name":"강아지나라","tel":"031-840-8253","addr":"경기도 의정부시 가능동 20-1번지","indutype":"문화.취미 - 애완동물","category":"other"},{"name":"예쁜강아지","tel":"031-840-8253","addr":"경기도 의정부시 가능동 20-1번지","indutype":"문화.취미 - 애완동물","category":"other"}]},{"lat":"37.743845489","long":"127.03665836","imageIndex":17,"items":[{"name":"강아지세상","tel":"031-871-8034","addr":"경기도 의정부시 가능동 733-33번지","indutype":"문화.취미 - 애완동물","category":"other"}]},{"lat":"37.751432185","long":"127.03429029","imageIndex":17,"items":[{"name":"강추기프트","tel":"031-872-8789","addr":"경기도 의정부시 가능동 113-75번지","indutype":"유통업 영리 - 기타유통업","category":"other"}]},{"lat":"37.741845416","long":"127.03648727","imageIndex":17,"items":[{"name":"강호시스템","tel":"031-859-9623","addr":"경기도 의정부시 가능동 744-16번지","indutype":"용역 서비스 - 기타용역서비스","category":"other"}]},{"lat":"37.742874551","long":"127.02831886","imageIndex":17,"items":[{"name":"경기벽지촌","tel":"031-872-7606","addr":"경기도 의정부시 가능동 700-13번지","indutype":"직물 - 카페트,커튼,천막,지물","category":"other"}]},{"lat":"37.742900309","long":"127.03365133","imageIndex":17,"items":[{"name":"경기천막","tel":"031-876-3900","addr":"경기도 의정부시 가능동 227-1번지 1층","indutype":"직물 - 카페트,커튼,천막,지물","category":"other"}]},{"lat":"37.749734029","long":"127.04776945","imageIndex":17,"items":[{"name":"경기토탈전기난방","tel":"031-841-1088","addr":"경기도 의정부시 가능동 15-196번지","indutype":"전기제품 - 기타전기제품","category":"other"}]},{"lat":"37.753096058","long":"127.04373187","imageIndex":17,"items":[{"name":"경만타이루","tel":"031-848-7240","addr":"경기도 의정부시 가능동 26-5번지","indutype":"건축자재 - 건축용 요업제품","category":"other"}]},{"lat":"37.74431651","long":"127.02624306","imageIndex":17,"items":[{"name":"경민문고","tel":"031-878-7489","addr":"경기도 의정부시 가능동 696-4번지","indutype":"회원제형태 - 서적","category":"other"},{"name":"태원인쇄","tel":"031-877-6043","addr":"경기도 의정부시 가능동 696-4번지","indutype":"서적문구 - 출판 및 인쇄물","category":"other"}]},{"lat":"37.75509644","long":"127.04296134","imageIndex":17,"items":[{"name":"경원.한신콤프레샤","tel":"031-845-6490","addr":"경기도 의정부시 가능동 67-16번지","indutype":"기타 - 기계공구","category":"other"},{"name":"대우종합건설기계","tel":"031-844-1464","addr":"경기도 의정부시 가능동 67-16번지","indutype":"건축자재 - 기타건축자재","category":"other"},{"name":"한국종합열기","tel":"031-844-2638","addr":"경기도 의정부시 가능동 67-16번지 2호","indutype":"전기제품 - 냉열기기","category":"other"}]},{"lat":"37.750369297","long":"127.0333821","imageIndex":17,"items":[{"name":"경익세기냉동","tel":"031-873-8080","addr":"경기도 의정부시 가능동 672-1번지","indutype":"전기제품 - 냉열기기","category":"other"}]},{"lat":"37.742874037","long":"127.03059934","imageIndex":17,"items":[{"name":"경인광고","tel":"031-829-9896","addr":"경기도 의정부시 가능동 706-24번지 1층","indutype":"건축자재 - 인테리어전문","category":"other"}]},{"lat":"37.756150621","long":"127.042769","imageIndex":17,"items":[{"name":"경일건축","tel":"031-848-1952","addr":"경기도 의정부시 가능동 66-20번지","indutype":"건축자재 - 기타건축자재","category":"other"},{"name":"시대중전기","tel":"031-842-3324","addr":"경기도 의정부시 가능동 66-20번지","indutype":"전기제품 - 기타전기제품","category":"other"}]},{"lat":"37.75148543","long":"127.03720648","imageIndex":17,"items":[{"name":"경한테크","tel":"031-838-3516","addr":"경기도 의정부시 가능동 614-7번지 3층","indutype":"신변잡화 - 기타잡화","category":"other"}]},{"lat":"37.752564221","long":"127.04451453","imageIndex":17,"items":[{"name":"경화상사","tel":"031-846-7486","addr":"경기도 의정부시 가능동 22-21번지","indutype":"기타 - 기계공구","category":"other"},{"name":"상추상사","tel":"031-846-7486","addr":"경기도 의정부시 가능동 22-21번지 1층","indutype":"전기제품 - 기타전기제품","category":"other"}]},{"lat":"37.742819287","long":"127.03340169","imageIndex":17,"items":[{"name":"고려간판재료","tel":"031-875-1694","addr":"경기도 의정부시 가능동 227-22번지","indutype":"용역 서비스 - 종합용역","category":"other"},{"name":"날으는곰의정부홍익점","tel":"031-872-2089","addr":"경기도 의정부시 가능동 227-22번지","indutype":"용역 서비스 - 종합용역","category":"other"}]},{"lat":"37.747846279","long":"127.0346859","imageIndex":17,"items":[{"name":"고려기획","tel":"031-878-9022","addr":"경기도 의정부시 가능동 669-10번지","indutype":"용역 서비스 - 종합용역","category":"other"}]},{"lat":"37.750432285","long":"127.03368849","imageIndex":17,"items":[{"name":"고려종합장식","tel":"031-876-2515","addr":"경기도 의정부시 가능동 672-3번지","indutype":"직물 - 카페트,커튼,천막,지물","category":"other"},{"name":"삼화페인트","tel":"031-867-7771","addr":"경기도 의정부시 가능동 672-3번지","indutype":"건축자재 - 페인트","category":"other"}]},{"lat":"37.742818675","long":"127.03568216","imageIndex":17,"items":[{"name":"고려페인트 아시아상사","tel":"031-874-9667","addr":"경기도 의정부시 가능동 739-20번지 1층","indutype":"건축자재 - 페인트","category":"other"}]},{"lat":"37.742683654","long":"127.03523963","imageIndex":17,"items":[{"name":"골든팰리스","tel":"031-872-9112","addr":"경기도 의정부시 가능동 742-8번지","indutype":"용역 서비스 - 부동산 중개·임대","category":"other"},{"name":"성창미싱","tel":"031-876-1669","addr":"경기도 의정부시 가능동 742-8번지 골든펠리스 101호","indutype":"기타 - 기계공구","category":"other"}]},{"lat":"37.753954974","long":"127.03384881","imageIndex":17,"items":[{"name":"공증인이병렬사무소","tel":"031-875-8700","addr":"경기도 의정부시 가능동 363-1번지 법전빌딩 506호","indutype":"용역 서비스 - 법률회계서비스(개인)","category":"other"},{"name":"박현근 법률사무소","tel":"031-855-9955","addr":"경기도 의정부시 가능동 363-1번지 법전빌딩 301호","indutype":"용역 서비스 - 법률회계서비스(개인)","category":"other"},{"name":"백건우변호사사무소","tel":"031-874-4600","addr":"경기도 의정부시 가능동 363-1번지 법전빌딩 502호","indutype":"용역 서비스 - 법률회계서비스(개인)","category":"other"},{"name":"법률사무소 다함","tel":"031-873-8400","addr":"경기도 의정부시 가능동 363-1번지 법전빌딩 205호","indutype":"용역 서비스 - 법률회계서비스(개인)","category":"other"},{"name":"법률사무소정성","tel":"031-873-6565","addr":"경기도 의정부시 가능동 363-1번지 법전빌딩 202호","indutype":"용역 서비스 - 법률회계서비스(개인)","category":"other"},{"name":"법무사안형철사무소","tel":"031-826-8111","addr":"경기도 의정부시 가능동 363-1번지","indutype":"용역 서비스 - 법률회계서비스(개인)","category":"other"},{"name":"변호사 임현일 법률사무소","tel":"031-874-3500","addr":"경기도 의정부시 가능동 363-1번지 법전빌딩 304호","indutype":"용역 서비스 - 법률회계서비스(개인)","category":"other"},{"name":"변호사권종칠사무소","tel":"031-875-9400","addr":"경기도 의정부시 가능동 363-1번지 법전빌딩 405호","indutype":"용역 서비스 - 법률회계서비스(개인)","category":"other"},{"name":"변호사김민규법률사무소","tel":"031-855-9955","addr":"경기도 의정부시 가능동 363-1번지 법전빌딩 403호","indutype":"용역 서비스 - 법률회계서비스(개인)","category":"other"},{"name":"변호사김영일법률사무","tel":"031-874-4600","addr":"경기도 의정부시 가능동 363-1번지 법전빌딩 501호","indutype":"용역 서비스 - 법률회계서비스(개인)","category":"other"},{"name":"변호사박상현법률사무","tel":"031-871-9300","addr":"경기도 의정부시 가능동 363-1번지 법전빌딩 306호","indutype":"용역 서비스 - 법률회계서비스(개인)","category":"other"},{"name":"변호사엄태영법률사무소","tel":"031-877-7211","addr":"경기도 의정부시 가능동 363-1 법전빌딩 504호~505호","indutype":"용역 서비스 - 법률회계서비스(개인)","category":"other"},{"name":"변호사홍영재법률사무소","tel":"031-876-2005","addr":"경기도 의정부시 가능동 363-1번지 법전빌딩 403호","indutype":"용역 서비스 - 법률회계서비스(개인)","category":"other"},{"name":"손광운법률사무소","tel":"031-878-4090","addr":"경기도 의정부시 가능동 363-1번지 법전빌딩 304호","indutype":"용역 서비스 - 법률회계서비스(개인)","category":"other"},{"name":"지인 법률사무소","tel":"031-874-9714","addr":"경기도 의정부시 가능동 363-1번지 법전빌딩 303호","indutype":"용역 서비스 - 법률회계서비스(개인)","category":"other"}]},{"lat":"37.746819175","long":"127.03474219","imageIndex":17,"items":[{"name":"광고나라","tel":"031-871-6077","addr":"경기도 의정부시 가능동 668-9번지","indutype":"용역 서비스 - 종합용역","category":"other"}]},{"lat":"37.754845899","long":"127.03751442","imageIndex":17,"items":[{"name":"광동서점","tel":"031-874-0631","addr":"경기도 의정부시 가능동 106-27번지","indutype":"서적문구 - 일반서적","category":"other"},{"name":"제이엠골프피팅","tel":"","addr":"경기도 의정부시 가능동 106-27번지 102호","indutype":"레져용품 - 골프용품 전문점","category":"other"}]},{"lat":"37.74798205","long":"127.03226917","imageIndex":17,"items":[{"name":"광명사","tel":"031-873-5722","addr":"경기도 의정부시 가능동 681-8 상가","indutype":"수리서비스 - 세탁소","category":"other"}]},{"lat":"37.750648128","long":"127.03512962","imageIndex":17,"items":[{"name":"광명설비","tel":"031-877-8364","addr":"경기도 의정부시 가능동 605-41번지","indutype":"건축자재 - 보일러·펌프·샷시","category":"other"}]},{"lat":"37.752396811","long":"127.0319305","imageIndex":17,"items":[{"name":"광명자동차유리","tel":"031-871-0531","addr":"경기도 의정부시 가능동 353-8번지 101호","indutype":"건축자재 - 유리","category":"other"}]},{"lat":"37.745900314","long":"127.03432199","imageIndex":17,"items":[{"name":"국제광고","tel":"031-875-0480","addr":"경기도 의정부시 가능동 723-4번지","indutype":"용역 서비스 - 종합용역","category":"other"}]},{"lat":"37.738600616","long":"127.04095573","imageIndex":17,"items":[{"name":"굴리다에듀테인먼트","tel":"070-4060-1722","addr":"경기도 의정부시 가능동 754-19번지 4층","indutype":"서적문구 - 기타서적문구","category":"other"},{"name":"랩타일타운","tel":"","addr":"경기도 의정부시 가능동 754-19번지 지하층","indutype":"문화.취미 - 애완동물","category":"other"}]},{"lat":"37.749625979","long":"127.04759918","imageIndex":17,"items":[{"name":"귀뚜라미보일러수리전문점","tel":"031-874-9008","addr":"경기도 의정부시 가능동 15-498번지 1층","indutype":"수리서비스 - 기타수리서비스","category":"other"}]},{"lat":"37.742765524","long":"127.03224442","imageIndex":17,"items":[{"name":"귀뚜라미보일러의정부지정점","tel":"031-878-9500","addr":"경기도 의정부시 가능동 227-64번지","indutype":"건축자재 - 보일러·펌프·샷시","category":"other"}]},{"lat":"37.746710465","long":"127.03687524","imageIndex":17,"items":[{"name":"그루밍쇼","tel":"031-878-9981","addr":"경기도 의정부시 가능동 652-40번지 1층","indutype":"문화.취미 - 애완동물","category":"other"}]},{"lat":"37.743990145","long":"127.03485444","imageIndex":17,"items":[{"name":"그린INC","tel":"070-4240-4002","addr":"경기도 의정부시 가능동 738-27번지 2층","indutype":"사무통신 - 통신기기","category":"other"},{"name":"바른전기공사","tel":"031-877-0357","addr":"경기도 의정부시 가능동 738-27번지 2층","indutype":"용역 서비스 - 기타용역서비스","category":"other"}]},{"lat":"37.745765931","long":"127.03132657","imageIndex":17,"items":[{"name":"그린난방공사","tel":"031-877-9005","addr":"경기도 의정부시 가능동 715-3번지","indutype":"용역 서비스 - 기타용역서비스","category":"other"},{"name":"노엘홈페션","tel":"031-873-0025","addr":"경기도 의정부시 가능동 715-3번지","indutype":"직물 - 침구·수예점","category":"other"}]},{"lat":"37.740934488","long":"127.03970893","imageIndex":17,"items":[{"name":"글씨파는 남자(의정부점)","tel":"070-4000-4934","addr":"경기도 의정부시 가능동 835번지 1층","indutype":"건축자재 - 인테리어전문","category":"other"},{"name":"아카데미서점문구","tel":"031-875-6742","addr":"경기도 의정부시 가능동 835번지","indutype":"서적문구 - 일반서적","category":"other"}]},{"lat":"37.742349847","long":"127.03685055","imageIndex":17,"items":[{"name":"금강헬스","tel":"031-855-6755","addr":"경기도 의정부시 가능동 743-20번지","indutype":"회원제형태 - 레져업소","category":"other"},{"name":"제이지 바이크 (JG BIKE)","tel":"031-856-5288","addr":"경기도 의정부시 가능동 743-20번지 1층","indutype":"레져용품 - 스포츠·레져용품","category":"other"}]},{"lat":"37.750457207","long":"127.04090507","imageIndex":17,"items":[{"name":"금성기업","tel":"031-875-3207","addr":"경기도 의정부시 가능동 631-8번지","indutype":"건축자재 - 기타건축자재","category":"other"}]},{"lat":"37.755844278","long":"127.04282557","imageIndex":17,"items":[{"name":"금성전기","tel":"031-847-8273","addr":"경기도 의정부시 가능동 66-23번지 1층","indutype":"전기제품 - 기타전기제품","category":"other"},{"name":"윌로펌프","tel":"031-842-7588","addr":"경기도 의정부시 가능동 66-23번지","indutype":"건축자재 - 보일러·펌프·샷시","category":"other"}]},{"lat":"37.742322714","long":"127.0372136","imageIndex":17,"items":[{"name":"금성종합철물","tel":"031-855-6030","addr":"경기도 의정부시 가능동 746-1번지","indutype":"건축자재 - 목재·석재·철물","category":"other"}]},{"lat":"37.755735966","long":"127.04340424","imageIndex":17,"items":[{"name":"금성페인트","tel":"031-843-3752","addr":"경기도 의정부시 가능동 87-2번지","indutype":"건축자재 - 페인트","category":"other"},{"name":"대성정밀기어","tel":"031-846-1763","addr":"경기도 의정부시 가능동 87-2","indutype":"기타 - 기계공구","category":"other"},{"name":"동양금속","tel":"031-840-5102","addr":"경기도 의정부시 가능동 87-2","indutype":"건축자재 - 기타건축자재","category":"other"},{"name":"범영종합상사","tel":"031-848-2135","addr":"경기도 의정부시 가능동 87-2","indutype":"기타 - 기계공구","category":"other"},{"name":"서명공구","tel":"031-846-0982","addr":"경기도 의정부시 가능동 87-2","indutype":"기타 - 기계공구","category":"other"},{"name":"오성종합공구","tel":"031-848-0989","addr":"경기도 의정부시 가능동 87-2번지","indutype":"기타 - 기계공구","category":"other"},{"name":"청소꾼들","tel":"031-876-4266","addr":"경기도 의정부시 가능동 87-2번지 3층","indutype":"용역 서비스 - 종합용역","category":"other"}]},{"lat":"37.750707419","long":"127.0468169","imageIndex":17,"items":[{"name":"금호시스템","tel":"031-1800-7141","addr":"경기도 의정부시 가능동 15-155번지","indutype":"용역 서비스 - 기타용역서비스","category":"other"}]},{"lat":"37.752375235","long":"127.04390168","imageIndex":17,"items":[{"name":"금호피복상사","tel":"031-847-8477","addr":"경기도 의정부시 가능동 22-41번지","indutype":"유통업 영리 - 기타유통업","category":"other"}]},{"lat":"37.744458636","long":"127.03487733","imageIndex":17,"items":[{"name":"기호장례토탈서비스","tel":"031-821-4444","addr":"경기도 의정부시 가능동 738-1번지 1층 지상 1층","indutype":"용역 서비스 - 가례서비스업","category":"other"},{"name":"청솔의자","tel":"031-871-7469","addr":"경기도 의정부시 가능동 738-1번지","indutype":"가구 - 기타가구","category":"other"}]},{"lat":"37.741656543","long":"127.0353186","imageIndex":17,"items":[{"name":"긴급열쇠","tel":"031-856-0404","addr":"경기도 의정부시 가능동 830-5번지 영성빌라 가동 401호","indutype":"수리서비스 - 기타수리서비스","category":"other"}]},{"lat":"37.75409937","long":"127.03290704","imageIndex":17,"items":[{"name":"김광호법무사사무소","tel":"031-878-5500","addr":"경기도 의정부시 가능동 362-18번지","indutype":"용역 서비스 - 법률회계서비스(개인)","category":"other"},{"name":"박문우법률사무소","tel":"031-874-1652","addr":"경기도 의정부시 가능동 362-18번지","indutype":"용역 서비스 - 법률회계서비스(개인)","category":"other"},{"name":"법무법인 승우","tel":"031-928-5006","addr":"경기도 의정부시 가능동 362-18번지 세광빌딩 3층","indutype":"용역 서비스 - 법률회계서비스(법인)","category":"other"},{"name":"변호사정환영법률사무소","tel":"031-873-9671","addr":"경기도 의정부시 가능동 362-18번지 세광비링 2층","indutype":"용역 서비스 - 법률회계서비스(개인)","category":"other"},{"name":"이종구법무사","tel":"031-873-6182","addr":"경기도 의정부시 가능동 362-18","indutype":"용역 서비스 - 법률회계서비스(개인)","category":"other"}]},{"lat":"37.754126534","long":"127.03237372","imageIndex":17,"items":[{"name":"김노식변호사사무소","tel":"031-874-6000","addr":"경기도 의정부시 가능동 362-42번지","indutype":"용역 서비스 - 법률회계서비스(개인)","category":"other"},{"name":"목요상변호사사무소","tel":"031-874-6000","addr":"경기도 의정부시 가능동 362-42번지","indutype":"용역 서비스 - 법률회계서비스(개인)","category":"other"},{"name":"법률사무소성현","tel":"031-837-8450","addr":"경기도 의정부시 가능동 362-42번지 3층 1호","indutype":"용역 서비스 - 법률회계서비스(개인)","category":"other"},{"name":"변호사조행란법률사무소","tel":"031-871-3366","addr":"경기도 의정부시 가능동 362-42번지","indutype":"용역 서비스 - 법률회계서비스(개인)","category":"other"},{"name":"선우행정사사무소","tel":"070-8841-3504","addr":"경기도 의정부시 가능동 362-42번지 신성빌딩","indutype":"용역 서비스 - 법률회계서비스(개인)","category":"other"},{"name":"한흥모변호사사무실","tel":"031-877-3113","addr":"경기도 의정부시 가능동 362-42번지","indutype":"용역 서비스 - 법률회계서비스(개인)","category":"other"}]},{"lat":"37.753982387","long":"127.03235097","imageIndex":17,"items":[{"name":"김앤박 법무사법인","tel":"031-836-1100","addr":"경기도 의정부시 가능동 362-6번지","indutype":"용역 서비스 - 법률회계서비스(법인)","category":"other"},{"name":"법무사이경훈사무소","tel":"031-876-1962","addr":"경기도 의정부시 가능동 362-6번지 2층","indutype":"용역 서비스 - 법률회계서비스(개인)","category":"other"},{"name":"법무사한태희사무소","tel":"031-872-0118","addr":"경기도 의정부시 가능동 362-6번지","indutype":"용역 서비스 - 법률회계서비스(개인)","category":"other"}]},{"lat":"37.743512357","long":"127.03587535","imageIndex":17,"items":[{"name":"김연자연지킴이","tel":"02-5063-7779","addr":"경기도 의정부시 가능동 732-10번지","indutype":"신변잡화 - 기타잡화","category":"other"},{"name":"펫싸롱","tel":"031-855-2710","addr":"경기도 의정부시 가능동 732-10번지 1층","indutype":"문화.취미 - 애완동물","category":"other"}]},{"lat":"37.753738561","long":"127.03454091","imageIndex":17,"items":[{"name":"김영건법무사사무소","tel":"031-876-4078","addr":"경기도 의정부시 가능동 362-123번지 2층","indutype":"용역 서비스 - 법률회계서비스(개인)","category":"other"},{"name":"변호사김성연법률사무소","tel":"031-874-8500","addr":"경기도 의정부시 가능동 362-123번지 1층","indutype":"용역 서비스 - 법률회계서비스(개인)","category":"other"},{"name":"변호사장동규법률사무소","tel":"031-874-8500","addr":"경기도 의정부시 가능동 362-123번지 1층","indutype":"용역 서비스 - 법률회계서비스(개인)","category":"other"}]},{"lat":"37.754099277","long":"127.03327015","imageIndex":17,"items":[{"name":"김원일변호사","tel":"031-878-0700","addr":"경기도 의정부시 가능동 365-30번지 정욱빌딩","indutype":"용역 서비스 - 법률회계서비스(개인)","category":"other"},{"name":"변호사문건희법률사무소","tel":"031-837-9895","addr":"경기도 의정부시 가능동 365-30번지 정욱빌딩 2층","indutype":"용역 서비스 - 법률회계서비스(개인)","category":"other"},{"name":"원정법무사사무소","tel":"031-871-3567","addr":"경기도 의정부시 가능동 365-30번지","indutype":"용역 서비스 - 법률회계서비스(개인)","category":"other"}]},{"lat":"37.746648152","long":"127.03415211","imageIndex":17,"items":[{"name":"김진 노래교실","tel":"031-876-5325","addr":"경기도 의정부시 가능동 677-7번지 3층","indutype":"문화.취미 - 문화취미기타","category":"other"},{"name":"비투비 KOREA","tel":"031-873-7677","addr":"경기도 의정부시 가능동 677-7번지 지하","indutype":"전기제품 - 가전제품","category":"other"},{"name":"태승가스경보시스템","tel":"031-872-5559","addr":"경기도 의정부시 가능동 677-7번지 401호","indutype":"용역 서비스 - 기타용역서비스","category":"other"}]},{"lat":"37.755099707","long":"127.03179539","imageIndex":17,"items":[{"name":"김태선다이어트복싱클럽","tel":"031-829-1288","addr":"경기도 의정부시 가능동 369-17번지","indutype":"회원제형태 - 레져업소","category":"other"},{"name":"법률사무소 명승","tel":"031-928-4742","addr":"경기도 의정부시 가능동 369-17번지 풍전빌딩 2층","indutype":"용역 서비스 - 법률회계서비스(개인)","category":"other"},{"name":"법률사무소 지윤","tel":"031-823-5100","addr":"경기도 의정부시 가능동 369-17번지 2층","indutype":"용역 서비스 - 법률회계서비스(개인)","category":"other"},{"name":"법무사심은경사무소","tel":"031-871-8898","addr":"경기도 의정부시 가능동 369-17번지","indutype":"용역 서비스 - 법률회계서비스(개인)","category":"other"},{"name":"변호사 김병철 법률사무소","tel":"031-827-2200","addr":"경기도 의정부시 가능동 369-17번지 풍전빌딩 1층","indutype":"용역 서비스 - 법률회계서비스(개인)","category":"other"},{"name":"변호사김동하.박선배법률사무소","tel":"031-875-3131","addr":"경기도 의정부시 가능동 369-17번지 풍전빌딩 3층","indutype":"용역 서비스 - 법률회계서비스(개인)","category":"other"},{"name":"변호사박선배법률사무소","tel":"031-877-8488","addr":"경기도 의정부시 가능동 369-17번지 풍전빌딜 3층","indutype":"용역 서비스 - 법률회계서비스(개인)","category":"other"},{"name":"이광복변호사사무실","tel":"031-871-8787","addr":"경기도 의정부시 가능동 369-17번지","indutype":"용역 서비스 - 법률회계서비스(개인)","category":"other"}]},{"lat":"37.754369754","long":"127.03252134","imageIndex":17,"items":[{"name":"김희성법무사사무소","tel":"031-879-3434","addr":"경기도 의정부시 가능동 362-27번지","indutype":"용역 서비스 - 법률회계서비스(개인)","category":"other"},{"name":"법률사무소 인해","tel":"031-877-2700","addr":"경기도 의정부시 가능동 362-27번지 3층","indutype":"용역 서비스 - 법률회계서비스(개인)","category":"other"},{"name":"정종희법률사무소","tel":"031-879-3640","addr":"경기도 의정부시 가능동 362-27번지","indutype":"용역 서비스 - 법률회계서비스(개인)","category":"other"},{"name":"현 녹취속기사무소","tel":"031-827-0051","addr":"경기도 의정부시 가능동 362-27번지 1층","indutype":"용역 서비스 - 사무서비스","category":"other"}]},{"lat":"37.746485194","long":"127.0369886","imageIndex":17,"items":[{"name":"꼼지락꼼지락","tel":"","addr":"경기도 의정부시 가능동 725-12번지 1층","indutype":"신변잡화 - 액세서리","category":"other"}]},{"lat":"37.750403623","long":"127.03940726","imageIndex":17,"items":[{"name":"꽃율수선","tel":"","addr":"경기도 의정부시 가능동 630-7번지 103호","indutype":"수리서비스 - 세탁소","category":"other"},{"name":"대성","tel":"031-826-1810","addr":"경기도 의정부시 가능동 630-7번지","indutype":"전기제품 - 가전제품","category":"other"},{"name":"미인만들기","tel":"031-529-7173","addr":"경기도 의정부시 가능동 630-7번지","indutype":"신변잡화 - 액세서리","category":"other"},{"name":"조은인테리어","tel":"031-875-9566","addr":"경기도 의정부시 가능동 630-7번지","indutype":"직물 - 카페트,커튼,천막,지물","category":"other"}]},{"lat":"37.739267677","long":"127.03984425","imageIndex":17,"items":[{"name":"나래커텐장식","tel":"031-875-4875","addr":"경기도 의정부시 가능동 836-13번지","indutype":"직물 - 카페트,커튼,천막,지물","category":"other"}]},{"lat":"37.741322868","long":"127.03646434","imageIndex":17,"items":[{"name":"나무로","tel":"031-875-8794","addr":"경기도 의정부시 가능동 744-32번지","indutype":"서적문구 - 문구용품","category":"other"},{"name":"연공간","tel":"","addr":"경기도 의정부시 가능동 744-32번지","indutype":"문화.취미 - 문화취미기타","category":"other"}]},{"lat":"37.748816854","long":"127.04276506","imageIndex":17,"items":[{"name":"나무와가구","tel":"031-838-3759","addr":"경기도 의정부시 가능동 642번지","indutype":"가구 - 일반가구","category":"other"},{"name":"제이인서울디자인","tel":"031-858-3020","addr":"경기도 의정부시 가능동 642번지","indutype":"신변잡화 - 가방","category":"other"}]},{"lat":"37.748513114","long":"127.03420963","imageIndex":17,"items":[{"name":"나은중고","tel":"031-829-2227","addr":"경기도 의정부시 가능동 675-16번지","indutype":"전기제품 - 가전제품","category":"other"},{"name":"제이디전기조명생활용품","tel":"031-825-4057","addr":"경기도 의정부시 가능동 675-16번지 1,2층","indutype":"신변잡화 - 기타잡화","category":"other"}]},{"lat":"37.746737793","long":"127.03582005","imageIndex":17,"items":[{"name":"남달라","tel":"031-878-1540","addr":"경기도 의정부시 가능동 667-9번지 1층","indutype":"의류 - 기타의류","category":"other"},{"name":"더 드레스","tel":"","addr":"경기도 의정부시 가능동 667-9번지 1층","indutype":"의류 - 정장","category":"other"}]},{"lat":"37.754206439","long":"127.03676519","imageIndex":17,"items":[{"name":"남원목기","tel":"031-874-3477","addr":"경기도 의정부시 가능동 110-7번지","indutype":"문화.취미 - 민예·공예품","category":"other"},{"name":"송림스포츠","tel":"031-837-8822","addr":"경기도 의정부시 가능동 110-7번지","indutype":"레져용품 - 스포츠·레져용품","category":"other"},{"name":"영일공구","tel":"031-871-0109","addr":"경기도 의정부시 가능동 110-7번지","indutype":"기타 - 기계공구","category":"other"}]},{"lat":"37.744683905","long":"127.03476397","imageIndex":17,"items":[{"name":"남전사","tel":"031-878-8793","addr":"경기도 의정부시 가능동 737-23번지","indutype":"전기제품 - 기타전기제품","category":"other"}]},{"lat":"37.755486965","long":"127.03240831","imageIndex":17,"items":[{"name":"남총희법무사","tel":"031-875-4133","addr":"경기도 의정부시 가능동 366-7번지","indutype":"용역 서비스 - 법률회계서비스(개인)","category":"other"},{"name":"크린토피아녹양점","tel":"031-873-8733","addr":"경기도 의정부시 가능동 366-7번지","indutype":"수리서비스 - 세탁소","category":"other"}]},{"lat":"37.742511808","long":"127.03757674","imageIndex":17,"items":[{"name":"노을광고기획인쇄","tel":"031-824-9449","addr":"경기도 의정부시 가능동 740-6번지","indutype":"용역 서비스 - 종합용역","category":"other"}]},{"lat":"37.751594093","long":"127.0352662","imageIndex":17,"items":[{"name":"누리SYSTEM","tel":"031-1600-5334","addr":"경기도 의정부시 가능동 607-39번지","indutype":"전기제품 - 기타전기제품","category":"other"},{"name":"샤인네트워크","tel":"031-838-8204","addr":"경기도 의정부시 가능동 607-39번지 1층","indutype":"전기제품 - 기타전기제품","category":"other"}]},{"lat":"37.739871343","long":"127.03976513","imageIndex":17,"items":[{"name":"뉴바디","tel":"070-8285-7399","addr":"경기도 의정부시 가능동 836-5번지","indutype":"의류 - 정장","category":"other"}]},{"lat":"37.750486234","long":"127.03409699","imageIndex":17,"items":[{"name":"다가족 어르신주간보호 가능점","tel":"031-855-8888","addr":"경기도 의정부시 가능동 603-15번지 5층","indutype":"기타의료기관 - 기타의료기관 및 기타","category":"other"}]},{"lat":"37.751924845","long":"127.0436518","imageIndex":17,"items":[{"name":"다엘기업","tel":"","addr":"경기도 의정부시 가능동 31-36번지 지층","indutype":"기타 - 기계공구","category":"other"}]},{"lat":"37.742069941","long":"127.03890396","imageIndex":17,"items":[{"name":"다온광고","tel":"031-877-2862","addr":"경기도 의정부시 가능동 747번지 1층","indutype":"건축자재 - 인테리어전문","category":"other"}]},{"lat":"37.746485243","long":"127.0368184","imageIndex":17,"items":[{"name":"다현꿈방","tel":"031-838-9788","addr":"경기도 의정부시 가능동 725-11번지","indutype":"직물 - 침구·수예점","category":"other"}]},{"lat":"37.739682131","long":"127.03979907","imageIndex":17,"items":[{"name":"대광철물","tel":"031-876-0247","addr":"경기도 의정부시 가능동 836-9번지","indutype":"기타 - 기계공구","category":"other"}]},{"lat":"37.748483405","long":"127.04304855","imageIndex":17,"items":[{"name":"대륙사","tel":"031-873-5986","addr":"경기도 의정부시 가능동 642-10번지","indutype":"수리서비스 - 세탁소","category":"other"}]},{"lat":"37.744044331","long":"127.03437794","imageIndex":17,"items":[{"name":"대륜E&S의정부1고객센터","tel":"031-873-8000","addr":"경기도 의정부시 가능동 719-12번지 2층 201호","indutype":"수리서비스 - 기타수리서비스","category":"other"},{"name":"아임펫","tel":"031-875-5945","addr":"경기도 의정부시 가능동 719-12번지 101호","indutype":"문화.취미 - 애완동물","category":"other"}]},{"lat":"37.755231393","long":"127.04351744","imageIndex":17,"items":[{"name":"대명벨트상사","tel":"031-845-0406","addr":"경기도 의정부시 가능동 80-8번지","indutype":"기타 - 기계공구","category":"other"},{"name":"삼영전기콘트롤","tel":"031-845-3819","addr":"경기도 의정부시 가능동 80-8번지","indutype":"건축자재 - 조명기구","category":"other"}]},{"lat":"37.739483792","long":"127.0402074","imageIndex":17,"items":[{"name":"대성","tel":"031-872-9997","addr":"경기도 의정부시 가능동 752-6번지","indutype":"신변잡화 - 기타잡화","category":"other"},{"name":"주식회사 세원전력","tel":"031-855-1307","addr":"경기도 의정부시 가능동 752-6번지 1층","indutype":"전기제품 - 기타전기제품","category":"other"}]},{"lat":"37.754348265","long":"127.04407298","imageIndex":17,"items":[{"name":"대성상사","tel":"031-847-0982","addr":"경기도 의정부시 가능동 77-1번지","indutype":"기타 - 기계공구","category":"other"},{"name":"에이스전기안전(주)","tel":"031-848-3771","addr":"경기도 의정부시 가능동 77-1번지 2층","indutype":"용역 서비스 - 종합용역","category":"other"}]},{"lat":"37.755044142","long":"127.03740103","imageIndex":17,"items":[{"name":"대성유통","tel":"031-8076-9511","addr":"경기도 의정부시 가능동 106-15번지 1층","indutype":"전기제품 - 기타전기제품","category":"other"}]},{"lat":"37.747899852","long":"127.03643327","imageIndex":17,"items":[{"name":"대승설비전기","tel":"031-874-4736","addr":"경기도 의정부시 가능동 665-21번지","indutype":"건축자재 - 보일러·펌프·샷시","category":"other"}]},{"lat":"37.747429578","long":"127.04218565","imageIndex":17,"items":[{"name":"대신ENG","tel":"031-848-0133","addr":"경기도 의정부시 가능동 647-9번지","indutype":"전기제품 - 냉열기기","category":"other"}]},{"lat":"37.755564726","long":"127.04357436","imageIndex":17,"items":[{"name":"대신기계상사","tel":"031-841-5722","addr":"경기도 의정부시 가능동 81-2번지","indutype":"기타 - 기계공구","category":"other"},{"name":"디와이고무벨트","tel":"02-1566-3858","addr":"경기도 의정부시 가능동 81-2번지 1층","indutype":"기타 - 기계공구","category":"other"},{"name":"한성피복","tel":"031-845-4351","addr":"경기도 의정부시 가능동 81-2번지","indutype":"의류 - 기타의류","category":"other"}]},{"lat":"37.753703195","long":"127.03193101","imageIndex":17,"items":[{"name":"대신인쇄사","tel":"031-877-7802","addr":"경기도 의정부시 가능동 370-38번지","indutype":"서적문구 - 출판 및 인쇄물","category":"other"},{"name":"법무사김용호사무소","tel":"031-837-9300","addr":"경기도 의정부시 가능동 370-38번지 1층","indutype":"용역 서비스 - 법률회계서비스(개인)","category":"other"}]},{"lat":"37.753315907","long":"127.03143158","imageIndex":17,"items":[{"name":"대우종합목재","tel":"031-873-6967","addr":"경기도 의정부시 가능동 355-3번지","indutype":"건축자재 - 기타건축자재","category":"other"}]},{"lat":"37.7496527","long":"127.04840481","imageIndex":17,"items":[{"name":"대우케리어","tel":"031-840-0478","addr":"경기도 의정부시 가능동 15-61번지","indutype":"전기제품 - 가전제품","category":"other"}]},{"lat":"37.745459647","long":"127.03115626","imageIndex":17,"items":[{"name":"대웅직매장","tel":"031-873-8587","addr":"경기도 의정부시 가능동 713번지","indutype":"의류 - 정장","category":"other"}]},{"lat":"37.753873741","long":"127.0344048","imageIndex":17,"items":[{"name":"대원법률사무소","tel":"031-871-5900","addr":"경기도 의정부시 가능동 362-137번지 현도빌딩 102,103호","indutype":"용역 서비스 - 법률회계서비스(개인)","category":"other"},{"name":"법무법인 재현","tel":"031-876-3231","addr":"경기도 의정부시 가능동 362-137번지 현도빌딩 302호","indutype":"용역 서비스 - 법률회계서비스(법인)","category":"other"},{"name":"변호사김영학법률사무소","tel":"031-876-1515","addr":"경기도 의정부시 가능동 362-137번지 현도빌딩 202호","indutype":"용역 서비스 - 법률회계서비스(개인)","category":"other"},{"name":"변호사류승언법률사무소","tel":"031-871-3020","addr":"경기도 의정부시 가능동 362-137번지 현도빌딩 301호","indutype":"용역 서비스 - 법률회계서비스(개인)","category":"other"},{"name":"변호사박종성법률사무소","tel":"031-877-0092","addr":"경기도 의정부시 가능동 362-137번지 현도빌딩 303호","indutype":"용역 서비스 - 법률회계서비스(개인)","category":"other"},{"name":"변호사송기영법률사무소","tel":"031-836-5611","addr":"경기도 의정부시 가능동 362-137번지 현도빌딩 203호","indutype":"용역 서비스 - 법률회계서비스(개인)","category":"other"}]},{"lat":"37.754537619","long":"127.04363054","imageIndex":17,"items":[{"name":"대원빌딩","tel":"031-856-7000","addr":"경기도 의정부시 가능동 79-3번지","indutype":"용역 서비스 - 부동산 중개·임대","category":"other"}]},{"lat":"37.752816941","long":"127.04320975","imageIndex":17,"items":[{"name":"대원유통","tel":"031-845-9902","addr":"경기도 의정부시 가능동 31-6번지","indutype":"신변잡화 - 기념품점","category":"other"}]},{"lat":"37.744845077","long":"127.03826994","imageIndex":17,"items":[{"name":"대일공사","tel":"031-874-3012","addr":"경기도 의정부시 가능동 729-11번지","indutype":"용역 서비스 - 기타용역서비스","category":"other"}]},{"lat":"37.751431968","long":"127.03509592","imageIndex":17,"items":[{"name":"대일에어컨","tel":"031-878-9337","addr":"경기도 의정부시 가능동 606번지","indutype":"전기제품 - 냉열기기","category":"other"}]},{"lat":"37.751762673","long":"127.04365171","imageIndex":17,"items":[{"name":"대한타일상사","tel":"031-848-9928","addr":"경기도 의정부시 가능동 33-2번지","indutype":"건축자재 - 건축용 요업제품","category":"other"}]},{"lat":"37.749819528","long":"127.03409671","imageIndex":17,"items":[{"name":"대한페인트공사","tel":"031-872-7119","addr":"경기도 의정부시 가능동 672-41번지 1층 일부","indutype":"건축자재 - 페인트","category":"other"}]},{"lat":"37.741817478","long":"127.03953919","imageIndex":17,"items":[{"name":"대한한울컴","tel":"031-876-4989","addr":"경기도 의정부시 가능동 748-24번지 1층","indutype":"수리서비스 - 사무·통신기기수리","category":"other"},{"name":"데일리독","tel":"031-878-6319","addr":"경기도 의정부시 가능동 748-24번지 1층","indutype":"문화.취미 - 애완동물","category":"other"}]},{"lat":"37.75079264","long":"127.03379076","imageIndex":17,"items":[{"name":"대호씽크","tel":"031-878-0708","addr":"경기도 의정부시 가능동 602-9번지","indutype":"주방용구 - 주방용구","category":"other"}]},{"lat":"37.746127012","long":"127.02826325","imageIndex":17,"items":[{"name":"대화유압","tel":"031-111-1111","addr":"경기도 의정부시 가능동 548-24번지","indutype":"수리서비스 - 기타수리서비스","category":"other"}]},{"lat":"37.753844237","long":"127.04259755","imageIndex":17,"items":[{"name":"더 모멘트(The Moment)","tel":"043-272-9598","addr":"경기도 의정부시 가능동 29-37번지","indutype":"회원제형태 - 기타4","category":"other"}]},{"lat":"37.742793872","long":"127.02635604","imageIndex":17,"items":[{"name":"더블시스템공조","tel":"031-838-7775","addr":"경기도 의정부시 가능동 578-12번지","indutype":"전기제품 - 냉열기기","category":"other"}]},{"lat":"37.744901905","long":"127.02735515","imageIndex":17,"items":[{"name":"더홈","tel":"","addr":"경기도 의정부시 가능동 695번지 우성팰리스 1층 101호","indutype":"신변잡화 - 기타잡화","category":"other"},{"name":"동방종합유통","tel":"031-825-7845","addr":"경기도 의정부시 가능동 695번지 우성팰리스 1층","indutype":"신변잡화 - 기타잡화","category":"other"}]},{"lat":"37.750483898","long":"127.04193764","imageIndex":17,"items":[{"name":"도그엔도그","tel":"031-823-0510","addr":"경기도 의정부시 가능동 640-13번지 1층","indutype":"문화.취미 - 애완동물","category":"other"},{"name":"세븐일레븐의정부여고점","tel":"031-1577-0711","addr":"경기도 의정부시 가능동 640-13번지 1층","indutype":"유통업 영리 - 편 의 점","category":"other"}]},{"lat":"37.741484036","long":"127.03982266","imageIndex":17,"items":[{"name":"도깨비 디자인","tel":"031-877-0351","addr":"경기도 의정부시 가능동 748-6번지","indutype":"용역 서비스 - 종합용역","category":"other"}]},{"lat":"37.741431263","long":"127.03546599","imageIndex":17,"items":[{"name":"도도인테리어","tel":"031-879-4590","addr":"경기도 의정부시 가능동 830-14번지 1층","indutype":"직물 - 카페트,커튼,천막,지물","category":"other"}]},{"lat":"37.750818567","long":"127.03773948","imageIndex":17,"items":[{"name":"도매당물자조달","tel":"031-826-8300","addr":"경기도 의정부시 가능동 618-28번지","indutype":"신변잡화 - 기념품점","category":"other"}]},{"lat":"37.744487591","long":"127.02674234","imageIndex":17,"items":[{"name":"도성 냉열 플렌트","tel":"","addr":"경기도 의정부시 가능동 695-25번지 102호","indutype":"수리서비스 - 기타수리서비스","category":"other"}]},{"lat":"37.746404936","long":"127.03399317","imageIndex":17,"items":[{"name":"도안서적","tel":"031-878-6341","addr":"경기도 의정부시 가능동 723번지 정빌딩 지층","indutype":"회원제형태 - 서적","category":"other"},{"name":"엠투에프원","tel":"031-879-4410","addr":"경기도 의정부시 가능동 723번지","indutype":"의류 - 정장","category":"other"}]},{"lat":"37.74832149","long":"127.04228824","imageIndex":17,"items":[{"name":"돈덴디자인","tel":"031-877-1238","addr":"경기도 의정부시 가능동 648-17번지 7층","indutype":"가구 - 일반가구","category":"other"}]},{"lat":"37.747288586","long":"127.03115695","imageIndex":17,"items":[{"name":"돌핀의정부지점","tel":"031-848-9720","addr":"경기도 의정부시 가능동 683-38번지","indutype":"주방용구 - 주방용구","category":"other"}]},{"lat":"37.741844358","long":"127.04001571","imageIndex":17,"items":[{"name":"동광복층","tel":"031-871-5998","addr":"경기도 의정부시 가능동 748-11,12","indutype":"건축자재 - 유리","category":"other"}]},{"lat":"37.743567884","long":"127.03012308","imageIndex":17,"items":[{"name":"동명 종합 인테리어","tel":"031-872-2451","addr":"경기도 의정부시 가능동 705-17번지","indutype":"건축자재 - 인테리어전문","category":"other"}]},{"lat":"37.750314317","long":"127.03676342","imageIndex":17,"items":[{"name":"동명키친월드","tel":"031-841-9205","addr":"경기도 의정부시 가능동 616-3번지","indutype":"주방용구 - 주방용구","category":"other"}]},{"lat":"37.748593642","long":"127.03624069","imageIndex":17,"items":[{"name":"동반북스","tel":"031-847-5211","addr":"경기도 의정부시 가능동 663-20번지","indutype":"서적문구 - 일반서적","category":"other"}]},{"lat":"37.756763319","long":"127.0426218","imageIndex":17,"items":[{"name":"동방고무","tel":"031-845-5398","addr":"경기도 의정부시 가능동 64-7번지","indutype":"기타 - 기타 전문점","category":"other"},{"name":"미주종합공구","tel":"031-843-0913","addr":"경기도 의정부시 가능동 64-7번지 1층","indutype":"기타 - 기계공구","category":"other"},{"name":"유니온F&S","tel":"031-877-1119","addr":"경기도 의정부시 가능동 64-7번지","indutype":"기타 - 기계공구","category":"other"}]},{"lat":"37.737209945","long":"127.01176489","imageIndex":17,"items":[{"name":"동성정보통신","tel":"031-844-6364","addr":"경기도 의정부시 가능동 596-27번지","indutype":"사무통신 - 통신기기","category":"other"}]},{"lat":"37.750153033","long":"127.03351817","imageIndex":17,"items":[{"name":"동우상사","tel":"031-876-5156","addr":"경기도 의정부시 가능동 672-71번지","indutype":"직물 - 기타직물","category":"other"}]},{"lat":"37.757231861","long":"127.04248588","imageIndex":17,"items":[{"name":"동일유공압","tel":"031-854-9004","addr":"경기도 의정부시 가능동 64-6번지","indutype":"기타 - 기계공구","category":"other"},{"name":"반도전기히타","tel":"031-844-9011","addr":"경기도 의정부시 가능동 64-6번지","indutype":"전기제품 - 기타전기제품","category":"other"}]},{"lat":"37.750626485","long":"127.04640837","imageIndex":17,"items":[{"name":"동탁","tel":"031-855-8001","addr":"경기도 의정부시 가능동 15-217번지","indutype":"신변잡화 - 가방","category":"other"}]},{"lat":"37.747149659","long":"127.04401226","imageIndex":17,"items":[{"name":"두레박","tel":"031-000-0000","addr":"경기도 의정부시 가능동 645-18번지","indutype":"의류 - 정장","category":"other"}]},{"lat":"37.746151906","long":"127.03676152","imageIndex":17,"items":[{"name":"두영정보","tel":"070-7137-1131","addr":"경기도 의정부시 가능동 725-7번지","indutype":"사무통신 - 통신기기","category":"other"}]},{"lat":"37.74462103","long":"127.03404915","imageIndex":17,"items":[{"name":"드림무역","tel":"070-4667-6646","addr":"경기도 의정부시 가능동 720-38번지 1층","indutype":"신변잡화 - 기타잡화","category":"other"}]},{"lat":"37.755541008","long":"127.03246507","imageIndex":17,"items":[{"name":"드림바디","tel":"031-871-2131","addr":"경기도 의정부시 가능동 366-1번지 3층","indutype":"회원제형태 - 기타4","category":"other"}]},{"lat":"37.746900389","long":"127.03426568","imageIndex":17,"items":[{"name":"드보라","tel":"031-871-8435","addr":"경기도 의정부시 가능동 677-3번지","indutype":"의류 - 정장","category":"other"},{"name":"종합싱크","tel":"031-872-4338","addr":"경기도 의정부시 가능동 677-3번지","indutype":"주방용구 - 주방용구","category":"other"}]},{"lat":"37.7430377","long":"127.02329279","imageIndex":17,"items":[{"name":"디씨(DC)펫마트","tel":"070-7736-5959","addr":"경기도 의정부시 가능동 585번지 1층","indutype":"문화.취미 - 애완동물","category":"other"}]},{"lat":"37.737038877","long":"127.01009719","imageIndex":17,"items":[{"name":"디자인라이트","tel":"031-871-9701","addr":"경기도 의정부시 가능동 598-8번지","indutype":"건축자재 - 조명기구","category":"other"},{"name":"샘물나라","tel":"031-873-3793","addr":"경기도 의정부시 가능동 598-8번지","indutype":"유통업 영리 - 기타유통업","category":"other"}]},{"lat":"37.745736975","long":"127.0384292","imageIndex":17,"items":[{"name":"디지털모드니에","tel":"031-871-5261","addr":"경기도 의정부시 가능동 726-15번지 101호","indutype":"사무통신 - 기타 사무용품","category":"other"}]},{"lat":"37.750846338","long":"127.03512971","imageIndex":17,"items":[{"name":"디지털솔루션","tel":"031-877-1830","addr":"경기도 의정부시 가능동 605-1번지","indutype":"사무통신 - 컴퓨터","category":"other"}]},{"lat":"37.742820241","long":"127.02946476","imageIndex":17,"items":[{"name":"따솜따솜","tel":"031-826-2033","addr":"경기도 의정부시 가능동 701-38번지","indutype":"문화.취미 - 애완동물","category":"other"}]},{"lat":"37.745315711","long":"127.03023718","imageIndex":17,"items":[{"name":"라인스토리","tel":"031-823-9599","addr":"경기도 의정부시 가능동 712-17번지 1층","indutype":"용역 서비스 - 기타용역서비스","category":"other"}]},{"lat":"37.741511237","long":"127.03926675","imageIndex":17,"items":[{"name":"라인업","tel":"070-4248-2589","addr":"경기도 의정부시 가능동 747-2번지 1층","indutype":"회원제형태 - 기타1","category":"other"}]},{"lat":"37.751070696","long":"127.03820482","imageIndex":17,"items":[{"name":"러블리냥","tel":"031-829-6543","addr":"경기도 의정부시 가능동 618-6번지","indutype":"문화.취미 - 애완동물","category":"other"},{"name":"하랑전단기획사","tel":"031-838-6505","addr":"경기도 의정부시 가능동 618-6번지","indutype":"서적문구 - 출판 및 인쇄물","category":"other"}]},{"lat":"37.745179544","long":"127.03434438","imageIndex":17,"items":[{"name":"러빙 하우스","tel":"031-879-2207","addr":"경기도 의정부시 가능동 720-16번지 1층","indutype":"의류 - 정장","category":"other"}]},{"lat":"37.751844811","long":"127.04048594","imageIndex":17,"items":[{"name":"러피언","tel":"","addr":"경기도 의정부시 가능동 634-2번지","indutype":"의류 - 정장","category":"other"}]},{"lat":"37.741871429","long":"127.03987958","imageIndex":17,"items":[{"name":"럭키상사","tel":"031-878-0711","addr":"경기도 의정부시 가능동 748-10번지","indutype":"용역 서비스 - 종합용역","category":"other"}]},{"lat":"37.753960739","long":"127.04440184","imageIndex":17,"items":[{"name":"로고스 기획","tel":"031-848-1044","addr":"경기도 의정부시 가능동 15-47번지","indutype":"서적문구 - 출판 및 인쇄물","category":"other"}]},{"lat":"37.73865484","long":"127.04043388","imageIndex":17,"items":[{"name":"로제린돌(Roserindoll)","tel":"031-837-1154","addr":"경기도 의정부시 가능동 754번지 신도아파라디움 1015호","indutype":"회원제형태 - 기타4","category":"other"}]},{"lat":"37.743593934","long":"127.03407141","imageIndex":17,"items":[{"name":"롱비취","tel":"031-872-6734","addr":"경기도 의정부시 가능동 719-43번지","indutype":"직물 - 침구·수예점","category":"other"}]},{"lat":"37.747765952","long":"127.0317358","imageIndex":17,"items":[{"name":"룡룡사","tel":"031-000-0000","addr":"경기도 의정부시 가능동 683-45번지 202호","indutype":"신변잡화 - 기념품점","category":"other"}]},{"lat":"37.751683573","long":"127.03743351","imageIndex":17,"items":[{"name":"루비나","tel":"031-875-2027","addr":"경기도 의정부시 가능동 613-9번지","indutype":"신변잡화 - 귀금속","category":"other"}]},{"lat":"37.744016978","long":"127.03556924","imageIndex":17,"items":[{"name":"리서컴퍼니","tel":"031-877-1238","addr":"경기도 의정부시 가능동 733-39번지 지층 B01호","indutype":"의류 - 정장","category":"other"}]},{"lat":"37.752817582","long":"127.04129208","imageIndex":17,"items":[{"name":"리치s라인속옷","tel":"","addr":"경기도 의정부시 가능동 46-11번지","indutype":"의류 - 내의판매","category":"other"}]},{"lat":"37.747314225","long":"127.0364557","imageIndex":17,"items":[{"name":"리치라이프솔류션","tel":"070-7591-2001","addr":"경기도 의정부시 가능동 666-16번지","indutype":"회원제형태 - 사무서비스","category":"other"}]},{"lat":"37.742566398","long":"127.03571609","imageIndex":17,"items":[{"name":"린나이의정부점","tel":"031-875-8902","addr":"경기도 의정부시 가능동 742-15번지 1층","indutype":"주방용구 - 주방용구","category":"other"},{"name":"북부수품보급소","tel":"031-874-8411","addr":"경기도 의정부시 가능동 742-15번지","indutype":"레져용품 - 스포츠·레져용품","category":"other"}]},{"lat":"37.746934034","long":"127.04224212","imageIndex":17,"items":[{"name":"만능소리사","tel":"031-875-5956","addr":"경기도 의정부시 가능동 647-28번지","indutype":"수리서비스 - 기타수리서비스","category":"other"}]},{"lat":"37.744793633","long":"127.02810395","imageIndex":17,"items":[{"name":"만능에어컨","tel":"","addr":"경기도 의정부시 가능동 704-13번지 1층 1호 세계교회","indutype":"수리서비스 - 가정용품수리","category":"other"}]},{"lat":"37.757348966","long":"127.04254268","imageIndex":17,"items":[{"name":"맥가이버건설공구","tel":"031-856-1309","addr":"경기도 의정부시 가능동 64-3번지","indutype":"기타 - 기계공구","category":"other"},{"name":"일심상사","tel":"031-842-6087","addr":"경기도 의정부시 가능동 64-3번지","indutype":"건축자재 - 보일러·펌프·샷시","category":"other"}]},{"lat":"37.748981513","long":"127.03457292","imageIndex":17,"items":[{"name":"맥스텔레콤","tel":"031-855-0017","addr":"경기도 의정부시 가능동 670번지 주연빌딩","indutype":"사무통신 - 통신기기","category":"other"},{"name":"아쿠엠의정부점","tel":"031-878-5889","addr":"경기도 의정부시 가능동 670번지","indutype":"회원제형태 - 기타4","category":"other"}]},{"lat":"37.753345476","long":"127.0175766","imageIndex":17,"items":[{"name":"메인스포츠클럽","tel":"031-851-9944","addr":"경기도 의정부시 가능동 462-3번지 플러티넘프라자 8층","indutype":"회원제형태 - 기타4","category":"other"}]},{"lat":"37.742820457","long":"127.02848903","imageIndex":17,"items":[{"name":"명금당","tel":"031-826-1963","addr":"경기도 의정부시 가능동 700-12번지 1층","indutype":"신변잡화 - 귀금속","category":"other"}]},{"lat":"37.755402841","long":"127.04273455","imageIndex":17,"items":[{"name":"명동공조","tel":"031-838-9931","addr":"경기도 의정부시 가능동 67-13번지","indutype":"전기제품 - 냉열기기","category":"other"}]},{"lat":"37.753288672","long":"127.03227127","imageIndex":17,"items":[{"name":"명산유리","tel":"031-873-8459","addr":"경기도 의정부시 가능동 362-82번지","indutype":"건축자재 - 유리","category":"other"},{"name":"변호사 유제필 법률사무소","tel":"031-877-6600","addr":"경기도 의정부시 가능동 362-82번지 2층","indutype":"용역 서비스 - 법률회계서비스(개인)","category":"other"}]},{"lat":"37.751286219","long":"127.04048565","imageIndex":17,"items":[{"name":"명진세탁소","tel":"031-874-8344","addr":"경기도 의정부시 가능동 633-9번지","indutype":"수리서비스 - 세탁소","category":"other"}]},{"lat":"37.742431156","long":"127.03606774","imageIndex":17,"items":[{"name":"모던센스","tel":"031-875-8695","addr":"경기도 의정부시 가능동 743-4번지","indutype":"직물 - 침구·수예점","category":"other"}]},{"lat":"37.73890701","long":"127.04074033","imageIndex":17,"items":[{"name":"모아에스텍","tel":"031-873-1782","addr":"경기도 의정부시 가능동 754-8번지","indutype":"회원제형태 - 기타1","category":"other"}]},{"lat":"37.743181063","long":"127.027434","imageIndex":17,"items":[{"name":"문구랜드","tel":"031-855-4358","addr":"경기도 의정부시 가능동 700-31번지","indutype":"회원제형태 - 서적","category":"other"}]},{"lat":"37.746233021","long":"127.03665944","imageIndex":17,"items":[{"name":"문방구","tel":"031-873-3059","addr":"경기도 의정부시 가능동 725-2번지","indutype":"서적문구 - 문구용품","category":"other"}]},{"lat":"37.743100663","long":"127.02388278","imageIndex":17,"items":[{"name":"미군마트","tel":"031-836-9469","addr":"경기도 의정부시 가능동 555-27번지 상가 1층","indutype":"레져용품 - 스포츠·레져용품","category":"other"},{"name":"짬밥119","tel":"031-871-7119","addr":"경기도 의정부시 가능동 555-27번지 1층","indutype":"의류 - 정장","category":"other"}]},{"lat":"37.750008749","long":"127.03401737","imageIndex":17,"items":[{"name":"미니스톱 의정부신촌점","tel":"031-1577-9621","addr":"경기도 의정부시 가능동 672-22번지 1층","indutype":"유통업 영리 - 편 의 점","category":"other"}]},{"lat":"37.745036685","long":"127.02904575","imageIndex":17,"items":[{"name":"미래산업","tel":"031-826-1842","addr":"경기도 의정부시 가능동 710-24번지","indutype":"주방용구 - 주방용구","category":"other"}]},{"lat":"37.739069467","long":"127.03984415","imageIndex":17,"items":[{"name":"미래종합증기(주)","tel":"031-878-3556","addr":"경기도 의정부시 가능동 836-14번지","indutype":"기타 - 기계공구","category":"other"},{"name":"법무사사무소","tel":"031-879-0594","addr":"경기도 의정부시 가능동 836-14번지 403호","indutype":"용역 서비스 - 법률회계서비스(개인)","category":"other"}]},{"lat":"37.746071997","long":"127.03238187","imageIndex":17,"items":[{"name":"미래키즈","tel":"","addr":"경기도 의정부시 가능동 716-11번지","indutype":"서적문구 - 기타서적문구","category":"other"}]},{"lat":"37.741683615","long":"127.03515977","imageIndex":17,"items":[{"name":"미래타일상사","tel":"031-829-2211","addr":"경기도 의정부시 가능동 830-15번지","indutype":"건축자재 - 건축용 요업제품","category":"other"}]},{"lat":"37.748790253","long":"127.04148289","imageIndex":17,"items":[{"name":"미래환경산업","tel":"031-313-5225","addr":"경기도 의정부시 가능동 649-32번지 지하층 1호 반지","indutype":"건축자재 - 기타건축자재","category":"other"},{"name":"연우물자조달","tel":"070-8950-1170","addr":"경기도 의정부시 가능동 649-32번지","indutype":"의류 - 기타의류","category":"other"}]},{"lat":"37.74698736","long":"127.04437525","imageIndex":17,"items":[{"name":"미르컴퍼니","tel":"031-841-9117","addr":"경기도 의정부시 가능동 197-72번지 203호","indutype":"용역 서비스 - 소프트웨어","category":"other"},{"name":"창원종합광고","tel":"031-874-7600","addr":"경기도 의정부시 가능동 197-72번지","indutype":"용역 서비스 - 종합용역","category":"other"}]},{"lat":"37.746737675","long":"127.03623986","imageIndex":17,"items":[{"name":"미림현수막","tel":"031-875-5961","addr":"경기도 의정부시 가능동 667-24번지 103호","indutype":"건축자재 - 인테리어전문","category":"other"},{"name":"테라스 크린","tel":"031-8083-1859","addr":"경기도 의정부시 가능동 667-24번지 101호","indutype":"수리서비스 - 세탁소","category":"other"}]},{"lat":"37.750177445","long":"127.04232327","imageIndex":17,"items":[{"name":"미미","tel":"02-954-8796","addr":"경기도 의정부시 가능동 653-10번지 1층","indutype":"의류 - 기타의류","category":"other"}]},{"lat":"37.751070811","long":"127.03781902","imageIndex":17,"items":[{"name":"미시패션","tel":"031-875-6274","addr":"경기도 의정부시 가능동 618-2번지","indutype":"의류 - 정장","category":"other"},{"name":"애플","tel":"031-873-4930","addr":"경기도 의정부시 가능동 618-2번지 1층","indutype":"신변잡화 - 신발","category":"other"}]},{"lat":"37.75087063","long":"127.04393489","imageIndex":17,"items":[{"name":"미실산업","tel":"031-879-4844","addr":"경기도 의정부시 가능동 38번지 미실산업","indutype":"가구 - 일반가구","category":"other"}]},{"lat":"37.74273992","long":"127.02582278","imageIndex":17,"items":[{"name":"미진식품","tel":"031-465-9306","addr":"경기도 의정부시 가능동 578-36번지","indutype":"회원제형태 - 기타1","category":"other"}]},{"lat":"37.752960669","long":"127.04443532","imageIndex":17,"items":[{"name":"바느질","tel":"070-4038-8332","addr":"경기도 의정부시 가능동 22-67번지","indutype":"의류 - 맞춤복점","category":"other"}]},{"lat":"37.74987278","long":"127.0370015","imageIndex":17,"items":[{"name":"바디 가꾸미","tel":"","addr":"경기도 의정부시 가능동 656-1번지 의정부SKVIEW 201동 401호","indutype":"의류 - 내의판매","category":"other"}]},{"lat":"37.746649156","long":"127.03010151","imageIndex":17,"items":[{"name":"바우몰","tel":"070-7802-3565","addr":"경기도 의정부시 가능동 689-6번지 1층","indutype":"신변잡화 - 기념품점","category":"other"}]},{"lat":"37.750314268","long":"127.03693362","imageIndex":17,"items":[{"name":"바이더웨이(의정부가능점)","tel":"031-875-8566","addr":"경기도 의정부시 가능동 616-4번지","indutype":"유통업 영리 - 편 의 점","category":"other"},{"name":"세븐일레븐의정부가로수점","tel":"031-875-8566","addr":"경기도 의정부시 가능동 616-4번지","indutype":"유통업 영리 - 편 의 점","category":"other"},{"name":"신호","tel":"031-875-1567","addr":"경기도 의정부시 가능동 616-4번지","indutype":"건축자재 - 목재·석재·철물","category":"other"},{"name":"크린토피아","tel":"031-838-3939","addr":"경기도 의정부시 가능동 616-4번지 B동","indutype":"수리서비스 - 세탁소","category":"other"}]},{"lat":"37.744962337","long":"127.03781615","imageIndex":17,"items":[{"name":"반석유리","tel":"031-856-8808","addr":"경기도 의정부시 가능동 730-9번지 1층","indutype":"건축자재 - 유리","category":"other"}]},{"lat":"37.74865499","long":"127.04184591","imageIndex":17,"items":[{"name":"백두청소","tel":"031-872-7173","addr":"경기도 의정부시 가능동 648-2번지","indutype":"용역 서비스 - 종합용역","category":"other"}]},{"lat":"37.747954305","long":"127.03501499","imageIndex":17,"items":[{"name":"백성세탁","tel":"031-875-5534","addr":"경기도 의정부시 가능동 669-13번지","indutype":"수리서비스 - 세탁소","category":"other"}]},{"lat":"37.749347007","long":"127.04673667","imageIndex":17,"items":[{"name":"백양사","tel":"031-848-3331","addr":"경기도 의정부시 가능동 10-32번지","indutype":"수리서비스 - 세탁소","category":"other"}]},{"lat":"37.753676071","long":"127.03231681","imageIndex":17,"items":[{"name":"법률사무소 교연","tel":"031-875-9100","addr":"경기도 의정부시 가능동 362-79번지 3층","indutype":"용역 서비스 - 법률회계서비스(개인)","category":"other"},{"name":"변호사 박진우법률사무소","tel":"","addr":"경기도 의정부시 가능동 362-79번지 3층 중일부","indutype":"용역 서비스 - 법률회계서비스(개인)","category":"other"},{"name":"변호사 조은진 법률사무소","tel":"031-855-9800","addr":"경기도 의정부시 가능동 362-79번지 1층","indutype":"용역 서비스 - 법률회계서비스(개인)","category":"other"},{"name":"포일세무회계사무소","tel":"031-872-9009","addr":"경기도 의정부시 가능동 362-79번지 1층","indutype":"용역 서비스 - 법률회계서비스(개인)","category":"other"}]},{"lat":"37.755460036","long":"127.03201113","imageIndex":17,"items":[{"name":"법률사무소 부광","tel":"031-836-2700","addr":"경기도 의정부시 가능동 368번지 1층","indutype":"용역 서비스 - 법률회계서비스(개인)","category":"other"}]},{"lat":"37.755674588","long":"127.03815027","imageIndex":17,"items":[{"name":"법률사무소 의율","tel":"031-877-6061","addr":"경기도 의정부시 가능동 106-44번지","indutype":"용역 서비스 - 법률회계서비스(개인)","category":"other"},{"name":"볼트","tel":"031-928-5830","addr":"경기도 의정부시 가능동 106-44 3층","indutype":"레져용품 - 골프용품 전문점","category":"other"}]},{"lat":"37.755153641","long":"127.0322947","imageIndex":17,"items":[{"name":"법률사무소 정감","tel":"031-928-4715","addr":"경기도 의정부시 가능동 367-2번지 삼형빌딩 401호","indutype":"용역 서비스 - 법률회계서비스(개인)","category":"other"},{"name":"법률사무소혜율","tel":"031-823-5100","addr":"경기도 의정부시 가능동 367-2번지 삼형빌딩 401호","indutype":"용역 서비스 - 법률회계서비스(개인)","category":"other"},{"name":"법무법인 통인","tel":"031-873-9983","addr":"경기도 의정부시 가능동 367-2번지 삼형빌딩 501호","indutype":"용역 서비스 - 법률회계서비스(법인)","category":"other"},{"name":"법무법인좋은사람","tel":"031-876-6111","addr":"경기도 의정부시 가능동 367-2번지 삼형빌딩 301호","indutype":"용역 서비스 - 법률회계서비스(법인)","category":"other"},{"name":"변호사김진오법률사무소","tel":"031-877-2300","addr":"경기도 의정부시 가능동 367-2번지 삼형빌딩 201호","indutype":"용역 서비스 - 법률회계서비스(개인)","category":"other"},{"name":"석천법률사무소","tel":"032-872-2218","addr":"경기도 의정부시 가능동 367-2번지 삼형빌딩 402호","indutype":"용역 서비스 - 법률회계서비스(개인)","category":"other"}]},{"lat":"37.754206922","long":"127.03504039","imageIndex":17,"items":[{"name":"법률사무소 정연","tel":"031-876-6007","addr":"경기도 의정부시 가능동 847번지 e편한세상 녹양역 상가동 303호","indutype":"용역 서비스 - 법률회계서비스(개인)","category":"other"}]},{"lat":"37.754072184","long":"127.03351979","imageIndex":17,"items":[{"name":"법무법인 자연","tel":"031-871-0002","addr":"경기도 의정부시 가능동 365-16번지 3층","indutype":"용역 서비스 - 법률회계서비스(법인)","category":"other"},{"name":"법무사 김찬섭 사무소","tel":"031-873-3906","addr":"경기도 의정부시 가능동 365-16번지 2층 2호","indutype":"용역 서비스 - 법률회계서비스(개인)","category":"other"},{"name":"법무사박순명사무소","tel":"031-874-3277","addr":"경기도 의정부시 가능동 365-16번지","indutype":"용역 서비스 - 법률회계서비스(개인)","category":"other"},{"name":"법무사조규대","tel":"031-875-5691","addr":"경기도 의정부시 가능동 365-16번지","indutype":"용역 서비스 - 법률회계서비스(개인)","category":"other"},{"name":"법무사차해환사무소","tel":"031-829-0307","addr":"경기도 의정부시 가능동 365-16번지","indutype":"용역 서비스 - 법률회계서비스(개인)","category":"other"},{"name":"변호사 황경욱법률사무소","tel":"031-855-0303","addr":"경기도 의정부시 가능동 365-16번지 1층","indutype":"용역 서비스 - 법률회계서비스(개인)","category":"other"},{"name":"정도속기사무소","tel":"031-000-0000","addr":"경기도 의정부시 가능동 365-16번지 진성빌딩","indutype":"용역 서비스 - 사무서비스","category":"other"}]},{"lat":"37.754126485","long":"127.03256663","imageIndex":17,"items":[{"name":"법무법인 진성 (의정부분사무소)","tel":"031-875-3404","addr":"경기도 의정부시 가능동 362-106번지 신성빌딩 2층","indutype":"용역 서비스 - 법률회계서비스(법인)","category":"other"},{"name":"법무사 김현수 사무소","tel":"031-872-3500","addr":"경기도 의정부시 가능동 362-106번지 외지상1필지","indutype":"용역 서비스 - 법률회계서비스(개인)","category":"other"},{"name":"변호사이기형법률사무소","tel":"031-874-8200","addr":"경기도 의정부시 가능동 362-106번지","indutype":"용역 서비스 - 법률회계서비스(개인)","category":"other"},{"name":"변호사장윤선법률사무소","tel":"031-874-5544","addr":"경기도 의정부시 가능동 362-106번지 신성빌딩 1층","indutype":"용역 서비스 - 법률회계서비스(개인)","category":"other"},{"name":"제일합동속기사무소","tel":"031-874-0788","addr":"경기도 의정부시 가능동 362-106번지 신성빌딩 제일합동속기사무소","indutype":"용역 서비스 - 사무서비스","category":"other"}]},{"lat":"37.753820223","long":"127.03231687","imageIndex":17,"items":[{"name":"법무법인 현대(의정부)","tel":"031-872-6601","addr":"경기도 의정부시 가능동 362-78번지","indutype":"용역 서비스 - 법률회계서비스(법인)","category":"other"},{"name":"법무사정평진사무소","tel":"031-872-0567","addr":"경기도 의정부시 가능동 362-78번지 3층","indutype":"용역 서비스 - 법률회계서비스(개인)","category":"other"},{"name":"변호사 원희석 법률사무소","tel":"031-974-0087","addr":"경기도 의정부시 가능동 362-78번지 2층","indutype":"용역 서비스 - 법률회계서비스(개인)","category":"other"},{"name":"변호사송성득법률사무소","tel":"031-877-5343","addr":"경기도 의정부시 가능동 362-78번지 1층","indutype":"용역 서비스 - 법률회계서비스(개인)","category":"other"},{"name":"변호사안수화법률사무소","tel":"031-876-3285","addr":"경기도 의정부시 가능동 362-78번지","indutype":"용역 서비스 - 법률회계서비스(개인)","category":"other"}]},{"lat":"37.753738273","long":"127.0355962","imageIndex":17,"items":[{"name":"법무사 박노영 사무소","tel":"031-873-5151","addr":"경기도 의정부시 가능동 362-155번지 솔로몬빌딩 1층","indutype":"용역 서비스 - 법률회계서비스(개인)","category":"other"},{"name":"변호사 정충일법률사무소","tel":"03-181-6300","addr":"경기도 의정부시 가능동 362-155번지 솔로몬빌딩 2층","indutype":"용역 서비스 - 법률회계서비스(개인)","category":"other"},{"name":"변호사고조흥법률사무소","tel":"031-873-3400","addr":"경기도 의정부시 가능동 362-155번지 솔로몬빌딩 3층","indutype":"용역 서비스 - 법률회계서비스(개인)","category":"other"}]},{"lat":"37.754676107","long":"127.03240798","imageIndex":17,"items":[{"name":"법무사 방재호","tel":"031-873-4300","addr":"경기도 의정부시 가능동 362-20번지 1층","indutype":"용역 서비스 - 법률회계서비스(개인)","category":"other"},{"name":"법무사 정철호","tel":"031-873-4300","addr":"경기도 의정부시 가능동 362-20번지 1층","indutype":"용역 서비스 - 법률회계서비스(개인)","category":"other"},{"name":"법무사석윤태사무소","tel":"031-874-0331","addr":"경기도 의정부시 가능동 362-20번지","indutype":"용역 서비스 - 법률회계서비스(개인)","category":"other"},{"name":"법무사이현태사무소","tel":"031-871-1122","addr":"경기도 의정부시 가능동 362-20번지","indutype":"용역 서비스 - 법률회계서비스(개인)","category":"other"},{"name":"세븐일레븐의정부법원점","tel":"","addr":"경기도 의정부시 가능동 362-20번지 2,3호","indutype":"유통업 영리 - 편 의 점","category":"other"},{"name":"열린광고","tel":"031-838-0963","addr":"경기도 의정부시 가능동 362-20번지","indutype":"건축자재 - 인테리어전문","category":"other"},{"name":"중앙속기","tel":"031-875-7373","addr":"경기도 의정부시 가능동 362-20번지","indutype":"용역 서비스 - 사무서비스","category":"other"}]},{"lat":"37.754928422","long":"127.03221518","imageIndex":17,"items":[{"name":"법무사김덕수사무소","tel":"031-876-1117","addr":"경기도 의정부시 가능동 367-4번지 1층","indutype":"용역 서비스 - 법률회계서비스(개인)","category":"other"},{"name":"변호사김은영법률사무소","tel":"031-872-0008","addr":"경기도 의정부시 가능동 367-4번지 1층","indutype":"용역 서비스 - 법률회계서비스(개인)","category":"other"}]},{"lat":"37.753900836","long":"127.03415517","imageIndex":17,"items":[{"name":"법무사이제건사무소","tel":"031-876-5757","addr":"경기도 의정부시 가능동 362-136번지 외2필지","indutype":"용역 서비스 - 법률회계서비스(개인)","category":"other"},{"name":"이재준법률사무소","tel":"031-877-8181","addr":"경기도 의정부시 가능동 362-136번지 2층","indutype":"용역 서비스 - 법률회계서비스(개인)","category":"other"}]},{"lat":"37.75387346","long":"127.0354374","imageIndex":17,"items":[{"name":"법무사이천교사무실","tel":"031-875-7001","addr":"경기도 의정부시 가능동 362-154번지","indutype":"용역 서비스 - 법률회계서비스(개인)","category":"other"},{"name":"변호사이진권법률사무소","tel":"031-872-6602","addr":"경기도 의정부시 가능동 362-154번지 3층","indutype":"용역 서비스 - 법률회계서비스(개인)","category":"other"},{"name":"이우춘법무사","tel":"031-877-8668","addr":"경기도 의정부시 가능동 362-154번지","indutype":"용역 서비스 - 법률회계서비스(개인)","category":"other"}]},{"lat":"37.753595072","long":"127.03196501","imageIndex":17,"items":[{"name":"법무사장세창사무소","tel":"031-874-4400","addr":"경기도 의정부시 가능동 370-3번지","indutype":"용역 서비스 - 법률회계서비스(개인)","category":"other"}]},{"lat":"37.748207519","long":"127.0313275","imageIndex":17,"items":[{"name":"벨-텍","tel":"031-872-6386","addr":"경기도 의정부시 가능동 683번지","indutype":"기타 - 기타 전문점","category":"other"}]},{"lat":"37.753765699","long":"127.03413241","imageIndex":17,"items":[{"name":"변호사 박성민 법률사무소","tel":"031-826-1424","addr":"경기도 의정부시 가능동 362-141번지","indutype":"용역 서비스 - 법률회계서비스(개인)","category":"other"},{"name":"정미란법률사무소","tel":"031-826-7853","addr":"경기도 의정부시 가능동 362-141번지 1층","indutype":"용역 서비스 - 법률회계서비스(개인)","category":"other"}]},{"lat":"37.753180557","long":"127.03227122","imageIndex":17,"items":[{"name":"변호사 오만석 법률사무소","tel":"031-872-5777","addr":"경기도 의정부시 가능동 362-115번지 2층","indutype":"용역 서비스 - 법률회계서비스(개인)","category":"other"},{"name":"변호사윤석진.조경훈법률사무소","tel":"031-878-5300","addr":"경기도 의정부시 가능동 362-115번지","indutype":"용역 서비스 - 법률회계서비스(개인)","category":"other"},{"name":"변호사이주형법률사","tel":"031-871-5552","addr":"경기도 의정부시 가능동 362-115번지","indutype":"용역 서비스 - 법률회계서비스(개인)","category":"other"}]},{"lat":"37.753819564","long":"127.03484732","imageIndex":17,"items":[{"name":"변호사 하기재 법률사무소","tel":"031-871-0026","addr":"경기도 의정부시 가능동 362-66번지 101호","indutype":"용역 서비스 - 법률회계서비스(개인)","category":"other"},{"name":"변호사강성구법률사무소","tel":"031-878-0803","addr":"경기도 의정부시 가능동 362-66번지 2층","indutype":"용역 서비스 - 법률회계서비스(개인)","category":"other"}]},{"lat":"37.753648168","long":"127.03563021","imageIndex":17,"items":[{"name":"변호사고진상법률사무소","tel":"031-874-6500","addr":"경기도 의정부시 가능동 362-73번지 2층","indutype":"용역 서비스 - 법률회계서비스(개인)","category":"other"}]},{"lat":"37.75390065","long":"127.03484735","imageIndex":17,"items":[{"name":"변호사김민욱법률사무소","tel":"031-837-0013","addr":"경기도 의정부시 가능동 362-67번지 1층","indutype":"용역 서비스 - 법률회계서비스(개인)","category":"other"},{"name":"변호사황병각법률사무소","tel":"031-873-6606","addr":"경기도 의정부시 가능동 362-67번지 2층","indutype":"용역 서비스 - 법률회계서비스(개인)","category":"other"}]},{"lat":"37.753819601","long":"127.03471115","imageIndex":17,"items":[{"name":"변호사김옥선법률사무소","tel":"031-848-5800","addr":"경기도 의정부시 가능동 362-59번지","indutype":"용역 서비스 - 법률회계서비스(개인)","category":"other"},{"name":"이관규법률사무소","tel":"031-874-6225","addr":"경기도 의정부시 가능동 362-59번지","indutype":"용역 서비스 - 법률회계서비스(개인)","category":"other"}]},{"lat":"37.75390053","long":"127.0352899","imageIndex":17,"items":[{"name":"변호사나국도법률사무소","tel":"031-894-8742","addr":"경기도 의정부시 가능동 362-134번지 3층","indutype":"용역 서비스 - 법률회계서비스(개인)","category":"other"}]},{"lat":"37.752207487","long":"127.0324297","imageIndex":17,"items":[{"name":"변호사백철우법률사무소","tel":"031-873-1900","addr":"경기도 의정부시 가능동 353-10번지 3층","indutype":"용역 서비스 - 법률회계서비스(개인)","category":"other"},{"name":"센스경매컨설팅공인중개사사무소","tel":"031-871-2110","addr":"경기도 의정부시 가능동 353-10번지 2층","indutype":"용역 서비스 - 부동산 중개·임대","category":"other"},{"name":"예목","tel":"031-874-2005","addr":"경기도 의정부시 가능동 353-10번지 2층","indutype":"문화.취미 - 민예·공예품","category":"other"}]},{"lat":"37.753036405","long":"127.03227117","imageIndex":17,"items":[{"name":"변호사유준용법류사무소","tel":"031-878-0213","addr":"경기도 의정부시 가능동 362-116번지 2층","indutype":"용역 서비스 - 법률회계서비스(개인)","category":"other"},{"name":"변호사최미라법률사무소","tel":"031-873-6602","addr":"경기도 의정부시 가능동 362-116번지 1층","indutype":"용역 서비스 - 법률회계서비스(개인)","category":"other"},{"name":"이인수변호사","tel":"031-876-4521","addr":"경기도 의정부시 가능동 362-116번지","indutype":"용역 서비스 - 법률회계서비스(개인)","category":"other"}]},{"lat":"37.753900687","long":"127.03471118","imageIndex":17,"items":[{"name":"변호사전정필법률사무소","tel":"031-871-2356","addr":"경기도 의정부시 가능동 362-58번지","indutype":"용역 서비스 - 법률회계서비스(개인)","category":"other"}]},{"lat":"37.753567956","long":"127.03231677","imageIndex":17,"items":[{"name":"변호사추헌영법률사무소","tel":"031-829-7171","addr":"경기도 의정부시 가능동 362-80번지","indutype":"용역 서비스 - 법률회계서비스(개인)","category":"other"},{"name":"유명한법무사사무소","tel":"031-837-8585","addr":"경기도 의정부시 가능동 362-80번지","indutype":"용역 서비스 - 법률회계서비스(개인)","category":"other"}]},{"lat":"37.754342754","long":"127.03240785","imageIndex":17,"items":[{"name":"변호사황보충호법률사무소","tel":"031-836-8800","addr":"경기도 의정부시 가능동 362-16,27","indutype":"용역 서비스 - 법률회계서비스(개인)","category":"other"}]},{"lat":"37.752403489","long":"127.04021389","imageIndex":17,"items":[{"name":"보경풍수지리","tel":"031-829-1517","addr":"경기도 의정부시 가능동 626-22번지","indutype":"기타 - 기타 전문점","category":"other"}]},{"lat":"37.751375349","long":"127.04340186","imageIndex":17,"items":[{"name":"보금자리솜틀집","tel":"031-842-1075","addr":"경기도 의정부시 가능동 34-5번지","indutype":"직물 - 침구·수예점","category":"other"}]},{"lat":"37.751124109","long":"127.04029267","imageIndex":17,"items":[{"name":"보령지물장식","tel":"031-874-5696","addr":"경기도 의정부시 가능동 629-17번지","indutype":"직물 - 카페트,커튼,천막,지물","category":"other"}]},{"lat":"37.747820037","long":"127.03162236","imageIndex":17,"items":[{"name":"보석십자수","tel":"031-872-2698","addr":"경기도 의정부시 가능동 683-44번지 301호","indutype":"직물 - 침구·수예점","category":"other"}]},{"lat":"37.754397436","long":"127.02979797","imageIndex":17,"items":[{"name":"부강도서총판","tel":"031-879-0087","addr":"경기도 의정부시 가능동 374-10번지","indutype":"서적문구 - 일반서적","category":"other"}]},{"lat":"37.744556917","long":"127.03778192","imageIndex":17,"items":[{"name":"부경설비","tel":"031-848-8504","addr":"경기도 의정부시 가능동 731-10번지 제11차진산아트빌 나동 202호","indutype":"용역 서비스 - 기타용역서비스","category":"other"}]},{"lat":"37.737065673","long":"127.013217","imageIndex":17,"items":[{"name":"부동산임대","tel":"031-840-1673","addr":"경기도 의정부시 가능동 595-39번지","indutype":"용역 서비스 - 부동산 중개·임대","category":"other"},{"name":"씨유의정부로드점","tel":"031-874-4482","addr":"경기도 의정부시 가능동 595-39번지 1층","indutype":"유통업 영리 - 편 의 점","category":"other"}]},{"lat":"37.743100096","long":"127.02685535","imageIndex":17,"items":[{"name":"부산철물건재","tel":"031-872-4858","addr":"경기도 의정부시 가능동 697-40번지","indutype":"기타 - 기계공구","category":"other"}]},{"lat":"37.747123151","long":"127.04249184","imageIndex":17,"items":[{"name":"블랙핑크","tel":"","addr":"경기도 의정부시 가능동 647-25번지 1층","indutype":"의류 - 정장","category":"other"},{"name":"체리문구","tel":"031-872-7101","addr":"경기도 의정부시 가능동 647-25번지","indutype":"서적문구 - 문구용품","category":"other"}]},{"lat":"37.750403503","long":"127.03979305","imageIndex":17,"items":[{"name":"블루스킨","tel":"031-872-8830","addr":"경기도 의정부시 가능동 630-13번지","indutype":"의류 - 기타의류","category":"other"}]},{"lat":"37.737209983","long":"127.01124303","imageIndex":17,"items":[{"name":"블루앤에코","tel":"031-837-5905","addr":"경기도 의정부시 가능동 596-32","indutype":"건축자재 - 조명기구","category":"other"}]},{"lat":"37.741847437","long":"127.02843197","imageIndex":17,"items":[{"name":"비아소뇨(via sogno)","tel":"","addr":"경기도 의정부시 가능동 231-46번지 2층","indutype":"신변잡화 - 제화","category":"other"}]},{"lat":"37.747654911","long":"127.04190211","imageIndex":17,"items":[{"name":"비쥬펫","tel":"070-8261-0665","addr":"경기도 의정부시 가능동 647번지","indutype":"문화.취미 - 애완동물","category":"other"},{"name":"비쥬펫하우스","tel":"070-8261-0665","addr":"경기도 의정부시 가능동 647번지 1층","indutype":"문화.취미 - 애완동물","category":"other"}]},{"lat":"37.752428506","long":"127.04610305","imageIndex":17,"items":[{"name":"빙글빙글","tel":"031-841-0325","addr":"경기도 의정부시 가능동 15-369번지","indutype":"의류 - 정장","category":"other"}]},{"lat":"37.744260456","long":"127.03476379","imageIndex":17,"items":[{"name":"빨강여우","tel":"","addr":"경기도 의정부시 가능동 738-12번지 1층","indutype":"의류 - 정장","category":"other"},{"name":"필링앤수","tel":"031-875-1125","addr":"경기도 의정부시 가능동 738-12번지","indutype":"의류 - 정장","category":"other"},{"name":"현대종합철물","tel":"031-873-3140","addr":"경기도 의정부시 가능동 738-12번지","indutype":"건축자재 - 목재·석재·철물","category":"other"}]},{"lat":"37.749152821","long":"127.03409643","imageIndex":17,"items":[{"name":"사랑해줄개","tel":"031-879-7900","addr":"경기도 의정부시 가능동 672-55번지 1층","indutype":"문화.취미 - 애완동물","category":"other"},{"name":"에반스","tel":"","addr":"경기도 의정부시 가능동 672-55번지","indutype":"의류 - 기타의류","category":"other"}]},{"lat":"37.744100512","long":"127.02504034","imageIndex":17,"items":[{"name":"삼보벤딩","tel":"031-874-9492","addr":"경기도 의정부시 가능동 569-3번지","indutype":"기타 - 기계공구","category":"other"}]},{"lat":"37.744037492","long":"127.02479071","imageIndex":17,"items":[{"name":"삼보상사","tel":"031-872-9493","addr":"경기도 의정부시 가능동 569-4,569-7","indutype":"건축자재 - 기타건축자재","category":"other"}]},{"lat":"37.755069213","long":"127.04354005","imageIndex":17,"items":[{"name":"삼성공구상사","tel":"031-845-3541","addr":"경기도 의정부시 가능동 80-22번지","indutype":"기타 - 기계공구","category":"other"},{"name":"의정부휀스철망","tel":"031-848-4767","addr":"경기도 의정부시 가능동 80-22번지","indutype":"건축자재 - 기타건축자재","category":"other"}]},{"lat":"37.745205401","long":"127.03846299","imageIndex":17,"items":[{"name":"삼성냉난방공조시스템","tel":"031-847-9440","addr":"경기도 의정부시 가능동 729-6번지 1층","indutype":"용역 서비스 - 기타용역서비스","category":"other"}]},{"lat":"37.744620993","long":"127.0341853","imageIndex":17,"items":[{"name":"삼성비닐","tel":"031-872-7679","addr":"경기도 의정부시 가능동 720-39번지","indutype":"기타 - 기타 전문점","category":"other"}]},{"lat":"37.751710153","long":"127.03893133","imageIndex":17,"items":[{"name":"삼일(    )디지털솔루션","tel":"031-838-3303","addr":"경기도 의정부시 가능동 627-47번지 1층","indutype":"사무통신 - 사무용 OA기기","category":"other"},{"name":"퍼피스토리","tel":"031-872-0840","addr":"경기도 의정부시 가능동 627-47번지 1층","indutype":"문화.취미 - 애완동물","category":"other"}]},{"lat":"37.743235441","long":"127.02584562","imageIndex":17,"items":[{"name":"삼일특수미싱","tel":"031-857-1979","addr":"경기도 의정부시 가능동 555-4번지","indutype":"기타 - 기타 전문점","category":"other"}]},{"lat":"37.743485567","long":"127.03501306","imageIndex":17,"items":[{"name":"삼천리자전거대리점","tel":"031-829-7775","addr":"경기도 의정부시 가능동 738-34번지","indutype":"레져용품 - 스포츠·레져용품","category":"other"},{"name":"예전화방","tel":"031-876-3200","addr":"경기도 의정부시 가능동 738-34번지","indutype":"문화.취미 - 화방·표구점","category":"other"},{"name":"태영","tel":"031-000-0000","addr":"경기도 의정부시 가능동 738-34번지","indutype":"의류 - 기타의류","category":"other"}]},{"lat":"37.753730654","long":"127.0301268","imageIndex":17,"items":[{"name":"상상공화국","tel":"02-540-5070","addr":"경기도 의정부시 가능동 356-21번지 베스트빌 7층 702호","indutype":"용역 서비스 - 사무서비스","category":"other"}]},{"lat":"37.743045629","long":"127.02879544","imageIndex":17,"items":[{"name":"샤르비앙(Charbien)","tel":"","addr":"경기도 의정부시 가능동 701-22번지 2동","indutype":"신변잡화 - 가방","category":"other"}]},{"lat":"37.743126496","long":"127.0297712","imageIndex":17,"items":[{"name":"샬롬요양원","tel":"031-878-1008","addr":"경기도 의정부시 가능동 701-12번지","indutype":"기타의료기관 - 기타의료기관 및 기타","category":"other"}]},{"lat":"37.740404066","long":"127.03585128","imageIndex":17,"items":[{"name":"서상훈세무회계사무소","tel":"031-871-6500","addr":"경기도 의정부시 가능동 832-4번지","indutype":"용역 서비스 - 법률회계서비스(개인)","category":"other"},{"name":"토즈멤버십라운지 의정부센터","tel":"031-872-9865","addr":"경기도 의정부시 가능동 832-4번지 3층","indutype":"용역 서비스 - 사무서비스","category":"other"}]},{"lat":"37.745764051","long":"127.03827037","imageIndex":17,"items":[{"name":"서울종합환경","tel":"031-876-0581","addr":"경기도 의정부시 가능동 726-14번지 102호","indutype":"기타 - 기타 전문점","category":"other"}]},{"lat":"37.740934446","long":"127.03984508","imageIndex":17,"items":[{"name":"서초도배장판","tel":"070-4922-1261","addr":"경기도 의정부시 가능동 835-7번지","indutype":"직물 - 카페트,커튼,천막,지물","category":"other"}]},{"lat":"37.740402914","long":"127.03974271","imageIndex":17,"items":[{"name":"서초플라워","tel":"031-873-5333","addr":"경기도 의정부시 가능동 835-21번지","indutype":"문화.취미 - 화원","category":"other"}]},{"lat":"37.750070544","long":"127.0385107","imageIndex":17,"items":[{"name":"서흥데이타콤","tel":"031-875-6950","addr":"경기도 의정부시 가능동 654-10번지","indutype":"사무통신 - 사무용 OA기기","category":"other"}]},{"lat":"37.743766368","long":"127.02890915","imageIndex":17,"items":[{"name":"석인테리어","tel":"","addr":"경기도 의정부시 가능동 703-27번지 102동","indutype":"건축자재 - 인테리어전문","category":"other"}]},{"lat":"37.740683585","long":"127.03504589","imageIndex":17,"items":[{"name":"선경세무법인 북부본부","tel":"031-825-4221","addr":"경기도 의정부시 가능동 830-16번지 세무빌딩 1층","indutype":"용역 서비스 - 법률회계서비스(법인)","category":"other"},{"name":"세무사정일원사무소","tel":"031-876-0102","addr":"경기도 의정부시 가능동 830-16번지 세무빌딩 601호","indutype":"용역 서비스 - 법률회계서비스(개인)","category":"other"},{"name":"오명현세무회계사무소","tel":"031-871-8900","addr":"경기도 의정부시 가능동 830-16번지 세무빌딩 202호","indutype":"용역 서비스 - 법률회계서비스(개인)","category":"other"},{"name":"이기성세무회계사무소","tel":"031-826-4266","addr":"경기도 의정부시 가능동 830-16번지 세무빌딩 301호","indutype":"용역 서비스 - 법률회계서비스(개인)","category":"other"}]},{"lat":"37.750430071","long":"127.04123411","imageIndex":17,"items":[{"name":"선나래","tel":"031-876-8547","addr":"경기도 의정부시 가능동 631-16번지","indutype":"가구 - 철제가구","category":"other"}]},{"lat":"37.751647394","long":"127.03791007","imageIndex":17,"items":[{"name":"선물의집","tel":"031-877-3751","addr":"경기도 의정부시 가능동 620-11번지","indutype":"신변잡화 - 액세서리","category":"other"},{"name":"컴퓨터세상","tel":"","addr":"경기도 의정부시 가능동 620-11번지","indutype":"사무통신 - 컴퓨터","category":"other"}]},{"lat":"37.750204267","long":"127.04293601","imageIndex":17,"items":[{"name":"선사축","tel":"031-877-7633","addr":"경기도 의정부시 가능동 641-2번지 1층","indutype":"의류 - 내의판매","category":"other"}]},{"lat":"37.755199045","long":"127.03083089","imageIndex":17,"items":[{"name":"선영이네","tel":"070-7646-6149","addr":"경기도 의정부시 가능동 369번지 풍전빌라 7동 202호","indutype":"회원제형태 - 기타1","category":"other"}]},{"lat":"37.754982411","long":"127.03248754","imageIndex":17,"items":[{"name":"선일미디어시스템","tel":"031-824-7098","addr":"경기도 의정부시 가능동 367-9번지","indutype":"회원제형태 - 기타4","category":"other"}]},{"lat":"37.74451427","long":"127.02841019","imageIndex":17,"items":[{"name":"성금당","tel":"031-871-7199","addr":"경기도 의정부시 가능동 704-7번지","indutype":"신변잡화 - 시계","category":"other"}]},{"lat":"37.751870614","long":"127.04415104","imageIndex":17,"items":[{"name":"성실종합인테리어","tel":"031-848-3121","addr":"경기도 의정부시 가능동 22-37번지","indutype":"건축자재 - 인테리어전문","category":"other"}]},{"lat":"37.74271035","long":"127.03643093","imageIndex":17,"items":[{"name":"성오투어","tel":"02-6316-3044","addr":"경기도 의정부시 가능동 739-12번지","indutype":"회원제형태 - 기타4","category":"other"}]},{"lat":"37.743567965","long":"127.02977136","imageIndex":17,"items":[{"name":"성은시스템","tel":"031-1661-2310","addr":"경기도 의정부시 가능동 705-13번지","indutype":"사무통신 - 통신기기","category":"other"}]},{"lat":"37.751177681","long":"127.04179049","imageIndex":17,"items":[{"name":"성일전기","tel":"031-871-4864","addr":"경기도 의정부시 가능동 639-24번지","indutype":"전기제품 - 기타전기제품","category":"other"}]},{"lat":"37.75656509","long":"127.04267844","imageIndex":17,"items":[{"name":"성창기계","tel":"031-846-3399","addr":"경기도 의정부시 가능동 66-16번지","indutype":"수리서비스 - 기타수리서비스","category":"other"},{"name":"원 종합유통","tel":"031-855-8272","addr":"경기도 의정부시 가능동 66-16번지 ,1,2층","indutype":"기타 - 기계공구","category":"other"},{"name":"원컴퍼니","tel":"031-855-8272","addr":"경기도 의정부시 가능동 66-16번지 1층 2층","indutype":"신변잡화 - 기타잡화","category":"other"}]},{"lat":"37.747350587","long":"127.03529839","imageIndex":17,"items":[{"name":"성창샷시유리","tel":"031-827-9288","addr":"경기도 의정부시 가능동 666-20번지 1층","indutype":"건축자재 - 보일러·펌프·샷시","category":"other"}]},{"lat":"37.744458673","long":"127.03474118","imageIndex":17,"items":[{"name":"세라","tel":"031-837-1251","addr":"경기도 의정부시 가능동 738번지","indutype":"의류 - 정장","category":"other"}]},{"lat":"37.74128725","long":"127.03495538","imageIndex":17,"items":[{"name":"세무사김인성사무소","tel":"031-826-2161","addr":"경기도 의정부시 가능동 830-9번지","indutype":"용역 서비스 - 법률회계서비스(개인)","category":"other"},{"name":"수진커뮤니케이션","tel":"031-1644-3191","addr":"경기도 의정부시 가능동 830-9번지 영광빌딩 4층","indutype":"사무통신 - 통신기기","category":"other"},{"name":"이우영세무회계사무소","tel":"031-829-0595","addr":"경기도 의정부시 가능동 830-9번지 영광빌딩 1층","indutype":"용역 서비스 - 법률회계서비스(개인)","category":"other"}]},{"lat":"37.751377108","long":"127.03790994","imageIndex":17,"items":[{"name":"세미텔레콤","tel":"031-855-7200","addr":"경기도 의정부시 가능동 619번지 가능프라자 1층 102호","indutype":"사무통신 - 통신기기","category":"other"},{"name":"영아트악세사리","tel":"031-874-2613","addr":"경기도 의정부시 가능동 619번지 가능프라자 1층","indutype":"신변잡화 - 액세서리","category":"other"},{"name":"진아양품","tel":"031-875-5892","addr":"경기도 의정부시 가능동 619번지 가늠프라자 1층","indutype":"의류 - 양품점","category":"other"},{"name":"카지숙녀복","tel":"031-871-9284","addr":"경기도 의정부시 가능동 619번지 가능프라자 1층","indutype":"의류 - 정장","category":"other"},{"name":"프라자신세계남여헬스","tel":"031-871-9940","addr":"경기도 의정부시 가능동 619번지 가능프라자 3층","indutype":"회원제형태 - 레져업소","category":"other"}]},{"lat":"37.745260433","long":"127.03507056","imageIndex":17,"items":[{"name":"세븐","tel":"031-866-0058","addr":"경기도 의정부시 가능동 737-3번지 1층","indutype":"주방용구 - 주방용구","category":"other"}]},{"lat":"37.751736765","long":"127.04027029","imageIndex":17,"items":[{"name":"세븐일레븐가능동심점","tel":"031-1577-0711","addr":"경기도 의정부시 가능동 627-40번지","indutype":"유통업 영리 - 편 의 점","category":"other"}]},{"lat":"37.745874411","long":"127.02977219","imageIndex":17,"items":[{"name":"세븐일레븐가능타운점","tel":"","addr":"경기도 의정부시 가능동 711-15번지","indutype":"유통업 영리 - 편 의 점","category":"other"}]},{"lat":"37.748486468","long":"127.03273457","imageIndex":17,"items":[{"name":"세븐일레븐가능태양점","tel":"031-1577-0711","addr":"경기도 의정부시 가능동 681번지 1층","indutype":"유통업 영리 - 편 의 점","category":"other"}]},{"lat":"37.75571014","long":"127.03973895","imageIndex":17,"items":[{"name":"세븐일레븐녹양힐스테이트점","tel":"031-1577-0711","addr":"경기도 의정부시 가능동 94-2번지 C1-8블럭(가금로 33번길 3) 103호","indutype":"유통업 영리 - 편 의 점","category":"other"}]},{"lat":"37.740177289","long":"127.04095653","imageIndex":17,"items":[{"name":"세븐일레븐의정부성당점","tel":"","addr":"경기도 의정부시 가능동 751-8번지","indutype":"유통업 영리 - 편 의 점","category":"other"},{"name":"탄우공방","tel":"031-1111-1111","addr":"경기도 의정부시 가능동 751-8번지","indutype":"가구 - 일반가구","category":"other"}]},{"lat":"37.752485782","long":"127.0361857","imageIndex":17,"items":[{"name":"세븐일레븐의정부승원점","tel":"031-1577-0711","addr":"경기도 의정부시 가능동 609-1번지","indutype":"유통업 영리 - 편 의 점","category":"other"}]},{"lat":"37.74298202","long":"127.03115532","imageIndex":17,"items":[{"name":"세븐일레븐의정부안골점","tel":"","addr":"경기도 의정부시 가능동 706-35번지","indutype":"유통업 영리 - 편 의 점","category":"other"}]},{"lat":"37.748954602","long":"127.03413039","imageIndex":17,"items":[{"name":"세신방가구","tel":"031-874-2149","addr":"경기도 의정부시 가능동 675-1번지","indutype":"가구 - 일반가구","category":"other"}]},{"lat":"37.750845337","long":"127.03860185","imageIndex":17,"items":[{"name":"세오코리아(Seo Korea)","tel":"070-4194-4169","addr":"경기도 의정부시 가능동 618-37번지","indutype":"의류 - 정장","category":"other"}]},{"lat":"37.75232137","long":"127.04334564","imageIndex":17,"items":[{"name":"셀라비","tel":"02-6223-6864","addr":"경기도 의정부시 가능동 31-28번지","indutype":"신변잡화 - 액세서리","category":"other"}]},{"lat":"37.750176182","long":"127.04593154","imageIndex":17,"items":[{"name":"셀자임","tel":"070-7839-3099","addr":"경기도 의정부시 가능동 207-22번지","indutype":"서적문구 - 과학기자재","category":"other"}]},{"lat":"37.756348842","long":"127.04273506","imageIndex":17,"items":[{"name":"소망아크릴","tel":"031-848-6222","addr":"경기도 의정부시 가능동 66-18번지","indutype":"서적문구 - 과학기자재","category":"other"}]},{"lat":"37.743656456","long":"127.03606829","imageIndex":17,"items":[{"name":"솔샘파고라","tel":"031-872-0451","addr":"경기도 의정부시 가능동 732-4번지 1층","indutype":"건축자재 - 인테리어전문","category":"other"}]},{"lat":"37.740512403","long":"127.03504581","imageIndex":17,"items":[{"name":"송인선 세무회계사무소","tel":"031-837-7688","addr":"경기도 의정부시 가능동 832번지 1층","indutype":"용역 서비스 - 법률회계서비스(개인)","category":"other"},{"name":"우리지도","tel":"031-873-2177","addr":"경기도 의정부시 가능동 832번지","indutype":"서적문구 - 기타서적문구","category":"other"}]},{"lat":"37.742538953","long":"127.03717966","imageIndex":17,"items":[{"name":"수 인테리어","tel":"031-873-9649","addr":"경기도 의정부시 가능동 740-20번지 현대빌라15차 102호","indutype":"건축자재 - 인테리어전문","category":"other"}]},{"lat":"37.746844574","long":"127.04029052","imageIndex":17,"items":[{"name":"수선공방","tel":"031-876-7870","addr":"경기도 의정부시 가능동 652-22번지 1층","indutype":"수리서비스 - 신변잡화수리","category":"other"}]},{"lat":"37.753014259","long":"127.04574028","imageIndex":17,"items":[{"name":"수스킨케어","tel":"031-821-3638","addr":"경기도 의정부시 가능동 15-8번지","indutype":"회원제형태 - 기타4","category":"other"}]},{"lat":"37.747566885","long":"127.03504886","imageIndex":17,"items":[{"name":"숲속허브나라","tel":"031-111-1111","addr":"경기도 의정부시 가능동 669-19번지","indutype":"신변잡화 - 기타잡화","category":"other"}]},{"lat":"37.750350054","long":"127.03779599","imageIndex":17,"items":[{"name":"스마일통신","tel":"031-876-0107","addr":"경기도 의정부시 가능동 617-4번지 1층","indutype":"사무통신 - 통신기기","category":"other"}]},{"lat":"37.74365677","long":"127.03493371","imageIndex":17,"items":[{"name":"스카이마트","tel":"031-873-2647","addr":"경기도 의정부시 가능동 738-30 7/2","indutype":"신변잡화 - 기타잡화","category":"other"}]},{"lat":"37.749788403","long":"127.04692982","imageIndex":17,"items":[{"name":"스타에어컨","tel":"031-847-0290","addr":"경기도 의정부시 가능동 15-139번지","indutype":"용역 서비스 - 기타용역서비스","category":"other"},{"name":"인형나라인형극단","tel":"070-8770-9587","addr":"경기도 의정부시 가능동 15-139","indutype":"문화.취미 - 티켓","category":"other"}]},{"lat":"37.746898344","long":"127.0411869","imageIndex":17,"items":[{"name":"스토머 (stormer)","tel":"02-949-1482","addr":"경기도 의정부시 가능동 651-18번지","indutype":"의류 - 정장","category":"other"}]},{"lat":"37.743153773","long":"127.02865933","imageIndex":17,"items":[{"name":"스피드중고에어컨매입판매이전설치수리","tel":"","addr":"경기도 의정부시 가능동 701번지","indutype":"전기제품 - 냉열기기","category":"other"}]},{"lat":"37.743983265","long":"127.02568701","imageIndex":17,"items":[{"name":"승리기업","tel":"031-878-7979","addr":"경기도 의정부시 가능동 696-45번지","indutype":"기타 - 기타 전문점","category":"other"}]},{"lat":"37.750457052","long":"127.04138163","imageIndex":17,"items":[{"name":"시너방","tel":"031-829-6354","addr":"경기도 의정부시 가능동 631-22번지 1층","indutype":"신변잡화 - 신발","category":"other"}]},{"lat":"37.743018003","long":"127.03138224","imageIndex":17,"items":[{"name":"시선집중","tel":"031-878-4910","addr":"경기도 의정부시 가능동 706-53번지","indutype":"의류 - 정장","category":"other"}]},{"lat":"37.750510862","long":"127.04213055","imageIndex":17,"items":[{"name":"신광지물포","tel":"031-874-5975","addr":"경기도 의정부시 가능동 640-12","indutype":"직물 - 카페트,커튼,천막,지물","category":"other"}]},{"lat":"37.750067584","long":"127.04723635","imageIndex":17,"items":[{"name":"신도서비스","tel":"031-847-7792","addr":"경기도 의정부시 가능동 15-126번지 상가일부 1층","indutype":"사무통신 - 사무용 OA기기","category":"other"}]},{"lat":"37.755125184","long":"127.03754859","imageIndex":17,"items":[{"name":"신명목재","tel":"031-876-1936","addr":"경기도 의정부시 가능동 106-34번지 1층 좌측 1호","indutype":"건축자재 - 목재·석재·철물","category":"other"}]},{"lat":"37.750619981","long":"127.03898753","imageIndex":17,"items":[{"name":"신명인테리어","tel":"031-876-1041","addr":"경기도 의정부시 가능동 630번지","indutype":"용역 서비스 - 기타용역서비스","category":"other"}]},{"lat":"37.744097711","long":"127.03681731","imageIndex":17,"items":[{"name":"신미안코어팅","tel":"031-000-0000","addr":"경기도 의정부시 가능동 731-24번지 1층","indutype":"신변잡화 - 기타잡화","category":"other"},{"name":"젠위드","tel":"031-825-5826","addr":"경기도 의정부시 가능동 731-24번지","indutype":"서적문구 - 출판 및 인쇄물","category":"other"}]},{"lat":"37.744540118","long":"127.03337971","imageIndex":17,"items":[{"name":"신영공조","tel":"031-877-1112","addr":"경기도 의정부시 가능동 718-28번지","indutype":"전기제품 - 냉열기기","category":"other"}]},{"lat":"37.743766257","long":"127.02940836","imageIndex":17,"items":[{"name":"신용사세탁소","tel":"031-873-5845","addr":"경기도 의정부시 가능동 703-31번지","indutype":"수리서비스 - 세탁소","category":"other"}]},{"lat":"37.754294072","long":"127.04445876","imageIndex":17,"items":[{"name":"신원전기조명","tel":"031-847-3191","addr":"경기도 의정부시 가능동 15-38번지 101호","indutype":"전기제품 - 기타전기제품","category":"other"},{"name":"환희유통","tel":"031-856-9014","addr":"경기도 의정부시 가능동 15-38번지","indutype":"전기제품 - 기타전기제품","category":"other"}]},{"lat":"37.755375557","long":"127.04348348","imageIndex":17,"items":[{"name":"신일콘트롤","tel":"031-845-2022","addr":"경기도 의정부시 가능동 80-7번지","indutype":"건축자재 - 조명기구","category":"other"},{"name":"현대종합기계","tel":"031-848-3203","addr":"경기도 의정부시 가능동 80-7번지","indutype":"농업 - 농기계","category":"other"},{"name":"화인스타트","tel":"031-821-2028","addr":"경기도 의정부시 가능동 80-7번지 2층","indutype":"서적문구 - 완구점","category":"other"}]},{"lat":"37.750260823","long":"127.03474367","imageIndex":17,"items":[{"name":"신촌자전거","tel":"031-875-7745","addr":"경기도 의정부시 가능동 603-23번지","indutype":"레져용품 - 스포츠·레져용품","category":"other"}]},{"lat":"37.754570667","long":"127.01840521","imageIndex":17,"items":[{"name":"신한벽지판매","tel":"031-826-8786","addr":"경기도 의정부시 가능동 418-1번지 1층","indutype":"직물 - 카페트,커튼,천막,지물","category":"other"}]},{"lat":"37.751185676","long":"127.04475204","imageIndex":17,"items":[{"name":"썬(SUN)","tel":"031-851-5533","addr":"경기도 의정부시 가능동 18-1번지 대원연립 D동 203호","indutype":"의류 - 내의판매","category":"other"}]},{"lat":"37.747153462","long":"127.03107748","imageIndex":17,"items":[{"name":"씨스페이스가능점","tel":"","addr":"경기도 의정부시 가능동 687-7번지 1층","indutype":"유통업 영리 - 편 의 점","category":"other"}]},{"lat":"37.748206572","long":"127.0350151","imageIndex":17,"items":[{"name":"씨스페이스의정부사랑점","tel":"","addr":"경기도 의정부시 가능동 669-4번지","indutype":"유통업 영리 - 편 의 점","category":"other"}]},{"lat":"37.751151058","long":"127.04054232","imageIndex":17,"items":[{"name":"씨에스컴텍","tel":"031-877-8665","addr":"경기도 의정부시 가능동 632번지","indutype":"주방용구 - 주방용구","category":"other"},{"name":"토일랜드(Toilland)","tel":"031-872-2822","addr":"경기도 의정부시 가능동 632번지","indutype":"전기제품 - 기타전기제품","category":"other"}]},{"lat":"37.747072023","long":"127.03251843","imageIndex":17,"items":[{"name":"씨유가능공원점","tel":"031-875-0571","addr":"경기도 의정부시 가능동 684-28번지 (28번지 1층)","indutype":"유통업 영리 - 편 의 점","category":"other"}]},{"lat":"37.751711264","long":"127.03509604","imageIndex":17,"items":[{"name":"씨유가능빌리지점","tel":"031-836-8777","addr":"경기도 의정부시 가능동 608-5번지 우성팰리스","indutype":"유통업 영리 - 편 의 점","category":"other"}]},{"lat":"37.747627954","long":"127.04168652","imageIndex":17,"items":[{"name":"씨유가능제일점","tel":"031-874-7192","addr":"경기도 의정부시 가능동 651-8번지","indutype":"유통업 영리 - 편 의 점","category":"other"}]},{"lat":"37.749377073","long":"127.03762533","imageIndex":17,"items":[{"name":"씨유의정부가능SK점","tel":"031-855-5186","addr":"경기도 의정부시 가능동 656-1번지 의정부SKVIEW 상가동 1층 101호","indutype":"유통업 영리 - 편 의 점","category":"other"}]},{"lat":"37.752647163","long":"127.03887505","imageIndex":17,"items":[{"name":"씨유의정부동심점","tel":"031-862-4109","addr":"경기도 의정부시 가능동 625-14번지 1층","indutype":"유통업 영리 - 편 의 점","category":"other"}]},{"lat":"37.744288811","long":"127.02940855","imageIndex":17,"items":[{"name":"씨유의정부새싹1호점","tel":"031-855-6061","addr":"경기도 의정부시 가능동 705-1번지 1층","indutype":"유통업 영리 - 편 의 점","category":"other"}]},{"lat":"37.752816864","long":"127.04343669","imageIndex":17,"items":[{"name":"씨유의정부서울점","tel":"031-840-8845","addr":"경기도 의정부시 가능동 31-5번지","indutype":"유통업 영리 - 편 의 점","category":"other"}]},{"lat":"37.749153223","long":"127.03254195","imageIndex":17,"items":[{"name":"씨케이엘이디","tel":"02-1833-9658","addr":"경기도 의정부시 가능동 673-31번지 701호","indutype":"건축자재 - 인테리어전문","category":"other"}]},{"lat":"37.745315146","long":"127.03257446","imageIndex":17,"items":[{"name":"씨탑서비스","tel":"031-999-8888","addr":"경기도 의정부시 가능동 717-10번지 소망그랑빌 3층 302호","indutype":"수리서비스 - 레져용품수리","category":"other"}]},{"lat":"37.745098457","long":"127.03434434","imageIndex":17,"items":[{"name":"아델리아","tel":"031-837-3778","addr":"경기도 의정부시 가능동 720-17번지","indutype":"직물 - 침구·수예점","category":"other"}]},{"lat":"37.754763099","long":"127.04292712","imageIndex":17,"items":[{"name":"아라상사","tel":"031-879-0707","addr":"경기도 의정부시 가능동 71번지","indutype":"수리서비스 - 가정용품수리","category":"other"}]},{"lat":"37.756988577","long":"127.04256519","imageIndex":17,"items":[{"name":"아륙펌프","tel":"031-841-2187","addr":"경기도 의정부시 가능동 64-2번지","indutype":"건축자재 - 보일러·펌프·샷시","category":"other"},{"name":"유진풍력","tel":"031-846-0552","addr":"경기도 의정부시 가능동 64-2번지","indutype":"건축자재 - 보일러·펌프·샷시","category":"other"},{"name":"일심공구","tel":"031-840-3277","addr":"경기도 의정부시 가능동 64-2번지","indutype":"기타 - 기계공구","category":"other"}]},{"lat":"37.747404713","long":"127.03504879","imageIndex":17,"items":[{"name":"아리엘 천연공방","tel":"031-901-8581","addr":"경기도 의정부시 가능동 668-3번지 2층","indutype":"문화.취미 - 문화취미기타","category":"other"}]},{"lat":"37.745404782","long":"127.03434447","imageIndex":17,"items":[{"name":"아이가그리는세상","tel":"031-874-0250","addr":"경기도 의정부시 가능동 723-9번지","indutype":"서적문구 - 일반서적","category":"other"}]},{"lat":"37.740123539","long":"127.03999216","imageIndex":17,"items":[{"name":"아찌걸","tel":"070-4922-1261","addr":"경기도 의정부시 가능동 836-3번지 세효빌딩 1층","indutype":"의류 - 정장","category":"other"}]},{"lat":"37.745684078","long":"127.03434459","imageIndex":17,"items":[{"name":"아트플라워","tel":"031-844-5737","addr":"경기도 의정부시 가능동 723-7번지 1층","indutype":"문화.취미 - 화원","category":"other"}]},{"lat":"37.743009922","long":"127.02724107","imageIndex":17,"items":[{"name":"안골철물건재","tel":"031-873-1603","addr":"경기도 의정부시 가능동 697-38번지","indutype":"건축자재 - 목재·석재·철물","category":"other"}]},{"lat":"37.75034998","long":"127.03804562","imageIndex":17,"items":[{"name":"안성지물포","tel":"031-875-1386","addr":"경기도 의정부시 가능동 617-6번지","indutype":"직물 - 기타직물","category":"other"}]},{"lat":"37.749961094","long":"127.04268625","imageIndex":17,"items":[{"name":"알라딘","tel":"031-875-3803","addr":"경기도 의정부시 가능동 641-7번지","indutype":"의류 - 아동의류","category":"other"}]},{"lat":"37.750403399","long":"127.04012211","imageIndex":17,"items":[{"name":"애스타","tel":"070-7794-8006","addr":"경기도 의정부시 가능동 630-25번지","indutype":"의류 - 정장","category":"other"},{"name":"의정부전자담배","tel":"031-877-8878","addr":"경기도 의정부시 가능동 630-25번지","indutype":"기타 - 기타 전문점","category":"other"}]},{"lat":"37.741511135","long":"127.03959576","imageIndex":17,"items":[{"name":"앤","tel":"","addr":"경기도 의정부시 가능동 748-36번지 1층 102호","indutype":"의류 - 아동의류","category":"other"}]},{"lat":"37.746404751","long":"127.03468528","imageIndex":17,"items":[{"name":"양말카페","tel":"031-855-9321","addr":"경기도 의정부시 가능동 724번지 1층","indutype":"의류 - 아동의류","category":"other"}]},{"lat":"37.742295652","long":"127.03732704","imageIndex":17,"items":[{"name":"에스제이 에너지(SJ ENERGY)","tel":"032-1599-9723","addr":"경기도 의정부시 가능동 746-2번지","indutype":"건축자재 - 보일러·펌프·샷시","category":"other"}]},{"lat":"37.742376418","long":"127.03840491","imageIndex":17,"items":[{"name":"에스콰이어레포츠","tel":"031-876-7666","addr":"경기도 의정부시 가능동 741-9번지","indutype":"레져용품 - 스포츠·레져용품","category":"other"}]},{"lat":"37.751953275","long":"127.03937398","imageIndex":17,"items":[{"name":"에어밴드(에어컨청소)","tel":"070-4715-3303","addr":"경기도 의정부시 가능동 627-9번지 유&아이빌 702호","indutype":"용역 서비스 - 종합용역","category":"other"}]},{"lat":"37.750702639","long":"127.03342762","imageIndex":17,"items":[{"name":"에어컨 보일러 나라","tel":"031-855-9111","addr":"경기도 의정부시 가능동 341-9번지 1층","indutype":"전기제품 - 냉열기기","category":"other"}]},{"lat":"37.744846522","long":"127.03307349","imageIndex":17,"items":[{"name":"에어컨오케이","tel":"031-874-8627","addr":"경기도 의정부시 가능동 718-8번지","indutype":"용역 서비스 - 기타용역서비스","category":"other"}]},{"lat":"37.752123747","long":"127.04159809","imageIndex":17,"items":[{"name":"에이스","tel":"070-7013-8874","addr":"경기도 의정부시 가능동 637-21번지","indutype":"신변잡화 - 가방","category":"other"}]},{"lat":"37.752901413","long":"127.03165837","imageIndex":17,"items":[{"name":"에코쉴드","tel":"031-871-0750","addr":"경기도 의정부시 가능동 328번지 1호","indutype":"직물 - 카페트,커튼,천막,지물","category":"other"}]},{"lat":"37.741123417","long":"127.04057128","imageIndex":17,"items":[{"name":"에코스테이지(Ecostage)","tel":"031-853-0691","addr":"경기도 의정부시 가능동 749-4번지 1층","indutype":"건축자재 - 조명기구","category":"other"}]},{"lat":"37.751177033","long":"127.04370812","imageIndex":17,"items":[{"name":"엘지파노라마","tel":"031-848-1980","addr":"경기도 의정부시 가능동 37번지","indutype":"전기제품 - 가전제품","category":"other"},{"name":"태양미싱","tel":"031-842-4387","addr":"경기도 의정부시 가능동 37번지","indutype":"수리서비스 - 가정용품수리","category":"other"}]},{"lat":"37.746342186","long":"127.03276775","imageIndex":17,"items":[{"name":"엠에이오(MAO)","tel":"031-855-4440","addr":"경기도 의정부시 가능동 722번지 미희빌딩 3층","indutype":"신변잡화 - 액세서리","category":"other"}]},{"lat":"37.736876534","long":"127.01249091","imageIndex":17,"items":[{"name":"엠티에스(MTS)","tel":"031-0000-0000","addr":"경기도 의정부시 가능동 595-44번지 나동 1층","indutype":"수리서비스 - 기타수리서비스","category":"other"},{"name":"의정부알파도어","tel":"031-824-7979","addr":"경기도 의정부시 가능동 595-44번지","indutype":"건축자재 - 인테리어전문","category":"other"}]},{"lat":"37.746710521","long":"127.03668235","imageIndex":17,"items":[{"name":"여우콜렉션","tel":"031-873-9951","addr":"경기도 의정부시 가능동 652-39번지","indutype":"의류 - 정장","category":"other"}]},{"lat":"37.753954464","long":"127.03573247","imageIndex":17,"items":[{"name":"연동일법률사무소","tel":"031-878-5600","addr":"경기도 의정부시 가능동 362-17번지","indutype":"용역 서비스 - 법률회계서비스(개인)","category":"other"}]},{"lat":"37.750845423","long":"127.03831818","imageIndex":17,"items":[{"name":"연리지","tel":"031-528-6263","addr":"경기도 의정부시 가능동 618-34번지","indutype":"회원제형태 - 기타4","category":"other"}]},{"lat":"37.748567699","long":"127.03215593","imageIndex":17,"items":[{"name":"연세스포츠","tel":"031-829-2212","addr":"경기도 의정부시 가능동 682-9번지 태양빌라","indutype":"레져용품 - 스포츠·레져용품","category":"other"}]},{"lat":"37.75626401","long":"127.02151483","imageIndex":17,"items":[{"name":"연한장의운송(주)","tel":"031-829-7988","addr":"경기도 의정부시 가능동 398-14번지","indutype":"용역 서비스 - 가례서비스업","category":"other"},{"name":"의양사","tel":"031-855-4447","addr":"경기도 의정부시 가능동 398-14번지","indutype":"용역 서비스 - 가례서비스업","category":"other"},{"name":"의양사","tel":"031-855-4447","addr":"경기도 의정부시 가능동 398-14번지","indutype":"용역 서비스 - 가례서비스업","category":"other"}]},{"lat":"37.748900688","long":"127.03358573","imageIndex":17,"items":[{"name":"영구크린","tel":"070-8612-9729","addr":"경기도 의정부시 가능동 674-3번지 파고연립 나동 101호","indutype":"용역 서비스 - 종합용역","category":"other"}]},{"lat":"37.744792026","long":"127.03474132","imageIndex":17,"items":[{"name":"영일전자","tel":"031-875-3077","addr":"경기도 의정부시 가능동 737-25번지 1층","indutype":"전기제품 - 가전제품","category":"other"}]},{"lat":"37.752708761","long":"127.04340259","imageIndex":17,"items":[{"name":"영화건업","tel":"031-843-0230","addr":"경기도 의정부시 가능동 31-20번지","indutype":"건축자재 - 인테리어전문","category":"other"}]},{"lat":"37.75043024","long":"127.04071216","imageIndex":17,"items":[{"name":"예쁜꽃집","tel":"031-872-6375","addr":"경기도 의정부시 가능동 631-2번지","indutype":"문화.취미 - 화원","category":"other"},{"name":"플로리안 플라워","tel":"","addr":"경기도 의정부시 가능동 631-2번지","indutype":"문화.취미 - 화원","category":"other"}]},{"lat":"37.755871167","long":"127.0432341","imageIndex":17,"items":[{"name":"오성기계","tel":"031-848-5498","addr":"경기도 의정부시 가능동 88-3번지","indutype":"기타 - 기계공구","category":"other"}]},{"lat":"37.743487468","long":"127.02704835","imageIndex":17,"items":[{"name":"오씨(OC)PC","tel":"070-7420-1022","addr":"경기도 의정부시 가능동 697-28번지 1층","indutype":"사무통신 - 컴퓨터","category":"other"}]},{"lat":"37.751654345","long":"127.04426439","imageIndex":17,"items":[{"name":"오케이상사","tel":"031-821-1359","addr":"경기도 의정부시 가능동 22-61번지 1층","indutype":"건축자재 - 페인트","category":"other"},{"name":"한영지업사","tel":"031-842-8570","addr":"경기도 의정부시 가능동 22-61번지","indutype":"직물 - 카페트,커튼,천막,지물","category":"other"}]},{"lat":"37.750737505","long":"127.03766001","imageIndex":17,"items":[{"name":"온니꼬","tel":"031-855-1613","addr":"경기도 의정부시 가능동 618-52번지","indutype":"의류 - 정장","category":"other"},{"name":"윤영이옷방","tel":"031-826-0611","addr":"경기도 의정부시 가능동 618-52번지","indutype":"의류 - 정장","category":"other"}]},{"lat":"37.746703253","long":"127.02993134","imageIndex":17,"items":[{"name":"옹기종기도예방","tel":"031-826-8925","addr":"경기도 의정부시 가능동 689-5번지","indutype":"주방용구 - 주방용식기","category":"other"}]},{"lat":"37.742484739","long":"127.03771288","imageIndex":17,"items":[{"name":"용진전기조명","tel":"031-826-0247","addr":"경기도 의정부시 가능동 740-14번지 1층","indutype":"용역 서비스 - 기타용역서비스","category":"other"}]},{"lat":"37.753648414","long":"127.03473377","imageIndex":17,"items":[{"name":"용화세계미륵선교종산명암","tel":"031-855-8433","addr":"경기도 의정부시 가능동 362-61번지","indutype":"기타 - 기타 전문점","category":"other"}]},{"lat":"37.754483293","long":"127.04440213","imageIndex":17,"items":[{"name":"우건디자인","tel":"","addr":"경기도 의정부시 가능동 15-420번지 1층 101호","indutype":"건축자재 - 인테리어전문","category":"other"}]},{"lat":"37.74954485","long":"127.0477126","imageIndex":17,"items":[{"name":"우리공조","tel":"031-838-3556","addr":"경기도 의정부시 가능동 15-499번지","indutype":"전기제품 - 냉열기기","category":"other"}]},{"lat":"37.749314875","long":"127.03453902","imageIndex":17,"items":[{"name":"우슈(쿵후)체육관","tel":"031-846-9627","addr":"경기도 의정부시 가능동 671-10번지 2층","indutype":"회원제형태 - 레져업소","category":"other"}]},{"lat":"37.742457677","long":"127.03782632","imageIndex":17,"items":[{"name":"우유니","tel":"070-8261-8848","addr":"경기도 의정부시 가능동 740-15번지 골든빌 1층","indutype":"의류 - 아동의류","category":"other"}]},{"lat":"37.751455496","long":"127.04604575","imageIndex":17,"items":[{"name":"우정바이크","tel":"","addr":"경기도 의정부시 가능동 15-264번지 1층","indutype":"레져용품 - 스포츠·레져용품","category":"other"}]},{"lat":"37.746933497","long":"127.04381925","imageIndex":17,"items":[{"name":"우주통신","tel":"031-829-8037","addr":"경기도 의정부시 가능동 645-21번지","indutype":"사무통신 - 통신기기","category":"other"}]},{"lat":"37.750040184","long":"127.04821215","imageIndex":17,"items":[{"name":"우진상사","tel":"031-876-6362","addr":"경기도 의정부시 가능동 15-199번지","indutype":"기타 - 기계공구","category":"other"}]},{"lat":"37.748483474","long":"127.04284431","imageIndex":17,"items":[{"name":"운동화손세탁이불","tel":"031-875-8284","addr":"경기도 의정부시 가능동 642-12","indutype":"수리서비스 - 세탁소","category":"other"}]},{"lat":"37.747960936","long":"127.04279864","imageIndex":17,"items":[{"name":"원 유통","tel":"","addr":"경기도 의정부시 가능동 642-23번지 1층","indutype":"신변잡화 - 신발","category":"other"}]},{"lat":"37.744955882","long":"127.02774093","imageIndex":17,"items":[{"name":"원서냉열","tel":"031-872-9723","addr":"경기도 의정부시 가능동 692-28번지","indutype":"전기제품 - 냉열기기","category":"other"}]},{"lat":"37.755210451","long":"127.01757697","imageIndex":17,"items":[{"name":"원에스티 애드","tel":"","addr":"경기도 의정부시 가능동 426번지 2층","indutype":"건축자재 - 인테리어전문","category":"other"}]},{"lat":"37.754264468","long":"127.01742927","imageIndex":17,"items":[{"name":"원창애드","tel":"031-878-3819","addr":"경기도 의정부시 가능동 473-1번지","indutype":"건축자재 - 인테리어전문","category":"other"}]},{"lat":"37.750816269","long":"127.04479722","imageIndex":17,"items":[{"name":"월드아일랜드투어","tel":"031-848-1100","addr":"경기도 의정부시 가능동 17-1번지 동진빌딩 502호","indutype":"여행 - 관광여행","category":"other"}]},{"lat":"37.751348982","long":"127.04142748","imageIndex":17,"items":[{"name":"위드미 가능대진점","tel":"","addr":"경기도 의정부시 가능동 633-6번지 1층","indutype":"유통업 영리 - 편 의 점","category":"other"}]},{"lat":"37.746206638","long":"127.03432212","imageIndex":17,"items":[{"name":"위즈험블","tel":"031-879-8553","addr":"경기도 의정부시 가능동 723-21번지","indutype":"의류 - 정장","category":"other"}]},{"lat":"37.742593187","long":"127.03656702","imageIndex":17,"items":[{"name":"유 미술은행","tel":"031-877-9911","addr":"경기도 의정부시 가능동 739-16번지 1층","indutype":"문화.취미 - 화방·표구점","category":"other"}]},{"lat":"37.745036778","long":"127.02862595","imageIndex":17,"items":[{"name":"유나종합설비","tel":"031-873-1222","addr":"경기도 의정부시 가능동 704-49번지 1층","indutype":"건축자재 - 보일러·펌프·샷시","category":"other"}]},{"lat":"37.748790013","long":"127.04220907","imageIndex":17,"items":[{"name":"유노구제","tel":"","addr":"경기도 의정부시 가능동 648-6번지 1층","indutype":"의류 - 정장","category":"other"}]},{"lat":"37.739790246","long":"127.03979913","imageIndex":17,"items":[{"name":"유니보떼","tel":"031-872-1943","addr":"경기도 의정부시 가능동 836-6번지","indutype":"용역 서비스 - 혼례서비스","category":"other"}]},{"lat":"37.751375164","long":"127.04393517","imageIndex":17,"items":[{"name":"유니아트","tel":"02-237-5836","addr":"경기도 의정부시 가능동 31-48번지 제2호","indutype":"신변잡화 - 액세서리","category":"other"}]},{"lat":"37.744737848","long":"127.03518379","imageIndex":17,"items":[{"name":"유명종합광고","tel":"031-878-8787","addr":"경기도 의정부시 가능동 737-16번지","indutype":"건축자재 - 인테리어전문","category":"other"}]},{"lat":"37.748098674","long":"127.03420946","imageIndex":17,"items":[{"name":"유아산업","tel":"031-875-5274","addr":"경기도 의정부시 가능동 676-3번지","indutype":"서적문구 - 문구용품","category":"other"}]},{"lat":"37.747378376","long":"127.03240509","imageIndex":17,"items":[{"name":"유쿤다 (JUCUNDA)","tel":"","addr":"경기도 의정부시 가능동 684-15번지 B층01호","indutype":"신변잡화 - 가방","category":"other"}]},{"lat":"37.758682845","long":"127.04112489","imageIndex":17,"items":[{"name":"육일사","tel":"031-874-6986","addr":"경기도 의정부시 가능동 92-3번지","indutype":"수리서비스 - 기타수리서비스","category":"other"}]},{"lat":"37.745703293","long":"127.02948848","imageIndex":17,"items":[{"name":"은평부동산중개인사무소","tel":"031-837-3624","addr":"경기도 의정부시 가능동 710","indutype":"용역 서비스 - 부동산 중개·임대","category":"other"}]},{"lat":"37.751149386","long":"127.04545553","imageIndex":17,"items":[{"name":"의양공조설비","tel":"031-846-3352","addr":"경기도 의정부시 가능동 15-268번지 1층","indutype":"용역 서비스 - 기타용역서비스","category":"other"},{"name":"태원 ENG","tel":"070-8286-8786","addr":"경기도 의정부시 가능동 15-268번지 1층 5호","indutype":"건축자재 - 인테리어전문","category":"other"}]},{"lat":"37.737372176","long":"127.01093674","imageIndex":17,"items":[{"name":"의정부  물류","tel":"031-874-4531","addr":"경기도 의정부시 가능동 596-19,18,17,20,산62-17","indutype":"건축자재 - 기타건축자재","category":"other"}]},{"lat":"37.742818875","long":"127.03495604","imageIndex":17,"items":[{"name":"의정부 재활용센터","tel":"031-877-9464","addr":"경기도 의정부시 가능동 742-1번지","indutype":"전기제품 - 가전제품","category":"other"}]},{"lat":"37.748736471","long":"127.04063187","imageIndex":17,"items":[{"name":"의정부 컴퓨터수리 가능컴퓨터","tel":"031-837-5404","addr":"경기도 의정부시 가능동 649번지 102호","indutype":"사무통신 - 컴퓨터","category":"other"}]},{"lat":"37.754925049","long":"127.04357401","imageIndex":17,"items":[{"name":"의정부금속","tel":"031-844-9154","addr":"경기도 의정부시 가능동 79-15번지 그린 상가 1층","indutype":"건축자재 - 기타건축자재","category":"other"}]},{"lat":"37.748179796","long":"127.03407333","imageIndex":17,"items":[{"name":"의정부서부지국","tel":"031-873-8821","addr":"경기도 의정부시 가능동 676-1번지","indutype":"용역 서비스 - 종합용역","category":"other"}]},{"lat":"37.743901603","long":"127.0284894","imageIndex":17,"items":[{"name":"의정부워터스(무이자)","tel":"031-873-7181","addr":"경기도 의정부시 가능동 703-19번지","indutype":"주방용구 - 정수기","category":"other"}]},{"lat":"37.74459381","long":"127.03476393","imageIndex":17,"items":[{"name":"의정부인터넷뉴스","tel":"031-826-0908","addr":"경기도 의정부시 가능동 737-22번지 2층","indutype":"서적문구 - 정기간행물","category":"other"}]},{"lat":"37.74240438","long":"127.03516009","imageIndex":17,"items":[{"name":"의정부재활용쎈타","tel":"031-877-9464","addr":"경기도 의정부시 가능동 742-5번지 1층","indutype":"기타 - 기타 전문점","category":"other"}]},{"lat":"37.750096229","long":"127.04270901","imageIndex":17,"items":[{"name":"의정부헌책방(헌책백화점)","tel":"031-876-6231","addr":"경기도 의정부시 가능동 641-5번지 지층","indutype":"서적문구 - 일반서적","category":"other"}]},{"lat":"37.740483825","long":"127.04029866","imageIndex":17,"items":[{"name":"의정부현수막히애드","tel":"031-871-5758","addr":"경기도 의정부시 가능동 751번지","indutype":"건축자재 - 인테리어전문","category":"other"}]},{"lat":"37.752484897","long":"127.03918134","imageIndex":17,"items":[{"name":"이노비즈","tel":"02-2275-2002","addr":"경기도 의정부시 가능동 626-9번지 대가트라움3차","indutype":"전기제품 - 기타전기제품","category":"other"}]},{"lat":"37.741709458","long":"127.03923281","imageIndex":17,"items":[{"name":"이든피부샵","tel":"031-826-2022","addr":"경기도 의정부시 가능동 747-26번지","indutype":"회원제형태 - 기타4","category":"other"}]},{"lat":"37.748961175","long":"127.04226589","imageIndex":17,"items":[{"name":"이마트24 의여고점","tel":"","addr":"경기도 의정부시 가능동 653-23번지 삼성하우징 102,103호","indutype":"유통업 영리 - 편 의 점","category":"other"},{"name":"이마트24 의여고점","tel":"02-6916-1500","addr":"경기도 의정부시 가능동 653-23번지 삼성하우징 102,103호","indutype":"유통업 영리 - 편 의 점","category":"other"}]},{"lat":"37.743343287","long":"127.02718445","imageIndex":17,"items":[{"name":"이마트24 의정부경민점","tel":"031-111-1111","addr":"경기도 의정부시 가능동 697-29번지","indutype":"유통업 영리 - 편 의 점","category":"other"},{"name":"이마트24 의정부경민점","tel":"031-877-7421","addr":"경기도 의정부시 가능동 697-29번지","indutype":"유통업 영리 - 편 의 점","category":"other"}]},{"lat":"37.750404468","long":"127.03657056","imageIndex":17,"items":[{"name":"이브자리","tel":"031-875-8530","addr":"경기도 의정부시 가능동 616번지","indutype":"직물 - 침구·수예점","category":"other"}]},{"lat":"37.741684716","long":"127.0308485","imageIndex":17,"items":[{"name":"이수세탁","tel":"031-837-3365","addr":"경기도 의정부시 가능동 224-68번지 구세군의정부교회","indutype":"수리서비스 - 세탁소","category":"other"}]},{"lat":"37.740709239","long":"127.03974286","imageIndex":17,"items":[{"name":"이지애드컴","tel":"031-871-8224","addr":"경기도 의정부시 가능동 835-2번지","indutype":"용역 서비스 - 종합용역","category":"other"}]},{"lat":"37.74637814","long":"127.03309681","imageIndex":17,"items":[{"name":"이지워시빨래방","tel":"","addr":"경기도 의정부시 가능동 722-16번지 명진빌딩 1층","indutype":"수리서비스 - 세탁소","category":"other"}]},{"lat":"37.74820667","long":"127.03465201","imageIndex":17,"items":[{"name":"이파엘지종합특수방수","tel":"031-872-5576","addr":"경기도 의정부시 가능동 669-1번지","indutype":"용역 서비스 - 기타용역서비스","category":"other"}]},{"lat":"37.752591625","long":"127.04343657","imageIndex":17,"items":[{"name":"인쇄마을","tel":"031-874-2296","addr":"경기도 의정부시 가능동 31-24번지 1층","indutype":"서적문구 - 출판 및 인쇄물","category":"other"},{"name":"태경에너지","tel":"031-832-2079","addr":"경기도 의정부시 가능동 31-24번지 101,102호","indutype":"건축자재 - 인테리어전문","category":"other"}]},{"lat":"37.751926781","long":"127.03760383","imageIndex":17,"items":[{"name":"일심사","tel":"031-874-7987","addr":"경기도 의정부시 가능동 620번지 1층","indutype":"수리서비스 - 세탁소","category":"other"}]},{"lat":"37.750737565","long":"127.03745577","imageIndex":17,"items":[{"name":"일이삼식품","tel":"031-872-4192","addr":"경기도 의정부시 가능동 615-19번지","indutype":"기타 - 기타 전문점","category":"other"},{"name":"피노키오","tel":"031-874-9880","addr":"경기도 의정부시 가능동 615-19번지 1층 3호","indutype":"의류 - 정장","category":"other"}]},{"lat":"37.756258472","long":"127.0435407","imageIndex":17,"items":[{"name":"일형어패럴","tel":"031-821-9322","addr":"경기도 의정부시 가능동 89-7번지 TG아울렛 가동 101호","indutype":"의류 - 기타의류","category":"other"}]},{"lat":"37.743350392","long":"127.03512646","imageIndex":17,"items":[{"name":"임대성세무회계사무소","tel":"031-829-9341","addr":"경기도 의정부시 가능동 738-36번지 일부 6층","indutype":"용역 서비스 - 법률회계서비스(개인)","category":"other"}]},{"lat":"37.746933801","long":"127.04293425","imageIndex":17,"items":[{"name":"자찾사","tel":"031-1111-111","addr":"경기도 의정부시 가능동 646-26번지","indutype":"레져용품 - 스포츠·레져용품","category":"other"}]},{"lat":"37.749042093","long":"127.04276518","imageIndex":17,"items":[{"name":"작은동물원","tel":"031-872-0601","addr":"경기도 의정부시 가능동 641-17번지","indutype":"문화.취미 - 애완동물","category":"other"}]},{"lat":"37.743289449","long":"127.02609525","imageIndex":17,"items":[{"name":"장날","tel":"031-874-5552","addr":"경기도 의정부시 가능동 697-19번지","indutype":"전기제품 - 가전제품","category":"other"}]},{"lat":"37.752123082","long":"127.04357248","imageIndex":17,"items":[{"name":"장안조명","tel":"031-840-7777","addr":"경기도 의정부시 가능동 31-3번지","indutype":"건축자재 - 조명기구","category":"other"}]},{"lat":"37.750234033","long":"127.03384726","imageIndex":17,"items":[{"name":"장안퍼니쳐","tel":"031-541-3445","addr":"경기도 의정부시 가능동 672-6번지 1층","indutype":"가구 - 일반가구","category":"other"}]},{"lat":"37.745172248","long":"127.02708294","imageIndex":17,"items":[{"name":"장옥자속옷","tel":"","addr":"경기도 의정부시 가능동 694번지 금성연립 나동 105호","indutype":"의류 - 내의판매","category":"other"}]},{"lat":"37.743956","long":"127.02687832","imageIndex":17,"items":[{"name":"저팔계언니네","tel":"","addr":"경기도 의정부시 가능동 698-11번지 1층","indutype":"의류 - 정장","category":"other"}]},{"lat":"37.748377882","long":"127.03453862","imageIndex":17,"items":[{"name":"전국지도센타","tel":"031-875-4091","addr":"경기도 의정부시 가능동 670-23번지","indutype":"기타 - 기타 전문점","category":"other"},{"name":"화이트독","tel":"031-826-3530","addr":"경기도 의정부시 가능동 670-23번지 1층 좌측","indutype":"문화.취미 - 애완동물","category":"other"}]},{"lat":"37.74698734","long":"127.04443198","imageIndex":17,"items":[{"name":"정씽크","tel":"031-873-1431","addr":"경기도 의정부시 가능동 197-98번지 1층","indutype":"건축자재 - 인테리어전문","category":"other"}]},{"lat":"37.747600546","long":"127.04282114","imageIndex":17,"items":[{"name":"제이샵","tel":"031-871-5216","addr":"경기도 의정부시 가능동 646-5번지","indutype":"신변잡화 - 액세서리","category":"other"}]},{"lat":"37.747045022","long":"127.03240495","imageIndex":17,"items":[{"name":"제이엔더블유 컴퍼니","tel":"","addr":"경기도 의정부시 가능동 684-29번지 1층","indutype":"의류 - 정장","category":"other"}]},{"lat":"37.745872332","long":"127.03771446","imageIndex":17,"items":[{"name":"제이정보통신","tel":"070-7447-3370","addr":"경기도 의정부시 가능동 727-10번지 2동 202호","indutype":"사무통신 - 통신기기","category":"other"},{"name":"주식회사 더페이넷","tel":"070-7447-0575","addr":"경기도 의정부시 가능동 727-10번지","indutype":"전기제품 - 가전제품","category":"other"},{"name":"주식회사세기","tel":"070-8018-0365","addr":"경기도 의정부시 가능동 727-10번지 2층","indutype":"사무통신 - 통신기기","category":"other"}]},{"lat":"37.746377841","long":"127.03424277","imageIndex":17,"items":[{"name":"제이제이통신","tel":"031-878-7800","addr":"경기도 의정부시 가능동 723-1번지","indutype":"사무통신 - 전자(상우회)","category":"other"},{"name":"제이제이통신","tel":"0031-0879-8686","addr":"경기도 의정부시 가능동 723-1번지","indutype":"별도관리 - 자체물품대금","category":"other"}]},{"lat":"37.75279169","long":"127.03762693","imageIndex":17,"items":[{"name":"제일기계설비(주)","tel":"031-876-2761","addr":"경기도 의정부시 가능동 622-2번지 1층","indutype":"용역 서비스 - 기타용역서비스","category":"other"}]},{"lat":"37.741403715","long":"127.03729259","imageIndex":17,"items":[{"name":"제일리폼","tel":"031-852-2249","addr":"경기도 의정부시 가능동 745-5번지 1층","indutype":"수리서비스 - 세탁소","category":"other"}]},{"lat":"37.748309685","long":"127.04991307","imageIndex":17,"items":[{"name":"제일유압","tel":"031-535-4874","addr":"경기도 의정부시 가능동 7-136번지 한성빌라 가동 101호","indutype":"기타 - 기타 전문점","category":"other"}]},{"lat":"37.740818728","long":"127.03504594","imageIndex":17,"items":[{"name":"조세래세무회계사무소","tel":"031-826-7272","addr":"경기도 의정부시 가능동 830-13번지 세안빌딩 202호","indutype":"용역 서비스 - 법률회계서비스(개인)","category":"other"}]},{"lat":"37.746684032","long":"127.03474213","imageIndex":17,"items":[{"name":"종로금은방","tel":"031-875-6999","addr":"경기도 의정부시 가능동 668-10번지 1층","indutype":"신변잡화 - 귀금속","category":"other"}]},{"lat":"37.746818996","long":"127.03540027","imageIndex":17,"items":[{"name":"종찬에어컨","tel":"031-000-0000","addr":"경기도 의정부시 가능동 667-2번지 아름빌리지","indutype":"용역 서비스 - 기타용역서비스","category":"other"}]},{"lat":"37.744179474","long":"127.03437799","imageIndex":17,"items":[{"name":"종합씽크","tel":"031-875-6303","addr":"경기도 의정부시 가능동 719-11번지","indutype":"주방용구 - 주방용구","category":"other"}]},{"lat":"37.747375604","long":"127.04193601","imageIndex":17,"items":[{"name":"종합전기조명","tel":"031-875-5429","addr":"경기도 의정부시 가능동 647-2번지 1층","indutype":"건축자재 - 조명기구","category":"other"}]},{"lat":"37.742875504","long":"127.02342889","imageIndex":17,"items":[{"name":"좋은친구들이벤트기획","tel":"031-826-5038","addr":"경기도 의정부시 가능동 585-1번지","indutype":"용역 서비스 - 사무서비스","category":"other"}]},{"lat":"37.741988632","long":"127.03963004","imageIndex":17,"items":[{"name":"주식회사 디에스하우징","tel":"031-1800-7254","addr":"경기도 의정부시 가능동 748-28번지 1층","indutype":"건축자재 - 인테리어전문","category":"other"},{"name":"충북철물","tel":"031-872-0208","addr":"경기도 의정부시 가능동 748-28번지","indutype":"건축자재 - 목재·석재·철물","category":"other"}]},{"lat":"37.749765328","long":"127.03462999","imageIndex":17,"items":[{"name":"주식회사 오리표씽크","tel":"031-837-4984","addr":"경기도 의정부시 가능동 671-32번지 1층","indutype":"주방용구 - 주방용구","category":"other"}]},{"lat":"37.752123672","long":"127.04182503","imageIndex":17,"items":[{"name":"주식회사컴닥터","tel":"02-3452-1824","addr":"경기도 의정부시 가능동 637-19번지","indutype":"사무통신 - 컴퓨터","category":"other"}]},{"lat":"37.746016394","long":"127.03802088","imageIndex":17,"items":[{"name":"주영TECH","tel":"031-879-0481","addr":"경기도 의정부시 가능동 726-5번지 라온탑팰리스","indutype":"용역 서비스 - 기타용역서비스","category":"other"}]},{"lat":"37.746017459","long":"127.03424262","imageIndex":17,"items":[{"name":"주호목욕탕","tel":"031-872-6646","addr":"경기도 의정부시 가능동 723-3번지","indutype":"회원제형태 - 기타4","category":"other"}]},{"lat":"37.751206173","long":"127.03707019","imageIndex":17,"items":[{"name":"주홍","tel":"070-0000-0000","addr":"경기도 의정부시 가능동 614-13번지","indutype":"의류 - 정장","category":"other"}]},{"lat":"37.747314154","long":"127.03670532","imageIndex":17,"items":[{"name":"준네온","tel":"031-877-1666","addr":"경기도 의정부시 가능동 652-23번지","indutype":"건축자재 - 인테리어전문","category":"other"}]},{"lat":"37.745233352","long":"127.03526343","imageIndex":17,"items":[{"name":"중앙이엔지(ENG)","tel":"031-879-9021","addr":"경기도 의정부시 가능동 736번지","indutype":"건축자재 - 기타건축자재","category":"other"}]},{"lat":"37.747538255","long":"127.04046106","imageIndex":17,"items":[{"name":"즐겨찾기","tel":"031-855-0044","addr":"경기도 의정부시 가능동 652-17번지","indutype":"의류 - 정장","category":"other"}]},{"lat":"37.754929025","long":"127.02968469","imageIndex":17,"items":[{"name":"지능숲다중지능경기북부검사센터","tel":"031-826-0586","addr":"경기도 의정부시 가능동 374-4번지 기독청소년비전센터","indutype":"용역 서비스 - 사무서비스","category":"other"}]},{"lat":"37.742349903","long":"127.03665768","imageIndex":17,"items":[{"name":"지니클럽(Gene Wii club)","tel":"070-8955-8279","addr":"경기도 의정부시 가능동 743-19번지 진산빌라12차 302호","indutype":"서적문구 - 완구점","category":"other"}]},{"lat":"37.751600489","long":"127.04368566","imageIndex":17,"items":[{"name":"지인","tel":"031-846-8471","addr":"경기도 의정부시 가능동 34-1번지 명진하이츠빌라","indutype":"건축자재 - 기타건축자재","category":"other"}]},{"lat":"37.742349067","long":"127.03946003","imageIndex":17,"items":[{"name":"진명장식집수리","tel":"031-878-6555","addr":"경기도 의정부시 가능동 218-23","indutype":"수리서비스 - 기타수리서비스","category":"other"}]},{"lat":"37.751070753","long":"127.03801192","imageIndex":17,"items":[{"name":"집이야기","tel":"070-8111-1872","addr":"경기도 의정부시 가능동 618-4번지","indutype":"건축자재 - 인테리어전문","category":"other"},{"name":"플러스  에스테틱","tel":"070-8682-7227","addr":"경기도 의정부시 가능동 618-4번지","indutype":"회원제형태 - 기타4","category":"other"}]},{"lat":"37.75168088","long":"127.04564873","imageIndex":17,"items":[{"name":"참좋은물산","tel":"031-829-6565","addr":"경기도 의정부시 가능동 15-311번지","indutype":"신변잡화 - 기타잡화","category":"other"}]},{"lat":"37.742628645","long":"127.03854117","imageIndex":17,"items":[{"name":"척척수리","tel":"070-4922-1261","addr":"경기도 의정부시 가능동 741-3번지 지하층","indutype":"용역 서비스 - 기타용역서비스","category":"other"}]},{"lat":"37.746934072","long":"127.04212866","imageIndex":17,"items":[{"name":"천보사","tel":"031-874-4438","addr":"경기도 의정부시 가능동 647-29번지","indutype":"신변잡화 - 시계","category":"other"}]},{"lat":"37.744514037","long":"127.02946536","imageIndex":17,"items":[{"name":"천일배관설비","tel":"031-837-0459","addr":"경기도 의정부시 가능동 709-18번지","indutype":"건축자재 - 보일러·펌프·샷시","category":"other"}]},{"lat":"37.74576556","long":"127.03282425","imageIndex":17,"items":[{"name":"청명세탁소","tel":"031-874-5841","addr":"경기도 의정부시 가능동 721번지","indutype":"수리서비스 - 세탁소","category":"other"}]},{"lat":"37.744404875","long":"127.03376541","imageIndex":17,"items":[{"name":"청정냉난방","tel":"031-000-0000","addr":"경기도 의정부시 가능동 719-1번지 1층","indutype":"용역 서비스 - 기타용역서비스","category":"other"}]},{"lat":"37.758430721","long":"127.04068218","imageIndex":17,"items":[{"name":"청춘주간보호센터","tel":"031-829-6667","addr":"경기도 의정부시 가능동 92-51번지 세현빌딩 4층","indutype":"기타의료기관 - 기타의료기관 및 기타","category":"other"}]},{"lat":"37.740069414","long":"127.04020769","imageIndex":17,"items":[{"name":"최선미스킨케어","tel":"031-875-6596","addr":"경기도 의정부시 가능동 752번지 1층","indutype":"회원제형태 - 기타4","category":"other"}]},{"lat":"37.75135023","long":"127.03739932","imageIndex":17,"items":[{"name":"춘자네","tel":"","addr":"경기도 의정부시 가능동 614-9번지 1층","indutype":"의류 - 정장","category":"other"},{"name":"플러스","tel":"","addr":"경기도 의정부시 가능동 614-9번지","indutype":"신변잡화 - 기타잡화","category":"other"}]},{"lat":"37.744125723","long":"127.03320935","imageIndex":17,"items":[{"name":"충남목재","tel":"031-871-4495","addr":"경기도 의정부시 가능동 719-35번지","indutype":"기타의료기관 - 기타의료기관 및 기타","category":"other"}]},{"lat":"37.749486057","long":"127.03453909","imageIndex":17,"items":[{"name":"충남철물","tel":"031-872-3256","addr":"경기도 의정부시 가능동 671-8번지","indutype":"건축자재 - 목재·석재·철물","category":"other"}]},{"lat":"37.748204316","long":"127.04243569","imageIndex":17,"items":[{"name":"칼라피아","tel":"031-879-4094","addr":"경기도 의정부시 가능동 648-23번지 2층","indutype":"용역 서비스 - 종합용역","category":"other"}]},{"lat":"37.749179723","long":"127.034573","imageIndex":17,"items":[{"name":"캣츠아이홈","tel":"031-871-3002","addr":"경기도 의정부시 가능동 671-11번지 1층","indutype":"가구 - 기타가구","category":"other"},{"name":"하나로상사","tel":"031-875-7051","addr":"경기도 의정부시 가능동 671-11번지","indutype":"의류 - 기타의류","category":"other"}]},{"lat":"37.742376384","long":"127.03851836","imageIndex":17,"items":[{"name":"컴사랑119","tel":"031-842-5038","addr":"경기도 의정부시 가능동 741-10번지","indutype":"회원제형태 - 기타4","category":"other"}]},{"lat":"37.750871964","long":"127.03990675","imageIndex":17,"items":[{"name":"컴텍시스템","tel":"070-8666-4178","addr":"경기도 의정부시 가능동 629-24번지","indutype":"사무통신 - 기타 사무용품","category":"other"}]},{"lat":"37.750094757","long":"127.04685058","imageIndex":17,"items":[{"name":"케이에스(KS)시스템","tel":"031-876-3114","addr":"경기도 의정부시 가능동 15-445번지","indutype":"용역 서비스 - 종합용역","category":"other"}]},{"lat":"37.744792814","long":"127.03167792","imageIndex":17,"items":[{"name":"코리아헤럴드의정부지사","tel":"031-876-0081","addr":"경기도 의정부시 가능동 714-3 1층","indutype":"서적문구 - 정기간행물","category":"other"}]},{"lat":"37.752928408","long":"127.03179454","imageIndex":17,"items":[{"name":"코스모하비클럽","tel":"031-874-8862","addr":"경기도 의정부시 가능동 328번지","indutype":"서적문구 - 완구점","category":"other"}]},{"lat":"37.750404641","long":"127.03595784","imageIndex":17,"items":[{"name":"키친마트","tel":"031-873-8133","addr":"경기도 의정부시 가능동 604","indutype":"주방용구 - 기타주방용구","category":"other"}]},{"lat":"37.747233948","long":"127.03348293","imageIndex":17,"items":[{"name":"킨더빌리지 의정부","tel":"070-7808-8842","addr":"경기도 의정부시 가능동 679-8번지","indutype":"서적문구 - 기타서적문구","category":"other"}]},{"lat":"37.748348654","long":"127.04187978","imageIndex":17,"items":[{"name":"탑에어컨","tel":"02-1577-3914","addr":"경기도 의정부시 가능동 648-18번지","indutype":"용역 서비스 - 기타용역서비스","category":"other"}]},{"lat":"37.74345874","long":"127.03426423","imageIndex":17,"items":[{"name":"태광전기","tel":"031-825-3996","addr":"경기도 의정부시 가능동 719-20번지","indutype":"전기제품 - 기타전기제품","category":"other"}]},{"lat":"37.746485138","long":"127.03718148","imageIndex":17,"items":[{"name":"태성사진관","tel":"031-875-5539","addr":"경기도 의정부시 가능동 725-23번지","indutype":"광학제품 - 사진관","category":"other"}]},{"lat":"37.744485007","long":"127.0372146","imageIndex":17,"items":[{"name":"태훈공방","tel":"","addr":"경기도 의정부시 가능동 731-4번지 혜성빌라트 301호","indutype":"가구 - 일반가구","category":"other"}]},{"lat":"37.744343484","long":"127.02651537","imageIndex":17,"items":[{"name":"태흥금방","tel":"031-876-9905","addr":"경기도 의정부시 가능동 695-28번지","indutype":"신변잡화 - 시계","category":"other"}]},{"lat":"37.753315119","long":"127.03451803","imageIndex":17,"items":[{"name":"템피아냉난방기","tel":"070-8744-6316","addr":"경기도 의정부시 가능동 352-1번지","indutype":"전기제품 - 냉열기기","category":"other"}]},{"lat":"37.741152107","long":"127.03495533","imageIndex":17,"items":[{"name":"토우건축사사무소","tel":"031-878-8056","addr":"경기도 의정부시 가능동 830-10번지","indutype":"용역 서비스 - 사무서비스","category":"other"}]},{"lat":"37.746898079","long":"127.04199249","imageIndex":17,"items":[{"name":"토탈명품수선","tel":"031-877-2197","addr":"경기도 의정부시 가능동 647-30번지","indutype":"수리서비스 - 세탁소","category":"other"}]},{"lat":"37.747982126","long":"127.03196281","imageIndex":17,"items":[{"name":"통일전기","tel":"031-871-9970","addr":"경기도 의정부시 가능동 682-27번지","indutype":"전기제품 - 기타전기제품","category":"other"}]},{"lat":"37.741514236","long":"127.02771709","imageIndex":17,"items":[{"name":"트리플제이","tel":"","addr":"경기도 의정부시 가능동 581-9번지 로얄빌리지 301호","indutype":"신변잡화 - 기타잡화","category":"other"}]},{"lat":"37.746378091","long":"127.03328969","imageIndex":17,"items":[{"name":"티에스 인터내셔널","tel":"031-856-8355","addr":"경기도 의정부시 가능동 722-20번지 준희빌딩 4층","indutype":"의류 - 아동의류","category":"other"},{"name":"포근한 방문요양센터","tel":"031-878-5901","addr":"경기도 의정부시 가능동 722-20번지 준희빌딩","indutype":"기타의료기관 - 기타의료기관 및 기타","category":"other"}]},{"lat":"37.752231925","long":"127.04140524","imageIndex":17,"items":[{"name":"파리패션","tel":"02-000-0000","addr":"경기도 의정부시 가능동 635-11번지","indutype":"의류 - 정장","category":"other"}]},{"lat":"37.740961252","long":"127.0405485","imageIndex":17,"items":[{"name":"퍼스트OA솔루션","tel":"070-8264-6713","addr":"경기도 의정부시 가능동 750-4번지","indutype":"사무통신 - 사무용 OA기기","category":"other"}]},{"lat":"37.741961631","long":"127.03953926","imageIndex":17,"items":[{"name":"편백메이트","tel":"031-877-9460","addr":"경기도 의정부시 가능동 748번지 1층","indutype":"회원제형태 - 기타4","category":"other"}]},{"lat":"37.753654006","long":"127.04554774","imageIndex":17,"items":[{"name":"포르테","tel":"031-871-2070","addr":"경기도 의정부시 가능동 15-412번지","indutype":"의류 - 내의판매","category":"other"}]},{"lat":"37.750042294","long":"127.04234589","imageIndex":17,"items":[{"name":"폭스","tel":"070-8751-4075","addr":"경기도 의정부시 가능동 653-11번지 일부 1층","indutype":"의류 - 정장","category":"other"}]},{"lat":"37.753648209","long":"127.03548269","imageIndex":17,"items":[{"name":"푸른건업","tel":"","addr":"경기도 의정부시 가능동 362-72번지 지층 101호","indutype":"건축자재 - 기타건축자재","category":"other"}]},{"lat":"37.745793165","long":"127.03046427","imageIndex":17,"items":[{"name":"푸른세상","tel":"031-874-1308","addr":"경기도 의정부시 가능동 711-23번지 전체 1층","indutype":"회원제형태 - 서적","category":"other"}]},{"lat":"37.743766531","long":"127.02816033","imageIndex":17,"items":[{"name":"풀하우스","tel":"031-872-2198","addr":"경기도 의정부시 가능동 699-19번지","indutype":"직물 - 침구·수예점","category":"other"}]},{"lat":"37.743009834","long":"127.02766086","imageIndex":17,"items":[{"name":"프랜즈","tel":"031-879-1981","addr":"경기도 의정부시 가능동 700-37번지","indutype":"사무통신 - 통신기기","category":"other"}]},{"lat":"37.746737739","long":"127.03601293","imageIndex":17,"items":[{"name":"필스포츠","tel":"070-8261-4949","addr":"경기도 의정부시 가능동 667-10번지 1층","indutype":"레져용품 - 스포츠·레져용품","category":"other"}]},{"lat":"37.741961567","long":"127.03974348","imageIndex":17,"items":[{"name":"하나재활용센타","tel":"031-874-7289","addr":"경기도 의정부시 가능동 748-1번지","indutype":"전기제품 - 가전제품","category":"other"}]},{"lat":"37.742596311","long":"127.0228275","imageIndex":17,"items":[{"name":"하나컴퓨터","tel":"031-8083-2341","addr":"경기도 의정부시 가능동 585-10번지","indutype":"사무통신 - 컴퓨터","category":"other"}]},{"lat":"37.747375668","long":"127.04174312","imageIndex":17,"items":[{"name":"하은철물인테리어","tel":"031-877-4222","addr":"경기도 의정부시 가능동 651-12번지","indutype":"건축자재 - 목재·석재·철물","category":"other"}]},{"lat":"37.746960979","long":"127.04249176","imageIndex":17,"items":[{"name":"하이시스템","tel":"031-873-2155","addr":"경기도 의정부시 가능동 647-26번지","indutype":"사무통신 - 통신기기","category":"other"},{"name":"현대교복백화점","tel":"031-874-9947","addr":"경기도 의정부시 가능동 647-26번지","indutype":"의류 - 정장","category":"other"}]},{"lat":"37.751040995","long":"127.04621571","imageIndex":17,"items":[{"name":"한국바이럴마케팅개발원","tel":"031-856-0208","addr":"경기도 의정부시 가능동 15-14번지 남성연립 나동 107호","indutype":"용역 서비스 - 종합용역","category":"other"}]},{"lat":"37.739988456","long":"127.03979923","imageIndex":17,"items":[{"name":"한남피앤지","tel":"031-826-3400","addr":"경기도 의정부시 가능동 836-2번지 1층","indutype":"유통업 영리 - 기타유통업","category":"other"}]},{"lat":"37.74340545","long":"127.0312349","imageIndex":17,"items":[{"name":"한세산업","tel":"","addr":"경기도 의정부시 가능동 706-50번지 공간라움 302호","indutype":"기타 - 기계공구","category":"other"}]},{"lat":"37.751044041","long":"127.03693395","imageIndex":17,"items":[{"name":"한솔광고기획","tel":"031-1111-1111","addr":"경기도 의정부시 가능동 615-8번지","indutype":"용역 서비스 - 종합용역","category":"other"}]},{"lat":"37.74837797","long":"127.03420957","imageIndex":17,"items":[{"name":"한솔인테리어","tel":"031-836-7776","addr":"경기도 의정부시 가능동 675-17번지","indutype":"건축자재 - 인테리어전문","category":"other"}]},{"lat":"37.743900156","long":"127.0344573","imageIndex":17,"items":[{"name":"한신인쇄","tel":"031-826-0350","addr":"경기도 의정부시 가능동 719-15번지 1층","indutype":"서적문구 - 출판 및 인쇄물","category":"other"}]},{"lat":"37.745342518","long":"127.03117891","imageIndex":17,"items":[{"name":"한양전기,조명","tel":"031-837-6854","addr":"경기도 의정부시 가능동 713-2번지","indutype":"전기제품 - 기타전기제품","category":"other"}]},{"lat":"37.751512102","long":"127.03840927","imageIndex":17,"items":[{"name":"한일도시가스","tel":"000-000-0000","addr":"경기도 의정부시 가능동 619-9번지","indutype":"용역 서비스 - 기타용역서비스","category":"other"}]},{"lat":"37.742821032","long":"127.02568666","imageIndex":17,"items":[{"name":"한일목재상사","tel":"031-876-8586","addr":"경기도 의정부시 가능동 578-2번지","indutype":"건축자재 - 목재·석재·철물","category":"other"}]},{"lat":"37.7512327","long":"127.03876089","imageIndex":17,"items":[{"name":"한일사","tel":"031-874-2053","addr":"경기도 의정부시 가능동 619-16번지","indutype":"건축자재 - 목재·석재·철물","category":"other"}]},{"lat":"37.747648634","long":"127.03251866","imageIndex":17,"items":[{"name":"합창나라","tel":"031-873-9517","addr":"경기도 의정부시 가능동 681-21번지","indutype":"의류 - 정장","category":"other"}]},{"lat":"37.751232799","long":"127.03843183","imageIndex":17,"items":[{"name":"해피유앤아이","tel":"031-824-2900","addr":"경기도 의정부시 가능동 619-6번지","indutype":"의류 - 정장","category":"other"}]},{"lat":"37.744206263","long":"127.03526298","imageIndex":17,"items":[{"name":"행복가득한옷집","tel":"031-872-6335","addr":"경기도 의정부시 가능동 738-7번지","indutype":"의류 - 기타의류","category":"other"}]},{"lat":"37.749873421","long":"127.03470946","imageIndex":17,"items":[{"name":"행복공간","tel":"031-879-1446","addr":"경기도 의정부시 가능동 671-1번지","indutype":"신변잡화 - 기타잡화","category":"other"}]},{"lat":"37.752151628","long":"127.03890885","imageIndex":17,"items":[{"name":"행복종합 할인마트","tel":"070-4531-8252","addr":"경기도 의정부시 가능동 626-3번지","indutype":"유통업 영리 - 편 의 점","category":"other"}]},{"lat":"37.747573195","long":"127.04376287","imageIndex":17,"items":[{"name":"행복한세상24불가마","tel":"031-871-0671","addr":"경기도 의정부시 가능동 644-8번지 퍼니365상가 지하층 101호","indutype":"회원제형태 - 기타4","category":"other"}]},{"lat":"37.752843838","long":"127.04359557","imageIndex":17,"items":[{"name":"행복한요나네공방","tel":"031-836-7814","addr":"경기도 의정부시 가능동 31-21번지 제3호","indutype":"문화.취미 - 애완동물","category":"other"}]},{"lat":"37.74298388","long":"127.02187456","imageIndex":17,"items":[{"name":"헬로우컴퍼니","tel":"031-873-2119","addr":"경기도 의정부시 가능동 588-2번지 동아청송빌라 401호","indutype":"의류 - 정장","category":"other"}]},{"lat":"37.749175259","long":"127.04823432","imageIndex":17,"items":[{"name":"현 시스템","tel":"","addr":"경기도 의정부시 가능동 15-78번지 1층","indutype":"전기제품 - 냉열기기","category":"other"}]},{"lat":"37.750791901","long":"127.03649131","imageIndex":17,"items":[{"name":"현대만물지물","tel":"031-874-0027","addr":"경기도 의정부시 가능동 615-2번지 22/4","indutype":"직물 - 카페트,커튼,천막,지물","category":"other"}]},{"lat":"37.74276535","long":"127.0329365","imageIndex":17,"items":[{"name":"현대목재","tel":"031-849-1464","addr":"경기도 의정부시 가능동 227-11번지","indutype":"건축자재 - 기타건축자재","category":"other"}]},{"lat":"37.754510437","long":"127.04407307","imageIndex":17,"items":[{"name":"현대사이언스","tel":"031-842-7794","addr":"경기도 의정부시 가능동 78-11번지 2층","indutype":"서적문구 - 과학기자재","category":"other"}]},{"lat":"37.74515316","long":"127.03182556","imageIndex":17,"items":[{"name":"협회열쇠","tel":"031-878-6622","addr":"경기도 의정부시 가능동 717-21번지 동양하이츠빌라 가동 101호","indutype":"수리서비스 - 신변잡화수리","category":"other"}]},{"lat":"37.755925375","long":"127.04279157","imageIndex":17,"items":[{"name":"형제산업","tel":"031-841-1988","addr":"경기도 의정부시 가능동 66-22번지 1층","indutype":"기타 - 기계공구","category":"other"}]},{"lat":"37.752431285","long":"127.03770619","imageIndex":17,"items":[{"name":"형제유통","tel":"031-855-6549","addr":"경기도 의정부시 가능동 621-8번지 1층","indutype":"유통업 영리 - 기타유통업","category":"other"}]},{"lat":"37.752960788","long":"127.04409491","imageIndex":17,"items":[{"name":"홀인원","tel":"070-7581-4924","addr":"경기도 의정부시 가능동 22-47번지","indutype":"서적문구 - 출판 및 인쇄물","category":"other"}]},{"lat":"37.750233757","long":"127.03487982","imageIndex":17,"items":[{"name":"황금당","tel":"031-874-0377","addr":"경기도 의정부시 가능동 603-28번지","indutype":"신변잡화 - 시계","category":"other"}]},{"lat":"37.756042499","long":"127.04279163","imageIndex":17,"items":[{"name":"효성모터","tel":"031-848-9991","addr":"경기도 의정부시 가능동 66-21번지","indutype":"수리서비스 - 기타수리서비스","category":"other"}]},{"lat":"37.747541084","long":"127.03018126","imageIndex":17,"items":[{"name":"휴다이브센터","tel":"070-8760-8888","addr":"경기도 의정부시 가능동 314-3번지","indutype":"레져용품 - 스포츠·레져용품","category":"other"}]},{"lat":"37.751510558","long":"127.04320904","imageIndex":17,"items":[{"name":"흙나무 흙침대","tel":"031-821-4474","addr":"경기도 의정부시 가능동 34-4번지","indutype":"가구 - 일반가구","category":"other"}]}]