[{"lat":"37.467476918","long":"127.52672536","imageIndex":17,"items":[{"name":"금강지하수개발","tel":"031-774-2577","addr":"경기도 양평군 양평읍 회현리 9-51번지","indutype":"용역 서비스 - 기타용역서비스","category":"other"},{"name":"양평가야중기","tel":"031-774-7749","addr":"경기도 양평군 양평읍 회현리 9-51번지","indutype":"기타 - 기계공구","category":"other"}]},{"lat":"37.468585947","long":"127.51419702","imageIndex":17,"items":[{"name":"누가애견훈련학교","tel":"031-774-9775","addr":"경기도 양평군 양평읍 회현리 150","indutype":"문화.취미 - 애완동물","category":"other"}]},{"lat":"37.4694995","long":"127.52369868","imageIndex":17,"items":[{"name":"보성장묘산업","tel":"031-772-9444","addr":"경기도 양평군 양평읍 회현리 89-7번지 1층","indutype":"용역 서비스 - 가례서비스업","category":"other"}]},{"lat":"37.468110045","long":"127.52617589","imageIndex":17,"items":[{"name":"부동산임대업","tel":"031-`773-3783","addr":"경기도 양평군 양평읍 회현리 8-1번지","indutype":"용역 서비스 - 부동산 중개·임대","category":"other"}]},{"lat":"37.467333967","long":"127.52645307","imageIndex":17,"items":[{"name":"양평건설중기(주)","tel":"031-774-7749","addr":"경기도 양평군 양평읍 회현리 9-38","indutype":"기타 - 기계공구","category":"other"}]},{"lat":"37.468060437","long":"127.5272042","imageIndex":17,"items":[{"name":"양평콘크리트","tel":"031-775-2648","addr":"경기도 양평군 양평읍 회현리 9-1번지","indutype":"건축자재 - 기타건축자재","category":"other"}]},{"lat":"37.46824891","long":"127.50027963","imageIndex":17,"items":[{"name":"주식회사 해울림","tel":"070-8274-2922","addr":"경기도 양평군 양평읍 회현리 490-4번지","indutype":"문화.취미 - 민예·공예품","category":"other"}]},{"lat":"37.468835663","long":"127.52508446","imageIndex":17,"items":[{"name":"태동건설(주)","tel":"031-775-6888","addr":"경기도 양평군 양평읍 회현리 109-1번지 2호","indutype":"건축자재 - 기타건축자재","category":"other"}]}]