[{"lat":"37.821087343","long":"126.98470974","imageIndex":0,"items":[{"name":"경성덴트칼라","tel":"031-836-2361","addr":"경기도 양주시 광적면 가납리 866-3","indutype":"자동차정비 유지 - 자동차정비","category":"car"}]},{"lat":"37.820727427","long":"126.98799216","imageIndex":0,"items":[{"name":"경원상사","tel":"031-44-9202","addr":"경기도 양주시 광적면 가납리 709-1번지","indutype":"자동차정비 유지 - 자동차정비","category":"car"},{"name":"경원타이어백화점","tel":"031-837-9202","addr":"경기도 양주시 광적면 가납리 709-1번지","indutype":"자동차정비 유지 - 자동차시트·타이어","category":"car"}]},{"lat":"37.824727104","long":"126.98437946","imageIndex":0,"items":[{"name":"광적세차장","tel":"","addr":"경기도 양주시 광적면 가납리 849-4번지","indutype":"자동차정비 유지 - 세차장","category":"car"}]},{"lat":"37.806952489","long":"126.99279828","imageIndex":0,"items":[{"name":"광적자동차부품","tel":"031-836-2686","addr":"경기도 양주시 광적면 가납리 565-4","indutype":"자동차정비 유지 - 자동차부품","category":"car"}]},{"lat":"37.809592387","long":"126.99441045","imageIndex":0,"items":[{"name":"광적점현대자동차","tel":"031-836-8804","addr":"경기도 양주시 광적면 가납리 498-8번지","indutype":"자동차정비 유지 - 자동차정비","category":"car"}]},{"lat":"37.822312395","long":"126.983267","imageIndex":0,"items":[{"name":"광진특수","tel":"031-836-8008","addr":"경기도 양주시 광적면 가납리 859-2번지","indutype":"자동차정비 유지 - 견인서비스","category":"car"}]},{"lat":"37.809835624","long":"126.99416059","imageIndex":0,"items":[{"name":"국제타이어","tel":"031-874-7942","addr":"경기도 양주시 광적면 가납리 498-1번지","indutype":"자동차정비 유지 - 자동차시트·타이어","category":"car"}]},{"lat":"37.819114451","long":"126.98588002","imageIndex":0,"items":[{"name":"기동카센타","tel":"031-855-1348","addr":"경기도 양주시 광적면 가납리 679-3번지","indutype":"자동차정비 유지 - 중장비수리","category":"car"}]},{"lat":"37.834197434","long":"127.0002692","imageIndex":0,"items":[{"name":"김썬테크","tel":"031-000-0000","addr":"경기도 양주시 광적면 가납리 210-1번지","indutype":"자동차정비 유지 - 자동차부품","category":"car"}]},{"lat":"37.818672182","long":"126.98099651","imageIndex":0,"items":[{"name":"날으는자동차정비","tel":"031-829-4477","addr":"경기도 양주시 광적면 가납리 907-9번지","indutype":"자동차정비 유지 - 자동차부품","category":"car"}]},{"lat":"37.811619317","long":"126.99201407","imageIndex":0,"items":[{"name":"다영상사","tel":"031-836-6557","addr":"경기도 양주시 광적면 가납리 444-33번지","indutype":"자동차정비 유지 - 자동차부품","category":"car"}]},{"lat":"37.820276669","long":"126.98587976","imageIndex":0,"items":[{"name":"대승카센타","tel":"031-855-1572","addr":"경기도 양주시 광적면 가납리 873-2번지","indutype":"자동차정비 유지 - 자동차정비","category":"car"}]},{"lat":"37.822033805","long":"126.9880714","imageIndex":0,"items":[{"name":"대현카센타","tel":"031-855-5803","addr":"경기도 양주시 광적면 가납리 721-8번지","indutype":"자동차정비 유지 - 자동차정비","category":"car"}]},{"lat":"37.807168079","long":"126.98701831","imageIndex":0,"items":[{"name":"드림전동차","tel":"070-8812-3811","addr":"경기도 양주시 광적면 가납리 591-2번지","indutype":"자동차판매 - 기타운송","category":"car"}]},{"lat":"37.813781208","long":"126.98849324","imageIndex":0,"items":[{"name":"삼일산업","tel":"031-837-2364","addr":"경기도 양주시 광적면 가납리 624-1번지","indutype":"자동차정비 유지 - 자동차부품","category":"car"}]},{"lat":"37.819222342","long":"126.98440355","imageIndex":0,"items":[{"name":"신도시오토바이(BIKE TOP)광백점","tel":"031-829-7766","addr":"경기도 양주시 광적면 가납리 685번지","indutype":"자동차판매 - 이륜차판매","category":"car"}]},{"lat":"37.814952287","long":"126.98732328","imageIndex":0,"items":[{"name":"오토코리아북부","tel":"031-879-6452","addr":"경기도 양주시 광적면 가납리 657-20번지 1층 16","indutype":"자동차정비 유지 - 자동차부품","category":"car"},{"name":"현대지게차","tel":"031-977-8585","addr":"경기도 양주시 광적면 가납리 657-20 (1층 14호)","indutype":"자동차판매 - 기타운송","category":"car"}]},{"lat":"37.821394346","long":"126.98985468","imageIndex":0,"items":[{"name":"우정대리점","tel":"","addr":"경기도 양주시 광적면 가납리 384-18번지","indutype":"자동차정비 유지 - 자동차시트·타이어","category":"car"}]},{"lat":"37.816645875","long":"126.98596009","imageIndex":0,"items":[{"name":"정웅자동차정비공업사","tel":"031-836-8666","addr":"경기도 양주시 광적면 가납리 652-5번지","indutype":"자동차정비 유지 - 자동차정비","category":"car"}]},{"lat":"37.819646389","long":"126.98876468","imageIndex":0,"items":[{"name":"주식회사 카즈","tel":"031-836-7337","addr":"경기도 양주시 광적면 가납리 397번지","indutype":"자동차정비 유지 - 자동차부품","category":"car"}]},{"lat":"37.837224541","long":"126.99838332","imageIndex":0,"items":[{"name":"차차차","tel":"031-855-7598","addr":"경기도 양주시 광적면 가납리 245-54번지","indutype":"자동차정비 유지 - 자동차정비","category":"car"}]},{"lat":"37.818529008","long":"126.98710674","imageIndex":0,"items":[{"name":"천마특장산업","tel":"031-836-5223","addr":"경기도 양주시 광적면 가납리 674-1번지","indutype":"자동차정비 유지 - 자동차정비","category":"car"}]},{"lat":"37.828143131","long":"127.00257523","imageIndex":0,"items":[{"name":"콘보이(CONVOY)","tel":"031-1111-1111","addr":"경기도 양주시 광적면 가납리 79-6번지","indutype":"자동차정비 유지 - 자동차부품","category":"car"}]},{"lat":"37.835557874","long":"127.00126882","imageIndex":0,"items":[{"name":"평화서비스","tel":"031-878-8674","addr":"경기도 양주시 광적면 가납리 27번지","indutype":"자동차정비 유지 - 자동차부품","category":"car"}]},{"lat":"37.812222863","long":"126.99110548","imageIndex":0,"items":[{"name":"프로현대공업사","tel":"031-866-4104","addr":"경기도 양주시 광적면 가납리 445-4번지","indutype":"자동차정비 유지 - 자동차정비","category":"car"}]},{"lat":"37.809394222","long":"126.99502369","imageIndex":0,"items":[{"name":"필사운드카오디오","tel":"031-836-8838","addr":"경기도 양주시 광적면 가납리 482-1","indutype":"자동차정비 유지 - 자동차부품","category":"car"}]},{"lat":"37.809925642","long":"126.99318398","imageIndex":0,"items":[{"name":"해성 오토카","tel":"031-855-2468","addr":"경기도 양주시 광적면 가납리 548-2번지 1층","indutype":"자동차정비 유지 - 카인테리어","category":"car"},{"name":"해성오토카","tel":"031-855-2468","addr":"경기도 양주시 광적면 가납리 548-2번지 1층","indutype":"자동차정비 유지 - 자동차정비","category":"car"}]}]