[{"lat":"36.991077803","long":"127.08700603","imageIndex":7,"items":[{"name":"K-마켓","tel":"031-658-4915","addr":"경기도 평택시 평택동 55-3번지","indutype":"유통업 영리 - 슈퍼마켓","category":"mart"},{"name":"K-마트","tel":"031-655-7997","addr":"경기도 평택시 평택동 55-3번지","indutype":"소매업 - 슈퍼","category":"mart"},{"name":"K마트","tel":"031-654-7576","addr":"경기도 평택시 평택동 55-3번지","indutype":"유통업 영리 - 슈퍼마켓","category":"mart"}]},{"lat":"36.991964326","long":"127.0819521","imageIndex":7,"items":[{"name":"달성슈퍼","tel":"031-655-0377","addr":"경기도 평택시 평택동 86-3번지","indutype":"유통업 영리 - 슈퍼마켓","category":"mart"}]},{"lat":"36.992160432","long":"127.08508635","imageIndex":7,"items":[{"name":"대구슈퍼","tel":"031-651-5516","addr":"경기도 평택시 평택동 55-42번지","indutype":"유통업 영리 - 슈퍼마켓","category":"mart"}]},{"lat":"36.993413091","long":"127.08484057","imageIndex":7,"items":[{"name":"대우슈퍼","tel":"031-653-2243","addr":"경기도 평택시 평택동 59-13번지","indutype":"유통업 영리 - 슈퍼마켓","category":"mart"}]},{"lat":"36.993049753","long":"127.08895157","imageIndex":7,"items":[{"name":"박애연세점","tel":"","addr":"경기도 평택시 평택동 41-2번지 박애병원 1층 상가","indutype":"유통업 영리 - 슈퍼마켓","category":"mart"}]},{"lat":"36.994186653","long":"127.08678479","imageIndex":7,"items":[{"name":"보물섬","tel":"031-657-4380","addr":"경기도 평택시 평택동 66-4번지","indutype":"소매업 - 슈퍼","category":"mart"},{"name":"통복슈퍼","tel":"031-000-0000","addr":"경기도 평택시 평택동 66-4번지 외6필지 1층","indutype":"유통업 영리 - 슈퍼마켓","category":"mart"}]},{"lat":"36.988582636","long":"127.08586879","imageIndex":7,"items":[{"name":"원식자재","tel":"031-651-0634","addr":"경기도 평택시 평택동 185-33번지 1층","indutype":"도소매업 - 슈퍼","category":"mart"}]},{"lat":"36.992826117","long":"127.08667096","imageIndex":7,"items":[{"name":"월드마트","tel":"","addr":"경기도 평택시 평택동 62-9번지","indutype":"유통업 영리 - 슈퍼마켓","category":"mart"}]},{"lat":"36.988575593","long":"127.08300446","imageIndex":7,"items":[{"name":"중국식품","tel":"","addr":"경기도 평택시 평택동 121-4번지 1층","indutype":"유통업 영리 - 슈퍼마켓","category":"mart"}]},{"lat":"36.99374637","long":"127.08500943","imageIndex":7,"items":[{"name":"코사마트","tel":"031-654-7576","addr":"경기도 평택시 평택동 71-2번지","indutype":"소매업 - 슈퍼","category":"mart"}]},{"lat":"36.991915662","long":"127.08719792","imageIndex":7,"items":[{"name":"코사마트(역전점)","tel":"031-655-3407","addr":"경기도 평택시 평택동 46-4번지","indutype":"유통업 영리 - 슈퍼마켓","category":"mart"},{"name":"코사복권마트","tel":"031-658-4535","addr":"경기도 평택시 평택동 46-4번지","indutype":"소매업 - 슈퍼","category":"mart"}]},{"lat":"36.98863831","long":"127.08353246","imageIndex":7,"items":[{"name":"평화로운마트","tel":"031-657-4826","addr":"경기도 평택시 평택동 146-4번지","indutype":"소매업 - 슈퍼","category":"mart"},{"name":"평화슈퍼","tel":"031-654-0988","addr":"경기도 평택시 평택동 146-4번지","indutype":"유통업 영리 - 슈퍼마켓","category":"mart"}]},{"lat":"36.990440168","long":"127.08394998","imageIndex":7,"items":[{"name":"포유원평점","tel":"031-658-7597","addr":"경기도 평택시 평택동 185-258번지","indutype":"유통업 영리 - 슈퍼마켓","category":"mart"}]}]