[{"lat":"37.749461889","long":"127.09682086","imageIndex":4,"items":[{"name":"1번지 목살","tel":"031-851-9201","addr":"경기도 의정부시 낙양동 706-1번지","indutype":"일반휴게음식 - 일반한식","category":"restaurant"}]},{"lat":"37.750212358","long":"127.10445818","imageIndex":4,"items":[{"name":"DAY OFF(데이오프)","tel":"","addr":"경기도 의정부시 낙양동 763번지 반도유보라아이비파크 514동 108호","indutype":"일반휴게음식 - 서양음식","category":"restaurant"},{"name":"꿀닭 의정부민락점","tel":"031-853-9490","addr":"경기도 의정부시 낙양동 763번지 반도유보라아이비파크 상가 515동 204호","indutype":"일반휴게음식 - 스넥","category":"restaurant"},{"name":"임스(im's)","tel":"031-835-6530","addr":"경기도 의정부시 낙양동 763번지 반도유보라아이비파크 516동 309호","indutype":"일반휴게음식 - 서양음식","category":"restaurant"},{"name":"행복치킨","tel":"031-853-1331","addr":"경기도 의정부시 낙양동 763번지 반도유보라아이비파크 상가 516동 1층 303호","indutype":"일반휴게음식 - 스넥","category":"restaurant"}]},{"lat":"37.74951522","long":"127.09772866","imageIndex":4,"items":[{"name":"Since 2008최고루","tel":"031-852-2227","addr":"경기도 의정부시 낙양동 706-6번지 1층","indutype":"일반휴게음식 - 중국식","category":"restaurant"}]},{"lat":"37.74903807","long":"127.09728553","imageIndex":4,"items":[{"name":"가마치통닭 민락점","tel":"031-853-9949","addr":"경기도 의정부시 낙양동 707-1번지 핵심프라자 1층 105호","indutype":"일반휴게음식 - 스넥","category":"restaurant"},{"name":"양계장집아들","tel":"031-852-8235","addr":"경기도 의정부시 낙양동 707-1번지 핵심프라자 103호","indutype":"일반휴게음식 - 일반한식","category":"restaurant"},{"name":"캠토토스트","tel":"031-853-7687","addr":"경기도 의정부시 낙양동 707-1번지 핵심프라자 1층 106호","indutype":"일반휴게음식 - 서양음식","category":"restaurant"},{"name":"핵심호프","tel":"","addr":"경기도 의정부시 낙양동 707-1번지 핵심프라자 2층 206호","indutype":"일반휴게음식 - 서양음식","category":"restaurant"}]},{"lat":"37.756707756","long":"127.11492969","imageIndex":4,"items":[{"name":"가마치통닭 캐슬점","tel":"031-851-8531","addr":"경기도 의정부시 낙양동 746번지 라디언트캐슬 1층 104호","indutype":"일반휴게음식 - 스넥","category":"restaurant"}]},{"lat":"37.756402985","long":"127.11328381","imageIndex":4,"items":[{"name":"경복궁삼계탕","tel":"","addr":"경기도 의정부시 낙양동 744-2번지 1층","indutype":"일반휴게음식 - 일반한식","category":"restaurant"}]},{"lat":"37.74920874","long":"127.09792116","imageIndex":4,"items":[{"name":"굽네치킨(민락2지구)","tel":"031-852-9482","addr":"경기도 의정부시 낙양동 708번지 101호","indutype":"일반휴게음식 - 스넥","category":"restaurant"},{"name":"도미노피자 의정부민락점","tel":"031-838-6567","addr":"경기도 의정부시 낙양동 708번지 1층 105,106호","indutype":"일반휴게음식 - 서양음식","category":"restaurant"},{"name":"맛있는 시장닭발","tel":"031-853-8292","addr":"경기도 의정부시 낙양동 708번지 1층 113호","indutype":"일반휴게음식 - 일반한식","category":"restaurant"},{"name":"커피에반하다 의정부물사랑공원점","tel":"070-8883-2627","addr":"경기도 의정부시 낙양동 708번지 골든타워 1층 107호","indutype":"일반휴게음식 - 서양음식","category":"restaurant"}]},{"lat":"37.755403288","long":"127.11289651","imageIndex":4,"items":[{"name":"김밥나라(송양점)","tel":"031-853-7801","addr":"경기도 의정부시 낙양동 742-3번지 예스프라자프라임 1층 101호","indutype":"일반휴게음식 - 일반한식","category":"restaurant"},{"name":"왕 대박전","tel":"070-9368-3460","addr":"경기도 의정부시 낙양동 742-3번지 1층 108호","indutype":"일반휴게음식 - 일반한식","category":"restaurant"}]},{"lat":"37.749570275","long":"127.09648059","imageIndex":4,"items":[{"name":"나무와 수 coffee","tel":"","addr":"경기도 의정부시 낙양동 705-11번지 1층","indutype":"일반휴게음식 - 서양음식","category":"restaurant"},{"name":"우드엔하우스","tel":"031-841-9669","addr":"경기도 의정부시 낙양동 705-11번지 1층","indutype":"일반휴게음식 - 서양음식","category":"restaurant"}]},{"lat":"37.756042497","long":"127.11339675","imageIndex":4,"items":[{"name":"남추남원추어탕","tel":"031-853-7465","addr":"경기도 의정부시 낙양동 743-1번지","indutype":"일반휴게음식 - 일반한식","category":"restaurant"}]},{"lat":"37.751351759","long":"127.10989492","imageIndex":4,"items":[{"name":"뉴멕시칸 참숯 바베큐","tel":"031-852-2988","addr":"경기도 의정부시 낙양동 757번지 의정부 민락푸르지오 717동 104호 103,104호","indutype":"일반휴게음식 - 스넥","category":"restaurant"}]},{"lat":"37.762512683","long":"127.11195375","imageIndex":4,"items":[{"name":"다소니","tel":"031-852-5817","addr":"경기도 의정부시 낙양동 353번지 1층","indutype":"일반휴게음식 - 일반한식","category":"restaurant"}]},{"lat":"37.756045144","long":"127.11053714","imageIndex":4,"items":[{"name":"대광건영 함밭식당","tel":"031-0000-0000","addr":"경기도 의정부시 낙양동 736 *","indutype":"일반휴게음식 - 일반한식","category":"restaurant"}]},{"lat":"37.757871791","long":"127.11301364","imageIndex":4,"items":[{"name":"대박골남원추어탕","tel":"031-853-3113","addr":"경기도 의정부시 낙양동 314-4번지 1층","indutype":"일반휴게음식 - 일반한식","category":"restaurant"}]},{"lat":"37.755709538","long":"127.11297639","imageIndex":4,"items":[{"name":"돼지 돼지","tel":"031-852-3955","addr":"경기도 의정부시 낙양동 742-2번지 예스프라자리베로 1층 101호","indutype":"일반휴게음식 - 일반한식","category":"restaurant"},{"name":"미다스커피(MIDAS COFFEE)","tel":"","addr":"경기도 의정부시 낙양동 742-2번지 1층 106호","indutype":"일반휴게음식 - 서양음식","category":"restaurant"},{"name":"순이네 곱창*막창","tel":"","addr":"경기도 의정부시 낙양동 742-2번지 103호","indutype":"일반휴게음식 - 일반한식","category":"restaurant"},{"name":"오꾸꼬 민락2","tel":"031-851-1555","addr":"경기도 의정부시 낙양동 742-2번지 5층 501호","indutype":"일반휴게음식 - 일반한식","category":"restaurant"}]},{"lat":"37.752235799","long":"127.10867071","imageIndex":4,"items":[{"name":"두찜 민락점","tel":"031-853-5515","addr":"경기도 의정부시 낙양동 756번지 크리스탈써밋 107호","indutype":"일반휴게음식 - 일반한식","category":"restaurant"},{"name":"불난술집","tel":"031-852-5398","addr":"경기도 의정부시 낙양동 756번지 크리스탈써밋 102호","indutype":"일반휴게음식 - 일반한식","category":"restaurant"},{"name":"속초막회수산","tel":"031-851-5569","addr":"경기도 의정부시 낙양동 756번지 101호","indutype":"일반휴게음식 - 일반한식","category":"restaurant"},{"name":"이레식당","tel":"031-872-5572","addr":"경기도 의정부시 낙양동 756번지 105호","indutype":"일반휴게음식 - 일반한식","category":"restaurant"},{"name":"최고집 삼겹살","tel":"031-851-3092","addr":"경기도 의정부시 낙양동 756번지 크리스탈써밋 지상1층 104,105호","indutype":"일반휴게음식 - 일반한식","category":"restaurant"},{"name":"커피에반하다 의정부낙양점","tel":"031-851-2072","addr":"경기도 의정부시 낙양동 756번지 크리스탈써밋 1층 108호","indutype":"일반휴게음식 - 서양음식","category":"restaurant"}]},{"lat":"37.760929692","long":"127.10901219","imageIndex":4,"items":[{"name":"뜰에모아","tel":"031-851-5666","addr":"경기도 의정부시 낙양동 335-6번지 1층","indutype":"일반휴게음식 - 일반한식","category":"restaurant"}]},{"lat":"37.751565146","long":"127.10287145","imageIndex":4,"items":[{"name":"로뎀트리 카페","tel":"031-872-9413","addr":"경기도 의정부시 낙양동 720번지 하늘터빌딩 3층 301호","indutype":"일반휴게음식 - 서양음식","category":"restaurant"},{"name":"막창인생","tel":"031-851-7899","addr":"경기도 의정부시 낙양동 720번지 1층 112호","indutype":"일반휴게음식 - 일반한식","category":"restaurant"}]},{"lat":"37.755483747","long":"127.11356613","imageIndex":4,"items":[{"name":"롯데리아낙양점/브이아이티 주식회사","tel":"031-853-4319","addr":"경기도 의정부시 낙양동 743-3번지 한덕프라자 1층 103호 2층 201호","indutype":"일반휴게음식 - 서양음식","category":"restaurant"},{"name":"본죽 의정부낙양점","tel":"031-851-6288","addr":"경기도 의정부시 낙양동 743-3번지 한덕프라자 1층 101호","indutype":"일반휴게음식 - 일반한식","category":"restaurant"}]},{"lat":"37.752262348","long":"127.10920406","imageIndex":4,"items":[{"name":"마마스","tel":"031-853-3147","addr":"경기도 의정부시 낙양동 755번지 1층","indutype":"일반휴게음식 - 일반한식","category":"restaurant"}]},{"lat":"37.761621098","long":"127.11156659","imageIndex":4,"items":[{"name":"마이야르 (Maillard)","tel":"031-853-7557","addr":"경기도 의정부시 낙양동 356-3번지 A동 1층","indutype":"일반휴게음식 - 일반한식","category":"restaurant"}]},{"lat":"37.75260122","long":"127.11300583","imageIndex":4,"items":[{"name":"먹깨비","tel":"031-851-5291","addr":"경기도 의정부시 낙양동 204-1번지","indutype":"일반휴게음식 - 일반한식","category":"restaurant"}]},{"lat":"37.756295284","long":"127.11284109","imageIndex":4,"items":[{"name":"명륜진사갈비 민락2지구점","tel":"031-851-9998","addr":"경기도 의정부시 낙양동 741-2번지","indutype":"일반휴게음식 - 일반한식","category":"restaurant"}]},{"lat":"37.755376704","long":"127.11241987","imageIndex":4,"items":[{"name":"미니펍 낙양점","tel":"031-851-7575","addr":"경기도 의정부시 낙양동 737-2번지 예스프라자리더스 101,102호","indutype":"일반휴게음식 - 서양음식","category":"restaurant"},{"name":"우거지 품은 순대국","tel":"031-853-9980","addr":"경기도 의정부시 낙양동 737-2번지 101,102호","indutype":"일반휴게음식 - 일반한식","category":"restaurant"},{"name":"이디야커피 의정부낙양점","tel":"031-851-5757","addr":"경기도 의정부시 낙양동 737-2번지 105.106호","indutype":"일반휴게음식 - 서양음식","category":"restaurant"},{"name":"짝태와노가리","tel":"031-111-1111","addr":"경기도 의정부시 낙양동 737-2번지 103호","indutype":"일반휴게음식 - 주점","category":"restaurant"}]},{"lat":"37.75607012","long":"127.11276132","imageIndex":4,"items":[{"name":"미소","tel":"031-842-8892","addr":"경기도 의정부시 낙양동 742번지 코스코프라자 1층","indutype":"일반휴게음식 - 일반한식","category":"restaurant"},{"name":"민락골 능이와 녹두삼계탕","tel":"031-851-9290","addr":"경기도 의정부시 낙양동 742번지 코스코프라자 1층 101호","indutype":"일반휴게음식 - 일반한식","category":"restaurant"}]},{"lat":"37.761649498","long":"127.11006863","imageIndex":4,"items":[{"name":"민락약수가든","tel":"031-851-6827","addr":"경기도 의정부시 낙양동 340번지 지상1층","indutype":"일반휴게음식 - 일반한식","category":"restaurant"}]},{"lat":"37.75756627","long":"127.11215075","imageIndex":4,"items":[{"name":"봉평메밀촌","tel":"031-851-6868","addr":"경기도 의정부시 낙양동 321번지 1층","indutype":"일반휴게음식 - 일반한식","category":"restaurant"}]},{"lat":"37.754320706","long":"127.1144268","imageIndex":4,"items":[{"name":"비에이치씨치킨 민락2지구점","tel":"031-852-1323","addr":"경기도 의정부시 낙양동 749번지 용암마을16단지 상가동 102호","indutype":"일반휴게음식 - 스넥","category":"restaurant"}]},{"lat":"37.748540146","long":"127.10023499","imageIndex":4,"items":[{"name":"빅데이터 통닭분식","tel":"031-853-7142","addr":"경기도 의정부시 낙양동 710번지 엘에이치휴스토리 105호","indutype":"일반휴게음식 - 스넥","category":"restaurant"}]},{"lat":"37.752735368","long":"127.10406448","imageIndex":4,"items":[{"name":"섬해도","tel":"031-852-8410","addr":"경기도 의정부시 낙양동 721-5번지 1층","indutype":"일반휴게음식 - 일반한식","category":"restaurant"}]},{"lat":"37.749291024","long":"127.09642351","imageIndex":4,"items":[{"name":"속초선장붉은대게/(주)통큰","tel":"","addr":"경기도 의정부시 낙양동 700번지 1,2층","indutype":"일반휴게음식 - 일반한식","category":"restaurant"}]},{"lat":"37.762818438","long":"127.11256703","imageIndex":4,"items":[{"name":"송산한우마을","tel":"031-851-6933","addr":"경기도 의정부시 낙양동 349-3","indutype":"일반휴게음식 - 일반한식","category":"restaurant"}]},{"lat":"37.753683806","long":"127.11145285","imageIndex":4,"items":[{"name":"송양분식","tel":"031-1111-1111","addr":"경기도 의정부시 낙양동 754번지 양지마을8단지 1층 103호","indutype":"일반휴게음식 - 스넥","category":"restaurant"}]},{"lat":"37.755898939","long":"127.11276107","imageIndex":4,"items":[{"name":"신의주찹쌀순대(본사직영민락2호점)","tel":"031-851-9309","addr":"경기도 의정부시 낙양동 742-1번지 103호","indutype":"일반휴게음식 - 일반한식","category":"restaurant"},{"name":"조선횟집","tel":"031-851-7775","addr":"경기도 의정부시 낙양동 742-1번지 102호 101호, 102호","indutype":"일반휴게음식 - 일식·회집","category":"restaurant"}]},{"lat":"37.763348991","long":"127.11364594","imageIndex":4,"items":[{"name":"어니스트 아티장","tel":"","addr":"경기도 의정부시 낙양동 365-9번지 1층","indutype":"일반휴게음식 - 서양음식","category":"restaurant"}]},{"lat":"37.763708976","long":"127.11406639","imageIndex":4,"items":[{"name":"어반제주","tel":"","addr":"경기도 의정부시 낙양동 363-2번지","indutype":"일반휴게음식 - 서양음식","category":"restaurant"}]},{"lat":"37.753704148","long":"127.10889974","imageIndex":4,"items":[{"name":"영분식","tel":"","addr":"경기도 의정부시 낙양동 758번지 민락노블랜드엔에이치에프 상가동 101호","indutype":"일반휴게음식 - 스넥","category":"restaurant"}]},{"lat":"37.762262732","long":"127.10942264","imageIndex":4,"items":[{"name":"옛찾집","tel":"031-841-8439","addr":"경기도 의정부시 낙양동 341-2번지 1층","indutype":"일반휴게음식 - 일반한식","category":"restaurant"}]},{"lat":"37.764041306","long":"127.11514503","imageIndex":4,"items":[{"name":"오리마을","tel":"031-851-9292","addr":"경기도 의정부시 낙양동 125번지","indutype":"일반휴게음식 - 일반한식","category":"restaurant"}]},{"lat":"37.749704347","long":"127.09781967","imageIndex":4,"items":[{"name":"주레오(ZUREO)","tel":"031-852-4855","addr":"경기도 의정부시 낙양동 706-5번지 1층","indutype":"일반휴게음식 - 서양음식","category":"restaurant"}]},{"lat":"37.758510039","long":"127.12367039","imageIndex":4,"items":[{"name":"차뜨락","tel":"031-853-3864","addr":"경기도 의정부시 낙양동 107-1번지 1층","indutype":"일반휴게음식 - 일반한식","category":"restaurant"}]},{"lat":"37.749127965","long":"127.09753527","imageIndex":4,"items":[{"name":"축제갈비 (의정부점)","tel":"031-853-5433","addr":"경기도 의정부시 낙양동 707-2번지 1층","indutype":"일반휴게음식 - 일반한식","category":"restaurant"}]},{"lat":"37.751345281","long":"127.10706952","imageIndex":4,"items":[{"name":"치킨마루 민락낙양점","tel":"031-853-7071","addr":"경기도 의정부시 낙양동 760번지 6단지호반베르디움 611동 102호","indutype":"일반휴게음식 - 스넥","category":"restaurant"}]},{"lat":"37.752483315","long":"127.1038145","imageIndex":4,"items":[{"name":"카페라데르","tel":"031-852-8243","addr":"경기도 의정부시 낙양동 721-3번지 1층 110호","indutype":"일반휴게음식 - 서양음식","category":"restaurant"}]},{"lat":"37.749434951","long":"127.09670736","imageIndex":4,"items":[{"name":"투가리감자탕 막국수","tel":"","addr":"경기도 의정부시 낙양동 706번지","indutype":"일반휴게음식 - 일반한식","category":"restaurant"}]},{"lat":"37.755461332","long":"127.10853913","imageIndex":4,"items":[{"name":"한방통닭","tel":"","addr":"경기도 의정부시 낙양동 735번지 양지마을10단지 상가동 1층 101호","indutype":"일반휴게음식 - 일반한식","category":"restaurant"}]},{"lat":"37.758232331","long":"127.11284396","imageIndex":4,"items":[{"name":"해산물연구소","tel":"031-1588-7175","addr":"경기도 의정부시 낙양동 316번지","indutype":"일반휴게음식 - 일반한식","category":"restaurant"}]},{"lat":"37.758511658","long":"127.11281032","imageIndex":4,"items":[{"name":"향촌순두부","tel":"031-851-0090","addr":"경기도 의정부시 낙양동 314-3번지","indutype":"일반휴게음식 - 일반한식","category":"restaurant"}]}]