[{"lat":"37.670574348","long":"126.95480042","imageIndex":4,"items":[{"name":"김봉창코다리","tel":"02-387-1650","addr":"경기도 고양시 덕양구 효자동 103-5번지","indutype":"일반휴게음식 - 일반한식","category":"restaurant"}]},{"lat":"37.66007544","long":"126.94872135","imageIndex":4,"items":[{"name":"남원추어탕","tel":"02-387-7556","addr":"경기도 고양시 덕양구 효자동 146-1번지","indutype":"일반휴게음식 - 일반한식","category":"restaurant"}]},{"lat":"37.65838216","long":"126.94991252","imageIndex":4,"items":[{"name":"미루나무상회","tel":"02-358-0066","addr":"경기도 고양시 덕양구 효자동","indutype":"일반휴게음식 - 일반한식","category":"restaurant"}]},{"lat":"37.671628786","long":"126.95555917","imageIndex":4,"items":[{"name":"본가냉면","tel":"02-355-8279","addr":"경기도 고양시 덕양구 효자동 82-4번지","indutype":"일반휴게음식 - 일반한식","category":"restaurant"}]},{"lat":"37.65771462","long":"126.9481111","imageIndex":4,"items":[{"name":"북한산효자가든","tel":"02-3157-7757","addr":"경기도 고양시 덕양구 효자동 160번지","indutype":"일반휴게음식 - 일반한식","category":"restaurant"}]},{"lat":"37.67940537","long":"126.95877365","imageIndex":4,"items":[{"name":"사기막골파주집","tel":"02-381-1565","addr":"경기도 고양시 덕양구 효자동 46-2번지","indutype":"일반휴게음식 - 일반한식","category":"restaurant"}]},{"lat":"37.679432851","long":"126.95999792","imageIndex":4,"items":[{"name":"산골식당","tel":"02-355-8480","addr":"경기도 고양시 덕양구 효자동","indutype":"일반휴게음식 - 일반한식","category":"restaurant"}]},{"lat":"37.659796009","long":"126.94843823","imageIndex":4,"items":[{"name":"여자만북한산성점","tel":"02-384-8848","addr":"경기도 고양시 덕양구 효자동 147-2번지","indutype":"일반휴게음식 - 일반한식","category":"restaurant"}]},{"lat":"37.672439168","long":"126.95435715","imageIndex":4,"items":[{"name":"온새미","tel":"02-111-1111","addr":"경기도 고양시 덕양구 효자동 92-3번지","indutype":"일반휴게음식 - 일반한식","category":"restaurant"}]},{"lat":"37.671160261","long":"126.95550279","imageIndex":4,"items":[{"name":"와글와글보리밥부페","tel":"02-385-1681","addr":"경기도 고양시 덕양구 효자동 91-1번지","indutype":"일반휴게음식 - 일반한식","category":"restaurant"}]},{"lat":"37.660498791","long":"126.94849438","imageIndex":4,"items":[{"name":"은행나무집","tel":"02-359-3106","addr":"경기도 고양시 덕양구 효자동 143-3번지","indutype":"일반휴게음식 - 일반한식","category":"restaurant"}]},{"lat":"37.673466598","long":"126.95516127","imageIndex":4,"items":[{"name":"임진강매운탕","tel":"031-855-2918","addr":"경기도 고양시 덕양구 효자동 95-2번지","indutype":"일반휴게음식 - 일반한식","category":"restaurant"}]},{"lat":"37.660607037","long":"126.94877763","imageIndex":4,"items":[{"name":"장수촌","tel":"02-386-0257","addr":"경기도 고양시 덕양구 효자동 144-1번지","indutype":"일반휴게음식 - 일반한식","category":"restaurant"}]},{"lat":"37.671132984","long":"126.95489074","imageIndex":4,"items":[{"name":"커피와나무","tel":"02-384-8255","addr":"경기도 고양시 덕양구 효자동 103-3번지","indutype":"일반휴게음식 - 서양음식","category":"restaurant"}]},{"lat":"37.674439701","long":"126.95530801","imageIndex":4,"items":[{"name":"푸른공원","tel":"031-355-8569","addr":"경기도 고양시 덕양구 효자동 96-14번지","indutype":"일반휴게음식 - 한정식","category":"restaurant"},{"name":"효자아귀찜","tel":"","addr":"경기도 고양시 덕양구 효자동 96-14번지","indutype":"일반휴게음식 - 일반한식","category":"restaurant"}]},{"lat":"37.655886835","long":"126.9507189","imageIndex":4,"items":[{"name":"플레이(PLAY)","tel":"02-388-3838","addr":"경기도 고양시 덕양구 효자동 218-1번지","indutype":"일반휴게음식 - 서양음식","category":"restaurant"}]},{"lat":"37.660021293","long":"126.94852873","imageIndex":4,"items":[{"name":"효자정","tel":"02-385-9415","addr":"경기도 고양시 덕양구 효자동 147-1번지","indutype":"일반휴게음식 - 일반한식","category":"restaurant"}]}]