[{"lat":"37.738709486","long":"127.0385393","imageIndex":13,"items":[{"name":"#핵이쁨미용실","tel":"031-871-1662","addr":"경기도 의정부시 의정부동 486-1번지 제일퍼스트빌3 112호","indutype":"보건위생 - 미용원","category":"beauty"}]},{"lat":"37.740011106","long":"127.05182516","imageIndex":13,"items":[{"name":"(주)만능의료기","tel":"031-840-1108","addr":"경기도 의정부시 의정부동 121-6번지 삼화빌딩 4층","indutype":"보건위생 - 의료용품","category":"beauty"}]},{"lat":"37.740569666","long":"127.05190495","imageIndex":13,"items":[{"name":"(주)지에스엘","tel":"031-846-7757","addr":"경기도 의정부시 의정부동 34-13번지 광창빌딩 5층 우측","indutype":"보건위생 - 의료용품","category":"beauty"},{"name":"지에스엘의정부","tel":"031-846-4113","addr":"경기도 의정부시 의정부동 34-13번지 광창빌딩 5층 동측호","indutype":"보건위생 - 의료용품","category":"beauty"}]},{"lat":"37.741707476","long":"127.04517783","imageIndex":13,"items":[{"name":"007대리운전","tel":"031-842-7040","addr":"경기도 의정부시 의정부동 255-66번지","indutype":"보건위생 - 기타대인서비스","category":"beauty"}]},{"lat":"37.738509904","long":"127.04281626","imageIndex":13,"items":[{"name":"1001안경콘택트(서부점)","tel":"031-871-1105","addr":"경기도 의정부시 의정부동 431-24번지 구성타워 102호","indutype":"보건위생 - 안경","category":"beauty"}]},{"lat":"37.740427097","long":"127.04793401","imageIndex":13,"items":[{"name":"120%쿨(중앙점)","tel":"031-848-0985","addr":"경기도 의정부시 의정부동 198-7번지 지상1층","indutype":"보건위생 - 미용원","category":"beauty"}]},{"lat":"37.734430375","long":"127.03707382","imageIndex":13,"items":[{"name":"1203우헤어","tel":"031-872-7356","addr":"경기도 의정부시 의정부동 539-3번지 신양빌라8차 102호","indutype":"보건위생 - 미용원","category":"beauty"}]},{"lat":"37.736902901","long":"127.05159622","imageIndex":13,"items":[{"name":"3H 스마트 지압침대","tel":"031-855-9894","addr":"경기도 의정부시 의정부동 94-6번지 황궁빌딩 6층","indutype":"보건위생 - 의료용품","category":"beauty"},{"name":"성현아모레영업소","tel":"031-874-7771","addr":"경기도 의정부시 의정부동 94-6번지 황궁빌딩 6층","indutype":"보건위생 - 화장품","category":"beauty"},{"name":"아모레","tel":"031-874-7771","addr":"경기도 의정부시 의정부동 94-6번지 황궁빌딩 6층","indutype":"보건위생 - 화장품","category":"beauty"},{"name":"아모레","tel":"031-874-7771","addr":"경기도 의정부시 의정부동 94-6번지 황궁빌딩 6층","indutype":"보건위생 - 화장품","category":"beauty"},{"name":"아모레","tel":"031-874-7771","addr":"경기도 의정부시 의정부동 94-6번지 황궁빌딩 6층","indutype":"보건위생 - 화장품","category":"beauty"},{"name":"아모레","tel":"031-874-7772","addr":"경기도 의정부시 의정부동 94-6번지 황궁빌딩 6층","indutype":"보건위생 - 화장품","category":"beauty"},{"name":"아모레","tel":"031-874-7772","addr":"경기도 의정부시 의정부동 94-6번지 황궁빌딩 6층","indutype":"보건위생 - 화장품","category":"beauty"},{"name":"아모레","tel":"031-874-7771","addr":"경기도 의정부시 의정부동 94-6번지 황궁빌딩 6층","indutype":"보건위생 - 화장품","category":"beauty"},{"name":"아모레/이연자","tel":"031-874-7771","addr":"경기도 의정부시 의정부동 94-6번지 황궁빌딩 6층","indutype":"보건위생 - 화장품","category":"beauty"},{"name":"아모레성현특약점","tel":"031-874-7771","addr":"경기도 의정부시 의정부동 94-6번지 황궁빌딩 6층","indutype":"보건위생 - 화장품","category":"beauty"},{"name":"아모레성현특약점","tel":"031-874-7771","addr":"경기도 의정부시 의정부동 94-6번지 황궁빌딩 6층","indutype":"보건위생 - 화장품","category":"beauty"},{"name":"아모레외판","tel":"031-874-7771","addr":"경기도 의정부시 의정부동 94-6번지 황궁빌딩 6층","indutype":"보건위생 - 화장품","category":"beauty"},{"name":"아모레카운셀러","tel":"031-874-7771","addr":"경기도 의정부시 의정부동 94-6번지 황금빌딩 6층","indutype":"보건위생 - 화장품","category":"beauty"},{"name":"아모레퍼시픽 카운셀러","tel":"031-874-7771","addr":"경기도 의정부시 의정부동 94-6번지 황궁빌딩 6층","indutype":"보건위생 - 화장품","category":"beauty"},{"name":"아모레퍼시픽 카운셀러","tel":"031-874-7771","addr":"경기도 의정부시 의정부동 94-6번지 황궁빌딩 6층","indutype":"보건위생 - 화장품","category":"beauty"},{"name":"아모레퍼시픽성현특약점","tel":"031-874-7771","addr":"경기도 의정부시 의정부동 94-6번지 황궁빌딩 6층","indutype":"보건위생 - 화장품","category":"beauty"},{"name":"아모레퍼시픽성현특약점","tel":"031-874-7771","addr":"경기도 의정부시 의정부동 94-6번지 황궁빌딩 6층","indutype":"보건위생 - 화장품","category":"beauty"},{"name":"아모레퍼시픽카운셀러","tel":"031-874-7771","addr":"경기도 의정부시 의정부동 94-6번지 황궁빌딩 6층","indutype":"보건위생 - 화장품","category":"beauty"},{"name":"아모레퍼시픽카운셀러","tel":"031-874-7771","addr":"경기도 의정부시 의정부동 94-6번지 황궁빌딩 6층","indutype":"보건위생 - 화장품","category":"beauty"},{"name":"아모레퍼시픽카운셀러","tel":"031-874-7771","addr":"경기도 의정부시 의정부동 94-6번지 황궁빌딩 6층","indutype":"보건위생 - 화장품","category":"beauty"},{"name":"아모레퍼시픽카운셀러","tel":"031-874-7771","addr":"경기도 의정부시 의정부동 94-6번지 황궁빌딩 6층","indutype":"보건위생 - 화장품","category":"beauty"},{"name":"아모레퍼시픽카운셀러","tel":"031-874-7771","addr":"경기도 의정부시 의정부동 94-6 황궁빌딩6","indutype":"보건위생 - 화장품","category":"beauty"},{"name":"아모레퍼시픽카운셀러","tel":"031-874-7771","addr":"경기도 의정부시 의정부동 94-6번지 황궁빌딩 6층","indutype":"보건위생 - 화장품","category":"beauty"},{"name":"아모레퍼시픽카운셀러","tel":"031-874-7771","addr":"경기도 의정부시 의정부동 94-6번지 황궁빌딩 6층","indutype":"보건위생 - 화장품","category":"beauty"},{"name":"아모레퍼시픽카운셀러","tel":"031-874-7771","addr":"경기도 의정부시 의정부동 94-6번지 황궁빌딩 6층","indutype":"보건위생 - 화장품","category":"beauty"},{"name":"아모레퍼시픽카운셀러","tel":"031-874-7771","addr":"경기도 의정부시 의정부동 94-6번지 황궁빌딩 6층","indutype":"보건위생 - 화장품","category":"beauty"}]},{"lat":"37.73451874","long":"127.04259857","imageIndex":13,"items":[{"name":"@trip(엣트립)","tel":"","addr":"경기도 의정부시 의정부동 560-4번지 2층","indutype":"보건위생 - 화장품","category":"beauty"}]},{"lat":"37.736345529","long":"127.04854414","imageIndex":13,"items":[{"name":"A.J미용실","tel":"031-877-7770","addr":"경기도 의정부시 의정부동 135-88번지","indutype":"보건위생 - 미용원","category":"beauty"}]},{"lat":"37.741038913","long":"127.05006731","imageIndex":13,"items":[{"name":"Do Do hair","tel":"031-848-0111","addr":"경기도 의정부시 의정부동 159-4번지 1층","indutype":"보건위생 - 미용원","category":"beauty"}]},{"lat":"37.74187814","long":"127.04659612","imageIndex":13,"items":[{"name":"Dream tattoo","tel":"031-826-0682","addr":"경기도 의정부시 의정부동 210-1번지","indutype":"보건위생 - 기타대인서비스","category":"beauty"}]},{"lat":"37.732680626","long":"127.04307404","imageIndex":13,"items":[{"name":"GY비엔에이","tel":"031-876-8943","addr":"경기도 의정부시 의정부동 592-6번지 5층 A818호","indutype":"보건위생 - 화장품","category":"beauty"},{"name":"SH 메디칼","tel":"031-000-0000","addr":"경기도 의정부시 의정부동 592-6번지 진한빌딩 4층 A695호","indutype":"보건위생 - 의료용품","category":"beauty"},{"name":"제이메딕코리아","tel":"031-111-1111","addr":"경기도 의정부시 의정부동 592-6번지 4층 A751호","indutype":"보건위생 - 의료용품","category":"beauty"},{"name":"진한","tel":"031-829-1267","addr":"경기도 의정부시 의정부동 592-6번지 진한빌딩 지하층","indutype":"보건위생 - 기타대인서비스","category":"beauty"},{"name":"케이메드","tel":"031-000-0000","addr":"경기도 의정부시 의정부동 592-6번지 진한빌딩 5층 A637호","indutype":"보건위생 - 의료용품","category":"beauty"}]},{"lat":"37.737455121","long":"127.04473297","imageIndex":13,"items":[{"name":"JUN shop","tel":"070-7867-5505","addr":"경기도 의정부시 의정부동 496-3번지 동양레쉬빌 203호","indutype":"보건위생 - 미용원","category":"beauty"},{"name":"아트메이크바리에","tel":"031-877-5011","addr":"경기도 의정부시 의정부동 496-3번지 동양레쉬빌II 102호","indutype":"보건위생 - 화장품","category":"beauty"}]},{"lat":"37.737960073","long":"127.04354204","imageIndex":13,"items":[{"name":"Jang's뷰티","tel":"","addr":"경기도 의정부시 의정부동 494번지 센트럴타워 14층 1415호","indutype":"보건위생 - 피부미용실","category":"beauty"},{"name":"the 코스메틱","tel":"070-4113-9595","addr":"경기도 의정부시 의정부동 494번지 센트럴파크","indutype":"보건위생 - 화장품","category":"beauty"},{"name":"갈바닉스킨케어 피부샵","tel":"070-4623-2841","addr":"경기도 의정부시 의정부동 494번지 센트럴타워 611호","indutype":"보건위생 - 피부미용실","category":"beauty"},{"name":"내일도 내일 (Nail)","tel":"070-8150-0612","addr":"경기도 의정부시 의정부동 494번지 센트럴타워 1422-가호","indutype":"보건위생 - 피부미용실","category":"beauty"},{"name":"네일 플라워","tel":"031-874-2542","addr":"경기도 의정부시 의정부동 494번지 센트럴타워 4층 412호","indutype":"보건위생 - 피부미용실","category":"beauty"},{"name":"뉴아트미","tel":"031-872-5800","addr":"경기도 의정부시 의정부동 494번지 센트럴타워 608호","indutype":"보건위생 - 피부미용실","category":"beauty"},{"name":"더풋샵의정부점","tel":"031-3235-8761","addr":"경기도 의정부시 의정부동 494번지 센트럴타워 6층 607호","indutype":"보건위생 - 안마시술소","category":"beauty"},{"name":"모코모코(mocomoco)왁싱","tel":"031-000-0000","addr":"경기도 의정부시 의정부동 494번지 센트럴타워 4층 411호","indutype":"보건위생 - 피부미용실","category":"beauty"},{"name":"바니 아이래쉬","tel":"070-8626-2301","addr":"경기도 의정부시 의정부동 494번지 센트럴타워 14층 1417호","indutype":"보건위생 - 피부미용실","category":"beauty"},{"name":"아시안헤어(ASIAN HAIR)","tel":"0503-6535-5769","addr":"경기도 의정부시 의정부동 494번지 센트럴타워 14층 1409호","indutype":"보건위생 - 미용원","category":"beauty"},{"name":"오휘센트럴점","tel":"031-852-3371","addr":"경기도 의정부시 의정부동 494번지 센트럴타워 1411호","indutype":"보건위생 - 화장품","category":"beauty"},{"name":"웰킨(의정부점)","tel":"031-874-5866","addr":"경기도 의정부시 의정부동 494번지 센트럴타워 9층 906호","indutype":"보건위생 - 화장품","category":"beauty"},{"name":"제이앤래쉬 (J-and LASH)","tel":"","addr":"경기도 의정부시 의정부동 494번지 센트럴타워 1419호","indutype":"보건위생 - 피부미용실","category":"beauty"},{"name":"지헤어(Gee Hair)","tel":"031-870-1800","addr":"경기도 의정부시 의정부동 494번지 센트럴타워 159,175,179,183","indutype":"보건위생 - 미용원","category":"beauty"},{"name":"캡틴클럽","tel":"031-871-8338","addr":"경기도 의정부시 의정부동 494번지 센트럴파크 1207호","indutype":"보건위생 - 화장품","category":"beauty"},{"name":"프로안경","tel":"031-870-2020","addr":"경기도 의정부시 의정부동 494번지 외6필지센트럴타워 1동 108호","indutype":"보건위생 - 안경","category":"beauty"},{"name":"허그맘 의정부","tel":"031-873-0714","addr":"경기도 의정부시 의정부동 494번지 센트럴파크 4층 410호","indutype":"보건위생 - 기타대인서비스","category":"beauty"}]},{"lat":"37.742121419","long":"127.04653953","imageIndex":13,"items":[{"name":"KMO가발","tel":"031-829-1199","addr":"경기도 의정부시 의정부동 209-7번지","indutype":"보건위생 - 미용재료","category":"beauty"},{"name":"백석유통","tel":"031-860-8010","addr":"경기도 의정부시 의정부동 209-7","indutype":"보건위생 - 화장품","category":"beauty"},{"name":"유앤정헤어클리닉","tel":"031-827-9288","addr":"경기도 의정부시 의정부동 209-7번지","indutype":"보건위생 - 미용원","category":"beauty"}]},{"lat":"37.733824293","long":"127.04465151","imageIndex":13,"items":[{"name":"K헤어","tel":"031-879-5382","addr":"경기도 의정부시 의정부동 576-5번지 1층 103호","indutype":"보건위생 - 미용원","category":"beauty"}]},{"lat":"37.746510669","long":"127.04199228","imageIndex":13,"items":[{"name":"MC헤어","tel":"070-8959-8282","addr":"경기도 의정부시 의정부동 414-2번지","indutype":"보건위생 - 미용원","category":"beauty"}]},{"lat":"37.734457252","long":"127.03759567","imageIndex":13,"items":[{"name":"Mr.쾌남 남자커트전문점","tel":"031-846-7822","addr":"경기도 의정부시 의정부동 540-4번지 부림빌라5차 1층 101호","indutype":"보건위생 - 미용원","category":"beauty"}]},{"lat":"37.736705912","long":"127.04854437","imageIndex":13,"items":[{"name":"M헤어스토리","tel":"031-837-6235","addr":"경기도 의정부시 의정부동 135-34번지","indutype":"보건위생 - 미용원","category":"beauty"}]},{"lat":"37.737400942","long":"127.04507328","imageIndex":13,"items":[{"name":"S뷰티(에스뷰티)","tel":"","addr":"경기도 의정부시 의정부동 496-4번지 아이비타워 716호","indutype":"보건위생 - 화장품","category":"beauty"},{"name":"오브마이네일","tel":"031-871-0011","addr":"경기도 의정부시 의정부동 496-4번지 아이비타워 105호","indutype":"보건위생 - 피부미용실","category":"beauty"}]},{"lat":"37.736935084","long":"127.0369048","imageIndex":13,"items":[{"name":"THE예뻐지는날","tel":"031-872-5796","addr":"경기도 의정부시 의정부동 519-1번지 2층","indutype":"보건위생 - 피부미용실","category":"beauty"}]},{"lat":"37.743318933","long":"127.04853708","imageIndex":13,"items":[{"name":"Team Andys","tel":"070-8958-3966","addr":"경기도 의정부시 의정부동 187-18번지 4층","indutype":"보건위생 - 화장품","category":"beauty"}]},{"lat":"37.741516273","long":"127.05043066","imageIndex":13,"items":[{"name":"salon de AURA J","tel":"031-846-3541","addr":"경기도 의정부시 의정부동 155-25번지 2층","indutype":"보건위생 - 미용원","category":"beauty"}]},{"lat":"37.748734684","long":"127.04585128","imageIndex":13,"items":[{"name":"가능동부 마임지사","tel":"031-871-3072","addr":"경기도 의정부시 의정부동 234-20번지 3층","indutype":"보건위생 - 화장품","category":"beauty"}]},{"lat":"37.740930119","long":"127.051735","imageIndex":13,"items":[{"name":"가발데이","tel":"031-846-5649","addr":"경기도 의정부시 의정부동 34-9번지 소림빌딩","indutype":"보건위생 - 미용재료","category":"beauty"}]},{"lat":"37.728596563","long":"127.05039972","imageIndex":13,"items":[{"name":"가비헤어","tel":"031-837-7199","addr":"경기도 의정부시 의정부동 399-17번지","indutype":"보건위생 - 미용원","category":"beauty"}]},{"lat":"37.745536782","long":"127.0444879","imageIndex":13,"items":[{"name":"가위소리","tel":"","addr":"경기도 의정부시 의정부동 418-39번지 1층","indutype":"보건위생 - 미용원","category":"beauty"}]},{"lat":"37.740597719","long":"127.04937496","imageIndex":13,"items":[{"name":"가쿠야헤어 넘버원","tel":"031-821-3555","addr":"경기도 의정부시 의정부동 180-9번지 1층","indutype":"보건위생 - 미용원","category":"beauty"}]},{"lat":"37.748347426","long":"127.04543123","imageIndex":13,"items":[{"name":"강남스타일(Hair Art Gallery)","tel":"031-111-1111","addr":"경기도 의정부시 의정부동 228-1번지","indutype":"보건위생 - 미용원","category":"beauty"}]},{"lat":"37.747372359","long":"127.05074076","imageIndex":13,"items":[{"name":"강미숙헤어클리닉","tel":"031-848-7945","addr":"경기도 의정부시 의정부동 6-5번지","indutype":"보건위생 - 미용원","category":"beauty"},{"name":"봄","tel":"031-877-3339","addr":"경기도 의정부시 의정부동 6-5번지","indutype":"보건위생 - 화장품","category":"beauty"}]},{"lat":"37.740317012","long":"127.05282374","imageIndex":13,"items":[{"name":"강은선헤어샵","tel":"031-841-9916","addr":"경기도 의정부시 의정부동 123-5번지 1층","indutype":"보건위생 - 미용원","category":"beauty"}]},{"lat":"37.746457091","long":"127.04051725","imageIndex":13,"items":[{"name":"강헤어","tel":"070-8124-7252","addr":"경기도 의정부시 의정부동 406-24번지 1층","indutype":"보건위생 - 미용원","category":"beauty"}]},{"lat":"37.745066923","long":"127.04818643","imageIndex":13,"items":[{"name":"강헤어#","tel":"031-856-0095","addr":"경기도 의정부시 의정부동 220-12번지 라임빌","indutype":"보건위생 - 미용원","category":"beauty"}]},{"lat":"37.741597812","long":"127.04929617","imageIndex":13,"items":[{"name":"거꾸로가는가위","tel":"031-111-1111","addr":"경기도 의정부시 의정부동 182-19번지","indutype":"보건위생 - 미용원","category":"beauty"}]},{"lat":"37.745294435","long":"127.04182145","imageIndex":13,"items":[{"name":"거의24시헤어","tel":"","addr":"경기도 의정부시 의정부동 409-26번지 1층","indutype":"보건위생 - 미용원","category":"beauty"}]},{"lat":"37.735989096","long":"127.03684765","imageIndex":13,"items":[{"name":"경희헤어살롱","tel":"031-875-0623","addr":"경기도 의정부시 의정부동 522번지 대봉빌라 1층 103호","indutype":"보건위생 - 미용원","category":"beauty"}]},{"lat":"37.748653158","long":"127.04704262","imageIndex":13,"items":[{"name":"계룡선녀","tel":"031-842-8509","addr":"경기도 의정부시 의정부동 230-59번지 2층","indutype":"보건위생 - 기타대인서비스","category":"beauty"}]},{"lat":"37.738430248","long":"127.0383463","imageIndex":13,"items":[{"name":"계림메디칼","tel":"031-876-5477","addr":"경기도 의정부시 의정부동 486-13번지 제일퍼스트빌3상가 711호","indutype":"보건위생 - 의료용품","category":"beauty"},{"name":"바이에이치(by H)","tel":"031-111-1111","addr":"경기도 의정부시 의정부동 486-13번지 제일퍼스트빌3 109호","indutype":"보건위생 - 피부미용실","category":"beauty"},{"name":"에스엔뷰티(Sn Beauty)","tel":"031-866-8798","addr":"경기도 의정부시 의정부동 486-13번지 제일퍼스트빌3 7층 702호","indutype":"보건위생 - 화장품","category":"beauty"},{"name":"힐링맘","tel":"031-851-3511","addr":"경기도 의정부시 의정부동 486-13번지 6층 제일퍼스트빌3 614호","indutype":"보건위생 - 기타대인서비스","category":"beauty"}]},{"lat":"37.743345625","long":"127.04939937","imageIndex":13,"items":[{"name":"고담커뮤니티","tel":"031-821-8388","addr":"경기도 의정부시 의정부동 187-1번지 3층","indutype":"보건위생 - 화장품","category":"beauty"},{"name":"고담헤어","tel":"031-821-8388","addr":"경기도 의정부시 의정부동 187-1번지 1,2층","indutype":"보건위생 - 미용원","category":"beauty"}]},{"lat":"37.741795937","long":"127.04951186","imageIndex":13,"items":[{"name":"고려수지침의정부지회","tel":"031-847-5825","addr":"경기도 의정부시 의정부동 182-18 6층","indutype":"보건위생 - 의료용품","category":"beauty"}]},{"lat":"37.734601842","long":"127.03607559","imageIndex":13,"items":[{"name":"고미영(머리애)","tel":"031-875-1612","addr":"경기도 의정부시 의정부동 539번지 가락빌라 102호","indutype":"보건위생 - 미용원","category":"beauty"}]},{"lat":"37.740264628","long":"127.04870538","imageIndex":13,"items":[{"name":"고흥안경","tel":"031-846-6600","addr":"경기도 의정부시 의정부동 194-1번지","indutype":"보건위생 - 안경","category":"beauty"}]},{"lat":"37.737428335","long":"127.04404092","imageIndex":13,"items":[{"name":"궁바디케어","tel":"031-871-7771","addr":"경기도 의정부시 의정부동 496-1번지 3층 301호","indutype":"보건위생 - 화장품","category":"beauty"}]},{"lat":"37.74042698","long":"127.04824033","imageIndex":13,"items":[{"name":"그랑프리안경원","tel":"031-362-6000","addr":"경기도 의정부시 의정부동 198-10번지 2층","indutype":"보건위생 - 안경","category":"beauty"},{"name":"더아름다운이야기","tel":"070-7725-0406","addr":"경기도 의정부시 의정부동 198-10번지 3층","indutype":"보건위생 - 피부미용실","category":"beauty"}]},{"lat":"37.73937232","long":"127.04962379","imageIndex":13,"items":[{"name":"그루밍샵","tel":"02-0000-0000","addr":"경기도 의정부시 의정부동 177-2번지 3층","indutype":"보건위생 - 피부미용실","category":"beauty"},{"name":"화장품뱅크","tel":"031-844-7823","addr":"경기도 의정부시 의정부동 177-2,177-3","indutype":"보건위생 - 화장품","category":"beauty"}]},{"lat":"37.737903504","long":"127.05026952","imageIndex":13,"items":[{"name":"그린리프(Greenleaf) 의정부점","tel":"","addr":"경기도 의정부시 의정부동 172-21번지 1층","indutype":"보건위생 - 화장품","category":"beauty"},{"name":"예쁜손톱","tel":"031-821-3623","addr":"경기도 의정부시 의정부동 172-21번지","indutype":"보건위생 - 피부미용실","category":"beauty"}]},{"lat":"37.738929949","long":"127.05184714","imageIndex":13,"items":[{"name":"금강디지털보청기","tel":"031-845-8275","addr":"경기도 의정부시 의정부동 126-4번지","indutype":"보건위생 - 의료용품","category":"beauty"}]},{"lat":"37.739096075","long":"127.04116019","imageIndex":13,"items":[{"name":"기분좋은날","tel":"031-871-0397","addr":"경기도 의정부시 의정부동 429-7번지 1층일부","indutype":"보건위생 - 미용원","category":"beauty"}]},{"lat":"37.739985437","long":"127.04843293","imageIndex":13,"items":[{"name":"김숙헤어","tel":"031-847-6417","addr":"경기도 의정부시 의정부동 194-9번지","indutype":"보건위생 - 미용원","category":"beauty"},{"name":"네일은꽃길","tel":"","addr":"경기도 의정부시 의정부동 194-9번지 2층","indutype":"보건위생 - 피부미용실","category":"beauty"},{"name":"에스헤어(S Hair)","tel":"031-848-0314","addr":"경기도 의정부시 의정부동 194-9번지 3층","indutype":"보건위생 - 미용원","category":"beauty"}]},{"lat":"37.742904533","long":"127.04843472","imageIndex":13,"items":[{"name":"김정문알로에의정부지사","tel":"031-840-8244","addr":"경기도 의정부시 의정부동 188-13번지","indutype":"보건위생 - 화장품","category":"beauty"}]},{"lat":"37.739399457","long":"127.04935152","imageIndex":13,"items":[{"name":"김지선헤어아트","tel":"031-842-7417","addr":"경기도 의정부시 의정부동 177-6번지 3층","indutype":"보건위생 - 미용원","category":"beauty"},{"name":"레이즈","tel":"070-7670-1390","addr":"경기도 의정부시 의정부동 177-6번지","indutype":"보건위생 - 미용원","category":"beauty"}]},{"lat":"37.742850086","long":"127.0494331","imageIndex":13,"items":[{"name":"김향미용실","tel":"031-856-4804","addr":"경기도 의정부시 의정부동 188-34번지","indutype":"보건위생 - 미용원","category":"beauty"}]},{"lat":"37.744012783","long":"127.04824252","imageIndex":13,"items":[{"name":"까까머리","tel":"031-821-8530","addr":"경기도 의정부시 의정부동 220-79번지 지상1층","indutype":"보건위생 - 미용원","category":"beauty"},{"name":"아리따움","tel":"031-821-8530","addr":"경기도 의정부시 의정부동 220-79번지 1층","indutype":"보건위생 - 미용원","category":"beauty"}]},{"lat":"37.735262963","long":"127.05207161","imageIndex":13,"items":[{"name":"까까보까","tel":"031-878-0884","addr":"경기도 의정부시 의정부동 359-73","indutype":"보건위생 - 미용원","category":"beauty"}]},{"lat":"37.739849912","long":"127.04940853","imageIndex":13,"items":[{"name":"깽's헤어","tel":"031-821-8835","addr":"경기도 의정부시 의정부동 178-5번지 2층","indutype":"보건위생 - 미용원","category":"beauty"},{"name":"뷰티스토리","tel":"031-821-2013","addr":"경기도 의정부시 의정부동 178-5번지 3층","indutype":"보건위생 - 화장품","category":"beauty"},{"name":"브로우고고(BROW GOGO)","tel":"070-8968-9563","addr":"경기도 의정부시 의정부동 178-5번지 3층","indutype":"보건위생 - 미용원","category":"beauty"}]},{"lat":"37.743292084","long":"127.04807189","imageIndex":13,"items":[{"name":"꾸","tel":"031-845-1112","addr":"경기도 의정부시 의정부동 204-1번지 1층","indutype":"보건위생 - 미용원","category":"beauty"}]},{"lat":"37.745176312","long":"127.04473731","imageIndex":13,"items":[{"name":"꾸미다 (Coumida)","tel":"","addr":"경기도 의정부시 의정부동 240-52번지 1층","indutype":"보건위생 - 미용원","category":"beauty"}]},{"lat":"37.740427235","long":"127.04757096","imageIndex":13,"items":[{"name":"꾸오레안경원","tel":"031-856-0600","addr":"경기도 의정부시 의정부동 197-13번지","indutype":"보건위생 - 안경","category":"beauty"},{"name":"말짜네일","tel":"","addr":"경기도 의정부시 의정부동 197-13번지 2층","indutype":"보건위생 - 피부미용실","category":"beauty"},{"name":"전원미용실","tel":"031-848-5130","addr":"경기도 의정부시 의정부동 197-13","indutype":"보건위생 - 미용원","category":"beauty"}]},{"lat":"37.734039484","long":"127.04748771","imageIndex":13,"items":[{"name":"꿀네일","tel":"031-871-2806","addr":"경기도 의정부시 의정부동 166-12번지 맥스타워 16층 1607호","indutype":"보건위생 - 화장품","category":"beauty"},{"name":"주식회사 이엔코리아","tel":"031-876-0995","addr":"경기도 의정부시 의정부동 166-12번지 맥스타워 905호","indutype":"보건위생 - 화장품","category":"beauty"}]},{"lat":"37.732653797","long":"127.04248413","imageIndex":13,"items":[{"name":"꿀손테라피휴","tel":"031-867-4325","addr":"경기도 의정부시 의정부동 592-1번지 유림빌딩 2층","indutype":"보건위생 - 피부미용실","category":"beauty"}]},{"lat":"37.738736233","long":"127.03945825","imageIndex":13,"items":[{"name":"끌림헤어","tel":"031-836-6258","addr":"경기도 의정부시 의정부동 486-6번지 미가빌딩 1층","indutype":"보건위생 - 미용원","category":"beauty"}]},{"lat":"37.746483722","long":"127.04174265","imageIndex":13,"items":[{"name":"나비드","tel":"031-836-2959","addr":"경기도 의정부시 의정부동 407-44번지","indutype":"보건위생 - 미용원","category":"beauty"},{"name":"나비드미용실","tel":"031-836-2959","addr":"경기도 의정부시 의정부동 407-44번지","indutype":"보건위생 - 미용원","category":"beauty"}]},{"lat":"37.743101431","long":"127.05171374","imageIndex":13,"items":[{"name":"남자는 머리빨","tel":"031-848-6085","addr":"경기도 의정부시 의정부동 17-9번지 1층","indutype":"보건위생 - 미용원","category":"beauty"}]},{"lat":"37.735264178","long":"127.04906533","imageIndex":13,"items":[{"name":"낭머릿결사랑","tel":"031-846-2971","addr":"경기도 의정부시 의정부동 136-38번지 지상1층","indutype":"보건위생 - 미용원","category":"beauty"},{"name":"성희 헤어샵","tel":"","addr":"경기도 의정부시 의정부동 136-38번지 1층","indutype":"보건위생 - 미용원","category":"beauty"}]},{"lat":"37.741985962","long":"127.04737902","imageIndex":13,"items":[{"name":"내츄럴페이스","tel":"031-848-7400","addr":"경기도 의정부시 의정부동 200-1번지 3층 302호","indutype":"보건위생 - 미용원","category":"beauty"}]},{"lat":"37.736960019","long":"127.0435188","imageIndex":13,"items":[{"name":"네오퓨어 주식회사","tel":"","addr":"경기도 의정부시 의정부동 501-1번지 씨알씨빌딩 7층 경기북부벤처센터 705호","indutype":"보건위생 - 미용재료","category":"beauty"},{"name":"주식회사 트루미스","tel":"","addr":"경기도 의정부시 의정부동 501-1번지 스마트오피스 11층","indutype":"보건위생 - 기타대인서비스","category":"beauty"}]},{"lat":"37.73918383","long":"127.04779711","imageIndex":13,"items":[{"name":"네이처헤어 의정부1호점","tel":"031-873-3381","addr":"경기도 의정부시 의정부동 195-13번지 2층","indutype":"보건위생 - 미용원","category":"beauty"}]},{"lat":"37.741373333","long":"127.04732193","imageIndex":13,"items":[{"name":"네이처헤어 의정부2호점","tel":"031-848-3373","addr":"경기도 의정부시 의정부동 200-16번지 2층","indutype":"보건위생 - 미용원","category":"beauty"},{"name":"헤어인 두피","tel":"031-837-3387","addr":"경기도 의정부시 의정부동 200-16번지","indutype":"보건위생 - 미용원","category":"beauty"}]},{"lat":"37.73985013","long":"127.04885262","imageIndex":13,"items":[{"name":"네이처헤어 중앙로점","tel":"031-821-3601","addr":"경기도 의정부시 의정부동 179-13번지 2층","indutype":"보건위생 - 미용원","category":"beauty"}]},{"lat":"37.739011983","long":"127.04951011","imageIndex":13,"items":[{"name":"네이쳐리퍼블릭","tel":"031-842-8881","addr":"경기도 의정부시 의정부동 177-14 외1필지(177-21)","indutype":"보건위생 - 화장품","category":"beauty"}]},{"lat":"37.736097162","long":"127.03701786","imageIndex":13,"items":[{"name":"네일공감","tel":"031-874-3005","addr":"경기도 의정부시 의정부동 522-1번지 1층 102호","indutype":"보건위생 - 피부미용실","category":"beauty"}]},{"lat":"37.736931151","long":"127.0485445","imageIndex":13,"items":[{"name":"네일도빛나다","tel":"","addr":"경기도 의정부시 의정부동 133-24번지","indutype":"보건위생 - 피부미용실","category":"beauty"}]},{"lat":"37.739291234","long":"127.04962374","imageIndex":13,"items":[{"name":"네일드영(Nail'd young)","tel":"070-7869-4141","addr":"경기도 의정부시 의정부동 177-17번지 1층","indutype":"보건위생 - 피부미용실","category":"beauty"}]},{"lat":"37.736210613","long":"127.04795414","imageIndex":13,"items":[{"name":"네일비니","tel":"","addr":"경기도 의정부시 의정부동 139-25번지 1층","indutype":"보건위생 - 피부미용실","category":"beauty"}]},{"lat":"37.742209862","long":"127.05079416","imageIndex":13,"items":[{"name":"네일작업실","tel":"031-821-6606","addr":"경기도 의정부시 의정부동 154-6번지 1층","indutype":"보건위생 - 피부미용실","category":"beauty"}]},{"lat":"37.740931388","long":"127.04856965","imageIndex":13,"items":[{"name":"네일팩토리","tel":"000-0000-0000","addr":"경기도 의정부시 의정부동 193-1번지 태영프라자 1층 110호","indutype":"보건위생 - 피부미용실","category":"beauty"}]},{"lat":"37.746094712","long":"127.04632629","imageIndex":13,"items":[{"name":"네일한손","tel":"","addr":"경기도 의정부시 의정부동 227-14번지 1층","indutype":"보건위생 - 피부미용실","category":"beauty"},{"name":"머리하러갈래","tel":"031-848-5953","addr":"경기도 의정부시 의정부동 227-14번지","indutype":"보건위생 - 미용원","category":"beauty"}]},{"lat":"37.746877437","long":"127.04923139","imageIndex":13,"items":[{"name":"노블헤어","tel":"031-848-2956","addr":"경기도 의정부시 의정부동 215-1번지 1층","indutype":"보건위생 - 미용원","category":"beauty"}]},{"lat":"37.738372456","long":"127.04912398","imageIndex":13,"items":[{"name":"누가의료기의정부점","tel":"031-821-2182","addr":"경기도 의정부시 의정부동 173-10번지 경선빌딩 5층","indutype":"보건위생 - 의료용품","category":"beauty"},{"name":"아이비안경원","tel":"031-845-5800","addr":"경기도 의정부시 의정부동 173-10번지","indutype":"보건위생 - 안경","category":"beauty"}]},{"lat":"37.734572095","long":"127.04462924","imageIndex":13,"items":[{"name":"눈에띄네 미용실","tel":"031-879-0606","addr":"경기도 의정부시 의정부동 576-1번지 승원아트빌라 1층 102호","indutype":"보건위생 - 미용원","category":"beauty"}]},{"lat":"37.738762134","long":"127.04292984","imageIndex":13,"items":[{"name":"뉴브로우","tel":"031-000-0000","addr":"경기도 의정부시 의정부동 431-20번지 2층","indutype":"보건위생 - 피부미용실","category":"beauty"}]},{"lat":"37.742821684","long":"127.05279139","imageIndex":13,"items":[{"name":"다랑정사 선불교  조계종","tel":"031-826-1090","addr":"경기도 의정부시 의정부동 22-9","indutype":"보건위생 - 기타대인서비스","category":"beauty"}]},{"lat":"37.733741668","long":"127.04879212","imageIndex":13,"items":[{"name":"다래미용타운","tel":"031-877-1992","addr":"경기도 의정부시 의정부동 99-7번지 2층","indutype":"보건위생 - 미용원","category":"beauty"}]},{"lat":"37.746598194","long":"127.04909506","imageIndex":13,"items":[{"name":"다모아미용타운","tel":"031-846-0265","addr":"경기도 의정부시 의정부동 218-58번지 1층","indutype":"보건위생 - 미용원","category":"beauty"}]},{"lat":"37.741156159","long":"127.04976105","imageIndex":13,"items":[{"name":"다미왁싱","tel":"070-7760-8005","addr":"경기도 의정부시 의정부동 159-8번지 3층","indutype":"보건위생 - 피부미용실","category":"beauty"},{"name":"바디 앤 풋","tel":"070-5121-6773","addr":"경기도 의정부시 의정부동 159-8번지 3층","indutype":"보건위생 - 피부미용실","category":"beauty"}]},{"lat":"37.74359316","long":"127.03687381","imageIndex":13,"items":[{"name":"다인미용실","tel":"031-871-1758","addr":"경기도 의정부시 의정부동 335-17번지","indutype":"보건위생 - 미용원","category":"beauty"}]},{"lat":"37.745429915","long":"127.04078903","imageIndex":13,"items":[{"name":"다정미용실","tel":"031-878-7767","addr":"경기도 의정부시 의정부동 409번지 1층","indutype":"보건위생 - 미용원","category":"beauty"}]},{"lat":"37.7390125","long":"127.04818274","imageIndex":13,"items":[{"name":"닥터스칼프 의정부점","tel":"031-848-8582","addr":"경기도 의정부시 의정부동 176-10번지 진성빌딩 7층","indutype":"보건위생 - 화장품","category":"beauty"},{"name":"로데오 뷰티","tel":"031-848-4141","addr":"경기도 의정부시 의정부동 176-10번지 진성빌딩 5층","indutype":"보건위생 - 피부미용실","category":"beauty"},{"name":"스타키보청기의정부센터","tel":"031-846-9175","addr":"경기도 의정부시 의정부동 176-10번지","indutype":"보건위생 - 의료용품","category":"beauty"},{"name":"큐티클럽","tel":"031-848-4141","addr":"경기도 의정부시 의정부동 176-10번지 진성빌딩 5층","indutype":"보건위생 - 피부미용실","category":"beauty"}]},{"lat":"37.743994393","long":"127.04919555","imageIndex":13,"items":[{"name":"단우","tel":"031-875-5557","addr":"경기도 의정부시 의정부동 220-110번지 한라비발디루트 102동 601호","indutype":"보건위생 - 화장품","category":"beauty"}]},{"lat":"37.738210619","long":"127.04826167","imageIndex":13,"items":[{"name":"단우헤어","tel":"031-875-5557","addr":"경기도 의정부시 의정부동 141-1번지 지하1층","indutype":"보건위생 - 미용원","category":"beauty"},{"name":"미소 보청기 청각센터","tel":"031-874-2299","addr":"경기도 의정부시 의정부동 141-1번지 은덕빌딩 다동 4층","indutype":"보건위생 - 의료용품","category":"beauty"},{"name":"센스","tel":"031-877-2323","addr":"경기도 의정부시 의정부동 141-1번지 은덕빌딩 다동 7층","indutype":"보건위생 - 화장품","category":"beauty"},{"name":"하얀손톱","tel":"031-821-9337","addr":"경기도 의정부시 의정부동 141-1번지 은덕빌딩 가동 1층","indutype":"보건위생 - 피부미용실","category":"beauty"}]},{"lat":"37.737985226","long":"127.0486586","imageIndex":13,"items":[{"name":"대우","tel":"031-877-0608","addr":"경기도 의정부시 의정부동 132-7번지 지하층","indutype":"보건위생 - 미용원","category":"beauty"}]},{"lat":"37.737767725","long":"127.05182368","imageIndex":13,"items":[{"name":"대진의료기","tel":"031-848-3800","addr":"경기도 의정부시 의정부동 145-12번지 1층","indutype":"보건위생 - 의료용품","category":"beauty"},{"name":"태평양","tel":"031-0000-0000","addr":"경기도 의정부시 의정부동 145-12번지 지하1층","indutype":"보건위생 - 기타대인서비스","category":"beauty"}]},{"lat":"37.742292609","long":"127.04651694","imageIndex":13,"items":[{"name":"대한사","tel":"031-841-0456","addr":"경기도 의정부시 의정부동 209-5번지","indutype":"보건위생 - 화장품","category":"beauty"}]},{"lat":"37.736011395","long":"127.0505179","imageIndex":13,"items":[{"name":"더 예쁘지","tel":"031-843-5451","addr":"경기도 의정부시 의정부동 99-6번지 의정부지하상가서부가열107-1호","indutype":"보건위생 - 기타대인서비스","category":"beauty"},{"name":"더블리","tel":"","addr":"경기도 의정부시 의정부동 99-6번지 서부 가열 163호","indutype":"보건위생 - 피부미용실","category":"beauty"},{"name":"라비앙","tel":"031-871-6252","addr":"경기도 의정부시 의정부동 99-6번지 지하상가서부나열 132호","indutype":"보건위생 - 피부미용실","category":"beauty"},{"name":"미화장품","tel":"02-933-9007","addr":"경기도 의정부시 의정부동 99-6번지 외12필지동부F상가 106호","indutype":"보건위생 - 화장품","category":"beauty"},{"name":"뷰티아름드리","tel":"031-848-9018","addr":"경기도 의정부시 의정부동 99-6번지 의정부지하상가 서부 나열 149호","indutype":"보건위생 - 화장품","category":"beauty"},{"name":"뷰티홀릭","tel":"031-829-4142","addr":"경기도 의정부시 의정부동 99-6번지 의정부지하상가 177호","indutype":"보건위생 - 미용원","category":"beauty"},{"name":"아름다운 아라","tel":"031-874-6050","addr":"경기도 의정부시 의정부동 99-6번지 의정부지하상가 서부 가동 157호","indutype":"보건위생 - 화장품","category":"beauty"},{"name":"아이월드안경","tel":"031-874-3202","addr":"경기도 의정부시 의정부동 99-6번지 의정부지하상가 104동 105호","indutype":"보건위생 - 안경","category":"beauty"},{"name":"옵티크","tel":"031-877-4623","addr":"경기도 의정부시 의정부동 99-6번지 지하상가동부가열 106호","indutype":"보건위생 - 안경","category":"beauty"},{"name":"이쁜손네일","tel":"031-876-7028","addr":"경기도 의정부시 의정부동 99-6번지 의정부지하 상가 서부 157호 나열","indutype":"보건위생 - 미용원","category":"beauty"},{"name":"일팔일","tel":"","addr":"경기도 의정부시 의정부동 99-6번지 의정부지하상가 서부 나열 181호","indutype":"보건위생 - 피부미용실","category":"beauty"},{"name":"티엔엘(TNL)","tel":"031-827-9288","addr":"경기도 의정부시 의정부동 99-6번지 서부가열 191호","indutype":"보건위생 - 화장품","category":"beauty"},{"name":"필업 (Fill UP)","tel":"","addr":"경기도 의정부시 의정부동 99-6번지 역지하상가 서부가열 지하 125호","indutype":"보건위생 - 피부미용실","category":"beauty"}]},{"lat":"37.73790344","long":"127.05042835","imageIndex":13,"items":[{"name":"더끌림샵(The 끌림#)","tel":"02-994-7933","addr":"경기도 의정부시 의정부동 172-20번지 1층","indutype":"보건위생 - 피부미용실","category":"beauty"},{"name":"티트리헤어살롱","tel":"","addr":"경기도 의정부시 의정부동 172-20번지","indutype":"보건위생 - 미용원","category":"beauty"}]},{"lat":"37.741760468","long":"127.04804827","imageIndex":13,"items":[{"name":"더미인","tel":"","addr":"경기도 의정부시 의정부동 199-10번지 우미쁘띠린2차 108호","indutype":"보건위생 - 피부미용실","category":"beauty"},{"name":"더미인네일","tel":"","addr":"경기도 의정부시 의정부동 199-10번지 우미쁘띠린2차 108호 일부","indutype":"보건위생 - 피부미용실","category":"beauty"},{"name":"맥시헤어","tel":"031-562-5567","addr":"경기도 의정부시 의정부동 199-10번지 우미쁘띠린2차 107호","indutype":"보건위생 - 미용원","category":"beauty"},{"name":"허니스킨(HONEY SKIN)","tel":"031-851-1399","addr":"경기도 의정부시 의정부동 199-10번지 우미쁘띠린2차 321호","indutype":"보건위생 - 이용원","category":"beauty"}]},{"lat":"37.738823054","long":"127.04881795","imageIndex":13,"items":[{"name":"더샘 의정부점","tel":"031-848-2545","addr":"경기도 의정부시 의정부동 175-1번지 1층","indutype":"보건위생 - 화장품","category":"beauty"}]},{"lat":"37.738876527","long":"127.05029283","imageIndex":13,"items":[{"name":"더페이스샵(의정부점)","tel":"031-821-2408","addr":"경기도 의정부시 의정부동 170-8번지","indutype":"보건위생 - 화장품","category":"beauty"},{"name":"헤어살롱설렘(로데오점)","tel":"031-841-7773","addr":"경기도 의정부시 의정부동 170-8번지","indutype":"보건위생 - 미용원","category":"beauty"}]},{"lat":"37.748149076","long":"127.0458169","imageIndex":13,"items":[{"name":"덕이헤어샵","tel":"000-0000-0000","addr":"경기도 의정부시 의정부동 228-24번지 1층","indutype":"보건위생 - 미용원","category":"beauty"}]},{"lat":"37.735264447","long":"127.04837331","imageIndex":13,"items":[{"name":"도담도담산후도우미(의정부점)","tel":"","addr":"경기도 의정부시 의정부동 138-29번지 3층 301호","indutype":"보건위생 - 기타대인서비스","category":"beauty"},{"name":"황토마을지압안마원","tel":"031-872-9257","addr":"경기도 의정부시 의정부동 138-29번지 202호","indutype":"보건위생 - 안마시술소","category":"beauty"}]},{"lat":"37.738625046","long":"127.04829595","imageIndex":13,"items":[{"name":"독일보청기","tel":"031-848-9688","addr":"경기도 의정부시 의정부동 175-10번지 나이키빌딩 9층","indutype":"보건위생 - 의료용품","category":"beauty"},{"name":"퍼스트룩 안경","tel":"031-678-7518","addr":"경기도 의정부시 의정부동 175-10번지 나이키빌딩 4층","indutype":"보건위생 - 안경","category":"beauty"}]},{"lat":"37.739129594","long":"127.04826223","imageIndex":13,"items":[{"name":"독일지멘스보청기의정부센터","tel":"031-848-5095","addr":"경기도 의정부시 의정부동 176-21번지","indutype":"보건위생 - 의료용품","category":"beauty"}]},{"lat":"37.734457178","long":"127.03784525","imageIndex":13,"items":[{"name":"동그라미","tel":"031-876-8761","addr":"경기도 의정부시 의정부동 540-3번지","indutype":"보건위생 - 화장품","category":"beauty"}]},{"lat":"37.744904997","long":"127.04753961","imageIndex":13,"items":[{"name":"동부 메디컬","tel":"031-848-0013","addr":"경기도 의정부시 의정부동 221-12번지 1층","indutype":"보건위생 - 의료용품","category":"beauty"}]},{"lat":"37.734598836","long":"127.04543471","imageIndex":13,"items":[{"name":"동서메디칼","tel":"031-875-4254","addr":"경기도 의정부시 의정부동 577-2번지","indutype":"보건위생 - 의료용품","category":"beauty"}]},{"lat":"37.74301175","long":"127.05070391","imageIndex":13,"items":[{"name":"동원재료","tel":"031-856-5967","addr":"경기도 의정부시 의정부동 185-12번지 지하1층","indutype":"보건위생 - 미용재료","category":"beauty"}]},{"lat":"37.736462033","long":"127.05012112","imageIndex":13,"items":[{"name":"두울림 피엔씨(P&C)","tel":"031-1688-9168","addr":"경기도 의정부시 의정부동 134-27번지 1층","indutype":"보건위생 - 화장품","category":"beauty"}]},{"lat":"37.734655395","long":"127.03782265","imageIndex":13,"items":[{"name":"드림안경원","tel":"031-837-9002","addr":"경기도 의정부시 의정부동 540-2번지 105호","indutype":"보건위생 - 안경","category":"beauty"},{"name":"이브뷰티","tel":"","addr":"경기도 의정부시 의정부동 540-2번지 2층 201호","indutype":"보건위생 - 미용재료","category":"beauty"}]},{"lat":"37.739320941","long":"127.04229482","imageIndex":13,"items":[{"name":"드림헤어아트","tel":"031-873-2525","addr":"경기도 의정부시 의정부동 432-18번지","indutype":"보건위생 - 미용원","category":"beauty"}]},{"lat":"37.746150101","long":"127.04254805","imageIndex":13,"items":[{"name":"디.스토리헤어(D.story Hair)","tel":"031-872-7120","addr":"경기도 의정부시 의정부동 240-34번지 2층","indutype":"보건위생 - 미용원","category":"beauty"}]},{"lat":"37.738263675","long":"127.05079162","imageIndex":13,"items":[{"name":"디케이원","tel":"070-4273-4141","addr":"경기도 의정부시 의정부동 171-11번지 1층","indutype":"보건위생 - 화장품","category":"beauty"}]},{"lat":"37.74093092","long":"127.04976091","imageIndex":13,"items":[{"name":"라라뷰티","tel":"","addr":"경기도 의정부시 의정부동 159-12번지 3층","indutype":"보건위생 - 피부미용실","category":"beauty"},{"name":"한에스테틱","tel":"031-844-0123","addr":"경기도 의정부시 의정부동 159-12번지","indutype":"보건위생 - 화장품","category":"beauty"}]},{"lat":"37.740626997","long":"127.04327121","imageIndex":13,"items":[{"name":"라본느경기1지사","tel":"031-855-7652","addr":"경기도 의정부시 의정부동 434-17번지 본궁빌딩 4층","indutype":"보건위생 - 미용재료","category":"beauty"}]},{"lat":"37.736987838","long":"127.04115911","imageIndex":13,"items":[{"name":"라이온스","tel":"031-878-9516","addr":"경기도 의정부시 의정부동 508-4번지","indutype":"보건위생 - 이용원","category":"beauty"}]},{"lat":"37.748176403","long":"127.04498862","imageIndex":13,"items":[{"name":"란헤어","tel":"031-846-4165","addr":"경기도 의정부시 의정부동 236-10번지","indutype":"보건위생 - 미용원","category":"beauty"}]},{"lat":"37.735240827","long":"127.03845822","imageIndex":13,"items":[{"name":"레드","tel":"031-873-8858","addr":"경기도 의정부시 의정부동 521-7번지 석순빌딩","indutype":"보건위생 - 화장품","category":"beauty"}]},{"lat":"37.736848485","long":"127.05245838","imageIndex":13,"items":[{"name":"레드폭스헤어","tel":"031-826-5040","addr":"경기도 의정부시 의정부동 358-4번지","indutype":"보건위생 - 미용원","category":"beauty"}]},{"lat":"37.738345208","long":"127.04967987","imageIndex":13,"items":[{"name":"레드헤어","tel":"031-821-3575","addr":"경기도 의정부시 의정부동 173-16번지 2층","indutype":"보건위생 - 미용원","category":"beauty"},{"name":"샴푸네일","tel":"031-848-5848","addr":"경기도 의정부시 의정부동 173-16번지 1층","indutype":"보건위생 - 피부미용실","category":"beauty"}]},{"lat":"37.740264702","long":"127.04851252","imageIndex":13,"items":[{"name":"렌즈미 의정부 행복로점","tel":"031-841-3229","addr":"경기도 의정부시 의정부동 194-3번지 1층","indutype":"보건위생 - 안경","category":"beauty"}]},{"lat":"37.738895687","long":"127.04736583","imageIndex":13,"items":[{"name":"로즈네일","tel":"","addr":"경기도 의정부시 의정부동 99-6번지 서부나동 지하2층 151호","indutype":"보건위생 - 피부미용실","category":"beauty"},{"name":"샵네일초이스","tel":"070-0862-4019","addr":"경기도 의정부시 의정부동 99-6번지 서부 나동 216호","indutype":"보건위생 - 피부미용실","category":"beauty"}]},{"lat":"37.745988096","long":"127.04204874","imageIndex":13,"items":[{"name":"류뷰티","tel":"","addr":"경기도 의정부시 의정부동 414-13번지 1층","indutype":"보건위생 - 미용재료","category":"beauty"}]},{"lat":"37.743733734","long":"127.04759564","imageIndex":13,"items":[{"name":"르네셀 의정부중앙 로드샵","tel":"031-848-5888","addr":"경기도 의정부시 의정부동 221-45번지","indutype":"보건위생 - 화장품","category":"beauty"}]},{"lat":"37.738859785","long":"127.04700276","imageIndex":13,"items":[{"name":"르비쥬 네일(Le Bijou Nail)","tel":"031-875-3567","addr":"경기도 의정부시 의정부동 99-6번지 의정부시청 서부 가동 180호","indutype":"보건위생 - 피부미용실","category":"beauty"},{"name":"마이샵","tel":"02-1111-1111","addr":"경기도 의정부시 의정부동 99-6번지 서부 가동 161호","indutype":"보건위생 - 화장품","category":"beauty"},{"name":"인디(IN-D)","tel":"070-7420-3339","addr":"경기도 의정부시 의정부동 99-6번지 지하상가서부 가동 119호","indutype":"보건위생 - 피부미용실","category":"beauty"}]},{"lat":"37.739236242","long":"127.05192676","imageIndex":13,"items":[{"name":"리아힐링","tel":"","addr":"경기도 의정부시 의정부동 125-5번지 8층","indutype":"보건위생 - 피부미용실","category":"beauty"},{"name":"미즘아쿠아랜드","tel":"031-848-4900","addr":"경기도 의정부시 의정부동 125-5번지 미즘쇼핑몰7,8,9","indutype":"보건위생 - 사우나","category":"beauty"},{"name":"체형관리원","tel":"031-842-2693","addr":"경기도 의정부시 의정부동 125-5번지 8층","indutype":"보건위생 - 피부미용실","category":"beauty"}]},{"lat":"37.739462733","long":"127.04881834","imageIndex":13,"items":[{"name":"리즈헤어","tel":"031-846-6778","addr":"경기도 의정부시 의정부동 176-3번지","indutype":"보건위생 - 미용원","category":"beauty"}]},{"lat":"37.736484501","long":"127.03726763","imageIndex":13,"items":[{"name":"린헤어","tel":"070-7516-3753","addr":"경기도 의정부시 의정부동 519-3번지 1층 103호","indutype":"보건위생 - 미용원","category":"beauty"}]},{"lat":"37.73842662","long":"127.04885174","imageIndex":13,"items":[{"name":"림스","tel":"070-4642-4756","addr":"경기도 의정부시 의정부동 173-5번지 3층","indutype":"보건위생 - 피부미용실","category":"beauty"},{"name":"성희미용실","tel":"031-842-0131","addr":"경기도 의정부시 의정부동 173-5번지","indutype":"보건위생 - 미용원","category":"beauty"}]},{"lat":"37.746628087","long":"127.04109599","imageIndex":13,"items":[{"name":"마르떼","tel":"031-877-2047","addr":"경기도 의정부시 의정부동 407-4번지 1층","indutype":"보건위생 - 미용원","category":"beauty"}]},{"lat":"37.731842026","long":"127.04510416","imageIndex":13,"items":[{"name":"마샬헤어","tel":"031-836-9981","addr":"경기도 의정부시 의정부동 585번지 진산그린빌라제5차 A동 101호","indutype":"보건위생 - 미용원","category":"beauty"}]},{"lat":"37.748599941","long":"127.04473924","imageIndex":13,"items":[{"name":"마음자람아동청소년심리상담센터","tel":"031-843-2580","addr":"경기도 의정부시 의정부동 235-17번지 미림프라자 3층 305호","indutype":"보건위생 - 기타대인서비스","category":"beauty"},{"name":"보보헤어","tel":"031-846-7888","addr":"경기도 의정부시 의정부동 235-17번지 미림프라자 203호","indutype":"보건위생 - 미용원","category":"beauty"},{"name":"아리따움가능역점","tel":"031-844-3323","addr":"경기도 의정부시 의정부동 235-17번지 미림프라자 113호","indutype":"보건위생 - 화장품","category":"beauty"},{"name":"잠언의료기","tel":"031-847-7589","addr":"경기도 의정부시 의정부동 235-17번지 미림프라자 5층 504,505호","indutype":"보건위생 - 의료용품","category":"beauty"},{"name":"진아로마","tel":"031-848-0708","addr":"경기도 의정부시 의정부동 235-17번지 미림프라자 503호","indutype":"보건위생 - 화장품","category":"beauty"},{"name":"힐링아이안경콘택트","tel":"031-847-0335","addr":"경기도 의정부시 의정부동 235-17번지 미림프라자 1층 106호","indutype":"보건위생 - 안경","category":"beauty"}]},{"lat":"37.737734505","long":"127.04448354","imageIndex":13,"items":[{"name":"마이브로우앤네일","tel":"031-826-1425","addr":"경기도 의정부시 의정부동 494-4번지 가연타워 101호","indutype":"보건위생 - 피부미용실","category":"beauty"},{"name":"청담i피부에스테틱","tel":"031-877-6326","addr":"경기도 의정부시 의정부동 494-4번지 가연타워 6층","indutype":"보건위생 - 피부미용실","category":"beauty"},{"name":"청담뷰티","tel":"031-871-5522","addr":"경기도 의정부시 의정부동 494-4번지 가연타워 501호","indutype":"보건위생 - 화장품","category":"beauty"}]},{"lat":"37.741732901","long":"127.0494324","imageIndex":13,"items":[{"name":"마임(장암지사)","tel":"031-873-5264","addr":"경기도 의정부시 의정부동 182-2번지 세종빌딩 3층","indutype":"보건위생 - 화장품","category":"beauty"},{"name":"마임의정부가능지사","tel":"031-871-3072","addr":"경기도 의정부시 의정부동 182-2번지 세종빌딩 3층","indutype":"보건위생 - 화장품","category":"beauty"},{"name":"마임의정부북부지사","tel":"031-841-0042","addr":"경기도 의정부시 의정부동 182-2번지","indutype":"보건위생 - 화장품","category":"beauty"},{"name":"마임의정부중부지사","tel":"031-841-0041","addr":"경기도 의정부시 의정부동 182-2번지","indutype":"보건위생 - 화장품","category":"beauty"},{"name":"의정부북부 한솔지사","tel":"","addr":"경기도 의정부시 의정부동 182-2번지","indutype":"보건위생 - 화장품","category":"beauty"}]},{"lat":"37.737399745","long":"127.04829521","imageIndex":13,"items":[{"name":"마임의정부동부지사","tel":"031-879-0285","addr":"경기도 의정부시 의정부동 140-12번지 마임 2층","indutype":"보건위생 - 화장품","category":"beauty"}]},{"lat":"37.737516786","long":"127.04851083","imageIndex":13,"items":[{"name":"마임의정부송산지사","tel":"031-872-0872","addr":"경기도 의정부시 의정부동 133-32번지 3층","indutype":"보건위생 - 화장품","category":"beauty"}]},{"lat":"37.740706762","long":"127.04695848","imageIndex":13,"items":[{"name":"마틸다속눈썹","tel":"02-1111-1111","addr":"경기도 의정부시 의정부동 213-5번지 2층","indutype":"보건위생 - 피부미용실","category":"beauty"}]},{"lat":"37.736987502","long":"127.04218013","imageIndex":13,"items":[{"name":"맑은나라","tel":"031-844-5452","addr":"경기도 의정부시 의정부동 506-10번지 3층","indutype":"보건위생 - 화장품","category":"beauty"}]},{"lat":"37.737768506","long":"127.0499064","imageIndex":13,"items":[{"name":"맑은손안마원","tel":"031-878-9888","addr":"경기도 의정부시 의정부동 131-1번지 2층","indutype":"보건위생 - 안마시술소","category":"beauty"}]},{"lat":"37.733347522","long":"127.04251854","imageIndex":13,"items":[{"name":"맘스매니저","tel":"031-853-7325","addr":"경기도 의정부시 의정부동 563-11번지 지하","indutype":"보건위생 - 기타대인서비스","category":"beauty"}]},{"lat":"37.740012553","long":"127.04820604","imageIndex":13,"items":[{"name":"매드탠(MADTAN)","tel":"031-838-9456","addr":"경기도 의정부시 의정부동 196-7번지 3층","indutype":"보건위생 - 화장품","category":"beauty"}]},{"lat":"37.732038978","long":"127.04848478","imageIndex":13,"items":[{"name":"맥가이버#","tel":"031-871-6252","addr":"경기도 의정부시 의정부동 370-12번지 1층","indutype":"보건위생 - 미용원","category":"beauty"},{"name":"정선헤어아트","tel":"","addr":"경기도 의정부시 의정부동 370-12번지","indutype":"보건위생 - 미용원","category":"beauty"},{"name":"제이남성컷","tel":"031-875-2800","addr":"경기도 의정부시 의정부동 370-12번지","indutype":"보건위생 - 미용원","category":"beauty"}]},{"lat":"37.737073709","long":"127.05249257","imageIndex":13,"items":[{"name":"머리","tel":"031-111-1111","addr":"경기도 의정부시 의정부동 358-3번지","indutype":"보건위생 - 미용원","category":"beauty"}]},{"lat":"37.745898419","long":"127.04076658","imageIndex":13,"items":[{"name":"머리머리헤어","tel":"031-877-7040","addr":"경기도 의정부시 의정부동 408-8번지","indutype":"보건위생 - 미용원","category":"beauty"}]},{"lat":"37.739735758","long":"127.04114918","imageIndex":13,"items":[{"name":"머리하고싶은집","tel":"031-873-5307","addr":"경기도 의정부시 의정부동 429-4번지","indutype":"보건위생 - 미용원","category":"beauty"}]},{"lat":"37.738599539","long":"127.04415502","imageIndex":13,"items":[{"name":"멀티S팰리스","tel":"031-842-5353","addr":"경기도 의정부시 의정부동 442-11번지 서부타워 801호","indutype":"보건위생 - 화장품","category":"beauty"},{"name":"몰디브태닝 의정부점","tel":"031-871-0929","addr":"경기도 의정부시 의정부동 442-11번지 서부타워빌딩 901호","indutype":"보건위생 - 화장품","category":"beauty"},{"name":"미정/LG오휘의정부지사","tel":"031-872-5252","addr":"경기도 의정부시 의정부동 422-11 서부타워 803","indutype":"보건위생 - 화장품","category":"beauty"},{"name":"백옥생자연한방화장품","tel":"031-872-0083","addr":"경기도 의정부시 의정부동 442-11서부타워703호704호","indutype":"보건위생 - 화장품","category":"beauty"},{"name":"살롱드블리","tel":"","addr":"경기도 의정부시 의정부동 442-11번지 서부타워 803호","indutype":"보건위생 - 피부미용실","category":"beauty"},{"name":"오랑주랑식스센스점","tel":"031-836-1774","addr":"경기도 의정부시 의정부동 442-11번지 서부타워빌딩 6층 603호","indutype":"보건위생 - 미용원","category":"beauty"},{"name":"오휘화장품","tel":"031-872-5252","addr":"경기도 의정부시 의정부동 442-11번지 서부타워 801호","indutype":"보건위생 - 화장품","category":"beauty"},{"name":"오휘화장품","tel":"031-872-5252","addr":"경기도 의정부시 의정부동 442-11번지 서부타워 801호","indutype":"보건위생 - 화장품","category":"beauty"},{"name":"오휘화장품","tel":"031-872-5252","addr":"경기도 의정부시 의정부동 442-11번지 서부타워 801호","indutype":"보건위생 - 화장품","category":"beauty"},{"name":"은정","tel":"031-872-5252","addr":"경기도 의정부시 의정부동 442-11번지 서부타워 801호","indutype":"보건위생 - 화장품","category":"beauty"}]},{"lat":"37.744571388","long":"127.04820882","imageIndex":13,"items":[{"name":"멋뜰헤어","tel":"031-821-7221","addr":"경기도 의정부시 의정부동 220-41번지","indutype":"보건위생 - 미용원","category":"beauty"}]},{"lat":"37.739817541","long":"127.03893691","imageIndex":13,"items":[{"name":"메디사이언스","tel":"02-867-4364","addr":"경기도 의정부시 의정부동 484-1번지 1층","indutype":"보건위생 - 의료용품","category":"beauty"}]},{"lat":"37.738483972","long":"127.03943544","imageIndex":13,"items":[{"name":"메디위즈","tel":"050-7145-0793","addr":"경기도 의정부시 의정부동 486-7번지 의정부대정프라자 808호","indutype":"보건위생 - 의료용품","category":"beauty"},{"name":"오휘의정부지사","tel":"031-872-5205","addr":"경기도 의정부시 의정부동 486-7번지 의정부대정프라자 3층 306.307호","indutype":"보건위생 - 화장품","category":"beauty"},{"name":"투에이치","tel":"070-5979-2023","addr":"경기도 의정부시 의정부동 486-7번지 대정프라자 408호-B11","indutype":"보건위생 - 화장품","category":"beauty"}]},{"lat":"37.744961848","long":"127.03942728","imageIndex":13,"items":[{"name":"메디퍼스트","tel":"031-871-2071","addr":"경기도 의정부시 의정부동 404-7번지 1층","indutype":"보건위생 - 의료용품","category":"beauty"}]},{"lat":"37.735850187","long":"127.04806737","imageIndex":13,"items":[{"name":"메리앤뷰티","tel":"","addr":"경기도 의정부시 의정부동 138-6번지 505호","indutype":"보건위생 - 미용원","category":"beauty"}]},{"lat":"37.739709426","long":"127.03893686","imageIndex":13,"items":[{"name":"메리위(merryoui)","tel":"","addr":"경기도 의정부시 의정부동 484-2번지 1층","indutype":"보건위생 - 미용원","category":"beauty"}]},{"lat":"37.742264697","long":"127.04884276","imageIndex":13,"items":[{"name":"메이크어데이","tel":"","addr":"경기도 의정부시 의정부동 190-9번지","indutype":"보건위생 - 미용원","category":"beauty"}]},{"lat":"37.734182963","long":"127.04923482","imageIndex":13,"items":[{"name":"명성체형관리","tel":"031-877-5436","addr":"경기도 의정부시 의정부동 98-16번지 동유빌딩 지하1층","indutype":"보건위생 - 피부미용실","category":"beauty"}]},{"lat":"37.732599988","long":"127.0417354","imageIndex":13,"items":[{"name":"명손","tel":"070-9148-6333","addr":"경기도 의정부시 의정부동 598번지 지하","indutype":"보건위생 - 피부미용실","category":"beauty"}]},{"lat":"37.742065847","long":"127.0504537","imageIndex":13,"items":[{"name":"모네헤어","tel":"031-848-8580","addr":"경기도 의정부시 의정부동 155-1번지 청우빌딩 2층 지상 2층","indutype":"보건위생 - 미용원","category":"beauty"}]},{"lat":"37.737870983","long":"127.0405129","imageIndex":13,"items":[{"name":"모유육아상담실","tel":"031-879-3800","addr":"경기도 의정부시 의정부동 492-3번지 신영성병원 3층 모유수유관리실","indutype":"보건위생 - 기타대인서비스","category":"beauty"}]},{"lat":"37.740129231","long":"127.04935198","imageIndex":13,"items":[{"name":"몰디브(Maldives)","tel":"031-824-4975","addr":"경기도 의정부시 의정부동 179-3번지","indutype":"보건위생 - 화장품","category":"beauty"}]},{"lat":"37.737679137","long":"127.04804579","imageIndex":13,"items":[{"name":"무드온(mood on)","tel":"","addr":"경기도 의정부시 의정부동 140-4번지 2층","indutype":"보건위생 - 피부미용실","category":"beauty"}]},{"lat":"37.735483288","long":"127.04101085","imageIndex":13,"items":[{"name":"무량서원","tel":"070-7786-3488","addr":"경기도 의정부시 의정부동 556-7번지 2층","indutype":"보건위생 - 기타대인서비스","category":"beauty"}]},{"lat":"37.743795905","long":"127.04989887","imageIndex":13,"items":[{"name":"무판안경 의정부점","tel":"031-846-4609","addr":"경기도 의정부시 의정부동 214-76번지 한덕빌딩 1층","indutype":"보건위생 - 안경","category":"beauty"}]},{"lat":"37.7425163890","long":"127.0502951549","imageIndex":13,"items":[{"name":"미건의료기","tel":"031-821-2251","addr":"경기도 의정부시 의정부동 184-3번지 의정부한원힐트리움더테라스","indutype":"보건위생 - 의료용품","category":"beauty"}]},{"lat":"37.738182959","long":"127.04987263","imageIndex":13,"items":[{"name":"미단","tel":"031-848-3256","addr":"경기도 의정부시 의정부동 172-5번지 2층","indutype":"보건위생 - 미용원","category":"beauty"}]},{"lat":"37.747149205","long":"127.04529439","imageIndex":13,"items":[{"name":"미래헤어프라자","tel":"031-846-2486","addr":"경기도 의정부시 의정부동 236-31번지","indutype":"보건위생 - 화장품","category":"beauty"},{"name":"미용재료백화점","tel":"031-846-2486","addr":"경기도 의정부시 의정부동 236-31번지","indutype":"보건위생 - 미용재료","category":"beauty"},{"name":"해피케어 산후도우미","tel":"031-841-3579","addr":"경기도 의정부시 의정부동 236-31번지 2층","indutype":"보건위생 - 기타대인서비스","category":"beauty"}]},{"lat":"37.7389039","long":"127.04943063","imageIndex":13,"items":[{"name":"미샤","tel":"031-846-2248","addr":"경기도 의정부시 의정부동 174-1번지","indutype":"보건위생 - 화장품","category":"beauty"},{"name":"이석실업주식회사","tel":"031-842-0004","addr":"경기도 의정부시 의정부동 174-1번지","indutype":"보건위생 - 화장품","category":"beauty"}]},{"lat":"37.735542952","long":"127.05038146","imageIndex":13,"items":[{"name":"미소샵","tel":"070-7819-7007","addr":"경기도 의정부시 의정부동 97-1번지","indutype":"보건위생 - 피부미용실","category":"beauty"}]},{"lat":"37.742732687","long":"127.05012511","imageIndex":13,"items":[{"name":"미소쑥뜸방","tel":"031-846-0597","addr":"경기도 의정부시 의정부동 184-18번지 2층","indutype":"보건위생 - 화장품","category":"beauty"}]},{"lat":"37.732546779","long":"127.03906951","imageIndex":13,"items":[{"name":"미소화장품","tel":"031-829-7101","addr":"경기도 의정부시 의정부동 608-3번지 범골빌딩 205호","indutype":"보건위생 - 화장품","category":"beauty"}]},{"lat":"37.746565471","long":"127.03967768","imageIndex":13,"items":[{"name":"미스터블루컷","tel":"031-876-0574","addr":"경기도 의정부시 의정부동 406-5번지","indutype":"보건위생 - 이용원","category":"beauty"}]},{"lat":"37.739129498","long":"127.04851182","imageIndex":13,"items":[{"name":"미스터힐링 의정부점","tel":"02-322-5841","addr":"경기도 의정부시 의정부동 176-14번지 1층, 2층","indutype":"보건위생 - 기타대인서비스","category":"beauty"}]},{"lat":"37.745761392","long":"127.04623533","imageIndex":13,"items":[{"name":"미애부","tel":"031-856-2356","addr":"경기도 의정부시 의정부동 227-23번지","indutype":"보건위생 - 화장품","category":"beauty"}]},{"lat":"37.741345169","long":"127.05023768","imageIndex":13,"items":[{"name":"미용마트","tel":"031-848-1188","addr":"경기도 의정부시 의정부동 155-4번지 1층","indutype":"보건위생 - 화장품","category":"beauty"}]},{"lat":"37.735435769","long":"127.04801039","imageIndex":13,"items":[{"name":"미유소","tel":"031-876-1105","addr":"경기도 의정부시 의정부동 138-24번지","indutype":"보건위생 - 미용원","category":"beauty"},{"name":"새서울보조기상사","tel":"031-877-1029","addr":"경기도 의정부시 의정부동 138-24번지","indutype":"보건위생 - 의료용품","category":"beauty"}]},{"lat":"37.741434846","long":"127.05127017","imageIndex":13,"items":[{"name":"미장원","tel":"02-493-5104","addr":"경기도 의정부시 의정부동 151-10번지 1층","indutype":"보건위생 - 미용원","category":"beauty"}]},{"lat":"37.744624716","long":"127.05006958","imageIndex":13,"items":[{"name":"미채움스킨케어","tel":"031-846-2603","addr":"경기도 의정부시 의정부동 214-20번지","indutype":"보건위생 - 피부미용실","category":"beauty"}]},{"lat":"37.738462133","long":"127.05017912","imageIndex":13,"items":[{"name":"미카엘타투","tel":"031-841-8883","addr":"경기도 의정부시 의정부동 171-18번지 3층전체","indutype":"보건위생 - 기타대인서비스","category":"beauty"}]},{"lat":"37.74482267","long":"127.05070508","imageIndex":13,"items":[{"name":"미코드","tel":"031-878-9952","addr":"경기도 의정부시 의정부동 214-60번지","indutype":"보건위생 - 화장품","category":"beauty"}]},{"lat":"37.740489115","long":"127.05060018","imageIndex":13,"items":[{"name":"미화장품","tel":"031-843-1242","addr":"경기도 의정부시 의정부동 157-20번지","indutype":"보건위생 - 화장품","category":"beauty"}]},{"lat":"37.742489695","long":"127.04945556","imageIndex":13,"items":[{"name":"민교가발","tel":"031-848-8556","addr":"경기도 의정부시 의정부동 190-1번지 1층","indutype":"보건위생 - 미용재료","category":"beauty"}]},{"lat":"37.746238793","long":"127.04651926","imageIndex":13,"items":[{"name":"민헤어","tel":"02-3666-8100","addr":"경기도 의정부시 의정부동 225-26번지 1층","indutype":"보건위생 - 미용원","category":"beauty"}]},{"lat":"37.735237705","long":"127.04762456","imageIndex":13,"items":[{"name":"바비앤네일","tel":"031-874-4838","addr":"경기도 의정부시 의정부동 163-17번지 1층","indutype":"보건위생 - 피부미용실","category":"beauty"}]},{"lat":"37.731546527","long":"127.0396816","imageIndex":13,"items":[{"name":"박정자미앤미","tel":"031-836-6962","addr":"경기도 의정부시 의정부동 605-16번지 부림빌라 102호","indutype":"보건위생 - 미용원","category":"beauty"}]},{"lat":"37.740462287","long":"127.05010098","imageIndex":13,"items":[{"name":"배정아헤어이벤트","tel":"031-840-4242","addr":"경기도 의정부시 의정부동 158-10번지","indutype":"보건위생 - 미용원","category":"beauty"}]},{"lat":"37.739544182","long":"127.04787675","imageIndex":13,"items":[{"name":"배정아헤어이벤트팰릭스","tel":"031-856-4242","addr":"경기도 의정부시 의정부동 195-4번지 1층","indutype":"보건위생 - 미용원","category":"beauty"}]},{"lat":"37.730318904","long":"127.04648723","imageIndex":13,"items":[{"name":"백호산신","tel":"","addr":"경기도 의정부시 의정부동 89-20번지","indutype":"보건위생 - 기타대인서비스","category":"beauty"}]},{"lat":"37.745483515","long":"127.04218462","imageIndex":13,"items":[{"name":"버르장머리","tel":"031-879-3536","addr":"경기도 의정부시 의정부동 413-1번지 1층","indutype":"보건위생 - 미용원","category":"beauty"}]},{"lat":"37.750176847","long":"127.04407067","imageIndex":13,"items":[{"name":"베스트맘","tel":"031-871-3582","addr":"경기도 의정부시 의정부동 235-39번지 장백오피스텔 503호","indutype":"보건위생 - 기타대인서비스","category":"beauty"},{"name":"초아샵스킨앤바디","tel":"031-843-3707","addr":"경기도 의정부시 의정부동 235-39번지 장백오피스텔 1층 103호","indutype":"보건위생 - 피부미용실","category":"beauty"}]},{"lat":"37.742984886","long":"127.05029545","imageIndex":13,"items":[{"name":"벨라투어","tel":"031-821-2000","addr":"경기도 의정부시 의정부동 184-10번지 2층","indutype":"보건위생 - 피부미용실","category":"beauty"}]},{"lat":"37.737871044","long":"127.04032004","imageIndex":13,"items":[{"name":"보청기","tel":"031-878-4748","addr":"경기도 의정부시 의정부동 492-2번지 아이월드빌딩 2층","indutype":"보건위생 - 의료용품","category":"beauty"}]},{"lat":"37.735372952","long":"127.04735237","imageIndex":13,"items":[{"name":"본연","tel":"","addr":"경기도 의정부시 의정부동 163-8번지 베르우스 1층 102호","indutype":"보건위생 - 미용원","category":"beauty"}]},{"lat":"37.741462394","long":"127.04998816","imageIndex":13,"items":[{"name":"볼 브러쉬 행복로점","tel":"031-848-0272","addr":"경기도 의정부시 의정부동 155-20번지 1층,2층","indutype":"보건위생 - 미용원","category":"beauty"},{"name":"왁싱츄","tel":"031-000-0000","addr":"경기도 의정부시 의정부동 155-20번지 3층","indutype":"보건위생 - 피부미용실","category":"beauty"}]},{"lat":"37.741129359","long":"127.04918242","imageIndex":13,"items":[{"name":"부엉이","tel":"","addr":"경기도 의정부시 의정부동 181-2번지","indutype":"보건위생 - 미용재료","category":"beauty"}]},{"lat":"37.74042647","long":"127.04954503","imageIndex":13,"items":[{"name":"뷔엔나안경원","tel":"031-842-9592","addr":"경기도 의정부시 의정부동 180-5번지","indutype":"보건위생 - 안경","category":"beauty"},{"name":"청춘헤어","tel":"031-821-7707","addr":"경기도 의정부시 의정부동 180-5번지 ,3,4층","indutype":"보건위생 - 미용원","category":"beauty"},{"name":"화장품종합","tel":"031-846-2988","addr":"경기도 의정부시 의정부동 180-5번지","indutype":"보건위생 - 화장품","category":"beauty"}]},{"lat":"37.736650193","long":"127.05265111","imageIndex":13,"items":[{"name":"뷰.코리아(bu.korea)","tel":"031-542-5636","addr":"경기도 의정부시 의정부동 358-10번지 지하1층","indutype":"보건위생 - 미용재료","category":"beauty"}]},{"lat":"37.742795083","long":"127.05177027","imageIndex":13,"items":[{"name":"뷰티바디케어","tel":"","addr":"경기도 의정부시 의정부동 25-2번지","indutype":"보건위생 - 화장품","category":"beauty"}]},{"lat":"37.742706454","long":"127.04809423","imageIndex":13,"items":[{"name":"뷰티살롱","tel":"070-8846-0758","addr":"경기도 의정부시 의정부동 203-4번지 2층","indutype":"보건위생 - 미용원","category":"beauty"}]},{"lat":"37.736068255","long":"127.04298512","imageIndex":13,"items":[{"name":"뷰티샵","tel":"031-836-0544","addr":"경기도 의정부시 의정부동 503-3번지 성원빌딩 5층","indutype":"보건위생 - 미용재료","category":"beauty"}]},{"lat":"37.743345777","long":"127.04901362","imageIndex":13,"items":[{"name":"뷰티샵리리","tel":"070-7462-4032","addr":"경기도 의정부시 의정부동 187-9번지 JS BENEST 1층","indutype":"보건위생 - 피부미용실","category":"beauty"}]},{"lat":"37.743265977","long":"127.04559851","imageIndex":13,"items":[{"name":"뷰티헤어815","tel":"031-574-4722","addr":"경기도 의정부시 의정부동 207-2번지","indutype":"보건위생 - 미용재료","category":"beauty"}]},{"lat":"37.735734691","long":"127.04359754","imageIndex":13,"items":[{"name":"브랜뉴핏","tel":"031-855-0900","addr":"경기도 의정부시 의정부동 567번지 창원빌딩","indutype":"보건위생 - 피부미용실","category":"beauty"},{"name":"황연주뷰티크","tel":"031-826-5007","addr":"경기도 의정부시 의정부동 567번지 창원빌딩 1층","indutype":"보건위생 - 피부미용실","category":"beauty"}]},{"lat":"37.738879107","long":"127.04337236","imageIndex":13,"items":[{"name":"브로우돌","tel":"031-000-0000","addr":"경기도 의정부시 의정부동 441-10번지 대야빌딩 4층","indutype":"보건위생 - 피부미용실","category":"beauty"},{"name":"의정부뉴뷰티","tel":"031-000-0000","addr":"경기도 의정부시 의정부동 441-10번지 대야빌딩 9층","indutype":"보건위생 - 화장품","category":"beauty"}]},{"lat":"37.741489121","long":"127.05073697","imageIndex":13,"items":[{"name":"브로우들","tel":"070-4401-5651","addr":"경기도 의정부시 의정부동 156-1번지 411호","indutype":"보건위생 - 피부미용실","category":"beauty"}]},{"lat":"37.743211253","long":"127.04740244","imageIndex":13,"items":[{"name":"브로우영","tel":"","addr":"경기도 의정부시 의정부동 205-1번지 정우오피스텔 102호 일부","indutype":"보건위생 - 피부미용실","category":"beauty"}]},{"lat":"37.734824606","long":"127.04393738","imageIndex":13,"items":[{"name":"블라썸네일","tel":"","addr":"경기도 의정부시 의정부동 570-14번지 근영빌라 1층 103호","indutype":"보건위생 - 피부미용실","category":"beauty"},{"name":"큐티헤어프라자","tel":"031-877-5458","addr":"경기도 의정부시 의정부동 570-14번지 근영빌라 101호","indutype":"보건위생 - 미용원","category":"beauty"}]},{"lat":"37.741851191","long":"127.04638054","imageIndex":13,"items":[{"name":"블링블링뷰티샵","tel":"031-846-5856","addr":"경기도 의정부시 의정부동 210-2번지 1층","indutype":"보건위생 - 화장품","category":"beauty"}]},{"lat":"37.739678355","long":"127.05035007","imageIndex":13,"items":[{"name":"비비안","tel":"031-844-3995","addr":"경기도 의정부시 의정부동 160번지 의정부제일시장 가동 20호","indutype":"보건위생 - 화장품","category":"beauty"},{"name":"에뛰드하우스의정부점","tel":"031-821-3033","addr":"경기도 의정부시 의정부동 160번지 의정부제일시장가동4, 5호","indutype":"보건위생 - 화장품","category":"beauty"}]},{"lat":"37.740463053","long":"127.04814959","imageIndex":13,"items":[{"name":"비비엠(Vi.B.M)","tel":"031-843-8234","addr":"경기도 의정부시 의정부동 198-27번지 2층","indutype":"보건위생 - 미용원","category":"beauty"}]},{"lat":"37.74190406","long":"127.04948923","imageIndex":13,"items":[{"name":"비유헤어 (Be You Hair)","tel":"","addr":"경기도 의정부시 의정부동 182-1번지","indutype":"보건위생 - 미용원","category":"beauty"}]},{"lat":"37.737848489","long":"127.05259519","imageIndex":13,"items":[{"name":"사단법인 선화불교 달마사","tel":"031-000-0000","addr":"경기도 의정부시 의정부동 35-12번지","indutype":"보건위생 - 피부미용실","category":"beauty"}]},{"lat":"37.738682946","long":"127.03688291","imageIndex":13,"items":[{"name":"사단법인사람","tel":"031-853-2541","addr":"경기도 의정부시 의정부동 487번지 영진빌딩 4층 404호","indutype":"보건위생 - 기타대인서비스","category":"beauty"}]},{"lat":"37.734518682","long":"127.04276874","imageIndex":13,"items":[{"name":"사임당화장품","tel":"031-871-0701","addr":"경기도 의정부시 의정부동 560-5번지 삼성빌딩 4층","indutype":"보건위생 - 화장품","category":"beauty"},{"name":"삼성","tel":"","addr":"경기도 의정부시 의정부동 560-5번지","indutype":"보건위생 - 미용재료","category":"beauty"}]},{"lat":"37.737046647","long":"127.05257196","imageIndex":13,"items":[{"name":"산","tel":"","addr":"경기도 의정부시 의정부동 358-2번지 1층 좌측","indutype":"보건위생 - 이용원","category":"beauty"}]},{"lat":"37.740014253","long":"127.04354316","imageIndex":13,"items":[{"name":"산신장군","tel":"031-871-6496","addr":"경기도 의정부시 의정부동 440-18번지 3층","indutype":"보건위생 - 기타대인서비스","category":"beauty"}]},{"lat":"37.735489239","long":"127.04951925","imageIndex":13,"items":[{"name":"살롱128","tel":"031-829-7833","addr":"경기도 의정부시 의정부동 128-11번지 1층","indutype":"보건위생 - 미용원","category":"beauty"}]},{"lat":"37.73978943","long":"127.04231776","imageIndex":13,"items":[{"name":"살롱드루나","tel":"070-8272-8488","addr":"경기도 의정부시 의정부동 432-1번지 1층","indutype":"보건위생 - 미용원","category":"beauty"}]},{"lat":"37.739015742","long":"127.03876634","imageIndex":13,"items":[{"name":"삼삼기사카드대리운전","tel":"031-1566-2344","addr":"경기도 의정부시 의정부동 484-7 서강빌딩 401","indutype":"보건위생 - 기타대인서비스","category":"beauty"}]},{"lat":"37.738237214","long":"127.04937349","imageIndex":13,"items":[{"name":"상상헤어스토리","tel":"031-856-4789","addr":"경기도 의정부시 의정부동 173-19번지 2층","indutype":"보건위생 - 미용원","category":"beauty"}]},{"lat":"37.740120807","long":"127.04784306","imageIndex":13,"items":[{"name":"상상헤어스토리중앙로점","tel":"031-848-4789","addr":"경기도 의정부시 의정부동 196-9번지 2층","indutype":"보건위생 - 미용원","category":"beauty"}]},{"lat":"37.731654308","long":"127.04073664","imageIndex":13,"items":[{"name":"새로운미용실","tel":"031-874-6096","addr":"경기도 의정부시 의정부동 602-7번지 1층","indutype":"보건위생 - 미용원","category":"beauty"}]},{"lat":"37.741209709","long":"127.05102043","imageIndex":13,"items":[{"name":"새로핀화장품전문점","tel":"031-846-8317","addr":"경기도 의정부시 의정부동 150-3번지","indutype":"보건위생 - 화장품","category":"beauty"}]},{"lat":"37.746013751","long":"127.04598586","imageIndex":13,"items":[{"name":"생각대로(호원지사)","tel":"031-877-2877","addr":"경기도 의정부시 의정부동 227-17번지 1층","indutype":"보건위생 - 기타대인서비스","category":"beauty"}]},{"lat":"37.737624429","long":"127.04971345","imageIndex":13,"items":[{"name":"샤네일","tel":"031-871-0878","addr":"경기도 의정부시 의정부동 132-32번지 1층","indutype":"보건위생 - 피부미용실","category":"beauty"}]},{"lat":"37.737960329","long":"127.04279327","imageIndex":13,"items":[{"name":"샤르망","tel":"031-000-0000","addr":"경기도 의정부시 의정부동 493-3번지","indutype":"보건위생 - 미용원","category":"beauty"}]},{"lat":"37.746565513","long":"127.03954153","imageIndex":13,"items":[{"name":"샤인헤어샵","tel":"031-829-9102","addr":"경기도 의정부시 의정부동 406-4번지","indutype":"보건위생 - 미용원","category":"beauty"}]},{"lat":"37.734651219","long":"127.04984771","imageIndex":13,"items":[{"name":"샴푸의 요정","tel":"070-7651-5004","addr":"경기도 의정부시 의정부동 98-17번지","indutype":"보건위생 - 미용원","category":"beauty"}]},{"lat":"37.73565415","long":"127.04198657","imageIndex":13,"items":[{"name":"샵나이젠(#Naizen)","tel":"070-7576-3001","addr":"경기도 의정부시 의정부동 557-2번지 2층","indutype":"보건위생 - 피부미용실","category":"beauty"}]},{"lat":"37.740651763","long":"127.04940903","imageIndex":13,"items":[{"name":"샵엔제이(#N&J)","tel":"031-821-1133","addr":"경기도 의정부시 의정부동 180-8번지 2층","indutype":"보건위생 - 미용원","category":"beauty"}]},{"lat":"37.737321515","long":"127.04014959","imageIndex":13,"items":[{"name":"석유통","tel":"031-877-0257","addr":"경기도 의정부시 의정부동 511-1번지 대화빌딩 4층","indutype":"보건위생 - 화장품","category":"beauty"}]},{"lat":"37.740426582","long":"127.0492614","imageIndex":13,"items":[{"name":"선광안경원","tel":"031-845-0449","addr":"경기도 의정부시 의정부동 180-4번지","indutype":"보건위생 - 안경","category":"beauty"},{"name":"안경매니져","tel":"031-848-3868","addr":"경기도 의정부시 의정부동 180-4번지 11호","indutype":"보건위생 - 안경","category":"beauty"}]},{"lat":"37.74342605","long":"127.05104455","imageIndex":13,"items":[{"name":"세기보청기","tel":"031-821-6656","addr":"경기도 의정부시 의정부동 185-1번지 2층","indutype":"보건위생 - 의료용품","category":"beauty"}]},{"lat":"37.742263543","long":"127.05171319","imageIndex":13,"items":[{"name":"세라젬나비엘의정부갤러리","tel":"031-821-2550","addr":"경기도 의정부시 의정부동 25-6번지 3층","indutype":"보건위생 - 의료용품","category":"beauty"}]},{"lat":"37.737428411","long":"127.04382537","imageIndex":13,"items":[{"name":"센뷰티","tel":"","addr":"경기도 의정부시 의정부동 496번지 한성빌딩 5층","indutype":"보건위생 - 화장품","category":"beauty"}]},{"lat":"37.746399497","long":"127.05032032","imageIndex":13,"items":[{"name":"소라미용실","tel":"031-821-9153","addr":"경기도 의정부시 의정부동 6-36번지","indutype":"보건위생 - 미용원","category":"beauty"}]},{"lat":"37.738678826","long":"127.04901072","imageIndex":13,"items":[{"name":"속눈썹전문점(스킨엔젤)","tel":"031-821-1245","addr":"경기도 의정부시 의정부동 173-1번지","indutype":"보건위생 - 기타대인서비스","category":"beauty"}]},{"lat":"37.741345301","long":"127.04990866","imageIndex":13,"items":[{"name":"송안경","tel":"031-847-1251","addr":"경기도 의정부시 의정부동 155-24번지","indutype":"보건위생 - 안경","category":"beauty"},{"name":"양코스메틱","tel":"031-856-1100","addr":"경기도 의정부시 의정부동 155-24번지","indutype":"보건위생 - 화장품","category":"beauty"}]},{"lat":"37.744931329","long":"127.04934363","imageIndex":13,"items":[{"name":"수경헤어라인","tel":"031-840-0526","addr":"경기도 의정부시 의정부동 220-29번지 수경헤어라인","indutype":"보건위생 - 미용원","category":"beauty"}]},{"lat":"37.740850676","long":"127.0475939","imageIndex":13,"items":[{"name":"수란미용재료","tel":"070-4325-8006","addr":"경기도 의정부시 의정부동 197-7번지 태광빌딩 3층","indutype":"보건위생 - 미용재료","category":"beauty"},{"name":"황궁중국발마사지","tel":"031-874-5600","addr":"경기도 의정부시 의정부동 197-7번지","indutype":"보건위생 - 안마시술소","category":"beauty"}]},{"lat":"37.748265304","long":"127.04821107","imageIndex":13,"items":[{"name":"수미미용실","tel":"031-821-3066","addr":"경기도 의정부시 의정부동 232-4번지 1층","indutype":"보건위생 - 미용원","category":"beauty"}]},{"lat":"37.736650298","long":"127.05240153","imageIndex":13,"items":[{"name":"수아미용실","tel":"070-7360-6760","addr":"경기도 의정부시 의정부동 358-13번지","indutype":"보건위생 - 미용원","category":"beauty"}]},{"lat":"37.74012846","long":"127.05126932","imageIndex":13,"items":[{"name":"수화장품","tel":"031-843-1242","addr":"경기도 의정부시 의정부동 149-7번지 1층","indutype":"보건위생 - 화장품","category":"beauty"},{"name":"와이덱스보청기의정부점","tel":"031-846-2122","addr":"경기도 의정부시 의정부동 149-7번지 5층","indutype":"보건위생 - 의료용품","category":"beauty"}]},{"lat":"37.735015219","long":"127.03966062","imageIndex":13,"items":[{"name":"숙미용실","tel":"031-872-2063","addr":"경기도 의정부시 의정부동 552-1번지 1층","indutype":"보건위생 - 미용원","category":"beauty"}]},{"lat":"37.737598073","long":"127.04798902","imageIndex":13,"items":[{"name":"숲테라피","tel":"","addr":"경기도 의정부시 의정부동 140-3번지 미래프라자 3층","indutype":"보건위생 - 피부미용실","category":"beauty"}]},{"lat":"37.738707546","long":"127.04446139","imageIndex":13,"items":[{"name":"쉬끄헤어","tel":"031-876-1500","addr":"경기도 의정부시 의정부동 442-12번지 광장타워 1층","indutype":"보건위생 - 미용원","category":"beauty"},{"name":"아모레","tel":"031-848-8961","addr":"경기도 의정부시 의정부동 442-12번지","indutype":"보건위생 - 화장품","category":"beauty"},{"name":"아모레","tel":"031-848-8960","addr":"경기도 의정부시 의정부동 442-12번지 광장타워 201호","indutype":"보건위생 - 화장품","category":"beauty"},{"name":"아모레 카운셀러","tel":"031-848-8960","addr":"경기도 의정부시 의정부동 442-12번지 광장타워 2층 201호","indutype":"보건위생 - 화장품","category":"beauty"},{"name":"아모레카운셀러","tel":"031-848-8960","addr":"경기도 의정부시 의정부동 442-12번지 광장타워 201호","indutype":"보건위생 - 화장품","category":"beauty"},{"name":"아모레카운셀러","tel":"031-848-8960","addr":"경기도 의정부시 의정부동 442-12번지 광장타워 2층 201호","indutype":"보건위생 - 화장품","category":"beauty"},{"name":"아모레카운셀러","tel":"031-848-8960","addr":"경기도 의정부시 의정부동 442-12번지 광장타워 201호","indutype":"보건위생 - 화장품","category":"beauty"},{"name":"아모레카운셀러","tel":"031-848-8960","addr":"경기도 의정부시 의정부동 442-12번지 광장타워 201호","indutype":"보건위생 - 화장품","category":"beauty"},{"name":"아모레카운셀러","tel":"02-923-0671","addr":"경기도 의정부시 의정부동 442-12번지 광장타워 201호","indutype":"보건위생 - 화장품","category":"beauty"},{"name":"아모레카운셀러","tel":"031-848-8960","addr":"경기도 의정부시 의정부동 442-12번지 광장타워 2층 201호","indutype":"보건위생 - 화장품","category":"beauty"},{"name":"아모레카운셀러","tel":"031-848-8960","addr":"경기도 의정부시 의정부동 442-12번지 광장타워 201호","indutype":"보건위생 - 화장품","category":"beauty"},{"name":"아모레카운셀러","tel":"031-848-8960","addr":"경기도 의정부시 의정부동 442-12번지 광장타워 205호","indutype":"보건위생 - 화장품","category":"beauty"},{"name":"아모레카운셀러","tel":"031-848-8960","addr":"경기도 의정부시 의정부동 442-12번지 광장타워 201호","indutype":"보건위생 - 화장품","category":"beauty"},{"name":"아모레퍼시픽","tel":"031-848-8960","addr":"경기도 의정부시 의정부동 442-12번지 광장타워 201호","indutype":"보건위생 - 화장품","category":"beauty"},{"name":"아모레퍼시픽","tel":"031-848-8960","addr":"경기도 의정부시 의정부동 442-12번지 광장타워 201호","indutype":"보건위생 - 화장품","category":"beauty"},{"name":"아모레퍼시픽","tel":"031-848-8960","addr":"경기도 의정부시 의정부동 442-12번지 광장타워 201호","indutype":"보건위생 - 화장품","category":"beauty"}]},{"lat":"37.732177222","long":"127.0396025","imageIndex":13,"items":[{"name":"쉬즈헤어샵","tel":"031-876-1055","addr":"경기도 의정부시 의정부동 607-8번지 승원아트빌라 101호","indutype":"보건위생 - 미용원","category":"beauty"}]},{"lat":"37.736461605","long":"127.05117618","imageIndex":13,"items":[{"name":"스마일","tel":"031-877-9227","addr":"경기도 의정부시 의정부동 96-3번지","indutype":"보건위생 - 기타대인서비스","category":"beauty"}]},{"lat":"37.72909674","long":"127.03695793","imageIndex":13,"items":[{"name":"스타헤어","tel":"031-871-5240","addr":"경기도 의정부시 의정부동 721번지 의정부롯데캐슬골드파크1단지 113동 1층 102호","indutype":"보건위생 - 미용원","category":"beauty"}]},{"lat":"37.743677963","long":"127.051907","imageIndex":13,"items":[{"name":"스타헤어샵","tel":"031-846-8121","addr":"경기도 의정부시 의정부동 17-2번지","indutype":"보건위생 - 미용원","category":"beauty"}]},{"lat":"37.744093601","long":"127.04893466","imageIndex":13,"items":[{"name":"시미네일(Si_Mi Nail)","tel":"070-7655-0588","addr":"경기도 의정부시 의정부동 220-110번지 한라비발디루트 상가 106호","indutype":"보건위생 - 피부미용실","category":"beauty"},{"name":"씨씨샵","tel":"031-843-5451","addr":"경기도 의정부시 의정부동 220-110번지 한라비발디루트제1층 106","indutype":"보건위생 - 미용원","category":"beauty"}]},{"lat":"37.735264587","long":"127.04801029","imageIndex":13,"items":[{"name":"신세계헤어샵","tel":"","addr":"경기도 의정부시 의정부동 138-16번지 1층 일부","indutype":"보건위생 - 미용원","category":"beauty"}]},{"lat":"37.742128399","long":"127.0517131","imageIndex":13,"items":[{"name":"십사만사천헤어","tel":"031-874-9608","addr":"경기도 의정부시 의정부동 25-16번지","indutype":"보건위생 - 미용원","category":"beauty"},{"name":"이호헤어","tel":"070-8851-6443","addr":"경기도 의정부시 의정부동 25-16번지 1층 101호","indutype":"보건위생 - 미용원","category":"beauty"}]},{"lat":"37.738183406","long":"127.04873814","imageIndex":13,"items":[{"name":"쌩얼라인","tel":"031-856-5788","addr":"경기도 의정부시 의정부동 132-1번지","indutype":"보건위생 - 미용재료","category":"beauty"},{"name":"헤어 아미고 의정부역점","tel":"031-876-1225","addr":"경기도 의정부시 의정부동 132-1번지 2층","indutype":"보건위생 - 미용원","category":"beauty"}]},{"lat":"37.741345468","long":"127.04948888","imageIndex":13,"items":[{"name":"쎄쎄뷰티","tel":"","addr":"경기도 의정부시 의정부동 182-13번지 2층","indutype":"보건위생 - 피부미용실","category":"beauty"}]},{"lat":"37.740823422","long":"127.04818384","imageIndex":13,"items":[{"name":"씨마옴므(Cima Homme)","tel":"070-8835-0815","addr":"경기도 의정부시 의정부동 198-23번지 3층","indutype":"보건위생 - 미용원","category":"beauty"}]},{"lat":"37.737538122","long":"127.0389358","imageIndex":13,"items":[{"name":"씨엘 코리아","tel":"","addr":"경기도 의정부시 의정부동 491-7번지 2층 261호","indutype":"보건위생 - 의료용품","category":"beauty"}]},{"lat":"37.733625087","long":"127.04737402","imageIndex":13,"items":[{"name":"씨유네일","tel":"031-111-1111","addr":"경기도 의정부시 의정부동 166-10번지 2층","indutype":"보건위생 - 피부미용실","category":"beauty"}]},{"lat":"37.739735456","long":"127.04206813","imageIndex":13,"items":[{"name":"아뜰리에련","tel":"","addr":"경기도 의정부시 의정부동 429-31번지 1층","indutype":"보건위생 - 화장품","category":"beauty"}]},{"lat":"37.741706298","long":"127.04834322","imageIndex":13,"items":[{"name":"아띠애","tel":"","addr":"경기도 의정부시 의정부동 191-21번지 송림빌딩 2층","indutype":"보건위생 - 미용원","category":"beauty"}]},{"lat":"37.741985236","long":"127.04926237","imageIndex":13,"items":[{"name":"아로마화장품","tel":"031-848-8566","addr":"경기도 의정부시 의정부동 191-23번지","indutype":"보건위생 - 화장품","category":"beauty"}]},{"lat":"37.737624901","long":"127.0485109","imageIndex":13,"items":[{"name":"아름다워지는날","tel":"031-875-0525","addr":"경기도 의정부시 의정부동 133-31번지","indutype":"보건위생 - 피부미용실","category":"beauty"}]},{"lat":"37.739069654","long":"127.03924286","imageIndex":13,"items":[{"name":"아모레","tel":"031-837-7001","addr":"경기도 의정부시 의정부동 485-6번지 광희빌딩 2층","indutype":"보건위생 - 화장품","category":"beauty"},{"name":"아모레 카운셀러","tel":"031-837-7001","addr":"경기도 의정부시 의정부동 485-6번지 2층","indutype":"보건위생 - 화장품","category":"beauty"},{"name":"아모레 카운셀러","tel":"031-837-7001","addr":"경기도 의정부시 의정부동 485-6번지 광희빌딩 2층","indutype":"보건위생 - 화장품","category":"beauty"},{"name":"아모레 카운셀러","tel":"031-837-7001","addr":"경기도 의정부시 의정부동 485-6번지 광희빌딩 2층","indutype":"보건위생 - 화장품","category":"beauty"},{"name":"아모레 카운셀러","tel":"031-837-7001","addr":"경기도 의정부시 의정부동 485-6번지 광희빌딩 2층","indutype":"보건위생 - 화장품","category":"beauty"},{"name":"아모레 카운셀러","tel":"031-837-7001","addr":"경기도 의정부시 의정부동 485-6번지 광희빌딩 2층","indutype":"보건위생 - 화장품","category":"beauty"},{"name":"아모레 흥선특약점","tel":"031-837-7001","addr":"경기도 의정부시 의정부동 485-6번지 광희빌딩 2층","indutype":"보건위생 - 화장품","category":"beauty"},{"name":"아모레 흥선특약점","tel":"031-837-7001","addr":"경기도 의정부시 의정부동 485-6번지 광희빌딩 2층","indutype":"보건위생 - 화장품","category":"beauty"},{"name":"아모레카운셀러","tel":"031-837-7001","addr":"경기도 의정부시 의정부동 485-6번지 광희빌딩","indutype":"보건위생 - 화장품","category":"beauty"},{"name":"아모레카운셀러","tel":"031-837-7001","addr":"경기도 의정부시 의정부동 485-6번지 광희빌딩 2층","indutype":"보건위생 - 화장품","category":"beauty"},{"name":"아모레카운셀러","tel":"031-837-7001","addr":"경기도 의정부시 의정부동 485-6번지 광희빌딩 2층","indutype":"보건위생 - 화장품","category":"beauty"},{"name":"아모레카운셀러","tel":"031-837-7001","addr":"경기도 의정부시 의정부동 485-6번지 광희빌딩 2층","indutype":"보건위생 - 화장품","category":"beauty"},{"name":"아모레카운셀러","tel":"031-837-7001","addr":"경기도 의정부시 의정부동 485-6번지 광희빌딩 2층","indutype":"보건위생 - 화장품","category":"beauty"},{"name":"아모레카운셀러","tel":"031-837-7001","addr":"경기도 의정부시 의정부동 485-6번지 광희빌딩 2층","indutype":"보건위생 - 화장품","category":"beauty"},{"name":"아모레카운셀러","tel":"031-837-7001","addr":"경기도 의정부시 의정부동 485-6번지 광희빌딩 2층","indutype":"보건위생 - 화장품","category":"beauty"},{"name":"아모레카운셀러","tel":"031-837-7001","addr":"경기도 의정부시 의정부동 485-6번지 광희빌딩 2층","indutype":"보건위생 - 화장품","category":"beauty"},{"name":"아모레카운셀러","tel":"031-837-7001","addr":"경기도 의정부시 의정부동 485-6번지 광희빌딩 2층","indutype":"보건위생 - 화장품","category":"beauty"},{"name":"아모레카운셀러","tel":"031-837-7001","addr":"경기도 의정부시 의정부동 485-6번지 광희빌딩 2층","indutype":"보건위생 - 화장품","category":"beauty"},{"name":"아모레카운셀러","tel":"031-837-7001","addr":"경기도 의정부시 의정부동 485-6번지 2층","indutype":"보건위생 - 화장품","category":"beauty"},{"name":"아모레카운셀러","tel":"031-837-7001","addr":"경기도 의정부시 의정부동 485-6번지 광희빌딩 2층","indutype":"보건위생 - 화장품","category":"beauty"},{"name":"아모레카운셀러","tel":"031-837-7001","addr":"경기도 의정부시 의정부동 485-6번지 광희빌딩 2층","indutype":"보건위생 - 화장품","category":"beauty"},{"name":"아모레카운셀러","tel":"031-837-7001","addr":"경기도 의정부시 의정부동 485-6번지 광희빌딩 2층","indutype":"보건위생 - 화장품","category":"beauty"},{"name":"아모레카운셀러","tel":"031-848-8960","addr":"경기도 의정부시 의정부동 485-6번지 광희빌딩 2층","indutype":"보건위생 - 화장품","category":"beauty"},{"name":"아모레카운셀러","tel":"031-837-7001","addr":"경기도 의정부시 의정부동 485-6번지 광희빌딩 2층","indutype":"보건위생 - 화장품","category":"beauty"},{"name":"아모레카운셀러","tel":"031-837-7001","addr":"경기도 의정부시 의정부동 485-6번지 광희빌딩 2층","indutype":"보건위생 - 화장품","category":"beauty"},{"name":"아모레카운셀러","tel":"031-837-7001","addr":"경기도 의정부시 의정부동 485-6번지 광희빌딩 2층","indutype":"보건위생 - 화장품","category":"beauty"},{"name":"아모레카운셀러","tel":"031-837-7001","addr":"경기도 의정부시 의정부동 485-6번지 광희빌딩 2층","indutype":"보건위생 - 화장품","category":"beauty"},{"name":"아모레카운셀러","tel":"031-837-7001","addr":"경기도 의정부시 의정부동 485-6번지 광희빌딩 2층","indutype":"보건위생 - 화장품","category":"beauty"},{"name":"아모레카운셀러","tel":"031-848-8960","addr":"경기도 의정부시 의정부동 485-6번지 광희빌딩 2층","indutype":"보건위생 - 화장품","category":"beauty"},{"name":"아모레카운셀러","tel":"031-837-7001","addr":"경기도 의정부시 의정부동 485-6번지 광희빌딩 2층","indutype":"보건위생 - 화장품","category":"beauty"},{"name":"아모레카운셀러","tel":"031-837-7001","addr":"경기도 의정부시 의정부동 485-6번지 광희빌딩 2층","indutype":"보건위생 - 화장품","category":"beauty"},{"name":"아모레카운셀러","tel":"031-837-7001","addr":"경기도 의정부시 의정부동 485-6번지 광희빌딩 2층","indutype":"보건위생 - 화장품","category":"beauty"},{"name":"아모레카운셀러","tel":"031-837-7001","addr":"경기도 의정부시 의정부동 485-6번지 광희빌딩 2층","indutype":"보건위생 - 화장품","category":"beauty"},{"name":"아모레퍼시픽","tel":"031-837-7001","addr":"경기도 의정부시 의정부동 485-6번지 광희빌딩 2층","indutype":"보건위생 - 화장품","category":"beauty"},{"name":"아모레퍼시픽","tel":"031-837-7001","addr":"경기도 의정부시 의정부동 485-6번지 광희빌딩 2층","indutype":"보건위생 - 화장품","category":"beauty"},{"name":"아모레퍼시픽","tel":"031-837-7001","addr":"경기도 의정부시 의정부동 485-6번지 광희빌딩 2층","indutype":"보건위생 - 화장품","category":"beauty"},{"name":"아모레퍼시픽","tel":"031-837-7001","addr":"경기도 의정부시 의정부동 485-6번지 광희빌딩 2층","indutype":"보건위생 - 화장품","category":"beauty"},{"name":"아모레퍼시픽(카운셀러)","tel":"031-837-7001","addr":"경기도 의정부시 의정부동 485-6번지 광희빌딩 2층","indutype":"보건위생 - 화장품","category":"beauty"},{"name":"흥선특약점(아모레)","tel":"031-837-7001","addr":"경기도 의정부시 의정부동 485-6번지 광희빌딩","indutype":"보건위생 - 화장품","category":"beauty"}]},{"lat":"37.74804104","long":"127.04560125","imageIndex":13,"items":[{"name":"아모레","tel":"031-846-0040","addr":"경기도 의정부시 의정부동 228-26번지 플러스빌딩 4층","indutype":"보건위생 - 화장품","category":"beauty"},{"name":"아모레","tel":"031-846-0040","addr":"경기도 의정부시 의정부동 228-26번지 플러스빌딩 4층","indutype":"보건위생 - 화장품","category":"beauty"},{"name":"아모레","tel":"031-846-0040","addr":"경기도 의정부시 의정부동 228-26 플러스빌딩 4층","indutype":"보건위생 - 화장품","category":"beauty"},{"name":"아모레","tel":"031-846-0040","addr":"경기도 의정부시 의정부동 228-26번지 플러스빌딩 4층","indutype":"보건위생 - 화장품","category":"beauty"},{"name":"아모레","tel":"031-846-0040","addr":"경기도 의정부시 의정부동 228-26 플러스빌딩4층","indutype":"보건위생 - 화장품","category":"beauty"},{"name":"아모레","tel":"031-846-0040","addr":"경기도 의정부시 의정부동 228-26번지 플러스빌딩 4층","indutype":"보건위생 - 화장품","category":"beauty"},{"name":"아모레","tel":"031-846-0040","addr":"경기도 의정부시 의정부동 228-26번지 플러스빌딩 4층","indutype":"보건위생 - 화장품","category":"beauty"},{"name":"아모레","tel":"031-846-0040","addr":"경기도 의정부시 의정부동 228-26번지 플러스빌딩 4층","indutype":"보건위생 - 화장품","category":"beauty"},{"name":"아모레","tel":"031-846-0040","addr":"경기도 의정부시 의정부동 228-26번지 플러스빌딩 4층","indutype":"보건위생 - 화장품","category":"beauty"},{"name":"아모레","tel":"031-879-4533","addr":"경기도 의정부시 의정부동 228-26번지 플러스빌딩 4층","indutype":"보건위생 - 화장품","category":"beauty"},{"name":"아모레카운셀러","tel":"031-846-0040","addr":"경기도 의정부시 의정부동 228-26번지 플러스빌딩 4층","indutype":"보건위생 - 화장품","category":"beauty"},{"name":"아모레카운셀러","tel":"031-846-0040","addr":"경기도 의정부시 의정부동 228-26번지 플러스빌딩 4층","indutype":"보건위생 - 화장품","category":"beauty"},{"name":"아모레카운셀러","tel":"","addr":"경기도 의정부시 의정부동 228-26번지 플러스빌딩 4층","indutype":"보건위생 - 화장품","category":"beauty"},{"name":"아모레카운셀러","tel":"031-846-0040","addr":"경기도 의정부시 의정부동 228-26번지 플러스빌딩 4층","indutype":"보건위생 - 화장품","category":"beauty"},{"name":"아모레카운셀러","tel":"031-844-6232","addr":"경기도 의정부시 의정부동 228-26번지 플러스빌딩 4층","indutype":"보건위생 - 화장품","category":"beauty"},{"name":"아모레카운셀러","tel":"031-846-0040","addr":"경기도 의정부시 의정부동 228-26번지 플러스빌딩 4층","indutype":"보건위생 - 화장품","category":"beauty"},{"name":"아모레카운셀러","tel":"031-846-0040","addr":"경기도 의정부시 의정부동 228-26번지 플러스빌딩 4층","indutype":"보건위생 - 화장품","category":"beauty"},{"name":"아모레카운셀러","tel":"031-846-0040","addr":"경기도 의정부시 의정부동 228-26번지","indutype":"보건위생 - 화장품","category":"beauty"},{"name":"아모레카운셀러","tel":"031-846-0040","addr":"경기도 의정부시 의정부동 228-26번지 플러스빌딩 4층","indutype":"보건위생 - 화장품","category":"beauty"},{"name":"아모레카운셀러","tel":"031-846-0040","addr":"경기도 의정부시 의정부동 228-26번지 플러스빌딩 4층","indutype":"보건위생 - 화장품","category":"beauty"},{"name":"아모레카운셀러","tel":"031-846-0040","addr":"경기도 의정부시 의정부동 228-26번지 플러스빌딩 4층","indutype":"보건위생 - 화장품","category":"beauty"},{"name":"아모레카운셀러","tel":"031-846-0040","addr":"경기도 의정부시 의정부동 228-26번지 플러스빌딩 4층","indutype":"보건위생 - 화장품","category":"beauty"},{"name":"아모레카운셀러","tel":"031-846-0040","addr":"경기도 의정부시 의정부동 228-26번지 4층","indutype":"보건위생 - 화장품","category":"beauty"},{"name":"아모레카운셀러","tel":"031-846-0040","addr":"경기도 의정부시 의정부동 228-26번지 의정부동플러스빌딩 4층","indutype":"보건위생 - 화장품","category":"beauty"},{"name":"아모레카운셀러","tel":"031-846-0040","addr":"경기도 의정부시 의정부동 228-26번지 플러스빌딩 4층","indutype":"보건위생 - 화장품","category":"beauty"},{"name":"아모레카운셀러","tel":"031-846-0040","addr":"경기도 의정부시 의정부동 228-26번지 플러스빌딩 4층","indutype":"보건위생 - 화장품","category":"beauty"},{"name":"아모레카운셀러","tel":"031-846-0040","addr":"경기도 의정부시 의정부동 228-26번지 플러스빌딩 4층","indutype":"보건위생 - 화장품","category":"beauty"},{"name":"아모레카운셀러","tel":"031-846-0040","addr":"경기도 의정부시 의정부동 228-26번지 플러스빌딩 4층","indutype":"보건위생 - 화장품","category":"beauty"},{"name":"아모레카운셀러","tel":"031-846-0040","addr":"경기도 의정부시 의정부동 228-26번지 플러스빌딩 4층","indutype":"보건위생 - 화장품","category":"beauty"},{"name":"아모레카운셀러","tel":"031-846-0040","addr":"경기도 의정부시 의정부동 228-26번지 플러스빌딩 4층","indutype":"보건위생 - 화장품","category":"beauty"},{"name":"아모레카운셀러","tel":"031-846-0040","addr":"경기도 의정부시 의정부동 228-26번지 플러스빌딩 4층","indutype":"보건위생 - 화장품","category":"beauty"},{"name":"아모레카운셀러","tel":"031-846-0040","addr":"경기도 의정부시 의정부동 228-26번지 플러스빌딩 4층","indutype":"보건위생 - 화장품","category":"beauty"},{"name":"아모레카운셀러","tel":"031-846-0040","addr":"경기도 의정부시 의정부동 228-26번지 플러스빌딩 4층","indutype":"보건위생 - 화장품","category":"beauty"},{"name":"아모레퍼시픽 (가능특약점)","tel":"031-846-0040","addr":"경기도 의정부시 의정부동 228-26번지 플러스빌딩 4층","indutype":"보건위생 - 화장품","category":"beauty"},{"name":"아모레퍼시픽 가능특약점","tel":"031-846-0040","addr":"경기도 의정부시 의정부동 228-26번지 플러스빌딩 4층","indutype":"보건위생 - 화장품","category":"beauty"},{"name":"아모레퍼시픽 가능특약점","tel":"031-846-0040","addr":"경기도 의정부시 의정부동 228-26번지 플러스빌딩 4층","indutype":"보건위생 - 화장품","category":"beauty"},{"name":"아모레퍼시픽 카운셀러","tel":"031-846-0040","addr":"경기도 의정부시 의정부동 228-26번지 플러스빌딩 4층","indutype":"보건위생 - 화장품","category":"beauty"},{"name":"플러스안경","tel":"031-856-0231","addr":"경기도 의정부시 의정부동 228-26번지","indutype":"보건위생 - 안경","category":"beauty"}]},{"lat":"37.734210231","long":"127.04862224","imageIndex":13,"items":[{"name":"아모레","tel":"031-879-4533","addr":"경기도 의정부시 의정부동 127-6번지 해금빌딩 5층","indutype":"보건위생 - 화장품","category":"beauty"},{"name":"아모레","tel":"031-879-4533","addr":"경기도 의정부시 의정부동 127-6번지 해금빌딩 5층","indutype":"보건위생 - 화장품","category":"beauty"},{"name":"아모레장암영업소","tel":"031-879-4533","addr":"경기도 의정부시 의정부동 127-6번지 해남빌딩 5층","indutype":"보건위생 - 화장품","category":"beauty"},{"name":"아모레장암영업소","tel":"031-879-4533","addr":"경기도 의정부시 의정부동 127-6번지 해남빌딩 5층","indutype":"보건위생 - 화장품","category":"beauty"},{"name":"아모레장암영업소","tel":"031-879-4533","addr":"경기도 의정부시 의정부동 127-6번지 해남빌딩 5층","indutype":"보건위생 - 화장품","category":"beauty"},{"name":"태평양아모레","tel":"031-879-4533","addr":"경기도 의정부시 의정부동 127-6번지 해남빌딩 5층","indutype":"보건위생 - 화장품","category":"beauty"}]},{"lat":"37.738510339","long":"127.04151158","imageIndex":13,"items":[{"name":"아모레","tel":"031-837-7001","addr":"경기도 의정부시 의정부동 430-14번지 동원빌딩 7층","indutype":"보건위생 - 화장품","category":"beauty"},{"name":"아모레 카운셀러","tel":"031-837-7001","addr":"경기도 의정부시 의정부동 430-14번지 동원빌딩 7층","indutype":"보건위생 - 화장품","category":"beauty"},{"name":"아모레/고은희","tel":"031-837-7001","addr":"경기도 의정부시 의정부동 430-14번지 동원빌딩 7층","indutype":"보건위생 - 화장품","category":"beauty"},{"name":"아모레/구순옥","tel":"031-874-2637","addr":"경기도 의정부시 의정부동 430-14번지 동원빌딩 7층","indutype":"보건위생 - 화장품","category":"beauty"},{"name":"아모레/이외순","tel":"031-874-2782","addr":"경기도 의정부시 의정부동 430-14번지","indutype":"보건위생 - 화장품","category":"beauty"},{"name":"아모레/이철경","tel":"031-829-4997","addr":"경기도 의정부시 의정부동 430-14번지","indutype":"보건위생 - 화장품","category":"beauty"},{"name":"아모레/정애순","tel":"031-837-7001","addr":"경기도 의정부시 의정부동 430-14번지 동원빌딩 7층","indutype":"보건위생 - 화장품","category":"beauty"},{"name":"아모레/조정미","tel":"031-821-5794","addr":"경기도 의정부시 의정부동 430-14번지 동원빌딩 7층","indutype":"보건위생 - 화장품","category":"beauty"},{"name":"아모레/지정순","tel":"031-837-7001","addr":"경기도 의정부시 의정부동 430-14번지 동원빌딩 7층","indutype":"보건위생 - 화장품","category":"beauty"},{"name":"아모레/최순임","tel":"031-837-7001","addr":"경기도 의정부시 의정부동 430-14번지 동원빌딩 7층","indutype":"보건위생 - 화장품","category":"beauty"},{"name":"아모레카운셀러","tel":"031-837-7001","addr":"경기도 의정부시 의정부동 430-14번지 동원빌딩 7층","indutype":"보건위생 - 화장품","category":"beauty"},{"name":"아모레카운셀러","tel":"031-837-7001","addr":"경기도 의정부시 의정부동 430-14번지 동원빌딩 7층","indutype":"보건위생 - 화장품","category":"beauty"},{"name":"아모레카운셀러","tel":"031-837-7001","addr":"경기도 의정부시 의정부동 430-14번지 동원빌딩 7층","indutype":"보건위생 - 화장품","category":"beauty"},{"name":"아모레카운셀러","tel":"031-837-7002","addr":"경기도 의정부시 의정부동 430-14번지 동원빌딩 7층","indutype":"보건위생 - 화장품","category":"beauty"},{"name":"아모레카운셀러","tel":"031-837-7002","addr":"경기도 의정부시 의정부동 430-14번지 동원빌딩 7층","indutype":"보건위생 - 화장품","category":"beauty"},{"name":"아모레카운셀러","tel":"031-837-7001","addr":"경기도 의정부시 의정부동 430-14번지 동원빌딩 7층","indutype":"보건위생 - 화장품","category":"beauty"},{"name":"아모레카운셀러","tel":"031-837-7001","addr":"경기도 의정부시 의정부동 430-14번지 동원 7층","indutype":"보건위생 - 화장품","category":"beauty"},{"name":"아모레카운셀러","tel":"031-837-7001","addr":"경기도 의정부시 의정부동 430-14번지 동원빌딩 7층","indutype":"보건위생 - 화장품","category":"beauty"},{"name":"아모레카운셀러/김난숙","tel":"031-837-7001","addr":"경기도 의정부시 의정부동 430-14번지 동원빌딩 7층","indutype":"보건위생 - 화장품","category":"beauty"},{"name":"아모레카운셀러/이영자","tel":"031-837-7001","addr":"경기도 의정부시 의정부동 430-14번지 동원빌딩 7층","indutype":"보건위생 - 화장품","category":"beauty"},{"name":"열린아동청소년발달센터","tel":"031-847-8182","addr":"경기도 의정부시 의정부동 430-14번지 5층 1호","indutype":"보건위생 - 기타대인서비스","category":"beauty"}]},{"lat":"37.738457166","long":"127.03870935","imageIndex":13,"items":[{"name":"아모레 카운셀러","tel":"031-877-3838","addr":"경기도 의정부시 의정부동 486-11번지 네오 14층","indutype":"보건위생 - 화장품","category":"beauty"},{"name":"아모레 카운셀러","tel":"031-837-7001","addr":"경기도 의정부시 의정부동 486-11번지 네오 14층","indutype":"보건위생 - 화장품","category":"beauty"},{"name":"아모레카운셀러","tel":"031-837-7001","addr":"경기도 의정부시 의정부동 486-11번지 네오빌딩 14층","indutype":"보건위생 - 화장품","category":"beauty"},{"name":"아모레카운셀러","tel":"031-837-7001","addr":"경기도 의정부시 의정부동 486-11번지 네오 14층","indutype":"보건위생 - 화장품","category":"beauty"},{"name":"아모레카운셀러","tel":"031-837-7001","addr":"경기도 의정부시 의정부동 486-11번지 네오빌딩 14층","indutype":"보건위생 - 화장품","category":"beauty"},{"name":"아모레카운셀러","tel":"031-837-7001","addr":"경기도 의정부시 의정부동 486-11번지 네오 14층","indutype":"보건위생 - 화장품","category":"beauty"},{"name":"아모레카운셀러","tel":"031-837-7001","addr":"경기도 의정부시 의정부동 486-11번지 네오빌딩 14층","indutype":"보건위생 - 화장품","category":"beauty"},{"name":"아모레카운셀러","tel":"031-837-7001","addr":"경기도 의정부시 의정부동 486-11번지 네오타워빌딩 14층","indutype":"보건위생 - 화장품","category":"beauty"},{"name":"아모레카운셀러","tel":"031-837-7001","addr":"경기도 의정부시 의정부동 486-11번지 네오타워빌딩 14층","indutype":"보건위생 - 화장품","category":"beauty"},{"name":"아모레카운셀러","tel":"031-837-7001","addr":"경기도 의정부시 의정부동 486-11번지 네오빌딩 14층","indutype":"보건위생 - 화장품","category":"beauty"},{"name":"아모레카운셀러","tel":"031-837-7001","addr":"경기도 의정부시 의정부동 486-11번지 네오플러스 14층","indutype":"보건위생 - 화장품","category":"beauty"},{"name":"아모레카운셀러","tel":"031-837-7001","addr":"경기도 의정부시 의정부동 486-11번지 네오 14층","indutype":"보건위생 - 화장품","category":"beauty"},{"name":"아모레카운셀러","tel":"031-837-7001","addr":"경기도 의정부시 의정부동 486-11번지 네오플러스 14층","indutype":"보건위생 - 화장품","category":"beauty"},{"name":"아모레카운셀러","tel":"031-837-7001","addr":"경기도 의정부시 의정부동 486-11번지 네오빌딩 14층","indutype":"보건위생 - 화장품","category":"beauty"},{"name":"아모레카운셀러","tel":"031-837-7001","addr":"경기도 의정부시 의정부동 486-11번지 네오빌딩 14층","indutype":"보건위생 - 화장품","category":"beauty"}]},{"lat":"37.75045581","long":"127.04501261","imageIndex":13,"items":[{"name":"아모레외판","tel":"031-844-6232","addr":"경기도 의정부시 의정부동 232-9번지 용진빌딩 4층","indutype":"보건위생 - 화장품","category":"beauty"},{"name":"아모레외판","tel":"031-844-6232","addr":"경기도 의정부시 의정부동 232-9번지 용진빌딩 4층","indutype":"보건위생 - 화장품","category":"beauty"}]},{"lat":"37.732733744","long":"127.04573993","imageIndex":13,"items":[{"name":"아모레장암특약점","tel":"031-879-4533","addr":"경기도 의정부시 의정부동 582-3번지 대자빌딩 4층","indutype":"보건위생 - 화장품","category":"beauty"}]},{"lat":"37.744128511","long":"127.0517371","imageIndex":13,"items":[{"name":"아모레퍼시픽","tel":"031-824-6122","addr":"경기도 의정부시 의정부동 9-24번지 원승빌딩 5층","indutype":"보건위생 - 화장품","category":"beauty"},{"name":"아모레퍼시픽","tel":"031-844-3302","addr":"경기도 의정부시 의정부동 9-24번지 원승빌딩 5층","indutype":"보건위생 - 화장품","category":"beauty"},{"name":"아모레퍼시픽","tel":"031-844-3302","addr":"경기도 의정부시 의정부동 9-24번지 원승빌딩 5층","indutype":"보건위생 - 화장품","category":"beauty"},{"name":"아모레퍼시픽","tel":"031-844-3302","addr":"경기도 의정부시 의정부동 9-24번지 원승빌딩 5층","indutype":"보건위생 - 화장품","category":"beauty"},{"name":"아모레퍼시픽","tel":"031-844-3302","addr":"경기도 의정부시 의정부동 9-24번지 원승빌딩 5층","indutype":"보건위생 - 화장품","category":"beauty"},{"name":"아모레퍼시픽리리코스뷰레이터","tel":"031-844-3302","addr":"경기도 의정부시 의정부동 9-24번지 원승빌딩","indutype":"보건위생 - 화장품","category":"beauty"},{"name":"아모레퍼시픽리리코스뷰레이터","tel":"031-844-3302","addr":"경기도 의정부시 의정부동 9-24번지 원승빌딩 5층","indutype":"보건위생 - 화장품","category":"beauty"},{"name":"아모레퍼시픽뷰레이터","tel":"031-844-3302","addr":"경기도 의정부시 의정부동 9-24번지 원승빌딩 5층","indutype":"보건위생 - 화장품","category":"beauty"},{"name":"아모레퍼시픽뷰레이터","tel":"","addr":"경기도 의정부시 의정부동 9-24번지 원승빌딩 2층","indutype":"보건위생 - 화장품","category":"beauty"},{"name":"아모레퍼시픽뷰레이터","tel":"031-844-3302","addr":"경기도 의정부시 의정부동 9-24번지 원승빌딩 2층","indutype":"보건위생 - 화장품","category":"beauty"},{"name":"아모레퍼시픽뷰레이터","tel":"02-558-4601","addr":"경기도 의정부시 의정부동 9-24번지 원승빌딩 2층","indutype":"보건위생 - 화장품","category":"beauty"},{"name":"아모레퍼시픽뷰레이터","tel":"031-844-3302","addr":"경기도 의정부시 의정부동 9-24번지 5층","indutype":"보건위생 - 화장품","category":"beauty"},{"name":"아모레퍼시픽뷰레이터","tel":"031-844-3302","addr":"경기도 의정부시 의정부동 9-24번지 원승빌딩 2층","indutype":"보건위생 - 화장품","category":"beauty"},{"name":"아모레퍼시픽뷰레이터","tel":"031-856-4870","addr":"경기도 의정부시 의정부동 9-24번지 원승빌딩 2층","indutype":"보건위생 - 화장품","category":"beauty"},{"name":"아모레퍼시픽뷰레이터","tel":"031-844-3303","addr":"경기도 의정부시 의정부동 9-24번지 원승빌딩 5층","indutype":"보건위생 - 화장품","category":"beauty"},{"name":"아모레퍼시픽뷰레이터","tel":"031-844-3302","addr":"경기도 의정부시 의정부동 9-24번지 원승빌딩 5층","indutype":"보건위생 - 화장품","category":"beauty"},{"name":"아모레퍼시픽뷰레이터","tel":"031-844-3302","addr":"경기도 의정부시 의정부동 9-24번지 원승빌딩 5층","indutype":"보건위생 - 화장품","category":"beauty"},{"name":"에스테라피의정부지사","tel":"031-844-3302","addr":"경기도 의정부시 의정부동 9-24번지 원승빌딩 5층","indutype":"보건위생 - 화장품","category":"beauty"},{"name":"태평양뷰레이터","tel":"031-851-4907","addr":"경기도 의정부시 의정부동 9-24번지 원승빌딩 2층","indutype":"보건위생 - 화장품","category":"beauty"},{"name":"태평양뷰레이터","tel":"031-844-3022","addr":"경기도 의정부시 의정부동 9-24운승빌딩2","indutype":"보건위생 - 화장품","category":"beauty"},{"name":"태평양뷰레이터","tel":"031-846-1626","addr":"경기도 의정부시 의정부동 9-24번지 원승빌딩 2층","indutype":"보건위생 - 화장품","category":"beauty"}]},{"lat":"37.741399281","long":"127.05010157","imageIndex":13,"items":[{"name":"아이요(EYE YO)","tel":"031-848-2144","addr":"경기도 의정부시 의정부동 155-9번지 1층","indutype":"보건위생 - 안경","category":"beauty"}]},{"lat":"37.737154776","long":"127.052538","imageIndex":13,"items":[{"name":"아쥬반 헤어 살롱","tel":"031-873-3020","addr":"경기도 의정부시 의정부동 358번지 2층","indutype":"보건위생 - 미용원","category":"beauty"}]},{"lat":"37.743183982","long":"127.04803779","imageIndex":13,"items":[{"name":"아쿠아미용실","tel":"031-826-5465","addr":"경기도 의정부시 의정부동 204-18번지 1층","indutype":"보건위생 - 미용원","category":"beauty"}]},{"lat":"37.735484439","long":"127.03726716","imageIndex":13,"items":[{"name":"아트헤어","tel":"031-6413-3347","addr":"경기도 의정부시 의정부동 522-8번지 1층","indutype":"보건위생 - 미용원","category":"beauty"}]},{"lat":"37.746708431","long":"127.0433199","imageIndex":13,"items":[{"name":"안스아트(An'sArt)","tel":"031-837-7022","addr":"경기도 의정부시 의정부동 416번지","indutype":"보건위생 - 미용재료","category":"beauty"}]},{"lat":"37.735322332","long":"127.0370402","imageIndex":13,"items":[{"name":"알호스","tel":"031-872-5904","addr":"경기도 의정부시 의정부동 530-4번지","indutype":"보건위생 - 화장품","category":"beauty"}]},{"lat":"37.736600492","long":"127.0409547","imageIndex":13,"items":[{"name":"앙포레모리노헤어","tel":"031-876-9992","addr":"경기도 의정부시 의정부동 508-11번지 1층","indutype":"보건위생 - 미용원","category":"beauty"}]},{"lat":"37.735652081","long":"127.04779498","imageIndex":13,"items":[{"name":"애체안경,콘택트","tel":"031-878-6664","addr":"경기도 의정부시 의정부동 141-24외10필지역지하상가서부나동124.135","indutype":"보건위생 - 안경","category":"beauty"}]},{"lat":"37.742012609","long":"127.04837744","imageIndex":13,"items":[{"name":"앨리스","tel":"","addr":"경기도 의정부시 의정부동 191-7번지 205호","indutype":"보건위생 - 미용재료","category":"beauty"},{"name":"잇츠랫쉬 앤 네일","tel":"","addr":"경기도 의정부시 의정부동 191-7번지 3층 301호","indutype":"보건위생 - 피부미용실","category":"beauty"}]},{"lat":"37.734932828","long":"127.04363114","imageIndex":13,"items":[{"name":"약손힐링(세계자연치유학회)","tel":"031-842-6194","addr":"경기도 의정부시 의정부동 567-3번지 송루빌딩 405호","indutype":"보건위생 - 기타대인서비스","category":"beauty"}]},{"lat":"37.740320664","long":"127.04329373","imageIndex":13,"items":[{"name":"어나더미헤어","tel":"","addr":"경기도 의정부시 의정부동 440-2번지 2층","indutype":"보건위생 - 미용원","category":"beauty"},{"name":"팝콘뷰티","tel":"","addr":"경기도 의정부시 의정부동 440-2번지 2층","indutype":"보건위생 - 피부미용실","category":"beauty"}]},{"lat":"37.740679481","long":"127.04762784","imageIndex":13,"items":[{"name":"어바웃 어스","tel":"031-841-8181","addr":"경기도 의정부시 의정부동 197-10번지 2층","indutype":"보건위생 - 미용원","category":"beauty"}]},{"lat":"37.745211705","long":"127.04651865","imageIndex":13,"items":[{"name":"에스 덴탈","tel":"","addr":"경기도 의정부시 의정부동 227-37번지 1층","indutype":"보건위생 - 의료용품","category":"beauty"},{"name":"친정맘","tel":"031-821-5279","addr":"경기도 의정부시 의정부동 227-37번지 1층","indutype":"보건위생 - 기타대인서비스","category":"beauty"}]},{"lat":"37.739372486","long":"127.04920402","imageIndex":13,"items":[{"name":"에스엠(SMTATTOO)","tel":"","addr":"경기도 의정부시 의정부동 177-8번지 3층","indutype":"보건위생 - 기타대인서비스","category":"beauty"}]},{"lat":"37.739403754","long":"127.03673575","imageIndex":13,"items":[{"name":"에스테틱 준앤티파니 (Jun&Tiffany)","tel":"","addr":"경기도 의정부시 의정부동 480번지","indutype":"보건위생 - 피부미용실","category":"beauty"}]},{"lat":"37.732908027","long":"127.03613156","imageIndex":13,"items":[{"name":"에스피 커머스","tel":"031-865-8821","addr":"경기도 의정부시 의정부동 534-4번지 3층 304호","indutype":"보건위생 - 의료용품","category":"beauty"}]},{"lat":"37.741760585","long":"127.04774194","imageIndex":13,"items":[{"name":"에이치엘헤어(HL헤어)","tel":"031-848-0272","addr":"경기도 의정부시 의정부동 199-3번지 우미쁘띠린1차 108호","indutype":"보건위생 - 미용원","category":"beauty"}]},{"lat":"37.747455571","long":"127.0451811","imageIndex":13,"items":[{"name":"엠 미용재료","tel":"","addr":"경기도 의정부시 의정부동 236-34번지 1층","indutype":"보건위생 - 미용재료","category":"beauty"}]},{"lat":"37.737596708","long":"127.0514265","imageIndex":13,"items":[{"name":"엠(M)","tel":"070-7862-1697","addr":"경기도 의정부시 의정부동 146-6번지","indutype":"보건위생 - 미용재료","category":"beauty"}]},{"lat":"37.733542229","long":"127.05184359","imageIndex":13,"items":[{"name":"엣지헤어샵","tel":"031-877-0408","addr":"경기도 의정부시 의정부동 365-63번지 1층","indutype":"보건위생 - 미용원","category":"beauty"}]},{"lat":"37.735066259","long":"127.04831647","imageIndex":13,"items":[{"name":"여우머리방","tel":"031-875-8356","addr":"경기도 의정부시 의정부동 137-14번지","indutype":"보건위생 - 미용원","category":"beauty"}]},{"lat":"37.73903969","long":"127.04776299","imageIndex":13,"items":[{"name":"여인세상","tel":"031-846-1458","addr":"경기도 의정부시 의정부동 195-17번지","indutype":"보건위생 - 화장품","category":"beauty"}]},{"lat":"37.746148091","long":"127.04813036","imageIndex":13,"items":[{"name":"연헤어이야기","tel":"031-856-4404","addr":"경기도 의정부시 의정부동 218-29번지","indutype":"보건위생 - 미용원","category":"beauty"}]},{"lat":"37.744373339","long":"127.0477889","imageIndex":13,"items":[{"name":"영빈미용실","tel":"031-878-5279","addr":"경기도 의정부시 의정부동 221-28번지","indutype":"보건위생 - 미용원","category":"beauty"}]},{"lat":"37.738065767","long":"127.05004273","imageIndex":13,"items":[{"name":"예뻐네일","tel":"","addr":"경기도 의정부시 의정부동 172-10번지","indutype":"보건위생 - 피부미용실","category":"beauty"}]},{"lat":"37.740958565","long":"127.04818393","imageIndex":13,"items":[{"name":"예쁜날","tel":"031-848-3595","addr":"경기도 의정부시 의정부동 198-16번지 3층","indutype":"보건위생 - 미용원","category":"beauty"}]},{"lat":"37.73193305","long":"127.04242703","imageIndex":13,"items":[{"name":"예쁜머리","tel":"","addr":"경기도 의정부시 의정부동 595-7번지 1층","indutype":"보건위생 - 미용원","category":"beauty"}]},{"lat":"37.733824124","long":"127.04512797","imageIndex":13,"items":[{"name":"예원미용실","tel":"031-877-9572","addr":"경기도 의정부시 의정부동 579-6 신영그린빌라상가1층","indutype":"보건위생 - 미용원","category":"beauty"}]},{"lat":"37.742932359","long":"127.04632444","imageIndex":13,"items":[{"name":"오드리","tel":"031-838-9020","addr":"경기도 의정부시 의정부동 206-8번지 3층","indutype":"보건위생 - 피부미용실","category":"beauty"}]},{"lat":"37.739958643","long":"127.04782027","imageIndex":13,"items":[{"name":"오드리뷰티","tel":"031-846-6003","addr":"경기도 의정부시 의정부동 196-12번지 퍼시픽타워 102호","indutype":"보건위생 - 피부미용실","category":"beauty"}]},{"lat":"37.74003945","long":"127.04854641","imageIndex":13,"items":[{"name":"오렌즈의정부점","tel":"031-847-5002","addr":"경기도 의정부시 의정부동 194-8번지","indutype":"보건위생 - 안경","category":"beauty"},{"name":"파란헤어(의정부점)","tel":"02-1588-2297","addr":"경기도 의정부시 의정부동 194-8번지","indutype":"보건위생 - 미용원","category":"beauty"}]},{"lat":"37.747453403","long":"127.05084293","imageIndex":13,"items":[{"name":"오로라미용실","tel":"031-846-5178","addr":"경기도 의정부시 의정부동 6-4번지 1층","indutype":"보건위생 - 미용원","category":"beauty"}]},{"lat":"37.733608076","long":"127.04461736","imageIndex":13,"items":[{"name":"오오대리운전","tel":"031-874-0505","addr":"경기도 의정부시 의정부동 575-2번지 진송빌라 D동 101호","indutype":"보건위생 - 기타대인서비스","category":"beauty"}]},{"lat":"37.741014295","long":"127.04360043","imageIndex":13,"items":[{"name":"와와네일","tel":"","addr":"경기도 의정부시 의정부동 434-6번지 1층","indutype":"보건위생 - 피부미용실","category":"beauty"}]},{"lat":"37.737241002","long":"127.03828901","imageIndex":13,"items":[{"name":"왁싱나우(WAXING NOW)","tel":"070-7559-4484","addr":"경기도 의정부시 의정부동 513-1번지 스타프라자 4층 401호","indutype":"보건위생 - 기타대인서비스","category":"beauty"},{"name":"휴태국맛사지용품샵","tel":"031-826-3020","addr":"경기도 의정부시 의정부동 513-1번지 스타프라자 201호","indutype":"보건위생 - 화장품","category":"beauty"}]},{"lat":"37.742489605","long":"127.04968248","imageIndex":13,"items":[{"name":"요한작업실","tel":"031-827-5420","addr":"경기도 의정부시 의정부동 189-3번지 지상1층","indutype":"보건위생 - 미용원","category":"beauty"}]},{"lat":"37.734741359","long":"127.04973432","imageIndex":13,"items":[{"name":"용천당","tel":"031-877-0312","addr":"경기도 의정부시 의정부동 98-9번지 2층","indutype":"보건위생 - 기타대인서비스","category":"beauty"}]},{"lat":"37.735876641","long":"127.04954218","imageIndex":13,"items":[{"name":"용호신당용화도령","tel":"","addr":"경기도 의정부시 의정부동 136-1번지 순영A타워 2003호","indutype":"보건위생 - 기타대인서비스","category":"beauty"}]},{"lat":"37.733708203","long":"127.04162253","imageIndex":13,"items":[{"name":"원더우먼","tel":"031-000-0000","addr":"경기도 의정부시 의정부동 562-15번지 1층","indutype":"보건위생 - 피부미용실","category":"beauty"}]},{"lat":"37.736412364","long":"127.0374718","imageIndex":13,"items":[{"name":"원왕손금철학연구원","tel":"031-871-9340","addr":"경기도 의정부시 의정부동 520-1번지 부림빌라 가동 401호","indutype":"보건위생 - 기타대인서비스","category":"beauty"}]},{"lat":"37.738767984","long":"127.05134785","imageIndex":13,"items":[{"name":"웰빙피부","tel":"031-837-6804","addr":"경기도 의정부시 의정부동 147-27번지 2층 201호","indutype":"보건위생 - 피부미용실","category":"beauty"}]},{"lat":"37.735102082","long":"127.04887237","imageIndex":13,"items":[{"name":"위드유","tel":"031-844-1006","addr":"경기도 의정부시 의정부동 137-1번지 1층","indutype":"보건위생 - 미용원","category":"beauty"}]},{"lat":"37.743350044","long":"127.03637449","imageIndex":13,"items":[{"name":"위드주영","tel":"","addr":"경기도 의정부시 의정부동 335-30번지 2층","indutype":"보건위생 - 미용원","category":"beauty"}]},{"lat":"37.735653803","long":"127.04301893","imageIndex":13,"items":[{"name":"유림","tel":"031-873-8350","addr":"경기도 의정부시 의정부동 566번지 양준빌딩 3층","indutype":"보건위생 - 이용원","category":"beauty"}]},{"lat":"37.736069041","long":"127.04060275","imageIndex":13,"items":[{"name":"유스페셜(Uspecial)","tel":"","addr":"경기도 의정부시 의정부동 510번지 경기도북부여성비전센터 1층 114호","indutype":"보건위생 - 미용재료","category":"beauty"}]},{"lat":"37.73790425","long":"127.04837493","imageIndex":13,"items":[{"name":"유올브로우","tel":"","addr":"경기도 의정부시 의정부동 141-19번지 2층","indutype":"보건위생 - 피부미용실","category":"beauty"}]},{"lat":"37.735399591","long":"127.0483734","imageIndex":13,"items":[{"name":"유진상사","tel":"031-877-0215","addr":"경기도 의정부시 의정부동 138-28번지","indutype":"보건위생 - 화장품","category":"beauty"}]},{"lat":"37.74110123","long":"127.0519053","imageIndex":13,"items":[{"name":"유헤어라인","tel":"031-821-6200","addr":"경기도 의정부시 의정부동 34-6번지 1층","indutype":"보건위생 - 미용원","category":"beauty"}]},{"lat":"37.739266023","long":"127.04479071","imageIndex":13,"items":[{"name":"육임당철학원","tel":"031-878-4619","addr":"경기도 의정부시 의정부동 439-23번지 해태프라자 5층 501-1호","indutype":"보건위생 - 기타대인서비스","category":"beauty"},{"name":"파코메리","tel":"031-855-1603","addr":"경기도 의정부시 의정부동 439-23번지 해태프라자 1동 1603호","indutype":"보건위생 - 화장품","category":"beauty"}]},{"lat":"37.733518593","long":"127.04284761","imageIndex":13,"items":[{"name":"윤메디케어","tel":"","addr":"경기도 의정부시 의정부동 563-8번지 1층 102-A04호","indutype":"보건위생 - 의료용품","category":"beauty"}]},{"lat":"37.739817617","long":"127.03868731","imageIndex":13,"items":[{"name":"윤선영헤어샵","tel":"031-876-1208","addr":"경기도 의정부시 의정부동 484번지 1층","indutype":"보건위생 - 미용원","category":"beauty"}]},{"lat":"37.739651867","long":"127.04898864","imageIndex":13,"items":[{"name":"으뜸50안경원","tel":"031-843-8671","addr":"경기도 의정부시 의정부동 179-15번지 2층","indutype":"보건위생 - 안경","category":"beauty"}]},{"lat":"37.73873637","long":"127.0390158","imageIndex":13,"items":[{"name":"은성사","tel":"","addr":"경기도 의정부시 의정부동 486-4번지 덕암오피스텔 B1층","indutype":"보건위생 - 의료용품","category":"beauty"},{"name":"휠마스터","tel":"031-827-1862","addr":"경기도 의정부시 의정부동 486-4번지 덕양오피스텔 지하1층 6-23호","indutype":"보건위생 - 의료용품","category":"beauty"}]},{"lat":"37.745958881","long":"127.04815293","imageIndex":13,"items":[{"name":"의정사","tel":"070-8759-3511","addr":"경기도 의정부시 의정부동 219-16번지","indutype":"보건위생 - 미용재료","category":"beauty"}]},{"lat":"37.736871372","long":"127.03907162","imageIndex":13,"items":[{"name":"이고은헤어필","tel":"031-874-3231","addr":"경기도 의정부시 의정부동 514-2번지 청솔빌라 102호","indutype":"보건위생 - 미용원","category":"beauty"}]},{"lat":"37.748203261","long":"127.04546519","imageIndex":13,"items":[{"name":"이니스프리가능점","tel":"031-821-9828","addr":"경기도 의정부시 의정부동 228-32번지 9호,1층전체","indutype":"보건위생 - 화장품","category":"beauty"}]},{"lat":"37.739039336","long":"127.04868194","imageIndex":13,"items":[{"name":"이니스프리의정부점","tel":"031-845-2808","addr":"경기도 의정부시 의정부동 176-12번지","indutype":"보건위생 - 화장품","category":"beauty"}]},{"lat":"37.737624975","long":"127.04831803","imageIndex":13,"items":[{"name":"이다영헤어플랙스","tel":"031-876-2402","addr":"경기도 의정부시 의정부동 140-1번지 외1필지 지상 1층","indutype":"보건위생 - 미용원","category":"beauty"}]},{"lat":"37.742065608","long":"127.05104367","imageIndex":13,"items":[{"name":"이브스","tel":"031-848-0706","addr":"경기도 의정부시 의정부동 152-21번지","indutype":"보건위생 - 화장품","category":"beauty"},{"name":"이브스 네일","tel":"031-848-0706","addr":"경기도 의정부시 의정부동 152-21번지 1층","indutype":"보건위생 - 피부미용실","category":"beauty"},{"name":"이브스 네일","tel":"031-848-0704","addr":"경기도 의정부시 의정부동 152-21번지 1층","indutype":"보건위생 - 화장품","category":"beauty"}]},{"lat":"37.739650747","long":"127.0517682","imageIndex":13,"items":[{"name":"이수경헤어캐스팅","tel":"031-842-3491","addr":"경기도 의정부시 의정부동 125-3번지","indutype":"보건위생 - 미용원","category":"beauty"}]},{"lat":"37.732961636","long":"127.03768573","imageIndex":13,"items":[{"name":"이안메디칼","tel":"031-837-7694","addr":"경기도 의정부시 의정부동 542-11지상2층3층","indutype":"보건위생 - 의료용품","category":"beauty"}]},{"lat":"37.741182763","long":"127.05081619","imageIndex":13,"items":[{"name":"이영선미용실","tel":"031-821-0166","addr":"경기도 의정부시 의정부동 157-1번지","indutype":"보건위생 - 미용원","category":"beauty"}]},{"lat":"37.740317455","long":"127.05176864","imageIndex":13,"items":[{"name":"이원건강의료기 의정부제일시장점","tel":"031-846-3343","addr":"경기도 의정부시 의정부동 121-1번지","indutype":"보건위생 - 의료용품","category":"beauty"}]},{"lat":"37.74621077","long":"127.04912886","imageIndex":13,"items":[{"name":"이지젠","tel":"","addr":"경기도 의정부시 의정부동 218-54번지 드림빌12차 4층","indutype":"보건위생 - 화장품","category":"beauty"}]},{"lat":"37.737823186","long":"127.04831815","imageIndex":13,"items":[{"name":"이지현헤어","tel":"031-829-4266","addr":"경기도 의정부시 의정부동 141-21번지","indutype":"보건위생 - 미용원","category":"beauty"}]},{"lat":"37.740597871","long":"127.04898922","imageIndex":13,"items":[{"name":"이태리안경","tel":"031-848-1041","addr":"경기도 의정부시 의정부동 181-3번지","indutype":"보건위생 - 안경","category":"beauty"}]},{"lat":"37.733572005","long":"127.04470809","imageIndex":13,"items":[{"name":"이한헤어","tel":"031-823-2526","addr":"경기도 의정부시 의정부동 575-10번지 1층","indutype":"보건위생 - 미용원","category":"beauty"}]},{"lat":"37.732123682","long":"127.03790087","imageIndex":13,"items":[{"name":"인우불한증막","tel":"031-826-7770","addr":"경기도 의정부시 의정부동 610-6번지 인우빌딩","indutype":"보건위생 - 사우나","category":"beauty"},{"name":"헤어락","tel":"031-878-6626","addr":"경기도 의정부시 의정부동 610-6번지","indutype":"보건위생 - 미용원","category":"beauty"}]},{"lat":"37.738677682","long":"127.05184697","imageIndex":13,"items":[{"name":"일공공일안경원","tel":"031-843-6001","addr":"경기도 의정부시 의정부동 126-7번지 1층","indutype":"보건위생 - 안경","category":"beauty"}]},{"lat":"37.739904126","long":"127.04901148","imageIndex":13,"items":[{"name":"일센티네일(1cm nail)","tel":"070-7639-4141","addr":"경기도 의정부시 의정부동 179-5번지 2층","indutype":"보건위생 - 피부미용실","category":"beauty"}]},{"lat":"37.738570751","long":"127.04890855","imageIndex":13,"items":[{"name":"자스민헤어","tel":"031-845-8808","addr":"경기도 의정부시 의정부동 173-3번지 2층","indutype":"보건위생 - 미용원","category":"beauty"}]},{"lat":"37.738290938","long":"127.05021305","imageIndex":13,"items":[{"name":"정샘","tel":"031-841-8886","addr":"경기도 의정부시 의정부동 172-41번지 1층","indutype":"보건위생 - 화장품","category":"beauty"}]},{"lat":"37.741984761","long":"127.05045365","imageIndex":13,"items":[{"name":"정안경","tel":"031-841-0606","addr":"경기도 의정부시 의정부동 155-8번지","indutype":"보건위생 - 안경","category":"beauty"}]},{"lat":"37.739122094","long":"127.04415531","imageIndex":13,"items":[{"name":"정우치과기공소","tel":"031-872-2804","addr":"경기도 의정부시 의정부동 439-8번지 2층","indutype":"보건위생 - 의료용품","category":"beauty"}]},{"lat":"37.739041885","long":"127.04156859","imageIndex":13,"items":[{"name":"정헤어(프로패셔널 헤어샵)","tel":"","addr":"경기도 의정부시 의정부동 429-14번지 1층","indutype":"보건위생 - 미용원","category":"beauty"}]},{"lat":"37.738318323","long":"127.04931681","imageIndex":13,"items":[{"name":"제이붐(J-BOOM)헤어","tel":"031-848-8899","addr":"경기도 의정부시 의정부동 173-11번지 2층","indutype":"보건위생 - 미용원","category":"beauty"}]},{"lat":"37.733761859","long":"127.04282505","imageIndex":13,"items":[{"name":"제이스메디칼","tel":"031-878-9960","addr":"경기도 의정부시 의정부동 562-7번지 404호","indutype":"보건위생 - 의료용품","category":"beauty"},{"name":"조인덴탈","tel":"070-8731-4051","addr":"경기도 의정부시 의정부동 562-7번지","indutype":"보건위생 - 의료용품","category":"beauty"}]},{"lat":"37.743129396","long":"127.04939924","imageIndex":13,"items":[{"name":"제이앤제이미용실","tel":"031-848-0470","addr":"경기도 의정부시 의정부동 187-34번지","indutype":"보건위생 - 미용원","category":"beauty"}]},{"lat":"37.738210132","long":"127.04950961","imageIndex":13,"items":[{"name":"제이헤어(J HAIR)","tel":"031-821-0098","addr":"경기도 의정부시 의정부동 173-20번지","indutype":"보건위생 - 미용원","category":"beauty"}]},{"lat":"37.749013755","long":"127.04646415","imageIndex":13,"items":[{"name":"젠틀맨남성컷전문점","tel":"031-846-5559","addr":"경기도 의정부시 의정부동 230-1번지 용빌딩 1층","indutype":"보건위생 - 미용원","category":"beauty"}]},{"lat":"37.736708607","long":"127.04095476","imageIndex":13,"items":[{"name":"주식회사 메디컬오","tel":"02-868-1075","addr":"경기도 의정부시 의정부동 508-16번지 지하1층 101호","indutype":"보건위생 - 화장품","category":"beauty"}]},{"lat":"37.733545525","long":"127.04313123","imageIndex":13,"items":[{"name":"주식회사 세중인터내셔널","tel":"031-842-8774","addr":"경기도 의정부시 의정부동 564번지 4층","indutype":"보건위생 - 화장품","category":"beauty"}]},{"lat":"37.743211858","long":"127.04576866","imageIndex":13,"items":[{"name":"주식회사 에스프로코리아","tel":"070-4110-7979","addr":"경기도 의정부시 의정부동 207-1번지","indutype":"보건위생 - 화장품","category":"beauty"}]},{"lat":"37.732961743","long":"127.03732272","imageIndex":13,"items":[{"name":"주식회사유황","tel":"031-826-6780","addr":"경기도 의정부시 의정부동 542-5번지 201호","indutype":"보건위생 - 화장품","category":"beauty"}]},{"lat":"37.736263222","long":"127.0515958","imageIndex":13,"items":[{"name":"주영헤어","tel":"","addr":"경기도 의정부시 의정부동 96-11번지","indutype":"보건위생 - 미용원","category":"beauty"}]},{"lat":"37.739877643","long":"127.04759332","imageIndex":13,"items":[{"name":"지멘스보청기 의정부센터","tel":"031-847-8083","addr":"경기도 의정부시 의정부동 196-26번지","indutype":"보건위생 - 의료용품","category":"beauty"}]},{"lat":"37.731653581","long":"127.04293736","imageIndex":13,"items":[{"name":"지선메이크업","tel":"070-8276-1322","addr":"경기도 의정부시 의정부동 595-5번지 한강빌라 401호","indutype":"보건위생 - 미용원","category":"beauty"}]},{"lat":"37.741434939","long":"127.05104326","imageIndex":13,"items":[{"name":"지오네일","tel":"031-846-8330","addr":"경기도 의정부시 의정부동 151-12번지 1층","indutype":"보건위생 - 피부미용실","category":"beauty"}]},{"lat":"37.739817398","long":"127.03940206","imageIndex":13,"items":[{"name":"진스헤어","tel":"031-878-9951","addr":"경기도 의정부시 의정부동 485-1번지 신혼빌라트 103호","indutype":"보건위생 - 미용원","category":"beauty"}]},{"lat":"37.738849667","long":"127.04987305","imageIndex":13,"items":[{"name":"차공장 의정부점","tel":"031-840-1115","addr":"경기도 의정부시 의정부동 170-10번지","indutype":"보건위생 - 화장품","category":"beauty"}]},{"lat":"37.73962515","long":"127.04818311","imageIndex":13,"items":[{"name":"착한네일","tel":"031-856-4109","addr":"경기도 의정부시 의정부동 195-1번지 전부 지하1층","indutype":"보건위생 - 미용재료","category":"beauty"}]},{"lat":"37.740652539","long":"127.04740091","imageIndex":13,"items":[{"name":"착한머리","tel":"031-845-3434","addr":"경기도 의정부시 의정부동 197-9번지 2층","indutype":"보건위생 - 미용원","category":"beauty"}]},{"lat":"37.735429677","long":"127.03960411","imageIndex":13,"items":[{"name":"착한머리","tel":"031-879-3715","addr":"경기도 의정부시 의정부동 551-1번지 1층","indutype":"보건위생 - 미용원","category":"beauty"}]},{"lat":"37.734374521","long":"127.04279135","imageIndex":13,"items":[{"name":"참머리사랑","tel":"031-876-5488","addr":"경기도 의정부시 의정부동 560-6번지 홍익빌라5차","indutype":"보건위생 - 미용원","category":"beauty"}]},{"lat":"37.745795118","long":"127.05212397","imageIndex":13,"items":[{"name":"천신종 천황당","tel":"031-000-0000","addr":"경기도 의정부시 의정부동 8-31번지 1층","indutype":"보건위생 - 기타대인서비스","category":"beauty"}]},{"lat":"37.741155891","long":"127.05043043","imageIndex":13,"items":[{"name":"천연염색","tel":"031-826-7701","addr":"경기도 의정부시 의정부동 157-7번지 베스트프라자 2층 201호","indutype":"보건위생 - 미용원","category":"beauty"},{"name":"한빛나노의료기 의정부지점","tel":"031-842-6660","addr":"경기도 의정부시 의정부동 157-7번지 베스트프라자 7층","indutype":"보건위생 - 의료용품","category":"beauty"}]},{"lat":"37.746598677","long":"127.04784698","imageIndex":13,"items":[{"name":"최헤어콜렉션","tel":"031-847-4561","addr":"경기도 의정부시 의정부동 226-2번지 현대아트빌","indutype":"보건위생 - 미용원","category":"beauty"}]},{"lat":"37.744538064","long":"127.04049359","imageIndex":13,"items":[{"name":"카라","tel":"031-837-1215","addr":"경기도 의정부시 의정부동 403-4번지 102호","indutype":"보건위생 - 화장품","category":"beauty"}]},{"lat":"37.745128642","long":"127.05156757","imageIndex":13,"items":[{"name":"카르마헤어","tel":"070-7013-8874","addr":"경기도 의정부시 의정부동 8-24번지","indutype":"보건위생 - 미용원","category":"beauty"}]},{"lat":"37.738705622","long":"127.04960068","imageIndex":13,"items":[{"name":"코코네일","tel":"031-853-6789","addr":"경기도 의정부시 의정부동 174-3번지","indutype":"보건위생 - 피부미용실","category":"beauty"}]},{"lat":"37.741515726","long":"127.05176942","imageIndex":13,"items":[{"name":"쿤테라피","tel":"031-847-7724","addr":"경기도 의정부시 의정부동 26-6번지 3층","indutype":"보건위생 - 화장품","category":"beauty"}]},{"lat":"37.739816486","long":"127.04223836","imageIndex":13,"items":[{"name":"퀸스헤어","tel":"031-871-0567","addr":"경기도 의정부시 의정부동 432번지","indutype":"보건위생 - 미용원","category":"beauty"}]},{"lat":"37.74523732","long":"127.05018343","imageIndex":13,"items":[{"name":"큐사랑","tel":"031-847-5004","addr":"경기도 의정부시 의정부동 214-155번지 1층","indutype":"보건위생 - 미용원","category":"beauty"}]},{"lat":"37.745592531","long":"127.0393822","imageIndex":13,"items":[{"name":"큐티헤어","tel":"031-876-7634","addr":"경기도 의정부시 의정부동 405-30번지 1층","indutype":"보건위생 - 미용원","category":"beauty"}]},{"lat":"37.743404014","long":"127.03668085","imageIndex":13,"items":[{"name":"큰사랑복지용구","tel":"031-928-6476","addr":"경기도 의정부시 의정부동 335-4번지 3층","indutype":"보건위생 - 의료용품","category":"beauty"}]},{"lat":"37.741624388","long":"127.05043073","imageIndex":13,"items":[{"name":"키루헤어","tel":"070-4038-1729","addr":"경기도 의정부시 의정부동 155-16번지 2층","indutype":"보건위생 - 미용원","category":"beauty"}]},{"lat":"37.742822378","long":"127.05112358","imageIndex":13,"items":[{"name":"킹스톤(KingStone)","tel":"02-6348-1120","addr":"경기도 의정부시 의정부동 152-3번지","indutype":"보건위생 - 의료용품","category":"beauty"}]},{"lat":"37.736239437","long":"127.04298521","imageIndex":13,"items":[{"name":"킹타이","tel":"031-827-2289","addr":"경기도 의정부시 의정부동 503-2번지 양재빌딩 지하1층","indutype":"보건위생 - 화장품","category":"beauty"}]},{"lat":"37.743426143","long":"127.05081764","imageIndex":13,"items":[{"name":"타이왓포전통마사지","tel":"031-848-4050","addr":"경기도 의정부시 의정부동 185-2번지 2층","indutype":"보건위생 - 안마시술소","category":"beauty"},{"name":"태성가발","tel":"031-846-5649","addr":"경기도 의정부시 의정부동 185-2번지 1층","indutype":"보건위생 - 미용재료","category":"beauty"}]},{"lat":"37.737321352","long":"127.04066011","imageIndex":13,"items":[{"name":"타일랜드존","tel":"031-847-9898","addr":"경기도 의정부시 의정부동 509-1번지","indutype":"보건위생 - 화장품","category":"beauty"},{"name":"타일랜드존","tel":"031-872-1515","addr":"경기도 의정부시 의정부동 509-1번지","indutype":"보건위생 - 화장품","category":"beauty"}]},{"lat":"37.743795746","long":"127.05029597","imageIndex":13,"items":[{"name":"탐스헤어","tel":"031-696-5047","addr":"경기도 의정부시 의정부동 214-96번지","indutype":"보건위생 - 미용원","category":"beauty"}]},{"lat":"37.735374202","long":"127.04390365","imageIndex":13,"items":[{"name":"태양남성컷트","tel":"","addr":"경기도 의정부시 의정부동 569번지 재훈빌라 1층 101호","indutype":"보건위생 - 미용원","category":"beauty"}]},{"lat":"37.741454346","long":"127.04751485","imageIndex":13,"items":[{"name":"태양미용실","tel":"031-846-8929","addr":"경기도 의정부시 의정부동 200-15번지","indutype":"보건위생 - 미용원","category":"beauty"}]},{"lat":"37.746592155","long":"127.04076693","imageIndex":13,"items":[{"name":"태후사랑","tel":"031-855-4171","addr":"경기도 의정부시 의정부동 407-1번지","indutype":"보건위생 - 미용원","category":"beauty"}]},{"lat":"37.739039442","long":"127.04840966","imageIndex":13,"items":[{"name":"토니모리(의정부점)","tel":"031-848-2984","addr":"경기도 의정부시 의정부동 176-19번지","indutype":"보건위생 - 화장품","category":"beauty"}]},{"lat":"37.737407698","long":"127.05096124","imageIndex":13,"items":[{"name":"투앤투상사","tel":"031-844-5022","addr":"경기도 의정부시 의정부동 131-31번지","indutype":"보건위생 - 미용재료","category":"beauty"}]},{"lat":"37.74221114","long":"127.04753799","imageIndex":13,"items":[{"name":"투헤어프롬소영","tel":"031-111-1111","addr":"경기도 의정부시 의정부동 202-14번지 1층","indutype":"보건위생 - 미용원","category":"beauty"}]},{"lat":"37.739624656","long":"127.04945377","imageIndex":13,"items":[{"name":"트랜디카안경콘택트","tel":"031-821-0229","addr":"경기도 의정부시 의정부동 178-8번지 ,9 101호","indutype":"보건위생 - 안경","category":"beauty"}]},{"lat":"37.735597906","long":"127.04810125","imageIndex":13,"items":[{"name":"트러스트메드(Trust Med)","tel":"070-8820-1020","addr":"경기도 의정부시 의정부동 138-15번지 비비르파크 103-2호","indutype":"보건위생 - 의료용품","category":"beauty"}]},{"lat":"37.740706626","long":"127.04732153","imageIndex":13,"items":[{"name":"티렌즈하우스","tel":"031-843-1001","addr":"경기도 의정부시 의정부동 197-19번지 1층","indutype":"보건위생 - 안경","category":"beauty"}]},{"lat":"37.740543933","long":"127.04868287","imageIndex":13,"items":[{"name":"파티수파우더룸","tel":"031-872-8788","addr":"경기도 의정부시 의정부동 193-3번지","indutype":"보건위생 - 화장품","category":"beauty"}]},{"lat":"37.737822775","long":"127.04937323","imageIndex":13,"items":[{"name":"팔구뷰티","tel":"031-877-0610","addr":"경기도 의정부시 의정부동 132-40번지 1층","indutype":"보건위생 - 화장품","category":"beauty"}]},{"lat":"37.738093266","long":"127.04885153","imageIndex":13,"items":[{"name":"펄스캠생활과학","tel":"031-878-4416","addr":"경기도 의정부시 의정부동 132-29번지 2층","indutype":"보건위생 - 의료용품","category":"beauty"}]},{"lat":"37.734040853","long":"127.04371006","imageIndex":13,"items":[{"name":"펠리스","tel":"031-000-0000","addr":"경기도 의정부시 의정부동 572-3번지 3층","indutype":"보건위생 - 미용재료","category":"beauty"}]},{"lat":"37.737290504","long":"127.05113134","imageIndex":13,"items":[{"name":"편백힐링","tel":"031-826-7779","addr":"경기도 의정부시 의정부동 130-1번지 3층","indutype":"보건위생 - 화장품","category":"beauty"}]},{"lat":"37.739102034","long":"127.04962362","imageIndex":13,"items":[{"name":"편백힐링","tel":"031-821-7751","addr":"경기도 의정부시 의정부동 177-19번지 3층","indutype":"보건위생 - 미용재료","category":"beauty"}]},{"lat":"37.743317571","long":"127.05192945","imageIndex":13,"items":[{"name":"포낙보청기의정부센터","tel":"031-848-9700","addr":"경기도 의정부시 의정부동 17-5번지 지상3층","indutype":"보건위생 - 의료용품","category":"beauty"}]},{"lat":"37.747543462","long":"127.05093376","imageIndex":13,"items":[{"name":"푸른헤어","tel":"031-821-1101","addr":"경기도 의정부시 의정부동 6-1번지 1층","indutype":"보건위생 - 미용원","category":"beauty"}]},{"lat":"37.736176814","long":"127.04165785","imageIndex":13,"items":[{"name":"풋앤바디","tel":"02-392-2516","addr":"경기도 의정부시 의정부동 504-1번지 2층","indutype":"보건위생 - 피부미용실","category":"beauty"}]},{"lat":"37.739543894","long":"127.04862552","imageIndex":13,"items":[{"name":"프라우스 심리상담센터","tel":"031-846-4488","addr":"경기도 의정부시 의정부동 176-1 2층","indutype":"보건위생 - 기타대인서비스","category":"beauty"},{"name":"헤어플러스미","tel":"031-845-9950","addr":"경기도 의정부시 의정부동 176-1번지 3층","indutype":"보건위생 - 미용원","category":"beauty"}]},{"lat":"37.737348231","long":"127.04112526","imageIndex":13,"items":[{"name":"프렌치슬림","tel":"031-871-8993","addr":"경기도 의정부시 의정부동 508-1번지 가나빌딩 5층","indutype":"보건위생 - 화장품","category":"beauty"}]},{"lat":"37.746565685","long":"127.03898557","imageIndex":13,"items":[{"name":"프리마헤어","tel":"031-877-2252","addr":"경기도 의정부시 의정부동 401-2번지","indutype":"보건위생 - 미용재료","category":"beauty"}]},{"lat":"37.739960042","long":"127.04398559","imageIndex":13,"items":[{"name":"프리퀀시","tel":"070-8223-3772","addr":"경기도 의정부시 의정부동 438-4번지 럭스프라임 201호","indutype":"보건위생 - 화장품","category":"beauty"}]},{"lat":"37.736762911","long":"127.04018335","imageIndex":13,"items":[{"name":"플로르 인터내셔널","tel":"02-2251-7882","addr":"경기도 의정부시 의정부동 511-6번지 2층 202호","indutype":"보건위생 - 화장품","category":"beauty"}]},{"lat":"37.738462605","long":"127.0489879","imageIndex":13,"items":[{"name":"필헤어","tel":"031-821-3011","addr":"경기도 의정부시 의정부동 173-6번지 2층","indutype":"보건위생 - 미용원","category":"beauty"}]},{"lat":"37.738434723","long":"127.05112074","imageIndex":13,"items":[{"name":"하경희헤어샵","tel":"031-848-1517","addr":"경기도 의정부시 의정부동 147-9번지 1층","indutype":"보건위생 - 미용원","category":"beauty"},{"name":"행복남성컷","tel":"031-826-7082","addr":"경기도 의정부시 의정부동 147-9번지 1층 일부","indutype":"보건위생 - 이용원","category":"beauty"}]},{"lat":"37.731455266","long":"127.04324354","imageIndex":13,"items":[{"name":"하늘꿈아동발달센터","tel":"031-826-6707","addr":"경기도 의정부시 의정부동 594-1번지 다인빌딩 2층3층1호","indutype":"보건위생 - 기타대인서비스","category":"beauty"}]},{"lat":"37.742237957","long":"127.04809394","imageIndex":13,"items":[{"name":"하이살롱(Hi Salon)","tel":"031-861-0021","addr":"경기도 의정부시 의정부동 202-7번지 1층","indutype":"보건위생 - 미용원","category":"beauty"}]},{"lat":"37.738876459","long":"127.05046301","imageIndex":13,"items":[{"name":"한국메디컬 의정부지사","tel":"","addr":"경기도 의정부시 의정부동 170-9번지 2층","indutype":"보건위생 - 의료용품","category":"beauty"}]},{"lat":"37.736983723","long":"127.05223158","imageIndex":13,"items":[{"name":"한국해인불교 조계종","tel":"031-554-6331","addr":"경기도 의정부시 의정부동 94-20번지 지하층","indutype":"보건위생 - 기타대인서비스","category":"beauty"}]},{"lat":"37.738065812","long":"127.04992928","imageIndex":13,"items":[{"name":"한나 네일","tel":"031-843-5898","addr":"경기도 의정부시 의정부동 172-8번지 2층","indutype":"보건위생 - 미용재료","category":"beauty"}]},{"lat":"37.741627692","long":"127.04137706","imageIndex":13,"items":[{"name":"한북실버케어","tel":"031-847-8861","addr":"경기도 의정부시 의정부동 427-3번지","indutype":"보건위생 - 의료용품","category":"beauty"}]},{"lat":"37.74326499","long":"127.04824206","imageIndex":13,"items":[{"name":"해봄아이래쉬","tel":"","addr":"경기도 의정부시 의정부동 187-25번지 1층","indutype":"보건위생 - 피부미용실","category":"beauty"}]},{"lat":"37.736263038","long":"127.05203824","imageIndex":13,"items":[{"name":"해원미용실","tel":"031-871-7157","addr":"경기도 의정부시 의정부동 94-16번지","indutype":"보건위생 - 미용원","category":"beauty"}]},{"lat":"37.734403702","long":"127.03582593","imageIndex":13,"items":[{"name":"행복과건강을드리는집","tel":"031-829-3488","addr":"경기도 의정부시 의정부동 533-3번지 302호","indutype":"보건위생 - 기타대인서비스","category":"beauty"}]},{"lat":"37.741398592","long":"127.05179204","imageIndex":13,"items":[{"name":"행복한하루헤어","tel":"031-840-8100","addr":"경기도 의정부시 의정부동 26-8번지","indutype":"보건위생 - 미용원","category":"beauty"}]},{"lat":"37.736489125","long":"127.04996232","imageIndex":13,"items":[{"name":"헤브론 금빛가위손","tel":"031-111-1111","addr":"경기도 의정부시 의정부동 134-17번지","indutype":"보건위생 - 미용원","category":"beauty"}]},{"lat":"37.734681596","long":"127.04051129","imageIndex":13,"items":[{"name":"헤어 지지마","tel":"070-7344-0832","addr":"경기도 의정부시 의정부동 554-7번지 1층","indutype":"보건위생 - 미용원","category":"beauty"}]},{"lat":"37.73801206","long":"127.04915779","imageIndex":13,"items":[{"name":"헤어1번가","tel":"031-875-2221","addr":"경기도 의정부시 의정부동 132-34번지 2층","indutype":"보건위생 - 미용원","category":"beauty"}]},{"lat":"37.740903824","long":"127.04993108","imageIndex":13,"items":[{"name":"헤어마켓 (HAIR MARKET)","tel":"031-838-8232","addr":"경기도 의정부시 의정부동 159-11번지 2층","indutype":"보건위생 - 미용원","category":"beauty"}]},{"lat":"37.74282265","long":"127.05045419","imageIndex":13,"items":[{"name":"헤어봉","tel":"031-823-9320","addr":"경기도 의정부시 의정부동 184-1번지","indutype":"보건위생 - 미용원","category":"beauty"}]},{"lat":"37.732680206","long":"127.04428786","imageIndex":13,"items":[{"name":"헤어빈센트","tel":"031-871-6769","addr":"경기도 의정부시 의정부동 591-1번지","indutype":"보건위생 - 미용원","category":"beauty"}]},{"lat":"37.73540762","long":"127.0508465","imageIndex":13,"items":[{"name":"헤어살롱by봉자","tel":"031-875-5632","addr":"경기도 의정부시 의정부동 361번지 1층 102호","indutype":"보건위생 - 미용원","category":"beauty"}]},{"lat":"37.740120846","long":"127.04774095","imageIndex":13,"items":[{"name":"헤어스케치","tel":"031-843-4244","addr":"경기도 의정부시 의정부동 196-10번지","indutype":"보건위생 - 미용원","category":"beauty"}]},{"lat":"37.746572989","long":"127.04418213","imageIndex":13,"items":[{"name":"헤어스테이션","tel":"031-879-0641","addr":"경기도 의정부시 의정부동 417-5번지","indutype":"보건위생 - 미용원","category":"beauty"}]},{"lat":"37.746708364","long":"127.04351278","imageIndex":13,"items":[{"name":"헤어썬","tel":"031-871-0814","addr":"경기도 의정부시 의정부동 416-3번지 1층","indutype":"보건위생 - 미용원","category":"beauty"}]},{"lat":"37.745650266","long":"127.05376905","imageIndex":13,"items":[{"name":"헤어이미지","tel":"031-846-1639","addr":"경기도 의정부시 의정부동 12-7번지 외1필지","indutype":"보건위생 - 미용원","category":"beauty"}]},{"lat":"37.740204869","long":"127.03920938","imageIndex":13,"items":[{"name":"헤어짱","tel":"031-871-7118","addr":"경기도 의정부시 의정부동 483-7번지 1층","indutype":"보건위생 - 미용원","category":"beauty"}]},{"lat":"37.734628569","long":"127.03713063","imageIndex":13,"items":[{"name":"헤어카페","tel":"031-873-0456","addr":"경기도 의정부시 의정부동 539-7번지 1층","indutype":"보건위생 - 미용원","category":"beauty"}]},{"lat":"37.731321095","long":"127.04029406","imageIndex":13,"items":[{"name":"헤어톡","tel":"031-826-3590","addr":"경기도 의정부시 의정부동 304-2번지","indutype":"보건위생 - 미용원","category":"beauty"}]},{"lat":"37.748761374","long":"127.04677036","imageIndex":13,"items":[{"name":"헤어포인트","tel":"","addr":"경기도 의정부시 의정부동 230-8번지 청석빌라 1층 102호","indutype":"보건위생 - 미용원","category":"beauty"}]},{"lat":"37.7337906","long":"127.03740251","imageIndex":13,"items":[{"name":"헤어폼헤어","tel":"031-829-5446","addr":"경기도 의정부시 의정부동 537-3번지 금성2차빌라 1층","indutype":"보건위생 - 미용원","category":"beauty"}]},{"lat":"37.740823056","long":"127.04912551","imageIndex":13,"items":[{"name":"현승뷰티프라자","tel":"031-873-1727","addr":"경기도 의정부시 의정부동 181-15번지 3층","indutype":"보건위생 - 화장품","category":"beauty"}]},{"lat":"37.741398498","long":"127.05201895","imageIndex":13,"items":[{"name":"혜당생활과학","tel":"031-841-7001","addr":"경기도 의정부시 의정부동 26-11번지 3층","indutype":"보건위생 - 의료용품","category":"beauty"}]},{"lat":"37.739041929","long":"127.04143245","imageIndex":13,"items":[{"name":"호은부부상담코칭센터","tel":"031-846-1658","addr":"경기도 의정부시 의정부동 429-13번지","indutype":"보건위생 - 기타대인서비스","category":"beauty"}]},{"lat":"37.741957641","long":"127.05068055","imageIndex":13,"items":[{"name":"홀릭헤어샵","tel":"031-837-3805","addr":"경기도 의정부시 의정부동 155-5번지 2층","indutype":"보건위생 - 미용원","category":"beauty"}]},{"lat":"37.741426803","long":"127.04885359","imageIndex":13,"items":[{"name":"홍헤어","tel":"031-846-7185","addr":"경기도 의정부시 의정부동 192-2번지 2층","indutype":"보건위생 - 미용원","category":"beauty"}]},{"lat":"37.735601013","long":"127.03910503","imageIndex":13,"items":[{"name":"화미대리점","tel":"031-877-8202","addr":"경기도 의정부시 의정부동 516-4번지 1층","indutype":"보건위생 - 의료용품","category":"beauty"}]},{"lat":"37.743984471","long":"127.05146471","imageIndex":13,"items":[{"name":"황궁체형관리","tel":"031-856-1999","addr":"경기도 의정부시 의정부동 9-18번지 2층","indutype":"보건위생 - 피부미용실","category":"beauty"}]},{"lat":"37.73657339","long":"127.04118158","imageIndex":13,"items":[{"name":"황금대리운전","tel":"031-877-6878","addr":"경기도 의정부시 의정부동 508-7번지 장안빌딩 505호","indutype":"보건위생 - 기타대인서비스","category":"beauty"}]},{"lat":"37.735264373","long":"127.04856617","imageIndex":13,"items":[{"name":"황금뷰티","tel":"070-8954-1012","addr":"경기도 의정부시 의정부동 136-49번지 1층","indutype":"보건위생 - 화장품","category":"beauty"}]},{"lat":"37.741066359","long":"127.0490122","imageIndex":13,"items":[{"name":"황금손 아로마테라피","tel":"031-821-0320","addr":"경기도 의정부시 의정부동 181-4번지 3층 302호","indutype":"보건위생 - 화장품","category":"beauty"}]},{"lat":"37.7397908","long":"127.0379839","imageIndex":13,"items":[{"name":"휠헤어숍","tel":"031-878-6863","addr":"경기도 의정부시 의정부동 479-7번지 1층","indutype":"보건위생 - 미용원","category":"beauty"}]},{"lat":"37.742065529","long":"127.05123655","imageIndex":13,"items":[{"name":"힐러아이디","tel":"031-844-6555","addr":"경기도 의정부시 의정부동 152-15번지 1층","indutype":"보건위생 - 미용원","category":"beauty"}]},{"lat":"37.737177038","long":"127.0411592","imageIndex":13,"items":[{"name":"힐링아로마","tel":"031-878-7982","addr":"경기도 의정부시 의정부동 508-2번지 3층","indutype":"보건위생 - 화장품","category":"beauty"}]},{"lat":"37.741066724","long":"127.04807054","imageIndex":13,"items":[{"name":"힐링타임","tel":"031-846-0150","addr":"경기도 의정부시 의정부동 198-14번지 3층","indutype":"보건위생 - 화장품","category":"beauty"}]},{"lat":"37.74673524","long":"127.0439553","imageIndex":13,"items":[{"name":"힐링헤어","tel":"031-837-9838","addr":"경기도 의정부시 의정부동 416-7번지","indutype":"보건위생 - 미용원","category":"beauty"}]}]