[{"lat":"37.287236558","long":"127.01525271","imageIndex":4,"items":[{"name":"24시짜장마을","tel":"031-255-1300","addr":"경기도 수원시 팔달구 북수동 145-1번지 1층","indutype":"일반휴게음식 - 일반한식","category":"restaurant"},{"name":"봉구스밥버거","tel":"","addr":"경기도 수원시 팔달구 북수동 145-1번지","indutype":"일반휴게음식 - 일반한식","category":"restaurant"},{"name":"콜링우드","tel":"","addr":"경기도 수원시 팔달구 북수동 145-1번지 1층","indutype":"일반휴게음식 - 서양음식","category":"restaurant"}]},{"lat":"37.285515542","long":"127.01578243","imageIndex":4,"items":[{"name":"공주다방","tel":"","addr":"경기도 수원시 팔달구 북수동 171번지","indutype":"일반휴게음식 - 서양음식","category":"restaurant"}]},{"lat":"37.286957177","long":"127.01583906","imageIndex":4,"items":[{"name":"그때그집","tel":"031-255-0747","addr":"경기도 수원시 팔달구 북수동 102-3번지","indutype":"일반휴게음식 - 일반한식","category":"restaurant"}]},{"lat":"37.287488857","long":"127.01513999","imageIndex":4,"items":[{"name":"꼴통주점","tel":"031-244-7579","addr":"경기도 수원시 팔달구 북수동 140-2번지","indutype":"일반휴게음식 - 일반한식","category":"restaurant"}]},{"lat":"37.284623458","long":"127.01639121","imageIndex":4,"items":[{"name":"다원약선차","tel":"","addr":"경기도 수원시 팔달구 북수동 207-1번지 1층","indutype":"일반휴게음식 - 서양음식","category":"restaurant"}]},{"lat":"37.283073544","long":"127.0176426","imageIndex":4,"items":[{"name":"달래","tel":"031-242-4028","addr":"경기도 수원시 팔달구 북수동 292번지 1층 101호","indutype":"일반휴게음식 - 일반한식","category":"restaurant"}]},{"lat":"37.284983906","long":"127.01606426","imageIndex":4,"items":[{"name":"대한이침협회수원지부","tel":"031-256-7575","addr":"경기도 수원시 팔달구 북수동 215번지 1층","indutype":"일반휴게음식 - 일반한식","category":"restaurant"},{"name":"황금알날나바베큐치킨","tel":"031-268-8292","addr":"경기도 수원시 팔달구 북수동 215번지 1층","indutype":"일반휴게음식 - 스넥","category":"restaurant"}]},{"lat":"37.286011106","long":"127.01578252","imageIndex":4,"items":[{"name":"도우미식당","tel":"031-253-4855","addr":"경기도 수원시 팔달구 북수동 74번지","indutype":"일반휴게음식 - 칵테일바","category":"restaurant"}]},{"lat":"37.28212748","long":"127.01752965","imageIndex":4,"items":[{"name":"동신미곡","tel":"","addr":"경기도 수원시 팔달구 북수동 311-6번지 1층","indutype":"일반휴게음식 - 일반한식","category":"restaurant"},{"name":"종로통닭","tel":"031-244-5711","addr":"경기도 수원시 팔달구 북수동 311-6번지","indutype":"일반휴게음식 - 스넥","category":"restaurant"},{"name":"중화분식","tel":"031-242-2182","addr":"경기도 수원시 팔달구 북수동 311-6번지 1층","indutype":"일반휴게음식 - 중국식","category":"restaurant"}]},{"lat":"37.287182372","long":"127.01639167","imageIndex":4,"items":[{"name":"둘리분식","tel":"031-000-0000","addr":"경기도 수원시 팔달구 북수동 25-14번지 1층 101호","indutype":"일반휴게음식 - 스넥","category":"restaurant"}]},{"lat":"37.286731824","long":"127.01669606","imageIndex":4,"items":[{"name":"둥지","tel":"","addr":"경기도 수원시 팔달구 북수동 31-3번지 1층","indutype":"일반휴게음식 - 주점","category":"restaurant"}]},{"lat":"37.287038173","long":"127.01669612","imageIndex":4,"items":[{"name":"뚱땡이왕대포","tel":"031-256-9206","addr":"경기도 수원시 팔달구 북수동 25-12번지","indutype":"일반휴게음식 - 주점","category":"restaurant"},{"name":"토스트전문점","tel":"031-253-2403","addr":"경기도 수원시 팔달구 북수동 25-12번지","indutype":"일반휴게음식 - 스넥","category":"restaurant"}]},{"lat":"37.285929999","long":"127.01591782","imageIndex":4,"items":[{"name":"락희식당","tel":"031-255-0331","addr":"경기도 수원시 팔달구 북수동 167번지 1층","indutype":"일반휴게음식 - 일반한식","category":"restaurant"},{"name":"맛동네순대국","tel":"031-245-3415","addr":"경기도 수원시 팔달구 북수동 167번지","indutype":"일반휴게음식 - 일반한식","category":"restaurant"},{"name":"장안먹거리실내포차","tel":"031-255-0229","addr":"경기도 수원시 팔달구 북수동 167번지","indutype":"일반휴게음식 - 일반한식","category":"restaurant"},{"name":"토속빈대떡","tel":"031-242-6616","addr":"경기도 수원시 팔달구 북수동 167번지","indutype":"일반휴게음식 - 일반한식","category":"restaurant"}]},{"lat":"37.286930087","long":"127.01636907","imageIndex":4,"items":[{"name":"롱바","tel":"031-251-2511","addr":"경기도 수원시 팔달구 북수동 99-1번지 1층 101호","indutype":"일반휴게음식 - 서양음식","category":"restaurant"}]},{"lat":"37.287065181","long":"127.01688783","imageIndex":4,"items":[{"name":"매홀","tel":"031-8001-8008","addr":"경기도 수원시 팔달구 북수동 31-8번지","indutype":"일반휴게음식 - 일반한식","category":"restaurant"}]},{"lat":"37.285596638","long":"127.01574862","imageIndex":4,"items":[{"name":"무궁화","tel":"031-242-9006","addr":"경기도 수원시 팔달구 북수동 172-1 천운지하빌딩1층","indutype":"일반휴게음식 - 서양음식","category":"restaurant"}]},{"lat":"37.284794662","long":"127.01631231","imageIndex":4,"items":[{"name":"무다리","tel":"031-255-4660","addr":"경기도 수원시 팔달구 북수동 210-1번지 1층","indutype":"일반휴게음식 - 일반한식","category":"restaurant"}]},{"lat":"37.281983336","long":"127.01736048","imageIndex":4,"items":[{"name":"백만불왕소금참숯구이","tel":"031-258-9715","addr":"경기도 수원시 팔달구 북수동 311-9번지 1층","indutype":"일반휴게음식 - 일반한식","category":"restaurant"}]},{"lat":"37.287128246","long":"127.01694423","imageIndex":4,"items":[{"name":"별이네","tel":"031-247-8403","addr":"경기도 수원시 팔달구 북수동 32-1번지","indutype":"일반휴게음식 - 서양음식","category":"restaurant"}]},{"lat":"37.288425969","long":"127.01470033","imageIndex":4,"items":[{"name":"보너스커피컴퍼니","tel":"031-251-1515","addr":"경기도 수원시 팔달구 북수동 8-1번지 2층","indutype":"일반휴게음식 - 서양음식","category":"restaurant"}]},{"lat":"37.28237076","long":"127.01750715","imageIndex":4,"items":[{"name":"북수동커피","tel":"070-4122-1411","addr":"경기도 수원시 팔달구 북수동 311-14번지 1층","indutype":"일반휴게음식 - 서양음식","category":"restaurant"}]},{"lat":"37.287731956","long":"127.01675263","imageIndex":4,"items":[{"name":"생각","tel":"031-248-5220","addr":"경기도 수원시 팔달구 북수동 21-17번지","indutype":"일반휴게음식 - 일반한식","category":"restaurant"}]},{"lat":"37.285317285","long":"127.01606431","imageIndex":4,"items":[{"name":"성일","tel":"031-242-8887","addr":"경기도 수원시 팔달구 북수동 223번지","indutype":"일반휴게음식 - 일반한식","category":"restaurant"}]},{"lat":"37.286875984","long":"127.01672992","imageIndex":4,"items":[{"name":"송옥","tel":"031-242-6148","addr":"경기도 수원시 팔달구 북수동 30-3번지 1층","indutype":"일반휴게음식 - 일반한식","category":"restaurant"}]},{"lat":"37.284902658","long":"127.01739487","imageIndex":4,"items":[{"name":"수원녘","tel":"","addr":"경기도 수원시 팔달구 북수동 273번지","indutype":"일반휴게음식 - 서양음식","category":"restaurant"}]},{"lat":"37.287542924","long":"127.01508361","imageIndex":4,"items":[{"name":"수원화성여행카페","tel":"031-253-8333","addr":"경기도 수원시 팔달구 북수동 139-1번지 ,1-2층","indutype":"일반휴게음식 - 서양음식","category":"restaurant"}]},{"lat":"37.28620935","long":"127.0156134","imageIndex":4,"items":[{"name":"순이네 밥상","tel":"031-241-7070","addr":"경기도 수원시 팔달구 북수동 76-2번지","indutype":"일반휴게음식 - 일반한식","category":"restaurant"}]},{"lat":"37.288759334","long":"127.01483571","imageIndex":4,"items":[{"name":"슈퍼스테이크북수원점","tel":"031-242-3301","addr":"경기도 수원시 팔달구 북수동 6-1번지 1층","indutype":"일반휴게음식 - 일반한식","category":"restaurant"}]},{"lat":"37.285767761","long":"127.01639142","imageIndex":4,"items":[{"name":"예술공간봄","tel":"031-244-4519","addr":"경기도 수원시 팔달구 북수동 231-3번지","indutype":"일반휴게음식 - 서양음식","category":"restaurant"}]},{"lat":"37.283289935","long":"127.0164248","imageIndex":4,"items":[{"name":"오늘의 김밥","tel":"031-254-2014","addr":"경기도 수원시 팔달구 북수동 346-1번지","indutype":"일반휴게음식 - 일반한식","category":"restaurant"}]},{"lat":"37.284902728","long":"127.01680849","imageIndex":4,"items":[{"name":"이음(EEEm)","tel":"","addr":"경기도 수원시 팔달구 북수동 242번지 1층","indutype":"일반휴게음식 - 일반한식","category":"restaurant"}]},{"lat":"37.287957414","long":"127.01491452","imageIndex":4,"items":[{"name":"장안빈대떡","tel":"031-242-6690","addr":"경기도 수원시 팔달구 북수동 136-1번지","indutype":"일반휴게음식 - 일반한식","category":"restaurant"}]},{"lat":"37.285704733","long":"127.016008","imageIndex":4,"items":[{"name":"장안식당","tel":"031-241-4248","addr":"경기도 수원시 팔달구 북수동 169-1번지","indutype":"일반휴게음식 - 일반한식","category":"restaurant"}]},{"lat":"37.284037765","long":"127.01661664","imageIndex":4,"items":[{"name":"장안식당","tel":"031-256-6818","addr":"경기도 수원시 팔달구 북수동 333-1번지","indutype":"일반휴게음식 - 일반한식","category":"restaurant"}]},{"lat":"37.287569918","long":"127.01544448","imageIndex":4,"items":[{"name":"전주식당","tel":"031-245-5128","addr":"경기도 수원시 팔달구 북수동 122번지","indutype":"일반휴게음식 - 일반한식","category":"restaurant"}]},{"lat":"37.28679484","long":"127.0171697","imageIndex":4,"items":[{"name":"정지영커피로스터즈","tel":"","addr":"경기도 수원시 팔달구 북수동 33-9번지","indutype":"일반휴게음식 - 서양음식","category":"restaurant"}]},{"lat":"37.28737172","long":"127.0151738","imageIndex":4,"items":[{"name":"정통생맥주","tel":"031-46-0482","addr":"경기도 수원시 팔달구 북수동 141번지","indutype":"일반휴게음식 - 주점","category":"restaurant"}]},{"lat":"37.282433805","long":"127.01772141","imageIndex":4,"items":[{"name":"진희식당","tel":"031-255-4621","addr":"경기도 수원시 팔달구 북수동 298번지","indutype":"일반휴게음식 - 일반한식","category":"restaurant"}]},{"lat":"37.282370864","long":"127.01663889","imageIndex":4,"items":[{"name":"참새네방앗간","tel":"031-252-3631","addr":"경기도 수원시 팔달구 북수동 363-1번지 1동","indutype":"일반휴게음식 - 일반한식","category":"restaurant"}]},{"lat":"37.282541931","long":"127.01769888","imageIndex":4,"items":[{"name":"초안","tel":"","addr":"경기도 수원시 팔달구 북수동 297-2번지 ,1-2층","indutype":"일반휴게음식 - 서양음식","category":"restaurant"},{"name":"초안","tel":"","addr":"경기도 수원시 팔달구 북수동 297-2번지 ,1-2층","indutype":"일반휴게음식 - 서양음식","category":"restaurant"}]},{"lat":"37.282794218","long":"127.01769893","imageIndex":4,"items":[{"name":"친구포차","tel":"031-548-2079","addr":"경기도 수원시 팔달구 북수동 295번지","indutype":"일반휴게음식 - 일반한식","category":"restaurant"}]},{"lat":"37.287705106","long":"127.01511747","imageIndex":4,"items":[{"name":"카페부르르","tel":"031-220-9782","addr":"경기도 수원시 팔달구 북수동 125-1번지 1층","indutype":"일반휴게음식 - 서양음식","category":"restaurant"}]},{"lat":"37.28643442","long":"127.01724857","imageIndex":4,"items":[{"name":"쿨티그라운드(Culti Ground)","tel":"031-252-2292","addr":"경기도 수원시 팔달구 북수동 38-1번지","indutype":"일반휴게음식 - 일반한식","category":"restaurant"}]},{"lat":"37.282848408","long":"127.01663897","imageIndex":4,"items":[{"name":"타포린(Tarpaulin)","tel":"","addr":"경기도 수원시 팔달구 북수동 353번지 1층,2층","indutype":"일반휴게음식 - 서양음식","category":"restaurant"}]},{"lat":"37.286290461","long":"127.01544426","imageIndex":4,"items":[{"name":"통큰분식","tel":"031-0000-0000","addr":"경기도 수원시 팔달구 북수동 160-1번지 1층","indutype":"일반휴게음식 - 일반한식","category":"restaurant"}]},{"lat":"37.287092341","long":"127.01574887","imageIndex":4,"items":[{"name":"통큰주먹밥","tel":"031-253-5030","addr":"경기도 수원시 팔달구 북수동 112-1번지","indutype":"일반휴게음식 - 일반한식","category":"restaurant"}]},{"lat":"37.285677735","long":"127.01570352","imageIndex":4,"items":[{"name":"하루","tel":"031-111-1111","addr":"경기도 수원시 팔달구 북수동 173번지 1층","indutype":"일반휴게음식 - 서양음식","category":"restaurant"}]},{"lat":"37.283731442","long":"127.01639105","imageIndex":4,"items":[{"name":"행궁떡볶이","tel":"031-207-7986","addr":"경기도 수원시 팔달구 북수동 339-1번지 1층","indutype":"일반휴게음식 - 스넥","category":"restaurant"}]},{"lat":"37.283650352","long":"127.01636849","imageIndex":4,"items":[{"name":"행궁손칼국수","tel":"031-258-5080","addr":"경기도 수원시 팔달구 북수동 340-1번지 1","indutype":"일반휴게음식 - 일반한식","category":"restaurant"}]},{"lat":"37.287849178","long":"127.01597454","imageIndex":4,"items":[{"name":"행복을주는식당","tel":"031-244-3345","addr":"경기도 수원시 팔달구 북수동 21-14번지 1층","indutype":"일반휴게음식 - 일반한식","category":"restaurant"}]},{"lat":"37.286795009","long":"127.01569244","imageIndex":4,"items":[{"name":"행운식당","tel":"031-252-7599","addr":"경기도 수원시 팔달구 북수동 106번지","indutype":"일반휴게음식 - 일반한식","category":"restaurant"}]},{"lat":"37.286461656","long":"127.01544429","imageIndex":4,"items":[{"name":"호수","tel":"031-258-2421","addr":"경기도 수원시 팔달구 북수동 157번지","indutype":"일반휴게음식 - 주점","category":"restaurant"}]},{"lat":"37.283434103","long":"127.016391","imageIndex":4,"items":[{"name":"홍라드","tel":"031-000-0000","addr":"경기도 수원시 팔달구 북수동 344-1번지 2층","indutype":"일반휴게음식 - 서양음식","category":"restaurant"}]},{"lat":"37.286542622","long":"127.01658326","imageIndex":4,"items":[{"name":"화홍장터","tel":"031-248-4598","addr":"경기도 수원시 팔달구 북수동 61번지","indutype":"일반휴게음식 - 일반한식","category":"restaurant"}]},{"lat":"37.285010781","long":"127.01739489","imageIndex":4,"items":[{"name":"화홍통닭","tel":"031-256-3133","addr":"경기도 수원시 팔달구 북수동 272번지 101호","indutype":"일반휴게음식 - 일반한식","category":"restaurant"}]}]