[{"lat":"37.754328911","long":"127.40451085","imageIndex":17,"items":[{"name":"(주)라비상뜨","tel":"031-585-5001","addr":"경기도 가평군 상면 덕현리 154-9","indutype":"용역 서비스 - 부동산 중개·임대","category":"other"}]},{"lat":"37.761768637","long":"127.39170461","imageIndex":17,"items":[{"name":"가연여행사","tel":"070-8950-8384","addr":"경기도 가평군 상면 덕현리 486-2번지","indutype":"여행 - 관광여행","category":"other"}]},{"lat":"37.768402083","long":"127.3936801","imageIndex":17,"items":[{"name":"매점","tel":"031-585-3015","addr":"경기도 가평군 상면 덕현리 285-3번지 덕현리 288, 289, 285-3","indutype":"신변잡화 - 기타잡화","category":"other"}]},{"lat":"37.767959272","long":"127.39408635","imageIndex":17,"items":[{"name":"쎄렌체펜션","tel":"031-585-8598","addr":"경기도 가평군 상면 덕현리 308-5번지","indutype":"전기제품 - 가전제품","category":"other"}]},{"lat":"37.759854916","long":"127.39554163","imageIndex":17,"items":[{"name":"씨유켄싱턴리조트청평점","tel":"031-585-4632","addr":"경기도 가평군 상면 덕현리 402-10번지 CU 편의점","indutype":"유통업 영리 - 편 의 점","category":"other"}]},{"lat":"37.774909016","long":"127.39575743","imageIndex":16,"items":[{"name":"(주)새로운시작그리고성공","tel":"031-585-1307","addr":"경기도 가평군 상면 덕현리 585-5번지","indutype":"학원 - 보습학원","category":"study"},{"name":"청평한샘기숙학원","tel":"031-585-1301","addr":"경기도 가평군 상면 덕현리 585-5번지","indutype":"학원 - 보습학원","category":"study"}]},{"lat":"37.759854916","long":"127.39554163","imageIndex":5,"items":[{"name":"(주)이랜드 켄싱턴리조트청평","tel":"031-584-9380","addr":"경기도 가평군 상면 덕현리 402-10번지","indutype":"숙박업 - 콘도","category":"hotel"}]},{"lat":"37.766626741","long":"127.39653076","imageIndex":5,"items":[{"name":"가평모닝필하우스","tel":"031-585-5252","addr":"경기도 가평군 상면 덕현리 332번지","indutype":"숙박업 - 여관/기타숙박업","category":"hotel"}]},{"lat":"37.753243871","long":"127.41089344","imageIndex":5,"items":[{"name":"가평소나무팬션","tel":"070-4154-8660","addr":"경기도 가평군 상면 덕현리 20-7","indutype":"숙박업 - 여관/기타숙박업","category":"hotel"}]},{"lat":"37.756127485","long":"127.40017444","imageIndex":5,"items":[{"name":"가평파인힐","tel":"031-584-8003","addr":"경기도 가평군 상면 덕현리 162","indutype":"숙박업 - 여관/기타숙박업","category":"hotel"}]},{"lat":"37.755883009","long":"127.40053626","imageIndex":5,"items":[{"name":"구름나래","tel":"031-581-9982","addr":"경기도 가평군 상면 덕현리 162-42번지","indutype":"숙박업 - 여관/기타숙박업","category":"hotel"}]},{"lat":"37.766850836","long":"127.39687242","imageIndex":5,"items":[{"name":"모네하우스","tel":"031-585-3189","addr":"경기도 가평군 상면 덕현리 330-2번지 B동","indutype":"숙박업 - 여관/기타숙박업","category":"hotel"}]},{"lat":"37.755156427","long":"127.39959053","imageIndex":5,"items":[{"name":"베이비엔젤스파펜션","tel":"","addr":"경기도 가평군 상면 덕현리 162-55번지 1층","indutype":"숙박업 - 여관/기타숙박업","category":"hotel"}]},{"lat":"37.769236835","long":"127.3919026","imageIndex":5,"items":[{"name":"별천지","tel":"031-2253-9923","addr":"경기도 가평군 상면 덕현리 534","indutype":"숙박업 - 여관/기타숙박업","category":"hotel"}]},{"lat":"37.759879196","long":"127.40172651","imageIndex":5,"items":[{"name":"세븐투펜션","tel":"031-585-7072","addr":"경기도 가평군 상면 덕현리 178","indutype":"숙박업 - 여관/기타숙박업","category":"hotel"}]},{"lat":"37.756965727","long":"127.40273217","imageIndex":5,"items":[{"name":"스레드밸리","tel":"031-585-1889","addr":"경기도 가평군 상면 덕현리 163번지 166-9 외1필지","indutype":"숙박업 - 여관/기타숙박업","category":"hotel"}]},{"lat":"37.772292446","long":"127.39419998","imageIndex":5,"items":[{"name":"아스테리아펜션","tel":"031-584-3670","addr":"경기도 가평군 상면 덕현리 569번지 8/4","indutype":"숙박업 - 여관/기타숙박업","category":"hotel"}]},{"lat":"37.758487048","long":"127.39506913","imageIndex":5,"items":[{"name":"아제로스","tel":"031-585-4388","addr":"경기도 가평군 상면 덕현리 409-7번지","indutype":"숙박업 - 여관/기타숙박업","category":"hotel"}]},{"lat":"37.767228354","long":"127.39713546","imageIndex":5,"items":[{"name":"언덕위에푸른집","tel":"","addr":"경기도 가평군 상면 덕현리 329-1번지 2동","indutype":"숙박업 - 여관/기타숙박업","category":"hotel"}]},{"lat":"37.753856529","long":"127.41348398","imageIndex":5,"items":[{"name":"에프더블유원알앤디 주식회사 (지점)","tel":"031-585-3980","addr":"경기도 가평군 상면 덕현리 산74-12번지 청평가족호텔","indutype":"숙박업 - 콘도","category":"hotel"},{"name":"타이거캠프앤에프씨웰니스센터/타이거캠프","tel":"031-585-3980","addr":"경기도 가평군 상면 덕현리 산74-12번지","indutype":"숙박업 - 여관/기타숙박업","category":"hotel"}]},{"lat":"37.766403182","long":"127.39331776","imageIndex":5,"items":[{"name":"일곱난쟁이","tel":"031-585-8753","addr":"경기도 가평군 상면 덕현리 345-4번지","indutype":"숙박업 - 여관/기타숙박업","category":"hotel"}]},{"lat":"37.770180417","long":"127.38989864","imageIndex":5,"items":[{"name":"청경원 펜션","tel":"031-584-2575","addr":"경기도 가평군 상면 덕현리 529-6번지","indutype":"숙박업 - 여관/기타숙박업","category":"hotel"}]},{"lat":"37.767020988","long":"127.39717976","imageIndex":5,"items":[{"name":"청평 몽마르뜨펜션","tel":"031-585-4321","addr":"경기도 가평군 상면 덕현리 329-2번지 1동","indutype":"숙박업 - 여관/기타숙박업","category":"hotel"}]},{"lat":"37.767436365","long":"127.39689823","imageIndex":5,"items":[{"name":"프라하펜션","tel":"031-585-8885","addr":"경기도 가평군 상면 덕현리 329번지","indutype":"숙박업 - 여관/기타숙박업","category":"hotel"}]},{"lat":"37.759350846","long":"127.41131281","imageIndex":5,"items":[{"name":"하늘과땅사이 펜션","tel":"031-585-5978","addr":"경기도 가평군 상면 덕현리 91-2","indutype":"숙박업 - 여관/기타숙박업","category":"hotel"}]},{"lat":"37.766714481","long":"127.39723488","imageIndex":5,"items":[{"name":"해뜨는 숲속 펜션","tel":"031-584-2388","addr":"경기도 가평군 상면 덕현리 332-3번지 1동","indutype":"숙박업 - 여관/기타숙박업","category":"hotel"}]},{"lat":"37.75562979","long":"127.40081859","imageIndex":5,"items":[{"name":"해뜨락","tel":"031-772-7163","addr":"경기도 가평군 상면 덕현리 162-40번지","indutype":"숙박업 - 여관/기타숙박업","category":"hotel"}]},{"lat":"37.763022167","long":"127.39133667","imageIndex":4,"items":[{"name":"가연 엔틱","tel":"031-585-8383","addr":"경기도 가평군 상면 덕현리 453번지 1층","indutype":"일반휴게음식 - 일반한식","category":"restaurant"}]},{"lat":"37.754877604","long":"127.40211952","imageIndex":4,"items":[{"name":"가평썰매장식당","tel":"","addr":"경기도 가평군 상면 덕현리 157-3번지 2층","indutype":"일반휴게음식 - 일반한식","category":"restaurant"}]},{"lat":"37.754022933","long":"127.4174224","imageIndex":4,"items":[{"name":"강변의 풍차","tel":"031-584-5688","addr":"경기도 가평군 상면 덕현리 6-20번지 강변의풍차 A동 1층","indutype":"일반휴게음식 - 일반한식","category":"restaurant"},{"name":"강변의풍차","tel":"031-584-5686","addr":"경기도 가평군 상면 덕현리 6-20번지","indutype":"일반휴게음식 - 일반한식","category":"restaurant"}]},{"lat":"37.769685899","long":"127.38406233","imageIndex":4,"items":[{"name":"다리유원지식당","tel":"031-584-6061","addr":"경기도 가평군 상면 덕현리 산111-1번지","indutype":"일반휴게음식 - 일반한식","category":"restaurant"}]},{"lat":"37.765485483","long":"127.3902033","imageIndex":4,"items":[{"name":"레드썬","tel":"031-585-2242","addr":"경기도 가평군 상면 덕현리 494-14번지","indutype":"일반휴게음식 - 일반한식","category":"restaurant"}]},{"lat":"37.765263878","long":"127.3918364","imageIndex":4,"items":[{"name":"문교랜드","tel":"031-585-5253","addr":"경기도 가평군 상면 덕현리 495번지 외1필지","indutype":"일반휴게음식 - 일반한식","category":"restaurant"}]},{"lat":"37.753771376","long":"127.40420146","imageIndex":4,"items":[{"name":"밤나무골식당","tel":"031-584-0386","addr":"경기도 가평군 상면 덕현리 156-1번지","indutype":"일반휴게음식 - 일반한식","category":"restaurant"}]},{"lat":"37.762546594","long":"127.39347906","imageIndex":4,"items":[{"name":"사미가가든","tel":"031-584-0940","addr":"경기도 가평군 상면 덕현리 369-5번지 사미가식당","indutype":"일반휴게음식 - 일반한식","category":"restaurant"}]},{"lat":"37.754685474","long":"127.40825742","imageIndex":4,"items":[{"name":"산장가든유원지","tel":"031-584-3322","addr":"경기도 가평군 상면 덕현리 129-3번지 1층","indutype":"일반휴게음식 - 일반한식","category":"restaurant"}]},{"lat":"37.75457237","long":"127.41230781","imageIndex":4,"items":[{"name":"산장관광지식당","tel":"031-584-4420","addr":"경기도 가평군 상면 덕현리 산 74-1","indutype":"일반휴게음식 - 일반한식","category":"restaurant"}]},{"lat":"37.754960385","long":"127.40952983","imageIndex":4,"items":[{"name":"산장두부촌","tel":"031-584-0419","addr":"경기도 가평군 상면 덕현리 23-4번지","indutype":"일반휴게음식 - 일반한식","category":"restaurant"}]},{"lat":"37.756965727","long":"127.40273217","imageIndex":4,"items":[{"name":"슬레드밸리/청평슬레드밸리리조트 주식회사","tel":"031-585-1889","addr":"경기도 가평군 상면 덕현리 163번지","indutype":"일반휴게음식 - 일반한식","category":"restaurant"}]},{"lat":"37.761849902","long":"127.39437193","imageIndex":4,"items":[{"name":"장독대","tel":"031-584-2364","addr":"경기도 가평군 상면 덕현리 363-4번지","indutype":"일반휴게음식 - 일반한식","category":"restaurant"}]},{"lat":"37.759353641","long":"127.39456304","imageIndex":4,"items":[{"name":"천심가든","tel":"031-585-1342","addr":"경기도 가평군 상면 덕현리 401번지 천심가든","indutype":"일반휴게음식 - 일반한식","category":"restaurant"}]},{"lat":"37.765517037","long":"127.39156535","imageIndex":4,"items":[{"name":"항아리손칼국수","tel":"031-585-5878","addr":"경기도 가평군 상면 덕현리 497-73","indutype":"일반휴게음식 - 일반한식","category":"restaurant"}]},{"lat":"37.754877604","long":"127.40211952","imageIndex":13,"items":[{"name":"가평빙어체험장","tel":"031-8078-8048","addr":"경기도 가평군 상면 덕현리 157-3번지","indutype":"레저업소 - 기타레져업소","category":"leisure"}]},{"lat":"37.753243871","long":"127.41089344","imageIndex":7,"items":[{"name":"가평소나무펜션","tel":"031-584-8667","addr":"경기도 가평군 상면 덕현리 20-7번지","indutype":"음료식품 - 기타음료식품","category":"food"}]},{"lat":"37.764657554","long":"127.39265035","imageIndex":7,"items":[{"name":"녹수농원","tel":"","addr":"경기도 가평군 상면 덕현리 352-6번지","indutype":"음료식품 - 농·축·수산품","category":"food"}]},{"lat":"37.759958661","long":"127.39414635","imageIndex":7,"items":[{"name":"농업회사법인이일유발효여행 (주)","tel":"031-584-2883","addr":"경기도 가평군 상면 덕현리 391-13번지","indutype":"음료식품 - 기타음료식품","category":"food"},{"name":"이일유 발효체험","tel":"031-584-2883","addr":"경기도 가평군 상면 덕현리 391-13번지","indutype":"음료식품 - 기타음료식품","category":"food"}]},{"lat":"37.758601116","long":"127.39867839","imageIndex":7,"items":[{"name":"바우유원지","tel":"031-584-3176","addr":"경기도 가평군 상면 덕현리 181-2번지 바우유원지","indutype":"음료식품 - 기타음료식품","category":"food"}]},{"lat":"37.754237776","long":"127.40744931","imageIndex":7,"items":[{"name":"별빛누리캠핑장","tel":"","addr":"경기도 가평군 상면 덕현리 131-3번지","indutype":"음료식품 - 기타음료식품","category":"food"}]},{"lat":"37.753712551","long":"127.41083928","imageIndex":7,"items":[{"name":"산장관광지매점","tel":"031-584-2662","addr":"경기도 가평군 상면 덕현리 20-13번지","indutype":"음료식품 - 기타음료식품","category":"food"}]},{"lat":"37.757487576","long":"127.39759442","imageIndex":7,"items":[{"name":"약수매점","tel":"031-584-1307","addr":"경기도 가평군 상면 덕현리 407","indutype":"음료식품 - 기타음료식품","category":"food"}]},{"lat":"37.767769963","long":"127.3941194","imageIndex":7,"items":[{"name":"옥수매점","tel":"031-584-1078","addr":"경기도 가평군 상면 덕현리 308-2","indutype":"음료식품 - 기타음료식품","category":"food"}]},{"lat":"37.760292382","long":"127.39403462","imageIndex":7,"items":[{"name":"주식회사크래머리브루어리","tel":"070-0000-0000","addr":"경기도 가평군 상면 덕현리 391-12번지","indutype":"음료식품 - 기타음료식품","category":"food"}]},{"lat":"37.7591571","long":"127.39945302","imageIndex":7,"items":[{"name":"청수유원지","tel":"031-584-0694","addr":"경기도 가평군 상면 덕현리 181-1번지","indutype":"음료식품 - 기타음료식품","category":"food"}]},{"lat":"37.759078261","long":"127.39609358","imageIndex":7,"items":[{"name":"퍼플앤골드 샘터유원지","tel":"031-584-5030","addr":"경기도 가평군 상면 덕현리 404번지","indutype":"음료식품 - 기타음료식품","category":"food"}]},{"lat":"37.756854802","long":"127.40355995","imageIndex":7,"items":[{"name":"힐링가평오토캠핑장(매점)","tel":"031-974-0215","addr":"경기도 가평군 상면 덕현리 159-10번지 1층","indutype":"음료식품 - 기타음료식품","category":"food"}]},{"lat":"37.762548435","long":"127.39292299","imageIndex":7,"items":[{"name":"덕현슈퍼","tel":"031-584-4251","addr":"경기도 가평군 상면 덕현리 372-2번지","indutype":"유통업 영리 - 슈퍼마켓","category":"mart"},{"name":"덕현슈퍼","tel":"031-584-4251","addr":"경기도 가평군 상면 덕현리 372-2번지","indutype":"유통업 영리 - 슈퍼마켓","category":"mart"}]},{"lat":"37.76138251","long":"127.39404036","imageIndex":0,"items":[{"name":"덕현자동차공업사","tel":"031-585-5181","addr":"경기도 가평군 상면 덕현리 391-5","indutype":"자동차정비 유지 - 자동차정비","category":"car"}]},{"lat":"37.7622923","long":"127.39409055","imageIndex":9,"items":[{"name":"덕현주유소","tel":"031-585-5188","addr":"경기도 가평군 상면 덕현리 365-1번지","indutype":"연료판매점 - 현대정유(오일뱅크)","category":"oil"},{"name":"덕현주유소","tel":"031-585-5188","addr":"경기도 가평군 상면 덕현리 365-1번지 덕현주유소","indutype":"연료판매점 - 현대정유(오일뱅크)","category":"oil"}]},{"lat":"37.755965967","long":"127.39998067","imageIndex":9,"items":[{"name":"티펜션","tel":"031-585-9909","addr":"경기도 가평군 상면 덕현리 산 81-116","indutype":"연료판매점 - 기타연료","category":"oil"}]},{"lat":"37.766765828","long":"127.38714568","imageIndex":13,"items":[{"name":"성불암","tel":"070-8821-7130","addr":"경기도 가평군 상면 덕현리 산201번지","indutype":"보건위생 - 기타대인서비스","category":"beauty"}]},{"lat":"37.753856529","long":"127.41348398","imageIndex":13,"items":[{"name":"에프더블유원알앤디 주식회사(지점)","tel":"02-3442-5581","addr":"경기도 가평군 상면 덕현리 산74-12번지","indutype":"보건위생 - 화장품","category":"beauty"}]},{"lat":"37.75834838","long":"127.40414675","imageIndex":13,"items":[{"name":"파리에클라","tel":"031-593-5855","addr":"경기도 가평군 상면 덕현리 114-9번지","indutype":"보건위생 - 피부미용실","category":"beauty"}]}]