[{"lat":"37.59762422","long":"127.49725558","imageIndex":4,"items":[{"name":"가인만당","tel":"031-584-4640","addr":"경기도 가평군 설악면 가일리 206번지","indutype":"일반휴게음식 - 일반한식","category":"restaurant"}]},{"lat":"37.596182343","long":"127.50586302","imageIndex":4,"items":[{"name":"노르웨이 숲","tel":"","addr":"경기도 가평군 설악면 가일리 96-2번지","indutype":"일반휴게음식 - 일반한식","category":"restaurant"}]},{"lat":"37.596925681","long":"127.49191766","imageIndex":4,"items":[{"name":"리스캐빈","tel":"031-584-7580","addr":"경기도 가평군 설악면 가일리 261-10번지","indutype":"일반휴게음식 - 일반한식","category":"restaurant"}]},{"lat":"37.59212539","long":"127.48928205","imageIndex":4,"items":[{"name":"명산쉼터가든","tel":"031-584-6668","addr":"경기도 가평군 설악면 가일리 229-1번지","indutype":"일반휴게음식 - 일반한식","category":"restaurant"}]},{"lat":"37.596619278","long":"127.50481289","imageIndex":4,"items":[{"name":"물소리쉼터","tel":"031-585-6681","addr":"경기도 가평군 설악면 가일리 135-6번지","indutype":"일반휴게음식 - 일반한식","category":"restaurant"}]},{"lat":"37.599543346","long":"127.49291996","imageIndex":4,"items":[{"name":"미당","tel":"031-584-9992","addr":"경기도 가평군 설악면 가일리 193-4번지","indutype":"일반휴게음식 - 일반한식","category":"restaurant"}]},{"lat":"37.596210047","long":"127.50991692","imageIndex":4,"items":[{"name":"산골농원","tel":"031-584-7415","addr":"경기도 가평군 설악면 가일리 86-1번지","indutype":"일반휴게음식 - 일반한식","category":"restaurant"}]},{"lat":"37.595847798","long":"127.50824996","imageIndex":4,"items":[{"name":"산내들","tel":"031-585-5975","addr":"경기도 가평군 설악면 가일리 95-1번지 외1필지","indutype":"일반휴게음식 - 일반한식","category":"restaurant"}]},{"lat":"37.592181872","long":"127.48869364","imageIndex":4,"items":[{"name":"산여울","tel":"031-585-7588","addr":"경기도 가평군 설악면 가일리 225-4번지","indutype":"일반휴게음식 - 일반한식","category":"restaurant"}]},{"lat":"37.592683557","long":"127.48938759","imageIndex":4,"items":[{"name":"산장가든","tel":"031-584-9947","addr":"경기도 가평군 설악면 가일리 225-6번지","indutype":"일반휴게음식 - 일반한식","category":"restaurant"},{"name":"솔가든","tel":"031-584-9961","addr":"경기도 가평군 설악면 가일리 225-6번지","indutype":"일반휴게음식 - 일반한식","category":"restaurant"}]},{"lat":"37.602570614","long":"127.49291717","imageIndex":4,"items":[{"name":"수리재 식당","tel":"031-585-7874","addr":"경기도 가평군 설악면 가일리 308-9번지 1층 101,102호","indutype":"일반휴게음식 - 일반한식","category":"restaurant"}]},{"lat":"37.599403827","long":"127.49397215","imageIndex":4,"items":[{"name":"어비계곡 촌닭","tel":"031-585-1236","addr":"경기도 가평군 설악면 가일리 193-12번지 1층","indutype":"일반휴게음식 - 일반한식","category":"restaurant"},{"name":"으아리카페/어비계곡 촌닭","tel":"031-585-1236","addr":"경기도 가평군 설악면 가일리 193-12번지 1층","indutype":"일반휴게음식 - 일반한식","category":"restaurant"}]},{"lat":"37.59101316","long":"127.511614","imageIndex":4,"items":[{"name":"어비산오케이(OK)가든","tel":"031-584-7020","addr":"경기도 가평군 설악면 가일리 37-1번지","indutype":"일반휴게음식 - 일반한식","category":"restaurant"}]},{"lat":"37.590178354","long":"127.51089501","imageIndex":4,"items":[{"name":"어비산장","tel":"031-584-8190","addr":"경기도 가평군 설악면 가일리 9-3번지 1층","indutype":"일반휴게음식 - 일반한식","category":"restaurant"}]},{"lat":"37.590683613","long":"127.51072861","imageIndex":4,"items":[{"name":"어비소","tel":"031-854-3144","addr":"경기도 가평군 설악면 가일리 9-2번지 1층","indutype":"일반휴게음식 - 일반한식","category":"restaurant"}]},{"lat":"37.602956754","long":"127.49538839","imageIndex":4,"items":[{"name":"에이치에이치 (H.H)","tel":"","addr":"경기도 가평군 설악면 가일리 185-5번지 1층","indutype":"일반휴게음식 - 서양음식","category":"restaurant"}]},{"lat":"37.591428667","long":"127.51136773","imageIndex":4,"items":[{"name":"예담소","tel":"031-584-9415","addr":"경기도 가평군 설악면 가일리 36번지","indutype":"일반휴게음식 - 일반한식","category":"restaurant"}]},{"lat":"37.591789286","long":"127.48994789","imageIndex":4,"items":[{"name":"오렌지루프","tel":"031-585-7586","addr":"경기도 가평군 설악면 가일리 230-1번지","indutype":"일반휴게음식 - 스넥","category":"restaurant"},{"name":"장자터","tel":"031-584-7587","addr":"경기도 가평군 설악면 가일리 230-1번지","indutype":"일반휴게음식 - 일반한식","category":"restaurant"},{"name":"장자터","tel":"031-584-7587","addr":"경기도 가평군 설악면 가일리 230-1번지 1층","indutype":"일반휴게음식 - 일반한식","category":"restaurant"}]},{"lat":"37.596398328","long":"127.50592109","imageIndex":4,"items":[{"name":"올림픽벨리","tel":"031-584-6272","addr":"경기도 가평군 설악면 가일리 95-5번지","indutype":"일반휴게음식 - 일반한식","category":"restaurant"},{"name":"올림픽벨리(주)","tel":"031-584-6272","addr":"경기도 가평군 설악면 가일리 95-5번지","indutype":"일반휴게음식 - 일반한식","category":"restaurant"}]},{"lat":"37.591594686","long":"127.51047438","imageIndex":4,"items":[{"name":"유명가든","tel":"031-584-4320","addr":"경기도 가평군 설악면 가일리 16-1번지","indutype":"일반휴게음식 - 일반한식","category":"restaurant"}]},{"lat":"37.600093956","long":"127.49267445","imageIndex":4,"items":[{"name":"유명산가든","tel":"031-584-4857","addr":"경기도 가평군 설악면 가일리 290-6번지","indutype":"일반휴게음식 - 일반한식","category":"restaurant"}]},{"lat":"37.592535988","long":"127.4880279","imageIndex":4,"items":[{"name":"유명산골","tel":"070-8741-5724","addr":"경기도 가평군 설악면 가일리 226-1번지 1층","indutype":"일반휴게음식 - 일반한식","category":"restaurant"}]},{"lat":"37.59693004","long":"127.49086462","imageIndex":4,"items":[{"name":"유명산막국수","tel":"031-584-7277","addr":"경기도 가평군 설악면 가일리 271-1번지","indutype":"일반휴게음식 - 일반한식","category":"restaurant"}]},{"lat":"37.600451701","long":"127.49331093","imageIndex":4,"items":[{"name":"유명산춘천숯불닭갈비","tel":"031-584-5847","addr":"경기도 가평군 설악면 가일리 191번지","indutype":"일반휴게음식 - 일반한식","category":"restaurant"}]},{"lat":"37.602090761","long":"127.49348023","imageIndex":4,"items":[{"name":"유명산파크밸리","tel":"031-585-8027","addr":"경기도 가평군 설악면 가일리 308-18","indutype":"일반휴게음식 - 일반한식","category":"restaurant"},{"name":"카페밸리","tel":"031-584-1632","addr":"경기도 가평군 설악면 가일리 308-18번지 1층","indutype":"일반휴게음식 - 서양음식","category":"restaurant"}]},{"lat":"37.595319592","long":"127.49031059","imageIndex":4,"items":[{"name":"종점가든","tel":"031-584-0716","addr":"경기도 가평군 설악면 가일리 249-3번지","indutype":"일반휴게음식 - 일반한식","category":"restaurant"}]},{"lat":"37.609981095","long":"127.48964746","imageIndex":4,"items":[{"name":"중미산가든","tel":"031-585-3242","addr":"경기도 가평군 설악면 가일리 347-9번지","indutype":"일반휴게음식 - 일반한식","category":"restaurant"}]},{"lat":"37.596984177","long":"127.5100807","imageIndex":4,"items":[{"name":"펜션스타디움","tel":"031-584-2525","addr":"경기도 가평군 설악면 가일리 46-9번지","indutype":"일반휴게음식 - 일반한식","category":"restaurant"}]},{"lat":"37.592371055","long":"127.51011733","imageIndex":4,"items":[{"name":"하늘아래펜션식당","tel":"","addr":"경기도 가평군 설악면 가일리 126-2번지","indutype":"일반휴게음식 - 일반한식","category":"restaurant"}]},{"lat":"37.596452117","long":"127.49313748","imageIndex":4,"items":[{"name":"효인","tel":"","addr":"경기도 가평군 설악면 가일리 215-1번지","indutype":"일반휴게음식 - 서양음식","category":"restaurant"}]},{"lat":"37.589931466","long":"127.49038868","imageIndex":4,"items":[{"name":"휴양림가든","tel":"031-584-7607","addr":"경기도 가평군 설악면 가일리 231번지","indutype":"일반휴게음식 - 일반한식","category":"restaurant"}]}]