[{"lat":"37.89430415","long":"127.20588395","imageIndex":4,"items":[{"name":"153미향 유재열의명품코다리","tel":"031-536-0855","addr":"경기도 포천시 군내면 하성북리 669-6번지","indutype":"일반휴게음식 - 일반한식","category":"restaurant"},{"name":"미향유재열의명품코다리","tel":"536-8555","addr":"경기도 포천시 군내면 하성북리 669-6번지","indutype":"음식 - 한식","category":"restaurant"}]},{"lat":"37.903525217","long":"127.21355008","imageIndex":4,"items":[{"name":"STAY (스테이)","tel":"031-535-0825","addr":"경기도 포천시 군내면 하성북리 533-16번지 나동 1층","indutype":"일반휴게음식 - 일반한식","category":"restaurant"},{"name":"STAY(스테이)","tel":"-","addr":"경기도 포천시 군내면 하성북리 533-16번지 나동 1층","indutype":"음식 - 한식","category":"restaurant"}]},{"lat":"37.896995597","long":"127.21236044","imageIndex":4,"items":[{"name":"가람국수집","tel":"031-536-7747","addr":"경기도 포천시 군내면 하성북리 609번지 1층","indutype":"일반휴게음식 - 스넥","category":"restaurant"},{"name":"가람국수집","tel":"536-7747","addr":"경기도 포천시 군내면 하성북리 609번지","indutype":"음식 - 분식","category":"restaurant"}]},{"lat":"37.900521374","long":"127.21563356","imageIndex":4,"items":[{"name":"그늘집쉼터","tel":"031-535-0825","addr":"경기도 포천시 군내면 하성북리 566-5번지","indutype":"일반휴게음식 - 일반한식","category":"restaurant"}]},{"lat":"37.900913266","long":"127.21313332","imageIndex":4,"items":[{"name":"남원추어탕","tel":"532-5999","addr":"경기도 포천시 군내면 하성북리 560-3번지","indutype":"음식 - 한식","category":"restaurant"},{"name":"남원추어탕","tel":"031-532-5999","addr":"경기도 포천시 군내면 하성북리 560-3번지","indutype":"일반휴게음식 - 일반한식","category":"restaurant"}]},{"lat":"37.894998924","long":"127.2104448","imageIndex":4,"items":[{"name":"명품쌈밥","tel":"535-9659","addr":"경기도 포천시 군내면 하성북리 691번지","indutype":"음식 - 한식","category":"restaurant"},{"name":"명품쌈밥","tel":"031-535-9659","addr":"경기도 포천시 군내면 하성북리 691번지","indutype":"일반휴게음식 - 일반한식","category":"restaurant"}]},{"lat":"37.895689658","long":"127.21212936","imageIndex":4,"items":[{"name":"반월아트홀 쉼카페","tel":"031-554-6272","addr":"경기도 포천시 군내면 하성북리 610번지","indutype":"일반휴게음식 - 서양음식","category":"restaurant"},{"name":"반월아트홀쉼카페","tel":"-","addr":"경기도 포천시 군내면 하성북리 610번지","indutype":"음식 - 커피 등","category":"restaurant"}]},{"lat":"37.895885501","long":"127.20835538","imageIndex":4,"items":[{"name":"복순네  뼈다귀  해장국","tel":"031-536-6954","addr":"경기도 포천시 군내면 하성북리 675-1번지","indutype":"일반휴게음식 - 일반한식","category":"restaurant"},{"name":"복순네뼈다귀해장국","tel":"536-6954","addr":"경기도 포천시 군내면 하성북리 675-1번지","indutype":"음식 - 한식","category":"restaurant"}]},{"lat":"37.896445857","long":"127.20733371","imageIndex":4,"items":[{"name":"상황버섯 향촌","tel":"535-0005","addr":"경기도 포천시 군내면 하성북리 673번지","indutype":"음식 - 한식","category":"restaurant"},{"name":"상황버섯향촌","tel":"031-535-0005","addr":"경기도 포천시 군내면 하성북리 673번지","indutype":"일반휴게음식 - 일반한식","category":"restaurant"}]},{"lat":"37.894911388","long":"127.20898933","imageIndex":4,"items":[{"name":"소래포구","tel":"031-541-7434","addr":"경기도 포천시 군내면 하성북리 681-35번지","indutype":"일반휴게음식 - 일반한식","category":"restaurant"}]},{"lat":"37.894551693","long":"127.20860179","imageIndex":4,"items":[{"name":"용덕산장","tel":"031-532-1103","addr":"경기도 포천시 군내면 하성북리 681-13","indutype":"일반휴게음식 - 일반한식","category":"restaurant"},{"name":"용덕산장","tel":"532-1103","addr":"경기도 포천시 군내면 하성북리 681-13번지","indutype":"음식 - 한식","category":"restaurant"}]},{"lat":"37.895832951","long":"127.20749118","imageIndex":4,"items":[{"name":"전설쿡","tel":"031-535-4522","addr":"경기도 포천시 군내면 하성북리 674-3번지","indutype":"일반휴게음식 - 일반한식","category":"restaurant"},{"name":"전설쿡","tel":"535-4522","addr":"경기도 포천시 군내면 하성북리 674-3번지","indutype":"음식 - 한식","category":"restaurant"}]},{"lat":"37.898688887","long":"127.20749909","imageIndex":4,"items":[{"name":"참진","tel":"031-533-3636","addr":"경기도 포천시 군내면 하성북리 753-2번지","indutype":"일반휴게음식 - 일반한식","category":"restaurant"},{"name":"참진","tel":"533-3636","addr":"경기도 포천시 군내면 하성북리 753-2번지","indutype":"음식 - 한식","category":"restaurant"}]},{"lat":"37.894804667","long":"127.20819321","imageIndex":4,"items":[{"name":"카페 유나드","tel":"031-535-0825","addr":"경기도 포천시 군내면 하성북리 681-21번지 1층 1호","indutype":"일반휴게음식 - 서양음식","category":"restaurant"}]},{"lat":"37.893388463","long":"127.20918972","imageIndex":4,"items":[{"name":"콩마루","tel":"532-2234","addr":"경기도 포천시 군내면 하성북리 638번지","indutype":"음식 - 한식","category":"restaurant"},{"name":"콩마루","tel":"031-532-2234","addr":"경기도 포천시 군내면 하성북리 638번지","indutype":"일반휴게음식 - 일반한식","category":"restaurant"}]},{"lat":"37.903471406","long":"127.21341348","imageIndex":4,"items":[{"name":"타작마당","tel":"536-7476","addr":"경기도 포천시 군내면 하성북리 533-3번지","indutype":"음식 - 한식","category":"restaurant"},{"name":"타작마당","tel":"031-536-7476","addr":"경기도 포천시 군내면 하성북리 533-3번지 가동 1층","indutype":"일반휴게음식 - 일반한식","category":"restaurant"}]},{"lat":"37.90266574","long":"127.21554877","imageIndex":4,"items":[{"name":"호박꽃","tel":"536-8892","addr":"경기도 포천시 군내면 하성북리 541-1번지","indutype":"음식 - 한식","category":"restaurant"},{"name":"호박꽃","tel":"031-536-8892","addr":"경기도 포천시 군내면 하성북리 541-1번지","indutype":"일반휴게음식 - 일반한식","category":"restaurant"}]},{"lat":"37.89269465","long":"127.20924463","imageIndex":17,"items":[{"name":"JCIKOREA-포천","tel":"031-535-0999","addr":"경기도 포천시 군내면 하성북리 637-12번지","indutype":"기타 - 비영리/대상","category":"other"}]},{"lat":"37.896165759","long":"127.20779907","imageIndex":17,"items":[{"name":"K-스크린골프연습장","tel":"031-535-9050","addr":"경기도 포천시 군내면 하성북리 675-2","indutype":"회원제형태 - 레져업소","category":"other"}]},{"lat":"37.89430415","long":"127.20588395","imageIndex":17,"items":[{"name":"WITH MAGIC (위드매직)","tel":"","addr":"경기도 포천시 군내면 하성북리 669-6번지","indutype":"문화.취미 - 티켓","category":"other"},{"name":"씨유포천일고스타점","tel":"031-534-1978","addr":"경기도 포천시 군내면 하성북리 669-6번지 1층","indutype":"유통업 영리 - 편 의 점","category":"other"}]},{"lat":"37.898022794","long":"127.20715616","imageIndex":17,"items":[{"name":"경기종합건재","tel":"031-532-0266","addr":"경기도 포천시 군내면 하성북리 724-6번지","indutype":"건축자재 - 기타건축자재","category":"other"},{"name":"경기종합건재","tel":"532-0266","addr":"경기도 포천시 군내면 하성북리 724-6번지","indutype":"도소매 - 건축자재","category":"other"}]},{"lat":"37.900802976","long":"127.21434958","imageIndex":17,"items":[{"name":"군내산업","tel":"031-535-5352","addr":"경기도 포천시 군내면 하성북리 561-1","indutype":"용역 서비스 - 기타용역서비스","category":"other"}]},{"lat":"37.900272755","long":"127.21360903","imageIndex":17,"items":[{"name":"그린텍 애니멀 뉴트리션","tel":"031-535-0798","addr":"경기도 포천시 군내면 하성북리 560-14","indutype":"문화.취미 - 애완동물","category":"other"}]},{"lat":"37.898220938","long":"127.20719082","imageIndex":17,"items":[{"name":"그린홈","tel":"031-858-5011","addr":"경기도 포천시 군내면 하성북리 724-3번지 한강빌딩 4층","indutype":"용역 서비스 - 기타용역서비스","category":"other"},{"name":"대영지게차","tel":"","addr":"경기도 포천시 군내면 하성북리 724-3번지 한강빌딩 4층","indutype":"기타 - 기계공구","category":"other"},{"name":"이동지게차","tel":"031-534-1331","addr":"경기도 포천시 군내면 하성북리 724-3번지 한강빌딩 4층","indutype":"기타 - 기계공구","category":"other"},{"name":"포천고소작업대","tel":"031-542-2482","addr":"경기도 포천시 군내면 하성북리 724-3번지 한강빌딩 4층","indutype":"기타 - 기계공구","category":"other"},{"name":"한내건설기계 (신북석축조경)","tel":"031-536-2714","addr":"경기도 포천시 군내면 하성북리 724-3번지 한강빌딩 4층","indutype":"건축자재 - 인테리어전문","category":"other"},{"name":"한내건설기계 (자이건설중기)","tel":"031-532-2350","addr":"경기도 포천시 군내면 하성북리 724-3번지","indutype":"기타 - 기계공구","category":"other"},{"name":"한내건설기계 (한내크레인)","tel":"031-878-2000","addr":"경기도 포천시 군내면 하성북리 724-3번지 4층","indutype":"기타 - 기계공구","category":"other"},{"name":"한내건설기계(동원건설중기)","tel":"031-534-0066","addr":"경기도 포천시 군내면 하성북리 755 한강빌딩 4층","indutype":"기타 - 기계공구","category":"other"},{"name":"한내건설기계(포천육일지게차)","tel":"","addr":"경기도 포천시 군내면 하성북리 724-3번지 4층","indutype":"기타 - 기계공구","category":"other"},{"name":"효성크레인","tel":"031-541-8769","addr":"경기도 포천시 군내면 하성북리 755 한강빌딩4층","indutype":"기타 - 기계공구","category":"other"}]},{"lat":"37.894551693","long":"127.20860179","imageIndex":17,"items":[{"name":"극단한내","tel":"031-531-1982","addr":"경기도 포천시 군내면 하성북리 681-13번지 진남빌딩","indutype":"문화.취미 - 티켓","category":"other"}]},{"lat":"37.898688887","long":"127.20749909","imageIndex":17,"items":[{"name":"금강도아","tel":"031-535-8380","addr":"경기도 포천시 군내면 하성북리 753-2번지","indutype":"기타 - 기계공구","category":"other"},{"name":"오성종합설비","tel":"031-531-4062","addr":"경기도 포천시 군내면 하성북리 753-2번지","indutype":"용역 서비스 - 기타용역서비스","category":"other"}]},{"lat":"37.904357774","long":"127.23090364","imageIndex":17,"items":[{"name":"대한불교미타종화령당","tel":"070-8965-0212","addr":"경기도 포천시 군내면 하성북리 64-1번지","indutype":"기타 - 비영리/대상","category":"other"}]},{"lat":"37.900189938","long":"127.21457522","imageIndex":17,"items":[{"name":"라니네 유기사랑","tel":"","addr":"경기도 포천시 군내면 하성북리 561-3번지","indutype":"문화.취미 - 화원","category":"other"}]},{"lat":"37.893050566","long":"127.20663084","imageIndex":17,"items":[{"name":"마을슈퍼","tel":"535-2150","addr":"경기도 포천시 군내면 하성북리 657-4번지","indutype":"소매업 - 잡화","category":"other"}]},{"lat":"37.897969113","long":"127.20694","imageIndex":17,"items":[{"name":"반월건재","tel":"031-532-0268","addr":"경기도 포천시 군내면 하성북리 725-2번지","indutype":"건축자재 - 기타건축자재","category":"other"}]},{"lat":"37.903890238","long":"127.21093595","imageIndex":17,"items":[{"name":"신북낚시","tel":"031-535-9189","addr":"경기도 포천시 군내면 하성북리 769","indutype":"레져용품 - 스포츠·레져용품","category":"other"}]},{"lat":"37.894271909","long":"127.20888523","imageIndex":17,"items":[{"name":"씨유포천청성점","tel":"031-534-9159","addr":"경기도 포천시 군내면 하성북리 687-4번지 2층","indutype":"유통업 영리 - 편 의 점","category":"other"}]},{"lat":"37.894167045","long":"127.20702045","imageIndex":17,"items":[{"name":"아이티컴","tel":"02-1666-2440","addr":"경기도 포천시 군내면 하성북리 650-15번지","indutype":"수리서비스 - 사무·통신기기수리","category":"other"}]},{"lat":"37.893857045","long":"127.20913419","imageIndex":17,"items":[{"name":"애플편의점","tel":"534-7100","addr":"경기도 포천시 군내면 하성북리 641번지","indutype":"소매업 - 잡화","category":"other"},{"name":"애플편의점","tel":"031-534-7100","addr":"경기도 포천시 군내면 하성북리 641번지","indutype":"유통업 영리 - 편 의 점","category":"other"},{"name":"주식회사 에이원컨설팅","tel":"031-542-5833","addr":"경기도 포천시 군내면 하성북리 641번지 1층","indutype":"용역 서비스 - 종합용역","category":"other"}]},{"lat":"37.906103874","long":"127.22709987","imageIndex":17,"items":[{"name":"유니타일","tel":"031-536-5522","addr":"경기도 포천시 군내면 하성북리 262-1번지 1층","indutype":"건축자재 - 건축용 요업제품","category":"other"}]},{"lat":"37.89347183","long":"127.20788255","imageIndex":17,"items":[{"name":"정명슈퍼","tel":"536-4619","addr":"경기도 포천시 군내면 하성북리 640-8번지 정명빌라","indutype":"소매업 - 잡화","category":"other"}]},{"lat":"37.894669151","long":"127.20840884","imageIndex":17,"items":[{"name":"조이쥬","tel":"031-000-0000","addr":"경기도 포천시 군내면 하성북리 681-20번지 1동 502호","indutype":"용역 서비스 - 종합용역","category":"other"}]},{"lat":"37.903636691","long":"127.21166293","imageIndex":17,"items":[{"name":"중앙중장비센터","tel":"535-9335","addr":"경기도 포천시 군내면 하성북리 524-10번지","indutype":"도소매 - 부품","category":"other"}]},{"lat":"37.899471927","long":"127.21304963","imageIndex":17,"items":[{"name":"코버월드","tel":"070-4189-8668","addr":"경기도 포천시 군내면 하성북리 556-3번지","indutype":"서적문구 - 일반서적","category":"other"}]},{"lat":"37.89589066","long":"127.21054963","imageIndex":17,"items":[{"name":"포천시 시설관리공단","tel":"031-540-6108","addr":"경기도 포천시 군내면 하성북리 618번지","indutype":"문화.취미 - 티켓","category":"other"},{"name":"포천시 시설관리공단","tel":"031-540-6410","addr":"경기도 포천시 군내면 하성북리 618번지","indutype":"용역 서비스 - 가례서비스업","category":"other"},{"name":"포천시시설관리공단","tel":"031-540-6108","addr":"경기도 포천시 군내면 하성북리 618번지","indutype":"유통업 영리 - 기타유통업","category":"other"},{"name":"포천시시설관리공단","tel":"031-540-6108","addr":"경기도 포천시 군내면 하성북리 618번지","indutype":"문화.취미 - 문화취미기타","category":"other"},{"name":"포천시시설관리공단","tel":"031-540-6108","addr":"경기도 포천시 군내면 하성북리 618번지","indutype":"용역 서비스 - 사무서비스","category":"other"}]},{"lat":"37.895689658","long":"127.21212936","imageIndex":17,"items":[{"name":"포천시청","tel":"031-538-3554","addr":"경기도 포천시 군내면 하성북리 610번지 포천반월아트홀 관리사무실 3층","indutype":"기타 - 비영리/대상","category":"other"}]},{"lat":"37.89543871","long":"127.2062395","imageIndex":17,"items":[{"name":"포천중.종합고등학교총동문회","tel":"031-535-8336","addr":"경기도 포천시 군내면 하성북리 663번지","indutype":"기타 - 비영리/대상","category":"other"}]},{"lat":"37.893577558","long":"127.20924709","imageIndex":17,"items":[{"name":"포천지업","tel":"070-5661-8300","addr":"경기도 포천시 군내면 하성북리 639-1번지 1층","indutype":"유통업 영리 - 기타유통업","category":"other"}]},{"lat":"37.893050566","long":"127.20663084","imageIndex":7,"items":[{"name":"마을슈퍼","tel":"031-535-2150","addr":"경기도 포천시 군내면 하성북리 657-4번지","indutype":"유통업 영리 - 슈퍼마켓","category":"mart"}]},{"lat":"37.895689658","long":"127.21212936","imageIndex":16,"items":[{"name":"반월어린이집[아이행복]","tel":"031-536-1774","addr":"경기도 포천시 군내면 하성북리 610번지","indutype":"학원 - 유아원","category":"study"}]},{"lat":"37.90463712","long":"127.21143835","imageIndex":16,"items":[{"name":"포천꿈나무어린이집[아이행복]","tel":"031-536-0302","addr":"경기도 포천시 군내면 하성북리 520-1번지","indutype":"학원 - 유아원","category":"study"}]},{"lat":"37.89543871","long":"127.2062395","imageIndex":16,"items":[{"name":"포천일고등학교","tel":"","addr":"경기도 포천시 군내면 하성북리 663번지 포천일고등학교","indutype":"학원 - 초중고교육기관","category":"study"},{"name":"포천일고등학교_수업료","tel":"","addr":"경기도 포천시 군내면 하성북리 663번지 포천일고등학교","indutype":"학원 - 초중고교육기관","category":"study"}]},{"lat":"37.895914607","long":"127.20716171","imageIndex":0,"items":[{"name":"신일모터스","tel":"031-536-2847","addr":"경기도 포천시 군내면 하성북리 673-1번지","indutype":"자동차정비 유지 - 자동차정비","category":"car"},{"name":"신일세차장","tel":"031-536-2847","addr":"경기도 포천시 군내면 하성북리 673-1번지","indutype":"자동차정비 유지 - 세차장","category":"car"}]},{"lat":"37.899273975","long":"127.20779632","imageIndex":0,"items":[{"name":"엘케이(LK)모터스","tel":"031-535-0614","addr":"경기도 포천시 군내면 하성북리 757-2번지","indutype":"자동차정비 유지 - 자동차정비","category":"car"}]},{"lat":"37.89589066","long":"127.21054963","imageIndex":0,"items":[{"name":"포천시 시설관리공단","tel":"031-540-6350","addr":"경기도 포천시 군내면 하성북리 618번지","indutype":"자동차정비 유지 - 주차장","category":"car"}]},{"lat":"37.896662474","long":"127.20710693","imageIndex":0,"items":[{"name":"호성자동차정비","tel":"031-536-0010","addr":"경기도 포천시 군내면 하성북리 669-14번지","indutype":"자동차정비 유지 - 자동차정비","category":"car"}]},{"lat":"37.894442368","long":"127.20929498","imageIndex":0,"items":[{"name":"홍카","tel":"031-531-0992","addr":"경기도 포천시 군내면 하성북리 649-5번지 1층","indutype":"자동차정비 유지 - 자동차부품","category":"car"}]},{"lat":"37.907163833","long":"127.22874048","imageIndex":7,"items":[{"name":"유창제과","tel":"031-532-2344","addr":"경기도 포천시 군내면 하성북리 87-3","indutype":"음료식품 - 제과점","category":"food"}]},{"lat":"37.89589066","long":"127.21054963","imageIndex":7,"items":[{"name":"포천시시설관리공단","tel":"031-540-4108","addr":"경기도 포천시 군내면 하성북리 618","indutype":"음료식품 - 기타음료식품","category":"food"}]},{"lat":"37.90463712","long":"127.21143835","imageIndex":7,"items":[{"name":"포천시장애인보호작업장","tel":"031-535-9191","addr":"경기도 포천시 군내면 하성북리 520-1번지","indutype":"음료식품 - 제과점","category":"food"}]},{"lat":"37.89589066","long":"127.21054963","imageIndex":13,"items":[{"name":"포천시시설관리공단","tel":"031-540-6108","addr":"경기도 포천시 군내면 하성북리 618번지","indutype":"레저업소 - 헬스클럽","category":"leisure"},{"name":"포천시시설관리공단/체육센터","tel":"031-540-6205","addr":"경기도 포천시 군내면 하성북리 618번지","indutype":"레저업소 - 헬스클럽","category":"leisure"}]},{"lat":"37.89796777","long":"127.20771311","imageIndex":8,"items":[{"name":"한강동물병원","tel":"031-536-8388","addr":"경기도 포천시 군내면 하성북리 755","indutype":"기타의료기관 - 동물병원","category":"medical"}]}]