[{"lat":"37.720345487","long":"126.7082116","imageIndex":16,"items":[{"name":"(주)아이앤미래","tel":"031-947-1449","addr":"경기도 파주시 문발동 600-5","indutype":"회원제형태 - 학원","category":"study"}]},{"lat":"37.7276165","long":"126.71196011","imageIndex":16,"items":[{"name":"ASE 어린이집[아이행복]","tel":"031-946-9193","addr":"경기도 파주시 문발동 494","indutype":"학원 - 유아원","category":"study"}]},{"lat":"37.708180724","long":"126.68663379","imageIndex":16,"items":[{"name":"HWGA어학원","tel":"031-599-1995","addr":"경기도 파주시 문발동 524-3번지","indutype":"학원 - 외국어학원","category":"study"},{"name":"사회복지책마을","tel":"02-383-0743","addr":"경기도 파주시 문발동 524-3번지","indutype":"학원 - 독서실","category":"study"}]},{"lat":"37.726955169","long":"126.70688095","imageIndex":16,"items":[{"name":"경희대문발태권도","tel":"031-948-6999","addr":"경기도 파주시 문발동 552-9 1층","indutype":"학원 - 예·체능계학원","category":"study"}]},{"lat":"37.726648021","long":"126.70655322","imageIndex":16,"items":[{"name":"골목대장미술교습소","tel":"","addr":"경기도 파주시 문발동 553-8번지","indutype":"학원 - 예·체능계학원","category":"study"}]},{"lat":"37.723978766","long":"126.70918403","imageIndex":16,"items":[{"name":"문발뮤엠영어교습소","tel":"070-5030-4898","addr":"경기도 파주시 문발동 560번지","indutype":"학원 - 외국어학원","category":"study"},{"name":"하얀솜사탕어린이집[아이행복]","tel":"031-949-4870","addr":"경기도 파주시 문발동 560번지","indutype":"학원 - 유아원","category":"study"}]},{"lat":"37.72586883","long":"126.70840524","imageIndex":16,"items":[{"name":"문발유치원[아이행복]","tel":"031-949-9466","addr":"경기도 파주시 문발동 547번지 노을빛마을주공아파트","indutype":"학원 - 유치원","category":"study"},{"name":"베스틴피아노","tel":"031-942-9970","addr":"경기도 파주시 문발동 547번지 주공2단지(A)상가206호","indutype":"학원 - 예·체능계학원","category":"study"}]},{"lat":"37.707152822","long":"126.68633197","imageIndex":16,"items":[{"name":"비전드림어학원","tel":"0505-299-5299","addr":"경기도 파주시 문발동 531-1번지","indutype":"회원제형태 - 학원","category":"study"}]},{"lat":"37.722902957","long":"126.70060195","imageIndex":16,"items":[{"name":"솔로몬어린이집[아이행복]","tel":"031-946-5674","addr":"경기도 파주시 문발동 93-3번지","indutype":"학원 - 유아원","category":"study"}]},{"lat":"37.724037667","long":"126.71113474","imageIndex":16,"items":[{"name":"아이원 (ione)","tel":"031-942-5534","addr":"경기도 파주시 문발동 562-2번지","indutype":"학원 - 기타 교육기관","category":"study"}]},{"lat":"37.726512508","long":"126.7064063","imageIndex":16,"items":[{"name":"안단테피아노교습소","tel":"031-957-1533","addr":"경기도 파주시 문발동 553-9번지","indutype":"학원 - 예·체능계학원","category":"study"},{"name":"이백학원","tel":"031-915-6541","addr":"경기도 파주시 문발동 553-9번지 1층 이백학원","indutype":"회원제형태 - 학원","category":"study"}]},{"lat":"37.719563136","long":"126.70880449","imageIndex":16,"items":[{"name":"에셀피아노교습소","tel":"070-8722-5229","addr":"경기도 파주시 문발동 606-4번지","indutype":"학원 - 예·체능계학원","category":"study"}]},{"lat":"37.723300395","long":"126.7081205","imageIndex":16,"items":[{"name":"오감트리","tel":"","addr":"경기도 파주시 문발동 560번지 숲속길마을동문굿모닝힐","indutype":"학원 - 기타 교육기관","category":"study"}]},{"lat":"37.720094695","long":"126.70880239","imageIndex":16,"items":[{"name":"우리동네공부방","tel":"031-972-2234","addr":"경기도 파주시 문발동 604-10번지","indutype":"학원 - 보습학원","category":"study"}]},{"lat":"37.719373379","long":"126.70499432","imageIndex":16,"items":[{"name":"일맥국어","tel":"031-973-0307","addr":"경기도 파주시 문발동 594-9번지","indutype":"학원 - 보습학원","category":"study"}]},{"lat":"37.720345505","long":"126.69413597","imageIndex":16,"items":[{"name":"주식회사 아시아","tel":"02-821-5055","addr":"경기도 파주시 문발동 638-5번지","indutype":"학원 - 기타 교육기관","category":"study"}]},{"lat":"37.707897253","long":"126.68508138","imageIndex":16,"items":[{"name":"출판도시어린이집[아이행복]","tel":"031-955-5600","addr":"경기도 파주시 문발동 525-4번지","indutype":"학원 - 유아원","category":"study"}]},{"lat":"37.708148233","long":"126.68460401","imageIndex":16,"items":[{"name":"출판도시활판공방주식회사","tel":"031-955-0085","addr":"경기도 파주시 문발동 520-8번지","indutype":"학원 - 기타 교육기관","category":"study"}]},{"lat":"37.724568889","long":"126.71099655","imageIndex":16,"items":[{"name":"케이투(K2)학원","tel":"031-949-4825","addr":"경기도 파주시 문발동 561-3번지","indutype":"학원 - 보습학원","category":"study"}]},{"lat":"37.706037046","long":"126.68685836","imageIndex":16,"items":[{"name":"효남빌딩","tel":"031-955-4982","addr":"경기도 파주시 문발동 531-6","indutype":"학원 - 독서실","category":"study"}]}]