[{"lat":"37.095451235","long":"126.85711401","imageIndex":4,"items":[{"name":"고향맛갈","tel":"031-351-9595","addr":"경기도 화성시 장안면 수촌리 230번지 1동","indutype":"일반휴게음식 - 일반한식","category":"restaurant"}]},{"lat":"37.102587146","long":"126.84280229","imageIndex":4,"items":[{"name":"고향어머니손맛","tel":"031-358-9391","addr":"경기도 화성시 장안면 수촌리 883-4번지 2층","indutype":"일반휴게음식 - 일반한식","category":"restaurant"},{"name":"낙지천국","tel":"031-351-3538","addr":"경기도 화성시 장안면 수촌리 883-4번지 1동 1층","indutype":"일반휴게음식 - 일반한식","category":"restaurant"},{"name":"커피여행 장안점","tel":"031-351-5668","addr":"경기도 화성시 장안면 수촌리 883-4번지 좌측 2동 1층","indutype":"일반휴게음식 - 서양음식","category":"restaurant"}]},{"lat":"37.092699244","long":"126.8614385","imageIndex":4,"items":[{"name":"금화가든","tel":"031-351-6330","addr":"경기도 화성시 장안면 수촌리 280번지","indutype":"일반휴게음식 - 일반한식","category":"restaurant"},{"name":"자반","tel":"031-358-7879","addr":"경기도 화성시 장안면 수촌리 280번지 1층","indutype":"일반휴게음식 - 일반한식","category":"restaurant"}]},{"lat":"37.103806146","long":"126.84472341","imageIndex":4,"items":[{"name":"김밥이랑","tel":"031-353-1505","addr":"경기도 화성시 장안면 수촌리 1474-3번지 101호","indutype":"일반휴게음식 - 스넥","category":"restaurant"},{"name":"락","tel":"","addr":"경기도 화성시 장안면 수촌리 1474-3번지","indutype":"일반휴게음식 - 서양음식","category":"restaurant"},{"name":"맛터한식식당","tel":"031-358-5835","addr":"경기도 화성시 장안면 수촌리 1474-3번지","indutype":"일반휴게음식 - 일반한식","category":"restaurant"},{"name":"용인토종순대","tel":"031-336-6533","addr":"경기도 화성시 장안면 수촌리 1474-3번지 106호","indutype":"일반휴게음식 - 일반한식","category":"restaurant"},{"name":"청춘예찬","tel":"031-385-5835","addr":"경기도 화성시 장안면 수촌리 1474-3번지 102호","indutype":"일반휴게음식 - 일반한식","category":"restaurant"},{"name":"치킨이닭","tel":"031-358-3578","addr":"경기도 화성시 장안면 수촌리 1474-3번지 110호","indutype":"일반휴게음식 - 스넥","category":"restaurant"}]},{"lat":"37.102112494","long":"126.85913738","imageIndex":4,"items":[{"name":"나비한식부페","tel":"031-0000-0000","addr":"경기도 화성시 장안면 수촌리 552번지","indutype":"일반휴게음식 - 일반한식","category":"restaurant"},{"name":"큰집한식뷔페","tel":"031-357-2486","addr":"경기도 화성시 장안면 수촌리 552번지","indutype":"일반휴게음식 - 일반한식","category":"restaurant"}]},{"lat":"37.102424623","long":"126.84255514","imageIndex":4,"items":[{"name":"농장정육식당별관","tel":"031-358-6802","addr":"경기도 화성시 장안면 수촌리 883-17번지 1층 102호","indutype":"일반휴게음식 - 일반한식","category":"restaurant"},{"name":"밥이랑술이랑","tel":"070-8947-4490","addr":"경기도 화성시 장안면 수촌리 883-17번지","indutype":"일반휴게음식 - 일반한식","category":"restaurant"},{"name":"큰상차림한식부페","tel":"031-351-8133","addr":"경기도 화성시 장안면 수촌리 883-17번지","indutype":"일반휴게음식 - 일반한식","category":"restaurant"}]},{"lat":"37.090086953","long":"126.86208447","imageIndex":4,"items":[{"name":"대영한식부페","tel":"031-3386-2119","addr":"경기도 화성시 장안면 수촌리 135-5번지","indutype":"일반휴게음식 - 일반한식","category":"restaurant"}]},{"lat":"37.094032306","long":"126.86101984","imageIndex":4,"items":[{"name":"떴다 철가방","tel":"031-358-8723","addr":"경기도 화성시 장안면 수촌리 288-1번지","indutype":"일반휴게음식 - 중국식","category":"restaurant"},{"name":"행복한 밥집","tel":"031-366-2969","addr":"경기도 화성시 장안면 수촌리 288-1번지 2동","indutype":"일반휴게음식 - 일반한식","category":"restaurant"}]},{"lat":"37.093312523","long":"126.86190978","imageIndex":4,"items":[{"name":"레드브라운","tel":"031-351-3938","addr":"경기도 화성시 장안면 수촌리 291번지 1동 1층","indutype":"일반휴게음식 - 서양음식","category":"restaurant"}]},{"lat":"37.092564983","long":"126.86219237","imageIndex":4,"items":[{"name":"만석한식부페","tel":"031-351-0410","addr":"경기도 화성시 장안면 수촌리 74번지","indutype":"일반휴게음식 - 일반한식","category":"restaurant"}]},{"lat":"37.100286882","long":"126.86207685","imageIndex":4,"items":[{"name":"밥사랑한식부페","tel":"031-358-7335","addr":"경기도 화성시 장안면 수촌리 428-22번지 2동","indutype":"일반휴게음식 - 일반한식","category":"restaurant"}]},{"lat":"37.103284524","long":"126.84546697","imageIndex":4,"items":[{"name":"상해","tel":"031-351-8215","addr":"경기도 화성시 장안면 수촌리 908-9번지","indutype":"일반휴게음식 - 중국식","category":"restaurant"}]},{"lat":"37.102869744","long":"126.85943969","imageIndex":4,"items":[{"name":"송정한식뷔페","tel":"031-351-5753","addr":"경기도 화성시 장안면 수촌리 440-5번지","indutype":"일반휴게음식 - 일반한식","category":"restaurant"}]},{"lat":"37.095951951","long":"126.86135372","imageIndex":4,"items":[{"name":"수촌골","tel":"031-351-9245","addr":"경기도 화성시 장안면 수촌리 369-3번지","indutype":"일반휴게음식 - 일반한식","category":"restaurant"}]},{"lat":"37.08980788","long":"126.86229869","imageIndex":4,"items":[{"name":"수촌장터순대국.소머리국밥","tel":"031-358-8253","addr":"경기도 화성시 장안면 수촌리 135-18번지 1층","indutype":"일반휴게음식 - 일반한식","category":"restaurant"}]},{"lat":"37.101866017","long":"126.86402006","imageIndex":4,"items":[{"name":"스타호프","tel":"070-4460-6400","addr":"경기도 화성시 장안면 수촌리 425-48번지 1동 2층","indutype":"일반휴게음식 - 주점","category":"restaurant"}]},{"lat":"37.097502658","long":"126.8621045","imageIndex":4,"items":[{"name":"스텔라커피하우스","tel":"031-358-1894","addr":"경기도 화성시 장안면 수촌리 374-20번지 1층","indutype":"일반휴게음식 - 서양음식","category":"restaurant"}]},{"lat":"37.10286596","long":"126.86382699","imageIndex":4,"items":[{"name":"양평우리해장국","tel":"031-351-8567","addr":"경기도 화성시 장안면 수촌리 419-18번지 1동","indutype":"일반휴게음식 - 일반한식","category":"restaurant"}]},{"lat":"37.102865909","long":"126.84238547","imageIndex":4,"items":[{"name":"언니네","tel":"031-8059-5989","addr":"경기도 화성시 장안면 수촌리 877-26번지 대진빌딩","indutype":"일반휴게음식 - 일반한식","category":"restaurant"}]},{"lat":"37.094891597","long":"126.86379657","imageIndex":4,"items":[{"name":"엄마손뷔페","tel":"031-111-1111","addr":"경기도 화성시 장안면 수촌리 22-40번지","indutype":"일반휴게음식 - 일반한식","category":"restaurant"}]},{"lat":"37.103700588","long":"126.83996505","imageIndex":4,"items":[{"name":"엄마손식당","tel":"031-0000-0000","addr":"경기도 화성시 장안면 수촌리 877-36번지 1층","indutype":"일반휴게음식 - 일반한식","category":"restaurant"}]},{"lat":"37.092840331","long":"126.86649984","imageIndex":4,"items":[{"name":"온천회관","tel":"031-351-1336","addr":"경기도 화성시 장안면 수촌리 24-5번지","indutype":"일반휴게음식 - 일반한식","category":"restaurant"}]},{"lat":"37.097285776","long":"126.86157621","imageIndex":4,"items":[{"name":"용정가든","tel":"031-111-1111","addr":"경기도 화성시 장안면 수촌리 358-7번지","indutype":"일반휴게음식 - 일반한식","category":"restaurant"}]},{"lat":"37.102807396","long":"126.85274636","imageIndex":4,"items":[{"name":"웰빙동태찌게전문점","tel":"031-351-7976","addr":"경기도 화성시 장안면 수촌리 711-1번지","indutype":"일반휴게음식 - 일반한식","category":"restaurant"}]},{"lat":"37.091533745","long":"126.85883118","imageIndex":4,"items":[{"name":"자연한식뷔페","tel":"031-358-4567","addr":"경기도 화성시 장안면 수촌리 265-24번지","indutype":"일반휴게음식 - 일반한식","category":"restaurant"}]},{"lat":"37.093813843","long":"126.8668243","imageIndex":4,"items":[{"name":"장독대","tel":"080-7622-2855","addr":"경기도 화성시 장안면 수촌리 22번지 103호","indutype":"일반휴게음식 - 일반한식","category":"restaurant"}]},{"lat":"37.102479547","long":"126.86471641","imageIndex":4,"items":[{"name":"전주명가","tel":"031-358-9595","addr":"경기도 화성시 장안면 수촌리 425-15번지 1층","indutype":"일반휴게음식 - 일반한식","category":"restaurant"}]},{"lat":"37.094338542","long":"126.86091804","imageIndex":4,"items":[{"name":"정원식빵","tel":"","addr":"경기도 화성시 장안면 수촌리 288-19번지 1층 101호","indutype":"일반휴게음식 - 서양음식","category":"restaurant"}]},{"lat":"37.094977398","long":"126.84591159","imageIndex":4,"items":[{"name":"주식회사 들밥푸드지점(산정한식뷔페)","tel":"031-351-9868","addr":"경기도 화성시 장안면 수촌리 1011-12번지","indutype":"일반휴게음식 - 일반한식","category":"restaurant"}]},{"lat":"37.089647679","long":"126.85649526","imageIndex":4,"items":[{"name":"지연한식부페","tel":"031-351-6783","addr":"경기도 화성시 장안면 수촌리 157-2번지","indutype":"일반휴게음식 - 일반한식","category":"restaurant"}]},{"lat":"37.090231375","long":"126.86229791","imageIndex":4,"items":[{"name":"투박이","tel":"031-351-5060","addr":"경기도 화성시 장안면 수촌리 92번지 3호","indutype":"일반휴게음식 - 일반한식","category":"restaurant"}]},{"lat":"37.089808771","long":"126.86305228","imageIndex":4,"items":[{"name":"평택정대포 튀겨좋은닭","tel":"031-351-7918","addr":"경기도 화성시 장안면 수촌리 92번지 1층","indutype":"일반휴게음식 - 일반한식","category":"restaurant"}]},{"lat":"37.094366165","long":"126.86141291","imageIndex":4,"items":[{"name":"포차9단","tel":"031-311-2370","addr":"경기도 화성시 장안면 수촌리 365-2번지","indutype":"일반휴게음식 - 일반한식","category":"restaurant"}]},{"lat":"37.105833971","long":"126.85924285","imageIndex":4,"items":[{"name":"현대식당","tel":"031-357-1462","addr":"경기도 화성시 장안면 수촌리 1413-15번지 1층","indutype":"일반휴게음식 - 일반한식","category":"restaurant"}]},{"lat":"37.092925177","long":"126.86200048","imageIndex":4,"items":[{"name":"호남맛집","tel":"031-358-3321","addr":"경기도 화성시 장안면 수촌리 73-1번지","indutype":"일반휴게음식 - 일반한식","category":"restaurant"}]}]