[{"lat":"37.865770263","long":"126.80440166","imageIndex":8,"items":[{"name":"강남치과","tel":"031-952-2580","addr":"경기도 파주시 문산읍 선유리 420-1번지 50km마트 2층 203호","indutype":"의원 - 치과의원","category":"medical"},{"name":"기운찬한의원","tel":"031-953-7510","addr":"경기도 파주시 문산읍 선유리 420-1번지","indutype":"의원 - 한의원","category":"medical"},{"name":"서울가정의학과의원","tel":"031-937-8275","addr":"경기도 파주시 문산읍 선유리 420-1번지","indutype":"의원 - 의원","category":"medical"},{"name":"은광약국","tel":"031-947-7100","addr":"경기도 파주시 문산읍 선유리 420-1번지","indutype":"약국 - 약국","category":"medical"}]},{"lat":"37.859828708","long":"126.78656548","imageIndex":8,"items":[{"name":"늘푸른약국","tel":"031-953-8448","addr":"경기도 파주시 문산읍 선유리 950-11번지","indutype":"약국 - 약국","category":"medical"},{"name":"메디플러스 내과의원","tel":"031-950-9120","addr":"경기도 파주시 문산읍 선유리 950-11번지","indutype":"의원 - 의원","category":"medical"},{"name":"소망요양병원","tel":"031-954-8275","addr":"경기도 파주시 문산읍 선유리 950-11번지","indutype":"병원 - 병원","category":"medical"}]},{"lat":"37.86037961","long":"126.78729114","imageIndex":8,"items":[{"name":"문산한의원","tel":"031-53-1778","addr":"경기도 파주시 문산읍 선유리 950-19번지","indutype":"의원 - 한의원","category":"medical"}]},{"lat":"37.860803339","long":"126.787449","imageIndex":8,"items":[{"name":"서울의원","tel":"031-952-3375","addr":"경기도 파주시 문산읍 선유리 951-2번지","indutype":"의원 - 의원","category":"medical"}]},{"lat":"37.860523697","long":"126.78725663","imageIndex":8,"items":[{"name":"십자약국","tel":"031-952-9042","addr":"경기도 파주시 문산읍 선유리 950-18번지","indutype":"약국 - 약국","category":"medical"}]},{"lat":"37.860911451","long":"126.78744869","imageIndex":8,"items":[{"name":"호선약국","tel":"031-953-7249","addr":"경기도 파주시 문산읍 선유리 943-26번지","indutype":"약국 - 약국","category":"medical"}]}]