[{"lat":"37.291590356","long":"126.93978417","imageIndex":4,"items":[{"name":"59쌀피자","tel":"031-408-5954","addr":"경기도 수원시 권선구 당수동 261-7번지 101호","indutype":"일반휴게음식 - 스넥","category":"restaurant"},{"name":"부(Boo)","tel":"031-506-5655","addr":"경기도 수원시 권선구 당수동 261-7번지 2층","indutype":"일반휴게음식 - 일반한식","category":"restaurant"}]},{"lat":"37.291707284","long":"126.93940064","imageIndex":4,"items":[{"name":"강남동태찜,탕전문점","tel":"031-419-3970","addr":"경기도 수원시 권선구 당수동 274-2번지","indutype":"일반휴게음식 - 일반한식","category":"restaurant"}]},{"lat":"37.291932315","long":"126.93898318","imageIndex":4,"items":[{"name":"강원도할매떡볶이","tel":"031-419-0379","addr":"경기도 수원시 권선구 당수동 273-3번지 한스프라자 105호","indutype":"일반휴게음식 - 스넥","category":"restaurant"},{"name":"밥앤스낵","tel":"031-875-2018","addr":"경기도 수원시 권선구 당수동 273-3번지 한스프라자 1층 107호","indutype":"일반휴게음식 - 일반한식","category":"restaurant"}]},{"lat":"37.292735347","long":"126.94109143","imageIndex":4,"items":[{"name":"갯마을바지락칼국수","tel":"031-415-9300","addr":"경기도 수원시 권선구 당수동 152-1번지 1층","indutype":"일반휴게음식 - 일반한식","category":"restaurant"},{"name":"윤가네칼국수","tel":"031-419-5355","addr":"경기도 수원시 권선구 당수동 152-1번지","indutype":"일반휴게음식 - 일반한식","category":"restaurant"}]},{"lat":"37.290761973","long":"126.94084494","imageIndex":4,"items":[{"name":"고향식당","tel":"031-419-2700","addr":"경기도 수원시 권선구 당수동 232-2번지 당수프라자 1층 107호","indutype":"일반휴게음식 - 일반한식","category":"restaurant"},{"name":"낭만소주","tel":"031-297-1383","addr":"경기도 수원시 권선구 당수동 232-2번지 당수프라자 1층 109호","indutype":"일반휴게음식 - 일반한식","category":"restaurant"},{"name":"삼.일.오(3.1.5)포차","tel":"","addr":"경기도 수원시 권선구 당수동 232-2번지 당수프라자 110호","indutype":"일반휴게음식 - 일반한식","category":"restaurant"},{"name":"원샷","tel":"031-409-6312","addr":"경기도 수원시 권선구 당수동 232-2번지 당수프라자 111호","indutype":"일반휴게음식 - 주점","category":"restaurant"},{"name":"통닭원5900당수점","tel":"031-419-2494","addr":"경기도 수원시 권선구 당수동 232-2번지 당수프라자 112호","indutype":"일반휴게음식 - 스넥","category":"restaurant"}]},{"lat":"37.291455382","long":"126.94012261","imageIndex":4,"items":[{"name":"김밥나라","tel":"031-419-2800","addr":"경기도 수원시 권선구 당수동 261-2번지 기와프라자","indutype":"일반휴게음식 - 스넥","category":"restaurant"},{"name":"꼬치잠자리","tel":"031-416-9202","addr":"경기도 수원시 권선구 당수동 261-2번지 기와프라자 104호","indutype":"일반휴게음식 - 주점","category":"restaurant"},{"name":"또봉이통닭 당수점","tel":"","addr":"경기도 수원시 권선구 당수동 261-2번지 기와프라자 1동 101호","indutype":"일반휴게음식 - 스넥","category":"restaurant"},{"name":"토스피아","tel":"031-415-8595","addr":"경기도 수원시 권선구 당수동 261-2번지 기와프라자 105호","indutype":"일반휴게음식 - 서양음식","category":"restaurant"}]},{"lat":"37.290509627","long":"126.94073238","imageIndex":4,"items":[{"name":"나만알고싶은#","tel":"031-226-6404","addr":"경기도 수원시 권선구 당수동 232-39번지 1층,2층","indutype":"일반휴게음식 - 서양음식","category":"restaurant"}]},{"lat":"37.289959633","long":"126.94003364","imageIndex":4,"items":[{"name":"나산식당","tel":"031-419-3655","addr":"경기도 수원시 권선구 당수동 241-2번지","indutype":"일반휴게음식 - 일반한식","category":"restaurant"}]},{"lat":"37.291175649","long":"126.9393447","imageIndex":4,"items":[{"name":"나성켄터키당수점","tel":"031-415-8294","addr":"경기도 수원시 권선구 당수동 260-6번지 108,109호","indutype":"일반휴게음식 - 일반한식","category":"restaurant"}]},{"lat":"37.27862521","long":"126.94095639","imageIndex":4,"items":[{"name":"놋그릇","tel":"","addr":"경기도 수원시 권선구 당수동 693번지","indutype":"일반휴게음식 - 일반한식","category":"restaurant"}]},{"lat":"37.291042949","long":"126.94409262","imageIndex":4,"items":[{"name":"늘푸른식당","tel":"031-419-8141","addr":"경기도 수원시 권선구 당수동 225-1번지","indutype":"일반휴게음식 - 일반한식","category":"restaurant"}]},{"lat":"37.291040701","long":"126.93972825","imageIndex":4,"items":[{"name":"당수왕갈비","tel":"031-419-3988","addr":"경기도 수원시 권선구 당수동 158-1번지 1층 101호","indutype":"일반휴게음식 - 일반한식","category":"restaurant"},{"name":"코리안숯불닭바베큐","tel":"031-416-5888","addr":"경기도 수원시 권선구 당수동 158-1번지 명송프라자 1층 5-6호","indutype":"일반휴게음식 - 일반한식","category":"restaurant"}]},{"lat":"37.290536587","long":"126.94059703","imageIndex":4,"items":[{"name":"당초고추치킨","tel":"031-419-7664","addr":"경기도 수원시 권선구 당수동 232-15번지 우진프라자 102호","indutype":"일반휴게음식 - 스넥","category":"restaurant"},{"name":"최고당돈까스 권선구당수점","tel":"031-502-9006","addr":"경기도 수원시 권선구 당수동 232-15번지","indutype":"일반휴게음식 - 서양음식","category":"restaurant"}]},{"lat":"37.289817594","long":"126.94417251","imageIndex":4,"items":[{"name":"더(THE)203","tel":"031-111-1111","addr":"경기도 수원시 권선구 당수동 216번지 가동 1층","indutype":"일반휴게음식 - 서양음식","category":"restaurant"}]},{"lat":"37.290680531","long":"126.94017964","imageIndex":4,"items":[{"name":"데이데이(DayDay)","tel":"","addr":"경기도 수원시 권선구 당수동 232-6번지 102호","indutype":"일반휴게음식 - 서양음식","category":"restaurant"},{"name":"양지네국수","tel":"031-416-1689","addr":"경기도 수원시 권선구 당수동 232-6번지 외2필지 1층 106호","indutype":"일반휴게음식 - 일반한식","category":"restaurant"}]},{"lat":"37.292843168","long":"126.94051618","imageIndex":4,"items":[{"name":"디오","tel":"031-408-5678","addr":"경기도 수원시 권선구 당수동 148-3번지 씨티프플라자 101호-103호","indutype":"일반휴게음식 - 일반한식","category":"restaurant"},{"name":"족발공방","tel":"031-111-1111","addr":"경기도 수원시 권선구 당수동 148-3번지 107,108호","indutype":"일반휴게음식 - 일반한식","category":"restaurant"}]},{"lat":"37.282542191","long":"126.93637505","imageIndex":4,"items":[{"name":"밀앤보리","tel":"031-419-3505","addr":"경기도 수원시 권선구 당수동 530번지 1층","indutype":"일반휴게음식 - 일반한식","category":"restaurant"}]},{"lat":"37.290788552","long":"126.93998784","imageIndex":4,"items":[{"name":"비니비니","tel":"031-405-4404","addr":"경기도 수원시 권선구 당수동 234번지 101호","indutype":"일반휴게음식 - 서양음식","category":"restaurant"},{"name":"소문난떡볶이","tel":"031-419-7654","addr":"경기도 수원시 권선구 당수동 234번지 103호","indutype":"일반휴게음식 - 일반한식","category":"restaurant"}]},{"lat":"37.291762311","long":"126.94122756","imageIndex":4,"items":[{"name":"서해칼국수","tel":"031-419-6490","addr":"경기도 수원시 권선구 당수동 159-2번지","indutype":"일반휴게음식 - 일반한식","category":"restaurant"}]},{"lat":"37.286206076","long":"126.9474794","imageIndex":4,"items":[{"name":"수목식당","tel":"031-416-3341","addr":"경기도 수원시 권선구 당수동 405-5","indutype":"일반휴게음식 - 일반한식","category":"restaurant"}]},{"lat":"37.292653906","long":"126.94042611","imageIndex":4,"items":[{"name":"순희에부엌","tel":"031-419-1385","addr":"경기도 수원시 권선구 당수동 148-5번지","indutype":"일반휴게음식 - 일반한식","category":"restaurant"}]},{"lat":"37.289599283","long":"126.94014671","imageIndex":4,"items":[{"name":"스쿨존","tel":"02-1111-1111","addr":"경기도 수원시 권선구 당수동 243번지 은광아트빌 1층","indutype":"일반휴게음식 - 스넥","category":"restaurant"},{"name":"일레체","tel":"031-415-9088","addr":"경기도 수원시 권선구 당수동 243번지 1층","indutype":"일반휴게음식 - 일반한식","category":"restaurant"}]},{"lat":"37.291509783","long":"126.94076539","imageIndex":4,"items":[{"name":"어사출도","tel":"031-419-5475","addr":"경기도 수원시 권선구 당수동 159-5번지 가동 1층","indutype":"일반휴게음식 - 일식·회집","category":"restaurant"}]},{"lat":"37.290428196","long":"126.94008963","imageIndex":4,"items":[{"name":"이디야커피 당수점","tel":"031-419-2968","addr":"경기도 수원시 권선구 당수동 236-10번지 지하1층","indutype":"일반휴게음식 - 서양음식","category":"restaurant"}]},{"lat":"37.293312424","long":"126.94190296","imageIndex":4,"items":[{"name":"조선옥","tel":"031-419-7778","addr":"경기도 수원시 권선구 당수동 135-13번지","indutype":"일반휴게음식 - 일반한식","category":"restaurant"}]},{"lat":"37.291870767","long":"126.94187029","imageIndex":4,"items":[{"name":"지장수본가전주콩나물국밥","tel":"031-419-3510","addr":"경기도 수원시 권선구 당수동 160-1번지 1층","indutype":"일반휴게음식 - 일반한식","category":"restaurant"}]},{"lat":"37.290286116","long":"126.94414959","imageIndex":4,"items":[{"name":"춘향골황금추어탕","tel":"031-419-7505","addr":"경기도 수원시 권선구 당수동 224-6번지 1층","indutype":"일반휴게음식 - 일반한식","category":"restaurant"}]},{"lat":"37.291230168","long":"126.94020174","imageIndex":4,"items":[{"name":"카페라니","tel":"031-416-5333","addr":"경기도 수원시 권선구 당수동 158-2번지 영송프라자 106호","indutype":"일반휴게음식 - 서양음식","category":"restaurant"}]},{"lat":"37.29334598","long":"126.93725648","imageIndex":4,"items":[{"name":"카페풀문 (cafe fullmoon)","tel":"031-5001-1002","addr":"경기도 수원시 권선구 당수동 282-52번지 1층 103호","indutype":"일반휴게음식 - 서양음식","category":"restaurant"}]},{"lat":"37.290401475","long":"126.94067608","imageIndex":4,"items":[{"name":"커피마마","tel":"031-419-0345","addr":"경기도 수원시 권선구 당수동 232-7번지","indutype":"일반휴게음식 - 서양음식","category":"restaurant"}]},{"lat":"37.29159868","long":"126.93850981","imageIndex":4,"items":[{"name":"토담","tel":"031-509-4055","addr":"경기도 수원시 권선구 당수동 276-19번지 1층","indutype":"일반휴게음식 - 일반한식","category":"restaurant"}]},{"lat":"37.290258906","long":"126.94378874","imageIndex":4,"items":[{"name":"페리카나(당수점)","tel":"031-419-8450","addr":"경기도 수원시 권선구 당수동 221-4번지 삼정 상가 105호","indutype":"일반휴게음식 - 스넥","category":"restaurant"}]},{"lat":"37.290284847","long":"126.94164603","imageIndex":4,"items":[{"name":"플로라21","tel":"031-406-8991","addr":"경기도 수원시 권선구 당수동 219-11번지 1층","indutype":"일반휴게음식 - 서양음식","category":"restaurant"}]},{"lat":"37.290896818","long":"126.94025841","imageIndex":4,"items":[{"name":"하누샵","tel":"031-418-1616","addr":"경기도 수원시 권선구 당수동 233번지 상가 1층 101호","indutype":"일반휴게음식 - 일반한식","category":"restaurant"}]},{"lat":"37.291760544","long":"126.93792324","imageIndex":4,"items":[{"name":"하오츠","tel":"031-419-7884","addr":"경기도 수원시 권선구 당수동 287번지 인정프린스아파트","indutype":"일반휴게음식 - 중국식","category":"restaurant"}]}]