[{"lat":"37.52745141","long":"126.8051318","imageIndex":16,"items":[{"name":"JnH(제이엔에이치)우리들보습학원","tel":"032-679-2012","addr":"경기도 부천시 원종동 231-13번지 2층","indutype":"학원 - 보습학원","category":"study"}]},{"lat":"37.524923809","long":"126.80226509","imageIndex":16,"items":[{"name":"경희대위너태권도장","tel":"032-000-0000","addr":"경기도 부천시 원종동 209-5번지 210호","indutype":"학원 - 예·체능계학원","category":"study"}]},{"lat":"37.525589325","long":"126.80155061","imageIndex":16,"items":[{"name":"공신보습학원","tel":"","addr":"경기도 부천시 원종동 208-14번지 2층","indutype":"학원 - 보습학원","category":"study"}]},{"lat":"37.52850972","long":"126.8076292","imageIndex":16,"items":[{"name":"김선희피아노교습소","tel":"032-676-8609","addr":"경기도 부천시 원종동 241-11번지 2층","indutype":"학원 - 예·체능계학원","category":"study"}]},{"lat":"37.518562853","long":"126.80765512","imageIndex":16,"items":[{"name":"꿈꾸는음악교습소","tel":"032-221-6710","addr":"경기도 부천시 원종동 361-4번지 성로빌딩 1층 102호","indutype":"학원 - 예·체능계학원","category":"study"},{"name":"빨간펜수학의달인원종수학교습소","tel":"032-671-8287","addr":"경기도 부천시 원종동 361-4번지 성로빌딩 2층","indutype":"회원제형태 - 학원","category":"study"},{"name":"죠이풀잉글리쉬(Joyful English)영어교습소","tel":"032-682-0045","addr":"경기도 부천시 원종동 361-4번지 1층 일부 성로빌딩","indutype":"회원제형태 - 학원","category":"study"}]},{"lat":"37.526373096","long":"126.80685419","imageIndex":16,"items":[{"name":"꿈자람","tel":"032-362-7909","addr":"경기도 부천시 원종동 278-17번지 신창빌라 8","indutype":"학원 - 보습학원","category":"study"}]},{"lat":"37.517012653","long":"126.80735375","imageIndex":16,"items":[{"name":"나눌샘미술보습학원","tel":"070-4781-1725","addr":"경기도 부천시 원종동 352번지 2층 201호","indutype":"학원 - 보습학원","category":"study"},{"name":"진중관용성도장","tel":"032-672-4466","addr":"경기도 부천시 원종동 352번지 3층 301호","indutype":"학원 - 예·체능계학원","category":"study"}]},{"lat":"37.523867615","long":"126.8010688","imageIndex":16,"items":[{"name":"날카로운수학교습소","tel":"","addr":"경기도 부천시 원종동 212번지 3층","indutype":"학원 - 보습학원","category":"study"}]},{"lat":"37.527646122","long":"126.80304971","imageIndex":16,"items":[{"name":"노란잠수함미술보습학원","tel":"032-674-5799","addr":"경기도 부천시 원종동 132-2번지 2,3층","indutype":"학원 - 예·체능계학원","category":"study"},{"name":"에듀킴스보습학원","tel":"032-674-5799","addr":"경기도 부천시 원종동 132-2번지 3층","indutype":"학원 - 보습학원","category":"study"},{"name":"채은피아노","tel":"032-672-5096","addr":"경기도 부천시 원종동 132-2번지","indutype":"회원제형태 - 학원","category":"study"}]},{"lat":"37.519090238","long":"126.80513125","imageIndex":16,"items":[{"name":"능력주니어플러스보습학원","tel":"032-684-3434","addr":"경기도 부천시 원종동 372-6번지 3층,4층","indutype":"회원제형태 - 학원","category":"study"},{"name":"원종C&C(씨앤씨)미술학원","tel":"032-677-6488","addr":"경기도 부천시 원종동 372-6번지 5층","indutype":"학원 - 예·체능계학원","category":"study"}]},{"lat":"37.527928931","long":"126.80513054","imageIndex":16,"items":[{"name":"다우보습학원","tel":"032-673-6603","addr":"경기도 부천시 원종동 231번지","indutype":"학원 - 기타 교육기관","category":"study"},{"name":"솔로몬02독서실","tel":"032-672-1209","addr":"경기도 부천시 원종동 231번지 부원빌딩 401호,501호","indutype":"학원 - 독서실","category":"study"}]},{"lat":"37.518343064","long":"126.80551781","imageIndex":16,"items":[{"name":"닥터신쌤보습학원","tel":"032-671-4569","addr":"경기도 부천시 원종동 371-26번지 3층","indutype":"학원 - 보습학원","category":"study"}]},{"lat":"37.527509882","long":"126.80240523","imageIndex":16,"items":[{"name":"대명해법영어교습소","tel":"032-671-5605","addr":"경기도 부천시 원종동 132번지 2층","indutype":"회원제형태 - 학원","category":"study"},{"name":"라온수학교습소","tel":"032-207-8640","addr":"경기도 부천시 원종동 132번지 3층","indutype":"학원 - 보습학원","category":"study"},{"name":"숲속의음악가음악학원","tel":"032-679-4123","addr":"경기도 부천시 원종동 132번지 2층","indutype":"학원 - 예·체능계학원","category":"study"}]},{"lat":"37.53225348","long":"126.8050173","imageIndex":16,"items":[{"name":"더과학","tel":"032-654-1006","addr":"경기도 부천시 원종동 468번지 세창짜임아파트","indutype":"회원제형태 - 학원","category":"study"},{"name":"인더짐키즈포츠","tel":"031-444-8131","addr":"경기도 부천시 원종동 468번지 세창짜임아파트","indutype":"학원 - 기타 교육기관","category":"study"}]},{"lat":"37.5281721965","long":"126.8051299006","imageIndex":16,"items":[{"name":"도계수련원","tel":"032-673-1130","addr":"경기도 부천시 원종동 264-3번지 254-5","indutype":"회원제형태 - 학원","category":"study"}]},{"lat":"37.527172654","long":"126.80546061","imageIndex":16,"items":[{"name":"두드림피아노교습소","tel":"032-677-2986","addr":"경기도 부천시 원종동 231-7번지 2층","indutype":"학원 - 예·체능계학원","category":"study"}]},{"lat":"37.51834278","long":"126.80534814","imageIndex":16,"items":[{"name":"라엘음악교습소","tel":"032-671-0152","addr":"경기도 부천시 원종동 371-27번지 2층","indutype":"학원 - 예·체능계학원","category":"study"}]},{"lat":"37.528670285","long":"126.80665586","imageIndex":16,"items":[{"name":"로뎀음악미술학원","tel":"032-672-3579","addr":"경기도 부천시 원종동 245-5번지 2층","indutype":"학원 - 예·체능계학원","category":"study"}]},{"lat":"37.529241475","long":"126.80340747","imageIndex":16,"items":[{"name":"로제타스톤 영어교실 먼마루캠퍼스","tel":"032-672-0723","addr":"경기도 부천시 원종동 160-2번지 마메든빌 가동 2층 201호","indutype":"학원 - 기타 교육기관","category":"study"}]},{"lat":"37.519673598","long":"126.8037723","imageIndex":16,"items":[{"name":"리딩클럽 원종영어교습소","tel":"032-207-6505","addr":"경기도 부천시 원종동 382-5번지","indutype":"회원제형태 - 학원","category":"study"},{"name":"쥬니어앤C","tel":"032-323-6488","addr":"경기도 부천시 원종동 382-5번지","indutype":"학원 - 예·체능계학원","category":"study"}]},{"lat":"37.51945067","long":"126.80515292","imageIndex":16,"items":[{"name":"멘토21보습학원","tel":"032-684-1003","addr":"경기도 부천시 원종동 372번지 3층 304호","indutype":"학원 - 보습학원","category":"study"}]},{"lat":"37.528231871","long":"126.80851234","imageIndex":16,"items":[{"name":"멘토초중보습학원","tel":"032-677-1217","addr":"경기도 부천시 원종동 238-18번지 3층","indutype":"학원 - 보습학원","category":"study"},{"name":"예손음악학원","tel":"070-7722-7776","addr":"경기도 부천시 원종동 238-18번지 2층","indutype":"학원 - 예·체능계학원","category":"study"}]},{"lat":"37.525116362","long":"126.80424427","imageIndex":16,"items":[{"name":"바디앤댄스","tel":"032-243-4563","addr":"경기도 부천시 원종동 228-1번지 2층","indutype":"학원 - 예·체능계학원","category":"study"}]},{"lat":"37.527284252","long":"126.80217958","imageIndex":16,"items":[{"name":"박태윤컴퓨터아카데미","tel":"032-679-0952","addr":"경기도 부천시 원종동 131-4번지 3층 1호","indutype":"회원제형태 - 학원","category":"study"},{"name":"해동청체육관","tel":"070-8771-5875","addr":"경기도 부천시 원종동 131-4번지 3층","indutype":"학원 - 예·체능계학원","category":"study"}]},{"lat":"37.522568512","long":"126.80540487","imageIndex":16,"items":[{"name":"백두보습학원","tel":"032-677-6040","addr":"경기도 부천시 원종동 281-1번지 진주상가 301호","indutype":"학원 - 보습학원","category":"study"}]},{"lat":"37.521783063","long":"126.80445673","imageIndex":16,"items":[{"name":"보다더보습학원","tel":"032-719-8785","addr":"경기도 부천시 원종동 224-4번지 3층","indutype":"학원 - 보습학원","category":"study"}]},{"lat":"37.519955316","long":"126.80520815","imageIndex":16,"items":[{"name":"부천바둑학원","tel":"032-679-2885","addr":"경기도 부천시 원종동 373-10번지 4층","indutype":"학원 - 기타 교육기관","category":"study"}]},{"lat":"37.51920619","long":"126.80442962","imageIndex":16,"items":[{"name":"부천정평보습학원","tel":"032-673-3545","addr":"경기도 부천시 원종동 375-3번지 그린메디칼프라자 502호","indutype":"학원 - 보습학원","category":"study"}]},{"lat":"37.525366059","long":"126.80271641","imageIndex":16,"items":[{"name":"부천제일요양보호사교육원","tel":"032-674-7600","addr":"경기도 부천시 원종동 219-14번지 은성빌딩 4층","indutype":"회원제형태 - 학원","category":"study"}]},{"lat":"37.52031442","long":"126.80443799","imageIndex":16,"items":[{"name":"비타민산소독서실","tel":"032-676-3112","addr":"경기도 부천시 원종동 374-2번지 능력프라자 201~202호","indutype":"학원 - 독서실","category":"study"}]},{"lat":"37.52420532","long":"126.80362451","imageIndex":16,"items":[{"name":"빛나랑요양보호사교육원","tel":"032-675-1008","addr":"경기도 부천시 원종동 221-13번지 3층 1호","indutype":"학원 - 기능학원","category":"study"}]},{"lat":"37.527534481","long":"126.80631944","imageIndex":16,"items":[{"name":"새나라태권도장","tel":"032-682-7353","addr":"경기도 부천시 원종동 265-3번지 3층","indutype":"학원 - 예·체능계학원","category":"study"},{"name":"오정음악학원","tel":"032-672-6670","addr":"경기도 부천시 원종동 265-3번지 1층","indutype":"학원 - 예·체능계학원","category":"study"}]},{"lat":"37.526090905","long":"126.80512408","imageIndex":16,"items":[{"name":"선향음악교습소","tel":"032-683-4483","addr":"경기도 부천시 원종동 233-13번지 4층","indutype":"학원 - 예·체능계학원","category":"study"},{"name":"엘리트독서실","tel":"032-677-1003","addr":"경기도 부천시 원종동 233-13번지 3층(3,4층일부)","indutype":"학원 - 독서실","category":"study"}]},{"lat":"37.52256398","long":"126.80271258","imageIndex":16,"items":[{"name":"세명음악학원","tel":"031-684-5291","addr":"경기도 부천시 원종동 216번지 일흥빌딩 4층","indutype":"학원 - 예·체능계학원","category":"study"},{"name":"영광속셈학원","tel":"032-672-6682","addr":"경기도 부천시 원종동 216번지","indutype":"학원 - 기타 교육기관","category":"study"},{"name":"유니랭스영어보습학원","tel":"032-681-0594","addr":"경기도 부천시 원종동 216번지 일흥빌딩 3층","indutype":"학원 - 보습학원","category":"study"}]},{"lat":"37.51707001","long":"126.80935571","imageIndex":16,"items":[{"name":"셀파우등생공부방","tel":"","addr":"경기도 부천시 원종동 351-10번지 삼성빌라 6동 102호","indutype":"학원 - 기타 교육기관","category":"study"}]},{"lat":"37.518729844","long":"126.8051322","imageIndex":16,"items":[{"name":"소나타음악학원","tel":"032-672-8294","addr":"경기도 부천시 원종동 372-5 2층5호","indutype":"학원 - 예·체능계학원","category":"study"},{"name":"태권도필승도장","tel":"031-674-9141","addr":"경기도 부천시 원종동 372-5번지","indutype":"학원 - 예·체능계학원","category":"study"}]},{"lat":"37.528564934","long":"126.80293412","imageIndex":16,"items":[{"name":"소미더수학교습소","tel":"070-7717-3633","addr":"경기도 부천시 원종동 470번지 원종동금호어울림 301동 202호","indutype":"학원 - 보습학원","category":"study"},{"name":"주신음악학원","tel":"032-673-2217","addr":"경기도 부천시 원종동 470번지 금호어울림 301동 401호 일부","indutype":"학원 - 예·체능계학원","category":"study"},{"name":"지나스(Jina's)영어교습소","tel":"032-679-7525","addr":"경기도 부천시 원종동 470번지 원종동금호어울림 301동 204호","indutype":"학원 - 외국어학원","category":"study"}]},{"lat":"37.525006833","long":"126.80340743","imageIndex":16,"items":[{"name":"수성음악보습학원","tel":"032-679-0913","addr":"경기도 부천시 원종동 221번지 수성빌딩 203동 204호","indutype":"학원 - 예·체능계학원","category":"study"}]},{"lat":"37.526480062","long":"126.8008242","imageIndex":16,"items":[{"name":"숭우관","tel":"032-671-7979","addr":"경기도 부천시 원종동 138-32번지 4층","indutype":"학원 - 예·체능계학원","category":"study"},{"name":"에이원보습학원","tel":"032-684-1066","addr":"경기도 부천시 원종동 138-32번지 3층","indutype":"학원 - 보습학원","category":"study"}]},{"lat":"37.525622333","long":"126.81054408","imageIndex":16,"items":[{"name":"스톤 세라믹","tel":"032-683-0928","addr":"경기도 부천시 원종동 340-21번지 부원연립 13동 101호","indutype":"회원제형태 - 학원","category":"study"}]},{"lat":"37.527371569","long":"126.80587867","imageIndex":16,"items":[{"name":"신학유도관","tel":"032-672-9762","addr":"경기도 부천시 원종동 266-1번지 4층","indutype":"학원 - 예·체능계학원","category":"study"},{"name":"이(E)해법수학시사영어보습학원","tel":"","addr":"경기도 부천시 원종동 266-1번지 2층","indutype":"학원 - 보습학원","category":"study"}]},{"lat":"37.525366519","long":"126.80298791","imageIndex":16,"items":[{"name":"신혜보습학원","tel":"032-671-3793","addr":"경기도 부천시 원종동 219-2번지 대풍빌딩 2-3층","indutype":"학원 - 보습학원","category":"study"}]},{"lat":"37.518593102","long":"126.80418239","imageIndex":16,"items":[{"name":"씽크앤아트부천원종점미술교습소","tel":"","addr":"경기도 부천시 원종동 375-10번지 2층","indutype":"학원 - 예·체능계학원","category":"study"}]},{"lat":"37.528094987","long":"126.80746059","imageIndex":16,"items":[{"name":"아르떼음악교습소","tel":"031-000-0000","addr":"경기도 부천시 원종동 246-2번지 1층","indutype":"학원 - 예·체능계학원","category":"study"}]},{"lat":"37.525147927","long":"126.80695921","imageIndex":16,"items":[{"name":"아트빌미술피아노학원","tel":"032-673-2040","addr":"경기도 부천시 원종동 275-5번지 2층","indutype":"학원 - 예·체능계학원","category":"study"}]},{"lat":"37.522869758","long":"126.80238371","imageIndex":16,"items":[{"name":"아트펠리아미술음악학원","tel":"032-679-7310","addr":"경기도 부천시 원종동 213-3번지 2층 201호,202호,203호","indutype":"학원 - 예·체능계학원","category":"study"}]},{"lat":"37.518845796","long":"126.80443057","imageIndex":16,"items":[{"name":"알파플러스어학원","tel":"032-671-0131","addr":"경기도 부천시 원종동 375-6번지 일부 2층","indutype":"학원 - 외국어학원","category":"study"}]},{"lat":"37.518534775","long":"126.80702175","imageIndex":16,"items":[{"name":"애플음악학원","tel":"032-674-8671","addr":"경기도 부천시 원종동 366-5번지 2층","indutype":"학원 - 예·체능계학원","category":"study"}]},{"lat":"37.527700698","long":"126.80335501","imageIndex":16,"items":[{"name":"에이블2관보습학원","tel":"032-683-8318","addr":"경기도 부천시 원종동 132-6번지 2층","indutype":"학원 - 보습학원","category":"study"}]},{"lat":"37.518311306","long":"126.80809693","imageIndex":16,"items":[{"name":"예영보습학원","tel":"032-678-7811","addr":"경기도 부천시 원종동 359번지 2층","indutype":"학원 - 보습학원","category":"study"},{"name":"폴라라스음악학원","tel":"070-4045-4086","addr":"경기도 부천시 원종동 359번지 3층","indutype":"학원 - 예·체능계학원","category":"study"}]},{"lat":"37.5216775","long":"126.80598413","imageIndex":16,"items":[{"name":"오감월드(강서,양천)","tel":"","addr":"경기도 부천시 원종동 282-28번지 진주주택 28동 지층 2호","indutype":"학원 - 기타 교육기관","category":"study"}]},{"lat":"37.517873852","long":"126.80510052","imageIndex":16,"items":[{"name":"오렌지독서실","tel":"032-684-1575","addr":"경기도 부천시 원종동 371-2성진프라자601호~602호","indutype":"학원 - 독서실","category":"study"}]},{"lat":"37.526565019","long":"126.80309784","imageIndex":16,"items":[{"name":"오름보습학원","tel":"032-0730-0555","addr":"경기도 부천시 원종동 134번지 3층","indutype":"학원 - 보습학원","category":"study"}]},{"lat":"37.52786946","long":"126.80729148","imageIndex":16,"items":[{"name":"오정삼성영어교습소","tel":"032-679-1033","addr":"경기도 부천시 원종동 246-7번지 상가일부 1층","indutype":"학원 - 외국어학원","category":"study"}]},{"lat":"37.524116511","long":"126.79909977","imageIndex":16,"items":[{"name":"와이즈보습학원","tel":"032-673-8205","addr":"경기도 부천시 원종동 141-4번지 수정 상가 4층","indutype":"학원 - 보습학원","category":"study"}]},{"lat":"37.5247566","long":"126.79932428","imageIndex":16,"items":[{"name":"용인대일출태권도장","tel":"032-681-7722","addr":"경기도 부천시 원종동 141-17번지 성경빌딩 3층","indutype":"학원 - 예·체능계학원","category":"study"}]},{"lat":"37.519926997","long":"126.80443902","imageIndex":16,"items":[{"name":"원으뜸보습학원","tel":"032-672-4381","addr":"경기도 부천시 원종동 374-4번지 3층","indutype":"학원 - 보습학원","category":"study"},{"name":"원으뜸보습학원(체육)","tel":"032-672-4381","addr":"경기도 부천시 원종동 374-4번지 3층","indutype":"학원 - 예·체능계학원","category":"study"}]},{"lat":"37.523781954","long":"126.79841063","imageIndex":16,"items":[{"name":"원종2동점해법수학교습소","tel":"032-674-0905","addr":"경기도 부천시 원종동 150-7번지 1층","indutype":"학원 - 보습학원","category":"study"}]},{"lat":"37.525147399","long":"126.80129161","imageIndex":16,"items":[{"name":"율로기아음악학원","tel":"032-615-1895","addr":"경기도 부천시 원종동 209-11번지 2층","indutype":"학원 - 예·체능계학원","category":"study"}]},{"lat":"37.529951069","long":"126.80748968","imageIndex":16,"items":[{"name":"음악세상 음악교습소","tel":"031-679-2048","addr":"경기도 부천시 원종동 179-65번지 2층","indutype":"학원 - 예·체능계학원","category":"study"}]},{"lat":"37.525373513","long":"126.80180007","imageIndex":16,"items":[{"name":"이기진유니스쿨","tel":"032-2432-2923","addr":"경기도 부천시 원종동 208-18번지 상가 2층","indutype":"학원 - 예·체능계학원","category":"study"}]},{"lat":"37.528038353","long":"126.80591085","imageIndex":16,"items":[{"name":"이스크라보습학원","tel":"032-671-2026","addr":"경기도 부천시 원종동 253-7번지 3층","indutype":"회원제형태 - 학원","category":"study"}]},{"lat":"37.532027323","long":"126.80447485","imageIndex":16,"items":[{"name":"이쌤공부방","tel":"","addr":"경기도 부천시 원종동 67번지 동문아파트","indutype":"학원 - 보습학원","category":"study"}]},{"lat":"37.527844411","long":"126.80849072","imageIndex":16,"items":[{"name":"일꿈보습학원","tel":"032-684-3314","addr":"경기도 부천시 원종동 237-15번지 2층","indutype":"학원 - 보습학원","category":"study"}]},{"lat":"37.525813798","long":"126.8010975","imageIndex":16,"items":[{"name":"일대일(1:1)미래수학교습소","tel":"032-679-0579","addr":"경기도 부천시 원종동 138-23번지 2층","indutype":"학원 - 보습학원","category":"study"}]},{"lat":"37.519615957","long":"126.80701892","imageIndex":16,"items":[{"name":"잉글리시아이","tel":"","addr":"경기도 부천시 원종동 366-2번지 3층","indutype":"학원 - 보습학원","category":"study"},{"name":"한국체대천지태권도","tel":"032-679-0096","addr":"경기도 부천시 원종동 366-2번지 2층","indutype":"학원 - 예·체능계학원","category":"study"}]},{"lat":"37.528090027","long":"126.80448528","imageIndex":16,"items":[{"name":"정스무용학원","tel":"032-677-6128","addr":"경기도 부천시 원종동 154-4번지 3층","indutype":"학원 - 예·체능계학원","category":"study"}]},{"lat":"37.526260935","long":"126.80443356","imageIndex":16,"items":[{"name":"제이린(Jlean)뮤직실용음악학원","tel":"031-0000-0000","addr":"경기도 부천시 원종동 229-4번지 해연빌딩 5층","indutype":"학원 - 예·체능계학원","category":"study"}]},{"lat":"37.522693074","long":"126.79917152","imageIndex":16,"items":[{"name":"조은공부방","tel":"032-677-8209","addr":"경기도 부천시 원종동 152-12번지 삼원주택 1동 지하 1호","indutype":"학원 - 기타 교육기관","category":"study"}]},{"lat":"37.524702271","long":"126.80446031","imageIndex":16,"items":[{"name":"중앙미용학원","tel":"032-684-4509","addr":"경기도 부천시 원종동 228-8번지","indutype":"학원 - 기타 교육기관","category":"study"}]},{"lat":"37.525397715","long":"126.80546529","imageIndex":16,"items":[{"name":"지앤비(GnB)보습학원","tel":"031-674-6334","addr":"경기도 부천시 원종동 233-9번지 2층","indutype":"학원 - 보습학원","category":"study"}]},{"lat":"37.527399841","long":"126.80662524","imageIndex":16,"items":[{"name":"킹스키즈젭스영어","tel":"070-4634-5299","addr":"경기도 부천시 원종동 250-2번지 1층 일부호","indutype":"학원 - 외국어학원","category":"study"}]},{"lat":"37.527255913","long":"126.80141038","imageIndex":16,"items":[{"name":"티나잉글리쉬(TINA English)","tel":"032-676-0903","addr":"경기도 부천시 원종동 131번지 광성아파트","indutype":"학원 - 기타 교육기관","category":"study"},{"name":"황쌤수학푸르넷","tel":"032-672-3662","addr":"경기도 부천시 원종동 131번지 광성아파트","indutype":"학원 - 기타 교육기관","category":"study"}]},{"lat":"37.517150821","long":"126.80376769","imageIndex":16,"items":[{"name":"파랑새미술학원","tel":"032-671-0034","addr":"경기도 부천시 원종동 377-4번지 3층","indutype":"학원 - 예·체능계학원","category":"study"}]},{"lat":"37.528896","long":"126.80693809","imageIndex":16,"items":[{"name":"파인태권도장","tel":"032-672-4561","addr":"경기도 부천시 원종동 244-7번지 2층","indutype":"학원 - 예·체능계학원","category":"study"}]},{"lat":"37.52808762","long":"126.80845615","imageIndex":16,"items":[{"name":"프린스턴영어수학보습학원","tel":"","addr":"경기도 부천시 원종동 238-5번지 2층","indutype":"학원 - 보습학원","category":"study"}]},{"lat":"37.527784774","long":"126.80513092","imageIndex":16,"items":[{"name":"플라이잉글리쉬보습학원","tel":"032-675-3305","addr":"경기도 부천시 원종동 231-15번지 오정빌딩 3층","indutype":"학원 - 보습학원","category":"study"}]},{"lat":"37.530866061","long":"126.80507754","imageIndex":16,"items":[{"name":"피아노이야기음악학원","tel":"032-684-9125","addr":"경기도 부천시 원종동 70-8번지 3층 전체","indutype":"학원 - 예·체능계학원","category":"study"}]},{"lat":"37.524173389","long":"126.80073992","imageIndex":16,"items":[{"name":"한국체대비전태권도","tel":"031-671-5758","addr":"경기도 부천시 원종동 206-3번지 3층","indutype":"학원 - 예·체능계학원","category":"study"}]},{"lat":"37.52383822","long":"126.79968877","imageIndex":16,"items":[{"name":"한울효 태권도장","tel":"032-672-5849","addr":"경기도 부천시 원종동 199번지 2층","indutype":"학원 - 예·체능계학원","category":"study"}]},{"lat":"37.519922292","long":"126.80701812","imageIndex":16,"items":[{"name":"헤럴드보습학원","tel":"032-677-3669","addr":"경기도 부천시 원종동 365-9번지 3층","indutype":"학원 - 보습학원","category":"study"}]},{"lat":"37.526730699","long":"126.80517896","imageIndex":16,"items":[{"name":"화랑합기도","tel":"032-674-6767","addr":"경기도 부천시 원종동 232-3번지 3층","indutype":"학원 - 예·체능계학원","category":"study"}]},{"lat":"37.528670688","long":"126.80154233","imageIndex":16,"items":[{"name":"황재영 영어","tel":"","addr":"경기도 부천시 원종동 129-19번지 주공아파트","indutype":"학원 - 기타 교육기관","category":"study"}]}]