[{"lat":"37.093229323","long":"127.14563124","imageIndex":7,"items":[{"name":"s남사타이마트","tel":"031-222-2646","addr":"경기도 용인시 처인구 남사면 원암리 222-9번지","indutype":"유통업 영리 - 슈퍼마켓","category":"mart"}]},{"lat":"37.092624544","long":"127.1465187","imageIndex":7,"items":[{"name":"다모아할인마트","tel":"031-334-6514","addr":"경기도 용인시 처인구 남사면 원암리 222-13번지 103동 104호","indutype":"유통업 영리 - 슈퍼마켓","category":"mart"}]},{"lat":"37.142476336","long":"127.14926916","imageIndex":7,"items":[{"name":"드림마트","tel":"031-374-9170","addr":"경기도 용인시 처인구 남사면 북리 608-23번지 다이소물류센터내매점","indutype":"유통업 영리 - 슈퍼마켓","category":"mart"}]},{"lat":"37.139535335","long":"127.16583072","imageIndex":7,"items":[{"name":"만물슈퍼건재","tel":"031-334-7332","addr":"경기도 용인시 처인구 남사면 아곡리439-23","indutype":"유통업 영리 - 슈퍼마켓","category":"mart"}]},{"lat":"37.165504878","long":"127.17749423","imageIndex":7,"items":[{"name":"미니슈퍼","tel":"","addr":"경기도 용인시 처인구 남사면 완장리 491-1번지 103호","indutype":"유통업 영리 - 슈퍼마켓","category":"mart"}]},{"lat":"37.13011927","long":"127.16591181","imageIndex":7,"items":[{"name":"미니슈퍼","tel":"031-111-1111","addr":"경기도 용인시 처인구 남사면 창리 748-7번지 9/1","indutype":"유통업 영리 - 슈퍼마켓","category":"mart"}]},{"lat":"37.145536243","long":"127.13713004","imageIndex":7,"items":[{"name":"미스터마트용인남사점","tel":"031-339-3228","addr":"경기도 용인시 처인구 남사면 북리 696-6번지","indutype":"유통업 영리 - 슈퍼마켓","category":"mart"}]},{"lat":"37.101373743","long":"127.13890821","imageIndex":7,"items":[{"name":"삼부자슈퍼","tel":"031-339-0402","addr":"경기도 용인시 처인구 남사면 진목리 130-8","indutype":"유통업 영리 - 슈퍼마켓","category":"mart"}]},{"lat":"37.10053505","long":"127.13147103","imageIndex":7,"items":[{"name":"스마일 슈퍼","tel":"","addr":"경기도 용인시 처인구 남사면 진목리 649-5번지","indutype":"유통업 영리 - 슈퍼마켓","category":"mart"}]},{"lat":"37.117511311","long":"127.16093405","imageIndex":7,"items":[{"name":"승림마트","tel":"070-8180-5710","addr":"경기도 용인시 처인구 남사면 방아리 111-2번지","indutype":"유통업 영리 - 슈퍼마켓","category":"mart"}]},{"lat":"37.108590011","long":"127.13188965","imageIndex":7,"items":[{"name":"신세계마트","tel":"031-334-6563","addr":"경기도 용인시 처인구 남사면 봉명리 368-1","indutype":"유통업 영리 - 슈퍼마켓","category":"mart"}]},{"lat":"37.091287922","long":"127.14902443","imageIndex":7,"items":[{"name":"원암마트","tel":"031-334-4926","addr":"경기도 용인시 처인구 남사면 원암리 194-14번지","indutype":"유통업 영리 - 슈퍼마켓","category":"mart"}]},{"lat":"37.141232367","long":"127.15679646","imageIndex":7,"items":[{"name":"위드미용인황금점","tel":"02-6916-1500","addr":"경기도 용인시 처인구 남사면 북리 75-7번지 1층","indutype":"유통업 영리 - 슈퍼마켓","category":"mart"}]},{"lat":"37.123648979","long":"127.16646057","imageIndex":7,"items":[{"name":"친정슈퍼","tel":"031-334-5512","addr":"경기도 용인시 처인구 남사면 방아리74","indutype":"유통업 영리 - 슈퍼마켓","category":"mart"}]}]