[{"lat":"37.518180186","long":"126.80509971","imageIndex":0,"items":[{"name":"(주)명문엔터프라이즈","tel":"032-678-6912","addr":"경기도 부천시 원종동 371-1번지","indutype":"자동차정비 유지 - 카인테리어","category":"car"}]},{"lat":"37.522033119","long":"126.80853974","imageIndex":0,"items":[{"name":"대성 윤활유","tel":"070-8286-2942","addr":"경기도 부천시 원종동 287-3번지 성화빌라 403호","indutype":"자동차정비 유지 - 윤활유 전문 판매","category":"car"}]},{"lat":"37.519869403","long":"126.80234649","imageIndex":0,"items":[{"name":"대양카센타","tel":"032-672-3178","addr":"경기도 부천시 원종동 387-9번지","indutype":"자동차정비 유지 - 자동차정비","category":"car"}]},{"lat":"37.522812477","long":"126.80582278","imageIndex":0,"items":[{"name":"듀크레이싱","tel":"032-554-3942","addr":"경기도 부천시 원종동 284-12번지 엔진소리정비","indutype":"자동차정비 유지 - 자동차부품","category":"car"}]},{"lat":"37.530614977","long":"126.80579094","imageIndex":0,"items":[{"name":"또와카 자동차 공업사","tel":"032-683-3858","addr":"경기도 부천시 원종동 69-42번지 정진빌딩 1층 3,4호","indutype":"자동차정비 유지 - 자동차정비","category":"car"}]},{"lat":"37.528925144","long":"126.8082164","imageIndex":0,"items":[{"name":"모두카케어","tel":"","addr":"경기도 부천시 원종동 241-37번지 석봉빌라 3동 201호","indutype":"자동차정비 유지 - 세차장","category":"car"}]},{"lat":"37.529733126","long":"126.80646075","imageIndex":0,"items":[{"name":"보스카케어","tel":"032-682-3349","addr":"경기도 부천시 원종동 178-14번지 1층","indutype":"자동차정비 유지 - 카인테리어","category":"car"}]},{"lat":"37.530009596","long":"126.80476302","imageIndex":0,"items":[{"name":"비젼오토","tel":"032-675-5075","addr":"경기도 부천시 원종동 168-1번지","indutype":"자동차정비 유지 - 자동차부품","category":"car"}]},{"lat":"37.52259686","long":"126.8008573","imageIndex":0,"items":[{"name":"성실자동차공업사","tel":"032-681-2698","addr":"경기도 부천시 원종동 214-24번지 대창스페이스 가동 101호","indutype":"자동차정비 유지 - 자동차정비","category":"car"}]},{"lat":"37.526004663","long":"126.80206988","imageIndex":0,"items":[{"name":"성심자동차공업사","tel":"032-681-5140","addr":"경기도 부천시 원종동 135-11번지","indutype":"자동차정비 유지 - 자동차정비","category":"car"}]},{"lat":"37.5273150857","long":"126.8044307631","imageIndex":0,"items":[{"name":"성지오토바이","tel":"032-673-9017","addr":"경기도 부천시 원종동 230-2번지 (임강빌딩1-3)","indutype":"자동차판매 - 이륜차판매","category":"car"}]},{"lat":"37.528616864","long":"126.80704064","imageIndex":0,"items":[{"name":"세원배터리","tel":"032-684-6492","addr":"경기도 부천시 원종동 241-16번지 1층","indutype":"자동차정비 유지 - 자동차정비","category":"car"}]},{"lat":"37.529010676","long":"126.81093134","imageIndex":0,"items":[{"name":"스피드외형복원","tel":"032-675-7474","addr":"경기도 부천시 원종동 337-9번지 근상오피스 101호","indutype":"자동차정비 유지 - 카인테리어","category":"car"}]},{"lat":"37.528595008","long":"126.81018574","imageIndex":0,"items":[{"name":"신용자동차공업사","tel":"032-682-3202","addr":"경기도 부천시 원종동 300-1번지 한솔리치빌 107호~108호","indutype":"자동차정비 유지 - 자동차정비","category":"car"}]},{"lat":"37.519979376","long":"126.80885048","imageIndex":0,"items":[{"name":"에이스부분정비공업사","tel":"032-676-5020","addr":"경기도 부천시 원종동 347-15번지 1층","indutype":"자동차정비 유지 - 카인테리어","category":"car"}]},{"lat":"37.518671189","long":"126.80240626","imageIndex":0,"items":[{"name":"영은카센타","tel":"032-674-9745","addr":"경기도 부천시 원종동 388-10번지","indutype":"자동차정비 유지 - 자동차정비","category":"car"}]},{"lat":"37.535336108","long":"126.8057672","imageIndex":0,"items":[{"name":"오성주차장","tel":"","addr":"경기도 부천시 원종동 1-4번지","indutype":"자동차정비 유지 - 주차장","category":"car"}]},{"lat":"37.528539538","long":"126.7986239","imageIndex":0,"items":[{"name":"오정구 출장세차","tel":"","addr":"경기도 부천시 원종동 126-13번지 효마을타운 103동 201호","indutype":"자동차정비 유지 - 세차장","category":"car"}]},{"lat":"37.529035126","long":"126.80392843","imageIndex":0,"items":[{"name":"우진카케어","tel":"032-677-2223","addr":"경기도 부천시 원종동 161-1번지 1층 101호,102호","indutype":"자동차정비 유지 - 자동차정비","category":"car"}]},{"lat":"37.526478765","long":"126.81084732","imageIndex":0,"items":[{"name":"원종점현대자동차","tel":"032-681-1180","addr":"경기도 부천시 원종동 340-3번지","indutype":"자동차정비 유지 - 자동차정비","category":"car"}]},{"lat":"37.530614656","long":"126.80559862","imageIndex":0,"items":[{"name":"원터치자동차","tel":"032-679-8565","addr":"경기도 부천시 원종동 69번지 동화빌딩 1층 101호","indutype":"자동차정비 유지 - 카인테리어","category":"car"}]},{"lat":"37.5258116","long":"126.80512482","imageIndex":0,"items":[{"name":"윤민에너지","tel":"032-681-3737","addr":"경기도 부천시 원종동 233-24번지","indutype":"자동차정비 유지 - 자동차부품","category":"car"}]},{"lat":"37.528812589","long":"126.81101104","imageIndex":0,"items":[{"name":"인정카서비스","tel":"032-679-0909","addr":"경기도 부천시 원종동 338-1번지","indutype":"자동차정비 유지 - 자동차정비","category":"car"}]},{"lat":"37.526421187","long":"126.80329054","imageIndex":0,"items":[{"name":"인프러스디자인","tel":"032-621-3240","addr":"경기도 부천시 원종동 134-9번지","indutype":"자동차정비 유지 - 자동차부품","category":"car"}]},{"lat":"37.528344914","long":"126.8060458","imageIndex":0,"items":[{"name":"자동차매니저","tel":"032-671-0913","addr":"경기도 부천시 원종동 255-9번지 1층","indutype":"자동차정비 유지 - 자동차정비","category":"car"}]},{"lat":"37.518374574","long":"126.80282558","imageIndex":0,"items":[{"name":"전진오토부분정비","tel":"032-678-7322","addr":"경기도 부천시 원종동 378번지 외1필지 1층","indutype":"자동차정비 유지 - 자동차정비","category":"car"}]},{"lat":"37.526480062","long":"126.8008242","imageIndex":0,"items":[{"name":"정우자동차공업사","tel":"032-684-0639","addr":"경기도 부천시 원종동 138-32번지 미성 상가 106호 107호","indutype":"자동차정비 유지 - 자동차정비","category":"car"}]},{"lat":"37.530567141","long":"126.804128","imageIndex":0,"items":[{"name":"진성","tel":"032-679-6456","addr":"경기도 부천시 원종동 70-1번지 동문아파트","indutype":"자동차정비 유지 - 자동차부품","category":"car"}]},{"lat":"37.517589509","long":"126.80748799","imageIndex":0,"items":[{"name":"차돌사","tel":"070-3369-2459","addr":"경기도 부천시 원종동 357번지 미성아파트","indutype":"자동차정비 유지 - 자동차정비","category":"car"}]},{"lat":"37.527620354","long":"126.80921533","imageIndex":0,"items":[{"name":"차사랑","tel":"02-3664-8957","addr":"경기도 부천시 원종동 298-1번지 공항연립 1동 2층 202호","indutype":"자동차정비 유지 - 카인테리어","category":"car"}]},{"lat":"37.520041663","long":"126.80837522","imageIndex":0,"items":[{"name":"챠밍광택","tel":"","addr":"경기도 부천시 원종동 362-28번지 대성원종빌라 B동 201호","indutype":"자동차정비 유지 - 카인테리어","category":"car"}]},{"lat":"37.523761142","long":"126.80740402","imageIndex":0,"items":[{"name":"카프라자세일","tel":"032-678-6622","addr":"경기도 부천시 원종동 313-13번지 다우로얄팰리스","indutype":"자동차정비 유지 - 카인테리어","category":"car"}]},{"lat":"37.524484354","long":"126.80887275","imageIndex":0,"items":[{"name":"카프로모터스 원종점","tel":"032-209-9273","addr":"경기도 부천시 원종동 293-4번지","indutype":"자동차정비 유지 - 자동차정비","category":"car"}]},{"lat":"37.532482195","long":"126.80709842","imageIndex":0,"items":[{"name":"크랭크모터스&클리너디테일링","tel":"070-4231-4492","addr":"경기도 부천시 원종동 185번지 삼진정공(주)","indutype":"자동차정비 유지 - 자동차부품","category":"car"}]},{"lat":"37.525065314","long":"126.80604311","imageIndex":0,"items":[{"name":"한덕주차장","tel":"032-673-0672","addr":"경기도 부천시 원종동 275-1번지","indutype":"자동차정비 유지 - 주차장","category":"car"}]},{"lat":"37.52706142","long":"126.8036056","imageIndex":0,"items":[{"name":"한라주차장","tel":"070-7556-1174","addr":"경기도 부천시 원종동 133-9번지","indutype":"자동차정비 유지 - 주차장","category":"car"}]},{"lat":"37.520984698","long":"126.80121231","imageIndex":0,"items":[{"name":"한양사","tel":"032-679-0051","addr":"경기도 부천시 원종동 385번지","indutype":"자동차정비 유지 - 자동차정비","category":"car"}]}]