[{"lat":"37.024572132","long":"127.01948044","imageIndex":17,"items":[{"name":"S.J사무용가구","tel":"031-662-6617","addr":"경기도 평택시 고덕면 해창리 331-4번지","indutype":"가구 - 일반가구","category":"other"}]},{"lat":"37.041323342","long":"127.01617941","imageIndex":17,"items":[{"name":"㈜씨티건설","tel":"031-664-6841","addr":"경기도 평택시 고덕면 해창리 1138-1번지","indutype":"서비스업 - 건설","category":"other"},{"name":"씨티종합건설㈜","tel":"","addr":"경기도 평택시 고덕면 해창리 1138-1번지","indutype":"서비스업 - 건설","category":"other"},{"name":"태창힐링종합건설","tel":"031-662-5125","addr":"경기도 평택시 고덕면 해창리 1138-1번지","indutype":"서비스업 - 건설","category":"other"}]},{"lat":"37.021625565","long":"127.02004168","imageIndex":17,"items":[{"name":"고덕종합목재","tel":"031-663-6700","addr":"경기도 평택시 고덕면 해창리 264-4번지","indutype":"건축자재 - 기타건축자재","category":"other"},{"name":"주식회사 창이야기","tel":"031-611-9601","addr":"경기도 평택시 고덕면 해창리 264-4번지","indutype":"직물 - 카페트,커튼,천막,지물","category":"other"}]},{"lat":"37.041043849","long":"127.01756192","imageIndex":17,"items":[{"name":"고려철강","tel":"031-666-5757","addr":"경기도 평택시 고덕면 해창리 475","indutype":"건축자재 - 기타건축자재","category":"other"}]},{"lat":"37.021292227","long":"127.01964829","imageIndex":17,"items":[{"name":"대보드라이비트","tel":"031-665-8110","addr":"경기도 평택시 고덕면 해창리 1085-49번지","indutype":"건축자재 - 기타건축자재","category":"other"}]},{"lat":"37.018931137","long":"127.0216255","imageIndex":17,"items":[{"name":"해창공인중개사사무소","tel":"031-662-4894","addr":"경기도 평택시 고덕면 해창리 222-2번지","indutype":"용역 서비스 - 부동산 중개·임대","category":"other"}]},{"lat":"37.040818959","long":"127.01412234","imageIndex":4,"items":[{"name":"고덕한식부페","tel":"031-663-2732","addr":"경기도 평택시 고덕면 해창리 1143-1번지","indutype":"일반휴게음식 - 일반한식","category":"restaurant"}]},{"lat":"37.022436541","long":"127.01992948","imageIndex":4,"items":[{"name":"만나한식뷔페","tel":"031-665-4823","addr":"경기도 평택시 고덕면 해창리 270-12번지","indutype":"일반휴게음식 - 일반한식","category":"restaurant"}]},{"lat":"37.041323373","long":"127.01589839","imageIndex":4,"items":[{"name":"부녀회한식부페고덕점","tel":"031-668-9945","addr":"경기도 평택시 고덕면 해창리 1138-11번지 1층 한림빌딩","indutype":"일반휴게음식 - 일반한식","category":"restaurant"}]},{"lat":"37.021319147","long":"127.02042368","imageIndex":4,"items":[{"name":"주식회사 이에이치푸드","tel":"02-449-8035","addr":"경기도 평택시 고덕면 해창리 262-3번지 1동 2호","indutype":"일반휴게음식 - 일반한식","category":"restaurant"}]},{"lat":"37.023824136","long":"127.02025569","imageIndex":4,"items":[{"name":"참가마","tel":"031-684-1597","addr":"경기도 평택시 고덕면 해창리 330번지","indutype":"일반휴게음식 - 일반한식","category":"restaurant"},{"name":"참가마","tel":"","addr":"경기도 평택시 고덕면 해창리 330번지","indutype":"음식점 - 한식","category":"restaurant"}]},{"lat":"37.02095865","long":"127.02089557","imageIndex":0,"items":[{"name":"국제특장","tel":"031-664-3111","addr":"경기도 평택시 고덕면 해창리 288-5번지","indutype":"자동차정비 유지 - 자동차정비","category":"car"}]},{"lat":"37.020021436","long":"127.02156959","imageIndex":0,"items":[{"name":"우리카센타","tel":"031-663-7633","addr":"경기도 평택시 고덕면 해창리 209번지","indutype":"자동차정비 유지 - 자동차정비","category":"car"}]},{"lat":"37.021625565","long":"127.02004168","imageIndex":0,"items":[{"name":"하나자동차용품점","tel":"031-611-8776","addr":"경기도 평택시 고덕면 해창리 264-4번지","indutype":"자동차정비 유지 - 자동차부품","category":"car"}]},{"lat":"37.038845753","long":"127.01272828","imageIndex":7,"items":[{"name":"대디팜","tel":"031-691-8223","addr":"경기도 평택시 고덕면 해창리 1170-7번지","indutype":"음료식품 - 농·축·수산품","category":"food"},{"name":"대디팜영농조합","tel":"031-691-8223","addr":"경기도 평택시 고덕면 해창리 1170-7번지","indutype":"음료식품 - 농·축·수산품","category":"food"}]},{"lat":"37.037512106","long":"127.0135711","imageIndex":7,"items":[{"name":"민우농장","tel":"031-663-6006","addr":"경기도 평택시 고덕면 해창리 1170-13번지","indutype":"음료식품 - 농·축·수산품","category":"food"}]}]