[{"lat":"38.068421912","long":"127.32419577","imageIndex":7,"items":[{"name":"CORNER샵","tel":"02-2293-4765","addr":"경기도 포천시 영북면 산정리 75번지","indutype":"음료식품 - 기타음료식품","category":"food"},{"name":"자연산 산야초","tel":"031-531-8456","addr":"경기도 포천시 영북면 산정리 75번지","indutype":"음료식품 - 농·축·수산품","category":"food"}]},{"lat":"38.068953416","long":"127.32089332","imageIndex":7,"items":[{"name":"건강나라 장수마을","tel":"031-532-3878","addr":"경기도 포천시 영북면 산정리 191-2번지","indutype":"음료식품 - 농·축·수산품","category":"food"}]},{"lat":"38.049893307","long":"127.3061141","imageIndex":7,"items":[{"name":"농업회사법인 주식회사 여울","tel":"031-532-1779","addr":"경기도 포천시 영북면 산정리 728번지 1,2층","indutype":"음료식품 - 농·축·수산품","category":"food"}]},{"lat":"38.049484517","long":"127.30742259","imageIndex":7,"items":[{"name":"누리된장","tel":"031-531-7265","addr":"경기도 포천시 영북면 산정리 723-11번지","indutype":"음료식품 - 기타음료식품","category":"food"}]},{"lat":"38.054978596","long":"127.32156204","imageIndex":7,"items":[{"name":"대덕농산물판매소","tel":"031-534-9376","addr":"경기도 포천시 영북면 산정리 산121-1번지","indutype":"음료식품 - 농·축·수산품","category":"food"},{"name":"신선 농산물","tel":"031-534-9376","addr":"경기도 포천시 영북면 산정리 산121-1번지","indutype":"음료식품 - 농·축·수산품","category":"food"}]},{"lat":"38.064733317","long":"127.3156219","imageIndex":7,"items":[{"name":"두메산골","tel":"031-534-2129","addr":"경기도 포천시 영북면 산정리 452-21번지","indutype":"음료식품 - 기타음료식품","category":"food"}]},{"lat":"38.080279031","long":"127.32041807","imageIndex":7,"items":[{"name":"몰디브","tel":"031-533-3608","addr":"경기도 포천시 영북면 산정리 325-1번지 1층","indutype":"음료식품 - 기타음료식품","category":"food"}]},{"lat":"38.068533036","long":"127.32309087","imageIndex":7,"items":[{"name":"산정 농특산물 백화점","tel":"031-536-0268","addr":"경기도 포천시 영북면 산정리 191-1번지","indutype":"음료식품 - 농·축·수산품","category":"food"},{"name":"산정호수마을회","tel":"031-532-6122","addr":"경기도 포천시 영북면 산정리 191-1번지","indutype":"음료식품 - 기타음료식품","category":"food"},{"name":"산정호수마을회","tel":"031-111-1111","addr":"경기도 포천시 영북면 산정리 191-1","indutype":"음료식품 - 기타음료식품","category":"food"},{"name":"중앙휴게실","tel":"031-534-9645","addr":"경기도 포천시 영북면 산정리 191-1번지","indutype":"음료식품 - 기타음료식품","category":"food"}]},{"lat":"38.068233099","long":"127.3240582","imageIndex":7,"items":[{"name":"산정상회","tel":"031-532-5101","addr":"경기도 포천시 영북면 산정리 193-10번지","indutype":"음료식품 - 기타음료식품","category":"food"}]},{"lat":"38.080314543","long":"127.32061198","imageIndex":7,"items":[{"name":"새로운 꿈","tel":"070-7862-1697","addr":"경기도 포천시 영북면 산정리 325-4번지","indutype":"음료식품 - 기타음료식품","category":"food"}]},{"lat":"38.075841246","long":"127.32239333","imageIndex":7,"items":[{"name":"외가댁","tel":"031-533-9632","addr":"경기도 포천시 영북면 산정리 304번지","indutype":"음료식품 - 농·축·수산품","category":"food"}]},{"lat":"38.068141545","long":"127.32459339","imageIndex":7,"items":[{"name":"일상탈출편의점","tel":"031-533-3793","addr":"경기도 포천시 영북면 산정리 188번지 2층","indutype":"음료식품 - 기타음료식품","category":"food"}]},{"lat":"38.069365243","long":"127.3082799","imageIndex":7,"items":[{"name":"포천농민영농조합법인","tel":"031-534-0602","addr":"경기도 포천시 영북면 산정리 517-34","indutype":"음료식품 - 정육점","category":"food"}]},{"lat":"38.068367765","long":"127.32422972","imageIndex":7,"items":[{"name":"하우스매점","tel":"031-533-7269","addr":"경기도 포천시 영북면 산정리 75-14번지","indutype":"음료식품 - 기타음료식품","category":"food"}]}]