[{"lat":"37.136304483","long":"126.95681754","imageIndex":4,"items":[{"name":"그린한식부페","tel":"031-354-3449","addr":"경기도 화성시 향남읍 동오리 133번지","indutype":"일반휴게음식 - 일반한식","category":"restaurant"}]},{"lat":"37.133002625","long":"126.94743375","imageIndex":4,"items":[{"name":"기와집","tel":"031-353-3951","addr":"경기도 화성시 향남읍 동오리 537-1번지","indutype":"일반휴게음식 - 일반한식","category":"restaurant"}]},{"lat":"37.133362625","long":"126.94654442","imageIndex":4,"items":[{"name":"단성한우국밥/월드푸드","tel":"031-366-3369","addr":"경기도 화성시 향남읍 동오리 542-3번지","indutype":"일반휴게음식 - 일반한식","category":"restaurant"}]},{"lat":"37.138808973","long":"126.95573556","imageIndex":4,"items":[{"name":"대왕성 대반점","tel":"031-352-7967","addr":"경기도 화성시 향남읍 동오리 79-3번지","indutype":"일반휴게음식 - 중국식","category":"restaurant"},{"name":"동오","tel":"031-353-6511","addr":"경기도 화성시 향남읍 동오리 79-3번지 1동","indutype":"일반휴게음식 - 일반한식","category":"restaurant"},{"name":"조화라 셀프맛집","tel":"031-353-7495","addr":"경기도 화성시 향남읍 동오리 79-3번지","indutype":"일반휴게음식 - 일반한식","category":"restaurant"}]},{"lat":"37.134143953","long":"126.94134443","imageIndex":4,"items":[{"name":"더뷰","tel":"031-352-0267","addr":"경기도 화성시 향남읍 동오리 556-4번지 3층","indutype":"일반휴게음식 - 서양음식","category":"restaurant"},{"name":"정마루","tel":"031-354-5365","addr":"경기도 화성시 향남읍 동오리 556-4번지 1층","indutype":"일반휴게음식 - 일반한식","category":"restaurant"}]},{"lat":"37.133227782","long":"126.9472085","imageIndex":4,"items":[{"name":"동백정","tel":"031-354-7113","addr":"경기도 화성시 향남읍 동오리 537-2번지 1층 1호","indutype":"일반휴게음식 - 일반한식","category":"restaurant"}]},{"lat":"37.130448371","long":"126.95867793","imageIndex":4,"items":[{"name":"동오기사식당","tel":"031-353-1753","addr":"경기도 화성시 향남읍 동오리 208-2번지","indutype":"일반휴게음식 - 일반한식","category":"restaurant"}]},{"lat":"37.134558784","long":"126.94201935","imageIndex":4,"items":[{"name":"동오정","tel":"031-366-4488","addr":"경기도 화성시 향남읍 동오리 560-5번지","indutype":"일반휴게음식 - 일반한식","category":"restaurant"}]},{"lat":"37.136837659","long":"126.96101516","imageIndex":4,"items":[{"name":"두리뷔페","tel":"031-352-6879","addr":"경기도 화성시 향남읍 동오리 49번지 1층","indutype":"일반휴게음식 - 일반한식","category":"restaurant"}]},{"lat":"37.134085177","long":"126.95026899","imageIndex":4,"items":[{"name":"명가식당","tel":"031-366-4137","addr":"경기도 화성시 향남읍 동오리 481-1번지","indutype":"일반휴게음식 - 일반한식","category":"restaurant"}]},{"lat":"37.135366743","long":"126.95517498","imageIndex":4,"items":[{"name":"명품한식뷔페","tel":"031-354-7729","addr":"경기도 화성시 향남읍 동오리 135-1번지","indutype":"일반휴게음식 - 일반한식","category":"restaurant"}]},{"lat":"37.135117773","long":"126.9426829","imageIndex":4,"items":[{"name":"브라메리타","tel":"031-354-5240","addr":"경기도 화성시 향남읍 동오리 560-8번지","indutype":"일반휴게음식 - 서양음식","category":"restaurant"}]},{"lat":"37.133055122","long":"126.94418131","imageIndex":4,"items":[{"name":"빈티지카페","tel":"031-000-0000","addr":"경기도 화성시 향남읍 동오리 548-1번지 3동 1층","indutype":"일반휴게음식 - 서양음식","category":"restaurant"}]},{"lat":"37.134757015","long":"126.94201919","imageIndex":4,"items":[{"name":"서봉산 도토리식당","tel":"031-352-5678","addr":"경기도 화성시 향남읍 동오리 560-3번지 1층","indutype":"일반휴게음식 - 일반한식","category":"restaurant"}]},{"lat":"37.131450305","long":"126.96370777","imageIndex":4,"items":[{"name":"용추골미궁순대","tel":"031-353-5057","addr":"경기도 화성시 향남읍 동오리 200-10번지 1층","indutype":"일반휴게음식 - 일반한식","category":"restaurant"}]},{"lat":"37.133311495","long":"126.95309428","imageIndex":4,"items":[{"name":"우리식당","tel":"031-353-7035","addr":"경기도 화성시 향남읍 동오리 705-10번지 1동 지하1층","indutype":"일반휴게음식 - 일반한식","category":"restaurant"}]},{"lat":"37.134891246","long":"126.96059982","imageIndex":4,"items":[{"name":"우리한식","tel":"031-111-1111","addr":"경기도 화성시 향남읍 동오리 118-14번지","indutype":"일반휴게음식 - 일반한식","category":"restaurant"}]},{"lat":"37.1433611","long":"126.96059511","imageIndex":4,"items":[{"name":"장수보신원","tel":"031-353-0732","addr":"경기도 화성시 향남읍 동오리 1-3번지","indutype":"일반휴게음식 - 일반한식","category":"restaurant"}]},{"lat":"37.133610732","long":"126.95782079","imageIndex":4,"items":[{"name":"정성담은한식뷔페","tel":"031-354-1198","addr":"경기도 화성시 향남읍 동오리 673-5번지 1층","indutype":"일반휴게음식 - 일반한식","category":"restaurant"}]},{"lat":"37.134918599","long":"126.9615114","imageIndex":4,"items":[{"name":"청화대 구내식당","tel":"","addr":"경기도 화성시 향남읍 동오리 115-13번지","indutype":"일반휴게음식 - 위탁급식업","category":"restaurant"}]},{"lat":"37.133056556","long":"126.94715236","imageIndex":4,"items":[{"name":"콩미가손두부","tel":"031-353-8639","addr":"경기도 화성시 향남읍 동오리 537번지","indutype":"일반휴게음식 - 일반한식","category":"restaurant"}]},{"lat":"37.14005547","long":"126.96415353","imageIndex":4,"items":[{"name":"한상애찬 한식부페","tel":"031-366-0995","addr":"경기도 화성시 향남읍 동오리 606-1번지","indutype":"일반휴게음식 - 일반한식","category":"restaurant"}]},{"lat":"37.143721398","long":"126.96025724","imageIndex":4,"items":[{"name":"화전밭","tel":"031-354-0956","addr":"경기도 화성시 향남읍 동오리 1-1번지","indutype":"일반휴게음식 - 일반한식","category":"restaurant"}]}]