[{"lat":"37.66552142","long":"126.80771288","imageIndex":0,"items":[{"name":"(주)고양번호판제작소","tel":"031-903-7788","addr":"경기도 고양시 일산동구 풍동 162-2번지","indutype":"자동차정비 유지 - 자동차부품","category":"car"}]},{"lat":"37.676986685","long":"126.79481696","imageIndex":0,"items":[{"name":"21세기세차장","tel":"031-8070-9997","addr":"경기도 고양시 일산동구 풍동 638-2번지","indutype":"자동차정비 유지 - 세차장","category":"car"}]},{"lat":"37.662267805","long":"126.80168073","imageIndex":0,"items":[{"name":"BLS(블랙라벨스토어)","tel":"031-926-2339","addr":"경기도 고양시 일산동구 풍동 403번지","indutype":"자동차정비 유지 - 자동차부품","category":"car"},{"name":"명진세차장","tel":"031-902-5221","addr":"경기도 고양시 일산동구 풍동 403번지","indutype":"자동차정비 유지 - 세차장","category":"car"}]},{"lat":"37.661156136","long":"126.79448715","imageIndex":0,"items":[{"name":"D-1용품점","tel":"070-4403-8654","addr":"경기도 고양시 일산동구 풍동 377-1번지","indutype":"자동차정비 유지 - 자동차부품","category":"car"}]},{"lat":"37.662380259","long":"126.79896041","imageIndex":0,"items":[{"name":"DUB IR 풍동점","tel":"031-908-1400","addr":"경기도 고양시 일산동구 풍동 834번지","indutype":"자동차정비 유지 - 카인테리어","category":"car"},{"name":"일산워시존","tel":"031-904-1600","addr":"경기도 고양시 일산동구 풍동 834번지","indutype":"자동차정비 유지 - 세차장","category":"car"},{"name":"저스티스멀티샵","tel":"","addr":"경기도 고양시 일산동구 풍동 834번지","indutype":"자동차정비 유지 - 카인테리어","category":"car"}]},{"lat":"37.666237182","long":"126.80470751","imageIndex":0,"items":[{"name":"H모터스","tel":"031-902-7321","addr":"경기도 고양시 일산동구 풍동 849-4번지","indutype":"자동차정비 유지 - 자동차정비","category":"car"}]},{"lat":"37.677743552","long":"126.79484885","imageIndex":0,"items":[{"name":"글라스루프","tel":"031-901-7223","addr":"경기도 고양시 일산동구 풍동 638-23번지","indutype":"자동차정비 유지 - 자동차부품","category":"car"}]},{"lat":"37.663742903","long":"126.80554149","imageIndex":0,"items":[{"name":"기아자동차신도시입구판매점","tel":"031-901-2800","addr":"경기도 고양시 일산동구 풍동","indutype":"자동차판매 - 국산신차판매","category":"car"},{"name":"오토원","tel":"031-901-7511","addr":"경기도 고양시 일산동구 풍동","indutype":"자동차정비 유지 - 자동차부품","category":"car"}]},{"lat":"37.665103236","long":"126.80015435","imageIndex":0,"items":[{"name":"동영카독크","tel":"031-968-1898","addr":"경기도 고양시 일산동구 풍동 1301-1번지","indutype":"자동차정비 유지 - 자동차정비","category":"car"}]},{"lat":"37.673686228","long":"126.79829471","imageIndex":0,"items":[{"name":"로드 오토파츠","tel":"031-9217-1349","addr":"경기도 고양시 일산동구 풍동 1235번지","indutype":"자동차정비 유지 - 자동차부품","category":"car"}]},{"lat":"37.662044261","long":"126.80267866","imageIndex":0,"items":[{"name":"루마썬팅일산풍동점","tel":"031-975-1809","addr":"경기도 고양시 일산동구 풍동 143-9번지","indutype":"자동차정비 유지 - 자동차부품","category":"car"},{"name":"아트카오디오","tel":"031-906-7557","addr":"경기도 고양시 일산동구 풍동 143-9번지","indutype":"자동차정비 유지 - 자동차부품","category":"car"}]},{"lat":"37.677823958","long":"126.79446321","imageIndex":0,"items":[{"name":"르노삼성자동차 지정정비코너 풍동점","tel":"031-905-9955","addr":"경기도 고양시 일산동구 풍동 638-1번지","indutype":"자동차정비 유지 - 자동차정비","category":"car"}]},{"lat":"37.666491768","long":"126.8007626","imageIndex":0,"items":[{"name":"마이네키풍동점","tel":"031-901-5213","addr":"경기도 고양시 일산동구 풍동 1295-14번지","indutype":"자동차정비 유지 - 자동차정비","category":"car"}]},{"lat":"37.661212012","long":"126.80070892","imageIndex":0,"items":[{"name":"맥과이어","tel":"031-904-3372","addr":"경기도 고양시 일산동구 풍동 883번지","indutype":"자동차정비 유지 - 세차장","category":"car"},{"name":"주식회사 코르사모터스","tel":"061-902-9779","addr":"경기도 고양시 일산동구 풍동 883번지","indutype":"자동차정비 유지 - 자동차정비","category":"car"},{"name":"풍동세차장","tel":"031-905-4567","addr":"경기도 고양시 일산동구 풍동 883번지","indutype":"자동차정비 유지 - 세차장","category":"car"}]},{"lat":"37.671334465","long":"126.79815382","imageIndex":0,"items":[{"name":"명성그린산업","tel":"031-905-3415","addr":"경기도 고양시 일산동구 풍동 1258번지 숲속마을8단지아파트","indutype":"자동차정비 유지 - 자동차부품","category":"car"}]},{"lat":"37.67777018","long":"126.79462207","imageIndex":0,"items":[{"name":"미래세차장","tel":"031-905-3533","addr":"경기도 고양시 일산동구 풍동 638-11번지","indutype":"자동차정비 유지 - 세차장","category":"car"},{"name":"한성CMS손세차장","tel":"031-964-6771","addr":"경기도 고양시 일산동구 풍동 638-11번지","indutype":"자동차정비 유지 - 세차장","category":"car"}]},{"lat":"37.677654733","long":"126.79557459","imageIndex":0,"items":[{"name":"백마모터스","tel":"031-907-4900","addr":"경기도 고양시 일산동구 풍동 649-4번지","indutype":"자동차정비 유지 - 자동차시트·타이어","category":"car"}]},{"lat":"37.661800809","long":"126.80256598","imageIndex":0,"items":[{"name":"삼익상사","tel":"031-901-6067","addr":"경기도 고양시 일산동구 풍동","indutype":"자동차정비 유지 - 자동차부품","category":"car"},{"name":"삼익통상","tel":"031-911-6691","addr":"경기도 고양시 일산동구 풍동 143-5번지","indutype":"자동차정비 유지 - 자동차부품","category":"car"}]},{"lat":"37.677654274","long":"126.79531387","imageIndex":0,"items":[{"name":"서인공업사","tel":"031-932-3558","addr":"경기도 고양시 일산동구 풍동 638-14번지","indutype":"자동차정비 유지 - 자동차정비","category":"car"}]},{"lat":"37.673077835","long":"126.80076741","imageIndex":0,"items":[{"name":"솔라가드(풍동점)","tel":"031-0000-0000","addr":"경기도 고양시 일산동구 풍동 1242-1번지","indutype":"자동차정비 유지 - 자동차부품","category":"car"}]},{"lat":"37.67245976","long":"126.79762932","imageIndex":0,"items":[{"name":"숲속Car Care & Oil shop","tel":"","addr":"경기도 고양시 일산동구 풍동 1247-2번지","indutype":"자동차정비 유지 - 자동차정비","category":"car"}]},{"lat":"37.661407396","long":"126.79906507","imageIndex":0,"items":[{"name":"스피드메이트 고일점","tel":"031-907-1770","addr":"경기도 고양시 일산동구 풍동 840번지","indutype":"자동차정비 유지 - 자동차정비","category":"car"}]},{"lat":"37.661215895","long":"126.79773961","imageIndex":0,"items":[{"name":"아랑자동차용품","tel":"031-966-3634","addr":"경기도 고양시 일산동구 풍동 426-5번지","indutype":"자동차정비 유지 - 자동차부품","category":"car"}]},{"lat":"37.663851303","long":"126.80571121","imageIndex":0,"items":[{"name":"에이펙스(APEX)","tel":"","addr":"경기도 고양시 일산동구 풍동 154-7번지","indutype":"자동차정비 유지 - 자동차부품","category":"car"},{"name":"에이피스마트 주식회사","tel":"031-1855-3136","addr":"경기도 고양시 일산동구 풍동 154-7번지","indutype":"자동차정비 유지 - 자동차부품","category":"car"}]},{"lat":"37.664076733","long":"126.80582395","imageIndex":0,"items":[{"name":"에이피모빌리티","tel":"031-1855-3136","addr":"경기도 고양시 일산동구 풍동 154-1번지","indutype":"자동차정비 유지 - 자동차부품","category":"car"}]},{"lat":"37.661907204","long":"126.79634372","imageIndex":0,"items":[{"name":"엠아이유통","tel":"","addr":"경기도 고양시 일산동구 풍동 421-3번지","indutype":"자동차정비 유지 - 자동차부품","category":"car"}]},{"lat":"37.662460354","long":"126.80365221","imageIndex":0,"items":[{"name":"오일드림","tel":"031-906-6029","addr":"경기도 고양시 일산동구 풍동 145-1번지","indutype":"자동차정비 유지 - 자동차부품","category":"car"},{"name":"자동차밧데리전문할인매장","tel":"031-904-6402","addr":"경기도 고양시 일산동구 풍동 145-1번지","indutype":"자동차정비 유지 - 자동차부품","category":"car"}]},{"lat":"37.675597483","long":"126.793846","imageIndex":0,"items":[{"name":"오토오아시스풍동애니골점,바름정비풍동애","tel":"031-903-0979","addr":"경기도 고양시 일산동구 풍동 622-1번지","indutype":"자동차정비 유지 - 자동차부품","category":"car"},{"name":"오토오아시스풍동애니골점,바름정비풍동애","tel":"031-903-0979","addr":"경기도 고양시 일산동구 풍동 622-1번지","indutype":"자동차정비 유지 - 자동차부품","category":"car"}]},{"lat":"37.67890304","long":"126.7932926","imageIndex":0,"items":[{"name":"오토플러스","tel":"031-976-6989","addr":"경기도 고양시 일산동구 풍동 660-2번지","indutype":"자동차정비 유지 - 자동차정비","category":"car"}]},{"lat":"37.679020849","long":"126.79367769","imageIndex":0,"items":[{"name":"유일세차장","tel":"","addr":"경기도 고양시 일산동구 풍동","indutype":"자동차정비 유지 - 세차장","category":"car"}]},{"lat":"37.668798948","long":"126.80117572","imageIndex":0,"items":[{"name":"유한회사 이유산업개발","tel":"070-7716-4367","addr":"경기도 고양시 일산동구 풍동 1265번지 숲속마을4단지아파트","indutype":"자동차정비 유지 - 주차장","category":"car"}]},{"lat":"37.661904898","long":"126.80020838","imageIndex":0,"items":[{"name":"일광","tel":"","addr":"경기도 고양시 일산동구 풍동 881번지","indutype":"자동차정비 유지 - 주차장","category":"car"}]},{"lat":"37.673299954","long":"126.7989532","imageIndex":0,"items":[{"name":"자동차 외형복원 일산 풍동점","tel":"031-903-3378","addr":"경기도 고양시 일산동구 풍동 1250-6번지","indutype":"자동차정비 유지 - 카인테리어","category":"car"}]},{"lat":"37.668392857","long":"126.79560035","imageIndex":0,"items":[{"name":"제이엔케이","tel":"031-976-4987","addr":"경기도 고양시 일산동구 풍동 1268번지 숲속마을6단지아파트","indutype":"자동차정비 유지 - 자동차부품","category":"car"}]},{"lat":"37.66059926","long":"126.80065392","imageIndex":0,"items":[{"name":"주식회사 제이앤에이치모터스","tel":"031-913-1557","addr":"경기도 고양시 일산동구 풍동 885-5번지","indutype":"자동차정비 유지 - 자동차정비","category":"car"}]},{"lat":"37.662856318","long":"126.80337915","imageIndex":0,"items":[{"name":"주식회사예일모터스고양풍동","tel":"031-903-7838","addr":"경기도 고양시 일산동구 풍동 148번지","indutype":"자동차정비 유지 - 자동차시트·타이어","category":"car"}]},{"lat":"37.661271153","long":"126.79843079","imageIndex":0,"items":[{"name":"카스 (CARS)","tel":"031-813-4111","addr":"경기도 고양시 일산동구 풍동 841번지","indutype":"자동차정비 유지 - 카인테리어","category":"car"}]},{"lat":"37.674237149","long":"126.79906399","imageIndex":0,"items":[{"name":"케이덴트","tel":"031-902-6622","addr":"경기도 고양시 일산동구 풍동 226-25번지","indutype":"자동차정비 유지 - 자동차정비","category":"car"},{"name":"케이모터스","tel":"031-902-6622","addr":"경기도 고양시 일산동구 풍동 226-25번지","indutype":"자동차정비 유지 - 자동차정비","category":"car"}]},{"lat":"37.663408711","long":"126.8050437","imageIndex":0,"items":[{"name":"탑블링손세차","tel":"031-970-8565","addr":"경기도 고양시 일산동구 풍동 116-20번지","indutype":"자동차정비 유지 - 세차장","category":"car"}]},{"lat":"37.659765708","long":"126.8032061","imageIndex":0,"items":[{"name":"태광틴팅,태광오토모빌","tel":"031-975-8250","addr":"경기도 고양시 일산동구 풍동 79-1번지","indutype":"자동차정비 유지 - 자동차부품","category":"car"}]},{"lat":"37.668514279","long":"126.79805956","imageIndex":0,"items":[{"name":"테크노포르테(technoforte)","tel":"02-313-5373","addr":"경기도 고양시 일산동구 풍동 1267번지","indutype":"자동차정비 유지 - 자동차부품","category":"car"}]},{"lat":"37.660964665","long":"126.79320704","imageIndex":0,"items":[{"name":"풍동오토써비스","tel":"031-901-5887","addr":"경기도 고양시 일산동구 풍동 1061번지","indutype":"자동차정비 유지 - 자동차정비","category":"car"}]},{"lat":"37.661686753","long":"126.79909831","imageIndex":0,"items":[{"name":"프리미엄CAR'S","tel":"031-1644-1189","addr":"경기도 고양시 일산동구 풍동 837번지","indutype":"자동차정비 유지 - 카인테리어","category":"car"}]}]