[{"lat":"37.206798848","long":"126.81038739","imageIndex":17,"items":[{"name":"(주)고구려엔지니어링","tel":"031-356-2951","addr":"경기도 화성시 남양읍 남양리 486-1번지 춘성빌딩 402호","indutype":"회원제형태 - 기타4","category":"other"}]},{"lat":"37.199711952","long":"126.82463161","imageIndex":17,"items":[{"name":"(주)신진토목엔팔만대장경","tel":"031-355-8774","addr":"경기도 화성시 남양읍 남양리 1837-4","indutype":"용역 서비스 - 사무서비스","category":"other"}]},{"lat":"37.205489478","long":"126.83201893","imageIndex":17,"items":[{"name":"(주)에이치엠트레이드","tel":"031-355-5354","addr":"경기도 화성시 남양읍 남양리 2051-1번지","indutype":"건축자재 - 조명기구","category":"other"}]},{"lat":"37.200660418","long":"126.8262176","imageIndex":17,"items":[{"name":"(주)케이폴시스템","tel":"031-366-2113","addr":"경기도 화성시 남양읍 남양리 2072-9번지 임광프라자 501호","indutype":"용역 서비스 - 종합용역","category":"other"},{"name":"르네셀","tel":"031-366-9511","addr":"경기도 화성시 남양읍 남양리 2072-9번지 임광프라자 6층 601호","indutype":"회원제형태 - 기타1","category":"other"}]},{"lat":"37.203245268","long":"126.83158467","imageIndex":17,"items":[{"name":"GS25남양뉴타운점","tel":"","addr":"경기도 화성시 남양읍 남양리 2055-14번지 101호","indutype":"유통업 영리 - 편 의 점","category":"other"}]},{"lat":"37.205269668","long":"126.80647117","imageIndex":17,"items":[{"name":"GS25남양성지점","tel":"","addr":"경기도 화성시 남양읍 남양리 465-6번지","indutype":"유통업 영리 - 편 의 점","category":"other"}]},{"lat":"37.204878463","long":"126.82104858","imageIndex":17,"items":[{"name":"GS25남양시청로점","tel":"","addr":"경기도 화성시 남양읍 남양리 2294-1번지 1층 102호","indutype":"유통업 영리 - 편 의 점","category":"other"},{"name":"골드모바일샵","tel":"070-8881-2580","addr":"경기도 화성시 남양읍 남양리 2294-1번지","indutype":"사무통신 - 통신기기","category":"other"}]},{"lat":"37.209542931","long":"126.81916735","imageIndex":17,"items":[{"name":"GS25남양아이리스점","tel":"","addr":"경기도 화성시 남양읍 남양리 1268번지","indutype":"유통업 영리 - 편 의 점","category":"other"},{"name":"스트롱짐","tel":"031-357-9685","addr":"경기도 화성시 남양읍 남양리 1268번지 아이리스프라자빌딩 4층 404호","indutype":"회원제형태 - 레져업소","category":"other"},{"name":"제일환경산업","tel":"031-352-3631","addr":"경기도 화성시 남양읍 남양리 1268번지 1동 3층 310호","indutype":"건축자재 - 기타건축자재","category":"other"},{"name":"현잉크","tel":"031-355-2381","addr":"경기도 화성시 남양읍 남양리 1268번지 205호","indutype":"용역 서비스 - 사무서비스","category":"other"}]},{"lat":"37.205795195","long":"126.83157891","imageIndex":17,"items":[{"name":"GS25남양아이파크점","tel":"","addr":"경기도 화성시 남양읍 남양리 2046-12번지 1층","indutype":"유통업 영리 - 편 의 점","category":"other"}]},{"lat":"37.210548134","long":"126.82847017","imageIndex":17,"items":[{"name":"GS25남양주공점","tel":"","addr":"경기도 화성시 남양읍 남양리 2233번지 화성남양뉴타운LH4단지 101,102호","indutype":"유통업 영리 - 편 의 점","category":"other"},{"name":"착한종합설비","tel":"031-366-8024","addr":"경기도 화성시 남양읍 남양리 2233번지 화성남양뉴타운LH4단지 19층 6호","indutype":"용역 서비스 - 기타용역서비스","category":"other"}]},{"lat":"37.200738928","long":"126.82449402","imageIndex":17,"items":[{"name":"GS25현대차기숙사점","tel":"","addr":"경기도 화성시 남양읍 남양리 1831번지","indutype":"유통업 영리 - 편 의 점","category":"other"}]},{"lat":"37.208823378","long":"126.8142462","imageIndex":17,"items":[{"name":"GS25화성남양점","tel":"02-2006-2485","addr":"경기도 화성시 남양읍 남양리 556번지 1층","indutype":"유통업 영리 - 편 의 점","category":"other"}]},{"lat":"37.201212523","long":"126.82788339","imageIndex":17,"items":[{"name":"GS25화성시청점","tel":"","addr":"경기도 화성시 남양읍 남양리 2076-10번지","indutype":"유통업 영리 - 편 의 점","category":"other"}]},{"lat":"37.208134193","long":"126.81716558","imageIndex":17,"items":[{"name":"JK텔레콤","tel":"031-356-9586","addr":"경기도 화성시 남양읍 남양리 1172-4번지 삼기프라자 105호","indutype":"사무통신 - 통신기기","category":"other"}]},{"lat":"37.210439259","long":"126.81052459","imageIndex":17,"items":[{"name":"가단기업","tel":"031-226-2873","addr":"경기도 화성시 남양읍 남양리 172번지","indutype":"건축자재 - 인테리어전문","category":"other"},{"name":"화성전기조명","tel":"031-357-5048","addr":"경기도 화성시 남양읍 남양리 172번지","indutype":"전기제품 - 기타전기제품","category":"other"}]},{"lat":"37.202299611","long":"126.82575194","imageIndex":17,"items":[{"name":"갑부텔레콤","tel":"031-355-9672","addr":"경기도 화성시 남양읍 남양리 2018-5번지 1층 102호","indutype":"사무통신 - 통신기기","category":"other"}]},{"lat":"37.209075883","long":"126.81438076","imageIndex":17,"items":[{"name":"개네가 고양이네","tel":"031-356-8005","addr":"경기도 화성시 남양읍 남양리 651-2번지","indutype":"문화.취미 - 애완동물","category":"other"},{"name":"남양커텐.홈패션","tel":"031-355-1631","addr":"경기도 화성시 남양읍 남양리 651-2번지","indutype":"직물 - 카페트,커튼,천막,지물","category":"other"},{"name":"남양풍년농약사","tel":"031-357-9444","addr":"경기도 화성시 남양읍 남양리 651-2번지","indutype":"농업 - 비료,사료,종자","category":"other"}]},{"lat":"37.201135383","long":"126.82449309","imageIndex":17,"items":[{"name":"거성닥트","tel":"031-356-3337","addr":"경기도 화성시 남양읍 남양리 1826-1","indutype":"건축자재 - 기타건축자재","category":"other"}]},{"lat":"37.202993783","long":"126.7928923","imageIndex":17,"items":[{"name":"경북타일","tel":"031-356-5512","addr":"경기도 화성시 남양읍 남양리 363-1번지","indutype":"건축자재 - 건축용 요업제품","category":"other"}]},{"lat":"37.203051462","long":"126.79494224","imageIndex":17,"items":[{"name":"공간벽돌","tel":"031-355-5408","addr":"경기도 화성시 남양읍 남양리 367-1번지","indutype":"건축자재 - 기타건축자재","category":"other"},{"name":"명성목재","tel":"031-355-4281","addr":"경기도 화성시 남양읍 남양리 367-1번지","indutype":"건축자재 - 목재·석재·철물","category":"other"},{"name":"힐링플라워","tel":"031-356-3438","addr":"경기도 화성시 남양읍 남양리 367-1번지","indutype":"문화.취미 - 화원","category":"other"}]},{"lat":"37.21012834","long":"126.81899695","imageIndex":17,"items":[{"name":"구구열쇠","tel":"031-355-9913","addr":"경기도 화성시 남양읍 남양리 1267-9번지","indutype":"기타 - 기계공구","category":"other"}]},{"lat":"37.203488613","long":"126.79761071","imageIndex":17,"items":[{"name":"구보다","tel":"031-356-3555","addr":"경기도 화성시 남양읍 남양리 377","indutype":"농업 - 농기계","category":"other"}]},{"lat":"37.20921311","long":"126.81568719","imageIndex":17,"items":[{"name":"궁전완구문구점","tel":"031-356-3396","addr":"경기도 화성시 남양읍 남양리 1163-12번지 1층","indutype":"서적문구 - 완구점","category":"other"}]},{"lat":"37.209019124","long":"126.81839132","imageIndex":17,"items":[{"name":"귀요미","tel":"031-357-6233","addr":"경기도 화성시 남양읍 남양리 1197번지 외3필지 국제포인트프라자 106호","indutype":"의류 - 정장","category":"other"},{"name":"원클릭샵","tel":"031-356-9061","addr":"경기도 화성시 남양읍 남양리 1197번지 402호","indutype":"주방용구 - 주방용구","category":"other"}]},{"lat":"37.209712006","long":"126.81780383","imageIndex":17,"items":[{"name":"그라시아","tel":"070-8700-5933","addr":"경기도 화성시 남양읍 남양리 1237번지 (주)픽앤츄코리아 106호","indutype":"의류 - 정장","category":"other"},{"name":"씨유남양드림점","tel":"031-356-1361","addr":"경기도 화성시 남양읍 남양리 1237번지","indutype":"유통업 영리 - 편 의 점","category":"other"}]},{"lat":"37.214877882","long":"126.81969518","imageIndex":17,"items":[{"name":"나눔씽크대","tel":"031-355-0885","addr":"경기도 화성시 남양읍 남양리 1133번지","indutype":"주방용구 - 주방용구","category":"other"}]},{"lat":"37.211487732","long":"126.81254973","imageIndex":17,"items":[{"name":"나눔종합기계","tel":"031-355-0412","addr":"경기도 화성시 남양읍 남양리 65-2번지 1층","indutype":"기타 - 기계공구","category":"other"}]},{"lat":"37.214105129","long":"126.81530332","imageIndex":17,"items":[{"name":"나무길원예","tel":"031-357-0132","addr":"경기도 화성시 남양읍 남양리 21-1번지","indutype":"문화.취미 - 화원","category":"other"}]},{"lat":"37.200717735","long":"126.82841394","imageIndex":17,"items":[{"name":"나승광고 디자인인쇄","tel":"031-357-9403","addr":"경기도 화성시 남양읍 남양리 2077-8번지 베스트빌딩 1층 105호","indutype":"서적문구 - 출판 및 인쇄물","category":"other"},{"name":"베스트스크린골프","tel":"031-356-7770","addr":"경기도 화성시 남양읍 남양리 2077-8번지 201호 (201호~203호)","indutype":"회원제형태 - 레져업소","category":"other"}]},{"lat":"37.208491624","long":"126.81527216","imageIndex":17,"items":[{"name":"남양골드","tel":"031-355-2964","addr":"경기도 화성시 남양읍 남양리 657-1번지","indutype":"신변잡화 - 귀금속","category":"other"}]},{"lat":"37.207379764","long":"126.81302191","imageIndex":17,"items":[{"name":"남양광고","tel":"031-357-7155","addr":"경기도 화성시 남양읍 남양리 523번지 B동 104호","indutype":"용역 서비스 - 종합용역","category":"other"},{"name":"드론스토어","tel":"031-355-0039","addr":"경기도 화성시 남양읍 남양리 523번지","indutype":"광학제품 - 기타광학제품","category":"other"},{"name":"모든오피스 화성점","tel":"031-356-3560","addr":"경기도 화성시 남양읍 남양리 523번지","indutype":"서적문구 - 문구용품","category":"other"}]},{"lat":"37.202211771","long":"126.79913483","imageIndex":17,"items":[{"name":"남양냉동","tel":"031-357-0330","addr":"경기도 화성시 남양읍 남양리 405-3번지","indutype":"전기제품 - 냉열기기","category":"other"}]},{"lat":"37.211855078","long":"126.82274422","imageIndex":17,"items":[{"name":"남양노루표풍일종합공사","tel":"031-356-7495","addr":"경기도 화성시 남양읍 남양리 1329-5번지 영문빌딩 1층","indutype":"건축자재 - 페인트","category":"other"},{"name":"참디자인","tel":"031-273-8425","addr":"경기도 화성시 남양읍 남양리 1329-5번지 영문빌딩 2층","indutype":"건축자재 - 인테리어전문","category":"other"}]},{"lat":"37.208046212","long":"126.83049238","imageIndex":17,"items":[{"name":"남양뉴타운열쇠","tel":"031-366-7337","addr":"경기도 화성시 남양읍 남양리 2044-1번지 2호","indutype":"건축자재 - 목재·석재·철물","category":"other"}]},{"lat":"37.211270814","long":"126.81213345","imageIndex":17,"items":[{"name":"남양물류","tel":"031-357-5405","addr":"경기도 화성시 남양읍 남양리 65번지","indutype":"용역 서비스 - 보관및 창고업","category":"other"}]},{"lat":"37.206348368","long":"126.81041106","imageIndex":17,"items":[{"name":"남양브럭골재상사","tel":"031-356-2211","addr":"경기도 화성시 남양읍 남양리 511-2","indutype":"건축자재 - 기타건축자재","category":"other"}]},{"lat":"37.205745626","long":"126.81099836","imageIndex":17,"items":[{"name":"남양빌딩","tel":"031-357-8322","addr":"경기도 화성시 남양읍 남양리 714번지 (외1)","indutype":"신변잡화 - 기타잡화","category":"other"}]},{"lat":"37.20901506","long":"126.81580033","imageIndex":17,"items":[{"name":"남양빨래방","tel":"031-366-8489","addr":"경기도 화성시 남양읍 남양리 1166-1번지","indutype":"수리서비스 - 세탁소","category":"other"}]},{"lat":"37.208934359","long":"126.81604836","imageIndex":17,"items":[{"name":"남양열쇠","tel":"031-357-7820","addr":"경기도 화성시 남양읍 남양리 1165-25번지","indutype":"기타 - 기계공구","category":"other"}]},{"lat":"37.211990832","long":"126.82313819","imageIndex":17,"items":[{"name":"남양전기","tel":"031-357-5430","addr":"경기도 화성시 남양읍 남양리 1344-1번지 외1필지","indutype":"용역 서비스 - 기타용역서비스","category":"other"},{"name":"해피하우스","tel":"031-356-6238","addr":"경기도 화성시 남양읍 남양리 1344-1번지","indutype":"문화.취미 - 애완동물","category":"other"}]},{"lat":"37.211322077","long":"126.82183297","imageIndex":17,"items":[{"name":"남양전기조명","tel":"031-357-7170","addr":"경기도 화성시 남양읍 남양리 1332-4번지","indutype":"전기제품 - 기타전기제품","category":"other"},{"name":"삼화페인트","tel":"031-357-7704","addr":"경기도 화성시 남양읍 남양리 1332-4번지","indutype":"건축자재 - 페인트","category":"other"}]},{"lat":"37.20512688","long":"126.80192062","imageIndex":17,"items":[{"name":"남양종합가구","tel":"031-356-7522","addr":"경기도 화성시 남양읍 남양리 304-2번지","indutype":"가구 - 일반가구","category":"other"},{"name":"창조인테리어","tel":"031-356-7481","addr":"경기도 화성시 남양읍 남양리 304-2번지 102호","indutype":"직물 - 카페트,커튼,천막,지물","category":"other"}]},{"lat":"37.205991464","long":"126.80705507","imageIndex":17,"items":[{"name":"남양종합유리","tel":"031-356-6568","addr":"경기도 화성시 남양읍 남양리 461-2번지","indutype":"건축자재 - 유리","category":"other"}]},{"lat":"37.207739562","long":"126.812638","imageIndex":17,"items":[{"name":"남양철물건재","tel":"031-366-9648","addr":"경기도 화성시 남양읍 남양리 522번지","indutype":"건축자재 - 목재·석재·철물","category":"other"}]},{"lat":"37.205661167","long":"126.82026943","imageIndex":17,"items":[{"name":"남양출장 밧테리 방충망","tel":"","addr":"경기도 화성시 남양읍 남양리 2290-4번지 405호","indutype":"용역 서비스 - 기타용역서비스","category":"other"}]},{"lat":"37.208658308","long":"126.81244419","imageIndex":17,"items":[{"name":"남양플라워","tel":"031-355-8985","addr":"경기도 화성시 남양읍 남양리 584-1번지 102호","indutype":"문화.취미 - 화원","category":"other"}]},{"lat":"37.209296225","long":"126.81697122","imageIndex":17,"items":[{"name":"남양하나종묘","tel":"031-357-0181","addr":"경기도 화성시 남양읍 남양리 1244번지","indutype":"농업 - 비료,사료,종자","category":"other"}]},{"lat":"37.211493858","long":"126.82221559","imageIndex":17,"items":[{"name":"남양화성유리샷시","tel":"031-356-9831","addr":"경기도 화성시 남양읍 남양리 1332-1번지","indutype":"건축자재 - 유리","category":"other"},{"name":"대우천막사","tel":"031-335-3556","addr":"경기도 화성시 남양읍 남양리 1332-1번지","indutype":"직물 - 카페트,커튼,천막,지물","category":"other"},{"name":"삼천리자전거(남양점)","tel":"031-355-1477","addr":"경기도 화성시 남양읍 남양리 1332-1번지 101호","indutype":"레져용품 - 스포츠·레져용품","category":"other"}]},{"lat":"37.208487882","long":"126.83060402","imageIndex":17,"items":[{"name":"넥서스에너지(Nex Earth)","tel":"031-492-2049","addr":"경기도 화성시 남양읍 남양리 2039-20번지 103호","indutype":"기타 - 기계공구","category":"other"},{"name":"크린에이드 남양점","tel":"031-356-8328","addr":"경기도 화성시 남양읍 남양리 2039-20번지 105호","indutype":"수리서비스 - 세탁소","category":"other"}]},{"lat":"37.202379455","long":"126.8249182","imageIndex":17,"items":[{"name":"놀이터","tel":"","addr":"경기도 화성시 남양읍 남양리 2017-1번지 1층 102호","indutype":"의류 - 아동의류","category":"other"},{"name":"탱크디지털시스템","tel":"031-356-3551","addr":"경기도 화성시 남양읍 남양리 2017-1번지","indutype":"수리서비스 - 기타수리서비스","category":"other"}]},{"lat":"37.2083211","long":"126.8274727","imageIndex":17,"items":[{"name":"다옴펫살롱","tel":"031-355-8557","addr":"경기도 화성시 남양읍 남양리 2235번지 상가A동 105호 (동광뷰엘)","indutype":"문화.취미 - 애완동물","category":"other"},{"name":"해피랜드남양점","tel":"070-7543-9105","addr":"경기도 화성시 남양읍 남양리 2235번지 A동 106호 남양뉴타운B4블럭 (동광뷰엘)","indutype":"의류 - 아동의류","category":"other"}]},{"lat":"37.205048674","long":"126.82635381","imageIndex":17,"items":[{"name":"달달향기꽃케이크","tel":"031-366-8437","addr":"경기도 화성시 남양읍 남양리 2026-7번지 1층","indutype":"문화.취미 - 문화취미기타","category":"other"}]},{"lat":"37.194301623","long":"126.83413906","imageIndex":17,"items":[{"name":"대광세탁소","tel":"031-355-8688","addr":"경기도 화성시 남양읍 남양리 2002번지 대광프라자 104동 105호","indutype":"수리서비스 - 세탁소","category":"other"}]},{"lat":"37.207904539","long":"126.81438367","imageIndex":17,"items":[{"name":"대명멀티샵","tel":"031-355-8445","addr":"경기도 화성시 남양읍 남양리 667","indutype":"건축자재 - 유리","category":"other"},{"name":"하이런","tel":"031-123-4567","addr":"경기도 화성시 남양읍 남양리 667번지","indutype":"문화.취미 - 애완동물","category":"other"},{"name":"허그도그","tel":"031-356-1299","addr":"경기도 화성시 남양읍 남양리 667번지","indutype":"문화.취미 - 애완동물","category":"other"}]},{"lat":"37.203633184","long":"126.83191047","imageIndex":17,"items":[{"name":"대산종합목재","tel":"031-356-5270","addr":"경기도 화성시 남양읍 남양리 2055-18","indutype":"건축자재 - 목재·석재·철물","category":"other"}]},{"lat":"37.213708762","long":"126.82711098","imageIndex":17,"items":[{"name":"대승철물","tel":"031-356-4910","addr":"경기도 화성시 남양읍 남양리 1351-12번지","indutype":"건축자재 - 목재·석재·철물","category":"other"}]},{"lat":"37.211602497","long":"126.8225533","imageIndex":17,"items":[{"name":"대평건재","tel":"031-356-5065","addr":"경기도 화성시 남양읍 남양리 1332-7번지 105호","indutype":"건축자재 - 목재·석재·철물","category":"other"}]},{"lat":"37.203854142","long":"126.80058353","imageIndex":17,"items":[{"name":"대호공구","tel":"031-356-7400","addr":"경기도 화성시 남양읍 남양리 326-5번지","indutype":"기타 - 기계공구","category":"other"}]},{"lat":"37.209520048","long":"126.81605818","imageIndex":17,"items":[{"name":"대흥열쇠","tel":"031-357-8043","addr":"경기도 화성시 남양읍 남양리 1163-14번지","indutype":"건축자재 - 목재·석재·철물","category":"other"}]},{"lat":"37.209988995","long":"126.83435198","imageIndex":17,"items":[{"name":"동광팩","tel":"031-356-2356","addr":"경기도 화성시 남양읍 남양리 1537-5","indutype":"기타 - 기타 전문점","category":"other"}]},{"lat":"37.204766218","long":"126.80177514","imageIndex":17,"items":[{"name":"동남그래픽","tel":"031-355-3616","addr":"경기도 화성시 남양읍 남양리 311-1","indutype":"건축자재 - 인테리어전문","category":"other"}]},{"lat":"37.209740248","long":"126.81858107","imageIndex":17,"items":[{"name":"동부한농종묘농약사","tel":"031-356-3944","addr":"경기도 화성시 남양읍 남양리 1267-11번지","indutype":"농업 - 비료,사료,종자","category":"other"}]},{"lat":"37.213185844","long":"126.81515914","imageIndex":17,"items":[{"name":"동아전기","tel":"031-356-8878","addr":"경기도 화성시 남양읍 남양리 55-12번지","indutype":"전기제품 - 기타전기제품","category":"other"}]},{"lat":"37.20424553","long":"126.83166127","imageIndex":17,"items":[{"name":"동인기업","tel":"031-417-5085","addr":"경기도 화성시 남양읍 남양리 2050-11번지","indutype":"건축자재 - 유리","category":"other"}]},{"lat":"37.200410635","long":"126.82790777","imageIndex":17,"items":[{"name":"동현상사","tel":"031-356-8811","addr":"경기도 화성시 남양읍 남양리 2077-4번지 성창빌딩 206호","indutype":"기타 - 기계공구","category":"other"}]},{"lat":"37.203212982","long":"126.79975168","imageIndex":17,"items":[{"name":"두꺼비철물","tel":"031-355-5403","addr":"경기도 화성시 남양읍 남양리 389-6번지 남양공구유통상가 B-1호","indutype":"기타 - 기계공구","category":"other"},{"name":"화성안전상사","tel":"031-355-1294","addr":"경기도 화성시 남양읍 남양리 389-6번지","indutype":"의류 - 기타의류","category":"other"}]},{"lat":"37.20154977","long":"126.83051842","imageIndex":17,"items":[{"name":"들앤숲에서","tel":"031-000-0000","addr":"경기도 화성시 남양읍 남양리 2067-7번지 1층 101호","indutype":"가구 - 일반가구","category":"other"}]},{"lat":"37.201524131","long":"126.82535951","imageIndex":17,"items":[{"name":"디자인 무디","tel":"031-357-1986","addr":"경기도 화성시 남양읍 남양리 2072-1번지 역골마루빌딩 501호","indutype":"용역 서비스 - 사무서비스","category":"other"}]},{"lat":"37.204795893","long":"126.83216693","imageIndex":17,"items":[{"name":"따숨공방","tel":"031-357-8026","addr":"경기도 화성시 남양읍 남양리 2052-12번지 102호","indutype":"직물 - 침구·수예점","category":"other"}]},{"lat":"37.208709242","long":"126.81613904","imageIndex":17,"items":[{"name":"딸바보샵","tel":"","addr":"경기도 화성시 남양읍 남양리 1165-11번지","indutype":"의류 - 아동의류","category":"other"},{"name":"진명군구장식","tel":"031-356-2016","addr":"경기도 화성시 남양읍 남양리 1165-11번지","indutype":"서적문구 - 문구용품","category":"other"}]},{"lat":"37.207795572","long":"126.81385449","imageIndex":17,"items":[{"name":"라인투어","tel":"031-356-6658","addr":"경기도 화성시 남양읍 남양리 525-1번지 2층","indutype":"여행 - 관광여행","category":"other"}]},{"lat":"37.208879905","long":"126.81580066","imageIndex":17,"items":[{"name":"루디아","tel":"031-8058-7500","addr":"경기도 화성시 남양읍 남양리 1166-4번지","indutype":"의류 - 정장","category":"other"},{"name":"아르페지오","tel":"031-355-3881","addr":"경기도 화성시 남양읍 남양리 1166-4번지","indutype":"직물 - 침구·수예점","category":"other"}]},{"lat":"37.203321338","long":"126.79988656","imageIndex":17,"items":[{"name":"마도볼트","tel":"031-355-0644","addr":"경기도 화성시 남양읍 남양리 389-2번지 남양공구유통상가 108동 109호","indutype":"기타 - 기계공구","category":"other"}]},{"lat":"37.208490873","long":"126.81479902","imageIndex":17,"items":[{"name":"만물사(알뜰매장)","tel":"031-356-2433","addr":"경기도 화성시 남양읍 남양리 657-4번지","indutype":"가구 - 일반가구","category":"other"}]},{"lat":"37.208519706","long":"126.81593673","imageIndex":17,"items":[{"name":"메인","tel":"031-356-5355","addr":"경기도 화성시 남양읍 남양리 1168-4번지","indutype":"의류 - 정장","category":"other"},{"name":"엔젤","tel":"031-356-5829","addr":"경기도 화성시 남양읍 남양리 1168-4번지","indutype":"신변잡화 - 기타잡화","category":"other"}]},{"lat":"37.200489473","long":"126.82638696","imageIndex":17,"items":[{"name":"메인프로샵","tel":"031-366-8007","addr":"경기도 화성시 남양읍 남양리 2072-11번지 메인프라자 5층 504호","indutype":"레져용품 - 스포츠·레져용품","category":"other"},{"name":"이마트24 화성시청점","tel":"031-1111-1111","addr":"경기도 화성시 남양읍 남양리 2072-11번지 메인프라자 1층 113호","indutype":"유통업 영리 - 편 의 점","category":"other"},{"name":"이마트24 화성시청점","tel":"","addr":"경기도 화성시 남양읍 남양리 2072-11번지 메인프라자 1층 113호","indutype":"유통업 영리 - 편 의 점","category":"other"}]},{"lat":"37.211104994","long":"126.81550226","imageIndex":17,"items":[{"name":"모두설비 모두전기","tel":"031-355-1329","addr":"경기도 화성시 남양읍 남양리 629-4번지 현대빌라 B동 201호","indutype":"용역 서비스 - 기타용역서비스","category":"other"}]},{"lat":"37.208880995","long":"126.83454595","imageIndex":17,"items":[{"name":"모로칸시크릿","tel":"","addr":"경기도 화성시 남양읍 남양리 1532-4번지 화성남양뉴타운LH9단지 902동 406호","indutype":"직물 - 카페트,커튼,천막,지물","category":"other"},{"name":"여름홈케어","tel":"","addr":"경기도 화성시 남양읍 남양리 1532-4번지 화성남양뉴타운LH9단지 903동 1407호","indutype":"용역 서비스 - 종합용역","category":"other"},{"name":"하나난방관리","tel":"031-356-1203","addr":"경기도 화성시 남양읍 남양리 1532-4번지 화성남양뉴타운LH9단지 903동 201호","indutype":"수리서비스 - 기타수리서비스","category":"other"},{"name":"현송전기","tel":"","addr":"경기도 화성시 남양읍 남양리 1532-4번지 화성남양뉴타운LH9단지 903동 20층 04호","indutype":"용역 서비스 - 기타용역서비스","category":"other"}]},{"lat":"37.203987888","long":"126.82199693","imageIndex":17,"items":[{"name":"몬스터펫샵 화성시청점","tel":"070-8860-3368","addr":"경기도 화성시 남양읍 남양리 2294-8번지 104호 105호","indutype":"문화.취미 - 애완동물","category":"other"},{"name":"토즈 멤버십라운지 남양센터","tel":"031-356-3631","addr":"경기도 화성시 남양읍 남양리 2294-8번지 일영프라자 2층 202호","indutype":"용역 서비스 - 사무서비스","category":"other"}]},{"lat":"37.205380544","long":"126.80813805","imageIndex":17,"items":[{"name":"몽지원바디케어트레이닝센터","tel":"031-355-7497","addr":"경기도 화성시 남양읍 남양리 468번지","indutype":"레져용품 - 스포츠·레져용품","category":"other"}]},{"lat":"37.202770913","long":"126.82760945","imageIndex":17,"items":[{"name":"미광세탁","tel":"031-356-8284","addr":"경기도 화성시 남양읍 남양리 2061-4번지","indutype":"수리서비스 - 세탁소","category":"other"}]},{"lat":"37.204904949","long":"126.80389252","imageIndex":17,"items":[{"name":"미니스톱 남양우림점","tel":"031-1577-9621","addr":"경기도 화성시 남양읍 남양리 442-2번지 1층 101호","indutype":"유통업 영리 - 편 의 점","category":"other"}]},{"lat":"37.199771233","long":"126.82813452","imageIndex":17,"items":[{"name":"미니스톱 화성시청점","tel":"031-1577-9621","addr":"경기도 화성시 남양읍 남양리 2078-4번지 화성벤처빌딩 106호~107호","indutype":"유통업 영리 - 편 의 점","category":"other"},{"name":"예스플러스화성남양점","tel":"031-355-3756","addr":"경기도 화성시 남양읍 남양리 2078-4 화성벤쳐빌딩 106호~107호","indutype":"유통업 영리 - 편 의 점","category":"other"}]},{"lat":"37.20874571","long":"126.81640931","imageIndex":17,"items":[{"name":"미니스톱화성남양점","tel":"031-1577-9621","addr":"경기도 화성시 남양읍 남양리 1165-8번지 제일상가 103호","indutype":"유통업 영리 - 편 의 점","category":"other"},{"name":"쭘마 뜨개방","tel":"031-357-9840","addr":"경기도 화성시 남양읍 남양리 1165-8번지 제일상가 나동 102호","indutype":"직물 - 침구·수예점","category":"other"}]},{"lat":"37.201629697","long":"126.82971848","imageIndex":17,"items":[{"name":"미래디자인","tel":"031-221-1986","addr":"경기도 화성시 남양읍 남양리 2068-4번지","indutype":"서적문구 - 출판 및 인쇄물","category":"other"}]},{"lat":"37.214937924","long":"126.817746","imageIndex":17,"items":[{"name":"미래용역","tel":"031-356-5165","addr":"경기도 화성시 남양읍 남양리 1104번지","indutype":"용역 서비스 - 종합용역","category":"other"}]},{"lat":"37.207381306","long":"126.81972457","imageIndex":17,"items":[{"name":"민의상실,윤인교복","tel":"031-356-2426","addr":"경기도 화성시 남양읍 남양리 1874","indutype":"의류 - 맞춤복점","category":"other"}]},{"lat":"37.213599884","long":"126.82660427","imageIndex":17,"items":[{"name":"박준형 갤러리","tel":"031-356-0289","addr":"경기도 화성시 남양읍 남양리 1351-7번지","indutype":"가구 - 일반가구","category":"other"}]},{"lat":"37.210019656","long":"126.81863672","imageIndex":17,"items":[{"name":"반우코리아","tel":"031-356-4646","addr":"경기도 화성시 남양읍 남양리 1267-8번지 1층","indutype":"기타 - 기계공구","category":"other"}]},{"lat":"37.214522621","long":"126.81721752","imageIndex":17,"items":[{"name":"베스트 전자","tel":"031-356-5422","addr":"경기도 화성시 남양읍 남양리 1101번지","indutype":"수리서비스 - 가정용품수리","category":"other"},{"name":"화성플라워","tel":"031-355-4323","addr":"경기도 화성시 남양읍 남양리 1101번지","indutype":"문화.취미 - 화원","category":"other"}]},{"lat":"37.199661843","long":"126.82727873","imageIndex":17,"items":[{"name":"보라매","tel":"031-355-2051","addr":"경기도 화성시 남양읍 남양리 2072-19번지 101호","indutype":"서적문구 - 문구용품","category":"other"}]},{"lat":"37.20865486","long":"126.8159364","imageIndex":17,"items":[{"name":"보물창고","tel":"031-357-0310","addr":"경기도 화성시 남양읍 남양리 1165-15번지","indutype":"의류 - 기타의류","category":"other"}]},{"lat":"37.208406719","long":"126.81858432","imageIndex":17,"items":[{"name":"보빌락편의점","tel":"031-357-5994","addr":"경기도 화성시 남양읍 남양리 2253-1번지 훼밀리프라자 4층 404호","indutype":"유통업 영리 - 편 의 점","category":"other"},{"name":"세븐일레븐남양사거리점","tel":"031-1577-0711","addr":"경기도 화성시 남양읍 남양리 2253-1번지 훼밀리프라자 1층 101호","indutype":"유통업 영리 - 편 의 점","category":"other"},{"name":"유플러스스토어","tel":"031-357-1189","addr":"경기도 화성시 남양읍 남양리 2253-1번지 1층 104호","indutype":"사무통신 - 통신기기","category":"other"}]},{"lat":"37.200129595","long":"126.82674824","imageIndex":17,"items":[{"name":"브이아이피(VIP)골프 아카데미","tel":"031-356-4886","addr":"경기도 화성시 남양읍 남양리 2072-15번지 6층 601,602,603호","indutype":"레져용품 - 골프용품 전문점","category":"other"}]},{"lat":"37.205767316","long":"126.83099321","imageIndex":17,"items":[{"name":"빅터 화성 남양점","tel":"031-355-1890","addr":"경기도 화성시 남양읍 남양리 2045-8번지","indutype":"레져용품 - 스포츠·레져용품","category":"other"}]},{"lat":"37.207852994","long":"126.81597217","imageIndex":17,"items":[{"name":"빈티지","tel":"","addr":"경기도 화성시 남양읍 남양리 1170번지 청담빌딩 1층 102호","indutype":"의류 - 정장","category":"other"}]},{"lat":"37.207407606","long":"126.81352877","imageIndex":17,"items":[{"name":"삼동종합보수센타","tel":"031-356-4752","addr":"경기도 화성시 남양읍 남양리 524번지","indutype":"건축자재 - 인테리어전문","category":"other"},{"name":"인화종합상사","tel":"031-357-0097","addr":"경기도 화성시 남양읍 남양리 524번지","indutype":"건축자재 - 보일러·펌프·샷시","category":"other"}]},{"lat":"37.203071002","long":"126.79580954","imageIndex":17,"items":[{"name":"상지플라스틱","tel":"031-355-9994","addr":"경기도 화성시 남양읍 남양리 371-1번지","indutype":"건축자재 - 기타건축자재","category":"other"}]},{"lat":"37.202380906","long":"126.82588693","imageIndex":17,"items":[{"name":"샵 Bling","tel":"031-000-0000","addr":"경기도 화성시 남양읍 남양리 2018-6번지 102호","indutype":"의류 - 정장","category":"other"}]},{"lat":"37.209460788","long":"126.81849163","imageIndex":17,"items":[{"name":"서울종묘농약사","tel":"031-356-4592","addr":"경기도 화성시 남양읍 남양리 1267-10번지","indutype":"농업 - 비료,사료,종자","category":"other"}]},{"lat":"37.207794175","long":"126.81868719","imageIndex":17,"items":[{"name":"성산목재","tel":"031-357-1889","addr":"경기도 화성시 남양읍 남양리 1185","indutype":"건축자재 - 기타건축자재","category":"other"}]},{"lat":"37.20399381","long":"126.83205609","imageIndex":17,"items":[{"name":"세븐일레븐화성남양원룸점","tel":"031-1577-0711","addr":"경기도 화성시 남양읍 남양리 2055-1번지","indutype":"유통업 영리 - 편 의 점","category":"other"}]},{"lat":"37.194491113","long":"126.83433011","imageIndex":17,"items":[{"name":"세븐일레븐화성대광점","tel":"","addr":"경기도 화성시 남양읍 남양리 1856-1번지 외 2필지 유안캐슬","indutype":"유통업 영리 - 편 의 점","category":"other"}]},{"lat":"37.195052197","long":"126.79605671","imageIndex":17,"items":[{"name":"세븐일레븐화성마도산단점","tel":"","addr":"경기도 화성시 남양읍 남양리 1064-7번지","indutype":"유통업 영리 - 편 의 점","category":"other"},{"name":"태평양종합상사","tel":"031-355-7274","addr":"경기도 화성시 남양읍 남양리 1064-7번지","indutype":"건축자재 - 목재·석재·철물","category":"other"}]},{"lat":"37.204551201","long":"126.82508207","imageIndex":17,"items":[{"name":"세븐일레븐화성역골로점","tel":"","addr":"경기도 화성시 남양읍 남양리 2022-4번지 1층 102호","indutype":"유통업 영리 - 편 의 점","category":"other"}]},{"lat":"37.210377811","long":"126.82302936","imageIndex":17,"items":[{"name":"세븐일레븐화성프라디움점","tel":"031-1577-0711","addr":"경기도 화성시 남양읍 남양리 2249번지 시티프라디움2차 근린생활시설상가동 106호","indutype":"유통업 영리 - 편 의 점","category":"other"}]},{"lat":"37.194855503","long":"126.83082648","imageIndex":17,"items":[{"name":"세탁프리워시 남양시청점","tel":"031-0000-0000","addr":"경기도 화성시 남양읍 남양리 2155-14번지 1층","indutype":"수리서비스 - 세탁소","category":"other"}]},{"lat":"37.203516546","long":"126.82610956","imageIndex":17,"items":[{"name":"수경 빨래방","tel":"031-355-0380","addr":"경기도 화성시 남양읍 남양리 2028-13번지","indutype":"수리서비스 - 세탁소","category":"other"}]},{"lat":"37.21432404","long":"126.81699268","imageIndex":17,"items":[{"name":"수성전동기계","tel":"031-357-6342","addr":"경기도 화성시 남양읍 남양리 1101-3번지","indutype":"기타 - 기계공구","category":"other"}]},{"lat":"37.202769174","long":"126.82643797","imageIndex":17,"items":[{"name":"수정화원","tel":"031-357-5712","addr":"경기도 화성시 남양읍 남양리 2018-11번지","indutype":"문화.취미 - 화원","category":"other"}]},{"lat":"37.207688381","long":"126.81444053","imageIndex":17,"items":[{"name":"숙이네","tel":"","addr":"경기도 화성시 남양읍 남양리 670-1번지","indutype":"의류 - 정장","category":"other"},{"name":"클린케어운동화이불빨래방","tel":"031-357-2280","addr":"경기도 화성시 남양읍 남양리 670-1번지 1층 1,2호","indutype":"수리서비스 - 세탁소","category":"other"}]},{"lat":"37.203246689","long":"126.82641433","imageIndex":17,"items":[{"name":"스윗캥커루(화성점)","tel":"070-4038-1244","addr":"경기도 화성시 남양읍 남양리 2028-10번지","indutype":"의류 - 정장","category":"other"}]},{"lat":"37.207881161","long":"126.81669306","imageIndex":17,"items":[{"name":"스트롱짐 남양1호점","tel":"031-357-9645","addr":"경기도 화성시 남양읍 남양리 1172-3번지 성지빌딩 4층","indutype":"레져용품 - 스포츠·레져용품","category":"other"}]},{"lat":"37.204490464","long":"126.82068904","imageIndex":17,"items":[{"name":"신도오에이남양","tel":"031-355-2884","addr":"경기도 화성시 남양읍 남양리 1748번지 아이리스오피스텔 208호","indutype":"사무통신 - 사무용 OA기기","category":"other"}]},{"lat":"37.209186577","long":"126.81600268","imageIndex":17,"items":[{"name":"신발백화점","tel":"031-357-8063","addr":"경기도 화성시 남양읍 남양리 1163-6번지","indutype":"신변잡화 - 신발","category":"other"}]},{"lat":"37.208098416","long":"126.8116683","imageIndex":17,"items":[{"name":"신성특수케미칼","tel":"031-355-2367","addr":"경기도 화성시 남양읍 남양리 572번지","indutype":"용역 서비스 - 기타용역서비스","category":"other"}]},{"lat":"37.203686783","long":"126.82546709","imageIndex":17,"items":[{"name":"신쌤의 가죽공방","tel":"031-000-0000","addr":"경기도 화성시 남양읍 남양리 2019-6번지 1층 102호","indutype":"문화.취미 - 문화취미기타","category":"other"}]},{"lat":"37.20924294","long":"126.81746702","imageIndex":17,"items":[{"name":"신혼","tel":"031-356-2359","addr":"경기도 화성시 남양읍 남양리 1226-1번지","indutype":"직물 - 침구·수예점","category":"other"}]},{"lat":"37.204323582","long":"126.80111171","imageIndex":17,"items":[{"name":"신화금속","tel":"031-356-8935","addr":"경기도 화성시 남양읍 남양리 330번지 진주빌딩 1층","indutype":"기타 - 기계공구","category":"other"}]},{"lat":"37.201407873","long":"126.82594552","imageIndex":17,"items":[{"name":"씨유남양뉴타운점","tel":"031-357-6677","addr":"경기도 화성시 남양읍 남양리 2074-1번지 한영빌딩","indutype":"유통업 영리 - 편 의 점","category":"other"}]},{"lat":"37.207218144","long":"126.83110257","imageIndex":17,"items":[{"name":"씨유남양우림필유점","tel":"031-256-4563","addr":"경기도 화성시 남양읍 남양리 2044-14번지","indutype":"유통업 영리 - 편 의 점","category":"other"}]},{"lat":"37.198016953","long":"126.82393725","imageIndex":17,"items":[{"name":"씨유현대문화관점","tel":"031-357-5671","addr":"경기도 화성시 남양읍 남양리 1842","indutype":"유통업 영리 - 편 의 점","category":"other"}]},{"lat":"37.193941945","long":"126.83465796","imageIndex":17,"items":[{"name":"씨유화성대광점","tel":"080-080-3663","addr":"경기도 화성시 남양읍 남양리 2003번지 (대광파인상가101,102,103호)","indutype":"유통업 영리 - 편 의 점","category":"other"}]},{"lat":"37.215877418","long":"126.81929845","imageIndex":17,"items":[{"name":"씨유화성온누리점","tel":"031-355-3005","addr":"경기도 화성시 남양읍 남양리 1119-2번지","indutype":"유통업 영리 - 편 의 점","category":"other"}]},{"lat":"37.201938016","long":"126.8249643","imageIndex":17,"items":[{"name":"아담스펫 화성점","tel":"031-555-8557","addr":"경기도 화성시 남양읍 남양리 2012-14번지 1층","indutype":"문화.취미 - 애완동물","category":"other"}]},{"lat":"37.205544432","long":"126.83263836","imageIndex":17,"items":[{"name":"아름물들(A.Rum.Mul.Deul.)","tel":"","addr":"경기도 화성시 남양읍 남양리 2051-5번지","indutype":"용역 서비스 - 사무서비스","category":"other"}]},{"lat":"37.198407662","long":"126.82611021","imageIndex":17,"items":[{"name":"아싸비어 화성점","tel":"","addr":"경기도 화성시 남양읍 남양리 2320-5번지 더굿메이트복합빌딩 1동 108호","indutype":"유통업 영리 - 편 의 점","category":"other"}]},{"lat":"37.207908493","long":"126.8168845","imageIndex":17,"items":[{"name":"아이누리스튜디오","tel":"031-356-1549","addr":"경기도 화성시 남양읍 남양리 1172-19번지","indutype":"광학제품 - 사진관","category":"other"},{"name":"태광사진관","tel":"031-356-1549","addr":"경기도 화성시 남양읍 남양리 1172-19번지","indutype":"광학제품 - 사진관","category":"other"}]},{"lat":"37.208690029","long":"126.81538432","imageIndex":17,"items":[{"name":"아이피에스(남양점)","tel":"031-356-8478","addr":"경기도 화성시 남양읍 남양리 655-1번지","indutype":"용역 서비스 - 종합용역","category":"other"}]},{"lat":"37.207848752","long":"126.81330237","imageIndex":17,"items":[{"name":"아카시아 세탁편의점","tel":"031-356-3569","addr":"경기도 화성시 남양읍 남양리 526번지 아울렛마트내","indutype":"수리서비스 - 세탁소","category":"other"}]},{"lat":"37.207799767","long":"126.81650176","imageIndex":17,"items":[{"name":"알파문구(예인상사)","tel":"031-355-8777","addr":"경기도 화성시 남양읍 남양리 1172-40번지 1층 101호","indutype":"서적문구 - 문구용품","category":"other"}]},{"lat":"37.202966213","long":"126.79258824","imageIndex":17,"items":[{"name":"애심","tel":"031-356-7988","addr":"경기도 화성시 남양읍 남양리 363번지","indutype":"주방용구 - 정수기","category":"other"}]},{"lat":"37.204266764","long":"126.82769611","imageIndex":17,"items":[{"name":"엄마의재봉틀","tel":"031-356-8244","addr":"경기도 화성시 남양읍 남양리 2031-5번지 1층","indutype":"문화.취미 - 문화취미기타","category":"other"}]},{"lat":"37.208820317","long":"126.81802005","imageIndex":17,"items":[{"name":"에바다아울렛","tel":"031-355-0120","addr":"경기도 화성시 남양읍 남양리 1203번지","indutype":"의류 - 정장","category":"other"},{"name":"주식회사 부보","tel":"031-357-8909","addr":"경기도 화성시 남양읍 남양리 1203번지 남양빌딩 306호 일부","indutype":"기타 - 기계공구","category":"other"},{"name":"홍텔레콤앤컴퓨터(Hong Telecom&Computer)","tel":"031-357-3963","addr":"경기도 화성시 남양읍 남양리 1203번지 1층 101호","indutype":"사무통신 - 컴퓨터","category":"other"}]},{"lat":"37.198853437","long":"126.82899268","imageIndex":17,"items":[{"name":"에쓰엠스포츠","tel":"031-278-0775","addr":"경기도 화성시 남양읍 남양리 2147번지 지하3층","indutype":"레져용품 - 스포츠·레져용품","category":"other"}]},{"lat":"37.208078199","long":"126.81593782","imageIndex":17,"items":[{"name":"엠버","tel":"031-352-1673","addr":"경기도 화성시 남양읍 남양리 1169-3번지","indutype":"의류 - 정장","category":"other"}]},{"lat":"37.207744728","long":"126.81588232","imageIndex":17,"items":[{"name":"엠버옷장","tel":"031-356-8955","addr":"경기도 화성시 남양읍 남양리 1170-1번지 1층","indutype":"의류 - 정장","category":"other"}]},{"lat":"37.20465836","long":"126.82443974","imageIndex":17,"items":[{"name":"여유로움스타일","tel":"","addr":"경기도 화성시 남양읍 남양리 2009-6번지","indutype":"의류 - 정장","category":"other"}]},{"lat":"37.205435008","long":"126.82560944","imageIndex":17,"items":[{"name":"영광기획디자인","tel":"031-355-2260","addr":"경기도 화성시 남양읍 남양리 2021-8번지","indutype":"용역 서비스 - 종합용역","category":"other"}]},{"lat":"37.208690208","long":"126.81549697","imageIndex":17,"items":[{"name":"영남인쇄사","tel":"031-356-2151","addr":"경기도 화성시 남양읍 남양리 1870-4번지","indutype":"서적문구 - 출판 및 인쇄물","category":"other"}]},{"lat":"37.209071002","long":"126.8169943","imageIndex":17,"items":[{"name":"예당","tel":"031-355-1933","addr":"경기도 화성시 남양읍 남양리 1165-2번지","indutype":"신변잡화 - 귀금속","category":"other"}]},{"lat":"37.209099567","long":"126.81797431","imageIndex":17,"items":[{"name":"올스포츠","tel":"","addr":"경기도 화성시 남양읍 남양리 1208-1번지 102호","indutype":"레져용품 - 스포츠·레져용품","category":"other"}]},{"lat":"37.211050577","long":"126.8210563","imageIndex":17,"items":[{"name":"올애드","tel":"031-356-5773","addr":"경기도 화성시 남양읍 남양리 1276-11번지","indutype":"용역 서비스 - 종합용역","category":"other"}]},{"lat":"37.209042891","long":"126.81630719","imageIndex":17,"items":[{"name":"우리사진관","tel":"031-357-8077","addr":"경기도 화성시 남양읍 남양리 1164-5번지 지층","indutype":"광학제품 - 사진관","category":"other"}]},{"lat":"37.205132151","long":"126.80505218","imageIndex":17,"items":[{"name":"우림세탁소","tel":"031-356-8874","addr":"경기도 화성시 남양읍 남양리 415-3번지 우림B상가 108호","indutype":"수리서비스 - 세탁소","category":"other"}]},{"lat":"37.210827962","long":"126.81130092","imageIndex":17,"items":[{"name":"우인상사","tel":"031-486-6411","addr":"경기도 화성시 남양읍 남양리 171-3번지","indutype":"건축자재 - 기타건축자재","category":"other"}]},{"lat":"37.206908014","long":"126.81102921","imageIndex":17,"items":[{"name":"원앙주방그릇백화점","tel":"031-355-8989","addr":"경기도 화성시 남양읍 남양리 509번지 1,2층","indutype":"주방용구 - 주방용구","category":"other"}]},{"lat":"37.203351874","long":"126.79669866","imageIndex":17,"items":[{"name":"원진맨홀","tel":"031-356-8288","addr":"경기도 화성시 남양읍 남양리 370번지","indutype":"건축자재 - 기타건축자재","category":"other"}]},{"lat":"37.204549262","long":"126.80135893","imageIndex":17,"items":[{"name":"유일안전물산","tel":"031-366-8883","addr":"경기도 화성시 남양읍 남양리 311-3,1호~2호","indutype":"기타 - 기타 전문점","category":"other"},{"name":"준종합상사","tel":"031-356-7775","addr":"경기도 화성시 남양읍 남양리 311-3 남양공구상가103호~104호","indutype":"서적문구 - 문구용품","category":"other"}]},{"lat":"37.202492209","long":"126.82802687","imageIndex":17,"items":[{"name":"은미방","tel":"031-356-6640","addr":"경기도 화성시 남양읍 남양리 2063-1번지","indutype":"직물 - 침구·수예점","category":"other"}]},{"lat":"37.208522413","long":"126.81766029","imageIndex":17,"items":[{"name":"의류할인매장","tel":"","addr":"경기도 화성시 남양읍 남양리 1202번지","indutype":"의류 - 정장","category":"other"}]},{"lat":"37.213465164","long":"126.81515845","imageIndex":17,"items":[{"name":"이든크린룸환풍기","tel":"031-355-2897","addr":"경기도 화성시 남양읍 남양리 55-1번지 참가정 상가 4호","indutype":"전기제품 - 기타전기제품","category":"other"},{"name":"전진종합상사","tel":"031-355-1800","addr":"경기도 화성시 남양읍 남양리 55-1번지","indutype":"건축자재 - 보일러·펌프·샷시","category":"other"},{"name":"주식회사 대영엔지니어링","tel":"031-357-3683","addr":"경기도 화성시 남양읍 남양리 55-1번지","indutype":"건축자재 - 보일러·펌프·샷시","category":"other"}]},{"lat":"37.209494929","long":"126.8172749","imageIndex":17,"items":[{"name":"이브자리","tel":"031-356-5526","addr":"경기도 화성시 남양읍 남양리 1225-1번지","indutype":"직물 - 옷감·직물","category":"other"}]},{"lat":"37.213014129","long":"126.81483286","imageIndex":17,"items":[{"name":"이호상사","tel":"031-356-5258","addr":"경기도 화성시 남양읍 남양리 55-13번지 104호","indutype":"건축자재 - 기타건축자재","category":"other"}]},{"lat":"37.213355732","long":"126.82601901","imageIndex":17,"items":[{"name":"인트로기획","tel":"031-355-7788","addr":"경기도 화성시 남양읍 남양리 1351-4번지","indutype":"용역 서비스 - 종합용역","category":"other"},{"name":"클린혁명","tel":"","addr":"경기도 화성시 남양읍 남양리 1351-4번지","indutype":"용역 서비스 - 종합용역","category":"other"}]},{"lat":"37.204021823","long":"126.80382725","imageIndex":17,"items":[{"name":"잉크원","tel":"031-355-6778","addr":"경기도 화성시 남양읍 남양리 415번지 우림그린빌리지 106동 1502호","indutype":"회원제형태 - 기타4","category":"other"},{"name":"참","tel":"070-7783-9919","addr":"경기도 화성시 남양읍 남양리 415번지 우림그린빌리지 102동 306호","indutype":"신변잡화 - 기타잡화","category":"other"}]},{"lat":"37.206439294","long":"126.81091775","imageIndex":17,"items":[{"name":"자태인터네셔널주식회사","tel":"031-366-8844","addr":"경기도 화성시 남양읍 남양리 513-2번지","indutype":"신변잡화 - 기타잡화","category":"other"}]},{"lat":"37.2072725","long":"126.83130521","imageIndex":17,"items":[{"name":"장미지물장식","tel":"031-407-1921","addr":"경기도 화성시 남양읍 남양리 2044-12번지 102호","indutype":"직물 - 카페트,커튼,천막,지물","category":"other"}]},{"lat":"37.208933754","long":"126.81566535","imageIndex":17,"items":[{"name":"재영전기재료","tel":"031-356-2226","addr":"경기도 화성시 남양읍 남양리 1167번지","indutype":"전기제품 - 기타전기제품","category":"other"}]},{"lat":"37.208431798","long":"126.81733382","imageIndex":17,"items":[{"name":"전자담배멀티샵","tel":"070-8947-4490","addr":"경기도 화성시 남양읍 남양리 1216-1번지 4","indutype":"기타 - 기타 전문점","category":"other"}]},{"lat":"37.202571935","long":"126.82710302","imageIndex":17,"items":[{"name":"정보석","tel":"031-356-3827","addr":"경기도 화성시 남양읍 남양리 2061-1번지 101호","indutype":"신변잡화 - 귀금속","category":"other"}]},{"lat":"37.203182995","long":"126.8259977","imageIndex":17,"items":[{"name":"제니패션(화성점)","tel":"","addr":"경기도 화성시 남양읍 남양리 2020-5번지 102호","indutype":"의류 - 정장","category":"other"}]},{"lat":"37.197383745","long":"126.79483389","imageIndex":17,"items":[{"name":"제이엘씨공조","tel":"031-355-2520","addr":"경기도 화성시 남양읍 남양리 1007-61번지","indutype":"전기제품 - 냉열기기","category":"other"}]},{"lat":"37.201101269","long":"126.82577727","imageIndex":17,"items":[{"name":"제일금은거래소","tel":"031-356-1077","addr":"경기도 화성시 남양읍 남양리 2072-4번지 한국프라자 1층 107호","indutype":"신변잡화 - 귀금속","category":"other"},{"name":"크린스피드화성남양1호점","tel":"031-357-5322","addr":"경기도 화성시 남양읍 남양리 2072-4번지 한국프라자 103호","indutype":"수리서비스 - 세탁소","category":"other"},{"name":"헬로남양점","tel":"031-366-7137","addr":"경기도 화성시 남양읍 남양리 2072-4번지 한국프라자 102호","indutype":"전기제품 - 기타전기제품","category":"other"}]},{"lat":"37.204161012","long":"126.80088685","imageIndex":17,"items":[{"name":"제일닥트","tel":"031-355-3225","addr":"경기도 화성시 남양읍 남양리 328번지 1층","indutype":"건축자재 - 보일러·펌프·샷시","category":"other"}]},{"lat":"37.208265222","long":"126.81455175","imageIndex":17,"items":[{"name":"주성환기닥트","tel":"031-357-0310","addr":"경기도 화성시 남양읍 남양리 658번지 상훈근생주택 1층","indutype":"의류 - 정장","category":"other"}]},{"lat":"37.19079839","long":"126.80075351","imageIndex":17,"items":[{"name":"주식회사 서광알미늄","tel":"031-357-9338","addr":"경기도 화성시 남양읍 남양리 954-7번지","indutype":"신변잡화 - 기타잡화","category":"other"}]},{"lat":"37.212605798","long":"126.82463508","imageIndex":17,"items":[{"name":"주식회사 석광고기획","tel":"031-355-8698","addr":"경기도 화성시 남양읍 남양리 1365-5번지","indutype":"건축자재 - 인테리어전문","category":"other"}]},{"lat":"37.210715946","long":"126.83233384","imageIndex":17,"items":[{"name":"주식회사 스트롱짐","tel":"031-355-1927","addr":"경기도 화성시 남양읍 남양리 2232-2번지 해븐리투프라자 7층","indutype":"레져용품 - 스포츠·레져용품","category":"other"},{"name":"피움,꽃","tel":"031-357-6338","addr":"경기도 화성시 남양읍 남양리 2232-2번지 1층 105호","indutype":"문화.취미 - 화원","category":"other"}]},{"lat":"37.203157527","long":"126.79894079","imageIndex":17,"items":[{"name":"주식회사 킹콩마그테크","tel":"031-357-8298","addr":"경기도 화성시 남양읍 남양리 383번지 1층 103,104,105호","indutype":"신변잡화 - 기타잡화","category":"other"}]},{"lat":"37.204238782","long":"126.8270541","imageIndex":17,"items":[{"name":"주식회사에즈워즈","tel":"070-4488-0831","addr":"경기도 화성시 남양읍 남양리 2030-3번지","indutype":"가구 - 기타가구","category":"other"}]},{"lat":"37.202049084","long":"126.82693527","imageIndex":17,"items":[{"name":"주식회사유일콥","tel":"031-366-8799","addr":"경기도 화성시 남양읍 남양리 2074-8번지 돈박프라자비 9동 103호","indutype":"회원제형태 - 레져업소","category":"other"}]},{"lat":"37.207298147","long":"126.81269544","imageIndex":17,"items":[{"name":"주연테크컴퓨터남양점","tel":"031-355-0050","addr":"경기도 화성시 남양읍 남양리 519번지","indutype":"사무통신 - 컴퓨터","category":"other"}]},{"lat":"37.210047894","long":"126.81941396","imageIndex":17,"items":[{"name":"준콜렉션","tel":"031-356-7202","addr":"경기도 화성시 남양읍 남양리 1267-25번지","indutype":"의류 - 정장","category":"other"}]},{"lat":"37.210599246","long":"126.82052791","imageIndex":17,"items":[{"name":"중고전자","tel":"031-355-8902","addr":"경기도 화성시 남양읍 남양리 1270-10번지","indutype":"전기제품 - 가전제품","category":"other"}]},{"lat":"37.20921391","long":"126.81619412","imageIndex":17,"items":[{"name":"중앙종묘사","tel":"031-356-2013","addr":"경기도 화성시 남양읍 남양리 1163-4번지","indutype":"농업 - 비료,사료,종자","category":"other"}]},{"lat":"37.209106265","long":"126.81649855","imageIndex":17,"items":[{"name":"중앙지업사","tel":"031-357-8177","addr":"경기도 화성시 남양읍 남양리 1164-3번지","indutype":"직물 - 카페트,커튼,천막,지물","category":"other"}]},{"lat":"37.202045937","long":"126.82482887","imageIndex":17,"items":[{"name":"지누몰아울렛","tel":"","addr":"경기도 화성시 남양읍 남양리 2012-13번지 1층","indutype":"의류 - 정장","category":"other"}]},{"lat":"37.203239685","long":"126.79956011","imageIndex":17,"items":[{"name":"지민건설기계","tel":"031-357-0949","addr":"경기도 화성시 남양읍 남양리 390번지","indutype":"기타 - 기계공구","category":"other"}]},{"lat":"37.210266018","long":"126.80383338","imageIndex":17,"items":[{"name":"진성건축상사","tel":"031-355-5856","addr":"경기도 화성시 남양읍 남양리 254-2번지","indutype":"건축자재 - 기타건축자재","category":"other"}]},{"lat":"37.208962365","long":"126.81666788","imageIndex":17,"items":[{"name":"청용체육사","tel":"031-356-5372","addr":"경기도 화성시 남양읍 남양리 1165-61번지","indutype":"레져용품 - 스포츠·레져용품","category":"other"}]},{"lat":"37.207710207","long":"126.81119615","imageIndex":17,"items":[{"name":"초엽","tel":"031-353-6599","addr":"경기도 화성시 남양읍 남양리 505-4","indutype":"문화.취미 - 화원","category":"other"}]},{"lat":"37.209188702","long":"126.8173545","imageIndex":17,"items":[{"name":"칠성당","tel":"031-357-7146","addr":"경기도 화성시 남양읍 남양리 1226-2번지","indutype":"신변잡화 - 귀금속","category":"other"}]},{"lat":"37.201300068","long":"126.82615979","imageIndex":17,"items":[{"name":"커피수엔틱소품가구","tel":"031-355-1504","addr":"경기도 화성시 남양읍 남양리 2074-17번지 1동 1층 103,104호","indutype":"가구 - 일반가구","category":"other"}]},{"lat":"37.204271255","long":"126.82466594","imageIndex":17,"items":[{"name":"쿠시니(CUSINY)","tel":"031-000-0000","addr":"경기도 화성시 남양읍 남양리 2011-4번지 1층","indutype":"직물 - 침구·수예점","category":"other"}]},{"lat":"37.20221835","long":"126.82563949","imageIndex":17,"items":[{"name":"크린토피아 남양뉴타운점","tel":"031-355-8286","addr":"경기도 화성시 남양읍 남양리 2018-4번지 102호","indutype":"수리서비스 - 세탁소","category":"other"}]},{"lat":"37.209212504","long":"126.81530417","imageIndex":17,"items":[{"name":"탑시스템","tel":"070-7529-0334","addr":"경기도 화성시 남양읍 남양리 653번지 103호","indutype":"사무통신 - 사무용 OA기기","category":"other"}]},{"lat":"37.194774213","long":"126.8306915","imageIndex":17,"items":[{"name":"태양건재철물","tel":"031-355-4718","addr":"경기도 화성시 남양읍 남양리 2155-13번지","indutype":"건축자재 - 목재·석재·철물","category":"other"}]},{"lat":"37.203329343","long":"126.79930079","imageIndex":17,"items":[{"name":"태양전기","tel":"031-355-1083","addr":"경기도 화성시 남양읍 남양리 387번지","indutype":"전기제품 - 기타전기제품","category":"other"}]},{"lat":"37.204046656","long":"126.82510579","imageIndex":17,"items":[{"name":"톰과제리캣샵","tel":"070-7543-3111","addr":"경기도 화성시 남양읍 남양리 2019-3번지 유신빌딩 1층","indutype":"문화.취미 - 애완동물","category":"other"}]},{"lat":"37.208020974","long":"126.81394404","imageIndex":17,"items":[{"name":"패션아울렛","tel":"031-355-7599","addr":"경기도 화성시 남양읍 남양리 545번지 1층 1호","indutype":"의류 - 정장","category":"other"}]},{"lat":"37.20551627","long":"126.8257219","imageIndex":17,"items":[{"name":"편백나무향기","tel":"031-357-8280","addr":"경기도 화성시 남양읍 남양리 2021-9번지 지하1층 101호","indutype":"가구 - 일반가구","category":"other"}]},{"lat":"37.208077437","long":"126.82721417","imageIndex":17,"items":[{"name":"편해점 남양점","tel":"031-356-4435","addr":"경기도 화성시 남양읍 남양리 2279-1번지 1층 102호","indutype":"유통업 영리 - 편 의 점","category":"other"},{"name":"편해점 남양점/삼원FA(담배)","tel":"031-356-4435","addr":"경기도 화성시 남양읍 남양리 2279-1번지 1층 102호","indutype":"기타 - 기타 전문점","category":"other"}]},{"lat":"37.210793302","long":"126.80127473","imageIndex":17,"items":[{"name":"풀잎사랑","tel":"031-357-0312","addr":"경기도 화성시 남양읍 남양리 2005번지 금강에스쁘아 101동 1102호","indutype":"문화.취미 - 문화취미기타","category":"other"}]},{"lat":"37.204965559","long":"126.83110767","imageIndex":17,"items":[{"name":"플로랜비(Floranb)","tel":"031-355-0780","addr":"경기도 화성시 남양읍 남양리 2049-5번지 102호","indutype":"문화.취미 - 화원","category":"other"}]},{"lat":"37.213518506","long":"126.82641294","imageIndex":17,"items":[{"name":"하비 목공방","tel":"031-437-6510","addr":"경기도 화성시 남양읍 남양리 1351-6번지","indutype":"가구 - 일반가구","category":"other"}]},{"lat":"37.20721739","long":"126.81860974","imageIndex":17,"items":[{"name":"한국토목측량설계공사","tel":"031-355-2343","addr":"경기도 화성시 남양읍 남양리 1681","indutype":"건축자재 - 기타건축자재","category":"other"}]},{"lat":"37.205523113","long":"126.80716892","imageIndex":17,"items":[{"name":"한라천막판넬","tel":"031-355-6999","addr":"경기도 화성시 남양읍 남양리 465-3번지 6호","indutype":"직물 - 카페트,커튼,천막,지물","category":"other"},{"name":"황토코리아돌침대","tel":"","addr":"경기도 화성시 남양읍 남양리 465-3번지 8.9호","indutype":"가구 - 일반가구","category":"other"}]},{"lat":"37.201659742","long":"126.82566333","imageIndex":17,"items":[{"name":"한양전기","tel":"031-509-7500","addr":"경기도 화성시 남양읍 남양리 2073-1번지 현인빌딩 103호","indutype":"용역 서비스 - 기타용역서비스","category":"other"}]},{"lat":"37.201877963","long":"126.79888792","imageIndex":17,"items":[{"name":"한일레이저조각","tel":"031-355-1338","addr":"경기도 화성시 남양읍 남양리 404-4번지 106호","indutype":"기타 - 기계공구","category":"other"}]},{"lat":"37.209821692","long":"126.81880618","imageIndex":17,"items":[{"name":"한재경","tel":"070-4409-0899","addr":"경기도 화성시 남양읍 남양리 1267-2번지 성호빌딩 제102호","indutype":"의류 - 정장","category":"other"}]},{"lat":"37.210517928","long":"126.82038165","imageIndex":17,"items":[{"name":"현대꽃화원","tel":"031-356-3438","addr":"경기도 화성시 남양읍 남양리 1270-6번지","indutype":"문화.취미 - 화원","category":"other"}]},{"lat":"37.211320617","long":"126.81510744","imageIndex":17,"items":[{"name":"현대토탈씽크대","tel":"031-366-8288","addr":"경기도 화성시 남양읍 남양리 629-1번지","indutype":"주방용구 - 주방용구","category":"other"}]},{"lat":"37.209878098","long":"126.83241458","imageIndex":17,"items":[{"name":"현대편의점","tel":"","addr":"경기도 화성시 남양읍 남양리 2232-5번지 120호","indutype":"유통업 영리 - 편 의 점","category":"other"},{"name":"휴대폰거래소","tel":"031-111-1111","addr":"경기도 화성시 남양읍 남양리 2232-5번지 1층 116호","indutype":"사무통신 - 통신기기","category":"other"}]},{"lat":"37.212797524","long":"126.81460808","imageIndex":17,"items":[{"name":"현전기조명","tel":"031-355-5199","addr":"경기도 화성시 남양읍 남양리 55-3번지 1층","indutype":"건축자재 - 조명기구","category":"other"}]},{"lat":"37.203102924","long":"126.79346647","imageIndex":17,"items":[{"name":"홍길동낚시","tel":"031-356-6153","addr":"경기도 화성시 남양읍 남양리 365-3번지","indutype":"레져용품 - 스포츠·레져용품","category":"other"}]},{"lat":"37.202159556","long":"126.82852327","imageIndex":17,"items":[{"name":"홍이네 만물상점","tel":"","addr":"경기도 화성시 남양읍 남양리 2063-5번지 남양시티빌 101호","indutype":"의류 - 정장","category":"other"}]},{"lat":"37.199793498","long":"126.79711384","imageIndex":17,"items":[{"name":"화성골재건재벽돌","tel":"031-356-2211","addr":"경기도 화성시 남양읍 남양리 995-2번지","indutype":"건축자재 - 기타건축자재","category":"other"}]},{"lat":"37.207070692","long":"126.81133295","imageIndex":17,"items":[{"name":"화성기계설비","tel":"031-366-7853","addr":"경기도 화성시 남양읍 남양리 508-1번지","indutype":"건축자재 - 기타건축자재","category":"other"}]},{"lat":"37.205075083","long":"126.83207618","imageIndex":17,"items":[{"name":"화성기획","tel":"031-356-7987","addr":"경기도 화성시 남양읍 남양리 2052-1번지","indutype":"용역 서비스 - 종합용역","category":"other"}]},{"lat":"37.203156964","long":"126.79861413","imageIndex":17,"items":[{"name":"화성목재","tel":"031-355-0394","addr":"경기도 화성시 남양읍 남양리 382번지","indutype":"건축자재 - 목재·석재·철물","category":"other"}]},{"lat":"37.211070347","long":"126.8107483","imageIndex":17,"items":[{"name":"화성임업사","tel":"031-355-5759","addr":"경기도 화성시 남양읍 남양리 166번지 1층","indutype":"용역 서비스 - 기타용역서비스","category":"other"}]},{"lat":"37.205578308","long":"126.80785593","imageIndex":17,"items":[{"name":"화성재활용","tel":"031-355-5617","addr":"경기도 화성시 남양읍 남양리 466번지","indutype":"신변잡화 - 기타잡화","category":"other"}]},{"lat":"37.20837586","long":"126.81613986","imageIndex":17,"items":[{"name":"화성전자","tel":"031-357-1193","addr":"경기도 화성시 남양읍 남양리 1168-2번지","indutype":"전기제품 - 기타전기제품","category":"other"}]},{"lat":"37.203023698","long":"126.79452554","imageIndex":17,"items":[{"name":"화성페인트월마트","tel":"031-366-8250","addr":"경기도 화성시 남양읍 남양리 367-2번지","indutype":"건축자재 - 페인트","category":"other"}]},{"lat":"37.202821619","long":"126.83147299","imageIndex":17,"items":[{"name":"효자설비","tel":"031-357-8217","addr":"경기도 화성시 남양읍 남양리 2058-4번지","indutype":"건축자재 - 인테리어전문","category":"other"}]}]