[{"lat":"37.233054976","long":"127.20087486","imageIndex":17,"items":[{"name":"(주)건축사사무소.예림","tel":"031-336-3920","addr":"경기도 용인시 처인구 김량장동 337-16번지","indutype":"용역 서비스 - 사무서비스","category":"other"}]},{"lat":"37.233998064","long":"127.20793167","imageIndex":17,"items":[{"name":"(주)경기환경","tel":"031-323-5790","addr":"경기도 용인시 처인구 김량장동 79-6번지","indutype":"기타 - 기타 전문점","category":"other"}]},{"lat":"37.23505088","long":"127.20348324","imageIndex":17,"items":[{"name":"(주)경진","tel":"031-336-2422","addr":"경기도 용인시 처인구 김량장동 254-326번지","indutype":"의류 - 스포츠의류","category":"other"},{"name":"ZIOZIA(지오지아 용인점)","tel":"031-338-8889","addr":"경기도 용인시 처인구 김량장동 254-326번지","indutype":"의류 - 와이셔츠·타이","category":"other"},{"name":"그린조이 용인","tel":"031-321-2010","addr":"경기도 용인시 처인구 김량장동 254-326번지 백산빌딩 1층 3호","indutype":"의류 - 스포츠의류","category":"other"},{"name":"백산실업","tel":"031-38-2388","addr":"경기도 용인시 처인구 김량장동 254-326번지","indutype":"신변잡화 - 제화","category":"other"},{"name":"세무사주은영사무소","tel":"031-339-3018","addr":"경기도 용인시 처인구 김량장동 254-326번지 백산빌딩 3층","indutype":"용역 서비스 - 법률회계서비스(개인)","category":"other"},{"name":"지센용인점","tel":"","addr":"경기도 용인시 처인구 김량장동 254-326번지 백산빌딩 1층","indutype":"레져용품 - 스포츠·레져용품","category":"other"}]},{"lat":"37.233021575","long":"127.20464981","imageIndex":17,"items":[{"name":"(주)미래여행사","tel":"031-337-3077","addr":"경기도 용인시 처인구 김량장동 298-26번지 비즈빌딩 102호","indutype":"여행 - 관광여행","category":"other"},{"name":"삼호창호금속","tel":"031-339-3123","addr":"경기도 용인시 처인구 김량장동 298-26번지 비즈빌딩 101호","indutype":"용역 서비스 - 기타용역서비스","category":"other"},{"name":"이브로드엔터테인먼트","tel":"031-334-7080","addr":"경기도 용인시 처인구 김량장동 298-26번지 비즈빌딩 303호","indutype":"용역 서비스 - 종합용역","category":"other"}]},{"lat":"37.237186698","long":"127.20326351","imageIndex":17,"items":[{"name":"(주)성신건축사사무소","tel":"031-335-0079","addr":"경기도 용인시 처인구 김량장동 229-28번지","indutype":"용역 서비스 - 법률회계서비스(법인)","category":"other"}]},{"lat":"37.235637603","long":"127.20812769","imageIndex":17,"items":[{"name":"(주)에이뷰텔레콤","tel":"031-323-2010","addr":"경기도 용인시 처인구 김량장동 126번지","indutype":"사무통신 - 통신기기","category":"other"}]},{"lat":"37.236883629","long":"127.20662097","imageIndex":17,"items":[{"name":"(주)오씨홀딩스","tel":"070-7573-6888","addr":"경기도 용인시 처인구 김량장동 133-37번지 101호","indutype":"신변잡화 - 기타잡화","category":"other"},{"name":"몽픽크","tel":"031-321-5756","addr":"경기도 용인시 처인구 김량장동 133-37번지 1층 107호","indutype":"의류 - 정장","category":"other"},{"name":"용성상회","tel":"031-333-0262","addr":"경기도 용인시 처인구 김량장동 133-37번지","indutype":"의류 - 정장","category":"other"},{"name":"중앙커텐","tel":"031-336-4970","addr":"경기도 용인시 처인구 김량장동 133-37번지","indutype":"직물 - 카페트,커튼,천막,지물","category":"other"}]},{"lat":"37.234052328","long":"127.19154678","imageIndex":17,"items":[{"name":"(주)와이즈맥스","tel":"070-8633-7225","addr":"경기도 용인시 처인구 김량장동 465번지 디지털산업진흥원 208호","indutype":"기타 - 기계공구","category":"other"},{"name":"에이앤트레이드(A&TRADE)","tel":"031-337-0520","addr":"경기도 용인시 처인구 김량장동 465번지 용인소프트웨어지원센터 2층 201호","indutype":"서적문구 - 과학기자재","category":"other"},{"name":"워크아이(파티존)","tel":"070-4104-8787","addr":"경기도 용인시 처인구 김량장동 465번지 201호(1인창조기업 비즈니스센터)","indutype":"용역 서비스 - 종합용역","category":"other"},{"name":"주식회사 스펠론","tel":"070-7872-6598","addr":"경기도 용인시 처인구 김량장동 465번지 디지털산업진흥원","indutype":"용역 서비스 - 소프트웨어","category":"other"},{"name":"주식회사 쌤스(ssems)","tel":"031-287-5000","addr":"경기도 용인시 처인구 김량장동 465번지 용인디지털산업진흥원 201호","indutype":"회원제형태 - 기타4","category":"other"},{"name":"주식회사엘에스디지탈/원격지","tel":"070-4111-7611","addr":"경기도 용인시 처인구 김량장동 465번지 디지탈산업진흥원 205호","indutype":"기타 - 기타 전문점","category":"other"},{"name":"티엠아이텍","tel":"070-8899-9620","addr":"경기도 용인시 처인구 김량장동 465번지","indutype":"전기제품 - 기타전기제품","category":"other"},{"name":"행복가득한푸드트럭 주식회사","tel":"070-7805-1233","addr":"경기도 용인시 처인구 김량장동 465번지 디지털산업진흥원","indutype":"용역 서비스 - 사무서비스","category":"other"}]},{"lat":"37.234190199","long":"127.19545746","imageIndex":17,"items":[{"name":"(주)유정기업","tel":"031-323-0066","addr":"경기도 용인시 처인구 김량장동 408-2번지 한솔빌딩 801호","indutype":"건축자재 - 부동산 분양","category":"other"},{"name":"씨유용인한솔점","tel":"031-337-0423","addr":"경기도 용인시 처인구 김량장동 408-2번지 한솔빌딩 105호","indutype":"유통업 영리 - 편 의 점","category":"other"}]},{"lat":"37.233577535","long":"127.20089876","imageIndex":17,"items":[{"name":"(주)크리언스에듀","tel":"031-244-3997","addr":"경기도 용인시 처인구 김량장동 338번지 조양유통상가 202호","indutype":"서적문구 - 과학기자재","category":"other"},{"name":"세무사송영덕","tel":"031-339-8184","addr":"경기도 용인시 처인구 김량장동 338번지 조양 상가 202호","indutype":"용역 서비스 - 법률회계서비스(개인)","category":"other"}]},{"lat":"37.236582391","long":"127.20887403","imageIndex":17,"items":[{"name":"(주)프로정보통신/특별할부","tel":"031-335-2011","addr":"경기도 용인시 처인구 김량장동 142-15번지","indutype":"사무통신 - 통신기기(무이자할부)","category":"other"},{"name":"프로정보/LG할부","tel":"031-1-1","addr":"경기도 용인시 처인구 김량장동 142-15번지","indutype":"사무통신 - 통신기기(무이자할부)","category":"other"}]},{"lat":"37.235745434","long":"127.20829702","imageIndex":17,"items":[{"name":"(주)헤르메스","tel":"031-336-9102","addr":"경기도 용인시 처인구 김량장동 115-8번지","indutype":"사무통신 - 통신기기","category":"other"}]},{"lat":"37.236218281","long":"127.20579653","imageIndex":17,"items":[{"name":"12피엠(pm)","tel":"031-321-4465","addr":"경기도 용인시 처인구 김량장동 133-154번지","indutype":"의류 - 정장","category":"other"},{"name":"깡통","tel":"031-339-2924","addr":"경기도 용인시 처인구 김량장동 133-154번지","indutype":"의류 - 정장","category":"other"},{"name":"꼬망스","tel":"070-4120-5306","addr":"경기도 용인시 처인구 김량장동 133-154번지 1층","indutype":"의류 - 정장","category":"other"},{"name":"씨(SI)용인점","tel":"031-332-0097","addr":"경기도 용인시 처인구 김량장동 133-154번지","indutype":"의류 - 정장","category":"other"}]},{"lat":"37.235883953","long":"127.20634782","imageIndex":17,"items":[{"name":"A LOG(에이로그)","tel":"","addr":"경기도 용인시 처인구 김량장동 133-237번지","indutype":"의류 - 정장","category":"other"},{"name":"불량공주","tel":"031-336-9643","addr":"경기도 용인시 처인구 김량장동 133-237번지","indutype":"의류 - 정장","category":"other"},{"name":"빈티지역","tel":"031-333-9860","addr":"경기도 용인시 처인구 김량장동 133-237번지","indutype":"의류 - 정장","category":"other"}]},{"lat":"37.234770678","long":"127.20924098","imageIndex":17,"items":[{"name":"C.N.A(용인)","tel":"031-338-8373","addr":"경기도 용인시 처인구 김량장동 60-4번지 재성빌딩 1층","indutype":"서적문구 - 문구용품","category":"other"}]},{"lat":"37.234937912","long":"127.20632274","imageIndex":17,"items":[{"name":"GS25용인CGV점","tel":"","addr":"경기도 용인시 처인구 김량장동 87-2번지","indutype":"유통업 영리 - 편 의 점","category":"other"}]},{"lat":"37.234464328","long":"127.20924014","imageIndex":17,"items":[{"name":"GS25용인사거리점","tel":"","addr":"경기도 용인시 처인구 김량장동 62-1번지","indutype":"유통업 영리 - 편 의 점","category":"other"}]},{"lat":"37.238692009","long":"127.20818105","imageIndex":17,"items":[{"name":"GS25용인삼원점","tel":"","addr":"경기도 용인시 처인구 김량장동 167-5번지","indutype":"유통업 영리 - 편 의 점","category":"other"}]},{"lat":"37.230021138","long":"127.20987033","imageIndex":17,"items":[{"name":"GS25용인태성점","tel":"","addr":"경기도 용인시 처인구 김량장동 31-11번지","indutype":"유통업 영리 - 편 의 점","category":"other"}]},{"lat":"37.232608838","long":"127.20887448","imageIndex":17,"items":[{"name":"GS25용인터미널점","tel":"","addr":"경기도 용인시 처인구 김량장동 42-6번지","indutype":"유통업 영리 - 편 의 점","category":"other"}]},{"lat":"37.23435882","long":"127.20245592","imageIndex":17,"items":[{"name":"GS25처인구청점","tel":"","addr":"경기도 용인시 처인구 김량장동 289-3번지","indutype":"유통업 영리 - 편 의 점","category":"other"},{"name":"도날드비디오","tel":"031-335-5050","addr":"경기도 용인시 처인구 김량장동 289-3번지","indutype":"레져용품 - 음반/영상물","category":"other"},{"name":"삼우토목측량설계사무소","tel":"031-321-8845","addr":"경기도 용인시 처인구 김량장동 289-3번지 1층 1호","indutype":"용역 서비스 - 사무서비스","category":"other"},{"name":"참토목측량설계공사","tel":"031-322-0602","addr":"경기도 용인시 처인구 김량장동 289-3번지","indutype":"용역 서비스 - 사무서비스","category":"other"}]},{"lat":"37.233885408","long":"127.19998678","imageIndex":17,"items":[{"name":"GS25처인금령점","tel":"","addr":"경기도 용인시 처인구 김량장동 334-22번지 1층","indutype":"유통업 영리 - 편 의 점","category":"other"}]},{"lat":"37.235436388","long":"127.20462244","imageIndex":17,"items":[{"name":"GS25처인센트럴점","tel":"","addr":"경기도 용인시 처인구 김량장동 254-72번지 1층","indutype":"유통업 영리 - 편 의 점","category":"other"},{"name":"데이지플러스(Daisy+)","tel":"031-323-6016","addr":"경기도 용인시 처인구 김량장동 254-72번지","indutype":"의류 - 정장","category":"other"},{"name":"이옷사 (254)","tel":"031-339-2540","addr":"경기도 용인시 처인구 김량장동 254-72번지 1층","indutype":"의류 - 정장","category":"other"}]},{"lat":"37.233052139","long":"127.20256517","imageIndex":17,"items":[{"name":"INCOHOMECC","tel":"031-323-5372","addr":"경기도 용인시 처인구 김량장동 341-9번지 일삼빌딩 3층","indutype":"건축자재 - 인테리어전문","category":"other"},{"name":"법무사박안규사무소","tel":"031-323-7090","addr":"경기도 용인시 처인구 김량장동 341-9번지 일삼빌딩 4층 3호","indutype":"용역 서비스 - 법률회계서비스(개인)","category":"other"},{"name":"세원건축사사무소","tel":"031-336-0357","addr":"경기도 용인시 처인구 김량장동 341-9번지 일삼빌딩 3층","indutype":"용역 서비스 - 법률회계서비스(개인)","category":"other"},{"name":"처인토목엔지니어링","tel":"031-333-6562","addr":"경기도 용인시 처인구 김량장동 341-9번지","indutype":"용역 서비스 - 사무서비스","category":"other"}]},{"lat":"37.237213248","long":"127.20879686","imageIndex":17,"items":[{"name":"KTF용인점","tel":"0031-0339-8016","addr":"경기도 용인시 처인구 김량장동 142-5번지","indutype":"별도관리 - 자체물품대금","category":"other"}]},{"lat":"37.236942763","long":"127.20889755","imageIndex":17,"items":[{"name":"KTF용인점","tel":"031-339-0168","addr":"경기도 용인시 처인구 김량장동 142-9번지","indutype":"사무통신 - 통신기기","category":"other"},{"name":"이경이네","tel":"","addr":"경기도 용인시 처인구 김량장동 142-9번지 E-메디칼빌딩 1층 일부","indutype":"의류 - 정장","category":"other"}]},{"lat":"37.232523501","long":"127.20079459","imageIndex":17,"items":[{"name":"NK글로벌","tel":"02-241-2353","addr":"경기도 용인시 처인구 김량장동 344번지 3층","indutype":"의류 - 정장","category":"other"},{"name":"대진천막","tel":"031-321-4484","addr":"경기도 용인시 처인구 김량장동 344번지","indutype":"직물 - 카페트,커튼,천막,지물","category":"other"},{"name":"쿠쿠처인점","tel":"031-334-9953","addr":"경기도 용인시 처인구 김량장동 344번지 1층","indutype":"전기제품 - 가전제품","category":"other"}]},{"lat":"37.236024576","long":"127.2083992","imageIndex":17,"items":[{"name":"YB텔레콤","tel":"","addr":"경기도 용인시 처인구 김량장동 115-13번지","indutype":"사무통신 - 통신기기","category":"other"},{"name":"스킨엔젤","tel":"031-338-3120","addr":"경기도 용인시 처인구 김량장동 115-13번지 3층","indutype":"회원제형태 - 기타4","category":"other"}]},{"lat":"37.235963377","long":"127.20731719","imageIndex":17,"items":[{"name":"Y용인점","tel":"031-335-1476","addr":"경기도 용인시 처인구 김량장동 133-85번지","indutype":"의류 - 내의판매","category":"other"},{"name":"소호(soho)","tel":"031-323-5273","addr":"경기도 용인시 처인구 김량장동 133-85번지","indutype":"의류 - 정장","category":"other"},{"name":"스프링펫 반려동물 아울렛(현수막)","tel":"031-332-6348","addr":"경기도 용인시 처인구 김량장동 133-85번지 1층","indutype":"문화.취미 - 애완동물","category":"other"},{"name":"코코리따","tel":"031-336-5576","addr":"경기도 용인시 처인구 김량장동 133-85번지","indutype":"의류 - 기타의류","category":"other"}]},{"lat":"37.235297141","long":"127.20701112","imageIndex":17,"items":[{"name":"my Gold (마이골드)","tel":"031-335-1576","addr":"경기도 용인시 처인구 김량장동 90-1번지 제일빌딩","indutype":"신변잡화 - 귀금속","category":"other"},{"name":"샤트렌용인점","tel":"031-336-4569","addr":"경기도 용인시 처인구 김량장동 90-1번지 제일빌딩","indutype":"의류 - 정장","category":"other"}]},{"lat":"37.236380581","long":"127.20039897","imageIndex":17,"items":[{"name":"가나장식","tel":"031-321-0869","addr":"경기도 용인시 처인구 김량장동 316-4번지","indutype":"유통업 영리 - 기타유통업","category":"other"},{"name":"마터피아 용인","tel":"031-635-0220","addr":"경기도 용인시 처인구 김량장동 316-4번지 304호","indutype":"용역 서비스 - 종합용역","category":"other"},{"name":"명지철물","tel":"031-334-6586","addr":"경기도 용인시 처인구 김량장동 316-4번지","indutype":"건축자재 - 목재·석재·철물","category":"other"}]},{"lat":"37.237908115","long":"127.20817892","imageIndex":17,"items":[{"name":"가나전기","tel":"031-322-0452","addr":"경기도 용인시 처인구 김량장동 145-22번지","indutype":"건축자재 - 조명기구","category":"other"},{"name":"용인컴퓨터","tel":"","addr":"경기도 용인시 처인구 김량장동 145-22번지","indutype":"사무통신 - 기타 사무용품","category":"other"}]},{"lat":"37.234635336","long":"127.19873787","imageIndex":17,"items":[{"name":"가방,옷전문","tel":"031-321-1911","addr":"경기도 용인시 처인구 김량장동 333-1번지","indutype":"의류 - 정장","category":"other"},{"name":"성문인쇄사","tel":"031-335-5951","addr":"경기도 용인시 처인구 김량장동 333-1번지","indutype":"서적문구 - 출판 및 인쇄물","category":"other"},{"name":"행운열쇠","tel":"031-335-1304","addr":"경기도 용인시 처인구 김량장동 333-1번지","indutype":"건축자재 - 목재·석재·철물","category":"other"}]},{"lat":"37.23452034","long":"127.20285077","imageIndex":17,"items":[{"name":"가야토목측량설계공사","tel":"031-338-5560","addr":"경기도 용인시 처인구 김량장동 295-10번지","indutype":"기타 - 기타 전문점","category":"other"},{"name":"미르건축사사무소","tel":"031-336-3162","addr":"경기도 용인시 처인구 김량장동 295-10번지","indutype":"용역 서비스 - 사무서비스","category":"other"},{"name":"법무사윤희원사무소","tel":"031-338-8324","addr":"경기도 용인시 처인구 김량장동 295-10번지","indutype":"용역 서비스 - 법률회계서비스(개인)","category":"other"},{"name":"이성희사진실","tel":"031-336-8007","addr":"경기도 용인시 처인구 김량장동 295-10번지 102호","indutype":"광학제품 - 사진관","category":"other"},{"name":"테일러샵","tel":"031-235-3994","addr":"경기도 용인시 처인구 김량장동 295-10번지 110호","indutype":"의류 - 정장","category":"other"},{"name":"한명숙우리옷","tel":"031-332-1494","addr":"경기도 용인시 처인구 김량장동 295-10번지","indutype":"직물 - 침구·수예점","category":"other"}]},{"lat":"37.232579047","long":"127.1999045","imageIndex":17,"items":[{"name":"가온기획","tel":"031-335-4548","addr":"경기도 용인시 처인구 김량장동 345-9번지 주석빌딩 101호","indutype":"서적문구 - 출판 및 인쇄물","category":"other"},{"name":"다울건축사사무소","tel":"031-321-2255","addr":"경기도 용인시 처인구 김량장동 345-9번지 주석빌딩 302호","indutype":"용역 서비스 - 사무서비스","category":"other"},{"name":"더나은 주간보호센터","tel":"031-334-6868","addr":"경기도 용인시 처인구 김량장동 345-9번지 2층","indutype":"기타의료기관 - 기타의료기관 및 기타","category":"other"},{"name":"디자인 뷰","tel":"031-336-4520","addr":"경기도 용인시 처인구 김량장동 345-9번지 주석빌딩 101호","indutype":"용역 서비스 - 사무서비스","category":"other"},{"name":"시우무역","tel":"031-332-0155","addr":"경기도 용인시 처인구 김량장동 345-9번지 외4필지 105호","indutype":"레져용품 - 스포츠·레져용품","category":"other"}]},{"lat":"37.237357079","long":"127.20898883","imageIndex":17,"items":[{"name":"가원텔레콤","tel":"070-7018-5367","addr":"경기도 용인시 처인구 김량장동 143번지 1층 3호","indutype":"사무통신 - 통신기기","category":"other"}]},{"lat":"37.235883333","long":"127.20670844","imageIndex":17,"items":[{"name":"감","tel":"","addr":"경기도 용인시 처인구 김량장동 133-24번지 1층","indutype":"의류 - 정장","category":"other"},{"name":"그린양행","tel":"031-321-5514","addr":"경기도 용인시 처인구 김량장동 133-24번지 청한상가 B동","indutype":"의류 - 정장","category":"other"},{"name":"띠아망","tel":"031-326-0606","addr":"경기도 용인시 처인구 김량장동 133-24","indutype":"신변잡화 - 귀금속","category":"other"},{"name":"러브","tel":"031-321-2409","addr":"경기도 용인시 처인구 김량장동 133-24번지 청한 상가 B동 127호","indutype":"신변잡화 - 가방","category":"other"},{"name":"주식회사 일팔콜라","tel":"","addr":"경기도 용인시 처인구 김량장동 133-24번지","indutype":"의류 - 정장","category":"other"},{"name":"청바지전문점","tel":"031-336-4287","addr":"경기도 용인시 처인구 김량장동 133-24번지 청한상가 B동","indutype":"의류 - 정장","category":"other"}]},{"lat":"37.227802454","long":"127.21109248","imageIndex":17,"items":[{"name":"거성종합건재","tel":"031-334-1723","addr":"경기도 용인시 처인구 김량장동 6-9번지 1층6-9","indutype":"건축자재 - 기타건축자재","category":"other"},{"name":"킹퍼니쳐","tel":"031-335-5688","addr":"경기도 용인시 처인구 김량장동 6-9번지 외1필지 6-9","indutype":"가구 - 일반가구","category":"other"}]},{"lat":"37.231770921","long":"127.19821211","imageIndex":17,"items":[{"name":"건우종합건축사무소","tel":"031-321-6697","addr":"경기도 용인시 처인구 김량장동 505-6번지 2층","indutype":"용역 서비스 - 사무서비스","category":"other"}]},{"lat":"37.233659362","long":"127.20045949","imageIndex":17,"items":[{"name":"건축사사무소 세움","tel":"031-336-0304","addr":"경기도 용인시 처인구 김량장동 335-7번지 3층 301호 좌측","indutype":"용역 서비스 - 사무서비스","category":"other"},{"name":"건축사사무소소담","tel":"031-336-0304","addr":"경기도 용인시 처인구 김량장동 335-7번지 3층","indutype":"용역 서비스 - 사무서비스","category":"other"}]},{"lat":"37.234911792","long":"127.20046276","imageIndex":17,"items":[{"name":"건축사사무소마당","tel":"031-333-5319","addr":"경기도 용인시 처인구 김량장동 323-7번지","indutype":"용역 서비스 - 법률회계서비스(개인)","category":"other"},{"name":"신도중앙OA(특별할부)","tel":"031-335-9349","addr":"경기도 용인시 처인구 김량장동 323-7번지 유림빌딩 1층","indutype":"사무통신 - 사무용 OA기기","category":"other"}]},{"lat":"37.235605132","long":"127.20073503","imageIndex":17,"items":[{"name":"건축사사무소창림","tel":"031-338-6688","addr":"경기도 용인시 처인구 김량장동 324-4번지","indutype":"용역 서비스 - 법률회계서비스(개인)","category":"other"}]},{"lat":"37.235130557","long":"127.20431736","imageIndex":17,"items":[{"name":"견중법무사사무소","tel":"031-383-3503","addr":"경기도 용인시 처인구 김량장동 254-98번지 외1필지 2층","indutype":"용역 서비스 - 법률회계서비스(개인)","category":"other"},{"name":"용인제록스","tel":"031-333-4815","addr":"경기도 용인시 처인구 김량장동 254-98번지","indutype":"용역 서비스 - 사무서비스","category":"other"},{"name":"인디안용인지점","tel":"031-335-3859","addr":"경기도 용인시 처인구 김량장동 254-98, 254-105","indutype":"레져용품 - 스포츠·레져용품","category":"other"}]},{"lat":"37.235636155","long":"127.2089616","imageIndex":17,"items":[{"name":"경기농약종묘사","tel":"031-333-4680","addr":"경기도 용인시 처인구 김량장동 118번지","indutype":"농업 - 비료,사료,종자","category":"other"}]},{"lat":"37.2345517","long":"127.20027024","imageIndex":17,"items":[{"name":"경기도공수도연맹","tel":"031-328-5188","addr":"경기도 용인시 처인구 김량장동 334-2번지 거성빌딩 2층","indutype":"기타 - 비영리/비대상","category":"other"},{"name":"성기승세무회계사무소","tel":"031-232-1892","addr":"경기도 용인시 처인구 김량장동 334-2번지 거성빌딩 4층","indutype":"용역 서비스 - 법률회계서비스(개인)","category":"other"},{"name":"이브자리용인점","tel":"031-321-5862","addr":"경기도 용인시 처인구 김량장동 334-2번지","indutype":"직물 - 침구·수예점","category":"other"}]},{"lat":"37.238574211","long":"127.2085639","imageIndex":17,"items":[{"name":"경기상사","tel":"031-321-3354","addr":"경기도 용인시 처인구 김량장동 162-4번지","indutype":"건축자재 - 보일러·펌프·샷시","category":"other"},{"name":"그림마을","tel":"031-339-1199","addr":"경기도 용인시 처인구 김량장동 162-4","indutype":"용역 서비스 - 종합용역","category":"other"},{"name":"용인화공약품공사","tel":"031-335-8331","addr":"경기도 용인시 처인구 김량장동 162-4 상가","indutype":"서적문구 - 과학기자재","category":"other"}]},{"lat":"37.231634176","long":"127.20976205","imageIndex":17,"items":[{"name":"경기상사","tel":"031-332-0503","addr":"경기도 용인시 처인구 김량장동 24번지","indutype":"기타 - 기타 전문점","category":"other"},{"name":"씨유용인터미널점","tel":"031-338-0379","addr":"경기도 용인시 처인구 김량장동 24 외1필지","indutype":"유통업 영리 - 편 의 점","category":"other"},{"name":"종로의료기","tel":"031-335-4488","addr":"경기도 용인시 처인구 김량장동 24번지","indutype":"기타의료기관 - 기타의료기관 및 기타","category":"other"},{"name":"큰옷빵빵","tel":"031-335-5200","addr":"경기도 용인시 처인구 김량장동 24번지 외1필지","indutype":"의류 - 정장","category":"other"}]},{"lat":"37.234852888","long":"127.20859886","imageIndex":17,"items":[{"name":"경기열쇠","tel":"031-336-1211","addr":"경기도 용인시 처인구 김량장동 111-8번지","indutype":"수리서비스 - 신변잡화수리","category":"other"}]},{"lat":"37.236603301","long":"127.20720622","imageIndex":17,"items":[{"name":"고릴라","tel":"031-332-6327","addr":"경기도 용인시 처인구 김량장동 133-16번지 제1호","indutype":"신변잡화 - 신발","category":"other"},{"name":"성원불교만물","tel":"031-336-0337","addr":"경기도 용인시 처인구 김량장동 133-16번지","indutype":"문화.취미 - 문화취미기타","category":"other"}]},{"lat":"37.232521177","long":"127.20218063","imageIndex":17,"items":[{"name":"고은종합인테리어","tel":"031-323-2700","addr":"경기도 용인시 처인구 김량장동 344-7번지 2호","indutype":"건축자재 - 인테리어전문","category":"other"},{"name":"윤세탁소","tel":"031-336-9507","addr":"경기도 용인시 처인구 김량장동 344-7번지 3호","indutype":"수리서비스 - 세탁소","category":"other"},{"name":"태성전기","tel":"031-321-1347","addr":"경기도 용인시 처인구 김량장동 344-7번지","indutype":"전기제품 - 기타전기제품","category":"other"},{"name":"하얀개마을","tel":"031-334-3336","addr":"경기도 용인시 처인구 김량장동 344-7번지","indutype":"문화.취미 - 애완동물","category":"other"}]},{"lat":"37.236997823","long":"127.20832296","imageIndex":17,"items":[{"name":"고페르","tel":"070-4274-6683","addr":"경기도 용인시 처인구 김량장동 140-24번지 1층 1호","indutype":"의류 - 정장","category":"other"},{"name":"용인텔레콤","tel":"031-339-1019","addr":"경기도 용인시 처인구 김량장동 140-24번지","indutype":"사무통신 - 통신기기","category":"other"},{"name":"준포토스튜디오","tel":"031-339-7982","addr":"경기도 용인시 처인구 김량장동 140-24번지","indutype":"광학제품 - 사진관","category":"other"}]},{"lat":"37.235943386","long":"127.20845533","imageIndex":17,"items":[{"name":"골드미","tel":"031-338-9977","addr":"경기도 용인시 처인구 김량장동 116-7번지 1층","indutype":"신변잡화 - 귀금속","category":"other"},{"name":"나 포토(Na photo)사진관","tel":"031-366-3306","addr":"경기도 용인시 처인구 김량장동 116-7번지 1층","indutype":"광학제품 - 사진관","category":"other"},{"name":"미금당","tel":"031-336-2417","addr":"경기도 용인시 처인구 김량장동 116-7번지","indutype":"신변잡화 - 귀금속","category":"other"}]},{"lat":"37.235770057","long":"127.20445429","imageIndex":17,"items":[{"name":"골드빌리페어","tel":"031-321-3723","addr":"경기도 용인시 처인구 김량장동 254-51번지 골드빌아파트 1층 114호","indutype":"수리서비스 - 세탁소","category":"other"},{"name":"나드리패션","tel":"031-339-4117","addr":"경기도 용인시 처인구 김량장동 254-92번지 골드빌상가102","indutype":"의류 - 정장","category":"other"},{"name":"나리","tel":"031-339-4117","addr":"경기도 용인시 처인구 김량장동 254-51번지 골드빌 140호","indutype":"의류 - 정장","category":"other"},{"name":"노네임","tel":"031-111-1111","addr":"경기도 용인시 처인구 김량장동 254-51번지 골드빌아파트 142호","indutype":"의류 - 정장","category":"other"},{"name":"스타일링하우스","tel":"031-333-1156","addr":"경기도 용인시 처인구 김량장동 254-51번지 골드빌 상가 101동 138호","indutype":"신변잡화 - 액세서리","category":"other"},{"name":"주식회사라움건설","tel":"031-321-1783","addr":"경기도 용인시 처인구 김량장동 254-51,309호~310호","indutype":"건축자재 - 부동산 분양","category":"other"},{"name":"토담","tel":"031-339-4445","addr":"경기도 용인시 처인구 김량장동 254-51번지 골드타워 102호","indutype":"의류 - 정장","category":"other"},{"name":"황금침구","tel":"031-321-0382","addr":"경기도 용인시 처인구 김량장동 254-51번지 골드빌 상가 1층 142호","indutype":"직물 - 침구·수예점","category":"other"}]},{"lat":"37.235610201","long":"127.20834173","imageIndex":17,"items":[{"name":"골드퀸","tel":"031-334-1418","addr":"경기도 용인시 처인구 김량장동 115-10번지 2호","indutype":"신변잡화 - 귀금속","category":"other"},{"name":"미스트랄","tel":"031-321-6354","addr":"경기도 용인시 처인구 김량장동 115-10번지 1층","indutype":"레져용품 - 스포츠·레져용품","category":"other"}]},{"lat":"37.235132241","long":"127.19792778","imageIndex":17,"items":[{"name":"골든픽앤바이오주식회사(GOLDENPIG &IO.CO.","tel":"031-322-2069","addr":"경기도 용인시 처인구 김량장동 294-21번지","indutype":"회원제형태 - 기타3","category":"other"}]},{"lat":"37.235940128","long":"127.19976675","imageIndex":17,"items":[{"name":"공주네 책방","tel":"","addr":"경기도 용인시 처인구 김량장동 320-8번지 럭스빌 상가 1층","indutype":"서적문구 - 일반서적","category":"other"}]},{"lat":"37.238268135","long":"127.20840529","imageIndex":17,"items":[{"name":"광신건업","tel":"031-335-2836","addr":"경기도 용인시 처인구 김량장동 161-22번지","indutype":"용역 서비스 - 기타용역서비스","category":"other"}]},{"lat":"37.235574561","long":"127.19743308","imageIndex":17,"items":[{"name":"구제상점","tel":"070-8722-9090","addr":"경기도 용인시 처인구 김량장동 293-10번지","indutype":"의류 - 정장","category":"other"}]},{"lat":"37.237242739","long":"127.20737699","imageIndex":17,"items":[{"name":"구제창고","tel":"031-321-8135","addr":"경기도 용인시 처인구 김량장동 133-99번지 2층","indutype":"의류 - 기타의류","category":"other"}]},{"lat":"37.23885295","long":"127.20365108","imageIndex":17,"items":[{"name":"국일하수구","tel":"031-333-5828","addr":"경기도 용인시 처인구 김량장동 196-4번지 신광빌라3차 A동 301호","indutype":"수리서비스 - 기타수리서비스","category":"other"}]},{"lat":"37.233076059","long":"127.20440204","imageIndex":17,"items":[{"name":"국제전기조명","tel":"031-339-4000","addr":"경기도 용인시 처인구 김량장동 298-28번지 금보빌딩 일층","indutype":"건축자재 - 조명기구","category":"other"},{"name":"퀼트마리","tel":"031-336-4744","addr":"경기도 용인시 처인구 김량장동 298-28번지 금보빌딩","indutype":"직물 - 침구·수예점","category":"other"}]},{"lat":"37.235131246","long":"127.20915181","imageIndex":17,"items":[{"name":"귀인요가운동원","tel":"031-321-4509","addr":"경기도 용인시 처인구 김량장동 60-1번지 용인타워 404호","indutype":"회원제형태 - 레져업소","category":"other"},{"name":"대성기업(DS쇼핑)","tel":"031-338-1650","addr":"경기도 용인시 처인구 김량장동 60-1번지 용인타워 2층 201호","indutype":"주방용구 - 주방용구","category":"other"}]},{"lat":"37.237216039","long":"127.20718534","imageIndex":17,"items":[{"name":"그린 웨이브","tel":"031-321-9661","addr":"경기도 용인시 처인구 김량장동 133-5번지","indutype":"신변잡화 - 기타잡화","category":"other"}]},{"lat":"37.234658525","long":"127.20104809","imageIndex":17,"items":[{"name":"그린출력","tel":"031-338-8197","addr":"경기도 용인시 처인구 김량장동 284-1번지","indutype":"서적문구 - 출판 및 인쇄물","category":"other"},{"name":"우림건축사사무소","tel":"031-322-1733","addr":"경기도 용인시 처인구 김량장동 284-1번지","indutype":"용역 서비스 - 사무서비스","category":"other"}]},{"lat":"37.234824381","long":"127.19331795","imageIndex":17,"items":[{"name":"글로벌 커피바리스타 한국위원회","tel":"031-333-7534","addr":"경기도 용인시 처인구 김량장동 508-2번지 청강빌딩 4층","indutype":"주방용구 - 주방용구","category":"other"},{"name":"통큰딱다구리(용인1호점)","tel":"031-338-6260","addr":"경기도 용인시 처인구 김량장동 508-2번지","indutype":"서적문구 - 문구용품","category":"other"},{"name":"플러스유편의점","tel":"031-321-6260","addr":"경기도 용인시 처인구 김량장동 508-2번지","indutype":"유통업 영리 - 편 의 점","category":"other"}]},{"lat":"37.236162613","long":"127.20673173","imageIndex":17,"items":[{"name":"금광보석당","tel":"031-335-6669","addr":"경기도 용인시 처인구 김량장동 133-28청한상가A동130,131호","indutype":"신변잡화 - 귀금속","category":"other"},{"name":"금복양행","tel":"031-335-0566","addr":"경기도 용인시 처인구 김량장동 133-28번지 2층 청한상가","indutype":"의류 - 정장","category":"other"},{"name":"꽁이랑","tel":"031-334-2025","addr":"경기도 용인시 처인구 김량장동 133-28번지 청한상가 A동 2층 232호","indutype":"의류 - 아동의류","category":"other"},{"name":"노바슈즈","tel":"031-332-0309","addr":"경기도 용인시 처인구 김량장동 133-28번지 청한 1동 101호","indutype":"신변잡화 - 제화","category":"other"},{"name":"대도(생활용품)","tel":"031-323-3622","addr":"경기도 용인시 처인구 김량장동 133-28청한상가에이-143","indutype":"신변잡화 - 기타잡화","category":"other"},{"name":"드림뜨개방","tel":"","addr":"경기도 용인시 처인구 김량장동 133-28번지 A동 144,145호","indutype":"직물 - 침구·수예점","category":"other"},{"name":"마벨","tel":"031-322-0146","addr":"경기도 용인시 처인구 김량장동 133-28번지 청한 상가 A동 104호","indutype":"신변잡화 - 액세서리","category":"other"},{"name":"무드제이(MOOD J)","tel":"","addr":"경기도 용인시 처인구 김량장동 133-28번지 청한상가 2층 245호","indutype":"의류 - 정장","category":"other"},{"name":"미성양행","tel":"031-336-6528","addr":"경기도 용인시 처인구 김량장동 133-28번지 청한 상가","indutype":"의류 - 정장","category":"other"},{"name":"믹스앤매치","tel":"031-321-5066","addr":"경기도 용인시 처인구 김량장동 133-28번지 청한상가 A-255호","indutype":"의류 - 정장","category":"other"},{"name":"보라미수예","tel":"031-332-0282","addr":"경기도 용인시 처인구 김량장동 133-28번지 A동 A층 150호 청현 상가","indutype":"직물 - 침구·수예점","category":"other"},{"name":"비엔가방","tel":"031-111-1111","addr":"경기도 용인시 처인구 김량장동 133-28번지 청한상가 A동 132호","indutype":"신변잡화 - 가방","category":"other"},{"name":"삼화상회","tel":"031-335-3531","addr":"경기도 용인시 처인구 김량장동 133-28번지 청한 상가 131호","indutype":"직물 - 옷감·직물","category":"other"},{"name":"선물의집","tel":"031-332-9739","addr":"경기도 용인시 처인구 김량장동 133-28번지","indutype":"신변잡화 - 액세서리","category":"other"},{"name":"수에트리 힐링마켓","tel":"031-1111-1111","addr":"경기도 용인시 처인구 김량장동 133-28번지 A동 지하층 1,2,3호","indutype":"문화.취미 - 화원","category":"other"},{"name":"스타일엔진","tel":"031-335-4436","addr":"경기도 용인시 처인구 김량장동 133-28번지 청한상가에이동254","indutype":"의류 - 정장","category":"other"},{"name":"시노바","tel":"031-332-0309","addr":"경기도 용인시 처인구 김량장동 133-28번지 청한상가 A동 1층 125호","indutype":"신변잡화 - 신발","category":"other"},{"name":"시티보이","tel":"031-337-0274","addr":"경기도 용인시 처인구 김량장동 133-28번지","indutype":"의류 - 정장","category":"other"},{"name":"신애양품","tel":"031-335-6323","addr":"경기도 용인시 처인구 김량장동 133-28번지","indutype":"의류 - 정장","category":"other"},{"name":"실크로드","tel":"031-335-0639","addr":"경기도 용인시 처인구 김량장동 133-28번지","indutype":"신변잡화 - 액세서리","category":"other"},{"name":"우모","tel":"031-336-2367","addr":"경기도 용인시 처인구 김량장동 133-28번지","indutype":"의류 - 정장","category":"other"},{"name":"원앙새","tel":"031-335-4436","addr":"경기도 용인시 처인구 김량장동 133-28번지 청한 상가 230호","indutype":"의류 - 단체복","category":"other"},{"name":"원투맨","tel":"031-336-7198","addr":"경기도 용인시 처인구 김량장동 133-28번지 청한상가 222호","indutype":"의류 - 정장","category":"other"},{"name":"월드컵","tel":"031-333-4966","addr":"경기도 용인시 처인구 김량장동 133-28번지 청한상가 A동 110호","indutype":"신변잡화 - 신발","category":"other"},{"name":"유밍쁘(you밍쁘)","tel":"","addr":"경기도 용인시 처인구 김량장동 133-28번지 상가 A동 2층 242호","indutype":"의류 - 정장","category":"other"},{"name":"윤성상회","tel":"031-332-9909","addr":"경기도 용인시 처인구 김량장동 133-28번지 청한상가 A-202호","indutype":"의류 - 정장","category":"other"},{"name":"율리아","tel":"031-335-9122","addr":"경기도 용인시 처인구 김량장동 133-28번지 청한 상가","indutype":"의류 - 정장","category":"other"},{"name":"이니예니","tel":"","addr":"경기도 용인시 처인구 김량장동 133-28번지 청한상가 2층 244호","indutype":"의류 - 아동의류","category":"other"},{"name":"이브미","tel":"031-335-2280","addr":"경기도 용인시 처인구 김량장동 133-28번지 청한 상가 204호","indutype":"의류 - 정장","category":"other"},{"name":"일진투","tel":"031-335-4815","addr":"경기도 용인시 처인구 김량장동 133-28번지 청한 상가 241호","indutype":"의류 - 정장","category":"other"},{"name":"제임스 딘","tel":"031-335-0460","addr":"경기도 용인시 처인구 김량장동 133-28번지 청한상가 2층 256,257호","indutype":"의류 - 정장","category":"other"},{"name":"쥬니어양품","tel":"031-335-2983","addr":"경기도 용인시 처인구 김량장동 133-28번지 청한 2층 206호","indutype":"의류 - 아동의류","category":"other"},{"name":"진영이네","tel":"031-335-1079","addr":"경기도 용인시 처인구 김량장동 133-28번지","indutype":"신변잡화 - 액세서리","category":"other"},{"name":"청석주얼리","tel":"031-333-4921","addr":"경기도 용인시 처인구 김량장동 133-28번지 청한에이동111호,112호","indutype":"신변잡화 - 액세서리","category":"other"},{"name":"청한듀얼쇼크","tel":"031-337-0858","addr":"경기도 용인시 처인구 김량장동 133-28번지 청한상가 A-113호","indutype":"서적문구 - 완구점","category":"other"},{"name":"콧수염","tel":"031-335-4815","addr":"경기도 용인시 처인구 김량장동 133-28번지 청한상가 A동 2층 215호","indutype":"의류 - 정장","category":"other"},{"name":"팍티오","tel":"031-335-4815","addr":"경기도 용인시 처인구 김량장동 133-28번지 청한상가 A동 2층 236호","indutype":"의류 - 정장","category":"other"},{"name":"패션가방","tel":"031-337-2356","addr":"경기도 용인시 처인구 김량장동 133-28번지 청한 상가 106호","indutype":"신변잡화 - 액세서리","category":"other"},{"name":"패션짱","tel":"031-335-4815","addr":"경기도 용인시 처인구 김량장동 133-28번지 청한 상가 236호","indutype":"의류 - 정장","category":"other"},{"name":"포곡상회","tel":"031-336-7905","addr":"경기도 용인시 처인구 김량장동 133-28번지","indutype":"의류 - 정장","category":"other"},{"name":"한일","tel":"031-336-1087","addr":"경기도 용인시 처인구 김량장동 133-28번지 청한상가 A동 238호","indutype":"의류 - 정장","category":"other"},{"name":"행복옷집","tel":"031-335-5739","addr":"경기도 용인시 처인구 김량장동 133-28 청한상가에이동207호~208호","indutype":"의류 - 정장","category":"other"}]},{"lat":"37.236855628","long":"127.20718437","imageIndex":17,"items":[{"name":"금수레","tel":"031-321-5974","addr":"경기도 용인시 처인구 김량장동 133-11번지 1층 1호","indutype":"의류 - 정장","category":"other"},{"name":"미인만들기","tel":"031-337-0585","addr":"경기도 용인시 처인구 김량장동 133-11번지","indutype":"회원제형태 - 기타1","category":"other"},{"name":"부부한복","tel":"031-332-1077","addr":"경기도 용인시 처인구 김량장동 133-11번지","indutype":"의류 - 맞춤복점","category":"other"},{"name":"용덕지물포","tel":"031-335-3527","addr":"경기도 용인시 처인구 김량장동 133-11번지","indutype":"직물 - 카페트,커튼,천막,지물","category":"other"}]},{"lat":"37.235303436","long":"127.19792823","imageIndex":17,"items":[{"name":"기쁨사","tel":"031-336-1230","addr":"경기도 용인시 처인구 김량장동 294-25번지","indutype":"의류 - 내의판매","category":"other"}]},{"lat":"37.237216194","long":"127.20709518","imageIndex":17,"items":[{"name":"길패션","tel":"031-323-6038","addr":"경기도 용인시 처인구 김량장동 133-120번지 외 1필지","indutype":"의류 - 정장","category":"other"}]},{"lat":"37.234743823","long":"127.20389938","imageIndex":17,"items":[{"name":"김경설건축사사무소","tel":"031-335-5262","addr":"경기도 용인시 처인구 김량장동 296-55번지","indutype":"용역 서비스 - 법률회계서비스(개인)","category":"other"},{"name":"지이크 파렌하이트","tel":"031-333-7942","addr":"경기도 용인시 처인구 김량장동 296-55번지","indutype":"의류 - 스포츠의류","category":"other"}]},{"lat":"37.233858001","long":"127.20021209","imageIndex":17,"items":[{"name":"김문정 도예 연구소","tel":"031-333-2720","addr":"경기도 용인시 처인구 김량장동 334-19번지","indutype":"문화.취미 - 문화취미기타","category":"other"}]},{"lat":"37.235498326","long":"127.20528749","imageIndex":17,"items":[{"name":"꼼빠니아용인점","tel":"031-335-2332","addr":"경기도 용인시 처인구 김량장동 254-25번지","indutype":"의류 - 정장","category":"other"},{"name":"올리비아하슬러용인점","tel":"031-338-5225","addr":"경기도 용인시 처인구 김량장동 254-25","indutype":"레져용품 - 스포츠·레져용품","category":"other"},{"name":"지오어페럴","tel":"031-338-6515","addr":"경기도 용인시 처인구 김량장동 254-25번지 로엠 용임점","indutype":"의류 - 내의판매","category":"other"}]},{"lat":"37.235631762","long":"127.2062908","imageIndex":17,"items":[{"name":"꽃누르미마을","tel":"031-339-9600","addr":"경기도 용인시 처인구 김량장동 133-61번지","indutype":"문화.취미 - 화원","category":"other"},{"name":"용인문화원","tel":"031-324-9600","addr":"경기도 용인시 처인구 김량장동 133-61","indutype":"기타 - 비영리/비대상","category":"other"},{"name":"용인중앙시장상인회","tel":"031-336-1110","addr":"경기도 용인시 처인구 김량장동 133-61","indutype":"기타 - 비영리/비대상","category":"other"},{"name":"잉글랜드제화","tel":"031-335-9856","addr":"경기도 용인시 처인구 김량장동 133-61번지","indutype":"신변잡화 - 제화","category":"other"},{"name":"프랜드패밀리시장점","tel":"031-322-2852","addr":"경기도 용인시 처인구 김량장동 133-61번지 용인문화원1층","indutype":"유통업 영리 - 편 의 점","category":"other"}]},{"lat":"37.236801333","long":"127.20731945","imageIndex":17,"items":[{"name":"꽃씨","tel":"031-335-9431","addr":"경기도 용인시 처인구 김량장동 133-133번지 1층 3호","indutype":"의류 - 정장","category":"other"},{"name":"씨스페이스착한편의점효","tel":"","addr":"경기도 용인시 처인구 김량장동 133-133번지 1층 일부","indutype":"유통업 영리 - 편 의 점","category":"other"},{"name":"용인D.C클럽","tel":"031-335-2988","addr":"경기도 용인시 처인구 김량장동 133-133번지 1층 4호","indutype":"의류 - 내의판매","category":"other"}]},{"lat":"37.234491439","long":"127.20395505","imageIndex":17,"items":[{"name":"꽃예술원","tel":"031-331-5109","addr":"경기도 용인시 처인구 김량장동 296-9번지","indutype":"문화.취미 - 화원","category":"other"},{"name":"꽃예술원","tel":"031-334-5109","addr":"경기도 용인시 처인구 김량장동 296-9번지","indutype":"문화.취미 - 화원","category":"other"}]},{"lat":"37.235300562","long":"127.2050165","imageIndex":17,"items":[{"name":"날개창고","tel":"031-335-2072","addr":"경기도 용인시 처인구 김량장동 133-91번지 1층","indutype":"의류 - 정장","category":"other"},{"name":"섹시쿠키용인점","tel":"031-338-7778","addr":"경기도 용인시 처인구 김량장동 133-91번지 1층","indutype":"의류 - 내의판매","category":"other"},{"name":"제일사","tel":"031-335-5176","addr":"경기도 용인시 처인구 김량장동 133-91번지","indutype":"용역 서비스 - 종합용역","category":"other"}]},{"lat":"37.235327362","long":"127.2051518","imageIndex":17,"items":[{"name":"남일당","tel":"031-335-3720","addr":"경기도 용인시 처인구 김량장동 133-77번지 남일당","indutype":"건축자재 - 조명기구","category":"other"},{"name":"용인열쇠","tel":"031-335-0331","addr":"경기도 용인시 처인구 김량장동 133-77번지","indutype":"기타 - 기계공구","category":"other"},{"name":"조현덕세무회계","tel":"031-336-0492","addr":"경기도 용인시 처인구 김량장동 133-77번지","indutype":"용역 서비스 - 법률회계서비스(개인)","category":"other"}]},{"lat":"37.236046196","long":"127.20631445","imageIndex":17,"items":[{"name":"남일상회","tel":"031-335-3558","addr":"경기도 용인시 처인구 김량장동 133-221번지","indutype":"의류 - 내의판매","category":"other"},{"name":"패션왕","tel":"031-111-1111","addr":"경기도 용인시 처인구 김량장동 133-221번지 1층","indutype":"의류 - 정장","category":"other"}]},{"lat":"37.233829352","long":"127.20118114","imageIndex":17,"items":[{"name":"노루표페인트","tel":"031-335-2990","addr":"경기도 용인시 처인구 김량장동 383","indutype":"건축자재 - 페인트","category":"other"}]},{"lat":"37.234965562","long":"127.20596221","imageIndex":17,"items":[{"name":"뉴발란스(용인처인구점)","tel":"031-333-6300","addr":"경기도 용인시 처인구 김량장동 301-3번지 (301-3 용인시네마1번가111호~112호)","indutype":"의류 - 정장","category":"other"},{"name":"데코 드 케이스","tel":"031-0000-0000","addr":"경기도 용인시 처인구 김량장동 301-3번지 시네마빌딩 107호 일부","indutype":"신변잡화 - 기타잡화","category":"other"},{"name":"레드카펫","tel":"031-551-4001","addr":"경기도 용인시 처인구 김량장동 301-3 시네마1번지5층롯데시네마","indutype":"신변잡화 - 기타잡화","category":"other"},{"name":"용인법무사사무소","tel":"031-335-4503","addr":"경기도 용인시 처인구 김량장동 301-3번지","indutype":"용역 서비스 - 법률회계서비스(개인)","category":"other"},{"name":"원탑PC cafe","tel":"070-8816-1183","addr":"경기도 용인시 처인구 김량장동 301-3번지 10층 1001,1002호","indutype":"수리서비스 - 사무·통신기기수리","category":"other"},{"name":"캠프VR","tel":"031-9494-3450","addr":"경기도 용인시 처인구 김량장동 301-3번지 외 1필지 시네마일번지 311 ,312,3","indutype":"용역 서비스 - 기타용역서비스","category":"other"},{"name":"토가용인점","tel":"031-000-0000","addr":"경기도 용인시 처인구 김량장동 301-3번지 1202호","indutype":"의류 - 기타의류","category":"other"}]},{"lat":"37.233555114","long":"127.20876437","imageIndex":17,"items":[{"name":"뉴월드결혼정보","tel":"031-338-7087","addr":"경기도 용인시 처인구 김량장동 70-1번지 로데오빌딩 302호","indutype":"용역 서비스 - 혼례서비스","category":"other"},{"name":"연세요양재가센터","tel":"031-337-2128","addr":"경기도 용인시 처인구 김량장동 70-1번지 로데오빌딩 5층","indutype":"기타의료기관 - 기타의료기관 및 기타","category":"other"}]},{"lat":"37.236135343","long":"127.20157034","imageIndex":17,"items":[{"name":"뉴키스타","tel":"031-336-1304","addr":"경기도 용인시 처인구 김량장동 325번지","indutype":"기타 - 기계공구","category":"other"},{"name":"용인 민속품 (생활용품) 경매장","tel":"031-335-8812","addr":"경기도 용인시 처인구 김량장동 325번지","indutype":"문화.취미 - 민예·공예품","category":"other"}]},{"lat":"37.236359361","long":"127.1968829","imageIndex":17,"items":[{"name":"뉴키즈랜드","tel":"070-4098-5482","addr":"경기도 용인시 처인구 김량장동 526번지 김량장동어울림아파트 상가 101호","indutype":"의류 - 정장","category":"other"}]},{"lat":"37.23590984","long":"127.20701278","imageIndex":17,"items":[{"name":"니(NII)용인점","tel":"031-335-2628","addr":"경기도 용인시 처인구 김량장동 133-23번지","indutype":"의류 - 정장","category":"other"},{"name":"베이지","tel":"031-339-4979","addr":"경기도 용인시 처인구 김량장동 133-23번지","indutype":"의류 - 정장","category":"other"},{"name":"하하호호","tel":"031-336-0530","addr":"경기도 용인시 처인구 김량장동 133-23번지 3층","indutype":"서적문구 - 일반서적","category":"other"}]},{"lat":"37.236804586","long":"127.20542621","imageIndex":17,"items":[{"name":"다모아농원","tel":"031-335-4853","addr":"경기도 용인시 처인구 김량장동 254-161번지","indutype":"문화.취미 - 화원","category":"other"}]},{"lat":"37.234942338","long":"127.19834425","imageIndex":17,"items":[{"name":"다은건축사사무소","tel":"031-335-5258","addr":"경기도 용인시 처인구 김량장동 294-28번지","indutype":"용역 서비스 - 법률회계서비스(개인)","category":"other"}]},{"lat":"37.233852409","long":"127.19814987","imageIndex":17,"items":[{"name":"당그니닷컴","tel":"031-322-6110","addr":"경기도 용인시 처인구 김량장동 329-2번지","indutype":"서적문구 - 완구점","category":"other"},{"name":"용인유리","tel":"031-336-6261","addr":"경기도 용인시 처인구 김량장동 329-2번지 나-4","indutype":"건축자재 - 유리","category":"other"},{"name":"이마트24 용인스위트홈점","tel":"031-977-9955","addr":"경기도 용인시 처인구 김량장동 329-2번지 103호","indutype":"유통업 영리 - 편 의 점","category":"other"}]},{"lat":"37.235220084","long":"127.20465567","imageIndex":17,"items":[{"name":"대동상조이벤트","tel":"031-322-2523","addr":"경기도 용인시 처인구 김량장동 254-87번지 중앙빌딩 5층","indutype":"용역 서비스 - 가례서비스업","category":"other"},{"name":"문화라사","tel":"031-335-2333","addr":"경기도 용인시 처인구 김량장동 254-87번지","indutype":"의류 - 맞춤복점","category":"other"},{"name":"용성관광여행사","tel":"031-332-4445","addr":"경기도 용인시 처인구 김량장동 254-87번지 중앙빌딩","indutype":"여행 - 관광여행","category":"other"},{"name":"용인 주짓수 락","tel":"070-5022-4846","addr":"경기도 용인시 처인구 김량장동 254-87번지 중앙빌딩 3층","indutype":"회원제형태 - 레져업소","category":"other"}]},{"lat":"37.227829287","long":"127.21120523","imageIndex":17,"items":[{"name":"대산종합유통","tel":"031-335-5323","addr":"경기도 용인시 처인구 김량장동 6-8,9번지","indutype":"신변잡화 - 기타잡화","category":"other"}]},{"lat":"37.236462724","long":"127.19976811","imageIndex":17,"items":[{"name":"대성상사","tel":"031-334-7704","addr":"경기도 용인시 처인구 김량장동 316-2번지","indutype":"건축자재 - 페인트","category":"other"},{"name":"제일영상","tel":"031-38-2432","addr":"경기도 용인시 처인구 김량장동 316-2번지","indutype":"수리서비스 - 가정용품수리","category":"other"}]},{"lat":"37.229803668","long":"127.21056837","imageIndex":17,"items":[{"name":"대성음향","tel":"031-335-7100","addr":"경기도 용인시 처인구 김량장동 10-4번지","indutype":"전기제품 - 가전제품","category":"other"}]},{"lat":"37.2352718","long":"127.19523482","imageIndex":17,"items":[{"name":"대신엔지니어링","tel":"031-337-0031","addr":"경기도 용인시 처인구 김량장동 292-3번지","indutype":"건축자재 - 보일러·펌프·샷시","category":"other"}]},{"lat":"37.237082804","long":"127.20606931","imageIndex":17,"items":[{"name":"대웅식품","tel":"031-338-6446","addr":"경기도 용인시 처인구 김량장동 133-193번지","indutype":"신변잡화 - 기타잡화","category":"other"},{"name":"용상포장","tel":"031-335-6482","addr":"경기도 용인시 처인구 김량장동 133-193번지","indutype":"유통업 영리 - 기타유통업","category":"other"}]},{"lat":"37.233438019","long":"127.20349023","imageIndex":17,"items":[{"name":"대원건업","tel":"031-336-7765","addr":"경기도 용인시 처인구 김량장동 342-9번지 예원빌라5차 403호","indutype":"건축자재 - 기타건축자재","category":"other"}]},{"lat":"37.232522199","long":"127.20157212","imageIndex":17,"items":[{"name":"대일상사","tel":"031-337-0545","addr":"경기도 용인시 처인구 김량장동 344-5","indutype":"기타 - 기타 전문점","category":"other"},{"name":"신풍세라믹스","tel":"031-336-0242","addr":"경기도 용인시 처인구 김량장동 344-5번지","indutype":"건축자재 - 건축용 요업제품","category":"other"}]},{"lat":"37.234518854","long":"127.19834316","imageIndex":17,"items":[{"name":"더블.디","tel":"031-322-8982","addr":"경기도 용인시 처인구 김량장동 328-3번지 1층","indutype":"사무통신 - 통신기기","category":"other"},{"name":"메가 사미트","tel":"070-5261-4521","addr":"경기도 용인시 처인구 김량장동 328-3번지","indutype":"의류 - 정장","category":"other"},{"name":"삼성토탈오에이","tel":"031-335-0821","addr":"경기도 용인시 처인구 김량장동 328-3번지","indutype":"사무통신 - 사무용 OA기기","category":"other"},{"name":"태양광고기획","tel":"031-335-2982","addr":"경기도 용인시 처인구 김량장동 328-3","indutype":"건축자재 - 목재·석재·철물","category":"other"}]},{"lat":"37.234631965","long":"127.20076629","imageIndex":17,"items":[{"name":"더샵","tel":"","addr":"경기도 용인시 처인구 김량장동 285-1번지 1층","indutype":"의류 - 정장","category":"other"}]},{"lat":"37.2339665","long":"127.199987","imageIndex":17,"items":[{"name":"더테라피","tel":"","addr":"경기도 용인시 처인구 김량장동 334-21번지 지하1층","indutype":"신변잡화 - 기타잡화","category":"other"}]},{"lat":"37.235879407","long":"127.19834667","imageIndex":17,"items":[{"name":"덕성철물","tel":"031-335-5334","addr":"경기도 용인시 처인구 김량장동 314-6","indutype":"건축자재 - 목재·석재·철물","category":"other"},{"name":"이마트24 용인수여공원점","tel":"031-321-8984","addr":"경기도 용인시 처인구 김량장동 314-6번지 102호","indutype":"유통업 영리 - 편 의 점","category":"other"},{"name":"이마트24용인수여공원점","tel":"","addr":"경기도 용인시 처인구 김량장동 314-6번지 102호","indutype":"유통업 영리 - 편 의 점","category":"other"}]},{"lat":"37.235496705","long":"127.20623409","imageIndex":17,"items":[{"name":"데상트","tel":"070-4221-6253","addr":"경기도 용인시 처인구 김량장동 133-62번지","indutype":"의류 - 스포츠의류","category":"other"}]},{"lat":"37.236353435","long":"127.20579689","imageIndex":17,"items":[{"name":"데이지","tel":"031-8097-4279","addr":"경기도 용인시 처인구 김량장동 133-170번지","indutype":"의류 - 정장","category":"other"},{"name":"로데오뷰티샵","tel":"031-336-1114","addr":"경기도 용인시 처인구 김량장동 133-170번지 2층","indutype":"회원제형태 - 기타4","category":"other"},{"name":"모델사진관","tel":"031-335-4697","addr":"경기도 용인시 처인구 김량장동 133-170번지","indutype":"광학제품 - 사진관","category":"other"}]},{"lat":"37.234519692","long":"127.20323391","imageIndex":17,"items":[{"name":"델시가방","tel":"031-321-2395","addr":"경기도 용인시 처인구 김량장동 295-1번지","indutype":"신변잡화 - 가방","category":"other"},{"name":"마리아화원수족관","tel":"031-333-5757","addr":"경기도 용인시 처인구 김량장동 295-1번지","indutype":"문화.취미 - 화원","category":"other"},{"name":"명승건축사사무소","tel":"031-336-4585","addr":"경기도 용인시 처인구 김량장동 295-1번지 위너스프라자 804호","indutype":"건축자재 - 기타건축자재","category":"other"}]},{"lat":"37.236717494","long":"127.19826995","imageIndex":17,"items":[{"name":"도광당","tel":"031-333-0390","addr":"경기도 용인시 처인구 김량장동 314번지 1층","indutype":"신변잡화 - 귀금속","category":"other"}]},{"lat":"37.235888443","long":"127.20896229","imageIndex":17,"items":[{"name":"도매전자","tel":"031-336-6016","addr":"경기도 용인시 처인구 김량장동 119-2번지","indutype":"전기제품 - 기타전기제품","category":"other"}]},{"lat":"37.237468521","long":"127.20707333","imageIndex":17,"items":[{"name":"독립문표용인쎈타","tel":"031-2-3396","addr":"경기도 용인시 처인구 김량장동 133-4번지","indutype":"의류 - 내의판매","category":"other"}]},{"lat":"37.237159285","long":"127.20348882","imageIndex":17,"items":[{"name":"동부부동산","tel":"031-338-8080","addr":"경기도 용인시 처인구 김량장동 229-31번지","indutype":"용역 서비스 - 부동산 중개·임대","category":"other"},{"name":"벽지촌인테리어","tel":"031-321-7869","addr":"경기도 용인시 처인구 김량장동 229-31번지 이영빌딩 1층","indutype":"건축자재 - 인테리어전문","category":"other"},{"name":"전자담배 멀티프라자","tel":"031-322-5078","addr":"경기도 용인시 처인구 김량장동 229-31번지","indutype":"기타 - 기타 전문점","category":"other"},{"name":"중앙인쇄사","tel":"031-338-8080","addr":"경기도 용인시 처인구 김량장동 229-31번지","indutype":"서적문구 - 출판 및 인쇄물","category":"other"}]},{"lat":"37.234914245","long":"127.19898652","imageIndex":17,"items":[{"name":"동성보일러(용인대)","tel":"031-221-4040","addr":"경기도 용인시 처인구 김량장동 294-13번지","indutype":"건축자재 - 보일러·펌프·샷시","category":"other"},{"name":"안성철물","tel":"031-335-3165","addr":"경기도 용인시 처인구 김량장동 294-13번지","indutype":"기타 - 기계공구","category":"other"}]},{"lat":"37.234937466","long":"127.19581997","imageIndex":17,"items":[{"name":"동신목재상사","tel":"031-335-6311","addr":"경기도 용인시 처인구 김량장동 293-22번지","indutype":"건축자재 - 기타건축자재","category":"other"},{"name":"동신종합인테리어","tel":"031-336-6704","addr":"경기도 용인시 처인구 김량장동 293-22번지","indutype":"건축자재 - 인테리어전문","category":"other"},{"name":"용인동아헬스기구","tel":"031-337-0086","addr":"경기도 용인시 처인구 김량장동 293-22번지","indutype":"레져용품 - 스포츠·레져용품","category":"other"}]},{"lat":"37.233241867","long":"127.20226141","imageIndex":17,"items":[{"name":"동아인쇄사","tel":"031-335-3258","addr":"경기도 용인시 처인구 김량장동 337-6번지","indutype":"서적문구 - 출판 및 인쇄물","category":"other"},{"name":"진성토목측량설계공사","tel":"031-333-3355","addr":"경기도 용인시 처인구 김량장동 337-6번지","indutype":"용역 서비스 - 법률회계서비스(개인)","category":"other"},{"name":"효성전기","tel":"031-338-1304","addr":"경기도 용인시 처인구 김량장동 337-6번지","indutype":"전기제품 - 기타전기제품","category":"other"}]},{"lat":"37.231941822","long":"127.20901916","imageIndex":17,"items":[{"name":"동진모타","tel":"031-336-4041","addr":"경기도 용인시 처인구 김량장동 40-9번지","indutype":"건축자재 - 보일러·펌프·샷시","category":"other"}]},{"lat":"37.236046525","long":"127.20612287","imageIndex":17,"items":[{"name":"두번째청춘","tel":"","addr":"경기도 용인시 처인구 김량장동 133-56번지 1층","indutype":"의류 - 정장","category":"other"},{"name":"앤","tel":"031-336-7577","addr":"경기도 용인시 처인구 김량장동 133-56번지","indutype":"의류 - 정장","category":"other"}]},{"lat":"37.234186312","long":"127.20323303","imageIndex":17,"items":[{"name":"디엠건축설계사무소","tel":"031-321-1135","addr":"경기도 용인시 처인구 김량장동 340-2번지 글로하임 801호","indutype":"용역 서비스 - 사무서비스","category":"other"}]},{"lat":"37.237104987","long":"127.20887545","imageIndex":17,"items":[{"name":"디올까피","tel":"031-323-0995","addr":"경기도 용인시 처인구 김량장동 142-21번지","indutype":"의류 - 정장","category":"other"},{"name":"용인불교사","tel":"031-333-1993","addr":"경기도 용인시 처인구 김량장동 142-21번지","indutype":"문화.취미 - 문화취미기타","category":"other"}]},{"lat":"37.235551771","long":"127.20564824","imageIndex":17,"items":[{"name":"디팍스 용인점","tel":"031-328-8661","addr":"경기도 용인시 처인구 김량장동 133-66번지","indutype":"신변잡화 - 액세서리","category":"other"}]},{"lat":"37.235969882","long":"127.19812152","imageIndex":17,"items":[{"name":"라블레","tel":"031-336-4333","addr":"경기도 용인시 처인구 김량장동 314-8번지","indutype":"문화.취미 - 화원","category":"other"},{"name":"메세지","tel":"031-335-7161","addr":"경기도 용인시 처인구 김량장동 314-8번지 1층","indutype":"의류 - 정장","category":"other"}]},{"lat":"37.237081422","long":"127.20157282","imageIndex":17,"items":[{"name":"라온바이크","tel":"031-321-6623","addr":"경기도 용인시 처인구 김량장동 218-4번지","indutype":"레져용품 - 스포츠·레져용품","category":"other"}]},{"lat":"37.231021083","long":"127.20998575","imageIndex":17,"items":[{"name":"라이프 아울렛","tel":"031-274-5698","addr":"경기도 용인시 처인구 김량장동 12-2번지 해양씨티빌딩","indutype":"의류 - 기타의류","category":"other"},{"name":"칠성제화 (용인점)","tel":"031-323-1245","addr":"경기도 용인시 처인구 김량장동 12-2번지 A동 106호~107호","indutype":"신변잡화 - 제화","category":"other"}]},{"lat":"37.235826194","long":"127.20848882","imageIndex":17,"items":[{"name":"라포토 스튜디오","tel":"031-336-3306","addr":"경기도 용인시 처인구 김량장동 116-6","indutype":"광학제품 - 사진관","category":"other"}]},{"lat":"37.235691098","long":"127.20845464","imageIndex":17,"items":[{"name":"럭키정보","tel":"031-321-7446","addr":"경기도 용인시 처인구 김량장동 115-3번지","indutype":"유통업 영리 - 기타유통업","category":"other"},{"name":"씨씨방","tel":"031-336-0513","addr":"경기도 용인시 처인구 김량장동 115-3번지","indutype":"레져용품 - 음반/영상물","category":"other"}]},{"lat":"37.234939245","long":"127.20554518","imageIndex":17,"items":[{"name":"레드아이용인점","tel":"070-4146-8778","addr":"경기도 용인시 처인구 김량장동 300-9 시네마빌딩107호 후면일부","indutype":"신변잡화 - 액세서리","category":"other"},{"name":"레드아이용인점","tel":"031-334-5577","addr":"경기도 용인시 처인구 김량장동 300-9 시네마빌딩107호후면일부","indutype":"신변잡화 - 기타잡화","category":"other"},{"name":"용인시네마일번가관리단대표회의","tel":"031-332-0936","addr":"경기도 용인시 처인구 김량장동 300-9, 301-3","indutype":"용역 서비스 - 사무서비스","category":"other"},{"name":"잠뱅이용인점","tel":"031-338-5992","addr":"경기도 용인시 처인구 김량장동 300-9번지","indutype":"의류 - 정장","category":"other"}]},{"lat":"37.236188731","long":"127.20726145","imageIndex":17,"items":[{"name":"로벨리아","tel":"031-336-1459","addr":"경기도 용인시 처인구 김량장동 133-142번지","indutype":"신변잡화 - 신발","category":"other"},{"name":"마린","tel":"031-322-4979","addr":"경기도 용인시 처인구 김량장동 133-142번지","indutype":"의류 - 정장","category":"other"},{"name":"비비","tel":"031-335-6180","addr":"경기도 용인시 처인구 김량장동 133-142번지 B-101호청한상가","indutype":"의류 - 정장","category":"other"},{"name":"성주상회","tel":"031-332-2279","addr":"경기도 용인시 처인구 김량장동 133-142번지","indutype":"의류 - 내의판매","category":"other"}]},{"lat":"37.234943025","long":"127.1979273","imageIndex":17,"items":[{"name":"로얄애견","tel":"031-336-2292","addr":"경기도 용인시 처인구 김량장동 294-20번지","indutype":"문화.취미 - 애완동물","category":"other"},{"name":"루나엘","tel":"","addr":"경기도 용인시 처인구 김량장동 294-20번지 1층 2호","indutype":"의류 - 정장","category":"other"},{"name":"보금당","tel":"031-335-7195","addr":"경기도 용인시 처인구 김량장동 294-20번지","indutype":"신변잡화 - 시계","category":"other"}]},{"lat":"37.235386232","long":"127.20759736","imageIndex":17,"items":[{"name":"로이드용인점","tel":"031-338-0534","addr":"경기도 용인시 처인구 김량장동 93번지","indutype":"신변잡화 - 시계","category":"other"},{"name":"무브먼트","tel":"","addr":"경기도 용인시 처인구 김량장동 93번지","indutype":"의류 - 정장","category":"other"},{"name":"블루페페","tel":"031-339-7630","addr":"경기도 용인시 처인구 김량장동 93번지","indutype":"의류 - 스포츠의류","category":"other"},{"name":"스마트학생복(용인)","tel":"031-332-2116","addr":"경기도 용인시 처인구 김량장동 93번지","indutype":"의류 - 맞춤복점","category":"other"},{"name":"용인스마트학생복","tel":"031-332-2116","addr":"경기도 용인시 처인구 김량장동 93번지","indutype":"의류 - 단체복","category":"other"},{"name":"쥬피턴오페라수제화","tel":"","addr":"경기도 용인시 처인구 김량장동 93번지 1층","indutype":"신변잡화 - 신발","category":"other"},{"name":"플립(FLIPPED)","tel":"","addr":"경기도 용인시 처인구 김량장동 93번지","indutype":"의류 - 정장","category":"other"}]},{"lat":"37.235721342","long":"127.20659531","imageIndex":17,"items":[{"name":"리디아(LYDIA)","tel":"031-334-5441","addr":"경기도 용인시 처인구 김량장동 133-212번지","indutype":"의류 - 정장","category":"other"},{"name":"에스더숙녀복","tel":"031-321-2409","addr":"경기도 용인시 처인구 김량장동 133-212번지","indutype":"의류 - 정장","category":"other"}]},{"lat":"37.236407941","long":"127.20553784","imageIndex":17,"items":[{"name":"리리끄","tel":"031-335-4790","addr":"경기도 용인시 처인구 김량장동 133-69번지 1층","indutype":"의류 - 정장","category":"other"}]},{"lat":"37.236135059","long":"127.20173937","imageIndex":17,"items":[{"name":"리빙하우스","tel":"031-338-6065","addr":"경기도 용인시 처인구 김량장동 325-6번지","indutype":"신변잡화 - 기타잡화","category":"other"}]},{"lat":"37.23432962","long":"127.19835394","imageIndex":17,"items":[{"name":"리치피플T24김량장점","tel":"031-339-8426","addr":"경기도 용인시 처인구 김량장동 328-4번지 1층","indutype":"유통업 영리 - 편 의 점","category":"other"}]},{"lat":"37.234966361","long":"127.20015863","imageIndex":17,"items":[{"name":"마루에너지","tel":"02-6340-5385","addr":"경기도 용인시 처인구 김량장동 323-8번지","indutype":"건축자재 - 보일러·펌프·샷시","category":"other"},{"name":"폰닥터","tel":"031-334-6672","addr":"경기도 용인시 처인구 김량장동 323-8번지","indutype":"수리서비스 - 사무·통신기기수리","category":"other"}]},{"lat":"37.235831186","long":"127.20559264","imageIndex":17,"items":[{"name":"마코용인중앙점","tel":"031-323-2118","addr":"경기도 용인시 처인구 김량장동 133-135번지 1층","indutype":"레져용품 - 스포츠·레져용품","category":"other"}]},{"lat":"37.232608232","long":"127.20398386","imageIndex":17,"items":[{"name":"만능설비","tel":"031-322-2386","addr":"경기도 용인시 처인구 김량장동 343-13번지 103호","indutype":"용역 서비스 - 기타용역서비스","category":"other"},{"name":"만능인테리어","tel":"031-334-2885","addr":"경기도 용인시 처인구 김량장동 343-13번지","indutype":"건축자재 - 인테리어전문","category":"other"},{"name":"용인간판현수막","tel":"031-322-8244","addr":"경기도 용인시 처인구 김량장동 343-13번지 104호","indutype":"용역 서비스 - 종합용역","category":"other"}]},{"lat":"37.237053912","long":"127.20715109","imageIndex":17,"items":[{"name":"만복상회","tel":"031-335-3100","addr":"경기도 용인시 처인구 김량장동 133-10번지","indutype":"주방용구 - 주방용식기","category":"other"},{"name":"중앙한복","tel":"031-335-3726","addr":"경기도 용인시 처인구 김량장동 133-10번지","indutype":"의류 - 맞춤복점","category":"other"},{"name":"피플휘트니스","tel":"031-333-4561","addr":"경기도 용인시 처인구 김량장동 133-10번지 외1필지","indutype":"회원제형태 - 레져업소","category":"other"}]},{"lat":"37.236990581","long":"127.20201209","imageIndex":17,"items":[{"name":"맘미맘스","tel":"031-323-3510","addr":"경기도 용인시 처인구 김량장동 220번지 3층, 4층","indutype":"기타의료기관 - 산후조리원","category":"other"},{"name":"맘스맘용인점","tel":"031-336-2277","addr":"경기도 용인시 처인구 김량장동 220번지 연세미즈산부인과","indutype":"레져용품 - 스포츠·레져용품","category":"other"},{"name":"연세미즈산부인과&산후조리원","tel":"031-321-7227","addr":"경기도 용인시 처인구 김량장동 220번지 4층","indutype":"기타의료기관 - 산후조리원","category":"other"},{"name":"용인미즈산후조리원","tel":"031-323-3510","addr":"경기도 용인시 처인구 김량장동 220번지","indutype":"기타의료기관 - 산후조리원","category":"other"}]},{"lat":"37.234637987","long":"127.20254681","imageIndex":17,"items":[{"name":"메리퀸","tel":"031-336-4529","addr":"경기도 용인시 처인구 김량장동 295-2번지","indutype":"직물 - 침구·수예점","category":"other"},{"name":"신화수","tel":"031-323-6016","addr":"경기도 용인시 처인구 김량장동 295-2번지 우먼로드 503호","indutype":"유통업 영리 - 기타유통업","category":"other"}]},{"lat":"37.23652215","long":"127.20723981","imageIndex":17,"items":[{"name":"명동의류","tel":"031-000-0000","addr":"경기도 용인시 처인구 김량장동 133-83번지","indutype":"의류 - 정장","category":"other"}]},{"lat":"37.235547215","long":"127.19762459","imageIndex":17,"items":[{"name":"명성전기","tel":"031-332-1304","addr":"경기도 용인시 처인구 김량장동 293-11번지","indutype":"건축자재 - 조명기구","category":"other"},{"name":"종합건축사사무소예인","tel":"031-337-3339","addr":"경기도 용인시 처인구 김량장동 293-11번지","indutype":"용역 서비스 - 사무서비스","category":"other"}]},{"lat":"37.235189968","long":"127.20645865","imageIndex":17,"items":[{"name":"명신유통","tel":"031-336-7978","addr":"경기도 용인시 처인구 김량장동 90-2번지 덕윤빌딩 1층 4호","indutype":"의류 - 스포츠의류","category":"other"},{"name":"블루","tel":"070-4032-2037","addr":"경기도 용인시 처인구 김량장동 90-2번지 덕윤빌딩","indutype":"의류 - 정장","category":"other"},{"name":"행텐","tel":"031-321-1034","addr":"경기도 용인시 처인구 김량장동 90-2번지","indutype":"의류 - 스포츠의류","category":"other"}]},{"lat":"37.23019251","long":"127.20976938","imageIndex":17,"items":[{"name":"명진볼트","tel":"031-333-2208","addr":"경기도 용인시 처인구 김량장동 31-9번지","indutype":"기타 - 기계공구","category":"other"},{"name":"축구스타","tel":"031-337-0913","addr":"경기도 용인시 처인구 김량장동 31-9번지","indutype":"레져용품 - 스포츠·레져용품","category":"other"}]},{"lat":"37.237249064","long":"127.20368064","imageIndex":17,"items":[{"name":"명진전기","tel":"031-333-1832","addr":"경기도 용인시 처인구 김량장동 231-3번지","indutype":"전기제품 - 기타전기제품","category":"other"},{"name":"충남철물","tel":"031-335-7201","addr":"경기도 용인시 처인구 김량장동 231-3번지","indutype":"건축자재 - 목재·석재·철물","category":"other"}]},{"lat":"37.238971289","long":"127.20820435","imageIndex":17,"items":[{"name":"모아상사","tel":"031-285-1992","addr":"경기도 용인시 처인구 김량장동 168번지","indutype":"서적문구 - 과학기자재","category":"other"}]},{"lat":"37.235747033","long":"127.20737295","imageIndex":17,"items":[{"name":"못된고양이","tel":"","addr":"경기도 용인시 처인구 김량장동 130-5번지","indutype":"신변잡화 - 액세서리","category":"other"},{"name":"용인김량장 작심스페이스","tel":"031-333-1713","addr":"경기도 용인시 처인구 김량장동 130-5번지","indutype":"용역 서비스 - 사무서비스","category":"other"},{"name":"폴햄(POLHAM)","tel":"031-338-9296","addr":"경기도 용인시 처인구 김량장동 130-5번지","indutype":"의류 - 아동의류","category":"other"},{"name":"한성통신","tel":"031-335-4607","addr":"경기도 용인시 처인구 김량장동 130-5번지","indutype":"사무통신 - 통신기기","category":"other"}]},{"lat":"37.236828033","long":"127.2075111","imageIndex":17,"items":[{"name":"미경이네쌈지","tel":"031-338-5440","addr":"경기도 용인시 처인구 김량장동 133-12번지","indutype":"의류 - 정장","category":"other"},{"name":"에덴화원","tel":"031-335-4963","addr":"경기도 용인시 처인구 김량장동 133-12번지","indutype":"문화.취미 - 화원","category":"other"}]},{"lat":"37.235630424","long":"127.20706837","imageIndex":17,"items":[{"name":"미니골드","tel":"031-339-2222","addr":"경기도 용인시 처인구 김량장동 131-14번지","indutype":"신변잡화 - 액세서리","category":"other"},{"name":"탑스텔레콤","tel":"031-338-8010","addr":"경기도 용인시 처인구 김량장동 131-14번지","indutype":"사무통신 - 통신기기","category":"other"}]},{"lat":"37.235018898","long":"127.20107157","imageIndex":17,"items":[{"name":"미니스톱용인센터점","tel":"031-1577-9621","addr":"경기도 용인시 처인구 김량장동 254-158번지 용인유메이드 107~108호","indutype":"유통업 영리 - 편 의 점","category":"other"},{"name":"원#","tel":"031-8097-4075","addr":"경기도 용인시 처인구 김량장동 254-158번지 105호","indutype":"의류 - 정장","category":"other"}]},{"lat":"37.23019111","long":"127.21056943","imageIndex":17,"items":[{"name":"미르인테리어","tel":"031-336-7224","addr":"경기도 용인시 처인구 김량장동 12-15번지 남곡빌딩 201호","indutype":"건축자재 - 인테리어전문","category":"other"},{"name":"창마루커텐","tel":"031-335-1979","addr":"경기도 용인시 처인구 김량장동 12-15번지 남곡빌딩 102호","indutype":"직물 - 카페트,커튼,천막,지물","category":"other"},{"name":"한복대여아름방(용인점)","tel":"031-335-3381","addr":"경기도 용인시 처인구 김량장동 12-15번지","indutype":"의류 - 맞춤복점","category":"other"}]},{"lat":"37.23371871","long":"127.20267961","imageIndex":17,"items":[{"name":"미륵정토사","tel":"031-339-1475","addr":"경기도 용인시 처인구 김량장동 341-2번지 3층","indutype":"신변잡화 - 기념품점","category":"other"},{"name":"백두건축사사무소","tel":"031-321-3745","addr":"경기도 용인시 처인구 김량장동 341-2번지 1층","indutype":"용역 서비스 - 사무서비스","category":"other"},{"name":"태림토목측량설계","tel":"031-339-9580","addr":"경기도 용인시 처인구 김량장동 341-2번지","indutype":"용역 서비스 - 사무서비스","category":"other"}]},{"lat":"37.234942561","long":"127.19820902","imageIndex":17,"items":[{"name":"미미화원","tel":"031-335-2942","addr":"경기도 용인시 처인구 김량장동 294-18번지","indutype":"문화.취미 - 화원","category":"other"}]},{"lat":"37.235603879","long":"127.20678657","imageIndex":17,"items":[{"name":"미스터싹스리","tel":"031-321-3184","addr":"경기도 용인시 처인구 김량장동 132-4번지","indutype":"신변잡화 - 신발","category":"other"}]},{"lat":"37.236046989","long":"127.20585241","imageIndex":17,"items":[{"name":"미싱도로시(용인점)","tel":"031-321-4425","addr":"경기도 용인시 처인구 김량장동 133-122번지","indutype":"의류 - 내의판매","category":"other"},{"name":"예쁨주의","tel":"031-334-3263","addr":"경기도 용인시 처인구 김량장동 133-122번지 1층","indutype":"신변잡화 - 액세서리","category":"other"},{"name":"탑플레이스(Top place)","tel":"031-333-4050","addr":"경기도 용인시 처인구 김량장동 133-122번지 지하","indutype":"의류 - 정장","category":"other"}]},{"lat":"37.236549764","long":"127.20690181","imageIndex":17,"items":[{"name":"밀레니움","tel":"031-321-3477","addr":"경기도 용인시 처인구 김량장동 133-166번지","indutype":"신변잡화 - 가방","category":"other"},{"name":"상회(유림상회)","tel":"031-338-9593","addr":"경기도 용인시 처인구 김량장동 133-166번지","indutype":"신변잡화 - 기타잡화","category":"other"},{"name":"슈즈뱅크","tel":"031-322-3651","addr":"경기도 용인시 처인구 김량장동 133-166번지","indutype":"신변잡화 - 신발","category":"other"}]},{"lat":"37.236775118","long":"127.20684607","imageIndex":17,"items":[{"name":"바늘과실뭉치","tel":"031-335-4245","addr":"경기도 용인시 처인구 김량장동 133-36번지","indutype":"직물 - 침구·수예점","category":"other"},{"name":"브리앙뜨","tel":"031-111-1111","addr":"경기도 용인시 처인구 김량장동 133-36번지","indutype":"의류 - 정장","category":"other"},{"name":"새댁양품","tel":"031-332-1748","addr":"경기도 용인시 처인구 김량장동 133-36번지","indutype":"의류 - 정장","category":"other"},{"name":"선경침구","tel":"031-335-4746","addr":"경기도 용인시 처인구 김량장동 133-36번지","indutype":"직물 - 침구·수예점","category":"other"},{"name":"수지패션","tel":"031-332-0963","addr":"경기도 용인시 처인구 김량장동 133-36번지","indutype":"의류 - 정장","category":"other"},{"name":"제이에스패션","tel":"","addr":"경기도 용인시 처인구 김량장동 133-36번지 110호","indutype":"의류 - 내의판매","category":"other"},{"name":"중앙인테리어","tel":"031-332-1534","addr":"경기도 용인시 처인구 김량장동 133-36번지 백화상가빌딩 1층 5호","indutype":"직물 - 카페트,커튼,천막,지물","category":"other"}]},{"lat":"37.229774258","long":"127.21192048","imageIndex":17,"items":[{"name":"바둑토피아","tel":"031-336-4695","addr":"경기도 용인시 처인구 김량장동 4-2번지 현대아파트","indutype":"서적문구 - 출판 및 인쇄물","category":"other"}]},{"lat":"37.231550258","long":"127.21137323","imageIndex":17,"items":[{"name":"바이더웨이다보스병원점","tel":"02-2164-7239","addr":"경기도 용인시 처인구 김량장동 18-4","indutype":"유통업 영리 - 편 의 점","category":"other"},{"name":"세븐일레븐다보스병원점","tel":"","addr":"경기도 용인시 처인구 김량장동 18-4","indutype":"유통업 영리 - 편 의 점","category":"other"}]},{"lat":"37.235802822","long":"127.20637014","imageIndex":17,"items":[{"name":"바이올렛","tel":"031-336-2212","addr":"경기도 용인시 처인구 김량장동 133-230번지","indutype":"의류 - 정장","category":"other"},{"name":"지지베","tel":"070-8286-8950","addr":"경기도 용인시 처인구 김량장동 133-230번지","indutype":"의류 - 정장","category":"other"}]},{"lat":"37.235747655","long":"127.20701234","imageIndex":17,"items":[{"name":"백양상회","tel":"031-336-6621","addr":"경기도 용인시 처인구 김량장동 131-4번지","indutype":"의류 - 내의판매","category":"other"},{"name":"백양상회","tel":"031-336-6623","addr":"경기도 용인시 처인구 김량장동 131-4번지","indutype":"의류 - 내의판매","category":"other"}]},{"lat":"37.230859913","long":"127.19879572","imageIndex":17,"items":[{"name":"법무부법사랑위원처인지구협의회","tel":"031-324-5225","addr":"경기도 용인시 처인구 김량장동 355 처인구청1층범죄예방사무실","indutype":"기타 - 비영리/대상","category":"other"}]},{"lat":"37.23540732","long":"127.20048659","imageIndex":17,"items":[{"name":"법무사박동근사무소","tel":"031-322-5670","addr":"경기도 용인시 처인구 김량장동 321-6번지 3층","indutype":"용역 서비스 - 법률회계서비스(개인)","category":"other"}]},{"lat":"37.234936597","long":"127.20179257","imageIndex":17,"items":[{"name":"법무사윤봉주사무소","tel":"031-339-5577","addr":"경기도 용인시 처인구 김량장동 254-291번지","indutype":"용역 서비스 - 법률회계서비스(개인)","category":"other"}]},{"lat":"37.234936275","long":"127.20198415","imageIndex":17,"items":[{"name":"법무사이용구사무소","tel":"031-339-9988","addr":"경기도 용인시 처인구 김량장동 254-243번지","indutype":"용역 서비스 - 법률회계서비스(개인)","category":"other"},{"name":"소다DFD","tel":"031-336-9935","addr":"경기도 용인시 처인구 김량장동 254-243번지","indutype":"레져용품 - 스포츠·레져용품","category":"other"},{"name":"아이삭(ISSAC)","tel":"031-111-1111","addr":"경기도 용인시 처인구 김량장동 254-243번지","indutype":"신변잡화 - 제화","category":"other"},{"name":"우진건축사사무소","tel":"031-336-5871","addr":"경기도 용인시 처인구 김량장동 254-243번지","indutype":"용역 서비스 - 법률회계서비스(개인)","category":"other"},{"name":"이레사","tel":"031-332-9836","addr":"경기도 용인시 처인구 김량장동 254-243번지","indutype":"서적문구 - 출판 및 인쇄물","category":"other"}]},{"lat":"37.235024211","long":"127.20326905","imageIndex":17,"items":[{"name":"법무사정준성사무소","tel":"031-335-2409","addr":"경기도 용인시 처인구 김량장동 254-327.2층","indutype":"용역 서비스 - 법률회계서비스(개인)","category":"other"}]},{"lat":"37.234606793","long":"127.19965059","imageIndex":17,"items":[{"name":"법무사조동희사무소","tel":"031-334-6336","addr":"경기도 용인시 처인구 김량장동 333-23번지","indutype":"용역 서비스 - 법률회계서비스(개인)","category":"other"},{"name":"신도중앙OA","tel":"031-335-9349","addr":"경기도 용인시 처인구 김량장동 333-23번지","indutype":"사무통신 - 사무용 OA기기","category":"other"},{"name":"용인종합피아노","tel":"031-321-2166","addr":"경기도 용인시 처인구 김량장동 333-23번지","indutype":"수리서비스 - 가정용품수리","category":"other"}]},{"lat":"37.236581297","long":"127.19890068","imageIndex":17,"items":[{"name":"베비슈","tel":"031-731-9709","addr":"경기도 용인시 처인구 김량장동 316-17번지 1층","indutype":"의류 - 아동의류","category":"other"}]},{"lat":"37.235803576","long":"127.20593065","imageIndex":17,"items":[{"name":"보디가드용인점","tel":"031-335-9079","addr":"경기도 용인시 처인구 김량장동 133-58번지","indutype":"의류 - 내의판매","category":"other"},{"name":"오지다","tel":"031-111-1111","addr":"경기도 용인시 처인구 김량장동 133-58번지 한성빌딩 1층","indutype":"의류 - 정장","category":"other"},{"name":"용인마리오","tel":"031-338-7337","addr":"경기도 용인시 처인구 김량장동 133-58번지 한성빌딩","indutype":"의류 - 정장","category":"other"},{"name":"주식회사 이삼콜라처인3","tel":"070-5107-1431","addr":"경기도 용인시 처인구 김량장동 133-58번지 한성빌딩 1층 3호","indutype":"의류 - 정장","category":"other"}]},{"lat":"37.237383548","long":"127.20407543","imageIndex":17,"items":[{"name":"부흥보일러","tel":"031-332-2717","addr":"경기도 용인시 처인구 김량장동 229-13","indutype":"용역 서비스 - 기타용역서비스","category":"other"},{"name":"신,종합타일","tel":"031-335-0414","addr":"경기도 용인시 처인구 김량장동 229-13번지","indutype":"건축자재 - 건축용 요업제품","category":"other"},{"name":"용인천막공업주식회사","tel":"031-335-3173","addr":"경기도 용인시 처인구 김량장동 229-13,1층","indutype":"건축자재 - 기타건축자재","category":"other"}]},{"lat":"37.236384009","long":"127.20896364","imageIndex":17,"items":[{"name":"블랙야크 용인처인점","tel":"031-337-0373","addr":"경기도 용인시 처인구 김량장동 121-1번지 1층","indutype":"레져용품 - 스포츠·레져용품","category":"other"}]},{"lat":"37.236298097","long":"127.20654051","imageIndex":17,"items":[{"name":"블랙진","tel":"031-336-9167","addr":"경기도 용인시 처인구 김량장동 133-137번지","indutype":"의류 - 정장","category":"other"}]},{"lat":"37.236019301","long":"127.20623549","imageIndex":17,"items":[{"name":"블루","tel":"","addr":"경기도 용인시 처인구 김량장동 133-162번지","indutype":"의류 - 아동의류","category":"other"},{"name":"연여성복의류","tel":"070-7517-7932","addr":"경기도 용인시 처인구 김량장동 133-162번지","indutype":"의류 - 정장","category":"other"},{"name":"편하고 예뻐요","tel":"031-336-6186","addr":"경기도 용인시 처인구 김량장동 133-162번지","indutype":"의류 - 내의판매","category":"other"}]},{"lat":"37.23455047","long":"127.2063217","imageIndex":17,"items":[{"name":"비반코리아(vivan korea)","tel":"070-8172-6959","addr":"경기도 용인시 처인구 김량장동 87-20 2층","indutype":"의류 - 맞춤복점","category":"other"}]},{"lat":"37.235216805","long":"127.20657141","imageIndex":17,"items":[{"name":"비쥬얼통신","tel":"031-338-6481","addr":"경기도 용인시 처인구 김량장동 90-5번지","indutype":"사무통신 - 통신기기","category":"other"}]},{"lat":"37.234185511","long":"127.19831976","imageIndex":17,"items":[{"name":"비즈컴","tel":"031-339-0626","addr":"경기도 용인시 처인구 김량장동 328-5번지 진흥 상가 102호","indutype":"사무통신 - 통신기기","category":"other"}]},{"lat":"37.236662613","long":"127.19876566","imageIndex":17,"items":[{"name":"사계절중고가전","tel":"031-333-8481","addr":"경기도 용인시 처인구 김량장동 316번지","indutype":"가구 - 일반가구","category":"other"}]},{"lat":"37.235186896","long":"127.19756731","imageIndex":17,"items":[{"name":"사과나무","tel":"","addr":"경기도 용인시 처인구 김량장동 293-14번지","indutype":"의류 - 정장","category":"other"}]},{"lat":"37.234074942","long":"127.19979571","imageIndex":17,"items":[{"name":"사람과컴퓨터","tel":"031-335-4452","addr":"경기도 용인시 처인구 김량장동 330-10번지","indutype":"사무통신 - 컴퓨터","category":"other"}]},{"lat":"37.234743479","long":"127.20410222","imageIndex":17,"items":[{"name":"사품","tel":"","addr":"경기도 용인시 처인구 김량장동 296-28번지 2층","indutype":"광학제품 - 사진관","category":"other"},{"name":"주식회사투플러스","tel":"031-339-2800","addr":"경기도 용인시 처인구 김량장동 296-28번지 민성빌딩 3층","indutype":"회원제형태 - 기타4","category":"other"}]},{"lat":"37.232582614","long":"127.2031499","imageIndex":17,"items":[{"name":"삼마건축사사무소","tel":"031-338-4336","addr":"경기도 용인시 처인구 김량장동 343-5번지","indutype":"용역 서비스 - 법률회계서비스(개인)","category":"other"},{"name":"홈가이드","tel":"031-336-3209","addr":"경기도 용인시 처인구 김량장동 343-5번지 외1필지","indutype":"직물 - 침구·수예점","category":"other"}]},{"lat":"37.239219786","long":"127.21038007","imageIndex":17,"items":[{"name":"삼성광고","tel":"031-321-5009","addr":"경기도 용인시 처인구 김량장동 175-8번지","indutype":"용역 서비스 - 종합용역","category":"other"},{"name":"예성광고기획","tel":"031-321-7383","addr":"경기도 용인시 처인구 김량장동 175-8번지","indutype":"용역 서비스 - 종합용역","category":"other"},{"name":"중원건재","tel":"031-335-3632","addr":"경기도 용인시 처인구 김량장동 175-8번지","indutype":"건축자재 - 기타건축자재","category":"other"}]},{"lat":"37.234995561","long":"127.1988515","imageIndex":17,"items":[{"name":"삼정종합상사","tel":"031-335-4424","addr":"경기도 용인시 처인구 김량장동 294-14번지","indutype":"기타 - 기계공구","category":"other"},{"name":"주식회사 삼정종합상사","tel":"031-335-4424","addr":"경기도 용인시 처인구 김량장동 294-14번지","indutype":"기타 - 기계공구","category":"other"}]},{"lat":"37.236526638","long":"127.19926115","imageIndex":17,"items":[{"name":"상일리베가구백화점동양사무가구","tel":"031-335-8936","addr":"경기도 용인시 처인구 김량장동 316-1번지","indutype":"가구 - 일반가구","category":"other"},{"name":"오피스디포용인점","tel":"031-338-2772","addr":"경기도 용인시 처인구 김량장동 316-1번지","indutype":"서적문구 - 문구용품","category":"other"},{"name":"용인교육사","tel":"031-335-5848","addr":"경기도 용인시 처인구 김량장동 316-1번지","indutype":"서적문구 - 전문서적","category":"other"}]},{"lat":"37.236469428","long":"127.20646209","imageIndex":17,"items":[{"name":"서윤패션","tel":"031-334-6822","addr":"경기도 용인시 처인구 김량장동 133-213번지 1층","indutype":"의류 - 정장","category":"other"},{"name":"현대수산","tel":"031-335-7978","addr":"경기도 용인시 처인구 김량장동 133-213","indutype":"회원제형태 - 기타1","category":"other"}]},{"lat":"37.235774099","long":"127.20206523","imageIndex":17,"items":[{"name":"서희공인중개사 사무소","tel":"031-333-7080","addr":"경기도 용인시 처인구 김량장동 325-10번지 1층 108호","indutype":"용역 서비스 - 부동산 중개·임대","category":"other"},{"name":"아르페지오","tel":"031-336-2415","addr":"경기도 용인시 처인구 김량장동 325-10번지 1층","indutype":"직물 - 카페트,커튼,천막,지물","category":"other"},{"name":"용인백조씽크","tel":"031-338-6497","addr":"경기도 용인시 처인구 김량장동 325-10번지","indutype":"주방용구 - 주방용구","category":"other"},{"name":"위니아용인점","tel":"031-323-3251","addr":"경기도 용인시 처인구 김량장동 325-10번지 1층 101호","indutype":"전기제품 - 가전제품","category":"other"},{"name":"위니아용인점/특별할부","tel":"031-323-3251","addr":"경기도 용인시 처인구 김량장동 325-10번지 1층 101호","indutype":"전기제품 - 가전제품","category":"other"}]},{"lat":"37.237106728","long":"127.20787248","imageIndex":17,"items":[{"name":"선경커텐","tel":"031-337-1828","addr":"경기도 용인시 처인구 김량장동 137-5번지","indutype":"직물 - 카페트,커튼,천막,지물","category":"other"},{"name":"수진네","tel":"070-8180-0953","addr":"경기도 용인시 처인구 김량장동 137-5번지","indutype":"신변잡화 - 기타잡화","category":"other"}]},{"lat":"37.234382358","long":"127.20451821","imageIndex":17,"items":[{"name":"선문토목측량설계공사","tel":"031-335-4001","addr":"경기도 용인시 처인구 김량장동 296-39번지 2층","indutype":"용역 서비스 - 사무서비스","category":"other"}]},{"lat":"37.232521689","long":"127.20187638","imageIndex":17,"items":[{"name":"성원법무사사무소","tel":"031-335-8579","addr":"경기도 용인시 처인구 김량장동 344-6번지","indutype":"용역 서비스 - 법률회계서비스(개인)","category":"other"},{"name":"성원법무사사무소","tel":"031-335-8579","addr":"경기도 용인시 처인구 김량장동 344-6번지 2층","indutype":"용역 서비스 - 법률회계서비스(개인)","category":"other"}]},{"lat":"37.23255327","long":"127.20451334","imageIndex":17,"items":[{"name":"세계모터숍","tel":"031-336-6466","addr":"경기도 용인시 처인구 김량장동 312번지","indutype":"수리서비스 - 기타수리서비스","category":"other"},{"name":"첨단전기계전","tel":"031-335-4773","addr":"경기도 용인시 처인구 김량장동 312번지","indutype":"전기제품 - 기타전기제품","category":"other"}]},{"lat":"37.236717487","long":"127.2089082","imageIndex":17,"items":[{"name":"세븐일레븐용인사거리점","tel":"","addr":"경기도 용인시 처인구 김량장동 142-11","indutype":"유통업 영리 - 편 의 점","category":"other"},{"name":"예삐꽃방","tel":"031-336-2492","addr":"경기도 용인시 처인구 김량장동 142-11","indutype":"문화.취미 - 화원","category":"other"}]},{"lat":"37.236249108","long":"127.19817859","imageIndex":17,"items":[{"name":"세븐일레븐용인어울림점","tel":"","addr":"경기도 용인시 처인구 김량장동 314-10번지 102호 세븐일레븐","indutype":"유통업 영리 - 편 의 점","category":"other"}]},{"lat":"37.236443538","long":"127.20579713","imageIndex":17,"items":[{"name":"세븐일레븐용인중앙점","tel":"","addr":"경기도 용인시 처인구 김량장동 133-169번지","indutype":"유통업 영리 - 편 의 점","category":"other"},{"name":"이미지클럽","tel":"031-334-7247","addr":"경기도 용인시 처인구 김량장동 133-169번지","indutype":"신변잡화 - 액세서리","category":"other"},{"name":"이약국 텔레콤","tel":"070-4799-7661","addr":"경기도 용인시 처인구 김량장동 133-169번지 1층","indutype":"사무통신 - 통신기기","category":"other"}]},{"lat":"37.233746538","long":"127.20220639","imageIndex":17,"items":[{"name":"세븐일레븐용인처인공원점","tel":"031-1577-0711","addr":"경기도 용인시 처인구 김량장동 338-3번지 1층","indutype":"유통업 영리 - 편 의 점","category":"other"},{"name":"처인측량설계","tel":"031-332-6883","addr":"경기도 용인시 처인구 김량장동 338-3번지 2층 전체","indutype":"용역 서비스 - 사무서비스","category":"other"}]},{"lat":"37.232471462","long":"127.21014747","imageIndex":17,"items":[{"name":"세븐일레븐용인터미널점","tel":"","addr":"경기도 용인시 처인구 김량장동 23-1번지 1층","indutype":"유통업 영리 - 편 의 점","category":"other"},{"name":"아트플라워","tel":"031-336-5093","addr":"경기도 용인시 처인구 김량장동 23-1번지 내버스터미널 내","indutype":"의류 - 기타의류","category":"other"},{"name":"터미널담배","tel":"031-335-4744","addr":"경기도 용인시 처인구 김량장동 23-1번지","indutype":"신변잡화 - 기타잡화","category":"other"}]},{"lat":"37.238854361","long":"127.20281713","imageIndex":17,"items":[{"name":"세븐일레븐용인학산점","tel":"031-1577-0711","addr":"경기도 용인시 처인구 김량장동 199-18번지 1층 상가동","indutype":"유통업 영리 - 편 의 점","category":"other"},{"name":"잠보상사","tel":"031-323-3220","addr":"경기도 용인시 처인구 김량장동 199-18번지 1층","indutype":"직물 - 침구·수예점","category":"other"}]},{"lat":"37.235130119","long":"127.19921246","imageIndex":17,"items":[{"name":"세븐일레븐처인김량장점","tel":"","addr":"경기도 용인시 처인구 김량장동 323번지","indutype":"유통업 영리 - 편 의 점","category":"other"}]},{"lat":"37.235992612","long":"127.2007135","imageIndex":17,"items":[{"name":"세상물정알뜰매장","tel":"031-336-4224","addr":"경기도 용인시 처인구 김량장동 324-2번지 1층","indutype":"전기제품 - 가전제품","category":"other"}]},{"lat":"37.233746064","long":"127.20248812","imageIndex":17,"items":[{"name":"세종공인중개사사무소","tel":"031-336-5353","addr":"경기도 용인시 처인구 김량장동 341번지","indutype":"용역 서비스 - 부동산 중개·임대","category":"other"}]},{"lat":"37.236386957","long":"127.20726199","imageIndex":17,"items":[{"name":"속옷아울렛","tel":"031-335-1404","addr":"경기도 용인시 처인구 김량장동 133-17번지","indutype":"의류 - 아동의류","category":"other"}]},{"lat":"37.235581662","long":"127.20920938","imageIndex":17,"items":[{"name":"송월타월용인점","tel":"031-339-3232","addr":"경기도 용인시 처인구 김량장동 118-6번지","indutype":"직물 - 옷감·직물","category":"other"},{"name":"유림수족관","tel":"031-336-0415","addr":"경기도 용인시 처인구 김량장동 118-6번지","indutype":"문화.취미 - 수족관","category":"other"},{"name":"장플라워","tel":"031-323-3044","addr":"경기도 용인시 처인구 김량장동 118-6번지","indutype":"문화.취미 - 화원","category":"other"}]},{"lat":"37.236132533","long":"127.20323818","imageIndex":17,"items":[{"name":"숙녀복이레","tel":"031-334-9712","addr":"경기도 용인시 처인구 김량장동 254-421번지 대흥 상가","indutype":"의류 - 정장","category":"other"},{"name":"용인커텐","tel":"031-336-2668","addr":"경기도 용인시 처인구 김량장동 254-421번지","indutype":"직물 - 카페트,커튼,천막,지물","category":"other"}]},{"lat":"37.236330965","long":"127.20837749","imageIndex":17,"items":[{"name":"순금당","tel":"031-335-2894","addr":"경기도 용인시 처인구 김량장동 122-1번지","indutype":"신변잡화 - 시계","category":"other"}]},{"lat":"37.236271492","long":"127.20629252","imageIndex":17,"items":[{"name":"스윙홈","tel":"031-321-4733","addr":"경기도 용인시 처인구 김량장동 133-54번지","indutype":"의류 - 정장","category":"other"},{"name":"예스","tel":"","addr":"경기도 용인시 처인구 김량장동 133-54번지","indutype":"의류 - 정장","category":"other"},{"name":"쥴리","tel":"031-323-1388","addr":"경기도 용인시 처인구 김량장동 133-54번지","indutype":"의류 - 정장","category":"other"},{"name":"하나패션","tel":"031-338-1955","addr":"경기도 용인시 처인구 김량장동 133-54번지 1층","indutype":"의류 - 정장","category":"other"}]},{"lat":"37.234935514","long":"127.19701448","imageIndex":17,"items":[{"name":"슬기인쇄","tel":"031-335-2382","addr":"경기도 용인시 처인구 김량장동 293-18번지","indutype":"서적문구 - 출판 및 인쇄물","category":"other"},{"name":"제일공업사","tel":"031-335-4832","addr":"경기도 용인시 처인구 김량장동 293-18번지","indutype":"건축자재 - 기타건축자재","category":"other"}]},{"lat":"37.233728505","long":"127.19678601","imageIndex":17,"items":[{"name":"시원설비","tel":"","addr":"경기도 용인시 처인구 김량장동 502-1번지 김량주공2단지아파트","indutype":"용역 서비스 - 기타용역서비스","category":"other"},{"name":"안미선패션","tel":"02-111-1111","addr":"경기도 용인시 처인구 김량장동 502-1번지 김량주공2단지아파트","indutype":"의류 - 내의판매","category":"other"}]},{"lat":"37.235803248","long":"127.20612222","imageIndex":17,"items":[{"name":"신꼬메고","tel":"031-335-5932","addr":"경기도 용인시 처인구 김량장동 133-59번지 대성빌딩 101호","indutype":"신변잡화 - 신발","category":"other"},{"name":"클라이드 앤","tel":"031-332-1788","addr":"경기도 용인시 처인구 김량장동 133-59번지 1층 103호","indutype":"의류 - 정장","category":"other"},{"name":"토토헤로스 용인점","tel":"031-336-1108","addr":"경기도 용인시 처인구 김량장동 133-59번지 102호","indutype":"의류 - 아동의류","category":"other"}]},{"lat":"37.236048532","long":"127.19959799","imageIndex":17,"items":[{"name":"신밧드상사","tel":"031-335-0405","addr":"경기도 용인시 처인구 김량장동 320-5번지","indutype":"사무통신 - 사무용 OA기기","category":"other"}]},{"lat":"37.23427161","long":"127.20073154","imageIndex":17,"items":[{"name":"신용정보OA","tel":"031-322-2292","addr":"경기도 용인시 처인구 김량장동 285-13번지","indutype":"사무통신 - 사무용 OA기기","category":"other"}]},{"lat":"37.235741025","long":"127.20562621","imageIndex":17,"items":[{"name":"싸고이쁜옷집","tel":"031-321-5598","addr":"경기도 용인시 처인구 김량장동 133-157번지 1층","indutype":"의류 - 정장","category":"other"},{"name":"휠라인티모 용인점","tel":"031-333-4999","addr":"경기도 용인시 처인구 김량장동 133-157번지","indutype":"의류 - 내의판매","category":"other"}]},{"lat":"37.235241014","long":"127.2082055","imageIndex":17,"items":[{"name":"쌈지스포츠","tel":"031-708-4937","addr":"경기도 용인시 처인구 김량장동 96번지 102호","indutype":"신변잡화 - 신발","category":"other"}]},{"lat":"37.234221226","long":"127.20389799","imageIndex":17,"items":[{"name":"쎄븐인테리어","tel":"031-335-9504","addr":"경기도 용인시 처인구 김량장동 340-3번지","indutype":"건축자재 - 인테리어전문","category":"other"}]},{"lat":"37.232574537","long":"127.20259772","imageIndex":17,"items":[{"name":"씨유용인대로점","tel":"031-335-2876","addr":"경기도 용인시 처인구 김량장동 343번지","indutype":"유통업 영리 - 편 의 점","category":"other"}]},{"lat":"37.235303598","long":"127.2084874","imageIndex":17,"items":[{"name":"씨유용인사거리점","tel":"080-080-3663","addr":"경기도 용인시 처인구 김량장동 113-3번지 1층","indutype":"유통업 영리 - 편 의 점","category":"other"},{"name":"준텔레콤","tel":"031-301-1239","addr":"경기도 용인시 처인구 김량장동 113-3번지","indutype":"사무통신 - 통신기기","category":"other"}]},{"lat":"37.234521907","long":"127.20721188","imageIndex":17,"items":[{"name":"씨유용인웰메이드시티점","tel":"080-080-3663","addr":"경기도 용인시 처인구 김량장동 84-3번지 웰메이드시티337 근린생활동 106호,107호","indutype":"유통업 영리 - 편 의 점","category":"other"}]},{"lat":"37.236240862","long":"127.20837725","imageIndex":17,"items":[{"name":"씨유용인점","tel":"031-322-5870","addr":"경기도 용인시 처인구 김량장동 122-6번지","indutype":"유통업 영리 - 편 의 점","category":"other"}]},{"lat":"37.234744014","long":"127.20378669","imageIndex":17,"items":[{"name":"씨유용인중앙점","tel":"031-333-2122","addr":"경기도 용인시 처인구 김량장동 296-3번지","indutype":"유통업 영리 - 편 의 점","category":"other"},{"name":"행정사이용욱사무소","tel":"031-333-7000","addr":"경기도 용인시 처인구 김량장동 296-3번지 용동빌딩 3층","indutype":"용역 서비스 - 법률회계서비스(법인)","category":"other"}]},{"lat":"37.235853919","long":"127.20282048","imageIndex":17,"items":[{"name":"아람정보통신","tel":"070-8825-3309","addr":"경기도 용인시 처인구 김량장동 254-1번지 LG수퍼마켓 1층 1호","indutype":"사무통신 - 통신기기","category":"other"}]},{"lat":"37.237079014","long":"127.20826683","imageIndex":17,"items":[{"name":"아름사","tel":"031-334-4265","addr":"경기도 용인시 처인구 김량장동 140-23번지","indutype":"서적문구 - 출판 및 인쇄물","category":"other"}]},{"lat":"37.23638356","long":"127.20398261","imageIndex":17,"items":[{"name":"아이비클럽","tel":"031-323-5191","addr":"경기도 용인시 처인구 김량장동 254-370번지 대흥빌딩","indutype":"의류 - 정장","category":"other"},{"name":"에코아울렛","tel":"031-322-3524","addr":"경기도 용인시 처인구 김량장동 254-370번지 대흥빌딩 1층 106호","indutype":"의류 - 정장","category":"other"}]},{"lat":"37.238491679","long":"127.20415726","imageIndex":17,"items":[{"name":"아이친구들","tel":"031-336-7912","addr":"경기도 용인시 처인구 김량장동 238-6번지","indutype":"서적문구 - 문구용품","category":"other"}]},{"lat":"37.232633671","long":"127.19956658","imageIndex":17,"items":[{"name":"아진광고","tel":"031-321-9764","addr":"경기도 용인시 처인구 김량장동 345-5번지","indutype":"용역 서비스 - 종합용역","category":"other"}]},{"lat":"37.237243607","long":"127.20157324","imageIndex":17,"items":[{"name":"아트문구서적","tel":"031-335-8295","addr":"경기도 용인시 처인구 김량장동 217-1번지","indutype":"서적문구 - 문구용품","category":"other"}]},{"lat":"37.232633595","long":"127.2049643","imageIndex":17,"items":[{"name":"양지프린트","tel":"031-338-3156","addr":"경기도 용인시 처인구 김량장동 310-3번지","indutype":"서적문구 - 출판 및 인쇄물","category":"other"}]},{"lat":"37.237027039","long":"127.20176426","imageIndex":17,"items":[{"name":"에덴바이크","tel":"031-335-1839","addr":"경기도 용인시 처인구 김량장동 219-1번지","indutype":"레져용품 - 스포츠·레져용품","category":"other"},{"name":"태성종합상사","tel":"031-337-0949","addr":"경기도 용인시 처인구 김량장동 219-1번지","indutype":"건축자재 - 목재·석재·철물","category":"other"}]},{"lat":"37.23505002","long":"127.20399034","imageIndex":17,"items":[{"name":"에스엠통신","tel":"031-338-1801","addr":"경기도 용인시 처인구 김량장동 254-119번지","indutype":"사무통신 - 통신기기","category":"other"},{"name":"인현인쇄기획","tel":"031-333-3700","addr":"경기도 용인시 처인구 김량장동 254-119번지","indutype":"서적문구 - 출판 및 인쇄물","category":"other"}]},{"lat":"37.231164557","long":"127.21038054","imageIndex":17,"items":[{"name":"엔에이치제이컴퍼니(NHJ COMPANY)","tel":"031-000-0000","addr":"경기도 용인시 처인구 김량장동 20-5번지","indutype":"의류 - 정장","category":"other"}]},{"lat":"37.232593798","long":"127.19642251","imageIndex":17,"items":[{"name":"엘로힘","tel":"070-2699-0807","addr":"경기도 용인시 처인구 김량장동 502-1번지 김량주공2단지아파트","indutype":"의류 - 내의판매","category":"other"}]},{"lat":"37.23516439","long":"127.19479506","imageIndex":17,"items":[{"name":"엘케이(LK)파트너","tel":"031-281-6988","addr":"경기도 용인시 처인구 김량장동 292-5번지 2층 (주)서안바이오빌딩","indutype":"용역 서비스 - 종합용역","category":"other"},{"name":"크로커다일 용인중앙점","tel":"031-335-5764","addr":"경기도 용인시 처인구 김량장동 292-5번지 1층 101호","indutype":"레져용품 - 스포츠·레져용품","category":"other"}]},{"lat":"37.230514451","long":"127.21115628","imageIndex":17,"items":[{"name":"엘투씨 인터네셔날","tel":"031-334-2762","addr":"경기도 용인시 처인구 김량장동 4-2번지 현대아파트","indutype":"레져용품 - 스포츠·레져용품","category":"other"},{"name":"제이메이트앤","tel":"031-000-0000","addr":"경기도 용인시 처인구 김량장동 4-2번지 현대아파트","indutype":"신변잡화 - 액세서리","category":"other"},{"name":"태경종합설비","tel":"","addr":"경기도 용인시 처인구 김량장동 4-2번지 현대아파트","indutype":"건축자재 - 인테리어전문","category":"other"}]},{"lat":"37.236089551","long":"127.19657794","imageIndex":17,"items":[{"name":"엠케이정보통신","tel":"031-339-6610","addr":"경기도 용인시 처인구 김량장동 526번지 김량장동어울림아파트","indutype":"사무통신 - 컴퓨터","category":"other"}]},{"lat":"37.232519904","long":"127.20293563","imageIndex":17,"items":[{"name":"엡솔","tel":"031-334-5930","addr":"경기도 용인시 처인구 김량장동 343-4번지 2층","indutype":"레져용품 - 스포츠·레져용품","category":"other"},{"name":"유일실크","tel":"031-337-0981","addr":"경기도 용인시 처인구 김량장동 343-4번지","indutype":"유통업 영리 - 기타유통업","category":"other"}]},{"lat":"37.240586968","long":"127.20125519","imageIndex":17,"items":[{"name":"올리브(Allive)","tel":"031-338-1125","addr":"경기도 용인시 처인구 김량장동 201-3번지 공신연립 가동 305호","indutype":"회원제형태 - 기타4","category":"other"}]},{"lat":"37.234046804","long":"127.2004605","imageIndex":17,"items":[{"name":"용인 5월5일","tel":"","addr":"경기도 용인시 처인구 김량장동 334-13번지 202호","indutype":"서적문구 - 기타서적문구","category":"other"}]},{"lat":"37.234519082","long":"127.20359452","imageIndex":17,"items":[{"name":"용인 중고폰매입 아프리카폰","tel":"031-322-4985","addr":"경기도 용인시 처인구 김량장동 296-53번지 아이렉스타워 4층 413호","indutype":"사무통신 - 통신기기","category":"other"},{"name":"용인아이폰수리 아이픽스","tel":"070-4207-6153","addr":"경기도 용인시 처인구 김량장동 296-53번지 아이렉스타워 604호","indutype":"수리서비스 - 사무·통신기기수리","category":"other"}]},{"lat":"37.231887961","long":"127.19826876","imageIndex":17,"items":[{"name":"용인OA시스템","tel":"031-339-2597","addr":"경기도 용인시 처인구 김량장동 505-5번지","indutype":"사무통신 - 사무용 OA기기","category":"other"}]},{"lat":"37.236329142","long":"127.20942553","imageIndex":17,"items":[{"name":"용인기독백화점","tel":"031-332-1193","addr":"경기도 용인시 처인구 김량장동 473-48번지","indutype":"서적문구 - 전문서적","category":"other"}]},{"lat":"37.234439997","long":"127.20768495","imageIndex":17,"items":[{"name":"용인꽃버선한복","tel":"031-335-7199","addr":"경기도 용인시 처인구 김량장동 78-1번지 롱하트2차맨션","indutype":"의류 - 맞춤복점","category":"other"}]},{"lat":"37.238133236","long":"127.20825842","imageIndex":17,"items":[{"name":"용인모터펌프","tel":"031-335-3565","addr":"경기도 용인시 처인구 김량장동 161-13번지","indutype":"수리서비스 - 기타수리서비스","category":"other"},{"name":"용인모터펌프","tel":"031-335-5400","addr":"경기도 용인시 처인구 김량장동 161-13번지","indutype":"수리서비스 - 기타수리서비스","category":"other"},{"name":"우주설비사","tel":"031-335-0978","addr":"경기도 용인시 처인구 김량장동 161-13번지","indutype":"건축자재 - 목재·석재·철물","category":"other"}]},{"lat":"37.235577177","long":"127.20659492","imageIndex":17,"items":[{"name":"용인문고","tel":"031-336-5656","addr":"경기도 용인시 처인구 김량장동 132-9번지","indutype":"서적문구 - 일반서적","category":"other"},{"name":"용인문고","tel":"031-336-5656","addr":"경기도 용인시 처인구 김량장동 132-9번지","indutype":"서적문구 - 일반서적","category":"other"}]},{"lat":"37.237825712","long":"127.20893376","imageIndex":17,"items":[{"name":"용인상사","tel":"031-335-3248","addr":"경기도 용인시 처인구 김량장동 144-6번지 대호빌딩 112호","indutype":"건축자재 - 페인트","category":"other"},{"name":"우성타일상사","tel":"031-335-2854","addr":"경기도 용인시 처인구 김량장동 144-6번지","indutype":"건축자재 - 건축용 요업제품","category":"other"},{"name":"축구세상","tel":"031-338-0330","addr":"경기도 용인시 처인구 김량장동 144-6번지","indutype":"레져용품 - 스포츠·레져용품","category":"other"},{"name":"태광조명","tel":"031-339-1900","addr":"경기도 용인시 처인구 김량장동 144-6번지","indutype":"건축자재 - 조명기구","category":"other"},{"name":"형제전기,철물","tel":"031-335-1344","addr":"경기도 용인시 처인구 김량장동 144-6번지","indutype":"건축자재 - 조명기구","category":"other"}]},{"lat":"37.234468535","long":"127.20150962","imageIndex":17,"items":[{"name":"용인시청 상수도사업소 수도행정과/CAT","tel":"031-324-4271","addr":"경기도 용인시 처인구 김량장동 286번지 용인시청 상수도사업소 수도행정과","indutype":"용역 서비스 - 조세서비스","category":"other"},{"name":"용인시청 상수도사업소 수도행정과/인터넷","tel":"031-324-4271","addr":"경기도 용인시 처인구 김량장동 286번지 용인시청 상수도사업소 수도행정과","indutype":"용역 서비스 - 조세서비스","category":"other"}]},{"lat":"37.235580913","long":"127.19904459","imageIndex":17,"items":[{"name":"용인연합지국","tel":"031-335-8292","addr":"경기도 용인시 처인구 김량장동 321-1번지","indutype":"서적문구 - 정기간행물","category":"other"}]},{"lat":"37.235410966","long":"127.20367576","imageIndex":17,"items":[{"name":"용인용암로타리","tel":"031-333-2026","addr":"경기도 용인시 처인구 김량장동 254-230번지","indutype":"기타 - 비영리/비대상","category":"other"}]},{"lat":"37.235854669","long":"127.20765497","imageIndex":17,"items":[{"name":"용인우체국","tel":"031-333-4940","addr":"경기도 용인시 처인구 김량장동 128-2번지","indutype":"용역 서비스 - 공공요금대행서비스/소","category":"other"}]},{"lat":"37.232554458","long":"127.20381468","imageIndex":17,"items":[{"name":"용인이륜차","tel":"031-333-3455","addr":"경기도 용인시 처인구 김량장동 343-12번지 1층 1호","indutype":"수리서비스 - 레져용품수리","category":"other"}]},{"lat":"37.2354094","long":"127.19923572","imageIndex":17,"items":[{"name":"용인쟁이","tel":"031-332-0028","addr":"경기도 용인시 처인구 김량장동 321-11번지","indutype":"가구 - 일반가구","category":"other"}]},{"lat":"37.235218907","long":"127.19451347","imageIndex":17,"items":[{"name":"용인제일산후조리원","tel":"031-8031-0200","addr":"경기도 용인시 처인구 김량장동 292-6번지 7,8층","indutype":"기타의료기관 - 산후조리원","category":"other"}]},{"lat":"37.236220456","long":"127.19915894","imageIndex":17,"items":[{"name":"용인종합뉴스(New월간용인)","tel":"031-335-4120","addr":"경기도 용인시 처인구 김량장동 316-12번지","indutype":"서적문구 - 정기간행물","category":"other"}]},{"lat":"37.238023113","long":"127.20940761","imageIndex":17,"items":[{"name":"용인종합전기","tel":"031-335-6753","addr":"경기도 용인시 처인구 김량장동 164-2번지","indutype":"전기제품 - 기타전기제품","category":"other"}]},{"lat":"37.23796362","long":"127.20734513","imageIndex":17,"items":[{"name":"용인종합철물공구","tel":"031-337-2777","addr":"경기도 용인시 처인구 김량장동 145-11번지 외1필지","indutype":"기타 - 기계공구","category":"other"}]},{"lat":"37.236324449","long":"127.20693501","imageIndex":17,"items":[{"name":"용인지물포","tel":"031-335-2270","addr":"경기도 용인시 처인구 김량장동 133-31번지","indutype":"직물 - 카페트,커튼,천막,지물","category":"other"},{"name":"현대리빙샵","tel":"031-333-5559","addr":"경기도 용인시 처인구 김량장동 133-31번지","indutype":"신변잡화 - 기타잡화","category":"other"}]},{"lat":"37.231720473","long":"127.20145733","imageIndex":17,"items":[{"name":"용인청년회의소","tel":"031-335-3696","addr":"경기도 용인시 처인구 김량장동 351-4번지","indutype":"기타 - 비영리/비대상","category":"other"}]},{"lat":"37.235580073","long":"127.20490455","imageIndex":17,"items":[{"name":"용인키노피오","tel":"031-338-7337","addr":"경기도 용인시 처인구 김량장동 254-62번지 102호","indutype":"의류 - 정장","category":"other"}]},{"lat":"37.236134737","long":"127.20193095","imageIndex":17,"items":[{"name":"용잉풀잎문화센터","tel":"031-336-5156","addr":"경기도 용인시 처인구 김량장동 325-8번지 2층","indutype":"문화.취미 - 문화취미기타","category":"other"},{"name":"진주상회","tel":"031-336-4950","addr":"경기도 용인시 처인구 김량장동 325-8번지","indutype":"직물 - 침구·수예점","category":"other"},{"name":"진주카페트","tel":"031-336-4950","addr":"경기도 용인시 처인구 김량장동 325-8번지","indutype":"직물 - 카페트,커튼,천막,지물","category":"other"},{"name":"청바지코너","tel":"031-332-1902","addr":"경기도 용인시 처인구 김량장동 325-8번지","indutype":"의류 - 기타의류","category":"other"}]},{"lat":"37.235798724","long":"127.19809854","imageIndex":17,"items":[{"name":"용친통신","tel":"031-332-8650","addr":"경기도 용인시 처인구 김량장동 314-7번지 1층","indutype":"사무통신 - 통신기기","category":"other"},{"name":"키즈클럽","tel":"031-333-5537","addr":"경기도 용인시 처인구 김량장동 314-7번지 102호","indutype":"의류 - 정장","category":"other"}]},{"lat":"37.235074127","long":"127.20037303","imageIndex":17,"items":[{"name":"우리통신","tel":"031-322-6672","addr":"경기도 용인시 처인구 김량장동 323-6번지","indutype":"사무통신 - 통신기기","category":"other"}]},{"lat":"37.233074238","long":"127.20013117","imageIndex":17,"items":[{"name":"우림토목엔지니어링","tel":"031-321-7171","addr":"경기도 용인시 처인구 김량장동 336-10번지 태중빌딩 402호","indutype":"용역 서비스 - 사무서비스","category":"other"}]},{"lat":"37.230300791","long":"127.20967953","imageIndex":17,"items":[{"name":"원진스포츠","tel":"031-332-2211","addr":"경기도 용인시 처인구 김량장동 31-8","indutype":"레져용품 - 스포츠·레져용품","category":"other"}]},{"lat":"37.235549118","long":"127.19646387","imageIndex":17,"items":[{"name":"월드수입","tel":"031-336-1171","addr":"경기도 용인시 처인구 김량장동 290-3번지 1층","indutype":"신변잡화 - 기타잡화","category":"other"}]},{"lat":"37.235665161","long":"127.2078235","imageIndex":17,"items":[{"name":"월드스튜디오","tel":"031-333-4477","addr":"경기도 용인시 처인구 김량장동 127-2번지","indutype":"광학제품 - 사진관","category":"other"},{"name":"프로스펙스용인대리점","tel":"031-335-2618","addr":"경기도 용인시 처인구 김량장동 127-2번지","indutype":"레져용품 - 스포츠·레져용품","category":"other"}]},{"lat":"37.232743493","long":"127.19854141","imageIndex":17,"items":[{"name":"위드테크","tel":"031-323-0334","addr":"경기도 용인시 처인구 김량장동 504-3번지","indutype":"서적문구 - 과학기자재","category":"other"}]},{"lat":"37.233692002","long":"127.20248797","imageIndex":17,"items":[{"name":"은성H&C","tel":"031-336-4179","addr":"경기도 용인시 처인구 김량장동 341-1번지","indutype":"전기제품 - 냉열기기","category":"other"},{"name":"제일토목측량설계","tel":"031-322-0743","addr":"경기도 용인시 처인구 김량장동 341-1번지","indutype":"용역 서비스 - 사무서비스","category":"other"}]},{"lat":"37.233457402","long":"127.19726988","imageIndex":17,"items":[{"name":"은쵸제니","tel":"070-2699-0807","addr":"경기도 용인시 처인구 김량장동 502-2번지 삼환아파트","indutype":"의류 - 내의판매","category":"other"}]},{"lat":"37.234997466","long":"127.20309995","imageIndex":17,"items":[{"name":"이레기독백화점","tel":"031-321-0573","addr":"경기도 용인시 처인구 김량장동 254-290번지","indutype":"서적문구 - 전문서적","category":"other"}]},{"lat":"37.23793538","long":"127.20804376","imageIndex":17,"items":[{"name":"이레피아노백화점","tel":"031-338-5856","addr":"경기도 용인시 처인구 김량장동 145-38번지","indutype":"레져용품 - 피아노대리점","category":"other"}]},{"lat":"37.233244757","long":"127.20053729","imageIndex":17,"items":[{"name":"이마트24 용인처인금령점","tel":"031-000-0000","addr":"경기도 용인시 처인구 김량장동 336-8번지","indutype":"유통업 영리 - 편 의 점","category":"other"}]},{"lat":"37.232859974","long":"127.19893612","imageIndex":17,"items":[{"name":"이씨엠용인전자담배처인구점","tel":"031-322-5758","addr":"경기도 용인시 처인구 김량장동 345번지","indutype":"기타 - 기타 전문점","category":"other"}]},{"lat":"37.232849329","long":"127.19442859","imageIndex":17,"items":[{"name":"이지에어컨","tel":"031-323-0953","addr":"경기도 용인시 처인구 김량장동 516번지 용인삼환나우빌","indutype":"용역 서비스 - 기타용역서비스","category":"other"}]},{"lat":"37.234634646","long":"127.19915483","imageIndex":17,"items":[{"name":"이화종합공사","tel":"031-335-9478","addr":"경기도 용인시 처인구 김량장동 333-10번지","indutype":"건축자재 - 인테리어전문","category":"other"},{"name":"청음프랜드패밀리","tel":"","addr":"경기도 용인시 처인구 김량장동 333-10번지 1층","indutype":"유통업 영리 - 편 의 점","category":"other"}]},{"lat":"37.235830427","long":"127.20071308","imageIndex":17,"items":[{"name":"잉크가이","tel":"031-321-8370","addr":"경기도 용인시 처인구 김량장동 324-20번지","indutype":"사무통신 - 기타 사무용품","category":"other"}]},{"lat":"37.236715464","long":"127.20485124","imageIndex":17,"items":[{"name":"자연을 사랑하는 사람들","tel":"031-332-3977","addr":"경기도 용인시 처인구 김량장동 254-366번지 107호","indutype":"신변잡화 - 기타잡화","category":"other"},{"name":"중앙상사","tel":"031-339-1919","addr":"경기도 용인시 처인구 김량장동 254-366번지 1층","indutype":"주방용구 - 주방용구","category":"other"},{"name":"합동건업","tel":"031-335-3506","addr":"경기도 용인시 처인구 김량장동 254-366번지","indutype":"건축자재 - 인테리어전문","category":"other"}]},{"lat":"37.235109962","long":"127.1950203","imageIndex":17,"items":[{"name":"장뷰티샵","tel":"031-336-5035","addr":"경기도 용인시 처인구 김량장동 292-8번지 2층","indutype":"회원제형태 - 기타1","category":"other"}]},{"lat":"37.236963228","long":"127.20220359","imageIndex":17,"items":[{"name":"장세탁","tel":"031-335-9708","addr":"경기도 용인시 처인구 김량장동 221-4번지","indutype":"수리서비스 - 세탁소","category":"other"}]},{"lat":"37.242101628","long":"127.21121069","imageIndex":17,"items":[{"name":"전진종합상사","tel":"031-337-0985","addr":"경기도 용인시 처인구 김량장동 181-1번지","indutype":"건축자재 - 기타건축자재","category":"other"}]},{"lat":"37.235857965","long":"127.20040888","imageIndex":17,"items":[{"name":"정우공인중개사사무소","tel":"031-333-6069","addr":"경기도 용인시 처인구 김량장동 320-20번지 1층","indutype":"용역 서비스 - 부동산 중개·임대","category":"other"}]},{"lat":"37.236523838","long":"127.20625939","imageIndex":17,"items":[{"name":"정원상회","tel":"031-335-2167","addr":"경기도 용인시 처인구 김량장동 133-50번지","indutype":"직물 - 침구·수예점","category":"other"},{"name":"털실마트","tel":"031-335-2358","addr":"경기도 용인시 처인구 김량장동 133-50번지","indutype":"직물 - 침구·수예점","category":"other"}]},{"lat":"37.237992281","long":"127.20639857","imageIndex":17,"items":[{"name":"정화텔레콤","tel":"0031-0337-3377","addr":"경기도 용인시 처인구 김량장동 146-1번지 KT용인지사 3층","indutype":"별도관리 - 자체물품대금","category":"other"}]},{"lat":"37.23718963","long":"127.20682465","imageIndex":17,"items":[{"name":"제노바","tel":"031-000-0000","addr":"경기도 용인시 처인구 김량장동 133-186번지 1층","indutype":"의류 - 정장","category":"other"}]},{"lat":"37.236495935","long":"127.20676643","imageIndex":17,"items":[{"name":"제시수입의류","tel":"070-8886-1969","addr":"경기도 용인시 처인구 김량장동 133-226번지","indutype":"의류 - 정장","category":"other"}]},{"lat":"37.236188439","long":"127.20743049","imageIndex":17,"items":[{"name":"제이디엑스(JDX) 용인시장점","tel":"031-336-4855","addr":"경기도 용인시 처인구 김량장동 123-1번지 용인빌딩","indutype":"의류 - 정장","category":"other"}]},{"lat":"37.233873278","long":"127.19641451","imageIndex":17,"items":[{"name":"제이투케이(J2K)","tel":"02-6340-5385","addr":"경기도 용인시 처인구 김량장동 502-1번지 김량주공2단지아파트","indutype":"용역 서비스 - 기타용역서비스","category":"other"}]},{"lat":"37.233886288","long":"127.19945715","imageIndex":17,"items":[{"name":"제일냉동,냉장,칼,가위 예방정비","tel":"031-333-5283","addr":"경기도 용인시 처인구 김량장동 330-14번지","indutype":"기타 - 기계공구","category":"other"}]},{"lat":"37.234244508","long":"127.2060955","imageIndex":17,"items":[{"name":"제일미디어","tel":"031-331-7942","addr":"경기도 용인시 처인구 김량장동 85-31","indutype":"용역 서비스 - 종합용역","category":"other"}]},{"lat":"37.235609223","long":"127.20890519","imageIndex":17,"items":[{"name":"제일페인트","tel":"031-2-2334","addr":"경기도 용인시 처인구 김량장동 117-5번지","indutype":"기타 - 기타 전문점","category":"other"}]},{"lat":"37.235852265","long":"127.20904108","imageIndex":17,"items":[{"name":"제일페인트","tel":"031-335-2334","addr":"경기도 용인시 처인구 김량장동 143-7번지","indutype":"건축자재 - 페인트","category":"other"}]},{"lat":"37.237522932","long":"127.20687062","imageIndex":17,"items":[{"name":"제제","tel":"031-336-1649","addr":"경기도 용인시 처인구 김량장동 133-1번지","indutype":"의류 - 정장","category":"other"}]},{"lat":"37.233969397","long":"127.20362687","imageIndex":17,"items":[{"name":"종합인테리어","tel":"","addr":"경기도 용인시 처인구 김량장동 340-9번지 덕천오피스텔 205호","indutype":"건축자재 - 인테리어전문","category":"other"}]},{"lat":"37.237637212","long":"127.2032647","imageIndex":17,"items":[{"name":"주식회사 국제전기공사","tel":"031-332-2070","addr":"경기도 용인시 처인구 김량장동 235-14번지 1층","indutype":"용역 서비스 - 기타용역서비스","category":"other"}]},{"lat":"37.235082676","long":"127.195178","imageIndex":17,"items":[{"name":"주식회사 락희","tel":"031-321-4500","addr":"경기도 용인시 처인구 김량장동 292-4번지 운곡빌딩 403호","indutype":"문화.취미 - 티켓","category":"other"}]},{"lat":"37.234076749","long":"127.20931797","imageIndex":17,"items":[{"name":"주식회사 베네뜨리아","tel":"031-335-1604","addr":"경기도 용인시 처인구 김량장동 63-9번지 용인에스원스마트빌 3차 218-1호","indutype":"용역 서비스 - 기타용역서비스","category":"other"}]},{"lat":"37.232353321","long":"127.20018563","imageIndex":17,"items":[{"name":"주식회사 서현관광","tel":"031-323-2885","addr":"경기도 용인시 처인구 김량장동 345-15번지 2층 일부","indutype":"여행 - 관광여행","category":"other"},{"name":"주식회사 영진관광","tel":"031-323-2885","addr":"경기도 용인시 처인구 김량장동 345-15번지","indutype":"여행 - 관광여행","category":"other"},{"name":"주식회사 하나관광","tel":"031-818-0990","addr":"경기도 용인시 처인구 김량장동 345-15번지 2층","indutype":"여행 - 관광여행","category":"other"},{"name":"주식회사 현재관광","tel":"","addr":"경기도 용인시 처인구 김량장동 345-15번지","indutype":"여행 - 관광여행","category":"other"}]},{"lat":"37.235886134","long":"127.20507441","imageIndex":17,"items":[{"name":"주식회사 아이쁘띠","tel":"031-333-8836","addr":"경기도 용인시 처인구 김량장동 254-43번지","indutype":"기타의료기관 - 산후조리원","category":"other"}]},{"lat":"37.232248525","long":"127.20881716","imageIndex":17,"items":[{"name":"주식회사 지샵","tel":"031-996-1971","addr":"경기도 용인시 처인구 김량장동 40-4번지 1085호","indutype":"용역 서비스 - 부동산 중개·임대","category":"other"}]},{"lat":"37.232606396","long":"127.19971301","imageIndex":17,"items":[{"name":"주식회사삼성종합포장","tel":"031-335-1799","addr":"경기도 용인시 처인구 김량장동 345-7번지","indutype":"유통업 영리 - 기타유통업","category":"other"}]},{"lat":"37.23624641","long":"127.20515425","imageIndex":17,"items":[{"name":"준성빌딩","tel":"031-338-3383","addr":"경기도 용인시 처인구 김량장동 254-19번지 외2필지","indutype":"건축자재 - 부동산 분양","category":"other"}]},{"lat":"37.235464339","long":"127.19870621","imageIndex":17,"items":[{"name":"중앙가전가구냉동알뜰매장","tel":"031-339-8282","addr":"경기도 용인시 처인구 김량장동 321번지 (김량장동115호~124호)","indutype":"수리서비스 - 가정용품수리","category":"other"}]},{"lat":"37.236687356","long":"127.20548224","imageIndex":17,"items":[{"name":"쥬얼리장","tel":"031-332-9555","addr":"경기도 용인시 처인구 김량장동 133-71번지","indutype":"신변잡화 - 가방","category":"other"}]},{"lat":"37.233050635","long":"127.2034554","imageIndex":17,"items":[{"name":"창조기획","tel":"031-338-0303","addr":"경기도 용인시 처인구 김량장동 342-18번지","indutype":"용역 서비스 - 종합용역","category":"other"}]},{"lat":"37.234880639","long":"127.19751018","imageIndex":17,"items":[{"name":"채영사진관","tel":"031-336-4664","addr":"경기도 용인시 처인구 김량장동 293-15번지 1층","indutype":"광학제품 - 사진관","category":"other"},{"name":"티는걸(T=girl)","tel":"031-334-3656","addr":"경기도 용인시 처인구 김량장동 293-15번지","indutype":"의류 - 정장","category":"other"}]},{"lat":"37.237024837","long":"127.2030715","imageIndex":17,"items":[{"name":"캔디의다락방","tel":"070-7018-5367","addr":"경기도 용인시 처인구 김량장동 226-7번지","indutype":"의류 - 정장","category":"other"}]},{"lat":"37.235138437","long":"127.19962943","imageIndex":17,"items":[{"name":"커텐블라인드","tel":"","addr":"경기도 용인시 처인구 김량장동 323-13번지 덕원주택 402호","indutype":"용역 서비스 - 기타용역서비스","category":"other"}]},{"lat":"37.235407606","long":"127.20564786","imageIndex":17,"items":[{"name":"코데즈컴바인이너웨어용인점","tel":"031-337-2233","addr":"경기도 용인시 처인구 김량장동 133-203번지","indutype":"의류 - 내의판매","category":"other"},{"name":"휠라아울렛용인점","tel":"031-336-4054","addr":"경기도 용인시 처인구 김량장동 133-203번지 1층","indutype":"레져용품 - 스포츠·레져용품","category":"other"}]},{"lat":"37.233609469","long":"127.20859549","imageIndex":17,"items":[{"name":"코렉스자전거","tel":"031-335-3148","addr":"경기도 용인시 처인구 김량장동 72-3번지 쭈꾸미마을","indutype":"레져용품 - 스포츠·레져용품","category":"other"}]},{"lat":"37.239741769","long":"127.21073087","imageIndex":17,"items":[{"name":"코르","tel":"031-336-5559","addr":"경기도 용인시 처인구 김량장동 178-8번지","indutype":"가구 - 일반가구","category":"other"}]},{"lat":"37.233272708","long":"127.19998519","imageIndex":17,"items":[{"name":"코스모스","tel":"","addr":"경기도 용인시 처인구 김량장동 336-6번지","indutype":"문화.취미 - 화원","category":"other"}]},{"lat":"37.232302491","long":"127.19823602","imageIndex":17,"items":[{"name":"크린토피아 김량장점","tel":"031-322-0731","addr":"경기도 용인시 처인구 김량장동 505-13번지","indutype":"수리서비스 - 세탁소","category":"other"}]},{"lat":"37.234582929","long":"127.1977348","imageIndex":17,"items":[{"name":"큰솔법무사사무소","tel":"031-337-4001","addr":"경기도 용인시 처인구 김량장동 328","indutype":"용역 서비스 - 법률회계서비스(개인)","category":"other"}]},{"lat":"37.235358382","long":"127.20807059","imageIndex":17,"items":[{"name":"투미(용인점)","tel":"031-335-5655","addr":"경기도 용인시 처인구 김량장동 95-5번지 1층","indutype":"의류 - 정장","category":"other"}]},{"lat":"37.23835244","long":"127.20654604","imageIndex":17,"items":[{"name":"파워윈도우케어","tel":"","addr":"경기도 용인시 처인구 김량장동 153-4번지 2층","indutype":"용역 서비스 - 종합용역","category":"other"}]},{"lat":"37.238187922","long":"127.20789794","imageIndex":17,"items":[{"name":"푸르네","tel":"02-529-2030","addr":"경기도 용인시 처인구 김량장동 161-7번지","indutype":"문화.취미 - 화원","category":"other"}]},{"lat":"37.231832988","long":"127.19882078","imageIndex":17,"items":[{"name":"푸른환경새용인21실천협의회","tel":"031-338-2021","addr":"경기도 용인시 처인구 김량장동 346번지 용인시문예회관","indutype":"용역 서비스 - 사무서비스","category":"other"}]},{"lat":"37.233327912","long":"127.20987937","imageIndex":17,"items":[{"name":"풍년농약농사","tel":"031-335-6700","addr":"경기도 용인시 처인구 김량장동 63-13번지","indutype":"농업 - 비료,사료,종자","category":"other"}]},{"lat":"37.235831273","long":"127.20020596","imageIndex":17,"items":[{"name":"프로세탁소","tel":"031-322-5525","addr":"경기도 용인시 처인구 김량장동 320-19번지","indutype":"수리서비스 - 세탁소","category":"other"}]},{"lat":"37.235941903","long":"127.2040716","imageIndex":17,"items":[{"name":"핏","tel":"031-328-8627","addr":"경기도 용인시 처인구 김량장동 254-294번지 1층","indutype":"의류 - 정장","category":"other"}]},{"lat":"37.23255104","long":"127.2004904","imageIndex":17,"items":[{"name":"하나인테리어","tel":"031-338-9190","addr":"경기도 용인시 처인구 김량장동 345-14번지 1층","indutype":"건축자재 - 인테리어전문","category":"other"}]},{"lat":"37.234443165","long":"127.19504115","imageIndex":17,"items":[{"name":"하우스터디 김량장센터","tel":"031-333-1354","addr":"경기도 용인시 처인구 김량장동 408번지 한명빌딩 4층","indutype":"용역 서비스 - 사무서비스","category":"other"}]},{"lat":"37.235157523","long":"127.19898715","imageIndex":17,"items":[{"name":"하이크리닝","tel":"031-336-6922","addr":"경기도 용인시 처인구 김량장동 294-11번지","indutype":"수리서비스 - 세탁소","category":"other"}]},{"lat":"37.235888071","long":"127.20393622","imageIndex":17,"items":[{"name":"한국주방","tel":"031-336-1546","addr":"경기도 용인시 처인구 김량장동 254-99번지","indutype":"주방용구 - 주방용구","category":"other"}]},{"lat":"37.237942943","long":"127.20887773","imageIndex":17,"items":[{"name":"한샘용인전시장","tel":"031-339-1900","addr":"경기도 용인시 처인구 김량장동 163-8 태호빌딩 1층","indutype":"주방용구 - 주방용구","category":"other"}]},{"lat":"37.233054562","long":"127.20112277","imageIndex":17,"items":[{"name":"한성내장건설","tel":"031-334-6555","addr":"경기도 용인시 처인구 김량장동 337-15번지","indutype":"건축자재 - 기타건축자재","category":"other"}]},{"lat":"37.235051271","long":"127.20850925","imageIndex":17,"items":[{"name":"한성통신","tel":"0031-0332-3244","addr":"경기도 용인시 처인구 김량장동 111-6번지","indutype":"별도관리 - 자체물품대금","category":"other"}]},{"lat":"37.238997792","long":"127.2085087","imageIndex":17,"items":[{"name":"한솔전산","tel":"031-339-3452","addr":"경기도 용인시 처인구 김량장동 167-3번지","indutype":"사무통신 - 기타 사무용품","category":"other"}]},{"lat":"37.232105451","long":"127.19751432","imageIndex":17,"items":[{"name":"한일살수","tel":"031-336-0834","addr":"경기도 용인시 처인구 김량장동 503-3번지 신우아파트","indutype":"용역 서비스 - 기타용역서비스","category":"other"}]},{"lat":"37.235248282","long":"127.20920847","imageIndex":17,"items":[{"name":"한일인테리어","tel":"031-335-7771","addr":"경기도 용인시 처인구 김량장동 60-11번지","indutype":"직물 - 카페트,커튼,천막,지물","category":"other"}]},{"lat":"37.23841085","long":"127.20923963","imageIndex":17,"items":[{"name":"한일펌프대리점","tel":"031-337-0050","addr":"경기도 용인시 처인구 김량장동 165-3번지","indutype":"전기제품 - 가전제품","category":"other"}]},{"lat":"37.234935237","long":"127.19718352","imageIndex":17,"items":[{"name":"행복기획","tel":"031-335-7755","addr":"경기도 용인시 처인구 김량장동 293-17번지","indutype":"서적문구 - 출판 및 인쇄물","category":"other"}]},{"lat":"37.236582396","long":"127.19823579","imageIndex":17,"items":[{"name":"행복신체교정원","tel":"031-284-7711","addr":"경기도 용인시 처인구 김량장동 314-13번지 2층 상가","indutype":"회원제형태 - 레져업소","category":"other"}]},{"lat":"37.233544747","long":"127.20431314","imageIndex":17,"items":[{"name":"현대 인쇄소","tel":"031-335-3878","addr":"경기도 용인시 처인구 김량장동 298-20번지 신광빌라 A동 102호","indutype":"서적문구 - 출판 및 인쇄물","category":"other"}]},{"lat":"37.238774522","long":"127.20207313","imageIndex":17,"items":[{"name":"현세탁소","tel":"031-336-7921","addr":"경기도 용인시 처인구 김량장동 203-4","indutype":"수리서비스 - 세탁소","category":"other"}]},{"lat":"37.23458258","long":"127.20859813","imageIndex":17,"items":[{"name":"형제설비","tel":"031-332-1976","addr":"경기도 용인시 처인구 김량장동 106-2번지","indutype":"건축자재 - 보일러·펌프·샷시","category":"other"}]},{"lat":"37.234220518","long":"127.20431494","imageIndex":17,"items":[{"name":"화이트크리닝,리폼플러스","tel":"031-336-8280","addr":"경기도 용인시 처인구 김량장동 296-46번지","indutype":"수리서비스 - 세탁소","category":"other"}]},{"lat":"37.235635959","long":"127.2090743","imageIndex":17,"items":[{"name":"회성철물전기","tel":"031-335-2032","addr":"경기도 용인시 처인구 김량장동 143-8번지","indutype":"기타 - 기계공구","category":"other"}]},{"lat":"37.236110543","long":"127.20557085","imageIndex":17,"items":[{"name":"휠라스포츠","tel":"031-338-4842","addr":"경기도 용인시 처인구 김량장동 133-68번지","indutype":"레져용품 - 스포츠·레져용품","category":"other"}]},{"lat":"37.232464713","long":"127.20885156","imageIndex":17,"items":[{"name":"흥농종묘","tel":"031-335-7339","addr":"경기도 용인시 처인구 김량장동 42-7번지","indutype":"농업 - 비료,사료,종자","category":"other"}]},{"lat":"37.237052998","long":"127.20768075","imageIndex":17,"items":[{"name":"히트","tel":"031-323-5283","addr":"경기도 용인시 처인구 김량장동 136-3번지","indutype":"의류 - 정장","category":"other"}]}]