[{"lat":"37.47459929","long":"126.8694607","imageIndex":5,"items":[{"name":"그곳에","tel":"02-2617-5064","addr":"경기도 광명시 철산동 433번지 서울빌딩 3층, 4층, 5층","indutype":"숙박업 - 여관/기타숙박업","category":"hotel"}]},{"lat":"37.47473478","long":"126.8697657","imageIndex":5,"items":[{"name":"발트호텔","tel":"02-2616-1557","addr":"경기도 광명시 철산동 435번지 4,5,6층","indutype":"숙박업 - 여관/기타숙박업","category":"hotel"}]},{"lat":"37.47465237","long":"126.8686014","imageIndex":5,"items":[{"name":"뷰","tel":"02-2617-7002","addr":"경기도 광명시 철산동 421번지 금강빌딩 7~8층","indutype":"숙박업 - 여관/기타숙박업","category":"hotel"}]},{"lat":"37.47459799","long":"126.8683189","imageIndex":5,"items":[{"name":"세인트모텔","tel":"02-2066-5300","addr":"경기도 광명시 철산동 420번지","indutype":"숙박업 - 여관/기타숙박업","category":"hotel"},{"name":"제이모텔","tel":"070-4170-2681","addr":"경기도 광명시 철산동 420번지 세인트빌딩 9층","indutype":"숙박업 - 여관/기타숙박업","category":"hotel"}]},{"lat":"37.47449082","long":"126.8691557","imageIndex":5,"items":[{"name":"필링여관","tel":"02-2681-0088","addr":"경기도 광명시 철산동 428번지 삼희빌딩 6,7층","indutype":"숙박업 - 여관/기타숙박업","category":"hotel"}]},{"lat":"37.47393239","long":"126.8693149","imageIndex":5,"items":[{"name":"호텔 블랑","tel":"031-2612-8411","addr":"경기도 광명시 철산동 425번지 4층","indutype":"숙박업 - 여관/기타숙박업","category":"hotel"},{"name":"호텔야자 철산역점","tel":"031-2612-8411","addr":"경기도 광명시 철산동 425번지 가림빌딩 4층","indutype":"숙박업 - 여관/기타숙박업","category":"hotel"}]}]