[{"lat":"37.281350439","long":"127.14404625","imageIndex":8,"items":[{"name":"THE힘찬동물병원","tel":"031-282-7525","addr":"경기도 용인시 기흥구 중동 1108-1번지 1층","indutype":"기타의료기관 - 동물병원","category":"medical"}]},{"lat":"37.276321207","long":"127.15260604","imageIndex":8,"items":[{"name":"강혜영정신건강의학과의원","tel":"031-286-7705","addr":"경기도 용인시 기흥구 중동 831-2번지 더엠빌딩 3층 304호","indutype":"의원 - 의원","category":"medical"},{"name":"밝은연세안과","tel":"031-8005-7001","addr":"경기도 용인시 기흥구 중동 831-2번지 더엠 상가 404호","indutype":"의원 - 의원","category":"medical"},{"name":"서로나눔한의원","tel":"031-285-0175","addr":"경기도 용인시 기흥구 중동 831-2번지 더엠빌딩 403호","indutype":"의원 - 한의원","category":"medical"},{"name":"연세이튼치과의원","tel":"031-8005-5660","addr":"경기도 용인시 기흥구 중동 831-2번지 더엠빌딩 402호","indutype":"의원 - 치과의원","category":"medical"},{"name":"큰사랑약국","tel":"031-8005-6421","addr":"경기도 용인시 기흥구 중동 831-2번지 더엠상가104-3호","indutype":"약국 - 약국","category":"medical"}]},{"lat":"37.278014017","long":"127.15348889","imageIndex":8,"items":[{"name":"건강소망약국","tel":"031-8006-2050","addr":"경기도 용인시 기흥구 중동 829번지 골드프라자 B동 403-1호","indutype":"약국 - 약국","category":"medical"},{"name":"동백사랑약국","tel":"031-8006-2140","addr":"경기도 용인시 기흥구 중동 829번지 골드프라자 B동 304호","indutype":"약국 - 약국","category":"medical"},{"name":"민이비인후과","tel":"031-8006-2040","addr":"경기도 용인시 기흥구 중동 829번지 골드프라자 B동 305호","indutype":"의원 - 의원","category":"medical"},{"name":"섬기는한의원","tel":"031-693-7377","addr":"경기도 용인시 기흥구 중동 829 골드프라자B동404호~405호","indutype":"의원 - 한의원","category":"medical"}]},{"lat":"37.269292427","long":"127.15321221","imageIndex":8,"items":[{"name":"경희본한의원","tel":"031-693-7975","addr":"경기도 용인시 기흥구 중동 851-4번지 동백역타워","indutype":"의원 - 한의원","category":"medical"},{"name":"본치과","tel":"031-8005-7600","addr":"경기도 용인시 기흥구 중동 2502-4동백역타워403","indutype":"의원 - 치과의원","category":"medical"}]},{"lat":"37.277599474","long":"127.15354444","imageIndex":8,"items":[{"name":"고려외과의원","tel":"031-679-0572","addr":"경기도 용인시 기흥구 중동 829번지 골드프라자 A동 404~406호","indutype":"의원 - 의원","category":"medical"},{"name":"김앤박 정형외과 마취통증의학과 의원","tel":"031-286-8275","addr":"경기도 용인시 기흥구 중동 829번지 골드프라자 에이동 305, 306호","indutype":"의원 - 의원","category":"medical"},{"name":"뉴연세치과의원","tel":"031-8006-2275","addr":"경기도 용인시 기흥구 중동 829번지 골드프라자 B동 406,407호","indutype":"의원 - 치과의원","category":"medical"},{"name":"동백우리요양병원","tel":"031-275-7600","addr":"경기도 용인시 기흥구 중동 829번지 골드프라자 6층비동601~612호","indutype":"병원 - 병원","category":"medical"},{"name":"리멤버피부과 용인점","tel":"031-895-4921","addr":"경기도 용인시 기흥구 중동 829번지 골드프라자 제5층 제씨506,507호","indutype":"의원 - 의원","category":"medical"},{"name":"마디마디 한의원","tel":"031-285-8277","addr":"경기도 용인시 기흥구 중동 829번지 골드프라자 제3층 제비306-307호","indutype":"의원 - 한의원","category":"medical"},{"name":"베스톤의원","tel":"031-286-6608","addr":"경기도 용인시 기흥구 중동 829번지 골드프라자 B동401~402호","indutype":"의원 - 의원","category":"medical"},{"name":"성모프라임내과의원","tel":"031-8005-7582","addr":"경기도 용인시 기흥구 중동 829번지 골드프라자 C동 5층 9,10,11,호","indutype":"의원 - 의원","category":"medical"},{"name":"해비치한의원","tel":"031-286-1213","addr":"경기도 용인시 기흥구 중동 829번지 골드프라자에이동401~402호","indutype":"의원 - 한의원","category":"medical"}]},{"lat":"37.27693296","long":"127.15335143","imageIndex":8,"items":[{"name":"굿모닝안과의원","tel":"031-287-0080","addr":"경기도 용인시 기흥구 중동 830-2번지 동백훼미리프라자II 503호","indutype":"의원 - 의원","category":"medical"},{"name":"메디필약국","tel":"031-286-8431","addr":"경기도 용인시 기흥구 중동 830-2번지 훼미리프라자2.115","indutype":"약국 - 약국","category":"medical"},{"name":"자연한의원","tel":"031-8005-7533","addr":"경기도 용인시 기흥구 중동 830-2번지 동백훼미리프라자 2층 504호","indutype":"의원 - 한의원","category":"medical"},{"name":"좋은하루정신건강의학과의원","tel":"031-693-8312","addr":"경기도 용인시 기흥구 중동 830-2번지 동백훼미리프라자II 3층 303호","indutype":"의원 - 의원","category":"medical"}]},{"lat":"37.277962265","long":"127.15166215","imageIndex":8,"items":[{"name":"기린웰소아청소년과의원","tel":"031-679-0140","addr":"경기도 용인시 기흥구 중동 833번지 쥬네브썬월드빌딩 503호","indutype":"의원 - 의원","category":"medical"},{"name":"늘편한내과","tel":"031-679-0207","addr":"경기도 용인시 기흥구 중동 833번지 쥬네브썬월드 603호","indutype":"의원 - 의원","category":"medical"},{"name":"동백탑치과의원","tel":"031-679-0200","addr":"경기도 용인시 기흥구 중동 833번지 쥬네브썬월드 403호,404호","indutype":"의원 - 치과의원","category":"medical"},{"name":"미모아피부과의원","tel":"031-679-0086","addr":"경기도 용인시 기흥구 중동 833번지 쥬네브썬월드빌딩 302호","indutype":"의원 - 의원","category":"medical"},{"name":"봄봄한의원","tel":"031-679-0145","addr":"경기도 용인시 기흥구 중동 833번지 쥬네브썬월드빌딩 C동 3층 301호","indutype":"의원 - 한의원","category":"medical"},{"name":"서울미소디자인치과","tel":"031-274-7001","addr":"경기도 용인시 기흥구 중동 833번지 쥬네브썬월드클리닉동 505호","indutype":"의원 - 치과의원","category":"medical"},{"name":"쿨펫동물병원","tel":"031-679-0551","addr":"경기도 용인시 기흥구 중동 833번지 쥬네브썬월드 지하1층 B036호","indutype":"기타의료기관 - 동물병원","category":"medical"},{"name":"함소아 한의원","tel":"031-679-0875","addr":"경기도 용인시 기흥구 중동 833번지 쥬네브썬월드빌딩 4층 C405호","indutype":"의원 - 한의원","category":"medical"}]},{"lat":"37.269544284","long":"127.15355094","imageIndex":8,"items":[{"name":"김앤서 내과의원","tel":"031-8019-7582","addr":"경기도 용인시 기흥구 중동 853-3번지 V프라자 201호","indutype":"의원 - 의원","category":"medical"},{"name":"동백 바른약국","tel":"031-693-7064","addr":"경기도 용인시 기흥구 중동 853-3번지 V프라자 106호","indutype":"약국 - 약국","category":"medical"}]},{"lat":"37.275853517","long":"127.14459974","imageIndex":8,"items":[{"name":"김앤진치과의원","tel":"031-282-3873","addr":"경기도 용인시 기흥구 중동 673번지 라비스타상가아파트 303동 304호","indutype":"의원 - 치과의원","category":"medical"}]},{"lat":"37.269715134","long":"127.15382186","imageIndex":8,"items":[{"name":"노아한의원","tel":"031-693-7575","addr":"경기도 용인시 기흥구 중동 853-2번지 제일프라자 4층","indutype":"의원 - 한의원","category":"medical"},{"name":"노아한의원용인점","tel":"031-693-7575","addr":"경기도 용인시 기흥구 중동 853-2번지 제일프라자 4층 402호","indutype":"의원 - 한의원","category":"medical"},{"name":"동백굿모닝한의원","tel":"031-693-7575","addr":"경기도 용인시 기흥구 중동 853-2번지 제일프라자 402호","indutype":"의원 - 한의원","category":"medical"},{"name":"서울손내과의원","tel":"031-274-8585","addr":"경기도 용인시 기흥구 중동 853-2번지 제일프라자 302호","indutype":"의원 - 의원","category":"medical"},{"name":"서울팜약국","tel":"031-286-5548","addr":"경기도 용인시 기흥구 중동 853-2번지 제일프라자 105호","indutype":"약국 - 약국","category":"medical"}]},{"lat":"37.276629031","long":"127.14407126","imageIndex":8,"items":[{"name":"대성약국","tel":"031-8005-9953","addr":"경기도 용인시 기흥구 중동 627-5번지","indutype":"약국 - 약국","category":"medical"},{"name":"중동서울정형외과의원","tel":"031-287-0770","addr":"경기도 용인시 기흥구 중동 627-5번지 대성빌딩","indutype":"의원 - 의원","category":"medical"}]},{"lat":"37.27746538","long":"127.15270979","imageIndex":8,"items":[{"name":"동백내과의원","tel":"031-274-7111","addr":"경기도 용인시 기흥구 중동 832-1번지 훼미리프라자 502호","indutype":"의원 - 의원","category":"medical"},{"name":"동백쥬니어치과","tel":"031-285-7522","addr":"경기도 용인시 기흥구 중동 832-1번지 동백훼미리프라자1 4층 409호","indutype":"의원 - 치과의원","category":"medical"}]},{"lat":"37.277679992","long":"127.15399562","imageIndex":8,"items":[{"name":"동백미즈산부인과","tel":"031-8006-2030","addr":"경기도 용인시 기흥구 중동 829번지 골드프라자 A동 7층","indutype":"의원 - 의원","category":"medical"},{"name":"웰봄소아청소년과의원","tel":"031-275-3314","addr":"경기도 용인시 기흥구 중동 829번지 골드프라자 A동 301호","indutype":"의원 - 의원","category":"medical"},{"name":"정다운 약국","tel":"","addr":"경기도 용인시 기흥구 중동 829번지 골드프라자 A동 3층 304호","indutype":"약국 - 약국","category":"medical"}]},{"lat":"37.276402755","long":"127.1522454","imageIndex":8,"items":[{"name":"동백미한의원","tel":"031-8005-9990","addr":"경기도 용인시 기흥구 중동 831-3번지 동백명진프라자 303동 304호","indutype":"의원 - 한의원","category":"medical"}]},{"lat":"37.280989868","long":"127.14418089","imageIndex":8,"items":[{"name":"동백숲한의원","tel":"031-8005-8275","addr":"경기도 용인시 기흥구 중동 1108-3번지 현암프라자 302호","indutype":"의원 - 한의원","category":"medical"},{"name":"동백키즈약국","tel":"031-275-3545","addr":"경기도 용인시 기흥구 중동 1108-3번지 현암프라자 1층 102호","indutype":"약국 - 약국","category":"medical"},{"name":"삼성키즈소아청소년과의원","tel":"031-693-9811","addr":"경기도 용인시 기흥구 중동 1108-3번지 현암프라자 3층 301호","indutype":"의원 - 의원","category":"medical"},{"name":"자연치과의원","tel":"031-275-2275","addr":"경기도 용인시 기흥구 중동 1108-3번지 현암프라자 3층 303호","indutype":"의원 - 치과의원","category":"medical"}]},{"lat":"37.276654072","long":"127.15301261","imageIndex":8,"items":[{"name":"동백요양병원","tel":"031-284-7577","addr":"경기도 용인시 기흥구 중동 830-3번지 벤포스타빌딩 5-9층","indutype":"병원 - 병원","category":"medical"},{"name":"동백요양병원","tel":"031-284-7577","addr":"경기도 용인시 기흥구 중동 830-3번지 5,6,7,8,9층","indutype":"병원 - 병원","category":"medical"}]},{"lat":"37.276875618","long":"127.14877353","imageIndex":8,"items":[{"name":"동백제일의원","tel":"031-286-9887","addr":"경기도 용인시 기흥구 중동 616-1번지 202호","indutype":"의원 - 의원","category":"medical"},{"name":"참좋은약국","tel":"031-283-8241","addr":"경기도 용인시 기흥구 중동 616-1번지 1층 104호","indutype":"약국 - 약국","category":"medical"}]},{"lat":"37.270210842","long":"127.15371011","imageIndex":8,"items":[{"name":"동백한의원","tel":"031-274-7572","addr":"경기도 용인시 기흥구 중동 852-2번지 동백씨엘뷰오피스텔 2층 202호","indutype":"의원 - 한의원","category":"medical"},{"name":"리치펫동물병원","tel":"031-8005-9725","addr":"경기도 용인시 기흥구 중동 852-2번지 씨엘뷰오피스텔 106호","indutype":"기타의료기관 - 동물병원","category":"medical"}]},{"lat":"37.273909558","long":"127.15013207","imageIndex":8,"items":[{"name":"보바스어린이의원","tel":"031-785-0200","addr":"경기도 용인시 기흥구 중동 842번지 쥬네브스타월드3층301,302,304,5층501,지하1층B138~141","indutype":"의원 - 의원","category":"medical"}]},{"lat":"37.269626192","long":"127.15290847","imageIndex":8,"items":[{"name":"블레스동물메디컬센터","tel":"031-546-0942","addr":"경기도 용인시 기흥구 중동 851-2번지 2층 1호","indutype":"기타의료기관 - 동물병원","category":"medical"}]},{"lat":"37.260327103","long":"127.16021738","imageIndex":8,"items":[{"name":"선함의원","tel":"070-8857-7902","addr":"경기도 용인시 기흥구 중동 1043-2 1,2,3,4층","indutype":"의원 - 의원","category":"medical"},{"name":"선함의원(에스큐랩.SQ Lab)","tel":"070-9276-6890","addr":"경기도 용인시 기흥구 중동 1043-2번지","indutype":"의원 - 의원","category":"medical"}]},{"lat":"37.280765592","long":"127.14335733","imageIndex":8,"items":[{"name":"신동백조은내과","tel":"031-284-0087","addr":"경기도 용인시 기흥구 중동 1110-10번지 외1필지 2층","indutype":"의원 - 의원","category":"medical"},{"name":"신동백조은내과","tel":"031-284-0084","addr":"경기도 용인시 기흥구 중동 1110-10번지 2층","indutype":"의원 - 의원","category":"medical"},{"name":"은혜온누리약국","tel":"031-281-0913","addr":"경기도 용인시 기흥구 중동 1110-10번지 1층","indutype":"약국 - 약국","category":"medical"}]},{"lat":"37.274798384","long":"127.14537574","imageIndex":8,"items":[{"name":"어정동물병원","tel":"031-284-9200","addr":"경기도 용인시 기흥구 중동 760-1","indutype":"기타의료기관 - 동물병원","category":"medical"}]},{"lat":"37.27585425","long":"127.15135358","imageIndex":8,"items":[{"name":"예인당한약국","tel":"031-898-3577","addr":"경기도 용인시 기흥구 중동 838번지 쥬네브문월드빌딩 가동 111호","indutype":"약국 - 약국","category":"medical"}]},{"lat":"37.277401062","long":"127.15369062","imageIndex":8,"items":[{"name":"옵티마소정약국","tel":"031-202-9402","addr":"경기도 용인시 기흥구 중동 829번지 골드프라자 C동 508-1호","indutype":"약국 - 약국","category":"medical"}]},{"lat":"37.271213164","long":"127.15198711","imageIndex":8,"items":[{"name":"유디치과","tel":"031-287-4554","addr":"경기도 용인시 기흥구 중동 848-3번지 동백에이스프라자상가 6층 603호","indutype":"의원 - 치과의원","category":"medical"}]},{"lat":"37.269903961","long":"127.15412664","imageIndex":8,"items":[{"name":"이지동안의원","tel":"031-284-4460","addr":"경기도 용인시 기흥구 중동 853-1번지 우함빌딩 404호","indutype":"의원 - 의원","category":"medical"},{"name":"자연미인의원","tel":"031-281-7506","addr":"경기도 용인시 기흥구 중동 853-1번지 우함빌딩 4층 404호","indutype":"의원 - 의원","category":"medical"},{"name":"제대로한의원","tel":"031-285-6135","addr":"경기도 용인시 기흥구 중동 853-1번지 우함빌딩 403호","indutype":"의원 - 한의원","category":"medical"},{"name":"코아이비인후과의원","tel":"031-8005-8875","addr":"경기도 용인시 기흥구 중동 853-1번지 우함빌딩 502호","indutype":"의원 - 의원","category":"medical"},{"name":"행복한약국","tel":"031-693-7998","addr":"경기도 용인시 기흥구 중동 853-1번지 우함빌딩 105호","indutype":"약국 - 약국","category":"medical"}]},{"lat":"37.27662848","long":"127.15187376","imageIndex":8,"items":[{"name":"호수온누리약국","tel":"031-693-9870","addr":"경기도 용인시 기흥구 중동 832-7번지 레이크시티프라자 4층 403호","indutype":"약국 - 약국","category":"medical"},{"name":"호수온누리약국","tel":"031-693-9870","addr":"경기도 용인시 기흥구 중동 832-7번지 동백레이크시티프라자 4층 403호","indutype":"약국 - 약국","category":"medical"}]}]