[{"lat":"37.307274592","long":"127.74201287","imageIndex":4,"items":[{"name":"(주)지지오앤엠","tel":"031-880-8656","addr":"경기도 여주시 강천면 부평리 산47-1번지","indutype":"일반휴게음식 - 일반한식","category":"restaurant"}]},{"lat":"37.28808227","long":"127.73782185","imageIndex":4,"items":[{"name":"도깨비정원","tel":"031-886-1238","addr":"경기도 여주시 강천면 부평리 139-1번지","indutype":"일반휴게음식 - 일반한식","category":"restaurant"}]},{"lat":"37.282531068","long":"127.74232335","imageIndex":4,"items":[{"name":"두메산골","tel":"031-881-2944","addr":"경기도 여주시 강천면 부평리 245-2번지","indutype":"일반휴게음식 - 일반한식","category":"restaurant"}]},{"lat":"37.277525987","long":"127.74015465","imageIndex":4,"items":[{"name":"들꽃가든","tel":"031-886-8854","addr":"경기도 여주시 강천면 부평리 338-1번지","indutype":"일반휴게음식 - 일반한식","category":"restaurant"}]},{"lat":"37.290273794","long":"127.73893704","imageIndex":4,"items":[{"name":"삿갓골","tel":"031-886-5616","addr":"경기도 여주시 강천면 부평리 142-1번지","indutype":"일반휴게음식 - 일반한식","category":"restaurant"}]},{"lat":"37.270805642","long":"127.72829632","imageIndex":4,"items":[{"name":"삿갓봉설렁탕","tel":"031-885-1714","addr":"경기도 여주시 강천면 부평리 411-8번지","indutype":"일반휴게음식 - 일반한식","category":"restaurant"}]},{"lat":"37.286169731","long":"127.7382092","imageIndex":4,"items":[{"name":"설원다식","tel":"031-884-2074","addr":"경기도 여주시 강천면 부평리 204-1번지","indutype":"일반휴게음식 - 일반한식","category":"restaurant"}]},{"lat":"37.275309868","long":"127.74154239","imageIndex":4,"items":[{"name":"소나무집","tel":"031-886-0727","addr":"경기도 여주시 강천면 부평리 357번지","indutype":"일반휴게음식 - 일반한식","category":"restaurant"}]},{"lat":"37.274221403","long":"127.74126117","imageIndex":4,"items":[{"name":"오감도","tel":"031-882-0050","addr":"경기도 여주시 강천면 부평리 385-2번지","indutype":"일반휴게음식 - 일반한식","category":"restaurant"}]},{"lat":"37.28555323","long":"127.73882341","imageIndex":4,"items":[{"name":"이글가든","tel":"031-883-3161","addr":"경기도 여주시 강천면 부평리 200-1번지 1층","indutype":"일반휴게음식 - 일반한식","category":"restaurant"}]},{"lat":"37.273836887","long":"127.73206858","imageIndex":4,"items":[{"name":"자연아래버섯요리전문점","tel":"031-886-6083","addr":"경기도 여주시 강천면 부평리 404-3번지","indutype":"일반휴게음식 - 일반한식","category":"restaurant"}]},{"lat":"37.295195747","long":"127.73998872","imageIndex":4,"items":[{"name":"태봉산집","tel":"031-885-2898","addr":"경기도 여주시 강천면 부평리 47번지","indutype":"일반휴게음식 - 일반한식","category":"restaurant"}]},{"lat":"37.298084844","long":"127.7404906","imageIndex":4,"items":[{"name":"함지박","tel":"031-885-5952","addr":"경기도 여주시 강천면 부평리 27-2번지","indutype":"일반휴게음식 - 일반한식","category":"restaurant"}]},{"lat":"37.279197543","long":"127.74084748","imageIndex":4,"items":[{"name":"홀인원가든","tel":"031-886-1239","addr":"경기도 여주시 강천면 부평리 345-7번지","indutype":"일반휴게음식 - 일반한식","category":"restaurant"}]},{"lat":"37.277360866","long":"127.7406266","imageIndex":4,"items":[{"name":"홀인원그늘집","tel":"031-881-6803","addr":"경기도 여주시 강천면 부평리 351번지","indutype":"일반휴게음식 - 일반한식","category":"restaurant"}]}]