[{"lat":"37.633419245","long":"127.30168362","imageIndex":4,"items":[{"name":"갓지은솥밥","tel":"031-111-1111","addr":"경기도 남양주시 화도읍 차산리 144-4번지 주건축물제 1동 1층","indutype":"일반휴게음식 - 일반한식","category":"restaurant"}]},{"lat":"37.636784693","long":"127.30332854","imageIndex":4,"items":[{"name":"고래실","tel":"031-6724-5151","addr":"경기도 남양주시 화도읍 차산리 83-6번지","indutype":"일반휴게음식 - 일반한식","category":"restaurant"},{"name":"링링스낵","tel":"","addr":"경기도 남양주시 화도읍 차산리 83-6번지 1층","indutype":"일반휴게음식 - 스넥","category":"restaurant"}]},{"lat":"37.633611701","long":"127.2968016","imageIndex":4,"items":[{"name":"굴러들어온복집","tel":"031-593-3384","addr":"경기도 남양주시 화도읍 차산리 118번지","indutype":"일반휴게음식 - 일반한식","category":"restaurant"}]},{"lat":"37.636615988","long":"127.30235353","imageIndex":4,"items":[{"name":"대화아구탕,찜","tel":"031-593-9199","addr":"경기도 남양주시 화도읍 차산리 80","indutype":"일반휴게음식 - 일반한식","category":"restaurant"}]},{"lat":"37.638306969","long":"127.30347062","imageIndex":4,"items":[{"name":"더담부대찌개","tel":"","addr":"경기도 남양주시 화도읍 차산리 94-2번지","indutype":"일반휴게음식 - 일반한식","category":"restaurant"},{"name":"오페라","tel":"031-511-2060","addr":"경기도 남양주시 화도읍 차산리 94-2번지 2층","indutype":"일반휴게음식 - 주점","category":"restaurant"}]},{"lat":"37.637973412","long":"127.30354859","imageIndex":4,"items":[{"name":"더테이블제이","tel":"031-593-8008","addr":"경기도 남양주시 화도읍 차산리 93-2번지","indutype":"일반휴게음식 - 일반한식","category":"restaurant"}]},{"lat":"37.636891191","long":"127.30396342","imageIndex":4,"items":[{"name":"막창일번지","tel":"031-559-6999","addr":"경기도 남양주시 화도읍 차산리 63-39번지","indutype":"일반휴게음식 - 일반한식","category":"restaurant"},{"name":"화도성","tel":"031-592-4774","addr":"경기도 남양주시 화도읍 차산리 63-39번지","indutype":"일반휴게음식 - 중국식","category":"restaurant"}]},{"lat":"37.62797307","long":"127.30338369","imageIndex":4,"items":[{"name":"바다양푼이동태탕","tel":"031-511-1695","addr":"경기도 남양주시 화도읍 차산리 252번지 유진빌딩 1층 일부","indutype":"일반휴게음식 - 일반한식","category":"restaurant"}]},{"lat":"37.631947834","long":"127.30279927","imageIndex":4,"items":[{"name":"바다오리","tel":"031-591-5052","addr":"경기도 남양주시 화도읍 차산리 149-1번지","indutype":"일반휴게음식 - 일반한식","category":"restaurant"}]},{"lat":"37.634918147","long":"127.3039328","imageIndex":4,"items":[{"name":"배양리 두루치기 화도점","tel":"","addr":"경기도 남양주시 화도읍 차산리 74-1번지","indutype":"일반휴게음식 - 일반한식","category":"restaurant"}]},{"lat":"37.617037695","long":"127.30243357","imageIndex":4,"items":[{"name":"보리향기","tel":"031-559-0248","addr":"경기도 남양주시 화도읍 차산리 532-30번지 1층","indutype":"일반휴게음식 - 일반한식","category":"restaurant"}]},{"lat":"37.636639327","long":"127.30380379","imageIndex":4,"items":[{"name":"비해피(Be Happy)","tel":"031-511-3959","addr":"경기도 남양주시 화도읍 차산리 63-24번지 1층","indutype":"일반휴게음식 - 스넥","category":"restaurant"},{"name":"왕새우직판장","tel":"031-000-0000","addr":"경기도 남양주시 화도읍 차산리 63-24번지 주1동 1층","indutype":"일반휴게음식 - 일반한식","category":"restaurant"},{"name":"이가네감자탕","tel":"031-511-7494","addr":"경기도 남양주시 화도읍 차산리 63-24번지 1층 2호","indutype":"일반휴게음식 - 일반한식","category":"restaurant"}]},{"lat":"37.638250859","long":"127.30427481","imageIndex":4,"items":[{"name":"빅토키즈","tel":"031-511-0192","addr":"경기도 남양주시 화도읍 차산리 63-1번지 2층","indutype":"일반휴게음식 - 일반한식","category":"restaurant"},{"name":"솥뚜껑삼겹살","tel":"031-511-1541","addr":"경기도 남양주시 화도읍 차산리 63-1번지 1층","indutype":"일반휴게음식 - 일반한식","category":"restaurant"}]},{"lat":"37.63711321","long":"127.30168708","imageIndex":4,"items":[{"name":"석정","tel":"031-595-9233","addr":"경기도 남양주시 화도읍 차산리 87-1번지","indutype":"일반휴게음식 - 일반한식","category":"restaurant"}]},{"lat":"37.62727933","long":"127.3033809","imageIndex":4,"items":[{"name":"송어마을","tel":"031-591-8188","addr":"경기도 남양주시 화도읍 차산리 263-2번지 1층","indutype":"일반휴게음식 - 일반한식","category":"restaurant"}]},{"lat":"37.63391919","long":"127.29269038","imageIndex":4,"items":[{"name":"아우네","tel":"031-511-3838","addr":"경기도 남양주시 화도읍 차산리 776-6번지","indutype":"일반휴게음식 - 일반한식","category":"restaurant"}]},{"lat":"37.636861962","long":"127.30482434","imageIndex":4,"items":[{"name":"안동국시","tel":"","addr":"경기도 남양주시 화도읍 차산리 60-5번지","indutype":"일반휴게음식 - 일반한식","category":"restaurant"},{"name":"치피떡","tel":"031-595-8070","addr":"경기도 남양주시 화도읍 차산리 60-5번지 1층 3호","indutype":"일반휴게음식 - 스넥","category":"restaurant"}]},{"lat":"37.62875158","long":"127.30193681","imageIndex":4,"items":[{"name":"엄마밥상","tel":"02-1594-5798","addr":"경기도 남양주시 화도읍 차산리 204-3번지","indutype":"일반휴게음식 - 일반한식","category":"restaurant"}]},{"lat":"37.634087563","long":"127.30809854","imageIndex":4,"items":[{"name":"엠에스쥐(msg)","tel":"","addr":"경기도 남양주시 화도읍 차산리 37-8번지 나동 1층","indutype":"일반휴게음식 - 서양음식","category":"restaurant"}]},{"lat":"37.623620678","long":"127.30010387","imageIndex":4,"items":[{"name":"예스바베큐","tel":"02-1577-9295","addr":"경기도 남양주시 화도읍 차산리 630-1번지 (경기남양주화도차산630-1)","indutype":"일반휴게음식 - 일반한식","category":"restaurant"}]},{"lat":"37.632229378","long":"127.29105247","imageIndex":4,"items":[{"name":"옛맛","tel":"031-593-3763","addr":"경기도 남양주시 화도읍 차산리 738번지","indutype":"일반휴게음식 - 스넥","category":"restaurant"}]},{"lat":"37.637890707","long":"127.30418271","imageIndex":4,"items":[{"name":"왕빨대","tel":"031-593-5605","addr":"경기도 남양주시 화도읍 차산리 63-6번지 1층","indutype":"일반휴게음식 - 주점","category":"restaurant"}]},{"lat":"37.63442464","long":"127.30313777","imageIndex":4,"items":[{"name":"은성비빔국수칼국수","tel":"031-511-4530","addr":"경기도 남양주시 화도읍 차산리 159-7번지","indutype":"일반휴게음식 - 일반한식","category":"restaurant"}]},{"lat":"37.632556706","long":"127.28983022","imageIndex":4,"items":[{"name":"이월로스터스 마석점","tel":"070-8845-2568","addr":"경기도 남양주시 화도읍 차산리 750-1번지","indutype":"일반휴게음식 - 서양음식","category":"restaurant"}]},{"lat":"37.635333513","long":"127.30357194","imageIndex":4,"items":[{"name":"장어명가","tel":"031-511-5887","addr":"경기도 남양주시 화도읍 차산리 76-20번지","indutype":"일반휴게음식 - 일반한식","category":"restaurant"}]},{"lat":"37.628064434","long":"127.30288562","imageIndex":4,"items":[{"name":"정일품","tel":"031-521-0366","addr":"경기도 남양주시 화도읍 차산리 211-1번지","indutype":"일반휴게음식 - 일반한식","category":"restaurant"}]},{"lat":"37.637728303","long":"127.3042727","imageIndex":4,"items":[{"name":"진수성찬","tel":"031-511-9293","addr":"경기도 남양주시 화도읍 차산리 63-18번지 1층","indutype":"일반휴게음식 - 일반한식","category":"restaurant"},{"name":"참맛오향족발보쌈","tel":"031-593-3801","addr":"경기도 남양주시 화도읍 차산리 63-18번지 101호","indutype":"일반휴게음식 - 일반한식","category":"restaurant"}]},{"lat":"37.623397684","long":"127.30277625","imageIndex":4,"items":[{"name":"진식당부페","tel":"031-594-2922","addr":"경기도 남양주시 화도읍 차산리 304번지 1층","indutype":"일반휴게음식 - 일반한식","category":"restaurant"}]},{"lat":"37.633838659","long":"127.29246348","imageIndex":4,"items":[{"name":"차산찜마을","tel":"031-595-4769","addr":"경기도 남양주시 화도읍 차산리 777","indutype":"일반휴게음식 - 일반한식","category":"restaurant"}]},{"lat":"37.62095037","long":"127.30146381","imageIndex":4,"items":[{"name":"파티컴","tel":"031-775-0073","addr":"경기도 남양주시 화도읍 차산리 331-7번지 1층","indutype":"일반휴게음식 - 일반한식","category":"restaurant"}]},{"lat":"37.633396131","long":"127.30368875","imageIndex":4,"items":[{"name":"풍년","tel":"031-591-9211","addr":"경기도 남양주시 화도읍 차산리 164-3번지 1층 일부","indutype":"일반휴게음식 - 일반한식","category":"restaurant"}]},{"lat":"37.634201547","long":"127.30582186","imageIndex":4,"items":[{"name":"풍천장어랑갈비랑","tel":"031-591-9282","addr":"경기도 남양주시 화도읍 차산리 169번지","indutype":"일반휴게음식 - 일반한식","category":"restaurant"}]},{"lat":"37.628896996","long":"127.30143895","imageIndex":4,"items":[{"name":"플랜트202","tel":"031-594-2021","addr":"경기도 남양주시 화도읍 차산리 202-5번지 1층","indutype":"일반휴게음식 - 서양음식","category":"restaurant"}]}]