[{"lat":"37.655644098","long":"127.33607558","imageIndex":4,"items":[{"name":"The모임","tel":"031-594-6400","addr":"경기도 남양주시 화도읍 월산리 65-3번지 가동","indutype":"일반휴게음식 - 일반한식","category":"restaurant"},{"name":"밥찬예술","tel":"031-594-0630","addr":"경기도 남양주시 화도읍 월산리 65-3번지","indutype":"일반휴게음식 - 일반한식","category":"restaurant"},{"name":"월산리커피","tel":"","addr":"경기도 남양주시 화도읍 월산리 65-3번지 2동","indutype":"일반휴게음식 - 서양음식","category":"restaurant"}]},{"lat":"37.654641132","long":"127.340264","imageIndex":4,"items":[{"name":"고봉민김밥인월산점","tel":"031-593-0042","addr":"경기도 남양주시 화도읍 월산리 1528번지 사랑으로부영1단지 상가 1동 103호","indutype":"일반휴게음식 - 스넥","category":"restaurant"},{"name":"리피에노/솜씨협동조합","tel":"031-592-1331","addr":"경기도 남양주시 화도읍 월산리 1528번지 상가3동 2층 202층","indutype":"일반휴게음식 - 서양음식","category":"restaurant"},{"name":"박대박뼈감자탕","tel":"031-592-6005","addr":"경기도 남양주시 화도읍 월산리 1528번지 월산사랑으로부영1단지 상가 2동 104호","indutype":"일반휴게음식 - 일반한식","category":"restaurant"},{"name":"별내닭발통골뱅이","tel":"031-593-5645","addr":"경기도 남양주시 화도읍 월산리 1528번지 남양주월산사랑으로부영1단지 104호","indutype":"일반휴게음식 - 일반한식","category":"restaurant"},{"name":"쉬는시간","tel":"031-511-0545","addr":"경기도 남양주시 화도읍 월산리 1528번지 제상가 2동 105호","indutype":"일반휴게음식 - 스넥","category":"restaurant"},{"name":"신통치킨(월산점)","tel":"031-511-9399","addr":"경기도 남양주시 화도읍 월산리 1528번지 남양주월산사랑으로부영1단지 3동 1층 108호","indutype":"일반휴게음식 - 스넥","category":"restaurant"},{"name":"월산닭갈비 부대찌개","tel":"031-594-0088","addr":"경기도 남양주시 화도읍 월산리 1528번지 남양주월산사랑으로부영1단지 3동 2층 202호","indutype":"일반휴게음식 - 일반한식","category":"restaurant"},{"name":"친구야호프","tel":"070-4332-9172","addr":"경기도 남양주시 화도읍 월산리 1528번지 남양주사랑으로부영1단지 1동 1층 104호","indutype":"일반휴게음식 - 주점","category":"restaurant"}]},{"lat":"37.65117187","long":"127.33729075","imageIndex":4,"items":[{"name":"나무아래카페","tel":"","addr":"경기도 남양주시 화도읍 월산리 1527번지 108동 3층 303-1, 304호 (화도 효성해링턴 플레이스 상가동)","indutype":"일반휴게음식 - 서양음식","category":"restaurant"},{"name":"커피앤떡볶이","tel":"031-595-3258","addr":"경기도 남양주시 화도읍 월산리 1527번지 화도 효성해링턴 플레이스 상가동 108동 103호","indutype":"일반휴게음식 - 스넥","category":"restaurant"},{"name":"효성치킨","tel":"031-511-9550","addr":"경기도 남양주시 화도읍 월산리 1527번지 화도 효성해링턴 플레이스 상가동 상가 108동 106호","indutype":"일반휴게음식 - 스넥","category":"restaurant"}]},{"lat":"37.653867285","long":"127.3303223","imageIndex":4,"items":[{"name":"네네치킨","tel":"031-593-3233","addr":"경기도 남양주시 화도읍 월산리 368-1번지","indutype":"일반휴게음식 - 스넥","category":"restaurant"},{"name":"본가뼈다귀전문점","tel":"031-594-0009","addr":"경기도 남양주시 화도읍 월산리 368-1번지 1층 가운데호","indutype":"일반휴게음식 - 일반한식","category":"restaurant"}]},{"lat":"37.651864798","long":"127.32791118","imageIndex":4,"items":[{"name":"더 하이브","tel":"031-593-7666","addr":"경기도 남양주시 화도읍 월산리 288-2번지","indutype":"일반휴게음식 - 서양음식","category":"restaurant"}]},{"lat":"37.655831568","long":"127.33668837","imageIndex":4,"items":[{"name":"룡천","tel":"031-511-2211","addr":"경기도 남양주시 화도읍 월산리 67-2번지","indutype":"일반휴게음식 - 중국식","category":"restaurant"}]},{"lat":"37.653893819","long":"127.3272401","imageIndex":4,"items":[{"name":"만복래","tel":"031-206-0064","addr":"경기도 남양주시 화도읍 월산리 320-2번지","indutype":"일반휴게음식 - 일반한식","category":"restaurant"}]},{"lat":"37.651282414","long":"127.32343263","imageIndex":4,"items":[{"name":"모란가든","tel":"031-591-4835","addr":"경기도 남양주시 화도읍 월산리 246-16번지 1층","indutype":"일반휴게음식 - 일반한식","category":"restaurant"}]},{"lat":"37.651220854","long":"127.32287712","imageIndex":4,"items":[{"name":"민들레한식부페","tel":"031-591-9923","addr":"경기도 남양주시 화도읍 월산리 246-15번지 1층","indutype":"일반휴게음식 - 일반한식","category":"restaurant"}]},{"lat":"37.652393861","long":"127.32882003","imageIndex":4,"items":[{"name":"빛고을","tel":"031-593-2974","addr":"경기도 남양주시 화도읍 월산리 283-4","indutype":"일반휴게음식 - 일반한식","category":"restaurant"}]},{"lat":"37.654918795","long":"127.33448583","imageIndex":4,"items":[{"name":"서울해장국","tel":"031-591-1979","addr":"경기도 남양주시 화도읍 월산리 380-20 외 7필지","indutype":"일반휴게음식 - 일반한식","category":"restaurant"}]},{"lat":"37.644361324","long":"127.33059782","imageIndex":4,"items":[{"name":"식탐식당","tel":"031-511-0375","addr":"경기도 남양주시 화도읍 월산리 212-8번지","indutype":"일반휴게음식 - 일반한식","category":"restaurant"}]},{"lat":"37.65464417","long":"127.33281878","imageIndex":4,"items":[{"name":"왕부자숯불닭갈비","tel":"031-594-9595","addr":"경기도 남양주시 화도읍 월산리 361번지","indutype":"일반휴게음식 - 일반한식","category":"restaurant"},{"name":"용가마순대","tel":"031-552-6868","addr":"경기도 남양주시 화도읍 월산리 361번지","indutype":"일반휴게음식 - 일반한식","category":"restaurant"}]},{"lat":"37.653474005","long":"127.32918737","imageIndex":4,"items":[{"name":"우리식당","tel":"031-595-3751","addr":"경기도 남양주시 화도읍 월산리 310-2번지 1층","indutype":"일반휴게음식 - 일반한식","category":"restaurant"}]},{"lat":"37.655474643","long":"127.33546288","imageIndex":4,"items":[{"name":"장가네해장국","tel":"031-593-2226","addr":"경기도 남양주시 화도읍 월산리 43-3번지 1층","indutype":"일반휴게음식 - 일반한식","category":"restaurant"}]},{"lat":"37.656950066","long":"127.33940184","imageIndex":4,"items":[{"name":"전주가마솥곰탕","tel":"031-593-8831","addr":"경기도 남양주시 화도읍 월산리 20번지","indutype":"일반휴게음식 - 일반한식","category":"restaurant"}]},{"lat":"37.654666273","long":"127.33457537","imageIndex":4,"items":[{"name":"전주최고네순두부","tel":"031-592-8898","addr":"경기도 남양주시 화도읍 월산리 380-1번지 나동 2,3호","indutype":"일반휴게음식 - 일반한식","category":"restaurant"}]},{"lat":"37.651533912","long":"127.32371701","imageIndex":4,"items":[{"name":"커피삼촌","tel":"031-696-5047","addr":"경기도 남양주시 화도읍 월산리 246-10번지 1층","indutype":"일반휴게음식 - 일반한식","category":"restaurant"}]}]