[{"lat":"37.489880821","long":"127.15792725","imageIndex":17,"items":[{"name":"(주)알에프아웃도어남한산성점","tel":"031-406-7314","addr":"경기도 하남시 학암동 2-7번지","indutype":"레져용품 - 스포츠·레져용품","category":"other"}]},{"lat":"37.47493742","long":"127.15476489","imageIndex":17,"items":[{"name":"GS25위례그린파크점","tel":"","addr":"경기도 하남시 학암동 673번지 위례그린파크 푸르지오 상가동 101, 102호","indutype":"유통업 영리 - 편 의 점","category":"other"},{"name":"루나컴퍼니","tel":"","addr":"경기도 하남시 학암동 673번지 위례그린파크푸르지오 6512동 1303호","indutype":"의류 - 정장","category":"other"},{"name":"부자방충망","tel":"","addr":"경기도 하남시 학암동 673번지 위례그린파크푸르지오 6506동 1005호","indutype":"용역 서비스 - 기타용역서비스","category":"other"},{"name":"위례삼성공인중개사사무소","tel":"02-448-0707","addr":"경기도 하남시 학암동 673번지 위례그린파크푸르지오 상가 1층 105호","indutype":"용역 서비스 - 부동산 중개·임대","category":"other"},{"name":"이엔제이","tel":"02-302-9335","addr":"경기도 하남시 학암동 673번지 위례그린파크푸르지오 6510동 903호","indutype":"용역 서비스 - 기타용역서비스","category":"other"},{"name":"주식회사 킨더푸드","tel":"","addr":"경기도 하남시 학암동 673번지 위례그린파크푸르지오 6506동 601호","indutype":"용역 서비스 - 사무서비스","category":"other"},{"name":"테라스크린","tel":"02-430-6281","addr":"경기도 하남시 학암동 673번지 위례그린파크푸르지오 103호","indutype":"수리서비스 - 세탁소","category":"other"}]},{"lat":"37.474933134","long":"127.14367467","imageIndex":17,"items":[{"name":"GS25위례신안점","tel":"","addr":"경기도 하남시 학암동 663번지 상가동 1층 111호","indutype":"유통업 영리 - 편 의 점","category":"other"},{"name":"시크릿가든","tel":"02-400-8946","addr":"경기도 하남시 학암동 663번지 위례신도시신안인스빌아스트로 상가 110호","indutype":"문화.취미 - 화원","category":"other"},{"name":"신안세탁","tel":"02-431-2992","addr":"경기도 하남시 학암동 663번지 위례신도시 신안인스빌 아스트로 상가동 114호","indutype":"수리서비스 - 세탁소","category":"other"}]},{"lat":"37.478468357","long":"127.1483731","imageIndex":17,"items":[{"name":"World Family","tel":"02-3402-0902","addr":"경기도 하남시 학암동 661번지 위례효성해링턴타워 206호","indutype":"서적문구 - 기타서적문구","category":"other"},{"name":"다옴 스포츠","tel":"02-409-2220","addr":"경기도 하남시 학암동 661번지 위례효성해링턴타워 1층 146호","indutype":"레져용품 - 골프용품 전문점","category":"other"},{"name":"명문세탁","tel":"031-404-4490","addr":"경기도 하남시 학암동 504번지 (위례효성해링턴타워 221호)","indutype":"수리서비스 - 세탁소","category":"other"},{"name":"명품옷수선","tel":"031-000-0000","addr":"경기도 하남시 학암동 661번지 위례효성해링턴타워 122호","indutype":"수리서비스 - 세탁소","category":"other"},{"name":"씨앤씨 모바일","tel":"02-406-4066","addr":"경기도 하남시 학암동 661번지 위례효성해링턴타워 1층 110호","indutype":"사무통신 - 통신기기","category":"other"},{"name":"아강이폰케이스","tel":"","addr":"경기도 하남시 학암동 661번지 위례효성해링턴타워 157호","indutype":"신변잡화 - 기타잡화","category":"other"},{"name":"엠피오리","tel":"","addr":"경기도 하남시 학암동 661번지 위례효성해링턴타워 1층 163호","indutype":"문화.취미 - 화원","category":"other"},{"name":"이마트24 위례해링턴점","tel":"","addr":"경기도 하남시 학암동 661번지 위례효성해링턴타워 1층 122-1,123-1, 123호","indutype":"유통업 영리 - 편 의 점","category":"other"},{"name":"잇다 컴퍼니","tel":"","addr":"경기도 하남시 학암동 661번지 위례효성해링턴타워 1362호","indutype":"용역 서비스 - 종합용역","category":"other"},{"name":"주식회사 홍성엔브이에이치","tel":"02-415-5589","addr":"경기도 하남시 학암동 661번지 위례효성해링턴타워 4층 49호","indutype":"건축자재 - 기타건축자재","category":"other"},{"name":"컴투펫 성남위례점","tel":"","addr":"경기도 하남시 학암동 661번지 위례효성해링턴타워 165호","indutype":"문화.취미 - 애완동물","category":"other"},{"name":"크린위드 효성해링턴점","tel":"031-431-8525","addr":"경기도 하남시 학암동 661번지 위례효성해링턴타워 1층 124호","indutype":"수리서비스 - 세탁소","category":"other"},{"name":"타미드","tel":"","addr":"경기도 하남시 학암동 661번지 위례효성해링턴타워오피스텔 20층 2022호","indutype":"레져용품 - 스포츠·레져용품","category":"other"},{"name":"피그블라썸","tel":"031-000-0000","addr":"경기도 하남시 학암동 661번지 위례효성해링턴타워 A동 8층 814호","indutype":"신변잡화 - 기타잡화","category":"other"},{"name":"현대정보통신","tel":"02-409-2659","addr":"경기도 하남시 학암동 661번지 위례효성해링턴타워 218호","indutype":"사무통신 - 통신기기","category":"other"},{"name":"효성크리닝","tel":"02-552-6255","addr":"경기도 하남시 학암동 661번지 위례효성해링턴타워 상가 213호","indutype":"수리서비스 - 세탁소","category":"other"}]},{"lat":"37.481376676","long":"127.14990505","imageIndex":17,"items":[{"name":"나른한 설레임","tel":"","addr":"경기도 하남시 학암동 654번지 위례지웰푸르지오 107동 202호","indutype":"문화.취미 - 문화취미기타","category":"other"},{"name":"스타일 바이 골프(STYLE BY GOLF)","tel":"","addr":"경기도 하남시 학암동 654번지 위례지웰푸르지오 제상가동 122호","indutype":"레져용품 - 골프용품 전문점","category":"other"},{"name":"식물산책","tel":"02-400-1005","addr":"경기도 하남시 학암동 654번지 위례지웰푸르지오 상가동 1층 114호","indutype":"문화.취미 - 화원","category":"other"},{"name":"아이번가든","tel":"","addr":"경기도 하남시 학암동 654번지 위례지웰푸르지오 107동 102호","indutype":"문화.취미 - 화원","category":"other"},{"name":"앤컴퍼니","tel":"","addr":"경기도 하남시 학암동 654번지 위례지웰푸르지오 103동 2903호","indutype":"용역 서비스 - 소프트웨어","category":"other"},{"name":"윤스","tel":"02-6015-1122","addr":"경기도 하남시 학암동 654번지 위례지웰푸르지오 상가동 1층 115호","indutype":"의류 - 정장","category":"other"},{"name":"파라키즈 엔터테인먼트(PARAKIDS ENT.)","tel":"","addr":"경기도 하남시 학암동 654번지 위례지웰푸르지오 103동 1402호","indutype":"용역 서비스 - 종합용역","category":"other"}]},{"lat":"37.476463661","long":"127.14464979","imageIndex":17,"items":[{"name":"다산","tel":"","addr":"경기도 하남시 학암동 662번지 위례신도시 엠코타운 센트로엘 6108동 14층 03호","indutype":"사무통신 - 컴퓨터","category":"other"},{"name":"세븐일레븐하남엠코점","tel":"031-1577-0711","addr":"경기도 하남시 학암동 662번지 위례신도시 엠코타운 센트로엘 상가 1동 101호","indutype":"유통업 영리 - 편 의 점","category":"other"},{"name":"엠코명품세탁","tel":"02-557-3306","addr":"경기도 하남시 학암동 662번지 위례신도시엠코타운센트로엘 상가 2동 113호","indutype":"수리서비스 - 세탁소","category":"other"},{"name":"오팟위례중앙점","tel":"031-449-9888","addr":"경기도 하남시 학암동 662번지 위례신도시 엠코타운 센트로엘 121호","indutype":"서적문구 - 문구용품","category":"other"},{"name":"위례포토사진관","tel":"031-000-0000","addr":"경기도 하남시 학암동 662번지 위례신도시엠코타운센트로엘 2동 115호","indutype":"광학제품 - 사진관","category":"other"},{"name":"주식회사 아성 소잉머신","tel":"02-518-0399","addr":"경기도 하남시 학암동 662번지 위례신도시엠코타운센트로엘 6109동 201호","indutype":"용역 서비스 - 기타용역서비스","category":"other"}]},{"lat":"37.479826447","long":"127.15032032","imageIndex":17,"items":[{"name":"밀라토피아스크린골프(주)","tel":"02-443-7002","addr":"경기도 하남시 학암동 659번지","indutype":"레져용품 - 골프용품 전문점","category":"other"},{"name":"밀리토피아","tel":"02-406-8118","addr":"경기도 하남시 학암동 659번지","indutype":"회원제형태 - 레져업소","category":"other"},{"name":"밀리토피아골프아카데미","tel":"02-443-0978","addr":"경기도 하남시 학암동 659번지","indutype":"회원제형태 - 레져업소","category":"other"},{"name":"박노석 골프아카데미","tel":"031-793-1000","addr":"경기도 하남시 학암동 659번지 밀리토피아골프연습장3F","indutype":"회원제형태 - 레져업소","category":"other"},{"name":"코어앤바디(core&body)","tel":"02-400-4322","addr":"경기도 하남시 학암동 659번지","indutype":"레져용품 - 스포츠·레져용품","category":"other"}]},{"lat":"37.477910005","long":"127.14815721","imageIndex":17,"items":[{"name":"씨유위례해링턴1호점","tel":"031-898-3561","addr":"경기도 하남시 학암동 504번지 위례 효성해링턴타워 오피스텔 제1층 128호, 128-1호","indutype":"유통업 영리 - 편 의 점","category":"other"},{"name":"씨유위례해링턴2호점","tel":"031-898-6569","addr":"경기도 하남시 학암동 504번지 효성해링턴타워오피스텔 제1층 제21호","indutype":"유통업 영리 - 편 의 점","category":"other"}]},{"lat":"37.474573018","long":"127.15081872","imageIndex":17,"items":[{"name":"에너지파크","tel":"02-449-9399","addr":"경기도 하남시 학암동 672번지 에코앤롯데캐슬 6411동 11층 5호","indutype":"신변잡화 - 기타잡화","category":"other"},{"name":"하나로 안전망","tel":"031-742-8284","addr":"경기도 하남시 학암동 672번지 에코앤롯데캐슬 6410동 402호","indutype":"건축자재 - 기타건축자재","category":"other"}]},{"lat":"37.490133277","long":"127.15779209","imageIndex":17,"items":[{"name":"웨스트우드마천점","tel":"02-3012-6800","addr":"경기도 하남시 학암동 1-3번지 1층","indutype":"레져용품 - 스포츠·레져용품","category":"other"}]},{"lat":"37.475629948","long":"127.1485937","imageIndex":17,"items":[{"name":"위례엠코플로리체점","tel":"02-430-7095","addr":"경기도 하남시 학암동 671번지 위례신도시 엠코타운 플로리체 1층 3호","indutype":"수리서비스 - 세탁소","category":"other"}]},{"lat":"37.478468357","long":"127.1483731","imageIndex":4,"items":[{"name":"A'Cafe (아카페)","tel":"02-1111-1111","addr":"경기도 하남시 학암동 661번지 위례효성해링턴타워 1층 129호","indutype":"일반휴게음식 - 서양음식","category":"restaurant"},{"name":"곤지암소머리국밥 위례점","tel":"070-8233-3332","addr":"경기도 하남시 학암동 661번지 1층 143,144호","indutype":"일반휴게음식 - 일반한식","category":"restaurant"},{"name":"김밥천국 위례신도시점","tel":"02-403-1006","addr":"경기도 하남시 학암동 661번지 위례효성해링턴타워 1동 1층 124-1호","indutype":"일반휴게음식 - 스넥","category":"restaurant"},{"name":"남도가참치","tel":"031-701-8382","addr":"경기도 하남시 학암동 661번지 위례효성해링턴타워 136,137호","indutype":"일반휴게음식 - 일반한식","category":"restaurant"},{"name":"남친닭발","tel":"02-6032-5252","addr":"경기도 하남시 학암동 661번지 위례효성해링턴타워 159호","indutype":"일반휴게음식 - 일반한식","category":"restaurant"},{"name":"몽크라페/크휘드도흐 주식회사","tel":"070-4642-0623","addr":"경기도 하남시 학암동 661번지 위례효성해링턴타워 205호","indutype":"일반휴게음식 - 서양음식","category":"restaurant"},{"name":"양육점","tel":"02-404-0656","addr":"경기도 하남시 학암동 661번지 위례효성해링턴타워 103,104호","indutype":"일반휴게음식 - 일반한식","category":"restaurant"},{"name":"어부락","tel":"02-430-8992","addr":"경기도 하남시 학암동 661번지 위례 효성해링턴타워 1층 115호,116호","indutype":"일반휴게음식 - 일반한식","category":"restaurant"},{"name":"오꾸꼬 위례점","tel":"02-402-5995","addr":"경기도 하남시 학암동 661번지 위례효성해링턴타워 161호","indutype":"일반휴게음식 - 일반한식","category":"restaurant"},{"name":"이로운닭스타 위례점","tel":"02-418-9574","addr":"경기도 하남시 학암동 661번지 위례효성해링턴타워 1층 126호","indutype":"일반휴게음식 - 일반한식","category":"restaurant"},{"name":"자성화맛집코다리네 (위례점)","tel":"02-430-9592","addr":"경기도 하남시 학암동 661번지 위례효성해링턴타워 2층 217호","indutype":"일반휴게음식 - 일반한식","category":"restaurant"},{"name":"정이네서서갈비","tel":"02-449-5505","addr":"경기도 하남시 학암동 661번지 위례효성해링턴타워 1층 115,116호","indutype":"일반휴게음식 - 일반한식","category":"restaurant"},{"name":"지코바 위례1호점","tel":"02-403-9255","addr":"경기도 하남시 학암동 661번지 위례효성해링턴타워 167호","indutype":"일반휴게음식 - 스넥","category":"restaurant"},{"name":"포폴로(이디야)","tel":"02-408-0838","addr":"경기도 하남시 학암동 661번지 위례효성해링턴타워 1층 114호","indutype":"일반휴게음식 - 서양음식","category":"restaurant"},{"name":"헤이시의 카페(Hacey's cafe)","tel":"","addr":"경기도 하남시 학암동 661번지 위례효성해링턴타워 1층 106호","indutype":"일반휴게음식 - 서양음식","category":"restaurant"}]},{"lat":"37.476463661","long":"127.14464979","imageIndex":4,"items":[{"name":"THE 알찬","tel":"02-573-0787","addr":"경기도 하남시 학암동 662번지 위례신도시엠코타운센트로엘 제상가3동 1층 제117호","indutype":"일반휴게음식 - 스넥","category":"restaurant"}]},{"lat":"37.489546279","long":"127.15881983","imageIndex":4,"items":[{"name":"돌무데기가든","tel":"02-3402-2829","addr":"경기도 하남시 학암동 6-3번지","indutype":"일반휴게음식 - 일반한식","category":"restaurant"}]},{"lat":"37.481376676","long":"127.14990505","imageIndex":4,"items":[{"name":"바른치킨 위례지웰스타필드점","tel":"02-406-8892","addr":"경기도 하남시 학암동 654번지 위례지웰푸르지오 상가동 125호","indutype":"일반휴게음식 - 스넥","category":"restaurant"},{"name":"위례제주도니","tel":"02-401-3592","addr":"경기도 하남시 학암동 654번지 위례지웰푸르지오 상가동 1층 101A호","indutype":"일반휴게음식 - 일반한식","category":"restaurant"},{"name":"유주얼 (USUAL)","tel":"02-000-0000","addr":"경기도 하남시 학암동 654번지 위례지웰푸르지오 101동 121호","indutype":"일반휴게음식 - 서양음식","category":"restaurant"},{"name":"주신 밥상","tel":"","addr":"경기도 하남시 학암동 654번지 위례지웰푸르지오 상가동 2층 204호","indutype":"일반휴게음식 - 일반한식","category":"restaurant"}]},{"lat":"37.490042851","long":"127.15804066","imageIndex":4,"items":[{"name":"별미식당","tel":"02-407-4603","addr":"경기도 하남시 학암동 1-5번지","indutype":"일반휴게음식 - 일반한식","category":"restaurant"}]},{"lat":"37.479880929","long":"127.14998126","imageIndex":4,"items":[{"name":"빈스빈스","tel":"02-430-0709","addr":"경기도 하남시 학암동 252-1번지,1층","indutype":"일반휴게음식 - 서양음식","category":"restaurant"}]},{"lat":"37.489600413","long":"127.15876341","imageIndex":4,"items":[{"name":"산사랑","tel":"031-404-9354","addr":"경기도 하남시 학암동 6-2번지","indutype":"일반휴게음식 - 일반한식","category":"restaurant"}]},{"lat":"37.489880673","long":"127.15804033","imageIndex":4,"items":[{"name":"산사모","tel":"02-400-0442","addr":"경기도 하남시 학암동 2-8번지","indutype":"일반휴게음식 - 일반한식","category":"restaurant"}]},{"lat":"37.489356712","long":"127.15909081","imageIndex":4,"items":[{"name":"영월소머리국밥","tel":"031-404-0253","addr":"경기도 하남시 학암동 6-18번지 101호","indutype":"일반휴게음식 - 일반한식","category":"restaurant"},{"name":"장수두부","tel":"031-407-5629","addr":"경기도 하남시 학암동 6-18번지 1층","indutype":"일반휴게음식 - 일반한식","category":"restaurant"}]},{"lat":"37.48951904","long":"127.15897808","imageIndex":4,"items":[{"name":"올때갈때","tel":"02-408-5355","addr":"경기도 하남시 학암동 6-14번지 1층","indutype":"일반휴게음식 - 일반한식","category":"restaurant"}]},{"lat":"37.479826447","long":"127.15032032","imageIndex":4,"items":[{"name":"와이엠이십일유통(주)밀리토피아점","tel":"02-3400-0790","addr":"경기도 하남시 학암동 659번지","indutype":"일반휴게음식 - 일반한식","category":"restaurant"}]},{"lat":"37.487348291","long":"127.15848736","imageIndex":4,"items":[{"name":"청주함바식당","tel":"02-406-8383","addr":"경기도 하남시 학암동 산1-1번지","indutype":"일반휴게음식 - 일반한식","category":"restaurant"}]},{"lat":"37.475629948","long":"127.1485937","imageIndex":4,"items":[{"name":"치썸치킨 위례점","tel":"02-449-7776","addr":"경기도 하남시 학암동 671번지 위례신도시 엠코타운 플로리체 103호","indutype":"일반휴게음식 - 스넥","category":"restaurant"},{"name":"커피에반하다","tel":"","addr":"경기도 하남시 학암동 671번지 위례신도시엠코타운플로리체 1층 1호","indutype":"일반휴게음식 - 서양음식","category":"restaurant"}]},{"lat":"37.489988613","long":"127.15817624","imageIndex":4,"items":[{"name":"친구야","tel":"031-000-0000","addr":"경기도 하남시 학암동 5-2번지 1층","indutype":"일반휴게음식 - 일반한식","category":"restaurant"}]},{"lat":"37.490106025","long":"127.15796164","imageIndex":4,"items":[{"name":"키친포어스 위례점","tel":"","addr":"경기도 하남시 학암동 1-4번지 위례택지개발지구 A3-5","indutype":"일반휴게음식 - 위탁급식업","category":"restaurant"},{"name":"할머니해장국","tel":"02-443-1001","addr":"경기도 하남시 학암동 1-4번지","indutype":"일반휴게음식 - 일반한식","category":"restaurant"}]},{"lat":"37.474573018","long":"127.15081872","imageIndex":16,"items":[{"name":"가원어린이집[아이행복]","tel":"02-6052-2353","addr":"경기도 하남시 학암동 672번지 에코앤롯데캐슬 6407동 103호","indutype":"학원 - 유아원","category":"study"},{"name":"미리별어린이집[아이행복]","tel":"02-400-1990","addr":"경기도 하남시 학암동 672번지 에코앤롯데캐슬 6411동","indutype":"학원 - 유아원","category":"study"},{"name":"생명나무어린이집[아이행복]","tel":"02-402-3744","addr":"경기도 하남시 학암동 672번지 에코앤롯데캐슬 6404동 105호","indutype":"학원 - 유아원","category":"study"},{"name":"수피아어린이집[아이행복]","tel":"02-6369-9685","addr":"경기도 하남시 학암동 672번지 에코앤롯데캐슬","indutype":"학원 - 유아원","category":"study"},{"name":"시립다솔어린이집[아이행복]","tel":"02-443-5001","addr":"경기도 하남시 학암동 672번지 위례롯데캐슬","indutype":"학원 - 유아원","category":"study"}]},{"lat":"37.47493742","long":"127.15476489","imageIndex":16,"items":[{"name":"메리샤","tel":"02-6264-2506","addr":"경기도 하남시 학암동 673번지 위례그린파크푸르지오 6506동 405호","indutype":"학원 - 기타 교육기관","category":"study"}]},{"lat":"37.476463661","long":"127.14464979","imageIndex":16,"items":[{"name":"위례연세뮤직랩교습소","tel":"02-400-6657","addr":"경기도 하남시 학암동 662번지 위례신도시엠코타운센트로엘 상가 2동 111호","indutype":"학원 - 예·체능계학원","category":"study"}]},{"lat":"37.478468357","long":"127.1483731","imageIndex":16,"items":[{"name":"이화칸타빌레음악교습소","tel":"02-400-3848","addr":"경기도 하남시 학암동 661번지 위례효성해링턴타워 2층 206호","indutype":"학원 - 예·체능계학원","category":"study"}]},{"lat":"37.481376676","long":"127.14990505","imageIndex":16,"items":[{"name":"튼튼영어 위례하남","tel":"031-763-2986","addr":"경기도 하남시 학암동 654번지 위례지웰푸르지오","indutype":"학원 - 학습지 교육","category":"study"}]},{"lat":"37.47493742","long":"127.15476489","imageIndex":7,"items":[{"name":"갸또드마리","tel":"","addr":"경기도 하남시 학암동 673번지 위례그린파크푸르지오 지하1층 108호","indutype":"음료식품 - 제과점","category":"food"},{"name":"모고(MOGO)","tel":"031-000-0000","addr":"경기도 하남시 학암동 673번지 위례그린파크푸르지오 104동 901호","indutype":"음료식품 - 기타음료식품","category":"food"}]},{"lat":"37.478468357","long":"127.1483731","imageIndex":7,"items":[{"name":"데일리FD","tel":"02-430-0366","addr":"경기도 하남시 학암동 661번지 위례효성해링턴타워","indutype":"음료식품 - 기타음료식품","category":"food"}]},{"lat":"37.474573018","long":"127.15081872","imageIndex":7,"items":[{"name":"민잇","tel":"","addr":"경기도 하남시 학암동 672번지 위례롯데캐슬 6402동 606호","indutype":"음료식품 - 기타음료식품","category":"food"}]},{"lat":"37.489600413","long":"127.15876341","imageIndex":7,"items":[{"name":"서울365 VC PLUS (남한산성점)","tel":"031-406-0365","addr":"경기도 하남시 학암동 6-2번지 1층","indutype":"음료식품 - 기타음료식품","category":"food"}]},{"lat":"37.476663578","long":"127.15061935","imageIndex":7,"items":[{"name":"위례고 교육공동체 사회적협동조합","tel":"","addr":"경기도 하남시 학암동 666번지 위례고등학교 2층","indutype":"음료식품 - 기타음료식품","category":"food"}]},{"lat":"37.479826447","long":"127.15032032","imageIndex":7,"items":[{"name":"파리바게뜨 (위례밀리토피아점)","tel":"02-408-8204","addr":"경기도 하남시 학암동 659번지 1층","indutype":"음료식품 - 제과점","category":"food"}]},{"lat":"37.474573018","long":"127.15081872","imageIndex":0,"items":[{"name":"국민윤활유","tel":"031-714-0957","addr":"경기도 하남시 학암동 672번지 위례롯데캐슬 6408동 903호","indutype":"자동차정비 유지 - 윤활유 전문 판매","category":"car"}]},{"lat":"37.47493742","long":"127.15476489","imageIndex":0,"items":[{"name":"명성서비스","tel":"","addr":"경기도 하남시 학암동 673번지 위례그린파크푸르지오 6509동 1201호","indutype":"자동차정비 유지 - 세차장","category":"car"}]},{"lat":"37.475268305","long":"127.14959915","imageIndex":0,"items":[{"name":"스팀남성세차장","tel":"031-705-7771","addr":"경기도 하남시 학암동 514","indutype":"자동차정비 유지 - 세차장","category":"car"}]},{"lat":"37.478468357","long":"127.1483731","imageIndex":0,"items":[{"name":"위례 효성해링턴타워 관리단","tel":"02-449-3322","addr":"경기도 하남시 학암동 661번지 위례효성해링턴타워","indutype":"자동차정비 유지 - 주차장","category":"car"}]},{"lat":"37.478468357","long":"127.1483731","imageIndex":13,"items":[{"name":"김지수 헤어랩","tel":"02-402-2859","addr":"경기도 하남시 학암동 661번지 위례효성해링턴타워 1층 133호","indutype":"보건위생 - 미용원","category":"beauty"},{"name":"민타이테라피","tel":"","addr":"경기도 하남시 학암동 504번지 위례효성해링턴타워 209호,210호","indutype":"보건위생 - 화장품","category":"beauty"},{"name":"아이통곡 모유육아 상담실","tel":"","addr":"경기도 하남시 학암동 661번지 위례효성해링턴타워 14층 1414호","indutype":"보건위생 - 기타대인서비스","category":"beauty"},{"name":"오빠네일(Brother nail)","tel":"02-400-0817","addr":"경기도 하남시 학암동 661번지 위례효성해링턴타워 1층 150-1호","indutype":"보건위생 - 피부미용실","category":"beauty"}]},{"lat":"37.479826447","long":"127.15032032","imageIndex":13,"items":[{"name":"두아뷰티삽","tel":"02-3708-1202","addr":"경기도 하남시 학암동 659번지 2층","indutype":"보건위생 - 미용원","category":"beauty"}]},{"lat":"37.481376676","long":"127.14990505","imageIndex":13,"items":[{"name":"멕시칸브론즈(MIXICAN BRONZE)2호점","tel":"02-2051-0000","addr":"경기도 하남시 학암동 654번지 위례지웰푸르지오 101동 209호","indutype":"보건위생 - 화장품","category":"beauty"},{"name":"헤어디자인샘(Hair Design SAM)","tel":"","addr":"경기도 하남시 학암동 654번지 위례지웰푸르지오 202호","indutype":"보건위생 - 미용원","category":"beauty"}]},{"lat":"37.47493742","long":"127.15476489","imageIndex":13,"items":[{"name":"엠제이(MJ)코스메틱","tel":"02-6349-7005","addr":"경기도 하남시 학암동 673번지 위례그린파크푸르지오 1층 104호","indutype":"보건위생 - 화장품","category":"beauty"},{"name":"하라헤어","tel":"031-3402-0802","addr":"경기도 하남시 학암동 673번지 위례그린파크푸르지오 지하1층 106,107호","indutype":"보건위생 - 미용원","category":"beauty"}]},{"lat":"37.47493742","long":"127.15476489","imageIndex":13,"items":[{"name":"루시드바디 필라테스(LucidBody Pilates)","tel":"070-7115-7644","addr":"경기도 하남시 학암동 673번지 위례그린파크푸르지오 6514동 1303호","indutype":"레저업소 - 헬스클럽","category":"leisure"}]},{"lat":"37.478468357","long":"127.1483731","imageIndex":13,"items":[{"name":"변창수","tel":"","addr":"경기도 하남시 학암동 661번지 위례효성해링턴타워 501호","indutype":"레저업소 - 골프연습장","category":"leisure"}]},{"lat":"37.479826447","long":"127.15032032","imageIndex":13,"items":[{"name":"세계프로골프최고경영자과정","tel":"02-1577-0468","addr":"경기도 하남시 학암동 659번지 밀리토피아골프 403호","indutype":"레저업소 - 골프연습장","category":"leisure"}]},{"lat":"37.481376676","long":"127.14990505","imageIndex":13,"items":[{"name":"조아 뮤직 복싱클럽","tel":"02-400-9622","addr":"경기도 하남시 학암동 654번지 위례지웰푸르지오 상가동 201호","indutype":"레저업소 - 헬스클럽","category":"leisure"}]},{"lat":"37.48735271","long":"127.15509531","imageIndex":8,"items":[{"name":"부츠약국위례스타필드시티점","tel":"031-2785-5775","addr":"경기도 하남시 학암동 90번지 스타필드시티위례 1층","indutype":"약국 - 약국","category":"medical"}]},{"lat":"37.481376676","long":"127.14990505","imageIndex":7,"items":[{"name":"지웰마트","tel":"","addr":"경기도 하남시 학암동 654번지 위례지웰푸르지오 101동 120호","indutype":"유통업 영리 - 슈퍼마켓","category":"mart"}]}]