[{"lat":"37.045768841","long":"127.15429912","imageIndex":4,"items":[{"name":"FLAVOR(플레이버)","tel":"070-8800-3855","addr":"경기도 안성시 원곡면 칠곡리 395-8번지","indutype":"일반휴게음식 - 서양음식","category":"restaurant"}]},{"lat":"37.050265142","long":"127.15429681","imageIndex":4,"items":[{"name":"hill(힐)","tel":"031-657-5645","addr":"경기도 안성시 원곡면 칠곡리 282-1번지 2층","indutype":"일반휴게음식 - 일반한식","category":"restaurant"}]},{"lat":"37.051044873","long":"127.15754724","imageIndex":4,"items":[{"name":"고궁","tel":"","addr":"경기도 안성시 원곡면 칠곡리 232-7번지 1층","indutype":"일반휴게음식 - 서양음식","category":"restaurant"},{"name":"카페루나(CAFE LUNA)","tel":"031-111-1111","addr":"경기도 안성시 원곡면 칠곡리 232-7번지","indutype":"일반휴게음식 - 서양음식","category":"restaurant"}]},{"lat":"37.047297067","long":"127.15707875","imageIndex":4,"items":[{"name":"고성산연탄구이","tel":"031-653-9255","addr":"경기도 안성시 원곡면 칠곡리 378-8번지","indutype":"일반휴게음식 - 일반한식","category":"restaurant"},{"name":"우리현","tel":"031-692-3876","addr":"경기도 안성시 원곡면 칠곡리 378-8번지","indutype":"일반휴게음식 - 일반한식","category":"restaurant"}]},{"lat":"37.049186496","long":"127.15921847","imageIndex":4,"items":[{"name":"나비사주카페","tel":"031-653-6007","addr":"경기도 안성시 원곡면 칠곡리 182-9번지","indutype":"일반휴게음식 - 서양음식","category":"restaurant"}]},{"lat":"37.049295421","long":"127.15861164","imageIndex":4,"items":[{"name":"네오리즈","tel":"031-652-2171","addr":"경기도 안성시 원곡면 칠곡리 217-1번지","indutype":"일반휴게음식 - 서양음식","category":"restaurant"},{"name":"리즈/주식회사 트루블루","tel":"031-652-2171","addr":"경기도 안성시 원곡면 칠곡리 217-1번지","indutype":"일반휴게음식 - 서양음식","category":"restaurant"},{"name":"윈드밀","tel":"031-655-1351","addr":"경기도 안성시 원곡면 칠곡리 217-1번지","indutype":"일반휴게음식 - 서양음식","category":"restaurant"}]},{"lat":"37.04751278","long":"127.15749511","imageIndex":4,"items":[{"name":"대구맑은탕","tel":"031-664-5600","addr":"경기도 안성시 원곡면 칠곡리 378-12번지 1층","indutype":"일반휴게음식 - 일반한식","category":"restaurant"}]},{"lat":"37.047268463","long":"127.15124447","imageIndex":4,"items":[{"name":"두메산골","tel":"031-657-7887","addr":"경기도 안성시 원곡면 칠곡리 414-3번지","indutype":"일반휴게음식 - 일반한식","category":"restaurant"},{"name":"물고기창","tel":"031-692-0809","addr":"경기도 안성시 원곡면 칠곡리 414-3번지","indutype":"일반휴게음식 - 일반한식","category":"restaurant"}]},{"lat":"37.041487178","long":"127.14838939","imageIndex":4,"items":[{"name":"마실밥상","tel":"031-651-8558","addr":"경기도 안성시 원곡면 칠곡리 542-2번지","indutype":"일반휴게음식 - 일반한식","category":"restaurant"}]},{"lat":"37.04926601","long":"127.15347419","imageIndex":4,"items":[{"name":"멜멜(Mell-Mell)","tel":"031-647-0205","addr":"경기도 안성시 원곡면 칠곡리 285-9번지 1동 1-3층","indutype":"일반휴게음식 - 서양음식","category":"restaurant"}]},{"lat":"37.051463566","long":"127.16119047","imageIndex":4,"items":[{"name":"미가로","tel":"031-8054-0530","addr":"경기도 안성시 원곡면 칠곡리 162-13번지","indutype":"일반휴게음식 - 서양음식","category":"restaurant"}]},{"lat":"37.043521384","long":"127.15016931","imageIndex":4,"items":[{"name":"미향이네","tel":"031-654-6669","addr":"경기도 안성시 원곡면 칠곡리 564-2번지 나동 1층 중앙호","indutype":"일반휴게음식 - 일반한식","category":"restaurant"},{"name":"베이클보쌈과 갈릭족발","tel":"031-651-5351","addr":"경기도 안성시 원곡면 칠곡리 564-2번지 라동 1층 좌호","indutype":"일반휴게음식 - 일반한식","category":"restaurant"},{"name":"옛날돼지김치찌개대구막창","tel":"031-657-9694","addr":"경기도 안성시 원곡면 칠곡리 564-2번지 오른쪽호 다동 1층","indutype":"일반휴게음식 - 일반한식","category":"restaurant"},{"name":"우황사골칼국수","tel":"031-657-3398","addr":"경기도 안성시 원곡면 칠곡리 564-2번지","indutype":"일반휴게음식 - 일반한식","category":"restaurant"},{"name":"전라도밥집","tel":"031-692-3359","addr":"경기도 안성시 원곡면 칠곡리 564-2번지","indutype":"일반휴게음식 - 일반한식","category":"restaurant"},{"name":"전주콩나루콩나물국밥","tel":"031-618-1113","addr":"경기도 안성시 원곡면 칠곡리 564-2번지","indutype":"일반휴게음식 - 일반한식","category":"restaurant"},{"name":"칠곡곰탕","tel":"031-656-1738","addr":"경기도 안성시 원곡면 칠곡리 564-2번지 다동","indutype":"일반휴게음식 - 일반한식","category":"restaurant"}]},{"lat":"37.051012556","long":"127.16154927","imageIndex":4,"items":[{"name":"밥상","tel":"031-618-6792","addr":"경기도 안성시 원곡면 칠곡리 162-3번지","indutype":"일반휴게음식 - 일반한식","category":"restaurant"}]},{"lat":"37.044876577","long":"127.15446596","imageIndex":4,"items":[{"name":"버스커","tel":"","addr":"경기도 안성시 원곡면 칠곡리 389-25번지 지하1층","indutype":"일반휴게음식 - 서양음식","category":"restaurant"}]},{"lat":"37.037045304","long":"127.16213839","imageIndex":4,"items":[{"name":"북한강 쭈꾸미","tel":"031-654-1617","addr":"경기도 안성시 원곡면 칠곡리 791-5번지 1층","indutype":"일반휴게음식 - 일반한식","category":"restaurant"}]},{"lat":"37.050069134","long":"127.1595238","imageIndex":4,"items":[{"name":"빼뽀참게","tel":"031-655-8860","addr":"경기도 안성시 원곡면 칠곡리 184-8","indutype":"일반휴게음식 - 일반한식","category":"restaurant"},{"name":"처갓집양념치킨 원곡점","tel":"031-654-9220","addr":"경기도 안성시 원곡면 칠곡리 184-8번지","indutype":"일반휴게음식 - 일반한식","category":"restaurant"},{"name":"풍년초밥","tel":"031-658-0321","addr":"경기도 안성시 원곡면 칠곡리 184-8번지","indutype":"일반휴게음식 - 일식·회집","category":"restaurant"}]},{"lat":"37.037965364","long":"127.16140972","imageIndex":4,"items":[{"name":"산들","tel":"031-000-0000","addr":"경기도 안성시 원곡면 칠곡리 791-28번지","indutype":"일반휴게음식 - 일반한식","category":"restaurant"}]},{"lat":"37.041183485","long":"127.14619694","imageIndex":4,"items":[{"name":"선가네옻닭","tel":"031-111-1111","addr":"경기도 안성시 원곡면 칠곡리 517-1번지","indutype":"일반휴게음식 - 일반한식","category":"restaurant"},{"name":"와이프스가든","tel":"031-691-8223","addr":"경기도 안성시 원곡면 칠곡리 517-1번지 1층 101호 (에이)","indutype":"일반휴게음식 - 서양음식","category":"restaurant"}]},{"lat":"37.045570881","long":"127.15408514","imageIndex":4,"items":[{"name":"소호","tel":"031-658-7200","addr":"경기도 안성시 원곡면 칠곡리 395-4번지","indutype":"일반휴게음식 - 서양음식","category":"restaurant"},{"name":"소호","tel":"031-658-7200","addr":"경기도 안성시 원곡면 칠곡리 395-4번지 지하1층,지상1층","indutype":"일반휴게음식 - 서양음식","category":"restaurant"}]},{"lat":"37.043710955","long":"127.14988866","imageIndex":4,"items":[{"name":"손수","tel":"031-656-0034","addr":"경기도 안성시 원곡면 칠곡리 565번지 1층","indutype":"일반휴게음식 - 서양음식","category":"restaurant"}]},{"lat":"37.045930068","long":"127.15505259","imageIndex":4,"items":[{"name":"스케치","tel":"031-655-1362","addr":"경기도 안성시 원곡면 칠곡리 389-5번지","indutype":"일반휴게음식 - 서양음식","category":"restaurant"}]},{"lat":"37.04976307","long":"127.15929834","imageIndex":4,"items":[{"name":"신정골뼈해장국","tel":"031-657-5877","addr":"경기도 안성시 원곡면 칠곡리 184-7번지","indutype":"일반휴게음식 - 일반한식","category":"restaurant"}]},{"lat":"37.045264992","long":"127.15371359","imageIndex":4,"items":[{"name":"아리아레스토랑","tel":"031-691-4959","addr":"경기도 안성시 원곡면 칠곡리 395-5번지","indutype":"일반휴게음식 - 서양음식","category":"restaurant"}]},{"lat":"37.051017004","long":"127.15818797","imageIndex":4,"items":[{"name":"아지와이","tel":"","addr":"경기도 안성시 원곡면 칠곡리 206번지 1층","indutype":"일반휴게음식 - 서양음식","category":"restaurant"}]},{"lat":"37.050347912","long":"127.15994032","imageIndex":4,"items":[{"name":"안성마춤쌀밥집(메밀꽃바다)","tel":"031-651-6655","addr":"경기도 안성시 원곡면 칠곡리 179-1","indutype":"일반휴게음식 - 일반한식","category":"restaurant"}]},{"lat":"37.046268553","long":"127.15102894","imageIndex":4,"items":[{"name":"에메랄드그린(EMERALD GREEN)","tel":"031-8919-2451","addr":"경기도 안성시 원곡면 칠곡리 427-15번지","indutype":"일반휴게음식 - 일반한식","category":"restaurant"}]},{"lat":"37.044545128","long":"127.15293654","imageIndex":4,"items":[{"name":"우렁각시","tel":"031-654-1660","addr":"경기도 안성시 원곡면 칠곡리 398-4","indutype":"일반휴게음식 - 일반한식","category":"restaurant"}]},{"lat":"37.046151887","long":"127.15771718","imageIndex":4,"items":[{"name":"원일가든","tel":"031-654-0511","addr":"경기도 안성시 원곡면 칠곡리 375번지","indutype":"일반휴게음식 - 일반한식","category":"restaurant"}]},{"lat":"37.041154666","long":"127.14766937","imageIndex":4,"items":[{"name":"유가네가마솥공탕","tel":"031-654-3149","addr":"경기도 안성시 원곡면 칠곡리 540-1번지 1층 우호","indutype":"일반휴게음식 - 일반한식","category":"restaurant"}]},{"lat":"37.05077056","long":"127.16058197","imageIndex":4,"items":[{"name":"윤가네돼지김치찌개","tel":"031-651-6399","addr":"경기도 안성시 원곡면 칠곡리 179-7번지 1층","indutype":"일반휴게음식 - 일반한식","category":"restaurant"}]},{"lat":"37.048295835","long":"127.15815995","imageIndex":4,"items":[{"name":"임광선커피가이드","tel":"031-692-1221","addr":"경기도 안성시 원곡면 칠곡리 313-1번지","indutype":"일반휴게음식 - 서양음식","category":"restaurant"},{"name":"카페칠곡상회","tel":"031-656-4986","addr":"경기도 안성시 원곡면 칠곡리 313-1번지 1층","indutype":"일반휴게음식 - 서양음식","category":"restaurant"}]},{"lat":"37.050240082","long":"127.15971526","imageIndex":4,"items":[{"name":"장금이집밥부페","tel":"031-652-2110","addr":"경기도 안성시 원곡면 칠곡리 184-1번지","indutype":"일반휴게음식 - 일반한식","category":"restaurant"}]},{"lat":"37.044598722","long":"127.1533076","imageIndex":4,"items":[{"name":"장어만세","tel":"031-664-4988","addr":"경기도 안성시 원곡면 칠곡리 398-7번지 1층","indutype":"일반휴게음식 - 일반한식","category":"restaurant"},{"name":"장어만세/(주)삼창 안성지점","tel":"031-651-8400","addr":"경기도 안성시 원곡면 칠곡리 398-7번지","indutype":"일반휴게음식 - 일반한식","category":"restaurant"}]},{"lat":"37.050652133","long":"127.16154852","imageIndex":4,"items":[{"name":"지송","tel":"070-7798-0988","addr":"경기도 안성시 원곡면 칠곡리 177-1번지","indutype":"일반휴게음식 - 서양음식","category":"restaurant"}]},{"lat":"37.040936993","long":"127.14882672","imageIndex":4,"items":[{"name":"차씨네 장어본가","tel":"031-658-9888","addr":"경기도 안성시 원곡면 칠곡리 544-2번지","indutype":"일반휴게음식 - 일반한식","category":"restaurant"}]},{"lat":"37.040769607","long":"127.14569035","imageIndex":4,"items":[{"name":"천용","tel":"","addr":"경기도 안성시 원곡면 칠곡리 517-3번지","indutype":"일반휴게음식 - 중국식","category":"restaurant"}]},{"lat":"37.040624433","long":"127.14652186","imageIndex":4,"items":[{"name":"초성공원","tel":"031-656-6008","addr":"경기도 안성시 원곡면 칠곡리 534-3번지 1층","indutype":"일반휴게음식 - 일반한식","category":"restaurant"}]},{"lat":"37.047016258","long":"127.15821355","imageIndex":4,"items":[{"name":"촌집","tel":"031-691-3579","addr":"경기도 안성시 원곡면 칠곡리 377-1번지","indutype":"일반휴게음식 - 일반한식","category":"restaurant"}]},{"lat":"37.0411813","long":"127.14799539","imageIndex":4,"items":[{"name":"최고집짬뽕","tel":"031-618-8843","addr":"경기도 안성시 원곡면 칠곡리 540-6번지","indutype":"일반휴게음식 - 중국식","category":"restaurant"}]},{"lat":"37.04743205","long":"127.15721392","imageIndex":4,"items":[{"name":"칠곡해물손칼국수","tel":"031-655-6262","addr":"경기도 안성시 원곡면 칠곡리 378-5번지","indutype":"일반휴게음식 - 일반한식","category":"restaurant"}]},{"lat":"37.050734751","long":"127.15346585","imageIndex":4,"items":[{"name":"카페코테락","tel":"031-654-7272","addr":"경기도 안성시 원곡면 칠곡리 284-1번지 1층","indutype":"일반휴게음식 - 서양음식","category":"restaurant"}]},{"lat":"37.041155692","long":"127.14682635","imageIndex":4,"items":[{"name":"콩사랑오리마을","tel":"031-658-5725","addr":"경기도 안성시 원곡면 칠곡리 533-2번지","indutype":"일반휴게음식 - 일반한식","category":"restaurant"}]},{"lat":"37.040686114","long":"127.14766848","imageIndex":4,"items":[{"name":"할매 샤브 손칼국수","tel":"031-658-1177","addr":"경기도 안성시 원곡면 칠곡리 539-5번지 1동 1층","indutype":"일반휴게음식 - 일반한식","category":"restaurant"}]},{"lat":"37.061124101","long":"127.17335332","imageIndex":4,"items":[{"name":"항아리","tel":"031-655-8474","addr":"경기도 안성시 원곡면 칠곡리 2-1번지","indutype":"일반휴게음식 - 일반한식","category":"restaurant"}]},{"lat":"37.048512926","long":"127.15751962","imageIndex":4,"items":[{"name":"황금쭈꾸미","tel":"031-691-8886","addr":"경기도 안성시 원곡면 칠곡리 312-4번지","indutype":"일반휴게음식 - 일반한식","category":"restaurant"}]},{"lat":"37.036657773","long":"127.16219378","imageIndex":4,"items":[{"name":"황제능이버섯백숙","tel":"031-653-5289","addr":"경기도 안성시 원곡면 칠곡리 791-15번지","indutype":"일반휴게음식 - 일반한식","category":"restaurant"}]}]