[{"lat":"37.280577255","long":"127.45343147","imageIndex":0,"items":[{"name":"골든자동차공업사","tel":"031-633-9450","addr":"경기도 이천시 안흥동 358번지","indutype":"자동차정비 유지 - 자동차정비","category":"car"}]},{"lat":"37.277134778","long":"127.45829315","imageIndex":0,"items":[{"name":"상지자동차","tel":"031-634-1488","addr":"경기도 이천시 안흥동 170-1번지","indutype":"자동차정비 유지 - 자동차정비","category":"car"}]},{"lat":"37.279442806","long":"127.4649033","imageIndex":0,"items":[{"name":"스팀맨 이천점","tel":"031-631-6312","addr":"경기도 이천시 안흥동 115-2번지 101호","indutype":"자동차정비 유지 - 세차장","category":"car"},{"name":"좋은카용품","tel":"031-637-2006","addr":"경기도 이천시 안흥동 115-2번지","indutype":"자동차정비 유지 - 자동차부품","category":"car"}]},{"lat":"37.274581012","long":"127.45460215","imageIndex":0,"items":[{"name":"오토오아시스 이천안흥점","tel":"031-634-2031","addr":"경기도 이천시 안흥동 474번지 롯데캐슬골드스카이 2층 주차장","indutype":"자동차정비 유지 - 세차장","category":"car"},{"name":"오토오아시스 이천안흥점","tel":"031-8011-2500","addr":"경기도 이천시 안흥동 474번지 롯데캐슬골드스카이 2층 주차장","indutype":"자동차정비 유지 - 자동차정비","category":"car"}]},{"lat":"37.280436255","long":"127.46198894","imageIndex":0,"items":[{"name":"워시팰리스","tel":"031-637-0636","addr":"경기도 이천시 안흥동 144-1번지","indutype":"자동차정비 유지 - 세차장","category":"car"},{"name":"이천24시 셀프세차장","tel":"031-634-4625","addr":"경기도 이천시 안흥동 144-1","indutype":"자동차정비 유지 - 세차장","category":"car"},{"name":"핏보스2호점","tel":"031-637-8055","addr":"경기도 이천시 안흥동 144-1번지","indutype":"자동차정비 유지 - 세차장","category":"car"}]},{"lat":"37.280664391","long":"127.45421002","imageIndex":0,"items":[{"name":"이천종합타이어","tel":"031-636-7988","addr":"경기도 이천시 안흥동 355-23번지","indutype":"자동차정비 유지 - 자동차시트·타이어","category":"car"}]},{"lat":"37.279687698","long":"127.45515135","imageIndex":0,"items":[{"name":"평화자동차공업사","tel":"031-632-9961","addr":"경기도 이천시 안흥동 348번지","indutype":"자동차정비 유지 - 자동차정비","category":"car"}]},{"lat":"37.277242743","long":"127.45362583","imageIndex":0,"items":[{"name":"핏보스디테일링샵","tel":"031-636-8055","addr":"경기도 이천시 안흥동 307-7번지 브라운스톤 101동 112호","indutype":"자동차정비 유지 - 세차장","category":"car"}]},{"lat":"37.279939331","long":"127.45532199","imageIndex":0,"items":[{"name":"한양자동차공업사","tel":"031-633-1473","addr":"경기도 이천시 안흥동 346-5번지","indutype":"자동차정비 유지 - 자동차정비","category":"car"}]}]