[{"lat":"37.525719353","long":"127.60194215","imageIndex":5,"items":[{"name":"가시버시민박","tel":"031-771-5180","addr":"경기도 양평군 용문면 오촌리 25-2번지 26/2","indutype":"숙박업 - 여관/기타숙박업","category":"hotel"}]},{"lat":"37.532545824","long":"127.59357946","imageIndex":5,"items":[{"name":"반딧불언덕","tel":"031-774-3255","addr":"경기도 양평군 용문면 오촌리 111","indutype":"숙박업 - 여관/기타숙박업","category":"hotel"}]},{"lat":"37.539295838","long":"127.58780569","imageIndex":5,"items":[{"name":"별이머문자리","tel":"031-772-3085","addr":"경기도 양평군 용문면 오촌리 153","indutype":"숙박업 - 여관/기타숙박업","category":"hotel"}]},{"lat":"37.5267472","long":"127.5763837","imageIndex":5,"items":[{"name":"용문산골민박","tel":"031-771-9897","addr":"경기도 양평군 용문면 오촌리 370","indutype":"숙박업 - 여관/기타숙박업","category":"hotel"}]},{"lat":"37.530324484","long":"127.58732836","imageIndex":5,"items":[{"name":"펜션프로포즈","tel":"031-774-5339","addr":"경기도 양평군 용문면 오촌리 241번지","indutype":"숙박업 - 여관/기타숙박업","category":"hotel"}]},{"lat":"37.538465011","long":"127.58819521","imageIndex":4,"items":[{"name":"구름정원/진유통주식회사","tel":"031-773-0722","addr":"경기도 양평군 용문면 오촌리 160-3번지","indutype":"일반휴게음식 - 서양음식","category":"restaurant"}]},{"lat":"37.538298465","long":"127.58907643","imageIndex":4,"items":[{"name":"용문산푸른공원","tel":"031-773-4600","addr":"경기도 양평군 용문면 오촌리 158-4번지","indutype":"일반휴게음식 - 일반한식","category":"restaurant"}]},{"lat":"37.538684745","long":"127.58930575","imageIndex":7,"items":[{"name":"산수동식품","tel":"031-773-4600","addr":"경기도 양평군 용문면 오촌리 136-1번지","indutype":"음료식품 - 기타음료식품","category":"food"},{"name":"푸른공원","tel":"031-773-4600","addr":"경기도 양평군 용문면 오촌리 136-1번지","indutype":"음료식품 - 농·축·수산품","category":"food"}]},{"lat":"37.535017526","long":"127.58935623","imageIndex":7,"items":[{"name":"용문산푸줏간","tel":"031-771-8223","addr":"경기도 양평군 용문면 오촌리 216-1번지 용문푸줏간","indutype":"음료식품 - 정육점","category":"food"}]}]