[{"lat":"37.493270277","long":"127.49575282","imageIndex":16,"items":[{"name":"BOM학원","tel":"031-772-8211","addr":"경기도 양평군 양평읍 공흥리 788-1번지","indutype":"학원 - 보습학원","category":"study"}]},{"lat":"37.494135179","long":"127.49791829","imageIndex":16,"items":[{"name":"국쌤수학","tel":"070-4806-7591","addr":"경기도 양평군 양평읍 공흥리 755-43번지 3층 1호","indutype":"회원제형태 - 학원","category":"study"}]},{"lat":"37.493692455","long":"127.4960609","imageIndex":16,"items":[{"name":"김민정음악학원","tel":"031-774-5858","addr":"경기도 양평군 양평읍 공흥리 747-2번지","indutype":"학원 - 예·체능계학원","category":"study"}]},{"lat":"37.490188006","long":"127.50452957","imageIndex":16,"items":[{"name":"김유연피아노어드벤쳐","tel":"031-775-7111","addr":"경기도 양평군 양평읍 공흥리 402-9번지 2층 3층","indutype":"학원 - 예·체능계학원","category":"study"}]},{"lat":"37.493639105","long":"127.49589093","imageIndex":16,"items":[{"name":"라이겐 차일드 어린이집[아이행복]","tel":"031-775-7585","addr":"경기도 양평군 양평읍 공흥리 745번지","indutype":"학원 - 유아원","category":"study"}]},{"lat":"37.490135101","long":"127.50425785","imageIndex":16,"items":[{"name":"마음쿠킹클래스학원","tel":"031-773-4979","addr":"경기도 양평군 양평읍 공흥리 402-8번지 3층","indutype":"학원 - 기능학원","category":"study"}]},{"lat":"37.493973168","long":"127.49572351","imageIndex":16,"items":[{"name":"새론국어","tel":"031-783-2793","addr":"경기도 양평군 양평읍 공흥리 738-3번지 1층","indutype":"학원 - 보습학원","category":"study"},{"name":"양평유도체육관","tel":"031-772-1907","addr":"경기도 양평군 양평읍 공흥리 738-3번지","indutype":"학원 - 예·체능계학원","category":"study"},{"name":"청람학원","tel":"031-774-7722","addr":"경기도 양평군 양평읍 공흥리 738-3번지","indutype":"학원 - 보습학원","category":"study"}]},{"lat":"37.500638613","long":"127.50683862","imageIndex":16,"items":[{"name":"새봄어린이집[아이행복]","tel":"031-5369-1688","addr":"경기도 양평군 양평읍 공흥리 88-3번지","indutype":"학원 - 유아원","category":"study"}]},{"lat":"37.493135793","long":"127.49559363","imageIndex":16,"items":[{"name":"성림유치원[아이행복]","tel":"031-771-4262","addr":"경기도 양평군 양평읍 공흥리 788-2번지","indutype":"학원 - 유치원","category":"study"},{"name":"한빛체육관","tel":"031-774-9566","addr":"경기도 양평군 양평읍 공흥리 788-2번지","indutype":"학원 - 예·체능계학원","category":"study"}]},{"lat":"37.493299014","long":"127.50814622","imageIndex":16,"items":[{"name":"아론수학교습소","tel":"031-772-1615","addr":"경기도 양평군 양평읍 공흥리 885번지 양평한신휴플러스 1층 4호 상가","indutype":"학원 - 보습학원","category":"study"},{"name":"한신사임당어린이집[아이행복]","tel":"031-772-3347","addr":"경기도 양평군 양평읍 공흥리 885번지 한신휴플러스 104동 1층","indutype":"학원 - 유아원","category":"study"},{"name":"해법 중국어 햇살교실교습소","tel":"070-7725-0406","addr":"경기도 양평군 양평읍 공흥리 885번지 양평한신휴플러스 상가 103호","indutype":"학원 - 외국어학원","category":"study"}]},{"lat":"37.502105616","long":"127.51141731","imageIndex":16,"items":[{"name":"양평꼬마숲어린이집[아이행복]","tel":"031-774-3883","addr":"경기도 양평군 양평읍 공흥리 35-1번지 (꼬마숲어린이집)","indutype":"학원 - 유아원","category":"study"}]},{"lat":"37.493886892","long":"127.49911528","imageIndex":16,"items":[{"name":"양평준검관","tel":"031-775-5989","addr":"경기도 양평군 양평읍 공흥리 597-2번지 2층","indutype":"학원 - 예·체능계학원","category":"study"}]},{"lat":"37.49813904","long":"127.49708528","imageIndex":16,"items":[{"name":"양평중학교","tel":"031-772-2746","addr":"경기도 양평군 양평읍 공흥리 714-7번지 양평중학교","indutype":"학원 - 초중고교육기관","category":"study"}]},{"lat":"37.494390005","long":"127.49730935","imageIndex":16,"items":[{"name":"영어의 정석","tel":"031-774-4566","addr":"경기도 양평군 양평읍 공흥리 755-48번지 2층","indutype":"학원 - 외국어학원","category":"study"}]},{"lat":"37.493913113","long":"127.49930768","imageIndex":16,"items":[{"name":"오르다 샘앤클래스 교습소","tel":"031-274-7945","addr":"경기도 양평군 양평읍 공흥리 596-2번지","indutype":"학원 - 보습학원","category":"study"}]},{"lat":"37.492607807","long":"127.49473078","imageIndex":16,"items":[{"name":"위즈덤 수학 교습소","tel":"","addr":"경기도 양평군 양평읍 공흥리 797-1번지 3층 301-A호","indutype":"학원 - 보습학원","category":"study"},{"name":"위즈덤 영어교습소","tel":"070-4118-0800","addr":"경기도 양평군 양평읍 공흥리 797-1번지","indutype":"학원 - 보습학원","category":"study"},{"name":"위즈덤 플러스 영어교습소","tel":"070-4118-0800","addr":"경기도 양평군 양평읍 공흥리 797-1번지","indutype":"학원 - 외국어학원","category":"study"},{"name":"최강영어교습소","tel":"02-1111-1111","addr":"경기도 양평군 양평읍 공흥리 797-1번지 302호","indutype":"학원 - 외국어학원","category":"study"}]},{"lat":"37.492330015","long":"127.49436712","imageIndex":16,"items":[{"name":"윤드럼 교습소","tel":"","addr":"경기도 양평군 양평읍 공흥리 799번지 101호","indutype":"학원 - 예·체능계학원","category":"study"},{"name":"해법중국어 하오빵교습소","tel":"031-775-1515","addr":"경기도 양평군 양평읍 공흥리 799번지","indutype":"학원 - 외국어학원","category":"study"}]},{"lat":"37.504551492","long":"127.51253091","imageIndex":16,"items":[{"name":"은행나무어린이집[아이행복]","tel":"031-775-5518","addr":"경기도 양평군 양평읍 공흥리 45-22번지","indutype":"학원 - 유아원","category":"study"}]},{"lat":"37.494492704","long":"127.49645063","imageIndex":16,"items":[{"name":"지니에듀학원","tel":"031-775-3678","addr":"경기도 양평군 양평읍 공흥리 749번지 백순빌딩 1층","indutype":"학원 - 보습학원","category":"study"}]},{"lat":"37.494134945","long":"127.50650091","imageIndex":16,"items":[{"name":"초석학원","tel":"031-773-0094","addr":"경기도 양평군 양평읍 공흥리 290-6번지 2층","indutype":"학원 - 보습학원","category":"study"}]},{"lat":"37.490718757","long":"127.50472535","imageIndex":16,"items":[{"name":"키즈랜드어린이집[아이행복]","tel":"031-775-1159","addr":"경기도 양평군 양평읍 공흥리 393-6번지","indutype":"학원 - 유아원","category":"study"}]},{"lat":"37.496578943","long":"127.49309452","imageIndex":16,"items":[{"name":"튼튼영어양평교육본부","tel":"031-775-0507","addr":"경기도 양평군 양평읍 공흥리 731-8번지","indutype":"학원 - 학습지 교육","category":"study"}]},{"lat":"37.495803614","long":"127.49753352","imageIndex":16,"items":[{"name":"포르테피아노","tel":"00-0000-0000","addr":"경기도 양평군 양평읍 공흥리 753-8번지 2동 301호","indutype":"학원 - 기타 교육기관","category":"study"}]},{"lat":"37.489524731","long":"127.50158529","imageIndex":16,"items":[{"name":"포세븐학원","tel":"031-774-1247","addr":"경기도 양평군 양평읍 공흥리 441-34번지 4층","indutype":"학원 - 보습학원","category":"study"}]}]