[{"lat":"37.619976626","long":"127.34487593","imageIndex":5,"items":[{"name":"리버힐빌리지","tel":"031-593-8916","addr":"경기도 남양주시 화도읍 금남리 662-14번지","indutype":"숙박업 - 여관/기타숙박업","category":"hotel"}]},{"lat":"37.616006477","long":"127.34379307","imageIndex":5,"items":[{"name":"북한강호텔/주식회사케이엠디에스","tel":"031-592-3355","addr":"경기도 남양주시 화도읍 금남리 671번지","indutype":"숙박업 - 여관/기타숙박업","category":"hotel"}]},{"lat":"37.639112511","long":"127.35732443","imageIndex":5,"items":[{"name":"산장호텔","tel":"031-591-0002","addr":"경기도 남양주시 화도읍 금남리 444-9번지","indutype":"숙박업 - 여관/기타숙박업","category":"hotel"}]},{"lat":"37.640086562","long":"127.35698916","imageIndex":5,"items":[{"name":"세리모텔","tel":"031-591-2287","addr":"경기도 남양주시 화도읍 금남리 440-2","indutype":"숙박업 - 여관/기타숙박업","category":"hotel"}]},{"lat":"37.655201527","long":"127.36984368","imageIndex":5,"items":[{"name":"썬","tel":"031-559-4480","addr":"경기도 남양주시 화도읍 금남리 111번지","indutype":"숙박업 - 여관/기타숙박업","category":"hotel"}]},{"lat":"37.641117239","long":"127.35879553","imageIndex":5,"items":[{"name":"에메랄드 모텔","tel":"031-591-1515","addr":"경기도 남양주시 화도읍 금남리 410-8번지","indutype":"숙박업 - 여관/기타숙박업","category":"hotel"},{"name":"에메랄드모텔","tel":"031-592-1515","addr":"경기도 남양주시 화도읍 금남리 410-8번지","indutype":"숙박업 - 여관/기타숙박업","category":"hotel"}]},{"lat":"37.638840541","long":"127.35487591","imageIndex":5,"items":[{"name":"제니스","tel":"031-593-0377","addr":"경기도 남양주시 화도읍 금남리 463번지","indutype":"숙박업 - 여관/기타숙박업","category":"hotel"}]},{"lat":"37.647110215","long":"127.36126029","imageIndex":5,"items":[{"name":"컨트리","tel":"031-591-1521","addr":"경기도 남양주시 화도읍 금남리 248-2","indutype":"숙박업 - 여관/기타숙박업","category":"hotel"}]},{"lat":"37.637120088","long":"127.35474317","imageIndex":5,"items":[{"name":"호텔발렌타인","tel":"031-592-0333","addr":"경기도 남양주시 화도읍 금남리 511-6번지","indutype":"숙박업 - 여관/기타숙박업","category":"hotel"}]}]