[{"lat":"37.273300846","long":"127.63741323","imageIndex":13,"items":[{"name":"LG)오휘여주지사","tel":"031-886-7015","addr":"경기도 여주시 교동 59-2번지","indutype":"보건위생 - 화장품","category":"beauty"},{"name":"LG오휘여주지사","tel":"031-886-7015","addr":"경기도 여주시 교동 59-2번지","indutype":"보건위생 - 화장품","category":"beauty"},{"name":"LG오휘컨설턴트","tel":"031-886-7015","addr":"경기도 여주시 교동 59-2번지","indutype":"보건위생 - 화장품","category":"beauty"},{"name":"LG화장품오휘여주지사","tel":"031-886-7015","addr":"경기도 여주시 교동 59-2번지 103동","indutype":"보건위생 - 화장품","category":"beauty"},{"name":"엘지(LG)오휘여주지사","tel":"031-886-7015","addr":"경기도 여주시 교동 59-2번지","indutype":"보건위생 - 화장품","category":"beauty"},{"name":"엘지오휘여주지사","tel":"031-886-7015","addr":"경기도 여주시 교동 59-2번지","indutype":"보건위생 - 화장품","category":"beauty"},{"name":"오휘화장품","tel":"031-886-7015","addr":"경기도 여주시 교동 59-2번지 1층","indutype":"보건위생 - 화장품","category":"beauty"},{"name":"오휘화장품","tel":"031-886-7015","addr":"경기도 여주시 교동 59-2번지 오휘여주","indutype":"보건위생 - 화장품","category":"beauty"},{"name":"오휘화장품","tel":"031-886-7015","addr":"경기도 여주시 교동 59-2번지","indutype":"보건위생 - 화장품","category":"beauty"}]},{"lat":"37.274913345","long":"127.63747187","imageIndex":13,"items":[{"name":"네일 봄봄봄","tel":"","addr":"경기도 여주시 교동 68-4번지 101호","indutype":"보건위생 - 피부미용실","category":"beauty"}]},{"lat":"37.274661599","long":"127.63568833","imageIndex":13,"items":[{"name":"도도네일","tel":"031-881-4042","addr":"경기도 여주시 교동 80번지 상가동 102호","indutype":"보건위생 - 피부미용실","category":"beauty"},{"name":"혜란뷰티샵","tel":"031-884-1458","addr":"경기도 여주시 교동 80번지 101호","indutype":"보건위생 - 미용원","category":"beauty"}]},{"lat":"37.275111795","long":"127.63910839","imageIndex":13,"items":[{"name":"명가헤어샵","tel":"031-881-3285","addr":"경기도 여주시 교동 28번지 삼성명가타운아파트","indutype":"보건위생 - 미용원","category":"beauty"}]},{"lat":"37.274891208","long":"127.63655842","imageIndex":13,"items":[{"name":"비타민헤어아트","tel":"031-885-5490","addr":"경기도 여주시 교동 75-6번지","indutype":"보건위생 - 미용원","category":"beauty"}]},{"lat":"37.269749145","long":"127.63267086","imageIndex":13,"items":[{"name":"프로젝트에이치","tel":"031-880-5662","addr":"경기도 여주시 교동 454-4번지 여주대학","indutype":"보건위생 - 미용원","category":"beauty"}]},{"lat":"37.274329698","long":"127.63372374","imageIndex":13,"items":[{"name":"호반헤어샵","tel":"031-881-2628","addr":"경기도 여주시 교동 81-2번지 스카이밸리단지 상가 102호","indutype":"보건위생 - 미용원","category":"beauty"}]}]