[{"lat":"37.300878886","long":"127.24278442","imageIndex":7,"items":[{"name":"공원슈퍼","tel":"031-333-5904","addr":"경기도 용인시 처인구 모현읍 초부리 799-2번지","indutype":"유통업 영리 - 슈퍼마켓","category":"mart"}]},{"lat":"37.341425953","long":"127.17476344","imageIndex":7,"items":[{"name":"그린슈퍼","tel":"031-333-8797","addr":"경기도 용인시 처인구 모현읍 능원리 29-3번지","indutype":"유통업 영리 - 슈퍼마켓","category":"mart"}]},{"lat":"37.328121421","long":"127.22176056","imageIndex":7,"items":[{"name":"동네마트","tel":"031-332-3387","addr":"경기도 용인시 처인구 모현읍 매산리 566-1번지","indutype":"유통업 영리 - 슈퍼마켓","category":"mart"}]},{"lat":"37.338096371","long":"127.19545157","imageIndex":7,"items":[{"name":"동산슈퍼","tel":"031-334-0633","addr":"경기도 용인시 처인구 모현읍 동림리 153","indutype":"유통업 영리 - 슈퍼마켓","category":"mart"}]},{"lat":"37.329765034","long":"127.15637907","imageIndex":7,"items":[{"name":"디마트","tel":"031-322-8110","addr":"경기도 용인시 처인구 모현읍 오산리 136번지 1층","indutype":"유통업 영리 - 슈퍼마켓","category":"mart"}]},{"lat":"37.338868339","long":"127.2370372","imageIndex":7,"items":[{"name":"말미슈퍼","tel":"031-333-8350","addr":"경기도 용인시 처인구 모현읍 일산리 239-12","indutype":"유통업 영리 - 슈퍼마켓","category":"mart"}]},{"lat":"37.333843293","long":"127.24906144","imageIndex":7,"items":[{"name":"모현마트","tel":"031-332-5171","addr":"경기도 용인시 처인구 모현읍 왕산리 428-4번지","indutype":"유통업 영리 - 슈퍼마켓","category":"mart"},{"name":"주식회사와이에스유통","tel":"031-334-5171","addr":"경기도 용인시 처인구 모현읍 왕산리 428-4번지","indutype":"유통업 영리 - 슈퍼마켓","category":"mart"}]},{"lat":"37.336097737","long":"127.25245405","imageIndex":7,"items":[{"name":"모현중앙마트","tel":"031-332-0444","addr":"경기도 용인시 처인구 모현읍 왕산리 507-4번지","indutype":"유통업 영리 - 슈퍼마켓","category":"mart"}]},{"lat":"37.325175733","long":"127.15876163","imageIndex":7,"items":[{"name":"본동 슈퍼","tel":"031-333-7556","addr":"경기도 용인시 처인구 모현읍 오산리 104","indutype":"유통업 영리 - 슈퍼마켓","category":"mart"}]},{"lat":"37.32798083","long":"127.24314134","imageIndex":7,"items":[{"name":"산장슈퍼","tel":"031-322-0719","addr":"경기도 용인시 처인구 모현읍 갈담리 320-4번지 산장맨숀 101호","indutype":"유통업 영리 - 슈퍼마켓","category":"mart"}]},{"lat":"37.338930396","long":"127.19784603","imageIndex":7,"items":[{"name":"삼거리마트","tel":"070-4084-8308","addr":"경기도 용인시 처인구 모현읍 동림리 142-4번지","indutype":"유통업 영리 - 슈퍼마켓","category":"mart"}]},{"lat":"37.330678771","long":"127.15349239","imageIndex":7,"items":[{"name":"오뜨락","tel":"031-323-0289","addr":"경기도 용인시 처인구 모현읍 오산리 197-9번지 1층","indutype":"유통업 영리 - 슈퍼마켓","category":"mart"}]},{"lat":"37.328460675","long":"127.24200328","imageIndex":7,"items":[{"name":"온누리 소매점","tel":"","addr":"경기도 용인시 처인구 모현읍 갈담리 307-74번지","indutype":"유통업 영리 - 슈퍼마켓","category":"mart"}]},{"lat":"37.313038311","long":"127.24047666","imageIndex":7,"items":[{"name":"초부매점","tel":"031-339-1585","addr":"경기도 용인시 처인구 모현읍 초부리 69-16번지","indutype":"유통업 영리 - 슈퍼마켓","category":"mart"}]},{"lat":"37.343874715","long":"127.2247066","imageIndex":7,"items":[{"name":"홈in마트","tel":"","addr":"경기도 용인시 처인구 모현읍 매산리 208-2번지","indutype":"유통업 영리 - 슈퍼마켓","category":"mart"}]},{"lat":"37.314461825","long":"127.25784247","imageIndex":7,"items":[{"name":"휴양림슈퍼","tel":"031-322-4545","addr":"경기도 용인시 처인구 모현읍 초부리 206-2번지","indutype":"유통업 영리 - 슈퍼마켓","category":"mart"}]}]