[{"lat":"37.15856213","long":"127.3016734","imageIndex":7,"items":[{"name":"(주)메나리","tel":"031-711-6148","addr":"경기도 용인시 처인구 원삼면 문촌리9-2","indutype":"음료식품 - 농·축·수산품","category":"food"}]},{"lat":"37.16531429","long":"127.31092085","imageIndex":7,"items":[{"name":"H.K축산유통","tel":"031-284-1994","addr":"경기도 용인시 처인구 원삼면 고당리 71-13번지","indutype":"음료식품 - 정육점","category":"food"},{"name":"우리방아간","tel":"031-334-2914","addr":"경기도 용인시 처인구 원삼면 고당리 71-13번지","indutype":"음료식품 - 기타음료식품","category":"food"},{"name":"원삼축산물도매센터","tel":"070-4404-1994","addr":"경기도 용인시 처인구 원삼면 고당리 71-13번지","indutype":"음료식품 - 정육점","category":"food"}]},{"lat":"37.164725756","long":"127.30503021","imageIndex":7,"items":[{"name":"고당리산장건강원","tel":"031-333-2458","addr":"경기도 용인시 처인구 원삼면 고당리 302번지","indutype":"건강식품 - 기타건강식품","category":"food"}]},{"lat":"37.173562763","long":"127.29145214","imageIndex":7,"items":[{"name":"금강제이에스","tel":"031-320-0197","addr":"경기도 용인시 처인구 원삼면 사암리 900번지 중소기업인력개발원 1층","indutype":"음료식품 - 기타음료식품","category":"food"}]},{"lat":"37.172725704","long":"127.29839626","imageIndex":7,"items":[{"name":"꿈과희망","tel":"031-322-2027","addr":"경기도 용인시 처인구 원삼면 사암리 872-1번지 농촌테마파크 방문자센터","indutype":"음료식품 - 기타음료식품","category":"food"}]},{"lat":"37.192226794","long":"127.30095002","imageIndex":7,"items":[{"name":"농도원목장","tel":"031-321-0445","addr":"경기도 용인시 처인구 원삼면 사암리 1163 1","indutype":"음료식품 - 농·축·수산품","category":"food"}]},{"lat":"37.192915137","long":"127.29953362","imageIndex":7,"items":[{"name":"농도원유업 영농조합법인","tel":"031-321-0445","addr":"경기도 용인시 처인구 원삼면 사암리 산68-1번지","indutype":"음료식품 - 기타음료식품","category":"food"}]},{"lat":"37.171313552","long":"127.30100298","imageIndex":7,"items":[{"name":"농업회사법인 새한농주식회사","tel":"031-731-4393","addr":"경기도 용인시 처인구 원삼면 고당리 산 63","indutype":"음료식품 - 농·축·수산품","category":"food"}]},{"lat":"37.202638848","long":"127.32317025","imageIndex":7,"items":[{"name":"농업회사법인 주식회사 담다","tel":"031-336-3522","addr":"경기도 용인시 처인구 원삼면 좌항리 95-1번지 좌전인력 4호","indutype":"음료식품 - 농·축·수산품","category":"food"}]},{"lat":"37.164085972","long":"127.34483777","imageIndex":7,"items":[{"name":"농업회사법인 주식회사 지쿱","tel":"070-4208-7979","addr":"경기도 용인시 처인구 원삼면 두창리 704-6번지","indutype":"음료식품 - 농·축·수산품","category":"food"}]},{"lat":"37.169700479","long":"127.30108672","imageIndex":7,"items":[{"name":"농업회사법인주식회사 늘푸른공원","tel":"031-323-3150","addr":"경기도 용인시 처인구 원삼면 고당리 243번지","indutype":"음료식품 - 농·축·수산품","category":"food"}]},{"lat":"37.143397561","long":"127.3156493","imageIndex":7,"items":[{"name":"농업회사법인주식회사능말","tel":"031-338-3833","addr":"경기도 용인시 처인구 원삼면 죽능리 383-8번지","indutype":"건강식품 - 기타건강식품","category":"food"}]},{"lat":"37.203804331","long":"127.32200368","imageIndex":7,"items":[{"name":"농업회사법인주식회사몬스팜","tel":"","addr":"경기도 용인시 처인구 원삼면 좌항리 110-9번지 743호","indutype":"음료식품 - 농·축·수산품","category":"food"}]},{"lat":"37.131372102","long":"127.31087326","imageIndex":7,"items":[{"name":"농업회사법인주식회사순악질","tel":"070-8880-1375","addr":"경기도 용인시 처인구 원삼면 목신리 375-4번지","indutype":"음료식품 - 농·축·수산품","category":"food"}]},{"lat":"37.180888783","long":"127.30566888","imageIndex":7,"items":[{"name":"더조은 아로니아","tel":"02-1833-9134","addr":"경기도 용인시 처인구 원삼면 사암리 155-2번지","indutype":"음료식품 - 농·축·수산품","category":"food"},{"name":"마루아로니아","tel":"031-334-1501","addr":"경기도 용인시 처인구 원삼면 사암리 155-2번지","indutype":"음료식품 - 농·축·수산품","category":"food"}]},{"lat":"37.155200511","long":"127.34211854","imageIndex":7,"items":[{"name":"두창건강원","tel":"031-332-9598","addr":"경기도 용인시 처인구 원삼면 두창리 1074-7","indutype":"건강식품 - 기타건강식품","category":"food"}]},{"lat":"37.153202607","long":"127.34441728","imageIndex":7,"items":[{"name":"두창양식장","tel":"031-336-8484","addr":"경기도 용인시 처인구 원삼면 두창리 1304-1번지 2832호","indutype":"음료식품 - 농·축·수산품","category":"food"}]},{"lat":"37.191082205","long":"127.30461711","imageIndex":7,"items":[{"name":"둥둥","tel":"031-335-9556","addr":"경기도 용인시 처인구 원삼면 사암리 311번지","indutype":"음료식품 - 기타음료식품","category":"food"}]},{"lat":"37.18097269","long":"127.30456564","imageIndex":7,"items":[{"name":"삼거리농원","tel":"031-332-9458","addr":"경기도 용인시 처인구 원삼면 사암리1315","indutype":"음료식품 - 농·축·수산품","category":"food"}]},{"lat":"37.197977171","long":"127.32770103","imageIndex":7,"items":[{"name":"삼화농산","tel":"070-7018-5392","addr":"경기도 용인시 처인구 원삼면 맹리 126-1번지 305호","indutype":"음료식품 - 농·축·수산품","category":"food"}]},{"lat":"37.201754406","long":"127.33028543","imageIndex":7,"items":[{"name":"서울낫도","tel":"031-333-9367","addr":"경기도 용인시 처인구 원삼면 맹리 98-1번지","indutype":"음료식품 - 기타음료식품","category":"food"}]},{"lat":"37.163978947","long":"127.31161346","imageIndex":7,"items":[{"name":"세광농산물","tel":"","addr":"경기도 용인시 처인구 원삼면 고당리 32-6번지 1층","indutype":"음료식품 - 기타음료식품","category":"food"}]},{"lat":"37.151116356","long":"127.31684051","imageIndex":7,"items":[{"name":"센타매점","tel":"031-339-3322","addr":"경기도 용인시 처인구 원삼면 죽능리 532번지","indutype":"음료식품 - 기타음료식품","category":"food"}]},{"lat":"37.192582038","long":"127.33986421","imageIndex":7,"items":[{"name":"수정산표고농원","tel":"070-5022-4846","addr":"경기도 용인시 처인구 원삼면 맹리 427-2번지","indutype":"음료식품 - 농·축·수산품","category":"food"}]},{"lat":"37.160924703","long":"127.31494468","imageIndex":7,"items":[{"name":"쌍둥이딸기농원","tel":"070-7018-5392","addr":"경기도 용인시 처인구 원삼면 독성리 1040번지","indutype":"음료식품 - 농·축·수산품","category":"food"}]},{"lat":"37.200747074","long":"127.31967043","imageIndex":7,"items":[{"name":"씨. 트러스트","tel":"031-337-0811","addr":"경기도 용인시 처인구 원삼면 좌항리 607번지 나동","indutype":"음료식품 - 기타음료식품","category":"food"},{"name":"청정이원","tel":"031-322-7204","addr":"경기도 용인시 처인구 원삼면 좌항리 607 3/1","indutype":"음료식품 - 농·축·수산품","category":"food"}]},{"lat":"37.153314449","long":"127.3399713","imageIndex":7,"items":[{"name":"씨에치그린텍","tel":"031-344-5115","addr":"경기도 용인시 처인구 원삼면 두창리 1316","indutype":"음료식품 - 농·축·수산품","category":"food"}]},{"lat":"37.194776699","long":"127.3183615","imageIndex":7,"items":[{"name":"야초랑아찌랑","tel":"031-323-1724","addr":"경기도 용인시 처인구 원삼면 좌항리 324-12번지","indutype":"음료식품 - 농·축·수산품","category":"food"}]},{"lat":"37.138813796","long":"127.30775209","imageIndex":7,"items":[{"name":"약초제왕","tel":"070-4108-2532","addr":"경기도 용인시 처인구 원삼면 죽능리 169-1번지","indutype":"건강식품 - 기타건강식품","category":"food"}]},{"lat":"37.156087083","long":"127.33125919","imageIndex":7,"items":[{"name":"연미향초마을","tel":"070-7747-9196","addr":"경기도 용인시 처인구 원삼면 독성리 23-3","indutype":"건강식품 - 인삼제품","category":"food"}]},{"lat":"37.163647208","long":"127.33756284","imageIndex":7,"items":[{"name":"오가사랑","tel":"031-323-5053","addr":"경기도 용인시 처인구 원삼면 두창리 635","indutype":"음료식품 - 기타음료식품","category":"food"}]},{"lat":"37.184895315","long":"127.30334246","imageIndex":7,"items":[{"name":"용담농원","tel":"031-332-8153","addr":"경기도 용인시 처인구 원삼면 사암리224-20","indutype":"음료식품 - 농·축·수산품","category":"food"}]},{"lat":"37.156925525","long":"127.33753321","imageIndex":7,"items":[{"name":"용인 청정 파인애플 포도 블루베리농장","tel":"031-000-0000","addr":"경기도 용인시 처인구 원삼면 두창리 972번지","indutype":"음료식품 - 농·축·수산품","category":"food"}]},{"lat":"37.165006482","long":"127.34433528","imageIndex":7,"items":[{"name":"용인송화고","tel":"070-7018-5391","addr":"경기도 용인시 처인구 원삼면 두창리 2591번지","indutype":"음료식품 - 농·축·수산품","category":"food"}]},{"lat":"37.191613607","long":"127.32189606","imageIndex":7,"items":[{"name":"용인청정farm","tel":"031-0000-0000","addr":"경기도 용인시 처인구 원삼면 미평리 457번지","indutype":"음료식품 - 농·축·수산품","category":"food"}]},{"lat":"37.173617774","long":"127.32928572","imageIndex":7,"items":[{"name":"우리배(WOORIPEAR)","tel":"031-339-2140","addr":"경기도 용인시 처인구 원삼면 두창리76","indutype":"음료식품 - 농·축·수산품","category":"food"}]},{"lat":"37.174750378","long":"127.31694953","imageIndex":7,"items":[{"name":"원삼농산물","tel":"031-322-8092","addr":"경기도 용인시 처인구 원삼면 가재월리 800번지","indutype":"음료식품 - 농·축·수산품","category":"food"}]},{"lat":"37.164619412","long":"127.3113346","imageIndex":7,"items":[{"name":"원삼양조장","tel":"031-332-8473","addr":"경기도 용인시 처인구 원삼면 고당리 71-5번지","indutype":"음료식품 - 주류 판매점","category":"food"}]},{"lat":"37.163918977","long":"127.31041982","imageIndex":7,"items":[{"name":"원삼제분소","tel":"031-332-8025","addr":"경기도 용인시 처인구 원삼면 고당리 35-9번지","indutype":"음료식품 - 미곡상","category":"food"}]},{"lat":"37.139427773","long":"127.30725934","imageIndex":7,"items":[{"name":"웬떡마을영농조합법인","tel":"031-333-2777","addr":"경기도 용인시 처인구 원삼면 죽릉리771-3","indutype":"음료식품 - 제과점","category":"food"}]},{"lat":"37.148011148","long":"127.31212261","imageIndex":7,"items":[{"name":"유성정육점","tel":"031-339-8320","addr":"경기도 용인시 처인구 원삼면 죽능리 502-2번지","indutype":"음료식품 - 정육점","category":"food"}]},{"lat":"37.193918383","long":"127.32259279","imageIndex":7,"items":[{"name":"이든머슈팜","tel":"031-000-0000","addr":"경기도 용인시 처인구 원삼면 좌항리 750번지","indutype":"음료식품 - 농·축·수산품","category":"food"}]},{"lat":"37.196721964","long":"127.33519705","imageIndex":7,"items":[{"name":"자연양봉산업","tel":"031-333-1881","addr":"경기도 용인시 처인구 원삼면 맹리 509-2번지","indutype":"음료식품 - 농·축·수산품","category":"food"},{"name":"자연양봉원","tel":"031-333-1881","addr":"경기도 용인시 처인구 원삼면 맹리 509-2","indutype":"음료식품 - 농·축·수산품","category":"food"}]},{"lat":"37.164007062","long":"127.31119701","imageIndex":7,"items":[{"name":"장수건강원","tel":"031-332-5001","addr":"경기도 용인시 처인구 원삼면 고당리 33-10번지","indutype":"건강식품 - 기타건강식품","category":"food"}]},{"lat":"37.203914394","long":"127.32128322","imageIndex":7,"items":[{"name":"좌전방아간","tel":"031-339-0316","addr":"경기도 용인시 처인구 원삼면 좌항리 112","indutype":"음료식품 - 제과점","category":"food"}]},{"lat":"37.180861127","long":"127.3023693","imageIndex":7,"items":[{"name":"쭝이랑","tel":"031-323-3695","addr":"경기도 용인시 처인구 원삼면 사암리 1316-1번지","indutype":"음료식품 - 농·축·수산품","category":"food"}]},{"lat":"37.181806769","long":"127.32652819","imageIndex":7,"items":[{"name":"처인성 주조","tel":"070-7794-1012","addr":"경기도 용인시 처인구 원삼면 미평리 69-5번지","indutype":"음료식품 - 주류 판매점","category":"food"}]},{"lat":"37.19227563","long":"127.31350813","imageIndex":7,"items":[{"name":"천곡농원","tel":"031-332-6685","addr":"경기도 용인시 처인구 원삼면 좌항리 336-7번지","indutype":"음료식품 - 농·축·수산품","category":"food"}]},{"lat":"37.173447932","long":"127.29783607","imageIndex":7,"items":[{"name":"커피 2.0랩(COFFEE 2.0 LAB)","tel":"031-000-0000","addr":"경기도 용인시 처인구 원삼면 사암리 869번지","indutype":"음료식품 - 기타음료식품","category":"food"}]},{"lat":"37.167037072","long":"127.31022979","imageIndex":7,"items":[{"name":"태양굼벵이","tel":"031-000-0000","addr":"경기도 용인시 처인구 원삼면 고당리 94-6번지 1층 상가동","indutype":"건강식품 - 기타건강식품","category":"food"}]},{"lat":"37.198060106","long":"127.33994487","imageIndex":7,"items":[{"name":"토박이","tel":"031-332-8820","addr":"경기도 용인시 처인구 원삼면 맹리 227-6번지","indutype":"음료식품 - 농·축·수산품","category":"food"}]},{"lat":"37.189145732","long":"127.33466831","imageIndex":7,"items":[{"name":"토박이 영농조합법인","tel":"031-328-7577","addr":"경기도 용인시 처인구 원삼면 맹리 638-2번지","indutype":"음료식품 - 농·축·수산품","category":"food"}]},{"lat":"37.205003015","long":"127.33177512","imageIndex":7,"items":[{"name":"티엘에스유통","tel":"031-768-1249","addr":"경기도 용인시 처인구 원삼면 맹리46","indutype":"음료식품 - 기타음료식품","category":"food"}]},{"lat":"37.170617411","long":"127.33892219","imageIndex":7,"items":[{"name":"팜앤트리(Farm&Tree)","tel":"","addr":"경기도 용인시 처인구 원삼면 두창리 2108","indutype":"음료식품 - 농·축·수산품","category":"food"}]},{"lat":"37.199026386","long":"127.31956187","imageIndex":7,"items":[{"name":"하나팜","tel":"031-321-5728","addr":"경기도 용인시 처인구 원삼면 좌항리 611번지","indutype":"음료식품 - 농·축·수산품","category":"food"}]},{"lat":"37.17933811","long":"127.29525773","imageIndex":7,"items":[{"name":"한스농원","tel":"031-332-8345","addr":"경기도 용인시 처인구 원삼면 사암리 985-7번지","indutype":"음료식품 - 농·축·수산품","category":"food"}]},{"lat":"37.161786797","long":"127.30915026","imageIndex":7,"items":[{"name":"햇살농장","tel":"031-332-8757","addr":"경기도 용인시 처인구 원삼면 독성리 619-4번지","indutype":"음료식품 - 농·축·수산품","category":"food"}]},{"lat":"37.158004467","long":"127.29034604","imageIndex":7,"items":[{"name":"행복연수원아로니아농장","tel":"","addr":"경기도 용인시 처인구 원삼면 문촌리 757번지","indutype":"음료식품 - 농·축·수산품","category":"food"}]}]