[{"lat":"37.85502597","long":"127.18210749","imageIndex":17,"items":[{"name":"(주)기적의사람들","tel":"070-8671-8156","addr":"경기도 포천시 가산면 마산리 645-3번지","indutype":"신변잡화 - 기타잡화","category":"other"},{"name":"한국미라클피플사","tel":"031-544-6781","addr":"경기도 포천시 가산면 마산리 645-3번지","indutype":"신변잡화 - 기타잡화","category":"other"}]},{"lat":"37.850640201","long":"127.1748592","imageIndex":17,"items":[{"name":"(주)자자손손","tel":"031-535-7645","addr":"경기도 포천시 가산면 마산리 542-11","indutype":"레져용품 - 스포츠·레져용품","category":"other"}]},{"lat":"37.847833186","long":"127.19002055","imageIndex":17,"items":[{"name":"GS25 포천마산","tel":"031-542-2513","addr":"경기도 포천시 가산면 마산리 146-1번지","indutype":"편의점 - 편의점","category":"other"},{"name":"가산천막","tel":"031-544-8027","addr":"경기도 포천시 가산면 마산리 146-1","indutype":"직물 - 카페트,커튼,천막,지물","category":"other"}]},{"lat":"37.847141392","long":"127.18880311","imageIndex":17,"items":[{"name":"cu포천가산점","tel":"031-541-1316","addr":"경기도 포천시 가산면 마산리 183-8번지","indutype":"소매업 - 편의점","category":"other"},{"name":"세기측량설계공사","tel":"541-6686","addr":"경기도 포천시 가산면 마산리 183-8번지","indutype":"서비스 - 측량설계","category":"other"}]},{"lat":"37.847505296","long":"127.18655442","imageIndex":17,"items":[{"name":"가산농약사","tel":"031-544-2319","addr":"경기도 포천시 가산면 마산리 593-8번지","indutype":"농업 - 비료,사료,종자","category":"other"},{"name":"가산농약사","tel":"544-2319","addr":"경기도 포천시 가산면 마산리 593-8번지","indutype":"도소매 - 농약등","category":"other"}]},{"lat":"37.847835596","long":"127.18849809","imageIndex":17,"items":[{"name":"가산문구도매센타","tel":"541-9307","addr":"경기도 포천시 가산면 마산리 149번지","indutype":"소매업 - 문구","category":"other"}]},{"lat":"37.847534103","long":"127.19113323","imageIndex":17,"items":[{"name":"가산볼트센타","tel":"031-544-5033","addr":"경기도 포천시 가산면 마산리 184-12번지","indutype":"기타 - 기계공구","category":"other"},{"name":"미성벽지","tel":"031-541-5253","addr":"경기도 포천시 가산면 마산리 184-12번지","indutype":"건축자재 - 인테리어전문","category":"other"},{"name":"열린공인중개사사무소","tel":"031-544-0054","addr":"경기도 포천시 가산면 마산리 184-12번지","indutype":"용역 서비스 - 부동산 중개·임대","category":"other"}]},{"lat":"37.846891915","long":"127.18703008","imageIndex":17,"items":[{"name":"가산세탁소","tel":"544-8127","addr":"경기도 포천시 가산면 마산리 399-36번지","indutype":"서비스 - 세탁소","category":"other"},{"name":"가산세탁소","tel":"031-544-8127","addr":"경기도 포천시 가산면 마산리 399-36번지","indutype":"수리서비스 - 세탁소","category":"other"}]},{"lat":"37.848612931","long":"127.18688666","imageIndex":17,"items":[{"name":"가산스포츠","tel":"031-541-7742","addr":"경기도 포천시 가산면 마산리 601-8번지 1층","indutype":"레져용품 - 스포츠·레져용품","category":"other"}]},{"lat":"37.848027537","long":"127.18674886","imageIndex":17,"items":[{"name":"가산우체국","tel":"031-544-2000","addr":"경기도 포천시 가산면 마산리 594-5번지","indutype":"용역 서비스 - 공공요금대행서비스/소","category":"other"}]},{"lat":"37.84750791","long":"127.19061053","imageIndex":17,"items":[{"name":"가산인력직업소개소","tel":"543-6621","addr":"경기도 포천시 가산면 마산리 183-36번지","indutype":"서비스 - 고용알선업","category":"other"},{"name":"삼성냉동","tel":"031-541-6478","addr":"경기도 포천시 가산면 마산리 183-36번지 1호 상가","indutype":"수리서비스 - 가정용품수리","category":"other"}]},{"lat":"37.841811729","long":"127.18043956","imageIndex":17,"items":[{"name":"가산타이어","tel":"542-3358","addr":"경기도 포천시 가산면 마산리 322번지","indutype":"소매업 - 타이어등","category":"other"}]},{"lat":"37.846360753","long":"127.18677881","imageIndex":17,"items":[{"name":"가산통신","tel":"031-544-7010","addr":"경기도 포천시 가산면 마산리 181-1번지","indutype":"사무통신 - 통신기기","category":"other"}]},{"lat":"37.847284391","long":"127.18953061","imageIndex":17,"items":[{"name":"가산헬스","tel":"031-543-0435","addr":"경기도 포천시 가산면 마산리 183-7","indutype":"회원제형태 - 레져업소","category":"other"},{"name":"어울림작업복","tel":"031-542-2926","addr":"경기도 포천시 가산면 마산리 183-7번지","indutype":"의류 - 기타의류","category":"other"}]},{"lat":"37.844809763","long":"127.1988065","imageIndex":17,"items":[{"name":"광명코팅","tel":"031-544-3641","addr":"경기도 포천시 가산면 마산리 111","indutype":"건축자재 - 기타건축자재","category":"other"}]},{"lat":"37.845643794","long":"127.18433434","imageIndex":17,"items":[{"name":"그린공조 냉동설비","tel":"031-543-8242","addr":"경기도 포천시 가산면 마산리 39-26번지","indutype":"수리서비스 - 가정용품수리","category":"other"}]},{"lat":"37.846478955","long":"127.18608605","imageIndex":17,"items":[{"name":"금성","tel":"031-544-9185","addr":"경기도 포천시 가산면 마산리 400-29번지","indutype":"건축자재 - 부동산 분양","category":"other"},{"name":"유림상사","tel":"031-543-8339","addr":"경기도 포천시 가산면 마산리 400-29번지","indutype":"건축자재 - 페인트","category":"other"}]},{"lat":"37.84722164","long":"127.19493858","imageIndex":17,"items":[{"name":"대성금속","tel":"031-544-2307","addr":"경기도 포천시 가산면 마산리 123번지","indutype":"주방용구 - 주방용구","category":"other"},{"name":"하나톱초경","tel":"031-544-1158","addr":"경기도 포천시 가산면 마산리 123","indutype":"기타 - 기계공구","category":"other"}]},{"lat":"37.845473525","long":"127.18374313","imageIndex":17,"items":[{"name":"대원전기","tel":"031-544-8292","addr":"경기도 포천시 가산면 마산리 427-4번지 1층 3호","indutype":"용역 서비스 - 기타용역서비스","category":"other"}]},{"lat":"37.845140928","long":"127.18325378","imageIndex":17,"items":[{"name":"대원정밀","tel":"031-544-9072","addr":"경기도 포천시 가산면 마산리 431번지","indutype":"기타 - 기계공구","category":"other"}]},{"lat":"37.84794991","long":"127.1902708","imageIndex":17,"items":[{"name":"대한광고","tel":"031-543-6622","addr":"경기도 포천시 가산면 마산리 146-4","indutype":"건축자재 - 인테리어전문","category":"other"},{"name":"동양정밀","tel":"031-544-8288","addr":"경기도 포천시 가산면 마산리 146-4","indutype":"수리서비스 - 기타수리서비스","category":"other"}]},{"lat":"37.847534503","long":"127.19088328","imageIndex":17,"items":[{"name":"덕성유리","tel":"031-541-1512","addr":"경기도 포천시 가산면 마산리 184-3","indutype":"건축자재 - 유리","category":"other"}]},{"lat":"37.84669581","long":"127.17978094","imageIndex":17,"items":[{"name":"동명코팅","tel":"031-542-0216","addr":"경기도 포천시 가산면 마산리 463번지","indutype":"주방용구 - 주방용구","category":"other"}]},{"lat":"37.845834238","long":"127.19491226","imageIndex":17,"items":[{"name":"동양상사","tel":"031-542-9711","addr":"경기도 포천시 가산면 마산리 120-19","indutype":"기타 - 기타 전문점","category":"other"}]},{"lat":"37.847721697","long":"127.19213354","imageIndex":17,"items":[{"name":"동진상사","tel":"543-8079","addr":"경기도 포천시 가산면 마산리 186번지","indutype":"도소매 - 철물","category":"other"},{"name":"컴PD","tel":"031-542-6613","addr":"경기도 포천시 가산면 마산리 186번지","indutype":"수리서비스 - 사무·통신기기수리","category":"other"}]},{"lat":"37.843452584","long":"127.2022453","imageIndex":17,"items":[{"name":"두진산업","tel":"031-861-0021","addr":"경기도 포천시 가산면 마산리 11번지","indutype":"건축자재 - 목재·석재·철물","category":"other"}]},{"lat":"37.84819859","long":"127.18682882","imageIndex":17,"items":[{"name":"디에이치기획","tel":"031-542-3244","addr":"경기도 포천시 가산면 마산리 594-4번지","indutype":"유통업 영리 - 기타유통업","category":"other"}]},{"lat":"37.857333314","long":"127.17544291","imageIndex":17,"items":[{"name":"루니펫","tel":"031-543-0402","addr":"경기도 포천시 가산면 마산리 666-1번지","indutype":"문화.취미 - 애완동물","category":"other"}]},{"lat":"37.848416929","long":"127.19119229","imageIndex":17,"items":[{"name":"만물환경","tel":"031-542-8890","addr":"경기도 포천시 가산면 마산리 144-1번지","indutype":"용역 서비스 - 종합용역","category":"other"},{"name":"태광볼트","tel":"031-541-2228","addr":"경기도 포천시 가산면 마산리 144-1","indutype":"기타 - 기계공구","category":"other"}]},{"lat":"37.854946145","long":"127.18127782","imageIndex":17,"items":[{"name":"명성화스나","tel":"031-542-2087","addr":"경기도 포천시 가산면 마산리 646-6번지","indutype":"기타 - 기타 전문점","category":"other"}]},{"lat":"37.845697465","long":"127.18458442","imageIndex":17,"items":[{"name":"베스트 펫 푸드(Best Pet food)","tel":"070-4115-8395","addr":"경기도 포천시 가산면 마산리 39-28번지 가동 1층","indutype":"문화.취미 - 애완동물","category":"other"}]},{"lat":"37.847089569","long":"127.18738278","imageIndex":17,"items":[{"name":"봄봄 키즈북스/개구리서적","tel":"031-543-2543","addr":"경기도 포천시 가산면 마산리 399-22번지","indutype":"서적문구 - 일반서적","category":"other"}]},{"lat":"37.846392376","long":"127.18958517","imageIndex":17,"items":[{"name":"부광꽃농원","tel":"031-544-0110","addr":"경기도 포천시 가산면 마산리 162-1번지","indutype":"문화.취미 - 화원","category":"other"}]},{"lat":"37.846527822","long":"127.18939237","imageIndex":17,"items":[{"name":"부광꽃농원","tel":"544-0110","addr":"경기도 포천시 가산면 마산리 155번지","indutype":"도소매 - 꽃,생화","category":"other"}]},{"lat":"37.845895249","long":"127.18485758","imageIndex":17,"items":[{"name":"부자가구","tel":"070-7717-8898","addr":"경기도 포천시 가산면 마산리 42번지 405호","indutype":"가구 - 일반가구","category":"other"}]},{"lat":"37.848173767","long":"127.19113486","imageIndex":17,"items":[{"name":"삼천리공인중개사사무소","tel":"543-3500","addr":"경기도 포천시 가산면 마산리 144-5번지","indutype":"부동산 - 부동산중개업","category":"other"},{"name":"후빌리어드","tel":"","addr":"경기도 포천시 가산면 마산리 144-5번지","indutype":"서비스 - 당구장","category":"other"}]},{"lat":"37.843973306","long":"127.18088783","imageIndex":17,"items":[{"name":"서진미장산업","tel":"031-541-1304","addr":"경기도 포천시 가산면 마산리 437번지","indutype":"건축자재 - 목재·석재·철물","category":"other"}]},{"lat":"37.844202374","long":"127.2010544","imageIndex":17,"items":[{"name":"성익S.D.I","tel":"","addr":"경기도 포천시 가산면 마산리 4-2번지","indutype":"건축자재 - 기타건축자재","category":"other"}]},{"lat":"37.845173499","long":"127.1855034","imageIndex":17,"items":[{"name":"신성정밀","tel":"031-543-9675","addr":"경기도 포천시 가산면 마산리 42-20번지","indutype":"기타 - 기계공구","category":"other"}]},{"lat":"37.841837951","long":"127.18097358","imageIndex":17,"items":[{"name":"신영철물","tel":"541-0065","addr":"경기도 포천시 가산면 마산리 329-3번지","indutype":"도소매 - 철물,건축자재","category":"other"},{"name":"양지데코","tel":"031-542-4324","addr":"경기도 포천시 가산면 마산리 329-3번지 7,8,9호","indutype":"건축자재 - 기타건축자재","category":"other"}]},{"lat":"37.837641479","long":"127.18560979","imageIndex":17,"items":[{"name":"신원케미칼","tel":"031-542-6820","addr":"경기도 포천시 가산면 마산리 292-1번지","indutype":"서적문구 - 과학기자재","category":"other"}]},{"lat":"37.839476689","long":"127.18150185","imageIndex":17,"items":[{"name":"신호케미칼","tel":"031-542-8977","addr":"경기도 포천시 가산면 마산리 314-7","indutype":"기타 - 기타 전문점","category":"other"}]},{"lat":"37.852498225","long":"127.17342049","imageIndex":17,"items":[{"name":"에스엔지시스템","tel":"031-544-9247","addr":"경기도 포천시 가산면 마산리 768-2번지","indutype":"전기제품 - 기타전기제품","category":"other"}]},{"lat":"37.839391403","long":"127.18425086","imageIndex":17,"items":[{"name":"왕성한산업","tel":"031-542-3925","addr":"경기도 포천시 가산면 마산리 351-8번지","indutype":"회원제형태 - 기타4","category":"other"}]},{"lat":"37.846971431","long":"127.1880301","imageIndex":17,"items":[{"name":"월드토탈패션","tel":"031-543-6853","addr":"경기도 포천시 가산면 마산리 152-6","indutype":"의류 - 정장","category":"other"}]},{"lat":"37.847614788","long":"127.1913834","imageIndex":17,"items":[{"name":"일번가 생활용품 백화점","tel":"542-8011","addr":"경기도 포천시 가산면 마산리 184번지","indutype":"도소매 - 잡화","category":"other"}]},{"lat":"37.84719777","long":"127.18732624","imageIndex":17,"items":[{"name":"전광사","tel":"031-544-1971","addr":"경기도 포천시 가산면 마산리 399-6번지","indutype":"신변잡화 - 기타잡화","category":"other"},{"name":"전광사","tel":"544-1971","addr":"경기도 포천시 가산면 마산리 399-6번지","indutype":"소매업 - 문구","category":"other"}]},{"lat":"37.845948919","long":"127.18510766","imageIndex":17,"items":[{"name":"제일정밀","tel":"031-544-7202","addr":"경기도 포천시 가산면 마산리 42-17번지","indutype":"기타 - 기계공구","category":"other"}]},{"lat":"37.846757307","long":"127.1866889","imageIndex":17,"items":[{"name":"제일철물","tel":"544-1865","addr":"경기도 포천시 가산면 마산리 400-28번지","indutype":"도소매 - 철물.공구","category":"other"}]},{"lat":"37.852615922","long":"127.17302308","imageIndex":17,"items":[{"name":"종합지게차정비","tel":"070-7200-7802","addr":"경기도 포천시 가산면 마산리 769-8번지","indutype":"기타 - 기계공구","category":"other"}]},{"lat":"37.83783444","long":"127.18316783","imageIndex":17,"items":[{"name":"주식회사 한빛이엔에스","tel":"031-544-7139","addr":"경기도 포천시 가산면 마산리 297-1번지","indutype":"기타 - 기계공구","category":"other"},{"name":"한빛","tel":"031-544-7139","addr":"경기도 포천시 가산면 마산리 297-1","indutype":"전기제품 - 기타전기제품","category":"other"}]},{"lat":"37.847449494","long":"127.19332581","imageIndex":17,"items":[{"name":"컴PD","tel":"542-6613","addr":"경기도 포천시 가산면 마산리 174-1번지","indutype":"도소매 - 가전제품","category":"other"}]},{"lat":"37.845173076","long":"127.18577607","imageIndex":17,"items":[{"name":"코스모스","tel":"031-542-3304","addr":"경기도 포천시 가산면 마산리 42-5번지","indutype":"건축자재 - 기타건축자재","category":"other"}]},{"lat":"37.847644395","long":"127.18399839","imageIndex":17,"items":[{"name":"코코닭 임대사업자","tel":"031-542-5998","addr":"경기도 포천시 가산면 마산리 413-5번지","indutype":"용역 서비스 - 부동산 중개·임대","category":"other"}]},{"lat":"37.846783188","long":"127.19308551","imageIndex":17,"items":[{"name":"콜미트","tel":"","addr":"경기도 포천시 가산면 마산리 172-23번지 1층","indutype":"도소매 - 정육점","category":"other"}]},{"lat":"37.846670948","long":"127.18428005","imageIndex":17,"items":[{"name":"하나둘셋교육사","tel":"070-7432-8835","addr":"경기도 포천시 가산면 마산리 410-3번지 101호","indutype":"서적문구 - 기타서적문구","category":"other"}]},{"lat":"37.837809525","long":"127.18178183","imageIndex":17,"items":[{"name":"하나콤프레샤 경기북부대리점","tel":"031-544-8128","addr":"경기도 포천시 가산면 마산리 299-1번지","indutype":"기타 - 기계공구","category":"other"}]},{"lat":"37.843890966","long":"127.18171699","imageIndex":17,"items":[{"name":"현대철물골재건재","tel":"031-544-2244","addr":"경기도 포천시 가산면 마산리 339-7번지","indutype":"건축자재 - 기타건축자재","category":"other"}]},{"lat":"37.843504321","long":"127.18121617","imageIndex":17,"items":[{"name":"현대펫컴퍼니","tel":"031-541-9488","addr":"경기도 포천시 가산면 마산리 339-6번지","indutype":"문화.취미 - 애완동물","category":"other"}]},{"lat":"37.844117078","long":"127.18113812","imageIndex":17,"items":[{"name":"효성안전","tel":"543-4752","addr":"경기도 포천시 가산면 마산리 435-13번지","indutype":"도소매 - 잡자재.안전용품","category":"other"}]},{"lat":"37.844198042","long":"127.18121784","imageIndex":17,"items":[{"name":"효성안전","tel":"031-543-4752","addr":"경기도 포천시 가산면 마산리 435-14","indutype":"기타 - 기계공구","category":"other"}]},{"lat":"37.841034947","long":"127.18174418","imageIndex":17,"items":[{"name":"힛트런","tel":"031-541-6917","addr":"경기도 포천시 가산면 마산리 328번지","indutype":"용역 서비스 - 종합용역","category":"other"}]}]