[{"lat":"37.752516973","long":"127.06903563","imageIndex":13,"items":[{"name":"21세기노래연습장","tel":"031-853-4191","addr":"경기도 의정부시 금오동 470-4번지 성산타워 504호","indutype":"레저업소 - 노 래 방","category":"leisure"},{"name":"그랑프리탁구클럽","tel":"031-853-6355","addr":"경기도 의정부시 금오동 470-4번지 성산타워 제8층 제801호, 제802호","indutype":"레저업소 - 기타레져업소","category":"leisure"},{"name":"노리터노래연습장","tel":"031-851-8448","addr":"경기도 의정부시 금오동 470-4번지 성산타워 404-1호","indutype":"레저업소 - 노 래 방","category":"leisure"},{"name":"보보스PC방","tel":"02-0000-0000","addr":"경기도 의정부시 금오동 470-4번지 성산타워 2층","indutype":"레저업소 - 기타레져업소","category":"leisure"}]},{"lat":"37.752156303","long":"127.06954592","imageIndex":13,"items":[{"name":"GA골프아카데미","tel":"031-851-9080","addr":"경기도 의정부시 금오동 473-1번지 플래티넘프라자 9층 901-906호","indutype":"레저업소 - 골프연습장","category":"leisure"},{"name":"제이노래연습장","tel":"031-852-1755","addr":"경기도 의정부시 금오동 473-1번지 플래티넘프라자 305호 304호,305호","indutype":"레저업소 - 노 래 방","category":"leisure"},{"name":"탑플레이스PC방 금오동본점","tel":"070-9255-7781","addr":"경기도 의정부시 금오동 473-1번지 플래티넘프라자 501동 503호","indutype":"레저업소 - 기타레져업소","category":"leisure"}]},{"lat":"37.756459662","long":"127.07498534","imageIndex":13,"items":[{"name":"Golfzon Park 금오해피스크린점","tel":"031-847-8025","addr":"경기도 의정부시 금오동 120번지 2층","indutype":"레저업소 - 스크린골프","category":"leisure"}]},{"lat":"37.751264378","long":"127.06951108","imageIndex":13,"items":[{"name":"MS노래연습장","tel":"031-851-7702","addr":"경기도 의정부시 금오동 473-4번지 2층","indutype":"레저업소 - 노 래 방","category":"leisure"},{"name":"메인스포츠클럽","tel":"031-851-9944","addr":"경기도 의정부시 금오동 473-4번지 8층","indutype":"레저업소 - 헬스클럽","category":"leisure"}]},{"lat":"37.749515518","long":"127.0534086","imageIndex":13,"items":[{"name":"금오노래방","tel":"031-821-8272","addr":"경기도 의정부시 금오동 391-9번지 지하1층","indutype":"레저업소 - 노 래 방","category":"leisure"}]},{"lat":"37.751760076","long":"127.06920516","imageIndex":13,"items":[{"name":"금오탁구클럽","tel":"031-853-5090","addr":"경기도 의정부시 금오동 472-6번지 유진프라자 6층","indutype":"레저업소 - 기타레져업소","category":"leisure"},{"name":"뉴비바체당구클럽","tel":"","addr":"경기도 의정부시 금오동 472-6번지 유진프라자 5층 502호","indutype":"레저업소 - 당 구 장","category":"leisure"},{"name":"뉴비바체당구클럽","tel":"031-111-1111","addr":"경기도 의정부시 금오동 472-6번지 유진프라자 5층","indutype":"레저업소 - 당 구 장","category":"leisure"},{"name":"썬 노래연습장","tel":"031-852-4822","addr":"경기도 의정부시 금오동 472-6번지 유진프라자 404호","indutype":"레저업소 - 노 래 방","category":"leisure"},{"name":"오렌지노래연습장","tel":"031-851-2396","addr":"경기도 의정부시 금오동 472-6번지 유진프라자 5층 503호","indutype":"레저업소 - 노 래 방","category":"leisure"},{"name":"키노","tel":"070-7757-1302","addr":"경기도 의정부시 금오동 472-6번지 유진프라자 2층 202호","indutype":"레저업소 - 기타레져업소","category":"leisure"},{"name":"팡팡아일랜드","tel":"031-853-7752","addr":"경기도 의정부시 금오동 472-6번지 유진프라자 701호","indutype":"레저업소 - 기타레져업소","category":"leisure"}]},{"lat":"37.749260153","long":"127.06018236","imageIndex":13,"items":[{"name":"노블레스 빌리어드","tel":"031-000-0000","addr":"경기도 의정부시 금오동 463-10번지 태진빌딩 3층","indutype":"레저업소 - 당 구 장","category":"leisure"}]},{"lat":"37.752039607","long":"127.06878557","imageIndex":13,"items":[{"name":"뉴메이저당구장","tel":"031-852-3337","addr":"경기도 의정부시 금오동 472-1번지 골드피아 603,604호","indutype":"레저업소 - 당 구 장","category":"leisure"},{"name":"라이또pc금오점","tel":"070-7997-7048","addr":"경기도 의정부시 금오동 472-1번지 골드피아 2층 201호","indutype":"레저업소 - 기타레져업소","category":"leisure"},{"name":"뿅가노래연습장","tel":"","addr":"경기도 의정부시 금오동 472-1번지 골드피아 206호","indutype":"레저업소 - 노 래 방","category":"leisure"},{"name":"스타노래연습장","tel":"031-853-2604","addr":"경기도 의정부시 금오동 472-1번지 405호,406호","indutype":"레저업소 - 노 래 방","category":"leisure"}]},{"lat":"37.751598323","long":"127.06845611","imageIndex":13,"items":[{"name":"라운지골프존파크","tel":"031-853-0036","addr":"경기도 의정부시 금오동 471-2번지 해피타워, 해피플러스III 10층 1001호","indutype":"레저업소 - 스크린골프","category":"leisure"}]},{"lat":"37.747738275","long":"127.05864943","imageIndex":13,"items":[{"name":"렉스골프연습장","tel":"031-851-1911","addr":"경기도 의정부시 금오동 463-1번지 렉스빌딩 2층","indutype":"레저업소 - 골프연습장","category":"leisure"}]},{"lat":"37.756683346","long":"127.07748207","imageIndex":13,"items":[{"name":"멋쟁이노래연습장","tel":"031-841-8810","addr":"경기도 의정부시 금오동 455-3지하1층","indutype":"레저업소 - 노 래 방","category":"leisure"}]},{"lat":"37.752346297","long":"127.06812771","imageIndex":13,"items":[{"name":"방방타임","tel":"031-853-8253","addr":"경기도 의정부시 금오동 470-1번지 파크프라자 605호 606호","indutype":"레저업소 - 기타레져업소","category":"leisure"}]},{"lat":"37.74515416","long":"127.05509619","imageIndex":13,"items":[{"name":"베가PC방","tel":"070-4949-7277","addr":"경기도 의정부시 금오동 369-21번지 2층","indutype":"레저업소 - 기타레져업소","category":"leisure"}]},{"lat":"37.751093681","long":"127.06864857","imageIndex":13,"items":[{"name":"세이당구장","tel":"031-853-9809","addr":"경기도 의정부시 금오동 471-4번지 현대프라자 2층 203,204호","indutype":"레저업소 - 당 구 장","category":"leisure"}]},{"lat":"37.748981033","long":"127.05981906","imageIndex":13,"items":[{"name":"시너지골프","tel":"031-852-7602","addr":"경기도 의정부시 금오동 463-8번지 4층","indutype":"레저업소 - 스크린골프","category":"leisure"},{"name":"시너지점","tel":"031-796-2554","addr":"경기도 의정부시 금오동 463-8번지 4층","indutype":"레저업소 - 헬스클럽","category":"leisure"}]},{"lat":"37.751679162","long":"127.06889872","imageIndex":13,"items":[{"name":"시드니타워","tel":"031-853-2080","addr":"경기도 의정부시 금오동 472-3번지","indutype":"레저업소 - 기타레져업소","category":"leisure"}]},{"lat":"37.752822492","long":"127.07045429","imageIndex":13,"items":[{"name":"씨엘 필라테스","tel":"031-559-6379","addr":"경기도 의정부시 금오동 474-2번지 대송프라자 5층 501호","indutype":"레저업소 - 헬스클럽","category":"leisure"}]},{"lat":"37.756206625","long":"127.07623334","imageIndex":13,"items":[{"name":"아이센스 PC금오점","tel":"","addr":"경기도 의정부시 금오동 453-2번지 태원빌딩 2층","indutype":"레저업소 - 기타레져업소","category":"leisure"}]},{"lat":"37.75187695","long":"127.0696478","imageIndex":13,"items":[{"name":"엔젤노래연습장","tel":"031-851-6480","addr":"경기도 의정부시 금오동 473-2번지 금오삼성플라자 305호","indutype":"레저업소 - 노 래 방","category":"leisure"}]},{"lat":"37.757703384","long":"127.07431702","imageIndex":13,"items":[{"name":"옥스PC방","tel":"","addr":"경기도 의정부시 금오동 80-19번지 이롬프라자 2층 206호","indutype":"레저업소 - 기타레져업소","category":"leisure"},{"name":"탑노래연습장","tel":"031-840-0707","addr":"경기도 의정부시 금오동 80-19번지 금오이롬프라 2동 201호","indutype":"레저업소 - 노 래 방","category":"leisure"}]},{"lat":"37.752570838","long":"127.06937609","imageIndex":13,"items":[{"name":"우리당구장","tel":"031-851-7998","addr":"경기도 의정부시 금오동 470-5번지 금강프라자빌딩 504호","indutype":"레저업소 - 당 구 장","category":"leisure"}]},{"lat":"37.752400185","long":"127.06843413","imageIndex":13,"items":[{"name":"원투체육관","tel":"031-853-1210","addr":"경기도 의정부시 금오동 470-2번지 로얄플라자빌딩 2층 206호","indutype":"레저업소 - 헬스클럽","category":"leisure"},{"name":"포레스포","tel":"031-852-6211","addr":"경기도 의정부시 금오동 470-2번지 로얄플라자 601동 603호","indutype":"레저업소 - 헬스클럽","category":"leisure"}]},{"lat":"37.751516939","long":"127.06898935","imageIndex":13,"items":[{"name":"유앤아이노래연습장","tel":"031-852-3357","addr":"경기도 의정부시 금오동 472-4번지 그린프라자빌딩 2층 202호","indutype":"레저업소 - 노 래 방","category":"leisure"},{"name":"파브PC방","tel":"070-9921-2857","addr":"경기도 의정부시 금오동 472-4번지 그린프라자 501호","indutype":"레저업소 - 기타레져업소","category":"leisure"},{"name":"퍼펙트코인 노래연습장","tel":"070-7679-3497","addr":"경기도 의정부시 금오동 472-4번지 그린프라자빌딩 203호","indutype":"레저업소 - 노 래 방","category":"leisure"},{"name":"호두 노래연습장","tel":"031-0000-0000","addr":"경기도 의정부시 금오동 472-4번지 그린프라자빌딩 402,402-1,403호","indutype":"레저업소 - 노 래 방","category":"leisure"}]},{"lat":"37.747704706","long":"127.05315775","imageIndex":13,"items":[{"name":"인터빌 아이유 (IU)PC방","tel":"","addr":"경기도 의정부시 금오동 380-2번지 동양빌딩 2층","indutype":"레저업소 - 기타레져업소","category":"leisure"},{"name":"피망당구장","tel":"","addr":"경기도 의정부시 금오동 380-2번지 동양빌딩 3층","indutype":"레저업소 - 당 구 장","category":"leisure"}]},{"lat":"37.757126705","long":"127.07442995","imageIndex":13,"items":[{"name":"좋은향기 노래연습장","tel":"031-841-1175","addr":"경기도 의정부시 금오동 121-32번지","indutype":"레저업소 - 노 래 방","category":"leisure"}]},{"lat":"37.751570824","long":"127.06929577","imageIndex":13,"items":[{"name":"주주 노래연습장","tel":"031-852-1911","addr":"경기도 의정부시 금오동 472-5번지 4층 401호","indutype":"레저업소 - 노 래 방","category":"leisure"},{"name":"치치노래연습장","tel":"031-853-1285","addr":"경기도 의정부시 금오동 472-5번지 501호","indutype":"레저업소 - 노 래 방","category":"leisure"}]},{"lat":"37.750683311","long":"127.06089831","imageIndex":13,"items":[{"name":"지안","tel":"031-878-5836","addr":"경기도 의정부시 금오동 314-2번지 2층 201호","indutype":"레저업소 - 수 영 장","category":"leisure"}]},{"lat":"37.751850375","long":"127.06884213","imageIndex":13,"items":[{"name":"팝콘노래연습장","tel":"031-853-3313","addr":"경기도 의정부시 금오동 472-2번지 시아빌딩","indutype":"레저업소 - 노 래 방","category":"leisure"}]},{"lat":"37.750710172","long":"127.06123874","imageIndex":13,"items":[{"name":"팡팡","tel":"031-847-3030","addr":"경기도 의정부시 금오동 317-3번지 지층","indutype":"레저업소 - 노 래 방","category":"leisure"}]},{"lat":"37.751426377","long":"127.0698176","imageIndex":13,"items":[{"name":"하늘에노래연습장","tel":"031-852-3393","addr":"경기도 의정부시 금오동 473-3,801~802호","indutype":"레저업소 - 노 래 방","category":"leisure"},{"name":"홈+당구클럽","tel":"031-859-0749","addr":"경기도 의정부시 금오동 473-3번지 신세계프라자 8층","indutype":"레저업소 - 당 구 장","category":"leisure"}]},{"lat":"37.751346012","long":"127.06853532","imageIndex":13,"items":[{"name":"한솔당구클럽","tel":"031-852-0908","addr":"경기도 의정부시 금오동 471-3번지 한솔플라자 4층 402호 403호 404호","indutype":"레저업소 - 당 구 장","category":"leisure"}]},{"lat":"37.748128004","long":"127.05350978","imageIndex":13,"items":[{"name":"행운 노래연습장","tel":"031-847-1743","addr":"경기도 의정부시 금오동 380-30번지","indutype":"레저업소 - 노 래 방","category":"leisure"}]}]