[{"lat":"37.209022558","long":"127.06067263","imageIndex":8,"items":[{"name":"가나팀치과","tel":"031-8003-2080","addr":"경기도 화성시 능동 1114-6번지 덕천프라자 403호","indutype":"의원 - 치과의원","category":"medical"},{"name":"동탄동물병원","tel":"031-8003-8831","addr":"경기도 화성시 능동 1114-6번지 덕천프라자 109호","indutype":"기타의료기관 - 동물병원","category":"medical"},{"name":"동탄서울 이비인후과의원","tel":"031-613-1999","addr":"경기도 화성시 능동 1114-6번지 덕천프라자 303호","indutype":"의원 - 의원","category":"medical"},{"name":"일우약국","tel":"031-8003-9839","addr":"경기도 화성시 능동 1114-6번지 덕천프라자 103호","indutype":"약국 - 약국","category":"medical"}]},{"lat":"37.218107034","long":"127.05636446","imageIndex":8,"items":[{"name":"가든종합동물병원","tel":"031-8015-1396","addr":"경기도 화성시 능동 1091-2번지 어반하임 101호","indutype":"기타의료기관 - 동물병원","category":"medical"}]},{"lat":"37.209248102","long":"127.06008701","imageIndex":8,"items":[{"name":"강소아청소년과의원","tel":"031-8015-9720","addr":"경기도 화성시 능동 1114-4번지 양진빌딩 1층 105호","indutype":"의원 - 의원","category":"medical"},{"name":"미즈파크산부인과의원","tel":"031-8015-9886","addr":"경기도 화성시 능동 1114-4번지","indutype":"의원 - 의원","category":"medical"}]},{"lat":"37.20963528","long":"127.06063931","imageIndex":8,"items":[{"name":"굿모닝항외과","tel":"031-8015-1881","addr":"경기도 화성시 능동 1113-5번지 우리프라자 3층","indutype":"의원 - 의원","category":"medical"},{"name":"스마트치과","tel":"031-613-0166","addr":"경기도 화성시 능동 1113-5번지 우리프라자 402호","indutype":"의원 - 치과의원","category":"medical"}]},{"lat":"37.209527018","long":"127.06092086","imageIndex":8,"items":[{"name":"김덕하소하청소년과의원","tel":"031-613-6275","addr":"경기도 화성시 능동 113-6,한솔프라자402","indutype":"의원 - 의원","category":"medical"},{"name":"동탄샘치과","tel":"031-8003-2875","addr":"경기도 화성시 능동 1113-6번지 한솔프라자 302호","indutype":"의원 - 치과의원","category":"medical"},{"name":"동탄수한의원","tel":"031-8015-1075","addr":"경기도 화성시 능동 1113-6번지 한솔프라자 301호","indutype":"의원 - 한의원","category":"medical"},{"name":"마음담은내과","tel":"031-8015-3700","addr":"경기도 화성시 능동 1113-6번지 한솔프라자 403호","indutype":"의원 - 의원","category":"medical"},{"name":"삼일한의원","tel":"031-8015-1075","addr":"경기도 화성시 능동 1113-6번지 한솔프라자 3층 301호","indutype":"의원 - 한의원","category":"medical"}]},{"lat":"37.199105782","long":"127.05261149","imageIndex":8,"items":[{"name":"나보다정형외과의원","tel":"031-8055-7818","addr":"경기도 화성시 능동 1154-8번지","indutype":"의원 - 의원","category":"medical"}]},{"lat":"37.199500707","long":"127.05613732","imageIndex":8,"items":[{"name":"다나약국","tel":"031-613-4326","addr":"경기도 화성시 능동 1152-3번지 스타타워제1층 102호","indutype":"약국 - 약국","category":"medical"},{"name":"푸른의원","tel":"031-613-9738","addr":"경기도 화성시 능동 1152-3번지 스타타워 401호","indutype":"의원 - 의원","category":"medical"}]},{"lat":"37.199248416","long":"127.05613714","imageIndex":8,"items":[{"name":"닥터스마일치과의원","tel":"031-8003-2882","addr":"경기도 화성시 능동 1152-4 엘리트타워403호","indutype":"의원 - 치과의원","category":"medical"}]},{"lat":"37.210050279","long":"127.05955815","imageIndex":8,"items":[{"name":"단비약국","tel":"031-8015-0374","addr":"경기도 화성시 능동 1113-1번지 제이스프라자 106호","indutype":"약국 - 약국","category":"medical"},{"name":"명의원","tel":"031-8015-1245","addr":"경기도 화성시 능동 1113-1번지 제이스프라자 304호","indutype":"의원 - 의원","category":"medical"},{"name":"한마음소아청소년과의원","tel":"031-8003-7585","addr":"경기도 화성시 능동 1113-1번지 제이스프라자 305호","indutype":"의원 - 의원","category":"medical"}]},{"lat":"37.209554843","long":"127.05927614","imageIndex":8,"items":[{"name":"도원한의원","tel":"031-8003-5050","addr":"경기도 화성시 능동 1114-1번지 영화프라자 503호","indutype":"의원 - 한의원","category":"medical"}]},{"lat":"37.209915005","long":"127.05980588","imageIndex":8,"items":[{"name":"동탄키즈사랑소아치과","tel":"031-8003-2274","addr":"경기도 화성시 능동 1113-2번지 아이비타워 301호","indutype":"의원 - 치과의원","category":"medical"}]},{"lat":"37.199743987","long":"127.05613749","imageIndex":8,"items":[{"name":"뷰티밸런스 의원","tel":"031-376-1500","addr":"경기도 화성시 능동 1152-2번지 세란메디빌딩2층201호~204호 201호","indutype":"의원 - 의원","category":"medical"},{"name":"우리들한의원","tel":"031-8015-2575","addr":"경기도 화성시 능동 1152-2번지 세란메디 302호","indutype":"의원 - 한의원","category":"medical"},{"name":"햇살조은약국","tel":"031-613-3037","addr":"경기도 화성시 능동 1152-2번지 세렌메디 3층 304호","indutype":"약국 - 약국","category":"medical"},{"name":"행복한 소아청소년과의원","tel":"031-8003-7542","addr":"경기도 화성시 능동 1152-2번지 세란메디빌딩 301호","indutype":"의원 - 의원","category":"medical"},{"name":"행복한치과의원","tel":"031-8003-2804","addr":"경기도 화성시 능동 1152-2번지 서건프라자 3층 303호","indutype":"의원 - 치과의원","category":"medical"}]},{"lat":"37.209437574","long":"127.05955769","imageIndex":8,"items":[{"name":"뿌리한의원","tel":"031-8015-2775","addr":"경기도 화성시 능동 1114-2번지 에버스타 302호","indutype":"의원 - 한의원","category":"medical"}]},{"lat":"37.199356702","long":"127.05577678","imageIndex":8,"items":[{"name":"연세내과의원","tel":"031-8003-6588","addr":"경기도 화성시 능동 1152-5번지 폴리클리닉 302호","indutype":"의원 - 의원","category":"medical"},{"name":"우림약국","tel":"031-613-5332","addr":"경기도 화성시 능동 1152-5번지 폴리클리닉빌딩 114호","indutype":"약국 - 약국","category":"medical"}]},{"lat":"37.199159938","long":"127.05238625","imageIndex":8,"items":[{"name":"연세다건치과","tel":"031-8015-0022","addr":"경기도 화성시 능동 1154-7번지 다건빌딩 4층","indutype":"의원 - 치과의원","category":"medical"}]},{"lat":"37.217051799","long":"127.0585832","imageIndex":8,"items":[{"name":"유진약국","tel":"031-613-9956","addr":"경기도 화성시 능동 1066-5번지 동탄포레스트프라자 103호","indutype":"약국 - 약국","category":"medical"}]},{"lat":"37.199718431","long":"127.05274706","imageIndex":8,"items":[{"name":"으뜸한의원","tel":"031-8015-5345","addr":"경기도 화성시 능동 1149-7번지 1층","indutype":"의원 - 한의원","category":"medical"}]},{"lat":"37.209329314","long":"127.05983924","imageIndex":8,"items":[{"name":"태평양온누리약국","tel":"031-8003-1148","addr":"경기도 화성시 능동 1114-3번지 아크리아 104호","indutype":"약국 - 약국","category":"medical"}]},{"lat":"37.209797734","long":"127.06008743","imageIndex":8,"items":[{"name":"하늘애한방재활의학과한의원","tel":"031-8015-5381","addr":"경기도 화성시 능동 1113-3번지 에이앤비프라자 302호","indutype":"의원 - 한의원","category":"medical"},{"name":"하늘한방소아과한의원","tel":"031-8015-1242","addr":"경기도 화성시 능동 1113-3번지 에이앤비프라자 301호","indutype":"의원 - 한의원","category":"medical"}]},{"lat":"37.201078848","long":"127.0531084","imageIndex":8,"items":[{"name":"한그루 소아과 이비인후과 연합의원","tel":"070-4197-4321","addr":"경기도 화성시 능동 1145-2번지 1층 102,103호","indutype":"의원 - 의원","category":"medical"}]},{"lat":"37.218719053","long":"127.05786336","imageIndex":8,"items":[{"name":"해솔동물병원","tel":"031-8003-7595","addr":"경기도 화성시 능동 1065-2번지 106호","indutype":"기타의료기관 - 동물병원","category":"medical"}]}]