[{"lat":"37.848368138","long":"127.28732408","imageIndex":17,"items":[{"name":"(주)성우하이텍","tel":"031-585-7991","addr":"경기도 가평군 상면 봉수리 101-24번지","indutype":"주방용구 - 주방용구","category":"other"}]},{"lat":"37.860501128","long":"127.28840478","imageIndex":17,"items":[{"name":"도원기업","tel":"031-585-4366","addr":"경기도 가평군 상면 봉수리 180","indutype":"용역 서비스 - 기타용역서비스","category":"other"},{"name":"록산(도원기업)","tel":"031-585-4366","addr":"경기도 가평군 상면 봉수리 180번지","indutype":"건축자재 - 기타건축자재","category":"other"}]},{"lat":"37.849034907","long":"127.28729255","imageIndex":17,"items":[{"name":"두광산업","tel":"031-584-2088","addr":"경기도 가평군 상면 봉수리 101-17번지","indutype":"건축자재 - 목재·석재·철물","category":"other"},{"name":"부강금속","tel":"031-585-4891","addr":"경기도 가평군 상면 봉수리 101-17","indutype":"건축자재 - 목재·석재·철물","category":"other"}]},{"lat":"37.860669212","long":"127.28967816","imageIndex":17,"items":[{"name":"운악산농원","tel":"031-584-4120","addr":"경기도 가평군 상면 봉수리 177번지","indutype":"회원제형태 - 기타1","category":"other"}]},{"lat":"37.86266622","long":"127.29820886","imageIndex":17,"items":[{"name":"정혜사","tel":"02-3142-1681","addr":"경기도 가평군 상면 봉수리 271번지","indutype":"기타 - 비영리/대상","category":"other"}]},{"lat":"37.860443897","long":"127.28971138","imageIndex":17,"items":[{"name":"태성","tel":"031-531-3204","addr":"경기도 가평군 상면 봉수리 177-18번지","indutype":"직물 - 카페트,커튼,천막,지물","category":"other"}]}]