[{"lat":"37.25594376","long":"127.3518918","imageIndex":4,"items":[{"name":"광천감자탕","tel":"031-634-5355","addr":"경기도 이천시 마장면 양촌리 35-9번지","indutype":"일반휴게음식 - 일반한식","category":"restaurant"}]},{"lat":"37.257185296","long":"127.35252878","imageIndex":4,"items":[{"name":"돈닭","tel":"031-631-7669","addr":"경기도 이천시 마장면 양촌리 58-4번지 2동 1층","indutype":"일반휴게음식 - 일반한식","category":"restaurant"},{"name":"마장도시락식당","tel":"031-633-7135","addr":"경기도 이천시 마장면 양촌리 58-4번지 1층","indutype":"일반휴게음식 - 일반한식","category":"restaurant"},{"name":"황제짬뽕","tel":"031-637-7906","addr":"경기도 이천시 마장면 양촌리 58-4번지 1호","indutype":"일반휴게음식 - 중국식","category":"restaurant"}]},{"lat":"37.256494116","long":"127.35468986","imageIndex":4,"items":[{"name":"돈탑마장점","tel":"031-634-6329","addr":"경기도 이천시 마장면 양촌리 68-2번지","indutype":"일반휴게음식 - 일반한식","category":"restaurant"}]},{"lat":"37.255992492","long":"127.35064082","imageIndex":4,"items":[{"name":"마장왕족발","tel":"031-631-6335","addr":"경기도 이천시 마장면 양촌리 43-3번지 1층","indutype":"일반휴게음식 - 일반한식","category":"restaurant"},{"name":"한결한식부페","tel":"031-631-5012","addr":"경기도 이천시 마장면 양촌리 43-3번지","indutype":"일반휴게음식 - 일반한식","category":"restaurant"}]},{"lat":"37.256077848","long":"127.35225313","imageIndex":4,"items":[{"name":"명품한우해장국","tel":"031-886-3450","addr":"경기도 이천시 마장면 양촌리 33-1번지 1층","indutype":"일반휴게음식 - 일반한식","category":"restaurant"}]},{"lat":"37.2568021","long":"127.35413895","imageIndex":4,"items":[{"name":"올스타 특전사","tel":"031-634-9292","addr":"경기도 이천시 마장면 양촌리 345번지 아름수리아파트","indutype":"일반휴게음식 - 서양음식","category":"restaurant"}]},{"lat":"37.255908948","long":"127.35147457","imageIndex":4,"items":[{"name":"왕대구뽈찜","tel":"031-633-7308","addr":"경기도 이천시 마장면 양촌리 35-16번지 1층","indutype":"일반휴게음식 - 일반한식","category":"restaurant"}]},{"lat":"37.256133869","long":"127.35158833","imageIndex":4,"items":[{"name":"쭌","tel":"","addr":"경기도 이천시 마장면 양촌리 35-14번지","indutype":"일반휴게음식 - 주점","category":"restaurant"}]}]