[{"lat":"37.007384415","long":"127.26701505","imageIndex":5,"items":[{"name":"그랜드파크","tel":"031-671-1232","addr":"경기도 안성시 석정동 27-2번지","indutype":"숙박업 - 여관/기타숙박업","category":"hotel"}]},{"lat":"37.007356958","long":"127.26720596","imageIndex":5,"items":[{"name":"대신장 여관","tel":"031-675-7733","addr":"경기도 안성시 석정동 27-1번지 2층","indutype":"숙박업 - 여관/기타숙박업","category":"hotel"}]},{"lat":"37.007301768","long":"127.26771136","imageIndex":5,"items":[{"name":"로얄파크","tel":"031-675-2393","addr":"경기도 안성시 석정동 26-1번지","indutype":"숙박업 - 여관/기타숙박업","category":"hotel"}]},{"lat":"37.007609555","long":"127.26707201","imageIndex":5,"items":[{"name":"루비파크여관","tel":"031-675-1443","addr":"경기도 안성시 석정동 25-2번지","indutype":"숙박업 - 여관/기타숙박업","category":"hotel"}]},{"lat":"37.008444581","long":"127.26840069","imageIndex":5,"items":[{"name":"명보여관","tel":"031-677-7170","addr":"경기도 안성시 석정동 1-4번지","indutype":"숙박업 - 여관/기타숙박업","category":"hotel"}]},{"lat":"37.007131368","long":"127.26735124","imageIndex":5,"items":[{"name":"예스텔","tel":"031-673-8255","addr":"경기도 안성시 석정동 28-1번지","indutype":"숙박업 - 여관/기타숙박업","category":"hotel"}]},{"lat":"37.007274485","long":"127.26782362","imageIndex":5,"items":[{"name":"음성여인숙","tel":"031-676-2916","addr":"경기도 안성시 석정동 26-8번지","indutype":"숙박업 - 여관/기타숙박업","category":"hotel"}]},{"lat":"37.007637086","long":"127.26684739","imageIndex":5,"items":[{"name":"이비스텔","tel":"031-677-1500","addr":"경기도 안성시 석정동 31-3번지","indutype":"숙박업 - 여관/기타숙박업","category":"hotel"}]},{"lat":"37.008103409","long":"127.26784897","imageIndex":5,"items":[{"name":"코리아파크","tel":"031-675-2355","addr":"경기도 안성시 석정동 5-4번지","indutype":"숙박업 - 여관/기타숙박업","category":"hotel"}]},{"lat":"37.008102983","long":"127.26803997","imageIndex":5,"items":[{"name":"테마모텔","tel":"031-676-1133","addr":"경기도 안성시 석정동 4-3번지 외2필지","indutype":"숙박업 - 여관/기타숙박업","category":"hotel"}]}]