[{"lat":"37.44330541","long":"127.3076384","imageIndex":17,"items":[{"name":"BS꽃농원조경","tel":"031-765-5598","addr":"경기도 광주시 퇴촌면 정지리 207-3","indutype":"문화.취미 - 화원","category":"other"}]},{"lat":"37.44619333","long":"127.3195497","imageIndex":17,"items":[{"name":"대성농장","tel":"031-767-3408","addr":"경기도 광주시 퇴촌면 정지리 52번지 17","indutype":"회원제형태 - 기타1","category":"other"}]},{"lat":"37.44538726","long":"127.3211057","imageIndex":17,"items":[{"name":"디에스아이생작","tel":"02-562-5220","addr":"경기도 광주시 퇴촌면 정지리 6","indutype":"문화.취미 - 문화취미기타","category":"other"}]},{"lat":"37.44652863","long":"127.3188278","imageIndex":17,"items":[{"name":"디지탈 OA","tel":"02-421-1002","addr":"경기도 광주시 퇴촌면 정지리 45-1","indutype":"사무통신 - 사무용 OA기기","category":"other"}]},{"lat":"37.44552329","long":"127.3207786","imageIndex":17,"items":[{"name":"만유공사","tel":"031-793-5078","addr":"경기도 광주시 퇴촌면 정지리 7번지","indutype":"수리서비스 - 기타수리서비스","category":"other"}]},{"lat":"37.46080005","long":"127.3051888","imageIndex":17,"items":[{"name":"미선의야생화뜨락","tel":"031-000-0000","addr":"경기도 광주시 퇴촌면 정지리 477-1번지","indutype":"문화.취미 - 화원","category":"other"}]},{"lat":"37.44480163","long":"127.3074184","imageIndex":7,"items":[{"name":"남진농장","tel":"","addr":"경기도 광주시 퇴촌면 정지리 235번지","indutype":"음료식품 - 농·축·수산품","category":"food"}]},{"lat":"37.44641187","long":"127.3186917","imageIndex":7,"items":[{"name":"상진농장","tel":"031-111-1111","addr":"경기도 광주시 퇴촌면 정지리 45-2번지","indutype":"음료식품 - 농·축·수산품","category":"food"}]},{"lat":"37.44416739","long":"127.3122524","imageIndex":7,"items":[{"name":"수연농장","tel":"031-765-8622","addr":"경기도 광주시 퇴촌면 정지리 149번지","indutype":"음료식품 - 농·축·수산품","category":"food"}]},{"lat":"37.44652513","long":"127.3028825","imageIndex":7,"items":[{"name":"수정농장","tel":"031-767-9586","addr":"경기도 광주시 퇴촌면 정지리 677-2,677-4,292-2번지","indutype":"음료식품 - 농·축·수산품","category":"food"}]},{"lat":"37.4497464","long":"127.3080826","imageIndex":7,"items":[{"name":"수진농장","tel":"031-765-1562","addr":"경기도 광주시 퇴촌면 정지리 333-1번지","indutype":"음료식품 - 농·축·수산품","category":"food"}]},{"lat":"37.44466962","long":"127.3061974","imageIndex":7,"items":[{"name":"용규토마토농장","tel":"031-767-5900","addr":"경기도 광주시 퇴촌면 정지리 228번지","indutype":"음료식품 - 농·축·수산품","category":"food"}]},{"lat":"37.44494672","long":"127.3070574","imageIndex":7,"items":[{"name":"정규농장","tel":"","addr":"경기도 광주시 퇴촌면 정지리 233-1번지","indutype":"음료식품 - 농·축·수산품","category":"food"}]},{"lat":"37.44602791","long":"127.3173905","imageIndex":7,"items":[{"name":"주식회사 백년의 삶","tel":"070-4156-8612","addr":"경기도 광주시 퇴촌면 정지리 38-1번지 101호","indutype":"음료식품 - 기타음료식품","category":"food"}]},{"lat":"37.44608639","long":"127.3191085","imageIndex":7,"items":[{"name":"지혜농장","tel":"031-000-0000","addr":"경기도 광주시 퇴촌면 정지리 47-5번지","indutype":"음료식품 - 농·축·수산품","category":"food"}]},{"lat":"37.45208077","long":"127.3077757","imageIndex":7,"items":[{"name":"초원농장","tel":"031-767-5971","addr":"경기도 광주시 퇴촌면 정지리 350-2번지","indutype":"음료식품 - 농·축·수산품","category":"food"}]},{"lat":"37.44611395","long":"127.3086329","imageIndex":7,"items":[{"name":"태규농장","tel":"031-767-3635","addr":"경기도 광주시 퇴촌면 정지리 254-3번지 1층","indutype":"음료식품 - 농·축·수산품","category":"food"}]},{"lat":"37.44668984","long":"127.3191901","imageIndex":7,"items":[{"name":"토마토판매","tel":"031-765-1562","addr":"경기도 광주시 퇴촌면 정지리 58번지","indutype":"음료식품 - 농·축·수산품","category":"food"}]},{"lat":"37.44971799","long":"127.3086137","imageIndex":7,"items":[{"name":"퇴촌토마토뜰농장","tel":"070-6151-5991","addr":"경기도 광주시 퇴촌면 정지리 295-3번지","indutype":"음료식품 - 농·축·수산품","category":"food"}]},{"lat":"37.4516678","long":"127.3071976","imageIndex":7,"items":[{"name":"퇴촌토마토평화마을협동조합","tel":"031-767-7166","addr":"경기도 광주시 퇴촌면 정지리 355-2번지 마을회관","indutype":"음료식품 - 농·축·수산품","category":"food"}]}]