[{"lat":"37.529292884","long":"127.17545375","imageIndex":17,"items":[{"name":"(주)네온테크","tel":"02-441-1229","addr":"경기도 하남시 광암동 49번지","indutype":"용역 서비스 - 종합용역","category":"other"},{"name":"새로운렌탈","tel":"02-3427-0030","addr":"경기도 하남시 광암동 49번지","indutype":"신변잡화 - 기타잡화","category":"other"}]},{"lat":"37.531817468","long":"127.17420376","imageIndex":17,"items":[{"name":"(주)동양도어테크","tel":"02-1234-1234","addr":"경기도 하남시 광암동 16-5번지 1층","indutype":"건축자재 - 기타건축자재","category":"other"}]},{"lat":"37.51443151","long":"127.17203755","imageIndex":17,"items":[{"name":"(주)제이와이푸드","tel":"031-796-6906","addr":"경기도 하남시 광암동 273-8번지","indutype":"주방용구 - 주방용구","category":"other"}]},{"lat":"37.525071801","long":"127.17231045","imageIndex":17,"items":[{"name":"(주)하이언트커뮤니케이션즈","tel":"02-6956-4556","addr":"경기도 하남시 광암동 407-6번지 우리콤텍스타일하남공장 201호","indutype":"의류 - 기타의류","category":"other"},{"name":"주식회사 성원인터내셔널","tel":"02-525-1819","addr":"경기도 하남시 광암동 407-6번지 5층","indutype":"레져용품 - 스포츠·레져용품","category":"other"}]},{"lat":"37.530070917","long":"127.17326076","imageIndex":17,"items":[{"name":"GS25하남광암점","tel":"","addr":"경기도 하남시 광암동 36-4번지","indutype":"유통업 영리 - 편 의 점","category":"other"}]},{"lat":"37.527014119","long":"127.17495074","imageIndex":17,"items":[{"name":"TK 우드","tel":"02-441-3181","addr":"경기도 하남시 광암동 98-2번지","indutype":"건축자재 - 기타건축자재","category":"other"}]},{"lat":"37.532378122","long":"127.17279083","imageIndex":17,"items":[{"name":"경원위브하우징","tel":"031-794-0073","addr":"경기도 하남시 광암동 5-1번지","indutype":"건축자재 - 기타건축자재","category":"other"}]},{"lat":"37.512713154","long":"127.17025789","imageIndex":17,"items":[{"name":"고성테크닉스","tel":"02-470-9926","addr":"경기도 하남시 광암동 312-8번지","indutype":"용역 서비스 - 종합용역","category":"other"}]},{"lat":"37.519435658","long":"127.17573647","imageIndex":17,"items":[{"name":"꽃보는 강아지","tel":"070-0000-0000","addr":"경기도 하남시 광암동 196-1번지","indutype":"문화.취미 - 애완동물","category":"other"}]},{"lat":"37.516180862","long":"127.1710348","imageIndex":17,"items":[{"name":"꿈의다육","tel":"02-471-6982","addr":"경기도 하남시 광암동 223-1번지","indutype":"문화.취미 - 화원","category":"other"},{"name":"은혜농원","tel":"031-111-1111","addr":"경기도 하남시 광암동 223-1번지","indutype":"문화.취미 - 화원","category":"other"}]},{"lat":"37.531565799","long":"127.17378458","imageIndex":17,"items":[{"name":"나우유통","tel":"02-456-4946","addr":"경기도 하남시 광암동 16-3번지","indutype":"유통업 영리 - 기타유통업","category":"other"}]},{"lat":"37.532684065","long":"127.17306306","imageIndex":17,"items":[{"name":"대경기업","tel":"02-477-7374","addr":"경기도 하남시 광암동 4번지","indutype":"건축자재 - 보일러·펌프·샷시","category":"other"}]},{"lat":"37.52554114","long":"127.17173456","imageIndex":17,"items":[{"name":"대광유리","tel":"031-111-1111","addr":"경기도 하남시 광암동 406-3번지","indutype":"건축자재 - 유리","category":"other"}]},{"lat":"37.522322575","long":"127.17315264","imageIndex":17,"items":[{"name":"리드통상","tel":"070-5067-1234","addr":"경기도 하남시 광암동 180-1번지 2층","indutype":"신변잡화 - 기타잡화","category":"other"}]},{"lat":"37.529653278","long":"127.17545458","imageIndex":17,"items":[{"name":"부림공조시스템","tel":"02-3159-3001","addr":"경기도 하남시 광암동 44-1번지","indutype":"전기제품 - 가전제품","category":"other"}]},{"lat":"37.516901571","long":"127.17109297","imageIndex":17,"items":[{"name":"삼영천막기업","tel":"031-471-5600","addr":"경기도 하남시 광암동 220-1번지","indutype":"직물 - 카페트,커튼,천막,지물","category":"other"}]},{"lat":"37.53157417","long":"127.17422583","imageIndex":17,"items":[{"name":"삼진상사","tel":"02-426-5906","addr":"경기도 하남시 광암동 16-4번지","indutype":"가구 - 일반가구","category":"other"},{"name":"삼진앤틱가구","tel":"","addr":"경기도 하남시 광암동 16-4번지","indutype":"가구 - 일반가구","category":"other"},{"name":"이강테크","tel":"02-428-8504","addr":"경기도 하남시 광암동 16-4번지","indutype":"건축자재 - 기타건축자재","category":"other"}]},{"lat":"37.526574131","long":"127.17392026","imageIndex":17,"items":[{"name":"서울중앙안전","tel":"031-478-2022","addr":"경기도 하남시 광암동 96-1번지","indutype":"기타 - 기계공구","category":"other"}]},{"lat":"37.516987232","long":"127.17418117","imageIndex":17,"items":[{"name":"세화자동기계","tel":"02-482-3187","addr":"경기도 하남시 광암동 211-1번지","indutype":"기타 - 기계공구","category":"other"}]},{"lat":"37.517072356","long":"127.17137614","imageIndex":17,"items":[{"name":"신선상사","tel":"02-472-7819","addr":"경기도 하남시 광암동 170-5번지 외1필지","indutype":"유통업 영리 - 기타유통업","category":"other"}]},{"lat":"37.529872063","long":"127.17370153","imageIndex":17,"items":[{"name":"신영우드","tel":"02-481-5049","addr":"경기도 하남시 광암동 36-1번지","indutype":"건축자재 - 기타건축자재","category":"other"}]},{"lat":"37.529706691","long":"127.17589592","imageIndex":17,"items":[{"name":"알리다그룹(주)","tel":"02-426-6844","addr":"경기도 하남시 광암동 45번지","indutype":"건축자재 - 인테리어전문","category":"other"}]},{"lat":"37.525544737","long":"127.17547906","imageIndex":17,"items":[{"name":"에스비상사","tel":"02-478-9004","addr":"경기도 하남시 광암동 111-3번지","indutype":"기타 - 기계공구","category":"other"}]},{"lat":"37.517043382","long":"127.17273344","imageIndex":17,"items":[{"name":"와일드기어","tel":"02-488-1450","addr":"경기도 하남시 광암동 214-5번지","indutype":"레져용품 - 스포츠·레져용품","category":"other"}]},{"lat":"37.524851094","long":"127.17539827","imageIndex":17,"items":[{"name":"우정아스팔트","tel":"02-471-7948","addr":"경기도 하남시 광암동 114-4번지","indutype":"건축자재 - 기타건축자재","category":"other"}]},{"lat":"37.528323251","long":"127.17308709","imageIndex":17,"items":[{"name":"이마트24 하남광암점","tel":"","addr":"경기도 하남시 광암동 402번지 1층 이마트 24","indutype":"유통업 영리 - 편 의 점","category":"other"}]},{"lat":"37.52193471","long":"127.17345719","imageIndex":17,"items":[{"name":"제이투코리아","tel":"031-483-1508","addr":"경기도 하남시 광암동 181-3번지","indutype":"유통업 영리 - 농축수산 가공품","category":"other"}]},{"lat":"37.517042666","long":"127.17323114","imageIndex":17,"items":[{"name":"제일농원","tel":"02-484-3002","addr":"경기도 하남시 광암동 210-8번지 정면우측 2동","indutype":"문화.취미 - 화원","category":"other"}]},{"lat":"37.515375236","long":"127.17364586","imageIndex":17,"items":[{"name":"조우","tel":"02-475-8001","addr":"경기도 하남시 광암동 228번지","indutype":"직물 - 카페트,커튼,천막,지물","category":"other"}]},{"lat":"37.532736882","long":"127.17392302","imageIndex":17,"items":[{"name":"주식회사 대용","tel":"02-476-0038","addr":"경기도 하남시 광암동 4-3번지","indutype":"신변잡화 - 기타잡화","category":"other"}]},{"lat":"37.52615147","long":"127.17336497","imageIndex":17,"items":[{"name":"주식회사 영진플로링","tel":"02-478-0481","addr":"경기도 하남시 광암동 87-2번지","indutype":"건축자재 - 기타건축자재","category":"other"}]},{"lat":"37.515543264","long":"127.17581798","imageIndex":17,"items":[{"name":"주식회사디자인끌림","tel":"02-400-8818","addr":"경기도 하남시 광암동 248-1번지","indutype":"용역 서비스 - 종합용역","category":"other"}]},{"lat":"37.524512817","long":"127.17256937","imageIndex":17,"items":[{"name":"즐거운 캠핑","tel":"02-441-4484","addr":"경기도 하남시 광암동 409-4번지 1층","indutype":"레져용품 - 스포츠·레져용품","category":"other"}]},{"lat":"37.526682724","long":"127.17359244","imageIndex":17,"items":[{"name":"케이알우드주식회사","tel":"02-3427-4622","addr":"경기도 하남시 광암동 91번지","indutype":"건축자재 - 기타건축자재","category":"other"}]},{"lat":"37.532071119","long":"127.173254","imageIndex":17,"items":[{"name":"크로바","tel":"02-3427-0892","addr":"경기도 하남시 광암동 7-5번지","indutype":"건축자재 - 기타건축자재","category":"other"}]},{"lat":"37.523157473","long":"127.175236","imageIndex":17,"items":[{"name":"태평양송파대리점","tel":"02-414-3351","addr":"경기도 하남시 광암동 137-1번지","indutype":"기타 - 기타 전문점","category":"other"}]},{"lat":"37.524517564","long":"127.17551063","imageIndex":17,"items":[{"name":"파나윈커버","tel":"02-489-0100","addr":"경기도 하남시 광암동 119-1번지","indutype":"건축자재 - 기타건축자재","category":"other"}]},{"lat":"37.531295978","long":"127.17345588","imageIndex":17,"items":[{"name":"하나유통","tel":"02-426-0990","addr":"경기도 하남시 광암동 16-1번지","indutype":"유통업 영리 - 기타유통업","category":"other"}]},{"lat":"37.512902089","long":"127.1704506","imageIndex":17,"items":[{"name":"행복상사","tel":"02-498-8023","addr":"경기도 하남시 광암동 312-3번지","indutype":"유통업 영리 - 기타유통업","category":"other"}]},{"lat":"37.517042666","long":"127.17323114","imageIndex":0,"items":[{"name":"(주)세방파워","tel":"02-487-9998","addr":"경기도 하남시 광암동 210-8번지","indutype":"자동차정비 유지 - 자동차부품","category":"car"}]},{"lat":"37.516629562","long":"127.17229136","imageIndex":0,"items":[{"name":"다이노맥스 주식회사","tel":"02-488-9709","addr":"경기도 하남시 광암동 225-10번지","indutype":"자동차정비 유지 - 자동차시트·타이어","category":"car"},{"name":"유토피아","tel":"031-635-2000","addr":"경기도 하남시 광암동 225-10번지","indutype":"자동차정비 유지 - 자동차부품","category":"car"},{"name":"카투고다이노맥스(주)","tel":"02-488-9709","addr":"경기도 하남시 광암동 225-10번지","indutype":"자동차정비 유지 - 자동차정비","category":"car"}]},{"lat":"37.515211368","long":"127.17481053","imageIndex":0,"items":[{"name":"더세컨드","tel":"02-488-2202","addr":"경기도 하남시 광암동 251번지","indutype":"자동차정비 유지 - 윤활유 전문 판매","category":"car"}]},{"lat":"37.527990473","long":"127.17267906","imageIndex":0,"items":[{"name":"동진모터스","tel":"","addr":"경기도 하남시 광암동 401-2번지 4층","indutype":"자동차정비 유지 - 자동차정비","category":"car"},{"name":"와이비 모터스","tel":"","addr":"경기도 하남시 광암동 401-2번지 2층","indutype":"자동차정비 유지 - 자동차부품","category":"car"},{"name":"인트라 모터스","tel":"02-441-4493","addr":"경기도 하남시 광암동 401-2번지 5층","indutype":"자동차정비 유지 - 자동차정비","category":"car"},{"name":"착한광택","tel":"02-0000-0000","addr":"경기도 하남시 광암동 401-2번지","indutype":"자동차정비 유지 - 카인테리어","category":"car"}]},{"lat":"37.524680798","long":"127.174787","imageIndex":0,"items":[{"name":"모터스엠","tel":"","addr":"경기도 하남시 광암동 118번지 2층","indutype":"자동차정비 유지 - 자동차시트·타이어","category":"car"}]},{"lat":"37.517043382","long":"127.17273344","imageIndex":0,"items":[{"name":"블루핸즈 서하남로점","tel":"02-483-9944","addr":"경기도 하남시 광암동 214-5번지 현대자동차 서하남로점","indutype":"자동차정비 유지 - 자동차정비","category":"car"}]},{"lat":"37.525149359","long":"127.17475414","imageIndex":0,"items":[{"name":"애니콜자동차서비스","tel":"02-473-7885","addr":"경기도 하남시 광암동 109-11번지","indutype":"자동차정비 유지 - 자동차정비","category":"car"}]},{"lat":"37.516901571","long":"127.17109297","imageIndex":0,"items":[{"name":"에이스카써비스","tel":"02-485-7218","addr":"경기도 하남시 광암동 220-1번지","indutype":"자동차정비 유지 - 자동차정비","category":"car"},{"name":"주연냉동탑차","tel":"02-470-1190","addr":"경기도 하남시 광암동 220-1번지","indutype":"자동차정비 유지 - 자동차정비","category":"car"}]},{"lat":"37.515992475","long":"127.17045751","imageIndex":0,"items":[{"name":"위례복지카센타","tel":"02-488-5156","addr":"경기도 하남시 광암동 223-2번지","indutype":"자동차정비 유지 - 자동차정비","category":"car"}]},{"lat":"37.524905962","long":"127.17484408","imageIndex":0,"items":[{"name":"은혜카센타","tel":"02-429-2210","addr":"경기도 하남시 광암동 115-7번지","indutype":"자동차정비 유지 - 자동차정비","category":"car"}]},{"lat":"37.522538697","long":"127.17323232","imageIndex":0,"items":[{"name":"태산윤활유","tel":"031-791-1661","addr":"경기도 하남시 광암동 150","indutype":"자동차정비 유지 - 윤활유 전문 판매","category":"car"}]},{"lat":"37.52687484","long":"127.17156788","imageIndex":0,"items":[{"name":"폭풍상사","tel":"031-111-1111","addr":"경기도 하남시 광암동 405-2번지","indutype":"자동차정비 유지 - 자동차시트·타이어","category":"car"},{"name":"폭풍타이어","tel":"031-428-8114","addr":"경기도 하남시 광암동 405-2번지 1층 정면에서우측","indutype":"자동차정비 유지 - 자동차정비","category":"car"}]},{"lat":"37.515709803","long":"127.1664301","imageIndex":0,"items":[{"name":"한라냉동","tel":"02-431-0034","addr":"경기도 하남시 광암동 300-8번지","indutype":"자동차정비 유지 - 자동차부품","category":"car"}]},{"lat":"37.5237089","long":"127.1739816","imageIndex":7,"items":[{"name":"(주)혜성통상","tel":"031-1111-1111","addr":"경기도 하남시 광암동 132번지 A동","indutype":"음료식품 - 기타음료식품","category":"food"}]},{"lat":"37.52296317","long":"127.17253192","imageIndex":7,"items":[{"name":"강동.하남 제주삼다수","tel":"02-476-6400","addr":"경기도 하남시 광암동 153번지","indutype":"음료식품 - 기타음료식품","category":"food"}]},{"lat":"37.524816948","long":"127.17409725","imageIndex":7,"items":[{"name":"고산식품","tel":"02-470-2042","addr":"경기도 하남시 광암동 117-3번지","indutype":"음료식품 - 기타음료식품","category":"food"}]},{"lat":"37.522458569","long":"127.17256472","imageIndex":7,"items":[{"name":"금강마켓몰","tel":"","addr":"경기도 하남시 광암동 153-4번지","indutype":"음료식품 - 기타음료식품","category":"food"}]},{"lat":"37.530429953","long":"127.17420059","imageIndex":7,"items":[{"name":"금오리농산","tel":"02-429-5577","addr":"경기도 하남시 광암동 33-1번지","indutype":"음료식품 - 정육점","category":"food"}]},{"lat":"37.530377415","long":"127.17314832","imageIndex":7,"items":[{"name":"대경유통","tel":"02-482-4448","addr":"경기도 하남시 광암동 12-15번지","indutype":"음료식품 - 농·축·수산품","category":"food"}]},{"lat":"37.526212242","long":"127.1749489","imageIndex":7,"items":[{"name":"명지상사","tel":"031-875-9151","addr":"경기도 하남시 광암동 105-1번지","indutype":"음료식품 - 기타음료식품","category":"food"}]},{"lat":"37.53009726","long":"127.17373598","imageIndex":7,"items":[{"name":"바다수산","tel":"","addr":"경기도 하남시 광암동 35-2번지","indutype":"음료식품 - 농·축·수산품","category":"food"}]},{"lat":"37.514103384","long":"127.16833814","imageIndex":7,"items":[{"name":"삼정상사","tel":"02-448-6296","addr":"경기도 하남시 광암동 309-2번지","indutype":"음료식품 - 기타음료식품","category":"food"}]},{"lat":"37.517374591","long":"127.1742273","imageIndex":7,"items":[{"name":"제이블컴퍼니","tel":"070-8119-8064","addr":"경기도 하남시 광암동 205-3번지 2층","indutype":"음료식품 - 기타음료식품","category":"food"}]},{"lat":"37.51443151","long":"127.17203755","imageIndex":7,"items":[{"name":"주식회사 한명회유통","tel":"02-488-9937","addr":"경기도 하남시 광암동 273-8번지","indutype":"음료식품 - 기타음료식품","category":"food"}]},{"lat":"37.513880951","long":"127.17270365","imageIndex":7,"items":[{"name":"커피켈빈","tel":"031-485-8788","addr":"경기도 하남시 광암동 268번지","indutype":"음료식품 - 기타음료식품","category":"food"}]},{"lat":"37.512902089","long":"127.1704506","imageIndex":7,"items":[{"name":"행복상사","tel":"02-555-8191","addr":"경기도 하남시 광암동 312-3번지","indutype":"음료식품 - 기타음료식품","category":"food"}]},{"lat":"37.513990383","long":"127.17178772","imageIndex":4,"items":[{"name":"광암식당","tel":"02-474-5744","addr":"경기도 하남시 광암동 272-1번지 재승아트빌 1층 102호","indutype":"일반휴게음식 - 일반한식","category":"restaurant"}]},{"lat":"37.529683216","long":"127.1734522","imageIndex":4,"items":[{"name":"광암유황오리","tel":"02-441-5259","addr":"경기도 하남시 광암동 37-1번지 서두빌딩 103호","indutype":"일반휴게음식 - 일반한식","category":"restaurant"},{"name":"오늘도 웃자 (초이점)","tel":"02-442-9600","addr":"경기도 하남시 광암동 37-1번지 서두빌딩 105호","indutype":"일반휴게음식 - 일반한식","category":"restaurant"},{"name":"초광분식","tel":"02-428-3085","addr":"경기도 하남시 광암동 37-1번지 1층","indutype":"일반휴게음식 - 스넥","category":"restaurant"}]},{"lat":"37.522459445","long":"127.17195386","imageIndex":4,"items":[{"name":"광현페이퍼","tel":"02-477-2771","addr":"경기도 하남시 광암동 162번지","indutype":"일반휴게음식 - 스넥","category":"restaurant"}]},{"lat":"37.517850732","long":"127.17517855","imageIndex":4,"items":[{"name":"금수레","tel":"02-470-8840","addr":"경기도 하남시 광암동 202-10번지 1호 2호","indutype":"일반휴게음식 - 일반한식","category":"restaurant"}]},{"lat":"37.52404701","long":"127.17690097","imageIndex":4,"items":[{"name":"까치산장","tel":"02-475-6069","addr":"경기도 하남시 광암동 123번지 1층","indutype":"일반휴게음식 - 일반한식","category":"restaurant"}]},{"lat":"37.516349707","long":"127.16628445","imageIndex":4,"items":[{"name":"녹원","tel":"02-485-0158","addr":"경기도 하남시 광암동 297-1번지","indutype":"일반휴게음식 - 일반한식","category":"restaurant"}]},{"lat":"37.527456375","long":"127.17442005","imageIndex":4,"items":[{"name":"별난버섯집","tel":"02-485-6114","addr":"경기도 하남시 광암동 94-1번지 2층","indutype":"일반휴게음식 - 일반한식","category":"restaurant"}]},{"lat":"37.530485337","long":"127.17328433","imageIndex":4,"items":[{"name":"본향","tel":"02-429-8071","addr":"경기도 하남시 광암동 12-9번지","indutype":"일반휴게음식 - 일반한식","category":"restaurant"}]},{"lat":"37.517464197","long":"127.17456684","imageIndex":4,"items":[{"name":"신 전주관","tel":"02-478-6635","addr":"경기도 하남시 광암동 205-7번지 1층","indutype":"일반휴게음식 - 일반한식","category":"restaurant"},{"name":"신전주관","tel":"031-772-9006","addr":"경기도 하남시 광암동 205-7번지","indutype":"일반휴게음식 - 일반한식","category":"restaurant"}]},{"lat":"37.530593178","long":"127.1734769","imageIndex":4,"items":[{"name":"옛날국수","tel":"02-426-8822","addr":"경기도 하남시 광암동 14번지 1층","indutype":"일반휴게음식 - 일반한식","category":"restaurant"}]},{"lat":"37.524290809","long":"127.17653954","imageIndex":4,"items":[{"name":"외딴집","tel":"02-487-2323","addr":"경기도 하남시 광암동 126-4번지","indutype":"일반휴게음식 - 일반한식","category":"restaurant"}]},{"lat":"37.525069519","long":"127.1738942","imageIndex":4,"items":[{"name":"우리식당","tel":"02-489-3369","addr":"경기도 하남시 광암동 116-2번지 1층","indutype":"일반휴게음식 - 일반한식","category":"restaurant"}]},{"lat":"37.530539755","long":"127.17303556","imageIndex":4,"items":[{"name":"유가네식당","tel":"02-429-8404","addr":"경기도 하남시 광암동 12-18번지 1층","indutype":"일반휴게음식 - 일반한식","category":"restaurant"}]},{"lat":"37.530377415","long":"127.17314832","imageIndex":4,"items":[{"name":"이디야 (광암동)","tel":"","addr":"경기도 하남시 광암동 12-15번지 1층","indutype":"일반휴게음식 - 서양음식","category":"restaurant"}]},{"lat":"37.516932861","long":"127.17439596","imageIndex":4,"items":[{"name":"전원식당","tel":"02-470-9830","addr":"경기도 하남시 광암동 211-4번지 1층","indutype":"일반휴게음식 - 일반한식","category":"restaurant"}]},{"lat":"37.517374591","long":"127.1742273","imageIndex":4,"items":[{"name":"주명연구개발","tel":"02-472-1510","addr":"경기도 하남시 광암동 205-3번지 2층","indutype":"일반휴게음식 - 서양음식","category":"restaurant"}]},{"lat":"37.517185466","long":"127.17417031","imageIndex":4,"items":[{"name":"초심 쭈꾸미","tel":"02-475-6543","addr":"경기도 하남시 광암동 205-16번지 1층","indutype":"일반휴게음식 - 일반한식","category":"restaurant"},{"name":"황토향기","tel":"02-488-9996","addr":"경기도 하남시 광암동 205-16번지","indutype":"일반휴게음식 - 일반한식","category":"restaurant"}]},{"lat":"37.527349338","long":"127.17367315","imageIndex":9,"items":[{"name":"광암에너지(Wide Stone Energy)","tel":"02-475-5188","addr":"경기도 하남시 광암동 90-2번지","indutype":"연료판매점 - 현대정유(오일뱅크)","category":"oil"}]},{"lat":"37.516654996","long":"127.17339993","imageIndex":9,"items":[{"name":"대운유화","tel":"02-475-5181","addr":"경기도 하남시 광암동 232번지","indutype":"연료판매점 - 유류판매","category":"oil"}]},{"lat":"37.516821383","long":"127.17045936","imageIndex":9,"items":[{"name":"위례LPG충전소","tel":"02-488-5152","addr":"경기도 하남시 광암동 220-19번지","indutype":"연료판매점 - SK가스충전소","category":"oil"}]},{"lat":"37.529292884","long":"127.17545375","imageIndex":9,"items":[{"name":"푸른유통","tel":"02-428-7433","addr":"경기도 하남시 광암동 49번지","indutype":"연료판매점 - 유류판매","category":"oil"}]},{"lat":"37.511599838","long":"127.17381823","imageIndex":16,"items":[{"name":"동성고등공민학교","tel":"02-485-0331","addr":"경기도 하남시 광암동 산 63","indutype":"학원 - 초중고교육기관","category":"study"}]},{"lat":"37.528323251","long":"127.17308709","imageIndex":7,"items":[{"name":"주식회사 순훈천유통","tel":"031-224-4246","addr":"경기도 하남시 광암동 402번지 1층","indutype":"유통업 영리 - 슈퍼마켓","category":"mart"}]},{"lat":"37.52296317","long":"127.17253192","imageIndex":7,"items":[{"name":"타이마트","tel":"02-485-1040","addr":"경기도 하남시 광암동 153번지","indutype":"유통업 영리 - 슈퍼마켓","category":"mart"}]}]