[{"lat":"37.276319866","long":"127.04028199","imageIndex":8,"items":[{"name":"공감치과","tel":"031-214-2835","addr":"경기도 수원시 팔달구 우만동 96-30번지 우신빌딩 201호","indutype":"의원 - 치과의원","category":"medical"}]},{"lat":"37.278601714","long":"127.03231128","imageIndex":8,"items":[{"name":"귀여운동물병원","tel":"031-211-8333","addr":"경기도 수원시 팔달구 우만동 436번지 뉴신아빌딩 D동 102호","indutype":"기타의료기관 - 동물병원","category":"medical"}]},{"lat":"37.285072043","long":"127.02816402","imageIndex":8,"items":[{"name":"길약국","tel":"031-245-5599","addr":"경기도 수원시 팔달구 우만동 490-7번지","indutype":"약국 - 약국","category":"medical"},{"name":"김영훈치과의원","tel":"031-254-7528","addr":"경기도 수원시 팔달구 우만동 490-7번지","indutype":"의원 - 치과의원","category":"medical"},{"name":"약손한의원","tel":"031-247-7522","addr":"경기도 수원시 팔달구 우만동 490-7번지 2층","indutype":"의원 - 한의원","category":"medical"},{"name":"은가정의학과","tel":"031-247-1561","addr":"경기도 수원시 팔달구 우만동 490-7번지 2층","indutype":"의원 - 의원","category":"medical"}]},{"lat":"37.279565896","long":"127.03197338","imageIndex":8,"items":[{"name":"늘푸른소아과의원","tel":"031-214-2142","addr":"경기도 수원시 팔달구 우만동 561-2번지 우암빌딩 301호","indutype":"의원 - 의원","category":"medical"},{"name":"맑은샘한의원","tel":"031-212-7509","addr":"경기도 수원시 팔달구 우만동 561-2번지 우암빌딩 501호","indutype":"의원 - 한의원","category":"medical"},{"name":"비타민약국","tel":"031-214-7233","addr":"경기도 수원시 팔달구 우만동 561-2번지 우암빌딩 1층","indutype":"약국 - 약국","category":"medical"},{"name":"온누리치과의원","tel":"031-213-3080","addr":"경기도 수원시 팔달구 우만동 561-2번지 우암빌딩 4층 401호","indutype":"의원 - 치과의원","category":"medical"}]},{"lat":"37.283872411","long":"127.03353118","imageIndex":8,"items":[{"name":"대성약초","tel":"070-4253-3474","addr":"경기도 수원시 팔달구 우만동 532-26번지 2층","indutype":"약국 - 한약방","category":"medical"}]},{"lat":"37.284566462","long":"127.0325053","imageIndex":8,"items":[{"name":"리앤초이치과의원","tel":"031-245-2872","addr":"경기도 수원시 팔달구 우만동 523-11번지","indutype":"의원 - 치과의원","category":"medical"}]},{"lat":"37.27506629","long":"127.04375409","imageIndex":8,"items":[{"name":"마마라 정신건강의학과의원","tel":"031-305-8275","addr":"경기도 수원시 팔달구 우만동 81-2번지 대학빌딩 3층 1호","indutype":"의원 - 의원","category":"medical"},{"name":"아주탑치과의원","tel":"031-217-2297","addr":"경기도 수원시 팔달구 우만동 81-2번지 대학빌딩 3층","indutype":"의원 - 치과의원","category":"medical"}]},{"lat":"37.284791795","long":"127.03220092","imageIndex":8,"items":[{"name":"민준약국","tel":"031-246-1288","addr":"경기도 수원시 팔달구 우만동 514-5번지 홍산빌딩 1층","indutype":"약국 - 약국","category":"medical"},{"name":"수일의원","tel":"031-306-2163","addr":"경기도 수원시 팔달구 우만동 514-5번지 홍산빌딩 3층","indutype":"의원 - 의원","category":"medical"}]},{"lat":"37.275490198","long":"127.04250278","imageIndex":8,"items":[{"name":"보성한의원","tel":"031-215-4975","addr":"경기도 수원시 팔달구 우만동 85-1번지 동양부페 4층 401호","indutype":"의원 - 한의원","category":"medical"}]},{"lat":"37.281213233","long":"127.03769094","imageIndex":8,"items":[{"name":"비방","tel":"031-214-5611","addr":"경기도 수원시 팔달구 우만동 26-25번지 트레보 상가 105호 106호","indutype":"약국 - 한약방","category":"medical"}]},{"lat":"37.275183578","long":"127.04330315","imageIndex":8,"items":[{"name":"사암바른한의원","tel":"031-216-3875","addr":"경기도 수원시 팔달구 우만동 81-6번지 2층","indutype":"의원 - 한의원","category":"medical"},{"name":"척바른마취통증의학과의원","tel":"031-212-5526","addr":"경기도 수원시 팔달구 우만동 81-6번지 3층","indutype":"의원 - 의원","category":"medical"}]},{"lat":"37.275318901","long":"127.04280712","imageIndex":8,"items":[{"name":"서울수치과","tel":"031-217-2882","addr":"경기도 수원시 팔달구 우만동 88-3번지 용신빌딩 201호","indutype":"의원 - 치과의원","category":"medical"}]},{"lat":"37.275679564","long":"127.04205188","imageIndex":8,"items":[{"name":"서울아주치과","tel":"031-214-2880","addr":"경기도 수원시 팔달구 우만동 85-3번지 우만동R타워 301호","indutype":"의원 - 치과의원","category":"medical"},{"name":"장미꽃과나이팅게일 피부과의원","tel":"031-268-5652","addr":"경기도 수원시 팔달구 우만동 85-3번지 아이타워 304호","indutype":"의원 - 의원","category":"medical"},{"name":"청춘약국","tel":"031-212-5156","addr":"경기도 수원시 팔달구 우만동 85-3번지 우만동R타워 113호","indutype":"약국 - 약국","category":"medical"}]},{"lat":"37.287323491","long":"127.03294618","imageIndex":8,"items":[{"name":"세란약국","tel":"031-257-5674","addr":"경기도 수원시 팔달구 우만동 499-2번지 동명프라자 1층","indutype":"약국 - 약국","category":"medical"}]},{"lat":"37.275237713","long":"127.04308896","imageIndex":8,"items":[{"name":"수원메디칼약국","tel":"070-7756-2020","addr":"경기도 수원시 팔달구 우만동 81-5번지 104호, 106호","indutype":"약국 - 약국","category":"medical"},{"name":"울림 정신건강의학과의원","tel":"031-8007-3575","addr":"경기도 수원시 팔달구 우만동 81-5번지 마이올프라자 302호","indutype":"의원 - 의원","category":"medical"},{"name":"좋은약속치과의원","tel":"031-211-2876","addr":"경기도 수원시 팔달구 우만동 81-5번지 402호,403호","indutype":"의원 - 치과의원","category":"medical"},{"name":"코뿔소이비인후과의원","tel":"031-217-8577","addr":"경기도 수원시 팔달구 우만동 81-5번지 303호","indutype":"의원 - 의원","category":"medical"}]},{"lat":"37.286179713","long":"127.03080315","imageIndex":8,"items":[{"name":"아침약국","tel":"031-241-1946","addr":"경기도 수원시 팔달구 우만동 503번지 1층","indutype":"약국 - 약국","category":"medical"},{"name":"조&윤 가정의학과의원","tel":"031-252-8251","addr":"경기도 수원시 팔달구 우만동 503번지","indutype":"의원 - 의원","category":"medical"}]},{"lat":"37.277267077","long":"127.0365052","imageIndex":8,"items":[{"name":"엔플란트치과의원","tel":"031-237-7528","addr":"경기도 수원시 팔달구 우만동 140-4번지 송암빌딩 2층","indutype":"의원 - 치과의원","category":"medical"}]},{"lat":"37.287009475","long":"127.02708209","imageIndex":8,"items":[{"name":"영창약국","tel":"031-245-6154","addr":"경기도 수원시 팔달구 우만동 473-9번지","indutype":"약국 - 약국","category":"medical"}]},{"lat":"37.289073073","long":"127.02583099","imageIndex":8,"items":[{"name":"원한의원","tel":"031-253-5510","addr":"경기도 수원시 팔달구 우만동 472-6번지 1층 (2층)","indutype":"의원 - 한의원","category":"medical"}]},{"lat":"37.279656046","long":"127.03178173","imageIndex":8,"items":[{"name":"월드약국","tel":"031-211-0815","addr":"경기도 수원시 팔달구 우만동 561-1번지","indutype":"약국 - 약국","category":"medical"},{"name":"프라임내과의원","tel":"031-217-8484","addr":"경기도 수원시 팔달구 우만동 561-1번지 2층","indutype":"의원 - 의원","category":"medical"}]},{"lat":"37.275959235","long":"127.0409696","imageIndex":8,"items":[{"name":"유완진치과의원","tel":"031-211-3254","addr":"경기도 수원시 팔달구 우만동 92-1번지 블루하우스 405호","indutype":"의원 - 치과의원","category":"medical"}]},{"lat":"37.286793183","long":"127.02730756","imageIndex":8,"items":[{"name":"정영호내과의원","tel":"031-258-0888","addr":"경기도 수원시 팔달구 우만동 489-17번지","indutype":"의원 - 의원","category":"medical"}]},{"lat":"37.276625977","long":"127.04102632","imageIndex":8,"items":[{"name":"지만약국","tel":"031-217-5447","addr":"경기도 수원시 팔달구 우만동 95-3번지","indutype":"약국 - 약국","category":"medical"}]},{"lat":"37.282683241","long":"127.03280902","imageIndex":8,"items":[{"name":"지양당한의원","tel":"031-211-1075","addr":"경기도 수원시 팔달구 우만동 552-1번지","indutype":"의원 - 한의원","category":"medical"}]},{"lat":"37.279295621","long":"127.03183797","imageIndex":8,"items":[{"name":"청담한의원","tel":"031-212-1075","addr":"경기도 수원시 팔달구 우만동 561-6번지 3층","indutype":"의원 - 한의원","category":"medical"}]},{"lat":"37.276932334","long":"127.04100392","imageIndex":8,"items":[{"name":"청룡한약방","tel":"031-211-9981","addr":"경기도 수원시 팔달구 우만동 101-1번지 아주교회 2층 203호","indutype":"의원 - 한의원","category":"medical"}]},{"lat":"37.278761448","long":"127.04091464","imageIndex":8,"items":[{"name":"큰사랑의원","tel":"031-211-7800","addr":"경기도 수원시 팔달구 우만동 30-1번지","indutype":"의원 - 의원","category":"medical"}]},{"lat":"37.282764256","long":"127.03311351","imageIndex":8,"items":[{"name":"필외과의원","tel":"031-217-7582","addr":"경기도 수원시 팔달구 우만동 552번지","indutype":"의원 - 의원","category":"medical"},{"name":"한마음약국","tel":"031-217-7591","addr":"경기도 수원시 팔달구 우만동 552번지 상가 1층 1호","indutype":"약국 - 약국","category":"medical"}]},{"lat":"37.28698171","long":"127.03044258","imageIndex":8,"items":[{"name":"해경한의원","tel":"031-245-4413","addr":"경기도 수원시 팔달구 우만동 495-18번지","indutype":"의원 - 한의원","category":"medical"}]},{"lat":"37.284765651","long":"127.0283669","imageIndex":8,"items":[{"name":"행복가득치과의원","tel":"","addr":"경기도 수원시 팔달구 우만동 508-14번지 301,302호","indutype":"의원 - 치과의원","category":"medical"}]},{"lat":"37.28590065","long":"127.02969793","imageIndex":8,"items":[{"name":"홍경화산부인과","tel":"031-243-4162","addr":"경기도 수원시 팔달구 우만동 492-15번지","indutype":"의원 - 의원","category":"medical"}]}]