[{"lat":"37.57767182","long":"127.12861911","imageIndex":17,"items":[{"name":"(주)다짐공조시스템","tel":"031-565-2883","addr":"경기도 구리시 아천동 73-1번지","indutype":"전기제품 - 냉열기기","category":"other"}]},{"lat":"37.575480519","long":"127.1124615","imageIndex":17,"items":[{"name":"(주)주빌리","tel":"031-567-2578","addr":"경기도 구리시 아천동 388-9번지 1층","indutype":"서적문구 - 출판 및 인쇄물","category":"other"}]},{"lat":"37.573451518","long":"127.1235407","imageIndex":17,"items":[{"name":"구리물류","tel":"031-566-5000","addr":"경기도 구리시 아천동 138-2번지","indutype":"용역 서비스 - 보관및 창고업","category":"other"},{"name":"대광콘테이너","tel":"031-557-1517","addr":"경기도 구리시 아천동 138-2번지","indutype":"기타 - 기타 전문점","category":"other"}]},{"lat":"37.574253506","long":"127.1234288","imageIndex":17,"items":[{"name":"남일기계","tel":"02-403-3999","addr":"경기도 구리시 아천동 99-3번지 1층","indutype":"기타 - 기계공구","category":"other"}]},{"lat":"37.576011559","long":"127.11303961","imageIndex":17,"items":[{"name":"노아샵","tel":"031-562-5432","addr":"경기도 구리시 아천동 387-14번지 2층","indutype":"신변잡화 - 액세서리","category":"other"}]},{"lat":"37.572617768","long":"127.11939632","imageIndex":17,"items":[{"name":"노을지면","tel":"070-7753-7479","addr":"경기도 구리시 아천동 340-2번지 3층 301호","indutype":"가구 - 기타가구","category":"other"}]},{"lat":"37.575956247","long":"127.11437532","imageIndex":17,"items":[{"name":"더 에일린 홈앤아트","tel":"","addr":"경기도 구리시 아천동 380-6번지","indutype":"가구 - 기타가구","category":"other"}]},{"lat":"37.572733207","long":"127.12109447","imageIndex":17,"items":[{"name":"동양기전북부대리점","tel":"031-554-2350","addr":"경기도 구리시 아천동 149-19","indutype":"기타 - 기타 전문점","category":"other"}]},{"lat":"37.575873173","long":"127.11645813","imageIndex":17,"items":[{"name":"드림스퀘어","tel":"","addr":"경기도 구리시 아천동 373-4번지 201호","indutype":"가구 - 철제가구","category":"other"}]},{"lat":"37.57309335","long":"127.12134408","imageIndex":17,"items":[{"name":"로코코소파 워커힐점","tel":"070-4667-1366","addr":"경기도 구리시 아천동 149-35번지 1층","indutype":"가구 - 일반가구","category":"other"}]},{"lat":"37.57564899","long":"127.11534841","imageIndex":17,"items":[{"name":"말랑","tel":"","addr":"경기도 구리시 아천동 380-24번지","indutype":"문화.취미 - 애완동물","category":"other"}]},{"lat":"37.561702215","long":"127.11489735","imageIndex":17,"items":[{"name":"명성알미늄","tel":"02-2201-0701","addr":"경기도 구리시 아천동 307-5번지","indutype":"건축자재 - 보일러·펌프·샷시","category":"other"}]},{"lat":"37.57445618","long":"127.11898035","imageIndex":17,"items":[{"name":"박쥐 (Rufus)","tel":"02-2049-1082","addr":"경기도 구리시 아천동 353-20번지 1층","indutype":"서적문구 - 일반서적","category":"other"}]},{"lat":"37.574039742","long":"127.12098334","imageIndex":17,"items":[{"name":"벤스튜디오","tel":"031-564-0789","addr":"경기도 구리시 아천동 93-7번지 지하","indutype":"광학제품 - 사진관","category":"other"},{"name":"토이앤벤스튜디오","tel":"031-564-0786","addr":"경기도 구리시 아천동 93-7번지 1층 ,지하","indutype":"광학제품 - 사진관","category":"other"}]},{"lat":"37.573480828","long":"127.12128809","imageIndex":17,"items":[{"name":"비바체","tel":"031-552-3255","addr":"경기도 구리시 아천동 149-30번지 아치울멤버스프라자 103호","indutype":"의류 - 정장","category":"other"},{"name":"이마트24 구리아치울점","tel":"031-111-1111","addr":"경기도 구리시 아천동 149-30번지 아치울멤버스프라자 102호","indutype":"유통업 영리 - 편 의 점","category":"other"}]},{"lat":"37.572843448","long":"127.1189552","imageIndex":17,"items":[{"name":"새바람공조","tel":"031-566-1653","addr":"경기도 구리시 아천동 339-1번지 1층","indutype":"용역 서비스 - 기타용역서비스","category":"other"}]},{"lat":"37.56372908","long":"127.11526258","imageIndex":17,"items":[{"name":"성은플라워","tel":"","addr":"경기도 구리시 아천동 291-4호 7동","indutype":"건축자재 - 인테리어전문","category":"other"},{"name":"클로바플라워","tel":"02-456-8810","addr":"경기도 구리시 아천동 291-4","indutype":"문화.취미 - 화원","category":"other"}]},{"lat":"37.573704749","long":"127.12260156","imageIndex":17,"items":[{"name":"세경판넬","tel":"031-527-2884","addr":"경기도 구리시 아천동 141-2","indutype":"건축자재 - 기타건축자재","category":"other"}]},{"lat":"37.57320141","long":"127.12140085","imageIndex":17,"items":[{"name":"심포니 가든","tel":"031-528-6263","addr":"경기도 구리시 아천동 149-24번지","indutype":"문화.취미 - 화원","category":"other"}]},{"lat":"37.574816672","long":"127.11887903","imageIndex":17,"items":[{"name":"씨유아치울점","tel":"080-080-3663","addr":"경기도 구리시 아천동 353-1번지 나동 1층","indutype":"유통업 영리 - 편 의 점","category":"other"}]},{"lat":"37.573644078","long":"127.12021296","imageIndex":17,"items":[{"name":"아천개발","tel":"","addr":"경기도 구리시 아천동 153-14번지 아천빌딩","indutype":"레져용품 - 골프용품 전문점","category":"other"}]},{"lat":"37.573399513","long":"127.12151436","imageIndex":17,"items":[{"name":"영광알뜰매장","tel":"031-2233-8615","addr":"경기도 구리시 아천동 149-6번지 외2필지","indutype":"주방용구 - 주방용식기","category":"other"}]},{"lat":"37.572039645","long":"127.12090094","imageIndex":17,"items":[{"name":"예현플라워","tel":"031-554-2700","addr":"경기도 구리시 아천동 160-1번지","indutype":"문화.취미 - 화원","category":"other"}]},{"lat":"37.559874809","long":"127.11320826","imageIndex":17,"items":[{"name":"오바디스킨케어","tel":"031-3436-1214","addr":"경기도 구리시 아천동 310-1번지 워커힐골프센터PAR3뒤편외부사무동","indutype":"회원제형태 - 기타4","category":"other"},{"name":"조에디잭니클라우스","tel":"02-456-1214","addr":"경기도 구리시 아천동 310-1번지","indutype":"회원제형태 - 레져업소","category":"other"}]},{"lat":"37.57309421","long":"127.12048377","imageIndex":17,"items":[{"name":"우진에프엔지","tel":"031-563-9662","addr":"경기도 구리시 아천동 150번지","indutype":"의류 - 정장","category":"other"}]},{"lat":"37.57400853","long":"127.12509244","imageIndex":17,"items":[{"name":"월드물류","tel":"031-567-0025","addr":"경기도 구리시 아천동 65-11번지","indutype":"건축자재 - 기타건축자재","category":"other"}]},{"lat":"37.572091914","long":"127.12267821","imageIndex":17,"items":[{"name":"이성보물류주식회사","tel":"031-567-0011","addr":"경기도 구리시 아천동 130-1","indutype":"기타 - 기타 전문점","category":"other"}]},{"lat":"37.57198198","long":"127.12445523","imageIndex":17,"items":[{"name":"주식회사 청룡시스템","tel":"031-792-9851","addr":"경기도 구리시 아천동 117-5번지","indutype":"건축자재 - 기타건축자재","category":"other"}]},{"lat":"37.572872024","long":"127.11737048","imageIndex":17,"items":[{"name":"주식회사 청정글로리","tel":"070-8784-7159","addr":"경기도 구리시 아천동 336-32번지","indutype":"신변잡화 - 기타잡화","category":"other"}]},{"lat":"37.57348382","long":"127.11826568","imageIndex":17,"items":[{"name":"케이스스터디(Case Study)","tel":"","addr":"경기도 구리시 아천동 346-8번지 2층 201호","indutype":"유통업 영리 - 기타유통업","category":"other"}]},{"lat":"37.573949474","long":"127.12115299","imageIndex":17,"items":[{"name":"크리스 퍼니처(CHRIS FURNITURE)","tel":"","addr":"경기도 구리시 아천동 93번지 1층 101호","indutype":"가구 - 일반가구","category":"other"}]},{"lat":"37.563117697","long":"127.11390346","imageIndex":17,"items":[{"name":"평도ENG","tel":"02-456-1176","addr":"경기도 구리시 아천동 302-39번지 1층","indutype":"회원제형태 - 기타4","category":"other"}]},{"lat":"37.564395515","long":"127.11556918","imageIndex":17,"items":[{"name":"하마조경원","tel":"02-458-6070","addr":"경기도 구리시 아천동 291-3","indutype":"건축자재 - 인테리어전문","category":"other"}]},{"lat":"37.57305927","long":"127.11937437","imageIndex":17,"items":[{"name":"헤펠레목공방 아차산점","tel":"031-563-1113","addr":"경기도 구리시 아천동 341-10번지","indutype":"가구 - 일반가구","category":"other"}]},{"lat":"37.574284659","long":"127.11931968","imageIndex":0,"items":[{"name":"(주)오일서비스","tel":"070-4223-9710","addr":"경기도 구리시 아천동 356-8번지 1층 르비앙","indutype":"자동차정비 유지 - 윤활유 전문 판매","category":"car"}]},{"lat":"37.572733207","long":"127.12109447","imageIndex":0,"items":[{"name":"동양기전북부대리점","tel":"031-554-2350","addr":"경기도 구리시 아천동 149-19번지","indutype":"자동차정비 유지 - 중장비수리","category":"car"}]},{"lat":"37.562206571","long":"127.11510183","imageIndex":0,"items":[{"name":"쿠모토(COUPMOTO)","tel":"070-4414-1098","addr":"경기도 구리시 아천동 306-10번지","indutype":"자동차판매 - 이륜차판매","category":"car"}]},{"lat":"37.559874809","long":"127.11320826","imageIndex":0,"items":[{"name":"쿨워시","tel":"02-458-0345","addr":"경기도 구리시 아천동 310-1번지 워커힐호텔 골프장 내","indutype":"자동차정비 유지 - 카인테리어","category":"car"}]},{"lat":"37.559874809","long":"127.11320826","imageIndex":13,"items":[{"name":"W 스크린골프","tel":"02-457-6666","addr":"경기도 구리시 아천동 310-1번지 위커힐호텔 2층","indutype":"레저업소 - 스크린골프","category":"leisure"}]},{"lat":"37.575121178","long":"127.12942987","imageIndex":13,"items":[{"name":"스토래지 풋살","tel":"032-7104-1614","addr":"경기도 구리시 아천동 62-5번지","indutype":"레저업소 - 기타레져업소","category":"leisure"}]},{"lat":"37.559874809","long":"127.11320826","imageIndex":16,"items":[{"name":"김철잭니콜라우스아카데미","tel":"031-456-1010","addr":"경기도 구리시 아천동 310-1번지","indutype":"회원제형태 - 학원","category":"study"}]},{"lat":"37.574898767","long":"127.11784902","imageIndex":4,"items":[{"name":"다화담","tel":"031-212-9080","addr":"경기도 구리시 아천동 353-28번지 1층","indutype":"일반휴게음식 - 서양음식","category":"restaurant"}]},{"lat":"37.569901156","long":"127.11489831","imageIndex":4,"items":[{"name":"동산식당","tel":"02-452-7463","addr":"경기도 구리시 아천동 252-3,가,나동","indutype":"일반휴게음식 - 일반한식","category":"restaurant"}]},{"lat":"37.559874809","long":"127.11320826","imageIndex":4,"items":[{"name":"드림카페","tel":"02-456-9876","addr":"경기도 구리시 아천동 310-1번지","indutype":"일반휴게음식 - 일반한식","category":"restaurant"}]},{"lat":"37.57320141","long":"127.12140085","imageIndex":4,"items":[{"name":"마니스(Mani's)","tel":"031-555-1513","addr":"경기도 구리시 아천동 149-24번지","indutype":"일반휴게음식 - 서양음식","category":"restaurant"}]},{"lat":"37.561595144","long":"127.11378802","imageIndex":4,"items":[{"name":"모던기와","tel":"02-2049-0118","addr":"경기도 구리시 아천동 315-2번지","indutype":"일반휴게음식 - 서양음식","category":"restaurant"}]},{"lat":"37.562288271","long":"127.11445682","imageIndex":4,"items":[{"name":"묵고을 다람쥐","tel":"02-456-4955","addr":"경기도 구리시 아천동 313번지 1층","indutype":"일반휴게음식 - 일반한식","category":"restaurant"}]},{"lat":"37.56359448","long":"127.11468514","imageIndex":4,"items":[{"name":"아차산로59","tel":"02-444-1957","addr":"경기도 구리시 아천동 300-11번지 1층","indutype":"일반휴게음식 - 서양음식","category":"restaurant"}]},{"lat":"37.562262644","long":"127.11296278","imageIndex":4,"items":[{"name":"아펜즈","tel":"02-455-8405","addr":"경기도 구리시 아천동 316-9번지 4층","indutype":"일반휴게음식 - 서양음식","category":"restaurant"},{"name":"화반","tel":"","addr":"경기도 구리시 아천동 316-9번지 2호","indutype":"일반휴게음식 - 일반한식","category":"restaurant"}]},{"lat":"37.573344643","long":"127.12231798","imageIndex":4,"items":[{"name":"양평해장국","tel":"031-562-9145","addr":"경기도 구리시 아천동 145-6번지","indutype":"일반휴게음식 - 일반한식","category":"restaurant"}]},{"lat":"37.573480828","long":"127.12128809","imageIndex":4,"items":[{"name":"오또상","tel":"031-565-2814","addr":"경기도 구리시 아천동 149-30번지 아치울멤버스프라자 101호","indutype":"일반휴게음식 - 주점","category":"restaurant"}]},{"lat":"37.563423294","long":"127.11468488","imageIndex":4,"items":[{"name":"우미관","tel":"02-447-2848","addr":"경기도 구리시 아천동 300-10번지","indutype":"일반휴게음식 - 일반한식","category":"restaurant"}]},{"lat":"37.561840347","long":"127.11170585","imageIndex":4,"items":[{"name":"카페마당","tel":"031-1111-1111","addr":"경기도 구리시 아천동 316-36번지 가동 1층","indutype":"일반휴게음식 - 서양음식","category":"restaurant"}]},{"lat":"37.573844918","long":"127.11754176","imageIndex":4,"items":[{"name":"퀸베리","tel":"031-304-7007","addr":"경기도 구리시 아천동 346-10번지 1층","indutype":"일반휴게음식 - 서양음식","category":"restaurant"}]},{"lat":"37.574256666","long":"127.12029316","imageIndex":7,"items":[{"name":"솔마트","tel":"031-565-3003","addr":"경기도 구리시 아천동 89번지","indutype":"유통업 영리 - 슈퍼마켓","category":"mart"}]},{"lat":"37.574256666","long":"127.12029316","imageIndex":7,"items":[{"name":"솔마트정육점","tel":"031-565-3003","addr":"경기도 구리시 아천동 89번지","indutype":"음료식품 - 정육점","category":"food"}]},{"lat":"37.562262644","long":"127.11296278","imageIndex":7,"items":[{"name":"이지다이닝","tel":"","addr":"경기도 구리시 아천동 316-9번지 1층","indutype":"음료식품 - 기타음료식품","category":"food"}]},{"lat":"37.57590042","long":"127.11623176","imageIndex":8,"items":[{"name":"아치울치과의원","tel":"031-568-7551","addr":"경기도 구리시 아천동 373-11번지","indutype":"의원 - 치과의원","category":"medical"}]},{"lat":"37.563756582","long":"127.11476461","imageIndex":8,"items":[{"name":"향남한의원","tel":"02-446-3074","addr":"경기도 구리시 아천동 300-6번지 1층","indutype":"의원 - 한의원","category":"medical"}]},{"lat":"37.562902372","long":"127.11292977","imageIndex":13,"items":[{"name":"자인메디칼","tel":"02-454-9200","addr":"경기도 구리시 아천동 316-27번지 가동","indutype":"보건위생 - 의료용품","category":"beauty"}]},{"lat":"37.562866354","long":"127.11290708","imageIndex":13,"items":[{"name":"주식회사 서화","tel":"02-446-0300","addr":"경기도 구리시 아천동 316-27번지 가동 102호","indutype":"보건위생 - 의료용품","category":"beauty"}]},{"lat":"37.574456823","long":"127.11832378","imageIndex":13,"items":[{"name":"주식회사바크로","tel":"02-525-8275","addr":"경기도 구리시 아천동 352번지 제리랜드빌딩 101호","indutype":"보건위생 - 화장품","category":"beauty"}]},{"lat":"37.562397537","long":"127.11323462","imageIndex":13,"items":[{"name":"주식회사유앤김","tel":"070-7570-0089","addr":"경기도 구리시 아천동 316-7번지 1층","indutype":"보건위생 - 화장품","category":"beauty"}]},{"lat":"37.562955211","long":"127.11423145","imageIndex":13,"items":[{"name":"혜신당","tel":"","addr":"경기도 구리시 아천동 302-15번지 2층, 3층 302호","indutype":"보건위생 - 기타대인서비스","category":"beauty"}]}]