[{"lat":"37.157473504","long":"126.84538846","imageIndex":17,"items":[{"name":"(주)씨엠케이 페인트사업부","tel":"031-8058-4500","addr":"경기도 화성시 팔탄면 노하리 621-25번지","indutype":"건축자재 - 페인트","category":"other"}]},{"lat":"37.154557327","long":"126.86226896","imageIndex":17,"items":[{"name":"늘푸른씨앤씨","tel":"031-354-3577","addr":"경기도 화성시 팔탄면 노하리 561-2번지","indutype":"신변잡화 - 기타잡화","category":"other"}]},{"lat":"37.162275918","long":"126.85946261","imageIndex":17,"items":[{"name":"대성기술 주식회사","tel":"031-432-1251","addr":"경기도 화성시 팔탄면 노하리 376-48번지","indutype":"기타 - 기계공구","category":"other"}]},{"lat":"37.161943913","long":"126.86832347","imageIndex":17,"items":[{"name":"대양레이저 주식회사","tel":"031-359-8932","addr":"경기도 화성시 팔탄면 노하리 174-19번지 C동,B동","indutype":"용역 서비스 - 기타용역서비스","category":"other"}]},{"lat":"37.158084636","long":"126.85108357","imageIndex":17,"items":[{"name":"동성기업","tel":"031-366-2810","addr":"경기도 화성시 팔탄면 노하리 450-13번지","indutype":"기타 - 기계공구","category":"other"}]},{"lat":"37.154666442","long":"126.84858006","imageIndex":17,"items":[{"name":"성진종합상사","tel":"031-352-1914","addr":"경기도 화성시 팔탄면 노하리 1178-14번지","indutype":"기타 - 기계공구","category":"other"},{"name":"천우중전기","tel":"031-353-6430","addr":"경기도 화성시 팔탄면 노하리 1178-14번지","indutype":"수리서비스 - 기타수리서비스","category":"other"}]},{"lat":"37.155106689","long":"126.84761104","imageIndex":17,"items":[{"name":"세븐일레븐화성노하점","tel":"031-1577-0711","addr":"경기도 화성시 팔탄면 노하리 1178-4번지 106~107호","indutype":"유통업 영리 - 편 의 점","category":"other"}]},{"lat":"37.167995804","long":"126.86559929","imageIndex":17,"items":[{"name":"소연","tel":"031-366-7945","addr":"경기도 화성시 팔탄면 노하리 325-3번지","indutype":"직물 - 침구·수예점","category":"other"}]},{"lat":"37.156195455","long":"126.84647182","imageIndex":17,"items":[{"name":"엠텍","tel":"031-366-4853","addr":"경기도 화성시 팔탄면 노하리 621-31번지","indutype":"기타 - 기계공구","category":"other"}]},{"lat":"37.158385033","long":"126.84650108","imageIndex":17,"items":[{"name":"주식회사 성신포장산업","tel":"031-355-9451","addr":"경기도 화성시 팔탄면 노하리 621-13번지","indutype":"유통업 영리 - 기타유통업","category":"other"}]},{"lat":"37.153387919","long":"126.85644002","imageIndex":17,"items":[{"name":"중앙씨씨티비(cctv)","tel":"070-8031-4038","addr":"경기도 화성시 팔탄면 노하리 1240-1번지","indutype":"용역 서비스 - 기타용역서비스","category":"other"}]},{"lat":"37.158302558","long":"126.86732799","imageIndex":17,"items":[{"name":"티엔바이오","tel":"","addr":"경기도 화성시 팔탄면 노하리 197-14번지 201호","indutype":"서적문구 - 과학기자재","category":"other"}]},{"lat":"37.154872799","long":"126.86235843","imageIndex":17,"items":[{"name":"폴로 까사","tel":"031-353-4638","addr":"경기도 화성시 팔탄면 노하리 561-1번지 1동","indutype":"가구 - 일반가구","category":"other"}]},{"lat":"37.157718836","long":"126.86129495","imageIndex":17,"items":[{"name":"화성천막공사","tel":"031-353-6662","addr":"경기도 화성시 팔탄면 노하리 406-1번지","indutype":"직물 - 카페트,커튼,천막,지물","category":"other"},{"name":"화성판넬","tel":"031-352-6628","addr":"경기도 화성시 팔탄면 노하리 406-1","indutype":"건축자재 - 건축용 요업제품","category":"other"}]}]