[{"lat":"37.4207425","long":"126.8825364","imageIndex":17,"items":[{"name":"(주)민경우수학교육연구소","tel":"02-899-0703","addr":"경기도 광명시 일직동 510-9번지 SH&01프라자 6층 603호","indutype":"용역 서비스 - 사무서비스","category":"other"},{"name":"GS25광명일직점","tel":"","addr":"경기도 광명시 일직동 510-9번지 SH&01프라자 1층 103호","indutype":"유통업 영리 - 편 의 점","category":"other"},{"name":"베르다 스튜디오","tel":"02-898-6690","addr":"경기도 광명시 일직동 510-9번지 SH&01빌딩 4층 4호","indutype":"광학제품 - 사진관","category":"other"},{"name":"크린토피아 코인워시 광명역 데시앙점","tel":"02-898-0991","addr":"경기도 광명시 일직동 510-9번지 SH&01프라자 1층 106호","indutype":"수리서비스 - 세탁소","category":"other"}]},{"lat":"37.42785266","long":"126.893066","imageIndex":17,"items":[{"name":"(주)아이스월드코리아","tel":"02-2614-3343","addr":"경기도 광명시 일직동 9-12번지","indutype":"레져용품 - 스포츠·레져용품","category":"other"}]},{"lat":"37.42127306","long":"126.8906468","imageIndex":17,"items":[{"name":"(주)야골프","tel":"02-855-4332","addr":"경기도 광명시 일직동 505-1번지 한남빌 1층 상가우측","indutype":"용역 서비스 - 소프트웨어","category":"other"}]},{"lat":"37.42127322","long":"126.8908162","imageIndex":17,"items":[{"name":"(주)와이에스스틸","tel":"070-4694-7075","addr":"경기도 광명시 일직동 505-2번지","indutype":"건축자재 - 기타건축자재","category":"other"}]},{"lat":"37.42407709","long":"126.883401","imageIndex":17,"items":[{"name":"(주)제너하임","tel":"031-000-0000","addr":"경기도 광명시 일직동 500번지 이케아 1층","indutype":"용역 서비스 - 종합용역","category":"other"},{"name":"세븐일레븐광명이케아점","tel":"","addr":"경기도 광명시 일직동 500번지 1층 이케아광명점","indutype":"유통업 영리 - 편 의 점","category":"other"},{"name":"일룸롯데광명점","tel":"02-6226-2490","addr":"경기도 광명시 일직동 500번지 롯데프리미엄아울렛광명점 4층","indutype":"가구 - 일반가구","category":"other"},{"name":"큐 의류수선실(롯데광명점)","tel":"02-6226-2471","addr":"경기도 광명시 일직동 500번지 롯데아울렛광명점 4층","indutype":"수리서비스 - 세탁소","category":"other"}]},{"lat":"37.42138407","long":"126.8843768","imageIndex":17,"items":[{"name":"(주)제로쿨투어","tel":"02-898-0999","addr":"경기도 광명시 일직동 511번지 지웰에스테이트 303호","indutype":"여행 - 관광여행","category":"other"},{"name":"mercier fleur","tel":"031-000-0000","addr":"경기도 광명시 일직동 511번지 지웰에스테이트 102호","indutype":"문화.취미 - 화원","category":"other"},{"name":"퀸's","tel":"070-8031-4038","addr":"경기도 광명시 일직동 511번지 지엘에스테이트 1109호","indutype":"레져용품 - 스포츠·레져용품","category":"other"}]},{"lat":"37.41702623","long":"126.8874337","imageIndex":17,"items":[{"name":"GS25광명센트럴자이점","tel":"","addr":"경기도 광명시 일직동 517번지 광명역 센트럴자이 상가동 지상1층 123호","indutype":"유통업 영리 - 편 의 점","category":"other"},{"name":"크린어스(Cleanus)","tel":"02-898-8828","addr":"경기도 광명시 일직동 517번지 광명역센트럴자이 2층 202호","indutype":"수리서비스 - 세탁소","category":"other"}]},{"lat":"37.41719132","long":"126.8813447","imageIndex":17,"items":[{"name":"GS25광명써밋점","tel":"","addr":"경기도 광명시 일직동 513번지 광명역써밋플레이스 지하2층 B2-05,06호","indutype":"유통업 영리 - 편 의 점","category":"other"},{"name":"백마크리닝","tel":"02-898-8201","addr":"경기도 광명시 일직동 513번지 아브뉴프랑 B1층 33호","indutype":"수리서비스 - 세탁소","category":"other"},{"name":"에이치디씨","tel":"","addr":"경기도 광명시 일직동 513번지 광명역써밋플레이스 112동 709호","indutype":"용역 서비스 - 기타용역서비스","category":"other"},{"name":"재단법인 태성문화재단 광명지점","tel":"02-6337-7300","addr":"경기도 광명시 일직동 513번지 광명역써밋플레이스 아브뉴프랑광명","indutype":"문화.취미 - 화랑","category":"other"},{"name":"재단법인 태성문화재단 광명지점","tel":"02-6337-7300","addr":"경기도 광명시 일직동 513번지 광명역써밋플레이스 아브뉴프랑광명","indutype":"신변잡화 - 기타잡화","category":"other"}]},{"lat":"37.41463728","long":"126.886127","imageIndex":17,"items":[{"name":"GS25광명파크자이점","tel":"","addr":"경기도 광명시 일직동 518번지 광명역파크자이 141호","indutype":"유통업 영리 - 편 의 점","category":"other"},{"name":"KTX광명역자이점","tel":"02-899-3987","addr":"경기도 광명시 일직동 518번지 광명역파크자이 상가동 2층 241호","indutype":"수리서비스 - 세탁소","category":"other"},{"name":"만홈케어","tel":"","addr":"경기도 광명시 일직동 518번지 광명역파크자이 106동 603호","indutype":"용역 서비스 - 기타용역서비스","category":"other"},{"name":"사우스미디어","tel":"02-898-7142","addr":"경기도 광명시 일직동 518번지 광명역파크자이 1106호","indutype":"전기제품 - 가전제품","category":"other"},{"name":"주식회사 한국픽셀","tel":"02-2652-3348","addr":"경기도 광명시 일직동 518번지 광명역파크자이 1동 1212호","indutype":"용역 서비스 - 기타용역서비스","category":"other"},{"name":"테이스티 507 (Tasty 507)","tel":"","addr":"경기도 광명시 일직동 518번지 광명역파크자이 104동 2003호","indutype":"문화.취미 - 문화취미기타","category":"other"}]},{"lat":"37.41424382","long":"126.8801747","imageIndex":17,"items":[{"name":"GS25광명푸르지오점","tel":"","addr":"경기도 광명시 일직동 519번지 광명역푸르지오 B301,302호","indutype":"유통업 영리 - 편 의 점","category":"other"},{"name":"블럭톡톡","tel":"02-898-8588","addr":"경기도 광명시 일직동 519번지 광명역푸르지오 상가동 213호","indutype":"서적문구 - 완구점","category":"other"},{"name":"인테리어킹","tel":"031-397-3422","addr":"경기도 광명시 일직동 519번지 광명역푸르지오 102동 2101호","indutype":"건축자재 - 인테리어전문","category":"other"},{"name":"지오모바일","tel":"070-8764-0014","addr":"경기도 광명시 일직동 519번지 광명역푸르지오 상가동 313호","indutype":"사무통신 - 통신기기","category":"other"},{"name":"트렌디하우스","tel":"","addr":"경기도 광명시 일직동 519번지 광명역푸르지오 106동 9층 909호 오피스텔","indutype":"직물 - 카페트,커튼,천막,지물","category":"other"}]},{"lat":"37.42218571","long":"126.884127","imageIndex":17,"items":[{"name":"GS25광명해링턴점","tel":"","addr":"경기도 광명시 일직동 509-1번지 광명역 효성 해링턴타워 The First 1층 109호","indutype":"유통업 영리 - 편 의 점","category":"other"},{"name":"게이트맨 광명SKY","tel":"02-899-5216","addr":"경기도 광명시 일직동 509-1번지 광명역 효성 해링턴타워 The First 107호","indutype":"건축자재 - 목재·석재·철물","category":"other"},{"name":"게이트맨 광명SKY","tel":"031-111-1111","addr":"경기도 광명시 일직동 509-1번지 광명역 효성 해링턴타워 The First 107호","indutype":"건축자재 - 목재·석재·철물","category":"other"},{"name":"루미에르 한복","tel":"","addr":"경기도 광명시 일직동 509-1번지 광명역효성해링턴타워TheFirst 3층 318,319호","indutype":"의류 - 맞춤복점","category":"other"},{"name":"바이오뱅크코리아(Bio bank korea)","tel":"02-6267-2112","addr":"경기도 광명시 일직동 509-1번지 광명역효성해링턴타워TheFirst 416호","indutype":"서적문구 - 과학기자재","category":"other"},{"name":"세븐일레븐광명효성점","tel":"031-1577-0711","addr":"경기도 광명시 일직동 509-1번지 해링턴타워더퍼스트 112호","indutype":"유통업 영리 - 편 의 점","category":"other"},{"name":"센토리움(Scentorium)","tel":"","addr":"경기도 광명시 일직동 509-1번지 광명역효성해링턴타워더퍼스트 219호","indutype":"신변잡화 - 기타잡화","category":"other"},{"name":"승니컴퍼니","tel":"","addr":"경기도 광명시 일직동 509-1번지 광명역 효성 해링턴타워 THE FIRST 1340호","indutype":"기타 - 기계공구","category":"other"},{"name":"아시아 종합환경","tel":"","addr":"경기도 광명시 일직동 509-1번지 광명역 효성 해링턴타워 THE FIRST 936호","indutype":"용역 서비스 - 종합용역","category":"other"},{"name":"엠지코리아","tel":"02-897-1222","addr":"경기도 광명시 일직동 509-1번지 광명역효성해링턴타워TheFirst 2층 218호","indutype":"기타 - 기계공구","category":"other"},{"name":"연세세무회계사무소","tel":"02-2138-2847","addr":"경기도 광명시 일직동 509-1번지 광명역 효성 해링턴타워 THE FIRST 2층 08호","indutype":"용역 서비스 - 법률회계서비스(개인)","category":"other"}]},{"lat":"37.42060577","long":"126.8900716","imageIndex":17,"items":[{"name":"GS25스마트광명역점","tel":"","addr":"경기도 광명시 일직동 506-1번지 산타마리아 B동 103호","indutype":"유통업 영리 - 편 의 점","category":"other"},{"name":"제이에스비","tel":"02-1111-1111","addr":"경기도 광명시 일직동 506-1번지 406호","indutype":"신변잡화 - 기타잡화","category":"other"}]},{"lat":"37.42532861","long":"126.8917366","imageIndex":17,"items":[{"name":"HBC방탄","tel":"02-803-1023","addr":"경기도 광명시 일직동 28번지","indutype":"건축자재 - 유리","category":"other"}]},{"lat":"37.41347113","long":"126.8822882","imageIndex":17,"items":[{"name":"KEA 토탈 Golf","tel":"","addr":"경기도 광명시 일직동 523-10번지 1층","indutype":"레져용품 - 골프용품 전문점","category":"other"}]},{"lat":"37.42055388","long":"126.8831241","imageIndex":17,"items":[{"name":"KR pos system(케이알포스시스템)","tel":"02-1688-5903","addr":"경기도 광명시 일직동 510-6번지 서원빌딩 506호","indutype":"사무통신 - 통신기기","category":"other"},{"name":"씨유KTX광명점","tel":"02-899-2552","addr":"경기도 광명시 일직동 510-6 서원빌딩1층 112호","indutype":"유통업 영리 - 편 의 점","category":"other"},{"name":"아방개르드","tel":"02-1577-0000","addr":"경기도 광명시 일직동 510-6번지 서원빌딩 1층 102호","indutype":"문화.취미 - 애완동물","category":"other"},{"name":"오피스디포 광명점","tel":"02-899-2261","addr":"경기도 광명시 일직동 510-6번지 서원빌딩 202,203호","indutype":"사무통신 - 기타 사무용품","category":"other"},{"name":"주식회사 조은바람","tel":"02-899-5642","addr":"경기도 광명시 일직동 510-6번지 서원빌딩 7층 706호","indutype":"기타 - 기계공구","category":"other"}]},{"lat":"37.4273308","long":"126.8938463","imageIndex":17,"items":[{"name":"광명목재","tel":"02-808-2500","addr":"경기도 광명시 일직동 8-1","indutype":"건축자재 - 기타건축자재","category":"other"}]},{"lat":"37.41385745","long":"126.8812032","imageIndex":17,"items":[{"name":"꼬리별 강아지미용실","tel":"02-898-9378","addr":"경기도 광명시 일직동 521-3번지 101호","indutype":"문화.취미 - 애완동물","category":"other"}]},{"lat":"37.42032849","long":"126.8829889","imageIndex":17,"items":[{"name":"남북러브스토리아","tel":"","addr":"경기도 광명시 일직동 510-7번지 S프라자 7층 705호","indutype":"용역 서비스 - 혼례서비스","category":"other"},{"name":"어썸","tel":"070-4062-0136","addr":"경기도 광명시 일직동 510-7번지 S프라자 1층 1호","indutype":"의류 - 정장","category":"other"},{"name":"에메랄드531 (Emerald 531)","tel":"031-0000-0000","addr":"경기도 광명시 일직동 510-7번지 S프라자 1층 102호","indutype":"의류 - 정장","category":"other"},{"name":"잇 스토어","tel":"02-6949-1335","addr":"경기도 광명시 일직동 510-7번지 S프라자 7층 708호","indutype":"용역 서비스 - 사무서비스","category":"other"},{"name":"조아패밀리","tel":"02-6408-2345","addr":"경기도 광명시 일직동 510-7번지 S프라자 205 ,206호","indutype":"광학제품 - 사진관","category":"other"}]},{"lat":"37.41782835","long":"126.8787681","imageIndex":17,"items":[{"name":"더스포츠","tel":"02-897-6903","addr":"경기도 광명시 일직동 225-10번지 2층","indutype":"레져용품 - 스포츠·레져용품","category":"other"}]},{"lat":"37.4189987","long":"126.8778511","imageIndex":17,"items":[{"name":"동현스팟딩-머신","tel":"031-6280-0037","addr":"경기도 광명시 일직동 221-1번지","indutype":"회원제형태 - 기타4","category":"other"}]},{"lat":"37.41344379","long":"126.8819833","imageIndex":17,"items":[{"name":"드론스쿨","tel":"02-866-3233","addr":"경기도 광명시 일직동 523-4번지 1층","indutype":"서적문구 - 완구점","category":"other"}]},{"lat":"37.42055467","long":"126.8839036","imageIndex":17,"items":[{"name":"랩토피아","tel":"070-7723-1475","addr":"경기도 광명시 일직동 511-3번지 K스퀘어 1310호","indutype":"서적문구 - 과학기자재","category":"other"},{"name":"부엉이 공인중개사무소","tel":"02-898-5949","addr":"경기도 광명시 일직동 511-3번지 케이스퀘어 101호","indutype":"용역 서비스 - 부동산 중개·임대","category":"other"}]},{"lat":"37.42152548","long":"126.8907932","imageIndex":17,"items":[{"name":"리미스플라워(Leemis flower)","tel":"031-899-5445","addr":"경기도 광명시 일직동 503-5번지 401호","indutype":"문화.취미 - 화원","category":"other"},{"name":"송인패션(SIF)","tel":"02-899-8085","addr":"경기도 광명시 일직동 503-5번지 1층","indutype":"의류 - 정장","category":"other"}]},{"lat":"37.42127288","long":"126.8904547","imageIndex":17,"items":[{"name":"면역공방 광명점","tel":"02-6265-7588","addr":"경기도 광명시 일직동 505번지","indutype":"문화.취미 - 문화취미기타","category":"other"}]},{"lat":"37.41238656","long":"126.8790368","imageIndex":17,"items":[{"name":"명인조경","tel":"02-692-2649","addr":"경기도 광명시 일직동 365-1번지 2층","indutype":"건축자재 - 인테리어전문","category":"other"}]},{"lat":"37.42199706","long":"126.8846808","imageIndex":17,"items":[{"name":"미니부띠끄 광명점","tel":"","addr":"경기도 광명시 일직동 509-2번지 트리플타워 3층 322호","indutype":"의류 - 정장","category":"other"},{"name":"세탁을 위한 사람들(광명점)","tel":"031-111-1111","addr":"경기도 광명시 일직동 509-2번지 트리플타워 117-1호","indutype":"수리서비스 - 세탁소","category":"other"},{"name":"위브항공여행사","tel":"070-8787-3377","addr":"경기도 광명시 일직동 509-2번지 트리플타워 1807호","indutype":"여행 - 관광여행","category":"other"},{"name":"이마트24 광명트리플점","tel":"031-111-1111","addr":"경기도 광명시 일직동 509-2번지 트리플타워 1층 105호","indutype":"유통업 영리 - 편 의 점","category":"other"}]},{"lat":"37.42094069","long":"126.8917092","imageIndex":17,"items":[{"name":"바인인테리어","tel":"02-897-5552","addr":"경기도 광명시 일직동 505-13번지 1층","indutype":"건축자재 - 인테리어전문","category":"other"}]},{"lat":"37.41319139","long":"126.8818707","imageIndex":17,"items":[{"name":"변호사조아라법률사무소","tel":"02-897-9530","addr":"경기도 광명시 일직동 523-6번지 301호","indutype":"용역 서비스 - 법률회계서비스(개인)","category":"other"}]},{"lat":"37.41338004","long":"126.8813169","imageIndex":17,"items":[{"name":"블레스엘(BLESS EL)","tel":"070-8271-7742","addr":"경기도 광명시 일직동 522-6번지 102호","indutype":"의류 - 아동의류","category":"other"}]},{"lat":"37.42630153","long":"126.8915657","imageIndex":17,"items":[{"name":"성음국악사","tel":"02-896-5020","addr":"경기도 광명시 일직동 24-10번지","indutype":"레져용품 - 악기점","category":"other"}]},{"lat":"37.41407509","long":"126.8825697","imageIndex":17,"items":[{"name":"성현솔루션","tel":"02-6111-0855","addr":"경기도 광명시 일직동 520-5번지 201호","indutype":"신변잡화 - 기타잡화","category":"other"}]},{"lat":"37.42163501","long":"126.8830433","imageIndex":17,"items":[{"name":"세무그룹세담 광명역본사","tel":"031-0000-0000","addr":"경기도 광명시 일직동 510-13번지 서현빌딩 3층 301호","indutype":"용역 서비스 - 법률회계서비스(개인)","category":"other"}]},{"lat":"37.42032931","long":"126.883791","imageIndex":17,"items":[{"name":"세븐일레븐광명IDS점","tel":"031-1577-0711","addr":"경기도 광명시 일직동 511-4번지 아이디에스 1층 103호","indutype":"유통업 영리 - 편 의 점","category":"other"}]},{"lat":"37.42094017","long":"126.8911556","imageIndex":17,"items":[{"name":"스노우스톤","tel":"","addr":"경기도 광명시 일직동 505-16번지","indutype":"의류 - 정장","category":"other"}]},{"lat":"37.42569103","long":"126.8939052","imageIndex":17,"items":[{"name":"스킬트리","tel":"031-000-0000","addr":"경기도 광명시 일직동 62-2번지","indutype":"건축자재 - 인테리어전문","category":"other"}]},{"lat":"37.42052614","long":"126.8824238","imageIndex":17,"items":[{"name":"신화개발주식회사","tel":"052-939-1600","addr":"경기도 광명시 일직동 510-8번지 골드스타빌딩 4층 2호","indutype":"용역 서비스 - 기타용역서비스","category":"other"},{"name":"택스원세무회계사무소","tel":"02-897-5080","addr":"경기도 광명시 일직동 510-8번지 골드스타빌딩 3층 302호","indutype":"용역 서비스 - 법률회계서비스(개인)","category":"other"}]},{"lat":"37.41421806","long":"126.881406","imageIndex":17,"items":[{"name":"씨유광명양지마을점","tel":"080-080-3663","addr":"경기도 광명시 일직동 521번지","indutype":"유통업 영리 - 편 의 점","category":"other"}]},{"lat":"37.4209395","long":"126.8904552","imageIndex":17,"items":[{"name":"씨유광명자경마을점","tel":"02-898-0636","addr":"경기도 광명시 일직동 505-20번지","indutype":"유통업 영리 - 편 의 점","category":"other"}]},{"lat":"37.42010394","long":"126.8836784","imageIndex":17,"items":[{"name":"알티오라이디에스 주식회사","tel":"02-899-3088","addr":"경기도 광명시 일직동 511-5번지 GS steel Tower 504,505,506,507,508호","indutype":"서적문구 - 기타서적문구","category":"other"}]},{"lat":"37.41852389","long":"126.8804614","imageIndex":17,"items":[{"name":"양지농원","tel":"02-897-8179","addr":"경기도 광명시 일직동 231","indutype":"문화.취미 - 화원","category":"other"}]},{"lat":"37.41349685","long":"126.8810118","imageIndex":17,"items":[{"name":"엔에스(NS)","tel":"02-899-3402","addr":"경기도 광명시 일직동 521-6번지","indutype":"기타 - 기계공구","category":"other"}]},{"lat":"37.42163568","long":"126.8837099","imageIndex":17,"items":[{"name":"역세권하나 공인중개사사무소","tel":"02-899-4982","addr":"경기도 광명시 일직동 510-1번지 104호","indutype":"용역 서비스 - 부동산 중개·임대","category":"other"}]},{"lat":"37.412693","long":"126.8791267","imageIndex":17,"items":[{"name":"오베이비스튜디오","tel":"02-1661-4270","addr":"경기도 광명시 일직동 368번지","indutype":"광학제품 - 사진관","category":"other"}]},{"lat":"37.4119916","long":"126.8804607","imageIndex":17,"items":[{"name":"위드미골프 주식회사","tel":"02-1234-1234","addr":"경기도 광명시 일직동 372번지 2층","indutype":"레져용품 - 스포츠·레져용품","category":"other"}]},{"lat":"37.42716171","long":"126.8961513","imageIndex":17,"items":[{"name":"윤진건재","tel":"02-803-6682","addr":"경기도 광명시 일직동 64-29번지","indutype":"건축자재 - 기타건축자재","category":"other"}]},{"lat":"37.42093985","long":"126.8908167","imageIndex":17,"items":[{"name":"제이인터내셔널","tel":"000-000-0000","addr":"경기도 광명시 일직동 505-18번지 301호","indutype":"유통업 영리 - 기타유통업","category":"other"}]},{"lat":"37.4206887","long":"126.8920146","imageIndex":17,"items":[{"name":"주식회사벨로이앤지","tel":"02-899-7070","addr":"경기도 광명시 일직동 507-6번지 1층","indutype":"레져용품 - 스포츠·레져용품","category":"other"}]},{"lat":"37.41335483","long":"126.8831017","imageIndex":17,"items":[{"name":"지스페이스","tel":"070-7797-7895","addr":"경기도 광명시 일직동 380-10번지 광명역D환승주차장 2층 205호","indutype":"용역 서비스 - 사무서비스","category":"other"},{"name":"탑골프","tel":"","addr":"경기도 광명시 일직동 380-10번지 2층 광명역D환승주차장","indutype":"레져용품 - 골프용품 전문점","category":"other"}]},{"lat":"37.41421883","long":"126.8821515","imageIndex":17,"items":[{"name":"코코문구","tel":"","addr":"경기도 광명시 일직동 520-3번지 1층 101호","indutype":"서적문구 - 문구용품","category":"other"}]},{"lat":"37.42116538","long":"126.8819596","imageIndex":17,"items":[{"name":"콜렉트라이브러리","tel":"02-6711-9302","addr":"경기도 광명시 일직동 508-3번지 라까사타워 4층","indutype":"용역 서비스 - 사무서비스","category":"other"},{"name":"콜렉트라이브러리","tel":"02-6711-9335","addr":"경기도 광명시 일직동 508-3번지 라까사타워 4층","indutype":"용역 서비스 - 사무서비스","category":"other"},{"name":"콜렉트웍스","tel":"02-6711-9302","addr":"경기도 광명시 일직동 508-3번지 라까사타워","indutype":"용역 서비스 - 사무서비스","category":"other"}]},{"lat":"37.41388485","long":"126.8815646","imageIndex":17,"items":[{"name":"크린토피아코인워시 KTX광명역점","tel":"02-899-7399","addr":"경기도 광명시 일직동 522-2번지 1층","indutype":"수리서비스 - 세탁소","category":"other"}]},{"lat":"37.41890958","long":"126.8787889","imageIndex":17,"items":[{"name":"푸른정보","tel":"02-2691-2609","addr":"경기도 광명시 일직동 220-2번지","indutype":"사무통신 - 통신기기","category":"other"}]},{"lat":"37.4214637","long":"126.8829306","imageIndex":17,"items":[{"name":"한국자동차가맹정비업협동조합","tel":"02-897-2580","addr":"경기도 광명시 일직동 510-12번지 공작기계회관 5층 502호","indutype":"기타 - 기계공구","category":"other"}]},{"lat":"37.42199706","long":"126.8846808","imageIndex":13,"items":[{"name":"(주)시리아이앤티(SIRI INT Co., Ltd.)","tel":"02-897-7212","addr":"경기도 광명시 일직동 509-2번지 트리플타워 319호","indutype":"보건위생 - 화장품","category":"beauty"},{"name":"온유크라이오 광명점","tel":"","addr":"경기도 광명시 일직동 509-2번지 트리플타워 312호","indutype":"보건위생 - 피부미용실","category":"beauty"},{"name":"트리플안경","tel":"02-898-6628","addr":"경기도 광명시 일직동 509-2번지 트리플타워 110호,110-1호","indutype":"보건위생 - 안경","category":"beauty"}]},{"lat":"37.42535532","long":"126.8913976","imageIndex":13,"items":[{"name":"(주)케이텍알앤에이","tel":"02-867-3585","addr":"경기도 광명시 일직동 29-1번지","indutype":"보건위생 - 의료용품","category":"beauty"}]},{"lat":"37.42152582","long":"126.8911548","imageIndex":13,"items":[{"name":"ME용실이","tel":"","addr":"경기도 광명시 일직동 503-7번지 1층 일부호 광산","indutype":"보건위생 - 미용원","category":"beauty"}]},{"lat":"37.42116538","long":"126.8819596","imageIndex":13,"items":[{"name":"광명슈퍼맘","tel":"","addr":"경기도 광명시 일직동 508-3번지 라까사타워 5층 536호","indutype":"보건위생 - 기타대인서비스","category":"beauty"}]},{"lat":"37.42218571","long":"126.884127","imageIndex":13,"items":[{"name":"까미수피아","tel":"070-4184-0815","addr":"경기도 광명시 일직동 509-1번지 효성해링턴타워퍼스트 상가 304호","indutype":"보건위생 - 미용원","category":"beauty"},{"name":"꽃손피부바디전문점","tel":"02-000-0000","addr":"경기도 광명시 일직동 509-1번지 광명역효성해링턴타워TheFirst 3층 322호","indutype":"보건위생 - 피부미용실","category":"beauty"},{"name":"리브라인","tel":"","addr":"경기도 광명시 일직동 509-1번지 광명역 효성 해링턴타워 The First 2층 220호","indutype":"보건위생 - 피부미용실","category":"beauty"},{"name":"민꼬네일샵","tel":"","addr":"경기도 광명시 일직동 509-1번지 광명역효성해링턴타워 3층 314호","indutype":"보건위생 - 피부미용실","category":"beauty"},{"name":"봄코리아","tel":"02-898-4800","addr":"경기도 광명시 일직동 509-1번지 광명역 효성 해링턴타워 The First 203호","indutype":"보건위생 - 화장품","category":"beauty"},{"name":"새기다 아카데미","tel":"02-897-3354","addr":"경기도 광명시 일직동 509-1번지 광명역효성해링턴타워 The First 2층 209,210호","indutype":"보건위생 - 화장품","category":"beauty"},{"name":"스타일미","tel":"02-2685-8881","addr":"경기도 광명시 일직동 509-1번지 효성해링턴타워퍼스트 307호","indutype":"보건위생 - 피부미용실","category":"beauty"},{"name":"아는언니샵","tel":"02-6404-9988","addr":"경기도 광명시 일직동 509-1번지 광명역 효성 해링턴타워 The First 317호","indutype":"보건위생 - 피부미용실","category":"beauty"},{"name":"애쉬헤어디자인","tel":"02-898-0616","addr":"경기도 광명시 일직동 509-1번지 광명역효성해링턴타워더퍼스트 213호","indutype":"보건위생 - 미용원","category":"beauty"},{"name":"올가뷰티(ORGA Beauty)","tel":"031-000-0000","addr":"경기도 광명시 일직동 509-1번지 광명역효성해링턴타워TheFirst 1동 324호","indutype":"보건위생 - 화장품","category":"beauty"},{"name":"제3의청춘 주식회사","tel":"070-4082-7998","addr":"경기도 광명시 일직동 509-1번지 광명역 효성 해링턴타워 THE FIRST 321호","indutype":"보건위생 - 의료용품","category":"beauty"},{"name":"쥬니주헤어","tel":"","addr":"경기도 광명시 일직동 509-1번지 광명역 효성해링턴타워 THE FIRST 3층 315호","indutype":"보건위생 - 미용원","category":"beauty"},{"name":"힐링풋카페","tel":"02-897-4666","addr":"경기도 광명시 일직동 509-1번지 광명역 효성 해링턴타워 The First 3층 313호","indutype":"보건위생 - 피부미용실","category":"beauty"}]},{"lat":"37.41424382","long":"126.8801747","imageIndex":13,"items":[{"name":"네일블리스","tel":"02-6338-4742","addr":"경기도 광명시 일직동 519번지 광명역푸르지오 상가 B204호","indutype":"보건위생 - 피부미용실","category":"beauty"},{"name":"리조이스헤어","tel":"02-898-3927","addr":"경기도 광명시 일직동 519번지 광명역푸르지오 상가동 B-209호","indutype":"보건위생 - 미용원","category":"beauty"}]},{"lat":"37.41463728","long":"126.886127","imageIndex":13,"items":[{"name":"단발머리미용실","tel":"02-2614-0309","addr":"경기도 광명시 일직동 518번지 광명역파크자이 1층 111호","indutype":"보건위생 - 미용원","category":"beauty"},{"name":"라메종헤어","tel":"","addr":"경기도 광명시 일직동 518번지 광명역파크자이 상가동 2층 207호","indutype":"보건위생 - 미용원","category":"beauty"},{"name":"삐노샵","tel":"02-898-1515","addr":"경기도 광명시 일직동 518번지 광명역파크자이 상가동 1층 128호","indutype":"보건위생 - 피부미용실","category":"beauty"},{"name":"자이안헤어","tel":"02-2088-0809","addr":"경기도 광명시 일직동 518번지 광명역파크자이 상가동 206호","indutype":"보건위생 - 미용원","category":"beauty"}]},{"lat":"37.42032849","long":"126.8829889","imageIndex":13,"items":[{"name":"라온헤어네일","tel":"02-899-2727","addr":"경기도 광명시 일직동 510-7번지 S프라자 208호","indutype":"보건위생 - 피부미용실","category":"beauty"},{"name":"살롱빛나는","tel":"032-1111-1111","addr":"경기도 광명시 일직동 510-7번지 S프라자 2층 202호","indutype":"보건위생 - 미용원","category":"beauty"}]},{"lat":"37.42055388","long":"126.8831241","imageIndex":13,"items":[{"name":"루미에 네일","tel":"02-898-0356","addr":"경기도 광명시 일직동 510-6번지 서원빌딩 2층 206호","indutype":"보건위생 - 피부미용실","category":"beauty"},{"name":"해나헤어","tel":"070-8031-4038","addr":"경기도 광명시 일직동 510-6번지 서원빌딩 1층 101호","indutype":"보건위생 - 미용원","category":"beauty"}]},{"lat":"37.41435355","long":"126.8817333","imageIndex":13,"items":[{"name":"명헤어샵","tel":"02-899-2769","addr":"경기도 광명시 일직동 520-1번지","indutype":"보건위생 - 미용원","category":"beauty"}]},{"lat":"37.42407709","long":"126.883401","imageIndex":13,"items":[{"name":"바른안경","tel":"070-7738-5805","addr":"경기도 광명시 일직동 500번지 1층","indutype":"보건위생 - 안경","category":"beauty"},{"name":"이가자헤어비스 롯데광명아울렛점","tel":"02-6226-2800","addr":"경기도 광명시 일직동 500번지 5층","indutype":"보건위생 - 미용원","category":"beauty"}]},{"lat":"37.41702623","long":"126.8874337","imageIndex":13,"items":[{"name":"시니헤어","tel":"","addr":"경기도 광명시 일직동 517번지 광명역센트럴자이 2층 216호","indutype":"보건위생 - 미용원","category":"beauty"}]},{"lat":"37.41385745","long":"126.8812032","imageIndex":13,"items":[{"name":"쌤살롱","tel":"02-897-9908","addr":"경기도 광명시 일직동 521-3번지 1층 3호","indutype":"보건위생 - 미용원","category":"beauty"}]},{"lat":"37.4139122","long":"126.8818696","imageIndex":13,"items":[{"name":"유한하이테크","tel":"031-537-1198","addr":"경기도 광명시 일직동 522-12번지 1층","indutype":"보건위생 - 의료용품","category":"beauty"}]},{"lat":"37.41421883","long":"126.8821515","imageIndex":13,"items":[{"name":"제임스헤어","tel":"02-898-0449","addr":"경기도 광명시 일직동 520-3번지 103호","indutype":"보건위생 - 미용원","category":"beauty"}]},{"lat":"37.41719132","long":"126.8813447","imageIndex":13,"items":[{"name":"준오헤어","tel":"02-892-0605","addr":"경기도 광명시 일직동 513번지 광명역써밋플레이스 B2-79,B1-03~06호","indutype":"보건위생 - 미용원","category":"beauty"}]},{"lat":"37.41846845","long":"126.8791285","imageIndex":13,"items":[{"name":"화경옵틱스","tel":"02-2614-5441","addr":"경기도 광명시 일직동 223-27번지 1층 2,3,4호","indutype":"보건위생 - 안경","category":"beauty"}]},{"lat":"37.42032931","long":"126.883791","imageIndex":0,"items":[{"name":"(주)아이디에스타워","tel":"02-6430-4567","addr":"경기도 광명시 일직동 511-4번지 아이디에스타워 2층 207호","indutype":"자동차정비 유지 - 주차장","category":"car"}]},{"lat":"37.42055467","long":"126.8839036","imageIndex":0,"items":[{"name":"(주)케이스퀘어","tel":"02-875-0700","addr":"경기도 광명시 일직동 511-3번지 208호","indutype":"자동차정비 유지 - 주차장","category":"car"}]},{"lat":"37.41424382","long":"126.8801747","imageIndex":0,"items":[{"name":"광명역 푸르지오 오피스텔 관리단","tel":"02-898-0640","addr":"경기도 광명시 일직동 519번지 광명푸르지오","indutype":"자동차정비 유지 - 주차장","category":"car"}]},{"lat":"37.42094084","long":"126.8918673","imageIndex":0,"items":[{"name":"글로벌","tel":"02-898-9992","addr":"경기도 광명시 일직동 505-12번지 1층","indutype":"자동차정비 유지 - 자동차부품","category":"car"}]},{"lat":"37.42094017","long":"126.8911556","imageIndex":0,"items":[{"name":"디테일리스트광명점","tel":"02-898-7550","addr":"경기도 광명시 일직동 505-16번지 다솜가 1층 101호","indutype":"자동차정비 유지 - 세차장","category":"car"}]},{"lat":"37.42152529","long":"126.8905899","imageIndex":0,"items":[{"name":"맨케이브광명점","tel":"02-1670-8310","addr":"경기도 광명시 일직동 503-4번지 1층","indutype":"자동차정비 유지 - 세차장","category":"car"}]},{"lat":"37.420941","long":"126.8920368","imageIndex":0,"items":[{"name":"모모튠","tel":"070-8227-7248","addr":"경기도 광명시 일직동 505-11번지 1층","indutype":"자동차정비 유지 - 자동차부품","category":"car"}]},{"lat":"37.42032849","long":"126.8829889","imageIndex":0,"items":[{"name":"바이크앤라이더","tel":"","addr":"경기도 광명시 일직동 510-7번지 S프라자 703호","indutype":"자동차판매 - 이륜차판매","category":"car"},{"name":"바이크앤라이더","tel":"070-1111-1111","addr":"경기도 광명시 일직동 510-7번지 S프라자 703호","indutype":"자동차판매 - 이륜차판매","category":"car"}]},{"lat":"37.42094053","long":"126.8915397","imageIndex":0,"items":[{"name":"비-게러지(B-GARAGE)","tel":"","addr":"경기도 광명시 일직동 505-14번지 대형 101호","indutype":"자동차정비 유지 - 세차장","category":"car"}]},{"lat":"37.42152582","long":"126.8911548","imageIndex":0,"items":[{"name":"오일파는 남자","tel":"02-897-7751","addr":"경기도 광명시 일직동 503-7번지","indutype":"자동차정비 유지 - 윤활유 전문 판매","category":"car"}]},{"lat":"37.42785266","long":"126.893066","imageIndex":0,"items":[{"name":"우주상사","tel":"02-805-3228","addr":"경기도 광명시 일직동 9-12번지 창고","indutype":"자동차정비 유지 - 자동차부품","category":"car"}]},{"lat":"37.42218571","long":"126.884127","imageIndex":0,"items":[{"name":"유준베스트","tel":"070-4192-8191","addr":"경기도 광명시 일직동 509-1번지 광명역효성해링턴타워더베스트 1동 1624호","indutype":"자동차정비 유지 - 주차장","category":"car"},{"name":"효성해링턴타워오피스텔","tel":"02-899-3993","addr":"경기도 광명시 일직동 509-1번지 3층 관리사무실","indutype":"자동차정비 유지 - 주차장","category":"car"}]},{"lat":"37.42091526","long":"126.8840951","imageIndex":0,"items":[{"name":"일등주차장","tel":"031-1234-5678","addr":"경기도 광명시 일직동 511-2번지","indutype":"자동차정비 유지 - 주차장","category":"car"},{"name":"행운주차장","tel":"02-1111-1111","addr":"경기도 광명시 일직동 511-2번지","indutype":"자동차정비 유지 - 주차장","category":"car"}]},{"lat":"37.42407709","long":"126.883401","imageIndex":0,"items":[{"name":"주식회사 명인C&W 광명점","tel":"02-6226-2051","addr":"경기도 광명시 일직동 500번지 롯데쇼핑 아울렛 광명점 지하1층","indutype":"자동차정비 유지 - 세차장","category":"car"}]},{"lat":"37.42138407","long":"126.8843768","imageIndex":0,"items":[{"name":"주식회사 지웰에스테이트","tel":"02-899-2332","addr":"경기도 광명시 일직동 511번지 지웰에스테이트 14호","indutype":"자동차정비 유지 - 주차장","category":"car"}]},{"lat":"37.41311056","long":"126.8821194","imageIndex":0,"items":[{"name":"카크로스 (car cross)","tel":"02-899-1590","addr":"경기도 광명시 일직동 523-7번지 미모빌딩 1층","indutype":"자동차정비 유지 - 세차장","category":"car"}]},{"lat":"37.42068848","long":"126.8917886","imageIndex":0,"items":[{"name":"카프레소(CARPRESSO)","tel":"02-804-5000","addr":"경기도 광명시 일직동 507-5번지 1층","indutype":"자동차정비 유지 - 윤활유 전문 판매","category":"car"}]},{"lat":"37.4207425","long":"126.8825364","imageIndex":4,"items":[{"name":"RARE PUB","tel":"02-899-7709","addr":"경기도 광명시 일직동 510-9번지 SH&01프라자 303호","indutype":"일반휴게음식 - 주점","category":"restaurant"},{"name":"가야밀면","tel":"02-898-4369","addr":"경기도 광명시 일직동 510-9번지 SH 2층 203호 01프라자","indutype":"일반휴게음식 - 일반한식","category":"restaurant"},{"name":"이바비오","tel":"02-899-2825","addr":"경기도 광명시 일직동 510-9번지 에스에이치프라자 2층 204호","indutype":"일반휴게음식 - 일반한식","category":"restaurant"},{"name":"정다믄김밥천국광명역점","tel":"02-899-5946","addr":"경기도 광명시 일직동 510-9번지 SH&01프라자 1층 104호","indutype":"일반휴게음식 - 스넥","category":"restaurant"},{"name":"크래프트한스 광명역점","tel":"","addr":"경기도 광명시 일직동 510-9번지 SH&01프라자 1층 101호","indutype":"일반휴게음식 - 스넥","category":"restaurant"},{"name":"토프레소","tel":"070-7862-1697","addr":"경기도 광명시 일직동 510-9번지 SH&01프라자 1층","indutype":"일반휴게음식 - 서양음식","category":"restaurant"}]},{"lat":"37.42218571","long":"126.884127","imageIndex":4,"items":[{"name":"bhc광명역점","tel":"02-899-2050","addr":"경기도 광명시 일직동 509-1번지 광명역 효성 해링턴타워 The First 1층 125호","indutype":"일반휴게음식 - 스넥","category":"restaurant"},{"name":"구뚜르 (God tur)","tel":"070-8842-8837","addr":"경기도 광명시 일직동 509-1번지 광명역 효성 해링턴타워 The First 2층 215호","indutype":"일반휴게음식 - 서양음식","category":"restaurant"},{"name":"노랑통닭","tel":"02-6080-1166","addr":"경기도 광명시 일직동 509-1번지 광명역 효성 해링턴타워 The First 1층 108호","indutype":"일반휴게음식 - 스넥","category":"restaurant"},{"name":"돈통마늘보쌈","tel":"02-897-5382","addr":"경기도 광명시 일직동 509-1번지 광명역 효성 해링턴타워 The First 233호","indutype":"일반휴게음식 - 일반한식","category":"restaurant"},{"name":"모꼬지김밥","tel":"","addr":"경기도 광명시 일직동 509-1번지 광명역 효성 해링턴타워 The First 1층 124호","indutype":"일반휴게음식 - 일반한식","category":"restaurant"},{"name":"브로버거","tel":"02-898-8663","addr":"경기도 광명시 일직동 509-1번지 효성해링턴타워 The First 1층 102호","indutype":"일반휴게음식 - 서양음식","category":"restaurant"},{"name":"수유리 우동집 광명이케아점","tel":"02-899-0348","addr":"경기도 광명시 일직동 509-1번지 광명역 효성 해링턴타워 The First 1층 110호","indutype":"일반휴게음식 - 일반한식","category":"restaurant"},{"name":"스시이치고산","tel":"02-897-0153","addr":"경기도 광명시 일직동 509-1번지 211호 212호","indutype":"일반휴게음식 - 일식·회집","category":"restaurant"},{"name":"우리가족","tel":"02-899-4998","addr":"경기도 광명시 일직동 509-1번지 광명역 효성 해링턴타워 The First 1층 115호","indutype":"일반휴게음식 - 일반한식","category":"restaurant"},{"name":"자매식당","tel":"02-747-8874","addr":"경기도 광명시 일직동 509-1번지 119호,120호,126호","indutype":"일반휴게음식 - 일반한식","category":"restaurant"},{"name":"카페칠하다 광명이케아점","tel":"02-6104-7503","addr":"경기도 광명시 일직동 509-1번지 광명역효성해링턴타워TheFirst 1동 111호","indutype":"일반휴게음식 - 서양음식","category":"restaurant"},{"name":"하남돼지집 광명역점","tel":"02-899-5448","addr":"경기도 광명시 일직동 509-1번지 효성해링턴타워더퍼스트 104,105호","indutype":"일반휴게음식 - 일반한식","category":"restaurant"},{"name":"훠라라훠궈","tel":"02-898-9188","addr":"경기도 광명시 일직동 509-1번지 광명역효성해링턴타워TheFirst 2층 201호","indutype":"일반휴게음식 - 중국식","category":"restaurant"}]},{"lat":"37.42055467","long":"126.8839036","imageIndex":4,"items":[{"name":"가온김밥","tel":"02-899-7977","addr":"경기도 광명시 일직동 511-3번지 케이스퀘어 102동 107호","indutype":"일반휴게음식 - 일반한식","category":"restaurant"},{"name":"메이제이 케이크(May J Cake)","tel":"","addr":"경기도 광명시 일직동 511-3번지 지층 105호","indutype":"일반휴게음식 - 서양음식","category":"restaurant"},{"name":"미담우시","tel":"02-2679-6605","addr":"경기도 광명시 일직동 511-3번지 114호","indutype":"일반휴게음식 - 일식·회집","category":"restaurant"}]},{"lat":"37.41719132","long":"126.8813447","imageIndex":4,"items":[{"name":"계열사/아브뉴프랑(주)광명지점","tel":"02-6177-0618","addr":"경기도 광명시 일직동 513번지 광명역써밋플레이스 1층 B2-57호~59호","indutype":"일반휴게음식 - 일반한식","category":"restaurant"},{"name":"고반식당/주식회사 고반홀딩스","tel":"02-898-5861","addr":"경기도 광명시 일직동 513번지 광명아브뉴프랑 B2동 61-62호","indutype":"일반휴게음식 - 일반한식","category":"restaurant"},{"name":"남기남부대찌개","tel":"02-898-9925","addr":"경기도 광명시 일직동 513번지 광명역써밋플레이스 B1층 15,16호","indutype":"일반휴게음식 - 일반한식","category":"restaurant"},{"name":"동남집","tel":"02-898-8835","addr":"경기도 광명시 일직동 513번지 광명역써밋플레이스 B1-17,B1-18호","indutype":"일반휴게음식 - 일반한식","category":"restaurant"},{"name":"랩포키즈카페","tel":"02-898-2395","addr":"경기도 광명시 일직동 513번지 광명역써밋플레이스 지하2층 89-1호","indutype":"일반휴게음식 - 서양음식","category":"restaurant"},{"name":"롱브레드","tel":"","addr":"경기도 광명시 일직동 513번지 광명역써밋플레이스 B2층 45-2, 46, 47, 48","indutype":"일반휴게음식 - 서양음식","category":"restaurant"},{"name":"미카도스시 아비뉴프랑점","tel":"070-1111-1111","addr":"경기도 광명시 일직동 513번지 지하2층 B2-09, 10, 19, 20호","indutype":"일반휴게음식 - 일식·회집","category":"restaurant"},{"name":"베트남노상식당","tel":"02-898-2501","addr":"경기도 광명시 일직동 513번지 광명역 써밋체플레이스 B1층 54,55호","indutype":"일반휴게음식 - 서양음식","category":"restaurant"},{"name":"비밀 더 비스트로 광명점","tel":"02-899-4670","addr":"경기도 광명시 일직동 513번지 광명역써밋플레이스 B2층76,77호","indutype":"일반휴게음식 - 서양음식","category":"restaurant"},{"name":"삼백그람","tel":"02-899-6447","addr":"경기도 광명시 일직동 513번지 광명역써밋플레이스 B1층 9,10호","indutype":"일반휴게음식 - 일반한식","category":"restaurant"},{"name":"삼백돈돈가츠","tel":"02-6013-6443","addr":"경기도 광명시 일직동 513번지 광명역써밋플레이스 B1층 7,8호","indutype":"일반휴게음식 - 일반한식","category":"restaurant"},{"name":"소년의행성","tel":"02-898-8908","addr":"경기도 광명시 일직동 513번지 광명역써밋플레이스 B2-2호","indutype":"일반휴게음식 - 서양음식","category":"restaurant"},{"name":"송도갈매기(주)","tel":"02-898-1123","addr":"경기도 광명시 일직동 513번지 광명역써밋플레이스 지하1층 39-50호","indutype":"일반휴게음식 - 일반한식","category":"restaurant"},{"name":"신의주찹쌀순대와쭈꾸미","tel":"02-897-3232","addr":"경기도 광명시 일직동 513번지 광명역써밋플레이스 판매시설동 B2층 60호","indutype":"일반휴게음식 - 일반한식","category":"restaurant"},{"name":"연안식당","tel":"02-899-0218","addr":"경기도 광명시 일직동 513번지 광명역써밋플레이스 지하2층 비2-11호,비2-12호,비2-21호,비2-22호","indutype":"일반휴게음식 - 일반한식","category":"restaurant"},{"name":"온돌","tel":"02-898-8712","addr":"경기도 광명시 일직동 513번지 광명역써밋플레이스 지하1층11-12호","indutype":"일반휴게음식 - 일반한식","category":"restaurant"},{"name":"직화한상 광명아브뉴프랑점","tel":"02-897-2246","addr":"경기도 광명시 일직동 513번지 광명역써밋플레이스 광명아브뉴프랑 B2-66,67","indutype":"일반휴게음식 - 일반한식","category":"restaurant"},{"name":"파주닭국수 광명역점","tel":"02-898-4318","addr":"경기도 광명시 일직동 513번지 광명역써밋플레이스 B1 28,29호","indutype":"일반휴게음식 - 일반한식","category":"restaurant"},{"name":"한양중식","tel":"02-895-1100","addr":"경기도 광명시 일직동 513번지 광명역써밋플레이스 지하1층 13,14호","indutype":"일반휴게음식 - 중국식","category":"restaurant"},{"name":"히노아지 광명 아브뉴프랑점","tel":"070-8621-9815","addr":"경기도 광명시 일직동 513번지 광명역써밋플레이스 B1층 19호 20호","indutype":"일반휴게음식 - 일식·회집","category":"restaurant"}]},{"lat":"37.42032849","long":"126.8829889","imageIndex":4,"items":[{"name":"고부고부","tel":"06-465-5955","addr":"경기도 광명시 일직동 510-7번지 S프라자 204호","indutype":"일반휴게음식 - 일식·회집","category":"restaurant"},{"name":"짬뽕가","tel":"02-898-3004","addr":"경기도 광명시 일직동 510-7번지 S프라자 2층 203호","indutype":"일반휴게음식 - 중국식","category":"restaurant"}]},{"lat":"37.42060548","long":"126.8897666","imageIndex":4,"items":[{"name":"광명교동짬뽕","tel":"02-899-1566","addr":"경기도 광명시 일직동 506번지 산타마리아 A동 106,107호","indutype":"일반휴게음식 - 중국식","category":"restaurant"},{"name":"옥탑방삼겹살","tel":"02-899-3309","addr":"경기도 광명시 일직동 506번지 A동 101호","indutype":"일반휴게음식 - 일반한식","category":"restaurant"},{"name":"유화겸(광명점)","tel":"02-897-5224","addr":"경기도 광명시 일직동 506번지 A동 1층 108,109호","indutype":"일반휴게음식 - 일반한식","category":"restaurant"},{"name":"장어사냥꾼 광명점","tel":"02-897-5453","addr":"경기도 광명시 일직동 506번지 A동 2층 201호","indutype":"일반휴게음식 - 일반한식","category":"restaurant"}]},{"lat":"37.42138407","long":"126.8843768","imageIndex":4,"items":[{"name":"광명본갈비","tel":"02-898-7807","addr":"경기도 광명시 일직동 511번지 지웰에스테이트 2층 206호","indutype":"일반휴게음식 - 일반한식","category":"restaurant"},{"name":"그로토","tel":"070-8888-1240","addr":"경기도 광명시 일직동 511번지 지웰에스테이트 상가 1층 113호","indutype":"일반휴게음식 - 주점","category":"restaurant"},{"name":"네네치킨","tel":"02-898-9242","addr":"경기도 광명시 일직동 511번지 지웰에스테이트 1층 101호","indutype":"일반휴게음식 - 스넥","category":"restaurant"},{"name":"네네치킨 앤더 일직호프(광명케이티엑스역","tel":"02-898-9242","addr":"경기도 광명시 일직동 511번지 지웰에스테이트 2층 201호","indutype":"일반휴게음식 - 스넥","category":"restaurant"},{"name":"송탄구가네부대찌개","tel":"02-897-3771","addr":"경기도 광명시 일직동 511번지 지웰에스테이트 2층 205호","indutype":"일반휴게음식 - 일반한식","category":"restaurant"},{"name":"응급실국물떡볶이 소하2동점","tel":"","addr":"경기도 광명시 일직동 511번지 지웰에스테이트 110호","indutype":"일반휴게음식 - 스넥","category":"restaurant"},{"name":"카페덕안","tel":"031-000-0000","addr":"경기도 광명시 일직동 511번지 지웰에스테이트 1층 114호","indutype":"일반휴게음식 - 서양음식","category":"restaurant"},{"name":"택이네조개전골","tel":"02-897-7272","addr":"경기도 광명시 일직동 511번지 광명역지웰에스테이트 2층 204호","indutype":"일반휴게음식 - 일반한식","category":"restaurant"}]},{"lat":"37.42199706","long":"126.8846808","imageIndex":4,"items":[{"name":"광명한식부페","tel":"02-899-7028","addr":"경기도 광명시 일직동 509-2번지 트리플타워 2층 214,215,216,217,218호","indutype":"일반휴게음식 - 일반한식","category":"restaurant"},{"name":"더착한커피플러스케이티엑스광명점","tel":"","addr":"경기도 광명시 일직동 509-2번지 트리플타워 1층 104호","indutype":"일반휴게음식 - 서양음식","category":"restaurant"},{"name":"쿠잉","tel":"","addr":"경기도 광명시 일직동 509-2번지 트리플타워 1층 118호","indutype":"일반휴게음식 - 서양음식","category":"restaurant"}]},{"lat":"37.42010394","long":"126.8836784","imageIndex":4,"items":[{"name":"교촌치킨 광명역점","tel":"02-897-1991","addr":"경기도 광명시 일직동 511-5번지 GS steel Tower 1층 102,103호","indutype":"일반휴게음식 - 스넥","category":"restaurant"},{"name":"팬브레드 광명역점","tel":"","addr":"경기도 광명시 일직동 511-5번지 페어필드바이메리어트서울광명 207호","indutype":"일반휴게음식 - 서양음식","category":"restaurant"}]},{"lat":"37.41463728","long":"126.886127","imageIndex":4,"items":[{"name":"국수나무 광명역사점","tel":"02-897-0122","addr":"경기도 광명시 일직동 518번지 광명역파크자이 상가동 132호","indutype":"일반휴게음식 - 스넥","category":"restaurant"},{"name":"명인만두 광명역파크자이점","tel":"02-898-3233","addr":"경기도 광명시 일직동 518번지 광명역파크자이 상가동 134호","indutype":"일반휴게음식 - 스넥","category":"restaurant"},{"name":"본속초닭강정","tel":"02-899-2020","addr":"경기도 광명시 일직동 518번지 광명역파크자이 상가동 201호","indutype":"일반휴게음식 - 스넥","category":"restaurant"},{"name":"본속초닭강정","tel":"02-899-2020","addr":"경기도 광명시 일직동 518번지 광명역파크자이 상가동 201호","indutype":"일반휴게음식 - 스넥","category":"restaurant"},{"name":"요거프레소광명역점","tel":"02-898-9495","addr":"경기도 광명시 일직동 518번지 광명역파크자이 1층 105호","indutype":"일반휴게음식 - 서양음식","category":"restaurant"},{"name":"최군","tel":"070-7648-0011","addr":"경기도 광명시 일직동 518번지 광명역파크자이 상가동 129호","indutype":"일반휴게음식 - 일반한식","category":"restaurant"},{"name":"카페오리엔트(CAFE ORIENT)","tel":"02-899-3800","addr":"경기도 광명시 일직동 518번지 광명역파크자이 상가동 204호","indutype":"일반휴게음식 - 서양음식","category":"restaurant"},{"name":"킹콩떡볶이파크자이점","tel":"","addr":"경기도 광명시 일직동 518번지 광명역파크자이 1층 118호","indutype":"일반휴게음식 - 스넥","category":"restaurant"}]},{"lat":"37.4199652","long":"126.8891801","imageIndex":4,"items":[{"name":"글로리커피","tel":"","addr":"경기도 광명시 일직동 515번지 광명국제무역센터 C동 2층 204호","indutype":"일반휴게음식 - 서양음식","category":"restaurant"},{"name":"더벤티 광명무역센터점","tel":"031-000-0000","addr":"경기도 광명시 일직동 515번지 광명무역센터 B동 121호","indutype":"일반휴게음식 - 서양음식","category":"restaurant"},{"name":"북창동순두부케이티엑스광명점","tel":"","addr":"경기도 광명시 일직동 515번지","indutype":"일반휴게음식 - 일반한식","category":"restaurant"}]},{"lat":"37.41444345","long":"126.8815411","imageIndex":4,"items":[{"name":"기네스펍","tel":"02-898-5203","addr":"경기도 광명시 일직동 520번지 양지빌딩 1층 102호","indutype":"일반휴게음식 - 일반한식","category":"restaurant"}]},{"lat":"37.41388574","long":"126.8824344","imageIndex":4,"items":[{"name":"김명자낙지마당","tel":"02-897-8007","addr":"경기도 광명시 일직동 523-13번지 1층","indutype":"일반휴게음식 - 일반한식","category":"restaurant"}]},{"lat":"37.42060577","long":"126.8900716","imageIndex":4,"items":[{"name":"놀부광명역점","tel":"02-898-0048","addr":"경기도 광명시 일직동 506-1번지 산타마리아 2층","indutype":"일반휴게음식 - 일반한식","category":"restaurant"},{"name":"투썸광명스마트타운","tel":"02-899-0020","addr":"경기도 광명시 일직동 506-1번지 1층 104,105,106,107,108호","indutype":"일반휴게음식 - 서양음식","category":"restaurant"}]},{"lat":"37.42032931","long":"126.883791","imageIndex":4,"items":[{"name":"다담한식뷔페","tel":"","addr":"경기도 광명시 일직동 511-4번지 아이디에스타워 201호","indutype":"일반휴게음식 - 일반한식","category":"restaurant"},{"name":"청년피자 광명석수점","tel":"070-4922-1261","addr":"경기도 광명시 일직동 511-4번지 아이디에스타워 205호","indutype":"일반휴게음식 - 서양음식","category":"restaurant"}]},{"lat":"37.42071601","long":"126.8923195","imageIndex":4,"items":[{"name":"더착한커피광면우림점","tel":"","addr":"경기도 광명시 일직동 503-17번지 우림 1층 101호","indutype":"일반휴게음식 - 서양음식","category":"restaurant"}]},{"lat":"37.41424382","long":"126.8801747","imageIndex":4,"items":[{"name":"더치앤빈","tel":"02-6012-8719","addr":"경기도 광명시 일직동 519번지 광명역푸르지오 상가동 지하3층 314호","indutype":"일반휴게음식 - 서양음식","category":"restaurant"}]},{"lat":"37.41435355","long":"126.8817333","imageIndex":4,"items":[{"name":"더호프","tel":"02-897-6099","addr":"경기도 광명시 일직동 520-1번지 진광빌딩 102호","indutype":"일반휴게음식 - 일반한식","category":"restaurant"},{"name":"커피홀케이티엑스광명역점","tel":"02-897-4010","addr":"경기도 광명시 일직동 520-1번지 1층","indutype":"일반휴게음식 - 서양음식","category":"restaurant"}]},{"lat":"37.42093892","long":"126.8898452","imageIndex":4,"items":[{"name":"데일리로스트커피","tel":"070-8836-0630","addr":"경기도 광명시 일직동 504-6번지 1층","indutype":"일반휴게음식 - 서양음식","category":"restaurant"}]},{"lat":"37.41344057","long":"126.878877","imageIndex":4,"items":[{"name":"돈까스클럽광명점2","tel":"02-898-0117","addr":"경기도 광명시 일직동 364번지","indutype":"일반휴게음식 - 일반한식","category":"restaurant"}]},{"lat":"37.41319139","long":"126.8818707","imageIndex":4,"items":[{"name":"따뜻한밥상","tel":"02-895-0425","addr":"경기도 광명시 일직동 523-6번지 103호","indutype":"일반휴게음식 - 일반한식","category":"restaurant"}]},{"lat":"37.42116538","long":"126.8819596","imageIndex":4,"items":[{"name":"라까사키친/주식회사 라까사웍스","tel":"02-6711-9303","addr":"경기도 광명시 일직동 508-3번지 라까사타워 7층","indutype":"일반휴게음식 - 서양음식","category":"restaurant"}]},{"lat":"37.4206887","long":"126.8920146","imageIndex":4,"items":[{"name":"모꼬지","tel":"02-898-7748","addr":"경기도 광명시 일직동 507-6번지 자경빌 1층","indutype":"일반휴게음식 - 일반한식","category":"restaurant"},{"name":"세기코퍼레이션","tel":"070-4140-2227","addr":"경기도 광명시 일직동 507-6번지 자경빌 1층","indutype":"일반휴게음식 - 서양음식","category":"restaurant"}]},{"lat":"37.42083184","long":"126.8817907","imageIndex":4,"items":[{"name":"미오커피앤베이커리","tel":"031-000-0000","addr":"경기도 광명시 일직동 508-4번지 클래시아 1층 115,116호","indutype":"일반휴게음식 - 서양음식","category":"restaurant"}]},{"lat":"37.4209679","long":"126.8826829","imageIndex":4,"items":[{"name":"본향","tel":"031-1234-5678","addr":"경기도 광명시 일직동 510-10번지 동일센타시아 106호,107호","indutype":"일반휴게음식 - 일반한식","category":"restaurant"},{"name":"잇츠히얼","tel":"","addr":"경기도 광명시 일직동 510-10번지 1층 102호","indutype":"일반휴게음식 - 서양음식","category":"restaurant"},{"name":"처갓집양념치킨광명역점","tel":"031-338-9666","addr":"경기도 광명시 일직동 510-10번지 108호","indutype":"일반휴게음식 - 스넥","category":"restaurant"},{"name":"홍짜장 광명KTX","tel":"02-898-1588","addr":"경기도 광명시 일직동 510-10번지 203호","indutype":"일반휴게음식 - 중국식","category":"restaurant"}]},{"lat":"37.42163501","long":"126.8830433","imageIndex":4,"items":[{"name":"비비큐 광명역점","tel":"02-897-9285","addr":"경기도 광명시 일직동 510-13번지 서현빌딩 1층 4호","indutype":"일반휴게음식 - 스넥","category":"restaurant"},{"name":"서현두루치기","tel":"02-893-3200","addr":"경기도 광명시 일직동 510-13번지 1층 102호","indutype":"일반휴게음식 - 일반한식","category":"restaurant"},{"name":"옥이네 메밀막국수","tel":"02-898-5004","addr":"경기도 광명시 일직동 510-13번지 서현빌딩 1층 104-2","indutype":"일반휴게음식 - 일반한식","category":"restaurant"},{"name":"우서바 코다리","tel":"02-899-5772","addr":"경기도 광명시 일직동 510-13번지 2층","indutype":"일반휴게음식 - 일반한식","category":"restaurant"},{"name":"커피홀","tel":"02-896-2620","addr":"경기도 광명시 일직동 510-13번지 서현빌딩 105호","indutype":"일반휴게음식 - 서양음식","category":"restaurant"}]},{"lat":"37.41244121","long":"126.8796015","imageIndex":4,"items":[{"name":"산마루쌈밥","tel":"02-899-7325","addr":"경기도 광명시 일직동 369-4번지","indutype":"일반휴게음식 - 일반한식","category":"restaurant"}]},{"lat":"37.41263045","long":"126.8796238","imageIndex":4,"items":[{"name":"소나무","tel":"02-899-6757","addr":"경기도 광명시 일직동 369-1번지","indutype":"일반휴게음식 - 일반한식","category":"restaurant"}]},{"lat":"37.42093985","long":"126.8908167","imageIndex":4,"items":[{"name":"소문난삼부자순대국","tel":"02-899-3959","addr":"경기도 광명시 일직동 505-18번지 1층","indutype":"일반휴게음식 - 일반한식","category":"restaurant"}]},{"lat":"37.42163568","long":"126.8837099","imageIndex":4,"items":[{"name":"숙달돼지이케아광명점","tel":"02-896-8200","addr":"경기도 광명시 일직동 510-1번지 1층","indutype":"일반휴게음식 - 일반한식","category":"restaurant"},{"name":"전주콩나물","tel":"02-899-4499","addr":"경기도 광명시 일직동 510-1번지 105호","indutype":"일반휴게음식 - 일반한식","category":"restaurant"}]},{"lat":"37.4132992","long":"126.8815656","imageIndex":4,"items":[{"name":"시골돼지두루치기","tel":"02-2688-8270","addr":"경기도 광명시 일직동 522-7번지 1층","indutype":"일반휴게음식 - 일반한식","category":"restaurant"}]},{"lat":"37.42052614","long":"126.8824238","imageIndex":4,"items":[{"name":"신단설렁탕","tel":"02-897-2111","addr":"경기도 광명시 일직동 510-8번지 골드스타빌딩 2층 203호","indutype":"일반휴게음식 - 일반한식","category":"restaurant"},{"name":"차오판","tel":"070-4184-1122","addr":"경기도 광명시 일직동 510-8번지 102,103호","indutype":"일반휴게음식 - 중국식","category":"restaurant"},{"name":"참치가게","tel":"02-897-8780","addr":"경기도 광명시 일직동 510-8번지 골드스타빌딩 105호","indutype":"일반휴게음식 - 일식·회집","category":"restaurant"},{"name":"텀브커피광명로데오점","tel":"02-898-5565","addr":"경기도 광명시 일직동 510-8번지 골드스타빌딩 101호","indutype":"일반휴게음식 - 서양음식","category":"restaurant"},{"name":"투탑","tel":"02-899-5979","addr":"경기도 광명시 일직동 510-8번지 골드스타 2층 206호","indutype":"일반휴게음식 - 일반한식","category":"restaurant"}]},{"lat":"37.42055388","long":"126.8831241","imageIndex":4,"items":[{"name":"신의주찹쌀순대","tel":"02-898-9409","addr":"경기도 광명시 일직동 510-6번지 세원빌딩 1층 107호 ,110,111호","indutype":"일반휴게음식 - 일반한식","category":"restaurant"}]},{"lat":"37.42093967","long":"126.8906247","imageIndex":4,"items":[{"name":"아바이마을명태조림","tel":"02-898-8541","addr":"경기도 광명시 일직동 505-19번지","indutype":"일반휴게음식 - 일반한식","category":"restaurant"}]},{"lat":"37.4208872","long":"126.8923193","imageIndex":4,"items":[{"name":"얼큰이찌개마을광명일직점","tel":"070-4307-7002","addr":"경기도 광명시 일직동 503-16번지 101호","indutype":"일반휴게음식 - 일반한식","category":"restaurant"}]},{"lat":"37.42407709","long":"126.883401","imageIndex":4,"items":[{"name":"엔제리너스롯데아울렛광명점","tel":"02-6226-2729","addr":"경기도 광명시 일직동 500번지 5층 롯데아울렛광명점","indutype":"일반휴게음식 - 서양음식","category":"restaurant"}]},{"lat":"37.42093876","long":"126.8896757","imageIndex":4,"items":[{"name":"오가네돼지국밥","tel":"02-898-7870","addr":"경기도 광명시 일직동 504-7번지 1층","indutype":"일반휴게음식 - 일반한식","category":"restaurant"}]},{"lat":"37.41374152","long":"126.8823782","imageIndex":4,"items":[{"name":"와봉한우곰탕","tel":"02-839-7772","addr":"경기도 광명시 일직동 523-12번지 해피하우스 1층","indutype":"일반휴게음식 - 일반한식","category":"restaurant"}]},{"lat":"37.42068802","long":"126.8912916","imageIndex":4,"items":[{"name":"요거프레소 광명일직점","tel":"02-899-5428","addr":"경기도 광명시 일직동 507-3번지 주호빌딩 상가101","indutype":"일반휴게음식 - 서양음식","category":"restaurant"}]},{"lat":"37.42635842","long":"126.8851824","imageIndex":4,"items":[{"name":"용천원두막","tel":"02-897-5897","addr":"경기도 광명시 일직동 104-1","indutype":"일반휴게음식 - 일반한식","category":"restaurant"}]},{"lat":"37.4120547","long":"126.8804832","imageIndex":4,"items":[{"name":"장작난로 삼겹살 앤 오리","tel":"02-898-1516","addr":"경기도 광명시 일직동 372번지 ,1,2층","indutype":"일반휴게음식 - 일반한식","category":"restaurant"}]},{"lat":"37.41302651","long":"126.8792617","imageIndex":4,"items":[{"name":"참소랑","tel":"02-898-7995","addr":"경기도 광명시 일직동 366-4번지 1층","indutype":"일반휴게음식 - 일반한식","category":"restaurant"}]},{"lat":"37.42152495","long":"126.8902397","imageIndex":4,"items":[{"name":"처비핑거스","tel":"02-899-6714","addr":"경기도 광명시 일직동 503-2번지 1층 101호","indutype":"일반휴게음식 - 서양음식","category":"restaurant"}]},{"lat":"37.41702623","long":"126.8874337","imageIndex":4,"items":[{"name":"카페오소하","tel":"031-000-0000","addr":"경기도 광명시 일직동 517번지 근린생활시설동 2층 206호","indutype":"일반휴게음식 - 서양음식","category":"restaurant"},{"name":"파스쿠찌 광명역 자이스트릿점","tel":"","addr":"경기도 광명시 일직동 517번지 광명역센트럴자이 근린생활시설동 1층 101,102,103호","indutype":"일반휴게음식 - 서양음식","category":"restaurant"},{"name":"펀비어킹센트럴자이점","tel":"031-0000-0000","addr":"경기도 광명시 일직동 517번지 광명역센트럴자이 2층 204호","indutype":"일반휴게음식 - 일반한식","category":"restaurant"},{"name":"하이꼬꼬광명역점","tel":"","addr":"경기도 광명시 일직동 517번지 광명역센트럴자이 1층 104,105호","indutype":"일반휴게음식 - 스넥","category":"restaurant"},{"name":"훌랄라참숯바베큐","tel":"02-899-5533","addr":"경기도 광명시 일직동 517번지 광명역센트럴자이 2층 215호","indutype":"일반휴게음식 - 스넥","category":"restaurant"}]},{"lat":"37.4132174","long":"126.8808767","imageIndex":4,"items":[{"name":"카페제이","tel":"02-1899-3272","addr":"경기도 광명시 일직동 524번지 1층 102호","indutype":"일반휴게음식 - 서양음식","category":"restaurant"}]},{"lat":"37.41413729","long":"126.8817111","imageIndex":4,"items":[{"name":"펜타커피로스터스","tel":"031-0000-0000","addr":"경기도 광명시 일직동 522번지 1층","indutype":"일반휴게음식 - 서양음식","category":"restaurant"}]},{"lat":"37.42152582","long":"126.8911548","imageIndex":4,"items":[{"name":"하루세끼","tel":"02-898-5254","addr":"경기도 광명시 일직동 503-7번지","indutype":"일반휴게음식 - 일반한식","category":"restaurant"}]},{"lat":"37.41832457","long":"126.8793998","imageIndex":4,"items":[{"name":"할머니밥상","tel":"02-898-8283","addr":"경기도 광명시 일직동 226번지","indutype":"일반휴게음식 - 일반한식","category":"restaurant"}]},{"lat":"37.41399266","long":"126.8812595","imageIndex":4,"items":[{"name":"호야플라워앤커피","tel":"02-897-0138","addr":"경기도 광명시 일직동 521-2번지 준 101호","indutype":"일반휴게음식 - 일반한식","category":"restaurant"}]},{"lat":"37.41424382","long":"126.8801747","imageIndex":16,"items":[{"name":"e해법수학광명역푸르지오점교습소","tel":"02-897-2095","addr":"경기도 광명시 일직동 519번지 광명역푸르지오 B202호 근린생활시설","indutype":"학원 - 보습학원","category":"study"},{"name":"뮤엠영어빛가온캠퍼스","tel":"02-898-8680","addr":"경기도 광명시 일직동 519번지 광명역푸르지오 상가 2층 220호","indutype":"학원 - 외국어학원","category":"study"},{"name":"빛가온 삼성영어","tel":"02-898-3305","addr":"경기도 광명시 일직동 519번지 광명역푸르지오 상가동 2층 B214호","indutype":"학원 - 보습학원","category":"study"},{"name":"소미아트 미술 교습소","tel":"02-823-2031","addr":"경기도 광명시 일직동 519번지 광명역푸르지오 상가 2층 205호","indutype":"학원 - 예·체능계학원","category":"study"},{"name":"씨드학원2관","tel":"02-898-7942","addr":"경기도 광명시 일직동 519번지 광명역푸르지오상가 210~212호","indutype":"학원 - 보습학원","category":"study"},{"name":"얀음악학원","tel":"02-898-0208","addr":"경기도 광명시 일직동 519번지 광명역푸르지오 206,207,208호","indutype":"학원 - 예·체능계학원","category":"study"},{"name":"용인대석사 드림킥 태권도","tel":"","addr":"경기도 광명시 일직동 519번지 광명역 푸르지오 상가동 215,216,217호","indutype":"학원 - 예·체능계학원","category":"study"},{"name":"플래뮤 아트라이브러리","tel":"031-000-0000","addr":"경기도 광명시 일직동 519번지 광명역푸르지오 상가 B218호","indutype":"학원 - 예·체능계학원","category":"study"}]},{"lat":"37.41719132","long":"126.8813447","imageIndex":16,"items":[{"name":"개인과외교습","tel":"031-000-0000","addr":"경기도 광명시 일직동 513번지 광명역써밋플레이스 103동 4102호","indutype":"학원 - 기타 교육기관","category":"study"},{"name":"빛가온어린이집[아이행복]","tel":"02-897-0962","addr":"경기도 광명시 일직동 513번지 광명역써밋플레이스","indutype":"학원 - 유아원","category":"study"},{"name":"케리잉글리쉬(KERRI ENGLISH)","tel":"","addr":"경기도 광명시 일직동 513번지 광명역써밋플레이스 106동 302호","indutype":"학원 - 기타 교육기관","category":"study"}]},{"lat":"37.4140474","long":"126.8819258","imageIndex":16,"items":[{"name":"경희대빛가온태권도장","tel":"02-899-0501","addr":"경기도 광명시 일직동 522-13번지 1층","indutype":"학원 - 예·체능계학원","category":"study"}]},{"lat":"37.41463728","long":"126.886127","imageIndex":16,"items":[{"name":"광명MTA태권도장","tel":"02-6369-0087","addr":"경기도 광명시 일직동 518번지 광명역파크자이 상가동 2층 211호","indutype":"학원 - 예·체능계학원","category":"study"},{"name":"새빛어린이집[아이행복]","tel":"02-897-2825","addr":"경기도 광명시 일직동 518번지 광명역파크자이","indutype":"학원 - 유아원","category":"study"},{"name":"생각하는수학","tel":"02-6339-1237","addr":"경기도 광명시 일직동 518번지 광명역파크자이 상가동 213호","indutype":"학원 - 보습학원","category":"study"},{"name":"와이비엠잉글루빛가온학원","tel":"","addr":"경기도 광명시 일직동 518번지 광명역파크자이 상가동 210호","indutype":"학원 - 보습학원","category":"study"}]},{"lat":"37.42052614","long":"126.8824238","imageIndex":16,"items":[{"name":"광명스페셜티커피학원","tel":"02-000-0000","addr":"경기도 광명시 일직동 510-8번지 골드스타빌딩 503호","indutype":"학원 - 기능학원","category":"study"},{"name":"늘발레학원","tel":"031-931-8070","addr":"경기도 광명시 일직동 510-8번지 골드스타빌딩 404,405호","indutype":"학원 - 예·체능계학원","category":"study"},{"name":"리한 인사이트 영수학원","tel":"02-899-5337","addr":"경기도 광명시 일직동 510-8번지 골드스타빌딩 504호","indutype":"학원 - 보습학원","category":"study"},{"name":"시매쓰광명역센터학원","tel":"02-899-8875","addr":"경기도 광명시 일직동 510-8번지 골드스타빌딩 6층 605호","indutype":"학원 - 보습학원","category":"study"},{"name":"용인대석사드림킥 태권도장(2관)","tel":"","addr":"경기도 광명시 일직동 510-8번지 골드스타빌딩 4층 403호","indutype":"학원 - 예·체능계학원","category":"study"},{"name":"크리아트 미술교습소","tel":"","addr":"경기도 광명시 일직동 510-8번지 골드스타빌딩 6층 601호","indutype":"학원 - 예·체능계학원","category":"study"},{"name":"틔움토론교습소","tel":"031-0000-0000","addr":"경기도 광명시 일직동 510-8번지 골드스타빌딩 606호","indutype":"학원 - 보습학원","category":"study"},{"name":"한국요가평생교육원","tel":"","addr":"경기도 광명시 일직동 510-8번지 골드스타빌딩 603호","indutype":"학원 - 기능학원","category":"study"}]},{"lat":"37.4181061","long":"126.8772878","imageIndex":16,"items":[{"name":"광명하늘어린이집[아이행복]","tel":"02-899-2329","addr":"경기도 광명시 일직동 222-4번지 1층","indutype":"학원 - 유아원","category":"study"}]},{"lat":"37.41805375","long":"126.8789032","imageIndex":16,"items":[{"name":"구름산발도르프어린이집[아이행복]","tel":"02-897-0532","addr":"경기도 광명시 일직동 223-30번지","indutype":"학원 - 유아원","category":"study"}]},{"lat":"37.41393957","long":"126.8822084","imageIndex":16,"items":[{"name":"놀작 삐삐창작소","tel":"02-898-8788","addr":"경기도 광명시 일직동 523번지 호성하이츠 1층 101호","indutype":"학원 - 예·체능계학원","category":"study"}]},{"lat":"37.4132992","long":"126.8815656","imageIndex":16,"items":[{"name":"리딩브레인영어학원","tel":"02-2135-8311","addr":"경기도 광명시 일직동 522-7번지 서진 1층","indutype":"학원 - 외국어학원","category":"study"},{"name":"시립푸르지오어린이집[아이행복]","tel":"02-897-4942","addr":"경기도 광명시 일직동 522-7번지","indutype":"학원 - 유아원","category":"study"}]},{"lat":"37.41702623","long":"126.8874337","imageIndex":16,"items":[{"name":"시립가온자이어린이집[아이행복]","tel":"02-6956-1674","addr":"경기도 광명시 일직동 517번지 광명역센트럴자이 관리동","indutype":"학원 - 유아원","category":"study"}]},{"lat":"37.41421883","long":"126.8821515","imageIndex":16,"items":[{"name":"씨드사고력센터","tel":"02-2060-2380","addr":"경기도 광명시 일직동 520-3번지 광명역푸르지오 상가 219호","indutype":"학원 - 보습학원","category":"study"}]},{"lat":"37.41383139","long":"126.8821521","imageIndex":16,"items":[{"name":"연세빛가온음악학원","tel":"031-899-0079","addr":"경기도 광명시 일직동 523-1번지 1층","indutype":"학원 - 예·체능계학원","category":"study"}]},{"lat":"37.41344379","long":"126.8819833","imageIndex":16,"items":[{"name":"영수가달달학원","tel":"02-899-3220","addr":"경기도 광명시 일직동 523-4번지 1층","indutype":"학원 - 보습학원","category":"study"}]},{"lat":"37.4135516","long":"126.8816781","imageIndex":16,"items":[{"name":"이김수학","tel":"02-898-3774","addr":"경기도 광명시 일직동 522-9번지 1층","indutype":"학원 - 보습학원","category":"study"}]},{"lat":"37.42407709","long":"126.883401","imageIndex":16,"items":[{"name":"이케아다기스(광명)어린이집[아이행복]","tel":"031-718-7459","addr":"경기도 광명시 일직동 500번지 이케아다기스어린이집","indutype":"학원 - 유아원","category":"study"}]},{"lat":"37.42140955","long":"126.89207","imageIndex":16,"items":[{"name":"자경마을어린이집[아이행복]","tel":"02-899-6697","addr":"경기도 광명시 일직동 503-12번지 1층","indutype":"학원 - 유아원","category":"study"}]},{"lat":"37.41399303","long":"126.8816209","imageIndex":16,"items":[{"name":"티라노스튜디오예술교육연구소미술학원","tel":"","addr":"경기도 광명시 일직동 522-1번지 1층","indutype":"학원 - 예·체능계학원","category":"study"}]},{"lat":"37.42010394","long":"126.8836784","imageIndex":16,"items":[{"name":"팬그램어학원","tel":"","addr":"경기도 광명시 일직동 511-5번지 5층 502호,503호","indutype":"학원 - 외국어학원","category":"study"}]},{"lat":"37.4140474","long":"126.8819258","imageIndex":7,"items":[{"name":"가온유통","tel":"02-2612-9563","addr":"경기도 광명시 일직동 522-13번지 준하우스 103호","indutype":"음료식품 - 기타음료식품","category":"food"}]},{"lat":"37.41463728","long":"126.886127","imageIndex":7,"items":[{"name":"갑질어묵","tel":"","addr":"경기도 광명시 일직동 518번지 광명역파크자이 106동 701호","indutype":"음료식품 - 기타음료식품","category":"food"},{"name":"최군과일","tel":"070-7655-0022","addr":"경기도 광명시 일직동 518번지 광명역파크자이 1층 126호","indutype":"음료식품 - 농·축·수산품","category":"food"}]},{"lat":"37.42052614","long":"126.8824238","imageIndex":7,"items":[{"name":"골드스타","tel":"031-000-0000","addr":"경기도 광명시 일직동 510-8번지 골드스타빌딩 606호","indutype":"건강식품 - 기타건강식품","category":"food"}]},{"lat":"37.41719132","long":"126.8813447","imageIndex":7,"items":[{"name":"돈돈정 광명아브뉴프랑점","tel":"","addr":"경기도 광명시 일직동 513번지 광명역 써밋플레이스 지상1층 B1-30호,31호","indutype":"음료식품 - 기타음료식품","category":"food"},{"name":"이학순베이커리 광명역","tel":"02-878-7101","addr":"경기도 광명시 일직동 513번지 광명역써밋플레이스 B2층 7 ,8,16,17,18","indutype":"음료식품 - 제과점","category":"food"}]},{"lat":"37.42055467","long":"126.8839036","imageIndex":7,"items":[{"name":"마망카롱","tel":"070-7502-1653","addr":"경기도 광명시 일직동 511-3번지 101호","indutype":"음료식품 - 기타음료식품","category":"food"},{"name":"배스킨라빈스 광명역점","tel":"02-6402-6500","addr":"경기도 광명시 일직동 511-3번지 1층 112호","indutype":"음료식품 - 제과점","category":"food"},{"name":"사시미","tel":"070-6615-4415","addr":"경기도 광명시 일직동 511-3번지 케이스퀘어 104호","indutype":"음료식품 - 기타음료식품","category":"food"}]},{"lat":"37.42068783","long":"126.8910995","imageIndex":7,"items":[{"name":"명진상회","tel":"","addr":"경기도 광명시 일직동 507-2번지 402호","indutype":"음료식품 - 농·축·수산품","category":"food"}]},{"lat":"37.41421883","long":"126.8821515","imageIndex":7,"items":[{"name":"무뚝뚝한 제빵소","tel":"070-2547-3647","addr":"경기도 광명시 일직동 520-3번지 102호","indutype":"음료식품 - 제과점","category":"food"}]},{"lat":"37.41713172","long":"126.8847676","imageIndex":7,"items":[{"name":"부건산양산삼","tel":"02-383-9063","addr":"경기도 광명시 일직동 276-1번지 KTX광명역2번출구","indutype":"건강식품 - 인삼제품","category":"food"}]},{"lat":"37.42643865","long":"126.8936781","imageIndex":7,"items":[{"name":"세기유통","tel":"02-898-0442","addr":"경기도 광명시 일직동 64-1번지","indutype":"음료식품 - 기타음료식품","category":"food"}]},{"lat":"37.420941","long":"126.8920368","imageIndex":7,"items":[{"name":"수리산농부들","tel":"02-898-1575","addr":"경기도 광명시 일직동 505-11번지 1층 일부","indutype":"음료식품 - 농·축·수산품","category":"food"}]},{"lat":"37.41702623","long":"126.8874337","imageIndex":7,"items":[{"name":"아이스크림 할인점","tel":"070-997-9970","addr":"경기도 광명시 일직동 517번지 근린생활시설동 광명역센트럴자이 109호","indutype":"음료식품 - 기타음료식품","category":"food"}]},{"lat":"37.41363206","long":"126.881068","imageIndex":7,"items":[{"name":"에이스농축산","tel":"02-899-8249","addr":"경기도 광명시 일직동 521-5번지 1층","indutype":"음료식품 - 정육점","category":"food"}]},{"lat":"37.42094053","long":"126.8915397","imageIndex":7,"items":[{"name":"오감시스템","tel":"070-8804-2420","addr":"경기도 광명시 일직동 505-14번지 1층","indutype":"음료식품 - 기타음료식품","category":"food"}]},{"lat":"37.41368718","long":"126.8820959","imageIndex":7,"items":[{"name":"원두코리아","tel":"02-985-2800","addr":"경기도 광명시 일직동 523-2번지 101호","indutype":"음료식품 - 기타음료식품","category":"food"}]},{"lat":"37.42607751","long":"126.8928765","imageIndex":7,"items":[{"name":"청해수산","tel":"02-808-4743","addr":"경기도 광명시 일직동 9-9번지","indutype":"음료식품 - 농·축·수산품","category":"food"}]},{"lat":"37.41338004","long":"126.8813169","imageIndex":7,"items":[{"name":"초코덕후","tel":"02-898-7773","addr":"경기도 광명시 일직동 522-6번지 1층 101호","indutype":"음료식품 - 기타음료식품","category":"food"}]},{"lat":"37.42138407","long":"126.8843768","imageIndex":7,"items":[{"name":"큰집찬방","tel":"02-899-5332","addr":"경기도 광명시 일직동 511번지 지웰에스테이트 1층 110호","indutype":"음료식품 - 기타음료식품","category":"food"}]},{"lat":"37.41399266","long":"126.8812595","imageIndex":7,"items":[{"name":"픽미픽미 아이스 광명역점","tel":"","addr":"경기도 광명시 일직동 521-2번지 준 1층 103호","indutype":"음료식품 - 기타음료식품","category":"food"}]},{"lat":"37.42010394","long":"126.8836784","imageIndex":8,"items":[{"name":"광명 맥심한의원","tel":"02-897-7015","addr":"경기도 광명시 일직동 511-5번지 4층 404,405호","indutype":"의원 - 한의원","category":"medical"},{"name":"광명센트럴 이비인후과","tel":"02-6349-6300","addr":"경기도 광명시 일직동 511-5번지 대호엠스퀘어 4층 406호,407호,408호","indutype":"의원 - 의원","category":"medical"},{"name":"라라약국","tel":"02-6012-4489","addr":"경기도 광명시 일직동 511-5번지 GS steel Tower 1층 105호","indutype":"약국 - 약국","category":"medical"},{"name":"사랑내과의원","tel":"02-6407-8888","addr":"경기도 광명시 일직동 511-5번지 306,307호","indutype":"의원 - 의원","category":"medical"}]},{"lat":"37.41719132","long":"126.8813447","imageIndex":8,"items":[{"name":"광명파란문약국","tel":"02-899-6209","addr":"경기도 광명시 일직동 513번지 광명역써밋플레이스 지하1층 B1-32호","indutype":"약국 - 약국","category":"medical"},{"name":"서울앞선치과","tel":"02-898-2879","addr":"경기도 광명시 일직동 513번지 지하1층 B1-21,B1-22,B1-23","indutype":"의원 - 치과의원","category":"medical"}]},{"lat":"37.42138407","long":"126.8843768","imageIndex":8,"items":[{"name":"서하플란트치과","tel":"02-899-2827","addr":"경기도 광명시 일직동 511번지 지웰에스테이트 상가 2층 203호","indutype":"의원 - 치과의원","category":"medical"}]},{"lat":"37.42407709","long":"126.883401","imageIndex":8,"items":[{"name":"팜프라자약국","tel":"","addr":"경기도 광명시 일직동 500번지 롯데프리미엄아울렛 3층 일부","indutype":"약국 - 약국","category":"medical"}]},{"lat":"37.42055388","long":"126.8831241","imageIndex":13,"items":[{"name":"광명당구장","tel":"02-111-1111","addr":"경기도 광명시 일직동 510-6번지 403,404호","indutype":"레저업소 - 당 구 장","category":"leisure"}]},{"lat":"37.42060548","long":"126.8897666","imageIndex":13,"items":[{"name":"광명클럽원스크린","tel":"02-898-8284","addr":"경기도 광명시 일직동 506번지 A동3층301~303호,B동3층301,303호","indutype":"레저업소 - 스크린골프","category":"leisure"},{"name":"산타당구클럽","tel":"031-464-1022","addr":"경기도 광명시 일직동 506번지 204,205호","indutype":"레저업소 - 당 구 장","category":"leisure"}]},{"lat":"37.42218571","long":"126.884127","imageIndex":13,"items":[{"name":"광명필라테스","tel":"02-899-5554","addr":"경기도 광명시 일직동 509-1번지 2층 205-207호","indutype":"레저업소 - 헬스클럽","category":"leisure"}]},{"lat":"37.42010394","long":"126.8836784","imageIndex":13,"items":[{"name":"네옥스 피씨(Neox PC)","tel":"070-9250-9423","addr":"경기도 광명시 일직동 511-5번지 대호스퀘어 605,606호,607호,608호","indutype":"레저업소 - 기타레져업소","category":"leisure"}]},{"lat":"37.42055467","long":"126.8839036","imageIndex":13,"items":[{"name":"리야필라테스","tel":"","addr":"경기도 광명시 일직동 511-3번지 K스퀘어 919호","indutype":"레저업소 - 헬스클럽","category":"leisure"}]},{"lat":"37.4207425","long":"126.8825364","imageIndex":13,"items":[{"name":"빅노래연습장","tel":"02-898-3837","addr":"경기도 광명시 일직동 510-9번지 SH&01프라자 3층 302호","indutype":"레저업소 - 노 래 방","category":"leisure"},{"name":"제이투짐(J2Gym)","tel":"02-899-2871","addr":"경기도 광명시 일직동 510-9번지 SH&01프라자 5층 501호","indutype":"레저업소 - 헬스클럽","category":"leisure"}]},{"lat":"37.42032849","long":"126.8829889","imageIndex":13,"items":[{"name":"스튜디오연","tel":"02-899-0736","addr":"경기도 광명시 일직동 510-7번지 S프라자 503호","indutype":"레저업소 - 헬스클럽","category":"leisure"}]},{"lat":"37.42052614","long":"126.8824238","imageIndex":13,"items":[{"name":"이림요가스튜디오","tel":"","addr":"경기도 광명시 일직동 510-8번지 골드스타빌딩 6층 603호","indutype":"레저업소 - 헬스클럽","category":"leisure"}]},{"lat":"37.41702623","long":"126.8874337","imageIndex":13,"items":[{"name":"하늘바다마린","tel":"","addr":"경기도 광명시 일직동 517번지 광명역센트럴자이 206동 2804호","indutype":"레저업소 - 기타레져업소","category":"leisure"}]},{"lat":"37.42407709","long":"126.883401","imageIndex":7,"items":[{"name":"까까몰","tel":"070-5871-5805","addr":"경기도 광명시 일직동 500번지 이케아광명점 P1층 102호","indutype":"유통업 영리 - 슈퍼마켓","category":"mart"}]},{"lat":"37.42163501","long":"126.8830433","imageIndex":7,"items":[{"name":"서현슈퍼","tel":"02-893-3200","addr":"경기도 광명시 일직동 510-13번지 서현빌딩","indutype":"유통업 영리 - 슈퍼마켓","category":"mart"}]},{"lat":"37.41374927","long":"126.8811469","imageIndex":7,"items":[{"name":"에이스마트","tel":"02-898-8249","addr":"경기도 광명시 일직동 521-4번지","indutype":"유통업 영리 - 슈퍼마켓","category":"mart"}]},{"lat":"37.42116538","long":"126.8819596","imageIndex":5,"items":[{"name":"라까사호텔광명점/주식회사 라까사웍스","tel":"02-6711-9303","addr":"경기도 광명시 일직동 508-3번지 라까사타워","indutype":"숙박업 - 여관/기타숙박업","category":"hotel"}]}]