[{"lat":"37.651802295","long":"126.77876215","imageIndex":17,"items":[{"name":"BB복싱클럽","tel":"031-902-8841","addr":"경기도 고양시 일산동구 강석로","indutype":"회원제형태 - 레져업소","category":"other"},{"name":"장윤철법무사사무소","tel":"031-905-8300","addr":"경기도 고양시 일산동구 강석로","indutype":"용역 서비스 - 법률회계서비스(개인)","category":"other"}]},{"lat":"37.650097489","long":"126.78249534","imageIndex":17,"items":[{"name":"HC&M","tel":"070-7522-3908","addr":"경기도 고양시 일산동구 강석로","indutype":"용역 서비스 - 종합용역","category":"other"}]},{"lat":"37.651103913","long":"126.78107591","imageIndex":17,"items":[{"name":"닛시","tel":"031-901-6727","addr":"경기도 고양시 일산동구 강석로","indutype":"의류 - 정장","category":"other"}]},{"lat":"37.654379436","long":"126.77895839","imageIndex":17,"items":[{"name":"아담","tel":"031-907-0402","addr":"경기도 고양시 일산동구 강석로","indutype":"건축자재 - 인테리어전문","category":"other"}]},{"lat":"37.651802295","long":"126.77876215","imageIndex":13,"items":[{"name":"Salon A(살롱에이)","tel":"031-905-9818","addr":"경기도 고양시 일산동구 강석로","indutype":"보건위생 - 미용원","category":"beauty"},{"name":"그린의료기복지용구","tel":"031-909-0056","addr":"경기도 고양시 일산동구 강석로","indutype":"보건위생 - 의료용품","category":"beauty"},{"name":"킴스","tel":"070-5001-9029","addr":"경기도 고양시 일산동구 강석로","indutype":"보건위생 - 화장품","category":"beauty"}]}]