[{"lat":"37.24204358","long":"127.10386249","imageIndex":0,"items":[{"name":"S&S AUTO","tel":"031-287-3325","addr":"경기도 용인시 기흥구 공세동 392-3번지 가동","indutype":"자동차정비 유지 - 자동차정비","category":"car"}]},{"lat":"37.243521683","long":"127.10337983","imageIndex":0,"items":[{"name":"경인자동차공업사","tel":"031-283-3382","addr":"경기도 용인시 기흥구 공세동 390-15번지","indutype":"자동차정비 유지 - 자동차정비","category":"car"}]},{"lat":"37.234552616","long":"127.10775158","imageIndex":0,"items":[{"name":"공세워시존","tel":"031-000-0000","addr":"경기도 용인시 기흥구 공세동 296-27번지","indutype":"자동차정비 유지 - 세차장","category":"car"}]},{"lat":"37.24476546","long":"127.10296447","imageIndex":0,"items":[{"name":"그릿모터테인먼트주식회사","tel":"031-285-9500","addr":"경기도 용인시 기흥구 공세동 478번지","indutype":"자동차정비 유지 - 자동차부품","category":"car"}]},{"lat":"37.236687382","long":"127.10852085","imageIndex":0,"items":[{"name":"동일시트공업","tel":"031-286-0951","addr":"경기도 용인시 기흥구 공세동 309-1번지","indutype":"자동차정비 유지 - 자동차부품","category":"car"}]},{"lat":"37.241800752","long":"127.10333247","imageIndex":0,"items":[{"name":"삼호공업사","tel":"031-283-7007","addr":"경기도 용인시 기흥구 공세동 394-9번지","indutype":"자동차정비 유지 - 자동차시트·타이어","category":"car"}]},{"lat":"37.246685451","long":"127.10202026","imageIndex":0,"items":[{"name":"신우이엔지","tel":"","addr":"경기도 용인시 기흥구 공세동 476-112번지 1층","indutype":"자동차정비 유지 - 자동차부품","category":"car"}]},{"lat":"37.232051318","long":"127.1137205","imageIndex":0,"items":[{"name":"에스카자동차외형복원","tel":"","addr":"경기도 용인시 기흥구 공세동 193-20번지 1층","indutype":"자동차정비 유지 - 카인테리어","category":"car"}]},{"lat":"37.239323894","long":"127.1021684","imageIndex":0,"items":[{"name":"주식회사다모아","tel":"031-285-4660","addr":"경기도 용인시 기흥구 공세동 358-1번지","indutype":"자동차정비 유지 - 자동차정비","category":"car"},{"name":"주식회사다모아","tel":"031-8005-7750","addr":"경기도 용인시 기흥구 공세동 358-1번지","indutype":"자동차정비 유지 - 자동차정비","category":"car"}]}]