[{"lat":"37.527261506","long":"127.19561997","imageIndex":7,"items":[{"name":"(주)농업회사법인 무공이네농장","tel":"070-8255-2575","addr":"경기도 하남시 춘궁동 135번지","indutype":"음료식품 - 농·축·수산품","category":"food"}]},{"lat":"37.523735915","long":"127.19173076","imageIndex":7,"items":[{"name":"(주)봄날","tel":"070-4369-9286","addr":"경기도 하남시 춘궁동 267-5번지","indutype":"음료식품 - 정육점","category":"food"}]},{"lat":"37.524714239","long":"127.19406361","imageIndex":7,"items":[{"name":"(주)어찬가","tel":"031-794-6613","addr":"경기도 하남시 춘궁동 218번지","indutype":"음료식품 - 농·축·수산품","category":"food"}]},{"lat":"37.526262685","long":"127.19483682","imageIndex":7,"items":[{"name":"(주)청연","tel":"070-4233-0499","addr":"경기도 하남시 춘궁동 195번지","indutype":"음료식품 - 기타음료식품","category":"food"}]},{"lat":"37.52026757","long":"127.19700465","imageIndex":7,"items":[{"name":"(주)파머스","tel":"031-796-9075","addr":"경기도 하남시 춘궁동 384-3번지","indutype":"음료식품 - 정육점","category":"food"}]},{"lat":"37.524096363","long":"127.19169773","imageIndex":7,"items":[{"name":"(주)푸드스토리","tel":"02-1577-3137","addr":"경기도 하남시 춘궁동 267-2번지","indutype":"음료식품 - 정육점","category":"food"}]},{"lat":"37.52587386","long":"127.19009581","imageIndex":7,"items":[{"name":"남양식품","tel":"031-563-5584","addr":"경기도 하남시 춘궁동 126번지","indutype":"음료식품 - 기타음료식품","category":"food"}]},{"lat":"37.516235219","long":"127.19450574","imageIndex":7,"items":[{"name":"농업회사법인 통일푸드 주식회사","tel":"031-796-6667","addr":"경기도 하남시 춘궁동 432-3번지","indutype":"음료식품 - 정육점","category":"food"}]},{"lat":"37.525178233","long":"127.19683637","imageIndex":7,"items":[{"name":"대한F&B","tel":"031-796-9990","addr":"경기도 하남시 춘궁동 234-3번지","indutype":"음료식품 - 정육점","category":"food"}]},{"lat":"37.523209284","long":"127.19425207","imageIndex":7,"items":[{"name":"롯데칠성 풍납점","tel":"","addr":"경기도 하남시 춘궁동 249-17번지 가동","indutype":"음료식품 - 기타음료식품","category":"food"},{"name":"스마일유통","tel":"031-000-0000","addr":"경기도 하남시 춘궁동 249-17번지","indutype":"음료식품 - 기타음료식품","category":"food"}]},{"lat":"37.516430542","long":"127.1962821","imageIndex":7,"items":[{"name":"마루구운계란","tel":"031-794-2958","addr":"경기도 하남시 춘궁동 424-5번지 나동","indutype":"음료식품 - 기타음료식품","category":"food"}]},{"lat":"37.517763593","long":"127.1965344","imageIndex":7,"items":[{"name":"미락","tel":"031-671-1626","addr":"경기도 하남시 춘궁동 420-2번지","indutype":"음료식품 - 기타음료식품","category":"food"}]},{"lat":"37.523322888","long":"127.19083605","imageIndex":7,"items":[{"name":"산성농원","tel":"","addr":"경기도 하남시 춘궁동 266-2번지 1층","indutype":"음료식품 - 농·축·수산품","category":"food"}]},{"lat":"37.526790397","long":"127.19164796","imageIndex":7,"items":[{"name":"서정유통","tel":"","addr":"경기도 하남시 춘궁동 129-2번지 1동 1호","indutype":"음료식품 - 기타음료식품","category":"food"}]},{"lat":"37.520377726","long":"127.19576063","imageIndex":7,"items":[{"name":"소소(    -SOSO)","tel":"","addr":"경기도 하남시 춘궁동 385-1번지","indutype":"음료식품 - 기타음료식품","category":"food"}]},{"lat":"37.520569274","long":"127.18867988","imageIndex":7,"items":[{"name":"신선농원","tel":"031-477-8545","addr":"경기도 하남시 춘궁동 442-1번지 태양물류보관","indutype":"음료식품 - 농·축·수산품","category":"food"}]},{"lat":"37.521602844","long":"127.19589953","imageIndex":7,"items":[{"name":"여명유통","tel":"","addr":"경기도 하남시 춘궁동 362번지","indutype":"음료식품 - 기타음료식품","category":"food"}]},{"lat":"37.518042712","long":"127.19664823","imageIndex":7,"items":[{"name":"옛날고골떡방앗간","tel":"031-792-2954","addr":"경기도 하남시 춘궁동 417-2번지 101호","indutype":"음료식품 - 제과점","category":"food"}]},{"lat":"37.52348373","long":"127.19167356","imageIndex":7,"items":[{"name":"올바른 농업회사법인 유한회사","tel":"031-794-6992","addr":"경기도 하남시 춘궁동 264-1번지 1층","indutype":"음료식품 - 미곡상","category":"food"}]},{"lat":"37.517262618","long":"127.19433869","imageIndex":7,"items":[{"name":"웰빙팜스(주)","tel":"02-488-3329","addr":"경기도 하남시 춘궁동 409-1번지 1층","indutype":"음료식품 - 기타음료식품","category":"food"}]},{"lat":"37.527930496","long":"127.19423019","imageIndex":7,"items":[{"name":"주식회사 강남에프앤비","tel":"","addr":"경기도 하남시 춘궁동 138번지","indutype":"음료식품 - 기타음료식품","category":"food"}]},{"lat":"37.524596745","long":"127.19428956","imageIndex":7,"items":[{"name":"주식회사 달래","tel":"031-796-1820","addr":"경기도 하남시 춘궁동 220-1번지","indutype":"음료식품 - 정육점","category":"food"}]},{"lat":"37.526766057","long":"127.19556213","imageIndex":7,"items":[{"name":"주식회사 여강식자재","tel":"031-794-5155","addr":"경기도 하남시 춘궁동 190-4번지","indutype":"음료식품 - 기타음료식품","category":"food"}]},{"lat":"37.524460698","long":"127.19484352","imageIndex":7,"items":[{"name":"주식회사 이노후레쉬리드","tel":"031-791-4190","addr":"경기도 하남시 춘궁동 225-3번지","indutype":"음료식품 - 미곡상","category":"food"}]},{"lat":"37.52156951","long":"127.18859187","imageIndex":7,"items":[{"name":"주식회사선아수","tel":"031-796-6237","addr":"경기도 하남시 춘궁동 312번지","indutype":"음료식품 - 농·축·수산품","category":"food"}]},{"lat":"37.519682097","long":"127.19690133","imageIndex":7,"items":[{"name":"청송유통주식회사","tel":"031-796-9691","addr":"경기도 하남시 춘궁동 389-1번지","indutype":"음료식품 - 농·축·수산품","category":"food"}]},{"lat":"37.52723853","long":"127.19311976","imageIndex":7,"items":[{"name":"케이앤물류","tel":"031-123-4567","addr":"경기도 하남시 춘궁동 132-4번지","indutype":"음료식품 - 기타음료식품","category":"food"}]},{"lat":"37.522678855","long":"127.19353805","imageIndex":7,"items":[{"name":"행복유통","tel":"02-470-5624","addr":"경기도 하남시 춘궁동 328-1번지","indutype":"음료식품 - 기타음료식품","category":"food"}]},{"lat":"37.528708968","long":"127.19198087","imageIndex":7,"items":[{"name":"헝그리 베어","tel":"031-794-9580","addr":"경기도 하남시 춘궁동 74-2번지 나동","indutype":"음료식품 - 농·축·수산품","category":"food"}]},{"lat":"37.524125914","long":"127.19011407","imageIndex":7,"items":[{"name":"호수마켓","tel":"031-796-6429","addr":"경기도 하남시 춘궁동 282-3번지 2층","indutype":"음료식품 - 농·축·수산품","category":"food"}]},{"lat":"37.520351785","long":"127.19509317","imageIndex":17,"items":[{"name":"(주)랜드미디어","tel":"031-794-9267","addr":"경기도 하남시 춘궁동 391-5번지","indutype":"전기제품 - 가전제품","category":"other"}]},{"lat":"37.530041682","long":"127.1979803","imageIndex":17,"items":[{"name":"(주)렌탈컴퍼니","tel":"02-1644-1624","addr":"경기도 하남시 춘궁동 15-3번지","indutype":"신변잡화 - 기타잡화","category":"other"}]},{"lat":"37.521071632","long":"127.19567192","imageIndex":17,"items":[{"name":"(주)삼보산업","tel":"031-791-5323","addr":"경기도 하남시 춘궁동 379-1번지","indutype":"건축자재 - 기타건축자재","category":"other"},{"name":"명보산업","tel":"031-795-1355","addr":"경기도 하남시 춘궁동 379-1번지","indutype":"의류 - 기타의류","category":"other"}]},{"lat":"37.521991724","long":"127.19500688","imageIndex":17,"items":[{"name":"(주)세계산업","tel":"031-797-0961","addr":"경기도 하남시 춘궁동 360-3번지","indutype":"사무통신 - 컴퓨터","category":"other"},{"name":"하남트라이","tel":"031-796-2070","addr":"경기도 하남시 춘궁동 360-3번지","indutype":"의류 - 정장","category":"other"}]},{"lat":"37.522071256","long":"127.19036911","imageIndex":17,"items":[{"name":"(주)에이치채널하남지점","tel":"031-791-9819","addr":"경기도 하남시 춘궁동 319-4번지 1층","indutype":"의류 - 기타의류","category":"other"},{"name":"이성아이앤티(I&T)","tel":"031-796-3586","addr":"경기도 하남시 춘궁동 319-4번지","indutype":"직물 - 카페트,커튼,천막,지물","category":"other"},{"name":"패션가족양말","tel":"031-793-6622","addr":"경기도 하남시 춘궁동 319-4번지 1층","indutype":"의류 - 기타의류","category":"other"}]},{"lat":"37.526572565","long":"127.19264294","imageIndex":17,"items":[{"name":"(주)일광","tel":"031-796-3463","addr":"경기도 하남시 춘궁동 208-3번지","indutype":"용역 서비스 - 소프트웨어","category":"other"}]},{"lat":"37.521986082","long":"127.19292543","imageIndex":17,"items":[{"name":"(주)제이앤피디자인","tel":"031-794-3457","addr":"경기도 하남시 춘궁동 324-3번지 B동 1층","indutype":"건축자재 - 인테리어전문","category":"other"}]},{"lat":"37.524433227","long":"127.19511495","imageIndex":17,"items":[{"name":"(주)제이케이서플라이","tel":"070-4365-4822","addr":"경기도 하남시 춘궁동 225-4번지","indutype":"레져용품 - 스포츠·레져용품","category":"other"}]},{"lat":"37.525401877","long":"127.19780984","imageIndex":17,"items":[{"name":"GS25하남우진점","tel":"","addr":"경기도 하남시 춘궁동 181번지","indutype":"유통업 영리 - 편 의 점","category":"other"}]},{"lat":"37.524875977","long":"127.19433552","imageIndex":17,"items":[{"name":"SPEEDLIGHTING","tel":"031-795-9874","addr":"경기도 하남시 춘궁동 217-2번지","indutype":"수리서비스 - 기타수리서비스","category":"other"}]},{"lat":"37.526762232","long":"127.19789257","imageIndex":17,"items":[{"name":"TS통역장비","tel":"031-795-5617","addr":"경기도 하남시 춘궁동 172-3번지","indutype":"전기제품 - 기타전기제품","category":"other"},{"name":"플로라랩 (FLORALAB)","tel":"070-8155-2788","addr":"경기도 하남시 춘궁동 172-3번지","indutype":"용역 서비스 - 사무서비스","category":"other"}]},{"lat":"37.525206301","long":"127.19620294","imageIndex":17,"items":[{"name":"가나안꽃농원","tel":"031-795-7327","addr":"경기도 하남시 춘궁동 230","indutype":"문화.취미 - 화원","category":"other"}]},{"lat":"37.522650031","long":"127.19464657","imageIndex":17,"items":[{"name":"가나안농원","tel":"031-795-7327","addr":"경기도 하남시 춘궁동 331-1번지","indutype":"문화.취미 - 화원","category":"other"}]},{"lat":"37.5167132","long":"127.19422418","imageIndex":17,"items":[{"name":"가인렌탈","tel":"031-791-6505","addr":"경기도 하남시 춘궁동 433-1번지","indutype":"용역 서비스 - 종합용역","category":"other"}]},{"lat":"37.527377677","long":"127.19061996","imageIndex":17,"items":[{"name":"고유렌탈","tel":"02-431-1433","addr":"경기도 하남시 춘궁동 107번지 가동,나동","indutype":"신변잡화 - 기타잡화","category":"other"}]},{"lat":"37.530571732","long":"127.19339975","imageIndex":17,"items":[{"name":"꾸미키즈","tel":"02-929-8846","addr":"경기도 하남시 춘궁동 56-2","indutype":"서적문구 - 기타서적문구","category":"other"}]},{"lat":"37.516405947","long":"127.19478895","imageIndex":17,"items":[{"name":"다림전자","tel":"","addr":"경기도 하남시 춘궁동 431-5번지 1층","indutype":"전기제품 - 냉열기기","category":"other"}]},{"lat":"37.522184844","long":"127.19258657","imageIndex":17,"items":[{"name":"대동유통","tel":"031-5357-6197","addr":"경기도 하남시 춘궁동 325-3번지","indutype":"의류 - 내의판매","category":"other"}]},{"lat":"37.528539144","long":"127.196698","imageIndex":17,"items":[{"name":"대박유통","tel":"031-792-3564","addr":"경기도 하남시 춘궁동 153번지","indutype":"유통업 영리 - 기타유통업","category":"other"}]},{"lat":"37.52835003","long":"127.19664095","imageIndex":17,"items":[{"name":"대성상재","tel":"031-791-6486","addr":"경기도 하남시 춘궁동 153-2번지 1층","indutype":"건축자재 - 기타건축자재","category":"other"}]},{"lat":"37.517096566","long":"127.18540229","imageIndex":17,"items":[{"name":"대한불교조계종 동 사","tel":"","addr":"경기도 하남시 춘궁동 산41번지","indutype":"기타 - 비영리/대상","category":"other"}]},{"lat":"37.520126502","long":"127.19511521","imageIndex":17,"items":[{"name":"대흥산업롤","tel":"031-791-7149","addr":"경기도 하남시 춘궁동 391-3번지","indutype":"기타 - 기계공구","category":"other"}]},{"lat":"37.520461303","long":"127.18276351","imageIndex":17,"items":[{"name":"동림포장","tel":"031-796-5150","addr":"경기도 하남시 춘궁동 519-1번지","indutype":"기타 - 기타 전문점","category":"other"}]},{"lat":"37.519430878","long":"127.19625591","imageIndex":17,"items":[{"name":"동명상사","tel":"031-796-4622","addr":"경기도 하남시 춘궁동 389-7번지","indutype":"직물 - 카페트,커튼,천막,지물","category":"other"}]},{"lat":"37.52307485","long":"127.19381055","imageIndex":17,"items":[{"name":"동백상재","tel":"031-791-1161","addr":"경기도 하남시 춘궁동 259-1번지","indutype":"직물 - 카페트,커튼,천막,지물","category":"other"}]},{"lat":"37.522678855","long":"127.19353805","imageIndex":17,"items":[{"name":"동부상사","tel":"031-794-7745","addr":"경기도 하남시 춘궁동 328-1번지","indutype":"건축자재 - 페인트","category":"other"}]},{"lat":"37.5270974","long":"127.19123016","imageIndex":17,"items":[{"name":"라임렌탈","tel":"031-794-1951","addr":"경기도 하남시 춘궁동 105번지","indutype":"용역 서비스 - 종합용역","category":"other"}]},{"lat":"37.52454611","long":"127.1977058","imageIndex":17,"items":[{"name":"레노마골프 하남점","tel":"031-791-2698","addr":"경기도 하남시 춘궁동 241-6번지","indutype":"레져용품 - 스포츠·레져용품","category":"other"},{"name":"제이디엑스(JDX) 하남춘궁점","tel":"031-791-2698","addr":"경기도 하남시 춘궁동 241-6번지","indutype":"의류 - 스포츠의류","category":"other"}]},{"lat":"37.521457779","long":"127.19645345","imageIndex":17,"items":[{"name":"렌탈비전","tel":"031-791-3307","addr":"경기도 하남시 춘궁동 369-1번지 가동","indutype":"가구 - 일반가구","category":"other"}]},{"lat":"37.52812445","long":"127.196844","imageIndex":17,"items":[{"name":"로쉬(RoShe)","tel":"031-793-4886","addr":"경기도 하남시 춘궁동 154-2번지","indutype":"별도관리 - 자체물품대금","category":"other"}]},{"lat":"37.518349047","long":"127.19664902","imageIndex":17,"items":[{"name":"마이 편의점","tel":"031-792-4368","addr":"경기도 하남시 춘궁동 417-1번지","indutype":"유통업 영리 - 편 의 점","category":"other"}]},{"lat":"37.522655654","long":"127.19115112","imageIndex":17,"items":[{"name":"명성복층유리","tel":"031-792-7261","addr":"경기도 하남시 춘궁동 321-1번지","indutype":"건축자재 - 유리","category":"other"}]},{"lat":"37.51920781","long":"127.19492056","imageIndex":17,"items":[{"name":"미경산업","tel":"031-795-5772","addr":"경기도 하남시 춘궁동 393-9번지","indutype":"직물 - 옷감·직물","category":"other"},{"name":"한국국악기연구원","tel":"031-792-7895","addr":"경기도 하남시 춘궁동 393-9번지","indutype":"레져용품 - 악기점","category":"other"}]},{"lat":"37.520956725","long":"127.18284388","imageIndex":17,"items":[{"name":"미래에어컨","tel":"031-796-1829","addr":"경기도 하남시 춘궁동 515-3번지","indutype":"전기제품 - 냉열기기","category":"other"}]},{"lat":"37.524068775","long":"127.19759143","imageIndex":17,"items":[{"name":"미르정보통신","tel":"031-1688-8331","addr":"경기도 하남시 춘궁동 243-2번지 201호","indutype":"사무통신 - 통신기기","category":"other"}]},{"lat":"37.522711831","long":"127.19542727","imageIndex":17,"items":[{"name":"바스플랜 춘궁점","tel":"031-796-4950","addr":"경기도 하남시 춘궁동 249-30번지","indutype":"건축자재 - 건축용 요업제품","category":"other"}]},{"lat":"37.528292951","long":"127.19847352","imageIndex":17,"items":[{"name":"바이킹코리아","tel":"070-7717-0230","addr":"경기도 하남시 춘궁동 158-2번지","indutype":"기타 - 기계공구","category":"other"}]},{"lat":"37.524933403","long":"127.19778599","imageIndex":17,"items":[{"name":"뱅뱅하남점","tel":"031-791-6307","addr":"경기도 하남시 춘궁동 238번지 (춘궁동238-1,2,3)","indutype":"레져용품 - 스포츠·레져용품","category":"other"}]},{"lat":"37.522991541","long":"127.19517912","imageIndex":17,"items":[{"name":"베네","tel":"031-795-5478","addr":"경기도 하남시 춘궁동 249-20번지","indutype":"가구 - 일반가구","category":"other"}]},{"lat":"37.519047155","long":"127.19398128","imageIndex":17,"items":[{"name":"봉틀아씨 (BONGTLEASSI)","tel":"","addr":"경기도 하남시 춘궁동 393-22번지","indutype":"직물 - 침구·수예점","category":"other"}]},{"lat":"37.527241133","long":"127.19705666","imageIndex":17,"items":[{"name":"블루툴스","tel":"070-7659-6085","addr":"경기도 하남시 춘궁동 165-1번지","indutype":"전기제품 - 기타전기제품","category":"other"}]},{"lat":"37.516430542","long":"127.1962821","imageIndex":17,"items":[{"name":"비전유통 주식회사","tel":"031-793-0916","addr":"경기도 하남시 춘궁동 424-5번지","indutype":"문화.취미 - 애완동물","category":"other"}]},{"lat":"37.523322888","long":"127.19083605","imageIndex":17,"items":[{"name":"산성편의점","tel":"031-792-0415","addr":"경기도 하남시 춘궁동 266-2번지","indutype":"유통업 영리 - 편 의 점","category":"other"},{"name":"주식회사미도세라믹","tel":"070-8866-5403","addr":"경기도 하남시 춘궁동 266-2번지","indutype":"건축자재 - 건축용 요업제품","category":"other"}]},{"lat":"37.527205855","long":"127.19659274","imageIndex":17,"items":[{"name":"삼아유치원","tel":"031-793-3034","addr":"경기도 하남시 춘궁동 163-2번지","indutype":"기타 - 비영리/대상","category":"other"}]},{"lat":"37.518208836","long":"127.19422799","imageIndex":17,"items":[{"name":"서강","tel":"02-401-1984","addr":"경기도 하남시 춘궁동 411-6번지","indutype":"기타 - 기타 전문점","category":"other"}]},{"lat":"37.522817858","long":"127.19670583","imageIndex":17,"items":[{"name":"서부농업협동조합","tel":"031-793-8420","addr":"경기도 하남시 춘궁동 248-9번지","indutype":"유통업 비영리 - 농,축협 직영매장","category":"other"},{"name":"서부농업협동조합","tel":"031-760-0723","addr":"경기도 하남시 춘궁동 248-9번지","indutype":"유통업 비영리 - 농,축협 직영매장","category":"other"},{"name":"서부농협","tel":"031-793-8420","addr":"경기도 하남시 춘궁동 248-9번지","indutype":"유통업 비영리 - 농,축협 직영매장","category":"other"}]},{"lat":"37.522713962","long":"127.19411506","imageIndex":17,"items":[{"name":"서울레이저","tel":"031-793-8090","addr":"경기도 하남시 춘궁동 330-1번지","indutype":"건축자재 - 기타건축자재","category":"other"}]},{"lat":"37.526320563","long":"127.19800454","imageIndex":17,"items":[{"name":"서울종합금속","tel":"031-792-2574","addr":"경기도 하남시 춘궁동 177-8번지","indutype":"건축자재 - 기타건축자재","category":"other"}]},{"lat":"37.526987796","long":"127.19770083","imageIndex":17,"items":[{"name":"서주산업","tel":"031-792-8355","addr":"경기도 하남시 춘궁동 171번지","indutype":"기타 - 기타 전문점","category":"other"},{"name":"지구촌","tel":"02-0000-0000","addr":"경기도 하남시 춘궁동 171번지","indutype":"신변잡화 - 기타잡화","category":"other"}]},{"lat":"37.52190203","long":"127.19475778","imageIndex":17,"items":[{"name":"소피아엘렌","tel":"070-4176-7498","addr":"경기도 하남시 춘궁동 332-3번지","indutype":"가구 - 일반가구","category":"other"}]},{"lat":"37.521963496","long":"127.1901426","imageIndex":17,"items":[{"name":"스튜디오452","tel":"031-000-0000","addr":"경기도 하남시 춘궁동 318-6번지 건물 1,2층 전체","indutype":"광학제품 - 사진관","category":"other"}]},{"lat":"37.519881241","long":"127.19633626","imageIndex":17,"items":[{"name":"신동화물류보관창고","tel":"","addr":"경기도 하남시 춘궁동 387번지","indutype":"기타 - 기타 전문점","category":"other"}]},{"lat":"37.522102227","long":"127.18786921","imageIndex":17,"items":[{"name":"씨유하남둘레길점","tel":"080-080-3663","addr":"경기도 하남시 춘궁동 308-4번지","indutype":"유통업 영리 - 편 의 점","category":"other"}]},{"lat":"37.519934521","long":"127.19681149","imageIndex":17,"items":[{"name":"아스맨 주식회사","tel":"02-1599-9590","addr":"경기도 하남시 춘궁동 388-2번지","indutype":"기타 - 기계공구","category":"other"}]},{"lat":"37.525963078","long":"127.19065036","imageIndex":17,"items":[{"name":"에스디(SD)종합렌탈","tel":"031-391-2140","addr":"경기도 하남시 춘궁동 127-2번지 1층","indutype":"신변잡화 - 기타잡화","category":"other"}]},{"lat":"37.522956118","long":"127.18917223","imageIndex":17,"items":[{"name":"엘에스컴퍼니","tel":"","addr":"경기도 하남시 춘궁동 303-2번지","indutype":"의류 - 정장","category":"other"},{"name":"엘에스컴퍼니(LS Company)","tel":"02-1111-1111","addr":"경기도 하남시 춘궁동 303-2번지","indutype":"의류 - 정장","category":"other"}]},{"lat":"37.525899966","long":"127.19626129","imageIndex":17,"items":[{"name":"영진","tel":"031-794-1145","addr":"경기도 하남시 춘궁동 188-1번지","indutype":"회원제형태 - 기타1","category":"other"}]},{"lat":"37.525762177","long":"127.19786734","imageIndex":17,"items":[{"name":"오 베이비 (oh baby)","tel":"031-796-0808","addr":"경기도 하남시 춘궁동 179-1번지 2층","indutype":"의류 - 아동의류","category":"other"}]},{"lat":"37.518437218","long":"127.19228299","imageIndex":17,"items":[{"name":"우진시스템창호","tel":"031-1111-1111","addr":"경기도 하남시 춘궁동 398-12번지","indutype":"건축자재 - 기타건축자재","category":"other"}]},{"lat":"37.522153368","long":"127.19533534","imageIndex":17,"items":[{"name":"웅재상사","tel":"031-791-0078","addr":"경기도 하남시 춘궁동 361-8번지","indutype":"레져용품 - 스포츠·레져용품","category":"other"}]},{"lat":"37.525457445","long":"127.19689366","imageIndex":17,"items":[{"name":"원창실업(주)","tel":"031-793-9000","addr":"경기도 하남시 춘궁동 183-1번지","indutype":"건축자재 - 보일러·펌프·샷시","category":"other"}]},{"lat":"37.521099946","long":"127.18925811","imageIndex":17,"items":[{"name":"월드텍","tel":"031-793-8076","addr":"경기도 하남시 춘궁동 311-1번지","indutype":"건축자재 - 기타건축자재","category":"other"}]},{"lat":"37.519484029","long":"127.19681032","imageIndex":17,"items":[{"name":"웰라이프코리아 주식회사","tel":"031-794-5015","addr":"경기도 하남시 춘궁동 389-4번지","indutype":"전기제품 - 냉열기기","category":"other"}]},{"lat":"37.518041322","long":"127.18623033","imageIndex":17,"items":[{"name":"유창상사","tel":"031-792-2203","addr":"경기도 하남시 춘궁동 457-3번지","indutype":"유통업 영리 - 기타유통업","category":"other"}]},{"lat":"37.5281781","long":"127.19709303","imageIndex":17,"items":[{"name":"유한씨에스(CS)","tel":"02-2630-1130","addr":"경기도 하남시 춘궁동 160-1번지","indutype":"유통업 영리 - 기타유통업","category":"other"}]},{"lat":"37.52401224","long":"127.19358669","imageIndex":17,"items":[{"name":"임씨네공방/하남공예 명인협회","tel":"031-791-3830","addr":"경기도 하남시 춘궁동 256-3번지","indutype":"문화.취미 - 민예·공예품","category":"other"}]},{"lat":"37.518988394","long":"127.1968656","imageIndex":17,"items":[{"name":"제이앤에스","tel":"070-4843-3700","addr":"경기도 하남시 춘궁동 416-1번지 (1(좌측)층 스프링팔레스빌딩)","indutype":"신변잡화 - 신발","category":"other"}]},{"lat":"37.521707721","long":"127.1923365","imageIndex":17,"items":[{"name":"주식회사 블루드림워터","tel":"070-4726-6023","addr":"경기도 하남시 춘궁동 339번지","indutype":"주방용구 - 정수기","category":"other"}]},{"lat":"37.524988152","long":"127.19736757","imageIndex":17,"items":[{"name":"주식회사 이헬텍","tel":"02-2226-5082","addr":"경기도 하남시 춘궁동 239-2번지","indutype":"신변잡화 - 기타잡화","category":"other"}]},{"lat":"37.52662785","long":"127.19742839","imageIndex":17,"items":[{"name":"주식회사 한울에이디","tel":"031-791-5697","addr":"경기도 하남시 춘궁동 173-1번지","indutype":"건축자재 - 인테리어전문","category":"other"}]},{"lat":"37.518512502","long":"127.19586895","imageIndex":17,"items":[{"name":"주식회사평남비철","tel":"031-793-8405","addr":"경기도 하남시 춘궁동 411-2번지","indutype":"기타 - 기계공구","category":"other"}]},{"lat":"37.518881216","long":"127.18495417","imageIndex":17,"items":[{"name":"진우상사","tel":"02-426-2050","addr":"경기도 하남시 춘궁동 479번지 외1필지","indutype":"유통업 영리 - 기타유통업","category":"other"}]},{"lat":"37.522100614","long":"127.19453205","imageIndex":17,"items":[{"name":"짱 보트 피싱 샵","tel":"031-511-7064","addr":"경기도 하남시 춘궁동 332-2번지","indutype":"레져용품 - 스포츠·레져용품","category":"other"}]},{"lat":"37.528962527","long":"127.19117828","imageIndex":17,"items":[{"name":"청담","tel":"031-1899-3422","addr":"경기도 하남시 춘궁동 89번지 가","indutype":"신변잡화 - 기타잡화","category":"other"}]},{"lat":"37.5161816","long":"127.19423413","imageIndex":17,"items":[{"name":"청연플러스","tel":"031-699-6597","addr":"경기도 하남시 춘궁동 433-5번지 1층","indutype":"수리서비스 - 세탁소","category":"other"}]},{"lat":"37.517154903","long":"127.19408957","imageIndex":17,"items":[{"name":"청우","tel":"031-794-0171","addr":"경기도 하남시 춘궁동 408번지","indutype":"건축자재 - 기타건축자재","category":"other"}]},{"lat":"37.523041746","long":"127.1975322","imageIndex":17,"items":[{"name":"컴페니언스 레스큐 인 코리아 (CRK)","tel":"070-8239-0257","addr":"경기도 하남시 춘궁동 245-1번지 1층","indutype":"문화.취미 - 애완동물","category":"other"}]},{"lat":"37.524178994","long":"127.19631341","imageIndex":17,"items":[{"name":"톰부인터내셔날","tel":"031-793-8766","addr":"경기도 하남시 춘궁동 231-2번지","indutype":"기타 - 기타 전문점","category":"other"}]},{"lat":"37.525158518","long":"127.19786577","imageIndex":17,"items":[{"name":"팜스프링스 춘궁점","tel":"031-796-5531","addr":"경기도 하남시 춘궁동 236번지","indutype":"의류 - 스포츠의류","category":"other"}]},{"lat":"37.530489473","long":"127.1941236","imageIndex":17,"items":[{"name":"플루 베이스볼 센터","tel":"031-0000-0000","addr":"경기도 하남시 춘궁동 39번지 주건축물제 2동","indutype":"레져용품 - 스포츠·레져용품","category":"other"}]},{"lat":"37.523261488","long":"127.18978385","imageIndex":17,"items":[{"name":"핑크플래닛 주식회사","tel":"031-1666-8768","addr":"경기도 하남시 춘궁동 303-56번지 핑크플래닛","indutype":"주방용구 - 주방용구","category":"other"}]},{"lat":"37.523546242","long":"127.19756745","imageIndex":17,"items":[{"name":"하남 애견","tel":"031-793-3315","addr":"경기도 하남시 춘궁동 244번지","indutype":"문화.취미 - 애완동물","category":"other"}]},{"lat":"37.518459495","long":"127.19522405","imageIndex":17,"items":[{"name":"하남백년로타리클럽","tel":"031-791-6994","addr":"경기도 하남시 춘궁동 413-1번지","indutype":"기타 - 비영리/비대상","category":"other"}]},{"lat":"37.525186182","long":"127.19748121","imageIndex":17,"items":[{"name":"한우리유통","tel":"031-796-6035","addr":"경기도 하남시 춘궁동 234-1번지","indutype":"주방용구 - 주방용구","category":"other"}]},{"lat":"37.522657051","long":"127.19586831","imageIndex":4,"items":[{"name":"(주)신계민물장어유통","tel":"031-791-0592","addr":"경기도 하남시 춘궁동 249-6번지","indutype":"일반휴게음식 - 일반한식","category":"restaurant"}]},{"lat":"37.522708475","long":"127.19747478","imageIndex":4,"items":[{"name":"CHELSEA(카페첼시)","tel":"031-794-3014","addr":"경기도 하남시 춘궁동 246-3번지 1층","indutype":"일반휴게음식 - 서양음식","category":"restaurant"}]},{"lat":"37.52104734","long":"127.18250474","imageIndex":4,"items":[{"name":"가나안덕(DUCK)","tel":"031-795-5296","addr":"경기도 하남시 춘궁동 533번지","indutype":"일반휴게음식 - 일반한식","category":"restaurant"}]},{"lat":"37.520677849","long":"127.18256041","imageIndex":4,"items":[{"name":"고골전주한정식","tel":"031-791-2030","addr":"경기도 하남시 춘궁동 515-2번지 외3필지","indutype":"일반휴게음식 - 일반한식","category":"restaurant"},{"name":"탐라은갈치","tel":"031-000-0000","addr":"경기도 하남시 춘궁동 515-2번지 외 4필지","indutype":"일반휴게음식 - 일반한식","category":"restaurant"}]},{"lat":"37.521820734","long":"127.1892599","imageIndex":4,"items":[{"name":"곤드레사랑","tel":"031-791-1545","addr":"경기도 하남시 춘궁동 314-1번지 1층","indutype":"일반휴게음식 - 일반한식","category":"restaurant"}]},{"lat":"37.522014626","long":"127.18036907","imageIndex":4,"items":[{"name":"권현숙의 미사리 팔당냉면 란주 도삭면","tel":"031-793-6869","addr":"경기도 하남시 춘궁동 541-10번지","indutype":"일반휴게음식 - 중국식","category":"restaurant"}]},{"lat":"37.519931454","long":"127.18747925","imageIndex":4,"items":[{"name":"김미자 가마솥밥","tel":"031-796-1736","addr":"경기도 하남시 춘궁동 446-1번지 2층","indutype":"일반휴게음식 - 일반한식","category":"restaurant"}]},{"lat":"37.522206278","long":"127.19044864","imageIndex":4,"items":[{"name":"돈까스클럽","tel":"031-795-6180","addr":"경기도 하남시 춘궁동 319-3번지 1층","indutype":"일반휴게음식 - 서양음식","category":"restaurant"}]},{"lat":"37.522102227","long":"127.18786921","imageIndex":4,"items":[{"name":"둘레고기국수","tel":"031-792-7892","addr":"경기도 하남시 춘궁동 308-4번지 1층","indutype":"일반휴게음식 - 일반한식","category":"restaurant"}]},{"lat":"37.521740821","long":"127.18851311","imageIndex":4,"items":[{"name":"둥지","tel":"02-426-0032","addr":"경기도 하남시 춘궁동 308-6번지 1층","indutype":"일반휴게음식 - 일반한식","category":"restaurant"},{"name":"카페플","tel":"031-111-1111","addr":"경기도 하남시 춘궁동 308-6번지 3층","indutype":"일반휴게음식 - 서양음식","category":"restaurant"},{"name":"황제 닭곰탕","tel":"031-792-3331","addr":"경기도 하남시 춘궁동 308-6번지","indutype":"일반휴게음식 - 일반한식","category":"restaurant"}]},{"lat":"37.531157243","long":"127.19348043","imageIndex":4,"items":[{"name":"뜰안에","tel":"031-795-5544","addr":"경기도 하남시 춘궁동 35번지 1층","indutype":"일반휴게음식 - 일반한식","category":"restaurant"}]},{"lat":"37.522956118","long":"127.18917223","imageIndex":4,"items":[{"name":"라엘 웨딩 출장부페","tel":"","addr":"경기도 하남시 춘궁동 303-2번지 1층","indutype":"일반휴게음식 - 일반한식","category":"restaurant"}]},{"lat":"37.522434331","long":"127.1886732","imageIndex":4,"items":[{"name":"르꾸꾸","tel":"070-8266-7822","addr":"경기도 하남시 춘궁동 306-1번지 2층","indutype":"일반휴게음식 - 서양음식","category":"restaurant"},{"name":"리향 (춘궁점)","tel":"031-792-3552","addr":"경기도 하남시 춘궁동 306-1번지 1층","indutype":"일반휴게음식 - 중국식","category":"restaurant"}]},{"lat":"37.523539556","long":"127.1905651","imageIndex":4,"items":[{"name":"마르첼에프엔씨","tel":"031-792-5490","addr":"경기도 하남시 춘궁동 272-2번지","indutype":"일반휴게음식 - 일반한식","category":"restaurant"}]},{"lat":"37.520485441","long":"127.18465265","imageIndex":4,"items":[{"name":"명품관화로구이","tel":"031-794-9256","addr":"경기도 하남시 춘궁동 501-5번지","indutype":"일반휴게음식 - 일반한식","category":"restaurant"}]},{"lat":"37.522541879","long":"127.18903545","imageIndex":4,"items":[{"name":"보리향","tel":"031-791-0332","addr":"경기도 하남시 춘궁동 304-2번지","indutype":"일반휴게음식 - 일반한식","category":"restaurant"}]},{"lat":"37.522873694","long":"127.19562","imageIndex":4,"items":[{"name":"봉평 막국수 칼국수","tel":"031-794-3815","addr":"경기도 하남시 춘궁동 249-22번지 1,2층","indutype":"일반휴게음식 - 일반한식","category":"restaurant"}]},{"lat":"37.52060112","long":"127.18559182","imageIndex":4,"items":[{"name":"산수갈비","tel":"031-795-6565","addr":"경기도 하남시 춘궁동 500-4번지","indutype":"일반휴게음식 - 일반한식","category":"restaurant"},{"name":"커피, 호두나무 Cafe Walnut","tel":"031-795-6565","addr":"경기도 하남시 춘궁동 500-4번지","indutype":"일반휴게음식 - 서양음식","category":"restaurant"}]},{"lat":"37.518349047","long":"127.19664902","imageIndex":4,"items":[{"name":"삼선짬뽕","tel":"031-3740-9996","addr":"경기도 하남시 춘궁동 417-1번지 1층","indutype":"일반휴게음식 - 중국식","category":"restaurant"}]},{"lat":"37.525823893","long":"127.19317274","imageIndex":4,"items":[{"name":"서하남 하이패스센터 커피매점","tel":"031-793-9902","addr":"경기도 하남시 춘궁동 212번지 서하남하이패스센터","indutype":"일반휴게음식 - 서양음식","category":"restaurant"},{"name":"서하남휴게소/대보건설(주)서하남행복드림","tel":"031-795-3278","addr":"경기도 하남시 춘궁동 212번지","indutype":"일반휴게음식 - 일반한식","category":"restaurant"}]},{"lat":"37.51781728","long":"127.19676076","imageIndex":4,"items":[{"name":"솔밭","tel":"031-793-9234","addr":"경기도 하남시 춘궁동 420-4번지","indutype":"일반휴게음식 - 일반한식","category":"restaurant"}]},{"lat":"37.523072406","long":"127.18970419","imageIndex":4,"items":[{"name":"수막새","tel":"031-793-8932","addr":"경기도 하남시 춘궁동 303-10번지","indutype":"일반휴게음식 - 일반한식","category":"restaurant"}]},{"lat":"37.528683402","long":"127.19106445","imageIndex":4,"items":[{"name":"시어머니청국장","tel":"031-795-1117","addr":"경기도 하남시 춘궁동 88번지","indutype":"일반휴게음식 - 일반한식","category":"restaurant"}]},{"lat":"37.522153368","long":"127.19533534","imageIndex":4,"items":[{"name":"양평신내서울해장국","tel":"031-792-7419","addr":"경기도 하남시 춘궁동 361-8번지 1층","indutype":"일반휴게음식 - 일반한식","category":"restaurant"}]},{"lat":"37.523546242","long":"127.19756745","imageIndex":4,"items":[{"name":"영광굴비한정식","tel":"031-795-6946","addr":"경기도 하남시 춘궁동 244번지 2층","indutype":"일반휴게음식 - 일반한식","category":"restaurant"},{"name":"행복손만두칼국수","tel":"031-791-6266","addr":"경기도 하남시 춘궁동 244번지","indutype":"일반휴게음식 - 일반한식","category":"restaurant"}]},{"lat":"37.522766295","long":"127.19517855","imageIndex":4,"items":[{"name":"옛맛","tel":"031-793-5333","addr":"경기도 하남시 춘궁동 249-9번지 1층","indutype":"일반휴게음식 - 일반한식","category":"restaurant"}]},{"lat":"37.51873467","long":"127.19220456","imageIndex":4,"items":[{"name":"오를로","tel":"","addr":"경기도 하남시 춘궁동 398-5번지 2층","indutype":"일반휴게음식 - 서양음식","category":"restaurant"}]},{"lat":"37.521598502","long":"127.18147666","imageIndex":4,"items":[{"name":"온누리농장","tel":"031-792-9952","addr":"경기도 하남시 춘궁동 541-3번지","indutype":"일반휴게음식 - 일반한식","category":"restaurant"},{"name":"우리들의 집 아리랑","tel":"031-792-7011","addr":"경기도 하남시 춘궁동 541-3번지 외2필지","indutype":"일반휴게음식 - 일반한식","category":"restaurant"}]},{"lat":"37.522123745","long":"127.17970191","imageIndex":4,"items":[{"name":"온누리장작구이","tel":"031-795-9392","addr":"경기도 하남시 춘궁동 542-1번지","indutype":"일반휴게음식 - 일반한식","category":"restaurant"}]},{"lat":"37.52548701","long":"127.1953439","imageIndex":4,"items":[{"name":"원두볶는사람들","tel":"031-791-5160","addr":"경기도 하남시 춘궁동 199-3번지 1층","indutype":"일반휴게음식 - 서양음식","category":"restaurant"}]},{"lat":"37.522206688","long":"127.19578796","imageIndex":4,"items":[{"name":"윈드몰론","tel":"031-795-5511","addr":"경기도 하남시 춘궁동 361-2번지","indutype":"일반휴게음식 - 서양음식","category":"restaurant"}]},{"lat":"37.521740127","long":"127.18895428","imageIndex":4,"items":[{"name":"이랴","tel":"031-795-8208","addr":"경기도 하남시 춘궁동 313-1번지 1층","indutype":"일반휴게음식 - 일반한식","category":"restaurant"}]},{"lat":"37.522099468","long":"127.18962258","imageIndex":4,"items":[{"name":"이화막국수","tel":"031-793-5123","addr":"경기도 하남시 춘궁동 316-1번지 1층","indutype":"일반휴게음식 - 일반한식","category":"restaurant"}]},{"lat":"37.521319201","long":"127.18733561","imageIndex":4,"items":[{"name":"장수촌","tel":"031-792-4807","addr":"경기도 하남시 춘궁동 309-7번지","indutype":"일반휴게음식 - 일반한식","category":"restaurant"}]},{"lat":"37.526456029","long":"127.19781258","imageIndex":4,"items":[{"name":"전주시골밥상","tel":"031-796-5922","addr":"경기도 하남시 춘궁동 177-1번지 1층","indutype":"일반휴게음식 - 일반한식","category":"restaurant"}]},{"lat":"37.525297176","long":"127.19572805","imageIndex":4,"items":[{"name":"주식회사 굿푸드스토리","tel":"","addr":"경기도 하남시 춘궁동 230-1번지 2층","indutype":"일반휴게음식 - 위탁급식업","category":"restaurant"}]},{"lat":"37.524321107","long":"127.19755815","imageIndex":4,"items":[{"name":"짬뽕타임 하남점","tel":"031-795-9099","addr":"경기도 하남시 춘궁동 241-8번지 1층","indutype":"일반휴게음식 - 중국식","category":"restaurant"},{"name":"평안도찹쌀순대","tel":"031-791-9908","addr":"경기도 하남시 춘궁동 241-8번지 1층","indutype":"일반휴게음식 - 일반한식","category":"restaurant"}]},{"lat":"37.520574999","long":"127.18500353","imageIndex":4,"items":[{"name":"천지해 왕대통 수라찜","tel":"031-796-1124","addr":"경기도 하남시 춘궁동 501-6번지 ,1,2층","indutype":"일반휴게음식 - 일반한식","category":"restaurant"},{"name":"천지해왕대통수라찜","tel":"031-796-1124","addr":"경기도 하남시 춘궁동 501-6번지 1-2층","indutype":"일반휴게음식 - 일반한식","category":"restaurant"}]},{"lat":"37.521073352","long":"127.18317221","imageIndex":4,"items":[{"name":"초원가든","tel":"031-793-1751","addr":"경기도 하남시 춘궁동 514-2번지","indutype":"일반휴게음식 - 일반한식","category":"restaurant"}]},{"lat":"37.518042712","long":"127.19664823","imageIndex":4,"items":[{"name":"커피세렌디피티","tel":"070-8842-9807","addr":"경기도 하남시 춘궁동 417-2번지 석천재 101호","indutype":"일반휴게음식 - 일반한식","category":"restaurant"}]},{"lat":"37.524540707","long":"127.18990017","imageIndex":4,"items":[{"name":"푸짐한푸드","tel":"","addr":"경기도 하남시 춘궁동 282-1번지 1층","indutype":"일반휴게음식 - 일반한식","category":"restaurant"}]},{"lat":"37.523679605","long":"127.18745455","imageIndex":4,"items":[{"name":"푼타하우스","tel":"","addr":"경기도 하남시 춘궁동 294-1번지 2층","indutype":"일반휴게음식 - 서양음식","category":"restaurant"}]},{"lat":"37.520625043","long":"127.18173452","imageIndex":4,"items":[{"name":"풍천장어농원","tel":"031-791-8844","addr":"경기도 하남시 춘궁동 531-3번지","indutype":"일반휴게음식 - 일반한식","category":"restaurant"}]},{"lat":"37.521933666","long":"127.19745014","imageIndex":4,"items":[{"name":"하남 신짬뽕","tel":"031-791-7878","addr":"경기도 하남시 춘궁동 371-2번지","indutype":"일반휴게음식 - 중국식","category":"restaurant"}]},{"lat":"37.520070308","long":"127.1850928","imageIndex":4,"items":[{"name":"흠커피","tel":"031-795-0168","addr":"경기도 하남시 춘궁동 494-3번지","indutype":"일반휴게음식 - 일반한식","category":"restaurant"}]},{"lat":"37.52296359","long":"127.1901451","imageIndex":4,"items":[{"name":"흰구름","tel":"031-791-2662","addr":"경기도 하남시 춘궁동 303-7번지","indutype":"일반휴게음식 - 서양음식","category":"restaurant"}]},{"lat":"37.526572565","long":"127.19264294","imageIndex":0,"items":[{"name":"(주)일광","tel":"031-426-6565","addr":"경기도 하남시 춘궁동 208-3번지","indutype":"자동차정비 유지 - 자동차부품","category":"car"}]},{"lat":"37.525124675","long":"127.19653079","imageIndex":0,"items":[{"name":"REBIRTH DETAILING(리버스디테일링)","tel":"070-9165-2059","addr":"경기도 하남시 춘궁동 233-2번지","indutype":"자동차정비 유지 - 카인테리어","category":"car"},{"name":"스마트존","tel":"031-797-9917","addr":"경기도 하남시 춘궁동 233-2번지 2층","indutype":"자동차정비 유지 - 카인테리어","category":"car"},{"name":"킴스게러지","tel":"031-795-2849","addr":"경기도 하남시 춘궁동 233-2번지","indutype":"자동차정비 유지 - 자동차정비","category":"car"}]},{"lat":"37.521905847","long":"127.19239356","imageIndex":0,"items":[{"name":"경안상사","tel":"031-795-7013","addr":"경기도 하남시 춘궁동 337-1","indutype":"자동차정비 유지 - 자동차부품","category":"car"}]},{"lat":"37.521069964","long":"127.17945056","imageIndex":0,"items":[{"name":"농업회사법린 주식회사 이원산업개발","tel":"02-6928-2140","addr":"경기도 하남시 춘궁동 538번지","indutype":"자동차정비 유지 - 주차장","category":"car"}]},{"lat":"37.522045641","long":"127.18947539","imageIndex":0,"items":[{"name":"대영자동차공업사","tel":"02-486-3600","addr":"경기도 하남시 춘궁동 315-1번지","indutype":"자동차정비 유지 - 자동차정비","category":"car"}]},{"lat":"37.524988152","long":"127.19736757","imageIndex":0,"items":[{"name":"명가프로테크","tel":"02-2226-5082","addr":"경기도 하남시 춘궁동 239-2번지","indutype":"자동차정비 유지 - 자동차부품","category":"car"},{"name":"주식회사 비기","tel":"031-2235-6082","addr":"경기도 하남시 춘궁동 239-2번지","indutype":"자동차정비 유지 - 자동차부품","category":"car"}]},{"lat":"37.525602789","long":"127.19617003","imageIndex":0,"items":[{"name":"비에이컴퍼니(BA company)","tel":"031-796-2692","addr":"경기도 하남시 춘궁동 184-2번지 1층","indutype":"자동차정비 유지 - 자동차부품","category":"car"},{"name":"휠링(wheelling)","tel":"","addr":"경기도 하남시 춘궁동 184-2번지 1층","indutype":"자동차정비 유지 - 자동차시트·타이어","category":"car"}]},{"lat":"37.524847311","long":"127.19534226","imageIndex":0,"items":[{"name":"선우시트","tel":"031-793-8629","addr":"경기도 하남시 춘궁동 226-4번지","indutype":"자동차정비 유지 - 자동차부품","category":"car"}]},{"lat":"37.522678855","long":"127.19353805","imageIndex":0,"items":[{"name":"세광카서비스","tel":"031-794-1252","addr":"경기도 하남시 춘궁동 328-1.1동1,12호","indutype":"자동차정비 유지 - 자동차부품","category":"car"}]},{"lat":"37.529293866","long":"127.19797835","imageIndex":0,"items":[{"name":"용킷트모터코리아(주)","tel":"031-792-2751","addr":"경기도 하남시 춘궁동 18번지","indutype":"자동차판매 - 이륜차판매","category":"car"}]},{"lat":"37.521991724","long":"127.19500688","imageIndex":0,"items":[{"name":"주식회사 강남명품타이어","tel":"031-0000-0000","addr":"경기도 하남시 춘궁동 360-3번지 1층","indutype":"자동차정비 유지 - 자동차시트·타이어","category":"car"}]},{"lat":"37.521071632","long":"127.19567192","imageIndex":0,"items":[{"name":"주식회사 지엠디스쿠터","tel":"070-8869-6050","addr":"경기도 하남시 춘궁동 379-1번지","indutype":"자동차판매 - 이륜차판매","category":"car"}]},{"lat":"37.525402977","long":"127.19714239","imageIndex":0,"items":[{"name":"지엠대우하남정비코너","tel":"031-791-8257","addr":"경기도 하남시 춘궁동 177-7번지","indutype":"자동차정비 유지 - 자동차부품","category":"car"}]},{"lat":"37.523961216","long":"127.19725178","imageIndex":0,"items":[{"name":"흑마샵","tel":"031-796-1126","addr":"경기도 하남시 춘궁동 242-6번지","indutype":"자동차정비 유지 - 자동차정비","category":"car"}]},{"lat":"37.525963078","long":"127.19065036","imageIndex":13,"items":[{"name":"(주)중부엠앤디","tel":"031-791-7380","addr":"경기도 하남시 춘궁동 127-2번지","indutype":"보건위생 - 의료용품","category":"beauty"}]},{"lat":"37.526852872","long":"127.19756473","imageIndex":13,"items":[{"name":"오성메디칼","tel":"02-477-7094","addr":"경기도 하남시 춘궁동 172-2번지","indutype":"보건위생 - 의료용품","category":"beauty"}]},{"lat":"37.527149749","long":"127.19783701","imageIndex":13,"items":[{"name":"FC하남브라더스","tel":"031-794-7722","addr":"경기도 하남시 춘궁동 170번지","indutype":"레저업소 - 기타레져업소","category":"leisure"}]},{"lat":"37.517156163","long":"127.19330908","imageIndex":13,"items":[{"name":"고골낚시터","tel":"031-794-8584","addr":"경기도 하남시 춘궁동 401-4번지","indutype":"레저업소 - 기타레져업소","category":"leisure"}]},{"lat":"37.521740127","long":"127.18895428","imageIndex":13,"items":[{"name":"제이제이스크린골프","tel":"031-795-6900","addr":"경기도 하남시 춘궁동 313-1번지","indutype":"레저업소 - 스크린골프","category":"leisure"}]},{"lat":"37.52348373","long":"127.19167356","imageIndex":13,"items":[{"name":"캐롬빌리지당구장","tel":"031-794-8584","addr":"경기도 하남시 춘궁동 264-1번지 외1필지","indutype":"레저업소 - 당 구 장","category":"leisure"}]},{"lat":"37.530489473","long":"127.1941236","imageIndex":13,"items":[{"name":"캡틴스포츠아카데미","tel":"031-795-6006","addr":"경기도 하남시 춘궁동 39번지","indutype":"레저업소 - 기타레져업소","category":"leisure"}]},{"lat":"37.523041746","long":"127.1975322","imageIndex":9,"items":[{"name":"개나리주유소","tel":"031-796-1600","addr":"경기도 하남시 춘궁동 245-1번지","indutype":"연료판매점 - 쌍용S-OIL","category":"oil"}]},{"lat":"37.518490732","long":"127.19262247","imageIndex":9,"items":[{"name":"깜장산업","tel":"031-791-5255","addr":"경기도 하남시 춘궁동 398-13번지","indutype":"연료판매점 - 기타연료","category":"oil"}]},{"lat":"37.521761379","long":"127.18101326","imageIndex":9,"items":[{"name":"동서울주유소","tel":"031-796-4336","addr":"경기도 하남시 춘궁동 541-1번지 지층","indutype":"연료판매점 - SK주유소","category":"oil"}]},{"lat":"37.522184844","long":"127.19258657","imageIndex":9,"items":[{"name":"하남종합가스상사","tel":"031-791-8822","addr":"경기도 하남시 춘궁동 325-3번지","indutype":"연료판매점 - LPG 취급점","category":"oil"}]},{"lat":"37.525823893","long":"127.19317274","imageIndex":9,"items":[{"name":"한국도로공사 서하남주유소","tel":"031-795-5870","addr":"경기도 하남시 춘궁동 212번지","indutype":"연료판매점 - 쌍용S-OIL","category":"oil"}]},{"lat":"37.525823893","long":"127.19317274","imageIndex":7,"items":[{"name":"서하남(간)휴게소","tel":"031-791-8962","addr":"경기도 하남시 춘궁동 212번지","indutype":"유통업 영리 - 슈퍼마켓","category":"mart"}]},{"lat":"37.516352164","long":"127.19461915","imageIndex":16,"items":[{"name":"하남발도르프숲골어린이집[아이행복]","tel":"031-8836-0556","addr":"경기도 하남시 춘궁동 432-1번지","indutype":"학원 - 유아원","category":"study"}]}]