[{"lat":"37.235938576","long":"127.36469151","imageIndex":4,"items":[{"name":"그램그램 마장점","tel":"031-638-9559","addr":"경기도 이천시 마장면 덕평리 447-2번지","indutype":"일반휴게음식 - 일반한식","category":"restaurant"}]},{"lat":"37.237389384","long":"127.3646421","imageIndex":4,"items":[{"name":"대박집","tel":"031-634-6012","addr":"경기도 이천시 마장면 덕평리 420-3번지 1층","indutype":"일반휴게음식 - 일반한식","category":"restaurant"}]},{"lat":"37.23683347","long":"127.36374916","imageIndex":4,"items":[{"name":"덕평 가마솥 추어탕","tel":"031-631-0725","addr":"경기도 이천시 마장면 덕평리 461-4번지","indutype":"일반휴게음식 - 일반한식","category":"restaurant"}]},{"lat":"37.237554042","long":"127.36383148","imageIndex":4,"items":[{"name":"덕평순대국","tel":"031-634-6300","addr":"경기도 이천시 마장면 덕평리 415-3번지 가동 1층","indutype":"일반휴게음식 - 일반한식","category":"restaurant"}]},{"lat":"37.237996226","long":"127.3636082","imageIndex":4,"items":[{"name":"덕평염소탕","tel":"031-632-9677","addr":"경기도 이천시 마장면 덕평리 318-2번지","indutype":"일반휴게음식 - 일반한식","category":"restaurant"}]},{"lat":"37.23647138","long":"127.36429963","imageIndex":4,"items":[{"name":"덕평칼국수","tel":"031-634-8870","addr":"경기도 이천시 마장면 덕평리 445-5번지 1층","indutype":"일반휴게음식 - 일반한식","category":"restaurant"}]},{"lat":"37.239638612","long":"127.36278207","imageIndex":4,"items":[{"name":"또래오래(마장점)","tel":"031-637-4936","addr":"경기도 이천시 마장면 덕평리 333-7번지 전체","indutype":"일반휴게음식 - 스넥","category":"restaurant"},{"name":"영짬뽕","tel":"031-633-2334","addr":"경기도 이천시 마장면 덕평리 333-7번지","indutype":"일반휴게음식 - 중국식","category":"restaurant"}]},{"lat":"37.240384946","long":"127.36328149","imageIndex":4,"items":[{"name":"루가","tel":"031-634-4789","addr":"경기도 이천시 마장면 덕평리 235-10번지","indutype":"일반휴게음식 - 스넥","category":"restaurant"}]},{"lat":"37.236306132","long":"127.3653018","imageIndex":4,"items":[{"name":"마산아구해물탕","tel":"031-632-6924","addr":"경기도 이천시 마장면 덕평리 438-7번지","indutype":"일반휴게음식 - 일반한식","category":"restaurant"},{"name":"카페모드니","tel":"031-632-6924","addr":"경기도 이천시 마장면 덕평리 438-7번지 1층","indutype":"일반휴게음식 - 서양음식","category":"restaurant"}]},{"lat":"37.232056817","long":"127.36708444","imageIndex":4,"items":[{"name":"마포갈비","tel":"031-633-1516","addr":"경기도 이천시 마장면 덕평리 505-1번지","indutype":"일반휴게음식 - 일반한식","category":"restaurant"}]},{"lat":"37.236106114","long":"127.36588685","imageIndex":4,"items":[{"name":"민속식당이천쌀밥집","tel":"031-633-9358","addr":"경기도 이천시 마장면 덕평리 434-2번지 438-1","indutype":"일반휴게음식 - 일반한식","category":"restaurant"}]},{"lat":"37.237001293","long":"127.36485436","imageIndex":4,"items":[{"name":"본스치킨 (마장덕평점)","tel":"031-634-8406","addr":"경기도 이천시 마장면 덕평리 440-2번지","indutype":"일반휴게음식 - 스넥","category":"restaurant"}]},{"lat":"37.229724016","long":"127.36680278","imageIndex":4,"items":[{"name":"어야디야","tel":"031-635-4555","addr":"경기도 이천시 마장면 덕평리 518-1번지","indutype":"일반휴게음식 - 일반한식","category":"restaurant"}]},{"lat":"37.231304251","long":"127.36861334","imageIndex":4,"items":[{"name":"엄지장수촌주식회사","tel":"031-635-8895","addr":"경기도 이천시 마장면 덕평리 104번지","indutype":"일반휴게음식 - 일반한식","category":"restaurant"}]},{"lat":"37.235912372","long":"127.36442092","imageIndex":4,"items":[{"name":"에스엔엘푸드 예담한식부페","tel":"031-631-3826","addr":"경기도 이천시 마장면 덕평리 448-1번지","indutype":"일반휴게음식 - 일반한식","category":"restaurant"}]},{"lat":"37.240610234","long":"127.36327129","imageIndex":4,"items":[{"name":"진가추어생선구이","tel":"031-638-1617","addr":"경기도 이천시 마장면 덕평리 235-3번지","indutype":"일반휴게음식 - 일반한식","category":"restaurant"}]},{"lat":"37.236750695","long":"127.36430096","imageIndex":4,"items":[{"name":"청진동해장국(덕평점)","tel":"031-633-5008","addr":"경기도 이천시 마장면 덕평리 441-5번지","indutype":"일반휴게음식 - 일반한식","category":"restaurant"}]},{"lat":"37.229300608","long":"127.36677821","imageIndex":4,"items":[{"name":"통큰짬뽕","tel":"031-631-5999","addr":"경기도 이천시 마장면 덕평리 101-5번지","indutype":"일반휴게음식 - 중국식","category":"restaurant"}]}]