[{"lat":"37.15211209","long":"127.03972545","imageIndex":4,"items":[{"name":"대가식당","tel":"031-376-8859","addr":"경기도 오산시 서동 281-14번지","indutype":"일반휴게음식 - 일반한식","category":"restaurant"}]},{"lat":"37.15600325","long":"127.04387005","imageIndex":4,"items":[{"name":"동상기사님식당","tel":"031-372-8786","addr":"경기도 오산시 서동 5-1번지","indutype":"일반휴게음식 - 일반한식","category":"restaurant"}]},{"lat":"37.14991482","long":"127.03533437","imageIndex":4,"items":[{"name":"두향","tel":"031-372-2580","addr":"경기도 오산시 서동 477-6번지 1층","indutype":"일반휴게음식 - 일반한식","category":"restaurant"}]},{"lat":"37.143722295","long":"127.04295173","imageIndex":4,"items":[{"name":"빨간돼지왕족발","tel":"031-377-3077","addr":"경기도 오산시 서동 125-5신동아상가208","indutype":"일반휴게음식 - 일반한식","category":"restaurant"}]},{"lat":"37.154977145","long":"127.04059365","imageIndex":4,"items":[{"name":"솔향","tel":"031-377-5250","addr":"경기도 오산시 서동 347번지 솔향","indutype":"일반휴게음식 - 일반한식","category":"restaurant"}]},{"lat":"37.15416637","long":"127.04006416","imageIndex":4,"items":[{"name":"스프로와","tel":"070-7399-1014","addr":"경기도 오산시 서동 330-2번지 2층","indutype":"일반휴게음식 - 주점","category":"restaurant"}]},{"lat":"37.155310427","long":"127.04092027","imageIndex":4,"items":[{"name":"오가피추어탕","tel":"031-378-7988","addr":"경기도 오산시 서동 344-4번지 다동 1층","indutype":"일반휴게음식 - 일반한식","category":"restaurant"}]},{"lat":"37.151112134","long":"127.03906083","imageIndex":4,"items":[{"name":"제니스카페(Jenny's Cafe)","tel":"031-378-1583","addr":"경기도 오산시 서동 246-1번지 1층","indutype":"일반휴게음식 - 서양음식","category":"restaurant"}]},{"lat":"37.155697743","long":"127.04133699","imageIndex":4,"items":[{"name":"큰돌감자탕","tel":"031-373-6637","addr":"경기도 오산시 서동 342-8번지 1층","indutype":"일반휴게음식 - 일반한식","category":"restaurant"}]},{"lat":"37.154499637","long":"127.04044707","imageIndex":4,"items":[{"name":"황금정","tel":"031-111-1111","addr":"경기도 오산시 서동 331번지 1층","indutype":"일반휴게음식 - 일반한식","category":"restaurant"}]}]