[{"lat":"37.24526655","long":"127.01594463","imageIndex":5,"items":[{"name":"동원모텔","tel":"031-235-0346","addr":"경기도 수원시 권선구 세류동 1158-7번지","indutype":"숙박업 - 여관/기타숙박업","category":"hotel"}]},{"lat":"37.244320511","long":"127.01552746","imageIndex":5,"items":[{"name":"모란파크","tel":"031-223-9366","addr":"경기도 수원시 권선구 세류동 1158-26번지 1층","indutype":"숙박업 - 여관/기타숙박업","category":"hotel"}]},{"lat":"37.244987151","long":"127.01664336","imageIndex":5,"items":[{"name":"몽모텔","tel":"031-663-0447","addr":"경기도 수원시 권선구 세류동 1155번지","indutype":"숙박업 - 여관/기타숙박업","category":"hotel"}]},{"lat":"37.24446464","long":"127.0158656","imageIndex":5,"items":[{"name":"물(MUL)모텔","tel":"031-223-9015","addr":"경기도 수원시 권선구 세류동 1158-49번지","indutype":"숙박업 - 여관/기타숙박업","category":"hotel"},{"name":"뮬(MUL)모텔","tel":"031-238-2096","addr":"경기도 수원시 권선구 세류동 1158-49번지","indutype":"숙박업 - 여관/기타숙박업","category":"hotel"}]},{"lat":"37.245599794","long":"127.01713938","imageIndex":5,"items":[{"name":"아이비2모텔","tel":"031-239-2800","addr":"경기도 수원시 권선구 세류동 1154-20번지","indutype":"숙박업 - 여관/기타숙박업","category":"hotel"}]},{"lat":"37.245626963","long":"127.0159447","imageIndex":5,"items":[{"name":"열린파크","tel":"031-232-1884","addr":"경기도 수원시 권선구 세류동 1158-5번지","indutype":"숙박업 - 여관/기타숙박업","category":"hotel"}]},{"lat":"37.245464813","long":"127.01561782","imageIndex":5,"items":[{"name":"오라고호텔","tel":"031-221-5625","addr":"경기도 수원시 권선구 세류동 1158-19번지","indutype":"숙박업 - 여관/기타숙박업","category":"hotel"},{"name":"오라고호텔","tel":"031-221-5625","addr":"경기도 수원시 권선구 세류동 1158-19번지","indutype":"숙박업 - 여관/기타숙박업","category":"hotel"}]},{"lat":"37.244987129","long":"127.01683496","imageIndex":5,"items":[{"name":"오투엘","tel":"031-235-2130","addr":"경기도 수원시 권선구 세류동 1155-1번지","indutype":"숙박업 - 여관/기타숙박업","category":"hotel"}]},{"lat":"37.244599694","long":"127.016756","imageIndex":5,"items":[{"name":"자바","tel":"031-898-7788","addr":"경기도 수원시 권선구 세류동 1155-7번지","indutype":"숙박업 - 여관/기타숙박업","category":"hotel"}]},{"lat":"37.245410614","long":"127.01683504","imageIndex":5,"items":[{"name":"장미파크","tel":"031-234-1476","addr":"경기도 수원시 권선구 세류동 1154-12번지","indutype":"숙박업 - 여관/기타숙박업","category":"hotel"},{"name":"장미파크","tel":"031-234-1476","addr":"경기도 수원시 권선구 세류동 1154-12번지","indutype":"숙박업 - 여관/기타숙박업","category":"hotel"}]},{"lat":"37.24496021","long":"127.01584315","imageIndex":5,"items":[{"name":"쟈니비","tel":"031-898-9694","addr":"경기도 수원시 권선구 세류동 1158-45번지","indutype":"숙박업 - 여관/기타숙박업","category":"hotel"}]},{"lat":"37.244716998","long":"127.01522322","imageIndex":5,"items":[{"name":"제이모텔","tel":"031-234-5594","addr":"경기도 수원시 권선구 세류동 1158-12번지","indutype":"숙박업 - 여관/기타숙박업","category":"hotel"}]},{"lat":"37.245266592","long":"127.01556143","imageIndex":5,"items":[{"name":"피닉스모텔","tel":"031-236-4614","addr":"경기도 수원시 권선구 세류동 1158-9번지","indutype":"숙박업 - 여관/기타숙박업","category":"hotel"}]},{"lat":"37.24521236","long":"127.01706042","imageIndex":5,"items":[{"name":"해바라기모텔","tel":"031-796-2105","addr":"경기도 수원시 권선구 세류동 1154-16번지","indutype":"숙박업 - 여관/기타숙박업","category":"hotel"}]},{"lat":"37.244410468","long":"127.01683486","imageIndex":5,"items":[{"name":"호텔더블유(호텔W)","tel":"031-224-3058","addr":"경기도 수원시 권선구 세류동 1155-4번지","indutype":"숙박업 - 여관/기타숙박업","category":"hotel"}]},{"lat":"37.245320565","long":"127.01636166","imageIndex":5,"items":[{"name":"호텔에이원(HOTEL A1)","tel":"031-223-6535","addr":"경기도 수원시 권선구 세류동 1153-11번지","indutype":"숙박업 - 여관/기타숙박업","category":"hotel"}]},{"lat":"37.245239418","long":"127.01683501","imageIndex":5,"items":[{"name":"황금모텔","tel":"031-235-6565","addr":"경기도 수원시 권선구 세류동 1154-25번지","indutype":"숙박업 - 여관/기타숙박업","category":"hotel"}]}]