[{"lat":"37.33088252","long":"126.93720128","imageIndex":0,"items":[{"name":"(주)성우자동차정비","tel":"031-460-2751","addr":"경기도 군포시 부곡동 451번지","indutype":"자동차정비 유지 - 자동차정비","category":"car"},{"name":"에이스카센타","tel":"031-460-2423","addr":"경기도 군포시 부곡동 451번지 (15동)","indutype":"자동차정비 유지 - 자동차정비","category":"car"}]},{"lat":"37.323704366","long":"126.94279228","imageIndex":0,"items":[{"name":"금정사","tel":"","addr":"경기도 군포시 부곡동 1126번지 휴먼시아 205동 602호","indutype":"자동차정비 유지 - 자동차시트·타이어","category":"car"}]},{"lat":"37.325785364","long":"126.9420911","imageIndex":0,"items":[{"name":"금호타이어 군포첨단산업단지점","tel":"070-4064-7885","addr":"경기도 군포시 부곡동 1253-1번지 1층","indutype":"자동차정비 유지 - 자동차시트·타이어","category":"car"}]},{"lat":"37.333480513","long":"126.92723543","imageIndex":0,"items":[{"name":"넘버원 카 와시 (Number One Car Wash)","tel":"031-397-8880","addr":"경기도 군포시 부곡동 1185번지","indutype":"자동차정비 유지 - 세차장","category":"car"}]},{"lat":"37.321118939","long":"126.94378715","imageIndex":0,"items":[{"name":"로스터틴팅","tel":"031-462-1118","addr":"경기도 군포시 부곡동 1144-3번지","indutype":"자동차정비 유지 - 자동차부품","category":"car"}]},{"lat":"37.338807698","long":"126.93070574","imageIndex":0,"items":[{"name":"스마트 출장 세차맨","tel":"","addr":"경기도 군포시 부곡동 1204번지 삼성마을6단지","indutype":"자동차정비 유지 - 세차장","category":"car"},{"name":"이글벳 강동","tel":"","addr":"경기도 군포시 부곡동 1204번지 삼성마을6단지","indutype":"자동차정비 유지 - 자동차부품","category":"car"}]},{"lat":"37.337259741","long":"126.93370886","imageIndex":0,"items":[{"name":"오토슈트","tel":"070-4156-0074","addr":"경기도 군포시 부곡동 1215-1번지 1층 101호","indutype":"자동차정비 유지 - 카인테리어","category":"car"}]},{"lat":"37.334002654","long":"126.92653531","imageIndex":0,"items":[{"name":"오토오아시스 군포당동점","tel":"031-445-0366","addr":"경기도 군포시 부곡동 1180번지","indutype":"자동차정비 유지 - 자동차정비","category":"car"}]},{"lat":"37.33792654","long":"126.93378724","imageIndex":0,"items":[{"name":"카스킨 코리아","tel":"031-111-1111","addr":"경기도 군포시 부곡동 1213-7번지 101호","indutype":"자동차정비 유지 - 카인테리어","category":"car"}]},{"lat":"37.334481209","long":"126.92812586","imageIndex":0,"items":[{"name":"한국폴리","tel":"031-501-9444","addr":"경기도 군포시 부곡동 1181번지 삼성마을","indutype":"자동차정비 유지 - 자동차부품","category":"car"}]},{"lat":"37.335953456","long":"126.9340373","imageIndex":0,"items":[{"name":"해피시티관리단","tel":"031-391-2732","addr":"경기도 군포시 부곡동 1195번지","indutype":"자동차정비 유지 - 주차장","category":"car"}]},{"lat":"37.333480223","long":"126.92678408","imageIndex":0,"items":[{"name":"현수통상","tel":"031-458-8862","addr":"경기도 군포시 부곡동 1183번지","indutype":"자동차정비 유지 - 자동차시트·타이어","category":"car"}]}]