[{"lat":"37.656626061","long":"126.77129088","imageIndex":4,"items":[{"name":"(주)괴테/오가다","tel":"031-904-5595","addr":"경기도 고양시 일산동구 장항동 862-1번지","indutype":"일반휴게음식 - 스넥","category":"restaurant"},{"name":"내사랑 돈까스","tel":"031-909-1088","addr":"경기도 고양시 일산동구 장항동 862-1번지","indutype":"일반휴게음식 - 일반한식","category":"restaurant"},{"name":"서초예술가 일산웨스턴돔점","tel":"031-932-9396","addr":"경기도 고양시 일산동구 장항동 862-1번지","indutype":"일반휴게음식 - 일반한식","category":"restaurant"},{"name":"커피에 반하다","tel":"031-906-8320","addr":"경기도 고양시 일산동구 장항동 862-1번지","indutype":"일반휴게음식 - 서양음식","category":"restaurant"},{"name":"타이거슈가 일산점","tel":"","addr":"경기도 고양시 일산동구 장항동 862-1번지","indutype":"일반휴게음식 - 서양음식","category":"restaurant"}]},{"lat":"37.653460356","long":"126.77421303","imageIndex":4,"items":[{"name":"(주)네이처푸드컴퍼니","tel":"031-2064-0070","addr":"경기도 고양시 일산동구 장항동 885번지","indutype":"일반휴게음식 - 위탁급식업","category":"restaurant"}]},{"lat":"37.659381175","long":"126.77035302","imageIndex":4,"items":[{"name":"(주)러미유","tel":"031-904-5454","addr":"경기도 고양시 일산동구 장항동 770-2번지","indutype":"일반휴게음식 - 중국식","category":"restaurant"},{"name":"고피자 일산라페스타점","tel":"031-901-6382","addr":"경기도 고양시 일산동구 장항동 770-2번지","indutype":"일반휴게음식 - 서양음식","category":"restaurant"},{"name":"꼬막대첩","tel":"031-906-5421","addr":"경기도 고양시 일산동구 장항동 770-2번지","indutype":"일반휴게음식 - 일반한식","category":"restaurant"},{"name":"로즈버드(일산호수점)","tel":"031-903-0308","addr":"경기도 고양시 일산동구 장항동 770-2번지","indutype":"일반휴게음식 - 서양음식","category":"restaurant"},{"name":"베스코","tel":"031-908-1124","addr":"경기도 고양시 일산동구 장항동 770-2번지","indutype":"일반휴게음식 - 일반한식","category":"restaurant"},{"name":"오붕어빵스","tel":"031-902-8200","addr":"경기도 고양시 일산동구 장항동 770-2번지","indutype":"일반휴게음식 - 일반한식","category":"restaurant"},{"name":"오옛떡","tel":"031-901-8779","addr":"경기도 고양시 일산동구 장항동 770-2번지","indutype":"일반휴게음식 - 스넥","category":"restaurant"},{"name":"흑화당 일산라페스타점","tel":"","addr":"경기도 고양시 일산동구 장항동 770-2번지","indutype":"일반휴게음식 - 서양음식","category":"restaurant"}]},{"lat":"37.66060059","long":"126.77193585","imageIndex":4,"items":[{"name":"(주)로얄씨스타/엔젤리너스커피","tel":"031-909-3920","addr":"경기도 고양시 일산동구 장항동 784번지","indutype":"일반휴게음식 - 서양음식","category":"restaurant"},{"name":"힐링초이스롯데백화점일산점","tel":"","addr":"경기도 고양시 일산동구 장항동 784번지","indutype":"일반휴게음식 - 일반한식","category":"restaurant"}]},{"lat":"37.662521535","long":"126.76832588","imageIndex":4,"items":[{"name":"(주)블랙래빗","tel":"031-907-5888","addr":"경기도 고양시 일산동구 장항동 778-2번지","indutype":"일반휴게음식 - 일반한식","category":"restaurant"},{"name":"L(엘)","tel":"","addr":"경기도 고양시 일산동구 장항동 778-2번지","indutype":"일반휴게음식 - 주점","category":"restaurant"},{"name":"굴사냥","tel":"031-932-0878","addr":"경기도 고양시 일산동구 장항동 778-2번지","indutype":"일반휴게음식 - 일반한식","category":"restaurant"},{"name":"똘똘뭉쳐","tel":"031-907-1127","addr":"경기도 고양시 일산동구 장항동 778-2번지","indutype":"일반휴게음식 - 일반한식","category":"restaurant"},{"name":"르펍(Le Pub)","tel":"031-907-6898","addr":"경기도 고양시 일산동구 장항동 778-2번지","indutype":"일반휴게음식 - 일반한식","category":"restaurant"},{"name":"만리장성","tel":"031-903-4454","addr":"경기도 고양시 일산동구 장항동 778-2번지","indutype":"일반휴게음식 - 일반한식","category":"restaurant"},{"name":"메아리","tel":"031-111-1111","addr":"경기도 고양시 일산동구 장항동 778-2번지","indutype":"일반휴게음식 - 일반한식","category":"restaurant"},{"name":"미니스커트","tel":"070-8869-2545","addr":"경기도 고양시 일산동구 장항동 778-2번지","indutype":"일반휴게음식 - 주점","category":"restaurant"},{"name":"스윙","tel":"070-8868-1388","addr":"경기도 고양시 일산동구 장항동 778-2번지","indutype":"일반휴게음식 - 일반한식","category":"restaurant"},{"name":"투가리해장국","tel":"031-907-2524","addr":"경기도 고양시 일산동구 장항동 778-2번지","indutype":"일반휴게음식 - 일반한식","category":"restaurant"},{"name":"헤븐","tel":"","addr":"경기도 고양시 일산동구 장항동 778-2번지","indutype":"일반휴게음식 - 주점","category":"restaurant"}]},{"lat":"37.650829504","long":"126.76065717","imageIndex":4,"items":[{"name":"(주)소망만가","tel":"031-907-9255","addr":"경기도 고양시 일산동구 장항동 671-8번지","indutype":"일반휴게음식 - 일반한식","category":"restaurant"},{"name":"조선시대","tel":"031-901-5611","addr":"경기도 고양시 일산동구 장항동 671-8번지","indutype":"일반휴게음식 - 일반한식","category":"restaurant"}]},{"lat":"37.654682534","long":"126.77260011","imageIndex":4,"items":[{"name":"(주)에스브이디씨/헬로키티키즈마루","tel":"070-4348-2049","addr":"경기도 고양시 일산동구 장항동 868번지","indutype":"일반휴게음식 - 스넥","category":"restaurant"},{"name":"Monster Brothers(몬스터 브라더스)","tel":"031-905-5241","addr":"경기도 고양시 일산동구 장항동 868번지","indutype":"일반휴게음식 - 일반한식","category":"restaurant"},{"name":"갈릭쿡앤스토리/더블유제이씨앤엠","tel":"031-905-5591","addr":"경기도 고양시 일산동구 장항동 868번지","indutype":"일반휴게음식 - 서양음식","category":"restaurant"},{"name":"경성함바그웨스턴돔점","tel":"031-906-0117","addr":"경기도 고양시 일산동구 장항동 868번지","indutype":"일반휴게음식 - 일반한식","category":"restaurant"},{"name":"그냥식당","tel":"070-4355-0247","addr":"경기도 고양시 일산동구 장항동 868번지","indutype":"일반휴게음식 - 서양음식","category":"restaurant"},{"name":"그녀의밥상","tel":"031-903-8351","addr":"경기도 고양시 일산동구 장항동 868번지","indutype":"일반휴게음식 - 일반한식","category":"restaurant"},{"name":"극장앞 웨스턴돔점","tel":"070-4388-4119","addr":"경기도 고양시 일산동구 장항동 868번지","indutype":"일반휴게음식 - 일반한식","category":"restaurant"},{"name":"깐부치킨(일산웨스턴돔점)","tel":"031-901-6055","addr":"경기도 고양시 일산동구 장항동 868번지","indutype":"일반휴게음식 - 스넥","category":"restaurant"},{"name":"꼬지사께(웨스턴점)","tel":"02-805-8800","addr":"경기도 고양시 일산동구 장항동 868번지","indutype":"일반휴게음식 - 일반한식","category":"restaurant"},{"name":"니뽕내뽕(웨스턴돔점)","tel":"031-906-2513","addr":"경기도 고양시 일산동구 장항동 868번지","indutype":"일반휴게음식 - 일반한식","category":"restaurant"},{"name":"달달호두 달달붕어","tel":"","addr":"경기도 고양시 일산동구 장항동 868번지","indutype":"일반휴게음식 - 스넥","category":"restaurant"},{"name":"대왕비빔밥 웨스턴돔점","tel":"031-901-2253","addr":"경기도 고양시 일산동구 장항동 868번지","indutype":"일반휴게음식 - 일반한식","category":"restaurant"},{"name":"더베네치아","tel":"","addr":"경기도 고양시 일산동구 장항동 868번지","indutype":"일반휴게음식 - 일반한식","category":"restaurant"},{"name":"더벤티일산웨스턴돔","tel":"031-994-6040","addr":"경기도 고양시 일산동구 장항동 868번지","indutype":"일반휴게음식 - 서양음식","category":"restaurant"},{"name":"더우","tel":"031-901-3503","addr":"경기도 고양시 일산동구 장항동 868번지","indutype":"일반휴게음식 - 일반한식","category":"restaurant"},{"name":"도쿄빙수 일산점","tel":"031-932-9323","addr":"경기도 고양시 일산동구 장항동 868번지","indutype":"일반휴게음식 - 서양음식","category":"restaurant"},{"name":"독도왕새우튀김","tel":"031-901-4846","addr":"경기도 고양시 일산동구 장항동 868번지","indutype":"일반휴게음식 - 서양음식","category":"restaurant"},{"name":"돈데이왕뚜껑삼겹살","tel":"031-932-7571","addr":"경기도 고양시 일산동구 장항동 868번지","indutype":"일반휴게음식 - 일반한식","category":"restaurant"},{"name":"돈돈정 일산점","tel":"031-111-1111","addr":"경기도 고양시 일산동구 장항동 868번지","indutype":"일반휴게음식 - 일반한식","category":"restaurant"},{"name":"돈수백웨스턴돔점","tel":"031-932-9879","addr":"경기도 고양시 일산동구 장항동 868번지","indutype":"일반휴게음식 - 일반한식","category":"restaurant"},{"name":"동경규카츠","tel":"031-903-7587","addr":"경기도 고양시 일산동구 장항동 868번지","indutype":"일반휴게음식 - 일반한식","category":"restaurant"},{"name":"라화쿵푸","tel":"","addr":"경기도 고양시 일산동구 장항동 868번지","indutype":"일반휴게음식 - 중국식","category":"restaurant"},{"name":"래격마라탕","tel":"031-902-3006","addr":"경기도 고양시 일산동구 장항동 868번지","indutype":"일반휴게음식 - 중국식","category":"restaurant"},{"name":"로사의식탁","tel":"031-921-7942","addr":"경기도 고양시 일산동구 장항동 868번지","indutype":"일반휴게음식 - 일반한식","category":"restaurant"},{"name":"로얄빵카페","tel":"","addr":"경기도 고양시 일산동구 장항동 868번지","indutype":"일반휴게음식 - 서양음식","category":"restaurant"},{"name":"마리안","tel":"031-902-7871","addr":"경기도 고양시 일산동구 장항동 868번지","indutype":"일반휴게음식 - 서양음식","category":"restaurant"},{"name":"마리웨일마카롱","tel":"031-904-6075","addr":"경기도 고양시 일산동구 장항동 868번지","indutype":"일반휴게음식 - 일반한식","category":"restaurant"},{"name":"마시찜일산웨스턴돔점","tel":"031-906-7740","addr":"경기도 고양시 일산동구 장항동 868번지","indutype":"일반휴게음식 - 일반한식","category":"restaurant"},{"name":"마카롱","tel":"070-5665-0452","addr":"경기도 고양시 일산동구 장항동 868번지","indutype":"일반휴게음식 - 서양음식","category":"restaurant"},{"name":"만돈","tel":"031-901-9463","addr":"경기도 고양시 일산동구 장항동 868번지","indutype":"일반휴게음식 - 서양음식","category":"restaurant"},{"name":"맘스터치","tel":"031-903-4467","addr":"경기도 고양시 일산동구 장항동 868번지","indutype":"일반휴게음식 - 서양음식","category":"restaurant"},{"name":"먹쌤마라탕","tel":"","addr":"경기도 고양시 일산동구 장항동 868번지","indutype":"일반휴게음식 - 중국식","category":"restaurant"},{"name":"몬스터키친","tel":"","addr":"경기도 고양시 일산동구 장항동 868번지","indutype":"일반휴게음식 - 일반한식","category":"restaurant"},{"name":"미소야웨스턴돔점","tel":"031-908-1001","addr":"경기도 고양시 일산동구 장항동 868번지","indutype":"일반휴게음식 - 일식·회집","category":"restaurant"},{"name":"밀라노떡볶이","tel":"070-7405-0531","addr":"경기도 고양시 일산동구 장항동 868번지","indutype":"일반휴게음식 - 일반한식","category":"restaurant"},{"name":"베러댄와플 웨스턴동점","tel":"03-111-1111","addr":"경기도 고양시 일산동구 장항동 868번지","indutype":"일반휴게음식 - 서양음식","category":"restaurant"},{"name":"본죽(웨스턴돔점)","tel":"031-931-5382","addr":"경기도 고양시 일산동구 장항동 868번지","indutype":"일반휴게음식 - 일반한식","category":"restaurant"},{"name":"볼로냐","tel":"","addr":"경기도 고양시 일산동구 장항동 868번지","indutype":"일반휴게음식 - 서양음식","category":"restaurant"},{"name":"브라더새우","tel":"031-901-9863","addr":"경기도 고양시 일산동구 장항동 868번지","indutype":"일반휴게음식 - 일반한식","category":"restaurant"},{"name":"빤닭빤닭닭갈비","tel":"070-4312-1117","addr":"경기도 고양시 일산동구 장항동 868번지","indutype":"일반휴게음식 - 일반한식","category":"restaurant"},{"name":"쁘띠아르브르웨스턴점","tel":"031-902-6880","addr":"경기도 고양시 일산동구 장항동 868번지","indutype":"일반휴게음식 - 스넥","category":"restaurant"},{"name":"서울미트볼","tel":"031-111-1111","addr":"경기도 고양시 일산동구 장항동 868번지","indutype":"일반휴게음식 - 일반한식","category":"restaurant"},{"name":"스파이스포 spice pho","tel":"031-901-6436","addr":"경기도 고양시 일산동구 장항동 868번지","indutype":"일반휴게음식 - 서양음식","category":"restaurant"},{"name":"신복관","tel":"031-902-7292","addr":"경기도 고양시 일산동구 장항동 868번지","indutype":"일반휴게음식 - 일반한식","category":"restaurant"},{"name":"신서방부대찌개","tel":"031-931-5252","addr":"경기도 고양시 일산동구 장항동 868번지","indutype":"일반휴게음식 - 일반한식","category":"restaurant"},{"name":"신의주부대찌개","tel":"031-931-5049","addr":"경기도 고양시 일산동구 장항동 868번지","indutype":"일반휴게음식 - 일반한식","category":"restaurant"},{"name":"심플리타이","tel":"031-931-5544","addr":"경기도 고양시 일산동구 장항동 868번지","indutype":"일반휴게음식 - 일반한식","category":"restaurant"},{"name":"싸움의고수웨스턴돔점","tel":"031-904-7773","addr":"경기도 고양시 일산동구 장항동 868번지","indutype":"일반휴게음식 - 일반한식","category":"restaurant"},{"name":"아비꼬웨스턴돔점","tel":"031-906-7478","addr":"경기도 고양시 일산동구 장항동 868번지","indutype":"일반휴게음식 - 일식·회집","category":"restaurant"},{"name":"아이리쉬포테토","tel":"070-7763-5099","addr":"경기도 고양시 일산동구 장항동 868번지","indutype":"일반휴게음식 - 스넥","category":"restaurant"},{"name":"양육강식","tel":"031-901-7797","addr":"경기도 고양시 일산동구 장항동 868번지","indutype":"일반휴게음식 - 일반한식","category":"restaurant"},{"name":"어머나생고기일산점","tel":"031-904-8839","addr":"경기도 고양시 일산동구 장항동 868번지","indutype":"일반휴게음식 - 일반한식","category":"restaurant"},{"name":"어바웃샤브","tel":"031-932-4944","addr":"경기도 고양시 일산동구 장항동","indutype":"일반휴게음식 - 일반한식","category":"restaurant"},{"name":"어반스위트(웨돔점)","tel":"02-000-0000","addr":"경기도 고양시 일산동구 장항동 868번지","indutype":"일반휴게음식 - 서양음식","category":"restaurant"},{"name":"엘초리소(EL CHORIZO)","tel":"02-1111-1111","addr":"경기도 고양시 일산동구 장항동 868번지","indutype":"일반휴게음식 - 서양음식","category":"restaurant"},{"name":"엘초리소(EL CHORIZO)","tel":"","addr":"경기도 고양시 일산동구 장항동 868번지","indutype":"일반휴게음식 - 서양음식","category":"restaurant"},{"name":"오므라이스0527","tel":"031-902-9016","addr":"경기도 고양시 일산동구 장항동 868번지","indutype":"일반휴게음식 - 일반한식","category":"restaurant"},{"name":"오빠네옛날떡볶이","tel":"031-908-7749","addr":"경기도 고양시 일산동구 장항동 868번지","indutype":"일반휴게음식 - 스넥","category":"restaurant"},{"name":"오식당","tel":"070-7576-0787","addr":"경기도 고양시 일산동구 장항동 868번지","indutype":"일반휴게음식 - 일반한식","category":"restaurant"},{"name":"왈왈이애견카페웨스턴돔점","tel":"070-7718-1513","addr":"경기도 고양시 일산동구 장항동 868번지","indutype":"일반휴게음식 - 일반한식","category":"restaurant"},{"name":"요리조리","tel":"","addr":"경기도 고양시 일산동구 장항동 868번지","indutype":"일반휴게음식 - 일반한식","category":"restaurant"},{"name":"우주라이크카페 웨스턴돔2호점","tel":"031-932-3418","addr":"경기도 고양시 일산동구 장항동 868번지","indutype":"일반휴게음식 - 서양음식","category":"restaurant"},{"name":"우주라이크카페 웨스턴돔점","tel":"031-901-3418","addr":"경기도 고양시 일산동구 장항동 868번지","indutype":"일반휴게음식 - 서양음식","category":"restaurant"},{"name":"웨스턴버거","tel":"","addr":"경기도 고양시 일산동구 장항동 868번지","indutype":"일반휴게음식 - 서양음식","category":"restaurant"},{"name":"유달리","tel":"02-5188-8776","addr":"경기도 고양시 일산동구 장항동 868번지","indutype":"일반휴게음식 - 서양음식","category":"restaurant"},{"name":"육대장","tel":"031-931-5979","addr":"경기도 고양시 일산동구 장항동 868번지","indutype":"일반휴게음식 - 일반한식","category":"restaurant"},{"name":"이디야","tel":"031-903-8858","addr":"경기도 고양시 일산동구 장항동 868번지","indutype":"일반휴게음식 - 서양음식","category":"restaurant"},{"name":"일공공샤브","tel":"031-906-1002","addr":"경기도 고양시 일산동구 장항동 868번지","indutype":"일반휴게음식 - 일반한식","category":"restaurant"},{"name":"일미리금계찜닭","tel":"031-904-7762","addr":"경기도 고양시 일산동구 장항동 868번지","indutype":"일반휴게음식 - 일반한식","category":"restaurant"},{"name":"일미인 에프앤비(수작떡볶이)","tel":"031-932-0958","addr":"경기도 고양시 일산동구 장항동 868번지","indutype":"일반휴게음식 - 스넥","category":"restaurant"},{"name":"일산짬뽕","tel":"031-904-7870","addr":"경기도 고양시 일산동구 장항동 868번지","indutype":"일반휴게음식 - 중국식","category":"restaurant"},{"name":"일산편백집","tel":"031-904-1003","addr":"경기도 고양시 일산동구 장항동 868번지","indutype":"일반휴게음식 - 일반한식","category":"restaurant"},{"name":"자연초밥","tel":"031-907-4700","addr":"경기도 고양시 일산동구 장항동 868번지","indutype":"일반휴게음식 - 일식·회집","category":"restaurant"},{"name":"조선30년전통속초코다리냉면","tel":"031-907-1238","addr":"경기도 고양시 일산동구 장항동 868번지","indutype":"일반휴게음식 - 일반한식","category":"restaurant"},{"name":"조인쉐프뉴욕","tel":"031-903-7001","addr":"경기도 고양시 일산동구 장항동 868번지","indutype":"일반휴게음식 - 서양음식","category":"restaurant"},{"name":"주식회사 카페도헤이","tel":"031-976-0552","addr":"경기도 고양시 일산동구 장항동 868번지","indutype":"일반휴게음식 - 서양음식","category":"restaurant"},{"name":"진명사주타로(소프레소)","tel":"070-4015-4494","addr":"경기도 고양시 일산동구 장항동 868번지","indutype":"일반휴게음식 - 일반한식","category":"restaurant"},{"name":"차마담","tel":"070-7768-2002","addr":"경기도 고양시 일산동구 장항동 868번지","indutype":"일반휴게음식 - 서양음식","category":"restaurant"},{"name":"찰스숯불김밥 웨돔점","tel":"031-902-1995","addr":"경기도 고양시 일산동구 장항동 868번지","indutype":"일반휴게음식 - 일반한식","category":"restaurant"},{"name":"청년다방","tel":"031-906-2144","addr":"경기도 고양시 일산동구 장항동 868번지","indutype":"일반휴게음식 - 일반한식","category":"restaurant"},{"name":"촨푸마라탕","tel":"031-901-4657","addr":"경기도 고양시 일산동구 장항동 868번지","indutype":"일반휴게음식 - 중국식","category":"restaurant"},{"name":"충칭마라탕마라샹궈","tel":"02-1899-4163","addr":"경기도 고양시 일산동구 장항동 868번지","indutype":"일반휴게음식 - 중국식","category":"restaurant"},{"name":"츄로스토리","tel":"031-1899-6683","addr":"경기도 고양시 일산동구 장항동 868번지","indutype":"일반휴게음식 - 일반한식","category":"restaurant"},{"name":"카우떡볶이","tel":"031-905-7739","addr":"경기도 고양시 일산동구 장항동 868번지","indutype":"일반휴게음식 - 스넥","category":"restaurant"},{"name":"카페라로","tel":"031-931-6080","addr":"경기도 고양시 일산동구 장항동 868번지","indutype":"일반휴게음식 - 서양음식","category":"restaurant"},{"name":"카페메르시","tel":"02-000-0000","addr":"경기도 고양시 일산동구 장항동 868번지","indutype":"일반휴게음식 - 서양음식","category":"restaurant"},{"name":"커피다이어리","tel":"031-946-2421","addr":"경기도 고양시 일산동구 장항동 868번지","indutype":"일반휴게음식 - 서양음식","category":"restaurant"},{"name":"커피에반하다","tel":"031-907-8320","addr":"경기도 고양시 일산동구 장항동 868번지","indutype":"일반휴게음식 - 서양음식","category":"restaurant"},{"name":"코코이찌방야일산웨스턴돔점","tel":"031-904-5510","addr":"경기도 고양시 일산동구 장항동 868번지","indutype":"일반휴게음식 - 일반한식","category":"restaurant"},{"name":"투썸플레이스(일산웨스턴돔점)","tel":"031-932-2389","addr":"경기도 고양시 일산동구 장항동 868번지","indutype":"일반휴게음식 - 서양음식","category":"restaurant"},{"name":"포몬스 웨스턴돔점","tel":"031-931-6886","addr":"경기도 고양시 일산동구 장항동 868번지","indutype":"일반휴게음식 - 일반한식","category":"restaurant"},{"name":"피슈마라홍탕 일산장항점","tel":"031-908-0888","addr":"경기도 고양시 일산동구 장항동 868번지","indutype":"일반휴게음식 - 중국식","category":"restaurant"},{"name":"한톨 돈부리","tel":"031-901-7998","addr":"경기도 고양시 일산동구 장항동 868번지","indutype":"일반휴게음식 - 일반한식","category":"restaurant"},{"name":"행복한찹쌀꽈배기","tel":"031-911-3070","addr":"경기도 고양시 일산동구 장항동 868번지","indutype":"일반휴게음식 - 스넥","category":"restaurant"},{"name":"현선이네","tel":"02-1566-7997","addr":"경기도 고양시 일산동구 장항동 868번지","indutype":"일반휴게음식 - 일반한식","category":"restaurant"},{"name":"호천당 웨스턴돔점","tel":"031-909-5588","addr":"경기도 고양시 일산동구 장항동 868번지","indutype":"일반휴게음식 - 서양음식","category":"restaurant"},{"name":"홍대개미","tel":"031-901-5341","addr":"경기도 고양시 일산동구 장항동 868번지","indutype":"일반휴게음식 - 일반한식","category":"restaurant"}]},{"lat":"37.652159396","long":"126.77703864","imageIndex":4,"items":[{"name":"(주)카페루카코리아","tel":"031-906-5871","addr":"경기도 고양시 일산동구 장항동 893번지","indutype":"일반휴게음식 - 서양음식","category":"restaurant"}]},{"lat":"37.656647648","long":"126.77311534","imageIndex":4,"items":[{"name":"(주)케이티티푸드(놀부부대찌개,놀부보쌈)","tel":"031-901-8932","addr":"경기도 고양시 일산동구 장항동 855번지","indutype":"일반휴게음식 - 일반한식","category":"restaurant"},{"name":"(주)케이티티푸드(놀부부대찌개,놀부보쌈)","tel":"031-901-8942","addr":"경기도 고양시 일산동구 장항동 855번지","indutype":"일반휴게음식 - 일반한식","category":"restaurant"},{"name":"91황소곱창","tel":"031-905-9192","addr":"경기도 고양시 일산동구 장항동 855번지","indutype":"일반휴게음식 - 일반한식","category":"restaurant"},{"name":"LA북창동순두부 일산장항점","tel":"031-902-2045","addr":"경기도 고양시 일산동구 장항동 855번지","indutype":"일반휴게음식 - 일반한식","category":"restaurant"},{"name":"굴이야기","tel":"031-904-4872","addr":"경기도 고양시 일산동구 장항동 855번지","indutype":"일반휴게음식 - 일반한식","category":"restaurant"},{"name":"김밥천국","tel":"031-901-2064","addr":"경기도 고양시 일산동구 장항동 855번지","indutype":"일반휴게음식 - 스넥","category":"restaurant"},{"name":"꼬끼도리","tel":"","addr":"경기도 고양시 일산동구 장항동 855번지","indutype":"일반휴게음식 - 일반한식","category":"restaurant"},{"name":"꼬끼오춘천닭갈비","tel":"031-907-7064","addr":"경기도 고양시 일산동구 장항동 855번지","indutype":"일반휴게음식 - 일반한식","category":"restaurant"},{"name":"니취8로마","tel":"031-902-4020","addr":"경기도 고양시 일산동구 장항동","indutype":"일반휴게음식 - 중국식","category":"restaurant"},{"name":"둘둘치킨.일산MBC점","tel":"031-904-2285","addr":"경기도 고양시 일산동구 장항동 855번지","indutype":"일반휴게음식 - 주점","category":"restaurant"},{"name":"롯데리아일산웨스턴돔점","tel":"031-907-0010","addr":"경기도 고양시 일산동구 장항동 855번지","indutype":"일반휴게음식 - 서양음식","category":"restaurant"},{"name":"맘보집","tel":"031-902-1120","addr":"경기도 고양시 일산동구 장항동 855번지","indutype":"일반휴게음식 - 일반한식","category":"restaurant"},{"name":"메가커피","tel":"031-903-5634","addr":"경기도 고양시 일산동구 장항동 855번지","indutype":"일반휴게음식 - 서양음식","category":"restaurant"},{"name":"밥장인","tel":"031-904-9047","addr":"경기도 고양시 일산동구 장항동 855번지","indutype":"일반휴게음식 - 일반한식","category":"restaurant"},{"name":"비.라티오(B.ratio)","tel":"031-901-8057","addr":"경기도 고양시 일산동구 장항동 855번지","indutype":"일반휴게음식 - 서양음식","category":"restaurant"},{"name":"새벽집","tel":"031-501-8528","addr":"경기도 고양시 일산동구 장항동 855번지","indutype":"일반휴게음식 - 일반한식","category":"restaurant"},{"name":"스시위드","tel":"031-902-4555","addr":"경기도 고양시 일산동구 장항동 855번지","indutype":"일반휴게음식 - 일식·회집","category":"restaurant"},{"name":"신룽푸일산점/주식회사 당인가미식","tel":"02-335-1985","addr":"경기도 고양시 일산동구 장항동 855번지","indutype":"일반휴게음식 - 중국식","category":"restaurant"},{"name":"써브웨이(subway) 일산동구청점","tel":"031-906-6754","addr":"경기도 고양시 일산동구 장항동 855번지","indutype":"일반휴게음식 - 서양음식","category":"restaurant"},{"name":"아임돈부리(I'm돈부리)","tel":"031-902-8120","addr":"경기도 고양시 일산동구 장항동 855번지","indutype":"일반휴게음식 - 일반한식","category":"restaurant"},{"name":"얌얌불닭발","tel":"031-901-9512","addr":"경기도 고양시 일산동구 장항동 855번지","indutype":"일반휴게음식 - 일반한식","category":"restaurant"},{"name":"엉터리 생고기 웨스턴점","tel":"031-901-3398","addr":"경기도 고양시 일산동구 장항동 855번지","indutype":"일반휴게음식 - 일반한식","category":"restaurant"},{"name":"역전우동 웨스턴돔점","tel":"031-901-0275","addr":"경기도 고양시 일산동구 장항동 855번지","indutype":"일반휴게음식 - 일반한식","category":"restaurant"},{"name":"열평집밥김치찌개","tel":"031-908-5260","addr":"경기도 고양시 일산동구 장항동 855번지","indutype":"일반휴게음식 - 일반한식","category":"restaurant"},{"name":"옥돌위에 석쇠한판","tel":"031-905-9192","addr":"경기도 고양시 일산동구 장항동 855번지","indutype":"일반휴게음식 - 일반한식","category":"restaurant"},{"name":"일산 냉면.우동","tel":"031-908-0111","addr":"경기도 고양시 일산동구 장항동 855번지","indutype":"일반휴게음식 - 일반한식","category":"restaurant"},{"name":"일산동구청점 빽다방(PAIK'S COFFEE)","tel":"031-932-1994","addr":"경기도 고양시 일산동구 장항동 855번지","indutype":"일반휴게음식 - 서양음식","category":"restaurant"},{"name":"일산칼국수","tel":"031-901-1358","addr":"경기도 고양시 일산동구 장항동 855번지","indutype":"일반휴게음식 - 일반한식","category":"restaurant"},{"name":"장교식당","tel":"031-901-8839","addr":"경기도 고양시 일산동구 장항동 855번지","indutype":"일반휴게음식 - 일반한식","category":"restaurant"},{"name":"전계능의콩나물국밥일산엠비씨점","tel":"031-908-9881","addr":"경기도 고양시 일산동구 장항동 855번지","indutype":"일반휴게음식 - 일반한식","category":"restaurant"},{"name":"조개패(  )밀리","tel":"031-5050-1345","addr":"경기도 고양시 일산동구 장항동 855번지","indutype":"일반휴게음식 - 일반한식","category":"restaurant"},{"name":"착한낙지","tel":"031-902-8987","addr":"경기도 고양시 일산동구 장항동 855번지","indutype":"일반휴게음식 - 일반한식","category":"restaurant"},{"name":"카페플로라/주식회사 카페플로라","tel":"031-111-1111","addr":"경기도 고양시 일산동구 장항동 855번지","indutype":"일반휴게음식 - 서양음식","category":"restaurant"},{"name":"프레소티,바바파파커피웨돔점","tel":"","addr":"경기도 고양시 일산동구 장항동 855번지","indutype":"일반휴게음식 - 서양음식","category":"restaurant"},{"name":"한옥마을전주비빔밥일산점","tel":"031-905-7768","addr":"경기도 고양시 일산동구 장항동 855번지","indutype":"일반휴게음식 - 일반한식","category":"restaurant"},{"name":"할리스커피 일산웨스턴돔점","tel":"031-905-7749","addr":"경기도 고양시 일산동구 장항동 855번지","indutype":"일반휴게음식 - 서양음식","category":"restaurant"}]},{"lat":"37.660076085","long":"126.76640696","imageIndex":4,"items":[{"name":"(주)파피루스앤티","tel":"031-906-7497","addr":"경기도 고양시 일산동구 장항동 752번지","indutype":"일반휴게음식 - 서양음식","category":"restaurant"},{"name":"책방이듬","tel":"031-111-1111","addr":"경기도 고양시 일산동구 장항동 752번지","indutype":"일반휴게음식 - 서양음식","category":"restaurant"}]},{"lat":"37.66332762","long":"126.76593198","imageIndex":4,"items":[{"name":"(진)창신동매운족발","tel":"031-923-6868","addr":"경기도 고양시 일산동구 장항동 740-5번지","indutype":"일반휴게음식 - 일반한식","category":"restaurant"},{"name":"24시동태집","tel":"031-918-5459","addr":"경기도 고양시 일산동구 장항동 740-5번지","indutype":"일반휴게음식 - 일반한식","category":"restaurant"},{"name":"꼬끼도리","tel":"031-916-3347","addr":"경기도 고양시 일산동구 장항동 740-5번지","indutype":"일반휴게음식 - 일반한식","category":"restaurant"},{"name":"뉴욕야시장 라페스타점","tel":"","addr":"경기도 고양시 일산동구 장항동 740-5번지","indutype":"일반휴게음식 - 일반한식","category":"restaurant"},{"name":"늘올주점","tel":"031-916-2570","addr":"경기도 고양시 일산동구 장항동 740-5번지","indutype":"일반휴게음식 - 일반한식","category":"restaurant"},{"name":"데이","tel":"031-714-6713","addr":"경기도 고양시 일산동구 장항동 740-5번지","indutype":"일반휴게음식 - 서양음식","category":"restaurant"},{"name":"동원참치(일산장항점)","tel":"031-911-0208","addr":"경기도 고양시 일산동구 장항동 740-5번지","indutype":"일반휴게음식 - 일식·회집","category":"restaurant"},{"name":"동태골","tel":"031-915-1596","addr":"경기도 고양시 일산동구 장항동 740-5번지","indutype":"일반휴게음식 - 일반한식","category":"restaurant"},{"name":"로데오부대찌개","tel":"031-919-7415","addr":"경기도 고양시 일산동구 장항동","indutype":"일반휴게음식 - 일반한식","category":"restaurant"},{"name":"봉기타","tel":"02-1111-111","addr":"경기도 고양시 일산동구 장항동 740-5번지","indutype":"일반휴게음식 - 일반한식","category":"restaurant"},{"name":"오사카부루스 라페스타점","tel":"","addr":"경기도 고양시 일산동구 장항동 740-5번지","indutype":"일반휴게음식 - 주점","category":"restaurant"},{"name":"웰빙장충왕족발","tel":"031-924-9616","addr":"경기도 고양시 일산동구 장항동 740-5번지","indutype":"일반휴게음식 - 일반한식","category":"restaurant"},{"name":"일빠","tel":"031-913-7758","addr":"경기도 고양시 일산동구 장항동 740-5번지","indutype":"일반휴게음식 - 서양음식","category":"restaurant"},{"name":"정통집 일산라페스타점","tel":"031-000-0000","addr":"경기도 고양시 일산동구 장항동 740-5번지","indutype":"일반휴게음식 - 일반한식","category":"restaurant"},{"name":"제주돈'S","tel":"031-913-9779","addr":"경기도 고양시 일산동구 장항동 740-5번지","indutype":"일반휴게음식 - 일반한식","category":"restaurant"},{"name":"카페롱블랙(cafe LONG BLACK)","tel":"070-7405-0532","addr":"경기도 고양시 일산동구 장항동 740-5번지","indutype":"일반휴게음식 - 일반한식","category":"restaurant"},{"name":"황가네꼼장군","tel":"031-921-2956","addr":"경기도 고양시 일산동구 장항동 740-5번지","indutype":"일반휴게음식 - 일반한식","category":"restaurant"}]},{"lat":"37.663378044","long":"126.76412979","imageIndex":4,"items":[{"name":"082네","tel":"031-924-1235","addr":"경기도 고양시 일산동구 장항동 746-1번지","indutype":"일반휴게음식 - 일반한식","category":"restaurant"},{"name":"네네치킨라페스타점","tel":"031-905-9982","addr":"경기도 고양시 일산동구 장항동 746-1번지","indutype":"일반휴게음식 - 주점","category":"restaurant"},{"name":"제주도래미","tel":"031-911-9269","addr":"경기도 고양시 일산동구 장항동 746-1번지","indutype":"일반휴게음식 - 일반한식","category":"restaurant"},{"name":"청년어부","tel":"031-1811-8359","addr":"경기도 고양시 일산동구 장항동 746-1번지","indutype":"일반휴게음식 - 일반한식","category":"restaurant"},{"name":"코코 (CoCo)","tel":"031-911-3800","addr":"경기도 고양시 일산동구 장항동 746-1번지","indutype":"일반휴게음식 - 서양음식","category":"restaurant"},{"name":"특공대","tel":"031-917-9779","addr":"경기도 고양시 일산동구 장항동 746-1번지","indutype":"일반휴게음식 - 일반한식","category":"restaurant"},{"name":"호수포차","tel":"031-918-1574","addr":"경기도 고양시 일산동구 장항동 746-1번지","indutype":"일반휴게음식 - 일반한식","category":"restaurant"}]},{"lat":"37.662383565","long":"126.76690965","imageIndex":4,"items":[{"name":"107맥주한잔","tel":"031-913-7712","addr":"경기도 고양시 일산동구 장항동 741-3번지","indutype":"일반휴게음식 - 스넥","category":"restaurant"},{"name":"경성주막 1929 라페스타점","tel":"","addr":"경기도 고양시 일산동구 장항동 741-3번지","indutype":"일반휴게음식 - 주점","category":"restaurant"},{"name":"벤츠(BENZ BAR)","tel":"070-2325-6665","addr":"경기도 고양시 일산동구 장항동 741-3번지","indutype":"일반휴게음식 - 일반한식","category":"restaurant"},{"name":"비어비스트로","tel":"031-911-3777","addr":"경기도 고양시 일산동구 장항동 741-3번지","indutype":"일반휴게음식 - 주점","category":"restaurant"},{"name":"쏘락","tel":"031-916-1134","addr":"경기도 고양시 일산동구 장항동 741-3번지","indutype":"일반휴게음식 - 일반한식","category":"restaurant"},{"name":"연안식당일산라페스타점","tel":"031-923-1202","addr":"경기도 고양시 일산동구 장항동 741-3번지","indutype":"일반휴게음식 - 일반한식","category":"restaurant"},{"name":"위플","tel":"031-912-4003","addr":"경기도 고양시 일산동구 장항동 741-3번지","indutype":"일반휴게음식 - 일반한식","category":"restaurant"},{"name":"임창정의모서리족발","tel":"031-919-3309","addr":"경기도 고양시 일산동구 장항동 741-3번지","indutype":"일반휴게음식 - 일반한식","category":"restaurant"},{"name":"피쉬앤그릴앤치르치르","tel":"031-916-7292","addr":"경기도 고양시 일산동구 장항동 741-3번지","indutype":"일반휴게음식 - 일반한식","category":"restaurant"}]},{"lat":"37.663437077","long":"126.76660031","imageIndex":4,"items":[{"name":"1943","tel":"","addr":"경기도 고양시 일산동구 장항동 736-6번지","indutype":"일반휴게음식 - 일반한식","category":"restaurant"},{"name":"뉴쇼","tel":"031-913-2477","addr":"경기도 고양시 일산동구 장항동 736-6번지","indutype":"일반휴게음식 - 서양음식","category":"restaurant"},{"name":"뚱보집일산점","tel":"031-922-3788","addr":"경기도 고양시 일산동구 장항동 736-6번지","indutype":"일반휴게음식 - 일반한식","category":"restaurant"},{"name":"리치","tel":"","addr":"경기도 고양시 일산동구 장항동 736-6번지","indutype":"일반휴게음식 - 서양음식","category":"restaurant"},{"name":"산카이이자카야1호점/주식회사 더에스프런","tel":"031-912-3337","addr":"경기도 고양시 일산동구 장항동 736-6번지","indutype":"일반휴게음식 - 일식·회집","category":"restaurant"}]},{"lat":"37.661817228","long":"126.7675461","imageIndex":4,"items":[{"name":"35냉면","tel":"031-904-5004","addr":"경기도 고양시 일산동구 장항동","indutype":"일반휴게음식 - 일반한식","category":"restaurant"},{"name":"꼬지사께 일산라페스타점","tel":"031-905-0204","addr":"경기도 고양시 일산동구 장항동 761번지","indutype":"일반휴게음식 - 일반한식","category":"restaurant"},{"name":"마라왕","tel":"031-111-1111","addr":"경기도 고양시 일산동구 장항동 761번지","indutype":"일반휴게음식 - 중국식","category":"restaurant"},{"name":"비스트로코너","tel":"031-907-3579","addr":"경기도 고양시 일산동구 장항동 761번지","indutype":"일반휴게음식 - 서양음식","category":"restaurant"},{"name":"오가네","tel":"031-901-9230","addr":"경기도 고양시 일산동구 장항동 761번지","indutype":"일반휴게음식 - 일반한식","category":"restaurant"},{"name":"오꼬만","tel":"031-903-6638","addr":"경기도 고양시 일산동구 장항동 761번지","indutype":"일반휴게음식 - 주점","category":"restaurant"},{"name":"육손곱창전골 일산직영점","tel":"","addr":"경기도 고양시 일산동구 장항동 761번지","indutype":"일반휴게음식 - 일반한식","category":"restaurant"},{"name":"지군포차 일산라페스타점","tel":"","addr":"경기도 고양시 일산동구 장항동 761번지","indutype":"일반휴게음식 - 일반한식","category":"restaurant"},{"name":"철이네한판집","tel":"031-907-1919","addr":"경기도 고양시 일산동구 장항동 761번지","indutype":"일반휴게음식 - 일반한식","category":"restaurant"},{"name":"최군맥주일산라페스타점","tel":"031-907-0958","addr":"경기도 고양시 일산동구 장항동 761번지","indutype":"일반휴게음식 - 일반한식","category":"restaurant"},{"name":"포퀸스","tel":"031-920-9500","addr":"경기도 고양시 일산동구 장항동 761번지","indutype":"일반휴게음식 - 일반한식","category":"restaurant"},{"name":"하루","tel":"031-920-9899","addr":"경기도 고양시 일산동구 장항동 761번지","indutype":"일반휴게음식 - 일반한식","category":"restaurant"},{"name":"하이롱양꼬치","tel":"031-902-0922","addr":"경기도 고양시 일산동구 장항동 761번지","indutype":"일반휴게음식 - 중국식","category":"restaurant"}]},{"lat":"37.652023513","long":"126.77665377","imageIndex":4,"items":[{"name":"3번출구 골목집","tel":"031-904-3692","addr":"경기도 고양시 일산동구 장항동 893-1번지","indutype":"일반휴게음식 - 일반한식","category":"restaurant"},{"name":"곳간","tel":"031-932-4320","addr":"경기도 고양시 일산동구 장항동 893-1번지","indutype":"일반휴게음식 - 서양음식","category":"restaurant"},{"name":"미스터빈/(주)맥스세일즈앤러닝","tel":"031-000-0000","addr":"경기도 고양시 일산동구 장항동 893-1번지","indutype":"일반휴게음식 - 서양음식","category":"restaurant"},{"name":"서울낙지","tel":"031-903-8722","addr":"경기도 고양시 일산동구 장항동 893-1번지","indutype":"일반휴게음식 - 일반한식","category":"restaurant"},{"name":"아빠곰탕 마두역점","tel":"031-906-0201","addr":"경기도 고양시 일산동구 장항동 893-1번지","indutype":"일반휴게음식 - 일반한식","category":"restaurant"},{"name":"옥탑방막걸리","tel":"070-4649-1101","addr":"경기도 고양시 일산동구 장항동 893-1번지","indutype":"일반휴게음식 - 일반한식","category":"restaurant"},{"name":"이가네생고기","tel":"031-905-9277","addr":"경기도 고양시 일산동구 장항동 893-1번지","indutype":"일반휴게음식 - 일반한식","category":"restaurant"},{"name":"이삭토스트 일산마두역점","tel":"031-902-2820","addr":"경기도 고양시 일산동구 장항동 893-1번지","indutype":"일반휴게음식 - 서양음식","category":"restaurant"},{"name":"인간강병원1972 일산점","tel":"","addr":"경기도 고양시 일산동구 장항동 893-1번지","indutype":"일반휴게음식 - 일반한식","category":"restaurant"},{"name":"일산부대찌개","tel":"031-811-0345","addr":"경기도 고양시 일산동구 장항동 893-1번지","indutype":"일반휴게음식 - 일반한식","category":"restaurant"},{"name":"자루","tel":"031-906-1068","addr":"경기도 고양시 일산동구 장항동 893-1번지","indutype":"일반휴게음식 - 일식·회집","category":"restaurant"},{"name":"정군비어마두점","tel":"031-903-3212","addr":"경기도 고양시 일산동구 장항동 893-1번지","indutype":"일반휴게음식 - 일반한식","category":"restaurant"},{"name":"평안도찹쌀순대전문점","tel":"031-906-5345","addr":"경기도 고양시 일산동구 장항동 893-1번지","indutype":"일반휴게음식 - 일반한식","category":"restaurant"}]},{"lat":"37.655768004","long":"126.7748179","imageIndex":4,"items":[{"name":"55C템프테이션","tel":"031-901-6859","addr":"경기도 고양시 일산동구 장항동 849번지","indutype":"일반휴게음식 - 서양음식","category":"restaurant"},{"name":"로랩","tel":"031-902-5124","addr":"경기도 고양시 일산동구 장항동 849번지","indutype":"일반휴게음식 - 서양음식","category":"restaurant"},{"name":"화인부대찌게","tel":"031-811-0800","addr":"경기도 고양시 일산동구 장항동 849번지","indutype":"일반휴게음식 - 일반한식","category":"restaurant"},{"name":"황선","tel":"031-907-9899","addr":"경기도 고양시 일산동구 장항동 849번지","indutype":"일반휴게음식 - 중국식","category":"restaurant"}]},{"lat":"37.662654782","long":"126.76737346","imageIndex":4,"items":[{"name":"7그램","tel":"031-919-5790","addr":"경기도 고양시 일산동구 장항동 735-3번지","indutype":"일반휴게음식 - 스넥","category":"restaurant"},{"name":"겨울, 그리고 봄","tel":"031-917-1222","addr":"경기도 고양시 일산동구 장항동 735-3번지","indutype":"일반휴게음식 - 일반한식","category":"restaurant"},{"name":"내사랑 돈까스","tel":"031-924-7133","addr":"경기도 고양시 일산동구 장항동 735-3번지","indutype":"일반휴게음식 - 서양음식","category":"restaurant"},{"name":"명동칼국수샤브샤브","tel":"031-911-9162","addr":"경기도 고양시 일산동구 장항동 735-3번지","indutype":"일반휴게음식 - 일반한식","category":"restaurant"},{"name":"몬스터피자 일산점","tel":"031-911-2555","addr":"경기도 고양시 일산동구 장항동 735-3번지","indutype":"일반휴게음식 - 서양음식","category":"restaurant"},{"name":"주문진대게뷔페","tel":"031-924-8051","addr":"경기도 고양시 일산동구 장항동 735-3번지","indutype":"일반휴게음식 - 일반한식","category":"restaurant"},{"name":"천향양꼬치","tel":"031-918-6888","addr":"경기도 고양시 일산동구 장항동 735-3번지","indutype":"일반휴게음식 - 중국식","category":"restaurant"},{"name":"카페키웨스트","tel":"031-696-5047","addr":"경기도 고양시 일산동구 장항동 735-3번지","indutype":"일반휴게음식 - 서양음식","category":"restaurant"}]},{"lat":"37.660439684","long":"126.76801511","imageIndex":4,"items":[{"name":"88노가리","tel":"032-123-1234","addr":"경기도 고양시 일산동구 장항동 757번지","indutype":"일반휴게음식 - 주점","category":"restaurant"},{"name":"나무","tel":"","addr":"경기도 고양시 일산동구 장항동 757번지","indutype":"일반휴게음식 - 일반한식","category":"restaurant"},{"name":"낭만포차","tel":"031-907-1901","addr":"경기도 고양시 일산동구 장항동 757번지","indutype":"일반휴게음식 - 주점","category":"restaurant"},{"name":"독천낙지","tel":"031-905-1171","addr":"경기도 고양시 일산동구 장항동 757번지","indutype":"일반휴게음식 - 일반한식","category":"restaurant"},{"name":"동행","tel":"031-908-5135","addr":"경기도 고양시 일산동구 장항동 757번지","indutype":"일반휴게음식 - 서양음식","category":"restaurant"},{"name":"또오세요가정식뷔페","tel":"031-901-9028","addr":"경기도 고양시 일산동구 장항동 757번지","indutype":"일반휴게음식 - 일반한식","category":"restaurant"},{"name":"라페참치","tel":"031-906-5279","addr":"경기도 고양시 일산동구 장항동 757번지","indutype":"일반휴게음식 - 일식·회집","category":"restaurant"},{"name":"루비통돼지","tel":"070-4914-5789","addr":"경기도 고양시 일산동구 장항동 757번지","indutype":"일반휴게음식 - 일반한식","category":"restaurant"},{"name":"매화(매)","tel":"031-903-6448","addr":"경기도 고양시 일산동구 장항동 757번지","indutype":"일반휴게음식 - 주점","category":"restaurant"},{"name":"무봉리토종순대국(일산라페스타점)","tel":"031-907-9989","addr":"경기도 고양시 일산동구 장항동 757번지","indutype":"일반휴게음식 - 일반한식","category":"restaurant"},{"name":"박수심야식당","tel":"070-1111-1111","addr":"경기도 고양시 일산동구 장항동 757번지","indutype":"일반휴게음식 - 일식·회집","category":"restaurant"},{"name":"벙개스토리","tel":"031-946-7767","addr":"경기도 고양시 일산동구 장항동 757번지","indutype":"일반휴게음식 - 일반한식","category":"restaurant"},{"name":"부산아구찜","tel":"031-903-8775","addr":"경기도 고양시 일산동구 장항동 757번지","indutype":"일반휴게음식 - 일반한식","category":"restaurant"},{"name":"스시 초희","tel":"031-906-5279","addr":"경기도 고양시 일산동구 장항동 757번지","indutype":"일반휴게음식 - 일식·회집","category":"restaurant"},{"name":"심시세끼","tel":"031-907-3686","addr":"경기도 고양시 일산동구 장항동 757번지","indutype":"일반휴게음식 - 일반한식","category":"restaurant"},{"name":"심야주점","tel":"031-925-8090","addr":"경기도 고양시 일산동구 장항동 757번지","indutype":"일반휴게음식 - 주점","category":"restaurant"},{"name":"아이러브퍼피","tel":"031-908-7650","addr":"경기도 고양시 일산동구 장항동 757번지","indutype":"일반휴게음식 - 서양음식","category":"restaurant"},{"name":"오빠야","tel":"031-902-5358","addr":"경기도 고양시 일산동구 장항동 757번지","indutype":"일반휴게음식 - 일반한식","category":"restaurant"},{"name":"온반","tel":"","addr":"경기도 고양시 일산동구 장항동 757번지","indutype":"일반휴게음식 - 일반한식","category":"restaurant"},{"name":"옹골네순대국","tel":"031-932-3553","addr":"경기도 고양시 일산동구 장항동 757번지","indutype":"일반휴게음식 - 일반한식","category":"restaurant"},{"name":"이영명산꼼장어","tel":"031-932-9288","addr":"경기도 고양시 일산동구 장항동 757번지","indutype":"일반휴게음식 - 일반한식","category":"restaurant"},{"name":"일산풍천장어","tel":"031-904-3992","addr":"경기도 고양시 일산동구 장항동 757번지","indutype":"일반휴게음식 - 일반한식","category":"restaurant"},{"name":"임가네찌개마을","tel":"031-907-1901","addr":"경기도 고양시 일산동구 장항동 757번지","indutype":"일반휴게음식 - 일반한식","category":"restaurant"},{"name":"제주도그릴","tel":"","addr":"경기도 고양시 일산동구 장항동 757번지","indutype":"일반휴게음식 - 일반한식","category":"restaurant"},{"name":"지엠정육점식당","tel":"031-932-3062","addr":"경기도 고양시 일산동구 장항동 757번지","indutype":"일반휴게음식 - 일반한식","category":"restaurant"},{"name":"차돌집","tel":"","addr":"경기도 고양시 일산동구 장항동 757번지","indutype":"일반휴게음식 - 일반한식","category":"restaurant"},{"name":"추억의포차","tel":"031-916-5279","addr":"경기도 고양시 일산동구 장항동 757번지","indutype":"일반휴게음식 - 주점","category":"restaurant"},{"name":"친구야","tel":"","addr":"경기도 고양시 일산동구 장항동 757번지","indutype":"일반휴게음식 - 서양음식","category":"restaurant"},{"name":"혼샤브","tel":"031-902-0180","addr":"경기도 고양시 일산동구 장항동 757번지","indutype":"일반휴게음식 - 일반한식","category":"restaurant"},{"name":"황금어장 1호 2호","tel":"031-907-5648","addr":"경기도 고양시 일산동구 장항동 757번지","indutype":"일반휴게음식 - 일반한식","category":"restaurant"},{"name":"흥부네감자탕","tel":"031-902-4902","addr":"경기도 고양시 일산동구 장항동 757번지","indutype":"일반휴게음식 - 일반한식","category":"restaurant"}]},{"lat":"37.66162669","long":"126.76687804","imageIndex":4,"items":[{"name":"88선수촌라페스타점","tel":"031-000-0000","addr":"경기도 고양시 일산동구 장항동 760번지","indutype":"일반휴게음식 - 일반한식","category":"restaurant"},{"name":"강순자 옛맛 김치찌개","tel":"031-919-7942","addr":"경기도 고양시 일산동구 장항동 760번지","indutype":"일반휴게음식 - 일반한식","category":"restaurant"},{"name":"다루마야","tel":"031-907-1414","addr":"경기도 고양시 일산동구 장항동 760번지","indutype":"일반휴게음식 - 일반한식","category":"restaurant"},{"name":"로만홀리데이","tel":"","addr":"경기도 고양시 일산동구 장항동 760번지","indutype":"일반휴게음식 - 서양음식","category":"restaurant"},{"name":"주","tel":"031-908-0264","addr":"경기도 고양시 일산동구 장항동 760번지","indutype":"일반휴게음식 - 서양음식","category":"restaurant"},{"name":"춘옥전골","tel":"070-7576-0062","addr":"경기도 고양시 일산동구 장항동 760번지","indutype":"일반휴게음식 - 일반한식","category":"restaurant"},{"name":"카라","tel":"031-924-0208","addr":"경기도 고양시 일산동구 장항동 760번지","indutype":"일반휴게음식 - 칵테일바","category":"restaurant"},{"name":"튀김의 신","tel":"031-904-8999","addr":"경기도 고양시 일산동구 장항동 760번지","indutype":"일반휴게음식 - 스넥","category":"restaurant"},{"name":"호미불닭발","tel":"031-932-8288","addr":"경기도 고양시 일산동구 장항동 760번지","indutype":"일반휴게음식 - 일반한식","category":"restaurant"}]},{"lat":"37.663687343","long":"126.76560216","imageIndex":4,"items":[{"name":"911 19 바(BAR)","tel":"","addr":"경기도 고양시 일산동구 장항동 740-3번지","indutype":"일반휴게음식 - 일반한식","category":"restaurant"},{"name":"굴다리아구찜","tel":"031-915-5551","addr":"경기도 고양시 일산동구 장항동 740-3번지","indutype":"일반휴게음식 - 일반한식","category":"restaurant"},{"name":"꼬꼬아찌","tel":"031-911-8801","addr":"경기도 고양시 일산동구 장항동 740-3번지","indutype":"일반휴게음식 - 스넥","category":"restaurant"},{"name":"동양수산 라페스타점","tel":"","addr":"경기도 고양시 일산동구 장항동 740-3번지","indutype":"일반휴게음식 - 일반한식","category":"restaurant"},{"name":"봄","tel":"031-901-1111","addr":"경기도 고양시 일산동구 장항동 740-3번지","indutype":"일반휴게음식 - 주점","category":"restaurant"},{"name":"비스토리(B STORY)","tel":"","addr":"경기도 고양시 일산동구 장항동 740-3번지","indutype":"일반휴게음식 - 서양음식","category":"restaurant"},{"name":"셔플펍 (SHUFFLE PUB)","tel":"031-901-7857","addr":"경기도 고양시 일산동구 장항동 740-3번지","indutype":"일반휴게음식 - 주점","category":"restaurant"},{"name":"열정도","tel":"","addr":"경기도 고양시 일산동구 장항동 740-3번지","indutype":"일반휴게음식 - 일반한식","category":"restaurant"},{"name":"우드스탁","tel":"031-919-6662","addr":"경기도 고양시 일산동구 장항동 740-3번지","indutype":"일반휴게음식 - 주점","category":"restaurant"},{"name":"지니호프","tel":"","addr":"경기도 고양시 일산동구 장항동 740-3번지","indutype":"일반휴게음식 - 일반한식","category":"restaurant"},{"name":"횡성한우","tel":"031-915-5714","addr":"경기도 고양시 일산동구 장항동 740-3번지","indutype":"일반휴게음식 - 일반한식","category":"restaurant"}]},{"lat":"37.656848579","long":"126.76990762","imageIndex":4,"items":[{"name":"9라파 부대찌개 웨돔점","tel":"031-977-9999","addr":"경기도 고양시 일산동구 장항동 864-3번지","indutype":"일반휴게음식 - 일반한식","category":"restaurant"},{"name":"고깃집","tel":"031-908-1133","addr":"경기도 고양시 일산동구 장항동 864-3번지","indutype":"일반휴게음식 - 일반한식","category":"restaurant"},{"name":"국수가게","tel":"031-901-9383","addr":"경기도 고양시 일산동구 장항동 864-3번지","indutype":"일반휴게음식 - 일반한식","category":"restaurant"},{"name":"그린매니저","tel":"031-905-4682","addr":"경기도 고양시 일산동구 장항동 864-3번지","indutype":"일반휴게음식 - 일반한식","category":"restaurant"},{"name":"무그수","tel":"031-907-5677","addr":"경기도 고양시 일산동구 장항동 864-3번지","indutype":"일반휴게음식 - 일반한식","category":"restaurant"},{"name":"민스커피(min's coffee)","tel":"070-5031-0327","addr":"경기도 고양시 일산동구 장항동 864-3번지","indutype":"일반휴게음식 - 서양음식","category":"restaurant"},{"name":"어우야","tel":"031-932-3620","addr":"경기도 고양시 일산동구 장항동 864-3번지","indutype":"일반휴게음식 - 주점","category":"restaurant"},{"name":"통참치","tel":"031-1588-1901","addr":"경기도 고양시 일산동구 장항동 864-3번지","indutype":"일반휴게음식 - 일식·회집","category":"restaurant"}]},{"lat":"37.661187549","long":"126.76804675","imageIndex":4,"items":[{"name":"Anero(아느로)","tel":"031-901-4122","addr":"경기도 고양시 일산동구 장항동 765번지","indutype":"일반휴게음식 - 서양음식","category":"restaurant"},{"name":"Ghetto(게토)","tel":"031-901-1515","addr":"경기도 고양시 일산동구 장항동 765번지","indutype":"일반휴게음식 - 일반한식","category":"restaurant"},{"name":"Piafe(피아페)","tel":"070-7526-3550","addr":"경기도 고양시 일산동구 장항동 765번지","indutype":"일반휴게음식 - 서양음식","category":"restaurant"},{"name":"도어스","tel":"031-901-1987","addr":"경기도 고양시 일산동구 장항동 765번지","indutype":"일반휴게음식 - 주점","category":"restaurant"},{"name":"말레피센트(Maleficent)","tel":"","addr":"경기도 고양시 일산동구 장항동 765번지","indutype":"일반휴게음식 - 서양음식","category":"restaurant"},{"name":"말레피센트(Maleficent)","tel":"031-111-1111","addr":"경기도 고양시 일산동구 장항동 765번지","indutype":"일반휴게음식 - 서양음식","category":"restaurant"},{"name":"맥주공장","tel":"031-908-1901","addr":"경기도 고양시 일산동구 장항동 765번지","indutype":"일반휴게음식 - 일반한식","category":"restaurant"},{"name":"선참치","tel":"031-909-1079","addr":"경기도 고양시 일산동구 장항동 765번지","indutype":"일반휴게음식 - 일반한식","category":"restaurant"},{"name":"양갈비에꼬치다","tel":"031-908-9856","addr":"경기도 고양시 일산동구 장항동 765번지","indutype":"일반휴게음식 - 중국식","category":"restaurant"}]},{"lat":"37.656878063","long":"126.7711541","imageIndex":4,"items":[{"name":"Be(비이)","tel":"031-904-6888","addr":"경기도 고양시 일산동구 장항동 862번지","indutype":"일반휴게음식 - 일반한식","category":"restaurant"},{"name":"공차 일산웨스톤점","tel":"031-907-0404","addr":"경기도 고양시 일산동구 장항동 862번지","indutype":"일반휴게음식 - 서양음식","category":"restaurant"},{"name":"설빙 웨스턴돔점","tel":"031-901-3160","addr":"경기도 고양시 일산동구 장항동 862번지","indutype":"일반휴게음식 - 서양음식","category":"restaurant"},{"name":"약선당감자탕","tel":"031-906-9998","addr":"경기도 고양시 일산동구 장항동 862번지","indutype":"일반휴게음식 - 일반한식","category":"restaurant"},{"name":"우장창창","tel":"031-905-5459","addr":"경기도 고양시 일산동구 장항동 862번지","indutype":"일반휴게음식 - 일반한식","category":"restaurant"},{"name":"유메","tel":"031-901-0943","addr":"경기도 고양시 일산동구 장항동 862번지","indutype":"일반휴게음식 - 일반한식","category":"restaurant"}]},{"lat":"37.652491383","long":"126.77632373","imageIndex":4,"items":[{"name":"Corner(코너)","tel":"031-908-1009","addr":"경기도 고양시 일산동구 장항동 892번지","indutype":"일반휴게음식 - 서양음식","category":"restaurant"},{"name":"교동전선생","tel":"031-902-0267","addr":"경기도 고양시 일산동구 장항동 892번지","indutype":"일반휴게음식 - 일반한식","category":"restaurant"},{"name":"디케","tel":"070-8800-8877","addr":"경기도 고양시 일산동구 장항동 892번지","indutype":"일반휴게음식 - 서양음식","category":"restaurant"},{"name":"스타램","tel":"031-908-8283","addr":"경기도 고양시 일산동구 장항동 892번지","indutype":"일반휴게음식 - 서양음식","category":"restaurant"},{"name":"일산장칼국수","tel":"031-921-2772","addr":"경기도 고양시 일산동구 장항동 892번지","indutype":"일반휴게음식 - 일반한식","category":"restaurant"},{"name":"파스쿠찌일산마두점","tel":"031-908-1320","addr":"경기도 고양시 일산동구 장항동","indutype":"일반휴게음식 - 서양음식","category":"restaurant"},{"name":"팔미낙지한덮밥","tel":"031-908-5468","addr":"경기도 고양시 일산동구 장항동 892번지","indutype":"일반휴게음식 - 일반한식","category":"restaurant"}]},{"lat":"37.654715042","long":"126.77079819","imageIndex":4,"items":[{"name":"FRESH*BOX(프레시박스)","tel":"031-975-2141","addr":"경기도 고양시 일산동구 장항동 869번지","indutype":"일반휴게음식 - 일반한식","category":"restaurant"},{"name":"감바스맛있는집.고막","tel":"070-7757-2473","addr":"경기도 고양시 일산동구 장항동 869번지","indutype":"일반휴게음식 - 서양음식","category":"restaurant"},{"name":"광면","tel":"031-931-9301","addr":"경기도 고양시 일산동구 장항동 869번지","indutype":"일반휴게음식 - 일반한식","category":"restaurant"},{"name":"납작슬리퍼","tel":"070-4656-6232","addr":"경기도 고양시 일산동구 장항동 869번지","indutype":"일반휴게음식 - 서양음식","category":"restaurant"},{"name":"누룽누룽by호호준","tel":"031-901-6852","addr":"경기도 고양시 일산동구 장항동 869번지","indutype":"일반휴게음식 - 일반한식","category":"restaurant"},{"name":"더바른국수","tel":"02-111-1111","addr":"경기도 고양시 일산동구 장항동 869번지","indutype":"일반휴게음식 - 일반한식","category":"restaurant"},{"name":"더착한커피 엠시티점","tel":"031-931-9797","addr":"경기도 고양시 일산동구 장항동 869번지","indutype":"일반휴게음식 - 서양음식","category":"restaurant"},{"name":"독도복집","tel":"031-911-6800","addr":"경기도 고양시 일산동구 장항동 869번지","indutype":"일반휴게음식 - 일반한식","category":"restaurant"},{"name":"동궁찜닭","tel":"031-909-0877","addr":"경기도 고양시 일산동구 장항동 869번지","indutype":"일반휴게음식 - 일반한식","category":"restaurant"},{"name":"떳다방","tel":"031-926-2382","addr":"경기도 고양시 일산동구 장항동 869번지","indutype":"일반휴게음식 - 서양음식","category":"restaurant"},{"name":"만석","tel":"031-901-7211","addr":"경기도 고양시 일산동구 장항동 869번지","indutype":"일반휴게음식 - 일반한식","category":"restaurant"},{"name":"맛드림","tel":"070-4028-3500","addr":"경기도 고양시 일산동구 장항동 869번지","indutype":"일반휴게음식 - 일반한식","category":"restaurant"},{"name":"매일좋은식당 일산본점","tel":"031-903-0962","addr":"경기도 고양시 일산동구 장항동 869번지","indutype":"일반휴게음식 - 일반한식","category":"restaurant"},{"name":"매일좋은식당일산본점","tel":"031-903-0962","addr":"경기도 고양시 일산동구 장항동 869번지","indutype":"일반휴게음식 - 일식·회집","category":"restaurant"},{"name":"먹고싶닭","tel":"","addr":"경기도 고양시 일산동구 장항동 869번지","indutype":"일반휴게음식 - 일반한식","category":"restaurant"},{"name":"미도리","tel":"031-909-0887","addr":"경기도 고양시 일산동구 장항동 869번지","indutype":"일반휴게음식 - 일반한식","category":"restaurant"},{"name":"버거307 MBC점","tel":"031-1111-1111","addr":"경기도 고양시 일산동구 장항동 869번지","indutype":"일반휴게음식 - 서양음식","category":"restaurant"},{"name":"비비큐일산호수공원점","tel":"031-906-9282","addr":"경기도 고양시 일산동구 장항동 869번지","indutype":"일반휴게음식 - 스넥","category":"restaurant"},{"name":"비어스탑일산호수공원점","tel":"031-906-2615","addr":"경기도 고양시 일산동구 장항동 869번지","indutype":"일반휴게음식 - 일반한식","category":"restaurant"},{"name":"빙달(일산점)","tel":"031-901-8285","addr":"경기도 고양시 일산동구 장항동 869번지","indutype":"일반휴게음식 - 서양음식","category":"restaurant"},{"name":"엔제리너스커피 일산엠씨티점","tel":"031-931-9400","addr":"경기도 고양시 일산동구 장항동 869번지","indutype":"일반휴게음식 - 서양음식","category":"restaurant"},{"name":"오감맛집","tel":"031-903-4455","addr":"경기도 고양시 일산동구 장항동 869번지","indutype":"일반휴게음식 - 스넥","category":"restaurant"},{"name":"요일엔","tel":"070-4001-2131","addr":"경기도 고양시 일산동구 장항동 869번지","indutype":"일반휴게음식 - 일반한식","category":"restaurant"},{"name":"일산맛집 명물떡갈비","tel":"031-972-4543","addr":"경기도 고양시 일산동구 장항동 869번지","indutype":"일반휴게음식 - 스넥","category":"restaurant"},{"name":"장어이야기 일산점","tel":"031-907-9592","addr":"경기도 고양시 일산동구 장항동 869번지","indutype":"일반휴게음식 - 일반한식","category":"restaurant"},{"name":"전주한식부페","tel":"031-908-4340","addr":"경기도 고양시 일산동구 장항동 869번지","indutype":"일반휴게음식 - 일반한식","category":"restaurant"},{"name":"전집으로와~","tel":"070-4763-5091","addr":"경기도 고양시 일산동구 장항동 869번지","indutype":"일반휴게음식 - 일반한식","category":"restaurant"},{"name":"정직한까페","tel":"031-924-3333","addr":"경기도 고양시 일산동구 장항동 869번지","indutype":"일반휴게음식 - 서양음식","category":"restaurant"},{"name":"조은데이","tel":"","addr":"경기도 고양시 일산동구 장항동 869번지","indutype":"일반휴게음식 - 일반한식","category":"restaurant"},{"name":"참치대가","tel":"031-907-2292","addr":"경기도 고양시 일산동구 장항동 869번지","indutype":"일반휴게음식 - 일반한식","category":"restaurant"},{"name":"카페드롬일산호수공원점","tel":"070-7798-5491","addr":"경기도 고양시 일산동구 장항동 869번지","indutype":"일반휴게음식 - 일반한식","category":"restaurant"},{"name":"카페오감","tel":"031-903-6373","addr":"경기도 고양시 일산동구 장항동","indutype":"일반휴게음식 - 스넥","category":"restaurant"},{"name":"카페인중독 장항점","tel":"031-901-8092","addr":"경기도 고양시 일산동구 장항동 869번지","indutype":"일반휴게음식 - 서양음식","category":"restaurant"},{"name":"컵오브커피(일산장항동점)","tel":"031-902-6618","addr":"경기도 고양시 일산동구 장항동 869번지","indutype":"일반휴게음식 - 일반한식","category":"restaurant"},{"name":"킴스쿡(Kim's cook)","tel":"070-8822-9995","addr":"경기도 고양시 일산동구 장항동 869번지","indutype":"일반휴게음식 - 서양음식","category":"restaurant"},{"name":"팔계네돈박사","tel":"","addr":"경기도 고양시 일산동구 장항동 869번지","indutype":"일반휴게음식 - 일반한식","category":"restaurant"},{"name":"포이유 (일산MBC드림센터점)","tel":"031-907-9771","addr":"경기도 고양시 일산동구 장항동 869번지","indutype":"일반휴게음식 - 서양음식","category":"restaurant"},{"name":"플레인플랜베이킹스튜디오","tel":"","addr":"경기도 고양시 일산동구 장항동 869번지","indutype":"일반휴게음식 - 일반한식","category":"restaurant"},{"name":"하늘채한식뷔페","tel":"031-931-8899","addr":"경기도 고양시 일산동구 장항동 869번지","indutype":"일반휴게음식 - 일반한식","category":"restaurant"},{"name":"현대식당","tel":"031-902-2556","addr":"경기도 고양시 일산동구 장항동 869번지","indutype":"일반휴게음식 - 일반한식","category":"restaurant"},{"name":"화도","tel":"","addr":"경기도 고양시 일산동구 장항동 869번지","indutype":"일반휴게음식 - 일반한식","category":"restaurant"},{"name":"희.Bean.(희.빈.)","tel":"02-2017-7729","addr":"경기도 고양시 일산동구 장항동 869번지","indutype":"일반휴게음식 - 서양음식","category":"restaurant"}]},{"lat":"37.657490071","long":"126.77082355","imageIndex":4,"items":[{"name":"Gonzo(곤조)","tel":"","addr":"경기도 고양시 일산동구 장항동 861번지","indutype":"일반휴게음식 - 일식·회집","category":"restaurant"},{"name":"미나미참치","tel":"031-903-9749","addr":"경기도 고양시 일산동구 장항동 861번지","indutype":"일반휴게음식 - 일식·회집","category":"restaurant"},{"name":"바바라(babara)","tel":"070-0000-0000","addr":"경기도 고양시 일산동구 장항동 861번지","indutype":"일반휴게음식 - 서양음식","category":"restaurant"},{"name":"쓰레빠(BBAR)","tel":"031-908-5355","addr":"경기도 고양시 일산동구 장항동 861번지","indutype":"일반휴게음식 - 일반한식","category":"restaurant"},{"name":"오케이크","tel":"031-927-9277","addr":"경기도 고양시 일산동구 장항동 861번지","indutype":"일반휴게음식 - 일반한식","category":"restaurant"},{"name":"진 간장새우","tel":"031-903-9594","addr":"경기도 고양시 일산동구 장항동 861번지","indutype":"일반휴게음식 - 일반한식","category":"restaurant"},{"name":"화류","tel":"","addr":"경기도 고양시 일산동구 장항동 861번지","indutype":"일반휴게음식 - 일반한식","category":"restaurant"}]},{"lat":"37.66240656","long":"126.75613154","imageIndex":4,"items":[{"name":"JTBC J카페","tel":"02-751-9970","addr":"경기도 고양시 일산동구 장항동 1778번지","indutype":"일반휴게음식 - 서양음식","category":"restaurant"}]},{"lat":"37.656461591","long":"126.77012414","imageIndex":4,"items":[{"name":"LUV LUV LUV(럽럽럽)","tel":"070-7815-2705","addr":"경기도 고양시 일산동구 장항동 863-2번지","indutype":"일반휴게음식 - 서양음식","category":"restaurant"},{"name":"고려왕족발","tel":"031-912-7745","addr":"경기도 고양시 일산동구 장항동 863-2번지","indutype":"일반휴게음식 - 일반한식","category":"restaurant"},{"name":"문어지존","tel":"031--901-4578","addr":"경기도 고양시 일산동구 장항동 863-2번지","indutype":"일반휴게음식 - 일반한식","category":"restaurant"},{"name":"에일쌤","tel":"031-906-1009","addr":"경기도 고양시 일산동구 장항동 863-2번지","indutype":"일반휴게음식 - 주점","category":"restaurant"}]},{"lat":"37.657521183","long":"126.77290866","imageIndex":4,"items":[{"name":"PO커피","tel":"031-909-0066","addr":"경기도 고양시 일산동구 장항동 856번지","indutype":"일반휴게음식 - 서양음식","category":"restaurant"},{"name":"노가리상회","tel":"031-911-6592","addr":"경기도 고양시 일산동구 장항동 856번지","indutype":"일반휴게음식 - 일반한식","category":"restaurant"},{"name":"녹원죽집","tel":"031-932-1160","addr":"경기도 고양시 일산동구 장항동 856번지","indutype":"일반휴게음식 - 일반한식","category":"restaurant"},{"name":"루비통돼지","tel":"031-901-5592","addr":"경기도 고양시 일산동구 장항동 856번지","indutype":"일반휴게음식 - 일반한식","category":"restaurant"},{"name":"연","tel":"031-906-3353","addr":"경기도 고양시 일산동구 장항동 856번지","indutype":"일반휴게음식 - 서양음식","category":"restaurant"},{"name":"큐슈울트라아멘","tel":"031-904-7543","addr":"경기도 고양시 일산동구 장항동 856번지","indutype":"일반휴게음식 - 일식·회집","category":"restaurant"},{"name":"타마시스시 (스시롤)","tel":"031-904-0030","addr":"경기도 고양시 일산동구 장항동 856번지","indutype":"일반휴게음식 - 일식·회집","category":"restaurant"}]},{"lat":"37.664020037","long":"126.76527243","imageIndex":4,"items":[{"name":"Ripple(리플)","tel":"031-911-7497","addr":"경기도 고양시 일산동구 장항동 740-1번지","indutype":"일반휴게음식 - 일반한식","category":"restaurant"},{"name":"강호동치킨 라페스타점","tel":"031-919-0678","addr":"경기도 고양시 일산동구 장항동 740-1번지","indutype":"일반휴게음식 - 스넥","category":"restaurant"},{"name":"노랑통닭","tel":"031-911-9995","addr":"경기도 고양시 일산동구 장항동 740-1번지","indutype":"일반휴게음식 - 스넥","category":"restaurant"},{"name":"명동찌개마을","tel":"031-915-9922","addr":"경기도 고양시 일산동구 장항동 740-1번지","indutype":"일반휴게음식 - 일반한식","category":"restaurant"},{"name":"백두한우곱창","tel":"031-924-1835","addr":"경기도 고양시 일산동구 장항동 740-1번지","indutype":"일반휴게음식 - 일반한식","category":"restaurant"},{"name":"오비브 (oviv)","tel":"","addr":"경기도 고양시 일산동구 장항동 740-1번지","indutype":"일반휴게음식 - 서양음식","category":"restaurant"},{"name":"올드락","tel":"031-915-9127","addr":"경기도 고양시 일산동구 장항동 740-1번지","indutype":"일반휴게음식 - 주점","category":"restaurant"},{"name":"인연","tel":"","addr":"경기도 고양시 일산동구 장항동 740-1번지","indutype":"일반휴게음식 - 일식·회집","category":"restaurant"},{"name":"일차돌","tel":"031-924-5139","addr":"경기도 고양시 일산동구 장항동 740-1번지","indutype":"일반휴게음식 - 일반한식","category":"restaurant"},{"name":"장미의 미소","tel":"031-915-6845","addr":"경기도 고양시 일산동구 장항동 740-1번지","indutype":"일반휴게음식 - 일반한식","category":"restaurant"},{"name":"천사곱창","tel":"031-911-4995","addr":"경기도 고양시 일산동구 장항동 740-1번지","indutype":"일반휴게음식 - 일반한식","category":"restaurant"},{"name":"한판맥주","tel":"031-911-8043","addr":"경기도 고양시 일산동구 장항동 740-1번지","indutype":"일반휴게음식 - 중국식","category":"restaurant"}]},{"lat":"37.660658502","long":"126.76931772","imageIndex":4,"items":[{"name":"TASTYGUYS(테이스티가이스)","tel":"031-901-2136","addr":"경기도 고양시 일산동구 장항동 766번지","indutype":"일반휴게음식 - 일반한식","category":"restaurant"},{"name":"가와바/(주) 가와바코리아","tel":"070-7716-1310","addr":"경기도 고양시 일산동구 장항동 766번지","indutype":"일반휴게음식 - 일반한식","category":"restaurant"},{"name":"아이슬라임","tel":"031-973-0356","addr":"경기도 고양시 일산동구 장항동 766번지","indutype":"일반휴게음식 - 스넥","category":"restaurant"},{"name":"홍루이젠 일산라페스타점","tel":"","addr":"경기도 고양시 일산동구 장항동 766번지","indutype":"일반휴게음식 - 일반한식","category":"restaurant"}]},{"lat":"37.661213019","long":"126.76726468","imageIndex":4,"items":[{"name":"TEN (10라이브)","tel":"031-921-8901","addr":"경기도 고양시 일산동구 장항동 759번지","indutype":"일반휴게음식 - 주점","category":"restaurant"},{"name":"가을","tel":"","addr":"경기도 고양시 일산동구 장항동 759번지","indutype":"일반휴게음식 - 주점","category":"restaurant"},{"name":"길","tel":"070-7581-0031","addr":"경기도 고양시 일산동구 장항동 759번지","indutype":"일반휴게음식 - 주점","category":"restaurant"},{"name":"누나홀닭 라페스타점","tel":"031-904-5571","addr":"경기도 고양시 일산동구 장항동 759번지","indutype":"일반휴게음식 - 스넥","category":"restaurant"},{"name":"디투","tel":"031-903-2002","addr":"경기도 고양시 일산동구 장항동 759번지","indutype":"일반휴게음식 - 일반한식","category":"restaurant"},{"name":"또래끼리","tel":"031-932-2233","addr":"경기도 고양시 일산동구 장항동 759번지","indutype":"일반휴게음식 - 칵테일바","category":"restaurant"},{"name":"라밤바","tel":"031-903-5135","addr":"경기도 고양시 일산동구 장항동 759번지","indutype":"일반휴게음식 - 주점","category":"restaurant"},{"name":"별이빛나는밤에","tel":"031-967-5763","addr":"경기도 고양시 일산동구 장항동 759번지","indutype":"일반휴게음식 - 주점","category":"restaurant"},{"name":"보드람치킨","tel":"031-819-5553","addr":"경기도 고양시 일산동구 장항동 759번지","indutype":"일반휴게음식 - 서양음식","category":"restaurant"},{"name":"삼통치킨(일산)","tel":"031-902-1095","addr":"경기도 고양시 일산동구 장항동 759번지","indutype":"일반휴게음식 - 스넥","category":"restaurant"},{"name":"썬","tel":"070-8832-9647","addr":"경기도 고양시 일산동구 장항동 759번지","indutype":"일반휴게음식 - 일반한식","category":"restaurant"},{"name":"연예인","tel":"031-908-6945","addr":"경기도 고양시 일산동구 장항동 759번지","indutype":"일반휴게음식 - 주점","category":"restaurant"},{"name":"오늘밤","tel":"","addr":"경기도 고양시 일산동구 장항동 759번지","indutype":"일반휴게음식 - 서양음식","category":"restaurant"},{"name":"오뎅","tel":"031-911-9110","addr":"경기도 고양시 일산동구 장항동 759번지","indutype":"일반휴게음식 - 일반한식","category":"restaurant"},{"name":"카페스투간","tel":"070-8624-3068","addr":"경기도 고양시 일산동구 장항동 759번지","indutype":"일반휴게음식 - 스넥","category":"restaurant"},{"name":"콘서트","tel":"070-7862-1514","addr":"경기도 고양시 일산동구 장항동 759번지","indutype":"일반휴게음식 - 일반한식","category":"restaurant"},{"name":"평상","tel":"031-908-0791","addr":"경기도 고양시 일산동구 장항동 759번지","indutype":"일반휴게음식 - 일반한식","category":"restaurant"}]},{"lat":"37.66226816","long":"126.76777135","imageIndex":4,"items":[{"name":"Take.R (테이크알)","tel":"02-935-9425","addr":"경기도 고양시 일산동구 장항동 763번지","indutype":"일반휴게음식 - 서양음식","category":"restaurant"},{"name":"꽃이닭","tel":"","addr":"경기도 고양시 일산동구 장항동 763번지","indutype":"일반휴게음식 - 일반한식","category":"restaurant"},{"name":"띵똥와플","tel":"031-501-5101","addr":"경기도 고양시 일산동구 장항동 763번지","indutype":"일반휴게음식 - 일반한식","category":"restaurant"},{"name":"명랑핫도그","tel":"031-902-0101","addr":"경기도 고양시 일산동구 장항동 763번지","indutype":"일반휴게음식 - 일반한식","category":"restaurant"},{"name":"볼링펍","tel":"031-902-8500","addr":"경기도 고양시 일산동구 장항동 763번지","indutype":"일반휴게음식 - 일반한식","category":"restaurant"},{"name":"왈왈이","tel":"","addr":"경기도 고양시 일산동구 장항동 763번지","indutype":"일반휴게음식 - 일반한식","category":"restaurant"},{"name":"우리집","tel":"031-908-9993","addr":"경기도 고양시 일산동구 장항동 763번지","indutype":"일반휴게음식 - 일반한식","category":"restaurant"},{"name":"일영대추나무집 일산점","tel":"031-901-5238","addr":"경기도 고양시 일산동구 장항동 763번지","indutype":"일반휴게음식 - 일반한식","category":"restaurant"},{"name":"친구네다꼬야끼","tel":"031-8070-0101","addr":"경기도 고양시 일산동구 장항동 763번지","indutype":"일반휴게음식 - 스넥","category":"restaurant"},{"name":"킹콩쥬스 엔 커피 라페스타점","tel":"031-920-9090","addr":"경기도 고양시 일산동구 장항동 763번지","indutype":"일반휴게음식 - 서양음식","category":"restaurant"}]},{"lat":"37.659850701","long":"126.77087287","imageIndex":4,"items":[{"name":"The 순대","tel":"031-902-4777","addr":"경기도 고양시 일산동구 장항동 771-1번지","indutype":"일반휴게음식 - 일반한식","category":"restaurant"},{"name":"김영순김밥","tel":"031-905-0555","addr":"경기도 고양시 일산동구 장항동 771-1번지","indutype":"일반휴게음식 - 스넥","category":"restaurant"},{"name":"더킹(THE KING)","tel":"070-4120-7334","addr":"경기도 고양시 일산동구 장항동 771-1번지","indutype":"일반휴게음식 - 일반한식","category":"restaurant"},{"name":"라티놀","tel":"070-4806-6635","addr":"경기도 고양시 일산동구 장항동 771-1번지","indutype":"일반휴게음식 - 스넥","category":"restaurant"},{"name":"마마타이(Mama Thai)","tel":"031-902-5998","addr":"경기도 고양시 일산동구 장항동 771-1번지","indutype":"일반휴게음식 - 일반한식","category":"restaurant"},{"name":"멋진하루","tel":"031-906-1005","addr":"경기도 고양시 일산동구 장항동 771-1번지","indutype":"일반휴게음식 - 서양음식","category":"restaurant"},{"name":"스터닝커피","tel":"031-906-1462","addr":"경기도 고양시 일산동구 장항동 771-1번지","indutype":"일반휴게음식 - 서양음식","category":"restaurant"},{"name":"언니네식탁","tel":"031-902-5002","addr":"경기도 고양시 일산동구 장항동 771-1번지","indutype":"일반휴게음식 - 일반한식","category":"restaurant"},{"name":"왕의커피","tel":"031-913-2437","addr":"경기도 고양시 일산동구 장항동 771-1번지","indutype":"일반휴게음식 - 서양음식","category":"restaurant"},{"name":"이야기","tel":"031-903-0717","addr":"경기도 고양시 일산동구 장항동 771-1번지","indutype":"일반휴게음식 - 서양음식","category":"restaurant"},{"name":"찰스숯불김밥","tel":"031-908-9007","addr":"경기도 고양시 일산동구 장항동 771-1번지","indutype":"일반휴게음식 - 스넥","category":"restaurant"}]},{"lat":"37.657077364","long":"126.77170878","imageIndex":4,"items":[{"name":"W bar","tel":"031-5539-3346","addr":"경기도 고양시 일산동구 장항동 859번지","indutype":"일반휴게음식 - 주점","category":"restaurant"},{"name":"꾼노리","tel":"031-905-9789","addr":"경기도 고양시 일산동구 장항동 859번지","indutype":"일반휴게음식 - 일반한식","category":"restaurant"},{"name":"삼겹싸롱웨스턴돔점","tel":"031-903-9599","addr":"경기도 고양시 일산동구 장항동 859번지","indutype":"일반휴게음식 - 일반한식","category":"restaurant"},{"name":"조선호맥","tel":"","addr":"경기도 고양시 일산동구 장항동 859번지","indutype":"일반휴게음식 - 주점","category":"restaurant"},{"name":"쭈꾸미밥상","tel":"031-908-9592","addr":"경기도 고양시 일산동구 장항동 859번지","indutype":"일반휴게음식 - 일반한식","category":"restaurant"},{"name":"커피하바나","tel":"031-932-8791","addr":"경기도 고양시 일산동구 장항동 859번지","indutype":"일반휴게음식 - 서양음식","category":"restaurant"},{"name":"퍼플","tel":"031-901-6817","addr":"경기도 고양시 일산동구 장항동 859번지","indutype":"일반휴게음식 - 일반한식","category":"restaurant"}]},{"lat":"37.662935448","long":"126.76357587","imageIndex":4,"items":[{"name":"coffee LUNGA(커피룽가)","tel":"070-4133-3611","addr":"경기도 고양시 일산동구 장항동 749번지","indutype":"일반휴게음식 - 서양음식","category":"restaurant"},{"name":"몽몽이펍(PUB)","tel":"070-7994-4074","addr":"경기도 고양시 일산동구 장항동 749번지","indutype":"일반휴게음식 - 주점","category":"restaurant"},{"name":"운삐아또","tel":"031-917-4973","addr":"경기도 고양시 일산동구 장항동 749번지","indutype":"일반휴게음식 - 서양음식","category":"restaurant"},{"name":"파스타스토리","tel":"031-911-9993","addr":"경기도 고양시 일산동구 장항동","indutype":"일반휴게음식 - 서양음식","category":"restaurant"}]},{"lat":"37.661739184","long":"126.76907634","imageIndex":4,"items":[{"name":"가리사니","tel":"031-901-0090","addr":"경기도 고양시 일산동구 장항동 776-2번지","indutype":"일반휴게음식 - 일반한식","category":"restaurant"},{"name":"대구탕찜전문점","tel":"031-907-2855","addr":"경기도 고양시 일산동구 장항동 776-2번지","indutype":"일반휴게음식 - 일반한식","category":"restaurant"},{"name":"더착한커피 라페스타점","tel":"031-901-9928","addr":"경기도 고양시 일산동구 장항동 776-2번지","indutype":"일반휴게음식 - 서양음식","category":"restaurant"},{"name":"선오뎅","tel":"031-901-5095","addr":"경기도 고양시 일산동구 장항동 776-2번지","indutype":"일반휴게음식 - 일반한식","category":"restaurant"},{"name":"속초어시장","tel":"031-918-1325","addr":"경기도 고양시 일산동구 장항동 776-2번지","indutype":"일반휴게음식 - 일식·회집","category":"restaurant"},{"name":"예스터데이","tel":"031-812-7080","addr":"경기도 고양시 일산동구 장항동 776-2번지","indutype":"일반휴게음식 - 칵테일바","category":"restaurant"}]},{"lat":"37.662127809","long":"126.76968712","imageIndex":4,"items":[{"name":"가야가마솥보신탕","tel":"031-908-0606","addr":"경기도 고양시 일산동구 장항동 776번지","indutype":"일반휴게음식 - 일반한식","category":"restaurant"},{"name":"기타리스트","tel":"031-912-0696","addr":"경기도 고양시 일산동구 장항동 776번지","indutype":"일반휴게음식 - 일반한식","category":"restaurant"},{"name":"김보금전통청국장","tel":"031-904-8882","addr":"경기도 고양시 일산동구 장항동 776번지","indutype":"일반휴게음식 - 일반한식","category":"restaurant"},{"name":"남대문갈치조림","tel":"031-901-9720","addr":"경기도 고양시 일산동구 장항동 776번지","indutype":"일반휴게음식 - 일반한식","category":"restaurant"},{"name":"맥주광장","tel":"031-901-6247","addr":"경기도 고양시 일산동구 장항동 776번지","indutype":"일반휴게음식 - 주점","category":"restaurant"},{"name":"소담스레","tel":"031-901-6761","addr":"경기도 고양시 일산동구 장항동 776번지","indutype":"일반휴게음식 - 일반한식","category":"restaurant"},{"name":"엉터리생고기라페스타점","tel":"031-906-3374","addr":"경기도 고양시 일산동구 장항동 776번지","indutype":"일반휴게음식 - 일반한식","category":"restaurant"},{"name":"왕노가리","tel":"","addr":"경기도 고양시 일산동구 장항동 776번지","indutype":"일반휴게음식 - 일반한식","category":"restaurant"},{"name":"위스키위즐","tel":"","addr":"경기도 고양시 일산동구 장항동 776번지","indutype":"일반휴게음식 - 서양음식","category":"restaurant"},{"name":"일산","tel":"070-5099-0844","addr":"경기도 고양시 일산동구 장항동 776번지","indutype":"일반휴게음식 - 일식·회집","category":"restaurant"},{"name":"카페파피나","tel":"","addr":"경기도 고양시 일산동구 장항동 776번지","indutype":"일반휴게음식 - 서양음식","category":"restaurant"}]},{"lat":"37.663800358","long":"126.76804985","imageIndex":4,"items":[{"name":"가운소곱창","tel":"031-916-6118","addr":"경기도 고양시 일산동구 장항동 733번지","indutype":"일반휴게음식 - 일반한식","category":"restaurant"},{"name":"가장맛있는족발일산라페스타점","tel":"031-911-7775","addr":"경기도 고양시 일산동구 장항동 733번지","indutype":"일반휴게음식 - 일반한식","category":"restaurant"},{"name":"부부카야","tel":"031-921-0325","addr":"경기도 고양시 일산동구 장항동 733번지","indutype":"일반휴게음식 - 일반한식","category":"restaurant"},{"name":"스시온","tel":"031-936-8181","addr":"경기도 고양시 일산동구 장항동 733번지","indutype":"일반휴게음식 - 일반한식","category":"restaurant"},{"name":"울진왕돌초","tel":"031-922-7707","addr":"경기도 고양시 일산동구 장항동 733번지","indutype":"일반휴게음식 - 일반한식","category":"restaurant"},{"name":"육천쌀국수","tel":"032-922-5082","addr":"경기도 고양시 일산동구 장항동 733번지","indutype":"일반휴게음식 - 일반한식","category":"restaurant"},{"name":"인근주민 일산라페스타점","tel":"031-812-0077","addr":"경기도 고양시 일산동구 장항동 733번지","indutype":"일반휴게음식 - 서양음식","category":"restaurant"},{"name":"콩심라페스타점","tel":"031-923-0098","addr":"경기도 고양시 일산동구 장항동 733번지","indutype":"일반휴게음식 - 일반한식","category":"restaurant"},{"name":"푼티아로이","tel":"","addr":"경기도 고양시 일산동구 장항동 733번지","indutype":"일반휴게음식 - 서양음식","category":"restaurant"},{"name":"피자아일랜드","tel":"031-812-2125","addr":"경기도 고양시 일산동구 장항동 733번지","indutype":"일반휴게음식 - 서양음식","category":"restaurant"},{"name":"황금막창 꼬들살","tel":"031-923-5306","addr":"경기도 고양시 일산동구 장항동 733번지","indutype":"일반휴게음식 - 일반한식","category":"restaurant"}]},{"lat":"37.664573692","long":"126.76729939","imageIndex":4,"items":[{"name":"갈매기귀신","tel":"031-919-0883","addr":"경기도 고양시 일산동구 장항동 731번지","indutype":"일반휴게음식 - 일반한식","category":"restaurant"},{"name":"달빛소나타","tel":"","addr":"경기도 고양시 일산동구 장항동 731번지","indutype":"일반휴게음식 - 일반한식","category":"restaurant"},{"name":"메르하바","tel":"032-276-4222","addr":"경기도 고양시 일산동구 장항동 731번지","indutype":"일반휴게음식 - 칵테일바","category":"restaurant"},{"name":"서울파전.닭갈비","tel":"031-911-9477","addr":"경기도 고양시 일산동구 장항동 731번지","indutype":"일반휴게음식 - 일반한식","category":"restaurant"},{"name":"유락","tel":"031-914-8007","addr":"경기도 고양시 일산동구 장항동 731번지","indutype":"일반휴게음식 - 스넥","category":"restaurant"},{"name":"일구구삼","tel":"031-911-1993","addr":"경기도 고양시 일산동구 장항동 731번지","indutype":"일반휴게음식 - 일반한식","category":"restaurant"},{"name":"집밥여왕","tel":"031-000-0000","addr":"경기도 고양시 일산동구 장항동 731번지","indutype":"일반휴게음식 - 일반한식","category":"restaurant"},{"name":"집밥여왕","tel":"031-812-7204","addr":"경기도 고양시 일산동구 장항동 731번지","indutype":"일반휴게음식 - 일반한식","category":"restaurant"},{"name":"참치명가","tel":"031-924-0788","addr":"경기도 고양시 일산동구 장항동 731번지","indutype":"일반휴게음식 - 일반한식","category":"restaurant"},{"name":"커피마녀","tel":"","addr":"경기도 고양시 일산동구 장항동 731번지","indutype":"일반휴게음식 - 서양음식","category":"restaurant"},{"name":"풀하우스","tel":"070-8777-5876","addr":"경기도 고양시 일산동구 장항동 731번지","indutype":"일반휴게음식 - 일반한식","category":"restaurant"},{"name":"호식이두마리치킨","tel":"031-922-6868","addr":"경기도 고양시 일산동구 장항동 731번지","indutype":"일반휴게음식 - 스넥","category":"restaurant"}]},{"lat":"37.657127541","long":"126.76973676","imageIndex":4,"items":[{"name":"강승모의쉘브르","tel":"031-905-0846","addr":"경기도 고양시 일산동구 장항동 864-2번지","indutype":"일반휴게음식 - 서양음식","category":"restaurant"},{"name":"꾸아루바","tel":"031-932-9882","addr":"경기도 고양시 일산동구 장항동","indutype":"일반휴게음식 - 일식·회집","category":"restaurant"},{"name":"럭셔리","tel":"031-905-8806","addr":"경기도 고양시 일산동구 장항동 864-2번지","indutype":"일반휴게음식 - 서양음식","category":"restaurant"},{"name":"삼돈이 (일산)","tel":"02-1111-1111","addr":"경기도 고양시 일산동구 장항동 864-2번지","indutype":"일반휴게음식 - 일반한식","category":"restaurant"},{"name":"쎄시봉","tel":"031-908-9888","addr":"경기도 고양시 일산동구 장항동 864-2번지","indutype":"일반휴게음식 - 일반한식","category":"restaurant"},{"name":"종로빈대떡","tel":"031-902-2664","addr":"경기도 고양시 일산동구 장항동 864-2번지","indutype":"일반휴게음식 - 일반한식","category":"restaurant"},{"name":"하남돼지집 웨스턴돔점","tel":"031-815-8300","addr":"경기도 고양시 일산동구 장항동 864-2번지","indutype":"일반휴게음식 - 일반한식","category":"restaurant"}]},{"lat":"37.663214891","long":"126.76813103","imageIndex":4,"items":[{"name":"강원토종삼계탕","tel":"031-812-9119","addr":"경기도 고양시 일산동구 장항동 734-1번지","indutype":"일반휴게음식 - 일반한식","category":"restaurant"},{"name":"경성양육관","tel":"031-913-2376","addr":"경기도 고양시 일산동구 장항동 734-1번지","indutype":"일반휴게음식 - 일반한식","category":"restaurant"},{"name":"몽키왕동까스와냉모밀","tel":"031-902-1819","addr":"경기도 고양시 일산동구 장항동 734-1번지","indutype":"일반휴게음식 - 스넥","category":"restaurant"},{"name":"본죽&본비빔밥까페(일산라페스타점)","tel":"031-924-6288","addr":"경기도 고양시 일산동구 장항동 734-1번지","indutype":"일반휴게음식 - 일반한식","category":"restaurant"},{"name":"블루노트(BLUE NOTE)","tel":"","addr":"경기도 고양시 일산동구 장항동 734-1번지","indutype":"일반휴게음식 - 서양음식","category":"restaurant"},{"name":"오렌지김밥","tel":"031-911-9559","addr":"경기도 고양시 일산동구 장항동 734-1번지","indutype":"일반휴게음식 - 스넥","category":"restaurant"},{"name":"일산동구 장항점 요거프레소","tel":"","addr":"경기도 고양시 일산동구 장항동 734-1번지","indutype":"일반휴게음식 - 일반한식","category":"restaurant"},{"name":"크림(CREAM)","tel":"031-912-6131","addr":"경기도 고양시 일산동구 장항동 734-1번지","indutype":"일반휴게음식 - 주점","category":"restaurant"}]},{"lat":"37.658187342","long":"126.77262329","imageIndex":4,"items":[{"name":"개성순대국,족발","tel":"031-907-7890","addr":"경기도 고양시 일산동구 장항동 857-1번지","indutype":"일반휴게음식 - 일반한식","category":"restaurant"},{"name":"길빵","tel":"070-5822-9012","addr":"경기도 고양시 일산동구 장항동 857번지","indutype":"일반휴게음식 - 스넥","category":"restaurant"},{"name":"도미니칸조","tel":"031-908-2155","addr":"경기도 고양시 일산동구 장항동 857-1번지","indutype":"일반휴게음식 - 일반한식","category":"restaurant"},{"name":"만족오향족발 일산점","tel":"031-902-1902","addr":"경기도 고양시 일산동구 장항동 857-1번지","indutype":"일반휴게음식 - 일반한식","category":"restaurant"},{"name":"먹거리촌","tel":"031-932-8076","addr":"경기도 고양시 일산동구 장항동 857번지","indutype":"일반휴게음식 - 일반한식","category":"restaurant"},{"name":"봉평메밀막국수","tel":"031-906-8898","addr":"경기도 고양시 일산동구 장항동","indutype":"일반휴게음식 - 일반한식","category":"restaurant"},{"name":"성수동꿀꽈배기","tel":"031-901-7987","addr":"경기도 고양시 일산동구 장항동 857번지","indutype":"일반휴게음식 - 일반한식","category":"restaurant"},{"name":"숙희","tel":"031-932-2228","addr":"경기도 고양시 일산동구 장항동 857번지","indutype":"일반휴게음식 - 주점","category":"restaurant"},{"name":"청진동해장국","tel":"031-905-2488","addr":"경기도 고양시 일산동구 장항동","indutype":"일반휴게음식 - 일반한식","category":"restaurant"},{"name":"최고야황제해물문어보쌈일산정발산역본점","tel":"031-926-2044","addr":"경기도 고양시 일산동구 장항동 857-1번지","indutype":"일반휴게음식 - 일반한식","category":"restaurant"},{"name":"츠지","tel":"031-905-3495","addr":"경기도 고양시 일산동구 장항동 857번지","indutype":"일반휴게음식 - 일식·회집","category":"restaurant"},{"name":"퍼플라이브","tel":"031-905-3430","addr":"경기도 고양시 일산동구 장항동 857-1번지","indutype":"일반휴게음식 - 주점","category":"restaurant"}]},{"lat":"37.663158391","long":"126.76690719","imageIndex":4,"items":[{"name":"갤러리","tel":"031-7559-9369","addr":"경기도 고양시 일산동구 장항동 735번지","indutype":"일반휴게음식 - 일반한식","category":"restaurant"},{"name":"뻐꾸기포차","tel":"031-924-1831","addr":"경기도 고양시 일산동구 장항동 735번지","indutype":"일반휴게음식 - 일반한식","category":"restaurant"},{"name":"스시윤","tel":"031-918-8011","addr":"경기도 고양시 일산동구 장항동 735번지","indutype":"일반휴게음식 - 일식·회집","category":"restaurant"},{"name":"오늘 와인 한잔 라페스타점","tel":"031-911-6611","addr":"경기도 고양시 일산동구 장항동 735번지","indutype":"일반휴게음식 - 주점","category":"restaurant"},{"name":"웨스턴빌","tel":"031-924-1392","addr":"경기도 고양시 일산동구 장항동 735번지","indutype":"일반휴게음식 - 칵테일바","category":"restaurant"}]},{"lat":"37.66430027","long":"126.76573621","imageIndex":4,"items":[{"name":"고기원칙 일산라페스타점","tel":"031-911-9992","addr":"경기도 고양시 일산동구 장항동 736-1번지","indutype":"일반휴게음식 - 일반한식","category":"restaurant"},{"name":"노천드럼통일산맛집","tel":"031-913-6058","addr":"경기도 고양시 일산동구 장항동 736-1번지","indutype":"일반휴게음식 - 일반한식","category":"restaurant"},{"name":"백암순대","tel":"031-919-5566","addr":"경기도 고양시 일산동구 장항동 736-1번지","indutype":"일반휴게음식 - 일반한식","category":"restaurant"},{"name":"양평진뚝배기해장국","tel":"031-914-8687","addr":"경기도 고양시 일산동구 장항동 736-1번지","indutype":"일반휴게음식 - 일반한식","category":"restaurant"},{"name":"역전할머니맥주 일산라페스타점","tel":"","addr":"경기도 고양시 일산동구 장항동 736-1번지","indutype":"일반휴게음식 - 주점","category":"restaurant"}]},{"lat":"37.65721104","long":"126.77096041","imageIndex":4,"items":[{"name":"고대서서갈비","tel":"031-4131-0643","addr":"경기도 고양시 일산동구 장항동 861-1번지","indutype":"일반휴게음식 - 일반한식","category":"restaurant"},{"name":"노상","tel":"","addr":"경기도 고양시 일산동구 장항동 861-1번지","indutype":"일반휴게음식 - 일반한식","category":"restaurant"},{"name":"뉴욕 야시장","tel":"031-908-2898","addr":"경기도 고양시 일산동구 장항동 861-1번지","indutype":"일반휴게음식 - 일반한식","category":"restaurant"},{"name":"더카페웨스턴동점","tel":"031-901-0603","addr":"경기도 고양시 일산동구 장항동 861-1번지","indutype":"일반휴게음식 - 서양음식","category":"restaurant"},{"name":"비비","tel":"031-901-8201","addr":"경기도 고양시 일산동구 장항동 861-1번지","indutype":"일반휴게음식 - 서양음식","category":"restaurant"},{"name":"아웃닭 일산점","tel":"031-904-5654","addr":"경기도 고양시 일산동구 장항동 861-1번지","indutype":"일반휴게음식 - 스넥","category":"restaurant"},{"name":"주접엔","tel":"031-811-3922","addr":"경기도 고양시 일산동구 장항동 861-1번지","indutype":"일반휴게음식 - 일반한식","category":"restaurant"},{"name":"통영상회","tel":"031-901-6818","addr":"경기도 고양시 일산동구 장항동 861-1번지","indutype":"일반휴게음식 - 주점","category":"restaurant"}]},{"lat":"37.661379858","long":"126.76509951","imageIndex":4,"items":[{"name":"고맙다방","tel":"031-918-7797","addr":"경기도 고양시 일산동구 장항동 750-1번지","indutype":"일반휴게음식 - 서양음식","category":"restaurant"},{"name":"마이봉김밥라페스타점","tel":"031-913-7882","addr":"경기도 고양시 일산동구 장항동 750-1번지","indutype":"일반휴게음식 - 스넥","category":"restaurant"},{"name":"봉구비어","tel":"031-912-7928","addr":"경기도 고양시 일산동구 장항동 750-1번지","indutype":"일반휴게음식 - 일반한식","category":"restaurant"},{"name":"스트리트111(street111)","tel":"031-814-1888","addr":"경기도 고양시 일산동구 장항동 750-1번지","indutype":"일반휴게음식 - 서양음식","category":"restaurant"},{"name":"옥류담","tel":"031-912-8222","addr":"경기도 고양시 일산동구 장항동 750-1번지","indutype":"일반휴게음식 - 일반한식","category":"restaurant"},{"name":"테이블스푼","tel":"031-918-7198","addr":"경기도 고양시 일산동구 장항동 750-1번지","indutype":"일반휴게음식 - 일반한식","category":"restaurant"}]},{"lat":"37.657689329","long":"126.77135557","imageIndex":4,"items":[{"name":"고베규카츠 일산점","tel":"031-901-5621","addr":"경기도 고양시 일산동구 장항동 858번지","indutype":"일반휴게음식 - 일식·회집","category":"restaurant"},{"name":"파타야","tel":"","addr":"경기도 고양시 일산동구 장항동 858번지","indutype":"일반휴게음식 - 주점","category":"restaurant"}]},{"lat":"37.655487257","long":"126.77407083","imageIndex":4,"items":[{"name":"고수떡볶이","tel":"031-901-1330","addr":"경기도 고양시 일산동구 장항동 853번지","indutype":"일반휴게음식 - 일반한식","category":"restaurant"},{"name":"비스토리","tel":"","addr":"경기도 고양시 일산동구 장항동 853번지","indutype":"일반휴게음식 - 서양음식","category":"restaurant"},{"name":"연탄불함부로차지마라","tel":"031-905-6624","addr":"경기도 고양시 일산동구 장항동 853번지","indutype":"일반휴게음식 - 일반한식","category":"restaurant"}]},{"lat":"37.659131912","long":"126.76732792","imageIndex":4,"items":[{"name":"고스이","tel":"031-901-1600","addr":"경기도 고양시 일산동구 장항동 753번지","indutype":"일반휴게음식 - 일식·회집","category":"restaurant"},{"name":"닭굼터(본점)","tel":"031-906-9399","addr":"경기도 고양시 일산동구 장항동 753번지","indutype":"일반휴게음식 - 스넥","category":"restaurant"},{"name":"더테이블(The Table)","tel":"031-908-7181","addr":"경기도 고양시 일산동구 장항동 753번지","indutype":"일반휴게음식 - 서양음식","category":"restaurant"},{"name":"락앤웍","tel":"031-816-8080","addr":"경기도 고양시 일산동구 장항동 753번지","indutype":"일반휴게음식 - 중국식","category":"restaurant"},{"name":"삼보가든","tel":"031-932-6380","addr":"경기도 고양시 일산동구 장항동 753번지","indutype":"일반휴게음식 - 일반한식","category":"restaurant"},{"name":"아띠아","tel":"031-906-7577","addr":"경기도 고양시 일산동구 장항동 753번지","indutype":"일반휴게음식 - 일반한식","category":"restaurant"},{"name":"에이씨블루","tel":"031-907-3225","addr":"경기도 고양시 일산동구 장항동 753번지","indutype":"일반휴게음식 - 일반한식","category":"restaurant"}]},{"lat":"37.659716427","long":"126.76677076","imageIndex":4,"items":[{"name":"고향옥","tel":"031-901-5110","addr":"경기도 고양시 일산동구 장항동 752-1번지","indutype":"일반휴게음식 - 일반한식","category":"restaurant"},{"name":"달보드레","tel":"","addr":"경기도 고양시 일산동구 장항동 752-1번지","indutype":"일반휴게음식 - 서양음식","category":"restaurant"},{"name":"라모르","tel":"031-903-0506","addr":"경기도 고양시 일산동구 장항동","indutype":"일반휴게음식 - 일반한식","category":"restaurant"},{"name":"라모르","tel":"02-1111-1111","addr":"경기도 고양시 일산동구 장항동 752-1번지","indutype":"일반휴게음식 - 일식·회집","category":"restaurant"},{"name":"오후2시","tel":"070-4245-3368","addr":"경기도 고양시 일산동구 장항동 752-1번지","indutype":"일반휴게음식 - 일반한식","category":"restaurant"},{"name":"유니세프","tel":"031-901-3023","addr":"경기도 고양시 일산동구 장항동 752-1번지","indutype":"일반휴게음식 - 일반한식","category":"restaurant"},{"name":"코코바나나","tel":"031-901-5551","addr":"경기도 고양시 일산동구 장항동 752-1번지","indutype":"일반휴게음식 - 칵테일바","category":"restaurant"},{"name":"호수월남쌈","tel":"031-903-3992","addr":"경기도 고양시 일산동구 장항동 752-1번지","indutype":"일반휴게음식 - 서양음식","category":"restaurant"}]},{"lat":"37.656408694","long":"126.7707136","imageIndex":4,"items":[{"name":"고향옥얼큰순대국","tel":"031-901-7077","addr":"경기도 고양시 일산동구 장항동 863-1번지","indutype":"일반휴게음식 - 일반한식","category":"restaurant"},{"name":"동해안생태찌개","tel":"031-907-3111","addr":"경기도 고양시 일산동구 장항동 863-1번지","indutype":"일반휴게음식 - 일반한식","category":"restaurant"},{"name":"설해도","tel":"031-819-1111","addr":"경기도 고양시 일산동구 장항동","indutype":"일반휴게음식 - 일식·회집","category":"restaurant"},{"name":"신세계마라탕","tel":"031-907-2600","addr":"경기도 고양시 일산동구 장항동 863-1번지","indutype":"일반휴게음식 - 중국식","category":"restaurant"},{"name":"앤더블유인터내셔날","tel":"070-7795-0251","addr":"경기도 고양시 일산동구 장항동 863-1번지","indutype":"일반휴게음식 - 일반한식","category":"restaurant"},{"name":"에디칼디MBC점","tel":"031-813-7888","addr":"경기도 고양시 일산동구 장항동 863-1번지","indutype":"일반휴게음식 - 서양음식","category":"restaurant"},{"name":"오젠","tel":"031-908-8810","addr":"경기도 고양시 일산동구 장항동 863-1번지","indutype":"일반휴게음식 - 일식·회집","category":"restaurant"},{"name":"용범이네인계동껍데기웨돔점","tel":"031-901-1717","addr":"경기도 고양시 일산동구 장항동 863-1번지","indutype":"일반휴게음식 - 일반한식","category":"restaurant"},{"name":"우산속","tel":"031-901-0919","addr":"경기도 고양시 일산동구 장항동 863-1번지","indutype":"일반휴게음식 - 서양음식","category":"restaurant"},{"name":"한솥도시락MBC드림센터점","tel":"","addr":"경기도 고양시 일산동구 장항동 863-1번지","indutype":"일반휴게음식 - 일반한식","category":"restaurant"},{"name":"홍대돈부리 호수공원점","tel":"031-907-3353","addr":"경기도 고양시 일산동구 장항동 863-1번지","indutype":"일반휴게음식 - 일식·회집","category":"restaurant"}]},{"lat":"37.661025917","long":"126.76831925","imageIndex":4,"items":[{"name":"곱따","tel":"031-908-0926","addr":"경기도 고양시 일산동구 장항동 765번지","indutype":"일반휴게음식 - 일반한식","category":"restaurant"},{"name":"깡구PUB","tel":"031-904-4810","addr":"경기도 고양시 일산동구 장항동 765번지","indutype":"일반휴게음식 - 일반한식","category":"restaurant"},{"name":"더간장새우","tel":"031-903-2462","addr":"경기도 고양시 일산동구 장항동 765번지","indutype":"일반휴게음식 - 일반한식","category":"restaurant"},{"name":"베트냠","tel":"031-901-9740","addr":"경기도 고양시 일산동구 장항동 765번지","indutype":"일반휴게음식 - 서양음식","category":"restaurant"},{"name":"뻘하우스","tel":"031-907-6331","addr":"경기도 고양시 일산동구 장항동 765번지","indutype":"일반휴게음식 - 일반한식","category":"restaurant"},{"name":"스윗앨리스(sweet alice)","tel":"","addr":"경기도 고양시 일산동구 장항동 765번지","indutype":"일반휴게음식 - 일반한식","category":"restaurant"},{"name":"심퉁 즉석 떡볶이","tel":"031-902-5406","addr":"경기도 고양시 일산동구 장항동 765번지","indutype":"일반휴게음식 - 일반한식","category":"restaurant"},{"name":"일오닭갈비","tel":"031-976-0515","addr":"경기도 고양시 일산동구 장항동","indutype":"일반휴게음식 - 일반한식","category":"restaurant"},{"name":"장씨네양푼이","tel":"","addr":"경기도 고양시 일산동구 장항동 765번지","indutype":"일반휴게음식 - 일반한식","category":"restaurant"},{"name":"젝스하우스","tel":"031-348-4033","addr":"경기도 고양시 일산동구 장항동 765번지","indutype":"일반휴게음식 - 서양음식","category":"restaurant"},{"name":"젠틀레인(Gentle Rain)","tel":"031-901-4122","addr":"경기도 고양시 일산동구 장항동 765번지","indutype":"일반휴게음식 - 서양음식","category":"restaurant"},{"name":"주식회사일오","tel":"031-905-9915","addr":"경기도 고양시 일산동구 장항동 765번지","indutype":"일반휴게음식 - 일반한식","category":"restaurant"},{"name":"카페게이트 라페스타D동점","tel":"031-908-9898","addr":"경기도 고양시 일산동구 장항동 765번지","indutype":"일반휴게음식 - 서양음식","category":"restaurant"},{"name":"커피베이 (Coffee Bay)","tel":"031-901-4363","addr":"경기도 고양시 일산동구 장항동 765번지","indutype":"일반휴게음식 - 서양음식","category":"restaurant"},{"name":"커피팩토리랩","tel":"031-901-9765","addr":"경기도 고양시 일산동구 장항동 765번지","indutype":"일반휴게음식 - 서양음식","category":"restaurant"},{"name":"플릭/지앤지이앤씨","tel":"031-908-2914","addr":"경기도 고양시 일산동구 장항동 765번지","indutype":"일반휴게음식 - 일반한식","category":"restaurant"},{"name":"화로이야기꽃","tel":"","addr":"경기도 고양시 일산동구 장항동 765번지","indutype":"일반휴게음식 - 일반한식","category":"restaurant"}]},{"lat":"37.662851066","long":"126.76640949","imageIndex":4,"items":[{"name":"곱창고 라페스타점","tel":"031-918-9292","addr":"경기도 고양시 일산동구 장항동 741번지","indutype":"일반휴게음식 - 일반한식","category":"restaurant"},{"name":"곱창이야기 일산점","tel":"031-916-2771","addr":"경기도 고양시 일산동구 장항동 741번지","indutype":"일반휴게음식 - 일반한식","category":"restaurant"},{"name":"나인틴나인","tel":"","addr":"경기도 고양시 일산동구 장항동 741번지","indutype":"일반휴게음식 - 서양음식","category":"restaurant"},{"name":"냉삼시대","tel":"031-914-1992","addr":"경기도 고양시 일산동구 장항동 741번지","indutype":"일반휴게음식 - 일반한식","category":"restaurant"},{"name":"노가리집","tel":"031-925-5922","addr":"경기도 고양시 일산동구 장항동 741번지","indutype":"일반휴게음식 - 일반한식","category":"restaurant"},{"name":"라무진","tel":"031-919-1765","addr":"경기도 고양시 일산동구 장항동 741번지","indutype":"일반휴게음식 - 일반한식","category":"restaurant"},{"name":"레드벨벳","tel":"031-921-8185","addr":"경기도 고양시 일산동구 장항동 741번지","indutype":"일반휴게음식 - 주점","category":"restaurant"},{"name":"루시","tel":"031-807-9884","addr":"경기도 고양시 일산동구 장항동 741번지","indutype":"일반휴게음식 - 주점","category":"restaurant"},{"name":"머메골","tel":"031-912-9293","addr":"경기도 고양시 일산동구 장항동 741번지","indutype":"일반휴게음식 - 일반한식","category":"restaurant"},{"name":"명륜진사갈비 라페스타점","tel":"031-915-9992","addr":"경기도 고양시 일산동구 장항동 741번지","indutype":"일반휴게음식 - 일반한식","category":"restaurant"},{"name":"병의신","tel":"031-924-7327","addr":"경기도 고양시 일산동구 장항동 741번지","indutype":"일반휴게음식 - 주점","category":"restaurant"},{"name":"비처럼 음악처럼","tel":"","addr":"경기도 고양시 일산동구 장항동 741번지","indutype":"일반휴게음식 - 주점","category":"restaurant"},{"name":"새마을식당라페스타점","tel":"031-925-2286","addr":"경기도 고양시 일산동구 장항동 741번지","indutype":"일반휴게음식 - 일반한식","category":"restaurant"},{"name":"얼큰이낙지닭도리탕","tel":"031-915-4950","addr":"경기도 고양시 일산동구 장항동 741번지","indutype":"일반휴게음식 - 일반한식","category":"restaurant"},{"name":"에머이 라페스타점","tel":"031-911-7174","addr":"경기도 고양시 일산동구 장항동 741번지","indutype":"일반휴게음식 - 서양음식","category":"restaurant"},{"name":"육회지존","tel":"031-918-0917","addr":"경기도 고양시 일산동구 장항동 741번지","indutype":"일반휴게음식 - 일반한식","category":"restaurant"},{"name":"제이라이브","tel":"031-911-1515","addr":"경기도 고양시 일산동구 장항동 741번지","indutype":"일반휴게음식 - 서양음식","category":"restaurant"},{"name":"족발잘하는집","tel":"031-914-7882","addr":"경기도 고양시 일산동구 장항동 741번지","indutype":"일반휴게음식 - 일반한식","category":"restaurant"},{"name":"지 (Gee)","tel":"031-923-5077","addr":"경기도 고양시 일산동구 장항동 741번지","indutype":"일반휴게음식 - 일반한식","category":"restaurant"},{"name":"지금보고싶다","tel":"","addr":"경기도 고양시 일산동구 장항동 741번지","indutype":"일반휴게음식 - 주점","category":"restaurant"},{"name":"티(T)","tel":"031-924-5634","addr":"경기도 고양시 일산동구 장항동 741번지","indutype":"일반휴게음식 - 일반한식","category":"restaurant"},{"name":"한결감자탕보쌈","tel":"031-911-5507","addr":"경기도 고양시 일산동구 장항동 741번지","indutype":"일반휴게음식 - 일반한식","category":"restaurant"},{"name":"홍닭","tel":"031-908-9252","addr":"경기도 고양시 일산동구 장항동 741번지","indutype":"일반휴게음식 - 일반한식","category":"restaurant"}]},{"lat":"37.66351083","long":"126.76743875","imageIndex":4,"items":[{"name":"공감","tel":"031-911-9981","addr":"경기도 고양시 일산동구 장항동 733-2번지","indutype":"일반휴게음식 - 서양음식","category":"restaurant"},{"name":"꼬치선생101 일산라페스타점","tel":"031-921-7071","addr":"경기도 고양시 일산동구 장항동 733-2번지","indutype":"일반휴게음식 - 주점","category":"restaurant"},{"name":"노량수산시장","tel":"031-912-4447","addr":"경기도 고양시 일산동구 장항동 733-2번지","indutype":"일반휴게음식 - 일반한식","category":"restaurant"},{"name":"마스터피스","tel":"0000-0000-0000","addr":"경기도 고양시 일산동구 장항동 733-2번지","indutype":"일반휴게음식 - 스넥","category":"restaurant"},{"name":"생생돈가스장항점","tel":"031-911-8851","addr":"경기도 고양시 일산동구 장항동 733-2번지","indutype":"일반휴게음식 - 일반한식","category":"restaurant"},{"name":"참치연","tel":"","addr":"경기도 고양시 일산동구 장항동 733-2번지","indutype":"일반휴게음식 - 일식·회집","category":"restaurant"},{"name":"활주로라이브","tel":"031-915-6458","addr":"경기도 고양시 일산동구 장항동 733-2번지","indutype":"일반휴게음식 - 일반한식","category":"restaurant"}]},{"lat":"37.659827189","long":"126.76809637","imageIndex":4,"items":[{"name":"교동짬뽕","tel":"031-902-9892","addr":"경기도 고양시 일산동구 장항동 756-1번지","indutype":"일반휴게음식 - 중국식","category":"restaurant"},{"name":"메리불고기","tel":"031-924-5294","addr":"경기도 고양시 일산동구 장항동 756-1번지","indutype":"일반휴게음식 - 일반한식","category":"restaurant"},{"name":"밀방떡","tel":"031-903-8582","addr":"경기도 고양시 일산동구 장항동 756-1번지","indutype":"일반휴게음식 - 일반한식","category":"restaurant"},{"name":"왕의커피","tel":"070-8833-6068","addr":"경기도 고양시 일산동구 장항동 756-1번지","indutype":"일반휴게음식 - 서양음식","category":"restaurant"},{"name":"츠지","tel":"031-903-9778","addr":"경기도 고양시 일산동구 장항동 756-1번지","indutype":"일반휴게음식 - 일반한식","category":"restaurant"},{"name":"화우","tel":"031-909-1155","addr":"경기도 고양시 일산동구 장항동 756-1번지","indutype":"일반휴게음식 - 일반한식","category":"restaurant"}]},{"lat":"37.652690443","long":"126.77676507","imageIndex":4,"items":[{"name":"국수나무","tel":"031-901-1410","addr":"경기도 고양시 일산동구 장항동 890-6번지","indutype":"일반휴게음식 - 일반한식","category":"restaurant"},{"name":"본죽(마두역점)","tel":"031-905-6288","addr":"경기도 고양시 일산동구 장항동 890-6번지","indutype":"일반휴게음식 - 일반한식","category":"restaurant"},{"name":"심플리브레드(simply bread)","tel":"031-926-3533","addr":"경기도 고양시 일산동구 장항동 890-6번지","indutype":"일반휴게음식 - 서양음식","category":"restaurant"}]},{"lat":"37.663016071","long":"126.76782565","imageIndex":4,"items":[{"name":"귀일만두","tel":"","addr":"경기도 고양시 일산동구 장항동 734-2번지","indutype":"일반휴게음식 - 일반한식","category":"restaurant"},{"name":"뉴문","tel":"031-924-7786","addr":"경기도 고양시 일산동구 장항동 734-2번지","indutype":"일반휴게음식 - 일반한식","category":"restaurant"},{"name":"돈판","tel":"031-916-5171","addr":"경기도 고양시 일산동구 장항동 734-2번지","indutype":"일반휴게음식 - 일반한식","category":"restaurant"},{"name":"메가커피 라페스타점","tel":"031-925-0919","addr":"경기도 고양시 일산동구 장항동 734-2번지","indutype":"일반휴게음식 - 서양음식","category":"restaurant"},{"name":"빽다방 일산라페스타점","tel":"031-912-3367","addr":"경기도 고양시 일산동구 장항동 734-2번지","indutype":"일반휴게음식 - 서양음식","category":"restaurant"},{"name":"쏭쏭돈까스일산라페스타점/주식회사 성우에","tel":"031-925-9595","addr":"경기도 고양시 일산동구 장항동 734-2번지","indutype":"일반휴게음식 - 일반한식","category":"restaurant"},{"name":"올리브 7080","tel":"031-916-7080","addr":"경기도 고양시 일산동구 장항동 734-2번지","indutype":"일반휴게음식 - 서양음식","category":"restaurant"},{"name":"전계능의콩나물국밥","tel":"031-917-9898","addr":"경기도 고양시 일산동구 장항동 734-2번지","indutype":"일반휴게음식 - 일반한식","category":"restaurant"}]},{"lat":"37.66102316","long":"126.76693662","imageIndex":4,"items":[{"name":"그늘집","tel":"031-902-0927","addr":"경기도 고양시 일산동구 장항동 759-1번지","indutype":"일반휴게음식 - 일반한식","category":"restaurant"},{"name":"라이크라이크","tel":"031-907-3885","addr":"경기도 고양시 일산동구 장항동 759-1번지","indutype":"일반휴게음식 - 서양음식","category":"restaurant"},{"name":"벌교꼬막","tel":"031-901-8488","addr":"경기도 고양시 일산동구 장항동 759-1번지","indutype":"일반휴게음식 - 일반한식","category":"restaurant"},{"name":"열정오징어","tel":"031-903-5582","addr":"경기도 고양시 일산동구 장항동 759-1번지","indutype":"일반휴게음식 - 일반한식","category":"restaurant"},{"name":"옛날통닭","tel":"","addr":"경기도 고양시 일산동구 장항동 759-1번지","indutype":"일반휴게음식 - 스넥","category":"restaurant"},{"name":"이자카야일","tel":"031-812-0118","addr":"경기도 고양시 일산동구 장항동 759-1번지","indutype":"일반휴게음식 - 일반한식","category":"restaurant"},{"name":"처음포차","tel":"","addr":"경기도 고양시 일산동구 장항동 759-1번지","indutype":"일반휴게음식 - 일반한식","category":"restaurant"}]},{"lat":"37.65957773","long":"126.76951377","imageIndex":4,"items":[{"name":"그린피쳐 (GREEN PITCHER)","tel":"031-907-2221","addr":"경기도 고양시 일산동구 장항동 769번지","indutype":"일반휴게음식 - 일반한식","category":"restaurant"},{"name":"글렌고인","tel":"","addr":"경기도 고양시 일산동구 장항동 769번지","indutype":"일반휴게음식 - 주점","category":"restaurant"},{"name":"엔조이만화방","tel":"031-903-7895","addr":"경기도 고양시 일산동구 장항동 769번지","indutype":"일반휴게음식 - 서양음식","category":"restaurant"},{"name":"좋은친구김밥천국","tel":"031-905-4440","addr":"경기도 고양시 일산동구 장항동 769번지","indutype":"일반휴게음식 - 스넥","category":"restaurant"},{"name":"카페베네 일산라페스타점","tel":"031-905-6232","addr":"경기도 고양시 일산동구 장항동 769번지","indutype":"일반휴게음식 - 서양음식","category":"restaurant"}]},{"lat":"37.641635216","long":"126.77193792","imageIndex":4,"items":[{"name":"김가네김치두루치기 장항점","tel":"031-932-2250","addr":"경기도 고양시 일산동구 장항동 578-20번지","indutype":"일반휴게음식 - 일반한식","category":"restaurant"},{"name":"신의주찹쌀순대","tel":"031-908-0588","addr":"경기도 고양시 일산동구 장항동 578-20번지","indutype":"일반휴게음식 - 일반한식","category":"restaurant"}]},{"lat":"37.651186529","long":"126.77713224","imageIndex":4,"items":[{"name":"김밥천국","tel":"031-908-0752","addr":"경기도 고양시 일산동구 장항동 895-1번지","indutype":"일반휴게음식 - 스넥","category":"restaurant"},{"name":"나마참치","tel":"031-906-1617","addr":"경기도 고양시 일산동구 장항동 895-1번지","indutype":"일반휴게음식 - 일식·회집","category":"restaurant"},{"name":"누나홀닭","tel":"031-904-8252","addr":"경기도 고양시 일산동구 장항동 895-1번지","indutype":"일반휴게음식 - 일반한식","category":"restaurant"},{"name":"만두&김밥","tel":"031-903-3234","addr":"경기도 고양시 일산동구 장항동 895-1번지","indutype":"일반휴게음식 - 일반한식","category":"restaurant"},{"name":"베이먼트(BAYMENT)","tel":"031-905-4834","addr":"경기도 고양시 일산동구 장항동 895-1번지","indutype":"일반휴게음식 - 주점","category":"restaurant"},{"name":"보메로","tel":"031-901-2834","addr":"경기도 고양시 일산동구 장항동 895-1번지","indutype":"일반휴게음식 - 일반한식","category":"restaurant"},{"name":"선술집 코코로","tel":"031-901-9602","addr":"경기도 고양시 일산동구 장항동 895-1번지","indutype":"일반휴게음식 - 일반한식","category":"restaurant"},{"name":"스마일 찹쌀 꽈배기","tel":"031-903-8585","addr":"경기도 고양시 일산동구 장항동 895-1번지","indutype":"일반휴게음식 - 일반한식","category":"restaurant"},{"name":"오봉도시락","tel":"031-907-5982","addr":"경기도 고양시 일산동구 장항동 895-1번지","indutype":"일반휴게음식 - 스넥","category":"restaurant"},{"name":"요거프레소 마두역점","tel":"","addr":"경기도 고양시 일산동구 장항동 895-1번지","indutype":"일반휴게음식 - 서양음식","category":"restaurant"},{"name":"이디야커피 마두점","tel":"031-907-4177","addr":"경기도 고양시 일산동구 장항동 895-1번지","indutype":"일반휴게음식 - 서양음식","category":"restaurant"},{"name":"이바리치킨","tel":"031-905-4020","addr":"경기도 고양시 일산동구 장항동 895-1번지","indutype":"일반휴게음식 - 서양음식","category":"restaurant"},{"name":"장충동연희왕족발","tel":"031-905-7000","addr":"경기도 고양시 일산동구 장항동 895-1번지","indutype":"일반휴게음식 - 일반한식","category":"restaurant"},{"name":"전계능콩나물국밥","tel":"031-908-2888","addr":"경기도 고양시 일산동구 장항동 895-1번지","indutype":"일반휴게음식 - 일반한식","category":"restaurant"},{"name":"전주밥상","tel":"031-905-3002","addr":"경기도 고양시 일산동구 장항동 895-1번지","indutype":"일반휴게음식 - 일반한식","category":"restaurant"}]},{"lat":"37.657684922","long":"126.77371277","imageIndex":4,"items":[{"name":"김밥천국","tel":"031-901-5534","addr":"경기도 고양시 일산동구 장항동 847번지","indutype":"일반휴게음식 - 스넥","category":"restaurant"},{"name":"대만언니 왕카스테라","tel":"02-775-4842","addr":"경기도 고양시 일산동구 장항동 847번지","indutype":"일반휴게음식 - 서양음식","category":"restaurant"},{"name":"동원참치일산동구청점","tel":"031-907-5885","addr":"경기도 고양시 일산동구 장항동 847번지","indutype":"일반휴게음식 - 일반한식","category":"restaurant"},{"name":"미소국밥","tel":"031-902-9245","addr":"경기도 고양시 일산동구 장항동 847번지","indutype":"일반휴게음식 - 일반한식","category":"restaurant"},{"name":"벨라진 BellaJIN","tel":"031-901-3536","addr":"경기도 고양시 일산동구 장항동 847번지","indutype":"일반휴게음식 - 일반한식","category":"restaurant"},{"name":"어반스위트 정발산점","tel":"031-000-0000","addr":"경기도 고양시 일산동구 장항동 847번지","indutype":"일반휴게음식 - 스넥","category":"restaurant"},{"name":"오말리(O'malley)","tel":"031-901-1233","addr":"경기도 고양시 일산동구 장항동 847번지","indutype":"일반휴게음식 - 서양음식","category":"restaurant"},{"name":"정발산휴게음식점","tel":"031-901-7779","addr":"경기도 고양시 일산동구 장항동 847번지","indutype":"일반휴게음식 - 일반한식","category":"restaurant"},{"name":"티파니","tel":"031-907-2374","addr":"경기도 고양시 일산동구 장항동 847번지","indutype":"일반휴게음식 - 서양음식","category":"restaurant"},{"name":"포폴로","tel":"031-932-9337","addr":"경기도 고양시 일산동구 장항동 847번지","indutype":"일반휴게음식 - 서양음식","category":"restaurant"}]},{"lat":"37.663712476","long":"126.76466139","imageIndex":4,"items":[{"name":"꼬꼬장","tel":"031-919-9995","addr":"경기도 고양시 일산동구 장항동 746번지","indutype":"일반휴게음식 - 일반한식","category":"restaurant"},{"name":"왕의커피","tel":"070-4189-7445","addr":"경기도 고양시 일산동구 장항동 746번지","indutype":"일반휴게음식 - 서양음식","category":"restaurant"},{"name":"일산탕수육","tel":"031-924-1107","addr":"경기도 고양시 일산동구 장항동 746번지","indutype":"일반휴게음식 - 중국식","category":"restaurant"},{"name":"한창희천하일면","tel":"031-929-7051","addr":"경기도 고양시 일산동구 장항동 746번지","indutype":"일반휴게음식 - 일반한식","category":"restaurant"},{"name":"황금바다 장어구이","tel":"031-918-7181","addr":"경기도 고양시 일산동구 장항동 746번지","indutype":"일반휴게음식 - 일반한식","category":"restaurant"}]},{"lat":"37.662910163","long":"126.76893667","imageIndex":4,"items":[{"name":"꼬치 BOX","tel":"031-905-6643","addr":"경기도 고양시 일산동구 장항동 778번지","indutype":"일반휴게음식 - 일반한식","category":"restaurant"},{"name":"사랑을주세요","tel":"031-906-3533","addr":"경기도 고양시 일산동구 장항동 778번지","indutype":"일반휴게음식 - 스넥","category":"restaurant"},{"name":"타셋커피로스터스","tel":"070-4119-7270","addr":"경기도 고양시 일산동구 장항동 778번지","indutype":"일반휴게음식 - 일반한식","category":"restaurant"}]},{"lat":"37.661960884","long":"126.76729632","imageIndex":4,"items":[{"name":"꼬치냉면","tel":"031-903-7606","addr":"경기도 고양시 일산동구 장항동 761번지","indutype":"일반휴게음식 - 일반한식","category":"restaurant"},{"name":"나쯔미깡","tel":"00-0000-0000","addr":"경기도 고양시 일산동구 장항동 761번지","indutype":"일반휴게음식 - 서양음식","category":"restaurant"},{"name":"닭갈비제작소","tel":"031-932-0223","addr":"경기도 고양시 일산동구 장항동 761번지","indutype":"일반휴게음식 - 일반한식","category":"restaurant"},{"name":"등촌칼국수","tel":"031-920-9677","addr":"경기도 고양시 일산동구 장항동 761번지","indutype":"일반휴게음식 - 일반한식","category":"restaurant"},{"name":"로얄인디아","tel":"031-816-6692","addr":"경기도 고양시 일산동구 장항동 761번지","indutype":"일반휴게음식 - 일반한식","category":"restaurant"},{"name":"못된양꼬치","tel":"031-903-4288","addr":"경기도 고양시 일산동구 장항동 761번지","indutype":"일반휴게음식 - 일반한식","category":"restaurant"},{"name":"미스터브리즈(Mr.Breeze)","tel":"031-920-9051","addr":"경기도 고양시 일산동구 장항동 761번지","indutype":"일반휴게음식 - 서양음식","category":"restaurant"},{"name":"불간짬뽕 라페스타점","tel":"031-901-2449","addr":"경기도 고양시 일산동구 장항동 761번지","indutype":"일반휴게음식 - 중국식","category":"restaurant"},{"name":"수철이네왕새우튀김라페스타본점","tel":"031-901-6189","addr":"경기도 고양시 일산동구 장항동 761번지","indutype":"일반휴게음식 - 일반한식","category":"restaurant"},{"name":"술탄","tel":"031-901-9246","addr":"경기도 고양시 일산동구 장항동 761번지","indutype":"일반휴게음식 - 일반한식","category":"restaurant"},{"name":"우동과튀김","tel":"070-5121-6771","addr":"경기도 고양시 일산동구 장항동 761번지","indutype":"일반휴게음식 - 일식·회집","category":"restaurant"},{"name":"위대한밥상","tel":"031-920-9925","addr":"경기도 고양시 일산동구 장항동 761번지","indutype":"일반휴게음식 - 일반한식","category":"restaurant"},{"name":"이삭토스트","tel":"031-907-7697","addr":"경기도 고양시 일산동구 장항동 761번지","indutype":"일반휴게음식 - 스넥","category":"restaurant"},{"name":"쥬스스타 라페스타점","tel":"031-932-2170","addr":"경기도 고양시 일산동구 장항동 761번지","indutype":"일반휴게음식 - 서양음식","category":"restaurant"},{"name":"친구네전집","tel":"031-904-5677","addr":"경기도 고양시 일산동구 장항동 761번지","indutype":"일반휴게음식 - 일반한식","category":"restaurant"},{"name":"컴팔팔(Come 88)","tel":"031-932-7070","addr":"경기도 고양시 일산동구 장항동 761번지","indutype":"일반휴게음식 - 서양음식","category":"restaurant"},{"name":"큐브트리","tel":"031-903-5840","addr":"경기도 고양시 일산동구 장항동 761번지","indutype":"일반휴게음식 - 스넥","category":"restaurant"},{"name":"허쉬프리즈/주식회사 윤스베버리지","tel":"031-920-9755","addr":"경기도 고양시 일산동구 장항동 761번지","indutype":"일반휴게음식 - 서양음식","category":"restaurant"},{"name":"히노아지 라페스타점","tel":"031-903-4357","addr":"경기도 고양시 일산동구 장항동 761번지","indutype":"일반휴게음식 - 일식·회집","category":"restaurant"}]},{"lat":"37.637080933","long":"126.76970877","imageIndex":4,"items":[{"name":"나눔식당","tel":"031-904-2372","addr":"경기도 고양시 일산동구 장항동 587-3번지","indutype":"일반휴게음식 - 일반한식","category":"restaurant"}]},{"lat":"37.664181867","long":"126.7651019","imageIndex":4,"items":[{"name":"나이스투밋츄(nice two meat u)","tel":"031-915-3455","addr":"경기도 고양시 일산동구 장항동 740번지","indutype":"일반휴게음식 - 일반한식","category":"restaurant"},{"name":"동해세수대야 동태탕(일산장항점)","tel":"031-923-9282","addr":"경기도 고양시 일산동구 장항동 740번지","indutype":"일반휴게음식 - 일반한식","category":"restaurant"},{"name":"마라토끼","tel":"","addr":"경기도 고양시 일산동구 장항동 740번지","indutype":"일반휴게음식 - 중국식","category":"restaurant"},{"name":"판","tel":"031-919-2888","addr":"경기도 고양시 일산동구 장항동 740번지","indutype":"일반휴게음식 - 서양음식","category":"restaurant"},{"name":"판 라이브","tel":"031-911-1157","addr":"경기도 고양시 일산동구 장항동 740번지","indutype":"일반휴게음식 - 일반한식","category":"restaurant"},{"name":"한돈 더드림(HAN DON the DREAM)","tel":"031-925-8259","addr":"경기도 고양시 일산동구 장항동 740번지","indutype":"일반휴게음식 - 일반한식","category":"restaurant"}]},{"lat":"37.656660696","long":"126.77057682","imageIndex":4,"items":[{"name":"남 오토코","tel":"031-901-3277","addr":"경기도 고양시 일산동구 장항동 863번지","indutype":"일반휴게음식 - 일반한식","category":"restaurant"},{"name":"대패상회 일산웨스턴돔점","tel":"031-915-8383","addr":"경기도 고양시 일산동구 장항동 863번지","indutype":"일반휴게음식 - 일반한식","category":"restaurant"},{"name":"치르치르웨스턴돔점","tel":"031-906-7293","addr":"경기도 고양시 일산동구 장항동 863번지","indutype":"일반휴게음식 - 스넥","category":"restaurant"},{"name":"퀀텀","tel":"070-5121-6771","addr":"경기도 고양시 일산동구 장항동 863번지","indutype":"일반휴게음식 - 일반한식","category":"restaurant"},{"name":"훠궈타임","tel":"031-754-3820","addr":"경기도 고양시 일산동구 장항동 863번지","indutype":"일반휴게음식 - 중국식","category":"restaurant"}]},{"lat":"37.649351768","long":"126.77412365","imageIndex":4,"items":[{"name":"남강","tel":"031-908-3352","addr":"경기도 고양시 일산동구 장항동","indutype":"일반휴게음식 - 중국식","category":"restaurant"}]},{"lat":"37.661938001","long":"126.76938171","imageIndex":4,"items":[{"name":"납짝 생 소갈비살","tel":"031-939-8280","addr":"경기도 고양시 일산동구 장항동 776-1번지","indutype":"일반휴게음식 - 일반한식","category":"restaurant"},{"name":"대흥갈비","tel":"031-906-9289","addr":"경기도 고양시 일산동구 장항동 776-1번지","indutype":"일반휴게음식 - 일반한식","category":"restaurant"},{"name":"도둑뒷고기","tel":"031-906-0133","addr":"경기도 고양시 일산동구 장항동 776-1번지","indutype":"일반휴게음식 - 일반한식","category":"restaurant"},{"name":"돈이와","tel":"031-908-0536","addr":"경기도 고양시 일산동구 장항동 776-1번지","indutype":"일반휴게음식 - 일반한식","category":"restaurant"},{"name":"동강나루터","tel":"031-903-1213","addr":"경기도 고양시 일산동구 장항동 776-1번지","indutype":"일반휴게음식 - 일반한식","category":"restaurant"},{"name":"동막골갈비찜","tel":"031-916-8825","addr":"경기도 고양시 일산동구 장항동 776-1번지","indutype":"일반휴게음식 - 일반한식","category":"restaurant"},{"name":"드림황태부대찌개.쭈구미","tel":"031-907-3599","addr":"경기도 고양시 일산동구 장항동 776-1번지","indutype":"일반휴게음식 - 일반한식","category":"restaurant"},{"name":"로데오삼겹살","tel":"031-932-9595","addr":"경기도 고양시 일산동구 장항동 776-1번지","indutype":"일반휴게음식 - 일반한식","category":"restaurant"},{"name":"맛드린","tel":"031-905-9055","addr":"경기도 고양시 일산동구 장항동 776-1번지","indutype":"일반휴게음식 - 일반한식","category":"restaurant"},{"name":"비에이치씨비어존","tel":"031-905-3392","addr":"경기도 고양시 일산동구 장항동 776-1번지","indutype":"일반휴게음식 - 일반한식","category":"restaurant"},{"name":"카페보드빌","tel":"031-909-0905","addr":"경기도 고양시 일산동구 장항동 776-1번지","indutype":"일반휴게음식 - 서양음식","category":"restaurant"}]},{"lat":"37.659711348","long":"126.76874271","imageIndex":4,"items":[{"name":"냥이시대","tel":"031-919-2333","addr":"경기도 고양시 일산동구 장항동 756-3번지","indutype":"일반휴게음식 - 서양음식","category":"restaurant"},{"name":"더 셰프","tel":"031-907-3989","addr":"경기도 고양시 일산동구 장항동 756-3번지","indutype":"일반휴게음식 - 일반한식","category":"restaurant"},{"name":"발리","tel":"","addr":"경기도 고양시 일산동구 장항동 756-3번지","indutype":"일반휴게음식 - 서양음식","category":"restaurant"},{"name":"보릿고개식당","tel":"031-908-1577","addr":"경기도 고양시 일산동구 장항동 756-3번지","indutype":"일반휴게음식 - 일반한식","category":"restaurant"},{"name":"엠바","tel":"070-4300-5776","addr":"경기도 고양시 일산동구 장항동 756-3번지","indutype":"일반휴게음식 - 서양음식","category":"restaurant"},{"name":"오오마참치","tel":"031-901-1014","addr":"경기도 고양시 일산동구 장항동 756-3번지","indutype":"일반휴게음식 - 일식·회집","category":"restaurant"},{"name":"올댓커피 본점","tel":"031-901-5748","addr":"경기도 고양시 일산동구 장항동 756-3번지","indutype":"일반휴게음식 - 서양음식","category":"restaurant"},{"name":"일차이차","tel":"031-906-6191","addr":"경기도 고양시 일산동구 장항동 756-3번지","indutype":"일반휴게음식 - 일반한식","category":"restaurant"},{"name":"추삼","tel":"","addr":"경기도 고양시 일산동구 장항동 756-3번지","indutype":"일반휴게음식 - 일반한식","category":"restaurant"},{"name":"타이양","tel":"031-906-8252","addr":"경기도 고양시 일산동구 장항동 756-3번지","indutype":"일반휴게음식 - 중국식","category":"restaurant"},{"name":"통영해물","tel":"031-905-1877","addr":"경기도 고양시 일산동구 장항동 756-3번지","indutype":"일반휴게음식 - 일반한식","category":"restaurant"},{"name":"화계림불닭발","tel":"031-907-9279","addr":"경기도 고양시 일산동구 장항동 756-3번지","indutype":"일반휴게음식 - 일반한식","category":"restaurant"}]},{"lat":"37.644267177","long":"126.76346581","imageIndex":4,"items":[{"name":"넉넉한순대국","tel":"031-901-1308","addr":"경기도 고양시 일산동구 장항동 543-4번지","indutype":"일반휴게음식 - 일반한식","category":"restaurant"},{"name":"즐거운식당","tel":"031-932-7771","addr":"경기도 고양시 일산동구 장항동 543-4번지","indutype":"일반휴게음식 - 일반한식","category":"restaurant"},{"name":"짬뽕인(  )","tel":"031-932-5868","addr":"경기도 고양시 일산동구 장항동 543-4번지","indutype":"일반휴게음식 - 일반한식","category":"restaurant"},{"name":"커피썬","tel":"02-111-1111","addr":"경기도 고양시 일산동구 장항동 543-4번지","indutype":"일반휴게음식 - 서양음식","category":"restaurant"}]},{"lat":"37.659628322","long":"126.76776834","imageIndex":4,"items":[{"name":"노베 이비자(NOVE Ibiza)","tel":"031-901-0789","addr":"경기도 고양시 일산동구 장항동 756-2번지","indutype":"일반휴게음식 - 일반한식","category":"restaurant"},{"name":"보글보글찌개마을","tel":"031-905-7955","addr":"경기도 고양시 일산동구 장항동 756-2번지","indutype":"일반휴게음식 - 일반한식","category":"restaurant"},{"name":"브랜뉴 주식회사","tel":"031-908-0877","addr":"경기도 고양시 일산동구 장항동 756-2번지","indutype":"일반휴게음식 - 일반한식","category":"restaurant"},{"name":"삼보해물탕","tel":"031-902-4040","addr":"경기도 고양시 일산동구 장항동 756-2번지","indutype":"일반휴게음식 - 일반한식","category":"restaurant"},{"name":"야스라기","tel":"031-902-9192","addr":"경기도 고양시 일산동구 장항동 756-2번지","indutype":"일반휴게음식 - 일반한식","category":"restaurant"},{"name":"울랄라고릴라","tel":"031-906-0907","addr":"경기도 고양시 일산동구 장항동 756-2번지","indutype":"일반휴게음식 - 일반한식","category":"restaurant"},{"name":"육꼬집","tel":"031-908-8295","addr":"경기도 고양시 일산동구 장항동 756-2번지","indutype":"일반휴게음식 - 일반한식","category":"restaurant"},{"name":"죽이네","tel":"031-969-7777","addr":"경기도 고양시 일산동구 장항동 756-2번지","indutype":"일반휴게음식 - 일반한식","category":"restaurant"},{"name":"훈이장군","tel":"","addr":"경기도 고양시 일산동구 장항동 756-2번지","indutype":"일반휴게음식 - 일반한식","category":"restaurant"}]},{"lat":"37.655297021","long":"126.7735388","imageIndex":4,"items":[{"name":"누나홀닭","tel":"031-902-9982","addr":"경기도 고양시 일산동구 장항동 853-1번지","indutype":"일반휴게음식 - 스넥","category":"restaurant"},{"name":"리즈(Leeds)","tel":"031-111-1111","addr":"경기도 고양시 일산동구 장항동 853-1번지","indutype":"일반휴게음식 - 주점","category":"restaurant"},{"name":"바다향기","tel":"031-901-3758","addr":"경기도 고양시 일산동구 장항동 853-1번지","indutype":"일반휴게음식 - 일반한식","category":"restaurant"},{"name":"블루스델릭","tel":"031-906-7759","addr":"경기도 고양시 일산동구 장항동 853-1번지","indutype":"일반휴게음식 - 서양음식","category":"restaurant"},{"name":"양순이김초락","tel":"031-901-0129","addr":"경기도 고양시 일산동구 장항동 853-1번지","indutype":"일반휴게음식 - 스넥","category":"restaurant"},{"name":"올댓커피X스몰랏커피","tel":"031-923-5748","addr":"경기도 고양시 일산동구 장항동 853-1번지","indutype":"일반휴게음식 - 서양음식","category":"restaurant"},{"name":"종가집함흥냉면","tel":"031-901-8637","addr":"경기도 고양시 일산동구 장항동 853-1번지","indutype":"일반휴게음식 - 일반한식","category":"restaurant"},{"name":"진짬뽕","tel":"031-902-9874","addr":"경기도 고양시 일산동구 장항동 853-1번지","indutype":"일반휴게음식 - 중국식","category":"restaurant"},{"name":"피쉬앤스시 웨스턴돔점","tel":"031-932-7790","addr":"경기도 고양시 일산동구 장항동 853-1번지","indutype":"일반휴게음식 - 일식·회집","category":"restaurant"}]},{"lat":"37.657020634","long":"126.77034905","imageIndex":4,"items":[{"name":"능곡할머니북어탕","tel":"031-905-6753","addr":"경기도 고양시 일산동구 장항동 864-1번지","indutype":"일반휴게음식 - 일반한식","category":"restaurant"},{"name":"이층집","tel":"031-811-6111","addr":"경기도 고양시 일산동구 장항동 864-1번지","indutype":"일반휴게음식 - 일반한식","category":"restaurant"},{"name":"지느러미","tel":"","addr":"경기도 고양시 일산동구 장항동 864-1번지","indutype":"일반휴게음식 - 서양음식","category":"restaurant"},{"name":"집앞","tel":"031-994-5509","addr":"경기도 고양시 일산동구 장항동 864-1번지","indutype":"일반휴게음식 - 일반한식","category":"restaurant"},{"name":"포차다","tel":"070-7543-0772","addr":"경기도 고양시 일산동구 장항동 864-1번지","indutype":"일반휴게음식 - 일반한식","category":"restaurant"},{"name":"해물부추수제비","tel":"031-903-7323","addr":"경기도 고양시 일산동구 장항동 864-1번지","indutype":"일반휴게음식 - 일반한식","category":"restaurant"}]},{"lat":"37.655436152","long":"126.75760515","imageIndex":4,"items":[{"name":"능이버섯분식집","tel":"031-901-1034","addr":"경기도 고양시 일산동구 장항동 648번지","indutype":"일반휴게음식 - 일반한식","category":"restaurant"},{"name":"카페테라피","tel":"031-901-1034","addr":"경기도 고양시 일산동구 장항동 648번지","indutype":"일반휴게음식 - 서양음식","category":"restaurant"}]},{"lat":"37.644743329","long":"126.76279577","imageIndex":4,"items":[{"name":"다오래","tel":"031-902-3124","addr":"경기도 고양시 일산동구 장항동 540-10번지","indutype":"일반휴게음식 - 일반한식","category":"restaurant"}]},{"lat":"37.642466162","long":"126.76841161","imageIndex":4,"items":[{"name":"다올터","tel":"031-902-1441","addr":"경기도 고양시 일산동구 장항동 566-3번지","indutype":"일반휴게음식 - 일반한식","category":"restaurant"},{"name":"파육장","tel":"031-902-2241","addr":"경기도 고양시 일산동구 장항동 566-3번지","indutype":"일반휴게음식 - 일반한식","category":"restaurant"},{"name":"팩토리빈커피","tel":"031-901-9419","addr":"경기도 고양시 일산동구 장항동 566-3번지","indutype":"일반휴게음식 - 서양음식","category":"restaurant"}]},{"lat":"37.658269842","long":"126.77334833","imageIndex":4,"items":[{"name":"단스시일산점","tel":"031-932-0048","addr":"경기도 고양시 일산동구 장항동 846번지","indutype":"일반휴게음식 - 일식·회집","category":"restaurant"},{"name":"더큰도시락 일산장항점","tel":"031-908-6987","addr":"경기도 고양시 일산동구 장항동 846번지","indutype":"일반휴게음식 - 일반한식","category":"restaurant"},{"name":"드림빨간콩","tel":"031-903-0069","addr":"경기도 고양시 일산동구 장항동 846번지","indutype":"일반휴게음식 - 일반한식","category":"restaurant"},{"name":"래빗","tel":"031-907-6429","addr":"경기도 고양시 일산동구 장항동 846번지","indutype":"일반휴게음식 - 일반한식","category":"restaurant"},{"name":"부페파크","tel":"031-932-5566","addr":"경기도 고양시 일산동구 장항동 846번지","indutype":"일반휴게음식 - 일반한식","category":"restaurant"},{"name":"왕의커피 정발산점","tel":"","addr":"경기도 고양시 일산동구 장항동 846번지","indutype":"일반휴게음식 - 서양음식","category":"restaurant"},{"name":"정발산한식당","tel":"031-905-6999","addr":"경기도 고양시 일산동구 장항동","indutype":"일반휴게음식 - 일반한식","category":"restaurant"},{"name":"체리어트","tel":"031-903-7252","addr":"경기도 고양시 일산동구 장항동 846번지","indutype":"일반휴게음식 - 서양음식","category":"restaurant"},{"name":"커브사이드","tel":"","addr":"경기도 고양시 일산동구 장항동 846번지","indutype":"일반휴게음식 - 서양음식","category":"restaurant"},{"name":"커피에반하다","tel":"031-902-1708","addr":"경기도 고양시 일산동구 장항동 846번지","indutype":"일반휴게음식 - 서양음식","category":"restaurant"},{"name":"터치아프리카","tel":"031-902-6972","addr":"경기도 고양시 일산동구 장항동 846번지","indutype":"일반휴게음식 - 서양음식","category":"restaurant"}]},{"lat":"37.657269179","long":"126.77304543","imageIndex":4,"items":[{"name":"닭갈비제작소","tel":"031-1111-1111","addr":"경기도 고양시 일산동구 장항동 856-1번지","indutype":"일반휴게음식 - 일반한식","category":"restaurant"},{"name":"두끼 일산웨스턴돔점","tel":"031-907-2771","addr":"경기도 고양시 일산동구 장항동 856-1번지","indutype":"일반휴게음식 - 일반한식","category":"restaurant"},{"name":"미스사이공 웨스턴돔점","tel":"031-901-7904","addr":"경기도 고양시 일산동구 장항동 856-1번지","indutype":"일반휴게음식 - 서양음식","category":"restaurant"},{"name":"벌툰 일산동구청점","tel":"031-932-8937","addr":"경기도 고양시 일산동구 장항동 856-1번지","indutype":"일반휴게음식 - 일반한식","category":"restaurant"},{"name":"이삭 웨스턴돔점","tel":"031-905-3412","addr":"경기도 고양시 일산동구 장항동 856-1번지","indutype":"일반휴게음식 - 서양음식","category":"restaurant"},{"name":"쥬씨","tel":"070-4402-4112","addr":"경기도 고양시 일산동구 장항동 856-1번지","indutype":"일반휴게음식 - 서양음식","category":"restaurant"},{"name":"쥬씨 장항2지점","tel":"02-000-0000","addr":"경기도 고양시 일산동구 장항동 856-1번지","indutype":"일반휴게음식 - 서양음식","category":"restaurant"},{"name":"해강복요리전문","tel":"031-908-3380","addr":"경기도 고양시 일산동구 장항동 856-1번지","indutype":"일반휴게음식 - 일식·회집","category":"restaurant"}]},{"lat":"37.653518437","long":"126.77629795","imageIndex":4,"items":[{"name":"대동관","tel":"070-4204-0796","addr":"경기도 고양시 일산동구 장항동 890-1번지","indutype":"일반휴게음식 - 일반한식","category":"restaurant"},{"name":"동해루","tel":"031-904-7006","addr":"경기도 고양시 일산동구 장항동 890-1번지","indutype":"일반휴게음식 - 중국식","category":"restaurant"},{"name":"아사히","tel":"031-908-5868","addr":"경기도 고양시 일산동구 장항동 890-1번지","indutype":"일반휴게음식 - 일반한식","category":"restaurant"},{"name":"카페보니또마두점","tel":"031-901-8678","addr":"경기도 고양시 일산동구 장항동 890-1번지","indutype":"일반휴게음식 - 서양음식","category":"restaurant"}]},{"lat":"37.659154951","long":"126.76985508","imageIndex":4,"items":[{"name":"대만왕왕카스테라","tel":"031-904-8100","addr":"경기도 고양시 일산동구 장항동 769-2번지","indutype":"일반휴게음식 - 일반한식","category":"restaurant"},{"name":"도깨비","tel":"","addr":"경기도 고양시 일산동구 장항동 769-2번지","indutype":"일반휴게음식 - 일반한식","category":"restaurant"},{"name":"멍스토랑","tel":"031-111-1111","addr":"경기도 고양시 일산동구 장항동 769-2번지","indutype":"일반휴게음식 - 서양음식","category":"restaurant"},{"name":"심리카페멘토 일산","tel":"031-907-5676","addr":"경기도 고양시 일산동구 장항동 769-2번지","indutype":"일반휴게음식 - 서양음식","category":"restaurant"},{"name":"요거프레소 일산라페스타점","tel":"","addr":"경기도 고양시 일산동구 장항동 769-2번지","indutype":"일반휴게음식 - 서양음식","category":"restaurant"},{"name":"장사부 마라탕전문","tel":"","addr":"경기도 고양시 일산동구 장항동 769-2번지","indutype":"일반휴게음식 - 일반한식","category":"restaurant"}]},{"lat":"37.63946596","long":"126.76393441","imageIndex":4,"items":[{"name":"대박식당","tel":"031-905-7083","addr":"경기도 고양시 일산동구 장항동 558번지","indutype":"일반휴게음식 - 일반한식","category":"restaurant"}]},{"lat":"37.640020477","long":"126.77554585","imageIndex":4,"items":[{"name":"대복반점","tel":"031-907-8777","addr":"경기도 고양시 일산동구 장항동 601-24번지","indutype":"일반휴게음식 - 중국식","category":"restaurant"}]},{"lat":"37.65132241","long":"126.77751711","imageIndex":4,"items":[{"name":"대청마루","tel":"031-901-2267","addr":"경기도 고양시 일산동구 장항동 895번지","indutype":"일반휴게음식 - 일반한식","category":"restaurant"},{"name":"동해루","tel":"031-904-2006","addr":"경기도 고양시 일산동구 장항동 895번지","indutype":"일반휴게음식 - 일반한식","category":"restaurant"},{"name":"둘둘셋(2.2.3)","tel":"031-907-7998","addr":"경기도 고양시 일산동구 장항동 895번지","indutype":"일반휴게음식 - 서양음식","category":"restaurant"},{"name":"마두점 해두리치킨","tel":"031-903-5959","addr":"경기도 고양시 일산동구 장항동 895번지","indutype":"일반휴게음식 - 스넥","category":"restaurant"},{"name":"안동찜닭","tel":"031-906-4667","addr":"경기도 고양시 일산동구 장항동 895번지","indutype":"일반휴게음식 - 일반한식","category":"restaurant"}]},{"lat":"37.658547214","long":"126.76779441","imageIndex":4,"items":[{"name":"더 램 스트리트","tel":"031-000-0000","addr":"경기도 고양시 일산동구 장항동 754번지","indutype":"일반휴게음식 - 서양음식","category":"restaurant"},{"name":"양심","tel":"031-908-5666","addr":"경기도 고양시 일산동구 장항동 754번지","indutype":"일반휴게음식 - 일반한식","category":"restaurant"},{"name":"자인뭉티기 일산점","tel":"031-815-6492","addr":"경기도 고양시 일산동구 장항동 754번지","indutype":"일반휴게음식 - 일반한식","category":"restaurant"}]},{"lat":"37.660017066","long":"126.76843576","imageIndex":4,"items":[{"name":"더 베러","tel":"031-903-3915","addr":"경기도 고양시 일산동구 장항동 756번지","indutype":"일반휴게음식 - 일반한식","category":"restaurant"},{"name":"라리","tel":"02-511-2684","addr":"경기도 고양시 일산동구 장항동","indutype":"일반휴게음식 - 서양음식","category":"restaurant"},{"name":"소한마리 몽땅무쏘","tel":"","addr":"경기도 고양시 일산동구 장항동 756번지","indutype":"일반휴게음식 - 일반한식","category":"restaurant"},{"name":"속초오징어마을","tel":"031-901-2130","addr":"경기도 고양시 일산동구 장항동 756번지","indutype":"일반휴게음식 - 일식·회집","category":"restaurant"},{"name":"아미(ami)라이브","tel":"","addr":"경기도 고양시 일산동구 장항동 756번지","indutype":"일반휴게음식 - 주점","category":"restaurant"},{"name":"오징어본가","tel":"031-908-1955","addr":"경기도 고양시 일산동구 장항동 756번지","indutype":"일반휴게음식 - 일반한식","category":"restaurant"},{"name":"욜로양꼬치","tel":"070-4024-6888","addr":"경기도 고양시 일산동구 장항동 756번지","indutype":"일반휴게음식 - 중국식","category":"restaurant"},{"name":"우리집김밥","tel":"031-908-2066","addr":"경기도 고양시 일산동구 장항동 756번지","indutype":"일반휴게음식 - 일반한식","category":"restaurant"},{"name":"원조정가네","tel":"031-908-3660","addr":"경기도 고양시 일산동구 장항동 756번지","indutype":"일반휴게음식 - 스넥","category":"restaurant"},{"name":"이오라이브클럽","tel":"070-4111-0085","addr":"경기도 고양시 일산동구 장항동 756번지","indutype":"일반휴게음식 - 주점","category":"restaurant"},{"name":"일산냉면갈비탕","tel":"031-902-9091","addr":"경기도 고양시 일산동구 장항동 756번지","indutype":"일반휴게음식 - 일반한식","category":"restaurant"},{"name":"쭈낙쭈낙","tel":"031-901-1141","addr":"경기도 고양시 일산동구 장항동 756번지","indutype":"일반휴게음식 - 일반한식","category":"restaurant"},{"name":"콘서트7080","tel":"","addr":"경기도 고양시 일산동구 장항동 756번지","indutype":"일반휴게음식 - 주점","category":"restaurant"},{"name":"하나참치","tel":"031-907-6356","addr":"경기도 고양시 일산동구 장항동 756번지","indutype":"일반휴게음식 - 일식·회집","category":"restaurant"}]},{"lat":"37.664462124","long":"126.76557703","imageIndex":4,"items":[{"name":"더크래프트하우스","tel":"","addr":"경기도 고양시 일산동구 장항동 736번지","indutype":"일반휴게음식 - 서양음식","category":"restaurant"},{"name":"더킹덤","tel":"031-918-9777","addr":"경기도 고양시 일산동구 장항동 736번지","indutype":"일반휴게음식 - 칵테일바","category":"restaurant"},{"name":"미인","tel":"","addr":"경기도 고양시 일산동구 장항동 736번지","indutype":"일반휴게음식 - 서양음식","category":"restaurant"},{"name":"오술차(라페스타점)","tel":"02-501-5959","addr":"경기도 고양시 일산동구 장항동 736번지","indutype":"일반휴게음식 - 일반한식","category":"restaurant"},{"name":"용범이네인계동껍데기라페스타점","tel":"","addr":"경기도 고양시 일산동구 장항동 736번지","indutype":"일반휴게음식 - 일반한식","category":"restaurant"},{"name":"제주돈&돈","tel":"031-914-0220","addr":"경기도 고양시 일산동구 장항동 736번지","indutype":"일반휴게음식 - 일반한식","category":"restaurant"},{"name":"콘서트예스터데이","tel":"070-4257-4485","addr":"경기도 고양시 일산동구 장항동 736번지","indutype":"일반휴게음식 - 일반한식","category":"restaurant"},{"name":"터치미 라이브","tel":"","addr":"경기도 고양시 일산동구 장항동 736번지","indutype":"일반휴게음식 - 서양음식","category":"restaurant"},{"name":"해산물포차회초리","tel":"031-922-4601","addr":"경기도 고양시 일산동구 장항동 736번지","indutype":"일반휴게음식 - 일식·회집","category":"restaurant"},{"name":"황재","tel":"031-942-1613","addr":"경기도 고양시 일산동구 장항동 736번지","indutype":"일반휴게음식 - 일반한식","category":"restaurant"},{"name":"흑산도낙원식당","tel":"031-918-8877","addr":"경기도 고양시 일산동구 장항동 736번지","indutype":"일반휴게음식 - 일반한식","category":"restaurant"}]},{"lat":"37.658963707","long":"126.76882439","imageIndex":4,"items":[{"name":"더팔당 홈플러스 일산점","tel":"","addr":"경기도 고양시 일산동구 장항동 755번지","indutype":"일반휴게음식 - 일반한식","category":"restaurant"},{"name":"카페코너즈일산","tel":"031-925-2080","addr":"경기도 고양시 일산동구 장항동 755번지","indutype":"일반휴게음식 - 서양음식","category":"restaurant"},{"name":"텀브커피일산홈플러스점","tel":"","addr":"경기도 고양시 일산동구 장항동 755번지","indutype":"일반휴게음식 - 서양음식","category":"restaurant"}]},{"lat":"37.657299664","long":"126.77021219","imageIndex":4,"items":[{"name":"데미안","tel":"031-0000-0000","addr":"경기도 고양시 일산동구 장항동 864번지","indutype":"일반휴게음식 - 주점","category":"restaurant"},{"name":"드롭탑(웨돔점)","tel":"031-903-8288","addr":"경기도 고양시 일산동구 장항동 864번지","indutype":"일반휴게음식 - 서양음식","category":"restaurant"},{"name":"마루","tel":"031-901-2232","addr":"경기도 고양시 일산동구 장항동 864번지","indutype":"일반휴게음식 - 주점","category":"restaurant"},{"name":"키즈맘(주)","tel":"031-297-7579","addr":"경기도 고양시 일산동구 장항동 864번지","indutype":"일반휴게음식 - 서양음식","category":"restaurant"}]},{"lat":"37.65579842","long":"126.77192806","imageIndex":4,"items":[{"name":"데미타스","tel":"031-931-5733","addr":"경기도 고양시 일산동구 장항동","indutype":"일반휴게음식 - 서양음식","category":"restaurant"},{"name":"등심샤브칼국수","tel":"031-931-5858","addr":"경기도 고양시 일산동구 장항동","indutype":"일반휴게음식 - 일반한식","category":"restaurant"},{"name":"불닭발동대문엽기떡볶이","tel":"031-901-8598","addr":"경기도 고양시 일산동구 장항동","indutype":"일반휴게음식 - 일반한식","category":"restaurant"},{"name":"커리포트","tel":"031-931-5099","addr":"경기도 고양시 일산동구 장항동","indutype":"일반휴게음식 - 일반한식","category":"restaurant"}]},{"lat":"37.657799697","long":"126.76345636","imageIndex":4,"items":[{"name":"도피오커피인 일산호수공원점","tel":"02-1661-1485","addr":"경기도 고양시 일산동구 장항동 906번지","indutype":"일반휴게음식 - 서양음식","category":"restaurant"}]},{"lat":"37.642162125","long":"126.76956826","imageIndex":4,"items":[{"name":"돈미랑","tel":"031-905-2755","addr":"경기도 고양시 일산동구 장항동 566-48번지","indutype":"일반휴게음식 - 일반한식","category":"restaurant"}]},{"lat":"37.641267591","long":"126.77284547","imageIndex":4,"items":[{"name":"돈치돈치두루치기","tel":"070-4224-2181","addr":"경기도 고양시 일산동구 장항동 578-26번지","indutype":"일반휴게음식 - 일반한식","category":"restaurant"}]},{"lat":"37.66296052","long":"126.76707782","imageIndex":4,"items":[{"name":"동경야시장","tel":"031-914-0072","addr":"경기도 고양시 일산동구 장항동 735-1번지","indutype":"일반휴게음식 - 주점","category":"restaurant"},{"name":"멤버스클럽","tel":"","addr":"경기도 고양시 일산동구 장항동 735-1번지","indutype":"일반휴게음식 - 주점","category":"restaurant"},{"name":"비비스토리(Bb story)","tel":"031-913-6636","addr":"경기도 고양시 일산동구 장항동 735-1번지","indutype":"일반휴게음식 - 서양음식","category":"restaurant"}]},{"lat":"37.642911527","long":"126.76584954","imageIndex":4,"items":[{"name":"동구커피","tel":"","addr":"경기도 고양시 일산동구 장항동 547-12번지","indutype":"일반휴게음식 - 서양음식","category":"restaurant"}]},{"lat":"37.660478893","long":"126.76961295","imageIndex":4,"items":[{"name":"디얼유 (DEAR.U)","tel":"031-901-2136","addr":"경기도 고양시 일산동구 장항동 766번지","indutype":"일반휴게음식 - 서양음식","category":"restaurant"},{"name":"일산반지카페","tel":"031-902-0005","addr":"경기도 고양시 일산동구 장항동 766번지","indutype":"일반휴게음식 - 일반한식","category":"restaurant"},{"name":"통일이요","tel":"070-8865-2239","addr":"경기도 고양시 일산동구 장항동 766번지","indutype":"일반휴게음식 - 일반한식","category":"restaurant"}]},{"lat":"37.659822042","long":"126.77004565","imageIndex":4,"items":[{"name":"디저트39 라페스타점","tel":"031-908-8696","addr":"경기도 고양시 일산동구 장항동 770번지","indutype":"일반휴게음식 - 일반한식","category":"restaurant"},{"name":"메가엠지씨커피일산문화광장점","tel":"070-1111-1111","addr":"경기도 고양시 일산동구 장항동 770번지","indutype":"일반휴게음식 - 서양음식","category":"restaurant"},{"name":"미스터피자라페스타장항점","tel":"031-903-1103","addr":"경기도 고양시 일산동구 장항동","indutype":"일반휴게음식 - 서양음식","category":"restaurant"},{"name":"유토피아 카페","tel":"031-904-5326","addr":"경기도 고양시 일산동구 장항동 770번지","indutype":"일반휴게음식 - 서양음식","category":"restaurant"},{"name":"큰맘할매순대국","tel":"031-908-9980","addr":"경기도 고양시 일산동구 장항동 770번지","indutype":"일반휴게음식 - 일반한식","category":"restaurant"},{"name":"풍무양고기","tel":"031-902-9292","addr":"경기도 고양시 일산동구 장항동 770번지","indutype":"일반휴게음식 - 중국식","category":"restaurant"},{"name":"할리스","tel":"031-904-1991","addr":"경기도 고양시 일산동구 장항동 770번지","indutype":"일반휴게음식 - 서양음식","category":"restaurant"}]},{"lat":"37.648830106","long":"126.77929232","imageIndex":4,"items":[{"name":"땡초불닭발숯불구이","tel":"031-932-0572","addr":"경기도 고양시 일산동구 장항동 902번지 호수마을1단지아파트","indutype":"일반휴게음식 - 일반한식","category":"restaurant"},{"name":"산촌","tel":"031-907-3022","addr":"경기도 고양시 일산동구 장항동 902번지 호수마을1단지아파트","indutype":"일반휴게음식 - 일반한식","category":"restaurant"},{"name":"야끼족발","tel":"031-901-3838","addr":"경기도 고양시 일산동구 장항동 902번지 호수마을1단지아파트","indutype":"일반휴게음식 - 일반한식","category":"restaurant"},{"name":"육감만족 마두점","tel":"031-905-9212","addr":"경기도 고양시 일산동구 장항동 902번지 호수마을1단지아파트","indutype":"일반휴게음식 - 일반한식","category":"restaurant"},{"name":"장항점 굽네치킨","tel":"031-907-7775","addr":"경기도 고양시 일산동구 장항동 902번지 호수마을1단지아파트","indutype":"일반휴게음식 - 스넥","category":"restaurant"}]},{"lat":"37.656684635","long":"126.76901286","imageIndex":4,"items":[{"name":"뗄라로(TELLARO)/주식회사 코엔이탈리","tel":"","addr":"경기도 고양시 일산동구 장항동 865번지","indutype":"일반휴게음식 - 서양음식","category":"restaurant"},{"name":"일산소호정","tel":"031-901-5029","addr":"경기도 고양시 일산동구 장항동","indutype":"일반휴게음식 - 일반한식","category":"restaurant"}]},{"lat":"37.64821465","long":"126.77782111","imageIndex":4,"items":[{"name":"또래오래 호수점","tel":"031-903-6999","addr":"경기도 고양시 일산동구 장항동 881번지 호수마을2단지아파트","indutype":"일반휴게음식 - 일반한식","category":"restaurant"},{"name":"또래오래(1호점)","tel":"031-903-6999","addr":"경기도 고양시 일산동구 장항동 881번지 호수마을2단지아파트","indutype":"일반휴게음식 - 주점","category":"restaurant"}]},{"lat":"37.660351255","long":"126.76885403","imageIndex":4,"items":[{"name":"뚝딱 뚝딱 폰 케이스","tel":"070-4140-5000","addr":"경기도 고양시 일산동구 장항동 768번지","indutype":"일반휴게음식 - 일반한식","category":"restaurant"},{"name":"수원옛날통닭","tel":"031-932-8900","addr":"경기도 고양시 일산동구 장항동 768번지","indutype":"일반휴게음식 - 일반한식","category":"restaurant"},{"name":"어사출또","tel":"031-903-9114","addr":"경기도 고양시 일산동구 장항동 768번지","indutype":"일반휴게음식 - 일식·회집","category":"restaurant"}]},{"lat":"37.664383879","long":"126.76699398","imageIndex":4,"items":[{"name":"라페기사식당","tel":"031-914-7809","addr":"경기도 고양시 일산동구 장항동 731-1번지","indutype":"일반휴게음식 - 일반한식","category":"restaurant"},{"name":"루시퍼","tel":"","addr":"경기도 고양시 일산동구 장항동 731-1번지","indutype":"일반휴게음식 - 일반한식","category":"restaurant"},{"name":"브이오엘엠에이이(Volmae)","tel":"111-1111-111","addr":"경기도 고양시 일산동구 장항동 731-1번지","indutype":"일반휴게음식 - 일반한식","category":"restaurant"},{"name":"옹가네집","tel":"031-913-2002","addr":"경기도 고양시 일산동구 장항동 731-1번지","indutype":"일반휴게음식 - 일반한식","category":"restaurant"},{"name":"황진영의 전라도술상(라페스타점)","tel":"031-811-3555","addr":"경기도 고양시 일산동구 장항동 731-1번지","indutype":"일반휴게음식 - 일반한식","category":"restaurant"}]},{"lat":"37.64210049","long":"126.77029359","imageIndex":4,"items":[{"name":"로부체","tel":"","addr":"경기도 고양시 일산동구 장항동 578-7번지","indutype":"일반휴게음식 - 서양음식","category":"restaurant"}]},{"lat":"37.661324225","long":"126.76881698","imageIndex":4,"items":[{"name":"롯데시네마라페스타 공차","tel":"070-7465-0512","addr":"경기도 고양시 일산동구 장항동 764번지","indutype":"일반휴게음식 - 서양음식","category":"restaurant"},{"name":"아하푸드","tel":"031-901-4542","addr":"경기도 고양시 일산동구 장항동","indutype":"일반휴게음식 - 스넥","category":"restaurant"},{"name":"어굼터(라페스타점)","tel":"031-920-9285","addr":"경기도 고양시 일산동구 장항동 764번지","indutype":"일반휴게음식 - 일반한식","category":"restaurant"},{"name":"왕순이주먹밥김밥","tel":"","addr":"경기도 고양시 일산동구 장항동 764번지","indutype":"일반휴게음식 - 스넥","category":"restaurant"},{"name":"홍춘천매운치즈닭갈비","tel":"031-932-0355","addr":"경기도 고양시 일산동구 장항동 764번지","indutype":"일반휴게음식 - 일반한식","category":"restaurant"}]},{"lat":"37.663625892","long":"126.76640704","imageIndex":4,"items":[{"name":"룩셈부르크","tel":"031-917-9353","addr":"경기도 고양시 일산동구 장항동 736-5번지","indutype":"일반휴게음식 - 주점","category":"restaurant"},{"name":"보쌈집","tel":"031-915-5382","addr":"경기도 고양시 일산동구 장항동 736-5번지","indutype":"일반휴게음식 - 일반한식","category":"restaurant"},{"name":"에이엑스","tel":"031-914-3946","addr":"경기도 고양시 일산동구 장항동 736-5번지","indutype":"일반휴게음식 - 일반한식","category":"restaurant"}]},{"lat":"37.657410342","long":"126.77151509","imageIndex":4,"items":[{"name":"만나서 방가워","tel":"031-905-1559","addr":"경기도 고양시 일산동구 장항동 858-1번지","indutype":"일반휴게음식 - 일반한식","category":"restaurant"},{"name":"수제맥주 락핑퐁펍RTP 웨스턴돔점","tel":"070-6271-4814","addr":"경기도 고양시 일산동구 장항동 858-1번지","indutype":"일반휴게음식 - 주점","category":"restaurant"},{"name":"제주한라불갈비소시지","tel":"031-902-0151","addr":"경기도 고양시 일산동구 장항동 858-1번지","indutype":"일반휴게음식 - 서양음식","category":"restaurant"},{"name":"투썸플레이스 일산문화공원점","tel":"031-901-8281","addr":"경기도 고양시 일산동구 장항동 858-1번지","indutype":"일반휴게음식 - 서양음식","category":"restaurant"},{"name":"현 나주곰탕","tel":"031-902-9009","addr":"경기도 고양시 일산동구 장항동 858-1번지","indutype":"일반휴게음식 - 일반한식","category":"restaurant"}]},{"lat":"37.650163025","long":"126.76077265","imageIndex":4,"items":[{"name":"맛고을","tel":"031-902-3002","addr":"경기도 고양시 일산동구 장항동 671-2번지","indutype":"일반휴게음식 - 일반한식","category":"restaurant"},{"name":"별에별호프","tel":"031-111-1111","addr":"경기도 고양시 일산동구 장항동 671-2번지","indutype":"일반휴게음식 - 주점","category":"restaurant"},{"name":"연탄불고기백반","tel":"031-905-9871","addr":"경기도 고양시 일산동구 장항동","indutype":"일반휴게음식 - 일반한식","category":"restaurant"}]},{"lat":"37.656407007","long":"126.77446464","imageIndex":4,"items":[{"name":"맛있는밥집","tel":"031-902-2203","addr":"경기도 고양시 일산동구 장항동 848-1번지","indutype":"일반휴게음식 - 일반한식","category":"restaurant"},{"name":"스시1973","tel":"031-932-2017","addr":"경기도 고양시 일산동구 장항동 848-1번지","indutype":"일반휴게음식 - 일식·회집","category":"restaurant"},{"name":"옹골진칼국수","tel":"070-7013-4044","addr":"경기도 고양시 일산동구 장항동 848-1번지","indutype":"일반휴게음식 - 일반한식","category":"restaurant"}]},{"lat":"37.644636066","long":"126.76321535","imageIndex":4,"items":[{"name":"맛있는세상","tel":"031-908-1889","addr":"경기도 고양시 일산동구 장항동 543-13번지","indutype":"일반휴게음식 - 스넥","category":"restaurant"}]},{"lat":"37.663796734","long":"126.76623649","imageIndex":4,"items":[{"name":"맛있는술집 여기미술관","tel":"031-919-5507","addr":"경기도 고양시 일산동구 장항동 736-4번지","indutype":"일반휴게음식 - 일반한식","category":"restaurant"},{"name":"음주구역","tel":"02-5640-4412","addr":"경기도 고양시 일산동구 장항동 736-4번지","indutype":"일반휴게음식 - 일반한식","category":"restaurant"}]},{"lat":"37.661542341","long":"126.76976828","imageIndex":4,"items":[{"name":"명승한우","tel":"","addr":"경기도 고양시 일산동구 장항동 775-1번지","indutype":"일반휴게음식 - 일반한식","category":"restaurant"},{"name":"스시미","tel":"031-811-1125","addr":"경기도 고양시 일산동구 장항동 775-1번지","indutype":"일반휴게음식 - 일식·회집","category":"restaurant"},{"name":"신의주찹쌀순대","tel":"031-907-6867","addr":"경기도 고양시 일산동구 장항동 775-1번지","indutype":"일반휴게음식 - 일반한식","category":"restaurant"},{"name":"천지한우","tel":"031-932-0880","addr":"경기도 고양시 일산동구 장항동","indutype":"일반휴게음식 - 일반한식","category":"restaurant"},{"name":"해룡마라룽샤 장항점","tel":"031-901-6838","addr":"경기도 고양시 일산동구 장항동 775-1번지","indutype":"일반휴게음식 - 일반한식","category":"restaurant"}]},{"lat":"37.661741157","long":"126.77007366","imageIndex":4,"items":[{"name":"명심코다리","tel":"031-905-5045","addr":"경기도 고양시 일산동구 장항동 775번지","indutype":"일반휴게음식 - 일반한식","category":"restaurant"},{"name":"바지락손칼국수","tel":"031-3078-3393","addr":"경기도 고양시 일산동구 장항동","indutype":"일반휴게음식 - 일반한식","category":"restaurant"},{"name":"수라한","tel":"031-902-1230","addr":"경기도 고양시 일산동구 장항동 775번지","indutype":"일반휴게음식 - 일반한식","category":"restaurant"},{"name":"오코노미야끼벙커21","tel":"031-907-9079","addr":"경기도 고양시 일산동구 장항동 775번지","indutype":"일반휴게음식 - 일반한식","category":"restaurant"},{"name":"은참치","tel":"031-907-9566","addr":"경기도 고양시 일산동구 장항동 775번지","indutype":"일반휴게음식 - 일식·회집","category":"restaurant"},{"name":"지카세","tel":"031-902-1900","addr":"경기도 고양시 일산동구 장항동 775번지","indutype":"일반휴게음식 - 서양음식","category":"restaurant"},{"name":"해물촌장항점","tel":"031-902-0367","addr":"경기도 고양시 일산동구 장항동 775번지","indutype":"일반휴게음식 - 일반한식","category":"restaurant"}]},{"lat":"37.663958588","long":"126.76607731","imageIndex":4,"items":[{"name":"모던꼬치","tel":"031-915-7530","addr":"경기도 고양시 일산동구 장항동 736-3번지","indutype":"일반휴게음식 - 주점","category":"restaurant"},{"name":"브롱스 일산라페스타점","tel":"031-919-0015","addr":"경기도 고양시 일산동구 장항동 736-3번지","indutype":"일반휴게음식 - 일반한식","category":"restaurant"},{"name":"압구정봉구비어","tel":"031-918-3900","addr":"경기도 고양시 일산동구 장항동 736-3번지","indutype":"일반휴게음식 - 주점","category":"restaurant"},{"name":"어다리라페스타점","tel":"031-923-3377","addr":"경기도 고양시 일산동구 장항동 736-3번지","indutype":"일반휴게음식 - 일식·회집","category":"restaurant"},{"name":"와인당","tel":"02-1111-1111","addr":"경기도 고양시 일산동구 장항동 736-3번지","indutype":"일반휴게음식 - 칵테일바","category":"restaurant"},{"name":"유케야 라페스타점","tel":"02-000-0000","addr":"경기도 고양시 일산동구 장항동 736-3번지","indutype":"일반휴게음식 - 일반한식","category":"restaurant"},{"name":"제주칼집오겹살전문점","tel":"031-923-2299","addr":"경기도 고양시 일산동구 장항동 736-3번지","indutype":"일반휴게음식 - 일반한식","category":"restaurant"}]},{"lat":"37.65349034","long":"126.77574276","imageIndex":4,"items":[{"name":"모래내설농탕","tel":"031-905-7311","addr":"경기도 고양시 일산동구 장항동 891번지","indutype":"일반휴게음식 - 일반한식","category":"restaurant"}]},{"lat":"37.637664629","long":"126.76423475","imageIndex":4,"items":[{"name":"목화식당","tel":"031-903-5118","addr":"경기도 고양시 일산동구 장항동 569-18번지","indutype":"일반휴게음식 - 일반한식","category":"restaurant"}]},{"lat":"37.657294904","long":"126.77237673","imageIndex":4,"items":[{"name":"미","tel":"","addr":"경기도 고양시 일산동구 장항동 856-2번지","indutype":"일반휴게음식 - 주점","category":"restaurant"},{"name":"빨간쭈꾸미","tel":"070-8876-3004","addr":"경기도 고양시 일산동구 장항동 856-2번지","indutype":"일반휴게음식 - 일반한식","category":"restaurant"},{"name":"숯불에닭 웨스턴돔점","tel":"031-912-1085","addr":"경기도 고양시 일산동구 장항동 856-2번지","indutype":"일반휴게음식 - 일반한식","category":"restaurant"},{"name":"숯불에닭웨스턴돔점","tel":"031-912-1085","addr":"경기도 고양시 일산동구 장항동 856-2번지","indutype":"일반휴게음식 - 일반한식","category":"restaurant"},{"name":"아우성김치찌개","tel":"031-932-5230","addr":"경기도 고양시 일산동구 장항동 856-2번지","indutype":"일반휴게음식 - 일반한식","category":"restaurant"},{"name":"어촌","tel":"031-905-5656","addr":"경기도 고양시 일산동구 장항동 856-2번지","indutype":"일반휴게음식 - 일반한식","category":"restaurant"},{"name":"옥황","tel":"070-0336-1990","addr":"경기도 고양시 일산동구 장항동 856-2번지","indutype":"일반휴게음식 - 서양음식","category":"restaurant"},{"name":"육회명가","tel":"031-7738-4266","addr":"경기도 고양시 일산동구 장항동 856-2번지","indutype":"일반휴게음식 - 일반한식","category":"restaurant"},{"name":"홍가","tel":"031-901-5002","addr":"경기도 고양시 일산동구 장항동 856-2번지","indutype":"일반휴게음식 - 일반한식","category":"restaurant"}]},{"lat":"37.652852399","long":"126.77665126","imageIndex":4,"items":[{"name":"미각수산","tel":"031-903-8882","addr":"경기도 고양시 일산동구 장항동 890-5번지","indutype":"일반휴게음식 - 일반한식","category":"restaurant"},{"name":"써브웨이 마두역점","tel":"","addr":"경기도 고양시 일산동구 장항동 890-5번지","indutype":"일반휴게음식 - 스넥","category":"restaurant"}]},{"lat":"37.662106552","long":"126.76805519","imageIndex":4,"items":[{"name":"미술관옆커피가게","tel":"031-903-2786","addr":"경기도 고양시 일산동구 장항동 763번지","indutype":"일반휴게음식 - 서양음식","category":"restaurant"},{"name":"솥뚜껑부대찌개","tel":"031-920-9595","addr":"경기도 고양시 일산동구 장항동 761번지","indutype":"일반휴게음식 - 일반한식","category":"restaurant"},{"name":"첨밀제당소","tel":"031-901-0625","addr":"경기도 고양시 일산동구 장항동 763번지","indutype":"일반휴게음식 - 서양음식","category":"restaurant"}]},{"lat":"37.657078938","long":"126.77251339","imageIndex":4,"items":[{"name":"바르다김선생 일산웨스턴돔점","tel":"031-908-2525","addr":"경기도 고양시 일산동구 장항동 856-3번지","indutype":"일반휴게음식 - 일반한식","category":"restaurant"},{"name":"밴쇼군","tel":"031-908-2103","addr":"경기도 고양시 일산동구 장항동 856-3번지","indutype":"일반휴게음식 - 일반한식","category":"restaurant"},{"name":"비아지오(Biagio)","tel":"031-932-3539","addr":"경기도 고양시 일산동구 장항동 856-3번지","indutype":"일반휴게음식 - 서양음식","category":"restaurant"},{"name":"죠스떡복이 일산웨스턴돔점","tel":"031-904-1105","addr":"경기도 고양시 일산동구 장항동 856-3번지","indutype":"일반휴게음식 - 스넥","category":"restaurant"}]},{"lat":"37.662193365","long":"126.76641158","imageIndex":4,"items":[{"name":"반주","tel":"031-921-8128","addr":"경기도 고양시 일산동구 장항동 742번지","indutype":"일반휴게음식 - 일반한식","category":"restaurant"},{"name":"터치홍","tel":"031-919-0117","addr":"경기도 고양시 일산동구 장항동 742번지","indutype":"일반휴게음식 - 서양음식","category":"restaurant"}]},{"lat":"37.634525656","long":"126.78085329","imageIndex":4,"items":[{"name":"밥드시겨","tel":"031-916-6618","addr":"경기도 고양시 일산동구 장항동 624-12번지","indutype":"일반휴게음식 - 일반한식","category":"restaurant"}]},{"lat":"37.661840967","long":"126.7659027","imageIndex":4,"items":[{"name":"백암전통순대국","tel":"031-916-1300","addr":"경기도 고양시 일산동구 장항동 742번지","indutype":"일반휴게음식 - 일반한식","category":"restaurant"},{"name":"코알라빈스(KOALABEANS)","tel":"070-4652-4048","addr":"경기도 고양시 일산동구 장항동 742-1번지","indutype":"일반휴게음식 - 서양음식","category":"restaurant"}]},{"lat":"37.642518822","long":"126.76770897","imageIndex":4,"items":[{"name":"보원","tel":"031-906-8288","addr":"경기도 고양시 일산동구 장항동 566-11번지","indutype":"일반휴게음식 - 일반한식","category":"restaurant"}]},{"lat":"37.66082238","long":"126.76565661","imageIndex":4,"items":[{"name":"북경","tel":"031-900-8253","addr":"경기도 고양시 일산동구 장항동 751번지","indutype":"일반휴게음식 - 중국식","category":"restaurant"}]},{"lat":"37.659633109","long":"126.77018224","imageIndex":4,"items":[{"name":"비트포차술이오","tel":"031-902-2105","addr":"경기도 고양시 일산동구 장항동 770-1번지","indutype":"일반휴게음식 - 일반한식","category":"restaurant"}]},{"lat":"37.660494578","long":"126.75520856","imageIndex":4,"items":[{"name":"빈스원","tel":"031-807-0033","addr":"경기도 고양시 일산동구 장항동 1791번지","indutype":"일반휴게음식 - 일반한식","category":"restaurant"},{"name":"빛마루사랑채","tel":"031-8073-0310","addr":"경기도 고양시 일산동구 장항동 1791번지","indutype":"일반휴게음식 - 일반한식","category":"restaurant"},{"name":"빛마루웰빙","tel":"031-8073-0300","addr":"경기도 고양시 일산동구 장항동 1791번지","indutype":"일반휴게음식 - 일반한식","category":"restaurant"}]},{"lat":"37.664185055","long":"126.7666886","imageIndex":4,"items":[{"name":"산지 속초 코다리 냉면","tel":"","addr":"경기도 고양시 일산동구 장항동 731-2번지","indutype":"일반휴게음식 - 일반한식","category":"restaurant"},{"name":"석호네닭발 옛날통닭 라페스타점","tel":"","addr":"경기도 고양시 일산동구 장항동 731-2번지","indutype":"일반휴게음식 - 일반한식","category":"restaurant"},{"name":"엄마손김밥","tel":"031-913-5053","addr":"경기도 고양시 일산동구 장항동 731-2번지","indutype":"일반휴게음식 - 일반한식","category":"restaurant"},{"name":"제이제이밴드","tel":"031-918-2312","addr":"경기도 고양시 일산동구 장항동 731-2번지","indutype":"일반휴게음식 - 서양음식","category":"restaurant"},{"name":"주야","tel":"031-918-8566","addr":"경기도 고양시 일산동구 장항동 731-2번지","indutype":"일반휴게음식 - 일식·회집","category":"restaurant"},{"name":"지(Z)","tel":"031-913-5125","addr":"경기도 고양시 일산동구 장항동 731-2번지","indutype":"일반휴게음식 - 일반한식","category":"restaurant"},{"name":"투카페","tel":"031-917-7530","addr":"경기도 고양시 일산동구 장항동 731-2번지","indutype":"일반휴게음식 - 스넥","category":"restaurant"},{"name":"한짝","tel":"031-911-5002","addr":"경기도 고양시 일산동구 장항동 731-2번지","indutype":"일반휴게음식 - 일반한식","category":"restaurant"}]},{"lat":"37.635716672","long":"126.77702044","imageIndex":4,"items":[{"name":"삼오식당","tel":"031-905-1391","addr":"경기도 고양시 일산동구 장항동 618-9번지","indutype":"일반휴게음식 - 일반한식","category":"restaurant"},{"name":"웰빙한식뷔페","tel":"031-905-3515","addr":"경기도 고양시 일산동구 장항동 618-9번지","indutype":"일반휴게음식 - 일반한식","category":"restaurant"}]},{"lat":"37.660198608","long":"126.76911517","imageIndex":4,"items":[{"name":"소풍","tel":"031-918-7187","addr":"경기도 고양시 일산동구 장항동 768번지","indutype":"일반휴게음식 - 서양음식","category":"restaurant"},{"name":"한국진로경력개발센터","tel":"02-1234-1234","addr":"경기도 고양시 일산동구 장항동 768번지","indutype":"일반휴게음식 - 일반한식","category":"restaurant"},{"name":"후레쉬베리","tel":"031-920-9103","addr":"경기도 고양시 일산동구 장항동","indutype":"일반휴게음식 - 서양음식","category":"restaurant"}]},{"lat":"37.641658078","long":"126.7698191","imageIndex":4,"items":[{"name":"소풍 도시락 카페","tel":"031-908-3630","addr":"경기도 고양시 일산동구 장항동 566-42번지","indutype":"일반휴게음식 - 서양음식","category":"restaurant"},{"name":"지라난 레스토랑","tel":"","addr":"경기도 고양시 일산동구 장항동 566-42번지","indutype":"일반휴게음식 - 서양음식","category":"restaurant"}]},{"lat":"37.634552013","long":"126.77576643","imageIndex":4,"items":[{"name":"송림식당","tel":"031-906-6866","addr":"경기도 고양시 일산동구 장항동 618-39번지","indutype":"일반휴게음식 - 일반한식","category":"restaurant"}]},{"lat":"37.663877149","long":"126.77042966","imageIndex":4,"items":[{"name":"송재만참치","tel":"031-906-4600","addr":"경기도 고양시 일산동구 장항동","indutype":"일반휴게음식 - 일식·회집","category":"restaurant"}]},{"lat":"37.661494868","long":"126.76854444","imageIndex":4,"items":[{"name":"슈가브릿지라페스타점","tel":"070-5945-3313","addr":"경기도 고양시 일산동구 장항동 764번지","indutype":"일반휴게음식 - 서양음식","category":"restaurant"},{"name":"열평집밥김치찌개","tel":"031-901-8880","addr":"경기도 고양시 일산동구 장항동 764번지","indutype":"일반휴게음식 - 일반한식","category":"restaurant"},{"name":"제레미아이디어연구소","tel":"02-901-7884","addr":"경기도 고양시 일산동구 장항동 764번지","indutype":"일반휴게음식 - 일반한식","category":"restaurant"},{"name":"커피에반하다","tel":"031-901-5949","addr":"경기도 고양시 일산동구 장항동 764번지","indutype":"일반휴게음식 - 서양음식","category":"restaurant"}]},{"lat":"37.654739085","long":"126.77388048","imageIndex":4,"items":[{"name":"스까똘라까페","tel":"031-932-7707","addr":"경기도 고양시 일산동구 장항동 852-1번지","indutype":"일반휴게음식 - 서양음식","category":"restaurant"},{"name":"연안식당 웨스턴돔점","tel":"031-908-5090","addr":"경기도 고양시 일산동구 장항동 852-1번지","indutype":"일반휴게음식 - 일반한식","category":"restaurant"}]},{"lat":"37.656825317","long":"126.77182289","imageIndex":4,"items":[{"name":"스타","tel":"070-4147-6002","addr":"경기도 고양시 일산동구 장항동 859-1번지","indutype":"일반휴게음식 - 일반한식","category":"restaurant"},{"name":"앤하우스","tel":"031-903-7477","addr":"경기도 고양시 일산동구 장항동","indutype":"일반휴게음식 - 일반한식","category":"restaurant"},{"name":"어게인 리프레쉬 일산웨스턴돔점","tel":"031-909-0880","addr":"경기도 고양시 일산동구 장항동 859-1번지","indutype":"일반휴게음식 - 일반한식","category":"restaurant"}]},{"lat":"37.664548538","long":"126.76824017","imageIndex":4,"items":[{"name":"아기숟가락 일산점","tel":"031-814-2610","addr":"경기도 고양시 일산동구 장항동 727-2번지","indutype":"일반휴게음식 - 일반한식","category":"restaurant"},{"name":"아다모커피","tel":"031-914-5355","addr":"경기도 고양시 일산동구 장항동 727-2번지","indutype":"일반휴게음식 - 서양음식","category":"restaurant"},{"name":"우주최강도시락 일산점","tel":"031-921-4619","addr":"경기도 고양시 일산동구 장항동 727-2번지","indutype":"일반휴게음식 - 일반한식","category":"restaurant"},{"name":"조니핫소스","tel":"031-906-6371","addr":"경기도 고양시 일산동구 장항동 727-2번지","indutype":"일반휴게음식 - 서양음식","category":"restaurant"},{"name":"창스닭발","tel":"070-5043-1195","addr":"경기도 고양시 일산동구 장항동 727-2번지","indutype":"일반휴게음식 - 일반한식","category":"restaurant"}]},{"lat":"37.664742856","long":"126.76629016","imageIndex":4,"items":[{"name":"아는집","tel":"03-190-8341","addr":"경기도 고양시 일산동구 장항동 730-1번지","indutype":"일반휴게음식 - 일반한식","category":"restaurant"},{"name":"텐브레이크","tel":"070-7126-2976","addr":"경기도 고양시 일산동구 장항동 730-1번지","indutype":"일반휴게음식 - 서양음식","category":"restaurant"}]},{"lat":"37.640003738","long":"126.77156908","imageIndex":4,"items":[{"name":"아줌마식당","tel":"031-902-9980","addr":"경기도 고양시 일산동구 장항동 586-5번지","indutype":"일반휴게음식 - 일반한식","category":"restaurant"}]},{"lat":"37.651325103","long":"126.76068955","imageIndex":4,"items":[{"name":"아짐 가마솥 순대국","tel":"031-903-0041","addr":"경기도 고양시 일산동구 장항동 671번지","indutype":"일반휴게음식 - 일반한식","category":"restaurant"},{"name":"자매식당","tel":"031-908-1315","addr":"경기도 고양시 일산동구 장항동 671번지","indutype":"일반휴게음식 - 일반한식","category":"restaurant"}]},{"lat":"37.660740637","long":"126.75654505","imageIndex":4,"items":[{"name":"얌샘김밥일산EBS점","tel":"031-816-3378","addr":"경기도 고양시 일산동구 장항동 1782번지","indutype":"일반휴게음식 - 일반한식","category":"restaurant"}]},{"lat":"37.640855197","long":"126.77390044","imageIndex":4,"items":[{"name":"양촌뚝배기","tel":"031-908-8886","addr":"경기도 고양시 일산동구 장항동 578-33번지","indutype":"일반휴게음식 - 일반한식","category":"restaurant"}]},{"lat":"37.64307304","long":"126.76552045","imageIndex":4,"items":[{"name":"옛날김치돼지찌개","tel":"031-906-3318","addr":"경기도 고양시 일산동구 장항동","indutype":"일반휴게음식 - 일반한식","category":"restaurant"}]},{"lat":"37.655134749","long":"126.75998591","imageIndex":4,"items":[{"name":"오거리","tel":"031-908-6639","addr":"경기도 고양시 일산동구 장항동 652번지","indutype":"일반휴게음식 - 일반한식","category":"restaurant"},{"name":"원조대박동태전문점","tel":"031-906-9678","addr":"경기도 고양시 일산동구 장항동 652번지","indutype":"일반휴게음식 - 일반한식","category":"restaurant"}]},{"lat":"37.639912689","long":"126.77571613","imageIndex":4,"items":[{"name":"옹골네순대국","tel":"031-904-7111","addr":"경기도 고양시 일산동구 장항동 601-22번지","indutype":"일반휴게음식 - 일반한식","category":"restaurant"}]},{"lat":"37.651658063","long":"126.76049583","imageIndex":4,"items":[{"name":"왕대박동태전문점","tel":"031-908-2333","addr":"경기도 고양시 일산동구 장항동 670-3번지","indutype":"일반휴게음식 - 일반한식","category":"restaurant"}]},{"lat":"37.656964945","long":"126.77412296","imageIndex":4,"items":[{"name":"요거프레소","tel":"031-907-7496","addr":"경기도 고양시 일산동구 장항동 848번지","indutype":"일반휴게음식 - 서양음식","category":"restaurant"}]},{"lat":"37.640266954","long":"126.76798799","imageIndex":4,"items":[{"name":"우리집식당","tel":"031-908-0270","addr":"경기도 고양시 일산동구 장항동 572-7번지","indutype":"일반휴게음식 - 일반한식","category":"restaurant"}]},{"lat":"37.634964241","long":"126.77932255","imageIndex":4,"items":[{"name":"은석이네","tel":"031-904-1101","addr":"경기도 고양시 일산동구 장항동 623-15번지","indutype":"일반휴게음식 - 일반한식","category":"restaurant"}]},{"lat":"37.641602902","long":"126.76032456","imageIndex":4,"items":[{"name":"은혜식당","tel":"031-902-2829","addr":"경기도 고양시 일산동구 장항동 545-11번지","indutype":"일반휴게음식 - 일반한식","category":"restaurant"}]},{"lat":"37.662821974","long":"126.76990028","imageIndex":4,"items":[{"name":"이디야(EDIYA)커피숍","tel":"031-811-2411","addr":"경기도 고양시 일산동구 장항동 780번지","indutype":"일반휴게음식 - 서양음식","category":"restaurant"}]},{"lat":"37.650682467","long":"126.77738306","imageIndex":4,"items":[{"name":"이종구 낙지세상","tel":"031-907-1006","addr":"경기도 고양시 일산동구 장항동 897번지","indutype":"일반휴게음식 - 일반한식","category":"restaurant"},{"name":"청담관","tel":"031-907-7778","addr":"경기도 고양시 일산동구 장항동 897번지","indutype":"일반휴게음식 - 일반한식","category":"restaurant"},{"name":"청석골가마솥추어탕","tel":"","addr":"경기도 고양시 일산동구 장항동 897번지","indutype":"일반휴게음식 - 일반한식","category":"restaurant"},{"name":"토오루","tel":"031-909-0934","addr":"경기도 고양시 일산동구 장항동 897번지","indutype":"일반휴게음식 - 일반한식","category":"restaurant"}]},{"lat":"37.646967804","long":"126.77598925","imageIndex":4,"items":[{"name":"일품야식이","tel":"031-901-3561","addr":"경기도 고양시 일산동구 장항동 877번지","indutype":"일반휴게음식 - 일반한식","category":"restaurant"}]},{"lat":"37.638632246","long":"126.77054233","imageIndex":4,"items":[{"name":"자매식당","tel":"031-904-7338","addr":"경기도 고양시 일산동구 장항동","indutype":"일반휴게음식 - 일반한식","category":"restaurant"}]},{"lat":"37.644851675","long":"126.76290873","imageIndex":4,"items":[{"name":"장항반점","tel":"031-901-2777","addr":"경기도 고양시 일산동구 장항동 540-9번지","indutype":"일반휴게음식 - 중국식","category":"restaurant"}]},{"lat":"37.637073186","long":"126.77967877","imageIndex":4,"items":[{"name":"전주식당","tel":"031-905-2481","addr":"경기도 고양시 일산동구 장항동 616번지","indutype":"일반휴게음식 - 일반한식","category":"restaurant"},{"name":"함평식당","tel":"031-905-0090","addr":"경기도 고양시 일산동구 장항동 616번지","indutype":"일반휴게음식 - 일반한식","category":"restaurant"}]},{"lat":"37.635609401","long":"126.77279494","imageIndex":4,"items":[{"name":"정다운밥상","tel":"031-904-9088","addr":"경기도 고양시 일산동구 장항동 597-20번지","indutype":"일반휴게음식 - 일반한식","category":"restaurant"}]},{"lat":"37.644968962","long":"126.76298766","imageIndex":4,"items":[{"name":"정희자전주거꾸로콩나물국밥","tel":"031-905-3233","addr":"경기도 고양시 일산동구 장항동 540-8번지","indutype":"일반휴게음식 - 일반한식","category":"restaurant"}]},{"lat":"37.661418516","long":"126.76640271","imageIndex":4,"items":[{"name":"조샌드위치 일산라페스타점","tel":"031-903-7780","addr":"경기도 고양시 일산동구 장항동 760-1번지","indutype":"일반휴게음식 - 서양음식","category":"restaurant"}]},{"lat":"37.650160536","long":"126.77771326","imageIndex":4,"items":[{"name":"조양토종순대국","tel":"031-901-8569","addr":"경기도 고양시 일산동구 장항동 898-1번지","indutype":"일반휴게음식 - 일반한식","category":"restaurant"},{"name":"헤븐","tel":"031-907-6616","addr":"경기도 고양시 일산동구 장항동 898-1번지","indutype":"일반휴게음식 - 일반한식","category":"restaurant"},{"name":"헤븐","tel":"031-907-7854","addr":"경기도 고양시 일산동구 장항동 898-1번지","indutype":"일반휴게음식 - 일반한식","category":"restaurant"}]},{"lat":"37.650604264","long":"126.7606579","imageIndex":4,"items":[{"name":"주식회사 팩토리빈","tel":"031-901-9419","addr":"경기도 고양시 일산동구 장항동 671-9번지","indutype":"일반휴게음식 - 서양음식","category":"restaurant"}]},{"lat":"37.644383059","long":"126.76285358","imageIndex":4,"items":[{"name":"중산한식부페2호점","tel":"031-907-3350","addr":"경기도 고양시 일산동구 장항동 543-5번지","indutype":"일반휴게음식 - 일반한식","category":"restaurant"}]},{"lat":"37.635913399","long":"126.78098512","imageIndex":4,"items":[{"name":"철원양평해장국","tel":"031-902-7446","addr":"경기도 고양시 일산동구 장항동 622번지","indutype":"일반휴게음식 - 일반한식","category":"restaurant"}]},{"lat":"37.659827177","long":"126.75488212","imageIndex":4,"items":[{"name":"카페 . 528(cafe.528)","tel":"070-4112-7856","addr":"경기도 고양시 일산동구 장항동 1800번지","indutype":"일반휴게음식 - 서양음식","category":"restaurant"}]},{"lat":"37.65179961","long":"126.77268834","imageIndex":4,"items":[{"name":"카페그랑 본관점/(주)아워홈 사법연수원고","tel":"02-6966-9049","addr":"경기도 고양시 일산동구 장항동 872번지","indutype":"일반휴게음식 - 서양음식","category":"restaurant"},{"name":"카페그랑 본관점/(주)아워홈 사법연수원고","tel":"02-6966-9049","addr":"경기도 고양시 일산동구 장항동 872번지","indutype":"일반휴게음식 - 서양음식","category":"restaurant"}]},{"lat":"37.650385517","long":"126.7775766","imageIndex":4,"items":[{"name":"카페어바웃제이(Cafe about J)","tel":"031-900-2083","addr":"경기도 고양시 일산동구 장항동 898번지","indutype":"일반휴게음식 - 서양음식","category":"restaurant"}]},{"lat":"37.653221467","long":"126.77648016","imageIndex":4,"items":[{"name":"캐나디안바닷가재","tel":"031-905-6776","addr":"경기도 고양시 일산동구 장항동 890-3번지","indutype":"일반휴게음식 - 일반한식","category":"restaurant"}]},{"lat":"37.655909036","long":"126.77320827","imageIndex":4,"items":[{"name":"코지커피(cozy coffee)","tel":"031-905-0335","addr":"경기도 고양시 일산동구 장항동 854-1번지","indutype":"일반휴게음식 - 서양음식","category":"restaurant"},{"name":"투다리","tel":"031-902-3264","addr":"경기도 고양시 일산동구 장항동","indutype":"일반휴게음식 - 주점","category":"restaurant"}]},{"lat":"37.653796615","long":"126.75771253","imageIndex":4,"items":[{"name":"콩타작","tel":"031-902-0885","addr":"경기도 고양시 일산동구 장항동 443-16번지","indutype":"일반휴게음식 - 일반한식","category":"restaurant"}]},{"lat":"37.662773758","long":"126.76381439","imageIndex":4,"items":[{"name":"쿡앤맘(Cook&mom)","tel":"031-913-7950","addr":"경기도 고양시 일산동구 장항동 749번지","indutype":"일반휴게음식 - 스넥","category":"restaurant"},{"name":"호수면옥","tel":"031-911-5559","addr":"경기도 고양시 일산동구 장항동 749번지","indutype":"일반휴게음식 - 일반한식","category":"restaurant"}]},{"lat":"37.636192358","long":"126.77606733","imageIndex":4,"items":[{"name":"풍년식당","tel":"031-906-0671","addr":"경기도 고양시 일산동구 장항동 612번지","indutype":"일반휴게음식 - 일반한식","category":"restaurant"}]},{"lat":"37.656099274","long":"126.77374031","imageIndex":4,"items":[{"name":"한그릇","tel":"031-908-8976","addr":"경기도 고양시 일산동구 장항동 854번지","indutype":"일반휴게음식 - 일반한식","category":"restaurant"},{"name":"한우동","tel":"031-901-2854","addr":"경기도 고양시 일산동구 장항동 854번지","indutype":"일반휴게음식 - 일반한식","category":"restaurant"}]},{"lat":"37.636551846","long":"126.78032611","imageIndex":4,"items":[{"name":"한마루감자탕","tel":"031-905-5011","addr":"경기도 고양시 일산동구 장항동 617번지","indutype":"일반휴게음식 - 일반한식","category":"restaurant"},{"name":"한양가정식백반","tel":"031-906-7053","addr":"경기도 고양시 일산동구 장항동 617번지","indutype":"일반휴게음식 - 일반한식","category":"restaurant"}]},{"lat":"37.644105555","long":"126.76373826","imageIndex":4,"items":[{"name":"한옥식당","tel":"031-903-6164","addr":"경기도 고양시 일산동구 장항동 543번지","indutype":"일반휴게음식 - 일반한식","category":"restaurant"}]},{"lat":"37.638576592","long":"126.76521752","imageIndex":4,"items":[{"name":"한진분식","tel":"031-901-6035","addr":"경기도 고양시 일산동구 장항동 569번지","indutype":"일반휴게음식 - 일반한식","category":"restaurant"}]},{"lat":"37.650746529","long":"126.77790412","imageIndex":4,"items":[{"name":"할리스커피(마두역점)","tel":"070-8866-7558","addr":"경기도 고양시 일산동구 장항동 896-1번지","indutype":"일반휴게음식 - 서양음식","category":"restaurant"}]},{"lat":"37.638493506","long":"126.77798639","imageIndex":4,"items":[{"name":"행복낙지촌","tel":"031-905-5004","addr":"경기도 고양시 일산동구 장항동 611-11번지","indutype":"일반휴게음식 - 일반한식","category":"restaurant"}]},{"lat":"37.642602346","long":"126.76443423","imageIndex":4,"items":[{"name":"현대식당","tel":"031-902-9118","addr":"경기도 고양시 일산동구 장항동 547-3번지","indutype":"일반휴게음식 - 일반한식","category":"restaurant"}]},{"lat":"37.661409802","long":"126.76655007","imageIndex":4,"items":[{"name":"호술공원","tel":"031-901-9181","addr":"경기도 고양시 일산동구 장항동 760-1번지","indutype":"일반휴게음식 - 일반한식","category":"restaurant"}]},{"lat":"37.641772847","long":"126.76862907","imageIndex":4,"items":[{"name":"황금 한식부페","tel":"031-901-9291","addr":"경기도 고양시 일산동구 장항동 566-29번지","indutype":"일반휴게음식 - 일반한식","category":"restaurant"}]},{"lat":"37.65632307","long":"126.75093875","imageIndex":4,"items":[{"name":"황태덕장용대리","tel":"031-906-0097","addr":"경기도 고양시 일산동구 장항동 638-10번지","indutype":"일반휴게음식 - 일반한식","category":"restaurant"}]}]