[{"lat":"37.429272193","long":"126.98744868","imageIndex":4,"items":[{"name":"(사) 경기도신체장애인복지회 과천시지부(","tel":"02-504-1209","addr":"경기도 과천시 중앙동 1-3번지 과천시청","indutype":"일반휴게음식 - 일반한식","category":"restaurant"}]},{"lat":"37.420578027","long":"126.99225162","imageIndex":4,"items":[{"name":"강녹수","tel":"02-502-6938","addr":"경기도 과천시 중앙동 40-8번지 명문빌딩 2층","indutype":"음식점업 - 한식","category":"restaurant"},{"name":"고릴라과천","tel":"02-504-1251","addr":"경기도 과천시 중앙동 40-5번지 중앙상가 1층 108-109호 108호","indutype":"음식점업 - 한식","category":"restaurant"},{"name":"땅이네집","tel":"02-502-2256","addr":"경기도 과천시 중앙동 81번지","indutype":"음식점업 - 한식","category":"restaurant"}]},{"lat":"37.42891224","long":"126.99139179","imageIndex":4,"items":[{"name":"강원도 곤드레밥상","tel":"02-507-7474","addr":"경기도 과천시 중앙동 40-5번지 중앙빌딩 2층 204호","indutype":"일반휴게음식 - 일반한식","category":"restaurant"},{"name":"고릴라 투","tel":"","addr":"경기도 과천시 중앙동 40-5번지 중앙빌딩 2층 201-1,201-2호","indutype":"일반휴게음식 - 일반한식","category":"restaurant"},{"name":"고릴라과천","tel":"02-504-1251","addr":"경기도 과천시 중앙동 40-5번지 중앙상가 1층 108호","indutype":"일반휴게음식 - 일반한식","category":"restaurant"},{"name":"드락","tel":"02-502-0738","addr":"경기도 과천시 중앙동 40-5번지 중앙빌딩 301,302호","indutype":"일반휴게음식 - 일반한식","category":"restaurant"},{"name":"별양동언니","tel":"02-502-0779","addr":"경기도 과천시 중앙동 40-4번지 동성빌딩 203호","indutype":"음식점업 - 한식","category":"restaurant"},{"name":"본도시락(과천점)","tel":"031-431-1805","addr":"경기도 과천시 중앙동 40-5번지 중앙상가 104호","indutype":"일반휴게음식 - 일반한식","category":"restaurant"},{"name":"서현","tel":"02-504-5470","addr":"경기도 과천시 중앙동 40-5번지 중앙상가 103호","indutype":"일반휴게음식 - 서양음식","category":"restaurant"},{"name":"수미수작","tel":"02-502-0737","addr":"경기도 과천시 중앙동 40-5번지 중앙상가 307호","indutype":"일반휴게음식 - 일반한식","category":"restaurant"},{"name":"옛날김치찌개","tel":"02-507-0016","addr":"경기도 과천시 중앙동 40-5번지 중앙빌딩 지하층 3호,4호","indutype":"일반휴게음식 - 일반한식","category":"restaurant"},{"name":"원조생고기두루치기","tel":"02-502-0113","addr":"경기도 과천시 중앙동 40-5번지 204(204호~205호)","indutype":"일반휴게음식 - 일반한식","category":"restaurant"},{"name":"자매식당","tel":"02-502-6050","addr":"경기도 과천시 중앙동 40-5번지 중앙상가202호~203호202","indutype":"일반휴게음식 - 일반한식","category":"restaurant"},{"name":"장수돼지국밥","tel":"02-502-5657","addr":"경기도 과천시 중앙동 40-5번지 지하 1,2호","indutype":"일반휴게음식 - 일반한식","category":"restaurant"},{"name":"정화만두","tel":"02-504-0257","addr":"경기도 과천시 중앙동 40-5번지 중앙상가 101호","indutype":"일반휴게음식 - 일반한식","category":"restaurant"},{"name":"커피만","tel":"","addr":"경기도 과천시 중앙동 40-5번지 중앙빌딩 상가동 1층 107호","indutype":"일반휴게음식 - 서양음식","category":"restaurant"},{"name":"토정","tel":"02-502-1374","addr":"경기도 과천시 중앙동 40-5번지 중앙빌딩 404호","indutype":"일반휴게음식 - 일반한식","category":"restaurant"},{"name":"토정","tel":"02-502-1374","addr":"경기도 과천시 중앙동 40-5번지 중앙상가 204호","indutype":"일반휴게음식 - 일반한식","category":"restaurant"},{"name":"통나무집","tel":"02-503-9555","addr":"경기도 과천시 중앙동 40-5번지 중앙상가 1층 105호","indutype":"일반휴게음식 - 일반한식","category":"restaurant"}]},{"lat":"37.457210597","long":"127.02802969","imageIndex":4,"items":[{"name":"강원도 곤드레밥상","tel":"02-507-7474","addr":"경기도 과천시 중앙동 40-5번지 중앙빌딩 2층 204호","indutype":"음식점업 - 한식","category":"restaurant"}]},{"lat":"37.433191924","long":"126.99055503","imageIndex":4,"items":[{"name":"경아두마리치킨","tel":"02-507-9999","addr":"경기도 과천시 중앙동 13-7번지 주공점포 4호","indutype":"일반휴게음식 - 일반한식","category":"restaurant"},{"name":"관악식당","tel":"02-507-4846","addr":"경기도 과천시 중앙동 13-7","indutype":"일반휴게음식 - 일반한식","category":"restaurant"}]},{"lat":"37.427911942","long":"126.98964076","imageIndex":4,"items":[{"name":"고피자","tel":"","addr":"경기도 과천시 중앙동 6-2번지 과천시민회관 1층","indutype":"일반휴게음식 - 일반한식","category":"restaurant"},{"name":"맛뜨레","tel":"02-507-0150","addr":"경기도 과천시 중앙동 6-2번지 지하층 과천시민회관 2층","indutype":"일반휴게음식 - 스넥","category":"restaurant"},{"name":"커피타임","tel":"02-6204-5615","addr":"경기도 과천시 중앙동 6-2번지 과천시민회관 3층","indutype":"일반휴게음식 - 서양음식","category":"restaurant"}]},{"lat":"37.428606056","long":"126.99314303","imageIndex":4,"items":[{"name":"과천봉추찜닭","tel":"02-503-6981","addr":"경기도 과천시 중앙동 41-1번지 케이티스마트타워 2층","indutype":"음식점업 - 한식점업","category":"restaurant"}]},{"lat":"37.426749933","long":"126.9924993","imageIndex":4,"items":[{"name":"과천순대국","tel":"02-502-4274","addr":"경기도 과천시 중앙동 40-4번지 동성빌딩 1층 101호","indutype":"음식점업 - 한식","category":"restaurant"},{"name":"그곳에가면","tel":"02-502-0355","addr":"경기도 과천시 중앙동 40-5번지 중앙상가 지하 106호~107호","indutype":"음식점업 - 한식","category":"restaurant"},{"name":"브레쉬에비뉴(과천KT점)","tel":"02-507-2727","addr":"경기도 과천시 중앙동 41-1번지 케이티스마트타워 1,2층일부","indutype":"음식점업 - 베이커리카페","category":"restaurant"},{"name":"빈체로","tel":"02-507-1688","addr":"경기도 과천시 중앙동 41-1번지 케이티스마트타워 1층","indutype":"음식점업 - 서양식","category":"restaurant"},{"name":"양평해장국","tel":"02-503-0049","addr":"경기도 과천시 중앙동 40-7번지 행진빌딩 1층","indutype":"음식점업 - 한식","category":"restaurant"},{"name":"옛날김치찌게","tel":"","addr":"경기도 과천시 중앙동 40-11번지 현대빌딩 101호","indutype":"음식점업 - 일반음식","category":"restaurant"},{"name":"이토리 과천점","tel":"02-503-3337","addr":"경기도 과천시 중앙동 40-9번지 태양빌딩 2층 202호","indutype":"음식점업 - 일식","category":"restaurant"},{"name":"코피","tel":"02-504-0050","addr":"경기도 과천시 중앙동 40-12번지 과천중앙빌딩 202호","indutype":"음식점업 - 카페","category":"restaurant"},{"name":"코피엔라온식탁","tel":"02-504-9050","addr":"경기도 과천시 중앙동 40-12번지 과천중앙빌딩 303호","indutype":"음식점업 - 일반음식","category":"restaurant"}]},{"lat":"37.455238436","long":"127.02260404","imageIndex":4,"items":[{"name":"과천시청 복지카페","tel":"02-504-1210","addr":"경기도 과천시 중앙동 1-3번지 과천시청","indutype":"음식점업 - 휴게음식","category":"restaurant"}]},{"lat":"37.428714046","long":"126.99166297","imageIndex":4,"items":[{"name":"과천식당","tel":"02-503-4165","addr":"경기도 과천시 중앙동 40-13번지 가보자빌딩 2층 202호","indutype":"일반휴게음식 - 일반한식","category":"restaurant"},{"name":"그날에","tel":"02-502-0277","addr":"경기도 과천시 중앙동 40-13번지 가보자빌딩 지하층 103호","indutype":"일반휴게음식 - 일반한식","category":"restaurant"},{"name":"내고향전통국시","tel":"02-507-0085","addr":"경기도 과천시 중앙동 40-13번지 가보자빌딩 201호","indutype":"일반휴게음식 - 일반한식","category":"restaurant"},{"name":"다디노(da Dino)","tel":"02-3679-4454","addr":"경기도 과천시 중앙동 40-13번지 가보자빌딩 3층 304호","indutype":"일반휴게음식 - 서양음식","category":"restaurant"},{"name":"더블유","tel":"02-3679-5959","addr":"경기도 과천시 중앙동 40-13번지 가보자빌딩 3층 301,302호","indutype":"일반휴게음식 - 일반한식","category":"restaurant"},{"name":"카페오로라","tel":"02-3679-0901","addr":"경기도 과천시 중앙동 40-13번지 가보자빌딩 1층 107호","indutype":"일반휴게음식 - 서양음식","category":"restaurant"},{"name":"타이거커피","tel":"031-421-1695","addr":"경기도 과천시 중앙동 40-13번지 가보자빌딩 108호","indutype":"일반휴게음식 - 서양음식","category":"restaurant"},{"name":"페니레인(Penny Lane)","tel":"02-2614-5130","addr":"경기도 과천시 중앙동 40-13번지 가보자빌딩 204호","indutype":"일반휴게음식 - 주점","category":"restaurant"},{"name":"홀릭36Th","tel":"02-502-5455","addr":"경기도 과천시 중앙동 36번지 1종합상가 129-2호","indutype":"음식점업 - 휴게음식","category":"restaurant"}]},{"lat":"37.428804061","long":"126.99080431","imageIndex":4,"items":[{"name":"관악산 정육식당","tel":"02-502-6938","addr":"경기도 과천시 중앙동 40-8번지 명문빌딩 2층","indutype":"일반휴게음식 - 일반한식","category":"restaurant"},{"name":"담소소사골순대","tel":"02-507-1821","addr":"경기도 과천시 중앙동 40-8번지 명문빌딩 102호","indutype":"일반휴게음식 - 일반한식","category":"restaurant"},{"name":"춘향골남원추어탕","tel":"02-503-8383","addr":"경기도 과천시 중앙동 40-8번지 명문빌딩 1층 1호","indutype":"일반휴게음식 - 일반한식","category":"restaurant"}]},{"lat":"37.428299546","long":"126.9912789","imageIndex":4,"items":[{"name":"관악산장","tel":"02-503-4452","addr":"경기도 과천시 중앙동 42번지","indutype":"음식점업 - 한식","category":"restaurant"},{"name":"김밥과스파게티","tel":"02-504-3669","addr":"경기도 과천시 중앙동 40-11번지 현대빌딩 106호","indutype":"일반휴게음식 - 일반한식","category":"restaurant"},{"name":"덕이랑 꼬순이","tel":"02-504-0928","addr":"경기도 과천시 중앙동 40-11번지 현대빌딩 207호","indutype":"일반휴게음식 - 일반한식","category":"restaurant"},{"name":"맘스터치","tel":"02-502-0042","addr":"경기도 과천시 중앙동 40-11번지 현대빌딩 102,103호","indutype":"일반휴게음식 - 일반한식","category":"restaurant"},{"name":"명랑시대 쌀 핫도그 과천점","tel":"02-502-2022","addr":"경기도 과천시 중앙동 40-11번지 현대빌딩 1층 108호","indutype":"일반휴게음식 - 일반한식","category":"restaurant"},{"name":"삼보정","tel":"02-502-2796","addr":"경기도 과천시 중앙동 40-11번지 현대빌딩 지하1층","indutype":"일반휴게음식 - 일반한식","category":"restaurant"},{"name":"새술막집","tel":"031-503-5527","addr":"경기도 과천시 중앙동 40-11번지 현대빌딩 지하층 2호","indutype":"일반휴게음식 - 일반한식","category":"restaurant"},{"name":"수산궁","tel":"02-502-1110","addr":"경기도 과천시 중앙동 40-11번지 현대빌딩 201동 206호","indutype":"일반휴게음식 - 중국식","category":"restaurant"},{"name":"옛날김치찌게","tel":"02-503-0015","addr":"경기도 과천시 중앙동 40-11번지 현대빌딩 101호","indutype":"일반휴게음식 - 일반한식","category":"restaurant"},{"name":"쥬씨 과천청사점","tel":"02-507-1211","addr":"경기도 과천시 중앙동 40-11번지 현대빌딩 107호","indutype":"일반휴게음식 - 서양음식","category":"restaurant"},{"name":"청기와","tel":"02-502-5105","addr":"경기도 과천시 중앙동 40-11번지 현대빌딩 203호","indutype":"일반휴게음식 - 일반한식","category":"restaurant"},{"name":"카페오로라","tel":"02-3679-0901","addr":"경기도 과천시 중앙동 40-13번지 가보자빌딩 1층 107호","indutype":"음식점업 - 비알콜 음료점업","category":"restaurant"},{"name":"퀴즈노스 과천중앙점","tel":"02-504-0790","addr":"경기도 과천시 중앙동 40-11번지 현대빌딩 109호","indutype":"일반휴게음식 - 일반한식","category":"restaurant"}]},{"lat":"37.433470865","long":"126.98741392","imageIndex":4,"items":[{"name":"관악산지킴이","tel":"02-504-1076","addr":"경기도 과천시 중앙동 81번지","indutype":"일반휴게음식 - 일반한식","category":"restaurant"},{"name":"관악산지킴이","tel":"02-504-1076","addr":"경기도 과천시 중앙동 81번지","indutype":"일반휴게음식 - 일반한식","category":"restaurant"},{"name":"등나무집","tel":"02-502-3369","addr":"경기도 과천시 중앙동 81번지","indutype":"일반휴게음식 - 일반한식","category":"restaurant"},{"name":"땅이네집","tel":"02-502-2256","addr":"경기도 과천시 중앙동 81번지","indutype":"일반휴게음식 - 일반한식","category":"restaurant"},{"name":"향교집","tel":"02-502-7584","addr":"경기도 과천시 중앙동 81번지","indutype":"일반휴게음식 - 일반한식","category":"restaurant"}]},{"lat":"37.429047367","long":"126.99114321","imageIndex":4,"items":[{"name":"관악산지킴이","tel":"02-504-1076","addr":"경기도 과천시 중앙동 81번지","indutype":"음식점업 - 한식","category":"restaurant"},{"name":"동성회관","tel":"02-502-1333","addr":"경기도 과천시 중앙동 40-4번지 동성빌딩 1층 8-10","indutype":"일반휴게음식 - 일반한식","category":"restaurant"},{"name":"밍글수제파이","tel":"02-507-1551","addr":"경기도 과천시 중앙동 40-4번지 동성빌딩 1층 103호","indutype":"일반휴게음식 - 서양음식","category":"restaurant"},{"name":"밥먹고술먹고","tel":"02-503-5135","addr":"경기도 과천시 중앙동 40-4번지 103,104호","indutype":"일반휴게음식 - 주점","category":"restaurant"},{"name":"별양동언니","tel":"02-502-0779","addr":"경기도 과천시 중앙동 40-4번지 동성빌딩 203호","indutype":"일반휴게음식 - 일반한식","category":"restaurant"},{"name":"삼보정","tel":"02-502-2796","addr":"경기도 과천시 중앙동 40-11번지 현대빌딩 지하1층","indutype":"음식점업 - 한식","category":"restaurant"},{"name":"서울 원조 감자탕 뼈찜","tel":"02-504-1066","addr":"경기도 과천시 중앙동 40-4번지 동성빌딩 2층 1,2호","indutype":"일반휴게음식 - 일반한식","category":"restaurant"},{"name":"우리곳간","tel":"02-502-4274","addr":"경기도 과천시 중앙동 40-4번지 동성빌딩 101호","indutype":"일반휴게음식 - 일반한식","category":"restaurant"},{"name":"제주항","tel":"02-503-8892","addr":"경기도 과천시 중앙동 40-4번지 동성빌딩 2층 204,205호","indutype":"일반휴게음식 - 일반한식","category":"restaurant"}]},{"lat":"37.424497836","long":"126.99975257","imageIndex":4,"items":[{"name":"관악식당","tel":"02-507-4846","addr":"경기도 과천시 중앙동 13-7번지","indutype":"음식점업 - 한식","category":"restaurant"}]},{"lat":"37.428831122","long":"126.99110935","imageIndex":4,"items":[{"name":"구스","tel":"02-3679-9292","addr":"경기도 과천시 중앙동 40-6번지 대영빌딩 1층","indutype":"일반휴게음식 - 일식·회집","category":"restaurant"},{"name":"남주네한식뷔페","tel":"","addr":"경기도 과천시 중앙동 40-6번지 대영빌딩 3층","indutype":"일반휴게음식 - 일반한식","category":"restaurant"},{"name":"신의주순대와쭈꾸미","tel":"02-3679-9292","addr":"경기도 과천시 중앙동 40-6번지 대영빌딩 1층","indutype":"일반휴게음식 - 일반한식","category":"restaurant"}]},{"lat":"37.4289122403","long":"126.9913917895","imageIndex":4,"items":[{"name":"그곳에가면","tel":"02-502-0355","addr":"경기도 과천시 중앙동 40-5중앙상가지하106호~107호","indutype":"일반휴게음식 - 일반한식","category":"restaurant"}]},{"lat":"37.45530127","long":"127.02397161","imageIndex":4,"items":[{"name":"그날에","tel":"02-502-0277","addr":"경기도 과천시 중앙동 40-13번지 가보자빌딩 지하 103호","indutype":"음식점업 - 한식","category":"restaurant"}]},{"lat":"37.429876627","long":"126.99525564","imageIndex":4,"items":[{"name":"김밥과스파게티","tel":"02-504-3669","addr":"경기도 과천시 중앙동 40-11번지 현대빌딩 106호","indutype":"음식점업 - 분식","category":"restaurant"}]},{"lat":"37.427245524","long":"126.99295115","imageIndex":4,"items":[{"name":"까치식당","tel":"","addr":"경기도 과천시 중앙동 40-5번지 중앙상가 내제지하층 5호","indutype":"음식점업 - 한식","category":"restaurant"}]},{"lat":"37.428470935","long":"126.99350459","imageIndex":4,"items":[{"name":"내고향전통국시","tel":"02-507-0085","addr":"경기도 과천시 중앙동 40-13번지 가보자빌딩 201호","indutype":"음식점업 - 한식","category":"restaurant"}]},{"lat":"37.428578819","long":"126.99089473","imageIndex":4,"items":[{"name":"노가리호프","tel":"02-3679-3772","addr":"경기도 과천시 중앙동 40-9번지 태양빌딩 2층 201호","indutype":"일반휴게음식 - 주점","category":"restaurant"},{"name":"우렁추어탕","tel":"02-504-3680","addr":"경기도 과천시 중앙동 40-9번지 태양빌딩 1층 1호","indutype":"일반휴게음식 - 일반한식","category":"restaurant"},{"name":"이토리 과천점","tel":"02-503-3337","addr":"경기도 과천시 중앙동 40-9번지 태양빌딩 2층 202호","indutype":"일반휴게음식 - 일식·회집","category":"restaurant"},{"name":"짬뽕타임과천중앙점","tel":"031-000-0000","addr":"경기도 과천시 중앙동 40-9번지 태양빌딩 1층 2호","indutype":"일반휴게음식 - 중국식","category":"restaurant"},{"name":"코창","tel":"02-1111-1111","addr":"경기도 과천시 중앙동 40-9번지 태양빌딩 3층 301호","indutype":"일반휴게음식 - 일반한식","category":"restaurant"},{"name":"협동조합마을카페TONG","tel":"02-504-1090","addr":"경기도 과천시 중앙동 40-9번지 태양빌딩 302호","indutype":"일반휴게음식 - 일반한식","category":"restaurant"}]},{"lat":"37.427939294","long":"126.99291716","imageIndex":4,"items":[{"name":"노가리호프","tel":"02-3679-3772","addr":"경기도 과천시 중앙동 40-9번지 태양빌딩 2층 201호","indutype":"음식점업 - 호프","category":"restaurant"}]},{"lat":"37.42399318","long":"127.00853064","imageIndex":4,"items":[{"name":"다디노(da Dino)","tel":"02-3679-4454","addr":"경기도 과천시 중앙동 40-13번지 가보자빌딩 3층 304호","indutype":"음식점업 - 서양식","category":"restaurant"}]},{"lat":"37.447797614","long":"126.99599968","imageIndex":4,"items":[{"name":"담소소사골순대","tel":"02-507-1821","addr":"경기도 과천시 중앙동 40-8번지 명문빌딩 102호","indutype":"음식점업 - 순대국밥","category":"restaurant"}]},{"lat":"37.4549968","long":"127.00131097","imageIndex":4,"items":[{"name":"더블유(W)","tel":"02-3679-5959","addr":"경기도 과천시 중앙동 40-13번지 가보자빌딩 3층 301,302호","indutype":"음식점업 - 한식","category":"restaurant"}]},{"lat":"37.437136962","long":"127.02463318","imageIndex":4,"items":[{"name":"덕이랑 꼬순이","tel":"02-504-0928","addr":"경기도 과천시 중앙동 40-11번지 현대빌딩 207호","indutype":"음식점업 - 통닭","category":"restaurant"}]},{"lat":"37.447797006","long":"127.0167256","imageIndex":4,"items":[{"name":"돌담집식당","tel":"02-502-5328","addr":"경기도 과천시 중앙동 산 10","indutype":"음식점업 - 한식","category":"restaurant"},{"name":"향교집","tel":"02-502-7584","addr":"경기도 과천시 중앙동 81번지","indutype":"음식점업 - 한식","category":"restaurant"}]},{"lat":"37.434272581","long":"126.98611438","imageIndex":4,"items":[{"name":"돌담집식당","tel":"02-502-5328","addr":"경기도 과천시 중앙동 산 10","indutype":"일반휴게음식 - 일반한식","category":"restaurant"}]},{"lat":"37.449545569","long":"126.99622555","imageIndex":4,"items":[{"name":"동성회관","tel":"02-502-1333","addr":"경기도 과천시 중앙동 40-4번지 동성빌딩 1층8-10호","indutype":"음식점업 - 한식","category":"restaurant"}]},{"lat":"37.424659801","long":"126.99508671","imageIndex":4,"items":[{"name":"드락","tel":"02-502-0738","addr":"경기도 과천시 중앙동 40-5번지 중앙빌딩 301,302호","indutype":"음식점업 - 한식","category":"restaurant"}]},{"lat":"37.426885033","long":"126.99194569","imageIndex":4,"items":[{"name":"등나무집","tel":"02-502-3369","addr":"경기도 과천시 중앙동 81번지","indutype":"음식점업 - 한식","category":"restaurant"},{"name":"서현","tel":"02-504-5470","addr":"경기도 과천시 중앙동 40-5번지 중앙상가 103호","indutype":"음식점업 - 커피","category":"restaurant"},{"name":"자매식당","tel":"02-502-6050","addr":"경기도 과천시 중앙동 40-5번지 중앙상가 202호~203호","indutype":"음식점업 - 한식","category":"restaurant"},{"name":"짬뽕타임과천중앙점","tel":"02-3418-9354","addr":"경기도 과천시 중앙동 40-9번지 태양빌딩 1층 2호","indutype":"음식점업 - 중식","category":"restaurant"}]},{"lat":"37.45633009","long":"127.00977631","imageIndex":4,"items":[{"name":"마을카페 통","tel":"02-504-1090","addr":"경기도 과천시 중앙동 40-9번지 태양빌딩 302호","indutype":"음식점업 - 한식","category":"restaurant"}]},{"lat":"37.458407601","long":"127.03363615","imageIndex":4,"items":[{"name":"맘스터치","tel":"02-502-0042","addr":"경기도 과천시 중앙동 40-11번지 현대빌딩 102,103호","indutype":"음식점업 - 일반음식점","category":"restaurant"}]},{"lat":"37.429047731","long":"126.99569635","imageIndex":4,"items":[{"name":"맛뜨레","tel":"02-507-0150","addr":"경기도 과천시 중앙동 6-2번지 과천시민회관지하2충","indutype":"음식점업 - 스넥","category":"restaurant"},{"name":"밥먹고술먹고","tel":"02-502-5135","addr":"경기도 과천시 중앙동 40-4번지 동성빌딩 103,104호","indutype":"음식점업 - 호프","category":"restaurant"}]},{"lat":"37.457219022","long":"127.03064054","imageIndex":4,"items":[{"name":"멕시카나치킨","tel":"02-507-8899","addr":"경기도 과천시 중앙동 67, 10단지복합상가111","indutype":"음식점업 - 치킨","category":"restaurant"}]},{"lat":"37.415693514","long":"126.98380282","imageIndex":4,"items":[{"name":"명랑시대","tel":"02-502-2022","addr":"경기도 과천시 중앙동 40-11번지 현대빌딩 1층 108호","indutype":"음식점업 - 기타음식","category":"restaurant"}]},{"lat":"37.448356269","long":"126.99660989","imageIndex":4,"items":[{"name":"모두의쌀국수","tel":"02-3418-2500","addr":"경기도 과천시 중앙동 41-1번지 케이티스마트타워 2층","indutype":"음식점업 - 베트남음식","category":"restaurant"}]},{"lat":"37.429299707","long":"126.99175327","imageIndex":4,"items":[{"name":"모두의쌀국수","tel":"02-3418-2500","addr":"경기도 과천시 중앙동 41-1번지 KT과천스마트타워 2층","indutype":"일반휴게음식 - 서양음식","category":"restaurant"},{"name":"봉추찜닭","tel":"02-503-6981","addr":"경기도 과천시 중앙동 41-1번지 케이티스마트타워 2층 일부","indutype":"일반휴게음식 - 일반한식","category":"restaurant"},{"name":"브레쉬에비뉴 과천KT점","tel":"02-507-2727","addr":"경기도 과천시 중앙동 41-1번지 KT과천스마트타워 1,2층일부","indutype":"일반휴게음식 - 일반한식","category":"restaurant"},{"name":"빈체로","tel":"02-507-1688","addr":"경기도 과천시 중앙동 41-1번지 케이티스마트타워 1층","indutype":"일반휴게음식 - 서양음식","category":"restaurant"},{"name":"연푸드","tel":"02-500-6185","addr":"경기도 과천시 중앙동 41-1번지 kt과천스마트타워","indutype":"일반휴게음식 - 위탁급식업","category":"restaurant"},{"name":"쥬씨(과천청사점)","tel":"","addr":"경기도 과천시 중앙동 40-11번지 현대빌딩 107호","indutype":"음식점업 - 음료 커피","category":"restaurant"},{"name":"풀무원푸드앤컬처 케이티엠앤에스","tel":"02-3400-7544","addr":"경기도 과천시 중앙동 41-1번지 kt과천스마트타워 12층 구내식당","indutype":"일반휴게음식 - 위탁급식업","category":"restaurant"}]},{"lat":"37.433498472","long":"126.99272435","imageIndex":4,"items":[{"name":"모밀촌","tel":"02-507-5401","addr":"경기도 과천시 중앙동 70번지 청운빌딩 1층 101호","indutype":"일반휴게음식 - 일반한식","category":"restaurant"}]},{"lat":"37.457714971","long":"127.02888885","imageIndex":4,"items":[{"name":"모밀촌","tel":"02-507-5400","addr":"경기도 과천시 중앙동 70번지 청운빌딩 1층 101호","indutype":"음식점업 - 한식","category":"restaurant"}]},{"lat":"37.452744296","long":"127.00108499","imageIndex":4,"items":[{"name":"밍글파이","tel":"02-507-1551","addr":"경기도 과천시 중앙동 40-4번지 동성빌딩 1층 103호","indutype":"음식점업 - 커피숍","category":"restaurant"}]},{"lat":"37.43271462","long":"126.99297302","imageIndex":4,"items":[{"name":"밥먹자국밥집","tel":"02-507-5980","addr":"경기도 과천시 중앙동 36번지 1단지 120호","indutype":"일반휴게음식 - 일반한식","category":"restaurant"},{"name":"오성감자탕","tel":"02-502-2389","addr":"경기도 과천시 중앙동 36번지 135호 1차상가","indutype":"일반휴게음식 - 일반한식","category":"restaurant"},{"name":"주식회사 제이디아이앤 (JDI&inc.)","tel":"02-6949-2501","addr":"경기도 과천시 중앙동 36번지 2층 206,207,208,209,210,211,212,213,214,215호","indutype":"일반휴게음식 - 일반한식","category":"restaurant"},{"name":"카페드유중(cafe de ujung)","tel":"02-3477-2228","addr":"경기도 과천시 중앙동 36번지 131호 , 종합상가","indutype":"일반휴게음식 - 서양음식","category":"restaurant"},{"name":"한우받이 정육식당","tel":"02-3679-0568","addr":"경기도 과천시 중앙동 36번지 (1차종합상가130-1,131-1,2호)","indutype":"일반휴게음식 - 일반한식","category":"restaurant"},{"name":"홀릭36Th","tel":"02-502-5455","addr":"경기도 과천시 중앙동 36번지 종합상가 1호 129-2호","indutype":"일반휴게음식 - 스넥","category":"restaurant"}]},{"lat":"37.44294135","long":"127.00685963","imageIndex":4,"items":[{"name":"새술막집","tel":"02-503-5527","addr":"경기도 과천시 중앙동 40-11번지 현대빌딩 지하층 2호","indutype":"음식점업 - 한식","category":"restaurant"}]},{"lat":"37.428083503","long":"126.99350464","imageIndex":4,"items":[{"name":"서울원조감자탕뼈찜","tel":"02-504-1066","addr":"경기도 과천시 중앙동 40-4번지 동성빌딩 2층 1,2호","indutype":"음식점업 - 한식","category":"restaurant"}]},{"lat":"37.428245444","long":"126.99086089","imageIndex":4,"items":[{"name":"설빙과천중앙점","tel":"070-4153-2753","addr":"경기도 과천시 중앙동 40-10번지 고려빌딩 2층 202호","indutype":"일반휴게음식 - 서양음식","category":"restaurant"}]},{"lat":"37.434102297","long":"126.99469027","imageIndex":4,"items":[{"name":"소라식당","tel":"02-507-9988","addr":"경기도 과천시 중앙동 67번지 10단지복합상가 207호","indutype":"일반휴게음식 - 일반한식","category":"restaurant"}]},{"lat":"37.463741304","long":"127.03444087","imageIndex":4,"items":[{"name":"수미수작","tel":"02-502-0737","addr":"경기도 과천시 중앙동 40-5번지 중앙상가 307호","indutype":"음식점업 - 한식","category":"restaurant"}]},{"lat":"37.423911882","long":"126.99388927","imageIndex":4,"items":[{"name":"수산궁","tel":"02-503-3322","addr":"경기도 과천시 중앙동 40-11번지 현대빌딩 201동 206호","indutype":"음식점업 - 중식","category":"restaurant"}]},{"lat":"37.421749634","long":"127.00938904","imageIndex":4,"items":[{"name":"신의주순대와쭈꾸미","tel":"02-3679-9292","addr":"경기도 과천시 중앙동 40-6번지 대영빌딩 1층","indutype":"음식점업 - 한식","category":"restaurant"}]},{"lat":"37.428632901","long":"126.99110938","imageIndex":4,"items":[{"name":"양평해장국","tel":"02-503-0049","addr":"경기도 과천시 중앙동 40-7번지 행진빌딩 1층","indutype":"일반휴게음식 - 일반한식","category":"restaurant"},{"name":"커피타임","tel":"","addr":"경기도 과천시 중앙동 6-2번지 과천시민회관 3층","indutype":"음식점업 - 커피","category":"restaurant"},{"name":"토르토니과천2호점","tel":"02-507-4736","addr":"경기도 과천시 중앙동 40-7번지 행진빌딩","indutype":"일반휴게음식 - 스넥","category":"restaurant"}]},{"lat":"37.453960653","long":"127.00158224","imageIndex":4,"items":[{"name":"엄지스넥","tel":"02-504-6149","addr":"경기도 과천시 중앙동 36, 1차종합상가 109-2","indutype":"음식점업 - 간이음식점","category":"restaurant"}]},{"lat":"37.459354971","long":"127.02805302","imageIndex":4,"items":[{"name":"옛날김치찌개","tel":"","addr":"경기도 과천시 중앙동 40-5번지 지하 3호, 4호","indutype":"음식점업 - 한식","category":"restaurant"}]},{"lat":"37.423858107","long":"126.99922162","imageIndex":4,"items":[{"name":"오성감자탕","tel":"02-502-2389","addr":"경기도 과천시 중앙동 36번지 1단지 상가 135호","indutype":"음식점업 - 한식","category":"restaurant"}]},{"lat":"37.41600021","long":"126.98614105","imageIndex":4,"items":[{"name":"우렁추어탕","tel":"02-504-3680","addr":"경기도 과천시 중앙동 40-9번지 태양빌딩 1층 1호","indutype":"음식점업 - 한식","category":"restaurant"}]},{"lat":"37.455688686","long":"127.02405083","imageIndex":4,"items":[{"name":"우리곳간","tel":"02-502-4274","addr":"경기도 과천시 중앙동 40-4번지 동성빌딩 101호","indutype":"음식점업 - 한식","category":"restaurant"}]},{"lat":"37.461714649","long":"127.0321342","imageIndex":4,"items":[{"name":"우리바다","tel":"02-503-3777","addr":"경기도 과천시 중앙동 40-4번지 동성빌딩 205호","indutype":"음식점업 - 한식","category":"restaurant"}]},{"lat":"37.451383292","long":"127.01383309","imageIndex":4,"items":[{"name":"원조생고기두루치기","tel":"02-502-0113","addr":"경기도 과천시 중앙동 40-5번지 204(204호~205호)","indutype":"음식점업 - 한식","category":"restaurant"}]},{"lat":"37.434994543","long":"127.00561632","imageIndex":4,"items":[{"name":"장수돼지국밥","tel":"02-502-5657","addr":"경기도 과천시 중앙동 40-5번지 지하 1,2호","indutype":"음식점업 - 한식","category":"restaurant"}]},{"lat":"37.403862327","long":"126.97855396","imageIndex":4,"items":[{"name":"정화만두","tel":"02-504-0198","addr":"경기도 과천시 중앙동 40-5번지 중앙상가 101호","indutype":"음식점업 - 분식","category":"restaurant"}]},{"lat":"37.426911065","long":"126.98402593","imageIndex":4,"items":[{"name":"제주항","tel":"02-503-8892","addr":"경기도 과천시 중앙동 40-4번지 동성빌딩 2층 204,205호","indutype":"음식점업 - 한식 일반음식점업","category":"restaurant"}]},{"lat":"37.450518809","long":"127.00024874","imageIndex":4,"items":[{"name":"춘향골남원추어탕","tel":"02-503-8383","addr":"경기도 과천시 중앙동 40-8번지 명문빌딩 1층 1호","indutype":"음식점업 - 한식","category":"restaurant"}]},{"lat":"37.428858087","long":"126.99047665","imageIndex":4,"items":[{"name":"코창","tel":"02-504-8623","addr":"경기도 과천시 중앙동 40-9번지 태양빌딩 3층 301호","indutype":"음식점업 - 태국음식","category":"restaurant"}]},{"lat":"37.428524816","long":"126.99147094","imageIndex":4,"items":[{"name":"코피에이앤(AN)라온식탁","tel":"031-504-9050","addr":"경기도 과천시 중앙동 40-12번지 과천중앙빌딩 303호","indutype":"일반휴게음식 - 일반한식","category":"restaurant"}]},{"lat":"37.428218636","long":"126.99327866","imageIndex":4,"items":[{"name":"토르토니(과천2호점)","tel":"","addr":"경기도 과천시 중앙동 40-7번지 행진빌딩","indutype":"음식점업 - 기타음식","category":"restaurant"}]},{"lat":"37.449410553","long":"126.99931078","imageIndex":4,"items":[{"name":"통나무집","tel":"02-503-9555","addr":"경기도 과천시 중앙동 40-5번지 중앙상가 1층 105호","indutype":"음식점업 - 한식","category":"restaurant"}]},{"lat":"37.434021393","long":"126.99807994","imageIndex":4,"items":[{"name":"파리바게트(과천레미안점)","tel":"02-507-5413","addr":"경기도 과천시 중앙동 71번지 래미안에코팰리스","indutype":"음식점업 - 제과점","category":"restaurant"}]},{"lat":"37.427686932","long":"126.99200206","imageIndex":4,"items":[{"name":"파리바게트(과천중앙점)","tel":"02-507-2121","addr":"경기도 과천시 중앙동 40-12번지 대상빌딩101동4호~5호","indutype":"음식점업 - 제과점","category":"restaurant"}]},{"lat":"37.454239962","long":"127.00144661","imageIndex":4,"items":[{"name":"페니레인","tel":"070-4178-5130","addr":"경기도 과천시 중앙동 40-13번지 가보자빌딩 204호","indutype":"음식점업 - 호프","category":"restaurant"}]},{"lat":"37.449770924","long":"126.99844057","imageIndex":4,"items":[{"name":"한우받이 정육식당","tel":"02-3679-0568","addr":"경기도 과천시 중앙동 36번지 1단지 종합상가130-1,131-1,2호","indutype":"음식점업 - 육류","category":"restaurant"}]},{"lat":"37.442328641","long":"127.0076054","imageIndex":4,"items":[{"name":"홍샤오","tel":"02-504-0101","addr":"경기도 과천시 중앙동 6-2번지 과천시민회관 2층","indutype":"음식점업 - 중식","category":"restaurant"}]},{"lat":"37.42891224","long":"126.99139179","imageIndex":17,"items":[{"name":"(주)기천랑","tel":"02-502-7753","addr":"경기도 과천시 중앙동 40-5번지 중앙빌딩301~302호 301호","indutype":"용역 서비스 - 소프트웨어","category":"other"},{"name":"법무사 이미경사무소","tel":"02-504-0880","addr":"경기도 과천시 중앙동 40-5번지 중앙빌딩","indutype":"용역 서비스 - 법률회계서비스(개인)","category":"other"},{"name":"블룸블룸과천점","tel":"02-502-9893","addr":"경기도 과천시 중앙동 40-5번지 중앙빌딩 102호","indutype":"문화.취미 - 화원","category":"other"},{"name":"와룡공인중개사무소","tel":"02-3679-4589","addr":"경기도 과천시 중앙동 36번지 1단지 종합상가 101호","indutype":"부동산업 - 부동산중개업","category":"other"}]},{"lat":"37.428299546","long":"126.9912789","imageIndex":17,"items":[{"name":"(주)동원정보통신","tel":"02-504-6015","addr":"경기도 과천시 중앙동 40-11번지","indutype":"사무통신 - 통신기기","category":"other"},{"name":"(주)동원정보통신/특별할부","tel":"02-502-2017","addr":"경기도 과천시 중앙동 40-11번지","indutype":"사무통신 - 통신기기(무이자할부)","category":"other"},{"name":"(주)동원정보통신_PS","tel":"02-504-6015","addr":"경기도 과천시 중앙동 40-11번지","indutype":"사무통신 - 통신기기","category":"other"},{"name":"래미안할인마트","tel":"02-503-4845","addr":"경기도 과천시 중앙동 71번지 래미안에코팰리스 상가 1동 102호","indutype":"소매업 - 식잡","category":"other"},{"name":"상록수 노인복지센터","tel":"02-503-1253","addr":"경기도 과천시 중앙동 40-11번지 현대빌딩 402호","indutype":"기타의료기관 - 기타의료기관 및 기타","category":"other"},{"name":"씨유과천중앙점","tel":"02-503-5679","addr":"경기도 과천시 중앙동 40-11번지 현대빌딩 104호","indutype":"유통업 영리 - 편 의 점","category":"other"},{"name":"왕자스튜디오","tel":"02-503-8363","addr":"경기도 과천시 중앙동 40-11번지 현대빌라 109호","indutype":"광학제품 - 사진관","category":"other"},{"name":"크린토피아과천에코팰리스점","tel":"02-502-1771","addr":"경기도 과천시 중앙동 71번지 래미안에코팰리스 상가동 101호","indutype":"서비스 - 세탁중개","category":"other"},{"name":"황열세무회계사무소","tel":"02-507-7272","addr":"경기도 과천시 중앙동 40-11번지 현대빌딩 4층","indutype":"용역 서비스 - 법률회계서비스(개인)","category":"other"}]},{"lat":"37.429047367","long":"126.99114321","imageIndex":17,"items":[{"name":"(주)플러스건축사사무소","tel":"02-502-0400","addr":"경기도 과천시 중앙동 40-4번지 동서빌딩 5층","indutype":"용역 서비스 - 법률회계서비스(법인)","category":"other"},{"name":"서울베스트정형외과의원","tel":"02-502-7511","addr":"경기도 과천시 중앙동 40-10번지 고려빌딩 6층 601호","indutype":"보건업 - 정형외과","category":"other"},{"name":"알뜰정보","tel":"02-502-6400","addr":"경기도 과천시 중앙동 40-4번지 동성빌딩","indutype":"용역 서비스 - 종합용역","category":"other"},{"name":"에스코","tel":"02-3679-8244","addr":"경기도 과천시 중앙동 40-4번지 동성빌딩 402호","indutype":"서적문구 - 과학기자재","category":"other"},{"name":"에스코/원격지","tel":"02-3679-8244","addr":"경기도 과천시 중앙동 40-4번지 동성빌딩 402호","indutype":"기타 - 기타 전문점","category":"other"},{"name":"주식회사 제주아크로뷰","tel":"064-794-6397","addr":"경기도 과천시 중앙동 40-4번지 동성빌딩 5층 506호","indutype":"용역 서비스 - 부동산 중개·임대","category":"other"}]},{"lat":"37.4288311221","long":"126.9911093497","imageIndex":17,"items":[{"name":"2000당구장","tel":"02-504-4332","addr":"경기도 과천시 중앙동 40-6번지","indutype":"서비스 - 당구장","category":"other"}]},{"lat":"37.428714046","long":"126.99166297","imageIndex":17,"items":[{"name":"GS25과천중앙점","tel":"","addr":"경기도 과천시 중앙동 40-13번지 가보자빌딩 105호","indutype":"유통업 영리 - 편 의 점","category":"other"},{"name":"한국통신프리텔과천무이자할부","tel":"02-502-4016","addr":"경기도 과천시 중앙동 40-13번지 가보자빌딩 103호","indutype":"사무통신 - 통신기기(무이자할부)","category":"other"}]},{"lat":"37.431885376","long":"126.98969655","imageIndex":17,"items":[{"name":"HB코스메틱","tel":"070-8913-1146","addr":"경기도 과천시 중앙동 20-1번지","indutype":"회원제형태 - 기타1","category":"other"}]},{"lat":"37.43271462","long":"126.99297302","imageIndex":17,"items":[{"name":"loft E (로프트 이)","tel":"070-7135-4517","addr":"경기도 과천시 중앙동 36번지 1단지 상가 218호","indutype":"서적문구 - 문구용품","category":"other"},{"name":"과천종합인테리어","tel":"02-501-3511","addr":"경기도 과천시 중앙동 36번지 1단지 127호","indutype":"건축자재 - 인테리어전문","category":"other"},{"name":"다이수선","tel":"02-504-5111","addr":"경기도 과천시 중앙동 36번지 1차종합상가 116호","indutype":"수리서비스 - 세탁소","category":"other"},{"name":"디자인앤유","tel":"031-245-5511","addr":"경기도 과천시 중앙동 36번지 1차종합상가220-1","indutype":"서적문구 - 출판 및 인쇄물","category":"other"},{"name":"사단법인 아리수","tel":"02-507-3120","addr":"경기도 과천시 중앙동 36번지 1단지 상가 2층 220호","indutype":"문화.취미 - 티켓","category":"other"},{"name":"지인인테리어","tel":"02-507-5072","addr":"경기도 과천시 중앙동 36번지 종합상가제1층 119호","indutype":"건축자재 - 인테리어전문","category":"other"},{"name":"청 디자인","tel":"02-504-0196","addr":"경기도 과천시 중앙동 36번지 1단지상가 1층 1동 15호","indutype":"용역 서비스 - 기타용역서비스","category":"other"},{"name":"크린토피아","tel":"02-504-1525","addr":"경기도 과천시 중앙동 36번지 1차종합상가 1층 제125호","indutype":"수리서비스 - 세탁소","category":"other"}]},{"lat":"37.459354971","long":"127.02805302","imageIndex":17,"items":[{"name":"감초건강원","tel":"02-502-5207","addr":"경기도 과천시 중앙동 67번지 10단지복합상가 102호","indutype":"소매업 - 건강원","category":"other"},{"name":"크린토피아","tel":"02-504-1525","addr":"경기도 과천시 중앙동 36번지 1차종합상가 1층 제125호","indutype":"서비스 - 세탁중개","category":"other"}]},{"lat":"37.428578819","long":"126.99089473","imageIndex":17,"items":[{"name":"거성공인중개사","tel":"02-503-0001","addr":"경기도 과천시 중앙동 40-12번지 대상빌딩 102호","indutype":"서비스 - 부동산중개, 컨설팅","category":"other"},{"name":"씨유(과천중앙점)","tel":"02-503-5679","addr":"경기도 과천시 중앙동 40-11번지 현대빌딩 104호","indutype":"소매업 - 편의점","category":"other"}]},{"lat":"37.460966625","long":"127.03291381","imageIndex":17,"items":[{"name":"경북 방앗간","tel":"02-503-4440","addr":"경기도 과천시 중앙동 36번지 1단지 지층 16호","indutype":"도소매 - 방앗간","category":"other"}]},{"lat":"37.420578027","long":"126.99225162","imageIndex":17,"items":[{"name":"경희대올림픽태권도장","tel":"02-503-1246","addr":"경기도 과천시 중앙동 70번지 청운빌딩 4층","indutype":"서비스 - 태권도","category":"other"},{"name":"과천종합인테리어","tel":"02-502-3511","addr":"경기도 과천시 중앙동 36번지 1단지 종합상가 127호","indutype":"서비스 - 인테리어","category":"other"},{"name":"미래공인중개사사무소","tel":"02-502-7700","addr":"경기도 과천시 중앙동 70번지 청운빌딩 103호","indutype":"서비스 - 부동산컨설팅","category":"other"},{"name":"청디자인","tel":"02-504-0196","addr":"경기도 과천시 중앙동 36번지 1단지상가 1동 1층 15호","indutype":"도소매 - 가구및생활용품","category":"other"}]},{"lat":"37.428632901","long":"126.99110938","imageIndex":17,"items":[{"name":"공간샘스터디카페 과천점","tel":"031-000-0000","addr":"경기도 과천시 중앙동 40-7번지 행진빌딩 5층","indutype":"용역 서비스 - 사무서비스","category":"other"},{"name":"북마트","tel":"02-3679-8807","addr":"경기도 과천시 중앙동 40-7번지 행진빌딩 지하1층 1호","indutype":"서적문구 - 일반서적","category":"other"},{"name":"북마트","tel":"02-3679-8807","addr":"경기도 과천시 중앙동 40-7번지 행진빌딩 지하1층 1호","indutype":"서적문구 - 일반서적","category":"other"},{"name":"지유명차(과천점)","tel":"02-503-5634","addr":"경기도 과천시 중앙동 71번지 래미안에코팰리스상가1동 103호","indutype":"도소매 - 차, 다기류","category":"other"}]},{"lat":"37.427911942","long":"126.98964076","imageIndex":17,"items":[{"name":"과천 더멀티 스포츠","tel":"","addr":"경기도 과천시 중앙동 6-2번지 1층","indutype":"레져용품 - 스포츠·레져용품","category":"other"},{"name":"과천스포츠","tel":"02-502-4947","addr":"경기도 과천시 중앙동 6-2번지 1층","indutype":"레져용품 - 스포츠·레져용품","category":"other"},{"name":"과천아레나","tel":"02-502-9616","addr":"경기도 과천시 중앙동 6-2번지 과천시민관리공단 1층","indutype":"레져용품 - 스포츠·레져용품","category":"other"},{"name":"과천연마실","tel":"02-507-7771","addr":"경기도 과천시 중앙동 6-2번지 시민회관 지하2층","indutype":"수리서비스 - 기타수리서비스","category":"other"},{"name":"극단 모시는 사람들","tel":"02-507-6487","addr":"경기도 과천시 중앙동 6-2 과천시민회관2층","indutype":"문화.취미 - 티켓","category":"other"},{"name":"누벵코리아","tel":"02-507-7979","addr":"경기도 과천시 중앙동 6-2번지 과천시민회관 1층","indutype":"레져용품 - 스포츠·레져용품","category":"other"},{"name":"스케이트 메이트","tel":"031-309-4767","addr":"경기도 과천시 중앙동 6-2번지 과천시민회관 지하2층","indutype":"레져용품 - 스포츠·레져용품","category":"other"}]},{"lat":"37.434272581","long":"126.98611438","imageIndex":17,"items":[{"name":"과천골프연습장","tel":"02-504-2233","addr":"경기도 과천시 중앙동 산10번지","indutype":"회원제형태 - 레져업소","category":"other"}]},{"lat":"37.428858087","long":"126.99047665","imageIndex":17,"items":[{"name":"과천농협중앙지점","tel":"02-502-3567","addr":"경기도 과천시 중앙동 40-2번지","indutype":"유통업 영리 - 상품권","category":"other"},{"name":"과천농협중앙지점","tel":"02-502-3567","addr":"경기도 과천시 중앙동 40-2번지","indutype":"유통업 비영리 - 농,축협 직영매장","category":"other"},{"name":"과천청년회의소","tel":"02-503-6328","addr":"경기도 과천시 중앙동 40-2번지","indutype":"기타 - 비영리/대상","category":"other"},{"name":"법무사이관춘사무소","tel":"02-504-0096","addr":"경기도 과천시 중앙동 40-2번지 과천농협중앙지소 1층","indutype":"용역 서비스 - 법률회계서비스(개인)","category":"other"}]},{"lat":"37.428777645","long":"127.00197811","imageIndex":17,"items":[{"name":"과천농협중앙지점","tel":"02-502-3567","addr":"경기도 과천시 중앙동 40-2번지","indutype":"도소매 -","category":"other"}]},{"lat":"37.427245524","long":"126.99295115","imageIndex":17,"items":[{"name":"과천당구클럽","tel":"02-502-3297","addr":"경기도 과천시 중앙동 40-9번지 태양빌딩 6층 601호","indutype":"서비스 - 당구장","category":"other"},{"name":"블룸블룸(과천점)","tel":"02-502-9893","addr":"경기도 과천시 중앙동 40-5번지 중앙빌딩 102호","indutype":"소매업 - 꽃집","category":"other"}]},{"lat":"37.429272193","long":"126.98744868","imageIndex":17,"items":[{"name":"과천시보건소","tel":"02-2150-3840","addr":"경기도 과천시 중앙동 1-3번지","indutype":"기타 - 비영리/대상","category":"other"}]},{"lat":"37.426749933","long":"126.9924993","imageIndex":17,"items":[{"name":"과천아레나","tel":"02-502-9616","addr":"경기도 과천시 중앙동 6-2번지 과천시민관리공단 1층","indutype":"소매업 - 수영복용품","category":"other"},{"name":"소망공인중개사사무소","tel":"02-507-2400","addr":"경기도 과천시 중앙동 36번지 1단지 종합상가 109호","indutype":"부동산업 - 부동산중개업","category":"other"},{"name":"예다한치과","tel":"02-507-8833","addr":"경기도 과천시 중앙동 41-1번지 케이티스마트타워 3층","indutype":"보건업 - 치과","category":"other"},{"name":"오복부동산","tel":"02-502-2418","addr":"경기도 과천시 중앙동 36번지 1단지 상가 117호","indutype":"부동산업 - 부동산중개업","category":"other"},{"name":"태후사랑","tel":"02-507-2079","addr":"경기도 과천시 중앙동 40-4번지 동성빌딩 3층 307호","indutype":"소매업 - 화장품","category":"other"},{"name":"한빛공인중개사","tel":"02-504-0100","addr":"경기도 과천시 중앙동 71번지 중앙동일반상가 2동 101호","indutype":"부동산업 - 부동산중개업","category":"other"},{"name":"해법희망중국어","tel":"02-503-9797","addr":"경기도 과천시 중앙동 36번지 1단지 종합상가 114호","indutype":"교육서비스업 - 중국어","category":"other"}]},{"lat":"37.426218277","long":"126.99181022","imageIndex":17,"items":[{"name":"과천아름다운치과","tel":"02-502-2875","addr":"경기도 과천시 중앙동 40-12번지 과천중앙빌딩","indutype":"보건업 - 치과","category":"other"}]},{"lat":"37.429047731","long":"126.99569635","imageIndex":17,"items":[{"name":"과천약국","tel":"02-503-1570","addr":"경기도 과천시 중앙동 40-13번지 가보자빌딩","indutype":"소매업 - 양약","category":"other"}]},{"lat":"37.428831122","long":"126.99110935","imageIndex":17,"items":[{"name":"과천임상심리연구소","tel":"02-3418-0502","addr":"경기도 과천시 중앙동 40-13번지 가보자빌딩 4층 404호","indutype":"서비스 - 심리상담","category":"other"},{"name":"일지사","tel":"02-503-6971","addr":"경기도 과천시 중앙동 40-6 대영빌딩지하 1층","indutype":"서적문구 - 출판 및 인쇄물","category":"other"}]},{"lat":"37.440274086","long":"126.99361611","imageIndex":17,"items":[{"name":"다원대중사우나","tel":"02-50-5040","addr":"경기도 과천시 중앙동 40-11번지 현대빌딩 지하2층 1호","indutype":"서비스 - 대중목욕탕","category":"other"}]},{"lat":"37.443463914","long":"127.00733427","imageIndex":17,"items":[{"name":"다이옷수선","tel":"02-503-5111","addr":"경기도 과천시 중앙동 36번지 1차 종합상가 116호","indutype":"서비스 - 옷수선","category":"other"}]},{"lat":"37.428191537","long":"126.99247651","imageIndex":17,"items":[{"name":"동성대중목욕탕","tel":"02-502-9055","addr":"경기도 과천시 중앙동 40-4번지 동성빌딩","indutype":"서비스 - 대중탕","category":"other"},{"name":"아이디얼 필라테스","tel":"","addr":"경기도 과천시 중앙동 40-10번지 고려빌딩 4층 404호","indutype":"서비스 - 필라테스","category":"other"},{"name":"왕자스튜디오","tel":"02-503-8363","addr":"경기도 과천시 중앙동 40-11번지 현대빌딩 B-2호","indutype":"서비스 - 사진촬영","category":"other"}]},{"lat":"37.454437593","long":"127.01477159","imageIndex":17,"items":[{"name":"동아공인중개사사무소","tel":"02-502-5000","addr":"경기도 과천시 중앙동 36번지 1차종합상가 120호","indutype":"서비스 - 부동산중개업","category":"other"}]},{"lat":"37.426911065","long":"126.98402593","imageIndex":17,"items":[{"name":"디오플라워","tel":"","addr":"경기도 과천시 중앙동 1번지 정부과천청사 지층","indutype":"문화.취미 - 화원","category":"other"},{"name":"만물사","tel":"02-503-4603","addr":"경기도 과천시 중앙동 1번지 후생관","indutype":"기타 - 기계공구","category":"other"},{"name":"선경공인중개사사무소","tel":"02-503-3030","addr":"경기도 과천시 중앙동 71, 래미안에코팰리스상가2동 101호","indutype":"부동산업 - 부동산중개업","category":"other"},{"name":"정부과천청사우체국","tel":"02-503-7757","addr":"경기도 과천시 중앙동 1번지","indutype":"용역 서비스 - 공공요금대행서비스/소","category":"other"},{"name":"정부청사복지매장 주식회사","tel":"","addr":"경기도 과천시 중앙동 1번지 정부과천청사 후생관","indutype":"신변잡화 - 기타잡화","category":"other"}]},{"lat":"37.426993461","long":"126.99602419","imageIndex":17,"items":[{"name":"라파안마원","tel":"02-507-8575","addr":"경기도 과천시 중앙동 40-13번지 가보자빌딩 404호","indutype":"서비스 - 안마","category":"other"}]},{"lat":"37.428083503","long":"126.99350464","imageIndex":17,"items":[{"name":"래미안더샵공인중개사사무소","tel":"02-504-3404","addr":"경기도 과천시 중앙동 70번지 102호","indutype":"부동산업 - 부동산중개업","category":"other"}]},{"lat":"37.428524816","long":"126.99147094","imageIndex":17,"items":[{"name":"룬펠(LUNPEL)","tel":"02-502-7100","addr":"경기도 과천시 중앙동 40-12번지 대상빌딩 303호","indutype":"신변잡화 - 가방","category":"other"},{"name":"맨발의청춘휘트니스(과천점)","tel":"02-504-0070","addr":"경기도 과천시 중앙동 40-12번지 과천중앙빌딩 4층","indutype":"레져용품 - 스포츠·레져용품","category":"other"},{"name":"크라스플러스 과천중앙점","tel":"02-3678-8209","addr":"경기도 과천시 중앙동 40-12번지 과천중앙빌딩 6층 601호","indutype":"용역 서비스 - 사무서비스","category":"other"}]},{"lat":"37.428326791","long":"126.99371927","imageIndex":17,"items":[{"name":"마누스","tel":"02-502-5504","addr":"경기도 과천시 중앙동 40-5번지 중앙빌딩 201-3","indutype":"도소매 - 화장품","category":"other"}]},{"lat":"37.431164865","long":"126.99264557","imageIndex":17,"items":[{"name":"명문세탁소","tel":"02-507-2048","addr":"경기도 과천시 중앙동 36번지 주공1차 종합상가 219호","indutype":"서비스 - 세탁업","category":"other"}]},{"lat":"37.411189961","long":"126.99910928","imageIndex":17,"items":[{"name":"명품노래연습장","tel":"02-504-6692","addr":"경기도 과천시 중앙동 40-11번지 현대빌딩 4층","indutype":"서비스 - 노래방","category":"other"}]},{"lat":"37.433498472","long":"126.99272435","imageIndex":17,"items":[{"name":"미래공인중개사사무소","tel":"02-502-7700","addr":"경기도 과천시 중앙동 70번지 청운빌딩 103호","indutype":"용역 서비스 - 부동산 중개·임대","category":"other"}]},{"lat":"37.434102297","long":"126.99469027","imageIndex":17,"items":[{"name":"미래광고기획","tel":"02-502-7946","addr":"경기도 과천시 중앙동 67번지 삼성 상가 지하층 2호","indutype":"용역 서비스 - 종합용역","category":"other"},{"name":"삼성세탁","tel":"02-502-2526","addr":"경기도 과천시 중앙동 67 주공10단지삼성상가 204호","indutype":"수리서비스 - 세탁소","category":"other"}]},{"lat":"37.430966236","long":"126.98869116","imageIndex":17,"items":[{"name":"본하우스","tel":"02-518-3612","addr":"경기도 과천시 중앙동 22-5번지","indutype":"직물 - 옷감·직물","category":"other"}]},{"lat":"37.415134216","long":"126.9800075","imageIndex":17,"items":[{"name":"부동산닥터공인중개사사무소","tel":"02-504-8100","addr":"경기도 과천시 중앙동 36번지 1단지 종합상가 122호","indutype":"부동산업 - 부동산중개업","category":"other"}]},{"lat":"37.432687504","long":"126.99200134","imageIndex":17,"items":[{"name":"비와이이엔지","tel":"070-7419-8549","addr":"경기도 과천시 중앙동 35-6번지 102호","indutype":"용역 서비스 - 기타용역서비스","category":"other"}]},{"lat":"37.428245444","long":"126.99086089","imageIndex":17,"items":[{"name":"사막여우국어교습소","tel":"","addr":"경기도 과천시 중앙동 40-4번지 동성빌딩 4층 406호","indutype":"교육서비스업 - 국어","category":"other"},{"name":"스터디센터","tel":"02-504-2929","addr":"경기도 과천시 중앙동 40-10번지 502호 (중앙,동,고려빌딩)","indutype":"용역 서비스 - 사무서비스","category":"other"},{"name":"토즈멤버십라운지 과천1센터","tel":"02-502-7322","addr":"경기도 과천시 중앙동 40-10번지 고려빌딩 4층","indutype":"용역 서비스 - 사무서비스","category":"other"}]},{"lat":"37.427686932","long":"126.99200206","imageIndex":17,"items":[{"name":"삼성세탁","tel":"02-502-2526","addr":"경기도 과천시 중앙동 67번지 주공10단지삼성 상가 204호","indutype":"서비스 - 세탁업","category":"other"}]},{"lat":"37.440823686","long":"126.99346915","imageIndex":17,"items":[{"name":"서울세탁소","tel":"02-502-2029","addr":"경기도 과천시 중앙동 36, 216호","indutype":"서비스 - 세탁업","category":"other"}]},{"lat":"37.418081337","long":"126.9848076","imageIndex":17,"items":[{"name":"스마트약국","tel":"02-3679-4888","addr":"경기도 과천시 중앙동 41-1번지 케이티스마트타워 3층","indutype":"소매업 - 의약품","category":"other"}]},{"lat":"37.45085192","long":"127.01114328","imageIndex":17,"items":[{"name":"스케이트 메이트","tel":"02-504-2285","addr":"경기도 과천시 중앙동 6-2번지 과천시민회관 지하2층","indutype":"소매업 - 스케이트용품","category":"other"}]},{"lat":"37.444247869","long":"127.00302886","imageIndex":17,"items":[{"name":"신성정육점","tel":"02-503-0568","addr":"경기도 과천시 중앙동 36번지 1차상가 지층1호","indutype":"소매업 - 식육","category":"other"}]},{"lat":"37.449996153","long":"126.9979207","imageIndex":17,"items":[{"name":"씨유과천래미안점","tel":"02-3679-1104","addr":"경기도 과천시 중앙동 71번지 래미안 에코팰리스 2동 1층 102호","indutype":"소매업 - 편의점","category":"other"}]},{"lat":"37.434705902","long":"126.99377499","imageIndex":17,"items":[{"name":"씨유과천래미안점","tel":"02-3679-1104","addr":"경기도 과천시 중앙동 71번지 래미안 에코팰리스 2동 1층 102호","indutype":"유통업 영리 - 편 의 점","category":"other"}]},{"lat":"37.456299784","long":"127.03155568","imageIndex":17,"items":[{"name":"아이마트안경","tel":"02-504-6900","addr":"경기도 과천시 중앙동 40-12번지 대상빌딩 101호","indutype":"소매업 - 안경","category":"other"}]},{"lat":"37.451769284","long":"127.02433227","imageIndex":17,"items":[{"name":"아이센스 PC방(과천점)","tel":"070-7007-2233","addr":"경기도 과천시 중앙동 40-13번지 지하2층","indutype":"서비스 - 컴퓨터게임방운영","category":"other"}]},{"lat":"37.404051929","long":"126.98053041","imageIndex":17,"items":[{"name":"앵두언니 마카롱","tel":"","addr":"경기도 과천시 중앙동 40-11번지 현대빌딩 209호","indutype":"소매업 - 제과","category":"other"}]},{"lat":"37.449329439","long":"126.99858751","imageIndex":17,"items":[{"name":"언어엔논리학원","tel":"02-503-1221","addr":"경기도 과천시 중앙동 40-4번지 동성빌딩 4층 401호","indutype":"교육서비스업 - 논술","category":"other"}]},{"lat":"37.450933044","long":"126.99514049","imageIndex":17,"items":[{"name":"에스에스당구장","tel":"02-504-0014","addr":"경기도 과천시 중앙동 40-5번지 중앙상가 5층 501호","indutype":"서비스 - 당구장","category":"other"}]},{"lat":"37.44827514","long":"127.00986598","imageIndex":17,"items":[{"name":"에스에이테크","tel":"02-502-8580","addr":"경기도 과천시 중앙동 40-11번지 현대빌딩 110호","indutype":"도소매 - 휴대폰,악세서리","category":"other"}]},{"lat":"37.427470731","long":"126.99244271","imageIndex":17,"items":[{"name":"엠일공팔스터디클럽","tel":"02-504-0108","addr":"경기도 과천시 중앙동 40-7번지 4층","indutype":"교육서비스업 - 수학","category":"other"}]},{"lat":"37.429858048","long":"126.9890868","imageIndex":17,"items":[{"name":"예양육각수","tel":"","addr":"경기도 과천시 중앙동 25-7번지 B102호호","indutype":"주방용구 - 정수기","category":"other"}]},{"lat":"37.427939294","long":"126.99291716","imageIndex":17,"items":[{"name":"온더데스크독서실","tel":"02-504-2929","addr":"경기도 과천시 중앙동 40-10번지 고려빌딩 503호","indutype":"서비스 - 독서실","category":"other"}]},{"lat":"37.460245747","long":"127.0332187","imageIndex":17,"items":[{"name":"우리서울이비인후과","tel":"02-3679-3157","addr":"경기도 과천시 중앙동 41-1번지 케이티스마트타워 3층","indutype":"보건업 - 이비인후과","category":"other"}]},{"lat":"37.456381921","long":"127.02685398","imageIndex":17,"items":[{"name":"이기헌 내과의원","tel":"02-483-3435","addr":"경기도 과천시 중앙동 41-1번지 케이티스마트타워 3층","indutype":"보건업 - 내과","category":"other"}]},{"lat":"37.428804061","long":"126.99080431","imageIndex":17,"items":[{"name":"이은신경외과의원","tel":"02-578-9336","addr":"경기도 과천시 중앙동 41-1번지 5층서측","indutype":"보건업 - 신경외과","category":"other"},{"name":"토크디자인(TALK DESIGN)","tel":"02-504-3333","addr":"경기도 과천시 중앙동 40-8번지 영문빌딩 3층 305호","indutype":"유통업 영리 - 기타유통업","category":"other"}]},{"lat":"37.433966773","long":"126.99041931","imageIndex":17,"items":[{"name":"주식회사 에프리빙","tel":"02-6959-9630","addr":"경기도 과천시 중앙동 14-4번지","indutype":"주방용구 - 주방용구","category":"other"}]},{"lat":"37.448131013","long":"126.9964969","imageIndex":17,"items":[{"name":"크라스플러스과천중앙독서실","tel":"02-3678-8209","addr":"경기도 과천시 중앙동 40-12번지 과천중앙빌딩 601호","indutype":"서비스 - 독서실운영","category":"other"}]},{"lat":"37.43424629","long":"126.99255476","imageIndex":17,"items":[{"name":"크린토피아과천에코팰리스점","tel":"02-502-1771","addr":"경기도 과천시 중앙동 71번지 래미안에코팰리스 상가동 101호","indutype":"수리서비스 - 세탁소","category":"other"}]},{"lat":"37.413496258","long":"126.99391311","imageIndex":17,"items":[{"name":"토즈 멤버십라운지","tel":"02-502-7322","addr":"경기도 과천시 중앙동 40-10번지 고려빌딩 4층","indutype":"서비스 - 회의실운영","category":"other"}]},{"lat":"37.430444378","long":"126.99739097","imageIndex":17,"items":[{"name":"풀장집","tel":"02-502-3775","addr":"경기도 과천시 중앙동 산10번지","indutype":"소매업 - 잡화","category":"other"}]},{"lat":"37.454380899","long":"127.03052647","imageIndex":17,"items":[{"name":"한양부동산담배","tel":"02-502-2603","addr":"경기도 과천시 중앙동 40-5번지 중앙빌딩 106호","indutype":"소매업 - 담배","category":"other"}]},{"lat":"37.431524804","long":"126.98825041","imageIndex":17,"items":[{"name":"한양부동산컨설팅","tel":"02-502-2603","addr":"경기도 과천시 중앙동 10-5번지","indutype":"용역 서비스 - 부동산 중개·임대","category":"other"}]},{"lat":"37.455633443","long":"127.02986011","imageIndex":17,"items":[{"name":"한양부동산컨설팅","tel":"02-502-2603","addr":"경기도 과천시 중앙동 40-5, 106","indutype":"서비스 - 부동산중개업","category":"other"}]},{"lat":"37.428831122","long":"126.99110935","imageIndex":13,"items":[{"name":"2000당구장","tel":"02-504-4332","addr":"경기도 과천시 중앙동 40-6번지","indutype":"레저업소 - 당 구 장","category":"leisure"}]},{"lat":"37.428578819","long":"126.99089473","imageIndex":13,"items":[{"name":"과천당구클럽","tel":"02-502-3297","addr":"경기도 과천시 중앙동 40-9번지 태양빌딩 6층 601호","indutype":"레저업소 - 당 구 장","category":"leisure"}]},{"lat":"37.433498472","long":"126.99272435","imageIndex":13,"items":[{"name":"과천복싱체육관","tel":"031-502-8524","addr":"경기도 과천시 중앙동 70번지 청운빌딩 지하1층","indutype":"레저업소 - 헬스클럽","category":"leisure"}]},{"lat":"37.428299546","long":"126.9912789","imageIndex":13,"items":[{"name":"명품노래연습장","tel":"02-504-6692","addr":"경기도 과천시 중앙동 40-11번지 현대빌딩 3층 307호","indutype":"레저업소 - 노 래 방","category":"leisure"},{"name":"현대당구장","tel":"02-504-3836","addr":"경기도 과천시 중앙동 40-11번지","indutype":"레저업소 - 당 구 장","category":"leisure"}]},{"lat":"37.428245444","long":"126.99086089","imageIndex":13,"items":[{"name":"아이디얼 필라테스","tel":"031-111-1111","addr":"경기도 과천시 중앙동 40-10번지 고려빌딩 4층 404호","indutype":"레저업소 - 헬스클럽","category":"leisure"}]},{"lat":"37.428714046","long":"126.99166297","imageIndex":13,"items":[{"name":"아이센스 PC방 과천점","tel":"070-9496-8133","addr":"경기도 과천시 중앙동 40-13번지 지하2층","indutype":"레저업소 - 기타레져업소","category":"leisure"}]},{"lat":"37.42891224","long":"126.99139179","imageIndex":13,"items":[{"name":"에스에스당구장","tel":"02-504-0014","addr":"경기도 과천시 중앙동 40-5번지 중앙빌딩 5층 501호","indutype":"레저업소 - 당 구 장","category":"leisure"}]},{"lat":"37.43271462","long":"126.99297302","imageIndex":13,"items":[{"name":"HOBBYKING(하비킹)","tel":"02-502-3749","addr":"경기도 과천시 중앙동 36번지 과천1차 종합상가 3층 305호","indutype":"보건위생 - 화장품","category":"beauty"},{"name":"미림헤어뉴스","tel":"02-503-3537","addr":"경기도 과천시 중앙동 36번지 1단지 상가 130호","indutype":"보건위생 - 미용원","category":"beauty"}]},{"lat":"37.428326791","long":"126.99371927","imageIndex":13,"items":[{"name":"美林헤어뉴스","tel":"02-503-3537","addr":"경기도 과천시 중앙동 40-5번지 중앙빌딩 2층 207호","indutype":"서비스 - 미용업","category":"beauty"}]},{"lat":"37.428714046","long":"126.99166297","imageIndex":13,"items":[{"name":"과천임상심리연구소","tel":"031-3418-0502","addr":"경기도 과천시 중앙동 40-13번지 가보자빌딩 4층 404호","indutype":"보건위생 - 기타대인서비스","category":"beauty"}]},{"lat":"37.428299546","long":"126.9912789","imageIndex":13,"items":[{"name":"다원대중사우나","tel":"02-503-5040","addr":"경기도 과천시 중앙동 40-11번지 현대빌딩 지하2층 1호","indutype":"보건위생 - 사우나","category":"beauty"}]},{"lat":"37.429299707","long":"126.99175327","imageIndex":13,"items":[{"name":"데상쥬피부 스킨","tel":"02-504-7440","addr":"경기도 과천시 중앙동 41-1번지 kt과천스마트타워 3층","indutype":"보건위생 - 피부미용실","category":"beauty"},{"name":"쟈크데샹쥬헤어과천점","tel":"02-504-7447","addr":"경기도 과천시 중앙동 41-1번지 케이티과천스마트타워 3층","indutype":"보건위생 - 미용원","category":"beauty"}]},{"lat":"37.429047367","long":"126.99114321","imageIndex":13,"items":[{"name":"동성대중목욕탕","tel":"02-502-9055","addr":"경기도 과천시 중앙동 40-4번지 동성빌딩","indutype":"보건위생 - 사우나","category":"beauty"},{"name":"소정헤어","tel":"02-503-8067","addr":"경기도 과천시 중앙동 67번지 10단지복합상가 2층 207호","indutype":"서비스 - 일반미용업","category":"beauty"},{"name":"태후사랑","tel":"02-507-2079","addr":"경기도 과천시 중앙동 40-4번지 동성빌딩 3층 307호","indutype":"보건위생 - 화장품","category":"beauty"},{"name":"헤어립","tel":"02-504-3629","addr":"경기도 과천시 중앙동 40-4번지 동성빌딩 303호","indutype":"보건위생 - 미용원","category":"beauty"}]},{"lat":"37.42891224","long":"126.99139179","imageIndex":13,"items":[{"name":"마누스","tel":"02-502-5504","addr":"경기도 과천시 중앙동 40-5번지 중앙빌딩 201-3동 2층","indutype":"보건위생 - 피부미용실","category":"beauty"}]},{"lat":"37.426911065","long":"126.98402593","imageIndex":13,"items":[{"name":"신세기안경 정부청사점","tel":"02-9453-0037","addr":"경기도 과천시 중앙동 1번지 정부과천청사 후생관","indutype":"보건위생 - 안경","category":"beauty"}]},{"lat":"37.428524816","long":"126.99147094","imageIndex":13,"items":[{"name":"아모레","tel":"02-507-3989","addr":"경기도 과천시 중앙동 40-12번지 대상빌딩 504동 505호","indutype":"보건위생 - 화장품","category":"beauty"},{"name":"아이마트안경","tel":"02-504-6900","addr":"경기도 과천시 중앙동 40-12번지 대상빌딩 1층 101호","indutype":"보건위생 - 안경","category":"beauty"}]},{"lat":"37.428245444","long":"126.99086089","imageIndex":13,"items":[{"name":"약손명가에스테틱과천점","tel":"02-504-3343","addr":"경기도 과천시 중앙동 40-10번지 고려빌딩 3층 301호","indutype":"보건위생 - 피부미용실","category":"beauty"},{"name":"토리헤어","tel":"02-502-5630","addr":"경기도 과천시 중앙동 40-10번지 고려빌딩 3층","indutype":"보건위생 - 미용원","category":"beauty"}]},{"lat":"37.452744296","long":"127.00108499","imageIndex":13,"items":[{"name":"쟈크데샹쥬헤어(과천점)","tel":"02-504-7447","addr":"경기도 과천시 중앙동 41-1번지 케이티스마트타워 3층","indutype":"서비스 - 미용업","category":"beauty"}]},{"lat":"37.427686932","long":"126.99200206","imageIndex":13,"items":[{"name":"토리헤어","tel":"02-502-5630","addr":"경기도 과천시 중앙동 40-10번지 고려빌딩 3층","indutype":"서비스 - 미용실","category":"beauty"}]},{"lat":"37.428083503","long":"126.99350464","imageIndex":13,"items":[{"name":"헤어립","tel":"02-504-3629","addr":"경기도 과천시 중앙동 40-4번지 동성빌딩 303호","indutype":"서비스 - 미용실","category":"beauty"}]},{"lat":"37.434642829","long":"126.9937411","imageIndex":13,"items":[{"name":"헤어아트샤갈","tel":"02-504-8999","addr":"경기도 과천시 중앙동 71번지 래미안에코팰리스 상가 1동 101호","indutype":"보건위생 - 미용원","category":"beauty"}]},{"lat":"37.434273668","long":"126.99794433","imageIndex":13,"items":[{"name":"헤어아트샤갈","tel":"02-504-8999","addr":"경기도 과천시 중앙동 71번지 래미안에코팰리스 상가 1동 101호","indutype":"서비스 - 미용업","category":"beauty"}]},{"lat":"37.428578819","long":"126.99089473","imageIndex":16,"items":[{"name":"가우디미술학원","tel":"02-502-3222","addr":"경기도 과천시 중앙동 40-9번지 정빌딩 401,402호","indutype":"학원 - 예·체능계학원","category":"study"}]},{"lat":"37.445049676","long":"127.00735696","imageIndex":16,"items":[{"name":"가우디미술학원","tel":"","addr":"경기도 과천시 중앙동 40-9번지 정빌딩 401,402호","indutype":"교육서비스업 - 미술학원","category":"study"}]},{"lat":"37.433498472","long":"126.99272435","imageIndex":16,"items":[{"name":"경희대올림픽태권도장","tel":"02-503-1246","addr":"경기도 과천시 중앙동 70번지 청운빌딩 4층","indutype":"학원 - 예·체능계학원","category":"study"}]},{"lat":"37.42891224","long":"126.99139179","imageIndex":16,"items":[{"name":"과천리빙텔","tel":"02-503-4383","addr":"경기도 과천시 중앙동 40-5번지 중앙상가 601호","indutype":"학원 - 독서실","category":"study"}]},{"lat":"37.432326698","long":"126.98825025","imageIndex":16,"items":[{"name":"과천여자고등학교","tel":"031-502-3313","addr":"경기도 과천시 중앙동 11번지","indutype":"학원 - 초중고교육기관","category":"study"},{"name":"과천외국어고등학교","tel":"070-4800-3465","addr":"경기도 과천시 중앙동 11번지","indutype":"학원 - 초중고교육기관","category":"study"},{"name":"학교법인충북학원","tel":"02-502-3355","addr":"경기도 과천시 중앙동 11번지","indutype":"학원 - 대학등록금","category":"study"}]},{"lat":"37.432993579","long":"126.98941389","imageIndex":16,"items":[{"name":"과천중학교","tel":"02-502-2940","addr":"경기도 과천시 중앙동 12번지 과천중학교","indutype":"학원 - 초중고교육기관","category":"study"}]},{"lat":"37.434074913","long":"126.99061138","imageIndex":16,"items":[{"name":"과천천사유치원[아이행복]","tel":"02-503-5844","addr":"경기도 과천시 중앙동 14-6번지","indutype":"학원 - 유치원","category":"study"}]},{"lat":"37.426911065","long":"126.98402593","imageIndex":16,"items":[{"name":"과천청사 청초롬 어린이집[아이행복]","tel":"02-3679-3774","addr":"경기도 과천시 중앙동 1번지 정부과천청사","indutype":"학원 - 유아원","category":"study"}]},{"lat":"37.436580011","long":"126.99407984","imageIndex":16,"items":[{"name":"과천초등학교","tel":"02-504-0456","addr":"경기도 과천시 중앙동 75번지 과천초등학교","indutype":"학원 - 초중고교육기관","category":"study"}]},{"lat":"37.428299546","long":"126.9912789","imageIndex":16,"items":[{"name":"국선도","tel":"02-504-7648","addr":"경기도 과천시 중앙동 40-11번지 현대빌딩 501호","indutype":"학원 - 기타 교육기관","category":"study"}]},{"lat":"37.428714046","long":"126.99166297","imageIndex":16,"items":[{"name":"군계일학국어교습소","tel":"02-3418-5001","addr":"경기도 과천시 중앙동 40-13번지 가보자빌딩 504호","indutype":"회원제형태 - 학원","category":"study"}]},{"lat":"37.428245444","long":"126.99086089","imageIndex":16,"items":[{"name":"동방불패수학학원","tel":"02-504-7925","addr":"경기도 과천시 중앙동 40-10번지 고려빌딩 403호","indutype":"학원 - 보습학원","category":"study"},{"name":"상아학원","tel":"02-503-1848","addr":"경기도 과천시 중앙동 40-10번지 고려빌딩 6층","indutype":"학원 - 보습학원","category":"study"},{"name":"온더데스크독서실","tel":"02-504-2929","addr":"경기도 과천시 중앙동 40-10번지 고려빌딩 503호","indutype":"학원 - 독서실","category":"study"},{"name":"토즈스터디센터 과천1독서실","tel":"02-502-7322","addr":"경기도 과천시 중앙동 40-10번지 고려빌딩 4층 401호","indutype":"학원 - 독서실","category":"study"}]},{"lat":"37.427245524","long":"126.99295115","imageIndex":16,"items":[{"name":"동방불패수학학원","tel":"02-504-7925","addr":"경기도 과천시 중앙동 40-10번지 고려빌딩 403호","indutype":"교육서비스업 - 학원","category":"study"}]},{"lat":"37.43271462","long":"126.99297302","imageIndex":16,"items":[{"name":"두발로걷는고양이미술교습소","tel":"02-502-5451","addr":"경기도 과천시 중앙동 36번지 1차종합상가 127호","indutype":"학원 - 예·체능계학원","category":"study"},{"name":"트리니티음악학원","tel":"02-503-0269","addr":"경기도 과천시 중앙동 36번지 1단지 종합상가 301호","indutype":"학원 - 예·체능계학원","category":"study"}]},{"lat":"37.459354971","long":"127.02805302","imageIndex":16,"items":[{"name":"등대지기학원","tel":"","addr":"경기도 과천시 중앙동 40-7번지 행진빌딩 3층 301호","indutype":"교육서비스업 - 입시, 보습학원","category":"study"}]},{"lat":"37.428632901","long":"126.99110938","imageIndex":16,"items":[{"name":"등대지기학원","tel":"02-3418-3506","addr":"경기도 과천시 중앙동 40-7번지 행진빌딩 301호","indutype":"학원 - 보습학원","category":"study"},{"name":"크리스랩영어학원","tel":"02-504-7792","addr":"경기도 과천시 중앙동 40-7번지 행진빌딩 6층","indutype":"학원 - 외국어학원","category":"study"},{"name":"할할당어학원","tel":"070-4123-6193","addr":"경기도 과천시 중앙동 40-7번지 행진빌딩 2층","indutype":"학원 - 외국어학원","category":"study"}]},{"lat":"37.428524816","long":"126.99147094","imageIndex":16,"items":[{"name":"랩스수학교습소","tel":"02-3679-1318","addr":"경기도 과천시 중앙동 40-12번지 대상빌딩 505호","indutype":"회원제형태 - 학원","category":"study"},{"name":"랩스영어교습소","tel":"02-3679-1318","addr":"경기도 과천시 중앙동 40-12번지 과천중앙빌딩 504호","indutype":"학원 - 외국어학원","category":"study"},{"name":"오디세이국어교습소","tel":"02-3679-1318","addr":"경기도 과천시 중앙동 40-12번지 과천중앙빌딩 504호","indutype":"학원 - 보습학원","category":"study"},{"name":"크라스플러스과천중앙독서실","tel":"02-3678-8209","addr":"경기도 과천시 중앙동 40-12번지 과천중앙빌딩 601호","indutype":"학원 - 독서실","category":"study"}]},{"lat":"37.428831122","long":"126.99110935","imageIndex":16,"items":[{"name":"별하과천스터디센터독서실","tel":"02-503-9660","addr":"경기도 과천시 중앙동 40-6번지 대영빌딩 4층","indutype":"학원 - 독서실","category":"study"}]},{"lat":"37.429047367","long":"126.99114321","imageIndex":16,"items":[{"name":"사막여우국어교습소","tel":"02-7393-0629","addr":"경기도 과천시 중앙동 40-4번지 동성빌딩 4층 406호","indutype":"학원 - 보습학원","category":"study"},{"name":"아이비홀","tel":"032-876-9938","addr":"경기도 과천시 중앙동 40-4번지","indutype":"회원제형태 - 학원","category":"study"},{"name":"언어엔논리학원","tel":"02-503-1221","addr":"경기도 과천시 중앙동 40-4번지 동성빌딩 401호","indutype":"회원제형태 - 학원","category":"study"},{"name":"이정인전문가집단보습학원","tel":"02-502-4988","addr":"경기도 과천시 중앙동 40-4번지 동성빌딩 503호","indutype":"학원 - 기타 교육기관","category":"study"},{"name":"직관의 재발견 학원","tel":"02-502-4242","addr":"경기도 과천시 중앙동 40-4번지 동성빌딩 6층","indutype":"학원 - 보습학원","category":"study"}]},{"lat":"37.433606937","long":"126.99822685","imageIndex":16,"items":[{"name":"상아학원","tel":"02-503-1848","addr":"경기도 과천시 중앙동 40-10번지 고려빌딩 6층","indutype":"교육서비스업 - 보습학원","category":"study"}]},{"lat":"37.4291374747","long":"126.9912222830","imageIndex":16,"items":[{"name":"아이비홀","tel":"02-502-4077","addr":"경기도 과천시 중앙동 40-4번지","indutype":"교육서비스업 - 외국어학원","category":"study"}]},{"lat":"37.428804061","long":"126.99080431","imageIndex":16,"items":[{"name":"올댓학원","tel":"02-503-6333","addr":"경기도 과천시 중앙동 40-8번지 명문빌딩 5층","indutype":"회원제형태 - 학원","category":"study"},{"name":"햇살같이웃는아이들","tel":"070-4922-1261","addr":"경기도 과천시 중앙동 40-8번지 명문빌딩 5층","indutype":"학원 - 기타 교육기관","category":"study"}]},{"lat":"37.440274086","long":"126.99361611","imageIndex":16,"items":[{"name":"직관의 재발견 학원","tel":"02-502-4242","addr":"경기도 과천시 중앙동 40-4번지 동성빌딩 6층","indutype":"교육서비스업 - 교과교습학원","category":"study"}]},{"lat":"37.438328172","long":"126.99771808","imageIndex":16,"items":[{"name":"트리니티음악학원","tel":"02-503-0269","addr":"경기도 과천시 중앙동 36번지 1단지 종합상가 301호","indutype":"교육서비스업 - 음악학원","category":"study"}]},{"lat":"37.424353377","long":"126.99392311","imageIndex":16,"items":[{"name":"프랙탈수학학원","tel":"02-502-3434","addr":"경기도 과천시 중앙동 40-13번지 가보자빌딩 501호","indutype":"교육서비스업 - 수학학원","category":"study"}]},{"lat":"37.428218636","long":"126.99327866","imageIndex":16,"items":[{"name":"할할당어학원","tel":"070-4123-6193","addr":"경기도 과천시 중앙동 40-7번지 행진빌딩 2층","indutype":"교육서비스업 - 학원","category":"study"}]},{"lat":"37.428804061","long":"126.99080431","imageIndex":7,"items":[{"name":"강녹수(정육점)","tel":"02-502-6938","addr":"경기도 과천시 중앙동 40-8번지 명문빌딩 2층","indutype":"음료식품 - 정육점","category":"food"}]},{"lat":"37.43271462","long":"126.99297302","imageIndex":7,"items":[{"name":"강원방앗간","tel":"02-503-0081","addr":"경기도 과천시 중앙동 36번지 1차종합상가2,4,20호","indutype":"음료식품 - 제과점","category":"food"},{"name":"경북방앗간","tel":"02-503-4440","addr":"경기도 과천시 중앙동 36번지 1단지 지층 16호","indutype":"음료식품 - 기타음료식품","category":"food"},{"name":"신성정육점","tel":"02-503-0568","addr":"경기도 과천시 중앙동 36번지 1차종합상가 지하층 16호","indutype":"음료식품 - 정육점","category":"food"},{"name":"우리떡방앗간","tel":"02-503-5005","addr":"경기도 과천시 중앙동 36번지 1단지 종합상가 1층 133호","indutype":"음료식품 - 제과점","category":"food"},{"name":"제비꽃건강웰빙","tel":"02-507-2900","addr":"경기도 과천시 중앙동 36번지 1차종합상가 123호","indutype":"음료식품 - 농·축·수산품","category":"food"},{"name":"풀무원 내추럴 건강","tel":"02-503-6880","addr":"경기도 과천시 중앙동 36번지 과천1차종합상가 B35호","indutype":"건강식품 - 기타건강식품","category":"food"}]},{"lat":"37.432326698","long":"126.98825025","imageIndex":7,"items":[{"name":"과천외국어고등학교구내매점","tel":"02-504-3300","addr":"경기도 과천시 중앙동 11번지","indutype":"음료식품 - 기타음료식품","category":"food"}]},{"lat":"37.43357915","long":"126.98872456","imageIndex":7,"items":[{"name":"관악산장","tel":"02-503-4452","addr":"경기도 과천시 중앙동 42번지","indutype":"음료식품 - 기타음료식품","category":"food"}]},{"lat":"37.428299546","long":"126.9912789","imageIndex":7,"items":[{"name":"앵두언니 마카롱","tel":"02-1111-1111","addr":"경기도 과천시 중앙동 40-11번지 현대빌딩 209호","indutype":"음료식품 - 기타음료식품","category":"food"}]},{"lat":"37.434102297","long":"126.99469027","imageIndex":7,"items":[{"name":"자연사랑","tel":"02-502-6922","addr":"경기도 과천시 중앙동 67번지 삼성 상가 102호","indutype":"음료식품 - 농·축·수산품","category":"food"},{"name":"장수건강원","tel":"031-462-5200","addr":"경기도 과천시 중앙동 67번지 10단지 복합상가 102호","indutype":"건강식품 - 기타건강식품","category":"food"}]},{"lat":"37.45730028","long":"127.02991722","imageIndex":7,"items":[{"name":"정관장과천중앙점","tel":"02-507-0389","addr":"경기도 과천시 중앙동 40-13번지 가보자빌딩 104호","indutype":"소매업 - 건강기능식품","category":"food"}]},{"lat":"37.428714046","long":"126.99166297","imageIndex":7,"items":[{"name":"정관장과천중앙점","tel":"02-507-0389","addr":"경기도 과천시 중앙동 40-13번지 가보자빌딩 104호","indutype":"건강식품 - 홍삼제품","category":"food"},{"name":"정관장동경기과천중앙점","tel":"02-507-0389","addr":"경기도 과천시 중앙동 40-13번지 가보자빌딩 104호","indutype":"건강식품 - 홍삼제품","category":"food"},{"name":"천명식자연치유연구소","tel":"02-507-2956","addr":"경기도 과천시 중앙동 40-13번지 가보자빌딩 501호","indutype":"건강식품 - 기타건강식품","category":"food"}]},{"lat":"37.429470573","long":"126.98872533","imageIndex":7,"items":[{"name":"조은아침","tel":"02-502-9923","addr":"경기도 과천시 중앙동 25-11번지","indutype":"회원제형태 - 건강식품","category":"food"}]},{"lat":"37.434642829","long":"126.9937411","imageIndex":7,"items":[{"name":"지유명차 과천점","tel":"02-503-5634","addr":"경기도 과천시 중앙동 71번지 래미안에코팰리스 1동 131호 상가","indutype":"음료식품 - 기타음료식품","category":"food"}]},{"lat":"37.428524816","long":"126.99147094","imageIndex":7,"items":[{"name":"파리바게트 과천중앙점","tel":"02-507-2121","addr":"경기도 과천시 중앙동 40-12번지 대상빌딩 101동 4호~5호","indutype":"음료식품 - 제과점","category":"food"}]},{"lat":"37.43424629","long":"126.99255476","imageIndex":7,"items":[{"name":"파리바게트과천레미안점","tel":"02-507-5413","addr":"경기도 과천시 중앙동 71번지 래미안에코팰리스","indutype":"음료식품 - 제과점","category":"food"}]},{"lat":"37.434272581","long":"126.98611438","imageIndex":7,"items":[{"name":"풀장집","tel":"02-502-3775","addr":"경기도 과천시 중앙동 산10","indutype":"음료식품 - 기타음료식품","category":"food"}]},{"lat":"37.42891224","long":"126.99139179","imageIndex":7,"items":[{"name":"한양부동산담배","tel":"02-502-2603","addr":"경기도 과천시 중앙동 40-5번지 중앙빌딩 106호","indutype":"음료식품 - 기타음료식품","category":"food"}]},{"lat":"37.425660019","long":"126.99683774","imageIndex":8,"items":[{"name":"과천시민한의원","tel":"02-502-0775","addr":"경기도 과천시 중앙동 40-13번지 가보자빌딩 2층 203호","indutype":"보건업 - 한의원","category":"medical"}]},{"lat":"37.428714046","long":"126.99166297","imageIndex":8,"items":[{"name":"과천시민한의원","tel":"02-504-1175","addr":"경기도 과천시 중앙동 40-13번지 가보자빌딩 2층 203호","indutype":"의원 - 한의원","category":"medical"},{"name":"과천약국","tel":"02-503-1570","addr":"경기도 과천시 중앙동 40-13번지","indutype":"약국 - 약국","category":"medical"},{"name":"베스톤비뇨기과","tel":"02-502-8275","addr":"경기도 과천시 중앙동 40-13번지 가보자빌딩 403호","indutype":"의원 - 의원","category":"medical"},{"name":"정형태치과","tel":"02-503-0819","addr":"경기도 과천시 중앙동 40-13번지 가보자 상가 402호","indutype":"의원 - 치과의원","category":"medical"}]},{"lat":"37.428524816","long":"126.99147094","imageIndex":8,"items":[{"name":"과천아름다운치과","tel":"02-502-2875","addr":"경기도 과천시 중앙동 40-12번지 대상빌딩 302호","indutype":"의원 - 치과의원","category":"medical"},{"name":"푸른마음정신과의원","tel":"02-507-0770","addr":"경기도 과천시 중앙동 40-12번지 중앙빌딩 304호","indutype":"의원 - 의원","category":"medical"}]},{"lat":"37.428578819","long":"126.99089473","imageIndex":8,"items":[{"name":"명문한의원","tel":"02-555-7783","addr":"경기도 과천시 중앙동 40-11번지 현대빌딩 4층 406-411호","indutype":"보건업 - 한의원","category":"medical"}]},{"lat":"37.428245444","long":"126.99086089","imageIndex":8,"items":[{"name":"서울베스트정형외과의원","tel":"","addr":"경기도 과천시 중앙동 40-10번지 고려빌딩 6층 601호","indutype":"의원 - 의원","category":"medical"}]},{"lat":"37.429299707","long":"126.99175327","imageIndex":8,"items":[{"name":"스마트약국","tel":"02-3679-4888","addr":"경기도 과천시 중앙동 41-1번지 케이티스마트타워 3층","indutype":"약국 - 약국","category":"medical"},{"name":"예다한치과","tel":"02-507-8833","addr":"경기도 과천시 중앙동 41-1번지 KT스마트타워 3층","indutype":"의원 - 치과의원","category":"medical"},{"name":"우리서울이비인후과","tel":"02-3679-3157","addr":"경기도 과천시 중앙동 41-1번지 KT과천스마트타워 3층","indutype":"의원 - 의원","category":"medical"},{"name":"이기헌내과의원","tel":"02-483-3435","addr":"경기도 과천시 중앙동 41-1번지 kt과천스마트타워 3층","indutype":"의원 - 의원","category":"medical"},{"name":"이은신경외과의원","tel":"070-4162-0900","addr":"경기도 과천시 중앙동 41-1번지","indutype":"의원 - 의원","category":"medical"}]},{"lat":"37.43271462","long":"126.99297302","imageIndex":7,"items":[{"name":"국민마트","tel":"02-3679-4939","addr":"경기도 과천시 중앙동 36번지 1단지 137호","indutype":"유통업 영리 - 슈퍼마켓","category":"mart"}]},{"lat":"37.428083503","long":"126.99350464","imageIndex":7,"items":[{"name":"국민마트","tel":"02-3679-4939","addr":"경기도 과천시 중앙동 36번지 1단지 종합상가 137호","indutype":"도소매 - 슈퍼마켓","category":"mart"}]},{"lat":"37.434642829","long":"126.9937411","imageIndex":7,"items":[{"name":"레미안할인마트","tel":"02-503-4845","addr":"경기도 과천시 중앙동 71번지 래미안에코팰리스 상가 1동 102호","indutype":"유통업 영리 - 슈퍼마켓","category":"mart"}]},{"lat":"37.428524816","long":"126.99147094","imageIndex":7,"items":[{"name":"베스트아울렛DC마트","tel":"02-3418-8989","addr":"경기도 과천시 중앙동 40-12번지 과천중앙빌딩 지하1층","indutype":"유통업 영리 - 슈퍼마켓","category":"mart"}]},{"lat":"37.449662809","long":"126.99858749","imageIndex":7,"items":[{"name":"베스트아울렛DC마트","tel":"02-3418-8989","addr":"경기도 과천시 중앙동 40-12번지 과천중앙빌딩 지하1층","indutype":"소매업 - 슈퍼, 잡화","category":"mart"}]},{"lat":"37.428299546","long":"126.9912789","imageIndex":5,"items":[{"name":"블랑모텔","tel":"070-4266-3301","addr":"경기도 과천시 중앙동 40-11번지 현대빌딩 601호","indutype":"숙박업 - 여관/기타숙박업","category":"hotel"}]},{"lat":"37.42699233","long":"126.98515569","imageIndex":0,"items":[{"name":"서울지방국토관리청","tel":"02-3425-8913","addr":"경기도 과천시 중앙동 1번지 정부과천청사 2동","indutype":"자동차정비 유지 - 주차장","category":"car"}]}]