[{"lat":"37.569985444","long":"127.18472759","imageIndex":13,"items":[{"name":"247필라테스","tel":"031-794-2470","addr":"경기도 하남시 망월동 962-2번지 송하프라자 303호","indutype":"레저업소 - 헬스클럽","category":"leisure"},{"name":"Born요가","tel":"031-441-3211","addr":"경기도 하남시 망월동 962-2번지 예스프라자포틴 4층 401호","indutype":"레저업소 - 헬스클럽","category":"leisure"},{"name":"바디메이드","tel":"031-794-2330","addr":"경기도 하남시 망월동 962-2번지 701,702호","indutype":"레저업소 - 헬스클럽","category":"leisure"},{"name":"본필라테스","tel":"","addr":"경기도 하남시 망월동 962-2번지 4층 402,403호","indutype":"레저업소 - 헬스클럽","category":"leisure"}]},{"lat":"37.561451173","long":"127.19172404","imageIndex":13,"items":[{"name":"247필라테스 미사역점","tel":"","addr":"경기도 하남시 망월동 1111번지 신성프라자 410, 411, 412호","indutype":"레저업소 - 헬스클럽","category":"leisure"},{"name":"다함께야구왕 미사신도시점","tel":"031-791-7277","addr":"경기도 하남시 망월동 1111번지 6층 601,602,603호","indutype":"레저업소 - 기타레져업소","category":"leisure"},{"name":"롤링팝 롤러스케이트","tel":"070-7576-4222","addr":"경기도 하남시 망월동 1111번지 신성프라자 403동 409호","indutype":"레저업소 - 기타레져업소","category":"leisure"},{"name":"볼원볼링장","tel":"","addr":"경기도 하남시 망월동 1111번지 신성프라자 1102, 1103호","indutype":"레저업소 - 볼 링 장","category":"leisure"},{"name":"아이비스PC하남미사점","tel":"","addr":"경기도 하남시 망월동 1111번지 신섬프라자1 6층 610,611,612호","indutype":"레저업소 - 기타레져업소","category":"leisure"},{"name":"에이치스튜디오 멀티짐","tel":"031-795-1114","addr":"경기도 하남시 망월동 1111번지 신성프라자 503호","indutype":"레저업소 - 헬스클럽","category":"leisure"},{"name":"케이팝스타 코인노래연습장","tel":"031-0000-0000","addr":"경기도 하남시 망월동 1111번지 6층608호609호","indutype":"레저업소 - 노 래 방","category":"leisure"}]},{"lat":"37.574618917","long":"127.18894991","imageIndex":13,"items":[{"name":"Guardian Fit (가디언핏)","tel":"031-000-0000","addr":"경기도 하남시 망월동 878번지 301호","indutype":"레저업소 - 헬스클럽","category":"leisure"}]},{"lat":"37.569093127","long":"127.1849518","imageIndex":13,"items":[{"name":"MS당구클럽","tel":"031-000-0000","addr":"경기도 하남시 망월동 972-1번지 상아프라자 501 ,502호","indutype":"레저업소 - 당 구 장","category":"leisure"},{"name":"미사노래연습장","tel":"031-791-5689","addr":"경기도 하남시 망월동 972-1번지 상아프라자 504호","indutype":"레저업소 - 노 래 방","category":"leisure"},{"name":"비원PC","tel":"","addr":"경기도 하남시 망월동 972-1번지 상아프라자 4층 401,402,403,404호","indutype":"레저업소 - 기타레져업소","category":"leisure"}]},{"lat":"37.568562021","long":"127.18464489","imageIndex":13,"items":[{"name":"PK어린이 수영장","tel":"031-794-3883","addr":"경기도 하남시 망월동 968-1번지 미사센트럴프라자 701~705호","indutype":"레저업소 - 수 영 장","category":"leisure"},{"name":"라임 필라테스","tel":"031-792-8355","addr":"경기도 하남시 망월동 968-1번지 401호 402호","indutype":"레저업소 - 헬스클럽","category":"leisure"},{"name":"라임 필라테스 미사점","tel":"031-0792-8355","addr":"경기도 하남시 망월동 968-1번지 미사센트럴프라자","indutype":"레저업소 - 헬스클럽","category":"leisure"},{"name":"캣툰","tel":"070-7775-4554","addr":"경기도 하남시 망월동 968-1번지 미사센트럴프라자 4층 407호","indutype":"레저업소 - 기타레져업소","category":"leisure"}]},{"lat":"37.566092369","long":"127.19101136","imageIndex":13,"items":[{"name":"care pilates","tel":"031-794-4888","addr":"경기도 하남시 망월동 1093번지 경서타워 8층 808,809,810,811호","indutype":"레저업소 - 헬스클럽","category":"leisure"},{"name":"라인업PT","tel":"","addr":"경기도 하남시 망월동 1093번지 경서타워 7층 708호","indutype":"레저업소 - 헬스클럽","category":"leisure"},{"name":"밀론부티크미사","tel":"070-7436-1565","addr":"경기도 하남시 망월동 1093번지 경서타워 812호,813호,814호","indutype":"레저업소 - 헬스클럽","category":"leisure"}]},{"lat":"37.564839612","long":"127.19125722","imageIndex":13,"items":[{"name":"강변","tel":"","addr":"경기도 하남시 망월동 1096-1번지 미사푸르지오시티 B동 315호,316호","indutype":"레저업소 - 헬스클럽","category":"leisure"},{"name":"나를 위한 필라테스","tel":"","addr":"경기도 하남시 망월동 1096-1번지 미사푸르지오시티 1109호","indutype":"레저업소 - 헬스클럽","category":"leisure"},{"name":"뮤트(MUTE)","tel":"","addr":"경기도 하남시 망월동 1096-1번지 미사푸르지오시티 B동 912호","indutype":"레저업소 - 기타레져업소","category":"leisure"},{"name":"블루 바디","tel":"070-4324-0999","addr":"경기도 하남시 망월동 1096-1번지 미사푸르지오시티 B동 3층 320호","indutype":"레저업소 - 헬스클럽","category":"leisure"}]},{"lat":"37.565120734","long":"127.19011474","imageIndex":13,"items":[{"name":"강변노래연습장","tel":"031-793-7002","addr":"경기도 하남시 망월동 1087번지 501-502호","indutype":"레저업소 - 노 래 방","category":"leisure"}]},{"lat":"37.559848229","long":"127.18548388","imageIndex":13,"items":[{"name":"골드라인 필라테스","tel":"031-1111-1111","addr":"경기도 하남시 망월동 1066-2번지 황금프라자 201호","indutype":"레저업소 - 헬스클럽","category":"leisure"}]},{"lat":"37.561537831","long":"127.19386338","imageIndex":13,"items":[{"name":"골드라인 필라테스","tel":"","addr":"경기도 하남시 망월동 1134-1번지 에스비비즈타워 303,304호","indutype":"레저업소 - 헬스클럽","category":"leisure"},{"name":"유타복싱클럽","tel":"031-8028-0710","addr":"경기도 하남시 망월동 1134-1번지 에스비비즈타워 5층 501~504호","indutype":"레저업소 - 헬스클럽","category":"leisure"}]},{"lat":"37.566645408","long":"127.18883953","imageIndex":13,"items":[{"name":"나인필라테스","tel":"031-791-6990","addr":"경기도 하남시 망월동 1079번지 우성브로아파크 307호","indutype":"레저업소 - 헬스클럽","category":"leisure"}]},{"lat":"37.568868702","long":"127.18441925","imageIndex":13,"items":[{"name":"놀숲 하남미사점","tel":"031-795-3242","addr":"경기도 하남시 망월동 968번지 한강트윈프라자2 6층 603호","indutype":"레저업소 - 기타레져업소","category":"leisure"},{"name":"아이닉스PC","tel":"031-0000-0000","addr":"경기도 하남시 망월동 968번지 4층","indutype":"레저업소 - 기타레져업소","category":"leisure"}]},{"lat":"37.563319601","long":"127.19520349","imageIndex":13,"items":[{"name":"더 필라테스 랩","tel":"","addr":"경기도 하남시 망월동 1129-4번지 에코타워 9층 901호","indutype":"레저업소 - 헬스클럽","category":"leisure"},{"name":"쁘띠몽드 스위밍 아카데미","tel":"031-791-0818","addr":"경기도 하남시 망월동 1129-4번지 에코타워 9층 902-906호","indutype":"레저업소 - 수 영 장","category":"leisure"},{"name":"핏걸미사가로수길점","tel":"","addr":"경기도 하남시 망월동 1129-4번지 에코타워 7층 701,702호","indutype":"레저업소 - 헬스클럽","category":"leisure"}]},{"lat":"37.568813475","long":"127.1851775","imageIndex":13,"items":[{"name":"더스타핏","tel":"02-000-0000","addr":"경기도 하남시 망월동 976-2번지 4층 401,402,406,407호","indutype":"레저업소 - 헬스클럽","category":"leisure"},{"name":"더스타핏 휘트니스","tel":"","addr":"경기도 하남시 망월동 976-2번지 403호~405호","indutype":"레저업소 - 헬스클럽","category":"leisure"},{"name":"히든코인 노래연습장 미사점","tel":"","addr":"경기도 하남시 망월동 976-2번지 디럭스프라자1 1동 2층 204호","indutype":"레저업소 - 노 래 방","category":"leisure"}]},{"lat":"37.566121483","long":"127.18969845","imageIndex":13,"items":[{"name":"더원","tel":"031-796-0258","addr":"경기도 하남시 망월동 1079-2번지 성산타워 3층 306-309호","indutype":"레저업소 - 스크린골프","category":"leisure"},{"name":"쓰리팝 PC방","tel":"","addr":"경기도 하남시 망월동 1079-2번지 성산타워 4층 405호","indutype":"레저업소 - 기타레져업소","category":"leisure"},{"name":"쓰리팝플러스 PC방","tel":"02-000-0000","addr":"경기도 하남시 망월동 1079-2번지 407호 406호,407호","indutype":"레저업소 - 기타레져업소","category":"leisure"}]},{"lat":"37.569841845","long":"127.18436502","imageIndex":13,"items":[{"name":"리틀비틀","tel":"031-8028-6964","addr":"경기도 하남시 망월동 962-1번지 송하빌딩 404,405호","indutype":"레저업소 - 기타레져업소","category":"leisure"},{"name":"미사강변복싱클럽","tel":"031-794-1282","addr":"경기도 하남시 망월동 962-1번지 송하프라자 604호 ,605호","indutype":"레저업소 - 헬스클럽","category":"leisure"},{"name":"흑호종합무술센터 미사","tel":"031-792-7982","addr":"경기도 하남시 망월동 962-1번지 송하프라자 5층 504호, 505호","indutype":"레저업소 - 헬스클럽","category":"leisure"}]},{"lat":"37.566258647","long":"127.18841977","imageIndex":13,"items":[{"name":"명품노래연습장","tel":"","addr":"경기도 하남시 망월동 1077-1번지 301호,302호,303-1호","indutype":"레저업소 - 노 래 방","category":"leisure"}]},{"lat":"37.560478731","long":"127.19133678","imageIndex":13,"items":[{"name":"모던필라테스 미사2호점","tel":"031-795-7743","addr":"경기도 하남시 망월동 1119번지 스타파크 306호","indutype":"레저업소 - 헬스클럽","category":"leisure"}]},{"lat":"37.560062885","long":"127.18650301","imageIndex":13,"items":[{"name":"모던필라테스 미사점","tel":"031-778-7770","addr":"경기도 하남시 망월동 1067번지 골든브릿지 2층 201호","indutype":"레저업소 - 헬스클럽","category":"leisure"}]},{"lat":"37.56890254","long":"127.18584555","imageIndex":13,"items":[{"name":"미사 로보마","tel":"031-794-8808","addr":"경기도 하남시 망월동 976-5번지 라임프라자","indutype":"레저업소 - 기타레져업소","category":"leisure"},{"name":"써니클래식 필라테스","tel":"031-791-6485","addr":"경기도 하남시 망월동 976-5번지 라임프라자 304호","indutype":"레저업소 - 헬스클럽","category":"leisure"}]},{"lat":"37.566149478","long":"127.18908731","imageIndex":13,"items":[{"name":"미사 스크린골프/신우메탈(주)","tel":"031-791-2671","addr":"경기도 하남시 망월동 1079-1번지 1401호,1402호,1403호","indutype":"레저업소 - 스크린골프","category":"leisure"},{"name":"미사빌리아드클럽","tel":"031-793-2979","addr":"경기도 하남시 망월동 1079-1번지 우성미사타워 401동 402호","indutype":"레저업소 - 당 구 장","category":"leisure"},{"name":"블리스피티엔필라테스스튜디오(BLISS pt&pi","tel":"031-793-3812","addr":"경기도 하남시 망월동 1079-1번지 우성미사타워 1408호","indutype":"레저업소 - 헬스클럽","category":"leisure"},{"name":"쁘띠몽드 하남미사점","tel":"031-792-2331","addr":"경기도 하남시 망월동 1079-1번지 우성미사타워 1002~1004호","indutype":"레저업소 - 기타레져업소","category":"leisure"},{"name":"워크아웃짐(workout Gym)","tel":"031-791-2377","addr":"경기도 하남시 망월동 1079-1번지 우성미사타워 12층 1201호","indutype":"레저업소 - 헬스클럽","category":"leisure"},{"name":"인싸노래연습장","tel":"031-791-8894","addr":"경기도 하남시 망월동 1079-1번지 우성미사타워 5층 506호","indutype":"레저업소 - 노 래 방","category":"leisure"},{"name":"커브스 미사강변클럽","tel":"031-792-7330","addr":"경기도 하남시 망월동 1079-1번지 우성미사타워 10층 1005호","indutype":"레저업소 - 헬스클럽","category":"leisure"}]},{"lat":"37.568758821","long":"127.18556222","imageIndex":13,"items":[{"name":"미사EMS이지핏다이어트","tel":"031-796-1775","addr":"경기도 하남시 망월동 976-4번지 명성빌딩 5층 501호","indutype":"레저업소 - 헬스클럽","category":"leisure"},{"name":"엘리어스 키즈카페","tel":"031-793-1171","addr":"경기도 하남시 망월동 976-4번지 명성빌딩 402호","indutype":"레저업소 - 기타레져업소","category":"leisure"}]},{"lat":"37.565839933","long":"127.19111259","imageIndex":13,"items":[{"name":"미사당구클럽","tel":"","addr":"경기도 하남시 망월동 1093-1번지 에이동 3층 301호,303호","indutype":"레저업소 - 당 구 장","category":"leisure"}]},{"lat":"37.56673309","long":"127.19036779","imageIndex":13,"items":[{"name":"미사무에타이구심캠프","tel":"031-759-9877","addr":"경기도 하남시 망월동 1081번지 미사역효성해링턴타워더퍼스트 3층 3011호","indutype":"레저업소 - 헬스클럽","category":"leisure"},{"name":"샤인 요가 앤 핏","tel":"","addr":"경기도 하남시 망월동 1081번지 미사역 효성해링턴타워 더퍼스트 3층 3012,3013호","indutype":"레저업소 - 헬스클럽","category":"leisure"},{"name":"엣지필라테스(EdgE Pilates)","tel":"070-9004-9587","addr":"경기도 하남시 망월동 1081번지 미사역효성해링턴타워더퍼스트 102동 23층 2318호","indutype":"레저업소 - 헬스클럽","category":"leisure"},{"name":"제이힐필라테스스튜디오(J HEAL PILATES ST","tel":"","addr":"경기도 하남시 망월동 1081번지 미사역효성해링턴타워더퍼스트 2층 2002호","indutype":"레저업소 - 헬스클럽","category":"leisure"}]},{"lat":"37.56195407","long":"127.19275526","imageIndex":13,"items":[{"name":"브레통 캐롬클럽","tel":"","addr":"경기도 하남시 망월동 1116-1번지 미사역타워 10층 1001-1005호","indutype":"레저업소 - 당 구 장","category":"leisure"},{"name":"아마레 필라테스","tel":"","addr":"경기도 하남시 망월동 1116-1번지 9층 901호,902호,903호","indutype":"레저업소 - 헬스클럽","category":"leisure"},{"name":"요가룩스 미사강변역점","tel":"031-796-5884","addr":"경기도 하남시 망월동 1116-1번지 미사역타워 8층 804호, 805호","indutype":"레저업소 - 헬스클럽","category":"leisure"},{"name":"주식회사 타고(TAGO)","tel":"031-111-1111","addr":"경기도 하남시 망월동 1116-1번지 1306,1307호","indutype":"레저업소 - 헬스클럽","category":"leisure"}]},{"lat":"37.56173064","long":"127.19162289","imageIndex":13,"items":[{"name":"쉐빌로뜨 당구클럽","tel":"031-000-0000","addr":"경기도 하남시 망월동 1110번지 미사신성타워 901호","indutype":"레저업소 - 당 구 장","category":"leisure"}]},{"lat":"37.569175278","long":"127.18426153","imageIndex":13,"items":[{"name":"스타노래연습장","tel":"031-793-3688","addr":"경기도 하남시 망월동 966-1번지 한강트윈프라자 301,302호","indutype":"레저업소 - 노 래 방","category":"leisure"}]},{"lat":"37.567957685","long":"127.18508487","imageIndex":13,"items":[{"name":"에스바디핏 미사강변점","tel":"031-792-6252","addr":"경기도 하남시 망월동 968-4번지 리더스프라자 701호","indutype":"레저업소 - 헬스클럽","category":"leisure"}]},{"lat":"37.565895216","long":"127.19034306","imageIndex":13,"items":[{"name":"옵티머스당구클럽","tel":"031-8004-7050","addr":"경기도 하남시 망월동 1089번지 성산타워플러스 9층 901,902,903호","indutype":"레저업소 - 당 구 장","category":"leisure"},{"name":"점핑파크 미사점","tel":"031-793-7799","addr":"경기도 하남시 망월동 1089번지 성산타워플러스 7층","indutype":"레저업소 - 기타레져업소","category":"leisure"},{"name":"주식회사 바디케어필라테스미사","tel":"031-796-4471","addr":"경기도 하남시 망월동 1089번지 성산타워플러스 5층 505호","indutype":"레저업소 - 헬스클럽","category":"leisure"}]},{"lat":"37.56151188","long":"127.19319555","imageIndex":13,"items":[{"name":"제너스PC 하남미사점","tel":"070-7471-7422","addr":"경기도 하남시 망월동 1117번지 미사강변노블레스 3층 314-318호","indutype":"레저업소 - 기타레져업소","category":"leisure"}]},{"lat":"37.561425156","long":"127.19109017","imageIndex":13,"items":[{"name":"초콜렛노래연습장","tel":"031-795-1848","addr":"경기도 하남시 망월동 1108-1번지 미타워 310호 309호,310호","indutype":"레저업소 - 노 래 방","category":"leisure"}]},{"lat":"37.57595197","long":"127.18920227","imageIndex":13,"items":[{"name":"퀸오브 주짓수 하남지점","tel":"","addr":"경기도 하남시 망월동 839-5번지","indutype":"레저업소 - 헬스클럽","category":"leisure"}]},{"lat":"37.569678763","long":"127.18495323","imageIndex":13,"items":[{"name":"킹당구장","tel":"070-7788-5179","addr":"경기도 하남시 망월동 970-1번지 미사원프라자 301호","indutype":"레저업소 - 당 구 장","category":"leisure"}]},{"lat":"37.570119561","long":"127.18539575","imageIndex":13,"items":[{"name":"타잔B&G 어린이 레슨전문 수영장","tel":"031-796-6543","addr":"경기도 하남시 망월동 963번지 미사강변주차타워 지하1층","indutype":"레저업소 - 수 영 장","category":"leisure"}]},{"lat":"37.569704463","long":"127.18581356","imageIndex":13,"items":[{"name":"턴업 휘트니스","tel":"070-7320-7600","addr":"경기도 하남시 망월동 974번지 A+구산프라자 4층 05호","indutype":"레저업소 - 헬스클럽","category":"leisure"}]},{"lat":"37.560595225","long":"127.1917332","imageIndex":13,"items":[{"name":"프리파라프리미엄키즈카페/주식회사 에이치","tel":"031-318-1860","addr":"경기도 하남시 망월동 1119-1번지 2층 227-234호","indutype":"레저업소 - 기타레져업소","category":"leisure"}]},{"lat":"37.564950373","long":"127.18959366","imageIndex":13,"items":[{"name":"호수노래연습장","tel":"","addr":"경기도 하남시 망월동 1083-3번지 부강타워 10층","indutype":"레저업소 - 노 래 방","category":"leisure"}]}]