[{"lat":"37.490468992","long":"127.48904052","imageIndex":7,"items":[{"name":"(사)양평군새마을회","tel":"031-773-5111","addr":"경기도 양평군 양평읍 양근리 426-1번지","indutype":"음료식품 - 농·축·수산품","category":"food"},{"name":"사단법인 양평군 새마을회","tel":"031-773-5111","addr":"경기도 양평군 양평읍 양근리 426-1번지","indutype":"음료식품 - 농·축·수산품","category":"food"}]},{"lat":"37.489914784","long":"127.49233862","imageIndex":7,"items":[{"name":"uni","tel":"031-774-6496","addr":"경기도 양평군 양평읍 양근리 359 2층 3/","indutype":"음료식품 - 제과점","category":"food"}]},{"lat":"37.489355016","long":"127.49261764","imageIndex":7,"items":[{"name":"강원도횡성한우전문점","tel":"031-771-2160","addr":"경기도 양평군 양평읍 양근리 355-3번지","indutype":"음료식품 - 정육점","category":"food"},{"name":"동부정육점","tel":"031-771-2160","addr":"경기도 양평군 양평읍 양근리 355-3번지 1층","indutype":"음료식품 - 정육점","category":"food"}]},{"lat":"37.490437949","long":"127.49436603","imageIndex":7,"items":[{"name":"과일나라","tel":"031-774-3339","addr":"경기도 양평군 양평읍 양근리 169-8번지","indutype":"음료식품 - 농·축·수산품","category":"food"},{"name":"후","tel":"031-771-6900","addr":"경기도 양평군 양평읍 양근리 169-8","indutype":"음료식품 - 기타음료식품","category":"food"}]},{"lat":"37.489465152","long":"127.48994989","imageIndex":7,"items":[{"name":"구이촌 정육점","tel":"031-775-4521","addr":"경기도 양평군 양평읍 양근리 340-3번지","indutype":"음료식품 - 정육점","category":"food"}]},{"lat":"37.490111496","long":"127.49270173","imageIndex":7,"items":[{"name":"금강방앗간","tel":"031-771-3050","addr":"경기도 양평군 양평읍 양근리 167-26번지 1층","indutype":"음료식품 - 기타음료식품","category":"food"}]},{"lat":"37.490306128","long":"127.49139136","imageIndex":7,"items":[{"name":"나뚜루팝양평점","tel":"031-771-2650","addr":"경기도 양평군 양평읍 양근리 410-8번지","indutype":"음료식품 - 제과점","category":"food"}]},{"lat":"37.49108146","long":"127.48908971","imageIndex":7,"items":[{"name":"농업회사법인주식회사친환경농산","tel":"031-774-6102","addr":"경기도 양평군 양평읍 양근리 442-2 태강빌딩3층","indutype":"음료식품 - 농·축·수산품","category":"food"}]},{"lat":"37.501498666","long":"127.48864835","imageIndex":7,"items":[{"name":"농업회사법인주식회사탑오리","tel":"031-774-6000","addr":"경기도 양평군 양평읍 양근리 28-2번지","indutype":"음료식품 - 정육점","category":"food"}]},{"lat":"37.487494939","long":"127.49141829","imageIndex":7,"items":[{"name":"단비유통","tel":"","addr":"경기도 양평군 양평읍 양근리 269-18번지","indutype":"음료식품 - 기타음료식품","category":"food"}]},{"lat":"37.487611597","long":"127.49153211","imageIndex":7,"items":[{"name":"대흥떡방앗간","tel":"031-771-2630","addr":"경기도 양평군 양평읍 양근리 269-17번지","indutype":"음료식품 - 제과점","category":"food"}]},{"lat":"37.489773485","long":"127.49164796","imageIndex":7,"items":[{"name":"대흥쌀상회","tel":"031-773-6869","addr":"경기도 양평군 양평읍 양근리 352-8번지","indutype":"음료식품 - 농·축·수산품","category":"food"}]},{"lat":"37.491494786","long":"127.48936377","imageIndex":7,"items":[{"name":"던킨도너츠(양평중앙점)","tel":"031-771-0098","addr":"경기도 양평군 양평읍 양근리 401-13번지","indutype":"음료식품 - 제과점","category":"food"}]},{"lat":"37.495023844","long":"127.49222495","imageIndex":7,"items":[{"name":"도담도담식빵","tel":"070-8972-8989","addr":"경기도 양평군 양평읍 양근리 141-2번지","indutype":"음료식품 - 제과점","category":"food"}]},{"lat":"37.490744839","long":"127.49206135","imageIndex":7,"items":[{"name":"두부마을","tel":"031-773-6343","addr":"경기도 양평군 양평읍 양근리 361-10 ,166-11","indutype":"음료식품 - 기타음료식품","category":"food"}]},{"lat":"37.489410105","long":"127.49236925","imageIndex":7,"items":[{"name":"롯데정육점","tel":"031-771-2917","addr":"경기도 양평군 양평읍 양근리 355-10번지","indutype":"음료식품 - 정육점","category":"food"}]},{"lat":"37.489859828","long":"127.49472407","imageIndex":7,"items":[{"name":"르브레드랩","tel":"031-771-1238","addr":"경기도 양평군 양평읍 양근리 195-9번지","indutype":"음료식품 - 제과점","category":"food"}]},{"lat":"37.490139079","long":"127.49689689","imageIndex":7,"items":[{"name":"만수건강원","tel":"031-771-8673","addr":"경기도 양평군 양평읍 양근리 187-4번지","indutype":"건강식품 - 기타건강식품","category":"food"}]},{"lat":"37.494772636","long":"127.48539334","imageIndex":7,"items":[{"name":"메이플타바코","tel":"031-111-1111","addr":"경기도 양평군 양평읍 양근리 527-8번지","indutype":"음료식품 - 기타음료식품","category":"food"}]},{"lat":"37.490328101","long":"127.49261269","imageIndex":7,"items":[{"name":"목우촌닭고기","tel":"031-775-5150","addr":"경기도 양평군 양평읍 양근리 167-5번지","indutype":"음료식품 - 정육점","category":"food"}]},{"lat":"37.495108019","long":"127.49147918","imageIndex":7,"items":[{"name":"물맑은양평이가네쌀찐빵","tel":"031-772-8983","addr":"경기도 양평군 양평읍 양근리 139-7","indutype":"음료식품 - 제과점","category":"food"}]},{"lat":"37.491360665","long":"127.48911414","imageIndex":7,"items":[{"name":"미래식품건강원","tel":"031-771-3730","addr":"경기도 양평군 양평읍 양근리 400-13번지","indutype":"건강식품 - 기타건강식품","category":"food"}]},{"lat":"37.490854218","long":"127.49175677","imageIndex":7,"items":[{"name":"바다식육점","tel":"031-771-7844","addr":"경기도 양평군 양평읍 양근리 408-9번지","indutype":"음료식품 - 정육점","category":"food"}]},{"lat":"37.48952826","long":"127.49212126","imageIndex":7,"items":[{"name":"백운정육점","tel":"031-774-0788","addr":"경기도 양평군 양평읍 양근리 353-12","indutype":"음료식품 - 정육점","category":"food"}]},{"lat":"37.489525074","long":"127.49289012","imageIndex":7,"items":[{"name":"베스킨라빈스","tel":"031-775-3179","addr":"경기도 양평군 양평읍 양근리 167-22번지","indutype":"음료식품 - 제과점","category":"food"}]},{"lat":"37.487609503","long":"127.49637142","imageIndex":7,"items":[{"name":"별난디톡스","tel":"031-1111-1111","addr":"경기도 양평군 양평읍 양근리 192-62번지 101호","indutype":"음료식품 - 기타음료식품","category":"food"}]},{"lat":"37.491744625","long":"127.49430675","imageIndex":7,"items":[{"name":"선주언니","tel":"070-8970-4013","addr":"경기도 양평군 양평읍 양근리 170-63번지","indutype":"음료식품 - 농·축·수산품","category":"food"},{"name":"찡오언니양평점","tel":"070-4245-2762","addr":"경기도 양평군 양평읍 양근리 170-63번지 1층","indutype":"음료식품 - 기타음료식품","category":"food"}]},{"lat":"37.489610048","long":"127.49195219","imageIndex":7,"items":[{"name":"수복축산물직판장","tel":"031-771-2210","addr":"경기도 양평군 양평읍 양근리 353-9번지","indutype":"음료식품 - 정육점","category":"food"}]},{"lat":"37.489942843","long":"127.49209004","imageIndex":7,"items":[{"name":"스윗 스토리","tel":"031-771-1234","addr":"경기도 양평군 양평읍 양근리 356-14번지","indutype":"음료식품 - 기타음료식품","category":"food"}]},{"lat":"37.48991558","long":"127.4921464","imageIndex":7,"items":[{"name":"아이스양평점","tel":"031-775-0205","addr":"경기도 양평군 양평읍 양근리 356-5번지","indutype":"음료식품 - 기타음료식품","category":"food"}]},{"lat":"37.491856892","long":"127.48894774","imageIndex":7,"items":[{"name":"안다미로베이커리","tel":"031-773-8113","addr":"경기도 양평군 양평읍 양근리 400-1번지 1층,3층","indutype":"음료식품 - 제과점","category":"food"}]},{"lat":"37.490719308","long":"127.49169935","imageIndex":7,"items":[{"name":"안성쌀상회","tel":"031-771-2612","addr":"경기도 양평군 양평읍 양근리 409-1번지","indutype":"음료식품 - 미곡상","category":"food"}]},{"lat":"37.49152535","long":"127.48850461","imageIndex":7,"items":[{"name":"양평개군한우","tel":"031-775-2929","addr":"경기도 양평군 양평읍 양근리 446-15번지","indutype":"음료식품 - 정육점","category":"food"}]},{"lat":"37.489938109","long":"127.49323204","imageIndex":7,"items":[{"name":"양평명품한우","tel":"031-775-6282","addr":"경기도 양평군 양평읍 양근리 167-6","indutype":"음료식품 - 정육점","category":"food"}]},{"lat":"37.490583137","long":"127.49411822","imageIndex":7,"items":[{"name":"양평불로건강원","tel":"031-772-3454","addr":"경기도 양평군 양평읍 양근리 168-8번지","indutype":"건강식품 - 기타건강식품","category":"food"}]},{"lat":"37.4884457","long":"127.49245341","imageIndex":7,"items":[{"name":"양평종합상사","tel":"031-773-8241","addr":"경기도 양평군 양평읍 양근리 299-18","indutype":"음료식품 - 기타음료식품","category":"food"}]},{"lat":"37.486835513","long":"127.49400323","imageIndex":7,"items":[{"name":"양평청과","tel":"031-775-3929","addr":"경기도 양평군 양평읍 양근리 236번지","indutype":"음료식품 - 농·축·수산품","category":"food"}]},{"lat":"37.490583134","long":"127.49194722","imageIndex":7,"items":[{"name":"양평축산","tel":"031-774-9477","addr":"경기도 양평군 양평읍 양근리 361-4번지","indutype":"음료식품 - 정육점","category":"food"}]},{"lat":"37.496078504","long":"127.48773121","imageIndex":7,"items":[{"name":"양평한삼인","tel":"031-775-3131","addr":"경기도 양평군 양평읍 양근리 100-12번지","indutype":"건강식품 - 홍삼제품","category":"food"}]},{"lat":"37.493468822","long":"127.48695672","imageIndex":7,"items":[{"name":"에이치와이 키즈쿡 2호점(hy kids cook)","tel":"","addr":"경기도 양평군 양평읍 양근리 528-71번지 1층","indutype":"음료식품 - 기타음료식품","category":"food"}]},{"lat":"37.489246403","long":"127.49055905","imageIndex":7,"items":[{"name":"여의도떡방","tel":"031-772-5859","addr":"경기도 양평군 양평읍 양근리 311번지","indutype":"음료식품 - 제과점","category":"food"}]},{"lat":"37.487800565","long":"127.49158988","imageIndex":7,"items":[{"name":"영창방앗간","tel":"031-774-6683","addr":"경기도 양평군 양평읍 양근리 269-14 1층","indutype":"음료식품 - 기타음료식품","category":"food"}]},{"lat":"37.491133758","long":"127.49387306","imageIndex":7,"items":[{"name":"오누이(ONTU)","tel":"031-774-1397","addr":"경기도 양평군 양평읍 양근리 170-10번지 송이연립 1동 109호","indutype":"음료식품 - 농·축·수산품","category":"food"}]},{"lat":"37.48966228","long":"127.49239351","imageIndex":7,"items":[{"name":"우리수산","tel":"031-772-6001","addr":"경기도 양평군 양평읍 양근리 355-1번지","indutype":"음료식품 - 농·축·수산품","category":"food"}]},{"lat":"37.489972786","long":"127.49356017","imageIndex":7,"items":[{"name":"우성정육점","tel":"031-771-5145","addr":"경기도 양평군 양평읍 양근리 167-4","indutype":"음료식품 - 정육점","category":"food"}]},{"lat":"37.490832563","long":"127.49045629","imageIndex":7,"items":[{"name":"이조떡방","tel":"031-775-5025","addr":"경기도 양평군 양평읍 양근리 410-1번지","indutype":"음료식품 - 제과점","category":"food"}]},{"lat":"37.48977814","long":"127.49269956","imageIndex":7,"items":[{"name":"이포건어물전","tel":"031-773-9994","addr":"경기도 양평군 양평읍 양근리 167-15번지","indutype":"음료식품 - 농·축·수산품","category":"food"}]},{"lat":"37.490582676","long":"127.49639098","imageIndex":7,"items":[{"name":"정관장양평점","tel":"031-774-7337","addr":"경기도 양평군 양평읍 양근리 172-34","indutype":"건강식품 - 홍삼제품","category":"food"}]},{"lat":"37.491360293","long":"127.4892046","imageIndex":7,"items":[{"name":"정베이커리","tel":"031-773-0449","addr":"경기도 양평군 양평읍 양근리 400-18번지","indutype":"음료식품 - 제과점","category":"food"}]},{"lat":"37.489191411","long":"127.49078483","imageIndex":7,"items":[{"name":"중국상회","tel":"031-775-2269","addr":"경기도 양평군 양평읍 양근리 310","indutype":"음료식품 - 기타음료식품","category":"food"}]},{"lat":"37.490300668","long":"127.49053198","imageIndex":7,"items":[{"name":"중국식품","tel":"031-000-0000","addr":"경기도 양평군 양평읍 양근리 411-14번지 C동","indutype":"음료식품 - 기타음료식품","category":"food"}]},{"lat":"37.489720456","long":"127.49139886","imageIndex":7,"items":[{"name":"중앙식육점","tel":"031-771-2838","addr":"경기도 양평군 양평읍 양근리 306-3번지","indutype":"음료식품 - 정육점","category":"food"}]},{"lat":"37.490304959","long":"127.49167404","imageIndex":7,"items":[{"name":"진이찬방","tel":"031-773-1121","addr":"경기도 양평군 양평읍 양근리 357-1번지","indutype":"음료식품 - 기타음료식품","category":"food"}]},{"lat":"37.487444133","long":"127.49280869","imageIndex":7,"items":[{"name":"참선진녹즙","tel":"031-771-4503","addr":"경기도 양평군 양평읍 양근리 229-2번지","indutype":"건강식품 - 기타건강식품","category":"food"}]},{"lat":"37.489193874","long":"127.49236784","imageIndex":7,"items":[{"name":"천일방앗간","tel":"031-771-2715","addr":"경기도 양평군 양평읍 양근리 301-3번지","indutype":"음료식품 - 기타음료식품","category":"food"}]},{"lat":"37.490000024","long":"127.49567479","imageIndex":7,"items":[{"name":"파리바겟트","tel":"031-775-0095","addr":"경기도 양평군 양평읍 양근리 183-15번지 101호","indutype":"음료식품 - 제과점","category":"food"}]},{"lat":"37.490529515","long":"127.49617579","imageIndex":7,"items":[{"name":"픽미픽미 아이스(아이스크림할인점)","tel":"02-000-0000","addr":"경기도 양평군 양평읍 양근리 176-9번지","indutype":"음료식품 - 기타음료식품","category":"food"}]},{"lat":"37.490246004","long":"127.49067862","imageIndex":7,"items":[{"name":"하얀식품","tel":"031-771-9863","addr":"경기도 양평군 양평읍 양근리 411-15번지","indutype":"음료식품 - 기타음료식품","category":"food"}]},{"lat":"37.487607572","long":"127.49250447","imageIndex":7,"items":[{"name":"한강식품","tel":"","addr":"경기도 양평군 양평읍 양근리 229-1번지 1층","indutype":"음료식품 - 기타음료식품","category":"food"}]},{"lat":"37.486909868","long":"127.49562058","imageIndex":7,"items":[{"name":"헬스웰주식회사","tel":"070-8833-6224","addr":"경기도 양평군 양평읍 양근리 192-19번지 경일빌라 나동 102호","indutype":"회원제형태 - 건강식품","category":"food"}]},{"lat":"37.491220816","long":"127.49025528","imageIndex":7,"items":[{"name":"현대반건조생선","tel":"031-1111-1111","addr":"경기도 양평군 양평읍 양근리 404-14번지","indutype":"음료식품 - 농·축·수산품","category":"food"}]},{"lat":"37.498331058","long":"127.47884603","imageIndex":7,"items":[{"name":"황상호농장","tel":"031-774-6161","addr":"경기도 양평군 양평읍 양근리 504-40번지","indutype":"음료식품 - 농·축·수산품","category":"food"}]},{"lat":"37.491057035","long":"127.48845634","imageIndex":17,"items":[{"name":"(주) 선진건축사사무소","tel":"031-771-6080","addr":"경기도 양평군 양평읍 양근리 444-10번지 2층","indutype":"용역 서비스 - 사무서비스","category":"other"},{"name":"(주)미래건축사사무소","tel":"031-771-6221","addr":"경기도 양평군 양평읍 양근리 444-10번지","indutype":"용역 서비스 - 법률회계서비스(법인)","category":"other"},{"name":"명성인쇄기획","tel":"031-771-6868","addr":"경기도 양평군 양평읍 양근리 444-10번지 101호","indutype":"서적문구 - 출판 및 인쇄물","category":"other"},{"name":"옥천면기업인 협의회","tel":"031-771-6868","addr":"경기도 양평군 양평읍 양근리 444-10번지","indutype":"기타 - 비영리/비대상","category":"other"}]},{"lat":"37.490806253","long":"127.48809289","imageIndex":17,"items":[{"name":"(주)건축감리전문회사영건축","tel":"031-771-6166","addr":"경기도 양평군 양평읍 양근리 440-3번지","indutype":"용역 서비스 - 법률회계서비스(법인)","category":"other"},{"name":"(주)투어플러스코리아","tel":"031-775-5550","addr":"경기도 양평군 양평읍 양근리 440-3번지","indutype":"여행 - 관광여행","category":"other"},{"name":"대아측량토목설계공사","tel":"031-775-7080","addr":"경기도 양평군 양평읍 양근리 440-3번지 우진빌딩 1층","indutype":"기타 - 기타 전문점","category":"other"},{"name":"양평뉴스","tel":"031-771-2622","addr":"경기도 양평군 양평읍 양근리 440-3번지 6층","indutype":"용역 서비스 - 종합용역","category":"other"},{"name":"주식회사 엘엔에이치건축사사무소","tel":"031-771-8844","addr":"경기도 양평군 양평읍 양근리 440-3번지 3층","indutype":"용역 서비스 - 사무서비스","category":"other"}]},{"lat":"37.502665582","long":"127.49406166","imageIndex":17,"items":[{"name":"(주)글로리렌트여행사","tel":"031-528-6263","addr":"경기도 양평군 양평읍 양근리 17-1번지","indutype":"여행 - 렌터카","category":"other"}]},{"lat":"37.48941483","long":"127.49122726","imageIndex":17,"items":[{"name":"(주)더베이직하우스볼양평점","tel":"031-771-2287","addr":"경기도 양평군 양평읍 양근리 309-2,309-6,309-7","indutype":"의류 - 정장","category":"other"},{"name":"상설 양평점","tel":"031-775-4335","addr":"경기도 양평군 양평읍 양근리 309-2, 309-6, 309-7","indutype":"레져용품 - 스포츠·레져용품","category":"other"}]},{"lat":"37.491939298","long":"127.49081401","imageIndex":17,"items":[{"name":"(주)더벨리타웨딩컨벤션","tel":"031-775-5800","addr":"경기도 양평군 양평읍 양근리 376-8번지 현대성우오스타코아루 2층","indutype":"용역 서비스 - 혼례서비스","category":"other"},{"name":"그린인견","tel":"031-773-8393","addr":"경기도 양평군 양평읍 양근리 376-8번지 현대성우오스타코아루 1층 106호","indutype":"의류 - 기타의류","category":"other"},{"name":"더벨리타웨딩컨벤션","tel":"031-775-5800","addr":"경기도 양평군 양평읍 양근리 376-8번지 오스타코아루주상복합 지층 102호 지층 103~107, 2층 201~205,210,211호","indutype":"용역 서비스 - 혼례서비스","category":"other"},{"name":"더벨리타웨딩컨벤션","tel":"031-775-5800","addr":"경기도 양평군 양평읍 양근리 376-8번지 현대성우오스타코아루 102호","indutype":"용역 서비스 - 혼례서비스","category":"other"},{"name":"메리앤수","tel":"","addr":"경기도 양평군 양평읍 양근리 376-8번지 현대성우오스타코아루 2층","indutype":"용역 서비스 - 혼례서비스","category":"other"},{"name":"벨리타웨딩컨벤션","tel":"031-775-5800","addr":"경기도 양평군 양평읍 양근리 376-8번지 현대성우오스타코아루 (지하1,2층)","indutype":"용역 서비스 - 혼례서비스","category":"other"},{"name":"벨리타웨딩컨벤션","tel":"031-775-5800","addr":"경기도 양평군 양평읍 양근리 376-8번지 현대성우오스타코아루 지하1,2층","indutype":"용역 서비스 - 혼례서비스","category":"other"},{"name":"화향","tel":"070-7725-0406","addr":"경기도 양평군 양평읍 양근리 376-8번지 현대성우오스타코아무주상복합 1004호","indutype":"문화.취미 - 민예·공예품","category":"other"}]},{"lat":"37.488917615","long":"127.48944882","imageIndex":17,"items":[{"name":"(주)더푸른홈넷","tel":"031-774-9244","addr":"경기도 양평군 양평읍 양근리 328-5번지","indutype":"회원제형태 - 기타4","category":"other"}]},{"lat":"37.49152535","long":"127.48850461","imageIndex":17,"items":[{"name":"(주)도심건축사사무소","tel":"031-771-8161","addr":"경기도 양평군 양평읍 양근리 446-15","indutype":"용역 서비스 - 사무서비스","category":"other"},{"name":"한국원측량설계공사","tel":"031-771-0477","addr":"경기도 양평군 양평읍 양근리 446-15","indutype":"용역 서비스 - 사무서비스","category":"other"}]},{"lat":"37.490660984","long":"127.48836332","imageIndex":17,"items":[{"name":"(주)리틀맘","tel":"070-4239-2553","addr":"경기도 양평군 양평읍 양근리 441-4번지","indutype":"의류 - 정장","category":"other"}]},{"lat":"37.491333962","long":"127.48903481","imageIndex":17,"items":[{"name":"(주)삼원건축사사무소","tel":"031-775-4080","addr":"경기도 양평군 양평읍 양근리 400-9번지","indutype":"용역 서비스 - 사무서비스","category":"other"}]},{"lat":"37.48797315","long":"127.4912518","imageIndex":17,"items":[{"name":"(주)아웃도어브릿지","tel":"02-2242-1919","addr":"경기도 양평군 양평읍 양근리 271-1번지 지하1층","indutype":"레져용품 - 스포츠·레져용품","category":"other"},{"name":"양평컴퓨터시스템","tel":"031-74-1472","addr":"경기도 양평군 양평읍 양근리 271-1번지","indutype":"사무통신 - 컴퓨터","category":"other"}]},{"lat":"37.489939502","long":"127.49506381","imageIndex":17,"items":[{"name":"(주)양평월드컵고속관광","tel":"031-771-7002","addr":"경기도 양평군 양평읍 양근리 181-9","indutype":"여행 - 관광여행","category":"other"},{"name":"비와이씨(BYC)백운점","tel":"031-771-3491","addr":"경기도 양평군 양평읍 양근리 181-9번지","indutype":"의류 - 내의판매","category":"other"},{"name":"씨유양평시민로점","tel":"031-774-3861","addr":"경기도 양평군 양평읍 양근리 181-9번지 김정아음악학원 101호","indutype":"유통업 영리 - 편 의 점","category":"other"}]},{"lat":"37.495997093","long":"127.48780984","imageIndex":17,"items":[{"name":"(주)엔오에스/특별할부","tel":"031-772-8636","addr":"경기도 양평군 양평읍 양근리 100-11번지","indutype":"사무통신 - 사무용 OA기기","category":"other"},{"name":"바이크루","tel":"031-774-4238","addr":"경기도 양평군 양평읍 양근리 100-11번지 (주)엔오에스","indutype":"레져용품 - 스포츠·레져용품","category":"other"}]},{"lat":"37.503497237","long":"127.49339986","imageIndex":17,"items":[{"name":"(주)자연그룹(JY GROUP Inc.)","tel":"031-772-5889","addr":"경기도 양평군 양평읍 양근리 2-2번지","indutype":"건축자재 - 목재·석재·철물","category":"other"}]},{"lat":"37.487666356","long":"127.49136287","imageIndex":17,"items":[{"name":"(주)최병학토목측량설계공","tel":"031-774-7110","addr":"경기도 양평군 양평읍 양근리 269-16번지","indutype":"기타 - 기타 전문점","category":"other"}]},{"lat":"37.487357836","long":"127.49406318","imageIndex":17,"items":[{"name":"(주)코리아세븐양평3호점/1142호점","tel":"031-771-7591","addr":"경기도 양평군 양평읍 양근리 222-7번지","indutype":"유통업 영리 - 편 의 점","category":"other"},{"name":"진화철물","tel":"031-772-1028","addr":"경기도 양평군 양평읍 양근리 222-7번지","indutype":"주방용구 - 정수기","category":"other"}]},{"lat":"37.490467722","long":"127.49587009","imageIndex":17,"items":[{"name":"(주)코리아세븐양평6호점","tel":"031-774-4329","addr":"경기도 양평군 양평읍 양근리 176-14번지","indutype":"유통업 영리 - 편 의 점","category":"other"}]},{"lat":"37.490689685","long":"127.48795645","imageIndex":17,"items":[{"name":"(주)토우건축사사무소","tel":"031-774-0545","addr":"경기도 양평군 양평읍 양근리 441-6","indutype":"용역 서비스 - 사무서비스","category":"other"},{"name":"터건축사사무소","tel":"031-773-9844","addr":"경기도 양평군 양평읍 양근리 441-6번지","indutype":"용역 서비스 - 법률회계서비스(개인)","category":"other"},{"name":"토우측량설계사무소","tel":"031-774-0545","addr":"경기도 양평군 양평읍 양근리 441-6번지 동소 441-9","indutype":"용역 서비스 - 사무서비스","category":"other"}]},{"lat":"37.490355539","long":"127.48814651","imageIndex":17,"items":[{"name":"(주)한강아이티","tel":"031-771-1215","addr":"경기도 양평군 양평읍 양근리 432-4번지","indutype":"사무통신 - 컴퓨터","category":"other"}]},{"lat":"37.490910277","long":"127.4890886","imageIndex":17,"items":[{"name":"(주)희우건축사사무소","tel":"031-774-2688","addr":"경기도 양평군 양평읍 양근리 422-17번지","indutype":"용역 서비스 - 법률회계서비스(법인)","category":"other"},{"name":"고려종합인쇄","tel":"031-771-2269","addr":"경기도 양평군 양평읍 양근리 422-17번지","indutype":"서적문구 - 출판 및 인쇄물","category":"other"},{"name":"유당측량토목설계공사","tel":"031-772-5911","addr":"경기도 양평군 양평읍 양근리 422-17번지 삼정빌딩 4층","indutype":"용역 서비스 - 사무서비스","category":"other"},{"name":"주식회사자인건축사사무소","tel":"031-774-2158","addr":"경기도 양평군 양평읍 양근리 422-17번지 6층 삼정빌딩","indutype":"용역 서비스 - 사무서비스","category":"other"}]},{"lat":"37.489441625","long":"127.49128397","imageIndex":17,"items":[{"name":"101 container","tel":"031-771-1320","addr":"경기도 양평군 양평읍 양근리 309-1번지","indutype":"의류 - 정장","category":"other"},{"name":"공사중","tel":"","addr":"경기도 양평군 양평읍 양근리 309-1번지 1층","indutype":"의류 - 정장","category":"other"},{"name":"달밤","tel":"031-1111-1111","addr":"경기도 양평군 양평읍 양근리 309-1번지 1층","indutype":"의류 - 정장","category":"other"},{"name":"이유프로덕션","tel":"031-773-2229","addr":"경기도 양평군 양평읍 양근리 309-1번지 2층","indutype":"광학제품 - 사진관","category":"other"}]},{"lat":"37.491856875","long":"127.49331242","imageIndex":17,"items":[{"name":"GS25양평관문점","tel":"","addr":"경기도 양평군 양평읍 양근리 164-1번지","indutype":"유통업 영리 - 편 의 점","category":"other"}]},{"lat":"37.49108146","long":"127.48908971","imageIndex":17,"items":[{"name":"GS25양평군청점","tel":"","addr":"경기도 양평군 양평읍 양근리 422-2번지 1층","indutype":"유통업 영리 - 편 의 점","category":"other"},{"name":"부경건축사사무소","tel":"031-771-0010","addr":"경기도 양평군 양평읍 양근리 422-2번지 태강빌딩 2층","indutype":"용역 서비스 - 사무서비스","category":"other"},{"name":"양평시네마","tel":"031-771-2154","addr":"경기도 양평군 양평읍 양근리 422-2번지","indutype":"문화.취미 - 영화관","category":"other"},{"name":"주식회사 진성토목측량설계공사","tel":"031-774-6181","addr":"경기도 양평군 양평읍 양근리 422-2","indutype":"기타 - 기타 전문점","category":"other"},{"name":"진성건축사사무소","tel":"031-774-6181","addr":"경기도 양평군 양평읍 양근리 422-2번지 태강빌딩 6층","indutype":"용역 서비스 - 사무서비스","category":"other"},{"name":"하이리코스메틱","tel":"","addr":"경기도 양평군 양평읍 양근리 422-2번지 태강빌딩","indutype":"신변잡화 - 기타잡화","category":"other"}]},{"lat":"37.496578221","long":"127.49109297","imageIndex":17,"items":[{"name":"GS25양평그린점","tel":"","addr":"경기도 양평군 양평읍 양근리 91-15번지","indutype":"유통업 영리 - 편 의 점","category":"other"},{"name":"위드미양평그린점","tel":"02-6916-1500","addr":"경기도 양평군 양평읍 양근리 91-15번지","indutype":"유통업 영리 - 편 의 점","category":"other"}]},{"lat":"37.489887193","long":"127.49247412","imageIndex":17,"items":[{"name":"TRY양평점이레상사","tel":"031-771-0009","addr":"경기도 양평군 양평읍 양근리 359-10","indutype":"레져용품 - 스포츠·레져용품","category":"other"}]},{"lat":"37.490801984","long":"127.49131544","imageIndex":17,"items":[{"name":"TWO-A(투에이)","tel":"031-771-8027","addr":"경기도 양평군 양평읍 양근리 409-3","indutype":"서적문구 - 문구용품","category":"other"}]},{"lat":"37.490830406","long":"127.49747811","imageIndex":17,"items":[{"name":"가구프라자","tel":"031-775-8909","addr":"경기도 양평군 양평읍 양근리 174-1번지","indutype":"가구 - 일반가구","category":"other"}]},{"lat":"37.49622273","long":"127.49208577","imageIndex":17,"items":[{"name":"가비","tel":"","addr":"경기도 양평군 양평읍 양근리 137-70번지 1층 2호","indutype":"신변잡화 - 액세서리","category":"other"},{"name":"린나이 양평서비스","tel":"031-772-0365","addr":"경기도 양평군 양평읍 양근리 137-70번지 4호","indutype":"건축자재 - 보일러·펌프·샷시","category":"other"},{"name":"조은종합장식","tel":"031-775-8999","addr":"경기도 양평군 양평읍 양근리 137-70번지 ((1,2호))","indutype":"직물 - 카페트,커튼,천막,지물","category":"other"},{"name":"폼 잡는 개","tel":"031-773-8322","addr":"경기도 양평군 양평읍 양근리 137-70번지 7호","indutype":"문화.취미 - 애완동물","category":"other"},{"name":"하얀기쁨","tel":"","addr":"경기도 양평군 양평읍 양근리 137-70번지","indutype":"수리서비스 - 세탁소","category":"other"}]},{"lat":"37.488138474","long":"127.49483716","imageIndex":17,"items":[{"name":"가비","tel":"","addr":"경기도 양평군 양평읍 양근리 192-142번지 1층","indutype":"신변잡화 - 액세서리","category":"other"}]},{"lat":"37.48999573","long":"127.49237307","imageIndex":17,"items":[{"name":"가스펠","tel":"031-774-6353","addr":"경기도 양평군 양평읍 양근리 359-3번지 1층","indutype":"신변잡화 - 제화","category":"other"},{"name":"골든밸리","tel":"031-774-0851","addr":"경기도 양평군 양평읍 양근리 359-3번지","indutype":"신변잡화 - 액세서리","category":"other"},{"name":"페리미츠 소이","tel":"031-772-2545","addr":"경기도 양평군 양평읍 양근리 359-3번지 1층","indutype":"의류 - 아동의류","category":"other"}]},{"lat":"37.491606901","long":"127.48839206","imageIndex":17,"items":[{"name":"강산측량설계사무소","tel":"031-774-0005","addr":"경기도 양평군 양평읍 양근리 446-5번지","indutype":"용역 서비스 - 사무서비스","category":"other"}]},{"lat":"37.495108019","long":"127.49147918","imageIndex":17,"items":[{"name":"건강지킴이","tel":"031-773-6981","addr":"경기도 양평군 양평읍 양근리 139-7번지 402호","indutype":"회원제형태 - 레져업소","category":"other"}]},{"lat":"37.491334288","long":"127.48895566","imageIndex":17,"items":[{"name":"건국측량설계사무소","tel":"031-775-8558","addr":"경기도 양평군 양평읍 양근리 637-13","indutype":"용역 서비스 - 사무서비스","category":"other"}]},{"lat":"37.489470243","long":"127.49089972","imageIndex":17,"items":[{"name":"경기양평나래이동통신","tel":"031-771-2065","addr":"경기도 양평군 양평읍 양근리 349-4번지","indutype":"사무통신 - 통신기기","category":"other"},{"name":"주식회사 행복한세계로","tel":"031-775-1237","addr":"경기도 양평군 양평읍 양근리 349-4번지","indutype":"여행 - 관광여행","category":"other"}]},{"lat":"37.490992681","long":"127.49095485","imageIndex":17,"items":[{"name":"골드라인","tel":"031-771-8249","addr":"경기도 양평군 양평읍 양근리 405-1번지","indutype":"신변잡화 - 귀금속","category":"other"}]},{"lat":"37.49018933","long":"127.49131145","imageIndex":17,"items":[{"name":"광전사","tel":"031-771-2148","addr":"경기도 양평군 양평읍 양근리 410-9번지","indutype":"신변잡화 - 기타잡화","category":"other"}]},{"lat":"37.489584762","long":"127.49370463","imageIndex":17,"items":[{"name":"구제 갤러리","tel":"031-772-1735","addr":"경기도 양평군 양평읍 양근리 205-1번지","indutype":"의류 - 정장","category":"other"}]},{"lat":"37.490301534","long":"127.49467043","imageIndex":17,"items":[{"name":"그린시스템","tel":"031-775-0200","addr":"경기도 양평군 양평읍 양근리 180-5번지 양평프라자 104호","indutype":"사무통신 - 통신기기","category":"other"},{"name":"뮤토(MUTO PC)","tel":"","addr":"경기도 양평군 양평읍 양근리 180-5번지","indutype":"수리서비스 - 사무·통신기기수리","category":"other"},{"name":"신발공판장","tel":"031-771-0069","addr":"경기도 양평군 양평읍 양근리 180-5번지 1층 3호","indutype":"신변잡화 - 신발","category":"other"}]},{"lat":"37.489078949","long":"127.49183565","imageIndex":17,"items":[{"name":"그린조이 양평점","tel":"031-772-7754","addr":"경기도 양평군 양평읍 양근리 303-2번지","indutype":"의류 - 정장","category":"other"}]},{"lat":"37.492104381","long":"127.48792036","imageIndex":17,"items":[{"name":"길 법무사사무소","tel":"031-771-1188","addr":"경기도 양평군 양평읍 양근리 397-23번지","indutype":"용역 서비스 - 법률회계서비스(개인)","category":"other"},{"name":"법무법인 여일 양평분사무소","tel":"031-775-1507","addr":"경기도 양평군 양평읍 양근리 397-23번지","indutype":"용역 서비스 - 법률회계서비스(법인)","category":"other"}]},{"lat":"37.499797435","long":"127.49261798","imageIndex":17,"items":[{"name":"김목수네","tel":"","addr":"경기도 양평군 양평읍 양근리 44-2번지","indutype":"문화.취미 - 민예·공예품","category":"other"},{"name":"한국음향","tel":"031-633-4728","addr":"경기도 양평군 양평읍 양근리 44-2번지","indutype":"전기제품 - 가전제품","category":"other"},{"name":"한성종합설비","tel":"031-774-8282","addr":"경기도 양평군 양평읍 양근리 44-2번지","indutype":"건축자재 - 보일러·펌프·샷시","category":"other"}]},{"lat":"37.490078783","long":"127.49189871","imageIndex":17,"items":[{"name":"깡통","tel":"031-771-7026","addr":"경기도 양평군 양평읍 양근리 356-12번지","indutype":"의류 - 정장","category":"other"},{"name":"대한상회","tel":"031-771-2208","addr":"경기도 양평군 양평읍 양근리 356-12번지","indutype":"직물 - 옷감·직물","category":"other"}]},{"lat":"37.489694755","long":"127.49325306","imageIndex":17,"items":[{"name":"꽃인가봄","tel":"","addr":"경기도 양평군 양평읍 양근리 206-5번지 2층 1호","indutype":"문화.취미 - 문화취미기타","category":"other"},{"name":"돌실나이양평점","tel":"031-774-1236","addr":"경기도 양평군 양평읍 양근리 206-5번지","indutype":"의류 - 스포츠의류","category":"other"},{"name":"올리비아로렌양평점","tel":"031-774-7776","addr":"경기도 양평군 양평읍 양근리 206-5번지","indutype":"레져용품 - 스포츠·레져용품","category":"other"}]},{"lat":"37.489720456","long":"127.49139886","imageIndex":17,"items":[{"name":"날개양품","tel":"031-771-3281","addr":"경기도 양평군 양평읍 양근리 306-3번지","indutype":"의류 - 정장","category":"other"},{"name":"에꼴리에양평점","tel":"031-772-2445","addr":"경기도 양평군 양평읍 양근리 306-3번지","indutype":"의류 - 아동의류","category":"other"}]},{"lat":"37.489522305","long":"127.49355723","imageIndex":17,"items":[{"name":"놀숲 양평점","tel":"031-773-7471","addr":"경기도 양평군 양평읍 양근리 204-3번지 2층,3층","indutype":"서적문구 - 일반서적","category":"other"},{"name":"매직박스","tel":"031-774-7088","addr":"경기도 양평군 양평읍 양근리 204-3번지","indutype":"광학제품 - 사진관","category":"other"},{"name":"투탕카맨","tel":"031-773-9746","addr":"경기도 양평군 양평읍 양근리 204-3번지","indutype":"의류 - 정장","category":"other"},{"name":"홍농종묘농약사","tel":"031-773-0577","addr":"경기도 양평군 양평읍 양근리 204-3번지","indutype":"농업 - 비료,사료,종자","category":"other"}]},{"lat":"37.490215932","long":"127.4892311","imageIndex":17,"items":[{"name":"농협은행(주)양평군지부","tel":"031-772-2770","addr":"경기도 양평군 양평읍 양근리 429번지","indutype":"유통업 비영리 - 농,축협 직영매장","category":"other"}]},{"lat":"37.495826167","long":"127.49211711","imageIndex":17,"items":[{"name":"늑대와여우","tel":"031-771-5337","addr":"경기도 양평군 양평읍 양근리 137-61번지","indutype":"사무통신 - 컴퓨터","category":"other"}]},{"lat":"37.502688233","long":"127.49511355","imageIndex":17,"items":[{"name":"다올조경","tel":"031-773-4645","addr":"경기도 양평군 양평읍 양근리 12-8번지","indutype":"문화.취미 - 화원","category":"other"}]},{"lat":"37.487444133","long":"127.49280869","imageIndex":17,"items":[{"name":"대건보강토","tel":"031-771-4503","addr":"경기도 양평군 양평읍 양근리 229-2번지","indutype":"용역 서비스 - 기타용역서비스","category":"other"}]},{"lat":"37.487190762","long":"127.49089619","imageIndex":17,"items":[{"name":"대교공구마트","tel":"031-775-0949","addr":"경기도 양평군 양평읍 양근리 274-3번지 천보빌딩 1층 101호","indutype":"기타 - 기계공구","category":"other"},{"name":"성원스포츠","tel":"031-774-5698","addr":"경기도 양평군 양평읍 양근리 274-3 1층3호","indutype":"레져용품 - 스포츠·레져용품","category":"other"},{"name":"아방스","tel":"031-772-1017","addr":"경기도 양평군 양평읍 양근리 274-3번지 천보빌딩 103호","indutype":"직물 - 침구·수예점","category":"other"}]},{"lat":"37.489496944","long":"127.49097904","imageIndex":17,"items":[{"name":"대명지물","tel":"031-774-7978","addr":"경기도 양평군 양평읍 양근리 349-3번지","indutype":"건축자재 - 인테리어전문","category":"other"},{"name":"서진정보통신","tel":"031-773-6990","addr":"경기도 양평군 양평읍 양근리 349-3번지","indutype":"사무통신 - 통신기기","category":"other"},{"name":"이쁜걸","tel":"","addr":"경기도 양평군 양평읍 양근리 349-3번지","indutype":"의류 - 정장","category":"other"}]},{"lat":"37.49632873","long":"127.48823039","imageIndex":17,"items":[{"name":"대한스크린골프","tel":"031-771-1660","addr":"경기도 양평군 양평읍 양근리 100-8번지","indutype":"회원제형태 - 레져업소","category":"other"}]},{"lat":"37.494164646","long":"127.48645236","imageIndex":17,"items":[{"name":"대한지적공사양평군지사","tel":"031-771-2609","addr":"경기도 양평군 양평읍 양근리 528-22번지","indutype":"기타 - 비영리/대상","category":"other"}]},{"lat":"37.491721609","long":"127.48898079","imageIndex":17,"items":[{"name":"대한측량공사","tel":"031-774-9090","addr":"경기도 양평군 양평읍 양근리 400-5","indutype":"용역 서비스 - 기타용역서비스","category":"other"},{"name":"세무법인 서광 양평지점","tel":"031-775-1374","addr":"경기도 양평군 양평읍 양근리 400-5번지 1층","indutype":"용역 서비스 - 법률회계서비스(법인)","category":"other"},{"name":"태원디자인","tel":"031-774-5032","addr":"경기도 양평군 양평읍 양근리 400-5번지 지하1층","indutype":"용역 서비스 - 사무서비스","category":"other"}]},{"lat":"37.489216776","long":"127.49336301","imageIndex":17,"items":[{"name":"대흥주단","tel":"031-772-1726","addr":"경기도 양평군 양평읍 양근리 199-1번지","indutype":"의류 - 맞춤복점","category":"other"},{"name":"행복한 그릇","tel":"031-772-7796","addr":"경기도 양평군 양평읍 양근리 199-1번지","indutype":"신변잡화 - 기타잡화","category":"other"}]},{"lat":"37.490300668","long":"127.49053198","imageIndex":17,"items":[{"name":"더프레임","tel":"","addr":"경기도 양평군 양평읍 양근리 411-14번지 A동","indutype":"가구 - 기타가구","category":"other"},{"name":"로즈마리파티플라워","tel":"031-771-2171","addr":"경기도 양평군 양평읍 양근리 411-14번지","indutype":"문화.취미 - 민예·공예품","category":"other"},{"name":"안녕,낯선사람","tel":"031-771-7696","addr":"경기도 양평군 양평읍 양근리 411-14번지","indutype":"의류 - 정장","category":"other"},{"name":"코코로즈","tel":"","addr":"경기도 양평군 양평읍 양근리 411-14번지 D동","indutype":"의류 - 정장","category":"other"}]},{"lat":"37.50188358","long":"127.49361548","imageIndex":17,"items":[{"name":"동서석재","tel":"031-772-5915","addr":"경기도 양평군 양평읍 양근리 26-2번지","indutype":"건축자재 - 목재·석재·철물","category":"other"},{"name":"친절한설비인테리어","tel":"031-774-8220","addr":"경기도 양평군 양평읍 양근리 26-2번지","indutype":"건축자재 - 인테리어전문","category":"other"}]},{"lat":"37.489136816","long":"127.49309112","imageIndex":17,"items":[{"name":"동아서점오피스디포양평점","tel":"031-771-3700","addr":"경기도 양평군 양평읍 양근리 201-13번지 동아빌딩 1층","indutype":"서적문구 - 일반서적","category":"other"},{"name":"동아서점오피스디포양평점","tel":"031-771-3700","addr":"경기도 양평군 양평읍 양근리 201-13번지","indutype":"서적문구 - 일반서적","category":"other"},{"name":"매직박스스튜디오","tel":"031-774-3438","addr":"경기도 양평군 양평읍 양근리 201-13","indutype":"광학제품 - 사진관","category":"other"}]},{"lat":"37.487189424","long":"127.49339498","imageIndex":17,"items":[{"name":"동일바이크","tel":"031-771-3909","addr":"경기도 양평군 양평읍 양근리 231번지","indutype":"수리서비스 - 레져용품수리","category":"other"}]},{"lat":"37.488693373","long":"127.49356311","imageIndex":17,"items":[{"name":"두두림","tel":"070-8152-7016","addr":"경기도 양평군 양평읍 양근리 215-4번지 동현주택 301호","indutype":"의류 - 내의판매","category":"other"}]},{"lat":"37.490803511","long":"127.48876","imageIndex":17,"items":[{"name":"두리하나","tel":"031-773-7745","addr":"경기도 양평군 양평읍 양근리 424-3번지 3층","indutype":"기타의료기관 - 기타의료기관 및 기타","category":"other"},{"name":"삼화칠공사","tel":"031-772-2827","addr":"경기도 양평군 양평읍 양근리 424-3번지","indutype":"건축자재 - 보일러·펌프·샷시","category":"other"}]},{"lat":"37.490414103","long":"127.49142599","imageIndex":17,"items":[{"name":"드보라화원","tel":"031-771-8891","addr":"경기도 양평군 양평읍 양근리 410-17번지","indutype":"문화.취미 - 화원","category":"other"},{"name":"드보라화원","tel":"031-771-3457","addr":"경기도 양평군 양평읍 양근리 410-17번지","indutype":"문화.취미 - 화원","category":"other"},{"name":"물고기","tel":"031-772-5552","addr":"경기도 양평군 양평읍 양근리 410-17번지","indutype":"의류 - 정장","category":"other"},{"name":"미니골드(양평점)","tel":"031-773-1288","addr":"경기도 양평군 양평읍 양근리 410-17번지 1층","indutype":"신변잡화 - 액세서리","category":"other"},{"name":"이끌리지오","tel":"070-7758-7512","addr":"경기도 양평군 양평읍 양근리 410-17번지 1층","indutype":"의류 - 정장","category":"other"}]},{"lat":"37.490777295","long":"127.49725161","imageIndex":17,"items":[{"name":"로그인시스템","tel":"031-772-8982","addr":"경기도 양평군 양평읍 양근리 174-4번지","indutype":"사무통신 - 컴퓨터","category":"other"},{"name":"양평애견","tel":"031-773-6982","addr":"경기도 양평군 양평읍 양근리 174-4번지","indutype":"문화.취미 - 애완동물","category":"other"}]},{"lat":"37.489445734","long":"127.49028897","imageIndex":17,"items":[{"name":"루디아","tel":"031-771-6683","addr":"경기도 양평군 양평읍 양근리 314-1번지 루디아","indutype":"의류 - 정장","category":"other"},{"name":"월드통신양평점","tel":"031-773-1618","addr":"경기도 양평군 양평읍 양근리 314-1번지","indutype":"사무통신 - 통신기기","category":"other"}]},{"lat":"37.489078341","long":"127.49198264","imageIndex":17,"items":[{"name":"리스트 양평점","tel":"","addr":"경기도 양평군 양평읍 양근리 303-1번지 리스트양평점","indutype":"의류 - 정장","category":"other"},{"name":"리스트양평점","tel":"031-771-9229","addr":"경기도 양평군 양평읍 양근리 303-1번지","indutype":"의류 - 정장","category":"other"}]},{"lat":"37.489525074","long":"127.49289012","imageIndex":17,"items":[{"name":"만능티브이냉동사","tel":"031-771-5329","addr":"경기도 양평군 양평읍 양근리 167-22번지","indutype":"전기제품 - 가전제품","category":"other"},{"name":"파비안느","tel":"031-772-2599","addr":"경기도 양평군 양평읍 양근리 167-22번지","indutype":"의류 - 정장","category":"other"}]},{"lat":"37.48977814","long":"127.49269956","imageIndex":17,"items":[{"name":"맨투맨","tel":"031-774-2922","addr":"경기도 양평군 양평읍 양근리 167-15번지","indutype":"의류 - 맞춤복점","category":"other"}]},{"lat":"37.490939027","long":"127.48867042","imageIndex":17,"items":[{"name":"메리퓨어","tel":"070-7150-8990","addr":"경기도 양평군 양평읍 양근리 444-2번지","indutype":"회원제형태 - 기타1","category":"other"},{"name":"주영토목측량설계사무소","tel":"031-774-4445","addr":"경기도 양평군 양평읍 양근리 444-2","indutype":"용역 서비스 - 사무서비스","category":"other"}]},{"lat":"37.490856509","long":"127.49120272","imageIndex":17,"items":[{"name":"멜(MELL)","tel":"031-772-6000","addr":"경기도 양평군 양평읍 양근리 406-1번지","indutype":"의류 - 정장","category":"other"},{"name":"알파피오피","tel":"031-771-0383","addr":"경기도 양평군 양평읍 양근리 406-1번지 3층","indutype":"건축자재 - 인테리어전문","category":"other"}]},{"lat":"37.489632089","long":"127.49097992","imageIndex":17,"items":[{"name":"명동의류","tel":"031-773-5412","addr":"경기도 양평군 양평읍 양근리 351-4","indutype":"의류 - 정장","category":"other"}]},{"lat":"37.49013233","long":"127.48984115","imageIndex":17,"items":[{"name":"모아세탁","tel":"031-774-5633","addr":"경기도 양평군 양평읍 양근리 414-4번지 101호","indutype":"수리서비스 - 세탁소","category":"other"}]},{"lat":"37.490777478","long":"127.49070469","imageIndex":17,"items":[{"name":"미공사","tel":"031-772-2528","addr":"경기도 양평군 양평읍 양근리 410-13번지","indutype":"서적문구 - 문구용품","category":"other"},{"name":"은성타일","tel":"031-774-3050","addr":"경기도 양평군 양평읍 양근리 410-13번지","indutype":"건축자재 - 건축용 요업제품","category":"other"}]},{"lat":"37.492136622","long":"127.49103014","imageIndex":17,"items":[{"name":"바바2","tel":"","addr":"경기도 양평군 양평읍 양근리 376-4번지 오성프라자 201호","indutype":"의류 - 정장","category":"other"},{"name":"휴인테리어","tel":"031-774-6665","addr":"경기도 양평군 양평읍 양근리 376-4번지 503호","indutype":"가구 - 기타가구","category":"other"}]},{"lat":"37.487744776","long":"127.49200787","imageIndex":17,"items":[{"name":"백만돌이정보통신","tel":"031-771-7111","addr":"경기도 양평군 양평읍 양근리 262-1번지 외2필지","indutype":"사무통신 - 통신기기","category":"other"}]},{"lat":"37.491715481","long":"127.48827969","imageIndex":17,"items":[{"name":"백운인쇄","tel":"031-771-0325","addr":"경기도 양평군 양평읍 양근리 446-29번지","indutype":"서적문구 - 출판 및 인쇄물","category":"other"},{"name":"법무사박병확사무소","tel":"031-774-1692","addr":"경기도 양평군 양평읍 양근리 446-29","indutype":"용역 서비스 - 법률회계서비스(개인)","category":"other"}]},{"lat":"37.49196854","long":"127.4880891","imageIndex":17,"items":[{"name":"법무사김공엽사무소","tel":"031-771-1133","addr":"경기도 양평군 양평읍 양근리 397-8번지 용상빌딩 1층","indutype":"용역 서비스 - 법률회계서비스(개인)","category":"other"},{"name":"주식회사양평시민의소리신문","tel":"031-773-5482","addr":"경기도 양평군 양평읍 양근리 397-8번지 용상빌딩 4층","indutype":"용역 서비스 - 종합용역","category":"other"},{"name":"한샘","tel":"031-774-2145","addr":"경기도 양평군 양평읍 양근리 397-8번지 101호","indutype":"직물 - 카페트,커튼,천막,지물","category":"other"}]},{"lat":"37.491414351","long":"127.48920495","imageIndex":17,"items":[{"name":"법무사윤용하사무소","tel":"031-775-8780","addr":"경기도 양평군 양평읍 양근리 400-14 ,1,8,20","indutype":"용역 서비스 - 법률회계서비스(개인)","category":"other"}]},{"lat":"37.491722632","long":"127.48873203","imageIndex":17,"items":[{"name":"법무사전대진사무소","tel":"031-773-5656","addr":"경기도 양평군 양평읍 양근리 446-7번지 하늘타워 7층","indutype":"용역 서비스 - 법률회계서비스(개인)","category":"other"},{"name":"주식회사 다솔물환경연구소","tel":"031-772-4530","addr":"경기도 양평군 양평읍 양근리 446-7번지","indutype":"용역 서비스 - 사무서비스","category":"other"}]},{"lat":"37.487438683","long":"127.49194934","imageIndex":17,"items":[{"name":"벽창호","tel":"031-775-3535","addr":"경기도 양평군 양평읍 양근리 263-3번지","indutype":"직물 - 카페트,커튼,천막,지물","category":"other"}]},{"lat":"37.492411404","long":"127.48775274","imageIndex":17,"items":[{"name":"변호사김양호법률사무소","tel":"031-774-2363","addr":"경기도 양평군 양평읍 양근리 396-19번지 103호","indutype":"용역 서비스 - 법률회계서비스(개인)","category":"other"},{"name":"웰빙편의점","tel":"031-773-6358","addr":"경기도 양평군 양평읍 양근리 396-19번지","indutype":"유통업 영리 - 편 의 점","category":"other"}]},{"lat":"37.489551633","long":"127.49300337","imageIndex":17,"items":[{"name":"보금당","tel":"031-771-3465","addr":"경기도 양평군 양평읍 양근리 207-2번지","indutype":"신변잡화 - 귀금속","category":"other"},{"name":"양평종묘사","tel":"031-772-1905","addr":"경기도 양평군 양평읍 양근리 207-2번지","indutype":"농업 - 비료,사료,종자","category":"other"}]},{"lat":"37.490306097","long":"127.49789302","imageIndex":17,"items":[{"name":"봄 CCTV","tel":"031-774-6655","addr":"경기도 양평군 양평읍 양근리 192-188번지","indutype":"사무통신 - 통신기기","category":"other"}]},{"lat":"37.488942869","long":"127.49206091","imageIndex":17,"items":[{"name":"비버리힐스폴로클럽","tel":"031-775-0470","addr":"경기도 양평군 양평읍 양근리 302-8","indutype":"레져용품 - 스포츠·레져용품","category":"other"}]},{"lat":"37.490581459","long":"127.49017197","imageIndex":17,"items":[{"name":"빈티지갤러리광","tel":"031-3903-9423","addr":"경기도 양평군 양평읍 양근리 411-5번지","indutype":"의류 - 정장","category":"other"}]},{"lat":"37.490939678","long":"127.48851212","imageIndex":17,"items":[{"name":"사운드스케치","tel":"","addr":"경기도 양평군 양평읍 양근리 444-7번지 2층","indutype":"용역 서비스 - 종합용역","category":"other"}]},{"lat":"37.490856079","long":"127.4956465","imageIndex":17,"items":[{"name":"산들산림기술사사무소","tel":"02-786-2296","addr":"경기도 양평군 양평읍 양근리 178-3번지 양평맨션 2동 213호","indutype":"용역 서비스 - 사무서비스","category":"other"}]},{"lat":"37.487360823","long":"127.49116866","imageIndex":17,"items":[{"name":"삼양사사료","tel":"031-771-9298","addr":"경기도 양평군 양평읍 양근리 269-2","indutype":"농업 - 비료,사료,종자","category":"other"}]},{"lat":"37.490051011","long":"127.48989715","imageIndex":17,"items":[{"name":"삼진인쇄소","tel":"031-771-2312","addr":"경기도 양평군 양평읍 양근리 414-2","indutype":"서적문구 - 출판 및 인쇄물","category":"other"}]},{"lat":"37.490854218","long":"127.49175677","imageIndex":17,"items":[{"name":"샘솟네완구","tel":"031-772-7877","addr":"경기도 양평군 양평읍 양근리 408-9","indutype":"서적문구 - 완구점","category":"other"}]},{"lat":"37.487944626","long":"127.49161343","imageIndex":17,"items":[{"name":"서울낚시","tel":"031-771-3627","addr":"경기도 양평군 양평읍 양근리 269-1번지","indutype":"레져용품 - 스포츠·레져용품","category":"other"},{"name":"코렉스","tel":"031-771-3392","addr":"경기도 양평군 양평읍 양근리 269-1번지","indutype":"레져용품 - 스포츠·레져용품","category":"other"}]},{"lat":"37.489553696","long":"127.49250587","imageIndex":17,"items":[{"name":"서울의류","tel":"031-771-3314","addr":"경기도 양평군 양평읍 양근리 355-2번지","indutype":"의류 - 정장","category":"other"}]},{"lat":"37.490583976","long":"127.4895614","imageIndex":17,"items":[{"name":"선화에스테틱","tel":"031-774-4137","addr":"경기도 양평군 양평읍 양근리 417-1번지 6층","indutype":"회원제형태 - 기타4","category":"other"},{"name":"휘트니스피플","tel":"031-771-1347","addr":"경기도 양평군 양평읍 양근리 417-1번지 3층","indutype":"회원제형태 - 레져업소","category":"other"}]},{"lat":"37.496610674","long":"127.48758764","imageIndex":17,"items":[{"name":"성우","tel":"031-772-6488","addr":"경기도 양평군 양평읍 양근리 99-19번지 1층","indutype":"건축자재 - 건축용 요업제품","category":"other"}]},{"lat":"37.489554456","long":"127.49014269","imageIndex":17,"items":[{"name":"세븐일레븐양평본점","tel":"","addr":"경기도 양평군 양평읍 양근리 342-2번지","indutype":"유통업 영리 - 편 의 점","category":"other"}]},{"lat":"37.489522712","long":"127.4912845","imageIndex":17,"items":[{"name":"세븐일레븐양평시장점","tel":"031-1577-0711","addr":"경기도 양평군 양평읍 양근리 307-5번지 101호","indutype":"유통업 영리 - 편 의 점","category":"other"}]},{"lat":"37.495023844","long":"127.49222495","imageIndex":17,"items":[{"name":"솔로몬크리닝","tel":"031-773-7667","addr":"경기도 양평군 양평읍 양근리 141-2번지","indutype":"수리서비스 - 세탁소","category":"other"},{"name":"퀼트의모임","tel":"031-474-4750","addr":"경기도 양평군 양평읍 양근리 141-2번지 (9호)","indutype":"직물 - 옷감·직물","category":"other"}]},{"lat":"37.490967961","long":"127.48820701","imageIndex":17,"items":[{"name":"송준측량설계사무소","tel":"031-773-6941","addr":"경기도 양평군 양평읍 양근리 444-9번지 1층","indutype":"용역 서비스 - 사무서비스","category":"other"}]},{"lat":"37.489859828","long":"127.49472407","imageIndex":17,"items":[{"name":"수컬렉션","tel":"","addr":"경기도 양평군 양평읍 양근리 195-9번지","indutype":"신변잡화 - 신발","category":"other"},{"name":"연우공방","tel":"031-775-6788","addr":"경기도 양평군 양평읍 양근리 195-9번지","indutype":"문화.취미 - 민예·공예품","category":"other"}]},{"lat":"37.490081542","long":"127.4912316","imageIndex":17,"items":[{"name":"순금당","tel":"031-771-3688","addr":"경기도 양평군 양평읍 양근리 410-27번지","indutype":"신변잡화 - 시계","category":"other"}]},{"lat":"37.488778822","long":"127.49251212","imageIndex":17,"items":[{"name":"쉬즈미스 양평점","tel":"031-772-2916","addr":"경기도 양평군 양평읍 양근리 299-8번지 1층","indutype":"의류 - 정장","category":"other"}]},{"lat":"37.48966228","long":"127.49239351","imageIndex":17,"items":[{"name":"쉬크","tel":"031-775-5040","addr":"경기도 양평군 양평읍 양근리 355-1","indutype":"레져용품 - 스포츠·레져용품","category":"other"},{"name":"페페마르니","tel":"031-773-8344","addr":"경기도 양평군 양평읍 양근리 355-1번지 2층","indutype":"의류 - 기타의류","category":"other"}]},{"lat":"37.49663298","long":"127.4909237","imageIndex":17,"items":[{"name":"쉼에스테틱","tel":"031-771-2966","addr":"경기도 양평군 양평읍 양근리 91-10번지 2층","indutype":"회원제형태 - 기타4","category":"other"},{"name":"양평전자","tel":"031-775-1448","addr":"경기도 양평군 양평읍 양근리 91-10","indutype":"전기제품 - 가전제품","category":"other"}]},{"lat":"37.487494939","long":"127.49141829","imageIndex":17,"items":[{"name":"스마일민턴","tel":"031-771-7613","addr":"경기도 양평군 양평읍 양근리 269-18번지","indutype":"레져용품 - 스포츠·레져용품","category":"other"}]},{"lat":"37.490522488","long":"127.49570084","imageIndex":17,"items":[{"name":"스파in바디","tel":"031-775-6668","addr":"경기도 양평군 양평읍 양근리 178-4번지 6층 서현빌딩","indutype":"회원제형태 - 기타4","category":"other"}]},{"lat":"37.487550607","long":"127.49320513","imageIndex":17,"items":[{"name":"신세대시스템","tel":"031-775-4188","addr":"경기도 양평군 양평읍 양근리 222-14","indutype":"사무통신 - 컴퓨터","category":"other"}]},{"lat":"37.490719308","long":"127.49169935","imageIndex":17,"items":[{"name":"신앙촌상회","tel":"031-772-4385","addr":"경기도 양평군 양평읍 양근리 409-1","indutype":"신변잡화 - 기타잡화","category":"other"}]},{"lat":"37.490579266","long":"127.4907034","imageIndex":17,"items":[{"name":"신일유리","tel":"031-771-3303","addr":"경기도 양평군 양평읍 양근리 410-24","indutype":"건축자재 - 유리","category":"other"}]},{"lat":"37.493937461","long":"127.48692583","imageIndex":17,"items":[{"name":"썬디렉팅","tel":"070-7562-7507","addr":"경기도 양평군 양평읍 양근리 655번지 코아루리버팰리스 103동 104호","indutype":"용역 서비스 - 종합용역","category":"other"}]},{"lat":"37.495969993","long":"127.4921972","imageIndex":17,"items":[{"name":"씨유양평양근점","tel":"031-878-8205","addr":"경기도 양평군 양평읍 양근리 137-60번지 1층","indutype":"유통업 영리 - 편 의 점","category":"other"}]},{"lat":"37.492248518","long":"127.49011496","imageIndex":17,"items":[{"name":"씨유양평역점","tel":"031-774-7817","addr":"경기도 양평군 양평읍 양근리 377-4번지","indutype":"유통업 영리 - 편 의 점","category":"other"}]},{"lat":"37.496748521","long":"127.48251115","imageIndex":17,"items":[{"name":"씨유양평주유소점","tel":"031-774-5151","addr":"경기도 양평군 양평읍 양근리 502-5","indutype":"유통업 영리 - 편 의 점","category":"other"}]},{"lat":"37.493468822","long":"127.48695672","imageIndex":17,"items":[{"name":"씨유양평태창점","tel":"080-080-3663","addr":"경기도 양평군 양평읍 양근리 528-71번지 태창빌딩 103호~105호","indutype":"유통업 영리 - 편 의 점","category":"other"}]},{"lat":"37.491744625","long":"127.49430675","imageIndex":17,"items":[{"name":"아는언니","tel":"031-771-3198","addr":"경기도 양평군 양평읍 양근리 170-63번지","indutype":"의류 - 정장","category":"other"}]},{"lat":"37.489633256","long":"127.49069725","imageIndex":17,"items":[{"name":"아렌통신","tel":"031-772-4442","addr":"경기도 양평군 양평읍 양근리 348-1번지","indutype":"사무통신 - 통신기기","category":"other"}]},{"lat":"37.489355171","long":"127.49040145","imageIndex":17,"items":[{"name":"아르페지오","tel":"031-774-6464","addr":"경기도 양평군 양평읍 양근리 313번지","indutype":"직물 - 침구·수예점","category":"other"}]},{"lat":"37.490688665","long":"127.4969005","imageIndex":17,"items":[{"name":"아이비클럽양평점","tel":"031-773-3933","addr":"경기도 양평군 양평읍 양근리 175-7번지","indutype":"의류 - 단체복","category":"other"}]},{"lat":"37.491244331","long":"127.48892116","imageIndex":17,"items":[{"name":"아키필건축사 사무소","tel":"031-775-1661","addr":"경기도 양평군 양평읍 양근리 445-16번지","indutype":"용역 서비스 - 사무서비스","category":"other"},{"name":"양평금거래소","tel":"031-000-0000","addr":"경기도 양평군 양평읍 양근리 445-16번지 102호","indutype":"신변잡화 - 귀금속","category":"other"},{"name":"한강광고인쇄","tel":"031-773-6663","addr":"경기도 양평군 양평읍 양근리 445-16번지","indutype":"용역 서비스 - 사무서비스","category":"other"}]},{"lat":"37.491055883","long":"127.49742306","imageIndex":17,"items":[{"name":"알로하","tel":"031-771-6807","addr":"경기도 양평군 양평읍 양근리 172-44번지","indutype":"의류 - 정장","category":"other"}]},{"lat":"37.488886375","long":"127.4926485","imageIndex":17,"items":[{"name":"얌","tel":"070-8612-9729","addr":"경기도 양평군 양평읍 양근리 300-2번지","indutype":"의류 - 정장","category":"other"},{"name":"양평열쇠","tel":"031-774-1313","addr":"경기도 양평군 양평읍 양근리 300-2번지","indutype":"건축자재 - 목재·석재·철물","category":"other"}]},{"lat":"37.491024758","long":"127.48754024","imageIndex":17,"items":[{"name":"양명측량설계사무소","tel":"031-773-8252","addr":"경기도 양평군 양평읍 양근리 438-2번지","indutype":"용역 서비스 - 사무서비스","category":"other"},{"name":"정인측량토목건축설계","tel":"031-773-4450","addr":"경기도 양평군 양평읍 양근리 438-2번지","indutype":"용역 서비스 - 사무서비스","category":"other"},{"name":"태경토목측량","tel":"031-775-1127","addr":"경기도 양평군 양평읍 양근리 438-2번지","indutype":"용역 서비스 - 사무서비스","category":"other"}]},{"lat":"37.489109391","long":"127.49101044","imageIndex":17,"items":[{"name":"양평가람이벤트풍선","tel":"031-774-7789","addr":"경기도 양평군 양평읍 양근리 290-1번지","indutype":"용역 서비스 - 종합용역","category":"other"}]},{"lat":"37.491638015","long":"127.48739721","imageIndex":17,"items":[{"name":"양평군청 세무회계과","tel":"031-770-2193","addr":"경기도 양평군 양평읍 양근리 448-8번지","indutype":"용역 서비스 - 조세서비스","category":"other"}]},{"lat":"37.49246523","long":"127.48780962","imageIndex":17,"items":[{"name":"양평기독교백화점","tel":"031-773-0153","addr":"경기도 양평군 양평읍 양근리 396-18번지 1층","indutype":"서적문구 - 전문서적","category":"other"}]},{"lat":"37.490523247","long":"127.49117794","imageIndex":17,"items":[{"name":"양평농협중앙지점","tel":"031-772-3044","addr":"경기도 양평군 양평읍 양근리 410-16번지","indutype":"유통업 비영리 - 농,축협 직영매장","category":"other"}]},{"lat":"37.489300554","long":"127.49053679","imageIndex":17,"items":[{"name":"양평백운로타리클럽","tel":"031-773-3699","addr":"경기도 양평군 양평읍 양근리 312번지 3층","indutype":"기타 - 비영리/비대상","category":"other"}]},{"lat":"37.491084038","long":"127.49065015","imageIndex":17,"items":[{"name":"양평복싱체육관","tel":"031-774-3322","addr":"경기도 양평군 양평읍 양근리 404-7번지 3층","indutype":"회원제형태 - 레져업소","category":"other"}]},{"lat":"37.491806228","long":"127.48812197","imageIndex":17,"items":[{"name":"양평사진관","tel":"031-775-4782","addr":"경기도 양평군 양평읍 양근리 446-4번지 1층","indutype":"광학제품 - 사진관","category":"other"}]},{"lat":"37.491439516","long":"127.49183973","imageIndex":17,"items":[{"name":"양평아름꽃화원","tel":"031-772-1885","addr":"경기도 양평군 양평읍 양근리 363번지","indutype":"문화.취미 - 화원","category":"other"},{"name":"행복의파수꾼","tel":"031-774-8187","addr":"경기도 양평군 양평읍 양근리 363번지","indutype":"용역 서비스 - 종합용역","category":"other"}]},{"lat":"37.488249739","long":"127.48972716","imageIndex":17,"items":[{"name":"양평알미늄샷시","tel":"031-771-4353","addr":"경기도 양평군 양평읍 양근리 325-2번지 부림연립 102호","indutype":"건축자재 - 인테리어전문","category":"other"}]},{"lat":"37.499495932","long":"127.49145122","imageIndex":17,"items":[{"name":"양평엔 푸른잔디","tel":"031-775-0488","addr":"경기도 양평군 양평읍 양근리 52-7번지","indutype":"문화.취미 - 화원","category":"other"}]},{"lat":"37.491245416","long":"127.49734516","imageIndex":17,"items":[{"name":"양평조선일보","tel":"031-772-2546","addr":"경기도 양평군 양평읍 양근리 170-47번지","indutype":"서적문구 - 정기간행물","category":"other"}]},{"lat":"37.498882109","long":"127.49172994","imageIndex":17,"items":[{"name":"양평중장비부품","tel":"031-773-1122","addr":"경기도 양평군 양평읍 양근리 50번지","indutype":"기타 - 기계공구","category":"other"}]},{"lat":"37.487244119","long":"127.49106614","imageIndex":17,"items":[{"name":"양평청년회의소","tel":"031-771-3121","addr":"경기도 양평군 양평읍 양근리 269-23번지 대교빌딩 3층","indutype":"기타 - 비영리/대상","category":"other"},{"name":"주식회사 대교종합기계","tel":"031-775-0904","addr":"경기도 양평군 양평읍 양근리 269-23번지 1층 대교빌딩","indutype":"농업 - 농기계","category":"other"}]},{"lat":"37.49224886","long":"127.48784215","imageIndex":17,"items":[{"name":"양평축산업협동조합","tel":"031-772-2292","addr":"경기도 양평군 양평읍 양근리 397-10번지","indutype":"유통업 비영리 - 농,축협 직영매장","category":"other"},{"name":"예인측량설계공사","tel":"031-772-1881","addr":"경기도 양평군 양평읍 양근리 397-10번지 양평축협 102호","indutype":"용역 서비스 - 사무서비스","category":"other"},{"name":"주식회사 라온스페이스건축사무소","tel":"031-775-7645","addr":"경기도 양평군 양평읍 양근리 397-10번지 양평축협 2층 203호","indutype":"용역 서비스 - 사무서비스","category":"other"}]},{"lat":"37.48910434","long":"127.49223157","imageIndex":17,"items":[{"name":"양평한강라이온스클럽","tel":"031-775-9202","addr":"경기도 양평군 양평읍 양근리 302-3번지","indutype":"기타 - 비영리/비대상","category":"other"}]},{"lat":"37.489076983","long":"127.49231054","imageIndex":17,"items":[{"name":"양평한강라이온스클럽","tel":"031-775-9202","addr":"경기도 양평군 양평읍 양근리 301-2 3층","indutype":"기타 - 비영리/비대상","category":"other"}]},{"lat":"37.490914256","long":"127.49030982","imageIndex":17,"items":[{"name":"에넥스양평대리점","tel":"031-771-0038","addr":"경기도 양평군 양평읍 양근리 421-3번지","indutype":"주방용구 - 주방용구","category":"other"},{"name":"일진전기조명","tel":"031-771-7888","addr":"경기도 양평군 양평읍 양근리 421-3번지","indutype":"건축자재 - 건축용 요업제품","category":"other"}]},{"lat":"37.48827522","long":"127.49228269","imageIndex":17,"items":[{"name":"에리트양평대리점","tel":"031-772-1033","addr":"경기도 양평군 양평읍 양근리 299-11번지","indutype":"의류 - 단체복","category":"other"},{"name":"주식회사엘레강스대리석","tel":"02-994-0134","addr":"경기도 양평군 양평읍 양근리 299-11번지 2층","indutype":"건축자재 - 인테리어전문","category":"other"}]},{"lat":"37.489333977","long":"127.4911702","imageIndex":17,"items":[{"name":"에스핏","tel":"031-771-7752","addr":"경기도 양평군 양평읍 양근리 309-6번지","indutype":"의류 - 아동의류","category":"other"},{"name":"올리브영 양평점","tel":"031-773-5290","addr":"경기도 양평군 양평읍 양근리 309-6번지","indutype":"유통업 영리 - 편 의 점","category":"other"}]},{"lat":"37.489942843","long":"127.49209004","imageIndex":17,"items":[{"name":"에이비플러스양평점","tel":"031-774-5002","addr":"경기도 양평군 양평읍 양근리 356-14번지","indutype":"레져용품 - 스포츠·레져용품","category":"other"},{"name":"한일주단","tel":"031-771-2203","addr":"경기도 양평군 양평읍 양근리 356-14번지","indutype":"직물 - 옷감·직물","category":"other"}]},{"lat":"37.498302792","long":"127.49019952","imageIndex":17,"items":[{"name":"에이스전기","tel":"031-774-2658","addr":"경기도 양평군 양평읍 양근리 76-5번지 104호","indutype":"용역 서비스 - 기타용역서비스","category":"other"}]},{"lat":"37.489160457","long":"127.49173442","imageIndex":17,"items":[{"name":"엘림커텐","tel":"031-773-5955","addr":"경기도 양평군 양평읍 양근리 304-4번지","indutype":"직물 - 카페트,커튼,천막,지물","category":"other"},{"name":"태경철물점","tel":"031-774-7179","addr":"경기도 양평군 양평읍 양근리 304-4번지","indutype":"건축자재 - 목재·석재·철물","category":"other"}]},{"lat":"37.490744839","long":"127.49206135","imageIndex":17,"items":[{"name":"여울꽃방","tel":"031-773-3036","addr":"경기도 양평군 양평읍 양근리 361-10번지 외1필지","indutype":"의류 - 기타의류","category":"other"},{"name":"자 미 온","tel":"031-771-2378","addr":"경기도 양평군 양평읍 양근리 361-10번지","indutype":"직물 - 침구·수예점","category":"other"}]},{"lat":"37.48814017","long":"127.4922592","imageIndex":17,"items":[{"name":"영인테리어","tel":"031-775-1805","addr":"경기도 양평군 양평읍 양근리 298-7번지","indutype":"직물 - 카페트,커튼,천막,지물","category":"other"},{"name":"원인테리어","tel":"031-771-3715","addr":"경기도 양평군 양평읍 양근리 298-7","indutype":"직물 - 카페트,커튼,천막,지물","category":"other"}]},{"lat":"37.489526339","long":"127.49258484","imageIndex":17,"items":[{"name":"올리비아 하슬러","tel":"","addr":"경기도 양평군 양평읍 양근리 355-4번지","indutype":"레져용품 - 스포츠·레져용품","category":"other"}]},{"lat":"37.489636009","long":"127.49003014","imageIndex":17,"items":[{"name":"올포유","tel":"031-775-1600","addr":"경기도 양평군 양평읍 양근리 343-2번지 1층","indutype":"레져용품 - 스포츠·레져용품","category":"other"}]},{"lat":"37.489306341","long":"127.49131701","imageIndex":17,"items":[{"name":"웰메이드양평점","tel":"031-773-4560","addr":"경기도 양평군 양평읍 양근리 309-5번지","indutype":"의류 - 정장","category":"other"}]},{"lat":"37.488939777","long":"127.49280715","imageIndex":17,"items":[{"name":"위드미 양평삼거리점","tel":"031-000-0000","addr":"경기도 양평군 양평읍 양근리 200-2번지 1층","indutype":"유통업 영리 - 편 의 점","category":"other"}]},{"lat":"37.490584753","long":"127.49589347","imageIndex":17,"items":[{"name":"위로시스템","tel":"031-111-1111","addr":"경기도 양평군 양평읍 양근리 176-8번지 지하","indutype":"사무통신 - 사무용 OA기기","category":"other"}]},{"lat":"37.490246004","long":"127.49067862","imageIndex":17,"items":[{"name":"유리구두","tel":"031-773-9140","addr":"경기도 양평군 양평읍 양근리 411-15번지","indutype":"신변잡화 - 신발","category":"other"}]},{"lat":"37.491329864","long":"127.49002984","imageIndex":17,"items":[{"name":"유명 옷수선","tel":"037-773-5063","addr":"경기도 양평군 양평읍 양근리 403-6번지","indutype":"수리서비스 - 세탁소","category":"other"},{"name":"이마트24 양평우정점","tel":"","addr":"경기도 양평군 양평읍 양근리 403-6번지","indutype":"유통업 영리 - 편 의 점","category":"other"}]},{"lat":"37.492195114","long":"127.4899563","imageIndex":17,"items":[{"name":"이길수세무회계사무소","tel":"031-775-1374","addr":"경기도 양평군 양평읍 양근리 384-2번지","indutype":"용역 서비스 - 법률회계서비스(개인)","category":"other"}]},{"lat":"37.489640111","long":"127.49555936","imageIndex":17,"items":[{"name":"이삭수선(맞춤)","tel":"070-4090-2285","addr":"경기도 양평군 양평읍 양근리 191-20번지 2층","indutype":"수리서비스 - 세탁소","category":"other"}]},{"lat":"37.489806665","long":"127.49450889","imageIndex":17,"items":[{"name":"이야기 담","tel":"031-775-0528","addr":"경기도 양평군 양평읍 양근리 195-6번지","indutype":"용역 서비스 - 사무서비스","category":"other"},{"name":"정근광고","tel":"031-773-6521","addr":"경기도 양평군 양평읍 양근리 195-6번지","indutype":"용역 서비스 - 종합용역","category":"other"}]},{"lat":"37.4884457","long":"127.49245341","imageIndex":17,"items":[{"name":"일월매트","tel":"031-775-5516","addr":"경기도 양평군 양평읍 양근리 299-18번지","indutype":"전기제품 - 기타전기제품","category":"other"}]},{"lat":"37.492467809","long":"127.49589454","imageIndex":17,"items":[{"name":"작심 스터디카페 양평점","tel":"031-773-7935","addr":"경기도 양평군 양평읍 양근리 170-45번지","indutype":"용역 서비스 - 사무서비스","category":"other"}]},{"lat":"37.494495225","long":"127.49150911","imageIndex":17,"items":[{"name":"정상환경건설","tel":"031-772-1404","addr":"경기도 양평군 양평읍 양근리 130-29번지 1층","indutype":"용역 서비스 - 기타용역서비스","category":"other"}]},{"lat":"37.49013284","long":"127.49189906","imageIndex":17,"items":[{"name":"정화상회","tel":"031-771-2019","addr":"경기도 양평군 양평읍 양근리 356-11","indutype":"의류 - 정장","category":"other"}]},{"lat":"37.492971809","long":"127.48731536","imageIndex":17,"items":[{"name":"제일문방구","tel":"070-8950-0540","addr":"경기도 양평군 양평읍 양근리 528-14번지","indutype":"서적문구 - 문구용품","category":"other"}]},{"lat":"37.489806352","long":"127.49023478","imageIndex":17,"items":[{"name":"조이너스 양평점","tel":"031-775-8929","addr":"경기도 양평군 양평읍 양근리 346-2번지","indutype":"레져용품 - 스포츠·레져용품","category":"other"}]},{"lat":"37.491856892","long":"127.48894774","imageIndex":17,"items":[{"name":"주(Je)","tel":"031-774-0630","addr":"경기도 양평군 양평읍 양근리 400-1번지 외1필지","indutype":"신변잡화 - 가방","category":"other"}]},{"lat":"37.500915938","long":"127.49230864","imageIndex":17,"items":[{"name":"주식회사 중부투어","tel":"031-781-3500","addr":"경기도 양평군 양평읍 양근리 40","indutype":"여행 - 관광여행","category":"other"}]},{"lat":"37.490387041","long":"127.49792748","imageIndex":17,"items":[{"name":"주식회사코스텍21","tel":"031-774-6112","addr":"경기도 양평군 양평읍 양근리 192-72","indutype":"용역 서비스 - 기타용역서비스","category":"other"}]},{"lat":"37.49744411","long":"127.48867863","imageIndex":17,"items":[{"name":"주연테크컴퓨터","tel":"031-774-5864","addr":"경기도 양평군 양평읍 양근리 80-1","indutype":"수리서비스 - 사무·통신기기수리","category":"other"}]},{"lat":"37.490107215","long":"127.49155968","imageIndex":17,"items":[{"name":"준정보통신","tel":"070-7574-6011","addr":"경기도 양평군 양평읍 양근리 357-9번지","indutype":"사무통신 - 통신기기","category":"other"}]},{"lat":"37.488023513","long":"127.49214537","imageIndex":17,"items":[{"name":"중앙낚시","tel":"031-771-2224","addr":"경기도 양평군 양평읍 양근리 298-5번지","indutype":"레져용품 - 스포츠·레져용품","category":"other"}]},{"lat":"37.487250604","long":"127.49167675","imageIndex":17,"items":[{"name":"중앙철물","tel":"031-771-2890","addr":"경기도 양평군 양평읍 양근리 264-4번지","indutype":"건축자재 - 목재·석재·철물","category":"other"}]},{"lat":"37.490772903","long":"127.49398378","imageIndex":17,"items":[{"name":"중앙화원","tel":"031-771-5158","addr":"경기도 양평군 양평읍 양근리 168-1번지","indutype":"문화.취미 - 화원","category":"other"}]},{"lat":"37.490221914","long":"127.49647906","imageIndex":17,"items":[{"name":"지민이네","tel":"031-772-0312","addr":"경기도 양평군 양평읍 양근리 183-4번지","indutype":"의류 - 정장","category":"other"}]},{"lat":"37.48968734","long":"127.49286857","imageIndex":17,"items":[{"name":"진주세신유통","tel":"031-772-2404","addr":"경기도 양평군 양평읍 양근리 167-16번지","indutype":"주방용구 - 주방용식기","category":"other"}]},{"lat":"37.489973567","long":"127.49119698","imageIndex":17,"items":[{"name":"체이스컬트","tel":"031-771-0597","addr":"경기도 양평군 양평읍 양근리 410-22번지","indutype":"레져용품 - 스포츠·레져용품","category":"other"}]},{"lat":"37.488638133","long":"127.49167448","imageIndex":17,"items":[{"name":"카파양평점","tel":"031-774-5066","addr":"경기도 양평군 양평읍 양근리 293-2번지","indutype":"레져용품 - 스포츠·레져용품","category":"other"},{"name":"휴대폰 할인매장","tel":"031-774-5543","addr":"경기도 양평군 양평읍 양근리 293-2번지","indutype":"사무통신 - 통신기기","category":"other"}]},{"lat":"37.489305686","long":"127.49147531","imageIndex":17,"items":[{"name":"케이투 양평점(K2양평점)","tel":"031-775-0502","addr":"경기도 양평군 양평읍 양근리 308-1번지","indutype":"레져용품 - 스포츠·레져용품","category":"other"}]},{"lat":"37.488828036","long":"127.49150612","imageIndex":17,"items":[{"name":"코오롱스포츠양평점","tel":"031-775-2121","addr":"경기도 양평군 양평읍 양근리 292-2번지","indutype":"레져용품 - 스포츠·레져용품","category":"other"}]},{"lat":"37.490582676","long":"127.49639098","imageIndex":17,"items":[{"name":"퀼트빌리지","tel":"031-771-0332","addr":"경기도 양평군 양평읍 양근리 172-34","indutype":"직물 - 기타직물","category":"other"}]},{"lat":"37.490720377","long":"127.48925698","imageIndex":17,"items":[{"name":"크린메니저","tel":"031-775-3788","addr":"경기도 양평군 양평읍 양근리 419-4번지","indutype":"수리서비스 - 세탁소","category":"other"}]},{"lat":"37.49016001","long":"127.49186532","imageIndex":17,"items":[{"name":"클라비스","tel":"031-772-9999","addr":"경기도 양평군 양평읍 양근리 356-1번지","indutype":"의류 - 스포츠의류","category":"other"}]},{"lat":"37.489549778","long":"127.48909109","imageIndex":17,"items":[{"name":"클빛","tel":"031-111-1111","addr":"경기도 양평군 양평읍 양근리 331-4번지","indutype":"의류 - 정장","category":"other"}]},{"lat":"37.49010422","long":"127.49228332","imageIndex":17,"items":[{"name":"킴스어패럴","tel":"000-000-0000","addr":"경기도 양평군 양평읍 양근리 359-5번지","indutype":"의류 - 정장","category":"other"}]},{"lat":"37.489888045","long":"127.49008832","imageIndex":17,"items":[{"name":"트렌디","tel":"031-771-0009","addr":"경기도 양평군 양평읍 양근리 346-4번지","indutype":"의류 - 정장","category":"other"}]},{"lat":"37.490722953","long":"127.49081741","imageIndex":17,"items":[{"name":"트로이샵","tel":"031-775-2120","addr":"경기도 양평군 양평읍 양근리 410-14번지","indutype":"신변잡화 - 귀금속","category":"other"}]},{"lat":"37.490331052","long":"127.49190035","imageIndex":17,"items":[{"name":"폰매니저","tel":"031-771-9010","addr":"경기도 양평군 양평읍 양근리 358-6번지","indutype":"사무통신 - 통신기기","category":"other"}]},{"lat":"37.489081895","long":"127.49112333","imageIndex":17,"items":[{"name":"프로스펙스.몽벨","tel":"031-775-1085","addr":"경기도 양평군 양평읍 양근리 290-2","indutype":"레져용품 - 스포츠·레져용품","category":"other"}]},{"lat":"37.489889863","long":"127.48964735","imageIndex":17,"items":[{"name":"하우징공간","tel":"031-775-2080","addr":"경기도 양평군 양평읍 양근리 345-8번지","indutype":"건축자재 - 인테리어전문","category":"other"}]},{"lat":"37.49285436","long":"127.48739376","imageIndex":17,"items":[{"name":"한길축산","tel":"031-774-7314","addr":"경기도 양평군 양평읍 양근리 528-15","indutype":"농업 - 농기계","category":"other"}]},{"lat":"37.491020411","long":"127.49078542","imageIndex":17,"items":[{"name":"한샘양평대리점","tel":"031-771-1994","addr":"경기도 양평군 양평읍 양근리 404-6","indutype":"주방용구 - 주방용구","category":"other"}]},{"lat":"37.503080164","long":"127.49403044","imageIndex":17,"items":[{"name":"한성설비","tel":"031-775-6006","addr":"경기도 양평군 양평읍 양근리 2-10번지","indutype":"용역 서비스 - 기타용역서비스","category":"other"},{"name":"효원","tel":"031-776-5661","addr":"경기도 양평군 양평읍 양근리 2-10","indutype":"농업 - 비료,사료,종자","category":"other"}]},{"lat":"37.490887246","long":"127.48811603","imageIndex":17,"items":[{"name":"한솔측량설계공사","tel":"031-775-6556","addr":"경기도 양평군 양평읍 양근리 440-4번지","indutype":"용역 서비스 - 종합용역","category":"other"}]},{"lat":"37.487387151","long":"127.49133844","imageIndex":17,"items":[{"name":"한일모타","tel":"031-773-8274","addr":"경기도 양평군 양평읍 양근리 269-22번지","indutype":"수리서비스 - 기타수리서비스","category":"other"}]},{"lat":"37.488556017","long":"127.4919227","imageIndex":17,"items":[{"name":"휠라코리아-양평","tel":"","addr":"경기도 양평군 양평읍 양근리 293-4번지","indutype":"레져용품 - 스포츠·레져용품","category":"other"}]},{"lat":"37.490001203","long":"127.49539212","imageIndex":13,"items":[{"name":"1001 안경원","tel":"031-771-5101","addr":"경기도 양평군 양평읍 양근리 181-3번지","indutype":"보건위생 - 안경","category":"beauty"},{"name":"엠에스(MS)보청기","tel":"","addr":"경기도 양평군 양평읍 양근리 181-3번지 2층","indutype":"보건위생 - 의료용품","category":"beauty"}]},{"lat":"37.490522488","long":"127.49570084","imageIndex":13,"items":[{"name":"HAMA Nail","tel":"031-775-6668","addr":"경기도 양평군 양평읍 양근리 178-4번지 6층","indutype":"보건위생 - 화장품","category":"beauty"},{"name":"와이덱스 보청기","tel":"031-771-1123","addr":"경기도 양평군 양평읍 양근리 178-4번지 4층","indutype":"보건위생 - 의료용품","category":"beauty"}]},{"lat":"37.490774628","long":"127.49139442","imageIndex":13,"items":[{"name":"J헤어카페","tel":"031-771-5828","addr":"경기도 양평군 양평읍 양근리 409-2번지","indutype":"보건위생 - 미용원","category":"beauty"},{"name":"J헤어카페","tel":"031-771-5828","addr":"경기도 양평군 양평읍 양근리 409-2번지 2층","indutype":"보건위생 - 미용원","category":"beauty"}]},{"lat":"37.492001357","long":"127.49323422","imageIndex":13,"items":[{"name":"Shin정아헤어","tel":"031-773-8391","addr":"경기도 양평군 양평읍 양근리 162-7번지","indutype":"보건위생 - 미용원","category":"beauty"}]},{"lat":"37.490276573","long":"127.49200176","imageIndex":13,"items":[{"name":"The nail","tel":"031-775-7133","addr":"경기도 양평군 양평읍 양근리 358-5 외1필지내제1층,2층 2","indutype":"보건위생 - 화장품","category":"beauty"}]},{"lat":"37.488942869","long":"127.49206091","imageIndex":13,"items":[{"name":"강남헤어스타일","tel":"031-771-0355","addr":"경기도 양평군 양평읍 양근리 302-8번지 1층","indutype":"보건위생 - 미용원","category":"beauty"}]},{"lat":"37.489191411","long":"127.49078483","imageIndex":13,"items":[{"name":"그랑프리안경","tel":"031-772-0786","addr":"경기도 양평군 양평읍 양근리 310번지","indutype":"보건위생 - 안경","category":"beauty"}]},{"lat":"37.490471211","long":"127.49503338","imageIndex":13,"items":[{"name":"글라스스토리안경원","tel":"031-775-2534","addr":"경기도 양평군 양평읍 양근리 180-4번지 나동 103호","indutype":"보건위생 - 안경","category":"beauty"}]},{"lat":"37.490719869","long":"127.49156367","imageIndex":13,"items":[{"name":"김아경헤어","tel":"031-771-2339","addr":"경기도 양평군 양평읍 양근리 409-9번지 2층","indutype":"보건위생 - 미용원","category":"beauty"}]},{"lat":"37.489411743","long":"127.49197351","imageIndex":13,"items":[{"name":"까까머리방","tel":"031-774-8842","addr":"경기도 양평군 양평읍 양근리 304-6번지","indutype":"보건위생 - 미용원","category":"beauty"}]},{"lat":"37.489554399","long":"127.49233627","imageIndex":13,"items":[{"name":"꾸미지오","tel":"031-772-2071","addr":"경기도 양평군 양평읍 양근리 355-7번지","indutype":"보건위생 - 미용원","category":"beauty"}]},{"lat":"37.490112119","long":"127.49037245","imageIndex":13,"items":[{"name":"내츄럴뷰티","tel":"031-000-0000","addr":"경기도 양평군 양평읍 양근리 413-2번지","indutype":"보건위생 - 피부미용실","category":"beauty"},{"name":"자연미인멀티샵","tel":"031-771-7644","addr":"경기도 양평군 양평읍 양근리 413-2번지","indutype":"보건위생 - 미용원","category":"beauty"}]},{"lat":"37.489496944","long":"127.49097904","imageIndex":13,"items":[{"name":"네이처 리퍼블릭 양평점","tel":"031-773-1131","addr":"경기도 양평군 양평읍 양근리 349-3번지","indutype":"보건위생 - 화장품","category":"beauty"}]},{"lat":"37.490693167","long":"127.49148434","imageIndex":13,"items":[{"name":"네이처컬렉션","tel":"031-774-3044","addr":"경기도 양평군 양평읍 양근리 409-8번지 1층","indutype":"보건위생 - 화장품","category":"beauty"}]},{"lat":"37.495023844","long":"127.49222495","imageIndex":13,"items":[{"name":"네일또와","tel":"031-1111-1111","addr":"경기도 양평군 양평읍 양근리 141-2번지 1층 109호","indutype":"보건위생 - 피부미용실","category":"beauty"},{"name":"다옴헤어","tel":"031-774-9056","addr":"경기도 양평군 양평읍 양근리 141-2번지","indutype":"보건위생 - 미용원","category":"beauty"}]},{"lat":"37.494972095","long":"127.48508931","imageIndex":13,"items":[{"name":"네일봄","tel":"","addr":"경기도 양평군 양평읍 양근리 527-9번지 101호","indutype":"보건위생 - 피부미용실","category":"beauty"}]},{"lat":"37.49013233","long":"127.48984115","imageIndex":13,"items":[{"name":"네일향기","tel":"031-000-0000","addr":"경기도 양평군 양평읍 양근리 414-4번지 1층","indutype":"보건위생 - 피부미용실","category":"beauty"},{"name":"창포헤어샵","tel":"031-774-1295","addr":"경기도 양평군 양평읍 양근리 414-4번지 2층","indutype":"보건위생 - 미용원","category":"beauty"}]},{"lat":"37.490744839","long":"127.49206135","imageIndex":13,"items":[{"name":"뉴벤","tel":"031-775-0851","addr":"경기도 양평군 양평읍 양근리 361-10번지 3층","indutype":"보건위생 - 화장품","category":"beauty"}]},{"lat":"37.48941483","long":"127.49122726","imageIndex":13,"items":[{"name":"니니헤어","tel":"031-771-4760","addr":"경기도 양평군 양평읍 양근리 309-2번지","indutype":"보건위생 - 미용원","category":"beauty"}]},{"lat":"37.491465894","long":"127.48981588","imageIndex":13,"items":[{"name":"다니엘","tel":"031-775-3456","addr":"경기도 양평군 양평읍 양근리 403-9번지","indutype":"보건위생 - 이용원","category":"beauty"}]},{"lat":"37.492136622","long":"127.49103014","imageIndex":13,"items":[{"name":"더헤어(The Hair)","tel":"031-773-8393","addr":"경기도 양평군 양평읍 양근리 376-4번지 1층 101호","indutype":"보건위생 - 미용원","category":"beauty"},{"name":"편백화장품(양평)","tel":"031-774-6665","addr":"경기도 양평군 양평읍 양근리 376-4번지 502,503호","indutype":"보건위생 - 화장품","category":"beauty"}]},{"lat":"37.490777295","long":"127.49725161","imageIndex":13,"items":[{"name":"도도스몰","tel":"","addr":"경기도 양평군 양평읍 양근리 174-4번지 3층","indutype":"보건위생 - 화장품","category":"beauty"}]},{"lat":"37.489078341","long":"127.49198264","imageIndex":13,"items":[{"name":"도도한","tel":"031-773-3443","addr":"경기도 양평군 양평읍 양근리 303-1번지","indutype":"보건위생 - 피부미용실","category":"beauty"}]},{"lat":"37.490221914","long":"127.49647906","imageIndex":13,"items":[{"name":"동부사우나","tel":"031-771-2230","addr":"경기도 양평군 양평읍 양근리 183-4번지","indutype":"보건위생 - 사우나","category":"beauty"},{"name":"동부사우나","tel":"031-771-2230","addr":"경기도 양평군 양평읍 양근리 183-4번지","indutype":"보건위생 - 사우나","category":"beauty"},{"name":"뷰티케어","tel":"031-774-9208","addr":"경기도 양평군 양평읍 양근리 183-4","indutype":"보건위생 - 미용원","category":"beauty"}]},{"lat":"37.487494939","long":"127.49141829","imageIndex":13,"items":[{"name":"두발자유머리방","tel":"031-772-2588","addr":"경기도 양평군 양평읍 양근리 269-18","indutype":"보건위생 - 미용원","category":"beauty"}]},{"lat":"37.49622273","long":"127.49208577","imageIndex":13,"items":[{"name":"란헤어","tel":"031-771-2755","addr":"경기도 양평군 양평읍 양근리 137-70번지","indutype":"보건위생 - 미용원","category":"beauty"}]},{"lat":"37.489720456","long":"127.49139886","imageIndex":13,"items":[{"name":"리치헤어클럽","tel":"031-773-4259","addr":"경기도 양평군 양평읍 양근리 306-3번지","indutype":"보건위생 - 미용원","category":"beauty"}]},{"lat":"37.495606538","long":"127.49075871","imageIndex":13,"items":[{"name":"마메든헤어","tel":"031-773-4224","addr":"경기도 양평군 양평읍 양근리 136-8번지 세영빌라 1층","indutype":"보건위생 - 미용원","category":"beauty"}]},{"lat":"37.490438005","long":"127.49000143","imageIndex":13,"items":[{"name":"목화머리방","tel":"033-771-0279","addr":"경기도 양평군 양평읍 양근리 420-20","indutype":"보건위생 - 미용원","category":"beauty"}]},{"lat":"37.489694755","long":"127.49325306","imageIndex":13,"items":[{"name":"몽니스","tel":"031-771-3809","addr":"경기도 양평군 양평읍 양근리 206-5번지","indutype":"보건위생 - 화장품","category":"beauty"}]},{"lat":"37.490830406","long":"127.49747811","imageIndex":13,"items":[{"name":"박정환헤어","tel":"031-771-4526","addr":"경기도 양평군 양평읍 양근리 174-1번지","indutype":"보건위생 - 미용원","category":"beauty"},{"name":"성은주헤어클리닉","tel":"031-775-1882","addr":"경기도 양평군 양평읍 양근리 174-1번지","indutype":"보건위생 - 미용원","category":"beauty"}]},{"lat":"37.489139675","long":"127.4924014","imageIndex":13,"items":[{"name":"박지용미장","tel":"031-774-3235","addr":"경기도 양평군 양평읍 양근리 301-5번지 2층","indutype":"보건위생 - 미용원","category":"beauty"}]},{"lat":"37.492270871","long":"127.49558794","imageIndex":13,"items":[{"name":"버르장머리","tel":"031-772-6650","addr":"경기도 양평군 양평읍 양근리 170-5번지","indutype":"보건위생 - 미용원","category":"beauty"}]},{"lat":"37.491721609","long":"127.48898079","imageIndex":13,"items":[{"name":"벨톤보청기 양평지사","tel":"031-774-9118","addr":"경기도 양평군 양평읍 양근리 400-5번지 황철홍의원 102호","indutype":"보건위생 - 의료용품","category":"beauty"}]},{"lat":"37.491025091","long":"127.49616774","imageIndex":13,"items":[{"name":"별빛헤어","tel":"031-771-9566","addr":"경기도 양평군 양평읍 양근리 176-15번지","indutype":"보건위생 - 미용원","category":"beauty"}]},{"lat":"37.489770864","long":"127.49228114","imageIndex":13,"items":[{"name":"보떼 양평점","tel":"031-774-8073","addr":"경기도 양평군 양평읍 양근리 356-3번지","indutype":"보건위생 - 화장품","category":"beauty"}]},{"lat":"37.495826167","long":"127.49211711","imageIndex":13,"items":[{"name":"보훈미용실","tel":"031-771-4286","addr":"경기도 양평군 양평읍 양근리 137-61번지","indutype":"보건위생 - 미용원","category":"beauty"},{"name":"손맛테라피","tel":"031-771-5569","addr":"경기도 양평군 양평읍 양근리 137-61번지","indutype":"보건위생 - 피부미용실","category":"beauty"},{"name":"약손테라피","tel":"031-771-5569","addr":"경기도 양평군 양평읍 양근리 137-61번지","indutype":"보건위생 - 피부미용실","category":"beauty"}]},{"lat":"37.489889815","long":"127.49184094","imageIndex":13,"items":[{"name":"보훈미용실","tel":"031-772-1395","addr":"경기도 양평군 양평읍 양근리 352-1 1층 11,12호","indutype":"보건위생 - 미용원","category":"beauty"}]},{"lat":"37.489056594","long":"127.4907048","imageIndex":13,"items":[{"name":"복지클럽","tel":"031-772-2327","addr":"경기도 양평군 양평읍 양근리 314-3번지","indutype":"보건위생 - 이용원","category":"beauty"}]},{"lat":"37.489305686","long":"127.49147531","imageIndex":13,"items":[{"name":"비겐의료기양평센터","tel":"031-775-5652","addr":"경기도 양평군 양평읍 양근리 308-1번지","indutype":"보건위생 - 의료용품","category":"beauty"}]},{"lat":"37.489300554","long":"127.49053679","imageIndex":13,"items":[{"name":"빅토리아헤어","tel":"031-773-5905","addr":"경기도 양평군 양평읍 양근리 312번지","indutype":"보건위생 - 미용원","category":"beauty"}]},{"lat":"37.488778822","long":"127.49251212","imageIndex":13,"items":[{"name":"삼성의료기","tel":"031-772-9055","addr":"경기도 양평군 양평읍 양근리 299-8번지","indutype":"보건위생 - 의료용품","category":"beauty"}]},{"lat":"37.489549414","long":"127.49136382","imageIndex":13,"items":[{"name":"성신당안경원","tel":"031-771-2045","addr":"경기도 양평군 양평읍 양근리 307-2번지","indutype":"보건위생 - 안경","category":"beauty"},{"name":"예쁨헤어","tel":"031-771-7774","addr":"경기도 양평군 양평읍 양근리 307-2번지","indutype":"보건위생 - 미용원","category":"beauty"}]},{"lat":"37.489217339","long":"127.49322733","imageIndex":13,"items":[{"name":"손톱공주","tel":"031-1111-1111","addr":"경기도 양평군 양평읍 양근리 201-7번지 3층","indutype":"보건위생 - 피부미용실","category":"beauty"}]},{"lat":"37.49663298","long":"127.4909237","imageIndex":13,"items":[{"name":"신데렐라헤어","tel":"031-775-3827","addr":"경기도 양평군 양평읍 양근리 91-10번지","indutype":"보건위생 - 미용원","category":"beauty"}]},{"lat":"37.489217678","long":"127.48878365","imageIndex":13,"items":[{"name":"신선미 스킨케어","tel":"","addr":"경기도 양평군 양평읍 양근리 333-10번지 1층 101호 ((주)대성에메네텍)","indutype":"보건위생 - 피부미용실","category":"beauty"}]},{"lat":"37.48966228","long":"127.49239351","imageIndex":13,"items":[{"name":"신우헤어","tel":"031-771-5542","addr":"경기도 양평군 양평읍 양근리 355-1번지 1층","indutype":"보건위생 - 미용원","category":"beauty"}]},{"lat":"37.489859828","long":"127.49472407","imageIndex":13,"items":[{"name":"써니데이","tel":"031-773-3359","addr":"경기도 양평군 양평읍 양근리 195-9번지","indutype":"보건위생 - 미용원","category":"beauty"}]},{"lat":"37.490584753","long":"127.49589347","imageIndex":13,"items":[{"name":"아리따움양평점","tel":"031-771-1582","addr":"경기도 양평군 양평읍 양근리 176-8번지","indutype":"보건위생 - 화장품","category":"beauty"}]},{"lat":"37.49093748","long":"127.49772758","imageIndex":13,"items":[{"name":"아모레카운셀러","tel":"031-886-7015","addr":"경기도 양평군 양평읍 양근리 170-1","indutype":"보건위생 - 화장품","category":"beauty"},{"name":"아모레카운셀러","tel":"031-771-2451","addr":"경기도 양평군 양평읍 양근리 170-1번지","indutype":"보건위생 - 화장품","category":"beauty"}]},{"lat":"37.489778297","long":"127.49048335","imageIndex":13,"items":[{"name":"애드","tel":"031-773-3454","addr":"경기도 양평군 양평읍 양근리 347-1번지","indutype":"보건위생 - 화장품","category":"beauty"}]},{"lat":"37.488939777","long":"127.49280715","imageIndex":13,"items":[{"name":"애솔헤어","tel":"031-771-4579","addr":"경기도 양평군 양평읍 양근리 200-2번지 2층","indutype":"보건위생 - 미용원","category":"beauty"}]},{"lat":"37.489303019","long":"127.49211979","imageIndex":13,"items":[{"name":"영아미용실","tel":"031-771-6608","addr":"경기도 양평군 양평읍 양근리 302-1","indutype":"보건위생 - 미용원","category":"beauty"}]},{"lat":"37.490914256","long":"127.49030982","imageIndex":13,"items":[{"name":"오마이컷","tel":"031-771-9037","addr":"경기도 양평군 양평읍 양근리 421-3번지","indutype":"보건위생 - 미용원","category":"beauty"}]},{"lat":"37.491439516","long":"127.49183973","imageIndex":13,"items":[{"name":"요술가위","tel":"031-773-7719","addr":"경기도 양평군 양평읍 양근리 363번지","indutype":"보건위생 - 미용원","category":"beauty"}]},{"lat":"37.491607034","long":"127.49489383","imageIndex":13,"items":[{"name":"유미미용실","tel":"031-771-7063","addr":"경기도 양평군 양평읍 양근리 170-58번지 1층","indutype":"보건위생 - 미용원","category":"beauty"}]},{"lat":"37.49002524","long":"127.48959169","imageIndex":13,"items":[{"name":"윤헤어","tel":"031-772-2535","addr":"경기도 양평군 양평읍 양근리 345-9번지 1층","indutype":"보건위생 - 미용원","category":"beauty"}]},{"lat":"37.49196854","long":"127.4880891","imageIndex":13,"items":[{"name":"은진헤어샵","tel":"031-774-7081","addr":"경기도 양평군 양평읍 양근리 397-8번지","indutype":"보건위생 - 미용원","category":"beauty"}]},{"lat":"37.489882395","long":"127.49145645","imageIndex":13,"items":[{"name":"이니스프리양평점","tel":"031-773-3345","addr":"경기도 양평군 양평읍 양근리 352-3번지","indutype":"보건위생 - 화장품","category":"beauty"}]},{"lat":"37.488466154","long":"127.49186558","imageIndex":13,"items":[{"name":"정미용실","tel":"031-774-0967","addr":"경기도 양평군 양평읍 양근리 293-6번지","indutype":"보건위생 - 미용원","category":"beauty"}]},{"lat":"37.489355016","long":"127.49261764","imageIndex":13,"items":[{"name":"제일미장원","tel":"031-771-2825","addr":"경기도 양평군 양평읍 양근리 355-3","indutype":"보건위생 - 미용원","category":"beauty"}]},{"lat":"37.491939298","long":"127.49081401","imageIndex":13,"items":[{"name":"젤루네일(JelRu)","tel":"031-773-7785","addr":"경기도 양평군 양평읍 양근리 376-8번지 1층 107호 성우오스타코아루상가","indutype":"보건위생 - 화장품","category":"beauty"}]},{"lat":"37.487944626","long":"127.49161343","imageIndex":13,"items":[{"name":"조양디엠(양평지점)","tel":"031-773-5935","addr":"경기도 양평군 양평읍 양근리 269-1번지 3층","indutype":"보건위생 - 의료용품","category":"beauty"},{"name":"휴앤진양평점","tel":"031-772-7792","addr":"경기도 양평군 양평읍 양근리 269-1번지 2층","indutype":"보건위생 - 피부미용실","category":"beauty"}]},{"lat":"37.494800897","long":"127.49166941","imageIndex":13,"items":[{"name":"진주헤어 염색전문","tel":"","addr":"경기도 양평군 양평읍 양근리 130-31번지 1층","indutype":"보건위생 - 미용원","category":"beauty"}]},{"lat":"37.488667592","long":"127.49108671","imageIndex":13,"items":[{"name":"청수탕","tel":"031-771-2026","addr":"경기도 양평군 양평읍 양근리 286","indutype":"보건위생 - 사우나","category":"beauty"}]},{"lat":"37.489861288","long":"127.49220258","imageIndex":13,"items":[{"name":"초은미용실","tel":"031-771-3253","addr":"경기도 양평군 양평읍 양근리 356-2번지","indutype":"보건위생 - 미용원","category":"beauty"}]},{"lat":"37.490772903","long":"127.49398378","imageIndex":13,"items":[{"name":"최미용실","tel":"031-772-9730","addr":"경기도 양평군 양평읍 양근리 168-1번지","indutype":"보건위생 - 미용원","category":"beauty"}]},{"lat":"37.489806352","long":"127.49023478","imageIndex":13,"items":[{"name":"코아안경","tel":"031-773-1869","addr":"경기도 양평군 양평읍 양근리 346-2번지","indutype":"보건위생 - 안경","category":"beauty"}]},{"lat":"37.488638133","long":"127.49167448","imageIndex":13,"items":[{"name":"크라크라헤어샵","tel":"031-771-8305","addr":"경기도 양평군 양평읍 양근리 293-2번지","indutype":"보건위생 - 미용원","category":"beauty"}]},{"lat":"37.491722632","long":"127.48873203","imageIndex":13,"items":[{"name":"클럽밸런스5 경기양평점","tel":"031-772-1590","addr":"경기도 양평군 양평읍 양근리 446-7번지 2층","indutype":"보건위생 - 의료용품","category":"beauty"}]},{"lat":"37.491055883","long":"127.49742306","imageIndex":13,"items":[{"name":"클레오","tel":"","addr":"경기도 양평군 양평읍 양근리 172-44번지","indutype":"보건위생 - 화장품","category":"beauty"}]},{"lat":"37.489470243","long":"127.49089972","imageIndex":13,"items":[{"name":"피엔에이치헤어","tel":"070-7839-4168","addr":"경기도 양평군 양평읍 양근리 349-4번지 1층","indutype":"보건위생 - 미용원","category":"beauty"}]},{"lat":"37.48827522","long":"127.49228269","imageIndex":13,"items":[{"name":"허브&네일아트","tel":"031-774-4109","addr":"경기도 양평군 양평읍 양근리 299-11번지","indutype":"보건위생 - 피부미용실","category":"beauty"},{"name":"헤어코코","tel":"031-772-2778","addr":"경기도 양평군 양평읍 양근리 299-11번지","indutype":"보건위생 - 미용원","category":"beauty"}]},{"lat":"37.490361917","long":"127.49531534","imageIndex":13,"items":[{"name":"헤어스케치","tel":"03-177-7271","addr":"경기도 양평군 양평읍 양근리 178-7번지","indutype":"보건위생 - 미용원","category":"beauty"}]},{"lat":"37.489917683","long":"127.48945531","imageIndex":13,"items":[{"name":"헤어톡","tel":"031-775-3275","addr":"경기도 양평군 양평읍 양근리 340-1번지","indutype":"보건위생 - 미용원","category":"beauty"}]},{"lat":"37.490437949","long":"127.49436603","imageIndex":13,"items":[{"name":"헤어플래닛오다","tel":"031-772-5852","addr":"경기도 양평군 양평읍 양근리 169-8번지 2층","indutype":"보건위생 - 미용원","category":"beauty"}]},{"lat":"37.488610542","long":"127.49180999","imageIndex":13,"items":[{"name":"헤어플러스","tel":"031-773-2250","addr":"경기도 양평군 양평읍 양근리 293-3번지 2층","indutype":"보건위생 - 미용원","category":"beauty"}]},{"lat":"37.490414103","long":"127.49142599","imageIndex":13,"items":[{"name":"현미용실","tel":"031-773-2336","addr":"경기도 양평군 양평읍 양근리 410-17번지","indutype":"보건위생 - 미용원","category":"beauty"}]},{"lat":"37.495802928","long":"127.491201","imageIndex":4,"items":[{"name":"2000년","tel":"031-771-7769","addr":"경기도 양평군 양평읍 양근리 137-12번지","indutype":"일반휴게음식 - 일반한식","category":"restaurant"}]},{"lat":"37.491220816","long":"127.49025528","imageIndex":4,"items":[{"name":"2도비어 양평점","tel":"031-0000-0000","addr":"경기도 양평군 양평읍 양근리 404-14번지","indutype":"일반휴게음식 - 서양음식","category":"restaurant"}]},{"lat":"37.48827522","long":"127.49228269","imageIndex":4,"items":[{"name":"Annata 안나타","tel":"031-774-7160","addr":"경기도 양평군 양평읍 양근리 299-11번지","indutype":"일반휴게음식 - 일반한식","category":"restaurant"},{"name":"엄지족발","tel":"031-774-6020","addr":"경기도 양평군 양평읍 양근리 299-11번지","indutype":"일반휴게음식 - 일반한식","category":"restaurant"}]},{"lat":"37.494495225","long":"127.49150911","imageIndex":4,"items":[{"name":"BBQ치킨","tel":"031-774-9282","addr":"경기도 양평군 양평읍 양근리 130-29번지","indutype":"일반휴게음식 - 스넥","category":"restaurant"},{"name":"매니아","tel":"031-775-0776","addr":"경기도 양평군 양평읍 양근리 130-29번지 101호","indutype":"일반휴게음식 - 일반한식","category":"restaurant"},{"name":"이가순대","tel":"031-775-3338","addr":"경기도 양평군 양평읍 양근리 130-29번지","indutype":"일반휴게음식 - 일반한식","category":"restaurant"}]},{"lat":"37.49118776","long":"127.48953139","imageIndex":4,"items":[{"name":"Rock&Club(락앤클럽)","tel":"031-771-3400","addr":"경기도 양평군 양평읍 양근리 422-23번지 지하1층","indutype":"일반휴게음식 - 주점","category":"restaurant"}]},{"lat":"37.488584352","long":"127.48942405","imageIndex":4,"items":[{"name":"YP푸드존","tel":"070-7864-1177","addr":"경기도 양평군 양평읍 양근리 328-10번지 2층 2호","indutype":"일반휴게음식 - 일반한식","category":"restaurant"},{"name":"불통족발","tel":"031-773-5571","addr":"경기도 양평군 양평읍 양근리 328-10번지 2층 2호","indutype":"일반휴게음식 - 일반한식","category":"restaurant"},{"name":"피자나라치킨공주","tel":"031-773-1962","addr":"경기도 양평군 양평읍 양근리 328-10번지","indutype":"일반휴게음식 - 일반한식","category":"restaurant"}]},{"lat":"37.489437602","long":"127.49225636","imageIndex":4,"items":[{"name":"간이역","tel":"031-771-2555","addr":"경기도 양평군 양평읍 양근리 354-4번지","indutype":"일반휴게음식 - 일반한식","category":"restaurant"},{"name":"드렁큰엘리스","tel":"070-8823-4865","addr":"경기도 양평군 양평읍 양근리 354-4번지","indutype":"일반휴게음식 - 일반한식","category":"restaurant"},{"name":"앨리스","tel":"","addr":"경기도 양평군 양평읍 양근리 354-4번지","indutype":"일반휴게음식 - 주점","category":"restaurant"}]},{"lat":"37.487357836","long":"127.49406318","imageIndex":4,"items":[{"name":"감투식당","tel":"","addr":"경기도 양평군 양평읍 양근리 222-7번지","indutype":"일반휴게음식 - 일반한식","category":"restaurant"}]},{"lat":"37.492417442","long":"127.48847646","imageIndex":4,"items":[{"name":"강남동태찜","tel":"031-773-5640","addr":"경기도 양평군 양평읍 양근리 396-28번지","indutype":"일반휴게음식 - 일반한식","category":"restaurant"}]},{"lat":"37.49921813","long":"127.49108754","imageIndex":4,"items":[{"name":"강산애","tel":"031-774-1904","addr":"경기도 양평군 양평읍 양근리 52-6번지 2층","indutype":"일반휴게음식 - 일반한식","category":"restaurant"},{"name":"세프이직화쭈꾸미한방보쌈","tel":"031-771-6799","addr":"경기도 양평군 양평읍 양근리 52-6번지","indutype":"일반휴게음식 - 일반한식","category":"restaurant"},{"name":"천복가든","tel":"031-775-5887","addr":"경기도 양평군 양평읍 양근리 52-6번지","indutype":"일반휴게음식 - 일반한식","category":"restaurant"}]},{"lat":"37.490217989","long":"127.49741754","imageIndex":4,"items":[{"name":"강상푸드","tel":"031-774-0800","addr":"경기도 양평군 양평읍 양근리 192-17번지 5층","indutype":"일반휴게음식 - 위탁급식업","category":"restaurant"}]},{"lat":"37.489638808","long":"127.49153401","imageIndex":4,"items":[{"name":"강원도아지매","tel":"031-774-2118","addr":"경기도 양평군 양평읍 양근리 306-1번지","indutype":"일반휴게음식 - 일반한식","category":"restaurant"},{"name":"꼬꼬시","tel":"031-775-9253","addr":"경기도 양평군 양평읍 양근리 306-1번지","indutype":"일반휴게음식 - 일반한식","category":"restaurant"}]},{"lat":"37.498329417","long":"127.47925312","imageIndex":4,"items":[{"name":"거북이","tel":"","addr":"경기도 양평군 양평읍 양근리 504-112번지 1층","indutype":"일반휴게음식 - 일반한식","category":"restaurant"}]},{"lat":"37.498331058","long":"127.47884603","imageIndex":4,"items":[{"name":"거북이","tel":"031-775-7792","addr":"경기도 양평군 양평읍 양근리 504-40번지 1층","indutype":"일반휴게음식 - 일반한식","category":"restaurant"}]},{"lat":"37.489410105","long":"127.49236925","imageIndex":4,"items":[{"name":"겐조","tel":"031-774-7071","addr":"경기도 양평군 양평읍 양근리 355-10번지","indutype":"일반휴게음식 - 일반한식","category":"restaurant"}]},{"lat":"37.494464779","long":"127.49233438","imageIndex":4,"items":[{"name":"고바우","tel":"031-775-3392","addr":"경기도 양평군 양평읍 양근리 140-8번지 양평현대아파트 103,104호","indutype":"일반휴게음식 - 일반한식","category":"restaurant"}]},{"lat":"37.491195978","long":"127.48972367","imageIndex":4,"items":[{"name":"고봉민 김밥인 양평중앙점","tel":"031-772-3456","addr":"경기도 양평군 양평읍 양근리 422-25번지","indutype":"일반휴게음식 - 일반한식","category":"restaurant"},{"name":"우리집양평우동","tel":"031-773-5058","addr":"경기도 양평군 양평읍 양근리 422-25번지 1층","indutype":"일반휴게음식 - 일반한식","category":"restaurant"}]},{"lat":"37.496193121","long":"127.48834259","imageIndex":4,"items":[{"name":"고향어탕","tel":"031-771-5775","addr":"경기도 양평군 양평읍 양근리 100-2번지 1층","indutype":"일반휴게음식 - 일반한식","category":"restaurant"},{"name":"장골가든","tel":"031-774-0799","addr":"경기도 양평군 양평읍 양근리 100-2번지","indutype":"일반휴게음식 - 일반한식","category":"restaurant"},{"name":"청춘극장","tel":"031-774-2929","addr":"경기도 양평군 양평읍 양근리 100-2번지","indutype":"일반휴게음식 - 일반한식","category":"restaurant"}]},{"lat":"37.489610048","long":"127.49195219","imageIndex":4,"items":[{"name":"골목길","tel":"031-775-3330","addr":"경기도 양평군 양평읍 양근리 353-9번지 1층","indutype":"일반휴게음식 - 일반한식","category":"restaurant"},{"name":"딱,한잔만더","tel":"","addr":"경기도 양평군 양평읍 양근리 353-9번지","indutype":"일반휴게음식 - 일반한식","category":"restaurant"}]},{"lat":"37.490939678","long":"127.48851212","imageIndex":4,"items":[{"name":"골목길","tel":"031-775-2780","addr":"경기도 양평군 양평읍 양근리 444-7번지 1층","indutype":"일반휴게음식 - 일반한식","category":"restaurant"},{"name":"진대감","tel":"031-772-4751","addr":"경기도 양평군 양평읍 양근리 444-7번지","indutype":"일반휴게음식 - 일반한식","category":"restaurant"}]},{"lat":"37.489465152","long":"127.48994989","imageIndex":4,"items":[{"name":"구이촌","tel":"031-775-4521","addr":"경기도 양평군 양평읍 양근리 340-3번지","indutype":"일반휴게음식 - 일반한식","category":"restaurant"}]},{"lat":"37.490611754","long":"127.49156296","imageIndex":4,"items":[{"name":"국수나무양평점","tel":"031-774-0302","addr":"경기도 양평군 양평읍 양근리 409-6번지 1층","indutype":"일반휴게음식 - 일반한식","category":"restaurant"}]},{"lat":"37.491386205","long":"127.48947614","imageIndex":4,"items":[{"name":"국수평천하 양평점","tel":"031-772-9986","addr":"경기도 양평군 양평읍 양근리 445-7번지","indutype":"일반휴게음식 - 일반한식","category":"restaurant"},{"name":"나들목","tel":"031-774-2993","addr":"경기도 양평군 양평읍 양근리 445-7번지 외3필지","indutype":"일반휴게음식 - 일반한식","category":"restaurant"},{"name":"대포항횟집","tel":"031-775-8282","addr":"경기도 양평군 양평읍 양근리 445-7번지 1층","indutype":"일반휴게음식 - 일반한식","category":"restaurant"}]},{"lat":"37.487385663","long":"127.49387115","imageIndex":4,"items":[{"name":"굽네치킨","tel":"031-771-9299","addr":"경기도 양평군 양평읍 양근리 222-22번지","indutype":"일반휴게음식 - 스넥","category":"restaurant"}]},{"lat":"37.494387905","long":"127.49131618","imageIndex":4,"items":[{"name":"그레잇카롱","tel":"070-8844-1021","addr":"경기도 양평군 양평읍 양근리 130-26번지 105호","indutype":"일반휴게음식 - 서양음식","category":"restaurant"},{"name":"우리동네","tel":"031-774-8655","addr":"경기도 양평군 양평읍 양근리 130-26번지","indutype":"일반휴게음식 - 일반한식","category":"restaurant"}]},{"lat":"37.490582676","long":"127.49639098","imageIndex":4,"items":[{"name":"금동이네","tel":"031-775-3252","addr":"경기도 양평군 양평읍 양근리 172-34","indutype":"일반휴게음식 - 서양음식","category":"restaurant"},{"name":"좋은친구","tel":"070-8818-1244","addr":"경기도 양평군 양평읍 양근리 172-34번지","indutype":"일반휴게음식 - 주점","category":"restaurant"}]},{"lat":"37.489221137","long":"127.49231148","imageIndex":4,"items":[{"name":"금학","tel":"031-774-4047","addr":"경기도 양평군 양평읍 양근리 301-6번지","indutype":"일반휴게음식 - 일반한식","category":"restaurant"}]},{"lat":"37.490438005","long":"127.49000143","imageIndex":4,"items":[{"name":"기린","tel":"070-8151-3311","addr":"경기도 양평군 양평읍 양근리 420-20번지","indutype":"일반휴게음식 - 일반한식","category":"restaurant"},{"name":"비스트로쿡","tel":"031-772-2275","addr":"경기도 양평군 양평읍 양근리 420-20번지","indutype":"일반휴게음식 - 서양음식","category":"restaurant"},{"name":"친구찾기","tel":"031-771-6512","addr":"경기도 양평군 양평읍 양근리 420-20번지","indutype":"일반휴게음식 - 주점","category":"restaurant"}]},{"lat":"37.489078341","long":"127.49198264","imageIndex":4,"items":[{"name":"길손조개구이","tel":"031-774-6360","addr":"경기도 양평군 양평읍 양근리 303-1번지","indutype":"일반휴게음식 - 일반한식","category":"restaurant"}]},{"lat":"37.489687809","long":"127.4927555","imageIndex":4,"items":[{"name":"김밥나라","tel":"031-772-9482","addr":"경기도 양평군 양평읍 양근리 167-28","indutype":"일반휴게음식 - 스넥","category":"restaurant"}]},{"lat":"37.491244043","long":"127.49767306","imageIndex":4,"items":[{"name":"꼬치꼬치 물어밥","tel":"031-774-1625","addr":"경기도 양평군 양평읍 양근리 170-77번지","indutype":"일반휴게음식 - 일반한식","category":"restaurant"}]},{"lat":"37.490250154","long":"127.4896723","imageIndex":4,"items":[{"name":"꾸러기식당","tel":"031-771-2150","addr":"경기도 양평군 양평읍 양근리 415번지","indutype":"일반휴게음식 - 일반한식","category":"restaurant"},{"name":"브라더 오향족발","tel":"031-774-0076","addr":"경기도 양평군 양평읍 양근리 415번지","indutype":"일반휴게음식 - 일반한식","category":"restaurant"},{"name":"오누(onoo)","tel":"031-771-8757","addr":"경기도 양평군 양평읍 양근리 415번지","indutype":"일반휴게음식 - 일반한식","category":"restaurant"}]},{"lat":"37.491465894","long":"127.48981588","imageIndex":4,"items":[{"name":"꾸이꾸이","tel":"031-775-5755","addr":"경기도 양평군 양평읍 양근리 403-9번지 1층","indutype":"일반휴게음식 - 일반한식","category":"restaurant"},{"name":"양평족발","tel":"031-774-5198","addr":"경기도 양평군 양평읍 양근리 403-9번지 1층","indutype":"일반휴게음식 - 일반한식","category":"restaurant"}]},{"lat":"37.49010422","long":"127.49228332","imageIndex":4,"items":[{"name":"꿀같은 밤","tel":"031-1111-1111","addr":"경기도 양평군 양평읍 양근리 359-5번지 2층","indutype":"일반휴게음식 - 일반한식","category":"restaurant"},{"name":"벌집삼겹살","tel":"031-773-8599","addr":"경기도 양평군 양평읍 양근리 359-5번지","indutype":"일반휴게음식 - 일반한식","category":"restaurant"},{"name":"쥬씨 경기양평점","tel":"031-774-5592","addr":"경기도 양평군 양평읍 양근리 359-5번지","indutype":"일반휴게음식 - 서양음식","category":"restaurant"},{"name":"청년다방 양평점","tel":"031-771-4954","addr":"경기도 양평군 양평읍 양근리 359-5번지 1층,2층","indutype":"일반휴게음식 - 스넥","category":"restaurant"}]},{"lat":"37.491638015","long":"127.48739721","imageIndex":4,"items":[{"name":"꿈앤카페담소","tel":"","addr":"경기도 양평군 양평읍 양근리 448-8번지 양평군청 1층","indutype":"일반휴게음식 - 서양음식","category":"restaurant"},{"name":"흥미반점","tel":"02-1111-1111","addr":"경기도 양평군 양평읍 양근리 448-8번지","indutype":"일반휴게음식 - 일반한식","category":"restaurant"}]},{"lat":"37.489917683","long":"127.48945531","imageIndex":4,"items":[{"name":"남원골추어탕","tel":"031-773-8182","addr":"경기도 양평군 양평읍 양근리 340-1번지 2층","indutype":"일반휴게음식 - 일반한식","category":"restaurant"},{"name":"또래오래 양평양근점","tel":"031-773-5838","addr":"경기도 양평군 양평읍 양근리 340-1번지","indutype":"일반휴게음식 - 스넥","category":"restaurant"},{"name":"앤디앤가비","tel":"031-000-0000","addr":"경기도 양평군 양평읍 양근리 340-1번지","indutype":"일반휴게음식 - 일반한식","category":"restaurant"}]},{"lat":"37.49458228","long":"127.48567481","imageIndex":4,"items":[{"name":"네네치킨","tel":"031-775-3372","addr":"경기도 양평군 양평읍 양근리 528-19번지","indutype":"일반휴게음식 - 스넥","category":"restaurant"}]},{"lat":"37.489303019","long":"127.49211979","imageIndex":4,"items":[{"name":"네박자","tel":"031-771-1029","addr":"경기도 양평군 양평읍 양근리 302-1번지 1층","indutype":"일반휴게음식 - 일반한식","category":"restaurant"}]},{"lat":"37.491077067","long":"127.4945059","imageIndex":4,"items":[{"name":"노가리&호프","tel":"031-1111-1111","addr":"경기도 양평군 양평읍 양근리 170-8번지","indutype":"일반휴게음식 - 주점","category":"restaurant"}]},{"lat":"37.489611312","long":"127.4916469","imageIndex":4,"items":[{"name":"누나홀닭양평점","tel":"03-771-5501","addr":"경기도 양평군 양평읍 양근리 305-1번지","indutype":"일반휴게음식 - 스넥","category":"restaurant"}]},{"lat":"37.492745781","long":"127.48750613","imageIndex":4,"items":[{"name":"누리마을남도맛집","tel":"031-773-9219","addr":"경기도 양평군 양평읍 양근리 528-18번지","indutype":"일반휴게음식 - 일반한식","category":"restaurant"}]},{"lat":"37.49750033","long":"127.49034131","imageIndex":4,"items":[{"name":"능이네 능이버섯백숙","tel":"031-772-7074","addr":"경기도 양평군 양평읍 양근리 49-35번지","indutype":"일반휴게음식 - 일반한식","category":"restaurant"}]},{"lat":"37.491052476","long":"127.48956443","imageIndex":4,"items":[{"name":"다락","tel":"031-772-3894","addr":"경기도 양평군 양평읍 양근리 422-29번지 스마트빌 101호","indutype":"일반휴게음식 - 일반한식","category":"restaurant"}]},{"lat":"37.490992681","long":"127.49095485","imageIndex":4,"items":[{"name":"다사랑즉석곱창순대국","tel":"031-774-8852","addr":"경기도 양평군 양평읍 양근리 405-1번지","indutype":"일반휴게음식 - 일반한식","category":"restaurant"},{"name":"동해야 놀자","tel":"031-000-0000","addr":"경기도 양평군 양평읍 양근리 405-1번지 2층","indutype":"일반휴게음식 - 일반한식","category":"restaurant"},{"name":"한솥양평점","tel":"031-775-1112","addr":"경기도 양평군 양평읍 양근리 405-1번지 1층","indutype":"일반휴게음식 - 일반한식","category":"restaurant"}]},{"lat":"37.492000325","long":"127.49348297","imageIndex":4,"items":[{"name":"다섯번째토마토","tel":"031-771-0401","addr":"경기도 양평군 양평읍 양근리 160-12번지 1층","indutype":"일반휴게음식 - 스넥","category":"restaurant"}]},{"lat":"37.489525074","long":"127.49289012","imageIndex":4,"items":[{"name":"다올곱창","tel":"031-775-1325","addr":"경기도 양평군 양평읍 양근리 167-22번지","indutype":"일반휴게음식 - 일반한식","category":"restaurant"}]},{"lat":"37.490583134","long":"127.49194722","imageIndex":4,"items":[{"name":"닭만보치킨","tel":"031-772-9855","addr":"경기도 양평군 양평읍 양근리 361-4번지","indutype":"일반휴게음식 - 스넥","category":"restaurant"},{"name":"호야네","tel":"031-774-9720","addr":"경기도 양평군 양평읍 양근리 361-4번지","indutype":"일반휴게음식 - 일반한식","category":"restaurant"}]},{"lat":"37.48952826","long":"127.49212126","imageIndex":4,"items":[{"name":"대명치킨","tel":"031-771-4078","addr":"경기도 양평군 양평읍 양근리 353-12번지","indutype":"일반휴게음식 - 스넥","category":"restaurant"},{"name":"백운정육점식당","tel":"031-774-0788","addr":"경기도 양평군 양평읍 양근리 353-12","indutype":"일반휴게음식 - 일반한식","category":"restaurant"}]},{"lat":"37.491939298","long":"127.49081401","imageIndex":4,"items":[{"name":"더벨리타웨딩컨벤션","tel":"031-775-5800","addr":"경기도 양평군 양평읍 양근리 376-8번지 현대성우오스타코아루 지하1층","indutype":"일반휴게음식 - 일반한식","category":"restaurant"}]},{"lat":"37.492273706","long":"127.48837376","imageIndex":4,"items":[{"name":"도마족발","tel":"031-775-8899","addr":"경기도 양평군 양평읍 양근리 396-29번지 1층","indutype":"일반휴게음식 - 일반한식","category":"restaurant"}]},{"lat":"37.485743938","long":"127.49433528","imageIndex":4,"items":[{"name":"도서관구내식당","tel":"031-774-6941","addr":"경기도 양평군 양평읍 양근리 257-3번지 지하1층","indutype":"일반휴게음식 - 일반한식","category":"restaurant"}]},{"lat":"37.489245936","long":"127.49067211","imageIndex":4,"items":[{"name":"도쿄라멘3900","tel":"070-7867-3900","addr":"경기도 양평군 양평읍 양근리 311-1번지 1층","indutype":"일반휴게음식 - 일반한식","category":"restaurant"},{"name":"루이비통닭","tel":"031-771-2800","addr":"경기도 양평군 양평읍 양근리 311-1번지 1층","indutype":"일반휴게음식 - 스넥","category":"restaurant"}]},{"lat":"37.490774628","long":"127.49139442","imageIndex":4,"items":[{"name":"도쿄스테이크양평점","tel":"031-775-5088","addr":"경기도 양평군 양평읍 양근리 409-2번지","indutype":"일반휴게음식 - 일식·회집","category":"restaurant"}]},{"lat":"37.489802477","long":"127.49117325","imageIndex":4,"items":[{"name":"돈돈","tel":"031-773-8881","addr":"경기도 양평군 양평읍 양근리 351-5번지 1층","indutype":"일반휴게음식 - 일반한식","category":"restaurant"},{"name":"원조만리양꼬치숯불구이","tel":"031-775-9289","addr":"경기도 양평군 양평읍 양근리 351-5번지 1층","indutype":"일반휴게음식 - 일반한식","category":"restaurant"},{"name":"포차천국","tel":"031-772-1991","addr":"경기도 양평군 양평읍 양근리 351-5번지 1층","indutype":"일반휴게음식 - 일반한식","category":"restaurant"}]},{"lat":"37.489554399","long":"127.49233627","imageIndex":4,"items":[{"name":"돈탑양평점","tel":"031-771-2223","addr":"경기도 양평군 양평읍 양근리 355-7번지 1-2층","indutype":"일반휴게음식 - 일반한식","category":"restaurant"},{"name":"와일드캣츠","tel":"031-773-5496","addr":"경기도 양평군 양평읍 양근리 355-7번지","indutype":"일반휴게음식 - 일반한식","category":"restaurant"}]},{"lat":"37.491246031","long":"127.49719817","imageIndex":4,"items":[{"name":"동네포차","tel":"031-773-8953","addr":"경기도 양평군 양평읍 양근리 170-33번지","indutype":"일반휴게음식 - 일반한식","category":"restaurant"}]},{"lat":"37.490940282","long":"127.48836513","imageIndex":4,"items":[{"name":"동현식당","tel":"031-773-5760","addr":"경기도 양평군 양평읍 양근리 444-3번지","indutype":"일반휴게음식 - 일반한식","category":"restaurant"}]},{"lat":"37.489773485","long":"127.49164796","imageIndex":4,"items":[{"name":"돼지목","tel":"031-774-7989","addr":"경기도 양평군 양평읍 양근리 352-8번지","indutype":"일반휴게음식 - 일반한식","category":"restaurant"},{"name":"또미의 집","tel":"031-771-2997","addr":"경기도 양평군 양평읍 양근리 352-8번지","indutype":"일반휴게음식 - 일반한식","category":"restaurant"},{"name":"순옥이네","tel":"031-775-1189","addr":"경기도 양평군 양평읍 양근리 352-8번지 1층","indutype":"일반휴게음식 - 일반한식","category":"restaurant"},{"name":"장수돌구이","tel":"031-771-9289","addr":"경기도 양평군 양평읍 양근리 352-8번지","indutype":"일반휴게음식 - 일반한식","category":"restaurant"},{"name":"청해식당","tel":"031-772-4784","addr":"경기도 양평군 양평읍 양근리 352-8","indutype":"일반휴게음식 - 일반한식","category":"restaurant"}]},{"lat":"37.48985564","long":"127.48920615","imageIndex":4,"items":[{"name":"돼지야","tel":"031-775-2430","addr":"경기도 양평군 양평읍 양근리 339-5번지","indutype":"일반휴게음식 - 일반한식","category":"restaurant"}]},{"lat":"37.489886724","long":"127.49258719","imageIndex":4,"items":[{"name":"두스팜","tel":"031-772-4644","addr":"경기도 양평군 양평읍 양근리 360-7 2층","indutype":"일반휴게음식 - 일반한식","category":"restaurant"}]},{"lat":"37.490049537","long":"127.48806538","imageIndex":4,"items":[{"name":"드립니다","tel":"031-775-7942","addr":"경기도 양평군 양평읍 양근리 435-22번지","indutype":"일반휴게음식 - 서양음식","category":"restaurant"}]},{"lat":"37.495023844","long":"127.49222495","imageIndex":4,"items":[{"name":"떡신","tel":"031-774-3677","addr":"경기도 양평군 양평읍 양근리 141-2번지","indutype":"일반휴게음식 - 일반한식","category":"restaurant"},{"name":"욜로","tel":"031-772-5279","addr":"경기도 양평군 양평읍 양근리 141-2번지 101호","indutype":"일반휴게음식 - 일반한식","category":"restaurant"}]},{"lat":"37.488022248","long":"127.49245065","imageIndex":4,"items":[{"name":"또래오래치킨양평점","tel":"031-774-7293","addr":"경기도 양평군 양평읍 양근리 298-1","indutype":"일반휴게음식 - 스넥","category":"restaurant"}]},{"lat":"37.490275637","long":"127.4922279","imageIndex":4,"items":[{"name":"또치네","tel":"070-8806-4047","addr":"경기도 양평군 양평읍 양근리 358-4번지 1층","indutype":"일반휴게음식 - 일반한식","category":"restaurant"},{"name":"에라이쿠마","tel":"","addr":"경기도 양평군 양평읍 양근리 358-4번지 1층","indutype":"일반휴게음식 - 일반한식","category":"restaurant"},{"name":"캔커피","tel":"070-8841-3322","addr":"경기도 양평군 양평읍 양근리 358-4번지","indutype":"일반휴게음식 - 서양음식","category":"restaurant"}]},{"lat":"37.49027484","long":"127.49242012","imageIndex":4,"items":[{"name":"똥광까페","tel":"031-773-8939","addr":"경기도 양평군 양평읍 양근리 360-1번지","indutype":"일반휴게음식 - 서양음식","category":"restaurant"},{"name":"똥광이네","tel":"031-775-5021","addr":"경기도 양평군 양평읍 양근리 360-1","indutype":"일반휴게음식 - 일반한식","category":"restaurant"},{"name":"허브","tel":"031-774-9423","addr":"경기도 양평군 양평읍 양근리 360-1번지","indutype":"일반휴게음식 - 일반한식","category":"restaurant"}]},{"lat":"37.49622273","long":"127.49208577","imageIndex":4,"items":[{"name":"레드도어커피","tel":"02-1577-0000","addr":"경기도 양평군 양평읍 양근리 137-70번지 1층","indutype":"일반휴게음식 - 서양음식","category":"restaurant"},{"name":"처갓집양념통닭양평점","tel":"031-773-9592","addr":"경기도 양평군 양평읍 양근리 137-70번지 1층","indutype":"일반휴게음식 - 스넥","category":"restaurant"}]},{"lat":"37.490637772","long":"127.49614258","imageIndex":4,"items":[{"name":"레이트커피","tel":"031-111-1111","addr":"경기도 양평군 양평읍 양근리 176-7번지","indutype":"일반휴게음식 - 서양음식","category":"restaurant"}]},{"lat":"37.489582786","long":"127.49200855","imageIndex":4,"items":[{"name":"로즈","tel":"031-772-6855","addr":"경기도 양평군 양평읍 양근리 353-10번지 2층","indutype":"일반휴게음식 - 일반한식","category":"restaurant"},{"name":"키세키 (KISEKI)","tel":"031-000-0000","addr":"경기도 양평군 양평읍 양근리 353-10번지","indutype":"일반휴게음식 - 일식·회집","category":"restaurant"}]},{"lat":"37.491722632","long":"127.48873203","imageIndex":4,"items":[{"name":"롯데리아","tel":"031-771-7937","addr":"경기도 양평군 양평읍 양근리 446-7번지 1층","indutype":"일반휴게음식 - 서양음식","category":"restaurant"}]},{"lat":"37.489859828","long":"127.49472407","imageIndex":4,"items":[{"name":"르브레드","tel":"031-771-1238","addr":"경기도 양평군 양평읍 양근리 195-9번지 1층","indutype":"일반휴게음식 - 일반한식","category":"restaurant"},{"name":"명랑핫도그양평점","tel":"031-1111-1111","addr":"경기도 양평군 양평읍 양근리 195-9번지","indutype":"일반휴게음식 - 일반한식","category":"restaurant"}]},{"lat":"37.48652901","long":"127.49620602","imageIndex":4,"items":[{"name":"마끼아또","tel":"031-771-7382","addr":"경기도 양평군 양평읍 양근리 192-109번지 1층","indutype":"일반휴게음식 - 일반한식","category":"restaurant"}]},{"lat":"37.491136165","long":"127.49761581","imageIndex":4,"items":[{"name":"마니스시루","tel":"031-774-9977","addr":"경기도 양평군 양평읍 양근리 170-38번지 1층","indutype":"일반휴게음식 - 일식·회집","category":"restaurant"}]},{"lat":"37.491079179","long":"127.48964376","imageIndex":4,"items":[{"name":"마라양꼬치","tel":"031-773-1888","addr":"경기도 양평군 양평읍 양근리 422-27번지 1층","indutype":"일반휴게음식 - 중국식","category":"restaurant"},{"name":"양평양고기전문점","tel":"031-771-9244","addr":"경기도 양평군 양평읍 양근리 422-27번지","indutype":"일반휴게음식 - 일반한식","category":"restaurant"}]},{"lat":"37.496332344","long":"127.49172462","imageIndex":4,"items":[{"name":"마우네통영산꼼장어아나고제주흑돼지","tel":"031-774-3774","addr":"경기도 양평군 양평읍 양근리 137-38번지","indutype":"일반휴게음식 - 일반한식","category":"restaurant"}]},{"lat":"37.488078182","long":"127.49416966","imageIndex":4,"items":[{"name":"만나도시락","tel":"","addr":"경기도 양평군 양평읍 양근리 218-6번지 1층 103호","indutype":"일반휴게음식 - 일반한식","category":"restaurant"},{"name":"한식당","tel":"031-774-0104","addr":"경기도 양평군 양평읍 양근리 218-6번지","indutype":"일반휴게음식 - 일반한식","category":"restaurant"}]},{"lat":"37.491165965","long":"127.49044715","imageIndex":4,"items":[{"name":"맘스터치","tel":"031-775-5900","addr":"경기도 양평군 양평읍 양근리 404-9번지","indutype":"일반휴게음식 - 서양음식","category":"restaurant"}]},{"lat":"37.488939777","long":"127.49280715","imageIndex":4,"items":[{"name":"맘스푸드","tel":"070-1111-1111","addr":"경기도 양평군 양평읍 양근리 200-2번지","indutype":"일반휴게음식 - 서양음식","category":"restaurant"}]},{"lat":"37.488080097","long":"127.49153517","imageIndex":4,"items":[{"name":"맥시칸치킨 양평점","tel":"031-771-8938","addr":"경기도 양평군 양평읍 양근리 282-7번지","indutype":"일반휴게음식 - 일반한식","category":"restaurant"},{"name":"빡과장생고깃집","tel":"031-774-9296","addr":"경기도 양평군 양평읍 양근리 282-7번지 1층","indutype":"일반휴게음식 - 일반한식","category":"restaurant"}]},{"lat":"37.489770864","long":"127.49228114","imageIndex":4,"items":[{"name":"메가엠지씨커피양평물맑은시장점","tel":"","addr":"경기도 양평군 양평읍 양근리 356-3번지 1층","indutype":"일반휴게음식 - 서양음식","category":"restaurant"},{"name":"방실이파전","tel":"031-773-0030","addr":"경기도 양평군 양평읍 양근리 356-3번지 1층","indutype":"일반휴게음식 - 일반한식","category":"restaurant"}]},{"lat":"37.491331774","long":"127.48956625","imageIndex":4,"items":[{"name":"명가춘천닭갈비","tel":"031-774-0125","addr":"경기도 양평군 양평읍 양근리 401-14번지","indutype":"일반휴게음식 - 일반한식","category":"restaurant"}]},{"lat":"37.490414103","long":"127.49142599","imageIndex":4,"items":[{"name":"명동만두분식","tel":"031-774-6306","addr":"경기도 양평군 양평읍 양근리 410-17","indutype":"일반휴게음식 - 스넥","category":"restaurant"},{"name":"모모스테이크 양평점","tel":"031-772-3050","addr":"경기도 양평군 양평읍 양근리 410-17번지","indutype":"일반휴게음식 - 일반한식","category":"restaurant"},{"name":"여울","tel":"031-772-3050","addr":"경기도 양평군 양평읍 양근리 410-17번지 2층","indutype":"일반휴게음식 - 일반한식","category":"restaurant"},{"name":"진가네김밥","tel":"031-771-2375","addr":"경기도 양평군 양평읍 양근리 410-17번지","indutype":"일반휴게음식 - 스넥","category":"restaurant"},{"name":"파파도나스","tel":"","addr":"경기도 양평군 양평읍 양근리 410-17번지 1층","indutype":"일반휴게음식 - 서양음식","category":"restaurant"}]},{"lat":"37.491188785","long":"127.48928263","imageIndex":4,"items":[{"name":"명물삼합","tel":"031-775-8810","addr":"경기도 양평군 양평읍 양근리 422-20번지","indutype":"일반휴게음식 - 일반한식","category":"restaurant"}]},{"lat":"37.490583976","long":"127.4895614","imageIndex":4,"items":[{"name":"목화부페웨딩홀","tel":"031-774-1555","addr":"경기도 양평군 양평읍 양근리 417-1번지","indutype":"일반휴게음식 - 일반한식","category":"restaurant"}]},{"lat":"37.490218814","long":"127.49289466","imageIndex":4,"items":[{"name":"몽실식당","tel":"031-771-9296","addr":"경기도 양평군 양평읍 양근리 167-27번지","indutype":"일반휴게음식 - 일반한식","category":"restaurant"}]},{"lat":"37.487495751","long":"127.49339698","imageIndex":4,"items":[{"name":"미가","tel":"","addr":"경기도 양평군 양평읍 양근리 222-10번지 1층","indutype":"일반휴게음식 - 일반한식","category":"restaurant"},{"name":"이준돈까스","tel":"031-772-7666","addr":"경기도 양평군 양평읍 양근리 222-10번지 1층","indutype":"일반휴게음식 - 서양음식","category":"restaurant"}]},{"lat":"37.490722953","long":"127.49081741","imageIndex":4,"items":[{"name":"미스사이공 양평점","tel":"031-773-3420","addr":"경기도 양평군 양평읍 양근리 410-14번지","indutype":"일반휴게음식 - 스넥","category":"restaurant"},{"name":"민들레카페","tel":"031-772-2900","addr":"경기도 양평군 양평읍 양근리 410-14번지","indutype":"일반휴게음식 - 서양음식","category":"restaurant"}]},{"lat":"37.491111534","long":"127.49053725","imageIndex":4,"items":[{"name":"밀러타임","tel":"031-775-2996","addr":"경기도 양평군 양평읍 양근리 404-8번지 1층","indutype":"일반휴게음식 - 주점","category":"restaurant"},{"name":"정안보리밥","tel":"","addr":"경기도 양평군 양평읍 양근리 404-8번지 2층","indutype":"일반휴게음식 - 일반한식","category":"restaurant"}]},{"lat":"37.49152535","long":"127.48850461","imageIndex":4,"items":[{"name":"백운봉","tel":"031-775-2929","addr":"경기도 양평군 양평읍 양근리 446-15번지","indutype":"일반휴게음식 - 일반한식","category":"restaurant"}]},{"lat":"37.490584491","long":"127.49161932","imageIndex":4,"items":[{"name":"버거킹경기양평점","tel":"031-771-0092","addr":"경기도 양평군 양평읍 양근리 409-7번지","indutype":"일반휴게음식 - 서양음식","category":"restaurant"}]},{"lat":"37.4901338","long":"127.49600358","imageIndex":4,"items":[{"name":"버무리떡볶이","tel":"031-771-5511","addr":"경기도 양평군 양평읍 양근리 183-11번지 1층","indutype":"일반휴게음식 - 일반한식","category":"restaurant"},{"name":"양평반점","tel":"031-772-0404","addr":"경기도 양평군 양평읍 양근리 183-11번지","indutype":"일반휴게음식 - 중국식","category":"restaurant"}]},{"lat":"37.490719869","long":"127.49156367","imageIndex":4,"items":[{"name":"벧엘떡카페","tel":"031-774-5090","addr":"경기도 양평군 양평읍 양근리 409-9번지","indutype":"일반휴게음식 - 서양음식","category":"restaurant"}]},{"lat":"37.491050659","long":"127.49000541","imageIndex":4,"items":[{"name":"보드람치킨","tel":"031-775-8007","addr":"경기도 양평군 양평읍 양근리 421-1번지","indutype":"일반휴게음식 - 스넥","category":"restaurant"}]},{"lat":"37.489694755","long":"127.49325306","imageIndex":4,"items":[{"name":"본죽","tel":"031-775-6288","addr":"경기도 양평군 양평읍 양근리 206-5번지 외2필지","indutype":"일반휴게음식 - 일반한식","category":"restaurant"}]},{"lat":"37.489251021","long":"127.49162194","imageIndex":4,"items":[{"name":"봉구비어경기양평역점","tel":"031-771-8040","addr":"경기도 양평군 양평읍 양근리 304-5번지 2층","indutype":"일반휴게음식 - 주점","category":"restaurant"}]},{"lat":"37.4884457","long":"127.49245341","imageIndex":4,"items":[{"name":"봉구스밥버거 양평양근점","tel":"031-772-9778","addr":"경기도 양평군 양평읍 양근리 299-18번지 104호","indutype":"일반휴게음식 - 일반한식","category":"restaurant"},{"name":"홍춘관","tel":"031-774-7359","addr":"경기도 양평군 양평읍 양근리 299-18","indutype":"일반휴게음식 - 중국식","category":"restaurant"}]},{"lat":"37.495826167","long":"127.49211711","imageIndex":4,"items":[{"name":"부뚜막치킨","tel":"031-774-7741","addr":"경기도 양평군 양평읍 양근리 137-61번지","indutype":"일반휴게음식 - 일반한식","category":"restaurant"},{"name":"치킨뱅이","tel":"031-774-7741","addr":"경기도 양평군 양평읍 양근리 137-61번지","indutype":"일반휴게음식 - 스넥","category":"restaurant"}]},{"lat":"37.491910698","long":"127.49336931","imageIndex":4,"items":[{"name":"부어치킨","tel":"031-771-2500","addr":"경기도 양평군 양평읍 양근리 162-1 외3필지1층","indutype":"일반휴게음식 - 주점","category":"restaurant"}]},{"lat":"37.489166376","long":"127.49248073","imageIndex":4,"items":[{"name":"불닭발동대문엽기떡볶이","tel":"031-775-8593","addr":"경기도 양평군 양평읍 양근리 301-4번지","indutype":"일반휴게음식 - 일반한식","category":"restaurant"}]},{"lat":"37.488746851","long":"127.48934595","imageIndex":4,"items":[{"name":"브이아이피(VIP)카페","tel":"031-771-1979","addr":"경기도 양평군 양평읍 양근리 328-2번지","indutype":"일반휴게음식 - 서양음식","category":"restaurant"},{"name":"브이아이피밥상(VIP밥상)","tel":"031-771-5332","addr":"경기도 양평군 양평읍 양근리 328-2번지 1층","indutype":"일반휴게음식 - 일반한식","category":"restaurant"}]},{"lat":"37.490777295","long":"127.49725161","imageIndex":4,"items":[{"name":"블랙앤화이트","tel":"031-774-4050","addr":"경기도 양평군 양평읍 양근리 174-4번지 2층","indutype":"일반휴게음식 - 일반한식","category":"restaurant"}]},{"lat":"37.491134245","long":"127.4959197","imageIndex":4,"items":[{"name":"비에이치씨(BHC)양평점","tel":"031-774-3445","addr":"경기도 양평군 양평읍 양근리 172-8번지 1층","indutype":"일반휴게음식 - 스넥","category":"restaurant"}]},{"lat":"37.492136622","long":"127.49103014","imageIndex":4,"items":[{"name":"빨라쪼","tel":"070-7727-5559","addr":"경기도 양평군 양평읍 양근리 376-4번지 101호","indutype":"일반휴게음식 - 서양음식","category":"restaurant"},{"name":"카페다다","tel":"","addr":"경기도 양평군 양평읍 양근리 376-4번지 103,203호","indutype":"일반휴게음식 - 서양음식","category":"restaurant"}]},{"lat":"37.490276573","long":"127.49200176","imageIndex":4,"items":[{"name":"빽다방","tel":"031-774-8886","addr":"경기도 양평군 양평읍 양근리 358-5번지 1층","indutype":"일반휴게음식 - 서양음식","category":"restaurant"}]},{"lat":"37.489993734","long":"127.49067698","imageIndex":4,"items":[{"name":"사랑채","tel":"031-775-2764","addr":"경기도 양평군 양평읍 양근리 412번지","indutype":"일반휴게음식 - 일반한식","category":"restaurant"},{"name":"수원신닭발","tel":"031-774-2988","addr":"경기도 양평군 양평읍 양근리 412","indutype":"일반휴게음식 - 일반한식","category":"restaurant"},{"name":"스마일분식","tel":"031-773-2944","addr":"경기도 양평군 양평읍 양근리 412","indutype":"일반휴게음식 - 스넥","category":"restaurant"},{"name":"이모네","tel":"031-775-2764","addr":"경기도 양평군 양평읍 양근리 412번지","indutype":"일반휴게음식 - 일반한식","category":"restaurant"}]},{"lat":"37.490221914","long":"127.49647906","imageIndex":4,"items":[{"name":"사와라 해물","tel":"031-773-7854","addr":"경기도 양평군 양평읍 양근리 183-4번지 오황한의원 1층 6호","indutype":"일반휴게음식 - 일반한식","category":"restaurant"},{"name":"춘천꼬꼬닭갈비","tel":"031-775-4445","addr":"경기도 양평군 양평읍 양근리 183-4번지","indutype":"일반휴게음식 - 일반한식","category":"restaurant"},{"name":"투다리","tel":"031-771-4689","addr":"경기도 양평군 양평읍 양근리 183-4번지","indutype":"일반휴게음식 - 일반한식","category":"restaurant"}]},{"lat":"37.489493859","long":"127.49172529","imageIndex":4,"items":[{"name":"삼대칡냉면","tel":"031-773-5516","addr":"경기도 양평군 양평읍 양근리 304-1번지","indutype":"일반휴게음식 - 일반한식","category":"restaurant"},{"name":"이지비네","tel":"031-773-8828","addr":"경기도 양평군 양평읍 양근리 304-1번지 1층","indutype":"일반휴게음식 - 일반한식","category":"restaurant"}]},{"lat":"37.490939027","long":"127.48867042","imageIndex":4,"items":[{"name":"삼시세끼","tel":"031-774-4552","addr":"경기도 양평군 양평읍 양근리 444-2번지","indutype":"일반휴게음식 - 일반한식","category":"restaurant"}]},{"lat":"37.490723354","long":"127.48853334","imageIndex":4,"items":[{"name":"새벽해장국","tel":"031-772-1161","addr":"경기도 양평군 양평읍 양근리 443-1번지 1층","indutype":"일반휴게음식 - 일반한식","category":"restaurant"}]},{"lat":"37.490416097","long":"127.48875749","imageIndex":4,"items":[{"name":"선우돼지갈비","tel":"031-772-8723","addr":"경기도 양평군 양평읍 양근리 443-3","indutype":"일반휴게음식 - 일반한식","category":"restaurant"}]},{"lat":"37.489221605","long":"127.49219841","imageIndex":4,"items":[{"name":"선일이네감자탕","tel":"031-772-1544","addr":"경기도 양평군 양평읍 양근리 302-6번지","indutype":"일반휴게음식 - 일반한식","category":"restaurant"}]},{"lat":"37.489355016","long":"127.49261764","imageIndex":4,"items":[{"name":"설빙","tel":"031-771-2264","addr":"경기도 양평군 양평읍 양근리 355-3번지 2층","indutype":"일반휴게음식 - 서양음식","category":"restaurant"}]},{"lat":"37.490020837","long":"127.49283683","imageIndex":4,"items":[{"name":"센스카페","tel":"","addr":"경기도 양평군 양평읍 양근리 167-10번지 지하1층","indutype":"일반휴게음식 - 일반한식","category":"restaurant"},{"name":"진고개집","tel":"031-775-0878","addr":"경기도 양평군 양평읍 양근리 167-10번지","indutype":"일반휴게음식 - 일반한식","category":"restaurant"}]},{"lat":"37.49002524","long":"127.48959169","imageIndex":4,"items":[{"name":"소나무","tel":"031-773-6565","addr":"경기도 양평군 양평읍 양근리 345-9번지","indutype":"일반휴게음식 - 서양음식","category":"restaurant"}]},{"lat":"37.492270871","long":"127.49558794","imageIndex":4,"items":[{"name":"손문대구막창","tel":"031-774-8686","addr":"경기도 양평군 양평읍 양근리 170-5번지 1층","indutype":"일반휴게음식 - 일반한식","category":"restaurant"},{"name":"장다리","tel":"031-774-7775","addr":"경기도 양평군 양평읍 양근리 170-5","indutype":"일반휴게음식 - 일반한식","category":"restaurant"},{"name":"정동진","tel":"031-774-7775","addr":"경기도 양평군 양평읍 양근리 170-5번지 1층","indutype":"일반휴게음식 - 일식·회집","category":"restaurant"}]},{"lat":"37.487915124","long":"127.49003028","imageIndex":4,"items":[{"name":"송향밥집","tel":"031-772-7882","addr":"경기도 양평군 양평읍 양근리 273-3번지 1층","indutype":"일반휴게음식 - 일반한식","category":"restaurant"}]},{"lat":"37.488939935","long":"127.49059098","imageIndex":4,"items":[{"name":"수복정육점식당","tel":"031-771-2210","addr":"경기도 양평군 양평읍 양근리 314-8번지 1층","indutype":"일반휴게음식 - 일반한식","category":"restaurant"}]},{"lat":"37.492771557","long":"127.4878116","imageIndex":4,"items":[{"name":"수산한횟집","tel":"031-1111-1111","addr":"경기도 양평군 양평읍 양근리 528-17번지 1층","indutype":"일반휴게음식 - 일반한식","category":"restaurant"},{"name":"수산한횟집양평점","tel":"","addr":"경기도 양평군 양평읍 양근리 528-17번지 1층","indutype":"일반휴게음식 - 일식·회집","category":"restaurant"},{"name":"양평칼국수","tel":"031-771-1390","addr":"경기도 양평군 양평읍 양근리 528-17번지","indutype":"일반휴게음식 - 일반한식","category":"restaurant"}]},{"lat":"37.489889863","long":"127.48964735","imageIndex":4,"items":[{"name":"순이네홍어","tel":"031-774-8879","addr":"경기도 양평군 양평읍 양근리 345-8번지 순이네홍어","indutype":"일반휴게음식 - 일반한식","category":"restaurant"}]},{"lat":"37.49047338","long":"127.49234226","imageIndex":4,"items":[{"name":"순이비어","tel":"","addr":"경기도 양평군 양평읍 양근리 361-8번지 1층","indutype":"일반휴게음식 - 주점","category":"restaurant"}]},{"lat":"37.490247637","long":"127.49028288","imageIndex":4,"items":[{"name":"술독","tel":"070-7791-0267","addr":"경기도 양평군 양평읍 양근리 413-1번지 술독","indutype":"일반휴게음식 - 일반한식","category":"restaurant"},{"name":"연희포차","tel":"02-771-1445","addr":"경기도 양평군 양평읍 양근리 413-1번지","indutype":"일반휴게음식 - 일반한식","category":"restaurant"},{"name":"풍뎅이호프","tel":"031-774-2162","addr":"경기도 양평군 양평읍 양근리 413-1번지","indutype":"일반휴게음식 - 주점","category":"restaurant"}]},{"lat":"37.489109391","long":"127.49101044","imageIndex":4,"items":[{"name":"스마일꽈배기","tel":"031-761-3049","addr":"경기도 양평군 양평읍 양근리 290-1번지 1층","indutype":"일반휴게음식 - 서양음식","category":"restaurant"}]},{"lat":"37.489748887","long":"127.49105983","imageIndex":4,"items":[{"name":"시바라스시","tel":"031-774-2818","addr":"경기도 양평군 양평읍 양근리 351-2번지 2층","indutype":"일반휴게음식 - 서양음식","category":"restaurant"},{"name":"차돌풍","tel":"031-771-9293","addr":"경기도 양평군 양평읍 양근리 351-2번지 1층","indutype":"일반휴게음식 - 일반한식","category":"restaurant"}]},{"lat":"37.489973567","long":"127.49119698","imageIndex":4,"items":[{"name":"신(  )통큰소곱창","tel":"031-775-6789","addr":"경기도 양평군 양평읍 양근리 410-22번지","indutype":"일반휴게음식 - 일반한식","category":"restaurant"}]},{"lat":"37.497243177","long":"127.48272917","imageIndex":4,"items":[{"name":"신라한정식부페","tel":"031-774-1116","addr":"경기도 양평군 양평읍 양근리 504-15번지 1층","indutype":"일반휴게음식 - 일반한식","category":"restaurant"}]},{"lat":"37.490687755","long":"127.49061365","imageIndex":4,"items":[{"name":"신전떡볶이 양평점","tel":"070-1111-1111","addr":"경기도 양평군 양평읍 양근리 410-23번지","indutype":"일반휴게음식 - 스넥","category":"restaurant"},{"name":"정통춘천닭갈비","tel":"031-774-5222","addr":"경기도 양평군 양평읍 양근리 410-23번지","indutype":"일반휴게음식 - 일반한식","category":"restaurant"},{"name":"정통춘천닭갈비","tel":"031-774-5222","addr":"경기도 양평군 양평읍 양근리 410-23번지","indutype":"일반휴게음식 - 일반한식","category":"restaurant"}]},{"lat":"37.487444133","long":"127.49280869","imageIndex":4,"items":[{"name":"심마니약초백숙","tel":"031-773-2775","addr":"경기도 양평군 양평읍 양근리 229-2번지","indutype":"일반휴게음식 - 일반한식","category":"restaurant"}]},{"lat":"37.491744625","long":"127.49430675","imageIndex":4,"items":[{"name":"아다모커피","tel":"031-775-6648","addr":"경기도 양평군 양평읍 양근리 170-63번지","indutype":"일반휴게음식 - 서양음식","category":"restaurant"}]},{"lat":"37.494967323","long":"127.49064147","imageIndex":4,"items":[{"name":"아이엠돈까스","tel":"031-774-3110","addr":"경기도 양평군 양평읍 양근리 139-12번지","indutype":"일반휴게음식 - 서양음식","category":"restaurant"}]},{"lat":"37.495997093","long":"127.48780984","imageIndex":4,"items":[{"name":"알찬만두","tel":"031-775-5656","addr":"경기도 양평군 양평읍 양근리 100-11번지 (주)엔오에스","indutype":"일반휴게음식 - 일반한식","category":"restaurant"}]},{"lat":"37.489720456","long":"127.49139886","imageIndex":4,"items":[{"name":"야식대학","tel":"031-775-8886","addr":"경기도 양평군 양평읍 양근리 306-3번지","indutype":"일반휴게음식 - 일반한식","category":"restaurant"},{"name":"야식포차","tel":"031-771-6869","addr":"경기도 양평군 양평읍 양근리 306-3번지 1층","indutype":"일반휴게음식 - 일반한식","category":"restaurant"},{"name":"중앙정육점식당","tel":"031-771-2838","addr":"경기도 양평군 양평읍 양근리 306-3번지","indutype":"일반휴게음식 - 일반한식","category":"restaurant"}]},{"lat":"37.490719308","long":"127.49169935","imageIndex":4,"items":[{"name":"양평38닭강정","tel":"031-774-5008","addr":"경기도 양평군 양평읍 양근리 409-1번지 1층","indutype":"일반휴게음식 - 일반한식","category":"restaurant"}]},{"lat":"37.490972647","long":"127.48925862","imageIndex":4,"items":[{"name":"양평갈매기집","tel":"031-771-6100","addr":"경기도 양평군 양평읍 양근리 422-18번지","indutype":"일반휴게음식 - 일반한식","category":"restaurant"}]},{"lat":"37.48811147","long":"127.49048383","imageIndex":4,"items":[{"name":"양평경찰서복지위원회","tel":"031-770-9394","addr":"경기도 양평군 양평읍 양근리 280번지 양평경찰서 구내식당","indutype":"일반휴게음식 - 위탁급식업","category":"restaurant"}]},{"lat":"37.490304959","long":"127.49167404","imageIndex":4,"items":[{"name":"양평김밥","tel":"031-771-0109","addr":"경기도 양평군 양평읍 양근리 357-1번지","indutype":"일반휴게음식 - 스넥","category":"restaurant"}]},{"lat":"37.490167436","long":"127.49006752","imageIndex":4,"items":[{"name":"양평냉삼1977","tel":"","addr":"경기도 양평군 양평읍 양근리 414-3번지 1층","indutype":"일반휴게음식 - 일반한식","category":"restaurant"},{"name":"화닭","tel":"031-773-9492","addr":"경기도 양평군 양평읍 양근리 414-3번지","indutype":"일반휴게음식 - 일반한식","category":"restaurant"}]},{"lat":"37.487112742","long":"127.49450254","imageIndex":4,"items":[{"name":"양평도서관가는길","tel":"031-772-8595","addr":"경기도 양평군 양평읍 양근리 192-129번지 1층","indutype":"일반휴게음식 - 일반한식","category":"restaurant"}]},{"lat":"37.495825306","long":"127.48795573","imageIndex":4,"items":[{"name":"양평돈사돈","tel":"031-775-9545","addr":"경기도 양평군 양평읍 양근리 98-16번지","indutype":"일반휴게음식 - 일반한식","category":"restaurant"},{"name":"양평돈사돈","tel":"031-775-9545","addr":"경기도 양평군 양평읍 양근리 98-16번지","indutype":"일반휴게음식 - 일반한식","category":"restaurant"}]},{"lat":"37.496853145","long":"127.48778145","imageIndex":4,"items":[{"name":"양평마유산갈비","tel":"031-775-6664","addr":"경기도 양평군 양평읍 양근리 95-2번지","indutype":"일반휴게음식 - 일반한식","category":"restaurant"}]},{"lat":"37.49011156","long":"127.49050814","imageIndex":4,"items":[{"name":"양평매코미통닭발","tel":"031-775-1306","addr":"경기도 양평군 양평읍 양근리 413-3번지","indutype":"일반휴게음식 - 일반한식","category":"restaurant"}]},{"lat":"37.489938109","long":"127.49323204","imageIndex":4,"items":[{"name":"양평명품한우","tel":"031-775-6282","addr":"경기도 양평군 양평읍 양근리 167-6번지","indutype":"일반휴게음식 - 일반한식","category":"restaurant"}]},{"lat":"37.49247345","long":"127.4880019","imageIndex":4,"items":[{"name":"양평소곱창","tel":"031-775-3548","addr":"경기도 양평군 양평읍 양근리 396-17번지","indutype":"일반휴게음식 - 일반한식","category":"restaurant"}]},{"lat":"37.490803511","long":"127.48876","imageIndex":4,"items":[{"name":"양평콩나물밥","tel":"031-773-0390","addr":"경기도 양평군 양평읍 양근리 424-3번지","indutype":"일반휴게음식 - 일반한식","category":"restaurant"}]},{"lat":"37.488160389","long":"127.49172791","imageIndex":4,"items":[{"name":"어가별미","tel":"031-771-7379","addr":"경기도 양평군 양평읍 양근리 283번지","indutype":"일반휴게음식 - 일반한식","category":"restaurant"}]},{"lat":"37.49632873","long":"127.48823039","imageIndex":4,"items":[{"name":"어무이맛양평해장국","tel":"031-772-5557","addr":"경기도 양평군 양평읍 양근리 100-8번지 1층","indutype":"일반휴게음식 - 일반한식","category":"restaurant"}]},{"lat":"37.490524648","long":"127.49083873","imageIndex":4,"items":[{"name":"어울림호프 (카페)","tel":"031-771-2629","addr":"경기도 양평군 양평읍 양근리 410-6번지 2층","indutype":"일반휴게음식 - 주점","category":"restaurant"}]},{"lat":"37.490584753","long":"127.49589347","imageIndex":4,"items":[{"name":"언니닭발","tel":"031-772-5790","addr":"경기도 양평군 양평읍 양근리 176-8번지 1호","indutype":"일반휴게음식 - 일반한식","category":"restaurant"}]},{"lat":"37.491193414","long":"127.49034556","imageIndex":4,"items":[{"name":"엉클존스","tel":"","addr":"경기도 양평군 양평읍 양근리 404-10번지 1층","indutype":"일반휴게음식 - 서양음식","category":"restaurant"},{"name":"푸줏간뒷고기","tel":"070-7781-4272","addr":"경기도 양평군 양평읍 양근리 404-10번지","indutype":"일반휴게음식 - 일반한식","category":"restaurant"}]},{"lat":"37.490081542","long":"127.4912316","imageIndex":4,"items":[{"name":"에이엔티 193","tel":"031-771-1734","addr":"경기도 양평군 양평읍 양근리 410-27번지","indutype":"일반휴게음식 - 서양음식","category":"restaurant"}]},{"lat":"37.489500903","long":"127.49220023","imageIndex":4,"items":[{"name":"연지네불고기","tel":"031-775-5737","addr":"경기도 양평군 양평읍 양근리 354-3번지","indutype":"일반휴게음식 - 일반한식","category":"restaurant"}]},{"lat":"37.490437949","long":"127.49436603","imageIndex":4,"items":[{"name":"예지현","tel":"031-773-0988","addr":"경기도 양평군 양평읍 양근리 169-8번지 1층","indutype":"일반휴게음식 - 일반한식","category":"restaurant"},{"name":"케이팝","tel":"031-775-7087","addr":"경기도 양평군 양평읍 양근리 169-8번지 지하1층","indutype":"일반휴게음식 - 주점","category":"restaurant"},{"name":"하루","tel":"031-775-6966","addr":"경기도 양평군 양평읍 양근리 169-8","indutype":"일반휴게음식 - 일반한식","category":"restaurant"}]},{"lat":"37.487744776","long":"127.49200787","imageIndex":4,"items":[{"name":"옛날잔치국수","tel":"031-774-2075","addr":"경기도 양평군 양평읍 양근리 262-1","indutype":"일반휴게음식 - 일반한식","category":"restaurant"},{"name":"조반식당","tel":"","addr":"경기도 양평군 양평읍 양근리 262-1번지 1층","indutype":"일반휴게음식 - 일반한식","category":"restaurant"}]},{"lat":"37.491329864","long":"127.49002984","imageIndex":4,"items":[{"name":"옛날통닭","tel":"031-774-0511","addr":"경기도 양평군 양평읍 양근리 403-6번지","indutype":"일반휴게음식 - 스넥","category":"restaurant"}]},{"lat":"37.490439167","long":"127.49190106","imageIndex":4,"items":[{"name":"오늘도떡볶이","tel":"031-772-3300","addr":"경기도 양평군 양평읍 양근리 358-1번지 2층","indutype":"일반휴게음식 - 일반한식","category":"restaurant"}]},{"lat":"37.489915307","long":"127.49003196","imageIndex":4,"items":[{"name":"오늘한판","tel":"031-771-9918","addr":"경기도 양평군 양평읍 양근리 346-3번지 1층","indutype":"일반휴게음식 - 일반한식","category":"restaurant"}]},{"lat":"37.492778368","long":"127.48614943","imageIndex":4,"items":[{"name":"오미가","tel":"031-771-2334","addr":"경기도 양평군 양평읍 양근리 450-9번지 1층","indutype":"일반휴게음식 - 스넥","category":"restaurant"}]},{"lat":"37.490744839","long":"127.49206135","imageIndex":4,"items":[{"name":"오일장순대국","tel":"031-775-5050","addr":"경기도 양평군 양평읍 양근리 361-10번지","indutype":"일반휴게음식 - 일반한식","category":"restaurant"}]},{"lat":"37.489882395","long":"127.49145645","imageIndex":4,"items":[{"name":"오투닭갈비부대찌개","tel":"031-774-0205","addr":"경기도 양평군 양평읍 양근리 352-3번지 1층","indutype":"일반휴게음식 - 일반한식","category":"restaurant"},{"name":"주만금호프","tel":"031-771-5788","addr":"경기도 양평군 양평읍 양근리 352-3번지 2층","indutype":"일반휴게음식 - 주점","category":"restaurant"}]},{"lat":"37.489609253","long":"127.4921444","imageIndex":4,"items":[{"name":"옥이네양꼬치","tel":"031-773-0227","addr":"경기도 양평군 양평읍 양근리 353-4번지","indutype":"일반휴게음식 - 일반한식","category":"restaurant"},{"name":"풍년야식","tel":"031-771-3523","addr":"경기도 양평군 양평읍 양근리 353-4","indutype":"일반휴게음식 - 일반한식","category":"restaurant"}]},{"lat":"37.48785509","long":"127.49147717","imageIndex":4,"items":[{"name":"우동전문점","tel":"031-771-0052","addr":"경기도 양평군 양평읍 양근리 269-13","indutype":"일반휴게음식 - 스넥","category":"restaurant"}]},{"lat":"37.490856509","long":"127.49120272","imageIndex":4,"items":[{"name":"우드스탁","tel":"031-775-7665","addr":"경기도 양평군 양평읍 양근리 406-1번지 2층","indutype":"일반휴게음식 - 일반한식","category":"restaurant"},{"name":"카페멜","tel":"031-772-6000","addr":"경기도 양평군 양평읍 양근리 406-1번지","indutype":"일반휴게음식 - 서양음식","category":"restaurant"}]},{"lat":"37.490445709","long":"127.49031808","imageIndex":4,"items":[{"name":"우리한잔할래","tel":"","addr":"경기도 양평군 양평읍 양근리 411-10번지 1층","indutype":"일반휴게음식 - 주점","category":"restaurant"},{"name":"전곱 양평점","tel":"031-774-9292","addr":"경기도 양평군 양평읍 양근리 411-10번지 1층","indutype":"일반휴게음식 - 일반한식","category":"restaurant"}]},{"lat":"37.49030163","long":"127.4968075","imageIndex":4,"items":[{"name":"육감만족경기양평점","tel":"031-772-9212","addr":"경기도 양평군 양평읍 양근리 184-7번지 1층","indutype":"일반휴게음식 - 일반한식","category":"restaurant"}]},{"lat":"37.491439516","long":"127.49183973","imageIndex":4,"items":[{"name":"윤정쭈꾸미","tel":"031-771-2048","addr":"경기도 양평군 양평읍 양근리 363번지","indutype":"일반휴게음식 - 일반한식","category":"restaurant"}]},{"lat":"37.487326933","long":"127.49064833","imageIndex":4,"items":[{"name":"이도갈비&이어도활어회","tel":"031-775-8488","addr":"경기도 양평군 양평읍 양근리 274-5번지 1층","indutype":"일반휴게음식 - 일반한식","category":"restaurant"}]},{"lat":"37.488638133","long":"127.49167448","imageIndex":4,"items":[{"name":"이디야 양평점","tel":"031-773-5073","addr":"경기도 양평군 양평읍 양근리 293-2번지 1층","indutype":"일반휴게음식 - 서양음식","category":"restaurant"},{"name":"피자메카","tel":"031-771-8823","addr":"경기도 양평군 양평읍 양근리 293-2번지 2층","indutype":"일반휴게음식 - 서양음식","category":"restaurant"}]},{"lat":"37.491024329","long":"127.48983563","imageIndex":4,"items":[{"name":"이즈모","tel":"031-774-2056","addr":"경기도 양평군 양평읍 양근리 422-15번지 1-2층","indutype":"일반휴게음식 - 일식·회집","category":"restaurant"}]},{"lat":"37.490109505","long":"127.49100564","imageIndex":4,"items":[{"name":"이층밥상","tel":"031-774-2784","addr":"경기도 양평군 양평읍 양근리 410-11번지 1층","indutype":"일반휴게음식 - 일반한식","category":"restaurant"}]},{"lat":"37.487942192","long":"127.49220137","imageIndex":4,"items":[{"name":"인사동청국장","tel":"031-773-8608","addr":"경기도 양평군 양평읍 양근리 295-1번지","indutype":"일반휴게음식 - 일반한식","category":"restaurant"}]},{"lat":"37.488773651","long":"127.49158491","imageIndex":4,"items":[{"name":"인화반점","tel":"031-771-2424","addr":"경기도 양평군 양평읍 양근리 292-6번지","indutype":"일반휴게음식 - 일반한식","category":"restaurant"},{"name":"인화반점","tel":"031-771-2069","addr":"경기도 양평군 양평읍 양근리 292-6번지","indutype":"일반휴게음식 - 중국식","category":"restaurant"}]},{"lat":"37.490493599","long":"127.49181095","imageIndex":4,"items":[{"name":"임실치즈스낵","tel":"031-699-3649","addr":"경기도 양평군 양평읍 양근리 358-10번지 1층 2호","indutype":"일반휴게음식 - 서양음식","category":"restaurant"}]},{"lat":"37.489160457","long":"127.49173442","imageIndex":4,"items":[{"name":"잔비어스","tel":"031-775-9322","addr":"경기도 양평군 양평읍 양근리 304-4번지 2층","indutype":"일반휴게음식 - 주점","category":"restaurant"},{"name":"평북식당","tel":"031-771-3629","addr":"경기도 양평군 양평읍 양근리 304-4","indutype":"일반휴게음식 - 일반한식","category":"restaurant"},{"name":"평북식당","tel":"031-771-3629","addr":"경기도 양평군 양평읍 양근리 304-4번지","indutype":"일반휴게음식 - 일반한식","category":"restaurant"}]},{"lat":"37.489411743","long":"127.49197351","imageIndex":4,"items":[{"name":"장수돌구이","tel":"031-771-9289","addr":"경기도 양평군 양평읍 양근리 304-6번지 1층","indutype":"일반휴게음식 - 일반한식","category":"restaurant"}]},{"lat":"37.486692599","long":"127.4958679","imageIndex":4,"items":[{"name":"장수흑돼지","tel":"031-772-5285","addr":"경기도 양평군 양평읍 양근리 192-120번지","indutype":"일반휴게음식 - 일반한식","category":"restaurant"}]},{"lat":"37.49093797","long":"127.4911128","imageIndex":4,"items":[{"name":"장호덕 손만두","tel":"070-895-9347","addr":"경기도 양평군 양평읍 양근리 406-3번지","indutype":"일반휴게음식 - 일반한식","category":"restaurant"}]},{"lat":"37.489554456","long":"127.49014269","imageIndex":4,"items":[{"name":"정가네","tel":"031-000-0000","addr":"경기도 양평군 양평읍 양근리 342-2번지","indutype":"일반휴게음식 - 일반한식","category":"restaurant"}]},{"lat":"37.489940957","long":"127.48817775","imageIndex":4,"items":[{"name":"정찬","tel":"031-5176-9996","addr":"경기도 양평군 양평읍 양근리 435-15번지 1층","indutype":"일반휴게음식 - 일식·회집","category":"restaurant"}]},{"lat":"37.488778822","long":"127.49251212","imageIndex":4,"items":[{"name":"조르쥬상드","tel":"031-771-2271","addr":"경기도 양평군 양평읍 양근리 299-8번지 2층","indutype":"일반휴게음식 - 서양음식","category":"restaurant"}]},{"lat":"37.493193895","long":"127.48808572","imageIndex":4,"items":[{"name":"조몰락조몰락","tel":"","addr":"경기도 양평군 양평읍 양근리 393-22번지 3층 301호","indutype":"일반휴게음식 - 스넥","category":"restaurant"}]},{"lat":"37.490578735","long":"127.48864547","imageIndex":4,"items":[{"name":"종현네","tel":"031-772-0386","addr":"경기도 양평군 양평읍 양근리 443-2번지","indutype":"일반휴게음식 - 일반한식","category":"restaurant"}]},{"lat":"37.49108146","long":"127.48908971","imageIndex":4,"items":[{"name":"좋은친구","tel":"031-774-4121","addr":"경기도 양평군 양평읍 양근리 422-2번지 태강빌딩 2층 201호","indutype":"일반휴게음식 - 일반한식","category":"restaurant"},{"name":"하프문","tel":"031-775-6668","addr":"경기도 양평군 양평읍 양근리 422-2번지 2층","indutype":"일반휴게음식 - 일반한식","category":"restaurant"}]},{"lat":"37.487607572","long":"127.49250447","imageIndex":4,"items":[{"name":"주막집","tel":"031-771-7792","addr":"경기도 양평군 양평읍 양근리 229-1번지","indutype":"일반휴게음식 - 일반한식","category":"restaurant"}]},{"lat":"37.488938675","long":"127.49089626","imageIndex":4,"items":[{"name":"주막집밥상","tel":"031-775-6611","addr":"경기도 양평군 양평읍 양근리 287-1번지 1층","indutype":"일반휴게음식 - 일반한식","category":"restaurant"}]},{"lat":"37.493299097","long":"127.49098116","imageIndex":4,"items":[{"name":"주식회사 양평역까페","tel":"031-771-5959","addr":"경기도 양평군 양평읍 양근리 130-37번지 1층","indutype":"일반휴게음식 - 서양음식","category":"restaurant"}]},{"lat":"37.48993935","long":"127.49075577","imageIndex":4,"items":[{"name":"주인장","tel":"031-1111-1111","addr":"경기도 양평군 양평읍 양근리 412-1번지","indutype":"일반휴게음식 - 일반한식","category":"restaurant"}]},{"lat":"37.490467722","long":"127.49587009","imageIndex":4,"items":[{"name":"죽이야기 양평점","tel":"031-772-6588","addr":"경기도 양평군 양평읍 양근리 176-14번지","indutype":"일반휴게음식 - 일반한식","category":"restaurant"}]},{"lat":"37.48797315","long":"127.4912518","imageIndex":4,"items":[{"name":"중화루","tel":"031-775-6623","addr":"경기도 양평군 양평읍 양근리 271-1번지","indutype":"일반휴게음식 - 중국식","category":"restaurant"},{"name":"중화루","tel":"031-775-6621","addr":"경기도 양평군 양평읍 양근리 271-1번지","indutype":"일반휴게음식 - 중국식","category":"restaurant"}]},{"lat":"37.490444939","long":"127.4883167","imageIndex":4,"items":[{"name":"진영관","tel":"031-774-8519","addr":"경기도 양평군 양평읍 양근리 442-4번지 외 1층","indutype":"일반휴게음식 - 중국식","category":"restaurant"}]},{"lat":"37.490746848","long":"127.48939284","imageIndex":4,"items":[{"name":"진이네부대찌개","tel":"","addr":"경기도 양평군 양평읍 양근리 420-6번지","indutype":"일반휴게음식 - 일반한식","category":"restaurant"},{"name":"캣츠","tel":"031-774-7887","addr":"경기도 양평군 양평읍 양근리 420-6번지 2층","indutype":"일반휴게음식 - 일반한식","category":"restaurant"}]},{"lat":"37.497968259","long":"127.48167082","imageIndex":4,"items":[{"name":"짬뽕의달인","tel":"031-771-6101","addr":"경기도 양평군 양평읍 양근리 504-9번지","indutype":"일반휴게음식 - 일반한식","category":"restaurant"}]},{"lat":"37.496578221","long":"127.49109297","imageIndex":4,"items":[{"name":"청정해","tel":"031-773-6767","addr":"경기도 양평군 양평읍 양근리 91-15번지","indutype":"일반휴게음식 - 일식·회집","category":"restaurant"}]},{"lat":"37.490773389","long":"127.4960304","imageIndex":4,"items":[{"name":"청춘포차","tel":"031-771-7725","addr":"경기도 양평군 양평읍 양근리 176-5번지 1층","indutype":"일반휴게음식 - 일반한식","category":"restaurant"}]},{"lat":"37.489194957","long":"127.48992552","imageIndex":4,"items":[{"name":"청해진","tel":"031-773-2597","addr":"경기도 양평군 양평읍 양근리 316-1번지 1층","indutype":"일반휴게음식 - 일반한식","category":"restaurant"}]},{"lat":"37.490944133","long":"127.49397359","imageIndex":4,"items":[{"name":"최동민 양푼갈비","tel":"031-775-6487","addr":"경기도 양평군 양평읍 양근리 170-28번지 1층","indutype":"일반휴게음식 - 일반한식","category":"restaurant"}]},{"lat":"37.491084038","long":"127.49065015","imageIndex":4,"items":[{"name":"춘천미정닭갈비양평본점","tel":"031-771-2963","addr":"경기도 양평군 양평읍 양근리 404-7번지","indutype":"일반휴게음식 - 일반한식","category":"restaurant"}]},{"lat":"37.488942869","long":"127.49206091","imageIndex":4,"items":[{"name":"치킨신드롬","tel":"031-772-9245","addr":"경기도 양평군 양평읍 양근리 302-8번지","indutype":"일반휴게음식 - 스넥","category":"restaurant"}]},{"lat":"37.490914256","long":"127.49030982","imageIndex":4,"items":[{"name":"칠공팔공","tel":"031-771-2694","addr":"경기도 양평군 양평읍 양근리 421-3번지","indutype":"일반휴게음식 - 일반한식","category":"restaurant"}]},{"lat":"37.490772903","long":"127.49398378","imageIndex":4,"items":[{"name":"카페비엣","tel":"031-773-4312","addr":"경기도 양평군 양평읍 양근리 168-1번지 1층","indutype":"일반휴게음식 - 서양음식","category":"restaurant"}]},{"lat":"37.492969211","long":"127.48794857","imageIndex":4,"items":[{"name":"카페카리스","tel":"","addr":"경기도 양평군 양평읍 양근리 393-24번지 1층","indutype":"일반휴게음식 - 서양음식","category":"restaurant"}]},{"lat":"37.494945051","long":"127.49167035","imageIndex":4,"items":[{"name":"카페파이 (CAFFE PIE)","tel":"031-774-8295","addr":"경기도 양평군 양평읍 양근리 139-15번지 1층 101호","indutype":"일반휴게음식 - 서양음식","category":"restaurant"}]},{"lat":"37.489136816","long":"127.49309112","imageIndex":4,"items":[{"name":"커피베이양평시내점","tel":"031-775-6688","addr":"경기도 양평군 양평읍 양근리 201-13번지","indutype":"일반휴게음식 - 서양음식","category":"restaurant"}]},{"lat":"37.493438408","long":"127.48778199","imageIndex":4,"items":[{"name":"커피앤쿡","tel":"031-1111-1111","addr":"경기도 양평군 양평읍 양근리 393-17번지","indutype":"일반휴게음식 - 서양음식","category":"restaurant"}]},{"lat":"37.490862715","long":"127.48969889","imageIndex":4,"items":[{"name":"커피에반하다","tel":"031-771-2999","addr":"경기도 양평군 양평읍 양근리 420-13번지 1층","indutype":"일반휴게음식 - 서양음식","category":"restaurant"}]},{"lat":"37.489191411","long":"127.49078483","imageIndex":4,"items":[{"name":"커피에반하다 양평삼거리점","tel":"","addr":"경기도 양평군 양평읍 양근리 310번지 1층 1호","indutype":"일반휴게음식 - 서양음식","category":"restaurant"}]},{"lat":"37.492411404","long":"127.48775274","imageIndex":4,"items":[{"name":"컵스앤컵스","tel":"031-773-6358","addr":"경기도 양평군 양평읍 양근리 396-19번지 101호","indutype":"일반휴게음식 - 스넥","category":"restaurant"}]},{"lat":"37.496078504","long":"127.48773121","imageIndex":4,"items":[{"name":"코너","tel":"","addr":"경기도 양평군 양평읍 양근리 100-12번지 1층","indutype":"일반휴게음식 - 서양음식","category":"restaurant"}]},{"lat":"37.489805872","long":"127.49253013","imageIndex":4,"items":[{"name":"코마 (COMA)","tel":"031-772-4644","addr":"경기도 양평군 양평읍 양근리 359-4번지 2층","indutype":"일반휴게음식 - 주점","category":"restaurant"}]},{"lat":"37.48794266","long":"127.49208831","imageIndex":4,"items":[{"name":"키친217","tel":"031-774-5212","addr":"경기도 양평군 양평읍 양근리 295-3번지","indutype":"일반휴게음식 - 서양음식","category":"restaurant"}]},{"lat":"37.489056594","long":"127.4907048","imageIndex":4,"items":[{"name":"토담카페","tel":"","addr":"경기도 양평군 양평읍 양근리 314-3번지","indutype":"일반휴게음식 - 일반한식","category":"restaurant"}]},{"lat":"37.498132402","long":"127.49000617","imageIndex":4,"items":[{"name":"트러스트커피 (TRUST COFFEE)","tel":"031-772-5347","addr":"경기도 양평군 양평읍 양근리 76-14번지","indutype":"일반휴게음식 - 서양음식","category":"restaurant"}]},{"lat":"37.497387641","long":"127.48486736","imageIndex":4,"items":[{"name":"평생학습쎈터 식당","tel":"031-774-2248","addr":"경기도 양평군 양평읍 양근리 542번지 평생학습센터 4층,5층","indutype":"일반휴게음식 - 일반한식","category":"restaurant"}]},{"lat":"37.487805877","long":"127.49248316","imageIndex":4,"items":[{"name":"평촌","tel":"031-774-0896","addr":"경기도 양평군 양평읍 양근리 297번지","indutype":"일반휴게음식 - 일반한식","category":"restaurant"}]},{"lat":"37.490330542","long":"127.48984243","imageIndex":4,"items":[{"name":"퓨전까페퀸","tel":"031-773-5624","addr":"경기도 양평군 양평읍 양근리 420-21번지","indutype":"일반휴게음식 - 서양음식","category":"restaurant"}]},{"lat":"37.49013233","long":"127.48984115","imageIndex":4,"items":[{"name":"피자스쿨","tel":"031-774-7757","addr":"경기도 양평군 양평읍 양근리 414-4번지","indutype":"일반휴게음식 - 서양음식","category":"restaurant"}]},{"lat":"37.489306341","long":"127.49131701","imageIndex":4,"items":[{"name":"피자에땅","tel":"031-774-8236","addr":"경기도 양평군 양평읍 양근리 309-5번지","indutype":"일반휴게음식 - 서양음식","category":"restaurant"}]},{"lat":"37.496994491","long":"127.48406195","imageIndex":4,"items":[{"name":"하바별시","tel":"031-773-8772","addr":"경기도 양평군 양평읍 양근리 543번지","indutype":"일반휴게음식 - 서양음식","category":"restaurant"}]},{"lat":"37.490889138","long":"127.48984606","imageIndex":4,"items":[{"name":"하와이옥카","tel":"031-771-2558","addr":"경기도 양평군 양평읍 양근리 420-14번지 1층","indutype":"일반휴게음식 - 서양음식","category":"restaurant"},{"name":"하와이옥카","tel":"","addr":"경기도 양평군 양평읍 양근리 420-14번지 1층","indutype":"일반휴게음식 - 일반한식","category":"restaurant"}]},{"lat":"37.489553696","long":"127.49250587","imageIndex":4,"items":[{"name":"한스델리 양평점","tel":"031-772-7677","addr":"경기도 양평군 양평읍 양근리 355-2번지 2층","indutype":"일반휴게음식 - 일반한식","category":"restaurant"}]},{"lat":"37.490022196","long":"127.49250893","imageIndex":4,"items":[{"name":"한옥숯불갈비","tel":"031-774-9957","addr":"경기도 양평군 양평읍 양근리 359-7번지","indutype":"일반휴게음식 - 일반한식","category":"restaurant"}]},{"lat":"37.491244331","long":"127.48892116","imageIndex":4,"items":[{"name":"함께라면","tel":"031-772-1221","addr":"경기도 양평군 양평읍 양근리 445-16번지","indutype":"일반휴게음식 - 일반한식","category":"restaurant"},{"name":"호이차경기양평점","tel":"","addr":"경기도 양평군 양평읍 양근리 445-16번지","indutype":"일반휴게음식 - 서양음식","category":"restaurant"},{"name":"황금반점","tel":"031-775-9235","addr":"경기도 양평군 양평읍 양근리 445-16번지 지하1층","indutype":"일반휴게음식 - 일반한식","category":"restaurant"}]},{"lat":"37.487248873","long":"127.49209509","imageIndex":4,"items":[{"name":"함지박추어탕전문","tel":"031-771-1888","addr":"경기도 양평군 양평읍 양근리 264-1번지","indutype":"일반휴게음식 - 일반한식","category":"restaurant"}]},{"lat":"37.490219752","long":"127.49266852","imageIndex":4,"items":[{"name":"항방양육관양평점","tel":"031-774-0720","addr":"경기도 양평군 양평읍 양근리 167-25번지 1층","indutype":"일반휴게음식 - 일반한식","category":"restaurant"}]},{"lat":"37.490689808","long":"127.49011614","imageIndex":4,"items":[{"name":"해순이네","tel":"031-775-8889","addr":"경기도 양평군 양평읍 양근리 411-3번지","indutype":"일반휴게음식 - 일반한식","category":"restaurant"}]},{"lat":"37.489806665","long":"127.49450889","imageIndex":4,"items":[{"name":"행복분식","tel":"031-771-6502","addr":"경기도 양평군 양평읍 양근리 195-6번지 1층","indutype":"일반휴게음식 - 일반한식","category":"restaurant"}]},{"lat":"37.487944626","long":"127.49161343","imageIndex":4,"items":[{"name":"호야옛날통닭양평점","tel":"031-775-9965","addr":"경기도 양평군 양평읍 양근리 269-1번지","indutype":"일반휴게음식 - 일반한식","category":"restaurant"}]},{"lat":"37.498882109","long":"127.49172994","imageIndex":4,"items":[{"name":"홍가네바지락칼국수","tel":"031-773-9717","addr":"경기도 양평군 양평읍 양근리 50","indutype":"일반휴게음식 - 일반한식","category":"restaurant"}]},{"lat":"37.488050595","long":"127.48995201","imageIndex":4,"items":[{"name":"화랑","tel":"031-774-2944","addr":"경기도 양평군 양평읍 양근리 278번지 2층","indutype":"일반휴게음식 - 일반한식","category":"restaurant"}]},{"lat":"37.492137679","long":"127.48858772","imageIndex":4,"items":[{"name":"화천갈비","tel":"031-771-2487","addr":"경기도 양평군 양평읍 양근리 397-15번지","indutype":"일반휴게음식 - 일반한식","category":"restaurant"}]},{"lat":"37.492048233","long":"127.48842884","imageIndex":4,"items":[{"name":"화천갈비(주)재선","tel":"031-771-2487","addr":"경기도 양평군 양평읍 양근리 397-6번지","indutype":"일반휴게음식 - 일반한식","category":"restaurant"}]},{"lat":"37.490579266","long":"127.4907034","imageIndex":4,"items":[{"name":"훠궈양꼬치","tel":"031-8488-1341","addr":"경기도 양평군 양평읍 양근리 410-24번지 2층","indutype":"일반휴게음식 - 중국식","category":"restaurant"},{"name":"훠궈양꼬치","tel":"032-767-3487","addr":"경기도 양평군 양평읍 양근리 410-24번지 2층","indutype":"일반휴게음식 - 중국식","category":"restaurant"}]},{"lat":"37.489884031","long":"127.49106071","imageIndex":4,"items":[{"name":"힘찬갯벌낙지","tel":"031-771-4733","addr":"경기도 양평군 양평읍 양근리 351-8번지","indutype":"일반휴게음식 - 일반한식","category":"restaurant"}]},{"lat":"37.50188358","long":"127.49361548","imageIndex":0,"items":[{"name":"24시카서비스","tel":"031-774-8270","addr":"경기도 양평군 양평읍 양근리 26-2번지","indutype":"자동차정비 유지 - 자동차정비","category":"car"}]},{"lat":"37.496748521","long":"127.48251115","imageIndex":0,"items":[{"name":"금호타이어양평대리점","tel":"031-775-5766","addr":"경기도 양평군 양평읍 양근리 502-5","indutype":"자동차정비 유지 - 자동차시트·타이어","category":"car"},{"name":"지겐(SIEGEN)","tel":"031-775-5766","addr":"경기도 양평군 양평읍 양근리 502-5번지","indutype":"자동차정비 유지 - 자동차부품","category":"car"}]},{"lat":"37.497417423","long":"127.4907818","imageIndex":0,"items":[{"name":"대흥자동차공업사","tel":"031-773-6946","addr":"경기도 양평군 양평읍 양근리 49-33","indutype":"자동차정비 유지 - 자동차정비","category":"car"}]},{"lat":"37.489944221","long":"127.49609279","imageIndex":0,"items":[{"name":"동부세차장","tel":"02-1111-1111","addr":"경기도 양평군 양평읍 양근리 191-3번지 동부세차장","indutype":"자동차정비 유지 - 세차장","category":"car"}]},{"lat":"37.486883876","long":"127.49537166","imageIndex":0,"items":[{"name":"발보아모터컴퍼니","tel":"031-775-9001","addr":"경기도 양평군 양평읍 양근리 192-125번지","indutype":"자동차정비 유지 - 자동차정비","category":"car"}]},{"lat":"37.498302792","long":"127.49019952","imageIndex":0,"items":[{"name":"배터리마트","tel":"031-771-7741","addr":"경기도 양평군 양평읍 양근리 76-5번지 203호","indutype":"자동차정비 유지 - 자동차부품","category":"car"}]},{"lat":"37.497660098","long":"127.48212119","imageIndex":0,"items":[{"name":"쌍용자동차서비스양평코너","tel":"031-774-5594","addr":"경기도 양평군 양평읍 양근리 504-12번지","indutype":"자동차정비 유지 - 자동차정비","category":"car"}]},{"lat":"37.487720428","long":"127.49353413","imageIndex":0,"items":[{"name":"양평물맑은시장상인회","tel":"031-771-2080","addr":"경기도 양평군 양평읍 양근리 222-9번지","indutype":"자동차정비 유지 - 주차장","category":"car"}]},{"lat":"37.502665582","long":"127.49406166","imageIndex":0,"items":[{"name":"양평시트카바상사","tel":"031-772-3191","addr":"경기도 양평군 양평읍 양근리 17-1","indutype":"자동차정비 유지 - 자동차정비","category":"car"},{"name":"양평차유리","tel":"031-772-3191","addr":"경기도 양평군 양평읍 양근리 17-1번지","indutype":"자동차정비 유지 - 자동차부품","category":"car"}]},{"lat":"37.49075098","long":"127.49492214","imageIndex":0,"items":[{"name":"양평카센터","tel":"031-772-5056","addr":"경기도 양평군 양평읍 양근리 169-11번지","indutype":"자동차정비 유지 - 자동차정비","category":"car"}]},{"lat":"37.50119397","long":"127.49261579","imageIndex":0,"items":[{"name":"양평현대서비스(주)","tel":"031-772-8700","addr":"경기도 양평군 양평읍 양근리 39번지","indutype":"자동차정비 유지 - 자동차부품","category":"car"}]},{"lat":"37.497387641","long":"127.48486736","imageIndex":0,"items":[{"name":"지방행정동우회 양평군지부","tel":"02-0000-0000","addr":"경기도 양평군 양평읍 양근리 542번지","indutype":"자동차정비 유지 - 주차장","category":"car"}]},{"lat":"37.493721193","long":"127.49131184","imageIndex":0,"items":[{"name":"코레일네트웍스(주)양평역주차장","tel":"031-511-3571","addr":"경기도 양평군 양평읍 양근리 130-9번지","indutype":"자동차정비 유지 - 주차장","category":"car"}]},{"lat":"37.492417442","long":"127.48847646","imageIndex":0,"items":[{"name":"한국자유총연맹 양평군지회","tel":"031-773-5050","addr":"경기도 양평군 양평읍 양근리 396-28","indutype":"자동차정비 유지 - 주차장","category":"car"}]},{"lat":"37.496443199","long":"127.48447682","imageIndex":0,"items":[{"name":"한국자유총연맹양평군지회","tel":"031-773-5050","addr":"경기도 양평군 양평읍 양근리 510-1번지","indutype":"자동차정비 유지 - 주차장","category":"car"}]},{"lat":"37.49280007","long":"127.48744994","imageIndex":16,"items":[{"name":"E&J","tel":"031-774-1989","addr":"경기도 양평군 양평읍 양근리 528-48.4/4","indutype":"회원제형태 - 학원","category":"study"}]},{"lat":"37.48827522","long":"127.49228269","imageIndex":16,"items":[{"name":"J&J유도 아카데미","tel":"031-774-6518","addr":"경기도 양평군 양평읍 양근리 299-11번지","indutype":"학원 - 예·체능계학원","category":"study"}]},{"lat":"37.492853571","long":"127.48758598","imageIndex":16,"items":[{"name":"sam학원","tel":"031-774-5678","addr":"경기도 양평군 양평읍 양근리 528-83번지 외2필지 1층","indutype":"학원 - 보습학원","category":"study"}]},{"lat":"37.49247345","long":"127.4880019","imageIndex":16,"items":[{"name":"가온누리 용인대 태권도장","tel":"031-772-7728","addr":"경기도 양평군 양평읍 양근리 396-17번지 2층","indutype":"학원 - 예·체능계학원","category":"study"}]},{"lat":"37.492744992","long":"127.48769835","imageIndex":16,"items":[{"name":"강한태권도장","tel":"031-773-5712","addr":"경기도 양평군 양평읍 양근리 528-87번지","indutype":"학원 - 예·체능계학원","category":"study"},{"name":"양평행복한학원","tel":"031-772-2348","addr":"경기도 양평군 양평읍 양근리 528-87번지 2층","indutype":"회원제형태 - 학원","category":"study"}]},{"lat":"37.496139039","long":"127.49053601","imageIndex":16,"items":[{"name":"그린아이 어린이집[아이행복]","tel":"031-771-1844","addr":"경기도 양평군 양평읍 양근리 137-29번지 그린 102동 104호","indutype":"학원 - 유아원","category":"study"}]},{"lat":"37.493193895","long":"127.48808572","imageIndex":16,"items":[{"name":"그림아트스튜디오","tel":"031-775-9559","addr":"경기도 양평군 양평읍 양근리 393-22번지 302호","indutype":"학원 - 예·체능계학원","category":"study"},{"name":"코치클래스","tel":"031-773-8607","addr":"경기도 양평군 양평읍 양근리 393-22번지 1동 303호","indutype":"학원 - 보습학원","category":"study"}]},{"lat":"37.492440335","long":"127.48728931","imageIndex":16,"items":[{"name":"김정아음악학원","tel":"031-774-7971","addr":"경기도 양평군 양평읍 양근리 448-12번지","indutype":"학원 - 예·체능계학원","category":"study"}]},{"lat":"37.494387905","long":"127.49131618","imageIndex":16,"items":[{"name":"김하영 영어학원","tel":"","addr":"경기도 양평군 양평읍 양근리 130-26번지 201호","indutype":"학원 - 외국어학원","category":"study"}]},{"lat":"37.49075098","long":"127.49492214","imageIndex":16,"items":[{"name":"다른수학학원","tel":"031-771-7917","addr":"경기도 양평군 양평읍 양근리 169-11번지 2층","indutype":"학원 - 보습학원","category":"study"}]},{"lat":"37.495969993","long":"127.4921972","imageIndex":16,"items":[{"name":"다비드 잉글리쉬(DAVID ENGLISH)","tel":"031-774-0653","addr":"경기도 양평군 양평읍 양근리 137-60번지 2층 202호","indutype":"학원 - 보습학원","category":"study"}]},{"lat":"37.488695814","long":"127.49297516","imageIndex":16,"items":[{"name":"동산유치원[아이행복]","tel":"031-771-2603","addr":"경기도 양평군 양평읍 양근리 210번지","indutype":"학원 - 유치원","category":"study"}]},{"lat":"37.494945051","long":"127.49167035","imageIndex":16,"items":[{"name":"랭콘잉글리쉬양평어학원","tel":"","addr":"경기도 양평군 양평읍 양근리 139-15번지 201호","indutype":"학원 - 외국어학원","category":"study"},{"name":"민샘","tel":"","addr":"경기도 양평군 양평읍 양근리 139-15번지 3층 301호","indutype":"학원 - 보습학원","category":"study"},{"name":"안녕 우쿨렐레 음악공간","tel":"","addr":"경기도 양평군 양평읍 양근리 139-15번지 시온빌딩 104호","indutype":"학원 - 예·체능계학원","category":"study"},{"name":"안녕,우쿨렐레 음악공간음악교습소","tel":"","addr":"경기도 양평군 양평읍 양근리 139-15번지 시온빌딩 104호","indutype":"학원 - 예·체능계학원","category":"study"}]},{"lat":"37.496161348","long":"127.49167828","imageIndex":16,"items":[{"name":"러브아트어린이집[아이사랑]","tel":"031-775-5570","addr":"경기도 양평군 양평읍 양근리 137-56번지","indutype":"학원 - 유아원","category":"study"}]},{"lat":"37.493468822","long":"127.48695672","imageIndex":16,"items":[{"name":"레인보우 영어교습소","tel":"","addr":"경기도 양평군 양평읍 양근리 528-71번지 3층 301호","indutype":"학원 - 외국어학원","category":"study"},{"name":"쎈수학러닝센터 양평학원","tel":"031-775-9910","addr":"경기도 양평군 양평읍 양근리 528-71번지 3층 301호","indutype":"학원 - 보습학원","category":"study"},{"name":"윤선생영어교실양평교육센터","tel":"031-553-0579","addr":"경기도 양평군 양평읍 양근리 528-71번지 태창빌딩 501호","indutype":"학원 - 학습지 교육","category":"study"},{"name":"윤선생우리집앞영어교실양평영어교습소","tel":"031-774-0582","addr":"경기도 양평군 양평읍 양근리 528-71번지 태창빌딩 401호","indutype":"학원 - 외국어학원","category":"study"},{"name":"제이스 영어학원","tel":"031-771-4422","addr":"경기도 양평군 양평읍 양근리 528-71번지 5층 501호","indutype":"학원 - 외국어학원","category":"study"}]},{"lat":"37.4901338","long":"127.49600358","imageIndex":16,"items":[{"name":"마루수학학원","tel":"031-775-7999","addr":"경기도 양평군 양평읍 양근리 183-11번지 3층","indutype":"학원 - 보습학원","category":"study"}]},{"lat":"37.492362258","long":"127.49311219","imageIndex":16,"items":[{"name":"멘토링학원","tel":"031-774-3401","addr":"경기도 양평군 양평읍 양근리 160-7번지 2층","indutype":"학원 - 보습학원","category":"study"},{"name":"이케이(EK)학원","tel":"031-775-3557","addr":"경기도 양평군 양평읍 양근리 160-7번지 2층 202호","indutype":"학원 - 보습학원","category":"study"}]},{"lat":"37.493438408","long":"127.48778199","imageIndex":16,"items":[{"name":"미술이좋아미술교습소","tel":"031-771-2818","addr":"경기도 양평군 양평읍 양근리 393-17번지 보람빌딩 202호","indutype":"학원 - 예·체능계학원","category":"study"},{"name":"신강논술교습소","tel":"031-773-3701","addr":"경기도 양평군 양평읍 양근리 393-17번지","indutype":"회원제형태 - 학원","category":"study"},{"name":"양평스즈키음악교습소","tel":"031-775-3195","addr":"경기도 양평군 양평읍 양근리 393-17번지","indutype":"학원 - 예·체능계학원","category":"study"},{"name":"제3교실수학전문교습소","tel":"031-7757-2357","addr":"경기도 양평군 양평읍 양근리 393-17번지 2층","indutype":"회원제형태 - 학원","category":"study"}]},{"lat":"37.491244331","long":"127.48892116","imageIndex":16,"items":[{"name":"배우리보습학원","tel":"031-774-0936","addr":"경기도 양평군 양평읍 양근리 445-16번지","indutype":"학원 - 기타 교육기관","category":"study"}]},{"lat":"37.488773651","long":"127.49158491","imageIndex":16,"items":[{"name":"블럭업","tel":"031-7738-5184","addr":"경기도 양평군 양평읍 양근리 292-6번지 2층","indutype":"학원 - 기타 교육기관","category":"study"}]},{"lat":"37.490856509","long":"127.49120272","imageIndex":16,"items":[{"name":"비니댄스","tel":"070-4202-8763","addr":"경기도 양평군 양평읍 양근리 406-1번지 지하1층","indutype":"학원 - 예·체능계학원","category":"study"}]},{"lat":"37.490023189","long":"127.49008919","imageIndex":16,"items":[{"name":"빈센트 독서실","tel":"031-773-0910","addr":"경기도 양평군 양평읍 양근리 413-9번지 4층","indutype":"학원 - 독서실","category":"study"}]},{"lat":"37.496553388","long":"127.49056132","imageIndex":16,"items":[{"name":"손선생영어교습소","tel":"070-7761-5792","addr":"경기도 양평군 양평읍 양근리 91-5 그린맨션상가 206","indutype":"학원 - 보습학원","category":"study"}]},{"lat":"37.487944626","long":"127.49161343","imageIndex":16,"items":[{"name":"수피아독서실","tel":"031-774-7907","addr":"경기도 양평군 양평읍 양근리 269-1번지 3층","indutype":"학원 - 독서실","category":"study"}]},{"lat":"37.493215904","long":"127.4871134","imageIndex":16,"items":[{"name":"수학의달인 하브루타 지혜학원","tel":"031-773-9906","addr":"경기도 양평군 양평읍 양근리 528-27번지 1층","indutype":"학원 - 보습학원","category":"study"}]},{"lat":"37.494188345","long":"127.4938139","imageIndex":16,"items":[{"name":"양일고등학교","tel":"031-772-2281","addr":"경기도 양평군 양평읍 양근리 148번지","indutype":"학원 - 초중고교육기관","category":"study"},{"name":"양일중학교","tel":"031-772-2281","addr":"경기도 양평군 양평읍 양근리 148번지","indutype":"학원 - 초중고교육기관","category":"study"}]},{"lat":"37.48574725","long":"127.49570339","imageIndex":16,"items":[{"name":"양평고등학교","tel":"031-772-2747","addr":"경기도 양평군 양평읍 양근리 237-1번지 양평고등학교","indutype":"학원 - 초중고교육기관","category":"study"},{"name":"양평고등학교_수업료","tel":"031-772-2747","addr":"경기도 양평군 양평읍 양근리 237-1번지 양평고등학교","indutype":"학원 - 초중고교육기관","category":"study"}]},{"lat":"37.497387641","long":"127.48486736","imageIndex":16,"items":[{"name":"양평군청/여성회관","tel":"031-770-3772","addr":"경기도 양평군 양평읍 양근리 542번지 여성회관 2층 사무실","indutype":"학원 - 기타 교육기관","category":"study"}]},{"lat":"37.489136816","long":"127.49309112","imageIndex":16,"items":[{"name":"양평그린섬미술학원","tel":"031-773-2773","addr":"경기도 양평군 양평읍 양근리 201-13번지 3층,5층","indutype":"학원 - 예·체능계학원","category":"study"}]},{"lat":"37.490746848","long":"127.48939284","imageIndex":16,"items":[{"name":"양평연세음악학원","tel":"031-773-5932","addr":"경기도 양평군 양평읍 양근리 420-6","indutype":"회원제형태 - 학원","category":"study"}]},{"lat":"37.490862715","long":"127.48969889","imageIndex":16,"items":[{"name":"양평원룸텔","tel":"031-771-4017","addr":"경기도 양평군 양평읍 양근리 420-13","indutype":"학원 - 독서실","category":"study"}]},{"lat":"37.487054479","long":"127.49766805","imageIndex":16,"items":[{"name":"양평유치원[아이행복]","tel":"031-775-6962","addr":"경기도 양평군 양평읍 양근리 242-11번지","indutype":"학원 - 유치원","category":"study"}]},{"lat":"37.490555456","long":"127.48992304","imageIndex":16,"items":[{"name":"양평제일주산학원","tel":"031-771-4036","addr":"경기도 양평군 양평읍 양근리 420-18번지","indutype":"학원 - 기타 교육기관","category":"study"}]},{"lat":"37.493300602","long":"127.48623195","imageIndex":16,"items":[{"name":"양평초등학교","tel":"031-774-9615","addr":"경기도 양평군 양평읍 양근리 491-9번지","indutype":"학원 - 초중고교육기관","category":"study"}]},{"lat":"37.492411404","long":"127.48775274","imageIndex":16,"items":[{"name":"양평커피교육학원","tel":"031-771-1302","addr":"경기도 양평군 양평읍 양근리 396-19번지 301호","indutype":"학원 - 기능학원","category":"study"}]},{"lat":"37.490910277","long":"127.4890886","imageIndex":16,"items":[{"name":"연세학원","tel":"031-1111-1111","addr":"경기도 양평군 양평읍 양근리 422-17번지 6층","indutype":"학원 - 보습학원","category":"study"}]},{"lat":"37.489023075","long":"127.49009401","imageIndex":16,"items":[{"name":"예스키즈유아체육","tel":"031-886-0880","addr":"경기도 양평군 양평읍 양근리 320-1번지 아트빌 403호","indutype":"학원 - 기타 교육기관","category":"study"}]},{"lat":"37.491722632","long":"127.48873203","imageIndex":16,"items":[{"name":"올리브미술학원","tel":"031-773-7977","addr":"경기도 양평군 양평읍 양근리 446-7번지 하늘타워 5층","indutype":"학원 - 예·체능계학원","category":"study"},{"name":"이화발레학원","tel":"031-774-4777","addr":"경기도 양평군 양평읍 양근리 446-7번지 6층","indutype":"학원 - 예·체능계학원","category":"study"}]},{"lat":"37.494972095","long":"127.48508931","imageIndex":16,"items":[{"name":"용인대가람무술관","tel":"031-772-4799","addr":"경기도 양평군 양평읍 양근리 527-9번지 2층","indutype":"학원 - 예·체능계학원","category":"study"}]},{"lat":"37.487744776","long":"127.49200787","imageIndex":16,"items":[{"name":"용인대석사 효 태권도장","tel":"031-774-7212","addr":"경기도 양평군 양평읍 양근리 262-1번지 2층","indutype":"학원 - 예·체능계학원","category":"study"}]},{"lat":"37.495019979","long":"127.49098105","imageIndex":16,"items":[{"name":"이쌤 수학교실","tel":"","addr":"경기도 양평군 양평읍 양근리 139-10번지 에버그린팰리스 303호","indutype":"학원 - 기타 교육기관","category":"study"}]},{"lat":"37.492637294","long":"127.48759589","imageIndex":16,"items":[{"name":"제임스리딩 양평영어교습소","tel":"031-775-2905","addr":"경기도 양평군 양평읍 양근리 394번지 1층","indutype":"학원 - 외국어학원","category":"study"}]},{"lat":"37.495246714","long":"127.49062067","imageIndex":16,"items":[{"name":"조은음악학원","tel":"031-774-6788","addr":"경기도 양평군 양평읍 양근리 136-14번지","indutype":"학원 - 예·체능계학원","category":"study"}]},{"lat":"37.495023844","long":"127.49222495","imageIndex":16,"items":[{"name":"좋은영어교습소","tel":"031-774-3505","addr":"경기도 양평군 양평읍 양근리 141-2번지","indutype":"회원제형태 - 학원","category":"study"}]},{"lat":"37.491133758","long":"127.49387306","imageIndex":16,"items":[{"name":"혜진수학공부방","tel":"031-773-5922","addr":"경기도 양평군 양평읍 양근리 170-10번지 송이연립 208호","indutype":"회원제형태 - 학원","category":"study"}]},{"lat":"37.494995315","long":"127.49258662","imageIndex":16,"items":[{"name":"홍&슈퍼쌤스터디랩학원","tel":"070-8639-9228","addr":"경기도 양평군 양평읍 양근리 142-15번지","indutype":"학원 - 보습학원","category":"study"}]},{"lat":"37.495167581","long":"127.48575774","imageIndex":7,"items":[{"name":"경기할인마트","tel":"031-773-4546","addr":"경기도 양평군 양평읍 양근리 527-10번지 1층","indutype":"유통업 영리 - 슈퍼마켓","category":"mart"}]},{"lat":"37.491856875","long":"127.49331242","imageIndex":7,"items":[{"name":"관문슈퍼","tel":"031-774-9875","addr":"경기도 양평군 양평읍 양근리 164-1번지","indutype":"유통업 영리 - 슈퍼마켓","category":"mart"}]},{"lat":"37.491722632","long":"127.48873203","imageIndex":7,"items":[{"name":"런슈퍼","tel":"031-771-9686","addr":"경기도 양평군 양평읍 양근리 446-7번지","indutype":"유통업 영리 - 슈퍼마켓","category":"mart"}]},{"lat":"37.497968259","long":"127.48167082","imageIndex":7,"items":[{"name":"마리","tel":"031-8786-9153","addr":"경기도 양평군 양평읍 양근리 504-9번지 가-1","indutype":"유통업 영리 - 슈퍼마켓","category":"mart"}]},{"lat":"37.495023844","long":"127.49222495","imageIndex":7,"items":[{"name":"양근할인마트","tel":"031-774-5788","addr":"경기도 양평군 양평읍 양근리 141-2번지","indutype":"유통업 영리 - 슈퍼마켓","category":"mart"}]},{"lat":"37.491077067","long":"127.4945059","imageIndex":7,"items":[{"name":"양평DC마트","tel":"031-774-9993","addr":"경기도 양평군 양평읍 양근리 170-8번지","indutype":"유통업 영리 - 슈퍼마켓","category":"mart"}]},{"lat":"37.4911116","long":"127.49486797","imageIndex":7,"items":[{"name":"양평DC백화점","tel":"031-774-5946","addr":"경기도 양평군 양평읍 양근리 169-1번지","indutype":"유통업 영리 - 슈퍼마켓","category":"mart"}]},{"lat":"37.490384454","long":"127.492059","imageIndex":7,"items":[{"name":"양평장터쇼핑","tel":"031-774-4131","addr":"경기도 양평군 양평읍 양근리 358-3번지 1층","indutype":"유통업 영리 - 슈퍼마켓","category":"mart"},{"name":"양평장터쇼핑 주식회사","tel":"031-774-4131","addr":"경기도 양평군 양평읍 양근리 358-3번지 1층","indutype":"유통업 영리 - 슈퍼마켓","category":"mart"},{"name":"양평장터쇼핑주식회사","tel":"031-774-4131","addr":"경기도 양평군 양평읍 양근리 358-3번지 1층","indutype":"유통업 영리 - 슈퍼마켓","category":"mart"}]},{"lat":"37.487298713","long":"127.49311303","imageIndex":7,"items":[{"name":"우리홈마트","tel":"031-772-4555","addr":"경기도 양평군 양평읍 양근리 230","indutype":"유통업 영리 - 슈퍼마켓","category":"mart"}]},{"lat":"37.491080591","long":"127.49797728","imageIndex":7,"items":[{"name":"주식회사남한강마트양평점","tel":"031-775-8412","addr":"경기도 양평군 양평읍 양근리 170-82번지","indutype":"유통업 영리 - 슈퍼마켓","category":"mart"}]},{"lat":"37.49030163","long":"127.4968075","imageIndex":7,"items":[{"name":"초록마을 양평점","tel":"031-775-5278","addr":"경기도 양평군 양평읍 양근리 184-7번지","indutype":"유통업 영리 - 슈퍼마켓","category":"mart"}]},{"lat":"37.490028043","long":"127.49543753","imageIndex":8,"items":[{"name":"경희한의원","tel":"031-773-6880","addr":"경기도 양평군 양평읍 양근리 182-3번지","indutype":"의원 - 한의원","category":"medical"},{"name":"오관수의원","tel":"031-774-7033","addr":"경기도 양평군 양평읍 양근리 182-3 중앙빌딩4층","indutype":"의원 - 의원","category":"medical"}]},{"lat":"37.490529515","long":"127.49617579","imageIndex":8,"items":[{"name":"고려한의원","tel":"031-775-1225","addr":"경기도 양평군 양평읍 양근리 176-9번지","indutype":"의원 - 한의원","category":"medical"},{"name":"고른이치과의원","tel":"031-775-2288","addr":"경기도 양평군 양평읍 양근리 176-9번지 2층","indutype":"의원 - 치과의원","category":"medical"}]},{"lat":"37.488939777","long":"127.49280715","imageIndex":8,"items":[{"name":"고영석정형외과","tel":"031-771-7567","addr":"경기도 양평군 양평읍 양근리 200-2번지","indutype":"의원 - 의원","category":"medical"},{"name":"더 건강한 내과의원","tel":"031-775-7588","addr":"경기도 양평군 양평읍 양근리 200-2번지 2층","indutype":"의원 - 의원","category":"medical"},{"name":"새벽의원","tel":"031-774-6247","addr":"경기도 양평군 양평읍 양근리 200-2번지 3층","indutype":"의원 - 의원","category":"medical"},{"name":"온아치과의원","tel":"031-771-2833","addr":"경기도 양평군 양평읍 양근리 200-2번지 3층","indutype":"의원 - 치과의원","category":"medical"},{"name":"튼튼약국","tel":"031-775-6632","addr":"경기도 양평군 양평읍 양근리 200-2번지 1층","indutype":"약국 - 약국","category":"medical"}]},{"lat":"37.490522488","long":"127.49570084","imageIndex":8,"items":[{"name":"굿비뇨기과","tel":"031-715-5655","addr":"경기도 양평군 양평읍 양근리 178-4번지","indutype":"의원 - 의원","category":"medical"},{"name":"양평정신건강의학과의원","tel":"031-775-7052","addr":"경기도 양평군 양평읍 양근리 178-4번지","indutype":"의원 - 의원","category":"medical"},{"name":"우리이비인후과의원","tel":"031-772-3356","addr":"경기도 양평군 양평읍 양근리 178-4번지 3층","indutype":"의원 - 의원","category":"medical"},{"name":"현대치과","tel":"031-775-8191","addr":"경기도 양평군 양평읍 양근리 178-4번지 3층","indutype":"의원 - 치과의원","category":"medical"}]},{"lat":"37.489216776","long":"127.49336301","imageIndex":8,"items":[{"name":"김란미즈산부인과","tel":"031-772-2136","addr":"경기도 양평군 양평읍 양근리 199-1번지","indutype":"의원 - 의원","category":"medical"},{"name":"서울척척마취통증의학과","tel":"","addr":"경기도 양평군 양평읍 양근리 199-1번지 3층","indutype":"의원 - 의원","category":"medical"},{"name":"양평하나로치과의원","tel":"031-771-2887","addr":"경기도 양평군 양평읍 양근리 199-1번지 1층","indutype":"의원 - 치과의원","category":"medical"},{"name":"하나로의원","tel":"031-771-1441","addr":"경기도 양평군 양평읍 양근리 199-1","indutype":"의원 - 의원","category":"medical"}]},{"lat":"37.490663054","long":"127.49656112","imageIndex":8,"items":[{"name":"김외과의원","tel":"031-771-2929","addr":"경기도 양평군 양평읍 양근리 172-35번지","indutype":"의원 - 의원","category":"medical"}]},{"lat":"37.490000024","long":"127.49567479","imageIndex":8,"items":[{"name":"동서리젠요양병원","tel":"031-773-6805","addr":"경기도 양평군 양평읍 양근리 183-15번지","indutype":"병원 - 병원","category":"medical"},{"name":"진약국","tel":"031-771-8140","addr":"경기도 양평군 양평읍 양근리 183-15번지 중앙빌딩","indutype":"약국 - 약국","category":"medical"},{"name":"최안과","tel":"031-771-6495","addr":"경기도 양평군 양평읍 양근리 183-15번지 2층","indutype":"의원 - 의원","category":"medical"}]},{"lat":"37.492136622","long":"127.49103014","imageIndex":8,"items":[{"name":"라이프치과의원","tel":"031-775-8081","addr":"경기도 양평군 양평읍 양근리 376-4번지 오성프라자 1동 601-602호","indutype":"의원 - 치과의원","category":"medical"},{"name":"연세푸르른내과의원","tel":"031-772-0163","addr":"경기도 양평군 양평읍 양근리 376-4번지 402호","indutype":"의원 - 의원","category":"medical"},{"name":"연세푸르른소아청소년과의원","tel":"031-772-0173","addr":"경기도 양평군 양평읍 양근리 376-4번지 오성프라자 401호","indutype":"의원 - 의원","category":"medical"},{"name":"오성약국","tel":"031-773-1177","addr":"경기도 양평군 양평읍 양근리 376-4번지 오성프라자 104호,204호","indutype":"약국 - 약국","category":"medical"}]},{"lat":"37.491722632","long":"127.48873203","imageIndex":8,"items":[{"name":"메디시아치과","tel":"031-775-5975","addr":"경기도 양평군 양평읍 양근리 446-7","indutype":"의원 - 치과의원","category":"medical"}]},{"lat":"37.490467722","long":"127.49587009","imageIndex":8,"items":[{"name":"별약국","tel":"031-771-7887","addr":"경기도 양평군 양평읍 양근리 176-14번지","indutype":"약국 - 약국","category":"medical"},{"name":"상쾌한필치과","tel":"031-771-2801","addr":"경기도 양평군 양평읍 양근리 176-14번지 2층","indutype":"의원 - 치과의원","category":"medical"}]},{"lat":"37.489333977","long":"127.4911702","imageIndex":8,"items":[{"name":"삼호약국","tel":"031-771-2287","addr":"경기도 양평군 양평읍 양근리 309-6번지","indutype":"약국 - 약국","category":"medical"}]},{"lat":"37.4901338","long":"127.49600358","imageIndex":8,"items":[{"name":"서울부부치과의원","tel":"031-775-0009","addr":"경기도 양평군 양평읍 양근리 183-11번지","indutype":"의원 - 치과의원","category":"medical"},{"name":"신우리약국","tel":"031-775-7273","addr":"경기도 양평군 양평읍 양근리 183-11번지","indutype":"약국 - 약국","category":"medical"}]},{"lat":"37.494195448","long":"127.48773035","imageIndex":8,"items":[{"name":"양평가축병원","tel":"031-772-3332","addr":"경기도 양평군 양평읍 양근리 652번지 양평해모로아파트","indutype":"기타의료기관 - 동물병원","category":"medical"}]},{"lat":"37.489859828","long":"127.49472407","imageIndex":8,"items":[{"name":"양평리더스치과의원","tel":"031-771-0428","addr":"경기도 양평군 양평읍 양근리 195-9번지 2층","indutype":"의원 - 치과의원","category":"medical"}]},{"lat":"37.489136816","long":"127.49309112","imageIndex":8,"items":[{"name":"양평시장약국","tel":"031-773-8998","addr":"경기도 양평군 양평읍 양근리 201-13번지 동아빌딩 1층","indutype":"약국 - 약국","category":"medical"},{"name":"영진치과의원","tel":"031-773-9000","addr":"경기도 양평군 양평읍 양근리 201-13번지","indutype":"의원 - 치과의원","category":"medical"},{"name":"이화피부과의원","tel":"031-774-7581","addr":"경기도 양평군 양평읍 양근리 201-13번지","indutype":"의원 - 의원","category":"medical"}]},{"lat":"37.490471211","long":"127.49503338","imageIndex":8,"items":[{"name":"양평제일안과의원","tel":"031-771-4275","addr":"경기도 양평군 양평읍 양근리 180-4번지 나동 102호","indutype":"의원 - 의원","category":"medical"},{"name":"양평프라자약국","tel":"031-771-9300","addr":"경기도 양평군 양평읍 양근리 180-4번지 (외1필지가동1층)","indutype":"약국 - 약국","category":"medical"},{"name":"제일편안한약국","tel":"031-775-8118","addr":"경기도 양평군 양평읍 양근리 180-4번지","indutype":"약국 - 약국","category":"medical"}]},{"lat":"37.490081582","long":"127.49556226","imageIndex":8,"items":[{"name":"양평치과의원","tel":"031-772-2879","addr":"경기도 양평군 양평읍 양근리 182-11번지 2층","indutype":"의원 - 치과의원","category":"medical"}]},{"lat":"37.490001203","long":"127.49539212","imageIndex":8,"items":[{"name":"양평태평양약국","tel":"031-775-2739","addr":"경기도 양평군 양평읍 양근리 181-3번지","indutype":"약국 - 약국","category":"medical"},{"name":"양평화인마취통증의학과의원","tel":"031-771-4393","addr":"경기도 양평군 양평읍 양근리 181-3번지 3층","indutype":"의원 - 의원","category":"medical"},{"name":"좋은눈안과","tel":"031-775-8201","addr":"경기도 양평군 양평읍 양근리 181-3번지","indutype":"의원 - 의원","category":"medical"},{"name":"하안치과의원","tel":"031-771-7528","addr":"경기도 양평군 양평읍 양근리 181-3번지 4층","indutype":"의원 - 치과의원","category":"medical"}]},{"lat":"37.490301534","long":"127.49467043","imageIndex":8,"items":[{"name":"양평포도나무약국","tel":"031-772-2158","addr":"경기도 양평군 양평읍 양근리 180-5번지","indutype":"약국 - 약국","category":"medical"},{"name":"푸른정형외과","tel":"031-774-7582","addr":"경기도 양평군 양평읍 양근리 180-5번지 양평프라자 2층","indutype":"의원 - 의원","category":"medical"}]},{"lat":"37.490799881","long":"127.48964195","imageIndex":8,"items":[{"name":"연세치과","tel":"031-771-3598","addr":"경기도 양평군 양평읍 양근리 420-1번지","indutype":"의원 - 치과의원","category":"medical"}]},{"lat":"37.490221914","long":"127.49647906","imageIndex":8,"items":[{"name":"오황한의원","tel":"031-771-7441","addr":"경기도 양평군 양평읍 양근리 183-4번지","indutype":"의원 - 한의원","category":"medical"}]},{"lat":"37.490688665","long":"127.4969005","imageIndex":8,"items":[{"name":"우리마을소나무한의원","tel":"031-774-7510","addr":"경기도 양평군 양평읍 양근리 175-7번지","indutype":"의원 - 한의원","category":"medical"}]},{"lat":"37.490659326","long":"127.49095268","imageIndex":8,"items":[{"name":"우리맥한의원","tel":"031-773-8375","addr":"경기도 양평군 양평읍 양근리 410-15번지","indutype":"의원 - 한의원","category":"medical"}]},{"lat":"37.489525074","long":"127.49289012","imageIndex":8,"items":[{"name":"이종선치과의원","tel":"031-771-5153","addr":"경기도 양평군 양평읍 양근리 167-22번지","indutype":"의원 - 치과의원","category":"medical"}]},{"lat":"37.490328101","long":"127.49261269","imageIndex":8,"items":[{"name":"자연  한의원","tel":"031-774-1575","addr":"경기도 양평군 양평읍 양근리 167-5번지","indutype":"의원 - 한의원","category":"medical"}]},{"lat":"37.490468992","long":"127.48904052","imageIndex":8,"items":[{"name":"종로약국","tel":"031-771-4777","addr":"경기도 양평군 양평읍 양근리 426-1번지","indutype":"약국 - 약국","category":"medical"},{"name":"중앙훼미리이원","tel":"031-772-7755","addr":"경기도 양평군 양평읍 양근리 426-1번지","indutype":"의원 - 의원","category":"medical"}]},{"lat":"37.489694755","long":"127.49325306","imageIndex":8,"items":[{"name":"청담한의원","tel":"031-775-3472","addr":"경기도 양평군 양평읍 양근리 206-5번지 2층","indutype":"의원 - 한의원","category":"medical"}]},{"lat":"37.488910291","long":"127.49122398","imageIndex":8,"items":[{"name":"최지원의 e좋은나라치과의원","tel":"031-771-2853","addr":"경기도 양평군 양평읍 양근리 291 1층,2층","indutype":"의원 - 치과의원","category":"medical"}]},{"lat":"37.496800433","long":"127.48745317","imageIndex":8,"items":[{"name":"태안약국","tel":"031-775-3577","addr":"경기도 양평군 양평읍 양근리 95-7번지","indutype":"약국 - 약국","category":"medical"}]},{"lat":"37.490442674","long":"127.49539502","imageIndex":8,"items":[{"name":"혜민한의원","tel":"031-771-8275","addr":"경기도 양평군 양평읍 양근리 178-5번지 2층","indutype":"의원 - 한의원","category":"medical"}]},{"lat":"37.490637772","long":"127.49614258","imageIndex":13,"items":[{"name":"고수당구장","tel":"031-772-6962","addr":"경기도 양평군 양평읍 양근리 176-7번지 2층","indutype":"레저업소 - 당 구 장","category":"leisure"}]},{"lat":"37.490830406","long":"127.49747811","imageIndex":13,"items":[{"name":"국가대표PC방","tel":"031-773-5003","addr":"경기도 양평군 양평읍 양근리 174-1번지 지하","indutype":"레저업소 - 기타레져업소","category":"leisure"}]},{"lat":"37.489417274","long":"127.49498123","imageIndex":13,"items":[{"name":"국선도양평수련원","tel":"031-775-3703","addr":"경기도 양평군 양평읍 양근리 192-153번지","indutype":"레저업소 - 기타레져업소","category":"leisure"}]},{"lat":"37.490522488","long":"127.49570084","imageIndex":13,"items":[{"name":"나이스당구장","tel":"031-771-1420","addr":"경기도 양평군 양평읍 양근리 178-4번지","indutype":"레저업소 - 당 구 장","category":"leisure"}]},{"lat":"37.492270871","long":"127.49558794","imageIndex":13,"items":[{"name":"더핫요가","tel":"031-771-8025","addr":"경기도 양평군 양평읍 양근리 170-5번지","indutype":"레저업소 - 헬스클럽","category":"leisure"}]},{"lat":"37.490000222","long":"127.49128761","imageIndex":13,"items":[{"name":"데몰리션노래방","tel":"031-771-8867","addr":"경기도 양평군 양평읍 양근리 410-12번지 데몰리션노래방","indutype":"레저업소 - 노 래 방","category":"leisure"},{"name":"데몰리션노래방","tel":"031-771-8867","addr":"경기도 양평군 양평읍 양근리 410-12번지 1층","indutype":"레저업소 - 노 래 방","category":"leisure"}]},{"lat":"37.490384454","long":"127.492059","imageIndex":13,"items":[{"name":"딩동댕노래방","tel":"031-771-6163","addr":"경기도 양평군 양평읍 양근리 358-3번지","indutype":"레저업소 - 노 래 방","category":"leisure"},{"name":"팝콘PC방","tel":"070-4685-1379","addr":"경기도 양평군 양평읍 양근리 358-3번지 2층","indutype":"레저업소 - 기타레져업소","category":"leisure"}]},{"lat":"37.49108146","long":"127.48908971","imageIndex":13,"items":[{"name":"레드볼하우스","tel":"031-772-4658","addr":"경기도 양평군 양평읍 양근리 422-2번지 태강빌딩 4,5층","indutype":"레저업소 - 볼 링 장","category":"leisure"},{"name":"태강당구장","tel":"070-8958-7945","addr":"경기도 양평군 양평읍 양근리 422-2번지 6층 태강당구장 (태강빌딩)","indutype":"레저업소 - 당 구 장","category":"leisure"},{"name":"태강볼링센타","tel":"031-772-4659","addr":"경기도 양평군 양평읍 양근리 422-2번지","indutype":"레저업소 - 볼 링 장","category":"leisure"}]},{"lat":"37.490688665","long":"127.4969005","imageIndex":13,"items":[{"name":"맘마미아 노래연습장","tel":"031-775-6979","addr":"경기도 양평군 양평읍 양근리 175-7번지 지하1층","indutype":"레저업소 - 노 래 방","category":"leisure"}]},{"lat":"37.490167436","long":"127.49006752","imageIndex":13,"items":[{"name":"명성노래연습장","tel":"031-775-5288","addr":"경기도 양평군 양평읍 양근리 414-3","indutype":"레저업소 - 노 래 방","category":"leisure"}]},{"lat":"37.490992681","long":"127.49095485","imageIndex":13,"items":[{"name":"백프로당구클럽","tel":"","addr":"경기도 양평군 양평읍 양근리 405-1번지","indutype":"레저업소 - 당 구 장","category":"leisure"}]},{"lat":"37.496578221","long":"127.49109297","imageIndex":13,"items":[{"name":"빠딴잘리요가","tel":"031-772-7450","addr":"경기도 양평군 양평읍 양근리 91-15번지 201호","indutype":"레저업소 - 헬스클럽","category":"leisure"}]},{"lat":"37.494972095","long":"127.48508931","imageIndex":13,"items":[{"name":"서연필라테스","tel":"","addr":"경기도 양평군 양평읍 양근리 527-9번지 2층 201호","indutype":"레저업소 - 헬스클럽","category":"leisure"}]},{"lat":"37.490746848","long":"127.48939284","imageIndex":13,"items":[{"name":"세븐 당구장","tel":"","addr":"경기도 양평군 양평읍 양근리 420-6번지","indutype":"레저업소 - 당 구 장","category":"leisure"}]},{"lat":"37.489305686","long":"127.49147531","imageIndex":13,"items":[{"name":"소울PC방","tel":"070-7684-2517","addr":"경기도 양평군 양평읍 양근리 308-1번지 2층","indutype":"레저업소 - 기타레져업소","category":"leisure"}]},{"lat":"37.49247345","long":"127.4880019","imageIndex":13,"items":[{"name":"슈퍼점프킹","tel":"031-772-8979","addr":"경기도 양평군 양평읍 양근리 396-17번지 동경빌딩 1층","indutype":"레저업소 - 기타레져업소","category":"leisure"}]},{"lat":"37.490583976","long":"127.4895614","imageIndex":13,"items":[{"name":"아이센스리그PC 양평본점","tel":"","addr":"경기도 양평군 양평읍 양근리 417-1번지 이레빌딩","indutype":"레저업소 - 기타레져업소","category":"leisure"}]},{"lat":"37.490832563","long":"127.49045629","imageIndex":13,"items":[{"name":"양평노래연습장","tel":"031-774-4317","addr":"경기도 양평군 양평읍 양근리 410-1번지 지하","indutype":"레저업소 - 노 래 방","category":"leisure"}]},{"lat":"37.486577662","long":"127.49317615","imageIndex":13,"items":[{"name":"양평읍주민자치위원회","tel":"031-770-3029","addr":"경기도 양평군 양평읍 양근리 234번지","indutype":"레저업소 - 헬스클럽","category":"leisure"}]},{"lat":"37.489633256","long":"127.49069725","imageIndex":13,"items":[{"name":"에코스PC","tel":"","addr":"경기도 양평군 양평읍 양근리 348-1번지 2층","indutype":"레저업소 - 기타레져업소","category":"leisure"}]},{"lat":"37.490437949","long":"127.49436603","imageIndex":13,"items":[{"name":"우리스크린골프","tel":"031-774-0047","addr":"경기도 양평군 양평읍 양근리 169-8번지","indutype":"레저업소 - 스크린골프","category":"leisure"}]},{"lat":"37.490109505","long":"127.49100564","imageIndex":13,"items":[{"name":"제닉스아레나 PC","tel":"031-775-1098","addr":"경기도 양평군 양평읍 양근리 410-11번지","indutype":"레저업소 - 기타레져업소","category":"leisure"}]},{"lat":"37.490493599","long":"127.49181095","imageIndex":13,"items":[{"name":"쥐잡는날","tel":"031-771-3204","addr":"경기도 양평군 양평읍 양근리 358-10","indutype":"레저업소 - 기타레져업소","category":"leisure"}]},{"lat":"37.490801984","long":"127.49131544","imageIndex":13,"items":[{"name":"즐겨찾기노래연습장","tel":"031-772-7896","addr":"경기도 양평군 양평읍 양근리 409-3번지","indutype":"레저업소 - 노 래 방","category":"leisure"}]},{"lat":"37.490524648","long":"127.49083873","imageIndex":13,"items":[{"name":"카니발노래방","tel":"031-771-3738","addr":"경기도 양평군 양평읍 양근리 410-6번지","indutype":"레저업소 - 노 래 방","category":"leisure"}]},{"lat":"37.488638133","long":"127.49167448","imageIndex":13,"items":[{"name":"큐당구장","tel":"031-774-4939","addr":"경기도 양평군 양평읍 양근리 293-2번지 3층","indutype":"레저업소 - 당 구 장","category":"leisure"}]},{"lat":"37.486835513","long":"127.49400323","imageIndex":13,"items":[{"name":"크로스핏 업템포","tel":"","addr":"경기도 양평군 양평읍 양근리 236번지","indutype":"레저업소 - 헬스클럽","category":"leisure"}]},{"lat":"37.490330542","long":"127.48984243","imageIndex":13,"items":[{"name":"킹노래연습장","tel":"031-773-5574","addr":"경기도 양평군 양평읍 양근리 420-21번지 1층","indutype":"레저업소 - 노 래 방","category":"leisure"}]},{"lat":"37.490416097","long":"127.48875749","imageIndex":13,"items":[{"name":"호텔 노래연습장","tel":"031-772-4489","addr":"경기도 양평군 양평읍 양근리 443-3번지 지하1층","indutype":"레저업소 - 노 래 방","category":"leisure"}]},{"lat":"37.490723354","long":"127.48853334","imageIndex":13,"items":[{"name":"흥날터","tel":"031-775-3858","addr":"경기도 양평군 양평읍 양근리 443-1번지","indutype":"레저업소 - 노 래 방","category":"leisure"}]},{"lat":"37.490111496","long":"127.49270173","imageIndex":5,"items":[{"name":"금강장여관","tel":"031-772-2079","addr":"경기도 양평군 양평읍 양근리 167-26번지 2,3층","indutype":"숙박업 - 여관/기타숙박업","category":"hotel"}]},{"lat":"37.490719308","long":"127.49169935","imageIndex":5,"items":[{"name":"대구여관","tel":"031-773-5767","addr":"경기도 양평군 양평읍 양근리 409-1번지","indutype":"숙박업 - 여관/기타숙박업","category":"hotel"},{"name":"대구여관","tel":"031-773-5767","addr":"경기도 양평군 양평읍 양근리 409-1번지","indutype":"숙박업 - 여관/기타숙박업","category":"hotel"}]},{"lat":"37.491193414","long":"127.49034556","imageIndex":5,"items":[{"name":"모텔리움","tel":"031-771-3837","addr":"경기도 양평군 양평읍 양근리 404-10번지","indutype":"숙박업 - 여관/기타숙박업","category":"hotel"}]},{"lat":"37.490221914","long":"127.49647906","imageIndex":5,"items":[{"name":"뮤즈모텔","tel":"031-771-3393","addr":"경기도 양평군 양평읍 양근리 183-4번지","indutype":"숙박업 - 여관/기타숙박업","category":"hotel"}]},{"lat":"37.489497767","long":"127.48859324","imageIndex":5,"items":[{"name":"삼우파크","tel":"031-771-7470","addr":"경기도 양평군 양평읍 양근리 333-2번지","indutype":"숙박업 - 여관/기타숙박업","category":"hotel"}]},{"lat":"37.490889138","long":"127.48984606","imageIndex":5,"items":[{"name":"새한장모텔","tel":"031-771-3248","addr":"경기도 양평군 양평읍 양근리 420-14번지","indutype":"숙박업 - 여관/기타숙박업","category":"hotel"}]},{"lat":"37.489331078","long":"127.49187122","imageIndex":5,"items":[{"name":"씨에프(CF)모텔","tel":"031-771-2667","addr":"경기도 양평군 양평읍 양근리 304-2번지","indutype":"숙박업 - 여관/기타숙박업","category":"hotel"}]},{"lat":"37.498273535","long":"127.4797051","imageIndex":5,"items":[{"name":"아일랜드","tel":"031-774-0226","addr":"경기도 양평군 양평읍 양근리 504-41번지","indutype":"숙박업 - 여관/기타숙박업","category":"hotel"}]},{"lat":"37.491638015","long":"127.48739721","imageIndex":5,"items":[{"name":"양평군청","tel":"031-770-2464","addr":"경기도 양평군 양평읍 양근리 448-8번지 양평군청","indutype":"숙박업 - 여관/기타숙박업","category":"hotel"}]},{"lat":"37.49027484","long":"127.49242012","imageIndex":5,"items":[{"name":"짱모텔","tel":"031-773-9393","addr":"경기도 양평군 양평읍 양근리 360-1번지","indutype":"숙박업 - 여관/기타숙박업","category":"hotel"},{"name":"짱모텔","tel":"031-773-9393","addr":"경기도 양평군 양평읍 양근리 360-1","indutype":"숙박업 - 여관/기타숙박업","category":"hotel"}]},{"lat":"37.49018933","long":"127.49131145","imageIndex":5,"items":[{"name":"청호여관","tel":"031-771-2803","addr":"경기도 양평군 양평읍 양근리 410-9","indutype":"숙박업 - 여관/기타숙박업","category":"hotel"}]},{"lat":"37.491165965","long":"127.49044715","imageIndex":5,"items":[{"name":"티파니모텔","tel":"031-771-9494","addr":"경기도 양평군 양평읍 양근리 404-9번지","indutype":"숙박업 - 여관/기타숙박업","category":"hotel"}]},{"lat":"37.490914256","long":"127.49030982","imageIndex":5,"items":[{"name":"파레스","tel":"031-772-3888","addr":"경기도 양평군 양평읍 양근리 421-3번지","indutype":"숙박업 - 여관/기타숙박업","category":"hotel"}]},{"lat":"37.498805043","long":"127.4907569","imageIndex":9,"items":[{"name":"양근주유소","tel":"031-771-1114","addr":"경기도 양평군 양평읍 양근리 51-1번지 양근주유소","indutype":"연료판매점 - SK주유소","category":"oil"}]},{"lat":"37.48852969","long":"127.49175293","imageIndex":9,"items":[{"name":"양평어름,동원연탄","tel":"031-772-1914","addr":"경기도 양평군 양평읍 양근리 293-5번지","indutype":"연료판매점 - 기타연료","category":"oil"},{"name":"현대석유상사","tel":"031-774-5171","addr":"경기도 양평군 양평읍 양근리 293-5번지","indutype":"연료판매점 - 유류판매","category":"oil"}]},{"lat":"37.496748521","long":"127.48251115","imageIndex":9,"items":[{"name":"양평주유소","tel":"031-772-5151","addr":"경기도 양평군 양평읍 양근리 502-5번지","indutype":"연료판매점 - SK주유소","category":"oil"}]}]