[{"lat":"37.806805509","long":"126.84758522","imageIndex":17,"items":[{"name":"(주)소디프 비엠티","tel":"031-942-4240","addr":"경기도 파주시 광탄면 창만리 678-7번지","indutype":"사무통신 - 컴퓨터","category":"other"},{"name":"(주)하이테크라이팅","tel":"031-866-7949","addr":"경기도 파주시 광탄면 창만리 678-7번지","indutype":"건축자재 - 조명기구","category":"other"}]},{"lat":"37.806976961","long":"126.86214253","imageIndex":17,"items":[{"name":"GS25파주부흥점","tel":"","addr":"경기도 파주시 광탄면 창만리 132-16번지 1층 일부","indutype":"유통업 영리 - 편 의 점","category":"other"}]},{"lat":"37.798169996","long":"126.87375177","imageIndex":17,"items":[{"name":"가야천막철물","tel":"031-826-5664","addr":"경기도 파주시 광탄면 창만리 192-3","indutype":"직물 - 카페트,커튼,천막,지물","category":"other"}]},{"lat":"37.805419623","long":"126.84878042","imageIndex":17,"items":[{"name":"건영물산","tel":"031-945-1298","addr":"경기도 파주시 광탄면 창만리 587-7번지","indutype":"건축자재 - 목재·석재·철물","category":"other"}]},{"lat":"37.791780966","long":"126.85717599","imageIndex":17,"items":[{"name":"경기합판","tel":"031-949-1036","addr":"경기도 파주시 광탄면 창만리 467-1","indutype":"건축자재 - 기타건축자재","category":"other"}]},{"lat":"37.803861318","long":"126.84903346","imageIndex":17,"items":[{"name":"광탄천막사","tel":"031-943-6750","addr":"경기도 파주시 광탄면 창만리 658-2","indutype":"직물 - 카페트,커튼,천막,지물","category":"other"}]},{"lat":"37.801888602","long":"126.87166739","imageIndex":17,"items":[{"name":"꾼 에어컨 공조시스템","tel":"070-4667-6646","addr":"경기도 파주시 광탄면 창만리 899번지","indutype":"용역 서비스 - 기타용역서비스","category":"other"}]},{"lat":"37.800836406","long":"126.87339514","imageIndex":17,"items":[{"name":"농업회사법인 벽초지문화수목원 (유)","tel":"031-957-2004","addr":"경기도 파주시 광탄면 창만리 166-1번지","indutype":"문화.취미 - 티켓","category":"other"}]},{"lat":"37.791369387","long":"126.85950417","imageIndex":17,"items":[{"name":"동양부러쉬","tel":"031-949-0797","addr":"경기도 파주시 광탄면 창만리 377-2번지","indutype":"신변잡화 - 기타잡화","category":"other"}]},{"lat":"37.788362369","long":"126.86128099","imageIndex":17,"items":[{"name":"말리부켄넬","tel":"031-947-8257","addr":"경기도 파주시 광탄면 창만리 444-1번지","indutype":"문화.취미 - 애완동물","category":"other"}]},{"lat":"37.794091727","long":"126.86072509","imageIndex":17,"items":[{"name":"미니스톱 파주창만점","tel":"031-1577-9621","addr":"경기도 파주시 광탄면 창만리 372-38번지","indutype":"유통업 영리 - 편 의 점","category":"other"}]},{"lat":"37.804255796","long":"126.84755649","imageIndex":17,"items":[{"name":"미애네다육","tel":"031-966-7982","addr":"경기도 파주시 광탄면 창만리 592-7번지","indutype":"문화.취미 - 화원","category":"other"}]},{"lat":"37.802310187","long":"126.87825239","imageIndex":17,"items":[{"name":"백옥피부관리","tel":"031-908-1152","addr":"경기도 파주시 광탄면 창만리 96-10번지","indutype":"회원제형태 - 기타4","category":"other"}]},{"lat":"37.800756105","long":"126.87411061","imageIndex":17,"items":[{"name":"벽초지 기프트","tel":"031-957-2004","addr":"경기도 파주시 광탄면 창만리 166-8번지","indutype":"신변잡화 - 기념품점","category":"other"},{"name":"벽초지도야체험장","tel":"031-958-7063","addr":"경기도 파주시 광탄면 창만리 166-8번지","indutype":"문화.취미 - 문화취미기타","category":"other"}]},{"lat":"37.789307597","long":"126.86064343","imageIndex":17,"items":[{"name":"비잔교육","tel":"","addr":"경기도 파주시 광탄면 창만리 436-5번지","indutype":"서적문구 - 일반서적","category":"other"}]},{"lat":"37.786035205","long":"126.85903769","imageIndex":17,"items":[{"name":"사람과공간","tel":"02-535-8979","addr":"경기도 파주시 광탄면 창만리 454-9번지","indutype":"가구 - 철제가구","category":"other"}]},{"lat":"37.795583165","long":"126.85733883","imageIndex":17,"items":[{"name":"성심패키지","tel":"031-947-4960","addr":"경기도 파주시 광탄면 창만리 485-1번지","indutype":"유통업 영리 - 기타유통업","category":"other"}]},{"lat":"37.807006083","long":"126.84939031","imageIndex":17,"items":[{"name":"세븐일레븐파주창만점","tel":"","addr":"경기도 파주시 광탄면 창만리 587-9번지","indutype":"유통업 영리 - 편 의 점","category":"other"}]},{"lat":"37.807447811","long":"126.8495938","imageIndex":17,"items":[{"name":"신화낚시","tel":"031-943-6760","addr":"경기도 파주시 광탄면 창만리 566-48번지","indutype":"레져용품 - 스포츠·레져용품","category":"other"}]},{"lat":"37.807443228","long":"126.85303453","imageIndex":17,"items":[{"name":"아정도예연구소","tel":"031-977-2728","addr":"경기도 파주시 광탄면 창만리 568번지","indutype":"문화.취미 - 민예·공예품","category":"other"}]},{"lat":"37.787419164","long":"126.85619689","imageIndex":17,"items":[{"name":"알베로퍼니처","tel":"031-266-6468","addr":"경기도 파주시 광탄면 창만리 460-2번지","indutype":"가구 - 일반가구","category":"other"}]},{"lat":"37.80095133","long":"126.84908492","imageIndex":17,"items":[{"name":"우리가구","tel":"","addr":"경기도 파주시 광탄면 창만리 623-2번지","indutype":"가구 - 일반가구","category":"other"}]},{"lat":"37.793701545","long":"126.8584438","imageIndex":17,"items":[{"name":"월드웰용접기","tel":"","addr":"경기도 파주시 광탄면 창만리 477-6번지","indutype":"기타 - 기계공구","category":"other"}]},{"lat":"37.792451059","long":"126.85994486","imageIndex":17,"items":[{"name":"이마트24 파주스마일점","tel":"031-949-9595","addr":"경기도 파주시 광탄면 창만리 391-1번지","indutype":"유통업 영리 - 편 의 점","category":"other"}]},{"lat":"37.78525141","long":"126.85906191","imageIndex":17,"items":[{"name":"인터문글로벌프린팅(주) Inter Moon Global","tel":"031-957-9787","addr":"경기도 파주시 광탄면 창만리 452-6번지","indutype":"유통업 영리 - 기타유통업","category":"other"}]},{"lat":"37.791312713","long":"126.85736991","imageIndex":17,"items":[{"name":"일산기계","tel":"031-8071-0767","addr":"경기도 파주시 광탄면 창만리 467-8 가,나동","indutype":"기타 - 기계공구","category":"other"}]},{"lat":"37.80372403","long":"126.84739864","imageIndex":17,"items":[{"name":"제이제이리빙글로벌","tel":"","addr":"경기도 파주시 광탄면 창만리 674-12번지","indutype":"주방용구 - 주방용구","category":"other"}]},{"lat":"37.796839961","long":"126.8687016","imageIndex":17,"items":[{"name":"주식회사 마패투어","tel":"031-941-0125","addr":"경기도 파주시 광탄면 창만리 250-3번지","indutype":"여행 - 관광여행","category":"other"}]},{"lat":"37.789418754","long":"126.85578424","imageIndex":17,"items":[{"name":"주식회사오성환경개발","tel":"031-947-4300","addr":"경기도 파주시 광탄면 창만리 463-1번지","indutype":"용역 서비스 - 기타용역서비스","category":"other"}]},{"lat":"37.791695582","long":"126.86103621","imageIndex":17,"items":[{"name":"케이에스전기","tel":"070-8800-9469","addr":"경기도 파주시 광탄면 창만리 392-2번지","indutype":"용역 서비스 - 기타용역서비스","category":"other"}]},{"lat":"37.799035388","long":"126.87419308","imageIndex":17,"items":[{"name":"토마토","tel":"031-941-0194","addr":"경기도 파주시 광탄면 창만리 177-4","indutype":"신변잡화 - 기타잡화","category":"other"}]},{"lat":"37.801666703","long":"126.87469947","imageIndex":17,"items":[{"name":"한신농원","tel":"031-941-3397","addr":"경기도 파주시 광탄면 창만리 890-2번지","indutype":"문화.취미 - 화원","category":"other"}]},{"lat":"37.803420832","long":"126.8497838","imageIndex":0,"items":[{"name":"광손세차&광택","tel":"","addr":"경기도 파주시 광탄면 창만리 607-11번지","indutype":"자동차정비 유지 - 세차장","category":"car"},{"name":"세운자동차공업사","tel":"031-947-4040","addr":"경기도 파주시 광탄면 창만리 607-11","indutype":"자동차정비 유지 - 자동차정비","category":"car"}]},{"lat":"37.802249237","long":"126.84950235","imageIndex":0,"items":[{"name":"금호타이어대한상사","tel":"031-947-5109","addr":"경기도 파주시 광탄면 창만리 622-6번지","indutype":"자동차정비 유지 - 자동차시트·타이어","category":"car"}]},{"lat":"37.807447811","long":"126.8495938","imageIndex":0,"items":[{"name":"나우리카서비스","tel":"","addr":"경기도 파주시 광탄면 창만리 566-48번지","indutype":"자동차정비 유지 - 자동차정비","category":"car"}]},{"lat":"37.793451081","long":"126.85992023","imageIndex":0,"items":[{"name":"새론상사","tel":"031-975-3257","addr":"경기도 파주시 광탄면 창만리 399-1번지","indutype":"자동차정비 유지 - 자동차부품","category":"car"}]},{"lat":"37.799035388","long":"126.87419308","imageIndex":0,"items":[{"name":"씨엠카센타","tel":"031-8071-2235","addr":"경기도 파주시 광탄면 창만리 177-4번지","indutype":"자동차정비 유지 - 자동차정비","category":"car"}]},{"lat":"37.786923502","long":"126.85608435","imageIndex":0,"items":[{"name":"카젠광탄점","tel":"031-949-9134","addr":"경기도 파주시 광탄면 창만리 453-10 3/1","indutype":"자동차정비 유지 - 자동차정비","category":"car"}]},{"lat":"37.802722227","long":"126.86025436","imageIndex":16,"items":[{"name":"광탄에듀팜포도농장","tel":"031-947-3148","addr":"경기도 파주시 광탄면 창만리 1019-2","indutype":"학원 - 기타 교육기관","category":"study"}]},{"lat":"37.798085519","long":"126.85550591","imageIndex":16,"items":[{"name":"미리내교육","tel":"","addr":"경기도 파주시 광탄면 창만리 499-1번지","indutype":"학원 - 기타 교육기관","category":"study"}]},{"lat":"37.80656216","long":"126.86183672","imageIndex":4,"items":[{"name":"광탄찐빵만두","tel":"031-942-0951","addr":"경기도 파주시 광탄면 창만리 312-8 2동1호","indutype":"일반휴게음식 - 스넥","category":"restaurant"},{"name":"양평해장국","tel":"031-949-9898","addr":"경기도 파주시 광탄면 창만리 312-8번지","indutype":"일반휴게음식 - 일반한식","category":"restaurant"}]},{"lat":"37.807447811","long":"126.8495938","imageIndex":4,"items":[{"name":"교동짬뽕","tel":"031-948-3363","addr":"경기도 파주시 광탄면 창만리 566-48번지","indutype":"일반휴게음식 - 중국식","category":"restaurant"}]},{"lat":"37.806109443","long":"126.85273063","imageIndex":4,"items":[{"name":"넓은여울가든","tel":"031-947-5761","addr":"경기도 파주시 광탄면 창만리 571-1번지","indutype":"일반휴게음식 - 일반한식","category":"restaurant"}]},{"lat":"37.78808507","long":"126.85555983","imageIndex":4,"items":[{"name":"다미가 전주한정식부페","tel":"031-948-3388","addr":"경기도 파주시 광탄면 창만리 461-14번지","indutype":"일반휴게음식 - 일반한식","category":"restaurant"}]},{"lat":"37.794091727","long":"126.86072509","imageIndex":4,"items":[{"name":"맛누리","tel":"031-944-8858","addr":"경기도 파주시 광탄면 창만리 372-38번지","indutype":"일반휴게음식 - 일반한식","category":"restaurant"}]},{"lat":"37.798305473","long":"126.87405809","imageIndex":4,"items":[{"name":"명가","tel":"031-941-0553","addr":"경기도 파주시 광탄면 창만리 194-1,194-2","indutype":"일반휴게음식 - 일반한식","category":"restaurant"}]},{"lat":"37.786923502","long":"126.85608435","imageIndex":4,"items":[{"name":"미가한식뷔페","tel":"031-943-9134","addr":"경기도 파주시 광탄면 창만리 453-10번지","indutype":"일반휴게음식 - 일반한식","category":"restaurant"}]},{"lat":"37.807673047","long":"126.84959333","imageIndex":4,"items":[{"name":"민들레한식뷔페","tel":"031-944-1663","addr":"경기도 파주시 광탄면 창만리 566-46번지","indutype":"일반휴게음식 - 일반한식","category":"restaurant"},{"name":"철이네","tel":"031-945-0992","addr":"경기도 파주시 광탄면 창만리 566-46번지","indutype":"일반휴게음식 - 일식·회집","category":"restaurant"}]},{"lat":"37.806976961","long":"126.86214253","imageIndex":4,"items":[{"name":"부뚜막","tel":"031-949-0619","addr":"경기도 파주시 광탄면 창만리 132-16번지","indutype":"일반휴게음식 - 일반한식","category":"restaurant"}]},{"lat":"37.807363795","long":"126.86166487","imageIndex":4,"items":[{"name":"불난집","tel":"031-941-7181","addr":"경기도 파주시 광탄면 창만리 132-13번지","indutype":"일반휴게음식 - 일반한식","category":"restaurant"},{"name":"양순자낙지마당","tel":"031-947-0086","addr":"경기도 파주시 광탄면 창만리 132-13번지 1층","indutype":"일반휴게음식 - 일반한식","category":"restaurant"}]},{"lat":"37.789889968","long":"126.86550132","imageIndex":4,"items":[{"name":"선운한식","tel":"031-957-2461","addr":"경기도 파주시 광탄면 창만리 408-7번지","indutype":"일반휴게음식 - 일반한식","category":"restaurant"}]},{"lat":"37.804700068","long":"126.84970167","imageIndex":4,"items":[{"name":"순금이네국수","tel":"031-948-3067","addr":"경기도 파주시 광탄면 창만리 578-3번지","indutype":"일반휴게음식 - 일반한식","category":"restaurant"}]},{"lat":"37.806590151","long":"126.8626429","imageIndex":4,"items":[{"name":"신의주찹쌀순대 광탄점","tel":"031-943-3302","addr":"경기도 파주시 광탄면 창만리 132-26번지","indutype":"일반휴게음식 - 일반한식","category":"restaurant"},{"name":"온골부대찌개","tel":"031-941-7806","addr":"경기도 파주시 광탄면 창만리 132-26번지","indutype":"일반휴게음식 - 일반한식","category":"restaurant"}]},{"lat":"37.790618325","long":"126.85683769","imageIndex":4,"items":[{"name":"용대리명태마을","tel":"031-949-3591","addr":"경기도 파주시 광탄면 창만리 465-6번지","indutype":"일반휴게음식 - 일반한식","category":"restaurant"}]},{"lat":"37.793448709","long":"126.8579788","imageIndex":4,"items":[{"name":"정식당","tel":"031-111-1111","addr":"경기도 파주시 광탄면 창만리 477-10번지","indutype":"일반휴게음식 - 일반한식","category":"restaurant"}]},{"lat":"37.790501575","long":"126.86461466","imageIndex":4,"items":[{"name":"진왕돈까스","tel":"031-953-7662","addr":"경기도 파주시 광탄면 창만리 407-3번지 1층","indutype":"일반휴게음식 - 일반한식","category":"restaurant"}]},{"lat":"37.799035388","long":"126.87419308","imageIndex":4,"items":[{"name":"캔아저씨네 흑돼지삼겹살","tel":"031-945-8004","addr":"경기도 파주시 광탄면 창만리 177-4번지","indutype":"일반휴게음식 - 일반한식","category":"restaurant"}]},{"lat":"37.807141741","long":"126.84978747","imageIndex":4,"items":[{"name":"통큰생오리","tel":"031-943-5298","addr":"경기도 파주시 광탄면 창만리 566-1번지","indutype":"일반휴게음식 - 일반한식","category":"restaurant"}]},{"lat":"37.801888602","long":"126.87166739","imageIndex":4,"items":[{"name":"한쌈&한솥","tel":"031-947-7433","addr":"경기도 파주시 광탄면 창만리 899번지","indutype":"일반휴게음식 - 일반한식","category":"restaurant"}]},{"lat":"37.802698582","long":"126.84863846","imageIndex":4,"items":[{"name":"한옥집","tel":"031-944-6097","addr":"경기도 파주시 광탄면 창만리 597-15번지","indutype":"일반휴게음식 - 일반한식","category":"restaurant"}]},{"lat":"37.787230205","long":"126.85639026","imageIndex":7,"items":[{"name":"나라쿠키","tel":"031-946-1410","addr":"경기도 파주시 광탄면 창만리 459번지","indutype":"음료식품 - 제과점","category":"food"}]},{"lat":"37.794091727","long":"126.86072509","imageIndex":7,"items":[{"name":"미니스톱 파주창만점","tel":"031-947-6254","addr":"경기도 파주시 광탄면 창만리 372-38번지","indutype":"음료식품 - 농·축·수산품","category":"food"}]},{"lat":"37.786923502","long":"126.85608435","imageIndex":7,"items":[{"name":"산돌휴게소","tel":"031-943-9135","addr":"경기도 파주시 광탄면 창만리 453-10","indutype":"음료식품 - 기타음료식품","category":"food"}]},{"lat":"37.802112483","long":"126.87872962","imageIndex":7,"items":[{"name":"예술","tel":"","addr":"경기도 파주시 광탄면 창만리 96-13번지","indutype":"음료식품 - 기타음료식품","category":"food"}]},{"lat":"37.796839961","long":"126.8687016","imageIndex":7,"items":[{"name":"주식회사 마패 농업회사법인","tel":"031-942-1987","addr":"경기도 파주시 광탄면 창만리 250-3번지","indutype":"음료식품 - 농·축·수산품","category":"food"}]},{"lat":"37.802362384","long":"126.86069788","imageIndex":7,"items":[{"name":"파주에듀팜2","tel":"031-947-3148","addr":"경기도 파주시 광탄면 창만리 1019-3번지","indutype":"음료식품 - 농·축·수산품","category":"food"}]},{"lat":"37.807446789","long":"126.84881027","imageIndex":7,"items":[{"name":"희망정육점","tel":"031-949-2015","addr":"경기도 파주시 광탄면 창만리 566-41번지","indutype":"음료식품 - 정육점","category":"food"}]},{"lat":"37.807447811","long":"126.8495938","imageIndex":13,"items":[{"name":"다판다","tel":"031-948-0214","addr":"경기도 파주시 광탄면 창만리 566-48번지","indutype":"보건위생 - 화장품","category":"beauty"}]},{"lat":"37.803138806","long":"126.84769509","imageIndex":13,"items":[{"name":"에코프렌들린","tel":"031-907-9357","addr":"경기도 파주시 광탄면 창만리 598-5","indutype":"보건위생 - 화장품","category":"beauty"}]}]