[{"lat":"37.45149335","long":"126.8913475","imageIndex":7,"items":[{"name":"MY레몬","tel":"02-897-6767","addr":"경기도 광명시 소하동 34-73번지 1층","indutype":"유통업 영리 - 슈퍼마켓","category":"mart"}]},{"lat":"37.43459573","long":"126.8873502","imageIndex":7,"items":[{"name":"SKY할인마트","tel":"02-898-5866","addr":"경기도 광명시 소하동 1373번지 광명역세권휴먼시아나 상가 102호","indutype":"유통업 영리 - 슈퍼마켓","category":"mart"}]},{"lat":"37.4479874","long":"126.881148","imageIndex":7,"items":[{"name":"가리대슈퍼","tel":"02-807-1012","addr":"경기도 광명시 소하동 205-12번지","indutype":"유통업 영리 - 슈퍼마켓","category":"mart"}]},{"lat":"37.43651748","long":"126.8809858","imageIndex":7,"items":[{"name":"강능슈퍼","tel":"02-897-1006","addr":"경기도 광명시 소하동 897-3번지 1층 A호","indutype":"유통업 영리 - 슈퍼마켓","category":"mart"}]},{"lat":"37.44899491","long":"126.8795981","imageIndex":7,"items":[{"name":"광명슈퍼","tel":"02-894-0441","addr":"경기도 광명시 소하동 171번지","indutype":"유통업 영리 - 슈퍼마켓","category":"mart"}]},{"lat":"37.44887761","long":"126.8794288","imageIndex":7,"items":[{"name":"대동슈퍼","tel":"02-809-1807","addr":"경기도 광명시 소하동 180-1번지","indutype":"유통업 영리 - 슈퍼마켓","category":"mart"}]},{"lat":"37.43482909","long":"126.8776214","imageIndex":7,"items":[{"name":"삼현문화개발(주)","tel":"02-897-3113","addr":"경기도 광명시 소하동 937-2번지","indutype":"유통업 영리 - 슈퍼마켓","category":"mart"}]},{"lat":"37.43332265","long":"126.875963","imageIndex":7,"items":[{"name":"소비자공판장","tel":"02-897-5888","addr":"경기도 광명시 소하동 947-2번지 1층","indutype":"유통업 영리 - 슈퍼마켓","category":"mart"}]},{"lat":"37.4524915","long":"126.8892891","imageIndex":7,"items":[{"name":"소비자마트","tel":"02-898-2191","addr":"경기도 광명시 소하동 47-27번지 1층","indutype":"유통업 영리 - 슈퍼마켓","category":"mart"}]},{"lat":"37.43588138","long":"126.8845347","imageIndex":7,"items":[{"name":"스탑바이(STOP BUY)본점","tel":"070-8860-8212","addr":"경기도 광명시 소하동 1238번지 103호","indutype":"유통업 영리 - 슈퍼마켓","category":"mart"}]},{"lat":"37.43757963","long":"126.8799897","imageIndex":7,"items":[{"name":"얼음왕국","tel":"02-899-5953","addr":"경기도 광명시 소하동 903-5번지 1층","indutype":"유통업 영리 - 슈퍼마켓","category":"mart"}]},{"lat":"37.45190694","long":"126.8904315","imageIndex":7,"items":[{"name":"우리공판장","tel":"02-6405-1149","addr":"경기도 광명시 소하동 36-5번지 1층 마트","indutype":"유통업 영리 - 슈퍼마켓","category":"mart"}]},{"lat":"37.45070979","long":"126.8916764","imageIndex":7,"items":[{"name":"우리마트","tel":"02-805-4860","addr":"경기도 광명시 소하동 29-4번지","indutype":"유통업 영리 - 슈퍼마켓","category":"mart"}]},{"lat":"37.44735071","long":"126.8934556","imageIndex":7,"items":[{"name":"웰빙할인마트","tel":"02-898-7734","addr":"경기도 광명시 소하동 1366번지 신촌휴먼시아2단지상가동","indutype":"유통업 영리 - 슈퍼마켓","category":"mart"}]},{"lat":"37.45129462","long":"126.8908167","imageIndex":7,"items":[{"name":"주식회사 농민마트","tel":"02-898-1033","addr":"경기도 광명시 소하동 36-57번지 지하1층 1,2,3호","indutype":"유통업 영리 - 슈퍼마켓","category":"mart"}]},{"lat":"37.43627346","long":"126.880263","imageIndex":7,"items":[{"name":"파워디씨마트","tel":"02-898-1611","addr":"경기도 광명시 소하동 1241번지","indutype":"유통업 영리 - 슈퍼마켓","category":"mart"}]},{"lat":"37.42868155","long":"126.8837213","imageIndex":7,"items":[{"name":"프라임마트","tel":"02-896-2200","addr":"경기도 광명시 소하동 1391번지 광명역세권휴먼시아 상가동 104호","indutype":"유통업 영리 - 슈퍼마켓","category":"mart"}]},{"lat":"37.43437745","long":"126.8765488","imageIndex":7,"items":[{"name":"한아름슈퍼","tel":"02-897-1616","addr":"경기도 광명시 소하동 941-21번지 뉴월드맨션 A동 B02호","indutype":"유통업 영리 - 슈퍼마켓","category":"mart"}]},{"lat":"37.4496623","long":"126.8892369","imageIndex":7,"items":[{"name":"해피마트","tel":"02-898-1611","addr":"경기도 광명시 소하동 1312-7 소하택지개발지구A7블럭8로트","indutype":"유통업 영리 - 슈퍼마켓","category":"mart"}]},{"lat":"37.44966181","long":"126.8887284","imageIndex":7,"items":[{"name":"화이트7마트","tel":"070-4203-4047","addr":"경기도 광명시 소하동 1312-3번지 102호","indutype":"유통업 영리 - 슈퍼마켓","category":"mart"}]}]