[{"lat":"37.657419114","long":"127.30243706","imageIndex":13,"items":[{"name":"1001안경콘택트마석점","tel":"031-559-7179","addr":"경기도 남양주시 화도읍 마석우리 383-4번지 캠퍼스츠라자 101호","indutype":"보건위생 - 안경","category":"beauty"},{"name":"아리따움 마석점","tel":"031-593-0121","addr":"경기도 남양주시 화도읍 마석우리 383-4번지 캠퍼스프라자 103호","indutype":"보건위생 - 화장품","category":"beauty"},{"name":"주은진헤어샵","tel":"031-594-1574","addr":"경기도 남양주시 화도읍 마석우리 383-4번지 캠퍼스프라자 2동 202호","indutype":"보건위생 - 미용원","category":"beauty"}]},{"lat":"37.655972125","long":"127.30457306","imageIndex":13,"items":[{"name":"K&L 헤어","tel":"031-513-0887","addr":"경기도 남양주시 화도읍 마석우리 322번지 2,3층","indutype":"보건위생 - 미용원","category":"beauty"}]},{"lat":"37.656360203","long":"127.30076694","imageIndex":13,"items":[{"name":"ZIA WAXING(지아 왁싱)","tel":"","addr":"경기도 남양주시 화도읍 마석우리 557-7번지 102호","indutype":"보건위생 - 피부미용실","category":"beauty"},{"name":"네일톡톡","tel":"","addr":"경기도 남양주시 화도읍 마석우리 557-7번지 1층 103호","indutype":"보건위생 - 피부미용실","category":"beauty"},{"name":"호박공주","tel":"070-8955-4567","addr":"경기도 남양주시 화도읍 마석우리 557-7번지","indutype":"보건위생 - 미용원","category":"beauty"}]},{"lat":"37.658219208","long":"127.30313157","imageIndex":13,"items":[{"name":"가비헤어","tel":"031-591-0715","addr":"경기도 남양주시 화도읍 마석우리 349번지 중흥에스클레스빌 111동 203호","indutype":"보건위생 - 미용원","category":"beauty"}]},{"lat":"37.653417767","long":"127.30637585","imageIndex":13,"items":[{"name":"강선희미용실","tel":"031-595-2778","addr":"경기도 남양주시 화도읍 마석우리 295-7","indutype":"보건위생 - 미용원","category":"beauty"}]},{"lat":"37.66149964","long":"127.30277078","imageIndex":13,"items":[{"name":"구피샵마석우리점","tel":"031-511-5117","addr":"경기도 남양주시 화도읍 마석우리 473-1번지 102호","indutype":"보건위생 - 이용원","category":"beauty"}]},{"lat":"37.655057945","long":"127.30621254","imageIndex":13,"items":[{"name":"구헤어샵","tel":"031-513-7890","addr":"경기도 남양주시 화도읍 마석우리 297-12번지 1층 일부","indutype":"보건위생 - 미용원","category":"beauty"}]},{"lat":"37.65269563","long":"127.30690551","imageIndex":13,"items":[{"name":"그랑프리안경콘택트","tel":"031-594-8980","addr":"경기도 남양주시 화도읍 마석우리 292-12번지","indutype":"보건위생 - 안경","category":"beauty"}]},{"lat":"37.652224236","long":"127.30802543","imageIndex":13,"items":[{"name":"글라스스토리안경","tel":"031-559-6008","addr":"경기도 남양주시 화도읍 마석우리 292-17번지 SL프라자 1층 103,104호","indutype":"보건위생 - 안경","category":"beauty"},{"name":"이승희헤어샵","tel":"031-5917-6620","addr":"경기도 남양주시 화도읍 마석우리 292-17번지","indutype":"보건위생 - 미용원","category":"beauty"}]},{"lat":"37.65522679","long":"127.30360681","imageIndex":13,"items":[{"name":"김수경헤어클럽","tel":"031-559-3780","addr":"경기도 남양주시 화도읍 마석우리 317-8번지 108호","indutype":"보건위생 - 미용원","category":"beauty"},{"name":"네일스톤","tel":"031-511-5888","addr":"경기도 남양주시 화도읍 마석우리 317-8번지 1층 9호","indutype":"보건위생 - 피부미용실","category":"beauty"}]},{"lat":"37.652142652","long":"127.30821774","imageIndex":13,"items":[{"name":"김정문알로에(화도점)","tel":"031-559-6687","addr":"경기도 남양주시 화도읍 마석우리 292-16번지","indutype":"보건위생 - 화장품","category":"beauty"},{"name":"베트남 앤 코리아헤어","tel":"031-516-2141","addr":"경기도 남양주시 화도읍 마석우리 292-16번지 1층 일부","indutype":"보건위생 - 미용원","category":"beauty"}]},{"lat":"37.651920719","long":"127.30693634","imageIndex":13,"items":[{"name":"김정연헤어","tel":"031-594-0384","addr":"경기도 남양주시 화도읍 마석우리 269-2번지 1층","indutype":"보건위생 - 미용원","category":"beauty"}]},{"lat":"37.654808694","long":"127.30149733","imageIndex":13,"items":[{"name":"까고뽀꼬","tel":"031-591-8927","addr":"경기도 남양주시 화도읍 마석우리 586번지 101호","indutype":"보건위생 - 미용원","category":"beauty"}]},{"lat":"37.65658712","long":"127.30365762","imageIndex":13,"items":[{"name":"까망머리","tel":"031-591-3626","addr":"경기도 남양주시 화도읍 마석우리 379-11번지 모던빌 102호","indutype":"보건위생 - 미용원","category":"beauty"}]},{"lat":"37.66033478","long":"127.3037974","imageIndex":13,"items":[{"name":"깍세","tel":"031-511-8737","addr":"경기도 남양주시 화도읍 마석우리 441-1번지 동보빌딩 102호","indutype":"보건위생 - 미용원","category":"beauty"}]},{"lat":"37.657195075","long":"127.30549595","imageIndex":13,"items":[{"name":"남성컷트클럽 마석점","tel":"070-8793-4111","addr":"경기도 남양주시 화도읍 마석우리 363-9번지 102호","indutype":"보건위생 - 미용원","category":"beauty"}]},{"lat":"37.657223266","long":"127.30504276","imageIndex":13,"items":[{"name":"네일 스케치","tel":"02-559-6036","addr":"경기도 남양주시 화도읍 마석우리 365-6번지 영성주택 102호","indutype":"보건위생 - 피부미용실","category":"beauty"}]},{"lat":"37.658365969","long":"127.30563669","imageIndex":13,"items":[{"name":"네일블라썸","tel":"031-511-5688","addr":"경기도 남양주시 화도읍 마석우리 410-1번지 1층","indutype":"보건위생 - 피부미용실","category":"beauty"},{"name":"은성이발관","tel":"031-516-6252","addr":"경기도 남양주시 화도읍 마석우리 410-1번지 1층 103호 거농마트","indutype":"보건위생 - 이용원","category":"beauty"},{"name":"커틸다헤어살롱","tel":"031-595-1814","addr":"경기도 남양주시 화도읍 마석우리 410-1번지 2층","indutype":"보건위생 - 미용원","category":"beauty"}]},{"lat":"37.657141082","long":"127.30193731","imageIndex":13,"items":[{"name":"네일스토리","tel":"031-511-4125","addr":"경기도 남양주시 화도읍 마석우리 383-1번지 성훈프라자 603호","indutype":"보건위생 - 미용재료","category":"beauty"},{"name":"이니스프리","tel":"031-595-0056","addr":"경기도 남양주시 화도읍 마석우리 383-1번지 정길프라자 1층 103호","indutype":"보건위생 - 화장품","category":"beauty"}]},{"lat":"37.652942852","long":"127.30182982","imageIndex":13,"items":[{"name":"누리","tel":"070-4922-1261","addr":"경기도 남양주시 화도읍 마석우리 338-3번지 누리하우스 401호","indutype":"보건위생 - 화장품","category":"beauty"}]},{"lat":"37.656252231","long":"127.30070984","imageIndex":13,"items":[{"name":"님프헤어살롱","tel":"070-8867-0826","addr":"경기도 남양주시 화도읍 마석우리 557-8번지 1층 일부","indutype":"보건위생 - 미용원","category":"beauty"}]},{"lat":"37.656830291","long":"127.3036926","imageIndex":13,"items":[{"name":"다나스킨케어","tel":"031-559-9887","addr":"경기도 남양주시 화도읍 마석우리 379-9번지 204호","indutype":"보건위생 - 화장품","category":"beauty"}]},{"lat":"37.658895184","long":"127.3030323","imageIndex":13,"items":[{"name":"달맞이뷰티아이","tel":"","addr":"경기도 남양주시 화도읍 마석우리 349번지 중흥에스클래스 103동 101호","indutype":"보건위생 - 화장품","category":"beauty"}]},{"lat":"37.654721619","long":"127.30385408","imageIndex":13,"items":[{"name":"더 메이커스","tel":"070-4141-8485","addr":"경기도 남양주시 화도읍 마석우리 317-7번지 태양빌딩 3층","indutype":"보건위생 - 미용원","category":"beauty"},{"name":"수피부관리실","tel":"031-595-7799","addr":"경기도 남양주시 화도읍 마석우리 317-7번지","indutype":"보건위생 - 피부미용실","category":"beauty"}]},{"lat":"37.661058517","long":"127.30263301","imageIndex":13,"items":[{"name":"더(The) 윤 에스테틱","tel":"031-594-7151","addr":"경기도 남양주시 화도읍 마석우리 474번지 경춘상가 2,3층","indutype":"보건위생 - 피부미용실","category":"beauty"},{"name":"컬러 하우스","tel":"031-593-3733","addr":"경기도 남양주시 화도읍 마석우리 474번지 경춘빌라 상가 2층 2호","indutype":"보건위생 - 화장품","category":"beauty"}]},{"lat":"37.654391936","long":"127.30593786","imageIndex":13,"items":[{"name":"더라인샵(THELINE#)","tel":"","addr":"경기도 남양주시 화도읍 마석우리 297-10번지 1층 1호","indutype":"보건위생 - 화장품","category":"beauty"},{"name":"제이헤어","tel":"031-557-2888","addr":"경기도 남양주시 화도읍 마석우리 297-10번지","indutype":"보건위생 - 미용원","category":"beauty"}]},{"lat":"37.651890882","long":"127.30802407","imageIndex":13,"items":[{"name":"더샘 마석점","tel":"031-511-2767","addr":"경기도 남양주시 화도읍 마석우리 271-7번지","indutype":"보건위생 - 화장품","category":"beauty"}]},{"lat":"37.652506137","long":"127.30701805","imageIndex":13,"items":[{"name":"더페이스샵 마석점","tel":"031-559-1017","addr":"경기도 남양주시 화도읍 마석우리 292-27번지","indutype":"보건위생 - 화장품","category":"beauty"}]},{"lat":"37.660416993","long":"127.30335575","imageIndex":13,"items":[{"name":"델라헤어스튜디오","tel":"031-511-9739","addr":"경기도 남양주시 화도읍 마석우리 442-1번지","indutype":"보건위생 - 미용원","category":"beauty"}]},{"lat":"37.655164501","long":"127.29974226","imageIndex":13,"items":[{"name":"두피탈모클리닉샵","tel":"","addr":"경기도 남양주시 화도읍 마석우리 520-54번지 1층 101호","indutype":"보건위생 - 피부미용실","category":"beauty"}]},{"lat":"37.65536137","long":"127.30027566","imageIndex":13,"items":[{"name":"럭셔리뷰티 화도점","tel":"031-591-8585","addr":"경기도 남양주시 화도읍 마석우리 570-2번지 3층","indutype":"보건위생 - 화장품","category":"beauty"}]},{"lat":"37.652057596","long":"127.30974718","imageIndex":13,"items":[{"name":"로라헤어","tel":"031-559-8380","addr":"경기도 남양주시 화도읍 마석우리 288-7번지 1층 104호","indutype":"보건위생 - 미용원","category":"beauty"}]},{"lat":"37.656948484","long":"127.30327377","imageIndex":13,"items":[{"name":"로얄","tel":"031-591-7006","addr":"경기도 남양주시 화도읍 마석우리 383-8번지 별나라타워 402호","indutype":"보건위생 - 미용재료","category":"beauty"},{"name":"마임남양주마석","tel":"031-593-9980","addr":"경기도 남양주시 화도읍 마석우리 383-8번지 별나라타워 402호","indutype":"보건위생 - 화장품","category":"beauty"},{"name":"별나라화장품","tel":"031-559-5722","addr":"경기도 남양주시 화도읍 마석우리 383-8번지 별나라타워 1층 109호","indutype":"보건위생 - 화장품","category":"beauty"},{"name":"블루클럽마석점","tel":"031-511-3224","addr":"경기도 남양주시 화도읍 마석우리 383-8번지 별나라타워 108호","indutype":"보건위생 - 미용원","category":"beauty"},{"name":"오사레","tel":"031-593-9216","addr":"경기도 남양주시 화도읍 마석우리 383-8번지 별나라타워 204호","indutype":"보건위생 - 미용원","category":"beauty"}]},{"lat":"37.65436125","long":"127.30029434","imageIndex":13,"items":[{"name":"로얄모두팜","tel":"","addr":"경기도 남양주시 화도읍 마석우리 577-4번지 비젼빌 1호","indutype":"보건위생 - 의료용품","category":"beauty"}]},{"lat":"37.652922734","long":"127.30265697","imageIndex":13,"items":[{"name":"로얄헤어","tel":"02-0000-0000","addr":"경기도 남양주시 화도읍 마석우리 336-3번지 1층","indutype":"보건위생 - 미용원","category":"beauty"}]},{"lat":"37.656225522","long":"127.30413213","imageIndex":13,"items":[{"name":"마녀헤어","tel":"031-000-1111","addr":"경기도 남양주시 화도읍 마석우리 324-17번지 1층","indutype":"보건위생 - 미용원","category":"beauty"},{"name":"진헤어클럽","tel":"031-593-4688","addr":"경기도 남양주시 화도읍 마석우리 324-17","indutype":"보건위생 - 미용원","category":"beauty"},{"name":"콩네일","tel":"031-559-3963","addr":"경기도 남양주시 화도읍 마석우리 324-17번지","indutype":"보건위생 - 피부미용실","category":"beauty"}]},{"lat":"37.650283713","long":"127.30935461","imageIndex":13,"items":[{"name":"마석롯데마트 미샤점","tel":"031-559-0521","addr":"경기도 남양주시 화도읍 마석우리 255-24번지 107호","indutype":"보건위생 - 화장품","category":"beauty"},{"name":"시호비전남양주마석점","tel":"031-511-6514","addr":"경기도 남양주시 화도읍 마석우리 255-7 롯데마트마석점지상1층","indutype":"보건위생 - 안경","category":"beauty"}]},{"lat":"37.65691429","long":"127.30254836","imageIndex":13,"items":[{"name":"마석아동발달센터","tel":"031-591-7117","addr":"경기도 남양주시 화도읍 마석우리 392-4번지 주립빌딩 3층","indutype":"보건위생 - 기타대인서비스","category":"beauty"},{"name":"어우림","tel":"031-593-2468","addr":"경기도 남양주시 화도읍 마석우리 392-4번지 마석주립빌딩 지하 1호","indutype":"보건위생 - 의료용품","category":"beauty"},{"name":"휴테라피코스메틱","tel":"031-511-1107","addr":"경기도 남양주시 화도읍 마석우리 392-4번지 2층 마석주립빌딩","indutype":"보건위생 - 화장품","category":"beauty"}]},{"lat":"37.657309933","long":"127.30285593","imageIndex":13,"items":[{"name":"마음길 심리상담센터","tel":"031-511-3389","addr":"경기도 남양주시 화도읍 마석우리 383-5번지 메디칼프라자 507호","indutype":"보건위생 - 기타대인서비스","category":"beauty"},{"name":"명성원 바른자세","tel":"031-594-0069","addr":"경기도 남양주시 화도읍 마석우리 383-5번지 메디칼프라자 3층 302호","indutype":"보건위생 - 기타대인서비스","category":"beauty"},{"name":"블랙아이","tel":"031-592-1231","addr":"경기도 남양주시 화도읍 마석우리 383-5번지 메디칼프라자 302호","indutype":"보건위생 - 미용재료","category":"beauty"},{"name":"아로니스","tel":"031-594-2029","addr":"경기도 남양주시 화도읍 마석우리 383-5번지 메디칼프라자 206호","indutype":"보건위생 - 화장품","category":"beauty"}]},{"lat":"37.658143611","long":"127.30096672","imageIndex":13,"items":[{"name":"맨투맨","tel":"031-591-4874","addr":"경기도 남양주시 화도읍 마석우리 541-3번지 로망스빌 1층 102호","indutype":"보건위생 - 미용원","category":"beauty"}]},{"lat":"37.656140374","long":"127.30571832","imageIndex":13,"items":[{"name":"머리나라 미용실","tel":"031-594-8060","addr":"경기도 남양주시 화도읍 마석우리 299-10번지 우리빌딩 401호 일부","indutype":"보건위생 - 미용원","category":"beauty"},{"name":"머리나라 미용재료","tel":"031-594-8060","addr":"경기도 남양주시 화도읍 마석우리 299-10번지 4층 402호","indutype":"보건위생 - 화장품","category":"beauty"},{"name":"머리나라(본점)","tel":"031-594-8060","addr":"경기도 남양주시 화도읍 마석우리 299-10번지 402동","indutype":"보건위생 - 미용원","category":"beauty"},{"name":"헤어샵","tel":"031-511-0466","addr":"경기도 남양주시 화도읍 마석우리 299-10번지 104호","indutype":"보건위생 - 미용원","category":"beauty"}]},{"lat":"37.657944466","long":"127.30487569","imageIndex":13,"items":[{"name":"모스트헤어","tel":"031-592-0813","addr":"경기도 남양주시 화도읍 마석우리 360-6번지 3층","indutype":"보건위생 - 미용원","category":"beauty"}]},{"lat":"37.653335455","long":"127.30685146","imageIndex":13,"items":[{"name":"미건의료기마석지점","tel":"031-559-7589","addr":"경기도 남양주시 화도읍 마석우리 220-18번지 5층","indutype":"보건위생 - 의료용품","category":"beauty"}]},{"lat":"37.656226795","long":"127.3036335","imageIndex":13,"items":[{"name":"미녀공방","tel":"031-511-9960","addr":"경기도 남양주시 화도읍 마석우리 379-14번지 모던빌 1층","indutype":"보건위생 - 미용원","category":"beauty"}]},{"lat":"37.657218915","long":"127.3032182","imageIndex":13,"items":[{"name":"보떼 마석점","tel":"031-511-1738","addr":"경기도 남양주시 화도읍 마석우리 383-6번지 중흥프라자 109호","indutype":"보건위생 - 화장품","category":"beauty"},{"name":"찰리경헤어콜렉션","tel":"031-593-7848","addr":"경기도 남양주시 화도읍 마석우리 383-6번지 중흥프라자 201호","indutype":"보건위생 - 미용원","category":"beauty"}]},{"lat":"37.651783412","long":"127.30777433","imageIndex":13,"items":[{"name":"보리미용실","tel":"031-593-3577","addr":"경기도 남양주시 화도읍 마석우리 272-5번지","indutype":"보건위생 - 미용원","category":"beauty"}]},{"lat":"37.653619874","long":"127.30485818","imageIndex":13,"items":[{"name":"뷰티웨이","tel":"070-4800-1350","addr":"경기도 남양주시 화도읍 마석우리 315-35번지 도신빌라 바동 403호","indutype":"보건위생 - 화장품","category":"beauty"}]},{"lat":"37.658025283","long":"127.30144222","imageIndex":13,"items":[{"name":"뷰티풀아이","tel":"031-591-2249","addr":"경기도 남양주시 화도읍 마석우리 541-5번지 (지층2호)","indutype":"보건위생 - 기타대인서비스","category":"beauty"}]},{"lat":"37.655143158","long":"127.30460371","imageIndex":13,"items":[{"name":"뷰티플러스","tel":"","addr":"경기도 남양주시 화도읍 마석우리 320-4번지 나은그댄드빌라 나동 42호","indutype":"보건위생 - 화장품","category":"beauty"}]},{"lat":"37.654193376","long":"127.30607304","imageIndex":13,"items":[{"name":"블루라인","tel":"031-593-9110","addr":"경기도 남양주시 화도읍 마석우리 297-5번지","indutype":"보건위생 - 미용원","category":"beauty"}]},{"lat":"37.660831577","long":"127.30330075","imageIndex":13,"items":[{"name":"비비","tel":"031-595-6800","addr":"경기도 남양주시 화도읍 마석우리 444-1번지 1층 4호","indutype":"보건위생 - 피부미용실","category":"beauty"},{"name":"헤어카페","tel":"031-511-1236","addr":"경기도 남양주시 화도읍 마석우리 444-1번지 101호","indutype":"보건위생 - 미용원","category":"beauty"}]},{"lat":"37.655441913","long":"127.30049129","imageIndex":13,"items":[{"name":"살롱드아셀","tel":"031-511-8021","addr":"경기도 남양주시 화도읍 마석우리 570-4번지 2,3층","indutype":"보건위생 - 미용원","category":"beauty"},{"name":"아셀앤네일","tel":"031-511-8021","addr":"경기도 남양주시 화도읍 마석우리 570-4번지 3층","indutype":"보건위생 - 피부미용실","category":"beauty"}]},{"lat":"37.65675036","long":"127.30323898","imageIndex":13,"items":[{"name":"서연헤어살롱","tel":"070-8286-3963","addr":"경기도 남양주시 화도읍 마석우리 383-9번지 별나라프라자 203호","indutype":"보건위생 - 미용원","category":"beauty"}]},{"lat":"37.658358616","long":"127.3049907","imageIndex":13,"items":[{"name":"세희샵","tel":"031-592-4078","addr":"경기도 남양주시 화도읍 마석우리 360-1번지","indutype":"보건위생 - 화장품","category":"beauty"},{"name":"씨엘헤어","tel":"","addr":"경기도 남양주시 화도읍 마석우리 360-1번지 1층","indutype":"보건위생 - 미용원","category":"beauty"}]},{"lat":"37.654003156","long":"127.30646889","imageIndex":13,"items":[{"name":"센스미용실","tel":"031-593-1754","addr":"경기도 남양주시 화도읍 마석우리 220-1번지","indutype":"보건위생 - 미용원","category":"beauty"}]},{"lat":"37.659449788","long":"127.30459847","imageIndex":13,"items":[{"name":"수인건강","tel":"","addr":"경기도 남양주시 화도읍 마석우리 384-8번지 202호","indutype":"보건위생 - 기타대인서비스","category":"beauty"}]},{"lat":"37.658889977","long":"127.30507218","imageIndex":13,"items":[{"name":"스위트sweet 슈가링","tel":"","addr":"경기도 남양주시 화도읍 마석우리 415-5번지 2층 일부","indutype":"보건위생 - 피부미용실","category":"beauty"}]},{"lat":"37.65905386","long":"127.30440421","imageIndex":13,"items":[{"name":"신데렐라만들기","tel":"031-595-7847","addr":"경기도 남양주시 화도읍 마석우리 357-2번지 코스모스빌딩 1층 102호 상가좌측","indutype":"보건위생 - 피부미용실","category":"beauty"}]},{"lat":"37.652083121","long":"127.31032521","imageIndex":13,"items":[{"name":"써니헤어","tel":"","addr":"경기도 남양주시 화도읍 마석우리 286-4번지 1층 일부","indutype":"보건위생 - 미용원","category":"beauty"},{"name":"제이디메디칼","tel":"031-593-3800","addr":"경기도 남양주시 화도읍 마석우리 286-4번지 4층","indutype":"보건위생 - 의료용품","category":"beauty"},{"name":"탑화장품","tel":"031-8894-4271","addr":"경기도 남양주시 화도읍 마석우리 286-4번지","indutype":"보건위생 - 화장품","category":"beauty"}]},{"lat":"37.655946163","long":"127.30060663","imageIndex":13,"items":[{"name":"아르보떼","tel":"031-594-5160","addr":"경기도 남양주시 화도읍 마석우리 564-2번지 데미안파크 101호","indutype":"보건위생 - 미용원","category":"beauty"}]},{"lat":"37.659611438","long":"127.30480312","imageIndex":13,"items":[{"name":"아마빌레33","tel":"031-593-3898","addr":"경기도 남양주시 화도읍 마석우리 388-2번지 지산파크빌 102동 101호","indutype":"보건위생 - 미용원","category":"beauty"}]},{"lat":"37.657914093","long":"127.30265437","imageIndex":13,"items":[{"name":"아모레 카운셀러","tel":"031-593-3292","addr":"경기도 남양주시 화도읍 마석우리 349번지 중흥에스클래스 101동 501호","indutype":"보건위생 - 화장품","category":"beauty"}]},{"lat":"37.657691182","long":"127.30527131","imageIndex":13,"items":[{"name":"아모레 카운셀러","tel":"031-593-3292","addr":"경기도 남양주시 화도읍 마석우리 363-4번지 대영빌딩 4층","indutype":"보건위생 - 화장품","category":"beauty"},{"name":"아모레카운셀러","tel":"031-593-3292","addr":"경기도 남양주시 화도읍 마석우리 363-4번지 대영빌딩 4층","indutype":"보건위생 - 화장품","category":"beauty"},{"name":"아모레퍼시픽 화도특약점","tel":"031-593-3292","addr":"경기도 남양주시 화도읍 마석우리 363-4번지 대영빌딩 4층","indutype":"보건위생 - 화장품","category":"beauty"}]},{"lat":"37.654221191","long":"127.30576718","imageIndex":13,"items":[{"name":"아모레방판","tel":"031-593-3292","addr":"경기도 남양주시 화도읍 마석우리 295-15번지 성지빌딩 5층 502호","indutype":"보건위생 - 화장품","category":"beauty"},{"name":"아모레카운셀러","tel":"031-593-3292","addr":"경기도 남양주시 화도읍 마석우리 295-15번지 성지빌딩 502호","indutype":"보건위생 - 화장품","category":"beauty"},{"name":"아모레카운셀러","tel":"031-593-3292","addr":"경기도 남양주시 화도읍 마석우리 295-15번지 성지빌딩 502호","indutype":"보건위생 - 화장품","category":"beauty"},{"name":"아모레카운셀러","tel":"031-593-3292","addr":"경기도 남양주시 화도읍 마석우리 295-15번지 성지빌딩 502호","indutype":"보건위생 - 화장품","category":"beauty"},{"name":"아모레카운셀러","tel":"031-593-3292","addr":"경기도 남양주시 화도읍 마석우리 295-15번지 성지빌딩 502호","indutype":"보건위생 - 화장품","category":"beauty"},{"name":"오땡큐","tel":"031-559-6565","addr":"경기도 남양주시 화도읍 마석우리 295-15번지 성지빌딩 1층 102호","indutype":"보건위생 - 미용재료","category":"beauty"},{"name":"은언니머리방","tel":"031-516-5090","addr":"경기도 남양주시 화도읍 마석우리 295-15번지 성지빌딩 1층","indutype":"보건위생 - 미용원","category":"beauty"}]},{"lat":"37.651388804","long":"127.30707016","imageIndex":13,"items":[{"name":"아모레방판","tel":"031-593-3292","addr":"경기도 남양주시 화도읍 마석우리 265-10번지 송림빌딩 5층","indutype":"보건위생 - 화장품","category":"beauty"},{"name":"아모레카운셀러","tel":"031-593-3292","addr":"경기도 남양주시 화도읍 마석우리 265-10번지 송림빌딩 5층","indutype":"보건위생 - 화장품","category":"beauty"},{"name":"아모레카운셀러","tel":"031-593-3292","addr":"경기도 남양주시 화도읍 마석우리 265-10번지 송림빌딩 5층","indutype":"보건위생 - 화장품","category":"beauty"},{"name":"아모레카운셀러","tel":"031-593-3292","addr":"경기도 남양주시 화도읍 마석우리 265-10번지 송림빌딩 5층","indutype":"보건위생 - 화장품","category":"beauty"},{"name":"아모레카운셀러","tel":"031-593-3292","addr":"경기도 남양주시 화도읍 마석우리 265-10번지 5층 송림빌딩","indutype":"보건위생 - 화장품","category":"beauty"},{"name":"아모레카운셀러","tel":"031-593-3292","addr":"경기도 남양주시 화도읍 마석우리 265-10번지","indutype":"보건위생 - 화장품","category":"beauty"},{"name":"아모레카운셀러","tel":"031-593-3292","addr":"경기도 남양주시 화도읍 마석우리 265-10번지 5층 송림빌딩","indutype":"보건위생 - 화장품","category":"beauty"},{"name":"아모레카운셀러","tel":"031-593-3292","addr":"경기도 남양주시 화도읍 마석우리 265-10번지 송림빌딩 5층","indutype":"보건위생 - 화장품","category":"beauty"}]},{"lat":"37.651361629","long":"127.3071267","imageIndex":13,"items":[{"name":"아모레카운셀러","tel":"031-591-6479","addr":"경기도 남양주시 화도읍 마석우리 265-3 송림B/D 5층","indutype":"보건위생 - 화장품","category":"beauty"},{"name":"아모레카운셀러","tel":"031-593-3292","addr":"경기도 남양주시 화도읍 마석우리 265-3 송림빌딩5층","indutype":"보건위생 - 화장품","category":"beauty"},{"name":"아모레카운셀러","tel":"031-593-3292","addr":"경기도 남양주시 화도읍 마석우리 265-3 송림빌딩 5층","indutype":"보건위생 - 화장품","category":"beauty"}]},{"lat":"37.654001838","long":"127.29990761","imageIndex":13,"items":[{"name":"아모레카운셀러","tel":"031-593-3292","addr":"경기도 남양주시 화도읍 마석우리 525-5번지 포스빌하우스 101동 401호","indutype":"보건위생 - 화장품","category":"beauty"}]},{"lat":"37.659059589","long":"127.30568484","imageIndex":13,"items":[{"name":"아모레카운셀러","tel":"031-593-3292","addr":"경기도 남양주시 화도읍 마석우리 423-7번지 101동 402호","indutype":"보건위생 - 화장품","category":"beauty"}]},{"lat":"37.656026472","long":"127.30445996","imageIndex":13,"items":[{"name":"아모레카운셀러","tel":"","addr":"경기도 남양주시 화도읍 마석우리 324-34번지 우성주택 1동 201호","indutype":"보건위생 - 화장품","category":"beauty"}]},{"lat":"37.658664447","long":"127.3051846","imageIndex":13,"items":[{"name":"아우라","tel":"031-593-7023","addr":"경기도 남양주시 화도읍 마석우리 416-1번지 지하1층","indutype":"보건위생 - 미용원","category":"beauty"}]},{"lat":"37.655446347","long":"127.30582882","imageIndex":13,"items":[{"name":"안경기업 비전센터","tel":"031-591-9010","addr":"경기도 남양주시 화도읍 마석우리 298-12번지 101,102호","indutype":"보건위생 - 안경","category":"beauty"}]},{"lat":"37.655833631","long":"127.30235136","imageIndex":13,"items":[{"name":"야후맨스클럽","tel":"031-595-9475","addr":"경기도 남양주시 화도읍 마석우리 396번지 105호 중흥에스클레스상가 남성컷전문점","indutype":"보건위생 - 미용원","category":"beauty"}]},{"lat":"37.657726145","long":"127.30569076","imageIndex":13,"items":[{"name":"에이치스파(H.SPA)","tel":"031-511-1245","addr":"경기도 남양주시 화도읍 마석우리 404-10번지 루비빌딩 1층 103호","indutype":"보건위생 - 피부미용실","category":"beauty"},{"name":"혜당메디칼","tel":"031-235-7455","addr":"경기도 남양주시 화도읍 마석우리 404-10번지 4층","indutype":"보건위생 - 의료용품","category":"beauty"}]},{"lat":"37.654778649","long":"127.3062114","imageIndex":13,"items":[{"name":"연서컷트","tel":"031-593-6767","addr":"경기도 남양주시 화도읍 마석우리 297-20번지","indutype":"보건위생 - 미용원","category":"beauty"}]},{"lat":"37.651836414","long":"127.30818249","imageIndex":13,"items":[{"name":"우리미용상사","tel":"031-594-3358","addr":"경기도 남양주시 화도읍 마석우리 271-4번지 메디닥터빌딩 1층","indutype":"보건위생 - 미용재료","category":"beauty"}]},{"lat":"37.654610002","long":"127.29810822","imageIndex":13,"items":[{"name":"유진헤어","tel":"031-593-0502","addr":"경기도 남양주시 화도읍 마석우리 600번지 마석힐즈파크푸르지오 105호","indutype":"보건위생 - 미용원","category":"beauty"}]},{"lat":"37.653722925","long":"127.30683037","imageIndex":13,"items":[{"name":"윤스","tel":"031-592-7354","addr":"경기도 남양주시 화도읍 마석우리 220-10번지 104호","indutype":"보건위생 - 화장품","category":"beauty"}]},{"lat":"37.656720242","long":"127.30090437","imageIndex":13,"items":[{"name":"윤헤어","tel":"031-559-5977","addr":"경기도 남양주시 화도읍 마석우리 557-4번지 1층 101호 상가 (명성빌)","indutype":"보건위생 - 미용원","category":"beauty"}]},{"lat":"37.656781129","long":"127.30530162","imageIndex":13,"items":[{"name":"이네일(e-nail)","tel":"031-577-5505","addr":"경기도 남양주시 화도읍 마석우리 365-2번지 옥동빌 301호","indutype":"보건위생 - 미용재료","category":"beauty"}]},{"lat":"37.652442719","long":"127.30715378","imageIndex":13,"items":[{"name":"이니스프리 마석점","tel":"031-593-3018","addr":"경기도 남양주시 화도읍 마석우리 292-26번지","indutype":"보건위생 - 화장품","category":"beauty"}]},{"lat":"37.654753173","long":"127.30207505","imageIndex":13,"items":[{"name":"이영경헤어샵","tel":"031-595-7623","addr":"경기도 남양주시 화도읍 마석우리 588번지 유일프라자 103호","indutype":"보건위생 - 미용원","category":"beauty"}]},{"lat":"37.658698567","long":"127.3059327","imageIndex":13,"items":[{"name":"임주희헤어리더","tel":"031-591-3345","addr":"경기도 남양주시 화도읍 마석우리 411-7번지 일부 301동 101호","indutype":"보건위생 - 미용원","category":"beauty"}]},{"lat":"37.657333931","long":"127.30404594","imageIndex":13,"items":[{"name":"정흥교헤어샵","tel":"031-594-0026","addr":"경기도 남양주시 화도읍 마석우리 379-3번지 송정빌","indutype":"보건위생 - 이용원","category":"beauty"}]},{"lat":"37.658252727","long":"127.30057051","imageIndex":13,"items":[{"name":"제니헤어","tel":"031-595-0245","addr":"경기도 남양주시 화도읍 마석우리 541-1번지","indutype":"보건위생 - 미용원","category":"beauty"}]},{"lat":"37.65696898","long":"127.30229926","imageIndex":13,"items":[{"name":"제이드","tel":"031-593-1400","addr":"경기도 남양주시 화도읍 마석우리 392-5번지 신명프라자 201호","indutype":"보건위생 - 미용원","category":"beauty"}]},{"lat":"37.653364221","long":"127.31310682","imageIndex":13,"items":[{"name":"제이로스컴퍼니","tel":"070-7565-7526","addr":"경기도 남양주시 화도읍 마석우리 128-23번지","indutype":"보건위생 - 화장품","category":"beauty"}]},{"lat":"37.657414235","long":"127.30435225","imageIndex":13,"items":[{"name":"조이헤어","tel":"","addr":"경기도 남양주시 화도읍 마석우리 379-1번지 1층","indutype":"보건위생 - 미용원","category":"beauty"}]},{"lat":"37.654971483","long":"127.30479566","imageIndex":13,"items":[{"name":"지니스킨케어","tel":"","addr":"경기도 남양주시 화도읍 마석우리 306-77번지 1동 3층","indutype":"보건위생 - 피부미용실","category":"beauty"}]},{"lat":"37.65744712","long":"127.30205186","imageIndex":13,"items":[{"name":"청담화장품","tel":"02-596-1933","addr":"경기도 남양주시 화도읍 마석우리 383-2번지 중앙프라자 503호","indutype":"보건위생 - 화장품","category":"beauty"},{"name":"희헤어","tel":"031-559-3999","addr":"경기도 남양주시 화도읍 마석우리 383-2번지 중앙프라자 203호","indutype":"보건위생 - 미용원","category":"beauty"}]},{"lat":"37.659532698","long":"127.30388483","imageIndex":13,"items":[{"name":"큐러브샵","tel":"031-511-3227","addr":"경기도 남양주시 화도읍 마석우리 353-8번지 핑크빌 102호","indutype":"보건위생 - 화장품","category":"beauty"}]},{"lat":"37.660304913","long":"127.30490792","imageIndex":13,"items":[{"name":"태경이네 미용실","tel":"","addr":"경기도 남양주시 화도읍 마석우리 436-10번지 지산파크빌 105동 101호","indutype":"보건위생 - 미용원","category":"beauty"}]},{"lat":"37.651755225","long":"127.31168366","imageIndex":13,"items":[{"name":"투에이치안경","tel":"031-511-8415","addr":"경기도 남양주시 화도읍 마석우리 249-2번지 102호","indutype":"보건위생 - 안경","category":"beauty"}]},{"lat":"37.658972484","long":"127.30451721","imageIndex":13,"items":[{"name":"티라헤어","tel":"070-4807-2323","addr":"경기도 남양주시 화도읍 마석우리 357-3번지 1층 일부","indutype":"보건위생 - 미용원","category":"beauty"}]},{"lat":"37.65711299","long":"127.3023565","imageIndex":13,"items":[{"name":"피어스트","tel":"","addr":"경기도 남양주시 화도읍 마석우리 392-1번지 별나라타운 401호","indutype":"보건위생 - 화장품","category":"beauty"}]},{"lat":"37.656888546","long":"127.30557403","imageIndex":13,"items":[{"name":"필팻","tel":"031-559-2001","addr":"경기도 남양주시 화도읍 마석우리 366-2번지 동광그린빌 103호","indutype":"보건위생 - 의료용품","category":"beauty"}]},{"lat":"37.658340163","long":"127.29804366","imageIndex":13,"items":[{"name":"한울솔","tel":"","addr":"경기도 남양주시 화도읍 마석우리 552번지 보미청광플러스원 112동 1201호","indutype":"보건위생 - 기타대인서비스","category":"beauty"}]},{"lat":"37.654503595","long":"127.30455579","imageIndex":13,"items":[{"name":"해방촌 이발관","tel":"","addr":"경기도 남양주시 화도읍 마석우리 315-14번지 두원빌라 가동 101호","indutype":"보건위생 - 이용원","category":"beauty"}]},{"lat":"37.65574921","long":"127.30010722","imageIndex":13,"items":[{"name":"헤어제이유","tel":"02-123-1015","addr":"경기도 남양주시 화도읍 마석우리 565-6번지 1층","indutype":"보건위생 - 미용원","category":"beauty"}]},{"lat":"37.654114791","long":"127.30509816","imageIndex":13,"items":[{"name":"현대미용실","tel":"","addr":"경기도 남양주시 화도읍 마석우리 305-16번지 1층 일부호","indutype":"보건위생 - 미용원","category":"beauty"}]},{"lat":"37.651945467","long":"127.30782032","imageIndex":13,"items":[{"name":"황실마사지","tel":"031-559-4568","addr":"경기도 남양주시 화도읍 마석우리 271-8번지 2층","indutype":"보건위생 - 미용재료","category":"beauty"}]},{"lat":"37.663087473","long":"127.3054632","imageIndex":13,"items":[{"name":"흑기사","tel":"","addr":"경기도 남양주시 화도읍 마석우리 462-8번지 우리가 104동 402호","indutype":"보건위생 - 기타대인서비스","category":"beauty"}]}]