[{"lat":"38.059979828","long":"127.38742045","imageIndex":5,"items":[{"name":"HJ글램핑","tel":"070-7643-1911","addr":"경기도 포천시 이동면 도평리 105-1번지","indutype":"숙박업 - 여관/기타숙박업","category":"hotel"}]},{"lat":"38.100113025","long":"127.39344496","imageIndex":5,"items":[{"name":"각흘계곡캠핑장","tel":"031-532-4381","addr":"경기도 포천시 이동면 도평리 산18-1번지","indutype":"숙박업 - 여관/기타숙박업","category":"hotel"}]},{"lat":"38.067898579","long":"127.38747329","imageIndex":5,"items":[{"name":"넓은마당 캠핑장","tel":"031-535-9107","addr":"경기도 포천시 이동면 도평리 469-8번지","indutype":"숙박업 - 여관/기타숙박업","category":"hotel"}]},{"lat":"38.061261917","long":"127.38656117","imageIndex":5,"items":[{"name":"도리돌캠핑장","tel":"","addr":"경기도 포천시 이동면 도평리 110-5번지","indutype":"숙박업 - 여관/기타숙박업","category":"hotel"}]},{"lat":"38.059758514","long":"127.38622288","imageIndex":5,"items":[{"name":"로얄파크","tel":"031-536-7676","addr":"경기도 포천시 이동면 도평리 156-1번지","indutype":"숙박업 - 여관/기타숙박업","category":"hotel"}]},{"lat":"38.051179873","long":"127.38408183","imageIndex":5,"items":[{"name":"백운계곡캠핑장","tel":"031-536-0536","addr":"경기도 포천시 이동면 도평리 271-3번지","indutype":"숙박업 - 여관/기타숙박업","category":"hotel"}]},{"lat":"38.057033647","long":"127.38472746","imageIndex":5,"items":[{"name":"백운모텔","tel":"070-8953-2580","addr":"경기도 포천시 이동면 도평리 169번지","indutype":"숙박업 - 여관/기타숙박업","category":"hotel"},{"name":"백운모텔","tel":"070-8953-2580","addr":"경기도 포천시 이동면 도평리 169번지","indutype":"숙박업 - 여관/기타숙박업","category":"hotel"},{"name":"백운모텔","tel":"070-8953-2580","addr":"경기도 포천시 이동면 도평리 169번지","indutype":"숙박업 - 여관/기타숙박업","category":"hotel"}]},{"lat":"38.063535232","long":"127.38838483","imageIndex":5,"items":[{"name":"소나무숲","tel":"","addr":"경기도 포천시 이동면 도평리 720번지","indutype":"숙박업 - 한식","category":"hotel"}]},{"lat":"38.04823519","long":"127.37808547","imageIndex":5,"items":[{"name":"여울민박","tel":"031-000-0000","addr":"경기도 포천시 이동면 도평리 330-2번지","indutype":"숙박업 - 여관/기타숙박업","category":"hotel"}]},{"lat":"38.088534123","long":"127.39144556","imageIndex":5,"items":[{"name":"우리캠핑장","tel":"031-535-7614","addr":"경기도 포천시 이동면 도평리 540-1번지","indutype":"숙박업 - 여관/기타숙박업","category":"hotel"}]},{"lat":"38.067845352","long":"127.39269219","imageIndex":5,"items":[{"name":"유포리아펜션모텔","tel":"031-535-7510","addr":"경기도 포천시 이동면 도평리 64-2번지","indutype":"숙박업 - 여관/기타숙박업","category":"hotel"}]},{"lat":"38.081814614","long":"127.41232487","imageIndex":5,"items":[{"name":"이모네민박","tel":"535-8059","addr":"경기도 포천시 이동면 도평리 산75번지","indutype":"숙박업 - 민박","category":"hotel"}]},{"lat":"38.049730697","long":"127.38089573","imageIndex":5,"items":[{"name":"조선비치","tel":"031-536-4075","addr":"경기도 포천시 이동면 도평리 281-12","indutype":"숙박업 - 여관/기타숙박업","category":"hotel"}]},{"lat":"38.083620008","long":"127.3899948","imageIndex":5,"items":[{"name":"주노글램핑","tel":"031-533-5966","addr":"경기도 포천시 이동면 도평리 521번지","indutype":"숙박업 - 여관/기타숙박업","category":"hotel"},{"name":"주노글램핑","tel":"031-533-5966","addr":"경기도 포천시 이동면 도평리 521번지","indutype":"숙박업 - 여관/기타숙박업","category":"hotel"}]},{"lat":"38.065116336","long":"127.38974915","imageIndex":5,"items":[{"name":"채움관광농원","tel":"","addr":"경기도 포천시 이동면 도평리 94번지 1층 (95,96,97)","indutype":"숙박업 - 여관/기타숙박업","category":"hotel"}]},{"lat":"38.110643569","long":"127.39642","imageIndex":5,"items":[{"name":"키즈글램핑GEO","tel":"031-535-4155","addr":"경기도 포천시 이동면 도평리 585-6번지","indutype":"숙박업 - 여관/기타숙박업","category":"hotel"}]},{"lat":"38.090868084","long":"127.39125273","imageIndex":5,"items":[{"name":"포천계곡캠핑장","tel":"031-536-5880","addr":"경기도 포천시 이동면 도평리 542-1번지","indutype":"숙박업 - 여관/기타숙박업","category":"hotel"}]},{"lat":"38.098390942","long":"127.39385761","imageIndex":5,"items":[{"name":"하얀집","tel":"070-4159-8180","addr":"경기도 포천시 이동면 도평리 548번지","indutype":"숙박업 - 여관/기타숙박업","category":"hotel"}]},{"lat":"38.072396603","long":"127.38669909","imageIndex":5,"items":[{"name":"해찬여울청소년수련원(주)","tel":"031-535-6653","addr":"경기도 포천시 이동면 도평리 483-5번지","indutype":"숙박업 - 여관/기타숙박업","category":"hotel"}]},{"lat":"38.066062453","long":"127.38969715","imageIndex":5,"items":[{"name":"휘닉스모텔","tel":"031-531-6700","addr":"경기도 포천시 이동면 도평리 84-9번지","indutype":"숙박업 - 여관/기타숙박업","category":"hotel"}]},{"lat":"38.07828077","long":"127.38905487","imageIndex":5,"items":[{"name":"휴랜드관광농원","tel":"031-536-0600","addr":"경기도 포천시 이동면 도평리 509-1번지","indutype":"숙박업 - 여관/기타숙박업","category":"hotel"}]}]