[{"lat":"37.295706711","long":"127.00841954","imageIndex":7,"items":[{"name":"(주)송상유통","tel":"031-241-2384","addr":"경기도 수원시 장안구 송죽동 389-42번지 43,58,59","indutype":"유통업 영리 - 슈퍼마켓","category":"mart"}]},{"lat":"37.303734947","long":"127.00488969","imageIndex":7,"items":[{"name":"OKMART편의점","tel":"031-245-0151","addr":"경기도 수원시 장안구 송죽동 495-13번지","indutype":"유통업 영리 - 슈퍼마켓","category":"mart"}]},{"lat":"37.297761174","long":"127.00359251","imageIndex":7,"items":[{"name":"경인공판장","tel":"031-243-8929","addr":"경기도 수원시 장안구 송죽동 374-31번지","indutype":"유통업 영리 - 슈퍼마켓","category":"mart"}]},{"lat":"37.302320357","long":"127.0029722","imageIndex":7,"items":[{"name":"공원편의방","tel":"031-244-6866","addr":"경기도 수원시 장안구 송죽동 456-13번지","indutype":"유통업 영리 - 슈퍼마켓","category":"mart"}]},{"lat":"37.303761995","long":"127.00281429","imageIndex":7,"items":[{"name":"그린마트","tel":"031-252-0400","addr":"경기도 수원시 장안구 송죽동 454번지 1층","indutype":"유통업 영리 - 슈퍼마켓","category":"mart"}]},{"lat":"37.307618371","long":"127.00350237","imageIndex":7,"items":[{"name":"나들e마트","tel":"031-256-5949","addr":"경기도 수원시 장안구 송죽동 130번지","indutype":"유통업 영리 - 슈퍼마켓","category":"mart"}]},{"lat":"37.298094524","long":"127.00558881","imageIndex":7,"items":[{"name":"대박할인마트","tel":"031-257-7911","addr":"경기도 수원시 장안구 송죽동 379-5번지","indutype":"유통업 영리 - 슈퍼마켓","category":"mart"}]},{"lat":"37.304095366","long":"127.00161868","imageIndex":7,"items":[{"name":"대성슈퍼","tel":"031-242-6250","addr":"경기도 수원시 장안구 송죽동 449-17번지 월드빌 104호","indutype":"유통업 영리 - 슈퍼마켓","category":"mart"}]},{"lat":"37.301202978","long":"127.00798006","imageIndex":7,"items":[{"name":"모닝마트","tel":"031-247-0301","addr":"경기도 수원시 장안구 송죽동 500-34번지 102호","indutype":"유통업 영리 - 슈퍼마켓","category":"mart"}]},{"lat":"37.299148688","long":"127.00680694","imageIndex":7,"items":[{"name":"썬마트송죽점","tel":"031-245-8980","addr":"경기도 수원시 장안구 송죽동 503-16번지 월드타워 105호","indutype":"유통업 영리 - 슈퍼마켓","category":"mart"}]},{"lat":"37.304401673","long":"126.99953197","imageIndex":7,"items":[{"name":"지영마트","tel":"031-252-8651","addr":"경기도 수원시 장안구 송죽동 442-24번지","indutype":"유통업 영리 - 슈퍼마켓","category":"mart"}]},{"lat":"37.305924449","long":"127.00245334","imageIndex":7,"items":[{"name":"코사마트","tel":"031-252-9857","addr":"경기도 수원시 장안구 송죽동 216-1번지","indutype":"유통업 영리 - 슈퍼마켓","category":"mart"}]},{"lat":"37.305041427","long":"127.00069374","imageIndex":7,"items":[{"name":"하이플러스마트","tel":"031-241-0535","addr":"경기도 수원시 장안구 송죽동 444번지","indutype":"유통업 영리 - 슈퍼마켓","category":"mart"}]},{"lat":"37.300707434","long":"127.00752888","imageIndex":7,"items":[{"name":"한일슈퍼","tel":"031-245-8946","addr":"경기도 수원시 장안구 송죽동 501-13번지 옥경빌딩 1층 4호","indutype":"유통업 영리 - 슈퍼마켓","category":"mart"}]},{"lat":"37.30217618","long":"127.00469791","imageIndex":7,"items":[{"name":"현대마트","tel":"031-258-5845","addr":"경기도 수원시 장안구 송죽동 459-32번지","indutype":"유통업 영리 - 슈퍼마켓","category":"mart"}]}]