[{"lat":"37.29367939","long":"126.84279301","imageIndex":7,"items":[{"name":"(유)금강주류","tel":"031-418-5033","addr":"경기도 안산시 상록구 사동 1352번지","indutype":"음료식품 - 기타음료식품","category":"food"}]},{"lat":"37.282895525","long":"126.85068666","imageIndex":7,"items":[{"name":"(유)동신주류","tel":"031-501-2046","addr":"경기도 안산시 상록구 사동 1415-1번지","indutype":"음료식품 - 기타음료식품","category":"food"}]},{"lat":"37.27876512","long":"126.84783097","imageIndex":7,"items":[{"name":"(주) 한솔푸드","tel":"031-409-9436","addr":"경기도 안산시 상록구 사동 1489-2번지","indutype":"음료식품 - 정육점","category":"food"}]},{"lat":"37.302452723","long":"126.84757933","imageIndex":7,"items":[{"name":"(주)두레미트","tel":"070-8750-2454","addr":"경기도 안산시 상록구 사동 1185-11번지 1층","indutype":"음료식품 - 정육점","category":"food"}]},{"lat":"37.302816201","long":"126.84993594","imageIndex":7,"items":[{"name":"(주)두레육가공","tel":"031-407-2454","addr":"경기도 안산시 상록구 사동 1200-17번지 B01호","indutype":"음료식품 - 정육점","category":"food"}]},{"lat":"37.285486326","long":"126.84749016","imageIndex":7,"items":[{"name":"(주)신아팜랜드","tel":"031-502-2701","addr":"경기도 안산시 상록구 사동 1388-1번지","indutype":"음료식품 - 농·축·수산품","category":"food"},{"name":"주식회사 에이스에프엔비","tel":"031-407-0977","addr":"경기도 안산시 상록구 사동 1388-1번지 2층","indutype":"음료식품 - 정육점","category":"food"}]},{"lat":"37.295983864","long":"126.83474679","imageIndex":7,"items":[{"name":"(주)에스엠나노텍","tel":"031-400-3770","addr":"경기도 안산시 상록구 사동 1271번지 한양대학교에리카캠퍼스 창업보육센터","indutype":"음료식품 - 농·축·수산품","category":"food"}]},{"lat":"37.294979724","long":"126.85182396","imageIndex":7,"items":[{"name":"(주)자타미트코리아","tel":"031-438-9914","addr":"경기도 안산시 상록구 사동 1317번지","indutype":"음료식품 - 정육점","category":"food"},{"name":"유경미트","tel":"031-509-1010","addr":"경기도 안산시 상록구 사동 1317번지","indutype":"음료식품 - 정육점","category":"food"}]},{"lat":"37.284236872","long":"126.84977057","imageIndex":7,"items":[{"name":"(주)청정웰푸드","tel":"031-419-7920","addr":"경기도 안산시 상록구 사동 1421-10번지 1층","indutype":"음료식품 - 정육점","category":"food"},{"name":"농업회사법인청정웰푸드(주)","tel":"070-4166-9663","addr":"경기도 안산시 상록구 사동 1421-10번지 1층","indutype":"음료식품 - 기타음료식품","category":"food"}]},{"lat":"37.302949921","long":"126.8488303","imageIndex":7,"items":[{"name":"JH컴퍼니","tel":"","addr":"경기도 안산시 상록구 사동 1186-3번지 4층 일부","indutype":"음료식품 - 기타음료식품","category":"food"}]},{"lat":"37.301587588","long":"126.84074603","imageIndex":7,"items":[{"name":"THE 착한고기","tel":"031-505-1588","addr":"경기도 안산시 상록구 사동 1581번지 102호","indutype":"음료식품 - 정육점","category":"food"}]},{"lat":"37.30592676","long":"126.8446282","imageIndex":7,"items":[{"name":"tea sharp","tel":"031-408-7052","addr":"경기도 안산시 상록구 사동 1521-12번지 1층","indutype":"음료식품 - 기타음료식품","category":"food"}]},{"lat":"37.287098055","long":"126.85363273","imageIndex":7,"items":[{"name":"가족사랑김치반찬","tel":"031-409-9471","addr":"경기도 안산시 상록구 사동 1346번지 월드중심상가 1층 2호","indutype":"음료식품 - 기타음료식품","category":"food"}]},{"lat":"37.292568564","long":"126.85465947","imageIndex":7,"items":[{"name":"감골매점","tel":"031-409-9900","addr":"경기도 안산시 상록구 사동 1342-2번지","indutype":"음료식품 - 기타음료식품","category":"food"}]},{"lat":"37.284008411","long":"126.8543267","imageIndex":7,"items":[{"name":"감골수산","tel":"031-419-3355","addr":"경기도 안산시 상록구 사동 1397-6번지 1층 101호","indutype":"음료식품 - 농·축·수산품","category":"food"}]},{"lat":"37.294428496","long":"126.85057321","imageIndex":7,"items":[{"name":"건국우유반월보급소","tel":"031-406-8011","addr":"경기도 안산시 상록구 사동 1319-30번지 102호","indutype":"음료식품 - 기타음료식품","category":"food"}]},{"lat":"37.297122581","long":"126.85776336","imageIndex":7,"items":[{"name":"건우","tel":"031-502-3228","addr":"경기도 안산시 상록구 사동 1267-10번지 1층","indutype":"음료식품 - 기타음료식품","category":"food"},{"name":"건우유통","tel":"031-502-3228","addr":"경기도 안산시 상록구 사동 1267-10번지 1층","indutype":"음료식품 - 기타음료식품","category":"food"}]},{"lat":"37.29186913","long":"126.85021748","imageIndex":7,"items":[{"name":"고기랑 회랑","tel":"031-409-2949","addr":"경기도 안산시 상록구 사동 1345번지 선경아파트 선경중심상가 108호","indutype":"음료식품 - 정육점","category":"food"},{"name":"안심축산물전문점사동점","tel":"031-407-0476","addr":"경기도 안산시 상록구 사동 1345번지 선경 중심상가 108호","indutype":"음료식품 - 정육점","category":"food"}]},{"lat":"37.29706555","long":"126.84830094","imageIndex":7,"items":[{"name":"고깃간","tel":"031-409-7288","addr":"경기도 안산시 상록구 사동 1285-3번지 102호","indutype":"음료식품 - 정육점","category":"food"}]},{"lat":"37.2836511632","long":"126.8497379275","imageIndex":7,"items":[{"name":"고려건강원","tel":"031-502-0149","addr":"경기도 안산시 상록구 사동 1420-11번지","indutype":"도매 및 소매업 - 건강식품","category":"food"}]},{"lat":"37.283651163","long":"126.84973793","imageIndex":7,"items":[{"name":"고려건강원","tel":"031-502-0149","addr":"경기도 안산시 상록구 사동 1420-11번지 103호","indutype":"건강식품 - 기타건강식품","category":"food"}]},{"lat":"37.280320402","long":"126.85210133","imageIndex":7,"items":[{"name":"과일향기","tel":"","addr":"경기도 안산시 상록구 사동 1471-8번지 105호","indutype":"음료식품 - 농·축·수산품","category":"food"},{"name":"신토부리과일직판장","tel":"031-417-6200","addr":"경기도 안산시 상록구 사동 1471-8번지","indutype":"음료식품 - 농·축·수산품","category":"food"},{"name":"한우한돈","tel":"031-408-0476","addr":"경기도 안산시 상록구 사동 1471-8번지 103호","indutype":"음료식품 - 정육점","category":"food"}]},{"lat":"37.280398104","long":"126.84946262","imageIndex":7,"items":[{"name":"근영이네","tel":"031-318-4252","addr":"경기도 안산시 상록구 사동 1481번지 해비치타운 701호","indutype":"음료식품 - 농·축·수산품","category":"food"}]},{"lat":"37.294702412","long":"126.85340343","imageIndex":7,"items":[{"name":"김여사찬방","tel":"031-415-1123","addr":"경기도 안산시 상록구 사동 1318-4번지 엘리지움 1층 105호","indutype":"음료식품 - 기타음료식품","category":"food"},{"name":"샘물반찬","tel":"031-407-2530","addr":"경기도 안산시 상록구 사동 1318-4번지 엘리지움 105호","indutype":"음료식품 - 기타음료식품","category":"food"}]},{"lat":"37.283899551","long":"126.85374054","imageIndex":7,"items":[{"name":"남양유업안산동부가정대리점","tel":"031-418-8441","addr":"경기도 안산시 상록구 사동 1399-6번지","indutype":"음료식품 - 기타음료식품","category":"food"}]},{"lat":"37.294118844","long":"126.85507371","imageIndex":7,"items":[{"name":"노마진아이스크림 안산사동점","tel":"02-1111-1111","addr":"경기도 안산시 상록구 사동 1333-9번지 휴먼빌딩 1층 102호","indutype":"음료식품 - 제과점","category":"food"},{"name":"점핑센타","tel":"","addr":"경기도 안산시 상록구 사동 1333-9번지 휴먼빌딩 4층","indutype":"건강식품 - 기타건강식품","category":"food"}]},{"lat":"37.295172941","long":"126.85499271","imageIndex":7,"items":[{"name":"농수산정육","tel":"031-417-0600","addr":"경기도 안산시 상록구 사동 1331번지","indutype":"음료식품 - 정육점","category":"food"}]},{"lat":"37.279763312","long":"126.85332022","imageIndex":7,"items":[{"name":"농업회사법인 주식회사 다인미트","tel":"031-401-1335","addr":"경기도 안산시 상록구 사동 1506번지 상가동214호","indutype":"음료식품 - 정육점","category":"food"},{"name":"한우마을 고잔점","tel":"031-437-7935","addr":"경기도 안산시 상록구 사동 1506번지 푸르지오6차 상가 118호~119호","indutype":"음료식품 - 정육점","category":"food"}]},{"lat":"37.3050942748","long":"126.8487695317","imageIndex":7,"items":[{"name":"느낌적인느낌!","tel":"","addr":"경기도 안산시 상록구 사동 1532번지 푸른마을주공2단지아파트","indutype":"제조업 - 즉석식품(케익)","category":"food"}]},{"lat":"37.305094275","long":"126.84876953","imageIndex":7,"items":[{"name":"느낌적인느낌!","tel":"031-0000-0000","addr":"경기도 안산시 상록구 사동 1532번지 푸른마을주공2단지아파트 상가동 104호","indutype":"음료식품 - 기타음료식품","category":"food"},{"name":"만보탕제원","tel":"031-415-1511","addr":"경기도 안산시 상록구 사동 1532번지 푸른마을2단지 상가 105호","indutype":"건강식품 - 기타건강식품","category":"food"},{"name":"만보탕제원","tel":"031-415-1511","addr":"경기도 안산시 상록구 사동 1532번지 푸른마을2단지 상가동 105호","indutype":"건강식품 - 기타건강식품","category":"food"}]},{"lat":"37.296789115","long":"126.85052333","imageIndex":7,"items":[{"name":"늘푸른빵집","tel":"031-487-9559","addr":"경기도 안산시 상록구 사동 1305번지 1층 102호","indutype":"음료식품 - 제과점","category":"food"}]},{"lat":"37.29684059","long":"126.85559847","imageIndex":7,"items":[{"name":"다인수산","tel":"02-1577-0000","addr":"경기도 안산시 상록구 사동 1327번지 204호","indutype":"음료식품 - 농·축·수산품","category":"food"}]},{"lat":"37.301705091","long":"126.84101647","imageIndex":7,"items":[{"name":"달구","tel":"031-000-0000","addr":"경기도 안산시 상록구 사동 1581-2번지 1층 103호","indutype":"음료식품 - 기타음료식품","category":"food"}]},{"lat":"37.302871394","long":"126.83738207","imageIndex":7,"items":[{"name":"달콤한동네","tel":"031-484-5722","addr":"경기도 안산시 상록구 사동 1555-6번지","indutype":"음료식품 - 기타음료식품","category":"food"}]},{"lat":"37.3028713939","long":"126.8373820697","imageIndex":7,"items":[{"name":"달콤한동네","tel":"031-484-5722","addr":"경기도 안산시 상록구 사동 1555-6번지","indutype":"도매 및 소매업 - 식품","category":"food"}]},{"lat":"37.295895412","long":"126.84921687","imageIndex":7,"items":[{"name":"대부방아간","tel":"031-406-0248","addr":"경기도 안산시 상록구 사동 1294-8번지","indutype":"음료식품 - 제과점","category":"food"},{"name":"한일떡방앗간건강원","tel":"031-484-2217","addr":"경기도 안산시 상록구 사동 1294-8번지 1층","indutype":"음료식품 - 제과점","category":"food"}]},{"lat":"37.284455077","long":"126.85129245","imageIndex":7,"items":[{"name":"대성식품","tel":"031-417-0398","addr":"경기도 안산시 상록구 사동 1409-24번지","indutype":"음료식품 - 기타음료식품","category":"food"}]},{"lat":"37.296766067","long":"126.82140283","imageIndex":7,"items":[{"name":"대성유통","tel":"070-4201-9818","addr":"경기도 안산시 상록구 사동 1512번지 안산고잔6차푸르지오 601동 1801호","indutype":"음료식품 - 기타음료식품","category":"food"}]},{"lat":"37.280650463","long":"126.84951849","imageIndex":7,"items":[{"name":"대승케이터링주식회사","tel":"031-409-5302","addr":"경기도 안산시 상록구 사동 1482-16번지 지층","indutype":"음료식품 - 기타음료식품","category":"food"}]},{"lat":"37.282343494","long":"126.84882721","imageIndex":7,"items":[{"name":"더사랑과일청","tel":"031-000-0000","addr":"경기도 안산시 상록구 사동 1416-8번지 지하","indutype":"음료식품 - 기타음료식품","category":"food"}]},{"lat":"37.300867817","long":"126.85531992","imageIndex":7,"items":[{"name":"데이데이","tel":"","addr":"경기도 안산시 상록구 사동 1255-11번지 303호","indutype":"음료식품 - 기타음료식품","category":"food"}]},{"lat":"37.306559366","long":"126.84604812","imageIndex":7,"items":[{"name":"덴마크우유동안산대리점","tel":"031-408-2172","addr":"경기도 안산시 상록구 사동 1517-2번지 101호","indutype":"음료식품 - 기타음료식품","category":"food"},{"name":"서가네누룽지","tel":"031-409-9222","addr":"경기도 안산시 상록구 사동 1517-2번지 101호","indutype":"음료식품 - 기타음료식품","category":"food"},{"name":"헬스보충제","tel":"031-520-4713","addr":"경기도 안산시 상록구 사동 1517-2번지","indutype":"회원제형태 - 건강식품","category":"food"}]},{"lat":"37.28339678","long":"126.84812593","imageIndex":7,"items":[{"name":"돈예가","tel":"031-418-0616","addr":"경기도 안산시 상록구 사동 1419-2번지 1층","indutype":"음료식품 - 정육점","category":"food"},{"name":"우리마을정육점","tel":"031-418-0616","addr":"경기도 안산시 상록구 사동 1419-2번지","indutype":"음료식품 - 정육점","category":"food"}]},{"lat":"37.282645931","long":"126.85279581","imageIndex":7,"items":[{"name":"동부푸드","tel":"031-409-9952","addr":"경기도 안산시 상록구 사동 1405-10번지 1층","indutype":"음료식품 - 정육점","category":"food"}]},{"lat":"37.306371686","long":"126.84721032","imageIndex":7,"items":[{"name":"동원수산","tel":"031-501-1900","addr":"경기도 안산시 상록구 사동 1518-1번지 1층","indutype":"음료식품 - 농·축·수산품","category":"food"},{"name":"하지알카리수주식회사","tel":"031-1588-9719","addr":"경기도 안산시 상록구 사동 1518-1번지","indutype":"음료식품 - 기타음료식품","category":"food"}]},{"lat":"37.296402414","long":"126.8510993","imageIndex":7,"items":[{"name":"떡마을","tel":"031-408-7774","addr":"경기도 안산시 상록구 사동 1305-4번지 103호","indutype":"음료식품 - 제과점","category":"food"}]},{"lat":"37.302478938","long":"126.84695893","imageIndex":7,"items":[{"name":"떡이야기","tel":"031-417-3482","addr":"경기도 안산시 상록구 사동 1183-5번지 101호","indutype":"음료식품 - 제과점","category":"food"}]},{"lat":"37.295592807","long":"126.85212724","imageIndex":7,"items":[{"name":"뚜레쥬르 안산기쁨(2)","tel":"031-418-1998","addr":"경기도 안산시 상록구 사동 1318번지","indutype":"음료식품 - 제과점","category":"food"},{"name":"뚜레쥬르 안산사동점","tel":"031-409-0003","addr":"경기도 안산시 상록구 사동 1318번지 진로마트 1층 101호","indutype":"음료식품 - 제과점","category":"food"},{"name":"진로마트","tel":"031-409-2949","addr":"경기도 안산시 상록구 사동 1318번지 생선코너","indutype":"음료식품 - 농·축·수산품","category":"food"},{"name":"진로마트정육점","tel":"031-415-0607","addr":"경기도 안산시 상록구 사동 1318번지 1층 정육코너","indutype":"음료식품 - 정육점","category":"food"}]},{"lat":"37.285648937","long":"126.85485347","imageIndex":7,"items":[{"name":"롤로(Rollo)","tel":"02-000-0000","addr":"경기도 안산시 상록구 사동 1396-2번지 1층 105호","indutype":"음료식품 - 기타음료식품","category":"food"}]},{"lat":"37.284454484","long":"126.85083012","imageIndex":7,"items":[{"name":"막둥이네축산도매센타","tel":"031-501-1963","addr":"경기도 안산시 상록구 사동 1410-6 상가1호 101","indutype":"음료식품 - 정육점","category":"food"},{"name":"바른정육점","tel":"031-501-1963","addr":"경기도 안산시 상록구 사동 1410-6번지 1층","indutype":"음료식품 - 정육점","category":"food"}]},{"lat":"37.30078662","long":"126.84143576","imageIndex":7,"items":[{"name":"매스노이미르 정육점","tel":"","addr":"경기도 안산시 상록구 사동 1169-12번지 1층","indutype":"음료식품 - 정육점","category":"food"}]},{"lat":"37.302790565","long":"126.85101879","imageIndex":7,"items":[{"name":"먀스나야 라브카","tel":"","addr":"경기도 안산시 상록구 사동 1200-10번지 103호","indutype":"음료식품 - 정육점","category":"food"}]},{"lat":"37.29403457","long":"126.85254763","imageIndex":7,"items":[{"name":"명가","tel":"031-402-9291","addr":"경기도 안산시 상록구 사동 1316-5번지 연번지 101호","indutype":"음료식품 - 기타음료식품","category":"food"}]},{"lat":"37.303592485","long":"126.84415936","imageIndex":7,"items":[{"name":"명인방울기정떡","tel":"031-502-3312","addr":"경기도 안산시 상록구 사동 1551-1번지 한영빌딩 1층","indutype":"음료식품 - 제과점","category":"food"}]},{"lat":"37.300289345","long":"126.84018487","imageIndex":7,"items":[{"name":"모이먀스노이","tel":"","addr":"경기도 안산시 상록구 사동 1155-9번지 1층","indutype":"음료식품 - 정육점","category":"food"}]},{"lat":"37.28484581","long":"126.85388526","imageIndex":7,"items":[{"name":"몽키 바나나","tel":"","addr":"경기도 안산시 상록구 사동 1393-7번지 1층 101호","indutype":"음료식품 - 농·축·수산품","category":"food"}]},{"lat":"37.283319513","long":"126.85108048","imageIndex":7,"items":[{"name":"반월농협사동지점","tel":"031-407-0700","addr":"경기도 안산시 상록구 사동 1406번지","indutype":"음료식품 - 미곡상","category":"food"}]},{"lat":"37.295950089","long":"126.81813412","imageIndex":7,"items":[{"name":"반월농협해양지점","tel":"031-437-0031","addr":"경기도 안산시 상록구 사동 1510번지 대우7차 상가 203호","indutype":"음료식품 - 미곡상","category":"food"},{"name":"암소마을정육점","tel":"031-501-3392","addr":"경기도 안산시 상록구 사동 1510푸르지오7차상가105","indutype":"음료식품 - 정육점","category":"food"}]},{"lat":"37.30070465","long":"126.84079304","imageIndex":7,"items":[{"name":"베료스까","tel":"031-406-9950","addr":"경기도 안산시 상록구 사동 1169-3번지 102호 6","indutype":"음료식품 - 제과점","category":"food"}]},{"lat":"37.282535116","long":"126.85068739","imageIndex":7,"items":[{"name":"베이크썸(bake some)","tel":"031-500-8786","addr":"경기도 안산시 상록구 사동 1415-4번지 1층","indutype":"음료식품 - 기타음료식품","category":"food"}]},{"lat":"37.296699694","long":"126.84418512","imageIndex":7,"items":[{"name":"베지밀상록대리점","tel":"031-502-2112","addr":"경기도 안산시 상록구 사동 1277-20번지","indutype":"음료식품 - 기타음료식품","category":"food"}]},{"lat":"37.279293134","long":"126.85202445","imageIndex":7,"items":[{"name":"본오정육점","tel":"031-406-2125","addr":"경기도 안산시 상록구 사동 1473-8번지","indutype":"음료식품 - 정육점","category":"food"}]},{"lat":"37.296066782","long":"126.84935186","imageIndex":7,"items":[{"name":"봄이네누룽지","tel":"070-4686-9412","addr":"경기도 안산시 상록구 사동 1295-8번지 1층","indutype":"음료식품 - 기타음료식품","category":"food"}]},{"lat":"37.290786914","long":"126.82985268","imageIndex":7,"items":[{"name":"브이앤씨라이프(주) 경기테크노파크점","tel":"02-2107-3360","addr":"경기도 안산시 상록구 사동 1271-11번지 경기테크노파크 10층","indutype":"음료식품 - 기타음료식품","category":"food"}]},{"lat":"37.283485462","long":"126.84704322","imageIndex":7,"items":[{"name":"빵익는아침","tel":"031-406-9390","addr":"경기도 안산시 상록구 사동 1431번지 1층","indutype":"음료식품 - 제과점","category":"food"}]},{"lat":"37.299283742","long":"126.85671029","imageIndex":7,"items":[{"name":"사동농수산물","tel":"031-417-6595","addr":"경기도 안산시 상록구 사동 1252-11번지 101호","indutype":"음료식품 - 농·축·수산품","category":"food"},{"name":"한길유통","tel":"031-502-0711","addr":"경기도 안산시 상록구 사동 1252-11번지 101호","indutype":"음료식품 - 농·축·수산품","category":"food"}]},{"lat":"37.285539363","long":"126.84671197","imageIndex":7,"items":[{"name":"상록식자재","tel":"031-406-0786","addr":"경기도 안산시 상록구 사동 1385-6번지","indutype":"음료식품 - 기타음료식품","category":"food"}]},{"lat":"37.284402869","long":"126.85274722","imageIndex":7,"items":[{"name":"서영쿠킹","tel":"","addr":"경기도 안산시 상록구 사동 1409-14번지 1층 102호","indutype":"음료식품 - 기타음료식품","category":"food"}]},{"lat":"37.3016505190","long":"126.8473554018","imageIndex":7,"items":[{"name":"석호 영재문구","tel":"031-409-7095","addr":"경기도 안산시 상록구 사동 1191-12번지","indutype":"도매 및 소매업 - 문구,식품,잡호","category":"food"}]},{"lat":"37.284898031","long":"126.85243049","imageIndex":7,"items":[{"name":"선타바코","tel":"031-0000-0000","addr":"경기도 안산시 상록구 사동 1392-10번지 103호","indutype":"음료식품 - 기타음료식품","category":"food"}]},{"lat":"37.296897328","long":"126.84374485","imageIndex":7,"items":[{"name":"섬마을유통","tel":"031-5002-7480","addr":"경기도 안산시 상록구 사동 1275번지","indutype":"음료식품 - 미곡상","category":"food"}]},{"lat":"37.280812574","long":"126.84946178","imageIndex":7,"items":[{"name":"성운미트","tel":"031-415-9097","addr":"경기도 안산시 상록구 사동 1482번지 1층","indutype":"음료식품 - 정육점","category":"food"},{"name":"주식회사부래돈","tel":"031-501-8147","addr":"경기도 안산시 상록구 사동 1482번지 1층","indutype":"음료식품 - 정육점","category":"food"}]},{"lat":"37.284367033","long":"126.82674381","imageIndex":7,"items":[{"name":"수변공원휴게소","tel":"02-000-0000","addr":"경기도 안산시 상록구 사동 1646번지 수변공원 휴게시설 1층","indutype":"음료식품 - 기타음료식품","category":"food"}]},{"lat":"37.292494781","long":"126.82111987","imageIndex":7,"items":[{"name":"수산마켓","tel":"031-405-6205","addr":"경기도 안산시 상록구 사동 1511번지 안산고잔9차푸르지오 906동 1503호","indutype":"음료식품 - 농·축·수산품","category":"food"}]},{"lat":"37.279653572","long":"126.85204628","imageIndex":7,"items":[{"name":"수저플러스","tel":"031-408-9111","addr":"경기도 안산시 상록구 사동 1472-8번지 1층 103호","indutype":"음료식품 - 기타음료식품","category":"food"}]},{"lat":"37.281149387","long":"126.8521335","imageIndex":7,"items":[{"name":"수제맛떡","tel":"031-419-8254","addr":"경기도 안산시 상록구 사동 1469-8번지","indutype":"음료식품 - 제과점","category":"food"}]},{"lat":"37.300202267","long":"126.8562912","imageIndex":7,"items":[{"name":"시골한우방정육점","tel":"031-408-4463","addr":"경기도 안산시 상록구 사동 1241번지","indutype":"음료식품 - 정육점","category":"food"}]},{"lat":"37.283397192","long":"126.84844167","imageIndex":7,"items":[{"name":"시루원","tel":"031-406-3690","addr":"경기도 안산시 상록구 사동 1419-4번지 1층 3호 상가","indutype":"음료식품 - 제과점","category":"food"}]},{"lat":"37.300226846","long":"126.84060233","imageIndex":7,"items":[{"name":"신선한마트","tel":"02-6340-5385","addr":"경기도 안산시 상록구 사동 1167번지 1층","indutype":"음료식품 - 농·축·수산품","category":"food"}]},{"lat":"37.28506299","long":"126.85462909","imageIndex":7,"items":[{"name":"신성상회","tel":"031-419-7606","addr":"경기도 안산시 상록구 사동 1396-7번지","indutype":"음료식품 - 농·축·수산품","category":"food"}]},{"lat":"37.304898858","long":"126.84407765","imageIndex":7,"items":[{"name":"신소망","tel":"031-409-2541","addr":"경기도 안산시 상록구 사동 1530번지 A-209호 의류상설할인매장","indutype":"음료식품 - 기타음료식품","category":"food"}]},{"lat":"37.305900437","long":"126.8451584","imageIndex":7,"items":[{"name":"싱싱상회","tel":"031-416-6600","addr":"경기도 안산시 상록구 사동 1521-9번지 1층","indutype":"음료식품 - 농·축·수산품","category":"food"}]},{"lat":"37.300091802","long":"126.84068157","imageIndex":7,"items":[{"name":"싱싱할인마트","tel":"031-408-9877","addr":"경기도 안산시 상록구 사동 1167-19번지 1층","indutype":"음료식품 - 기타음료식품","category":"food"}]},{"lat":"37.293395021","long":"126.8206102","imageIndex":7,"items":[{"name":"아이스크림 힐인판매점","tel":"031-438-1122","addr":"경기도 안산시 상록구 사동 1511번지 안산고잔9차푸르지오 상가동 101호","indutype":"음료식품 - 기타음료식품","category":"food"}]},{"lat":"37.284367343","long":"126.85315324","imageIndex":7,"items":[{"name":"아침목장","tel":"031-503-7605","addr":"경기도 안산시 상록구 사동 1398-12번지 102호","indutype":"음료식품 - 정육점","category":"food"},{"name":"케익델리","tel":"031-501-0104","addr":"경기도 안산시 상록구 사동 1398-12번지","indutype":"음료식품 - 제과점","category":"food"}]},{"lat":"37.301949167","long":"126.84160246","imageIndex":7,"items":[{"name":"아쿠아블루","tel":"031-401-5666","addr":"경기도 안산시 상록구 사동 1581-6번지 2층","indutype":"음료식품 - 기타음료식품","category":"food"}]},{"lat":"37.298373709","long":"126.81804924","imageIndex":7,"items":[{"name":"안산야외수영장매점","tel":"","addr":"경기도 안산시 상록구 사동 1509-2번지","indutype":"음료식품 - 기타음료식품","category":"food"}]},{"lat":"37.299179128","long":"126.83876616","imageIndex":7,"items":[{"name":"앙 플라워 케이크 (Ang flower cake)","tel":"031-111-1111","addr":"경기도 안산시 상록구 사동 1157-1번지 102호","indutype":"음료식품 - 기타음료식품","category":"food"}]},{"lat":"37.301477619","long":"126.83940406","imageIndex":7,"items":[{"name":"양촌종합농산","tel":"031-406-5600","addr":"경기도 안산시 상록구 사동 1568-5번지 1층","indutype":"음료식품 - 농·축·수산품","category":"food"}]},{"lat":"37.295618887","long":"126.85138283","imageIndex":7,"items":[{"name":"엄마손반찬","tel":"031-501-1421","addr":"경기도 안산시 상록구 사동 1305-12번지 1층","indutype":"음료식품 - 기타음료식품","category":"food"},{"name":"정직한 고깃간","tel":"031-406-3403","addr":"경기도 안산시 상록구 사동 1305-12번지 1층","indutype":"음료식품 - 정육점","category":"food"}]},{"lat":"37.29029151","long":"126.84957786","imageIndex":7,"items":[{"name":"영풍청과","tel":"031-418-8635","addr":"경기도 안산시 상록구 사동 1345-1","indutype":"음료식품 - 농·축·수산품","category":"food"},{"name":"파리바게트안산감골점","tel":"031-415-9374","addr":"경기도 안산시 상록구 사동 1345-1 요진중심상가103","indutype":"음료식품 - 제과점","category":"food"},{"name":"현대방축산","tel":"031-406-0386","addr":"경기도 안산시 상록구 사동 1345-1번지 요진중심상가 105호 106","indutype":"음료식품 - 정육점","category":"food"}]},{"lat":"37.287205569","long":"126.84618979","imageIndex":7,"items":[{"name":"올리브드림","tel":"070-7569-3329","addr":"경기도 안산시 상록구 사동 1376-2번지 로렌빌리지 202호","indutype":"음료식품 - 기타음료식품","category":"food"}]},{"lat":"37.290062845","long":"126.8539652","imageIndex":7,"items":[{"name":"와 보라 점핑하이 사동점","tel":"","addr":"경기도 안산시 상록구 사동 1344번지 예누림 401,402호","indutype":"건강식품 - 기타건강식품","category":"food"}]},{"lat":"37.283396603","long":"126.84799062","imageIndex":7,"items":[{"name":"우리농산","tel":"031-407-7880","addr":"경기도 안산시 상록구 사동 1419-1번지 101호","indutype":"음료식품 - 농·축·수산품","category":"food"}]},{"lat":"37.296677565","long":"126.84788444","imageIndex":7,"items":[{"name":"우리축산고기백화점","tel":"031-419-8897","addr":"경기도 안산시 상록구 사동 1285-6번지 1층","indutype":"음료식품 - 정육점","category":"food"},{"name":"우리축산고기백화점","tel":"031-419-8897","addr":"경기도 안산시 상록구 사동 1285-6번지 1층","indutype":"음료식품 - 정육점","category":"food"}]},{"lat":"37.283535816","long":"126.85112515","imageIndex":7,"items":[{"name":"우성축산도매센터","tel":"031-408-9018","addr":"경기도 안산시 상록구 사동 1407-26번지","indutype":"음료식품 - 정육점","category":"food"}]},{"lat":"37.2948956","long":"126.84946702","imageIndex":7,"items":[{"name":"월드유통","tel":"031-357-5258","addr":"경기도 안산시 상록구 사동 1311-18번지 1층 101호","indutype":"음료식품 - 기타음료식품","category":"food"}]},{"lat":"37.283537486","long":"126.8524332","imageIndex":7,"items":[{"name":"월드푸드","tel":"","addr":"경기도 안산시 상록구 사동 1407-17번지","indutype":"음료식품 - 기타음료식품","category":"food"}]},{"lat":"37.283232694","long":"126.85366292","imageIndex":7,"items":[{"name":"유앤아이","tel":"070-4001-6140","addr":"경기도 안산시 상록구 사동 1401-4번지","indutype":"음료식품 - 정육점","category":"food"}]},{"lat":"37.283926965","long":"126.85404495","imageIndex":7,"items":[{"name":"유진농장","tel":"031-322-7377","addr":"경기도 안산시 상록구 사동 1397-8번지 101호","indutype":"음료식품 - 농·축·수산품","category":"food"}]},{"lat":"37.27929263","long":"126.8516298","imageIndex":7,"items":[{"name":"유한농산","tel":"070-8816-8255","addr":"경기도 안산시 상록구 사동 1473-10번지 101호 좌측 부분 (1층상가)","indutype":"음료식품 - 농·축·수산품","category":"food"}]},{"lat":"37.280148286","long":"126.85138002","imageIndex":7,"items":[{"name":"음씨네떡집","tel":"031-406-9628","addr":"경기도 안산시 상록구 사동 1471-13번지 101호","indutype":"음료식품 - 기타음료식품","category":"food"}]},{"lat":"37.300595164","long":"126.83980073","imageIndex":7,"items":[{"name":"이경순제과점","tel":"031-406-8559","addr":"경기도 안산시 상록구 사동 1152번지 석호 상가 105호","indutype":"음료식품 - 제과점","category":"food"}]},{"lat":"37.30189755","long":"126.83685409","imageIndex":7,"items":[{"name":"이롬황성주생식안산기쁨","tel":"031-415-8812","addr":"경기도 안산시 상록구 사동 1561-6번지 2층 202호","indutype":"건강식품 - 기타건강식품","category":"food"}]},{"lat":"37.301535862","long":"126.85635629","imageIndex":7,"items":[{"name":"일진건강원","tel":"031-408-0388","addr":"경기도 안산시 상록구 사동 1240-21","indutype":"건강식품 - 기타건강식품","category":"food"}]},{"lat":"37.29581704","long":"126.85132604","imageIndex":7,"items":[{"name":"잎생","tel":"","addr":"경기도 안산시 상록구 사동 1305-14번지 102호","indutype":"음료식품 - 농·축·수산품","category":"food"}]},{"lat":"37.296812896","long":"126.8480195","imageIndex":7,"items":[{"name":"자연애 명태","tel":"031-482-4050","addr":"경기도 안산시 상록구 사동 1285-5번지 101-2호","indutype":"음료식품 - 농·축·수산품","category":"food"}]},{"lat":"37.296128291","long":"126.85520512","imageIndex":7,"items":[{"name":"전남수산","tel":"032-880-0468","addr":"경기도 안산시 상록구 사동 1329-7번지 선우빌라 B동 101호","indutype":"음료식품 - 농·축·수산품","category":"food"}]},{"lat":"37.283650623","long":"126.8493207","imageIndex":7,"items":[{"name":"점핑하이초당점","tel":"","addr":"경기도 안산시 상록구 사동 1420-14번지 2층","indutype":"건강식품 - 기타건강식품","category":"food"}]},{"lat":"37.300064276","long":"126.84032071","imageIndex":7,"items":[{"name":"정육점마트","tel":"","addr":"경기도 안산시 상록구 사동 1155-11번지 101호","indutype":"음료식품 - 정육점","category":"food"}]},{"lat":"37.301670603","long":"126.84215573","imageIndex":7,"items":[{"name":"제이푸드시스템","tel":"070-4200-4865","addr":"경기도 안산시 상록구 사동 1172-3번지 1층","indutype":"음료식품 - 기타음료식품","category":"food"}]},{"lat":"37.305921146","long":"126.84718869","imageIndex":7,"items":[{"name":"제일떡방앗간","tel":"031-418-1757","addr":"경기도 안산시 상록구 사동 1524번지 1층","indutype":"음료식품 - 제과점","category":"food"}]},{"lat":"37.280734873","long":"126.8521005","imageIndex":7,"items":[{"name":"제일할인마트식육점","tel":"031-415-5570","addr":"경기도 안산시 상록구 사동 1470-8번지","indutype":"음료식품 - 정육점","category":"food"}]},{"lat":"37.302755016","long":"126.85140236","imageIndex":7,"items":[{"name":"좋은날떡방","tel":"031-437-9536","addr":"경기도 안산시 상록구 사동 1201-11번지 103호","indutype":"음료식품 - 제과점","category":"food"}]},{"lat":"37.29389555","long":"126.85665305","imageIndex":7,"items":[{"name":"좋은아침Pastry","tel":"031-407-3461","addr":"경기도 안산시 상록구 사동 1339-6번지","indutype":"음료식품 - 제과점","category":"food"}]},{"lat":"37.303282974","long":"126.85565358","imageIndex":7,"items":[{"name":"주공정육점","tel":"031-416-1258","addr":"경기도 안산시 상록구 사동 1536번지 푸른마을5단지 상가 105호","indutype":"음료식품 - 정육점","category":"food"}]},{"lat":"37.30184066","long":"126.84132072","imageIndex":7,"items":[{"name":"주식회사 걸다","tel":"070-8816-8255","addr":"경기도 안산시 상록구 사동 1581-4번지 3층","indutype":"음료식품 - 기타음료식품","category":"food"}]},{"lat":"37.30134343","long":"126.84010365","imageIndex":7,"items":[{"name":"주식회사 밀플랜비식품","tel":"02-1661-7164","addr":"경기도 안산시 상록구 사동 1571-1번지 301호","indutype":"음료식품 - 기타음료식품","category":"food"}]},{"lat":"37.279900263","long":"126.84771589","imageIndex":7,"items":[{"name":"주식회사 발해푸드","tel":"031-1544-8392","addr":"경기도 안산시 상록구 사동 1487-1번지","indutype":"음료식품 - 정육점","category":"food"}]},{"lat":"37.302564415","long":"126.83693158","imageIndex":7,"items":[{"name":"주식회사 씨암푸드","tel":"02-0000-0000","addr":"경기도 안산시 상록구 사동 1560-1번지 1,2층","indutype":"음료식품 - 기타음료식품","category":"food"}]},{"lat":"37.302565281","long":"126.85099669","imageIndex":7,"items":[{"name":"주식회사 에이원트레이딩","tel":"031-410-8910","addr":"경기도 안산시 상록구 사동 1199-7번지 1층","indutype":"음료식품 - 정육점","category":"food"}]},{"lat":"37.280986987","long":"126.85196469","imageIndex":7,"items":[{"name":"주식회사 영피플","tel":"031-417-9987","addr":"경기도 안산시 상록구 사동 1469-10번지 1층","indutype":"음료식품 - 기타음료식품","category":"food"}]},{"lat":"37.28034169","long":"126.8476586","imageIndex":7,"items":[{"name":"주식회사빛고운식품","tel":"031-485-2887","addr":"경기도 안산시 상록구 사동 1486-10 제지하층101호,102호","indutype":"음료식품 - 기타음료식품","category":"food"},{"name":"현대미락식품","tel":"031-501-8838","addr":"경기도 안산시 상록구 사동 1486-10,1층101,102","indutype":"음료식품 - 기타음료식품","category":"food"}]},{"lat":"37.2811492","long":"126.85198691","imageIndex":7,"items":[{"name":"주식회사장보고통상","tel":"031-481-9202","addr":"경기도 안산시 상록구 사동 1469-7번지 102호","indutype":"음료식품 - 농·축·수산품","category":"food"}]},{"lat":"37.296759277","long":"126.84835796","imageIndex":7,"items":[{"name":"주영웰빙건강원","tel":"031-407-2047","addr":"경기도 안산시 상록구 사동 1295-15번지 1층","indutype":"건강식품 - 기타건강식품","category":"food"}]},{"lat":"37.300509188","long":"126.84282365","imageIndex":7,"items":[{"name":"중앙유통","tel":"031-502-5052","addr":"경기도 안산시 상록구 사동 1176-6번지 글마당원룸","indutype":"음료식품 - 기타음료식품","category":"food"}]},{"lat":"37.281065051","long":"126.84960786","imageIndex":7,"items":[{"name":"짠지네식품","tel":"031-439-1318","addr":"경기도 안산시 상록구 사동 1483-16번지","indutype":"음료식품 - 기타음료식품","category":"food"}]},{"lat":"37.298952","long":"126.85804181","imageIndex":7,"items":[{"name":"천하유통","tel":"","addr":"경기도 안산시 상록구 사동 1266-1번지 203호","indutype":"음료식품 - 농·축·수산품","category":"food"}]},{"lat":"37.305785592","long":"126.84688442","imageIndex":7,"items":[{"name":"초심정육야채도매센터","tel":"031-410-0308","addr":"경기도 안산시 상록구 사동 1523-6번지 1층","indutype":"음료식품 - 정육점","category":"food"}]},{"lat":"37.302952965","long":"126.85118765","imageIndex":7,"items":[{"name":"초우축산","tel":"031-417-8284","addr":"경기도 안산시 상록구 사동 1200-8번지 102호","indutype":"음료식품 - 정육점","category":"food"},{"name":"파리바게트(믿음점)","tel":"031-409-4082","addr":"경기도 안산시 상록구 사동 1200-8번지 1층","indutype":"음료식품 - 제과점","category":"food"}]},{"lat":"37.301955315","long":"126.83951582","imageIndex":7,"items":[{"name":"타르트블라썸","tel":"070-8851-1698","addr":"경기도 안산시 상록구 사동 1573번지 1층","indutype":"음료식품 - 제과점","category":"food"}]},{"lat":"37.299115837","long":"126.83860839","imageIndex":7,"items":[{"name":"타임24시","tel":"031-408-3599","addr":"경기도 안산시 상록구 사동 1157번지 101호","indutype":"음료식품 - 기타음료식품","category":"food"}]},{"lat":"37.300397886","long":"126.84048917","imageIndex":7,"items":[{"name":"태상유통","tel":"031-480-0333","addr":"경기도 안산시 상록구 사동 1169-19 1층","indutype":"음료식품 - 기타음료식품","category":"food"}]},{"lat":"37.283537672","long":"126.85257979","imageIndex":7,"items":[{"name":"토끼떡방앗간","tel":"031-407-5601","addr":"경기도 안산시 상록구 사동 1407-16번지","indutype":"음료식품 - 제과점","category":"food"}]},{"lat":"37.294150317","long":"126.84457392","imageIndex":7,"items":[{"name":"토방주물럭부산물","tel":"031-501-3343","addr":"경기도 안산시 상록구 사동 1350-4번지","indutype":"음료식품 - 정육점","category":"food"}]},{"lat":"37.279319171","long":"126.85124637","imageIndex":7,"items":[{"name":"티펠로","tel":"031-415-2581","addr":"경기도 안산시 상록구 사동 1473-12번지 103호","indutype":"음료식품 - 기타음료식품","category":"food"}]},{"lat":"37.280563678","long":"126.85210084","imageIndex":7,"items":[{"name":"파리바게뜨(사동점)","tel":"031-418-8202","addr":"경기도 안산시 상록구 사동 1470-9 1층2호,3호","indutype":"음료식품 - 제과점","category":"food"}]},{"lat":"37.300620149","long":"126.83832315","imageIndex":7,"items":[{"name":"파리바게뜨(안산한양대)","tel":"031-408-8245","addr":"경기도 안산시 상록구 사동 1569-2번지 1층","indutype":"음료식품 - 제과점","category":"food"}]},{"lat":"37.295287033","long":"126.85257897","imageIndex":7,"items":[{"name":"파리바게뜨안산사동중앙","tel":"031-407-8285","addr":"경기도 안산시 상록구 사동 1318-1번지 104호","indutype":"음료식품 - 제과점","category":"food"}]},{"lat":"37.295589339","long":"126.82377406","imageIndex":7,"items":[{"name":"파리바게트(안산호수대우점)","tel":"031-501-8240","addr":"경기도 안산시 상록구 사동 1512번지 안산고잔6차푸르지오 제1상가102,103,114호","indutype":"음료식품 - 제과점","category":"food"}]},{"lat":"37.283341965","long":"126.84755095","imageIndex":7,"items":[{"name":"파리바게트안산초당점","tel":"031-418-8204","addr":"경기도 안산시 상록구 사동 1418-1번지 1층","indutype":"음료식품 - 제과점","category":"food"}]},{"lat":"37.284791693","long":"126.84684883","imageIndex":7,"items":[{"name":"팔도정육점","tel":"031-407-7783","addr":"경기도 안산시 상록구 사동 1425-8번지 101호","indutype":"음료식품 - 정육점","category":"food"},{"name":"푸줏간","tel":"031-407-7783","addr":"경기도 안산시 상록구 사동 1425-8번지 103호","indutype":"음료식품 - 정육점","category":"food"}]},{"lat":"37.297040935","long":"126.85016192","imageIndex":7,"items":[{"name":"팡팡사동복권","tel":"031-416-8949","addr":"경기도 안산시 상록구 사동 1298-7번지 102호","indutype":"음료식품 - 기타음료식품","category":"food"}]},{"lat":"37.296814058","long":"126.84891049","imageIndex":7,"items":[{"name":"포셀인터내셔널 주식회사","tel":"031-455-5523","addr":"경기도 안산시 상록구 사동 1296-8번지 관인지혜어린이집 401호","indutype":"음료식품 - 농·축·수산품","category":"food"}]},{"lat":"37.295529119","long":"126.82566892","imageIndex":7,"items":[{"name":"풍차횟집","tel":"032-886-9252","addr":"경기도 안산시 상록구 사동 1512번지 안산고잔6차푸르지오 608동 102호","indutype":"음료식품 - 농·축·수산품","category":"food"}]},{"lat":"37.288985699","long":"126.85009926","imageIndex":7,"items":[{"name":"핑크팡아이스","tel":"","addr":"경기도 안산시 상록구 사동 1345-2번지 상록수현대1차아파트 101호","indutype":"음료식품 - 기타음료식품","category":"food"}]},{"lat":"37.298366074","long":"126.85782864","imageIndex":7,"items":[{"name":"하나로","tel":"031-8044-5624","addr":"경기도 안산시 상록구 사동 1266-8번지 301호","indutype":"음료식품 - 농·축·수산품","category":"food"}]},{"lat":"37.2955893386","long":"126.8237740591","imageIndex":7,"items":[{"name":"하나약국","tel":"031-501-0448","addr":"경기도 안산시 상록구 사동 1512번지","indutype":"도매 및 소매업 - 양약,건강기능식품","category":"food"}]},{"lat":"37.306422622","long":"126.84485275","imageIndex":7,"items":[{"name":"하나유통","tel":"031-417-9880","addr":"경기도 안산시 상록구 사동 1520-4번지 1층","indutype":"음료식품 - 기타음료식품","category":"food"}]},{"lat":"37.295150356","long":"126.85138377","imageIndex":7,"items":[{"name":"하보리떡방","tel":"031-407-0022","addr":"경기도 안산시 상록구 사동 1314-15번지 101호","indutype":"음료식품 - 제과점","category":"food"}]},{"lat":"37.303900128","long":"126.84512874","imageIndex":7,"items":[{"name":"한국야쿠르트상록점","tel":"031-416-6736","addr":"경기도 안산시 상록구 사동 1545-1번지 1층","indutype":"음료식품 - 기타음료식품","category":"food"}]},{"lat":"37.30261751","long":"126.84957541","imageIndex":7,"items":[{"name":"한누리우돈","tel":"031-437-5909","addr":"경기도 안산시 상록구 사동 1187-1번지 1층","indutype":"음료식품 - 정육점","category":"food"}]},{"lat":"37.278232851","long":"126.84732467","imageIndex":7,"items":[{"name":"한진유통","tel":"031-419-9510","addr":"경기도 안산시 상록구 사동 1490번지","indutype":"음료식품 - 정육점","category":"food"}]},{"lat":"37.302676582","long":"126.84651863","imageIndex":7,"items":[{"name":"해그린","tel":"070-8682-2815","addr":"경기도 안산시 상록구 사동 1183-1번지 301호","indutype":"음료식품 - 농·축·수산품","category":"food"}]},{"lat":"37.301481353","long":"126.85599546","imageIndex":7,"items":[{"name":"햇쌀원","tel":"031-407-6658","addr":"경기도 안산시 상록구 사동 1253-4번지","indutype":"음료식품 - 미곡상","category":"food"}]},{"lat":"37.297289535","long":"126.84733055","imageIndex":7,"items":[{"name":"행운상회","tel":"","addr":"경기도 안산시 상록구 사동 1284-6번지 대명빌라 302호","indutype":"음료식품 - 농·축·수산품","category":"food"}]},{"lat":"37.301283771","long":"126.85651468","imageIndex":7,"items":[{"name":"허스키 안산점","tel":"031-409-9490","addr":"경기도 안산시 상록구 사동 1240-4번지","indutype":"음료식품 - 농·축·수산품","category":"food"}]},{"lat":"37.288873807","long":"126.85421564","imageIndex":7,"items":[{"name":"현대수산","tel":"031-407-6767","addr":"경기도 안산시 상록구 사동 1344-1,B16","indutype":"음료식품 - 농·축·수산품","category":"food"}]},{"lat":"37.2870980547","long":"126.8536327334","imageIndex":7,"items":[{"name":"현미와누룽지","tel":"","addr":"경기도 안산시 상록구 사동 1346번지","indutype":"제조업 - 즉석가공식품,농산물","category":"food"}]},{"lat":"37.30161538","long":"126.84804349","imageIndex":7,"items":[{"name":"현진종합유통","tel":"031-501-7379","addr":"경기도 안산시 상록구 사동 1191-8번지 104호","indutype":"음료식품 - 기타음료식품","category":"food"}]},{"lat":"37.294815151","long":"126.84996342","imageIndex":7,"items":[{"name":"홍쌤점핑","tel":"031-408-9534","addr":"경기도 안산시 상록구 사동 1311-8번지 1동상가","indutype":"건강식품 - 기타건강식품","category":"food"}]},{"lat":"37.2889856989","long":"126.8500992620","imageIndex":7,"items":[{"name":"화성건강원","tel":"031-418-4458","addr":"경기도 안산시 상록구 사동 1345-2번지 상록수현대1차아파트","indutype":"제조업 - 건강식품","category":"food"}]},{"lat":"37.283652964","long":"126.85113619","imageIndex":7,"items":[{"name":"화원상회","tel":"031-432-4399","addr":"경기도 안산시 상록구 사동 1407-27번지 103호","indutype":"음료식품 - 농·축·수산품","category":"food"}]},{"lat":"37.30655962","long":"126.84623988","imageIndex":7,"items":[{"name":"회스토리","tel":"031-501-8833","addr":"경기도 안산시 상록구 사동 1517-3번지 산호빌딩 102호","indutype":"음료식품 - 기타음료식품","category":"food"}]}]