[{"lat":"37.4590725","long":"126.8752639","imageIndex":0,"items":[{"name":"(주)가리온모터스","tel":"02-899-1006","addr":"경기도 광명시 하안동 303번지 경매장빌딩 301호","indutype":"자동차판매 - 중고자동차판매","category":"car"},{"name":"(주)광명자동차","tel":"02-897-9110","addr":"경기도 광명시 하안동 303번지 자동차경매장빌딩 209호","indutype":"자동차판매 - 중고자동차판매","category":"car"},{"name":"(주)미라클모터스","tel":"02-898-1155","addr":"경기도 광명시 하안동 303번지 경매장빌딩 304호","indutype":"자동차판매 - 중고자동차판매","category":"car"},{"name":"(주)미래로","tel":"02-894-9114","addr":"경기도 광명시 하안동 303번지","indutype":"자동차판매 - 중고자동차판매","category":"car"},{"name":"(주)제이엠모터스","tel":"02-899-9017","addr":"경기도 광명시 하안동 303번지 경매장빌딩 207호","indutype":"자동차판매 - 중고자동차판매","category":"car"},{"name":"(주)한국모터스","tel":"02-899-7722","addr":"경기도 광명시 하안동 303번지 경매장빌딩 305호","indutype":"자동차판매 - 중고자동차판매","category":"car"},{"name":"(주)한국자동차유통","tel":"02-894-9114","addr":"경기도 광명시 하안동 303번지","indutype":"자동차판매 - 중고자동차판매","category":"car"},{"name":"관악JD모터스","tel":"02-899-2022","addr":"경기도 광명시 하안동 303번지 한국자동차경매장 216호","indutype":"자동차판매 - 중고자동차판매","category":"car"},{"name":"모아상사","tel":"02-897-8733","addr":"경기도 광명시 하안동 303번지 한국자동차경매장 2층 216호","indutype":"자동차판매 - 중고자동차판매","category":"car"},{"name":"에이스자동차공업사","tel":"02-898-4095","addr":"경기도 광명시 하안동 303번지","indutype":"자동차정비 유지 - 자동차정비","category":"car"},{"name":"주식회사한진모터스","tel":"02-898-8811","addr":"경기도 광명시 하안동 303번지 경매장빌딩 206호","indutype":"자동차판매 - 중고자동차판매","category":"car"},{"name":"태영모터스","tel":"02-899-1977","addr":"경기도 광명시 하안동 303번지 한국자동차경매장 208호","indutype":"자동차판매 - 중고자동차판매","category":"car"}]},{"lat":"37.45846083","long":"126.8762031","imageIndex":0,"items":[{"name":"(주)글라우베아우토","tel":"070-4150-0007","addr":"경기도 광명시 하안동 305번지 하안동자동차관련시설 401호","indutype":"자동차판매 - 중고자동차판매","category":"car"},{"name":"(주)명문모터스","tel":"02-6953-0552","addr":"경기도 광명시 하안동 305번지 하안동자동차관련시설 2층 209호","indutype":"자동차판매 - 중고자동차판매","category":"car"},{"name":"(주)명성모터스","tel":"02-2088-4548","addr":"경기도 광명시 하안동 305번지 신명빌딩 203호","indutype":"자동차판매 - 중고자동차판매","category":"car"},{"name":"(주)영진모터스","tel":"02-897-8011","addr":"경기도 광명시 하안동 305번지 신명빌딩 211호","indutype":"자동차판매 - 중고자동차판매","category":"car"},{"name":"(주)예스카","tel":"02-898-0050","addr":"경기도 광명시 하안동 305번지 신명빌딩 501호","indutype":"자동차판매 - 중고자동차판매","category":"car"},{"name":"(주)카트랜드","tel":"02-897-2008","addr":"경기도 광명시 하안동 305번지 B2층 2호","indutype":"자동차판매 - 중고자동차판매","category":"car"},{"name":"누리모터스(주)","tel":"02-898-3690","addr":"경기도 광명시 하안동 305번지 신명빌딩 213호","indutype":"자동차판매 - 중고자동차판매","category":"car"},{"name":"인연모터스","tel":"02-6959-1535","addr":"경기도 광명시 하안동 305번지 신명빌딩 B3층 2호","indutype":"자동차판매 - 중고자동차판매","category":"car"},{"name":"자판사 모터스","tel":"","addr":"경기도 광명시 하안동 305번지 하안동자동차관련시설 B102호","indutype":"자동차판매 - 중고자동차판매","category":"car"},{"name":"장인공업사","tel":"02-899-1324","addr":"경기도 광명시 하안동 305번지","indutype":"자동차정비 유지 - 자동차정비","category":"car"}]},{"lat":"37.45940683","long":"126.8761563","imageIndex":0,"items":[{"name":"(주)김앤고모터스","tel":"02-898-7532","addr":"경기도 광명시 하안동 303-1번지 다카자동차쇼핑몰 205호","indutype":"자동차판매 - 중고자동차판매","category":"car"},{"name":"(주)스타모터스","tel":"02-898-5953","addr":"경기도 광명시 하안동 303-1번지 다카자동차쇼핑몰 230~232호","indutype":"자동차판매 - 중고자동차판매","category":"car"},{"name":"(주)시온자동차","tel":"02-899-8200","addr":"경기도 광명시 하안동 303-1번지 다카자동차쇼핑몰 301호","indutype":"자동차판매 - 중고자동차판매","category":"car"},{"name":"(주)오토딜 모터스","tel":"02-897-5001","addr":"경기도 광명시 하안동 303-1번지 다카자동차쇼핑몰 421호","indutype":"자동차판매 - 중고자동차판매","category":"car"},{"name":"(주)우수상사","tel":"02-897-0008","addr":"경기도 광명시 하안동 303-1번지 다카자동차쇼핑몰 203호","indutype":"자동차판매 - 중고자동차판매","category":"car"},{"name":"다카자동차","tel":"02-899-2724","addr":"경기도 광명시 하안동 303-1번지 다카자동차쇼핑몰 238호","indutype":"자동차판매 - 중고자동차판매","category":"car"},{"name":"동방자동차공업사","tel":"02-897-3347","addr":"경기도 광명시 하안동 303-1번지 다카쇼핑몰 1층","indutype":"자동차정비 유지 - 자동차정비","category":"car"},{"name":"서울모터스(주)","tel":"02-897-3700","addr":"경기도 광명시 하안동 303-1 남서울유통센타 2층 43호,44호","indutype":"자동차판매 - 중고자동차판매","category":"car"},{"name":"세종모터스","tel":"02-897-9431","addr":"경기도 광명시 하안동 303-1번지 다카쇼핑몰 2층 209,210호","indutype":"자동차판매 - 중고자동차판매","category":"car"},{"name":"시온세차광택","tel":"02-899-3877","addr":"경기도 광명시 하안동 303-1번지 다카자동차쇼핑몰 1층 104호","indutype":"자동차정비 유지 - 카인테리어","category":"car"},{"name":"엘림자동차매매상사","tel":"02-899-8200","addr":"경기도 광명시 하안동 303-1번지 다카자동차쇼핑몰 241동 242호","indutype":"자동차판매 - 중고자동차판매","category":"car"},{"name":"원일모터스","tel":"02-898-9500","addr":"경기도 광명시 하안동 303-1다카쇼핑몰226~229","indutype":"자동차판매 - 중고자동차판매","category":"car"},{"name":"주식회사 운산모터스","tel":"02-2088-5070","addr":"경기도 광명시 하안동 303-1번지 2층 233호,236호","indutype":"자동차판매 - 중고자동차판매","category":"car"},{"name":"주식회사 이와이모터스","tel":"02-899-0974","addr":"경기도 광명시 하안동 303-1번지 다카자동차쇼핑몰 224호 다카자동차쇼핑몰","indutype":"자동차판매 - 중고자동차판매","category":"car"},{"name":"주식회사다카자동차공업사","tel":"02-898-8587","addr":"경기도 광명시 하안동 303-1번지 다카자동차쇼핑몰 105호","indutype":"자동차정비 유지 - 자동차정비","category":"car"},{"name":"주식회사유레카","tel":"02-898-8844","addr":"경기도 광명시 하안동 303-1번지 다카빌딩 2층 239호","indutype":"자동차판매 - 중고자동차판매","category":"car"},{"name":"카오베론","tel":"02-897-8192","addr":"경기도 광명시 하안동 303-1번지 다카자동차쇼핑몰 107호","indutype":"회원제형태 - 자동차서비스","category":"car"},{"name":"프로광택","tel":"","addr":"경기도 광명시 하안동 303-1번지 다카자동차쇼핑몰 101호","indutype":"자동차정비 유지 - 카인테리어","category":"car"},{"name":"한일상사(2)","tel":"02-899-0555","addr":"경기도 광명시 하안동 303-1번지 다카자동차쇼핑몰 248호","indutype":"자동차판매 - 중고자동차판매","category":"car"}]},{"lat":"37.45759762","long":"126.8778434","imageIndex":0,"items":[{"name":"(주)운산","tel":"02-899-9191","addr":"경기도 광명시 하안동 323-2번지","indutype":"자동차정비 유지 - 자동차정비","category":"car"},{"name":"고광택","tel":"02-897-9598","addr":"경기도 광명시 하안동 323-2번지 1층","indutype":"자동차정비 유지 - 카인테리어","category":"car"},{"name":"운산자동차공업사","tel":"02-899-9191","addr":"경기도 광명시 하안동 323-2번지","indutype":"자동차정비 유지 - 자동차정비","category":"car"}]},{"lat":"37.45948841","long":"126.8766195","imageIndex":0,"items":[{"name":"JXV자동차외형복원","tel":"02-899-3877","addr":"경기도 광명시 하안동 302-10번지","indutype":"자동차정비 유지 - 자동차정비","category":"car"}]},{"lat":"37.45307398","long":"126.8613165","imageIndex":0,"items":[{"name":"National Korea","tel":"02-898-1595","addr":"경기도 광명시 하안동 876-2번지 102호","indutype":"자동차정비 유지 - 자동차정비","category":"car"}]},{"lat":"37.45710065","long":"126.8852359","imageIndex":0,"items":[{"name":"공단스마일자동차정비","tel":"02-894-9670","addr":"경기도 광명시 하안동 201번지","indutype":"자동차정비 유지 - 자동차정비","category":"car"}]},{"lat":"37.46371209","long":"126.8747587","imageIndex":0,"items":[{"name":"광명 밧데리 다이쏘","tel":"02-000-0000","addr":"경기도 광명시 하안동 650-1번지 하안주공3단지 종합상가 108호","indutype":"자동차정비 유지 - 견인서비스","category":"car"}]},{"lat":"37.4590972","long":"126.8731277","imageIndex":0,"items":[{"name":"광명,금천밧데리할인매장","tel":"02-898-0022","addr":"경기도 광명시 하안동 611-7번지","indutype":"자동차정비 유지 - 자동차부품","category":"car"}]},{"lat":"37.46193344","long":"126.8714047","imageIndex":0,"items":[{"name":"광명시장애인단체연합회","tel":"02-899-6717","addr":"경기도 광명시 하안동 577번지 광명실내체육관내","indutype":"자동차정비 유지 - 주차장","category":"car"}]},{"lat":"37.45900544","long":"126.8799998","imageIndex":0,"items":[{"name":"국민스팀세차","tel":"02-910-5235","addr":"경기도 광명시 하안동 295번지 하안7단지고층주공아파트","indutype":"자동차정비 유지 - 세차장","category":"car"}]},{"lat":"37.4585737","long":"126.8722922","imageIndex":0,"items":[{"name":"금강상사","tel":"02-897-6266","addr":"경기도 광명시 하안동 590-5번지","indutype":"자동차정비 유지 - 자동차부품","category":"car"}]},{"lat":"37.45857596","long":"126.8743493","imageIndex":0,"items":[{"name":"금옥세차장","tel":"02-897-0918","addr":"경기도 광명시 하안동 304번지","indutype":"자동차정비 유지 - 세차장","category":"car"},{"name":"오디오프라자","tel":"02-3661-9255","addr":"경기도 광명시 하안동 304번지","indutype":"자동차정비 유지 - 자동차부품","category":"car"}]},{"lat":"37.45849249","long":"126.8721793","imageIndex":0,"items":[{"name":"기아부품명성대리점","tel":"02-897-5245","addr":"경기도 광명시 하안동 590-6번지 1층","indutype":"자동차정비 유지 - 자동차부품","category":"car"}]},{"lat":"37.45860359","long":"126.874903","imageIndex":0,"items":[{"name":"김앤고타이어","tel":"","addr":"경기도 광명시 하안동 304-2번지 1층 일부","indutype":"자동차정비 유지 - 자동차시트·타이어","category":"car"},{"name":"미래광택","tel":"","addr":"경기도 광명시 하안동 304-2번지 1층","indutype":"자동차정비 유지 - 카인테리어","category":"car"},{"name":"미스오토","tel":"02-521-6945","addr":"경기도 광명시 하안동 304-2번지","indutype":"자동차정비 유지 - 자동차정비","category":"car"}]},{"lat":"37.45990187","long":"126.8756807","imageIndex":0,"items":[{"name":"녹원토피아 운영회","tel":"02-897-8973","addr":"경기도 광명시 하안동 302-5번지 녹원토피아빌딩","indutype":"자동차정비 유지 - 주차장","category":"car"}]},{"lat":"37.45871365","long":"126.8767113","imageIndex":0,"items":[{"name":"대광세차장","tel":"02-899-3651","addr":"경기도 광명시 하안동 305-1번지 프라임모터스빌딩 1층","indutype":"자동차정비 유지 - 세차장","category":"car"},{"name":"슈퍼덴트","tel":"02-898-2663","addr":"경기도 광명시 하안동 305-1번지 프라임모터스빌딩 130,131호","indutype":"자동차정비 유지 - 자동차정비","category":"car"},{"name":"우리상사","tel":"02-898-0025","addr":"경기도 광명시 하안동 305-1번지 프라임모터스빌딩 231동 232호","indutype":"자동차판매 - 중고자동차판매","category":"car"},{"name":"프라임광택","tel":"02-898-7313","addr":"경기도 광명시 하안동 305-1번지 142호 프라임모터스빌딩1층142호~145호","indutype":"자동차정비 유지 - 카인테리어","category":"car"},{"name":"프로카경정비","tel":"02-899-3651","addr":"경기도 광명시 하안동 305-1번지 프라임모터스빌딩 119호외 25호","indutype":"자동차정비 유지 - 자동차정비","category":"car"},{"name":"현대광택","tel":"02-898-7643","addr":"경기도 광명시 하안동 305-1번지 프라임모터스빌딩 201호","indutype":"자동차정비 유지 - 카인테리어","category":"car"}]},{"lat":"37.45824107","long":"126.8729596","imageIndex":0,"items":[{"name":"동신실업","tel":"02-897-8131","addr":"경기도 광명시 하안동 319-7번지 지층","indutype":"자동차정비 유지 - 자동차부품","category":"car"},{"name":"애니카랜드하안점","tel":"02-898-5151","addr":"경기도 광명시 하안동 319-7번지","indutype":"자동차정비 유지 - 자동차정비","category":"car"}]},{"lat":"37.45890766","long":"126.8728228","imageIndex":0,"items":[{"name":"리앤뉴 디테일링","tel":"02-899-0081","addr":"경기도 광명시 하안동 611-10번지 1층","indutype":"자동차정비 유지 - 세차장","category":"car"}]},{"lat":"37.4606225","long":"126.8841793","imageIndex":0,"items":[{"name":"맥스턴","tel":"02-1234-1234","addr":"경기도 광명시 하안동 110번지 하안12단지고층주공아파트","indutype":"자동차정비 유지 - 자동차부품","category":"car"}]},{"lat":"37.45932639","long":"126.8767668","imageIndex":0,"items":[{"name":"사단법인 경기도시각장애인연합회광명시지","tel":"02-802-6009","addr":"경기도 광명시 하안동 302-11번지 호연빌딩 7층 706호","indutype":"자동차정비 유지 - 주차장","category":"car"},{"name":"야베스카인테리어","tel":"02-897-5965","addr":"경기도 광명시 하안동 302-11번지 호연빌딩 1층","indutype":"자동차정비 유지 - 카인테리어","category":"car"}]},{"lat":"37.46564594","long":"126.86387","imageIndex":0,"items":[{"name":"성진상사","tel":"02-898-6019","addr":"경기도 광명시 하안동 702번지 하안5단지고층주공아파트","indutype":"자동차정비 유지 - 자동차부품","category":"car"}]},{"lat":"37.46012607","long":"126.8747083","imageIndex":0,"items":[{"name":"세풍차유리","tel":"02-897-4400","addr":"경기도 광명시 하안동 606-15번지","indutype":"자동차정비 유지 - 자동차부품","category":"car"}]},{"lat":"37.45813276","long":"126.8727903","imageIndex":0,"items":[{"name":"신천카센타","tel":"02-898-7999","addr":"경기도 광명시 하안동 319-8번지","indutype":"자동차정비 유지 - 자동차정비","category":"car"}]},{"lat":"37.4586817","long":"126.872179","imageIndex":0,"items":[{"name":"아우토반카센타","tel":"02-897-2488","addr":"경기도 광명시 하안동 590-4번지 1층","indutype":"자동차정비 유지 - 자동차정비","category":"car"}]},{"lat":"37.45824008","long":"126.8720667","imageIndex":0,"items":[{"name":"아트라스 중부상사","tel":"02-899-6190","addr":"경기도 광명시 하안동 318-6번지 1층","indutype":"자동차정비 유지 - 자동차시트·타이어","category":"car"}]},{"lat":"37.45963108","long":"126.8752291","imageIndex":0,"items":[{"name":"에스엔씨","tel":"031-897-4457","addr":"경기도 광명시 하안동 302-2번지 1층 일부","indutype":"자동차정비 유지 - 자동차부품","category":"car"},{"name":"카앤덴트(하안지점)","tel":"02-898-2571","addr":"경기도 광명시 하안동 302-2번지 1층 일부호","indutype":"자동차정비 유지 - 카인테리어","category":"car"}]},{"lat":"37.46596054","long":"126.8794233","imageIndex":0,"items":[{"name":"영진플러스","tel":"031-1111-1111","addr":"경기도 광명시 하안동 30번지 하안10단지고층주공아파트","indutype":"자동차정비 유지 - 자동차부품","category":"car"}]},{"lat":"37.46027047","long":"126.8749341","imageIndex":0,"items":[{"name":"오토 엑티브","tel":"02-897-1313","addr":"경기도 광명시 하안동 606-13번지 1층 101호","indutype":"자동차정비 유지 - 카인테리어","category":"car"}]},{"lat":"37.45909866","long":"126.8744614","imageIndex":0,"items":[{"name":"오토매니아","tel":"070-4760-7071","addr":"경기도 광명시 하안동 301-4번지 홍우빌딩 102호","indutype":"자동차정비 유지 - 카인테리어","category":"car"}]},{"lat":"37.45876325","long":"126.872597","imageIndex":0,"items":[{"name":"유진자동밋션","tel":"02-897-8808","addr":"경기도 광명시 하안동 611-12번지","indutype":"자동차정비 유지 - 자동차정비","category":"car"}]},{"lat":"37.45835352","long":"126.8769605","imageIndex":0,"items":[{"name":"이화세차장","tel":"02-2613-1245","addr":"경기도 광명시 하안동 305-2번지","indutype":"자동차정비 유지 - 세차장","category":"car"}]},{"lat":"37.46861372","long":"126.8668714","imageIndex":0,"items":[{"name":"자동차유리복원베스트원","tel":"","addr":"경기도 광명시 하안동 864번지 이편한세상센트레빌아파트","indutype":"자동차정비 유지 - 자동차정비","category":"car"}]},{"lat":"37.45879908","long":"126.8724048","imageIndex":0,"items":[{"name":"제일광택","tel":"02-1111-1111","addr":"경기도 광명시 하안동 611번지 1층","indutype":"자동차정비 유지 - 카인테리어","category":"car"}]},{"lat":"37.45921451","long":"126.8732857","imageIndex":0,"items":[{"name":"조은타이어","tel":"02-899-0073","addr":"경기도 광명시 하안동 607-19번지","indutype":"자동차정비 유지 - 자동차시트·타이어","category":"car"}]},{"lat":"37.46081886","long":"126.8738142","imageIndex":0,"items":[{"name":"창가림","tel":"031-899-7942","addr":"경기도 광명시 하안동 598-13번지 지하층","indutype":"자동차정비 유지 - 자동차부품","category":"car"}]},{"lat":"37.45793307","long":"126.8714569","imageIndex":0,"items":[{"name":"카포스상사","tel":"02-897-5554","addr":"경기도 광명시 하안동 317-24번지","indutype":"자동차정비 유지 - 자동차부품","category":"car"},{"name":"패밀리 전문정비공업사","tel":"02-897-4040","addr":"경기도 광명시 하안동 317-24번지 1층","indutype":"자동차정비 유지 - 자동차정비","category":"car"}]},{"lat":"37.45548656","long":"126.8672116","imageIndex":0,"items":[{"name":"타이어프로하안점","tel":"02-899-6699","addr":"경기도 광명시 하안동 334-18번지","indutype":"자동차정비 유지 - 자동차시트·타이어","category":"car"}]},{"lat":"37.45876728","long":"126.8681551","imageIndex":0,"items":[{"name":"탑클래스(TOPCLASS)","tel":"070-8682-1826","addr":"경기도 광명시 하안동 568번지","indutype":"자동차정비 유지 - 카인테리어","category":"car"}]},{"lat":"37.45657046","long":"126.8778225","imageIndex":0,"items":[{"name":"텐토르 광명점","tel":"02-6407-1020","addr":"경기도 광명시 하안동 241-1번지 1층","indutype":"자동차정비 유지 - 카인테리어","category":"car"}]},{"lat":"37.4611295","long":"126.8778149","imageIndex":0,"items":[{"name":"하안오토바이","tel":"02-898-5847","addr":"경기도 광명시 하안동 296-3.1층10","indutype":"자동차판매 - 이륜차판매","category":"car"}]},{"lat":"37.4671842","long":"126.8695643","imageIndex":0,"items":[{"name":"한국지엠 광명철산바로서비스","tel":"02-2060-8252","addr":"경기도 광명시 하안동 718-1번지","indutype":"자동차정비 유지 - 자동차정비","category":"car"}]},{"lat":"37.45782254","long":"126.8775378","imageIndex":0,"items":[{"name":"한일주차장","tel":"02-898-8073","addr":"경기도 광명시 하안동 323-1번지","indutype":"자동차정비 유지 - 주차장","category":"car"},{"name":"한일카독크","tel":"02-897-5008","addr":"경기도 광명시 하안동 323-1번지","indutype":"자동차정비 유지 - 자동차정비","category":"car"}]},{"lat":"37.46060268","long":"126.8738711","imageIndex":0,"items":[{"name":"희경상사","tel":"02-897-5240","addr":"경기도 광명시 하안동 599-1번지 1층 1호","indutype":"자동차정비 유지 - 자동차부품","category":"car"}]},{"lat":"37.45854322","long":"126.8774236","imageIndex":0,"items":[{"name":"희찬자동차정비","tel":"02-897-1410","addr":"경기도 광명시 하안동 305-6번지 석산빌딩 105호","indutype":"자동차정비 유지 - 자동차정비","category":"car"}]}]