[{"lat":"37.281490897","long":"127.44045832","imageIndex":7,"items":[{"name":"(주)다원청과","tel":"","addr":"경기도 이천시 관고동 9-9번지 1층","indutype":"음료식품 - 농·축·수산품","category":"food"}]},{"lat":"37.281355622","long":"127.44049136","imageIndex":7,"items":[{"name":"강화상회","tel":"031-635-2343","addr":"경기도 이천시 관고동 9-14번지","indutype":"음료식품 - 기타음료식품","category":"food"},{"name":"부흥상회","tel":"031-635-4026","addr":"경기도 이천시 관고동 9-14번지","indutype":"음료식품 - 농·축·수산품","category":"food"}]},{"lat":"37.281936882","long":"127.43924309","imageIndex":7,"items":[{"name":"고려인삼 이천총판","tel":"031-635-3933","addr":"경기도 이천시 관고동 4-22번지","indutype":"음료식품 - 기타음료식품","category":"food"}]},{"lat":"37.282683922","long":"127.43946165","imageIndex":7,"items":[{"name":"공설건강원","tel":"031-635-4688","addr":"경기도 이천시 관고동 3-15번지","indutype":"건강식품 - 기타건강식품","category":"food"}]},{"lat":"37.282800845","long":"127.4395187","imageIndex":7,"items":[{"name":"관고동새마을부녀회","tel":"031-635-4737","addr":"경기도 이천시 관고동 3-14번지","indutype":"음료식품 - 미곡상","category":"food"},{"name":"해궁찰김","tel":"031-631-3330","addr":"경기도 이천시 관고동 3-14번지","indutype":"음료식품 - 기타음료식품","category":"food"}]},{"lat":"37.279744538","long":"127.43757291","imageIndex":7,"items":[{"name":"구룡산흑염소","tel":"031-636-0334","addr":"경기도 이천시 관고동 25번지","indutype":"건강식품 - 기타건강식품","category":"food"}]},{"lat":"37.281826724","long":"127.43979498","imageIndex":7,"items":[{"name":"그랑프리제과점","tel":"031-634-0744","addr":"경기도 이천시 관고동 8-17번지","indutype":"음료식품 - 제과점","category":"food"}]},{"lat":"37.2835799","long":"127.4383843","imageIndex":7,"items":[{"name":"그린 서플라이 앤 서비스","tel":"","addr":"경기도 이천시 관고동 1-19번지 1층","indutype":"음료식품 - 기타음료식품","category":"food"}]},{"lat":"37.283497995","long":"127.43368164","imageIndex":7,"items":[{"name":"나주유통","tel":"031-631-0080","addr":"경기도 이천시 관고동 199-13번지","indutype":"음료식품 - 미곡상","category":"food"}]},{"lat":"37.280908203","long":"127.43965436","imageIndex":7,"items":[{"name":"남도","tel":"031-635-1301","addr":"경기도 이천시 관고동 10-23번지 1층","indutype":"음료식품 - 기타음료식품","category":"food"},{"name":"맛있는반찬집","tel":"031-635-8376","addr":"경기도 이천시 관고동 10-23번지","indutype":"음료식품 - 농·축·수산품","category":"food"},{"name":"어머니상회","tel":"031-632-0696","addr":"경기도 이천시 관고동 10-23번지","indutype":"음료식품 - 농·축·수산품","category":"food"}]},{"lat":"37.278855277","long":"127.43682361","imageIndex":7,"items":[{"name":"대농유통","tel":"031-634-3640","addr":"경기도 이천시 관고동 500-8번지","indutype":"음료식품 - 정육점","category":"food"},{"name":"시민건강원","tel":"031-638-0285","addr":"경기도 이천시 관고동 500-8번지","indutype":"건강식품 - 기타건강식품","category":"food"}]},{"lat":"37.281185765","long":"127.44012955","imageIndex":7,"items":[{"name":"두만사","tel":"031-635-1301","addr":"경기도 이천시 관고동 9-19번지","indutype":"음료식품 - 기타음료식품","category":"food"}]},{"lat":"37.282051503","long":"127.43501524","imageIndex":7,"items":[{"name":"떡보의하루","tel":"031-636-4417","addr":"경기도 이천시 관고동 60-3번지 101호","indutype":"음료식품 - 제과점","category":"food"}]},{"lat":"37.281716239","long":"127.43799018","imageIndex":7,"items":[{"name":"로타리떡방앗간","tel":"031-635-3568","addr":"경기도 이천시 관고동 17-5번지","indutype":"음료식품 - 기타음료식품","category":"food"},{"name":"로타리떡방앗간","tel":"031-635-3568","addr":"경기도 이천시 관고동 17-5번지","indutype":"음료식품 - 제과점","category":"food"}]},{"lat":"37.280853103","long":"127.43993593","imageIndex":7,"items":[{"name":"만물식품","tel":"031-635-2580","addr":"경기도 이천시 관고동 10-21번지","indutype":"음료식품 - 농·축·수산품","category":"food"}]},{"lat":"37.281357996","long":"127.43984865","imageIndex":7,"items":[{"name":"바로구운빵","tel":"031-637-6113","addr":"경기도 이천시 관고동 9-27번지","indutype":"음료식품 - 제과점","category":"food"},{"name":"삼성정육점","tel":"031-635-5549","addr":"경기도 이천시 관고동 9-27번지","indutype":"음료식품 - 정육점","category":"food"}]},{"lat":"37.281158318","long":"127.44024215","imageIndex":7,"items":[{"name":"밤배기맛김","tel":"031-635-2955","addr":"경기도 이천시 관고동 9-18번지","indutype":"음료식품 - 기타음료식품","category":"food"}]},{"lat":"37.278630234","long":"127.43676594","imageIndex":7,"items":[{"name":"부악정육점","tel":"031-635-4501","addr":"경기도 이천시 관고동 500-4번지","indutype":"음료식품 - 정육점","category":"food"}]},{"lat":"37.280914632","long":"127.4403535","imageIndex":7,"items":[{"name":"부창상회","tel":"031-635-6415","addr":"경기도 이천시 관고동 10-10번지","indutype":"음료식품 - 농·축·수산품","category":"food"}]},{"lat":"37.278997027","long":"127.43502033","imageIndex":7,"items":[{"name":"산호고기백화점/주식회사 산호푸드","tel":"031-635-9444","addr":"경기도 이천시 관고동 453-6번지","indutype":"음료식품 - 정육점","category":"food"}]},{"lat":"37.282461594","long":"127.43621285","imageIndex":7,"items":[{"name":"삼보참치 직판장","tel":"031-638-8589","addr":"경기도 이천시 관고동 64-3번지","indutype":"음료식품 - 농·축·수산품","category":"food"}]},{"lat":"37.278942381","long":"127.42771346","imageIndex":7,"items":[{"name":"설봉공원매점","tel":"031-635-4088","addr":"경기도 이천시 관고동 356번지 설봉공원","indutype":"음료식품 - 기타음료식품","category":"food"}]},{"lat":"37.280998386","long":"127.43963233","imageIndex":7,"items":[{"name":"설봉청과","tel":"031-637-8898","addr":"경기도 이천시 관고동 10-28 설봉청과","indutype":"음료식품 - 농·축·수산품","category":"food"}]},{"lat":"37.280968483","long":"127.44041019","imageIndex":7,"items":[{"name":"스피드푸줏간","tel":"031-635-2778","addr":"경기도 이천시 관고동 10-11번지","indutype":"음료식품 - 정육점","category":"food"}]},{"lat":"37.280969025","long":"127.4402636","imageIndex":7,"items":[{"name":"스피드푸줏간","tel":"031-635-2778","addr":"경기도 이천시 관고동 10-9","indutype":"음료식품 - 정육점","category":"food"},{"name":"현대수산","tel":"031-632-2944","addr":"경기도 이천시 관고동 10-9","indutype":"음료식품 - 정육점","category":"food"}]},{"lat":"37.286712273","long":"127.43185058","imageIndex":7,"items":[{"name":"승민정육점","tel":"031-111-1111","addr":"경기도 이천시 관고동 99-2번지","indutype":"음료식품 - 정육점","category":"food"}]},{"lat":"37.278934424","long":"127.43735401","imageIndex":7,"items":[{"name":"시너지 옹기테라피","tel":"031-634-3856","addr":"경기도 이천시 관고동 26-7번지","indutype":"건강식품 - 기타건강식품","category":"food"}]},{"lat":"37.28074365","long":"127.44029613","imageIndex":7,"items":[{"name":"시장식품점","tel":"031-636-0123","addr":"경기도 이천시 관고동 10-13번지","indutype":"음료식품 - 기타음료식품","category":"food"}]},{"lat":"37.282241517","long":"127.43970717","imageIndex":7,"items":[{"name":"신용고추","tel":"031-638-2997","addr":"경기도 이천시 관고동 5-8번지","indutype":"음료식품 - 기타음료식품","category":"food"}]},{"lat":"37.28257732","long":"127.4365969","imageIndex":7,"items":[{"name":"아이스콘나라 관고점","tel":"031-638-7823","addr":"경기도 이천시 관고동 66-3번지 103호","indutype":"음료식품 - 기타음료식품","category":"food"}]},{"lat":"37.281106506","long":"127.43963295","imageIndex":7,"items":[{"name":"안성유통정육점","tel":"031-631-0162","addr":"경기도 이천시 관고동 10번지","indutype":"음료식품 - 정육점","category":"food"},{"name":"완도반찬","tel":"031-637-6610","addr":"경기도 이천시 관고동 10번지","indutype":"음료식품 - 기타음료식품","category":"food"}]},{"lat":"37.283684849","long":"127.43679495","imageIndex":7,"items":[{"name":"양정여고매점","tel":"031-633-7803","addr":"경기도 이천시 관고동 77번지","indutype":"음료식품 - 기타음료식품","category":"food"}]},{"lat":"37.281492022","long":"127.44015387","imageIndex":7,"items":[{"name":"이천 강경젓갈대리점","tel":"031-634-1414","addr":"경기도 이천시 관고동 9-4번지","indutype":"음료식품 - 농·축·수산품","category":"food"},{"name":"이천떡집","tel":"031-635-4775","addr":"경기도 이천시 관고동 9-4번지","indutype":"음료식품 - 제과점","category":"food"}]},{"lat":"37.280600906","long":"127.43991192","imageIndex":7,"items":[{"name":"이천과일","tel":"031-634-8986","addr":"경기도 이천시 관고동 11번지","indutype":"음료식품 - 농·축·수산품","category":"food"}]},{"lat":"37.282080335","long":"127.43943561","imageIndex":7,"items":[{"name":"이천농산","tel":"031-633-4838","addr":"경기도 이천시 관고동 4-38번지","indutype":"음료식품 - 농·축·수산품","category":"food"}]},{"lat":"37.28107906","long":"127.43974555","imageIndex":7,"items":[{"name":"인영식품","tel":"031-635-7850","addr":"경기도 이천시 관고동 10-1번지","indutype":"음료식품 - 기타음료식품","category":"food"}]},{"lat":"37.28207788","long":"127.44010088","imageIndex":7,"items":[{"name":"자연주의","tel":"031-631-0508","addr":"경기도 이천시 관고동 8-5번지","indutype":"건강식품 - 기타건강식품","category":"food"}]},{"lat":"37.281302604","long":"127.44020916","imageIndex":7,"items":[{"name":"조선떡집","tel":"031-635-6704","addr":"경기도 이천시 관고동 9-22번지","indutype":"음료식품 - 제과점","category":"food"}]},{"lat":"37.282298588","long":"127.43643744","imageIndex":7,"items":[{"name":"종근당건강헬스벨스토리이천관고점","tel":"031-631-0309","addr":"경기도 이천시 관고동 20-1번지 1층","indutype":"건강식품 - 기타건강식품","category":"food"}]},{"lat":"37.281580964","long":"127.43802323","imageIndex":7,"items":[{"name":"쪼앤킴점핑다이어트","tel":"031-632-6103","addr":"경기도 이천시 관고동 17-6번지 2층 201호","indutype":"건강식품 - 기타건강식품","category":"food"}]},{"lat":"37.281158027","long":"127.44032108","imageIndex":7,"items":[{"name":"찰김식품","tel":"031-634-6192","addr":"경기도 이천시 관고동 9-17번지","indutype":"음료식품 - 기타음료식품","category":"food"}]},{"lat":"37.282049809","long":"127.44038262","imageIndex":7,"items":[{"name":"칼린카 (kalinka)","tel":"031-635-1111","addr":"경기도 이천시 관고동 7-7번지 1층 104호","indutype":"음료식품 - 제과점","category":"food"}]},{"lat":"37.281493515","long":"127.43730107","imageIndex":7,"items":[{"name":"토속건강원","tel":"031-638-3179","addr":"경기도 이천시 관고동 18번지","indutype":"건강식품 - 기타건강식품","category":"food"}]},{"lat":"37.281468445","long":"127.43921783","imageIndex":7,"items":[{"name":"파리바게뜨설봉점","tel":"031-637-0092","addr":"경기도 이천시 관고동 14-5번지","indutype":"음료식품 - 제과점","category":"food"}]},{"lat":"37.282799638","long":"127.4398457","imageIndex":7,"items":[{"name":"평화상회","tel":"031-635-1639","addr":"경기도 이천시 관고동 5번지","indutype":"음료식품 - 기타음료식품","category":"food"}]},{"lat":"37.28077118","long":"127.44016098","imageIndex":7,"items":[{"name":"해동상회","tel":"031-633-4901","addr":"경기도 이천시 관고동 10-15번지","indutype":"음료식품 - 농·축·수산품","category":"food"}]},{"lat":"37.280825656","long":"127.44004853","imageIndex":7,"items":[{"name":"협동상회","tel":"031-635-3926","addr":"경기도 이천시 관고동 10-20 협동상회","indutype":"음료식품 - 농·축·수산품","category":"food"}]}]