[{"lat":"37.824981941","long":"127.18058097","imageIndex":4,"items":[{"name":"건강식당","tel":"031-543-4777","addr":"경기도 포천시 가산면 가산리 69-1번지","indutype":"일반휴게음식 - 일반한식","category":"restaurant"}]},{"lat":"37.826288131","long":"127.18069769","imageIndex":4,"items":[{"name":"고향식당","tel":"031-543-3222","addr":"경기도 포천시 가산면 가산리 100-8번지","indutype":"일반휴게음식 - 일반한식","category":"restaurant"}]},{"lat":"37.834334261","long":"127.18021717","imageIndex":4,"items":[{"name":"돼지식당","tel":"031-542-8162","addr":"경기도 포천시 가산면 가산리 169-16번지","indutype":"일반휴게음식 - 일반한식","category":"restaurant"}]},{"lat":"37.82578135","long":"127.1761645","imageIndex":4,"items":[{"name":"리.버드와이져","tel":"031-531-1323","addr":"경기도 포천시 가산면 가산리 327-4번지","indutype":"일반휴게음식 - 주점","category":"restaurant"},{"name":"수인식당","tel":"031-535-0825","addr":"경기도 포천시 가산면 가산리 327-4번지","indutype":"일반휴게음식 - 일반한식","category":"restaurant"}]},{"lat":"37.832117355","long":"127.18060944","imageIndex":4,"items":[{"name":"몽드드뚜뚜","tel":"02-1111-1111","addr":"경기도 포천시 가산면 가산리 161-3번지","indutype":"일반휴게음식 - 서양음식","category":"restaurant"}]},{"lat":"37.833389802","long":"127.16671985","imageIndex":4,"items":[{"name":"무지개식당","tel":"031-535-0825","addr":"경기도 포천시 가산면 가산리 459-4번지","indutype":"일반휴게음식 - 일반한식","category":"restaurant"}]},{"lat":"37.831981666","long":"127.18097261","imageIndex":4,"items":[{"name":"영광밥상","tel":"031-543-4449","addr":"경기도 포천시 가산면 가산리 162-1번지","indutype":"일반휴게음식 - 일반한식","category":"restaurant"}]},{"lat":"37.829170196","long":"127.169005","imageIndex":4,"items":[{"name":"우리 한식 뷔페","tel":"031-541-7982","addr":"경기도 포천시 가산면 가산리 384-4번지","indutype":"일반휴게음식 - 일반한식","category":"restaurant"}]},{"lat":"37.82767369","long":"127.1696718","imageIndex":4,"items":[{"name":"청솔한식뷔페","tel":"031-543-1119","addr":"경기도 포천시 가산면 가산리 386-7번지","indutype":"일반휴게음식 - 일반한식","category":"restaurant"}]},{"lat":"37.833009078","long":"127.18074789","imageIndex":4,"items":[{"name":"황금밥상","tel":"031-542-2007","addr":"경기도 포천시 가산면 가산리 167-22번지","indutype":"일반휴게음식 - 일반한식","category":"restaurant"}]}]