[{"lat":"37.07114955","long":"127.04825481","imageIndex":4,"items":[{"name":"(주)부영오렌지식당","tel":"","addr":"경기도 평택시 서정동 570-61번지 1층","indutype":"일반휴게음식 - 일반한식","category":"restaurant"}]},{"lat":"37.057541003","long":"127.05447522","imageIndex":4,"items":[{"name":"(큰맘원조)할매순대국밥","tel":"031-655-8115","addr":"경기도 평택시 서정동 317-2번지","indutype":"일반휴게음식 - 일반한식","category":"restaurant"},{"name":"고향칼국수","tel":"031-663-7432","addr":"경기도 평택시 서정동 317-2번지","indutype":"일반휴게음식 - 일반한식","category":"restaurant"}]},{"lat":"37.067982064","long":"127.05936233","imageIndex":4,"items":[{"name":"1박2일","tel":"031-664-3394","addr":"경기도 평택시 서정동 822-1번지","indutype":"일반휴게음식 - 일반한식","category":"restaurant"},{"name":"닭발군과모래집양","tel":"031-666-5034","addr":"경기도 평택시 서정동 822-1번지","indutype":"일반휴게음식 - 스넥","category":"restaurant"}]},{"lat":"37.067683259","long":"127.06234185","imageIndex":4,"items":[{"name":"1번가찌개하우스","tel":"031-663-0006","addr":"경기도 평택시 서정동 815-17번지","indutype":"일반휴게음식 - 일반한식","category":"restaurant"},{"name":"김가네김밥","tel":"031-663-6999","addr":"경기도 평택시 서정동 815-17번지 1층","indutype":"일반휴게음식 - 일반한식","category":"restaurant"},{"name":"러프","tel":"070-4652-4048","addr":"경기도 평택시 서정동 815-17번지 지하층","indutype":"일반휴게음식 - 주점","category":"restaurant"},{"name":"엽기떡볶이송탄점","tel":"031-664-8233","addr":"경기도 평택시 서정동 815-17번지","indutype":"일반휴게음식 - 스넥","category":"restaurant"}]},{"lat":"37.058845548","long":"127.05887211","imageIndex":4,"items":[{"name":"365꼬마김밥","tel":"031-666-3650","addr":"경기도 평택시 서정동 285-22번지","indutype":"일반휴게음식 - 일반한식","category":"restaurant"}]},{"lat":"37.068926088","long":"127.06359096","imageIndex":4,"items":[{"name":"90탄연탄숯불구이","tel":"031-655-7789","addr":"경기도 평택시 서정동 795-11번지","indutype":"일반휴게음식 - 일반한식","category":"restaurant"},{"name":"90탄연탄숯불구이집","tel":"","addr":"경기도 평택시 서정동 795-11번지","indutype":"음식점 - 한식","category":"restaurant"},{"name":"송탄동태이야기","tel":"031-667-0737","addr":"경기도 평택시 서정동 795-11번지 1층","indutype":"일반휴게음식 - 일반한식","category":"restaurant"}]},{"lat":"37.060487748","long":"127.05383635","imageIndex":4,"items":[{"name":"Block 434","tel":"031-663-9993","addr":"경기도 평택시 서정동 434-1번지","indutype":"음식점 - 카페","category":"restaurant"},{"name":"블럭434","tel":"031-111-1111","addr":"경기도 평택시 서정동 434-1번지 1층,2층","indutype":"일반휴게음식 - 서양음식","category":"restaurant"}]},{"lat":"37.067736765","long":"127.06344383","imageIndex":4,"items":[{"name":"hope&hof","tel":"031-666-3079","addr":"경기도 평택시 서정동 814-8번지 2층","indutype":"일반휴게음식 - 주점","category":"restaurant"},{"name":"김밥나라","tel":"","addr":"경기도 평택시 서정동 814-8번지","indutype":"음식점 - 분식","category":"restaurant"},{"name":"술","tel":"","addr":"경기도 평택시 서정동 814-8번지 2층","indutype":"일반휴게음식 - 주점","category":"restaurant"},{"name":"즉석김밥나라","tel":"031-664-7673","addr":"경기도 평택시 서정동 814-8번지","indutype":"일반휴게음식 - 스넥","category":"restaurant"}]},{"lat":"37.068016065","long":"127.06350028","imageIndex":4,"items":[{"name":"가르텐비어 송탄점","tel":"031-611-8530","addr":"경기도 평택시 서정동 795-6번지 원영빌딩 3층","indutype":"일반휴게음식 - 주점","category":"restaurant"},{"name":"고향집 감자탕","tel":"031-666-9400","addr":"경기도 평택시 서정동 795-6번지","indutype":"음식점 - 한식","category":"restaurant"},{"name":"고향집감자탕","tel":"031-662-5599","addr":"경기도 평택시 서정동 795-6번지 원영빌딩","indutype":"일반휴게음식 - 일반한식","category":"restaurant"},{"name":"노크","tel":"031-666-8503","addr":"경기도 평택시 서정동 795-6번지","indutype":"일반휴게음식 - 스넥","category":"restaurant"},{"name":"와바송탄서정점","tel":"031-666-7776","addr":"경기도 평택시 서정동 795-6번지 원영빌딩 2층","indutype":"일반휴게음식 - 서양음식","category":"restaurant"},{"name":"텐진","tel":"070-8773-1007","addr":"경기도 평택시 서정동 795-6번지 원영빌딩 1동","indutype":"일반휴게음식 - 일식·회집","category":"restaurant"}]},{"lat":"37.064874922","long":"127.05608806","imageIndex":4,"items":[{"name":"가마솥3대장","tel":"031-667-6608","addr":"경기도 평택시 서정동 872-12번지 에렌빌딩 1층","indutype":"일반휴게음식 - 일반한식","category":"restaurant"}]},{"lat":"37.065628731","long":"127.06256513","imageIndex":4,"items":[{"name":"가야골순대국밥","tel":"031-618-3396","addr":"경기도 평택시 서정동 849-12번지","indutype":"일반휴게음식 - 일반한식","category":"restaurant"}]},{"lat":"37.064342409","long":"127.05803286","imageIndex":4,"items":[{"name":"가야골순대국밥","tel":"","addr":"경기도 평택시 서정동 866-11번지","indutype":"음식점 - 한식","category":"restaurant"}]},{"lat":"37.068204625","long":"127.06478229","imageIndex":4,"items":[{"name":"가연식당","tel":"031-666-9471","addr":"경기도 평택시 서정동 798-9번지 1층","indutype":"일반휴게음식 - 일반한식","category":"restaurant"},{"name":"마퐁떡볶이","tel":"031-611-0282","addr":"경기도 평택시 서정동 798-9번지","indutype":"일반휴게음식 - 스넥","category":"restaurant"}]},{"lat":"37.058568475","long":"127.05386879","imageIndex":4,"items":[{"name":"가연철판볶음","tel":"031-668-4777","addr":"경기도 평택시 서정동 313-32번지 1층","indutype":"일반휴게음식 - 일반한식","category":"restaurant"}]},{"lat":"37.069123764","long":"127.06467059","imageIndex":4,"items":[{"name":"가온에프엔씨","tel":"031-664-8485","addr":"경기도 평택시 서정동 796-1번지 1층","indutype":"일반휴게음식 - 서양음식","category":"restaurant"},{"name":"미니크로아프레송탄점","tel":"031-666-9581","addr":"경기도 평택시 서정동 796-1번지","indutype":"일반휴게음식 - 서양음식","category":"restaurant"}]},{"lat":"37.067619862","long":"127.06298272","imageIndex":4,"items":[{"name":"가장맛있는족발","tel":"031-663-5849","addr":"경기도 평택시 서정동 815-12번지 1층","indutype":"일반휴게음식 - 일반한식","category":"restaurant"},{"name":"가장맛있는족발 송탄점","tel":"031-666-3067","addr":"경기도 평택시 서정동 815-12번지 1층","indutype":"음식점 - 한식","category":"restaurant"}]},{"lat":"37.057153083","long":"127.05553177","imageIndex":4,"items":[{"name":"가정식백반","tel":"031-667-2320","addr":"경기도 평택시 서정동 332-20번지","indutype":"음식점 - 한식","category":"restaurant"},{"name":"가정식백반2호점","tel":"031-666-0789","addr":"경기도 평택시 서정동 332-20번지","indutype":"일반휴게음식 - 일반한식","category":"restaurant"}]},{"lat":"37.062370784","long":"127.05425362","imageIndex":4,"items":[{"name":"가정식백반본점","tel":"031-611-6562","addr":"경기도 평택시 서정동 896-5번지 3호","indutype":"일반휴게음식 - 일반한식","category":"restaurant"}]},{"lat":"37.066430747","long":"127.06241958","imageIndex":4,"items":[{"name":"갈비성","tel":"031-664-7777","addr":"경기도 평택시 서정동 847-3번지","indutype":"음식점 - 한식","category":"restaurant"}]},{"lat":"37.067622018","long":"127.05856372","imageIndex":4,"items":[{"name":"갈평옻닭집","tel":"031-611-0642","addr":"경기도 평택시 서정동 823-7번지","indutype":"일반휴게음식 - 일반한식","category":"restaurant"}]},{"lat":"37.065403871","long":"127.06175538","imageIndex":4,"items":[{"name":"강남숯불철판닭갈비","tel":"031-664-6420","addr":"경기도 평택시 서정동 850-10번지","indutype":"음식점 - 한식","category":"restaurant"},{"name":"강남숯불철판닭갈비","tel":"031-666-5789","addr":"경기도 평택시 서정동 850-10번지","indutype":"일반휴게음식 - 일반한식","category":"restaurant"},{"name":"배터지는생돈까스,서정한식,이레칡냉면","tel":"031-668-1110","addr":"경기도 평택시 서정동 850-10번지","indutype":"일반휴게음식 - 일반한식","category":"restaurant"}]},{"lat":"37.067846916","long":"127.05933974","imageIndex":4,"items":[{"name":"거기","tel":"031-000-0000","addr":"경기도 평택시 서정동 822-2번지","indutype":"일반휴게음식 - 일반한식","category":"restaurant"},{"name":"거기","tel":"","addr":"경기도 평택시 서정동 822-2번지","indutype":"음식점 - 한식","category":"restaurant"}]},{"lat":"37.068403503","long":"127.06353432","imageIndex":4,"items":[{"name":"거성갈비","tel":"031-664-1980","addr":"경기도 평택시 서정동 795-8번지","indutype":"일반휴게음식 - 갈비전문점","category":"restaurant"},{"name":"봉채국수잔치전서정점","tel":"031-664-9696","addr":"경기도 평택시 서정동 795-8번지","indutype":"일반휴게음식 - 스넥","category":"restaurant"},{"name":"한가네숯불닭갈비","tel":"031-664-1980","addr":"경기도 평택시 서정동 795-8번지 1층","indutype":"일반휴게음식 - 일반한식","category":"restaurant"},{"name":"홍대닭발, 껍데기","tel":"031-662-6649","addr":"경기도 평택시 서정동 795-8번지 1층","indutype":"음식점 - 한식","category":"restaurant"},{"name":"홍대닭발껍데기","tel":"031-663-4706","addr":"경기도 평택시 서정동 795-8번지","indutype":"일반휴게음식 - 일반한식","category":"restaurant"}]},{"lat":"37.07009208","long":"127.05603548","imageIndex":4,"items":[{"name":"고굽마","tel":"031-662-0756","addr":"경기도 평택시 서정동 787번지 대옥빌딩","indutype":"일반휴게음식 - 일반한식","category":"restaurant"},{"name":"탁주사발","tel":"031-664-1585","addr":"경기도 평택시 서정동 787번지","indutype":"일반휴게음식 - 주점","category":"restaurant"},{"name":"퓨전왕대포","tel":"031-664-1585","addr":"경기도 평택시 서정동 787번지 1층","indutype":"일반휴게음식 - 주점","category":"restaurant"}]},{"lat":"37.067233997","long":"127.05975533","imageIndex":4,"items":[{"name":"고궁갈비","tel":"031-667-4988","addr":"경기도 평택시 서정동 821-1번지","indutype":"음식점 - 한식","category":"restaurant"}]},{"lat":"37.065594359","long":"127.05914693","imageIndex":4,"items":[{"name":"고덕복집(송탄점)","tel":"031-667-6009","addr":"경기도 평택시 서정동 852번지 1층","indutype":"일반휴게음식 - 일반한식","category":"restaurant"}]},{"lat":"37.075342228","long":"127.04036301","imageIndex":4,"items":[{"name":"고덕진곰탕","tel":"031-611-4150","addr":"경기도 평택시 서정동 604-214번지","indutype":"음식점 - 한식","category":"restaurant"},{"name":"고덕진곰탕서정점","tel":"031-666-6033","addr":"경기도 평택시 서정동 604-214번지","indutype":"일반휴게음식 - 일반한식","category":"restaurant"}]},{"lat":"37.062955376","long":"127.0567276","imageIndex":4,"items":[{"name":"고수의 비법","tel":"031-000-0000","addr":"경기도 평택시 서정동 891-12번지","indutype":"일반휴게음식 - 일반한식","category":"restaurant"}]},{"lat":"37.067043552","long":"127.0622514","imageIndex":4,"items":[{"name":"고을래 이베리코흑돼지","tel":"031-664-3336","addr":"경기도 평택시 서정동 817-2번지","indutype":"일반휴게음식 - 일반한식","category":"restaurant"},{"name":"고을래이베리코흑돼지","tel":"","addr":"경기도 평택시 서정동 817-2번지","indutype":"음식점 - 한식","category":"restaurant"}]},{"lat":"37.068901379","long":"127.05886826","imageIndex":4,"items":[{"name":"고향집","tel":"031-668-5225","addr":"경기도 평택시 서정동 791-4번지 1층","indutype":"일반휴게음식 - 일반한식","category":"restaurant"},{"name":"고향집","tel":"031-663-2741","addr":"경기도 평택시 서정동 791-4번지","indutype":"음식점 - 한식","category":"restaurant"}]},{"lat":"37.06579183","long":"127.06073248","imageIndex":4,"items":[{"name":"곤이네숯불구이","tel":"031-662-2738","addr":"경기도 평택시 서정동 843-13번지 1층","indutype":"일반휴게음식 - 일반한식","category":"restaurant"},{"name":"또와곱창","tel":"031-663-6082","addr":"경기도 평택시 서정동 843-13번지 1층","indutype":"일반휴게음식 - 일반한식","category":"restaurant"}]},{"lat":"37.057460073","long":"127.05409291","imageIndex":4,"items":[{"name":"골목칼국수서정분점","tel":"031-665-0017","addr":"경기도 평택시 서정동 317-49번지","indutype":"일반휴게음식 - 일반한식","category":"restaurant"}]},{"lat":"37.067675608","long":"127.0595645","imageIndex":4,"items":[{"name":"골뱅이","tel":"031-664-1085","addr":"경기도 평택시 서정동 820번지","indutype":"일반휴게음식 - 일반한식","category":"restaurant"},{"name":"술생각..?","tel":"031-666-1598","addr":"경기도 평택시 서정동 820번지 1층","indutype":"일반휴게음식 - 주점","category":"restaurant"},{"name":"어군","tel":"031-667-6217","addr":"경기도 평택시 서정동 820번지 1층","indutype":"일반휴게음식 - 일반한식","category":"restaurant"},{"name":"총각바베큐","tel":"031-611-3918","addr":"경기도 평택시 서정동 820번지 103호","indutype":"일반휴게음식 - 스넥","category":"restaurant"},{"name":"피치버스 (평택서정점)","tel":"031-666-6900","addr":"경기도 평택시 서정동 820번지 1층","indutype":"일반휴게음식 - 서양음식","category":"restaurant"},{"name":"피치버스(평택서정점)","tel":"031-665-0093","addr":"경기도 평택시 서정동 820번지 105호","indutype":"음식점 - 피자","category":"restaurant"}]},{"lat":"37.067286754","long":"127.06242025","imageIndex":4,"items":[{"name":"곱도둑","tel":"","addr":"경기도 평택시 서정동 816-16번지 1층","indutype":"일반휴게음식 - 일반한식","category":"restaurant"},{"name":"뚱보집","tel":"070-9978-2535","addr":"경기도 평택시 서정동 816-16번지 1층","indutype":"일반휴게음식 - 일반한식","category":"restaurant"},{"name":"송탄양꼬치","tel":"031-663-2010","addr":"경기도 평택시 서정동 816-16번지","indutype":"음식점 - 중식","category":"restaurant"},{"name":"송탄양꼬치","tel":"031-000-0000","addr":"경기도 평택시 서정동 816-16번지 101호","indutype":"일반휴게음식 - 중국식","category":"restaurant"}]},{"lat":"37.067737781","long":"127.06141986","imageIndex":4,"items":[{"name":"곱창고송탄점","tel":"070-7614-3579","addr":"경기도 평택시 서정동 818-9번지","indutype":"일반휴게음식 - 일반한식","category":"restaurant"}]},{"lat":"37.063071721","long":"127.05844796","imageIndex":4,"items":[{"name":"곱창대학","tel":"031-668-0086","addr":"경기도 평택시 서정동 888번지","indutype":"음식점 - 한식","category":"restaurant"}]},{"lat":"37.06368053","long":"127.06625154","imageIndex":4,"items":[{"name":"곱창먹는날","tel":"","addr":"경기도 평택시 서정동 1108-2번지 1층","indutype":"일반휴게음식 - 일반한식","category":"restaurant"},{"name":"엄마손김밥집","tel":"031-664-5630","addr":"경기도 평택시 서정동 1108-2번지","indutype":"일반휴게음식 - 일반한식","category":"restaurant"},{"name":"엄마손꼬마김밥","tel":"031-611-7572","addr":"경기도 평택시 서정동 1108-2번지","indutype":"음식점 - 분식","category":"restaurant"},{"name":"엄청난떡볶이","tel":"031-663-3040","addr":"경기도 평택시 서정동 1108-2번지","indutype":"일반휴게음식 - 일반한식","category":"restaurant"},{"name":"엄청난떡볶이","tel":"031-664-2875","addr":"경기도 평택시 서정동 1108-2번지","indutype":"음식점 - 분식","category":"restaurant"},{"name":"정가네갈비냉면","tel":"031-668-8283","addr":"경기도 평택시 서정동 1108-2번지","indutype":"일반휴게음식 - 갈비전문점","category":"restaurant"}]},{"lat":"37.057378763","long":"127.05458754","imageIndex":4,"items":[{"name":"공원생고기","tel":"","addr":"경기도 평택시 서정동 317-20번지 1층","indutype":"일반휴게음식 - 일반한식","category":"restaurant"},{"name":"나그네집","tel":"000-000-0000","addr":"경기도 평택시 서정동 317-20번지","indutype":"일반휴게음식 - 일반한식","category":"restaurant"}]},{"lat":"37.067125277","long":"127.06098086","imageIndex":4,"items":[{"name":"공차송탄점","tel":"070-4215-5581","addr":"경기도 평택시 서정동 818-36번지 101호","indutype":"일반휴게음식 - 서양음식","category":"restaurant"},{"name":"두끼떡볶이 송탄점","tel":"031-611-4843","addr":"경기도 평택시 서정동 818-36번지 211,212호","indutype":"일반휴게음식 - 일반한식","category":"restaurant"},{"name":"디저트39(송탄출장소점)","tel":"031-668-3039","addr":"경기도 평택시 서정동 818-36번지 101-1호","indutype":"일반휴게음식 - 일반한식","category":"restaurant"},{"name":"비쎄븐프렌차이즈","tel":"031-662-4350","addr":"경기도 평택시 서정동 818-36번지 4층 413호","indutype":"일반휴게음식 - 칵테일바","category":"restaurant"},{"name":"비어사케서정점","tel":"031-000-0000","addr":"경기도 평택시 서정동 818-36번지","indutype":"일반휴게음식 - 주점","category":"restaurant"},{"name":"얼큰샤브샤브칼국수본점","tel":"031-668-9072","addr":"경기도 평택시 서정동 818-36번지 롯데시네마 2층 205호","indutype":"일반휴게음식 - 일반한식","category":"restaurant"},{"name":"잇플레이트","tel":"031-666-4290","addr":"경기도 평택시 서정동 818-36번지 롯데시네마 201-204호","indutype":"일반휴게음식 - 일반한식","category":"restaurant"},{"name":"쪽지(송탄점)","tel":"031-611-5535","addr":"경기도 평택시 서정동 818-36번지 111-112호","indutype":"일반휴게음식 - 일반한식","category":"restaurant"},{"name":"쪽찌(송탄점)","tel":"031-666-7506","addr":"경기도 평택시 서정동 818-36번지 111동 112호","indutype":"음식점 - 한식","category":"restaurant"},{"name":"컨테이너","tel":"031-655-5003","addr":"경기도 평택시 서정동 818-36번지","indutype":"일반휴게음식 - 주점","category":"restaurant"},{"name":"화가삼송탄점","tel":"031-667-5710","addr":"경기도 평택시 서정동 818-36번지 롯데시네마 1층 106호.107호","indutype":"일반휴게음식 - 일반한식","category":"restaurant"}]},{"lat":"37.065737552","long":"127.06117095","imageIndex":4,"items":[{"name":"교촌치킨","tel":"031-667-7771","addr":"경기도 평택시 서정동 843-10번지","indutype":"일반휴게음식 - 서양음식","category":"restaurant"},{"name":"교촌치킨 송탄1호점","tel":"031-666-5789","addr":"경기도 평택시 서정동 843-10번지","indutype":"음식점 - 치킨","category":"restaurant"},{"name":"친구포차","tel":"","addr":"경기도 평택시 서정동 843-10번지 1층","indutype":"일반휴게음식 - 일반한식","category":"restaurant"}]},{"lat":"37.069650221","long":"127.05678856","imageIndex":4,"items":[{"name":"구구닭발","tel":"031-666-3939","addr":"경기도 평택시 서정동 828-27번지","indutype":"일반휴게음식 - 일반한식","category":"restaurant"}]},{"lat":"37.063153833","long":"127.05623302","imageIndex":4,"items":[{"name":"구구미치킨","tel":"031-663-3398","addr":"경기도 평택시 서정동 892-12번지 현진황실빌라","indutype":"음식점 - 치킨","category":"restaurant"},{"name":"구구미치킨","tel":"031-668-6060","addr":"경기도 평택시 서정동 892-12번지 현진황실빌라","indutype":"일반휴게음식 - 스넥","category":"restaurant"},{"name":"김밥생각","tel":"031-668-9903","addr":"경기도 평택시 서정동 892-12번지 현진빌라 상가 103호","indutype":"일반휴게음식 - 스넥","category":"restaurant"},{"name":"대가왕족발보쌈","tel":"070-4095-3219","addr":"경기도 평택시 서정동 892-12번지 현진황실빌라","indutype":"음식점 - 한식","category":"restaurant"},{"name":"대가왕족발보쌈","tel":"031-667-8711","addr":"경기도 평택시 서정동 892-12번지 현진황실빌라 102호","indutype":"일반휴게음식 - 일반한식","category":"restaurant"},{"name":"솜사탕","tel":"031-668-6060","addr":"경기도 평택시 서정동 892-12번지 현진황실빌라 101호","indutype":"일반휴게음식 - 일반한식","category":"restaurant"}]},{"lat":"37.072040093","long":"127.05203364","imageIndex":4,"items":[{"name":"구라","tel":"","addr":"경기도 평택시 서정동 552-127번지 101호","indutype":"일반휴게음식 - 서양음식","category":"restaurant"},{"name":"노메이커","tel":"031-667-5889","addr":"경기도 평택시 서정동 552-127번지","indutype":"일반휴게음식 - 일반한식","category":"restaurant"},{"name":"야시장","tel":"031-616-1588","addr":"경기도 평택시 서정동 552-127번지 101호","indutype":"일반휴게음식 - 일반한식","category":"restaurant"},{"name":"올래치킨","tel":"031-667-6690","addr":"경기도 평택시 서정동 552-127번지","indutype":"일반휴게음식 - 스넥","category":"restaurant"},{"name":"원조감자탕주막집","tel":"031-663-9848","addr":"경기도 평택시 서정동 552-127번지 1층","indutype":"일반휴게음식 - 일반한식","category":"restaurant"}]},{"lat":"37.063315672","long":"127.05700895","imageIndex":4,"items":[{"name":"구룡포과메기","tel":"031-611-2340","addr":"경기도 평택시 서정동 885-3번지","indutype":"음식점 - 한식","category":"restaurant"},{"name":"구룡포과메기","tel":"031-667-1105","addr":"경기도 평택시 서정동 885-3번지","indutype":"일반휴게음식 - 일반한식","category":"restaurant"},{"name":"제주가장맛있는뒷고기","tel":"031-663-8972","addr":"경기도 평택시 서정동 885-3번지","indutype":"음식점 - 한식","category":"restaurant"},{"name":"제주도가장맛있는뒷고기","tel":"031-662-0222","addr":"경기도 평택시 서정동 885-3번지","indutype":"일반휴게음식 - 일반한식","category":"restaurant"}]},{"lat":"37.057351559","long":"127.05498101","imageIndex":4,"items":[{"name":"구불리만두","tel":"031-611-2351","addr":"경기도 평택시 서정동 317-14번지","indutype":"일반휴게음식 - 스넥","category":"restaurant"}]},{"lat":"37.067513245","long":"127.0599242","imageIndex":4,"items":[{"name":"구이구이전문점","tel":"031-611-1969","addr":"경기도 평택시 서정동 820-10번지","indutype":"일반휴게음식 - 일반한식","category":"restaurant"}]},{"lat":"37.066181878","long":"127.05514447","imageIndex":4,"items":[{"name":"구이구이쪽갈비","tel":"031-667-8001","addr":"경기도 평택시 서정동 876-1번지 1층","indutype":"음식점 - 한식","category":"restaurant"},{"name":"구이구이쪽갈비","tel":"031-666-9242","addr":"경기도 평택시 서정동 876-1번지 경성빌딩 1층","indutype":"일반휴게음식 - 일반한식","category":"restaurant"},{"name":"부산냉채족발","tel":"031-667-9664","addr":"경기도 평택시 서정동 876-1번지","indutype":"일반휴게음식 - 일반한식","category":"restaurant"},{"name":"부산냉채족발(유가네솥뚜껑오겹살)","tel":"031-665-3378","addr":"경기도 평택시 서정동 876-1번지","indutype":"음식점 - 한식","category":"restaurant"}]},{"lat":"37.070899135","long":"127.06412103","imageIndex":4,"items":[{"name":"구팔한우","tel":"031-611-9875","addr":"경기도 평택시 서정동 779번지","indutype":"일반휴게음식 - 일반한식","category":"restaurant"},{"name":"구팔한우 서정점","tel":"031-611-8197","addr":"경기도 평택시 서정동 779번지 1층","indutype":"음식점 - 일반","category":"restaurant"},{"name":"본가숯불구이","tel":"031-665-4243","addr":"경기도 평택시 서정동 779번지 5층","indutype":"일반휴게음식 - 일반한식","category":"restaurant"},{"name":"선우진왕아구찜","tel":"031-667-8599","addr":"경기도 평택시 서정동 779번지 1층","indutype":"음식점 - 아구찜","category":"restaurant"},{"name":"싱싱풍천장어","tel":"031-665-4243","addr":"경기도 평택시 서정동 779번지","indutype":"일반휴게음식 - 일반한식","category":"restaurant"},{"name":"짬뽕지존송탄점","tel":"031-666-5161","addr":"경기도 평택시 서정동 779번지 1층","indutype":"일반휴게음식 - 중국식","category":"restaurant"},{"name":"채선당M송탄점","tel":"031-666-2010","addr":"경기도 평택시 서정동 779번지 3층","indutype":"일반휴게음식 - 일반한식","category":"restaurant"}]},{"lat":"37.074682829","long":"127.04519818","imageIndex":4,"items":[{"name":"국가대표호프","tel":"031-000-0000","addr":"경기도 평택시 서정동 596-203번지 1층","indutype":"일반휴게음식 - 주점","category":"restaurant"}]},{"lat":"37.066403478","long":"127.06289181","imageIndex":4,"items":[{"name":"국수나무서정점","tel":"031-611-3747","addr":"경기도 평택시 서정동 847-5번지 1층","indutype":"일반휴게음식 - 일반한식","category":"restaurant"},{"name":"무한리필구이앤프리카아페송탄점","tel":"031-611-0033","addr":"경기도 평택시 서정동 847-5번지","indutype":"음식점 - 한식","category":"restaurant"},{"name":"무한리필구이앤프리카아페송탄점","tel":"031-664-7953","addr":"경기도 평택시 서정동 847-5번지","indutype":"일반휴게음식 - 일반한식","category":"restaurant"},{"name":"빵사부식빵공방","tel":"031-662-7765","addr":"경기도 평택시 서정동 847-5번지 하정빌딩","indutype":"음식점 - 휴게음식","category":"restaurant"},{"name":"빵사부식빵공방","tel":"031-668-6668","addr":"경기도 평택시 서정동 847-5번지 하정빌딩","indutype":"일반휴게음식 - 서양음식","category":"restaurant"},{"name":"스누피","tel":"031-668-0999","addr":"경기도 평택시 서정동 847-5번지 하정빌딩 403호","indutype":"일반휴게음식 - 주점","category":"restaurant"}]},{"lat":"37.064906365","long":"127.06551046","imageIndex":4,"items":[{"name":"국수사랑","tel":"031-662-6475","addr":"경기도 평택시 서정동 801-10번지 1층","indutype":"일반휴게음식 - 일반한식","category":"restaurant"}]},{"lat":"37.063933499","long":"127.0649812","imageIndex":4,"items":[{"name":"군계숯불닭갈비","tel":"031-666-2285","addr":"경기도 평택시 서정동 807-7번지 1층","indutype":"일반휴게음식 - 일반한식","category":"restaurant"}]},{"lat":"37.06545841","long":"127.06078845","imageIndex":4,"items":[{"name":"군족(본점)","tel":"031-667-9495","addr":"경기도 평택시 서정동 851-4번지","indutype":"일반휴게음식 - 일반한식","category":"restaurant"}]},{"lat":"37.068045004","long":"127.05964349","imageIndex":4,"items":[{"name":"굴미소","tel":"031-611-4385","addr":"경기도 평택시 서정동 819번지 덕산빌딩","indutype":"일반휴게음식 - 일반한식","category":"restaurant"},{"name":"브라더양꼬치","tel":"031-611-9461","addr":"경기도 평택시 서정동 819번지 1층","indutype":"음식점 - 중식","category":"restaurant"},{"name":"브라더양꼬치","tel":"031-665-2333","addr":"경기도 평택시 서정동 819번지 덕산빌딩","indutype":"일반휴게음식 - 일반한식","category":"restaurant"},{"name":"새벽옛날통닭","tel":"","addr":"경기도 평택시 서정동 819번지","indutype":"음식점 - 치킨","category":"restaurant"},{"name":"새벽옛날통닭","tel":"031-663-0447","addr":"경기도 평택시 서정동 819번지 덕산빌딩","indutype":"일반휴게음식 - 일반한식","category":"restaurant"}]},{"lat":"37.06412205","long":"127.0662519","imageIndex":4,"items":[{"name":"굽네치킨 이충장당점","tel":"031-664-9492","addr":"경기도 평택시 서정동 1104-7번지","indutype":"일반휴게음식 - 스넥","category":"restaurant"},{"name":"굽네치킨이충장당점","tel":"031-662-0239","addr":"경기도 평택시 서정동 1104-7번지","indutype":"음식점 - 치킨","category":"restaurant"},{"name":"남해우리배산꼼장어","tel":"031-666-0589","addr":"경기도 평택시 서정동 1104-7번지","indutype":"일반휴게음식 - 일반한식","category":"restaurant"}]},{"lat":"37.069903218","long":"127.05522573","imageIndex":4,"items":[{"name":"굿라이프P&S푸드","tel":"031-662-8280","addr":"경기도 평택시 서정동 785-6번지 1층","indutype":"일반휴게음식 - 일반한식","category":"restaurant"}]},{"lat":"37.067566812","long":"127.06094747","imageIndex":4,"items":[{"name":"궁중수라간","tel":"031-667-1235","addr":"경기도 평택시 서정동 818-20번지 1층","indutype":"일반휴게음식 - 일반한식","category":"restaurant"},{"name":"만물상식당","tel":"031-668-2047","addr":"경기도 평택시 서정동 818-20번지","indutype":"일반휴게음식 - 일반한식","category":"restaurant"}]},{"lat":"37.067234579","long":"127.0585297","imageIndex":4,"items":[{"name":"그때그집","tel":"070-7122-9800","addr":"경기도 평택시 서정동 823-9번지","indutype":"음식점 - 한식","category":"restaurant"},{"name":"그때그집왕족발","tel":"031-666-9218","addr":"경기도 평택시 서정동 823-9번지 1층","indutype":"일반휴게음식 - 일반한식","category":"restaurant"}]},{"lat":"37.057342877","long":"127.05422774","imageIndex":4,"items":[{"name":"그린벨트소주방","tel":"031-665-7157","addr":"경기도 평택시 서정동 317-27번지","indutype":"일반휴게음식 - 주점","category":"restaurant"},{"name":"예산식당","tel":"031-662-1540","addr":"경기도 평택시 서정동 317-27번지","indutype":"일반휴게음식 - 일반한식","category":"restaurant"}]},{"lat":"37.066675975","long":"127.05841685","imageIndex":4,"items":[{"name":"그릴라쿤","tel":"031-8094-2097","addr":"경기도 평택시 서정동 838-2번지 1층 102호","indutype":"일반휴게음식 - 일반한식","category":"restaurant"},{"name":"짱구포차","tel":"","addr":"경기도 평택시 서정동 838-2번지","indutype":"음식점 - 한식","category":"restaurant"},{"name":"짱구포차","tel":"031-666-3932","addr":"경기도 평택시 서정동 838-2번지","indutype":"일반휴게음식 - 일반한식","category":"restaurant"},{"name":"후포리","tel":"031-668-9888","addr":"경기도 평택시 서정동 838-2번지","indutype":"음식점 - 일반","category":"restaurant"},{"name":"후포리","tel":"031-663-8878","addr":"경기도 평택시 서정동 838-2번지 1층","indutype":"일반휴게음식 - 일반한식","category":"restaurant"}]},{"lat":"37.067322864","long":"127.06228535","imageIndex":4,"items":[{"name":"그밤","tel":"031-666-4401","addr":"경기도 평택시 서정동 816-17번지 2층","indutype":"일반휴게음식 - 일반한식","category":"restaurant"},{"name":"노크 에스티카페","tel":"031-664-8503","addr":"경기도 평택시 서정동 816-17번지","indutype":"일반휴게음식 - 서양음식","category":"restaurant"}]},{"lat":"37.066205814","long":"127.061756","imageIndex":4,"items":[{"name":"금비","tel":"031-611-2377","addr":"경기도 평택시 서정동 848-1번지","indutype":"일반휴게음식 - 주점","category":"restaurant"},{"name":"수","tel":"","addr":"경기도 평택시 서정동 848-1번지","indutype":"일반휴게음식 - 일반한식","category":"restaurant"}]},{"lat":"37.05815315","long":"127.05577981","imageIndex":4,"items":[{"name":"금성양꼬치","tel":"070-8116-5682","addr":"경기도 평택시 서정동 310-18번지","indutype":"일반휴게음식 - 일반한식","category":"restaurant"}]},{"lat":"37.063342581","long":"127.05727882","imageIndex":4,"items":[{"name":"기똥차","tel":"031-493-5107","addr":"경기도 평택시 서정동 886-5번지 1층","indutype":"일반휴게음식 - 주점","category":"restaurant"},{"name":"투다리점촌분점","tel":"031-667-8997","addr":"경기도 평택시 서정동 886-5번지","indutype":"일반휴게음식 - 주점","category":"restaurant"}]},{"lat":"37.063315211","long":"127.05800963","imageIndex":4,"items":[{"name":"김가네구이포차","tel":"031-662-7354","addr":"경기도 평택시 서정동 887-3번지","indutype":"일반휴게음식 - 일반한식","category":"restaurant"},{"name":"토크쇼","tel":"031-668-4449","addr":"경기도 평택시 서정동 887-3번지","indutype":"일반휴게음식 - 주점","category":"restaurant"}]},{"lat":"37.067791177","long":"127.06275797","imageIndex":4,"items":[{"name":"김가네김밥","tel":"031-647-3005","addr":"경기도 평택시 서정동 815-7번지","indutype":"음식점 - 분식","category":"restaurant"},{"name":"와이지(y.g)","tel":"031-611-7107","addr":"경기도 평택시 서정동 815-7번지","indutype":"일반휴게음식 - 주점","category":"restaurant"}]},{"lat":"37.07095612","long":"127.05817259","imageIndex":4,"items":[{"name":"김밥천국","tel":"","addr":"경기도 평택시 서정동 782-7번지","indutype":"음식점 - 분식","category":"restaurant"},{"name":"김밥천국서정점","tel":"031-665-8822","addr":"경기도 평택시 서정동 782-7번지 1층","indutype":"일반휴게음식 - 스넥","category":"restaurant"},{"name":"툰앤존만화카페송탄점","tel":"031-665-1105","addr":"경기도 평택시 서정동 782-7번지 신광빌딩 2층","indutype":"일반휴게음식 - 서양음식","category":"restaurant"}]},{"lat":"37.064988177","long":"127.06413877","imageIndex":4,"items":[{"name":"김서방네추어탕","tel":"031-663-2742","addr":"경기도 평택시 서정동 810-3번지","indutype":"일반휴게음식 - 일반한식","category":"restaurant"},{"name":"김서방네추어탕","tel":"031-611-5129","addr":"경기도 평택시 서정동 810-3번지","indutype":"음식점 - 한식","category":"restaurant"}]},{"lat":"37.064045164","long":"127.05780777","imageIndex":4,"items":[{"name":"김치밥상","tel":"","addr":"경기도 평택시 서정동 887번지 1층 일부","indutype":"음식점 - 한식","category":"restaurant"},{"name":"김치밥상","tel":"031-662-8230","addr":"경기도 평택시 서정동 887번지 1층","indutype":"일반휴게음식 - 일반한식","category":"restaurant"},{"name":"보글보글이네","tel":"","addr":"경기도 평택시 서정동 887번지 101호","indutype":"일반휴게음식 - 일반한식","category":"restaurant"},{"name":"아웃벡 삼겹살 하우스","tel":"031-611-3352","addr":"경기도 평택시 서정동 887번지","indutype":"일반휴게음식 - 일반한식","category":"restaurant"}]},{"lat":"37.067350092","long":"127.06189182","imageIndex":4,"items":[{"name":"김치삼겹살전문점","tel":"031-611-3399","addr":"경기도 평택시 서정동 816-20번지","indutype":"일반휴게음식 - 일반한식","category":"restaurant"}]},{"lat":"37.066205747","long":"127.06189093","imageIndex":4,"items":[{"name":"김치찌개전문","tel":"031-663-9240","addr":"경기도 평택시 서정동 848-2번지","indutype":"일반휴게음식 - 일반한식","category":"restaurant"}]},{"lat":"37.066457892","long":"127.06219472","imageIndex":4,"items":[{"name":"까페베네송탄점","tel":"031-611-8232","addr":"경기도 평택시 서정동 847-2번지","indutype":"일반휴게음식 - 서양음식","category":"restaurant"},{"name":"카페베네 송탄출장소","tel":"031-663-2735","addr":"경기도 평택시 서정동 847-2번지","indutype":"음식점 - 커피","category":"restaurant"}]},{"lat":"37.062927551","long":"127.05844785","imageIndex":4,"items":[{"name":"깟씨","tel":"031-663-3111","addr":"경기도 평택시 서정동 888-2번지 1층","indutype":"일반휴게음식 - 일반한식","category":"restaurant"},{"name":"깟씨고기국수","tel":"031-662-7877","addr":"경기도 평택시 서정동 888-2번지","indutype":"음식점 - 한식","category":"restaurant"},{"name":"엠푸드","tel":"031-665-2375","addr":"경기도 평택시 서정동 888-2번지 2호","indutype":"음식점 - 한식","category":"restaurant"},{"name":"한잔할까","tel":"","addr":"경기도 평택시 서정동 888-2번지 1층","indutype":"일반휴게음식 - 주점","category":"restaurant"}]},{"lat":"37.060289476","long":"127.05392616","imageIndex":4,"items":[{"name":"깡통치킨","tel":"031-665-6574","addr":"경기도 평택시 서정동 433-7번지 벨루스하임 110호","indutype":"일반휴게음식 - 스넥","category":"restaurant"},{"name":"난타쭈꾸미","tel":"02-000-0000","addr":"경기도 평택시 서정동 433-7번지 벨루스하임 1층 111호","indutype":"일반휴게음식 - 일반한식","category":"restaurant"},{"name":"주노네","tel":"031-681-7730","addr":"경기도 평택시 서정동 433-7번지 서정벨루스하임 105호","indutype":"일반휴게음식 - 일반한식","category":"restaurant"}]},{"lat":"37.070260635","long":"127.06164669","imageIndex":4,"items":[{"name":"깡통치킨송탄점","tel":"031-668-0789","addr":"경기도 평택시 서정동 780번지 주공외인연립 106호","indutype":"일반휴게음식 - 스넥","category":"restaurant"},{"name":"민스타푸드","tel":"031-663-7257","addr":"경기도 평택시 서정동 780번지 주공외인연립 상가 105호","indutype":"음식점 - 일반","category":"restaurant"},{"name":"민스타푸드","tel":"031-665-5558","addr":"경기도 평택시 서정동 780번지 주공외인연립 상가 105호","indutype":"일반휴게음식 - 일반한식","category":"restaurant"}]},{"lat":"37.069956561","long":"127.05683375","imageIndex":4,"items":[{"name":"꼬기묵자","tel":"031-666-3223","addr":"경기도 평택시 서정동 787-5번지","indutype":"일반휴게음식 - 일반한식","category":"restaurant"},{"name":"아이호프","tel":"031-611-4516","addr":"경기도 평택시 서정동 787-5번지","indutype":"일반휴게음식 - 주점","category":"restaurant"}]},{"lat":"37.066016215","long":"127.06250921","imageIndex":4,"items":[{"name":"꼬꼬인더박스","tel":"031-662-9981","addr":"경기도 평택시 서정동 848-14번지","indutype":"일반휴게음식 - 일반한식","category":"restaurant"},{"name":"방콕","tel":"031-666-0921","addr":"경기도 평택시 서정동 848-14번지 1층","indutype":"일반휴게음식 - 일반한식","category":"restaurant"}]},{"lat":"37.065460561","long":"127.05620091","imageIndex":4,"items":[{"name":"꼬마랑 토스트","tel":"","addr":"경기도 평택시 서정동 875-16번지 1층","indutype":"일반휴게음식 - 서양음식","category":"restaurant"},{"name":"쭈니네주전부리","tel":"","addr":"경기도 평택시 서정동 875-16번지","indutype":"음식점 - 일반","category":"restaurant"}]},{"lat":"37.063342348","long":"127.05778478","imageIndex":4,"items":[{"name":"꼬치상점","tel":"031-662-8772","addr":"경기도 평택시 서정동 887-4번지 상가 1층","indutype":"일반휴게음식 - 스넥","category":"restaurant"},{"name":"꼬치상점","tel":"031-662-7528","addr":"경기도 평택시 서정동 887-4번지","indutype":"음식점 - 분식","category":"restaurant"}]},{"lat":"37.06615101","long":"127.06322894","imageIndex":4,"items":[{"name":"꼴동네감자탕","tel":"031-611-8688","addr":"경기도 평택시 서정동 813-5번지","indutype":"일반휴게음식 - 일반한식","category":"restaurant"},{"name":"꼴통네감자탕","tel":"031-666-2711","addr":"경기도 평택시 서정동 813-5번지","indutype":"음식점 - 한식","category":"restaurant"}]},{"lat":"37.067593981","long":"127.06066638","imageIndex":4,"items":[{"name":"꽁지네","tel":"031-667-8245","addr":"경기도 평택시 서정동 818-18번지","indutype":"일반휴게음식 - 일반한식","category":"restaurant"},{"name":"엠앤케이","tel":"031-666-6171","addr":"경기도 평택시 서정동 818-18번지","indutype":"일반휴게음식 - 일반한식","category":"restaurant"}]},{"lat":"37.06745746","long":"127.06339863","imageIndex":4,"items":[{"name":"꽃","tel":"","addr":"경기도 평택시 서정동 814-7번지 3층","indutype":"일반휴게음식 - 주점","category":"restaurant"},{"name":"롯데리아평택송탄점","tel":"031-665-0072","addr":"경기도 평택시 서정동 814-7번지","indutype":"일반휴게음식 - 서양음식","category":"restaurant"},{"name":"맥주광","tel":"031-663-1688","addr":"경기도 평택시 서정동 814-7번지 3층","indutype":"일반휴게음식 - 주점","category":"restaurant"}]},{"lat":"37.064293281","long":"127.06619583","imageIndex":4,"items":[{"name":"꾸메도피자엔치코파닭","tel":"031-611-0777","addr":"경기도 평택시 서정동 1104-5번지","indutype":"일반휴게음식 - 일반한식","category":"restaurant"}]},{"lat":"37.071986062","long":"127.05195489","imageIndex":4,"items":[{"name":"나눔야식","tel":"031-611-2587","addr":"경기도 평택시 서정동 552-128번지","indutype":"일반휴게음식 - 일반한식","category":"restaurant"}]},{"lat":"37.068232319","long":"127.06350045","imageIndex":4,"items":[{"name":"나라감자탕","tel":"031-666-7854","addr":"경기도 평택시 서정동 795-7번지","indutype":"음식점 - 한식","category":"restaurant"},{"name":"나라감자탕","tel":"031-666-8803","addr":"경기도 평택시 서정동 795-7번지 1층","indutype":"일반휴게음식 - 일반한식","category":"restaurant"}]},{"lat":"37.066072914","long":"127.05701091","imageIndex":4,"items":[{"name":"남도향기","tel":"031-662-7517","addr":"경기도 평택시 서정동 867-1번지","indutype":"일반휴게음식 - 일반한식","category":"restaurant"},{"name":"남도향기","tel":"031-654-6429","addr":"경기도 평택시 서정동 867-1번지","indutype":"음식점 - 한식","category":"restaurant"},{"name":"쉐프의수제돈까스&야식안주","tel":"031-668-7728","addr":"경기도 평택시 서정동 867-1번지 1층","indutype":"일반휴게음식 - 일반한식","category":"restaurant"},{"name":"쉐프의수제돈까스&야식안주","tel":"031-662-5751","addr":"경기도 평택시 서정동 867-1번지 1층","indutype":"음식점 - 일반","category":"restaurant"},{"name":"치맥마을","tel":"031-664-9945","addr":"경기도 평택시 서정동 867-1번지","indutype":"음식점 - 치킨","category":"restaurant"},{"name":"치맥마을","tel":"031-611-7992","addr":"경기도 평택시 서정동 867-1번지","indutype":"일반휴게음식 - 주점","category":"restaurant"}]},{"lat":"37.066097753","long":"127.06162099","imageIndex":4,"items":[{"name":"남춘천닭갈비","tel":"031-668-9278","addr":"경기도 평택시 서정동 848-21번지 1층","indutype":"일반휴게음식 - 일반한식","category":"restaurant"}]},{"lat":"37.065710326","long":"127.06156447","imageIndex":4,"items":[{"name":"남해참치","tel":"031-611-3260","addr":"경기도 평택시 서정동 849-19번지","indutype":"일반휴게음식 - 일식·회집","category":"restaurant"},{"name":"옛날집","tel":"031-611-3260","addr":"경기도 평택시 서정동 849-19번지","indutype":"일반휴게음식 - 일반한식","category":"restaurant"}]},{"lat":"37.056206819","long":"127.0558684","imageIndex":4,"items":[{"name":"너랑나랑","tel":"031-611-8272","addr":"경기도 평택시 서정동 332-32번지","indutype":"일반휴게음식 - 주점","category":"restaurant"},{"name":"부자연탄막창생삼겹살","tel":"031-611-7727","addr":"경기도 평택시 서정동 332-32번지","indutype":"일반휴게음식 - 일반한식","category":"restaurant"},{"name":"사쿠사쿠서정점","tel":"031-665-4969","addr":"경기도 평택시 서정동 332-32번지 외3필지","indutype":"일반휴게음식 - 서양음식","category":"restaurant"},{"name":"사쿠사쿠서정점","tel":"031-662-0504","addr":"경기도 평택시 서정동 332-32번지","indutype":"음식점 - 치킨","category":"restaurant"}]},{"lat":"37.064319999","long":"127.06678053","imageIndex":4,"items":[{"name":"노가리OK","tel":"031-663-2338","addr":"경기도 평택시 서정동 1106-1번지 1층","indutype":"일반휴게음식 - 주점","category":"restaurant"},{"name":"울엄마가만든맛있는김밥","tel":"031-667-1535","addr":"경기도 평택시 서정동 1106-1번지 1층","indutype":"일반휴게음식 - 스넥","category":"restaurant"}]},{"lat":"37.066070672","long":"127.06172217","imageIndex":4,"items":[{"name":"노걸대위드유","tel":"031-111-1111","addr":"경기도 평택시 서정동 848-20번지","indutype":"일반휴게음식 - 일반한식","category":"restaurant"},{"name":"송탄왕족발보쌈","tel":"","addr":"경기도 평택시 서정동 848-20번지 1층","indutype":"음식점 - 한식","category":"restaurant"},{"name":"스완","tel":"031-667-6070","addr":"경기도 평택시 서정동 848-20번지 1층","indutype":"일반휴게음식 - 주점","category":"restaurant"}]},{"lat":"37.067485167","long":"127.06206059","imageIndex":4,"items":[{"name":"노랑통닭 송탄점","tel":"","addr":"경기도 평택시 서정동 816-2번지 1층 우측 상가","indutype":"일반휴게음식 - 일반한식","category":"restaurant"},{"name":"오늘,우리집BEER(비어)","tel":"031-616-3006","addr":"경기도 평택시 서정동 816-2번지 1층","indutype":"일반휴게음식 - 주점","category":"restaurant"}]},{"lat":"37.072399978","long":"127.0533158","imageIndex":4,"items":[{"name":"노메이커2호점","tel":"031-665-5889","addr":"경기도 평택시 서정동 552-270번지","indutype":"일반휴게음식 - 일반한식","category":"restaurant"}]},{"lat":"37.059097888","long":"127.05878235","imageIndex":4,"items":[{"name":"녹두삼계탕","tel":"031-611-3797","addr":"경기도 평택시 서정동 285-19번지 1층","indutype":"음식점 - 한식","category":"restaurant"},{"name":"녹두삼계탕","tel":"031-668-9888","addr":"경기도 평택시 서정동 285-19번지 1층","indutype":"일반휴게음식 - 일반한식","category":"restaurant"}]},{"lat":"37.058541336","long":"127.05411612","imageIndex":4,"items":[{"name":"논두렁부대찌개","tel":"","addr":"경기도 평택시 서정동 313-13번지 1층","indutype":"일반휴게음식 - 일반한식","category":"restaurant"}]},{"lat":"37.073430581","long":"127.04456776","imageIndex":4,"items":[{"name":"누리밥상","tel":"031-665-0151","addr":"경기도 평택시 서정동 592-217번지","indutype":"일반휴게음식 - 일반한식","category":"restaurant"}]},{"lat":"37.058621762","long":"127.05564522","imageIndex":4,"items":[{"name":"늘봄집","tel":"031-666-6460","addr":"경기도 평택시 서정동 297-6번지","indutype":"일반휴게음식 - 일반한식","category":"restaurant"},{"name":"함바식당","tel":"032-665-2443","addr":"경기도 평택시 서정동 297-6번지","indutype":"일반휴게음식 - 일반한식","category":"restaurant"}]},{"lat":"37.062316033","long":"127.05581643","imageIndex":4,"items":[{"name":"늘한마음식당","tel":"031-664-9289","addr":"경기도 평택시 서정동 893-7번지","indutype":"일반휴게음식 - 일반한식","category":"restaurant"},{"name":"늘한마음식당","tel":"031-666-6900","addr":"경기도 평택시 서정동 893-7번지","indutype":"음식점 - 한식","category":"restaurant"},{"name":"돈꼬푸드","tel":"031-665-7707","addr":"경기도 평택시 서정동 893-7번지 1층","indutype":"일반휴게음식 - 일반한식","category":"restaurant"},{"name":"호프앤포차","tel":"031-675-7279","addr":"경기도 평택시 서정동 893-7번지","indutype":"일반휴게음식 - 주점","category":"restaurant"}]},{"lat":"37.065177952","long":"127.06305951","imageIndex":4,"items":[{"name":"니하오훠궈","tel":"031-647-0883","addr":"경기도 평택시 서정동 812-1번지 1층","indutype":"일반휴게음식 - 일반한식","category":"restaurant"}]},{"lat":"37.06756674","long":"127.06109364","imageIndex":4,"items":[{"name":"다이키치","tel":"031-664-2626","addr":"경기도 평택시 서정동 818-21번지 1층","indutype":"일반휴게음식 - 일식·회집","category":"restaurant"},{"name":"짝태패밀리(평택서정점)","tel":"031-611-1840","addr":"경기도 평택시 서정동 818-21번지","indutype":"일반휴게음식 - 주점","category":"restaurant"}]},{"lat":"37.059929076","long":"127.0538697","imageIndex":4,"items":[{"name":"다인삼겹살","tel":"031-664-9070","addr":"경기도 평택시 서정동 433-26번지 메트로하임 104호","indutype":"음식점 - 한식","category":"restaurant"},{"name":"다인삼겹살","tel":"031-616-1715","addr":"경기도 평택시 서정동 433-26번지 메트로하임 104호","indutype":"일반휴게음식 - 일반한식","category":"restaurant"},{"name":"투다리 서정점","tel":"031-616-2113","addr":"경기도 평택시 서정동 433-26번지 메트로하임 103호","indutype":"일반휴게음식 - 주점","category":"restaurant"}]},{"lat":"37.069209585","long":"127.05480921","imageIndex":4,"items":[{"name":"단골갈비","tel":"031-666-3074","addr":"경기도 평택시 서정동 830-4번지","indutype":"일반휴게음식 - 일반한식","category":"restaurant"},{"name":"단골갈비","tel":"031-668-1537","addr":"경기도 평택시 서정동 830-4번지","indutype":"음식점 - 한식","category":"restaurant"}]},{"lat":"37.061874539","long":"127.0557599","imageIndex":4,"items":[{"name":"달레나순대국서정점","tel":"031-668-2988","addr":"경기도 평택시 서정동 900-2번지 1층","indutype":"일반휴게음식 - 일반한식","category":"restaurant"}]},{"lat":"37.065900682","long":"127.05922586","imageIndex":4,"items":[{"name":"닭발지존","tel":"031-8094-2200","addr":"경기도 평택시 서정동 842-14번지 1층","indutype":"일반휴게음식 - 일반한식","category":"restaurant"}]},{"lat":"37.06732292","long":"127.0621729","imageIndex":4,"items":[{"name":"담소사골순대국","tel":"031-611-9269","addr":"경기도 평택시 서정동 816-18번지","indutype":"일반휴게음식 - 일반한식","category":"restaurant"}]},{"lat":"37.065961805","long":"127.06319505","imageIndex":4,"items":[{"name":"당산오돌 송탄점","tel":"031-663-0101","addr":"경기도 평택시 서정동 813-4번지 1층","indutype":"일반휴게음식 - 일반한식","category":"restaurant"},{"name":"봄","tel":"031-611-8197","addr":"경기도 평택시 서정동 813-4번지","indutype":"일반휴게음식 - 일반한식","category":"restaurant"},{"name":"봄","tel":"","addr":"경기도 평택시 서정동 813-4번지","indutype":"음식점 - 일반","category":"restaurant"},{"name":"오마이치킨송탄점","tel":"031-611-2555","addr":"경기도 평택시 서정동 813-4번지","indutype":"일반휴게음식 - 칵테일바","category":"restaurant"}]},{"lat":"37.067377302","long":"127.06153202","imageIndex":4,"items":[{"name":"대구불로막창","tel":"031-611-6690","addr":"경기도 평택시 서정동 818-25번지","indutype":"일반휴게음식 - 일반한식","category":"restaurant"},{"name":"버금새우송탄점","tel":"031-664-8757","addr":"경기도 평택시 서정동 818-25번지","indutype":"일반휴게음식 - 주점","category":"restaurant"},{"name":"영스비어","tel":"031-378-0447","addr":"경기도 평택시 서정동 818-25번지 2층","indutype":"일반휴게음식 - 주점","category":"restaurant"}]},{"lat":"37.065349533","long":"127.0623063","imageIndex":4,"items":[{"name":"대구뽈탕찜해물갈비찜","tel":"031-667-5285","addr":"경기도 평택시 서정동 850-3번지 1층","indutype":"음식점 - 한식","category":"restaurant"},{"name":"술통","tel":"031-663-0047","addr":"경기도 평택시 서정동 850-3번지","indutype":"일반휴게음식 - 주점","category":"restaurant"}]},{"lat":"37.058018334","long":"127.05500396","imageIndex":4,"items":[{"name":"대구왕족발","tel":"031-663-7828","addr":"경기도 평택시 서정동 312-2번지","indutype":"일반휴게음식 - 일반한식","category":"restaurant"},{"name":"대구왕족발","tel":"031-666-2662","addr":"경기도 평택시 서정동 312-2번지","indutype":"음식점 - 한식","category":"restaurant"}]},{"lat":"37.068207627","long":"127.05873281","imageIndex":4,"items":[{"name":"대륙중화요리","tel":"031-663-6999","addr":"경기도 평택시 서정동 823번지","indutype":"음식점 - 중식","category":"restaurant"}]},{"lat":"37.066181779","long":"127.05536935","imageIndex":4,"items":[{"name":"대명유황오리","tel":"031-663-6161","addr":"경기도 평택시 서정동 876-2번지","indutype":"음식점 - 한식","category":"restaurant"},{"name":"대명유황오리","tel":"031-663-5285","addr":"경기도 평택시 서정동 876-2번지","indutype":"일반휴게음식 - 일반한식","category":"restaurant"}]},{"lat":"37.063126475","long":"127.0569526","imageIndex":4,"items":[{"name":"대박포차","tel":"031-665-8090","addr":"경기도 평택시 서정동 891-1번지","indutype":"일반휴게음식 - 주점","category":"restaurant"},{"name":"비어사케송탄점촌점","tel":"031-666-5300","addr":"경기도 평택시 서정동 891-1번지","indutype":"일반휴게음식 - 일반한식","category":"restaurant"},{"name":"쌍용폐계닭","tel":"031-666-5612","addr":"경기도 평택시 서정동 891-1번지","indutype":"일반휴게음식 - 일반한식","category":"restaurant"}]},{"lat":"37.067513668","long":"127.0590359","imageIndex":4,"items":[{"name":"대서양참치","tel":"031-662-9095","addr":"경기도 평택시 서정동 822-7번지 1층","indutype":"음식점 - 일식","category":"restaurant"},{"name":"대서양참치","tel":"031-611-3797","addr":"경기도 평택시 서정동 822-7번지 1층","indutype":"일반휴게음식 - 일식·회집","category":"restaurant"}]},{"lat":"37.056126406","long":"127.05431686","imageIndex":4,"items":[{"name":"대왕탕","tel":"031-664-2615","addr":"경기도 평택시 서정동 335-37번지","indutype":"음식점 - 한식","category":"restaurant"}]},{"lat":"37.06626177","long":"127.05780937","imageIndex":4,"items":[{"name":"대정아구찜","tel":"070-4307-1007","addr":"경기도 평택시 서정동 836-4번지","indutype":"음식점 - 한식","category":"restaurant"},{"name":"대정아구찜","tel":"031-666-7506","addr":"경기도 평택시 서정동 836-4번지","indutype":"일반휴게음식 - 일반한식","category":"restaurant"}]},{"lat":"37.063406271","long":"127.05591838","imageIndex":4,"items":[{"name":"대추골식당","tel":"031-663-5616","addr":"경기도 평택시 서정동 883-3번지 1층","indutype":"일반휴게음식 - 일반한식","category":"restaurant"}]},{"lat":"37.067764879","long":"127.06128495","imageIndex":4,"items":[{"name":"대통민물장어","tel":"031-667-6264","addr":"경기도 평택시 서정동 818-10번지","indutype":"일반휴게음식 - 일반한식","category":"restaurant"},{"name":"대통민물장어","tel":"031-666-7894","addr":"경기도 평택시 서정동 818-10번지","indutype":"음식점 - 한식","category":"restaurant"},{"name":"스티플","tel":"","addr":"경기도 평택시 서정동 818-10번지","indutype":"일반휴게음식 - 주점","category":"restaurant"}]},{"lat":"37.064815655","long":"127.06664602","imageIndex":4,"items":[{"name":"더길드","tel":"02-111-1111","addr":"경기도 평택시 서정동 1103-7번지 SPACE 지하1층 THE GUILD PRIVATE PARTY","indutype":"일반휴게음식 - 주점","category":"restaurant"}]},{"lat":"37.056711563","long":"127.05553147","imageIndex":4,"items":[{"name":"더맛있는김밥","tel":"031-667-8155","addr":"경기도 평택시 서정동 332-24번지","indutype":"일반휴게음식 - 일반한식","category":"restaurant"}]},{"lat":"37.057765963","long":"127.05517243","imageIndex":4,"items":[{"name":"더조은식당","tel":"031-665-3897","addr":"경기도 평택시 서정동 317-63번지","indutype":"음식점 - 한식","category":"restaurant"},{"name":"더조은식당","tel":"031-666-8829","addr":"경기도 평택시 서정동 317-63번지 1층","indutype":"일반휴게음식 - 일반한식","category":"restaurant"}]},{"lat":"37.068099186","long":"127.05939615","imageIndex":4,"items":[{"name":"더쪽","tel":"031-665-3232","addr":"경기도 평택시 서정동 822번지","indutype":"일반휴게음식 - 일반한식","category":"restaurant"},{"name":"스토리","tel":"031-665-8641","addr":"경기도 평택시 서정동 822번지","indutype":"일반휴게음식 - 일반한식","category":"restaurant"},{"name":"친구처럼편한분식","tel":"031-666-1179","addr":"경기도 평택시 서정동 822번지","indutype":"일반휴게음식 - 스넥","category":"restaurant"}]},{"lat":"37.069124154","long":"127.06391721","imageIndex":4,"items":[{"name":"더큰도시락 송탄제일고점","tel":"031-662-3897","addr":"경기도 평택시 서정동 795번지 금원빌딩","indutype":"일반휴게음식 - 스넥","category":"restaurant"},{"name":"옆집떡볶이(송탄점)","tel":"031-611-5707","addr":"경기도 평택시 서정동 795번지 금원빌딩","indutype":"일반휴게음식 - 일반한식","category":"restaurant"}]},{"lat":"37.065899659","long":"127.06133974","imageIndex":4,"items":[{"name":"덕성식당","tel":"031-611-8188","addr":"경기도 평택시 서정동 843-8번지","indutype":"음식점 - 한식","category":"restaurant"},{"name":"덕성식당","tel":"031-611-2040","addr":"경기도 평택시 서정동 843-8번지","indutype":"일반휴게음식 - 일반한식","category":"restaurant"}]},{"lat":"37.056405871","long":"127.05400226","imageIndex":4,"items":[{"name":"덕이네식당","tel":"031-664-1955","addr":"경기도 평택시 서정동 335-11번지 외1필지","indutype":"일반휴게음식 - 일반한식","category":"restaurant"}]},{"lat":"37.065901409","long":"127.05767418","imageIndex":4,"items":[{"name":"도깨비족발","tel":"031-667-7500","addr":"경기도 평택시 서정동 867-5번지 1층","indutype":"일반휴게음식 - 일반한식","category":"restaurant"},{"name":"돈이야","tel":"031-616-3310","addr":"경기도 평택시 서정동 867-5번지","indutype":"일반휴게음식 - 일반한식","category":"restaurant"}]},{"lat":"37.066124132","long":"127.06292532","imageIndex":4,"items":[{"name":"도쿄스튜디오","tel":"031-651-4008","addr":"경기도 평택시 서정동 848-10번지 101호","indutype":"일반휴게음식 - 일식·회집","category":"restaurant"},{"name":"우마이라멘","tel":"02-1577-0000","addr":"경기도 평택시 서정동 848-10번지 OK목장빌딩 1층 102호","indutype":"일반휴게음식 - 일식·회집","category":"restaurant"}]},{"lat":"37.0703162","long":"127.05853196","imageIndex":4,"items":[{"name":"도토베르구이치킨","tel":"031-663-5592","addr":"경기도 평택시 서정동 788-5번지 102호","indutype":"일반휴게음식 - 일반한식","category":"restaurant"}]},{"lat":"37.068565682","long":"127.06355694","imageIndex":4,"items":[{"name":"돈넥","tel":"031-666-5141","addr":"경기도 평택시 서정동 795-9번지","indutype":"음식점 - 한식","category":"restaurant"},{"name":"돈넥 숯불돼지 무한리필","tel":"031-666-6171","addr":"경기도 평택시 서정동 795-9번지 1층","indutype":"일반휴게음식 - 일반한식","category":"restaurant"}]},{"lat":"37.06307217","long":"127.05748101","imageIndex":4,"items":[{"name":"돈뜨레","tel":"","addr":"경기도 평택시 서정동 890번지 1층","indutype":"일반휴게음식 - 일반한식","category":"restaurant"},{"name":"옛날통닭점촌점","tel":"031-665-9255","addr":"경기도 평택시 서정동 890번지 1층 2호","indutype":"일반휴게음식 - 스넥","category":"restaurant"},{"name":"으뜸안주","tel":"","addr":"경기도 평택시 서정동 890번지","indutype":"음식점 - 일반","category":"restaurant"}]},{"lat":"37.060370431","long":"127.05425227","imageIndex":4,"items":[{"name":"돈벼락분식","tel":"031-666-2848","addr":"경기도 평택시 서정동 433-23번지 스마트빌듀오3차 1층 106호","indutype":"일반휴게음식 - 스넥","category":"restaurant"},{"name":"신의한발","tel":"","addr":"경기도 평택시 서정동 433-23번지 스마트빌듀오3차 109호","indutype":"일반휴게음식 - 일반한식","category":"restaurant"},{"name":"여우비 (yeoubi)","tel":"","addr":"경기도 평택시 서정동 433-23번지 스마트빌듀오3차 101동 1층 102호","indutype":"일반휴게음식 - 주점","category":"restaurant"},{"name":"존가네평택송탄점","tel":"031-668-6662","addr":"경기도 평택시 서정동 433-23번지 스마트빌듀오3차 103호","indutype":"일반휴게음식 - 일반한식","category":"restaurant"}]},{"lat":"37.061315696","long":"127.05617552","imageIndex":4,"items":[{"name":"돈앤만언","tel":"031-666-5327","addr":"경기도 평택시 서정동 903-3번지 로얄프라자 1008호 , 1018호","indutype":"일반휴게음식 - 일반한식","category":"restaurant"}]},{"lat":"37.063099546","long":"127.05672771","imageIndex":4,"items":[{"name":"돈키호테송탄점","tel":"031-663-9594","addr":"경기도 평택시 서정동 891번지 1층","indutype":"일반휴게음식 - 일반한식","category":"restaurant"},{"name":"동대문곱창","tel":"031-611-2340","addr":"경기도 평택시 서정동 891번지 1층","indutype":"일반휴게음식 - 일반한식","category":"restaurant"},{"name":"동대문곱창","tel":"031-668-4133","addr":"경기도 평택시 서정동 891번지","indutype":"음식점 - 한식","category":"restaurant"},{"name":"여우가말했다","tel":"031-663-8545","addr":"경기도 평택시 서정동 891번지 1층","indutype":"음식점 - 한식","category":"restaurant"},{"name":"여우가말했다","tel":"031-664-9491","addr":"경기도 평택시 서정동 891번지","indutype":"일반휴게음식 - 일반한식","category":"restaurant"}]},{"lat":"37.066206525","long":"127.06030552","imageIndex":4,"items":[{"name":"돈통갈비야참","tel":"031-666-6653","addr":"경기도 평택시 서정동 844-9번지 1층","indutype":"일반휴게음식 - 일반한식","category":"restaurant"},{"name":"돈통갈비야참","tel":"031-667-7400","addr":"경기도 평택시 서정동 844-9번지 1층","indutype":"음식점 - 한식","category":"restaurant"}]},{"lat":"37.067206749","long":"127.06020507","imageIndex":4,"items":[{"name":"돌배기집송탄점","tel":"031-611-5595","addr":"경기도 평택시 서정동 821-3번지","indutype":"일반휴게음식 - 일반한식","category":"restaurant"},{"name":"드라굿즈 카페","tel":"031-664-8495","addr":"경기도 평택시 서정동 821-3번지 1층","indutype":"음식점 - 카페","category":"restaurant"},{"name":"드라굿즈카페","tel":"031-6119-1119","addr":"경기도 평택시 서정동 821-3번지 1층","indutype":"일반휴게음식 - 서양음식","category":"restaurant"}]},{"lat":"37.06748653","long":"127.05926077","imageIndex":4,"items":[{"name":"동구나무숯불생고기","tel":"031-662-7744","addr":"경기도 평택시 서정동 822-5번지 1층","indutype":"음식점 - 한식","category":"restaurant"},{"name":"둥구나무숯불생고기","tel":"031-663-1213","addr":"경기도 평택시 서정동 822-5번지","indutype":"일반휴게음식 - 일반한식","category":"restaurant"}]},{"lat":"37.067846436","long":"127.06034049","imageIndex":4,"items":[{"name":"동동호프","tel":"031-664-0025","addr":"경기도 평택시 서정동 819-6번지","indutype":"일반휴게음식 - 주점","category":"restaurant"}]},{"lat":"37.062233955","long":"127.05797512","imageIndex":4,"items":[{"name":"동명카츠송탄서정점","tel":"031-666-7469","addr":"경기도 평택시 서정동 889-10번지 1층","indutype":"일반휴게음식 - 서양음식","category":"restaurant"},{"name":"동명카츠송탄서정점","tel":"031-663-9945","addr":"경기도 평택시 서정동 889-10번지 1층","indutype":"음식점 - 돈가스","category":"restaurant"}]},{"lat":"37.056766387","long":"127.05378889","imageIndex":4,"items":[{"name":"동북풍미","tel":"031-666-8827","addr":"경기도 평택시 서정동 429-3번지 외3필지 2층","indutype":"일반휴게음식 - 중국식","category":"restaurant"},{"name":"샤갈의오후","tel":"031-611-4358","addr":"경기도 평택시 서정동 429-3외3","indutype":"일반휴게음식 - 서양음식","category":"restaurant"},{"name":"서정갈비","tel":"031-662-4500","addr":"경기도 평택시 서정동 429-3번지","indutype":"음식점 - 한식","category":"restaurant"},{"name":"서정갈비","tel":"031-611-6621","addr":"경기도 평택시 서정동 429-3번지","indutype":"일반휴게음식 - 일반한식","category":"restaurant"},{"name":"역전김치삼겹살","tel":"031-663-9282","addr":"경기도 평택시 서정동 429-3번지","indutype":"일반휴게음식 - 일반한식","category":"restaurant"},{"name":"참솔국밥","tel":"031-683-7900","addr":"경기도 평택시 서정동 429-3번지 1층","indutype":"일반휴게음식 - 일반한식","category":"restaurant"}]},{"lat":"37.065567145","long":"127.0595292","imageIndex":4,"items":[{"name":"동창회","tel":"031-666-2399","addr":"경기도 평택시 서정동 852-3번지","indutype":"일반휴게음식 - 주점","category":"restaurant"},{"name":"신종가집","tel":"031-668-3522","addr":"경기도 평택시 서정동 852-3번지","indutype":"일반휴게음식 - 일반한식","category":"restaurant"}]},{"lat":"37.068647268","long":"127.06258998","imageIndex":4,"items":[{"name":"동해바다동태탕","tel":"031-661-0025","addr":"경기도 평택시 서정동 794번지 세경아파트","indutype":"일반휴게음식 - 일반한식","category":"restaurant"}]},{"lat":"37.05615305","long":"127.05520505","imageIndex":4,"items":[{"name":"동해활어회센타","tel":"","addr":"경기도 평택시 서정동 335-25번지","indutype":"일반휴게음식 - 일식·회집","category":"restaurant"}]},{"lat":"37.067873739","long":"127.05977829","imageIndex":4,"items":[{"name":"동행","tel":"031-0000-0000","addr":"경기도 평택시 서정동 819-10번지","indutype":"일반휴게음식 - 일반한식","category":"restaurant"},{"name":"숙희네포차","tel":"","addr":"경기도 평택시 서정동 819-10번지 1층","indutype":"일반휴게음식 - 주점","category":"restaurant"}]},{"lat":"37.072318992","long":"127.05305711","imageIndex":4,"items":[{"name":"돼지랑이삼겹살","tel":"031-664-6675","addr":"경기도 평택시 서정동 552-265번지","indutype":"음식점 - 한식","category":"restaurant"},{"name":"돼지랑이삼겹살","tel":"031-611-1350","addr":"경기도 평택시 서정동 552-265번지","indutype":"일반휴게음식 - 일반한식","category":"restaurant"}]},{"lat":"37.065793036","long":"127.05820257","imageIndex":4,"items":[{"name":"두찜평택서정점","tel":"","addr":"경기도 평택시 서정동 866-1번지 1층 104호","indutype":"일반휴게음식 - 일반한식","category":"restaurant"},{"name":"빵아저씨","tel":"","addr":"경기도 평택시 서정동 866-1번지 103호","indutype":"음식점 - 제과점","category":"restaurant"},{"name":"서울수제비","tel":"","addr":"경기도 평택시 서정동 866-1번지","indutype":"음식점 - 한식","category":"restaurant"},{"name":"서울수제비","tel":"031-665-3117","addr":"경기도 평택시 서정동 866-1번지 101호","indutype":"일반휴게음식 - 일반한식","category":"restaurant"}]},{"lat":"37.067900846","long":"127.05962089","imageIndex":4,"items":[{"name":"두코돈코","tel":"031-662-8392","addr":"경기도 평택시 서정동 819-11번지","indutype":"일반휴게음식 - 일반한식","category":"restaurant"}]},{"lat":"37.065376643","long":"127.0621489","imageIndex":4,"items":[{"name":"두팔이곱창","tel":"031-000-0000","addr":"경기도 평택시 서정동 850-2번지 우진빌딩 1층","indutype":"일반휴게음식 - 일반한식","category":"restaurant"}]},{"lat":"37.068126325","long":"127.05917128","imageIndex":4,"items":[{"name":"듀스","tel":"","addr":"경기도 평택시 서정동 822-12번지 개풍빌딩 지층","indutype":"일반휴게음식 - 주점","category":"restaurant"}]},{"lat":"37.062099658","long":"127.05608612","imageIndex":4,"items":[{"name":"들국화","tel":"070-8966-6992","addr":"경기도 평택시 서정동 903번지 1층","indutype":"일반휴게음식 - 주점","category":"restaurant"}]},{"lat":"37.069398475","long":"127.05556272","imageIndex":4,"items":[{"name":"디디치킨송탄2호점","tel":"031-662-3549","addr":"경기도 평택시 서정동 829-1번지","indutype":"일반휴게음식 - 주점","category":"restaurant"},{"name":"디디치킨송탄2호점","tel":"031-665-0905","addr":"경기도 평택시 서정동 829-1번지","indutype":"음식점 - 한식","category":"restaurant"},{"name":"신동해수산","tel":"031-611-0820","addr":"경기도 평택시 서정동 829-1번지","indutype":"음식점 - 한식","category":"restaurant"}]},{"lat":"37.067431664","long":"127.06092488","imageIndex":4,"items":[{"name":"땡이네","tel":"031-667-2279","addr":"경기도 평택시 서정동 818-29번지 1층상가","indutype":"일반휴게음식 - 스넥","category":"restaurant"}]},{"lat":"37.072372628","long":"127.05405795","imageIndex":4,"items":[{"name":"떡볶끼","tel":"031-663-7277","addr":"경기도 평택시 서정동 552-235번지","indutype":"일반휴게음식 - 스넥","category":"restaurant"}]},{"lat":"37.065431247","long":"127.06105828","imageIndex":4,"items":[{"name":"떳다!불닭발","tel":"031-665-5758","addr":"경기도 평택시 서정동 851-6번지","indutype":"일반휴게음식 - 일반한식","category":"restaurant"},{"name":"정식당","tel":"031-667-9823","addr":"경기도 평택시 서정동 851-6번지","indutype":"음식점 - 한식","category":"restaurant"},{"name":"정식당","tel":"031-665-8680","addr":"경기도 평택시 서정동 851-6번지","indutype":"일반휴게음식 - 일반한식","category":"restaurant"}]},{"lat":"37.059568282","long":"127.05472394","imageIndex":4,"items":[{"name":"떳다철가방","tel":"031-666-1411","addr":"경기도 평택시 서정동 303-4번지","indutype":"일반휴게음식 - 중국식","category":"restaurant"}]},{"lat":"37.063342488","long":"127.0574812","imageIndex":4,"items":[{"name":"또또해물아구찜","tel":"031-668-3345","addr":"경기도 평택시 서정동 886-4번지 1층","indutype":"일반휴게음식 - 일반한식","category":"restaurant"}]},{"lat":"37.058099514","long":"127.05481288","imageIndex":4,"items":[{"name":"또바기","tel":"","addr":"경기도 평택시 서정동 313-21번지","indutype":"음식점 - 한식","category":"restaurant"},{"name":"지영네 찌개집","tel":"031-666-4522","addr":"경기도 평택시 서정동 313-21번지","indutype":"음식점 - 한식","category":"restaurant"},{"name":"지영이네 찌게집","tel":"031-683-1622","addr":"경기도 평택시 서정동 313-21번지","indutype":"일반휴게음식 - 일반한식","category":"restaurant"}]},{"lat":"37.056711353","long":"127.05600366","imageIndex":4,"items":[{"name":"또봉이통닭 서정점","tel":"031-611-5392","addr":"경기도 평택시 서정동 333-13번지","indutype":"일반휴게음식 - 스넥","category":"restaurant"},{"name":"또봉이통닭 서정점","tel":"","addr":"경기도 평택시 서정동 333-13번지","indutype":"음식점 - 치킨","category":"restaurant"}]},{"lat":"37.069321997","long":"127.06467075","imageIndex":4,"items":[{"name":"또봉이통닭송탄제일고점","tel":"031-665-2528","addr":"경기도 평택시 서정동 778-8번지","indutype":"일반휴게음식 - 스넥","category":"restaurant"},{"name":"마루롱","tel":"031-667-8910","addr":"경기도 평택시 서정동 778-8번지","indutype":"일반휴게음식 - 서양음식","category":"restaurant"},{"name":"마루롱","tel":"031-668-5551","addr":"경기도 평택시 서정동 778-8번지","indutype":"음식점 - 휴게음식","category":"restaurant"}]},{"lat":"37.067150973","long":"127.06364576","imageIndex":4,"items":[{"name":"라라코스트송탄점","tel":"031-662-0829","addr":"경기도 평택시 서정동 814-2번지 1층","indutype":"음식점 - 레스토랑","category":"restaurant"}]},{"lat":"37.067656103","long":"127.0625892","imageIndex":4,"items":[{"name":"라면국물편의점포차 송탄점","tel":"02-1577-0000","addr":"경기도 평택시 서정동 815-15번지 2층","indutype":"일반휴게음식 - 주점","category":"restaurant"},{"name":"영통찌개지존","tel":"031-665-5592","addr":"경기도 평택시 서정동 815-15번지","indutype":"음식점 - 한식","category":"restaurant"},{"name":"영통찌개지존","tel":"031-666-7705","addr":"경기도 평택시 서정동 815-15번지","indutype":"일반휴게음식 - 일반한식","category":"restaurant"}]},{"lat":"37.067431736","long":"127.0607787","imageIndex":4,"items":[{"name":"레몬타임","tel":"031-611-7355","addr":"경기도 평택시 서정동 818-30번지 1층","indutype":"일반휴게음식 - 주점","category":"restaurant"},{"name":"레몬타임","tel":"031-666-5353","addr":"경기도 평택시 서정동 818-30번지","indutype":"음식점 - 호프","category":"restaurant"},{"name":"모전자전","tel":"031-664-2816","addr":"경기도 평택시 서정동 818-30번지","indutype":"일반휴게음식 - 일반한식","category":"restaurant"}]},{"lat":"37.05664884","long":"127.0547332","imageIndex":4,"items":[{"name":"레인코트(Raincoat)","tel":"","addr":"경기도 평택시 서정동 319-3번지 서정아트타워 1층 103호","indutype":"일반휴게음식 - 서양음식","category":"restaurant"}]},{"lat":"37.067512461","long":"127.06153213","imageIndex":4,"items":[{"name":"레츠고샤이니","tel":"031-666-6090","addr":"경기도 평택시 서정동 818-24번지 2층","indutype":"일반휴게음식 - 주점","category":"restaurant"},{"name":"수작","tel":"031-667-5322","addr":"경기도 평택시 서정동 818-24번지","indutype":"일반휴게음식 - 일반한식","category":"restaurant"}]},{"lat":"37.066953078","long":"127.0629822","imageIndex":4,"items":[{"name":"로즈버드송탄점","tel":"031-663-2004","addr":"경기도 평택시 서정동 817-5번지","indutype":"일반휴게음식 - 서양음식","category":"restaurant"},{"name":"로즈버드송탄점","tel":"031-666-1369","addr":"경기도 평택시 서정동 817-5번지 덕산빌딩 1층","indutype":"음식점 - 카페","category":"restaurant"},{"name":"맘스터치송탄점","tel":"031-668-2501","addr":"경기도 평택시 서정동 817-5번지 덕산빌딩 1층 6호","indutype":"일반휴게음식 - 스넥","category":"restaurant"}]},{"lat":"37.06717957","long":"127.06050865","imageIndex":4,"items":[{"name":"로티플보드카페","tel":"031-668-6532","addr":"경기도 평택시 서정동 818-34번지 4층 401호","indutype":"일반휴게음식 - 일반한식","category":"restaurant"},{"name":"송탄본죽","tel":"031-611-0023","addr":"경기도 평택시 서정동 818-34번지 남서울빌딩 1층","indutype":"일반휴게음식 - 일반한식","category":"restaurant"}]},{"lat":"37.067683332","long":"127.06219567","imageIndex":4,"items":[{"name":"리어카포차 송탄점","tel":"031-8094-2747","addr":"경기도 평택시 서정동 815-18번지 2층","indutype":"일반휴게음식 - 일반한식","category":"restaurant"},{"name":"맵도리탕 송탄점","tel":"","addr":"경기도 평택시 서정동 815-18번지 1층","indutype":"일반휴게음식 - 일반한식","category":"restaurant"}]},{"lat":"37.064315051","long":"127.05872996","imageIndex":4,"items":[{"name":"리잉크","tel":"031-664-9289","addr":"경기도 평택시 서정동 865-11번지 1층 리잉크 커피","indutype":"음식점 - 커피","category":"restaurant"},{"name":"링크(reink)","tel":"031-293-2223","addr":"경기도 평택시 서정동 865-11번지 103호","indutype":"일반휴게음식 - 서양음식","category":"restaurant"}]},{"lat":"37.066622892","long":"127.05628043","imageIndex":4,"items":[{"name":"마그넷커피","tel":"050-7744-5154","addr":"경기도 평택시 서정동 835-5번지","indutype":"음식점 - 커피","category":"restaurant"}]},{"lat":"37.067792132","long":"127.0608352","imageIndex":4,"items":[{"name":"마부마라탕","tel":"031-0000-0000","addr":"경기도 평택시 서정동 818-13번지 1층","indutype":"일반휴게음식 - 중국식","category":"restaurant"},{"name":"마부마라탕","tel":"031-667-9473","addr":"경기도 평택시 서정동 818-13번지 1층","indutype":"음식점 - 중식","category":"restaurant"},{"name":"막걸리 먹는날","tel":"031-665-6470","addr":"경기도 평택시 서정동 818-13번지 1층","indutype":"일반휴게음식 - 주점","category":"restaurant"}]},{"lat":"37.067286259","long":"127.0633985","imageIndex":4,"items":[{"name":"마주마","tel":"031-667-0399","addr":"경기도 평택시 서정동 814-6번지","indutype":"일반휴게음식 - 주점","category":"restaurant"},{"name":"일품닭바베큐","tel":"031-663-9977","addr":"경기도 평택시 서정동 814-6번지","indutype":"일반휴게음식 - 주점","category":"restaurant"}]},{"lat":"37.06765616","long":"127.06247676","imageIndex":4,"items":[{"name":"마포최대포송탄점","tel":"031-662-9245","addr":"경기도 평택시 서정동 815-16번지","indutype":"일반휴게음식 - 일반한식","category":"restaurant"},{"name":"본참치","tel":"031-667-7259","addr":"경기도 평택시 서정동 815-16번지","indutype":"일반휴게음식 - 일식·회집","category":"restaurant"}]},{"lat":"37.068294848","long":"127.06455747","imageIndex":4,"items":[{"name":"마퐁떡볶이","tel":"","addr":"경기도 평택시 서정동 799-2번지 1층","indutype":"음식점 - 분식","category":"restaurant"},{"name":"처갓집양념치킨 지산서정점","tel":"031-667-8253","addr":"경기도 평택시 서정동 799-2번지","indutype":"일반휴게음식 - 스넥","category":"restaurant"}]},{"lat":"37.057568428","long":"127.05356457","imageIndex":4,"items":[{"name":"막걸리엑스파일","tel":"031-652-7133","addr":"경기도 평택시 서정동 427-15번지","indutype":"일반휴게음식 - 일반한식","category":"restaurant"}]},{"lat":"37.05759376","long":"127.05739838","imageIndex":4,"items":[{"name":"만스시","tel":"031-664-3678","addr":"경기도 평택시 서정동 265-3번지 1층","indutype":"일반휴게음식 - 일식·회집","category":"restaurant"}]},{"lat":"37.074764648","long":"127.04311784","imageIndex":4,"items":[{"name":"맛나포장마차","tel":"031-611-5653","addr":"경기도 평택시 서정동 596-157번지 1층","indutype":"일반휴게음식 - 일반한식","category":"restaurant"}]},{"lat":"37.07231793","long":"127.05550852","imageIndex":4,"items":[{"name":"맛이야","tel":"031-662-7632","addr":"경기도 평택시 서정동 76-21번지","indutype":"일반휴게음식 - 일반한식","category":"restaurant"}]},{"lat":"37.072651481","long":"127.05514891","imageIndex":4,"items":[{"name":"맛있는 한끼","tel":"031-668-8255","addr":"경기도 평택시 서정동 76-15번지 2층","indutype":"일반휴게음식 - 일반한식","category":"restaurant"}]},{"lat":"37.067486039","long":"127.06028399","imageIndex":4,"items":[{"name":"맛있는안주","tel":"031-667-1237","addr":"경기도 평택시 서정동 820-7번지","indutype":"일반휴게음식 - 일반한식","category":"restaurant"}]},{"lat":"37.067710555","long":"127.06181339","imageIndex":4,"items":[{"name":"맥주왕","tel":"031-653-9558","addr":"경기도 평택시 서정동 815-21번지 2층","indutype":"일반휴게음식 - 주점","category":"restaurant"}]},{"lat":"37.0581268","long":"127.05422827","imageIndex":4,"items":[{"name":"머슴갈비와 국밥","tel":"031-664-3393","addr":"경기도 평택시 서정동 315-2번지","indutype":"음식점 - 한식","category":"restaurant"},{"name":"머슴갈비와국밥","tel":"031-666-5958","addr":"경기도 평택시 서정동 315-2번지 1층","indutype":"일반휴게음식 - 일반한식","category":"restaurant"},{"name":"주공식당","tel":"031-666-7862","addr":"경기도 평택시 서정동 315-2번지","indutype":"일반휴게음식 - 일반한식","category":"restaurant"},{"name":"주공식당","tel":"031-611-6538","addr":"경기도 평택시 서정동 315-2번지","indutype":"음식점 - 한식","category":"restaurant"}]},{"lat":"37.066485047","long":"127.06194737","imageIndex":4,"items":[{"name":"메가커피 송탄출장소점","tel":"031-664-1106","addr":"경기도 평택시 서정동 847-1번지 화신노블레스4차 102호","indutype":"일반휴게음식 - 서양음식","category":"restaurant"},{"name":"쥬씨(송탄점)","tel":"031-663-2005","addr":"경기도 평택시 서정동 847-1번지 104호","indutype":"음식점 - 주스전문점","category":"restaurant"},{"name":"쥬씨(송탄점)","tel":"031-665-0988","addr":"경기도 평택시 서정동 847-1번지","indutype":"일반휴게음식 - 서양음식","category":"restaurant"},{"name":"팔공티 송탄점","tel":"","addr":"경기도 평택시 서정동 847-1번지 화신노블레스4차 103호","indutype":"일반휴게음식 - 서양음식","category":"restaurant"},{"name":"할매땡초김밥","tel":"031-667-4445","addr":"경기도 평택시 서정동 847-1번지 105호","indutype":"일반휴게음식 - 일반한식","category":"restaurant"}]},{"lat":"37.069875069","long":"127.05769953","imageIndex":4,"items":[{"name":"멕시카나치킨 서정점","tel":"031-611-0753","addr":"경기도 평택시 서정동 826-2번지 1층","indutype":"음식점 - 치킨","category":"restaurant"},{"name":"베이클보쌈.갈릭족발","tel":"031-662-5236","addr":"경기도 평택시 서정동 826-2번지","indutype":"일반휴게음식 - 일반한식","category":"restaurant"}]},{"lat":"37.064370203","long":"127.0563688","imageIndex":4,"items":[{"name":"명가돈마루","tel":"031-666-5992","addr":"경기도 평택시 서정동 871-13번지","indutype":"일반휴게음식 - 일반한식","category":"restaurant"}]},{"lat":"37.069904911","long":"127.05123389","imageIndex":4,"items":[{"name":"명가한식부페","tel":"031-662-3656","addr":"경기도 평택시 서정동 532-46번지","indutype":"일반휴게음식 - 일반한식","category":"restaurant"}]},{"lat":"37.066342619","long":"127.0583379","imageIndex":4,"items":[{"name":"명륜진사숯불갈비(송탄점)","tel":"031-8094-2795","addr":"경기도 평택시 서정동 838-4번지 1층","indutype":"일반휴게음식 - 일반한식","category":"restaurant"}]},{"lat":"37.065403982","long":"127.06153051","imageIndex":4,"items":[{"name":"명문닭발","tel":"031-665-2900","addr":"경기도 평택시 서정동 850번지","indutype":"일반휴게음식 - 일반한식","category":"restaurant"},{"name":"엠","tel":"031-611-2722","addr":"경기도 평택시 서정동 850번지 2층","indutype":"일반휴게음식 - 주점","category":"restaurant"}]},{"lat":"37.059261955","long":"127.05464503","imageIndex":4,"items":[{"name":"명인만두평택서정점","tel":"031-667-6672","addr":"경기도 평택시 서정동 303-6번지 101호","indutype":"일반휴게음식 - 스넥","category":"restaurant"},{"name":"홍미칼국수","tel":"031-611-2112","addr":"경기도 평택시 서정동 303-6번지 서정역꿈의도시두드림주상복합 105호","indutype":"일반휴게음식 - 일반한식","category":"restaurant"}]},{"lat":"37.070758323","long":"127.05722789","imageIndex":4,"items":[{"name":"명희도삭면","tel":"031-666-3378","addr":"경기도 평택시 서정동 782-3번지","indutype":"일반휴게음식 - 중국식","category":"restaurant"},{"name":"명희양꼬치","tel":"031-665-5023","addr":"경기도 평택시 서정동 782-3번지 2층","indutype":"일반휴게음식 - 중국식","category":"restaurant"}]},{"lat":"37.066569516","long":"127.0547287","imageIndex":4,"items":[{"name":"모던비어","tel":"070-4220-0615","addr":"경기도 평택시 서정동 831-12번지 102,103호","indutype":"일반휴게음식 - 주점","category":"restaurant"}]},{"lat":"37.057737402","long":"127.05853401","imageIndex":4,"items":[{"name":"무한쌩/주식회사 무한쌩","tel":"031-1111-1111","addr":"경기도 평택시 서정동 263-1번지 평택서정리역휴먼파크리움 105호","indutype":"일반휴게음식 - 주점","category":"restaurant"},{"name":"술로","tel":"031-666-2202","addr":"경기도 평택시 서정동 263-1번지 휴먼파크리움 108호, 109호","indutype":"일반휴게음식 - 주점","category":"restaurant"},{"name":"이찌방회전초밥","tel":"031-666-3372","addr":"경기도 평택시 서정동 263-1번지 평택서정리역휴먼파크리움 101호","indutype":"일반휴게음식 - 일식·회집","category":"restaurant"},{"name":"포항물회 택이네조개전골","tel":"031-662-3223","addr":"경기도 평택시 서정동 263-1번지 110~112호","indutype":"음식점 - 물회","category":"restaurant"},{"name":"포항물회 택이네조개전골","tel":"031-666-2357","addr":"경기도 평택시 서정동 263-1번지 110-112호","indutype":"일반휴게음식 - 일반한식","category":"restaurant"},{"name":"포항물회 택이네조개전골/(주)후레쉬씨푸드","tel":"031-666-2357","addr":"경기도 평택시 서정동 263-1번지 101호,111-115호","indutype":"일반휴게음식 - 일반한식","category":"restaurant"}]},{"lat":"37.066016271","long":"127.06239677","imageIndex":4,"items":[{"name":"문스갈비","tel":"031-666-5075","addr":"경기도 평택시 서정동 848-15번지","indutype":"일반휴게음식 - 일반한식","category":"restaurant"}]},{"lat":"37.067377385","long":"127.06136336","imageIndex":4,"items":[{"name":"문어야","tel":"031-662-6262","addr":"경기도 평택시 서정동 818-26번지 1층상가 서쪽 1층","indutype":"음식점 - 한식","category":"restaurant"},{"name":"문어야","tel":"031-611-0033","addr":"경기도 평택시 서정동 818-26번지 1층 상가서쪽","indutype":"일반휴게음식 - 일반한식","category":"restaurant"},{"name":"양반장양꼬치","tel":"031-000-0000","addr":"경기도 평택시 서정동 818-26번지 1층","indutype":"일반휴게음식 - 일반한식","category":"restaurant"},{"name":"양반장양꼬치","tel":"031-668-3540","addr":"경기도 평택시 서정동 818-26번지 1층","indutype":"음식점 - 일반","category":"restaurant"}]},{"lat":"37.067066084","long":"127.05242398","imageIndex":4,"items":[{"name":"문카페","tel":"042-322-3800","addr":"경기도 평택시 서정동 515-3번지 201호","indutype":"일반휴게음식 - 서양음식","category":"restaurant"}]},{"lat":"37.068236525","long":"127.05461739","imageIndex":4,"items":[{"name":"미래캐터링","tel":"031-611-3989","addr":"경기도 평택시 서정동 830-11번지","indutype":"일반휴게음식 - 일반한식","category":"restaurant"}]},{"lat":"37.07554052","long":"127.04017194","imageIndex":4,"items":[{"name":"미류","tel":"031-667-1020","addr":"경기도 평택시 서정동 604-183번지 1층 3호","indutype":"일반휴게음식 - 주점","category":"restaurant"},{"name":"축복식당","tel":"031-664-3558","addr":"경기도 평택시 서정동 604-183번지","indutype":"일반휴게음식 - 일반한식","category":"restaurant"}]},{"lat":"37.067486159","long":"127.06003662","imageIndex":4,"items":[{"name":"미림정","tel":"031-662-5350","addr":"경기도 평택시 서정동 820-9번지","indutype":"일반휴게음식 - 일반한식","category":"restaurant"}]},{"lat":"37.05946037","long":"127.05422917","imageIndex":4,"items":[{"name":"미손촌잔치국수","tel":"031-663-9541","addr":"경기도 평택시 서정동 304-5번지 1층","indutype":"일반휴게음식 - 일반한식","category":"restaurant"},{"name":"쇼쿠지","tel":"","addr":"경기도 평택시 서정동 304-5번지 107호","indutype":"일반휴게음식 - 일식·회집","category":"restaurant"},{"name":"싸움의고수 평택서정리역점","tel":"031-666-0015","addr":"경기도 평택시 서정동 304-5번지 108호","indutype":"일반휴게음식 - 일반한식","category":"restaurant"},{"name":"원바 (one bar)","tel":"031-666-7277","addr":"경기도 평택시 서정동 304-5번지 서정트인자리애1차 106호","indutype":"일반휴게음식 - 주점","category":"restaurant"},{"name":"천하제일닭(서정점)","tel":"031-668-0045","addr":"경기도 평택시 서정동 304-5번지 서정트인자리애1차 103호일부,104호","indutype":"일반휴게음식 - 스넥","category":"restaurant"}]},{"lat":"37.066456495","long":"127.06492704","imageIndex":4,"items":[{"name":"미스터(Mr.)팔봉이쿡","tel":"031-1111-1111","addr":"경기도 평택시 서정동 800번지 북부문화예술회관앞주차장","indutype":"일반휴게음식 - 일반한식","category":"restaurant"}]},{"lat":"37.071126957","long":"127.05894861","imageIndex":4,"items":[{"name":"미스터뚝","tel":"070-7420-7747","addr":"경기도 평택시 서정동 781-2번지 1층","indutype":"일반휴게음식 - 일반한식","category":"restaurant"},{"name":"비비큐 금호점","tel":"031-665-6605","addr":"경기도 평택시 서정동 781-2번지","indutype":"일반휴게음식 - 스넥","category":"restaurant"}]},{"lat":"37.067125172","long":"127.0611945","imageIndex":4,"items":[{"name":"미스터피자송탄점/주식회사티앤와이","tel":"031-611-7710","addr":"경기도 평택시 서정동 818-37,2,3층","indutype":"일반휴게음식 - 서양음식","category":"restaurant"},{"name":"유가네닭갈비 송탄점","tel":"031-655-5521","addr":"경기도 평택시 서정동 818-37번지 1층 일부","indutype":"음식점 - 한식","category":"restaurant"},{"name":"유가네닭갈비송탄점","tel":"031-664-9233","addr":"경기도 평택시 서정동 818-37번지 1층","indutype":"일반휴게음식 - 일반한식","category":"restaurant"}]},{"lat":"37.067259597","long":"127.0626676","imageIndex":4,"items":[{"name":"민지양꼬치","tel":"031-665-7750","addr":"경기도 평택시 서정동 816-14번지","indutype":"일반휴게음식 - 중국식","category":"restaurant"}]},{"lat":"37.065790978","long":"127.06245281","imageIndex":4,"items":[{"name":"밀방떡 송탄점","tel":"","addr":"경기도 평택시 서정동 849-6번지","indutype":"일반휴게음식 - 스넥","category":"restaurant"},{"name":"태영생막창","tel":"070-7622-2861","addr":"경기도 평택시 서정동 849-6번지","indutype":"일반휴게음식 - 일반한식","category":"restaurant"},{"name":"태영생막창(서정동)","tel":"031-611-7771","addr":"경기도 평택시 서정동 849-6번지","indutype":"음식점 - 한식","category":"restaurant"}]},{"lat":"37.064459326","long":"127.05850519","imageIndex":4,"items":[{"name":"바다를품은해적선","tel":"031-666-5255","addr":"경기도 평택시 서정동 865-13번지 1층","indutype":"일반휴게음식 - 일반한식","category":"restaurant"}]},{"lat":"37.067431801","long":"127.06064377","imageIndex":4,"items":[{"name":"바삭돌이치킨","tel":"031-665-0988","addr":"경기도 평택시 서정동 818-31번지","indutype":"음식점 - 치킨","category":"restaurant"},{"name":"송탄안주식당","tel":"031-665-7575","addr":"경기도 평택시 서정동 818-31번지 1층","indutype":"일반휴게음식 - 일반한식","category":"restaurant"}]},{"lat":"37.059431333","long":"127.05867017","imageIndex":4,"items":[{"name":"반값소","tel":"031-668-4656","addr":"경기도 평택시 서정동 287-5번지","indutype":"일반휴게음식 - 일반한식","category":"restaurant"}]},{"lat":"37.066043376","long":"127.06225062","imageIndex":4,"items":[{"name":"반올림피자샵 송탄점","tel":"031-663-4231","addr":"경기도 평택시 서정동 848-16번지","indutype":"일반휴게음식 - 서양음식","category":"restaurant"}]},{"lat":"37.066983087","long":"127.05678667","imageIndex":4,"items":[{"name":"밥먹을래분식먹을래","tel":"031-611-8180","addr":"경기도 평택시 서정동 837-10번지 1층","indutype":"일반휴게음식 - 일반한식","category":"restaurant"}]},{"lat":"37.068567806","long":"127.05925032","imageIndex":4,"items":[{"name":"배달삼겹돼지되지","tel":"031-666-8592","addr":"경기도 평택시 서정동 792-13번지","indutype":"일반휴게음식 - 일반한식","category":"restaurant"}]},{"lat":"37.064738655","long":"127.05850539","imageIndex":4,"items":[{"name":"배블리양꼬치","tel":"031-668-2734","addr":"경기도 평택시 서정동 865-15번지","indutype":"일반휴게음식 - 중국식","category":"restaurant"},{"name":"배블리양꼬치","tel":"031-666-9702","addr":"경기도 평택시 서정동 865-15번지 102호","indutype":"음식점 - 중식","category":"restaurant"},{"name":"천상대게","tel":"031-667-7942","addr":"경기도 평택시 서정동 865-15번지 101호","indutype":"일반휴게음식 - 일반한식","category":"restaurant"},{"name":"천상대게 송탄점","tel":"0504-3142-1598","addr":"경기도 평택시 서정동 865-15번지 서정타워 102호","indutype":"음식점 - 일반","category":"restaurant"}]},{"lat":"37.066929584","long":"127.05553853","imageIndex":4,"items":[{"name":"백가네","tel":"","addr":"경기도 평택시 서정동 834-11번지 1층","indutype":"일반휴게음식 - 일반한식","category":"restaurant"},{"name":"백가네푸드","tel":"031-665-5521","addr":"경기도 평택시 서정동 834-11번지 102호","indutype":"일반휴게음식 - 일반한식","category":"restaurant"},{"name":"백가네푸드","tel":"031-611-3000","addr":"경기도 평택시 서정동 834-11번지 102호","indutype":"음식점 - 한식","category":"restaurant"}]},{"lat":"37.064428851","long":"127.06542012","imageIndex":4,"items":[{"name":"백팔번길","tel":"031-611-5530","addr":"경기도 평택시 서정동 807-2번지","indutype":"일반휴게음식 - 서양음식","category":"restaurant"}]},{"lat":"37.067430855","long":"127.06255529","imageIndex":4,"items":[{"name":"버들골이야기송탄점","tel":"031-225-2300","addr":"경기도 평택시 서정동 816-6번지","indutype":"일반휴게음식 - 일반한식","category":"restaurant"},{"name":"역전할머니맥주 출장소점","tel":"070-4797-8548","addr":"경기도 평택시 서정동 816-6번지","indutype":"일반휴게음식 - 주점","category":"restaurant"}]},{"lat":"37.062315305","long":"127.05742425","imageIndex":4,"items":[{"name":"베이컨시 (Vacancy)","tel":"031-666-0737","addr":"경기도 평택시 서정동 890-7번지","indutype":"일반휴게음식 - 서양음식","category":"restaurant"}]},{"lat":"37.06434832","long":"127.06434064","imageIndex":4,"items":[{"name":"베트남쌀국수포포포","tel":"031-611-2588","addr":"경기도 평택시 서정동 810-8번지 용빈빌딩","indutype":"일반휴게음식 - 서양음식","category":"restaurant"},{"name":"카페루앤비(평택서정점)","tel":"031-611-1287","addr":"경기도 평택시 서정동 810-8번지 용빈빌딩","indutype":"일반휴게음식 - 일반한식","category":"restaurant"},{"name":"해룡각","tel":"031-666-6255","addr":"경기도 평택시 서정동 810-8번지","indutype":"일반휴게음식 - 중국식","category":"restaurant"}]},{"lat":"37.070676438","long":"127.05892578","imageIndex":4,"items":[{"name":"베프돈가츠","tel":"","addr":"경기도 평택시 서정동 789번지","indutype":"음식점 - 일식","category":"restaurant"},{"name":"베프돈가츠","tel":"031-666-1456","addr":"경기도 평택시 서정동 789번지 1층","indutype":"일반휴게음식 - 서양음식","category":"restaurant"}]},{"lat":"37.064878789","long":"127.06653363","imageIndex":4,"items":[{"name":"별난만두","tel":"031-611-9419","addr":"경기도 평택시 서정동 1103-6번지 1층 상가","indutype":"음식점 - 분식","category":"restaurant"},{"name":"별난만두","tel":"031-000-0000","addr":"경기도 평택시 서정동 1103-6번지","indutype":"일반휴게음식 - 일반한식","category":"restaurant"}]},{"lat":"37.06651219","long":"127.06172251","imageIndex":4,"items":[{"name":"본가왕뼈감자탕","tel":"031-666-7021","addr":"경기도 평택시 서정동 847번지 1층","indutype":"일반휴게음식 - 일반한식","category":"restaurant"},{"name":"설빙(서정점)","tel":"031-666-6596","addr":"경기도 평택시 서정동 847번지","indutype":"음식점 - 빙수","category":"restaurant"},{"name":"설빙서정점","tel":"031-666-7128","addr":"경기도 평택시 서정동 847번지 2층","indutype":"일반휴게음식 - 서양음식","category":"restaurant"}]},{"lat":"37.071403676","long":"127.06422264","imageIndex":4,"items":[{"name":"본도시락송탄점","tel":"070-4120-7830","addr":"경기도 평택시 서정동 775-14번지","indutype":"음식점 - 한식","category":"restaurant"},{"name":"본도시락송탄점","tel":"031-611-4282","addr":"경기도 평택시 서정동 775-14번지","indutype":"일반휴게음식 - 일반한식","category":"restaurant"}]},{"lat":"37.071403745","long":"127.0640877","imageIndex":4,"items":[{"name":"본설송탄점","tel":"031-611-4282","addr":"경기도 평택시 서정동 775-15번지","indutype":"음식점 - 한식","category":"restaurant"},{"name":"본설송탄점","tel":"","addr":"경기도 평택시 서정동 775-15번지","indutype":"일반휴게음식 - 일반한식","category":"restaurant"}]},{"lat":"37.06131477","long":"127.05819932","imageIndex":4,"items":[{"name":"부경참숯왕소금구이","tel":"031-664-0468","addr":"경기도 평택시 서정동 907-4번지","indutype":"일반휴게음식 - 일반한식","category":"restaurant"},{"name":"부경참숯왕소금구이","tel":"031-663-9976","addr":"경기도 평택시 서정동 907-4번지 1층","indutype":"음식점 - 한식","category":"restaurant"}]},{"lat":"37.070952737","long":"127.06500941","imageIndex":4,"items":[{"name":"부락산","tel":"031-665-3222","addr":"경기도 평택시 서정동 1-2번지","indutype":"음식점 - 한식","category":"restaurant"},{"name":"부락산","tel":"031-0000-0000","addr":"경기도 평택시 서정동 1-2번지","indutype":"일반휴게음식 - 일반한식","category":"restaurant"}]},{"lat":"37.069650272","long":"127.05667611","imageIndex":4,"items":[{"name":"부산아구찜","tel":"031-611-2800","addr":"경기도 평택시 서정동 828-1번지","indutype":"음식점 - 한식","category":"restaurant"}]},{"lat":"37.06787138","long":"127.06450091","imageIndex":4,"items":[{"name":"부자곱","tel":"070-7867-7838","addr":"경기도 평택시 서정동 799-6번지 1층","indutype":"일반휴게음식 - 일반한식","category":"restaurant"},{"name":"부자곱(서정동)","tel":"031-666-5001","addr":"경기도 평택시 서정동 799-6번지","indutype":"음식점 - 곱창","category":"restaurant"}]},{"lat":"37.071932598","long":"127.05048177","imageIndex":4,"items":[{"name":"부자밥상","tel":"031-662-6649","addr":"경기도 평택시 서정동 557-28번지 1층","indutype":"일반휴게음식 - 일반한식","category":"restaurant"},{"name":"부자밥상","tel":"031-666-8503","addr":"경기도 평택시 서정동 557-28번지","indutype":"음식점 - 한식","category":"restaurant"}]},{"lat":"37.061902125","long":"127.05450066","imageIndex":4,"items":[{"name":"부지깽이 연탄불","tel":"031-663-9212","addr":"경기도 평택시 서정동 898-6번지 1층","indutype":"일반휴게음식 - 일반한식","category":"restaurant"}]},{"lat":"37.072539933","long":"127.04037288","imageIndex":4,"items":[{"name":"북경이야기","tel":"031-611-8008","addr":"경기도 평택시 서정동 607-7번지","indutype":"일반휴게음식 - 중국식","category":"restaurant"}]},{"lat":"37.056572804","long":"127.04145556","imageIndex":4,"items":[{"name":"불난버섯집","tel":"031-611-6171","addr":"경기도 평택시 서정동 658-8번지","indutype":"일반휴게음식 - 일반한식","category":"restaurant"}]},{"lat":"37.065989047","long":"127.06277904","imageIndex":4,"items":[{"name":"불날개송탄1호점","tel":"031-665-9982","addr":"경기도 평택시 서정동 848-12번지","indutype":"일반휴게음식 - 일반한식","category":"restaurant"},{"name":"소문난할매묵은지김치찜","tel":"031-665-2500","addr":"경기도 평택시 서정동 848-12번지","indutype":"일반휴게음식 - 일반한식","category":"restaurant"}]},{"lat":"37.064014671","long":"127.0648351","imageIndex":4,"items":[{"name":"불스떡볶이","tel":"031-665-2235","addr":"경기도 평택시 서정동 807-8번지 1층","indutype":"일반휴게음식 - 스넥","category":"restaurant"}]},{"lat":"37.065872505","long":"127.06158709","imageIndex":4,"items":[{"name":"브뤼셀","tel":"031-665-3378","addr":"경기도 평택시 서정동 849번지","indutype":"일반휴게음식 - 서양음식","category":"restaurant"},{"name":"카페브리쉘","tel":"","addr":"경기도 평택시 서정동 849번지","indutype":"음식점 - 카페","category":"restaurant"}]},{"lat":"37.065403776","long":"127.06194653","imageIndex":4,"items":[{"name":"블루노트","tel":"031-668-1959","addr":"경기도 평택시 서정동 850-1번지 외1필지 3층","indutype":"일반휴게음식 - 일반한식","category":"restaurant"},{"name":"오리지날","tel":"031-667-5310","addr":"경기도 평택시 서정동 850-1번지","indutype":"음식점 - 한식","category":"restaurant"},{"name":"오리지날","tel":"031-665-5285","addr":"경기도 평택시 서정동 850-1번지 외1필지","indutype":"일반휴게음식 - 일반한식","category":"restaurant"}]},{"lat":"37.057126657","long":"127.0541489","imageIndex":4,"items":[{"name":"비어브로스","tel":"031-663-6868","addr":"경기도 평택시 서정동 317-31번지 2층","indutype":"일반휴게음식 - 주점","category":"restaurant"}]},{"lat":"37.067818407","long":"127.06236444","imageIndex":4,"items":[{"name":"비어팝","tel":"","addr":"경기도 평택시 서정동 815-4번지","indutype":"일반휴게음식 - 주점","category":"restaurant"}]},{"lat":"37.067152435","long":"127.06072227","imageIndex":4,"items":[{"name":"비어플러스","tel":"031-665-5594","addr":"경기도 평택시 서정동 818-35외1필지키네틱시네마10층1001호~1002호","indutype":"일반휴게음식 - 일반한식","category":"restaurant"}]},{"lat":"37.06468088","long":"127.0659263","imageIndex":4,"items":[{"name":"비엔지","tel":"031-663-3111","addr":"경기도 평택시 서정동 1104-1번지","indutype":"음식점 - 한식","category":"restaurant"},{"name":"비엔지","tel":"031-664-6719","addr":"경기도 평택시 서정동 1104-1번지","indutype":"일반휴게음식 - 서양음식","category":"restaurant"},{"name":"쌍흥원","tel":"","addr":"경기도 평택시 서정동 1104-1번지 1층","indutype":"음식점 - 중식","category":"restaurant"},{"name":"쌍흥원","tel":"031-666-2004","addr":"경기도 평택시 서정동 1104-1번지 1층","indutype":"일반휴게음식 - 중국식","category":"restaurant"}]},{"lat":"37.067791251","long":"127.0626118","imageIndex":4,"items":[{"name":"비쥬","tel":"031-611-8381","addr":"경기도 평택시 서정동 815-6번지 2층","indutype":"일반휴게음식 - 주점","category":"restaurant"}]},{"lat":"37.061566882","long":"127.05859303","imageIndex":4,"items":[{"name":"빅스타피자 송탄점","tel":"031-663-7440","addr":"경기도 평택시 서정동 908-4번지 101호","indutype":"일반휴게음식 - 서양음식","category":"restaurant"}]},{"lat":"37.065619794","long":"127.06241895","imageIndex":4,"items":[{"name":"빨간닭발","tel":"031-611-9282","addr":"경기도 평택시 서정동 849-13번지","indutype":"일반휴게음식 - 일반한식","category":"restaurant"}]},{"lat":"37.057261684","long":"127.05445254","imageIndex":4,"items":[{"name":"빨간석쇠구이 (서정리점)","tel":"","addr":"경기도 평택시 서정동 317-77번지 1층","indutype":"일반휴게음식 - 일반한식","category":"restaurant"}]},{"lat":"37.056288209","long":"127.05520514","imageIndex":4,"items":[{"name":"빨간풍차","tel":"031-665-9235","addr":"경기도 평택시 서정동 332-54번지","indutype":"일반휴게음식 - 주점","category":"restaurant"},{"name":"춘향이","tel":"031-611-5665","addr":"경기도 평택시 서정동 332-54번지","indutype":"일반휴게음식 - 일반한식","category":"restaurant"}]},{"lat":"37.057901098","long":"127.05522873","imageIndex":4,"items":[{"name":"빵집생각","tel":"031-666-3262","addr":"경기도 평택시 서정동 731-5번지","indutype":"음식점 - 빵","category":"restaurant"},{"name":"에이코스","tel":"031-664-8992","addr":"경기도 평택시 서정동 731-5번지","indutype":"일반휴게음식 - 주점","category":"restaurant"}]},{"lat":"37.056820296","long":"127.05414869","imageIndex":4,"items":[{"name":"뽕가네김치생삼겹김치사뎅이","tel":"031-611-0661","addr":"경기도 평택시 서정동 318-12번지","indutype":"일반휴게음식 - 일반한식","category":"restaurant"},{"name":"오빠동네","tel":"031-611-9926","addr":"경기도 평택시 서정동 318-12번지","indutype":"일반휴게음식 - 스넥","category":"restaurant"},{"name":"오빠동네","tel":"031-664-0458","addr":"경기도 평택시 서정동 318-12번지 1층","indutype":"음식점 - 분식","category":"restaurant"},{"name":"조가네부대찌개","tel":"031-668-7177","addr":"경기도 평택시 서정동 318-12,318-13","indutype":"일반휴게음식 - 일반한식","category":"restaurant"},{"name":"코소랑","tel":"031-618-4335","addr":"경기도 평택시 서정동 318-12번지 1층","indutype":"일반휴게음식 - 일반한식","category":"restaurant"}]},{"lat":"37.074737551","long":"127.043309","imageIndex":4,"items":[{"name":"사거리덕성식당","tel":"","addr":"경기도 평택시 서정동 596-154번지","indutype":"음식점 - 한식","category":"restaurant"},{"name":"사거리덕성식당","tel":"031-668-0426","addr":"경기도 평택시 서정동 596-154번지 1층","indutype":"일반휴게음식 - 일반한식","category":"restaurant"}]},{"lat":"37.075125098","long":"127.04303931","imageIndex":4,"items":[{"name":"사거리식당","tel":"031-611-8857","addr":"경기도 평택시 서정동 603-80번지 1층","indutype":"일반휴게음식 - 일반한식","category":"restaurant"}]},{"lat":"37.067261137","long":"127.05953046","imageIndex":4,"items":[{"name":"사계절","tel":"031-667-0426","addr":"경기도 평택시 서정동 821번지","indutype":"음식점 - 한식","category":"restaurant"},{"name":"사계절식당","tel":"031-663-1127","addr":"경기도 평택시 서정동 821번지","indutype":"일반휴게음식 - 일반한식","category":"restaurant"},{"name":"조개섬","tel":"031-667-9565","addr":"경기도 평택시 서정동 821번지","indutype":"일반휴게음식 - 일반한식","category":"restaurant"},{"name":"조개섬","tel":"031-667-6264","addr":"경기도 평택시 서정동 821번지","indutype":"음식점 - 한식","category":"restaurant"}]},{"lat":"37.070403582","long":"127.06406441","imageIndex":4,"items":[{"name":"사랑방화로구이","tel":"031-611-0080","addr":"경기도 평택시 서정동 779-2번지 1층","indutype":"일반휴게음식 - 일반한식","category":"restaurant"},{"name":"사랑방화로구이","tel":"031-665-3230","addr":"경기도 평택시 서정동 779-2번지","indutype":"음식점 - 한식","category":"restaurant"},{"name":"송탄일번가부대찌개","tel":"031-666-1006","addr":"경기도 평택시 서정동 779-2번지 2층","indutype":"일반휴게음식 - 일반한식","category":"restaurant"},{"name":"송탄일번가부대찌개","tel":"031-664-5804","addr":"경기도 평택시 서정동 779-2번지 2층","indutype":"음식점 - 한식","category":"restaurant"}]},{"lat":"37.064455291","long":"127.06653328","imageIndex":4,"items":[{"name":"사오정과저팔계","tel":"031-665-2567","addr":"경기도 평택시 서정동 1105-4번지 상가 1층","indutype":"일반휴게음식 - 스넥","category":"restaurant"}]},{"lat":"37.0632085","long":"127.05487258","imageIndex":4,"items":[{"name":"사쿠사쿠 점촌점","tel":"031-662-4942","addr":"경기도 평택시 서정동 895-14번지 1층","indutype":"일반휴게음식 - 스넥","category":"restaurant"}]},{"lat":"37.064122886","long":"127.06466653","imageIndex":4,"items":[{"name":"산들바다꼬마김밥","tel":"031-662-9966","addr":"경기도 평택시 서정동 808-5번지","indutype":"일반휴게음식 - 일반한식","category":"restaurant"}]},{"lat":"37.063765521","long":"127.0584822","imageIndex":4,"items":[{"name":"산마을한식","tel":"031-667-1160","addr":"경기도 평택시 서정동 864-12번지","indutype":"일반휴게음식 - 일반한식","category":"restaurant"}]},{"lat":"37.064212107","long":"127.06634193","imageIndex":4,"items":[{"name":"산삼창","tel":"031-667-7778","addr":"경기도 평택시 서정동 1104-6번지 1층","indutype":"일반휴게음식 - 스넥","category":"restaurant"}]},{"lat":"37.067846572","long":"127.06005938","imageIndex":4,"items":[{"name":"산삼창서정점","tel":"031-665-5969","addr":"경기도 평택시 서정동 819-8번지","indutype":"일반휴게음식 - 주점","category":"restaurant"},{"name":"스시원","tel":"031-667-6421","addr":"경기도 평택시 서정동 819-8번지 1층","indutype":"일반휴게음식 - 일식·회집","category":"restaurant"}]},{"lat":"37.066178586","long":"127.06214953","imageIndex":4,"items":[{"name":"삼가네한방삼계탕","tel":"031-663-0010","addr":"경기도 평택시 서정동 848-4번지","indutype":"음식점 - 한식","category":"restaurant"},{"name":"순이네4호점","tel":"031-662-4107","addr":"경기도 평택시 서정동 848-4번지","indutype":"음식점 - 한식","category":"restaurant"},{"name":"순이네4호점","tel":"031-668-3195","addr":"경기도 평택시 서정동 848-4번지","indutype":"일반휴게음식 - 일반한식","category":"restaurant"}]},{"lat":"37.067619919","long":"127.06287028","imageIndex":4,"items":[{"name":"삼구포차송탄점","tel":"070-4401-1282","addr":"경기도 평택시 서정동 815-13번지 2층","indutype":"일반휴게음식 - 주점","category":"restaurant"},{"name":"허구한날","tel":"031-665-9400","addr":"경기도 평택시 서정동 815-13번지","indutype":"일반휴게음식 - 주점","category":"restaurant"},{"name":"허구한날","tel":"031-665-9400","addr":"경기도 평택시 서정동 815-13번지","indutype":"일반휴게음식 - 일반한식","category":"restaurant"}]},{"lat":"37.066675395","long":"127.05964247","imageIndex":4,"items":[{"name":"삼대서서갈비(송탄점)","tel":"031-668-9279","addr":"경기도 평택시 서정동 840-1번지","indutype":"일반휴게음식 - 일반한식","category":"restaurant"},{"name":"팔미낙지한마리수제비","tel":"031-668-4560","addr":"경기도 평택시 서정동 840-1번지","indutype":"일반휴게음식 - 일반한식","category":"restaurant"},{"name":"팔미낙지한마리수제비","tel":"031-666-8837","addr":"경기도 평택시 서정동 840-1번지","indutype":"음식점 - 한식","category":"restaurant"}]},{"lat":"37.06992605","long":"127.0640078","imageIndex":4,"items":[{"name":"삼창수산","tel":"031-667-3777","addr":"경기도 평택시 서정동 779-4번지 1층","indutype":"음식점 - 한식","category":"restaurant"}]},{"lat":"37.06451361","long":"127.05803299","imageIndex":4,"items":[{"name":"상하이숯불양꼬치","tel":"031-665-5797","addr":"경기도 평택시 서정동 866-10번지","indutype":"일반휴게음식 - 중국식","category":"restaurant"}]},{"lat":"37.064432837","long":"127.05733581","imageIndex":4,"items":[{"name":"새싹푸드","tel":"031-665-9293","addr":"경기도 평택시 서정동 869-11번지 1층","indutype":"일반휴게음식 - 일반한식","category":"restaurant"}]},{"lat":"37.068008827","long":"127.05992457","imageIndex":4,"items":[{"name":"샐드스트","tel":"031-662-1058","addr":"경기도 평택시 서정동 819-2번지 1층","indutype":"음식점 - 양식","category":"restaurant"},{"name":"안단테","tel":"","addr":"경기도 평택시 서정동 819-2번지","indutype":"일반휴게음식 - 서양음식","category":"restaurant"},{"name":"청년피자","tel":"","addr":"경기도 평택시 서정동 819-2번지","indutype":"일반휴게음식 - 서양음식","category":"restaurant"}]},{"lat":"37.064680526","long":"127.06658968","imageIndex":4,"items":[{"name":"샐러드핏이충스타점","tel":"031-611-9926","addr":"경기도 평택시 서정동 1103-13번지","indutype":"음식점 - 샐러드","category":"restaurant"}]},{"lat":"37.067789713","long":"127.06559154","imageIndex":4,"items":[{"name":"샘골","tel":"031-611-2783","addr":"경기도 평택시 서정동 147-4번지","indutype":"일반휴게음식 - 일반한식","category":"restaurant"},{"name":"샘골","tel":"031-666-9191","addr":"경기도 평택시 서정동 147-4번지","indutype":"음식점 - 한식","category":"restaurant"}]},{"lat":"37.068513966","long":"127.05877802","imageIndex":4,"items":[{"name":"생생포차","tel":"031-666-9293","addr":"경기도 평택시 서정동 791-7번지 1층","indutype":"일반휴게음식 - 일반한식","category":"restaurant"}]},{"lat":"37.063099294","long":"127.05727864","imageIndex":4,"items":[{"name":"서가김밥","tel":"031-667-8294","addr":"경기도 평택시 서정동 890-12번지","indutype":"일반휴게음식 - 스넥","category":"restaurant"},{"name":"평택닭발","tel":"031-668-2221","addr":"경기도 평택시 서정동 890-12번지","indutype":"일반휴게음식 - 칵테일바","category":"restaurant"},{"name":"평택두루치기","tel":"031-663-9893","addr":"경기도 평택시 서정동 890-12번지","indutype":"일반휴게음식 - 일반한식","category":"restaurant"},{"name":"확스푸드(HwaK's food)","tel":"","addr":"경기도 평택시 서정동 890-12번지 1층","indutype":"일반휴게음식 - 서양음식","category":"restaurant"}]},{"lat":"37.064406397","long":"127.05603151","imageIndex":4,"items":[{"name":"서라벌","tel":"031-666-0006","addr":"경기도 평택시 서정동 873-28번지","indutype":"일반휴게음식 - 일반한식","category":"restaurant"},{"name":"서라벌","tel":"031-666-4860","addr":"경기도 평택시 서정동 873-28번지","indutype":"음식점 - 한식","category":"restaurant"},{"name":"설리HOF","tel":"031-000-0000","addr":"경기도 평택시 서정동 873-28번지","indutype":"일반휴게음식 - 주점","category":"restaurant"}]},{"lat":"37.06500993","long":"127.05642547","imageIndex":4,"items":[{"name":"서산식당","tel":"031-667-2228","addr":"경기도 평택시 서정동 871-19번지","indutype":"음식점 - 한식","category":"restaurant"},{"name":"서산식당","tel":"031-662-7765","addr":"경기도 평택시 서정동 871-19번지","indutype":"일반휴게음식 - 일반한식","category":"restaurant"},{"name":"서산집","tel":"070-7121-5151","addr":"경기도 평택시 서정동 871-19번지","indutype":"음식점 - 일반","category":"restaurant"},{"name":"정촌서정1호점처갓집양념통닭","tel":"031-663-8892","addr":"경기도 평택시 서정동 871-19번지","indutype":"일반휴게음식 - 스넥","category":"restaurant"}]},{"lat":"37.066593926","long":"127.06041825","imageIndex":4,"items":[{"name":"서울옥","tel":"031-664-6567","addr":"경기도 평택시 서정동 846번지","indutype":"일반휴게음식 - 일반한식","category":"restaurant"},{"name":"서울옥","tel":"032-668-6567","addr":"경기도 평택시 서정동 846번지","indutype":"일반휴게음식 - 일반한식","category":"restaurant"}]},{"lat":"37.072372168","long":"127.05511498","imageIndex":4,"items":[{"name":"서정리옛날국밥","tel":"031-664-9300","addr":"경기도 평택시 서정동 76-41번지 1동","indutype":"일반휴게음식 - 일반한식","category":"restaurant"}]},{"lat":"37.053513878","long":"127.05303349","imageIndex":4,"items":[{"name":"서정리춘희감자탕","tel":"031-684-1330","addr":"경기도 평택시 서정동 349-3번지 주건축물제1동 101호","indutype":"일반휴게음식 - 일반한식","category":"restaurant"}]},{"lat":"37.067738805","long":"127.05930593","imageIndex":4,"items":[{"name":"서정식당","tel":"031-663-5211","addr":"경기도 평택시 서정동 822-3번지 1층","indutype":"일반휴게음식 - 일반한식","category":"restaurant"},{"name":"서정식당","tel":"031-666-2001","addr":"경기도 평택시 서정동 822-3번지","indutype":"음식점 - 한식","category":"restaurant"},{"name":"우리는웃었다","tel":"","addr":"경기도 평택시 서정동 822-3번지","indutype":"일반휴게음식 - 일반한식","category":"restaurant"}]},{"lat":"37.064094837","long":"127.06658919","imageIndex":4,"items":[{"name":"석기시대오겹살왕돌구이","tel":"031-662-1005","addr":"경기도 평택시 서정동 1106-3번지","indutype":"일반휴게음식 - 일반한식","category":"restaurant"}]},{"lat":"37.0660435","long":"127.06200325","imageIndex":4,"items":[{"name":"성실인생포차늘와줘서고맙다","tel":"031-000-0000","addr":"경기도 평택시 서정동 848-18번지 1층","indutype":"일반휴게음식 - 주점","category":"restaurant"}]},{"lat":"37.062541137","long":"127.05617638","imageIndex":4,"items":[{"name":"세계맥주 에스","tel":"070-4181-7433","addr":"경기도 평택시 서정동 892-6번지 1층","indutype":"일반휴게음식 - 주점","category":"restaurant"}]},{"lat":"37.064041086","long":"127.06600447","imageIndex":4,"items":[{"name":"세친구투","tel":"031-664-0419","addr":"경기도 평택시 서정동 1107-1번지","indutype":"일반휴게음식 - 스넥","category":"restaurant"}]},{"lat":"37.065231861","long":"127.06336313","imageIndex":4,"items":[{"name":"소뚜레","tel":"031-668-5898","addr":"경기도 평택시 서정동 812-5번지","indutype":"일반휴게음식 - 일반한식","category":"restaurant"},{"name":"소뚜레","tel":"031-667-9664","addr":"경기도 평택시 서정동 812-5번지","indutype":"음식점 - 한식","category":"restaurant"}]},{"lat":"37.067737709","long":"127.06156603","imageIndex":4,"items":[{"name":"소시루왕만두","tel":"070-4922-1261","addr":"경기도 평택시 서정동 818-8번지 104호","indutype":"일반휴게음식 - 스넥","category":"restaurant"}]},{"lat":"37.069126617","long":"127.05892464","imageIndex":4,"items":[{"name":"소야돈","tel":"031-611-5127","addr":"경기도 평택시 서정동 791-3번지","indutype":"음식점 - 한식","category":"restaurant"},{"name":"소야돈","tel":"031-662-9242","addr":"경기도 평택시 서정동 791-3번지","indutype":"일반휴게음식 - 일반한식","category":"restaurant"}]},{"lat":"37.067619993","long":"127.06272411","imageIndex":4,"items":[{"name":"소울","tel":"","addr":"경기도 평택시 서정동 815-14번지 2층","indutype":"일반휴게음식 - 주점","category":"restaurant"},{"name":"소울","tel":"031-666-4185","addr":"경기도 평택시 서정동 815-14번지 2층","indutype":"일반휴게음식 - 일반한식","category":"restaurant"},{"name":"옛막집","tel":"070-8838-0272","addr":"경기도 평택시 서정동 815-14번지 1층","indutype":"일반휴게음식 - 일반한식","category":"restaurant"},{"name":"준이네닭발싸군통닭","tel":"031-667-0311","addr":"경기도 평택시 서정동 815-14번지 1층","indutype":"일반휴게음식 - 일반한식","category":"restaurant"}]},{"lat":"37.072121598","long":"127.05103289","imageIndex":4,"items":[{"name":"송서슈퍼편의점","tel":"031-662-0911","addr":"경기도 평택시 서정동 557-9번지 외1필지","indutype":"일반휴게음식 - 일반한식","category":"restaurant"}]},{"lat":"37.067845629","long":"127.06198216","imageIndex":4,"items":[{"name":"송이네순대국","tel":"031-662-7765","addr":"경기도 평택시 서정동 815-1번지","indutype":"음식점 - 한식","category":"restaurant"},{"name":"팔일구(819)","tel":"","addr":"경기도 평택시 서정동 815-1번지 2층","indutype":"일반휴게음식 - 주점","category":"restaurant"}]},{"lat":"37.072716578","long":"127.05033607","imageIndex":4,"items":[{"name":"송탄 본찜닭","tel":"031-668-7144","addr":"경기도 평택시 서정동 557-7번지 가동 1층","indutype":"일반휴게음식 - 일반한식","category":"restaurant"},{"name":"숙이네실내포차","tel":"031-668-1478","addr":"경기도 평택시 서정동 557-7번지 가동 1층","indutype":"음식점 - 분식","category":"restaurant"}]},{"lat":"37.066539505","long":"127.06114908","imageIndex":4,"items":[{"name":"송탄 새마을식당","tel":"031-665-9200","addr":"경기도 평택시 서정동 846-3번지","indutype":"일반휴게음식 - 일반한식","category":"restaurant"}]},{"lat":"37.065763737","long":"127.06286882","imageIndex":4,"items":[{"name":"송탄감자탕","tel":"031-663-3241","addr":"경기도 평택시 서정동 849-9번지","indutype":"일반휴게음식 - 일반한식","category":"restaurant"}]},{"lat":"37.071622724","long":"127.0585554","imageIndex":4,"items":[{"name":"송탄꽃시루","tel":"070-8227-3734","addr":"경기도 평택시 서정동 40-14번지","indutype":"일반휴게음식 - 서양음식","category":"restaurant"},{"name":"울엄마김밥&라면","tel":"031-611-9399","addr":"경기도 평택시 서정동 40-14번지 1층","indutype":"일반휴게음식 - 일반한식","category":"restaurant"}]},{"lat":"37.070565093","long":"127.06536893","imageIndex":4,"items":[{"name":"송탄두루치기","tel":"031-664-9211","addr":"경기도 평택시 서정동 2-1번지 1층","indutype":"음식점 - 한식","category":"restaurant"},{"name":"송탄두루치기","tel":"031-664-0479","addr":"경기도 평택시 서정동 2-1번지","indutype":"일반휴게음식 - 일반한식","category":"restaurant"}]},{"lat":"37.067322987","long":"127.06203797","imageIndex":4,"items":[{"name":"송탄무한리필","tel":"031-664-9922","addr":"경기도 평택시 서정동 816-19번지 1층","indutype":"일반휴게음식 - 일반한식","category":"restaurant"},{"name":"송탄무한리필","tel":"031-664-9233","addr":"경기도 평택시 서정동 816-19번지 1층","indutype":"음식점 - 한식","category":"restaurant"},{"name":"싸가고","tel":"031-662-8441","addr":"경기도 평택시 서정동 816-19번지","indutype":"음식점 - 한식","category":"restaurant"}]},{"lat":"37.057540574","long":"127.05545334","imageIndex":4,"items":[{"name":"송탄생태찌개마을","tel":"031-663-3535","addr":"경기도 평택시 서정동 328-14번지","indutype":"일반휴게음식 - 일반한식","category":"restaurant"}]},{"lat":"37.067982389","long":"127.05867643","imageIndex":4,"items":[{"name":"송탄아구찜","tel":"031-663-5501","addr":"경기도 평택시 서정동 823-3번지 가동","indutype":"일반휴게음식 - 일반한식","category":"restaurant"},{"name":"송탄아구찜","tel":"031-662-3372","addr":"경기도 평택시 서정동 823-3번지","indutype":"음식점 - 한식","category":"restaurant"}]},{"lat":"37.070181846","long":"127.05678893","imageIndex":4,"items":[{"name":"송탄쪽갈비","tel":"031-662-9288","addr":"경기도 평택시 서정동 787-4번지 B동 101호","indutype":"일반휴게음식 - 일반한식","category":"restaurant"},{"name":"중화루","tel":"031-666-3770","addr":"경기도 평택시 서정동 787-4,1","indutype":"일반휴게음식 - 중국식","category":"restaurant"},{"name":"커피앤","tel":"031-668-5352","addr":"경기도 평택시 서정동 787-4번지","indutype":"일반휴게음식 - 서양음식","category":"restaurant"}]},{"lat":"37.057153533","long":"127.05450868","imageIndex":4,"items":[{"name":"수다방","tel":"","addr":"경기도 평택시 서정동 317-3번지 2층","indutype":"일반휴게음식 - 일반한식","category":"restaurant"}]},{"lat":"37.067819229","long":"127.06070028","imageIndex":4,"items":[{"name":"수리야안주야식당","tel":"031-668-1474","addr":"경기도 평택시 서정동 818-14번지","indutype":"일반휴게음식 - 일반한식","category":"restaurant"},{"name":"스페셜포차","tel":"031-664-5988","addr":"경기도 평택시 서정동 818-14번지","indutype":"일반휴게음식 - 일반한식","category":"restaurant"}]},{"lat":"37.069064958","long":"127.05584361","imageIndex":4,"items":[{"name":"수신닭발","tel":"031-666-5582","addr":"경기도 평택시 서정동 828-7번지","indutype":"일반휴게음식 - 일반한식","category":"restaurant"}]},{"lat":"37.065988991","long":"127.06289149","imageIndex":4,"items":[{"name":"수아","tel":"031-662-9400","addr":"경기도 평택시 서정동 848-11번지","indutype":"일반휴게음식 - 주점","category":"restaurant"}]},{"lat":"37.066621104","long":"127.06011468","imageIndex":4,"items":[{"name":"수원갈비/(주) 평송명가","tel":"031-664-8767","addr":"경기도 평택시 서정동 840-3번지","indutype":"일반휴게음식 - 일반한식","category":"restaurant"},{"name":"평송명가","tel":"031-666-3576","addr":"경기도 평택시 서정동 840-3번지","indutype":"음식점 - 한식","category":"restaurant"}]},{"lat":"37.065873452","long":"127.05964187","imageIndex":4,"items":[{"name":"수지소머리국밥","tel":"","addr":"경기도 평택시 서정동 842-11번지","indutype":"일반휴게음식 - 일반한식","category":"restaurant"},{"name":"수지소머리국밥","tel":"031-611-5112","addr":"경기도 평택시 서정동 842-11번지","indutype":"음식점 - 한식","category":"restaurant"}]},{"lat":"37.06553999","long":"127.05978779","imageIndex":4,"items":[{"name":"숙이네식당","tel":"031-655-2289","addr":"경기도 평택시 서정동 852-5번지","indutype":"일반휴게음식 - 일반한식","category":"restaurant"}]},{"lat":"37.06779206","long":"127.06098137","imageIndex":4,"items":[{"name":"순돈","tel":"031-664-7792","addr":"경기도 평택시 서정동 818-12번지 1층 좌측","indutype":"일반휴게음식 - 일반한식","category":"restaurant"},{"name":"신마포주먹고기","tel":"031-666-9904","addr":"경기도 평택시 서정동 818-12번지","indutype":"일반휴게음식 - 일반한식","category":"restaurant"}]},{"lat":"37.066043444","long":"127.06211569","imageIndex":4,"items":[{"name":"순두부먹는날","tel":"031-665-8254","addr":"경기도 평택시 서정동 848-17번지","indutype":"일반휴게음식 - 일반한식","category":"restaurant"}]},{"lat":"37.060683727","long":"127.05883973","imageIndex":4,"items":[{"name":"순살치킨","tel":"031-611-9202","addr":"경기도 평택시 서정동 908-10번지","indutype":"일반휴게음식 - 스넥","category":"restaurant"}]},{"lat":"37.063180778","long":"127.05642418","imageIndex":4,"items":[{"name":"순이네","tel":"031-667-1033","addr":"경기도 평택시 서정동 892-10번지","indutype":"음식점 - 한식","category":"restaurant"},{"name":"순이네","tel":"031-663-9245","addr":"경기도 평택시 서정동 892-10번지","indutype":"일반휴게음식 - 일반한식","category":"restaurant"},{"name":"아야진생선찜","tel":"031-666-3770","addr":"경기도 평택시 서정동 892-10번지 1층","indutype":"음식점 - 한식","category":"restaurant"},{"name":"아야진코다리","tel":"031-668-4133","addr":"경기도 평택시 서정동 892-10번지","indutype":"일반휴게음식 - 일반한식","category":"restaurant"}]},{"lat":"37.063181335","long":"127.05517614","imageIndex":4,"items":[{"name":"술잔비어","tel":"031-611-1105","addr":"경기도 평택시 서정동 894번지 102호","indutype":"일반휴게음식 - 주점","category":"restaurant"}]},{"lat":"37.07015464","long":"127.05717123","imageIndex":4,"items":[{"name":"숯불에구웠삼겹","tel":"031-664-7673","addr":"경기도 평택시 서정동 788번지 1층 현대상가 19호","indutype":"음식점 - 한식","category":"restaurant"},{"name":"숯불에구웠삼겹","tel":"031-611-2800","addr":"경기도 평택시 서정동 788번지 현대종합상가 1층 19호","indutype":"일반휴게음식 - 일반한식","category":"restaurant"},{"name":"옛촌감자탕&해장국","tel":"031-611-0997","addr":"경기도 평택시 서정동 788번지 1층 8호,9호","indutype":"일반휴게음식 - 스넥","category":"restaurant"},{"name":"옛촌감자탕&해장국","tel":"031-662-1881","addr":"경기도 평택시 서정동 788번지","indutype":"음식점 - 분식","category":"restaurant"},{"name":"커피마마 코끼리핫도그","tel":"031-666-6040","addr":"경기도 평택시 서정동 788번지 현대종합상가 1층 6호","indutype":"일반휴게음식 - 일반한식","category":"restaurant"}]},{"lat":"37.065874681","long":"127.05701077","imageIndex":4,"items":[{"name":"쉐프타운","tel":"031-611-1279","addr":"경기도 평택시 서정동 867-10번지 1층 103호","indutype":"일반휴게음식 - 일반한식","category":"restaurant"}]},{"lat":"37.065014302","long":"127.06587035","imageIndex":4,"items":[{"name":"쉬어가개","tel":"070-4157-9563","addr":"경기도 평택시 서정동 1103-1번지 1층","indutype":"일반휴게음식 - 서양음식","category":"restaurant"},{"name":"춘옥","tel":"000-000-0000","addr":"경기도 평택시 서정동 1103-1번지","indutype":"일반휴게음식 - 서양음식","category":"restaurant"}]},{"lat":"37.067513363","long":"127.05967682","imageIndex":4,"items":[{"name":"쉼표포장마차","tel":"031-0000-0000","addr":"경기도 평택시 서정동 820-12번지","indutype":"일반휴게음식 - 일반한식","category":"restaurant"}]},{"lat":"37.068759739","long":"127.05322343","imageIndex":4,"items":[{"name":"스모프치킨","tel":"031-611-9288","addr":"경기도 평택시 서정동 546외1필지","indutype":"일반휴게음식 - 서양음식","category":"restaurant"}]},{"lat":"37.060955059","long":"127.05664749","imageIndex":4,"items":[{"name":"스시990","tel":"031-663-2990","addr":"경기도 평택시 서정동 902-1번지","indutype":"일반휴게음식 - 일식·회집","category":"restaurant"}]},{"lat":"37.059260089","long":"127.05875999","imageIndex":4,"items":[{"name":"스시영","tel":"031-662-1305","addr":"경기도 평택시 서정동 287-4번지","indutype":"일반휴게음식 - 일식·회집","category":"restaurant"},{"name":"스시영","tel":"031-667-0707","addr":"경기도 평택시 서정동 287-4번지","indutype":"음식점 - 일식","category":"restaurant"}]},{"lat":"37.06740455","long":"127.06109352","imageIndex":4,"items":[{"name":"스시초대","tel":"031-378-0447","addr":"경기도 평택시 서정동 818-28번지","indutype":"일반휴게음식 - 일식·회집","category":"restaurant"}]},{"lat":"37.068565148","long":"127.06459142","imageIndex":4,"items":[{"name":"스시포","tel":"031-664-9922","addr":"경기도 평택시 서정동 796-6번지 101호","indutype":"음식점 - 일식","category":"restaurant"},{"name":"스시포","tel":"031-668-5551","addr":"경기도 평택시 서정동 796-6번지 101호","indutype":"일반휴게음식 - 일식·회집","category":"restaurant"},{"name":"커피에반하다 출장소점","tel":"031-111-1111","addr":"경기도 평택시 서정동 796-6번지","indutype":"일반휴게음식 - 서양음식","category":"restaurant"}]},{"lat":"37.056567612","long":"127.05503669","imageIndex":4,"items":[{"name":"시골집","tel":"031-668-4734","addr":"경기도 평택시 서정동 332-49번지","indutype":"일반휴게음식 - 일반한식","category":"restaurant"}]},{"lat":"37.057315433","long":"127.05517212","imageIndex":4,"items":[{"name":"시장순대국","tel":"031-662-4920","addr":"경기도 평택시 서정동 317-7번지","indutype":"음식점 - 한식","category":"restaurant"},{"name":"시장순대집","tel":"031-662-3315","addr":"경기도 평택시 서정동 317-7번지","indutype":"일반휴게음식 - 일반한식","category":"restaurant"}]},{"lat":"37.053685046","long":"127.0531123","imageIndex":4,"items":[{"name":"시장순대국2호점","tel":"031-668-3315","addr":"경기도 평택시 서정동 348-3번지","indutype":"일반휴게음식 - 일반한식","category":"restaurant"}]},{"lat":"37.057928459","long":"127.05447548","imageIndex":4,"items":[{"name":"신김가네","tel":"031-663-2350","addr":"경기도 평택시 서정동 316-2번지 1층","indutype":"일반휴게음식 - 일반한식","category":"restaurant"}]},{"lat":"37.058601317","long":"127.06083945","imageIndex":4,"items":[{"name":"신만뽕중화요리","tel":"031-666-9377","addr":"경기도 평택시 서정동 255-2번지 1층","indutype":"일반휴게음식 - 중국식","category":"restaurant"}]},{"lat":"37.067900038","long":"127.06128505","imageIndex":4,"items":[{"name":"신불떡볶이송탄점","tel":"031-611-3522","addr":"경기도 평택시 서정동 818-5번지 1층","indutype":"일반휴게음식 - 스넥","category":"restaurant"},{"name":"오성족발","tel":"031-665-7278","addr":"경기도 평택시 서정동 818-5번지","indutype":"일반휴게음식 - 일반한식","category":"restaurant"}]},{"lat":"37.067819311","long":"127.06053162","imageIndex":4,"items":[{"name":"신사리원","tel":"031-611-6946","addr":"경기도 평택시 서정동 818-15번지 1층","indutype":"일반휴게음식 - 일반한식","category":"restaurant"},{"name":"육회지존","tel":"031-667-4736","addr":"경기도 평택시 서정동 818-15번지","indutype":"일반휴게음식 - 일반한식","category":"restaurant"}]},{"lat":"37.053928318","long":"127.05314618","imageIndex":4,"items":[{"name":"신안수산","tel":"031-664-3006","addr":"경기도 평택시 서정동 348-2번지","indutype":"음식점 - 일식","category":"restaurant"}]},{"lat":"37.06781835","long":"127.06247689","imageIndex":4,"items":[{"name":"신잔비어","tel":"031-662-5338","addr":"경기도 평택시 서정동 815-5번지","indutype":"일반휴게음식 - 주점","category":"restaurant"},{"name":"좋은친구","tel":"","addr":"경기도 평택시 서정동 815-5번지 2층","indutype":"일반휴게음식 - 주점","category":"restaurant"}]},{"lat":"37.067539559","long":"127.06139722","imageIndex":4,"items":[{"name":"신조","tel":"070-7594-4955","addr":"경기도 평택시 서정동 818-23번지","indutype":"일반휴게음식 - 일반한식","category":"restaurant"}]},{"lat":"37.074844967","long":"127.04534446","imageIndex":4,"items":[{"name":"신창숯불갈비","tel":"031-668-7220","addr":"경기도 평택시 서정동 596-206번지","indutype":"일반휴게음식 - 일반한식","category":"restaurant"},{"name":"신창숯불갈비","tel":"","addr":"경기도 평택시 서정동 596-206번지","indutype":"음식점 - 한식","category":"restaurant"}]},{"lat":"37.0577933","long":"127.05447539","imageIndex":4,"items":[{"name":"신포차","tel":"031-664-8113","addr":"경기도 평택시 서정동 317-37번지 1층","indutype":"일반휴게음식 - 일반한식","category":"restaurant"}]},{"lat":"37.06598126","long":"127.06030535","imageIndex":4,"items":[{"name":"신호남식당","tel":"031-611-3545","addr":"경기도 평택시 서정동 843번지","indutype":"일반휴게음식 - 일반한식","category":"restaurant"}]},{"lat":"37.070571594","long":"127.0514817","imageIndex":4,"items":[{"name":"신홍콩","tel":"031-666-5815","addr":"경기도 평택시 서정동 552-436번지","indutype":"일반휴게음식 - 중국식","category":"restaurant"}]},{"lat":"37.065233951","long":"127.05911293","imageIndex":4,"items":[{"name":"심야식당","tel":"031-663-6272","addr":"경기도 평택시 서정동 853번지","indutype":"일반휴게음식 - 일반한식","category":"restaurant"}]},{"lat":"37.067124085","long":"127.06336464","imageIndex":4,"items":[{"name":"싱싱회해물포차","tel":"031-666-3888","addr":"경기도 평택시 서정동 814-5번지 1층","indutype":"일반휴게음식 - 일반한식","category":"restaurant"},{"name":"여우사이","tel":"031-663-9980","addr":"경기도 평택시 서정동 814-5번지","indutype":"일반휴게음식 - 주점","category":"restaurant"},{"name":"핫앤비어","tel":"031-665-7100","addr":"경기도 평택시 서정동 814-5번지 지하층","indutype":"일반휴게음식 - 주점","category":"restaurant"}]},{"lat":"37.064181142","long":"127.05600887","imageIndex":4,"items":[{"name":"싸다구포차","tel":"031-666-0052","addr":"경기도 평택시 서정동 883-1번지","indutype":"일반휴게음식 - 주점","category":"restaurant"},{"name":"장가네숯불닭갈비","tel":"070-4763-5091","addr":"경기도 평택시 서정동 883-1번지","indutype":"일반휴게음식 - 일반한식","category":"restaurant"},{"name":"장가네숯불닭갈비 1호점","tel":"031-666-2022","addr":"경기도 평택시 서정동 883-1번지","indutype":"음식점 - 한식","category":"restaurant"},{"name":"장가네숯불닭갈비1호점","tel":"031-666-7306","addr":"경기도 평택시 서정동 883-1번지 1층","indutype":"일반휴게음식 - 일반한식","category":"restaurant"}]},{"lat":"37.066648244","long":"127.05988982","imageIndex":4,"items":[{"name":"싹쓸이","tel":"031-665-6092","addr":"경기도 평택시 서정동 840-2번지","indutype":"일반휴게음식 - 일반한식","category":"restaurant"}]},{"lat":"37.065123318","long":"127.06417261","imageIndex":4,"items":[{"name":"쌈촌","tel":"031-667-7750","addr":"경기도 평택시 서정동 810-1번지","indutype":"일반휴게음식 - 일반한식","category":"restaurant"},{"name":"쌈촌","tel":"031-665-4697","addr":"경기도 평택시 서정동 810-1번지 해청빌딩 2층","indutype":"음식점 - 한식","category":"restaurant"}]},{"lat":"37.056315561","long":"127.05447439","imageIndex":4,"items":[{"name":"썸호프","tel":"031-666-8299","addr":"경기도 평택시 서정동 335-19번지 1층 101호","indutype":"일반휴게음식 - 주점","category":"restaurant"}]},{"lat":"37.063260838","long":"127.05867297","imageIndex":4,"items":[{"name":"씨씨카페","tel":"070-8221-1289","addr":"경기도 평택시 서정동 864-7번지","indutype":"일반휴게음식 - 서양음식","category":"restaurant"}]},{"lat":"37.067764962","long":"127.06111628","imageIndex":4,"items":[{"name":"아랑참치","tel":"031-667-9921","addr":"경기도 평택시 서정동 818-11번지","indutype":"일반휴게음식 - 일식·회집","category":"restaurant"},{"name":"제네시스","tel":"031-657-1285","addr":"경기도 평택시 서정동 818-11번지","indutype":"일반휴게음식 - 주점","category":"restaurant"}]},{"lat":"37.065737485","long":"127.06130588","imageIndex":4,"items":[{"name":"아리랑치맥포차","tel":"031-611-5411","addr":"경기도 평택시 서정동 843-9번지 1층","indutype":"일반휴게음식 - 주점","category":"restaurant"},{"name":"하얀코끼리","tel":"031-665-0377","addr":"경기도 평택시 서정동 843-9번지","indutype":"일반휴게음식 - 주점","category":"restaurant"}]},{"lat":"37.062315888","long":"127.05614249","imageIndex":4,"items":[{"name":"아이벗치킨","tel":"031-662-6661","addr":"경기도 평택시 서정동 892-4번지 한양빌라 102호","indutype":"일반휴게음식 - 스넥","category":"restaurant"}]},{"lat":"37.068898511","long":"127.06464792","imageIndex":4,"items":[{"name":"아이커피","tel":"031-692-3679","addr":"경기도 평택시 서정동 796-3번지","indutype":"일반휴게음식 - 서양음식","category":"restaurant"}]},{"lat":"37.056125923","long":"127.05541864","imageIndex":4,"items":[{"name":"아줌마김밥","tel":"031-611-0282","addr":"경기도 평택시 서정동 335-27번지","indutype":"음식점 - 분식","category":"restaurant"}]},{"lat":"37.067404483","long":"127.06122845","imageIndex":4,"items":[{"name":"앙앙","tel":"031-666-5255","addr":"경기도 평택시 서정동 818-27번지","indutype":"일반휴게음식 - 주점","category":"restaurant"},{"name":"용범이네인계동껍데기송탄점","tel":"031-668-0654","addr":"경기도 평택시 서정동 818-27번지 1층","indutype":"일반휴게음식 - 일반한식","category":"restaurant"}]},{"lat":"37.059727921","long":"127.06026691","imageIndex":4,"items":[{"name":"애니푸드하우스","tel":"031-111-1111","addr":"경기도 평택시 서정동 1121번지 평택롯데캐슬 상가동 107호","indutype":"일반휴게음식 - 일반한식","category":"restaurant"},{"name":"애니하우스카페","tel":"031-663-5900","addr":"경기도 평택시 서정동 1121번지 롯데캐슬 상가동 107호","indutype":"음식점 - 커피","category":"restaurant"},{"name":"요거프레소(서정롯데캐슬점)","tel":"031-611-6962","addr":"경기도 평택시 서정동 1121번지 평택롯데캐슬 상가동 105호","indutype":"일반휴게음식 - 서양음식","category":"restaurant"}]},{"lat":"37.070649486","long":"127.05875709","imageIndex":4,"items":[{"name":"앤드커피로스터즈","tel":"070-4062-5323","addr":"경기도 평택시 서정동 789-11번지","indutype":"일반휴게음식 - 서양음식","category":"restaurant"}]},{"lat":"37.067430714","long":"127.0628364","imageIndex":4,"items":[{"name":"앤디스펍","tel":"031-000-0000","addr":"경기도 평택시 서정동 816-8번지 1층","indutype":"일반휴게음식 - 주점","category":"restaurant"}]},{"lat":"37.061098604","long":"127.05800803","imageIndex":4,"items":[{"name":"야먹자","tel":"031-000-0000","addr":"경기도 평택시 서정동 907-13번지 A동 1층","indutype":"일반휴게음식 - 일반한식","category":"restaurant"}]},{"lat":"37.064843101","long":"127.06587021","imageIndex":4,"items":[{"name":"야한곱창","tel":"031-611-2503","addr":"경기도 평택시 서정동 1103-19번지","indutype":"일반휴게음식 - 일반한식","category":"restaurant"},{"name":"왔다야식","tel":"031-664-7791","addr":"경기도 평택시 서정동 1103-19번지","indutype":"일반휴게음식 - 일반한식","category":"restaurant"}]},{"lat":"37.053874068","long":"127.0535846","imageIndex":4,"items":[{"name":"양천뼈다귀","tel":"031-664-3889","addr":"경기도 평택시 서정동 348-1번지 1층","indutype":"일반휴게음식 - 일반한식","category":"restaurant"},{"name":"양천뼈다귀 서정점","tel":"031-658-3688","addr":"경기도 평택시 서정동 348-1번지 1층","indutype":"음식점 - 한식","category":"restaurant"}]},{"lat":"37.065764732","long":"127.06086739","imageIndex":4,"items":[{"name":"양푼이갈비찜","tel":"","addr":"경기도 평택시 서정동 843-12번지","indutype":"음식점 - 한식","category":"restaurant"},{"name":"장충동왕족발송탄점","tel":"031-666-9300","addr":"경기도 평택시 서정동 843-12번지 1층","indutype":"일반휴게음식 - 일반한식","category":"restaurant"},{"name":"파주갈비찜","tel":"031-664-1717","addr":"경기도 평택시 서정동 843-12번지","indutype":"일반휴게음식 - 일반한식","category":"restaurant"}]},{"lat":"37.068928187","long":"127.05934054","imageIndex":4,"items":[{"name":"어가촌","tel":"031-662-9242","addr":"경기도 평택시 서정동 792-18번지","indutype":"음식점 - 한식","category":"restaurant"},{"name":"어가촌(화덕생선)","tel":"031-667-8667","addr":"경기도 평택시 서정동 792-18번지","indutype":"일반휴게음식 - 일반한식","category":"restaurant"}]},{"lat":"37.066711699","long":"127.05909153","imageIndex":4,"items":[{"name":"어나미일식","tel":"","addr":"경기도 평택시 서정동 839번지","indutype":"음식점 - 일식","category":"restaurant"}]},{"lat":"37.066566664","long":"127.06089048","imageIndex":4,"items":[{"name":"어사출또","tel":"031-662-0054","addr":"경기도 평택시 서정동 846-2번지","indutype":"일반휴게음식 - 일반한식","category":"restaurant"},{"name":"평택송탄출장소점 한신포차","tel":"031-611-4786","addr":"경기도 평택시 서정동 846-2번지","indutype":"일반휴게음식 - 일반한식","category":"restaurant"},{"name":"포차어게인","tel":"031-663-1152","addr":"경기도 평택시 서정동 846-2번지 2층","indutype":"일반휴게음식 - 일반한식","category":"restaurant"}]},{"lat":"37.065790911","long":"127.06258774","imageIndex":4,"items":[{"name":"엄마밥상","tel":"031-664-9120","addr":"경기도 평택시 서정동 849-7번지","indutype":"일반휴게음식 - 일반한식","category":"restaurant"},{"name":"훈춘양꼬치","tel":"031-665-8838","addr":"경기도 평택시 서정동 849-7번지","indutype":"일반휴게음식 - 일반한식","category":"restaurant"},{"name":"훈춘양꼬치","tel":"031-666-6630","addr":"경기도 평택시 서정동 849-7번지 1층","indutype":"음식점 - 양꼬치","category":"restaurant"}]},{"lat":"37.06779453","long":"127.05569655","imageIndex":4,"items":[{"name":"엄마손반찬and분식","tel":"031-663-6444","addr":"경기도 평택시 서정동 828-13번지","indutype":"일반휴게음식 - 일반한식","category":"restaurant"},{"name":"우리동네푸드1","tel":"031-665-1364","addr":"경기도 평택시 서정동 828-13번지 1층","indutype":"일반휴게음식 - 일반한식","category":"restaurant"}]},{"lat":"37.058378768","long":"127.05498172","imageIndex":4,"items":[{"name":"엄지척수제돈가스","tel":"031-664-4242","addr":"경기도 평택시 서정동 308-8번지 1층","indutype":"일반휴게음식 - 일반한식","category":"restaurant"},{"name":"엄지척수제돈까스","tel":"031-667-9100","addr":"경기도 평택시 서정동 308-8번지","indutype":"음식점 - 양식","category":"restaurant"}]},{"lat":"37.067485111","long":"127.06217303","imageIndex":4,"items":[{"name":"에스바(S bar)","tel":"031-666-6618","addr":"경기도 평택시 서정동 816-3번지 2층","indutype":"일반휴게음식 - 주점","category":"restaurant"},{"name":"원스트릿","tel":"031-665-1582","addr":"경기도 평택시 서정동 816-3번지 1층","indutype":"일반휴게음식 - 일반한식","category":"restaurant"}]},{"lat":"37.07184112","long":"127.05378772","imageIndex":4,"items":[{"name":"에스제이푸드(SJ FOOD)","tel":"031-667-8839","addr":"경기도 평택시 서정동 552-505번지 1층","indutype":"일반휴게음식 - 일반한식","category":"restaurant"},{"name":"오빠가 구운돼지 송탄점","tel":"031-666-1529","addr":"경기도 평택시 서정동 552-505번지","indutype":"일반휴게음식 - 일반한식","category":"restaurant"}]},{"lat":"37.068483457","long":"127.06572704","imageIndex":4,"items":[{"name":"에스지가든","tel":"031-611-2278","addr":"경기도 평택시 서정동 147-1번지 B동","indutype":"일반휴게음식 - 일반한식","category":"restaurant"}]},{"lat":"37.064432619","long":"127.05780805","imageIndex":4,"items":[{"name":"에스푸드","tel":"031-667-8200","addr":"경기도 평택시 서정동 866-13번지 1층","indutype":"일반휴게음식 - 일반한식","category":"restaurant"}]},{"lat":"37.0571538","long":"127.05389033","imageIndex":4,"items":[{"name":"역전김밥사랑","tel":"031-665-6599","addr":"경기도 평택시 서정동 430-2번지","indutype":"일반휴게음식 - 스넥","category":"restaurant"},{"name":"죽마을 송탄 서정점","tel":"031-662-4233","addr":"경기도 평택시 서정동 430-2번지 외1필지","indutype":"일반휴게음식 - 일반한식","category":"restaurant"}]},{"lat":"37.056432951","long":"127.05388985","imageIndex":4,"items":[{"name":"역전집","tel":"031-666-5286","addr":"경기도 평택시 서정동 335-7번지","indutype":"일반휴게음식 - 일반한식","category":"restaurant"}]},{"lat":"37.066150867","long":"127.06351004","imageIndex":4,"items":[{"name":"연안식당 송탄점","tel":"031-665-0229","addr":"경기도 평택시 서정동 813-1번지 1층","indutype":"일반휴게음식 - 일반한식","category":"restaurant"}]},{"lat":"37.06779112","long":"127.06287042","imageIndex":4,"items":[{"name":"연어예찬","tel":"031-662-4102","addr":"경기도 평택시 서정동 815-8번지 2층","indutype":"일반휴게음식 - 일식·회집","category":"restaurant"},{"name":"토프레소(To presso)","tel":"031-664-1636","addr":"경기도 평택시 서정동 815-8번지","indutype":"일반휴게음식 - 서양음식","category":"restaurant"}]},{"lat":"37.064211915","long":"127.06670173","imageIndex":4,"items":[{"name":"연탄불도야지","tel":"031-665-0992","addr":"경기도 평택시 서정동 1106-2번지","indutype":"일반휴게음식 - 일반한식","category":"restaurant"},{"name":"이가커피이충점","tel":"","addr":"경기도 평택시 서정동 1106-2번지 1층","indutype":"음식점 - 커피","category":"restaurant"},{"name":"이가커피이충점","tel":"070-4645-3004","addr":"경기도 평택시 서정동 1106-2번지 1층","indutype":"일반휴게음식 - 서양음식","category":"restaurant"}]},{"lat":"37.065295311","long":"127.06262108","imageIndex":4,"items":[{"name":"연탄불삼겹살","tel":"031-664-5082","addr":"경기도 평택시 서정동 850-5번지","indutype":"음식점 - 한식","category":"restaurant"}]},{"lat":"37.061179374","long":"127.05870518","imageIndex":4,"items":[{"name":"열정닭발","tel":"031-666-1121","addr":"경기도 평택시 서정동 908-7번지 1층","indutype":"일반휴게음식 - 일반한식","category":"restaurant"}]},{"lat":"37.064762924","long":"127.0641161","imageIndex":4,"items":[{"name":"열한시두시","tel":"031-611-5477","addr":"경기도 평택시 서정동 810-5번지 1층 101호","indutype":"일반휴게음식 - 일반한식","category":"restaurant"}]},{"lat":"37.062370197","long":"127.05559159","imageIndex":4,"items":[{"name":"영주네김밥","tel":"031-664-7222","addr":"경기도 평택시 서정동 893-8 (1층) B","indutype":"일반휴게음식 - 스넥","category":"restaurant"}]},{"lat":"37.068232175","long":"127.06378156","imageIndex":4,"items":[{"name":"영천칡냉면","tel":"031-611-8244","addr":"경기도 평택시 서정동 795-4번지 1층","indutype":"일반휴게음식 - 일반한식","category":"restaurant"}]},{"lat":"37.069596311","long":"127.05645118","imageIndex":4,"items":[{"name":"옛골","tel":"031-664-7201","addr":"경기도 평택시 서정동 828-2번지","indutype":"일반휴게음식 - 일반한식","category":"restaurant"},{"name":"원조마포소금구이","tel":"031-666-6736","addr":"경기도 평택시 서정동 828-2번지","indutype":"음식점 - 한식","category":"restaurant"},{"name":"원조마포소금구이","tel":"031-666-9192","addr":"경기도 평택시 서정동 828-2번지","indutype":"일반휴게음식 - 일반한식","category":"restaurant"},{"name":"처음처럼","tel":"031-665-9285","addr":"경기도 평택시 서정동 828번지 2호","indutype":"일반휴게음식 - 주점","category":"restaurant"}]},{"lat":"37.074593439","long":"127.04314024","imageIndex":4,"items":[{"name":"옛날그집","tel":"031-664-8322","addr":"경기도 평택시 서정동 597-15번지","indutype":"일반휴게음식 - 일반한식","category":"restaurant"}]},{"lat":"37.066342408","long":"127.05878767","imageIndex":4,"items":[{"name":"옛날보쌈","tel":"031-666-5353","addr":"경기도 평택시 서정동 839-8번지","indutype":"일반휴게음식 - 일반한식","category":"restaurant"},{"name":"옛날보쌈","tel":"","addr":"경기도 평택시 서정동 839-8번지","indutype":"음식점 - 한식","category":"restaurant"}]},{"lat":"37.066513482","long":"127.05905765","imageIndex":4,"items":[{"name":"옛날손칼국수두부전골","tel":"031-664-4600","addr":"경기도 평택시 서정동 839-1번지","indutype":"일반휴게음식 - 일반한식","category":"restaurant"}]},{"lat":"37.067675489","long":"127.05981188","imageIndex":4,"items":[{"name":"옛스런맛집","tel":"031-668-3320","addr":"경기도 평택시 서정동 820-2번지","indutype":"일반휴게음식 - 일반한식","category":"restaurant"},{"name":"친구사이","tel":"031-662-7732","addr":"경기도 평택시 서정동 820-2번지","indutype":"일반휴게음식 - 일반한식","category":"restaurant"}]},{"lat":"37.063433523","long":"127.05542368","imageIndex":4,"items":[{"name":"옛죽마고우","tel":"031-662-8550","addr":"경기도 평택시 서정동 882-7번지 포은빌딩 1층","indutype":"일반휴게음식 - 일반한식","category":"restaurant"}]},{"lat":"37.061567932","long":"127.05631062","imageIndex":4,"items":[{"name":"오가면옥","tel":"031-611-9440","addr":"경기도 평택시 서정동 903-10번지 1층","indutype":"일반휴게음식 - 일반한식","category":"restaurant"},{"name":"오가면옥","tel":"031-662-8230","addr":"경기도 평택시 서정동 903-10번지","indutype":"음식점 - 한식","category":"restaurant"}]},{"lat":"37.064509547","long":"127.06617352","imageIndex":4,"items":[{"name":"오렌지향기","tel":"031-664-5183","addr":"경기도 평택시 서정동 1105-7번지","indutype":"일반휴게음식 - 주점","category":"restaurant"},{"name":"유로코본점","tel":"031-666-1828","addr":"경기도 평택시 서정동 1105-7번지 1층 왼쪽","indutype":"일반휴게음식 - 일반한식","category":"restaurant"}]},{"lat":"37.062154408","long":"127.05453456","imageIndex":4,"items":[{"name":"오메가메","tel":"031-664-9256","addr":"경기도 평택시 서정동 898번지 101호","indutype":"일반휴게음식 - 주점","category":"restaurant"}]},{"lat":"37.067765938","long":"127.05909231","imageIndex":4,"items":[{"name":"오이시이서정점","tel":"031-662-3442","addr":"경기도 평택시 서정동 822-9번지 1층2층","indutype":"일반휴게음식 - 일식·회집","category":"restaurant"}]},{"lat":"37.067683388","long":"127.06208323","imageIndex":4,"items":[{"name":"옥탑방오봉자","tel":"031-668-5523","addr":"경기도 평택시 서정동 815-19번지","indutype":"일반휴게음식 - 일반한식","category":"restaurant"},{"name":"육회말투아웃 (송탄점)","tel":"","addr":"경기도 평택시 서정동 815-19번지 1층 좌측","indutype":"일반휴게음식 - 일반한식","category":"restaurant"}]},{"lat":"37.064572278","long":"127.06681447","imageIndex":4,"items":[{"name":"옹골진고기명장","tel":"031-665-7755","addr":"경기도 평택시 서정동 1103-11번지 1층 전체","indutype":"일반휴게음식 - 일반한식","category":"restaurant"}]},{"lat":"37.067458899","long":"127.06050886","imageIndex":4,"items":[{"name":"와글치킨","tel":"031-611-0242","addr":"경기도 평택시 서정동 818-32번지","indutype":"음식점 - 치킨","category":"restaurant"},{"name":"와글치킨","tel":"031-665-9282","addr":"경기도 평택시 서정동 818-32번지","indutype":"일반휴게음식 - 스넥","category":"restaurant"}]},{"lat":"37.060547853","long":"127.06033498","imageIndex":4,"items":[{"name":"와플라스","tel":"","addr":"경기도 평택시 서정동 1121번지 평택롯데캐슬 103동 202호","indutype":"일반휴게음식 - 서양음식","category":"restaurant"}]},{"lat":"37.067350148","long":"127.06177938","imageIndex":4,"items":[{"name":"왔쏘","tel":"031-666-7342","addr":"경기도 평택시 서정동 816-21번지 2층","indutype":"일반휴게음식 - 일반한식","category":"restaurant"},{"name":"장인족발","tel":"031-663-0130","addr":"경기도 평택시 서정동 816-21번지 1층","indutype":"음식점 - 한식","category":"restaurant"}]},{"lat":"37.070322631","long":"127.06378323","imageIndex":4,"items":[{"name":"외포리일식","tel":"031-663-3366","addr":"경기도 평택시 서정동 779-11번지 2층","indutype":"일반휴게음식 - 일식·회집","category":"restaurant"}]},{"lat":"37.05618018","long":"127.05498021","imageIndex":4,"items":[{"name":"용정해장국","tel":"031-667-5333","addr":"경기도 평택시 서정동 335-28번지","indutype":"일반휴게음식 - 일반한식","category":"restaurant"}]},{"lat":"37.058315891","long":"127.05453196","imageIndex":4,"items":[{"name":"우들목","tel":"","addr":"경기도 평택시 서정동 313-17번지","indutype":"음식점 - 한식","category":"restaurant"},{"name":"우들목","tel":"031-611-6679","addr":"경기도 평택시 서정동 313-17번지","indutype":"일반휴게음식 - 일반한식","category":"restaurant"},{"name":"일품짜장","tel":"031-663-3266","addr":"경기도 평택시 서정동 313-17번지","indutype":"음식점 - 중식","category":"restaurant"},{"name":"일품짜장","tel":"031-664-3393","addr":"경기도 평택시 서정동 313-17번지","indutype":"일반휴게음식 - 중국식","category":"restaurant"},{"name":"지프라이브","tel":"031-663-0711","addr":"경기도 평택시 서정동 313-17번지 2층","indutype":"일반휴게음식 - 주점","category":"restaurant"},{"name":"한우마당","tel":"031-665-7722","addr":"경기도 평택시 서정동 313-17번지","indutype":"일반휴게음식 - 일반한식","category":"restaurant"}]},{"lat":"37.063181101","long":"127.05570459","imageIndex":4,"items":[{"name":"우박집","tel":"031-611-3834","addr":"경기도 평택시 서정동 893번지 상아타운2차 1층 101호","indutype":"일반휴게음식 - 일반한식","category":"restaurant"},{"name":"우박집","tel":"031-666-2918","addr":"경기도 평택시 서정동 893번지 상아타운2차","indutype":"음식점 - 한식","category":"restaurant"}]},{"lat":"37.057234347","long":"127.05514958","imageIndex":4,"items":[{"name":"우영유통","tel":"031-666-6621","addr":"경기도 평택시 서정동 324번지","indutype":"음식점 - 닭강정","category":"restaurant"},{"name":"장터가마솥","tel":"031-663-1455","addr":"경기도 평택시 서정동 324번지","indutype":"음식점 - 한식","category":"restaurant"},{"name":"장터가마솥","tel":"031-666-7563","addr":"경기도 평택시 서정동 324번지","indutype":"일반휴게음식 - 일반한식","category":"restaurant"}]},{"lat":"37.073258134","long":"127.04797494","imageIndex":4,"items":[{"name":"원일이네","tel":"031-666-5710","addr":"경기도 평택시 서정동 590-3번지 1층","indutype":"일반휴게음식 - 일반한식","category":"restaurant"}]},{"lat":"37.064873195","long":"127.05980978","imageIndex":4,"items":[{"name":"원조온양왕족발보쌈","tel":"031-665-2119","addr":"경기도 평택시 서정동 856-4번지","indutype":"일반휴게음식 - 일반한식","category":"restaurant"}]},{"lat":"37.066071883","long":"127.05922599","imageIndex":4,"items":[{"name":"웰빙해물칼국수","tel":"031-662-8247","addr":"경기도 평택시 서정동 842번지","indutype":"일반휴게음식 - 일반한식","category":"restaurant"}]},{"lat":"37.066122533","long":"127.0660062","imageIndex":4,"items":[{"name":"위드커피3호점","tel":"031-667-2212","addr":"경기도 평택시 서정동 산12번지 북부복지타운 1층","indutype":"음식점 - 카페","category":"restaurant"},{"name":"위드커피3호점협동조합","tel":"031-666-1651","addr":"경기도 평택시 서정동 산12번지","indutype":"일반휴게음식 - 서양음식","category":"restaurant"}]},{"lat":"37.066009994","long":"127.05667354","imageIndex":4,"items":[{"name":"유나스넥","tel":"","addr":"경기도 평택시 서정동 867번지 지1층정동","indutype":"일반휴게음식 - 스넥","category":"restaurant"}]},{"lat":"37.068622077","long":"127.05881183","imageIndex":4,"items":[{"name":"유라아구찜","tel":"031-666-3355","addr":"경기도 평택시 서정동 791-6번지","indutype":"음식점 - 한식","category":"restaurant"},{"name":"유라아구찜","tel":"031-668-5982","addr":"경기도 평택시 서정동 791-6번지 1층","indutype":"일반휴게음식 - 일반한식","category":"restaurant"}]},{"lat":"37.067594058","long":"127.06050896","imageIndex":4,"items":[{"name":"유라양꼬치","tel":"031-663-1213","addr":"경기도 평택시 서정동 818-17번지","indutype":"음식점 - 중식","category":"restaurant"},{"name":"유라양꼬치","tel":"","addr":"경기도 평택시 서정동 818-17번지","indutype":"일반휴게음식 - 중국식","category":"restaurant"}]},{"lat":"37.058485087","long":"127.05895055","imageIndex":4,"items":[{"name":"유옥목장","tel":"031-000-0000","addr":"경기도 평택시 서정동 262번지","indutype":"일반휴게음식 - 서양음식","category":"restaurant"}]},{"lat":"37.067648817","long":"127.05905849","imageIndex":4,"items":[{"name":"육개장집","tel":"031-666-5444","addr":"경기도 평택시 서정동 822-8번지","indutype":"음식점 - 한식","category":"restaurant"},{"name":"육개장집","tel":"031-665-3710","addr":"경기도 평택시 서정동 822-8번지 1층","indutype":"일반휴게음식 - 일반한식","category":"restaurant"}]},{"lat":"37.068678418","long":"127.05375187","imageIndex":4,"items":[{"name":"윤가네한식뷔페","tel":"031-665-0904","addr":"경기도 평택시 서정동 548-2번지 1층","indutype":"일반휴게음식 - 일반한식","category":"restaurant"}]},{"lat":"37.067872734","long":"127.061836","imageIndex":4,"items":[{"name":"윤미네 반찬","tel":"","addr":"경기도 평택시 서정동 815번지","indutype":"음식점 - 반찬","category":"restaurant"},{"name":"희미한옛사랑의그림자","tel":"031-662-3602","addr":"경기도 평택시 서정동 815번지","indutype":"일반휴게음식 - 주점","category":"restaurant"}]},{"lat":"37.060900019","long":"127.05876119","imageIndex":4,"items":[{"name":"이가네약초닭갈비","tel":"031-611-4821","addr":"경기도 평택시 서정동 908-12번지","indutype":"음식점 - 한식","category":"restaurant"},{"name":"이가네약초닭갈비","tel":"031-667-7788","addr":"경기도 평택시 서정동 908-12번지","indutype":"일반휴게음식 - 일반한식","category":"restaurant"}]},{"lat":"37.06598267","long":"127.05731443","imageIndex":4,"items":[{"name":"이구네","tel":"031-611-2979","addr":"경기도 평택시 서정동 867-3번지","indutype":"일반휴게음식 - 일반한식","category":"restaurant"},{"name":"이구네닭개장","tel":"","addr":"경기도 평택시 서정동 867-3번지 1층","indutype":"음식점 - 한식","category":"restaurant"}]},{"lat":"37.066403295","long":"127.06325162","imageIndex":4,"items":[{"name":"이디야커피서정점","tel":"031-663-2658","addr":"경기도 평택시 서정동 813-6번지 대연빌딩","indutype":"일반휴게음식 - 서양음식","category":"restaurant"}]},{"lat":"37.067091704","long":"127.05569606","imageIndex":4,"items":[{"name":"이어일식","tel":"031-668-4052","addr":"경기도 평택시 서정동 834-1번지 1층","indutype":"일반휴게음식 - 일식·회집","category":"restaurant"}]},{"lat":"37.067403556","long":"127.06308375","imageIndex":4,"items":[{"name":"이젠","tel":"031-611-8677","addr":"경기도 평택시 서정동 816-10번지 2층","indutype":"일반휴게음식 - 일반한식","category":"restaurant"}]},{"lat":"37.067458011","long":"127.06230794","imageIndex":4,"items":[{"name":"이차돌 송탄출장소점","tel":"031-667-8886","addr":"경기도 평택시 서정동 816-4번지 1층","indutype":"일반휴게음식 - 일반한식","category":"restaurant"}]},{"lat":"37.064125829","long":"127.05872982","imageIndex":4,"items":[{"name":"인생극장","tel":"031-611-8098","addr":"경기도 평택시 서정동 864번지 선경아트빌라 101호","indutype":"일반휴게음식 - 일반한식","category":"restaurant"}]},{"lat":"37.073348269","long":"127.04789627","imageIndex":4,"items":[{"name":"일월","tel":"031-666-1702","addr":"경기도 평택시 서정동 590-20번지","indutype":"일반휴게음식 - 서양음식","category":"restaurant"},{"name":"페리카나치킨복창점","tel":"031-611-9291","addr":"경기도 평택시 서정동 590-20번지 1층","indutype":"일반휴게음식 - 스넥","category":"restaurant"}]},{"lat":"37.067873668","long":"127.05992447","imageIndex":4,"items":[{"name":"자갈치산꼼장어","tel":"031-662-2737","addr":"경기도 평택시 서정동 819-9번지 1층","indutype":"일반휴게음식 - 일반한식","category":"restaurant"},{"name":"주무주무서정점","tel":"031-668-0919","addr":"경기도 평택시 서정동 819-9번지","indutype":"일반휴게음식 - 일반한식","category":"restaurant"}]},{"lat":"37.069346483","long":"127.05067131","imageIndex":4,"items":[{"name":"자담소부대찌개","tel":"031-668-2929","addr":"경기도 평택시 서정동 542-6번지 1층","indutype":"일반휴게음식 - 일반한식","category":"restaurant"}]},{"lat":"37.064350961","long":"127.05901108","imageIndex":4,"items":[{"name":"자담치킨 서정점","tel":"031-664-0020","addr":"경기도 평택시 서정동 853-9번지","indutype":"음식점 - 치킨","category":"restaurant"},{"name":"자담치킨서정점","tel":"031-664-6675","addr":"경기도 평택시 서정동 853-9번지","indutype":"일반휴게음식 - 스넥","category":"restaurant"}]},{"lat":"37.056315497","long":"127.05462054","imageIndex":4,"items":[{"name":"자매식당","tel":"","addr":"경기도 평택시 서정동 335-20번지","indutype":"음식점 - 한식","category":"restaurant"},{"name":"자매식당","tel":"031-666-6305","addr":"경기도 평택시 서정동 335-20번지","indutype":"일반휴게음식 - 일반한식","category":"restaurant"}]},{"lat":"37.067846507","long":"127.06019431","imageIndex":4,"items":[{"name":"자연식당","tel":"070-8682-5989","addr":"경기도 평택시 서정동 819-7번지","indutype":"일반휴게음식 - 일반한식","category":"restaurant"},{"name":"전초전","tel":"031-666-1792","addr":"경기도 평택시 서정동 819-7번지","indutype":"일반휴게음식 - 일반한식","category":"restaurant"}]},{"lat":"37.074007663","long":"127.04339857","imageIndex":4,"items":[{"name":"자유시대","tel":"031-664-7182","addr":"경기도 평택시 서정동 596-164번지","indutype":"일반휴게음식 - 주점","category":"restaurant"},{"name":"자유시대","tel":"","addr":"경기도 평택시 서정동 596-164번지","indutype":"음식점 - 호프","category":"restaurant"}]},{"lat":"37.067316944","long":"127.05575244","imageIndex":4,"items":[{"name":"장군숯불갈비","tel":"031-666-5973","addr":"경기도 평택시 서정동 832-10번지 1층","indutype":"일반휴게음식 - 일반한식","category":"restaurant"}]},{"lat":"37.0665394","long":"127.06136272","imageIndex":4,"items":[{"name":"장독대","tel":"031-666-6611","addr":"경기도 평택시 서정동 846-4번지 2층","indutype":"일반휴게음식 - 일반한식","category":"restaurant"},{"name":"장독대","tel":"031-611-1119","addr":"경기도 평택시 서정동 846-4번지 2층","indutype":"음식점 - 한식","category":"restaurant"}]},{"lat":"37.065095913","long":"127.0648922","imageIndex":4,"items":[{"name":"장안빈대떡","tel":"031-667-9888","addr":"경기도 평택시 서정동 801-4번지 1층","indutype":"일반휴게음식 - 일반한식","category":"restaurant"},{"name":"장안빈대떡","tel":"031-667-8275","addr":"경기도 평택시 서정동 801-4번지","indutype":"음식점 - 한식","category":"restaurant"}]},{"lat":"37.055567301","long":"127.05533955","imageIndex":4,"items":[{"name":"장원치킨","tel":"031-665-4445","addr":"경기도 평택시 서정동 339-8번지","indutype":"일반휴게음식 - 스넥","category":"restaurant"}]},{"lat":"37.065322416","long":"127.06247493","imageIndex":4,"items":[{"name":"장충동뚱뚱이할머니족발보쌈 송탄점","tel":"031-662-5751","addr":"경기도 평택시 서정동 850-4번지","indutype":"음식점 - 한식","category":"restaurant"},{"name":"장충동뚱뚱이할머니족발보쌈송탄점","tel":"031-662-5228","addr":"경기도 평택시 서정동 850-4번지","indutype":"일반휴게음식 - 일반한식","category":"restaurant"}]},{"lat":"37.071376898","long":"127.06372785","imageIndex":4,"items":[{"name":"장충동왕족발보쌈","tel":"031-666-3300","addr":"경기도 평택시 서정동 775-18번지 1층","indutype":"일반휴게음식 - 일반한식","category":"restaurant"}]},{"lat":"37.057126111","long":"127.05539684","imageIndex":4,"items":[{"name":"장터포차","tel":"031-666-0789","addr":"경기도 평택시 서정동 332-21번지","indutype":"음식점 - 포차","category":"restaurant"},{"name":"장터포차","tel":"031-663-0447","addr":"경기도 평택시 서정동 332-21번지 1층","indutype":"일반휴게음식 - 일반한식","category":"restaurant"}]},{"lat":"37.057044941","long":"127.05556543","imageIndex":4,"items":[{"name":"장터회수산","tel":"","addr":"경기도 평택시 서정동 332-37번지","indutype":"음식점 - 회","category":"restaurant"},{"name":"장터회수산","tel":"031-662-6687","addr":"경기도 평택시 서정동 332-37번지 1층","indutype":"일반휴게음식 - 일반한식","category":"restaurant"}]},{"lat":"37.067621965","long":"127.05867616","imageIndex":4,"items":[{"name":"전설의곱창","tel":"031-668-3388","addr":"경기도 평택시 서정동 823-6번지 1층","indutype":"일반휴게음식 - 일반한식","category":"restaurant"}]},{"lat":"37.05771237","long":"127.05409308","imageIndex":4,"items":[{"name":"전원야식","tel":"031-662-8255","addr":"경기도 평택시 서정동 317-40번지","indutype":"일반휴게음식 - 일반한식","category":"restaurant"}]},{"lat":"37.0574603","long":"127.0535645","imageIndex":4,"items":[{"name":"전원해장국","tel":"031-667-8835","addr":"경기도 평택시 서정동 427-28번지","indutype":"일반휴게음식 - 일반한식","category":"restaurant"}]},{"lat":"37.065123202","long":"127.06439749","imageIndex":4,"items":[{"name":"전주두레박콩나물국밥","tel":"031-667-9870","addr":"경기도 평택시 서정동 801번지 1층","indutype":"일반휴게음식 - 일반한식","category":"restaurant"},{"name":"전주명가콩나물국밥","tel":"031-611-4532","addr":"경기도 평택시 서정동 801번지 1층","indutype":"음식점 - 한식","category":"restaurant"}]},{"lat":"37.06435078","long":"127.05939337","imageIndex":4,"items":[{"name":"전주식당","tel":"031-667-9760","addr":"경기도 평택시 서정동 854-6번지","indutype":"일반휴게음식 - 일반한식","category":"restaurant"},{"name":"착한밥상","tel":"031-665-0366","addr":"경기도 평택시 서정동 854-6번지 1층","indutype":"음식점 - 한식","category":"restaurant"},{"name":"착한밥집","tel":"031-664-2229","addr":"경기도 평택시 서정동 854-6번지 1층","indutype":"일반휴게음식 - 일반한식","category":"restaurant"}]},{"lat":"37.074593681","long":"127.04242054","imageIndex":4,"items":[{"name":"전주한식뷔페","tel":"031-663-0810","addr":"경기도 평택시 서정동 598-8번지","indutype":"일반휴게음식 - 일반한식","category":"restaurant"}]},{"lat":"37.067259524","long":"127.06281378","imageIndex":4,"items":[{"name":"전통춘천닭갈비","tel":"031-663-2741","addr":"경기도 평택시 서정동 816-13번지","indutype":"일반휴게음식 - 일반한식","category":"restaurant"},{"name":"전통춘천닭갈비","tel":"031-611-3834","addr":"경기도 평택시 서정동 816-13번지","indutype":"음식점 - 한식","category":"restaurant"}]},{"lat":"37.062154176","long":"127.055063","imageIndex":4,"items":[{"name":"점촌식당","tel":"031-665-8001","addr":"경기도 평택시 서정동 899번지 101호","indutype":"일반휴게음식 - 일반한식","category":"restaurant"}]},{"lat":"37.07250786","long":"127.05388937","imageIndex":4,"items":[{"name":"정다운식당","tel":"031-666-6768","addr":"경기도 평택시 서정동 552-8번지","indutype":"일반휴게음식 - 일반한식","category":"restaurant"}]},{"lat":"37.063541515","long":"127.05572733","imageIndex":4,"items":[{"name":"정동진해물촌","tel":"031-664-5859","addr":"경기도 평택시 서정동 883-5번지 1층","indutype":"일반휴게음식 - 일반한식","category":"restaurant"},{"name":"정동진해물촌","tel":"","addr":"경기도 평택시 서정동 883-5번지","indutype":"음식점 - 한식","category":"restaurant"}]},{"lat":"37.063815629","long":"127.06636409","imageIndex":4,"items":[{"name":"정안철빵집","tel":"031-664-5630","addr":"경기도 평택시 서정동 1108-3번지","indutype":"음식점 - 제과점","category":"restaurant"},{"name":"찌게마을","tel":"031-667-6619","addr":"경기도 평택시 서정동 1108-3번지","indutype":"일반휴게음식 - 일반한식","category":"restaurant"},{"name":"코끼리가반한핫도그엔커피","tel":"","addr":"경기도 평택시 서정동 1108-3번지","indutype":"일반휴게음식 - 스넥","category":"restaurant"}]},{"lat":"37.056513818","long":"127.05441831","imageIndex":4,"items":[{"name":"정원흑염소요리전문점","tel":"031-668-1855","addr":"경기도 평택시 서정동 335-13번지 1,2층","indutype":"일반휴게음식 - 일반한식","category":"restaurant"},{"name":"정원흑염소요리전문점","tel":"031-666-9249","addr":"경기도 평택시 서정동 335-13번지 1,2층","indutype":"음식점 - 한식","category":"restaurant"}]},{"lat":"37.06362261","long":"127.05572739","imageIndex":4,"items":[{"name":"정직한 족발","tel":"031-666-9492","addr":"경기도 평택시 서정동 883-6번지 1층","indutype":"일반휴게음식 - 일반한식","category":"restaurant"}]},{"lat":"37.056513755","long":"127.05456446","imageIndex":4,"items":[{"name":"제주돈애","tel":"031-663-9233","addr":"경기도 평택시 서정동 335-12번지 1층","indutype":"일반휴게음식 - 일반한식","category":"restaurant"}]},{"lat":"37.066205691","long":"127.06200337","imageIndex":4,"items":[{"name":"제주해오름","tel":"031-662-8686","addr":"경기도 평택시 서정동 848-3번지","indutype":"일반휴게음식 - 일반한식","category":"restaurant"},{"name":"제주해오름","tel":"031-611-8232","addr":"경기도 평택시 서정동 848-3번지","indutype":"음식점 - 한식","category":"restaurant"}]},{"lat":"37.065432681","long":"127.05805614","imageIndex":4,"items":[{"name":"족발꾼송탄점","tel":"","addr":"경기도 평택시 서정동 866-4번지 1층","indutype":"일반휴게음식 - 일반한식","category":"restaurant"}]},{"lat":"37.069453314","long":"127.05378612","imageIndex":4,"items":[{"name":"족발아 놀자","tel":"031-666-8254","addr":"경기도 평택시 서정동 548-7번지 106호,107호","indutype":"일반휴게음식 - 일반한식","category":"restaurant"}]},{"lat":"37.067485234","long":"127.06192566","imageIndex":4,"items":[{"name":"족발야시장 송탄점","tel":"031-668-4969","addr":"경기도 평택시 서정동 816-1번지","indutype":"일반휴게음식 - 일반한식","category":"restaurant"},{"name":"족발야시장 송탄점","tel":"031-664-7953","addr":"경기도 평택시 서정동 816-1번지","indutype":"음식점 - 일반","category":"restaurant"}]},{"lat":"37.071788474","long":"127.05036923","imageIndex":4,"items":[{"name":"존맛","tel":"031-8029-5005","addr":"경기도 평택시 서정동 557-29번지 1층","indutype":"일반휴게음식 - 일반한식","category":"restaurant"}]},{"lat":"37.066017405","long":"127.06009174","imageIndex":4,"items":[{"name":"종로신빈대떡","tel":"031-662-3656","addr":"경기도 평택시 서정동 842-7번지 1층","indutype":"일반휴게음식 - 일반한식","category":"restaurant"},{"name":"해신포차","tel":"031-666-7258","addr":"경기도 평택시 서정동 842-7번지","indutype":"일반휴게음식 - 일반한식","category":"restaurant"}]},{"lat":"37.066151295","long":"127.06266673","imageIndex":4,"items":[{"name":"주(  )유소","tel":"031-405-4404","addr":"경기도 평택시 서정동 848-8번지","indutype":"일반휴게음식 - 일반한식","category":"restaurant"}]},{"lat":"37.065683144","long":"127.06186804","imageIndex":4,"items":[{"name":"주막골","tel":"","addr":"경기도 평택시 서정동 849-17번지 1층","indutype":"일반휴게음식 - 주점","category":"restaurant"}]},{"lat":"37.067513299","long":"127.05981176","imageIndex":4,"items":[{"name":"주막집","tel":"031-663-9848","addr":"경기도 평택시 서정동 820-11번지","indutype":"일반휴게음식 - 일반한식","category":"restaurant"},{"name":"푸드딜라이트","tel":"031-666-9280","addr":"경기도 평택시 서정동 820-11번지","indutype":"일반휴게음식 - 일반한식","category":"restaurant"}]},{"lat":"37.056427128","long":"127.04584012","imageIndex":4,"items":[{"name":"주식회사 나우 고덕","tel":"031-123-1234","addr":"경기도 평택시 서정동 667","indutype":"일반휴게음식 - 위탁급식업","category":"restaurant"}]},{"lat":"37.067403625","long":"127.06294882","imageIndex":4,"items":[{"name":"주주둥아리","tel":"031-668-7473","addr":"경기도 평택시 서정동 816-9번지","indutype":"일반휴게음식 - 일반한식","category":"restaurant"}]},{"lat":"37.065512839","long":"127.06003514","imageIndex":4,"items":[{"name":"중식포차차이나리","tel":"031-616-4227","addr":"경기도 평택시 서정동 852-7번지","indutype":"일반휴게음식 - 중국식","category":"restaurant"},{"name":"차이나리 중식포차","tel":"031-663-5345","addr":"경기도 평택시 서정동 852-7번지","indutype":"음식점 - 중식","category":"restaurant"}]},{"lat":"37.069515352","long":"127.05614752","imageIndex":4,"items":[{"name":"중화루","tel":"031-668-6060","addr":"경기도 평택시 서정동 828-3번지","indutype":"음식점 - 중식","category":"restaurant"},{"name":"중화루","tel":"031-666-3770","addr":"경기도 평택시 서정동 828-3번지","indutype":"일반휴게음식 - 중국식","category":"restaurant"}]},{"lat":"37.064871494","long":"127.06325041","imageIndex":4,"items":[{"name":"짜장마을","tel":"031-664-9865","addr":"경기도 평택시 서정동 811번지","indutype":"음식점 - 중식","category":"restaurant"}]},{"lat":"37.066070599","long":"127.06186834","imageIndex":4,"items":[{"name":"쩡이네간큰조개","tel":"031-611-0292","addr":"경기도 평택시 서정동 848-19번지","indutype":"일반휴게음식 - 일반한식","category":"restaurant"},{"name":"쩡이네간큰조개","tel":"031-667-4747","addr":"경기도 평택시 서정동 848-19번지 1층","indutype":"음식점 - 한식","category":"restaurant"}]},{"lat":"37.069732643","long":"127.05378631","imageIndex":4,"items":[{"name":"쪽갈비가맛있는집(직영점)","tel":"031-668-9295","addr":"경기도 평택시 서정동 554-2번지 108호","indutype":"일반휴게음식 - 일반한식","category":"restaurant"}]},{"lat":"37.06340659","long":"127.05519878","imageIndex":4,"items":[{"name":"찬스서정점","tel":"031-611-3265","addr":"경기도 평택시 서정동 882-3번지","indutype":"일반휴게음식 - 주점","category":"restaurant"},{"name":"타임카페","tel":"031-667-1107","addr":"경기도 평택시 서정동 882-3번지 1층","indutype":"음식점 - 카페","category":"restaurant"},{"name":"타임카페","tel":"","addr":"경기도 평택시 서정동 882-3번지 1층","indutype":"일반휴게음식 - 서양음식","category":"restaurant"}]},{"lat":"37.074872139","long":"127.04495089","imageIndex":4,"items":[{"name":"찬영이네밥상","tel":"031-662-8586","addr":"경기도 평택시 서정동 596-1번지","indutype":"일반휴게음식 - 일반한식","category":"restaurant"}]},{"lat":"37.05731613","long":"127.0535644","imageIndex":4,"items":[{"name":"천리향","tel":"031-667-9986","addr":"경기도 평택시 서정동 427-19번지","indutype":"일반휴게음식 - 중국식","category":"restaurant"}]},{"lat":"37.061487098","long":"127.0557259","imageIndex":4,"items":[{"name":"청북식당","tel":"031-668-1006","addr":"경기도 평택시 서정동 900-5번지 1층","indutype":"일반휴게음식 - 일반한식","category":"restaurant"}]},{"lat":"37.065539925","long":"127.05992272","imageIndex":4,"items":[{"name":"청정회수산","tel":"031-611-2979","addr":"경기도 평택시 서정동 852-6번지","indutype":"음식점 - 한식","category":"restaurant"},{"name":"청정회수산","tel":"031-663-8545","addr":"경기도 평택시 서정동 852-6번지","indutype":"일반휴게음식 - 일반한식","category":"restaurant"}]},{"lat":"37.068147653","long":"127.05170504","imageIndex":4,"items":[{"name":"청해","tel":"031-663-5425","addr":"경기도 평택시 서정동 539-17번지 다동 1층","indutype":"일반휴게음식 - 일반한식","category":"restaurant"},{"name":"춘천생닭갈비","tel":"031-664-7716","addr":"경기도 평택시 서정동 539-17번지 1층","indutype":"음식점 - 한식","category":"restaurant"},{"name":"춘천생닭갈비","tel":"031-667-2437","addr":"경기도 평택시 서정동 539-17번지 1층","indutype":"일반휴게음식 - 일반한식","category":"restaurant"}]},{"lat":"37.066930014","long":"127.05456028","imageIndex":4,"items":[{"name":"청호식품","tel":"031-611-4622","addr":"경기도 평택시 서정동 831-14번지","indutype":"일반휴게음식 - 중국식","category":"restaurant"},{"name":"청호참가마","tel":"031-611-7901","addr":"경기도 평택시 서정동 831-14번지","indutype":"음식점 - 중식, 한식","category":"restaurant"}]},{"lat":"37.06506881","long":"127.0650271","imageIndex":4,"items":[{"name":"초원","tel":"","addr":"경기도 평택시 서정동 801-5번지","indutype":"음식점 - 중식","category":"restaurant"}]},{"lat":"37.066153096","long":"127.05897868","imageIndex":4,"items":[{"name":"최가장삼겹살","tel":"031-663-2735","addr":"경기도 평택시 서정동 839-4번지","indutype":"일반휴게음식 - 일반한식","category":"restaurant"},{"name":"최가장삼겹살","tel":"031-611-3408","addr":"경기도 평택시 서정동 839-4번지","indutype":"음식점 - 한식","category":"restaurant"}]},{"lat":"37.064150658","long":"127.06322735","imageIndex":4,"items":[{"name":"최미삼 순대국","tel":"050-4457-4404","addr":"경기도 평택시 서정동 159-12번지","indutype":"음식점 - 한식","category":"restaurant"}]},{"lat":"37.055990789","long":"127.05536233","imageIndex":4,"items":[{"name":"쵸스카페","tel":"031-684-1330","addr":"경기도 평택시 서정동 340-5번지 2층","indutype":"일반휴게음식 - 서양음식","category":"restaurant"},{"name":"쵸스카페","tel":"031-665-4493","addr":"경기도 평택시 서정동 340-5번지 2층","indutype":"음식점 - 카페","category":"restaurant"}]},{"lat":"37.064374238","long":"127.0664545","imageIndex":4,"items":[{"name":"춘천호반닭갈비","tel":"031-667-2151","addr":"경기도 평택시 서정동 1105-5번지 1층상가","indutype":"일반휴게음식 - 일반한식","category":"restaurant"}]},{"lat":"37.063738699","long":"127.05803243","imageIndex":4,"items":[{"name":"춘향골남원추어탕","tel":"031-611-2242","addr":"경기도 평택시 서정동 887-2번지 1층","indutype":"일반휴게음식 - 일반한식","category":"restaurant"}]},{"lat":"37.07012388","long":"127.06478384","imageIndex":4,"items":[{"name":"치로치로","tel":"070-7646-7672","addr":"경기도 평택시 서정동 778-1번지 1층","indutype":"일반휴게음식 - 서양음식","category":"restaurant"}]},{"lat":"37.064703731","long":"127.05606545","imageIndex":4,"items":[{"name":"치요남치킨","tel":"031-666-3867","addr":"경기도 평택시 서정동 873-31번지 1층","indutype":"일반휴게음식 - 스넥","category":"restaurant"}]},{"lat":"37.067621678","long":"127.05928335","imageIndex":4,"items":[{"name":"치킨678 송탄1호점","tel":"","addr":"경기도 평택시 서정동 822-4번지 1층","indutype":"음식점 - 치킨","category":"restaurant"},{"name":"치킨678송탄1호점","tel":"031-668-1678","addr":"경기도 평택시 서정동 822-4번지 1층","indutype":"일반휴게음식 - 스넥","category":"restaurant"}]},{"lat":"37.072789014","long":"127.04944776","imageIndex":4,"items":[{"name":"치킨봉이야기","tel":"031-666-1253","addr":"경기도 평택시 서정동 590-150번지","indutype":"일반휴게음식 - 스넥","category":"restaurant"}]},{"lat":"37.063820828","long":"127.05576125","imageIndex":4,"items":[{"name":"치킨플러스 평택서정점","tel":"031-664-9781","addr":"경기도 평택시 서정동 883-13번지 가나빌라 1층","indutype":"일반휴게음식 - 스넥","category":"restaurant"}]},{"lat":"37.067262456","long":"127.05669691","imageIndex":4,"items":[{"name":"친구숯불바베큐송탄점","tel":"031-664-5579","addr":"경기도 평택시 서정동 832-21번지 오성드림빌라","indutype":"일반휴게음식 - 주점","category":"restaurant"}]},{"lat":"37.067430782","long":"127.06270147","imageIndex":4,"items":[{"name":"칠성포차","tel":"070-111-1111","addr":"경기도 평택시 서정동 816-7번지","indutype":"일반휴게음식 - 일반한식","category":"restaurant"}]},{"lat":"37.058739009","long":"127.05539795","imageIndex":4,"items":[{"name":"카페 서정","tel":"031-618-2940","addr":"경기도 평택시 서정동 298-8번지","indutype":"일반휴게음식 - 서양음식","category":"restaurant"}]},{"lat":"37.067259456","long":"127.06294871","imageIndex":4,"items":[{"name":"카페마토(CAFE MATO)","tel":"","addr":"경기도 평택시 서정동 816-12번지 1층","indutype":"일반휴게음식 - 서양음식","category":"restaurant"}]},{"lat":"37.070541475","long":"127.05850963","imageIndex":4,"items":[{"name":"카페멜로우","tel":"031-656-9854","addr":"경기도 평택시 서정동 788-4번지 경성빌딩 1층 101호","indutype":"음식점 - 커피","category":"restaurant"},{"name":"카페멜로우","tel":"031-666-2022","addr":"경기도 평택시 서정동 788-4번지 경성빌딩 1층 일부","indutype":"일반휴게음식 - 서양음식","category":"restaurant"}]},{"lat":"37.056847439","long":"127.05389013","imageIndex":4,"items":[{"name":"카페베네서정리역점","tel":"031-664-6767","addr":"경기도 평택시 서정동 429-11번지 외1필지","indutype":"일반휴게음식 - 서양음식","category":"restaurant"}]},{"lat":"37.070183326","long":"127.05342678","imageIndex":4,"items":[{"name":"카페아모르","tel":"031-666-6464","addr":"경기도 평택시 서정동 556-10번지","indutype":"일반휴게음식 - 서양음식","category":"restaurant"}]},{"lat":"37.067206858","long":"127.05998019","imageIndex":4,"items":[{"name":"카페여유","tel":"031-656-7302","addr":"경기도 평택시 서정동 821-2번지 102호,105호","indutype":"일반휴게음식 - 서양음식","category":"restaurant"}]},{"lat":"37.069988722","long":"127.06478373","imageIndex":4,"items":[{"name":"카페영롱","tel":"031-1111-1111","addr":"경기도 평택시 서정동 778-2번지 1층","indutype":"일반휴게음식 - 서양음식","category":"restaurant"}]},{"lat":"37.058766708","long":"127.05386893","imageIndex":4,"items":[{"name":"카페인","tel":"031-668-0365","addr":"경기도 평택시 서정동 313-7번지","indutype":"일반휴게음식 - 일반한식","category":"restaurant"}]},{"lat":"37.063986752","long":"127.0665104","imageIndex":4,"items":[{"name":"커버넌트","tel":"070-8135-9958","addr":"경기도 평택시 서정동 1106-4번지","indutype":"일반휴게음식 - 서양음식","category":"restaurant"}]},{"lat":"37.066154502","long":"127.05592029","imageIndex":4,"items":[{"name":"커피볶는집 에이엠텐","tel":"","addr":"경기도 평택시 서정동 876-5번지 1층","indutype":"음식점 - 커피","category":"restaurant"},{"name":"커피에이엠10(coffee AM10)","tel":"070-7122-9800","addr":"경기도 평택시 서정동 876-5번지 1층","indutype":"일반휴게음식 - 서양음식","category":"restaurant"}]},{"lat":"37.068426613","long":"127.05259353","imageIndex":4,"items":[{"name":"커피샘","tel":"070-8261-9155","addr":"경기도 평택시 서정동 543-8번지","indutype":"일반휴게음식 - 스넥","category":"restaurant"}]},{"lat":"37.063596167","long":"127.05438937","imageIndex":4,"items":[{"name":"커피알이","tel":"031-8029-5242","addr":"경기도 평택시 서정동 879-23번지","indutype":"일반휴게음식 - 서양음식","category":"restaurant"}]},{"lat":"37.058649415","long":"127.05422862","imageIndex":4,"items":[{"name":"커피에 반하다 서정리역점","tel":"070-5033-2516","addr":"경기도 평택시 서정동 313-10번지 1층","indutype":"일반휴게음식 - 서양음식","category":"restaurant"}]},{"lat":"37.058207423","long":"127.05530764","imageIndex":4,"items":[{"name":"커피향에 물들다","tel":"031-611-5568","addr":"경기도 평택시 서정동 311-3번지","indutype":"일반휴게음식 - 서양음식","category":"restaurant"}]},{"lat":"37.067486094","long":"127.06017155","imageIndex":4,"items":[{"name":"케이투","tel":"031-668-6886","addr":"경기도 평택시 서정동 820-8번지 1층","indutype":"일반휴게음식 - 주점","category":"restaurant"},{"name":"케이투","tel":"031-668-6886","addr":"경기도 평택시 서정동 820-8번지","indutype":"일반휴게음식 - 주점","category":"restaurant"}]},{"lat":"37.067512338","long":"127.0617795","imageIndex":4,"items":[{"name":"코너23(CORNER 23)","tel":"031-691-8223","addr":"경기도 평택시 서정동 816번지 2층","indutype":"일반휴게음식 - 주점","category":"restaurant"}]},{"lat":"37.072397305","long":"127.05925316","imageIndex":4,"items":[{"name":"코너스톤","tel":"070-7012-1425","addr":"경기도 평택시 서정동 20-7번지 대영리츠빌 B101층","indutype":"일반휴게음식 - 서양음식","category":"restaurant"},{"name":"코너스톤","tel":"031-665-5688","addr":"경기도 평택시 서정동 20-7번지 대명리츠빌 1층","indutype":"음식점 - 양식","category":"restaurant"}]},{"lat":"37.063509371","long":"127.06617269","imageIndex":4,"items":[{"name":"코리안숯불닭바베큐이충점","tel":"031-667-9264","addr":"경기도 평택시 서정동 1108-1번지 일부 1층","indutype":"일반휴게음식 - 일반한식","category":"restaurant"}]},{"lat":"37.06759391","long":"127.06081256","imageIndex":4,"items":[{"name":"콕스","tel":"031-667-8886","addr":"경기도 평택시 서정동 818-19번지","indutype":"일반휴게음식 - 주점","category":"restaurant"}]},{"lat":"37.06506967","long":"127.06336301","imageIndex":4,"items":[{"name":"킹코다리","tel":"031-664-6420","addr":"경기도 평택시 서정동 812-6번지 청일빌딩","indutype":"일반휴게음식 - 일반한식","category":"restaurant"},{"name":"킹코다리","tel":"031-611-9979","addr":"경기도 평택시 서정동 812-6번지","indutype":"음식점 - 한식","category":"restaurant"}]},{"lat":"37.06648802","long":"127.05563942","imageIndex":4,"items":[{"name":"탱탱이생삼겹살","tel":"031-662-3301","addr":"경기도 평택시 서정동 835-10번지","indutype":"일반휴게음식 - 일반한식","category":"restaurant"}]},{"lat":"37.064815865","long":"127.06625248","imageIndex":4,"items":[{"name":"토속집","tel":"031-611-5786","addr":"경기도 평택시 서정동 1103-16번지","indutype":"일반휴게음식 - 일반한식","category":"restaurant"},{"name":"토속집","tel":"031-611-4254","addr":"경기도 평택시 서정동 1103-16번지","indutype":"음식점 - 한식","category":"restaurant"}]},{"lat":"37.072707477","long":"127.05056097","imageIndex":4,"items":[{"name":"토크쇼","tel":"031-666-4411","addr":"경기도 평택시 서정동 557-48번지","indutype":"일반휴게음식 - 주점","category":"restaurant"}]},{"lat":"37.072543805","long":"127.05411429","imageIndex":4,"items":[{"name":"토크쇼복창육교점","tel":"031-662-5161","addr":"경기도 평택시 서정동 552-6번지","indutype":"일반휴게음식 - 스넥","category":"restaurant"}]},{"lat":"37.068236991","long":"127.05353793","imageIndex":4,"items":[{"name":"통일감자탕","tel":"031-666-2001","addr":"경기도 평택시 서정동 509-12번지 1층","indutype":"일반휴게음식 - 일반한식","category":"restaurant"},{"name":"통일감자탕","tel":"031-663-8914","addr":"경기도 평택시 서정동 509-12번지","indutype":"음식점 - 한식","category":"restaurant"}]},{"lat":"37.058847624","long":"127.05428497","imageIndex":4,"items":[{"name":"통족발","tel":"031-664-9495","addr":"경기도 평택시 서정동 306-1번지 1층","indutype":"일반휴게음식 - 일반한식","category":"restaurant"}]},{"lat":"37.065981189","long":"127.06045152","imageIndex":4,"items":[{"name":"통큰포차","tel":"031-665-7421","addr":"경기도 평택시 서정동 843-1번지","indutype":"일반휴게음식 - 일반한식","category":"restaurant"}]},{"lat":"37.069758122","long":"127.0572834","imageIndex":4,"items":[{"name":"투다리","tel":"031-666-9753","addr":"경기도 평택시 서정동 826번지","indutype":"일반휴게음식 - 칵테일바","category":"restaurant"}]},{"lat":"37.065458196","long":"127.06122696","imageIndex":4,"items":[{"name":"투다리남부점","tel":"031-666-9259","addr":"경기도 평택시 서정동 851-7번지","indutype":"일반휴게음식 - 스넥","category":"restaurant"}]},{"lat":"37.072345533","long":"127.05420412","imageIndex":4,"items":[{"name":"투다리송탄3점","tel":"031-667-4515","addr":"경기도 평택시 서정동 552-32번지","indutype":"일반휴게음식 - 칵테일바","category":"restaurant"}]},{"lat":"37.060982218","long":"127.05636642","imageIndex":4,"items":[{"name":"틈새식당","tel":"031-667-1761","addr":"경기도 평택시 서정동 902-16번지","indutype":"일반휴게음식 - 일반한식","category":"restaurant"}]},{"lat":"37.065485579","long":"127.06050737","imageIndex":4,"items":[{"name":"티바두마리치킨","tel":"031-667-7852","addr":"경기도 평택시 서정동 851-2번지","indutype":"일반휴게음식 - 스넥","category":"restaurant"}]},{"lat":"37.06504153","long":"127.06549933","imageIndex":4,"items":[{"name":"파스쿠찌평택서정점","tel":"031-611-4532","addr":"경기도 평택시 서정동 801-9번지","indutype":"일반휴게음식 - 서양음식","category":"restaurant"},{"name":"평택서정파스쿠찌","tel":"031-668-2291","addr":"경기도 평택시 서정동 801-9번지","indutype":"음식점 - 카페","category":"restaurant"}]},{"lat":"37.070655849","long":"127.06412084","imageIndex":4,"items":[{"name":"파티앤파티/주식회사 푸름씨앤디 파티앤파","tel":"031-665-0104","addr":"경기도 평택시 서정동 779-1번지 2층","indutype":"일반휴게음식 - 일반한식","category":"restaurant"}]},{"lat":"37.067954454","long":"127.06056546","imageIndex":4,"items":[{"name":"파파분식","tel":"031-611-3408","addr":"경기도 평택시 서정동 818번지","indutype":"일반휴게음식 - 스넥","category":"restaurant"},{"name":"파파분식","tel":"031-665-8877","addr":"경기도 평택시 서정동 818번지","indutype":"음식점 - 분식","category":"restaurant"}]},{"lat":"37.065096042","long":"127.06464483","imageIndex":4,"items":[{"name":"팔도순대국","tel":"034-611-8275","addr":"경기도 평택시 서정동 801-2번지","indutype":"음식점 - 한식","category":"restaurant"},{"name":"팔도순대국","tel":"031-667-1186","addr":"경기도 평택시 서정동 801-2번지 1층","indutype":"일반휴게음식 - 일반한식","category":"restaurant"}]},{"lat":"37.060125186","long":"127.05859197","imageIndex":4,"items":[{"name":"페리카나 서정점","tel":"","addr":"경기도 평택시 서정동 288-15번지","indutype":"음식점 - 치킨","category":"restaurant"},{"name":"페리카나서정점","tel":"031-664-5018","addr":"경기도 평택시 서정동 288-15번지 1층","indutype":"일반휴게음식 - 스넥","category":"restaurant"}]},{"lat":"37.067592762","long":"127.06311763","imageIndex":4,"items":[{"name":"페트로(PETRO)","tel":"031-000-0000","addr":"경기도 평택시 서정동 815-11번지","indutype":"일반휴게음식 - 서양음식","category":"restaurant"}]},{"lat":"37.064932925","long":"127.06639875","imageIndex":4,"items":[{"name":"평양면옥","tel":"031-665-8791","addr":"경기도 평택시 서정동 1103-5번지","indutype":"일반휴게음식 - 일반한식","category":"restaurant"}]},{"lat":"37.073209244","long":"127.05713967","imageIndex":4,"items":[{"name":"포레스트/주식회사 화담","tel":"02-1111-1111","addr":"경기도 평택시 서정동 51-15번지 1층 101호","indutype":"일반휴게음식 - 서양음식","category":"restaurant"}]},{"lat":"37.060982344","long":"127.05608534","imageIndex":4,"items":[{"name":"풍납칡냉면송탄점","tel":"031-611-7757","addr":"경기도 평택시 서정동 902번지","indutype":"음식점 - 한식","category":"restaurant"},{"name":"풍납칡냉면송탄점","tel":"031-667-0066","addr":"경기도 평택시 서정동 902번지","indutype":"일반휴게음식 - 일반한식","category":"restaurant"}]},{"lat":"37.062288361","long":"127.05723309","imageIndex":4,"items":[{"name":"풍년집","tel":"","addr":"경기도 평택시 서정동 890-3번지","indutype":"일반휴게음식 - 일반한식","category":"restaurant"}]},{"lat":"37.064626685","long":"127.06617362","imageIndex":4,"items":[{"name":"풍차","tel":"031-665-4626","addr":"경기도 평택시 서정동 1105-1번지 1층","indutype":"일반휴게음식 - 주점","category":"restaurant"}]},{"lat":"37.061009572","long":"127.05564687","imageIndex":4,"items":[{"name":"피자나라치킨공주 서정점","tel":"031-663-2297","addr":"경기도 평택시 서정동 901-5번지","indutype":"일반휴게음식 - 스넥","category":"restaurant"}]},{"lat":"37.05637802","long":"127.05586852","imageIndex":4,"items":[{"name":"피자스쿨서정점","tel":"031-666-6617","addr":"경기도 평택시 서정동 334-4번지","indutype":"일반휴게음식 - 서양음식","category":"restaurant"}]},{"lat":"37.064960017","long":"127.06628633","imageIndex":4,"items":[{"name":"피자알볼로 송탄점","tel":"031-668-8282","addr":"경기도 평택시 서정동 1103-4번지","indutype":"음식점 - 피자","category":"restaurant"},{"name":"피자알볼로 송탄점","tel":"031-664-8495","addr":"경기도 평택시 서정동 1103-4번지 1층","indutype":"일반휴게음식 - 서양음식","category":"restaurant"}]},{"lat":"37.070821536","long":"127.05692432","imageIndex":4,"items":[{"name":"피자원","tel":"031-667-7174","addr":"경기도 평택시 서정동 62-3번지 1층","indutype":"일반휴게음식 - 서양음식","category":"restaurant"}]},{"lat":"37.065592621","long":"127.06270003","imageIndex":4,"items":[{"name":"피자원(서정동)","tel":"031-668-8801","addr":"경기도 평택시 서정동 849-11번지 1,2층","indutype":"음식점 - 피자","category":"restaurant"}]},{"lat":"37.067988517","long":"127.064501","imageIndex":4,"items":[{"name":"피즈앤콥","tel":"031-558-7271","addr":"경기도 평택시 서정동 799-5번지 1층","indutype":"일반휴게음식 - 서양음식","category":"restaurant"}]},{"lat":"37.072452853","long":"127.05603713","imageIndex":4,"items":[{"name":"피터패트","tel":"031-664-1363","addr":"경기도 평택시 서정동 75-8번지","indutype":"일반휴게음식 - 서양음식","category":"restaurant"}]},{"lat":"37.067710487","long":"127.06194832","imageIndex":4,"items":[{"name":"하룡청사초롱","tel":"031-666-7894","addr":"경기도 평택시 서정동 815-20번지","indutype":"일반휴게음식 - 일반한식","category":"restaurant"},{"name":"하룡청사초롱","tel":"031-666-0933","addr":"경기도 평택시 서정동 815-20번지","indutype":"음식점 - 한식","category":"restaurant"}]},{"lat":"37.058261764","long":"127.05467808","imageIndex":4,"items":[{"name":"하오츠","tel":"031-667-4433","addr":"경기도 평택시 서정동 313-18번지 2층","indutype":"일반휴게음식 - 중국식","category":"restaurant"}]},{"lat":"37.066288111","long":"127.05928237","imageIndex":4,"items":[{"name":"한결푸드","tel":"031-663-2090","addr":"경기도 평택시 서정동 841-13번지","indutype":"일반휴게음식 - 일반한식","category":"restaurant"},{"name":"해피데이치킨","tel":"031-665-6648","addr":"경기도 평택시 서정동 841-13번지 1층","indutype":"일반휴게음식 - 일반한식","category":"restaurant"}]},{"lat":"37.065764649","long":"127.06103605","imageIndex":4,"items":[{"name":"한라참치","tel":"031-665-1540","addr":"경기도 평택시 서정동 843-11번지 1층","indutype":"일반휴게음식 - 일반한식","category":"restaurant"},{"name":"한라참치","tel":"","addr":"경기도 평택시 서정동 843-11번지","indutype":"음식점 - 한식","category":"restaurant"}]},{"lat":"37.057739475","long":"127.05392445","imageIndex":4,"items":[{"name":"한성식당","tel":"031-666-3331","addr":"경기도 평택시 서정동 317-41번지 107,108호","indutype":"일반휴게음식 - 일반한식","category":"restaurant"}]},{"lat":"37.072707831","long":"127.04967261","imageIndex":4,"items":[{"name":"한아름식당","tel":"031-664-9294","addr":"경기도 평택시 서정동 590-151번지 1층","indutype":"일반휴게음식 - 일반한식","category":"restaurant"}]},{"lat":"37.056351662","long":"127.0543395","imageIndex":4,"items":[{"name":"함흥집","tel":"","addr":"경기도 평택시 서정동 335-18번지","indutype":"음식점 - 한식","category":"restaurant"}]},{"lat":"37.067369827","long":"127.05833865","imageIndex":4,"items":[{"name":"해두리치킨","tel":"031-668-4894","addr":"경기도 평택시 서정동 823-14번지","indutype":"일반휴게음식 - 스넥","category":"restaurant"}]},{"lat":"37.068763915","long":"127.06355709","imageIndex":4,"items":[{"name":"해물대가","tel":"031-667-0231","addr":"경기도 평택시 서정동 795-10번지","indutype":"일반휴게음식 - 일반한식","category":"restaurant"},{"name":"해물대가","tel":"031-662-6292","addr":"경기도 평택시 서정동 795-10번지","indutype":"음식점 - 한식","category":"restaurant"}]},{"lat":"37.067899955","long":"127.06145372","imageIndex":4,"items":[{"name":"해피토크","tel":"031-611-6345","addr":"경기도 평택시 서정동 818-6번지","indutype":"일반휴게음식 - 주점","category":"restaurant"}]},{"lat":"37.057045214","long":"127.05494708","imageIndex":4,"items":[{"name":"행복식당","tel":"","addr":"경기도 평택시 서정동 322-11번지","indutype":"음식점 - 분식","category":"restaurant"},{"name":"행복식당","tel":"031-662-0308","addr":"경기도 평택시 서정동 322-11번지","indutype":"일반휴게음식 - 일반한식","category":"restaurant"}]},{"lat":"37.057045006","long":"127.05541927","imageIndex":4,"items":[{"name":"헤세스","tel":"070-8743-5460","addr":"경기도 평택시 서정동 332-36번지 2층","indutype":"일반휴게음식 - 일반한식","category":"restaurant"}]},{"lat":"37.069821109","long":"127.0574746","imageIndex":4,"items":[{"name":"현대한식","tel":"031-663-1390","addr":"경기도 평택시 서정동 826-1번지","indutype":"일반휴게음식 - 일반한식","category":"restaurant"}]},{"lat":"37.071403803","long":"127.06397526","imageIndex":4,"items":[{"name":"호두담은파이","tel":"031-667-7890","addr":"경기도 평택시 서정동 775-16번지 1층","indutype":"일반휴게음식 - 스넥","category":"restaurant"}]},{"lat":"37.058295704","long":"127.0592877","imageIndex":4,"items":[{"name":"호식이두마리치킨송탄1호점","tel":"031-664-9599","addr":"경기도 평택시 서정동 262-2번지","indutype":"일반휴게음식 - 스넥","category":"restaurant"},{"name":"호식이두마리치킨송탄1호점","tel":"031-655-4204","addr":"경기도 평택시 서정동 262-2번지","indutype":"음식점 - 치킨","category":"restaurant"}]},{"lat":"37.068766236","long":"127.05883442","imageIndex":4,"items":[{"name":"홍어랑","tel":"031-663-4757","addr":"경기도 평택시 서정동 791-5번지","indutype":"일반휴게음식 - 일반한식","category":"restaurant"}]},{"lat":"37.072960561","long":"127.0485595","imageIndex":4,"items":[{"name":"홍이치킨호프","tel":"031-611-7771","addr":"경기도 평택시 서정동 590-16번지 1층","indutype":"일반휴게음식 - 주점","category":"restaurant"},{"name":"홍이치킨호프","tel":"","addr":"경기도 평택시 서정동 590-16번지 1층","indutype":"음식점 - 치킨","category":"restaurant"}]},{"lat":"37.065594295","long":"127.05928185","imageIndex":4,"items":[{"name":"환장할내청춘","tel":"031-665-9398","addr":"경기도 평택시 서정동 852-1번지","indutype":"일반휴게음식 - 일반한식","category":"restaurant"}]},{"lat":"37.067766161","long":"127.05862005","imageIndex":4,"items":[{"name":"황당한장어","tel":"031-624-1918","addr":"경기도 평택시 서정동 823-5번지","indutype":"일반휴게음식 - 일반한식","category":"restaurant"}]},{"lat":"37.064874024","long":"127.05805574","imageIndex":4,"items":[{"name":"황산벌순대국집","tel":"031-611-6806","addr":"경기도 평택시 서정동 866-23번지 1층","indutype":"일반휴게음식 - 일반한식","category":"restaurant"}]},{"lat":"37.066486773","long":"127.05837174","imageIndex":4,"items":[{"name":"황철수피자 송탄점","tel":"031-611-1132","addr":"경기도 평택시 서정동 838-3번지 1층 102호","indutype":"음식점 - 피자","category":"restaurant"},{"name":"황철수피자송탄점","tel":"031-662-7115","addr":"경기도 평택시 서정동 838-3번지 1층 102호","indutype":"일반휴게음식 - 서양음식","category":"restaurant"}]},{"lat":"37.065068751","long":"127.06513954","imageIndex":4,"items":[{"name":"황토식당","tel":"031-667-2211","addr":"경기도 평택시 서정동 801-6번지","indutype":"일반휴게음식 - 일반한식","category":"restaurant"},{"name":"황토식당","tel":"031-667-1186","addr":"경기도 평택시 서정동 801-6번지","indutype":"음식점 - 한식","category":"restaurant"}]},{"lat":"37.057989493","long":"127.05897267","imageIndex":4,"items":[{"name":"황포진식당","tel":"031-616-3727","addr":"경기도 평택시 서정동 284-12번지","indutype":"일반휴게음식 - 일반한식","category":"restaurant"}]},{"lat":"37.064347404","long":"127.06608343","imageIndex":4,"items":[{"name":"힘내소","tel":"031-668-6487","addr":"경기도 평택시 서정동 1104-4번지 1층","indutype":"일반휴게음식 - 일반한식","category":"restaurant"}]}]