[{"lat":"37.518797067","long":"127.14814594","imageIndex":13,"items":[{"name":"(주)일도옵티칼","tel":"02-448-7117","addr":"경기도 하남시 감북동 413-29번지 2층","indutype":"보건위생 - 안경","category":"beauty"},{"name":"주식회사 퍼니뷰","tel":"070-4246-6431","addr":"경기도 하남시 감북동 413-29번지 1층","indutype":"보건위생 - 안경","category":"beauty"}]},{"lat":"37.519185397","long":"127.15459435","imageIndex":13,"items":[{"name":"다쥬자미용가구","tel":"031-949-6134","addr":"경기도 하남시 감북동 252-5번지","indutype":"보건위생 - 화장품","category":"beauty"}]},{"lat":"37.517984347","long":"127.14962617","imageIndex":13,"items":[{"name":"미주강화주식회사","tel":"02-472-9924","addr":"경기도 하남시 감북동 407-5번지 하남에코빌딩","indutype":"보건위생 - 피부미용실","category":"beauty"}]},{"lat":"37.518681518","long":"127.16095046","imageIndex":13,"items":[{"name":"원스메드","tel":"070-7343-9884","addr":"경기도 하남시 감북동 345-56번지 3층","indutype":"보건위생 - 의료용품","category":"beauty"}]},{"lat":"37.516242011","long":"127.15931649","imageIndex":13,"items":[{"name":"주식회사 송민메디케어","tel":"02-487-2527","addr":"경기도 하남시 감북동 368-15번지 2층 204호","indutype":"보건위생 - 의료용품","category":"beauty"},{"name":"주식회사 원바이오로직스","tel":"02-482-2520","addr":"경기도 하남시 감북동 368-15번지","indutype":"보건위생 - 의료용품","category":"beauty"}]},{"lat":"37.518515929","long":"127.14962721","imageIndex":13,"items":[{"name":"주식회사 파우 (FAU)","tel":"02-3482-1813","addr":"경기도 하남시 감북동 407-1번지 1층","indutype":"보건위생 - 화장품","category":"beauty"}]}]