[{"lat":"37.554243277","long":"127.71115117","imageIndex":17,"items":[{"name":"(주)대성제재소","tel":"031-773-9064","addr":"경기도 양평군 청운면 용두리 665-7번지 1층","indutype":"건축자재 - 목재·석재·철물","category":"other"}]},{"lat":"37.553910218","long":"127.70959763","imageIndex":17,"items":[{"name":"굿누수탐지","tel":"031-771-1153","addr":"경기도 양평군 청운면 용두리 662-2","indutype":"용역 서비스 - 기타용역서비스","category":"other"}]},{"lat":"37.546968755","long":"127.72367667","imageIndex":17,"items":[{"name":"디자인 아이비","tel":"070-1478-1236","addr":"경기도 양평군 청운면 용두리 303-8번지 2층","indutype":"건축자재 - 건축용 요업제품","category":"other"}]},{"lat":"37.554547565","long":"127.70998842","imageIndex":17,"items":[{"name":"명문종합설비","tel":"031-774-8272","addr":"경기도 양평군 청운면 용두리 631-15번지","indutype":"용역 서비스 - 기타용역서비스","category":"other"}]},{"lat":"37.55432403","long":"127.70970339","imageIndex":17,"items":[{"name":"명신사","tel":"031-773-9104","addr":"경기도 양평군 청운면 용두리 662-1번지","indutype":"전기제품 - 기타전기제품","category":"other"}]},{"lat":"37.554742108","long":"127.70909623","imageIndex":17,"items":[{"name":"삼성전기","tel":"031-773-9198","addr":"경기도 양평군 청운면 용두리 643-11번지","indutype":"전기제품 - 기타전기제품","category":"other"}]},{"lat":"37.554076106","long":"127.7104819","imageIndex":17,"items":[{"name":"씨유양평청운점","tel":"031-878-8205","addr":"경기도 양평군 청운면 용두리 663-10번지","indutype":"유통업 영리 - 편 의 점","category":"other"}]},{"lat":"37.554492358","long":"127.71018028","imageIndex":17,"items":[{"name":"영화플라워","tel":"031-771-7732","addr":"경기도 양평군 청운면 용두리 631-13번지","indutype":"문화.취미 - 화원","category":"other"}]},{"lat":"37.554162001","long":"127.70967922","imageIndex":17,"items":[{"name":"용두창호","tel":"031-773-9103","addr":"경기도 양평군 청운면 용두리 662-7번지","indutype":"용역 서비스 - 기타용역서비스","category":"other"}]},{"lat":"37.554045592","long":"127.71256389","imageIndex":17,"items":[{"name":"주식회사 건국씨엠에스","tel":"031-773-7033","addr":"경기도 양평군 청운면 용두리 684-3번지","indutype":"건축자재 - 기타건축자재","category":"other"}]},{"lat":"37.553462059","long":"127.71670025","imageIndex":17,"items":[{"name":"주식회사 이엘산업","tel":"031-774-8951","addr":"경기도 양평군 청운면 용두리 472-1번지","indutype":"건축자재 - 기타건축자재","category":"other"}]},{"lat":"37.55423976","long":"127.70872935","imageIndex":17,"items":[{"name":"청운농약사","tel":"031-775-8125","addr":"경기도 양평군 청운면 용두리 659-1번지","indutype":"농업 - 기타농업관련","category":"other"}]},{"lat":"37.553851013","long":"127.71045714","imageIndex":17,"items":[{"name":"청운농협경제사업부","tel":"031-773-9825","addr":"경기도 양평군 청운면 용두리 663-4번지 청운농협경제사업장","indutype":"유통업 비영리 - 농,축협 직영매장","category":"other"}]},{"lat":"37.55318447","long":"127.7104282","imageIndex":17,"items":[{"name":"청운농협농기계센타(덕성)","tel":"031-773-9816","addr":"경기도 양평군 청운면 용두리 715-3","indutype":"수리서비스 - 기타수리서비스","category":"other"}]},{"lat":"37.554581297","long":"127.71037351","imageIndex":17,"items":[{"name":"청운농협하나로마트","tel":"031-773-9814","addr":"경기도 양평군 청운면 용두리 630-13번지 하나로마트","indutype":"유통업 비영리 - 농,축협 직영매장","category":"other"}]},{"lat":"37.554629664","long":"127.70981944","imageIndex":17,"items":[{"name":"현대철물","tel":"031-773-9050","addr":"경기도 양평군 청운면 용두리 632-2번지","indutype":"기타 - 기계공구","category":"other"}]}]