[{"lat":"37.232853413","long":"127.06375592","imageIndex":13,"items":[{"name":"(주)스마트","tel":"031-287-6240","addr":"경기도 화성시 반월동 138-1번지 206호","indutype":"보건위생 - 기타대인서비스","category":"beauty"}]},{"lat":"37.23457558","long":"127.06139081","imageIndex":13,"items":[{"name":"11번가헤어","tel":"031-202-2122","addr":"경기도 화성시 반월동 869-4번지 골드프라자 1층 119호","indutype":"보건위생 - 미용원","category":"beauty"},{"name":"글라스안경","tel":"031-203-3977","addr":"경기도 화성시 반월동 869-4번지 골드프라자 101호","indutype":"보건위생 - 안경","category":"beauty"},{"name":"네일뷰","tel":"031-204-2770","addr":"경기도 화성시 반월동 869-4번지 골드프라자 120호","indutype":"보건위생 - 피부미용실","category":"beauty"},{"name":"에스헤어","tel":"031-273-8982","addr":"경기도 화성시 반월동 869-4번지 골드프라자 113호","indutype":"보건위생 - 미용원","category":"beauty"},{"name":"프로헤어 예작","tel":"031-206-7179","addr":"경기도 화성시 반월동 869-4번지 골드프라자 109호","indutype":"보건위생 - 미용원","category":"beauty"},{"name":"헤라헤어","tel":"031-273-8859","addr":"경기도 화성시 반월동 869-4번지 골드프라자 103호","indutype":"보건위생 - 미용원","category":"beauty"}]},{"lat":"37.233322992","long":"127.0616941","imageIndex":13,"items":[{"name":"가르마헤어","tel":"031-204-5677","addr":"경기도 화성시 반월동 870 신영동현대타운상가 104","indutype":"보건위생 - 미용원","category":"beauty"}]},{"lat":"37.231469465","long":"127.0561936","imageIndex":13,"items":[{"name":"가위반장","tel":"031-204-7768","addr":"경기도 화성시 반월동 868번지 신영통현대타운 203호","indutype":"보건위생 - 미용원","category":"beauty"},{"name":"하베스헤어샵","tel":"031-205-2689","addr":"경기도 화성시 반월동 868번지 신영통현대타운제 상가동 105호","indutype":"보건위생 - 미용원","category":"beauty"}]},{"lat":"37.235440777","long":"127.06097452","imageIndex":13,"items":[{"name":"나이스남성커트전문점","tel":"031-292-6239","addr":"경기도 화성시 반월동 864-1번지 제일프라자 113호","indutype":"보건위생 - 미용원","category":"beauty"},{"name":"디자인화장품","tel":"031-202-7211","addr":"경기도 화성시 반월동 864-1번지 제일프라자 110호","indutype":"보건위생 - 화장품","category":"beauty"},{"name":"마임","tel":"031-203-0377","addr":"경기도 화성시 반월동 864-1번지 제일프라자 5층 512호","indutype":"보건위생 - 화장품","category":"beauty"},{"name":"미니헤어#","tel":"031-202-6267","addr":"경기도 화성시 반월동 864-1번지 제일프라자 1층 129호","indutype":"보건위생 - 미용원","category":"beauty"},{"name":"쁘띠네일","tel":"031-206-9486","addr":"경기도 화성시 반월동 864-1번지 제일프라자 126호","indutype":"보건위생 - 피부미용실","category":"beauty"},{"name":"안경나라(반월점)","tel":"02-1111-1111","addr":"경기도 화성시 반월동 864-1번지 제일프라자 1층","indutype":"보건위생 - 안경","category":"beauty"},{"name":"에이앤(AN)신영통지사","tel":"031-273-1268","addr":"경기도 화성시 반월동 864-1번지 제일프라자 410호","indutype":"보건위생 - 화장품","category":"beauty"},{"name":"유진헤어뱅크","tel":"031-205-8883","addr":"경기도 화성시 반월동 864-1번지 제일프라자 122호","indutype":"보건위생 - 미용원","category":"beauty"},{"name":"조인순 뷰티","tel":"031-273-9949","addr":"경기도 화성시 반월동 864-1번지 제일프라자 405호","indutype":"보건위생 - 피부미용실","category":"beauty"}]},{"lat":"37.234293923","long":"127.06594327","imageIndex":13,"items":[{"name":"네일을 탐하다","tel":"031-203-9640","addr":"경기도 화성시 반월동 67-4번지 호평프라자 103호","indutype":"보건위생 - 피부미용실","category":"beauty"},{"name":"얼반헤어","tel":"031-202-8717","addr":"경기도 화성시 반월동 67-4번지 호평프라자 301호","indutype":"보건위생 - 미용원","category":"beauty"}]},{"lat":"37.227911847","long":"127.07091843","imageIndex":13,"items":[{"name":"녹십초알로에권선지사","tel":"031-224-5569","addr":"경기도 화성시 반월동 359-16","indutype":"보건위생 - 화장품","category":"beauty"}]},{"lat":"37.233996934","long":"127.06527815","imageIndex":13,"items":[{"name":"다빈치헤어","tel":"031-205-0541","addr":"경기도 화성시 반월동 66-9번지 명성프라자 1층 106호","indutype":"보건위생 - 미용원","category":"beauty"},{"name":"쑥향기","tel":"","addr":"경기도 화성시 반월동 66-9번지 명성프라자 4층 403 일부호","indutype":"보건위생 - 피부미용실","category":"beauty"}]},{"lat":"37.222323336","long":"127.05756176","imageIndex":13,"items":[{"name":"더민헤어","tel":"031-236-8990","addr":"경기도 화성시 반월동 944번지 에스케이뷰파크 2동 1층 108호","indutype":"보건위생 - 미용원","category":"beauty"},{"name":"주(JU)헤어살롱","tel":"","addr":"경기도 화성시 반월동 944번지 에스케이뷰파크 1동 1층 102호","indutype":"보건위생 - 미용원","category":"beauty"}]},{"lat":"37.232996905","long":"127.06505195","imageIndex":13,"items":[{"name":"더헤어프레스티지(THE HAIR prestige)","tel":"031-206-3651","addr":"경기도 화성시 반월동 88-4번지 토마토프라자 207호","indutype":"보건위생 - 미용원","category":"beauty"}]},{"lat":"37.23030209","long":"127.06641321","imageIndex":13,"items":[{"name":"라브리지","tel":"","addr":"경기도 화성시 반월동 123-5번지 3층 일부호","indutype":"보건위생 - 미용원","category":"beauty"}]},{"lat":"37.222907643","long":"127.06044661","imageIndex":13,"items":[{"name":"로이안경","tel":"031-000-0000","addr":"경기도 화성시 반월동 540-8번지 1층","indutype":"보건위생 - 안경","category":"beauty"}]},{"lat":"37.225331119","long":"127.06107944","imageIndex":13,"items":[{"name":"루크헤어","tel":"031-891-1007","addr":"경기도 화성시 반월동 960번지 e편한세상신동탄 110호","indutype":"보건위생 - 미용원","category":"beauty"}]},{"lat":"37.234962778","long":"127.06188695","imageIndex":13,"items":[{"name":"림 Hairsalon","tel":"031-202-9701","addr":"경기도 화성시 반월동 869번지 현대프라자 110호","indutype":"보건위생 - 미용원","category":"beauty"},{"name":"수아로마","tel":"031-203-3138","addr":"경기도 화성시 반월동 869번지 현대프라자 3층 301-1호","indutype":"보건위생 - 화장품","category":"beauty"}]},{"lat":"37.233771191","long":"127.06619075","imageIndex":13,"items":[{"name":"머리못하는집(반월점)","tel":"031-273-0360","addr":"경기도 화성시 반월동 83번지","indutype":"보건위생 - 미용원","category":"beauty"},{"name":"미스터","tel":"070-9144-8965","addr":"경기도 화성시 반월동 83번지 204호","indutype":"보건위생 - 미용재료","category":"beauty"},{"name":"연테라피","tel":"031-204-7643","addr":"경기도 화성시 반월동 83번지 신우프라자 207호","indutype":"보건위생 - 피부미용실","category":"beauty"},{"name":"하디아동청소년발달센터 반월3호점","tel":"","addr":"경기도 화성시 반월동 83번지 3층 306호","indutype":"보건위생 - 기타대인서비스","category":"beauty"},{"name":"헤어제이","tel":"031-203-1239","addr":"경기도 화성시 반월동 83번지 108호","indutype":"보건위생 - 미용원","category":"beauty"}]},{"lat":"37.228076106","long":"127.04763875","imageIndex":13,"items":[{"name":"미라주헤어","tel":"031-222-2279","addr":"경기도 화성시 반월동 959번지 반월자이에뜨 상가동 2층 202호","indutype":"보건위생 - 미용원","category":"beauty"}]},{"lat":"37.22866142","long":"127.06786543","imageIndex":13,"items":[{"name":"봉봉살롱","tel":"031-000-0000","addr":"경기도 화성시 반월동 111-4번지 신동탄롯데캐슬 상가동 2층 6호","indutype":"보건위생 - 미용원","category":"beauty"},{"name":"이레 화장품","tel":"031-000-0000","addr":"경기도 화성시 반월동 111-4번지 신동탄롯데캐슬 103동 2502호","indutype":"보건위생 - 화장품","category":"beauty"},{"name":"판다인터내셔널","tel":"","addr":"경기도 화성시 반월동 111-4번지 신동탄롯데캐슬 103동 1602호","indutype":"보건위생 - 화장품","category":"beauty"}]},{"lat":"37.233295179","long":"127.06324918","imageIndex":13,"items":[{"name":"샬롬미용실","tel":"031-202-9678","addr":"경기도 화성시 반월동 160-14번지 103호","indutype":"보건위생 - 미용원","category":"beauty"}]},{"lat":"37.222881596","long":"127.05838468","imageIndex":13,"items":[{"name":"샴푸헤어","tel":"031-234-5332","addr":"경기도 화성시 반월동 607-12번지 102호","indutype":"보건위생 - 미용원","category":"beauty"}]},{"lat":"37.229437542","long":"127.06557864","imageIndex":13,"items":[{"name":"서호 코스메틱","tel":"","addr":"경기도 화성시 반월동 347-17번지 덕산빌딩 3층 A호","indutype":"보건위생 - 화장품","category":"beauty"}]},{"lat":"37.231771059","long":"127.06588482","imageIndex":13,"items":[{"name":"순복음은혜의목장교회","tel":"031-244-2823","addr":"경기도 화성시 반월동 100-8번지","indutype":"보건위생 - 기타대인서비스","category":"beauty"}]},{"lat":"37.228941643","long":"127.04617439","imageIndex":13,"items":[{"name":"쎄미헤어라인","tel":"031-231-8806","addr":"경기도 화성시 반월동 248-2,6","indutype":"보건위생 - 미용원","category":"beauty"}]},{"lat":"37.228018259","long":"127.07383695","imageIndex":13,"items":[{"name":"아리따움(기흥반도체점)","tel":"031-202-1070","addr":"경기도 화성시 반월동 359-1,1층3,4호","indutype":"보건위생 - 화장품","category":"beauty"}]},{"lat":"37.229771363","long":"127.06474506","imageIndex":13,"items":[{"name":"아모레카운셀러(최수연)","tel":"031-206-0801","addr":"경기도 화성시 반월동 345-3번지 태양빌딩 4층","indutype":"보건위생 - 화장품","category":"beauty"}]},{"lat":"37.222136964","long":"127.05100413","imageIndex":13,"items":[{"name":"아이패밀리","tel":"031-222-2727","addr":"경기도 화성시 반월동 717번지 신풍프라자 111호","indutype":"보건위생 - 안경","category":"beauty"},{"name":"아임헤어 화장품","tel":"031-238-6636","addr":"경기도 화성시 반월동 717번지 신풍프라자 105호","indutype":"보건위생 - 화장품","category":"beauty"},{"name":"일랑일랑뷰티","tel":"031-232-0822","addr":"경기도 화성시 반월동 717번지 신풍프라자 1층 114호 반월동신풍프자","indutype":"보건위생 - 화장품","category":"beauty"}]},{"lat":"37.234743528","long":"127.067634","imageIndex":13,"items":[{"name":"안경창고싸군서천점","tel":"","addr":"경기도 화성시 반월동 77번지 103,104,105호","indutype":"보건위생 - 안경","category":"beauty"},{"name":"알케이샵","tel":"031-204-3828","addr":"경기도 화성시 반월동 77번지 1층 106호","indutype":"보건위생 - 미용원","category":"beauty"}]},{"lat":"37.227991463","long":"127.07344254","imageIndex":13,"items":[{"name":"예술헤어라인","tel":"031-204-8212","addr":"경기도 화성시 반월동 359-5번지","indutype":"보건위생 - 미용원","category":"beauty"}]},{"lat":"37.234213991","long":"127.06372321","imageIndex":13,"items":[{"name":"우미관","tel":"","addr":"경기도 화성시 반월동 63-4번지 2층","indutype":"보건위생 - 기타대인서비스","category":"beauty"}]},{"lat":"37.223907522","long":"127.06099948","imageIndex":13,"items":[{"name":"유니세라","tel":"031-898-7164","addr":"경기도 화성시 반월동 534번지","indutype":"보건위생 - 의료용품","category":"beauty"}]},{"lat":"37.218716247","long":"127.06360936","imageIndex":13,"items":[{"name":"일공공일안경콘택트","tel":"031-208-0088","addr":"경기도 화성시 반월동 948번지 삼성전자화성반도체복지매장내","indutype":"보건위생 - 안경","category":"beauty"}]},{"lat":"37.230408941","long":"127.06874587","imageIndex":13,"items":[{"name":"지니스(JINIS)반월동삼성반도체점","tel":"032-637-8444","addr":"경기도 화성시 반월동 109-1번지 1층 전체","indutype":"보건위생 - 안경","category":"beauty"}]},{"lat":"37.239132692","long":"127.06553032","imageIndex":13,"items":[{"name":"지엔미헤어샵","tel":"031-208-5533","addr":"경기도 화성시 반월동 16","indutype":"보건위생 - 미용원","category":"beauty"}]},{"lat":"37.228325194","long":"127.07285691","imageIndex":13,"items":[{"name":"채리티스헤어","tel":"031-203-2611","addr":"경기도 화성시 반월동 360-1번지 1층 일부","indutype":"보건위생 - 미용원","category":"beauty"}]},{"lat":"37.234493381","long":"127.06358821","imageIndex":13,"items":[{"name":"청담뷰티","tel":"031-206-2555","addr":"경기도 화성시 반월동 63-3번지 3층","indutype":"보건위생 - 화장품","category":"beauty"}]},{"lat":"37.221244644","long":"127.05172465","imageIndex":13,"items":[{"name":"킹케어","tel":"","addr":"경기도 화성시 반월동 718-9번지 창우빌딩 202호","indutype":"보건위생 - 미용재료","category":"beauty"}]}]