[{"lat":"37.648199271","long":"127.20139368","imageIndex":13,"items":[{"name":"(주)디비메디칼","tel":"031-1522-7511","addr":"경기도 남양주시 진건읍 송능리 388-6번지","indutype":"보건위생 - 의료용품","category":"beauty"}]},{"lat":"37.662362232","long":"127.21197141","imageIndex":13,"items":[{"name":"다주자월드","tel":"031-595-6568","addr":"경기도 남양주시 진건읍 송능리 286번지 1층","indutype":"보건위생 - 미용재료","category":"beauty"}]},{"lat":"37.672690317","long":"127.19974732","imageIndex":13,"items":[{"name":"미인헤어","tel":"031-573-5791","addr":"경기도 남양주시 진건읍 송능리 130-3번지 1층","indutype":"보건위생 - 미용원","category":"beauty"}]},{"lat":"37.673034794","long":"127.19847871","imageIndex":13,"items":[{"name":"백설공주","tel":"070-8271-6960","addr":"경기도 남양주시 진건읍 송능리 117-2번지 경남하이츠빌라 B동 201호","indutype":"보건위생 - 화장품","category":"beauty"}]},{"lat":"37.669385609","long":"127.20400034","imageIndex":13,"items":[{"name":"주식회사 엘모어","tel":"02-536-6008","addr":"경기도 남양주시 진건읍 송능리 237-3번지","indutype":"보건위생 - 화장품","category":"beauty"}]},{"lat":"37.672778687","long":"127.20077903","imageIndex":13,"items":[{"name":"컷토피아","tel":"031-529-7748","addr":"경기도 남양주시 진건읍 송능리 154-1번지 1층 우측호","indutype":"보건위생 - 미용원","category":"beauty"}]},{"lat":"37.669276215","long":"127.20474811","imageIndex":13,"items":[{"name":"태평양세광대리점","tel":"031-574-0078","addr":"경기도 남양주시 진건읍 송능리 237-11번지","indutype":"보건위생 - 화장품","category":"beauty"}]},{"lat":"37.659975705","long":"127.21138674","imageIndex":13,"items":[{"name":"행복유통","tel":"031-111-1111","addr":"경기도 남양주시 진건읍 송능리 318번지","indutype":"보건위생 - 화장품","category":"beauty"}]}]