[{"lat":"37.278547564","long":"127.13688102","imageIndex":4,"items":[{"name":"1250˚C","tel":"031-284-8755","addr":"경기도 용인시 기흥구 상하동 515-8번지","indutype":"일반휴게음식 - 서양음식","category":"restaurant"}]},{"lat":"37.258214153","long":"127.1422671","imageIndex":4,"items":[{"name":"BHC Beer Zone","tel":"031-283-7504","addr":"경기도 용인시 기흥구 상하동 241-3번지 상하빌딩 106,107호","indutype":"일반휴게음식 - 주점","category":"restaurant"},{"name":"용포차","tel":"031-281-1114","addr":"경기도 용인시 기흥구 상하동 241-3번지 1층 103,104호","indutype":"일반휴게음식 - 주점","category":"restaurant"},{"name":"피자스쿨(상하점)","tel":"031-281-9090","addr":"경기도 용인시 기흥구 상하동 241-3번지 상하빌딩 1층 109호","indutype":"일반휴게음식 - 서양음식","category":"restaurant"}]},{"lat":"37.275908829","long":"127.14355126","imageIndex":4,"items":[{"name":"가람양꼬치 양갈비","tel":"070-7543-1887","addr":"경기도 용인시 기흥구 상하동 482-10번지 나동 2층 일부호","indutype":"일반휴게음식 - 일반한식","category":"restaurant"},{"name":"브라보퍼블릭","tel":"031-286-9200","addr":"경기도 용인시 기흥구 상하동 482-10번지 가동 2층","indutype":"일반휴게음식 - 일반한식","category":"restaurant"},{"name":"송담추어탕.매코미코다리 동백점","tel":"","addr":"경기도 용인시 기흥구 상하동 482-10번지 1층","indutype":"일반휴게음식 - 일반한식","category":"restaurant"},{"name":"올리앤 용인동백점","tel":"031-282-9250","addr":"경기도 용인시 기흥구 상하동 482-10번지 나동좌측 1층","indutype":"일반휴게음식 - 서양음식","category":"restaurant"},{"name":"참치랑연어랑","tel":"031-285-9997","addr":"경기도 용인시 기흥구 상하동 482-10번지 나동 1층 일부호","indutype":"일반휴게음식 - 일식·회집","category":"restaurant"}]},{"lat":"37.257765106","long":"127.14101502","imageIndex":4,"items":[{"name":"가마치통닭(상하점)","tel":"031-285-9993","addr":"경기도 용인시 기흥구 상하동 164-1번지 상하쟈일드아카데미 2층 203호","indutype":"일반휴게음식 - 스넥","category":"restaurant"},{"name":"사이소정육점식당","tel":"070-8838-4343","addr":"경기도 용인시 기흥구 상하동 164-1번지","indutype":"일반휴게음식 - 일반한식","category":"restaurant"},{"name":"요거프레소 용인상하점","tel":"","addr":"경기도 용인시 기흥구 상하동 164-1번지 상하쟈일드아카데미 202호","indutype":"일반휴게음식 - 서양음식","category":"restaurant"},{"name":"행복한떡볶이","tel":"031-277-8767","addr":"경기도 용인시 기흥구 상하동 164-1번지 상하쟈일드아카데미 2층 6호","indutype":"일반휴게음식 - 스넥","category":"restaurant"}]},{"lat":"37.257745619","long":"127.14226623","imageIndex":4,"items":[{"name":"가치김밥","tel":"031-891-3787","addr":"경기도 용인시 기흥구 상하동 163-11번지","indutype":"일반휴게음식 - 스넥","category":"restaurant"},{"name":"정가네왕불족발","tel":"031-284-0308","addr":"경기도 용인시 기흥구 상하동 163-11번지 103호","indutype":"일반휴게음식 - 일반한식","category":"restaurant"},{"name":"치킨마루 용인상하점","tel":"031-282-1666","addr":"경기도 용인시 기흥구 상하동 163-11번지 유원빌딩 101호","indutype":"일반휴게음식 - 주점","category":"restaurant"}]},{"lat":"37.27643149","long":"127.14349585","imageIndex":4,"items":[{"name":"감골오리(어정직영점)","tel":"031-284-1413","addr":"경기도 용인시 기흥구 상하동 482-1번지","indutype":"일반휴게음식 - 일반한식","category":"restaurant"}]},{"lat":"37.259880762","long":"127.14251817","imageIndex":4,"items":[{"name":"강원도 감자옹심이칼국수","tel":"031-284-6660","addr":"경기도 용인시 기흥구 상하동 248-3번지 1층","indutype":"일반휴게음식 - 일반한식","category":"restaurant"}]},{"lat":"37.267267551","long":"127.13612823","imageIndex":4,"items":[{"name":"고인돌보쌈","tel":"031-287-4939","addr":"경기도 용인시 기흥구 상하동 388-6번지","indutype":"일반휴게음식 - 일반한식","category":"restaurant"}]},{"lat":"37.274291932","long":"127.13932014","imageIndex":4,"items":[{"name":"고철상","tel":"031-284-9203","addr":"경기도 용인시 기흥구 상하동 465-13번지 1층","indutype":"일반휴게음식 - 일반한식","category":"restaurant"},{"name":"방자네바지락칼국수","tel":"031-286-8228","addr":"경기도 용인시 기흥구 상하동 465-13번지 외3필지","indutype":"일반휴게음식 - 일반한식","category":"restaurant"}]},{"lat":"37.275793468","long":"127.14205144","imageIndex":4,"items":[{"name":"곽두리쪽갈비","tel":"031-274-6853","addr":"경기도 용인시 기흥구 상하동 478-2번지 바동 외6필지","indutype":"일반휴게음식 - 일반한식","category":"restaurant"},{"name":"곽두리폭립","tel":"031-274-6853","addr":"경기도 용인시 기흥구 상하동 478-2번지 바동","indutype":"일반휴게음식 - 일반한식","category":"restaurant"},{"name":"친구야","tel":"031-274-1660","addr":"경기도 용인시 기흥구 상하동 478-2번지 302호","indutype":"일반휴게음식 - 일반한식","category":"restaurant"},{"name":"황고집","tel":"031-285-9256","addr":"경기도 용인시 기흥구 상하동 478-2번지 바동 1층","indutype":"일반휴게음식 - 일반한식","category":"restaurant"}]},{"lat":"37.253606021","long":"127.14551617","imageIndex":4,"items":[{"name":"교동짬뽕","tel":"031-281-5582","addr":"경기도 용인시 기흥구 상하동 66-5번지 1층","indutype":"일반휴게음식 - 중국식","category":"restaurant"}]},{"lat":"37.272762817","long":"127.13701734","imageIndex":4,"items":[{"name":"국수랑상하점","tel":"031-111-1111","addr":"경기도 용인시 기흥구 상하동 635번지 1층 일부","indutype":"일반휴게음식 - 일반한식","category":"restaurant"},{"name":"포스트피자","tel":"031-275-1544","addr":"경기도 용인시 기흥구 상하동 635번지","indutype":"일반휴게음식 - 서양음식","category":"restaurant"}]},{"lat":"37.273014784","long":"127.13729966","imageIndex":4,"items":[{"name":"기찬수제족발","tel":"031-281-1163","addr":"경기도 용인시 기흥구 상하동 633-3번지 그린타워 109호","indutype":"일반휴게음식 - 일반한식","category":"restaurant"},{"name":"네네치킨강남대점","tel":"031-274-1166","addr":"경기도 용인시 기흥구 상하동 633-3번지 그린타워 108호","indutype":"일반휴게음식 - 스넥","category":"restaurant"},{"name":"메리제이파티","tel":"031-284-4439","addr":"경기도 용인시 기흥구 상하동 633-3번지 그린타워 104호","indutype":"일반휴게음식 - 일반한식","category":"restaurant"},{"name":"자연푸드","tel":"031-274-2766","addr":"경기도 용인시 기흥구 상하동 633-3번지 그린타워 111호","indutype":"일반휴게음식 - 일반한식","category":"restaurant"},{"name":"집밥 나미네","tel":"","addr":"경기도 용인시 기흥구 상하동 633-3번지 그린타워 1층 107호","indutype":"일반휴게음식 - 일반한식","category":"restaurant"},{"name":"차칸곱창","tel":"031-284-5581","addr":"경기도 용인시 기흥구 상하동 633-3번지 그린타워 106호","indutype":"일반휴게음식 - 일반한식","category":"restaurant"},{"name":"치킨플러스 상하점","tel":"031-286-7759","addr":"경기도 용인시 기흥구 상하동 633-3번지 그린타워 1층 110호","indutype":"일반휴게음식 - 일반한식","category":"restaurant"},{"name":"페리카나(강남대점)","tel":"031-284-9292","addr":"경기도 용인시 기흥구 상하동 633-3번지 그린타워 102호","indutype":"일반휴게음식 - 스넥","category":"restaurant"}]},{"lat":"37.275737634","long":"127.14355094","imageIndex":4,"items":[{"name":"남도주먹고기","tel":"070-4214-4525","addr":"경기도 용인시 기흥구 상하동 482-19번지 그린프라자 103호","indutype":"일반휴게음식 - 일반한식","category":"restaurant"},{"name":"물고기자리","tel":"031-382-3941","addr":"경기도 용인시 기흥구 상하동 482-19번지 104호","indutype":"일반휴게음식 - 일식·회집","category":"restaurant"},{"name":"송도","tel":"031-284-4191","addr":"경기도 용인시 기흥구 상하동 482-19번지 1층","indutype":"일반휴게음식 - 일반한식","category":"restaurant"}]},{"lat":"37.255773755","long":"127.14107902","imageIndex":4,"items":[{"name":"달달하당","tel":"031-281-1253","addr":"경기도 용인시 기흥구 상하동 652번지 수원동마을쌍용스윗닷홈 상가동 1층 108호","indutype":"일반휴게음식 - 서양음식","category":"restaurant"},{"name":"런치n","tel":"031-1111-1111","addr":"경기도 용인시 기흥구 상하동 652번지 수원동마을쌍용스윗닷홈 상가동 106호","indutype":"일반휴게음식 - 일반한식","category":"restaurant"}]},{"lat":"37.275818163","long":"127.14402464","imageIndex":4,"items":[{"name":"또바기","tel":"031-286-9272","addr":"경기도 용인시 기흥구 상하동 483-1번지 어정프라자 107호","indutype":"일반휴게음식 - 일반한식","category":"restaurant"},{"name":"또봉이통닭 어정역점","tel":"031-283-8157","addr":"경기도 용인시 기흥구 상하동 483-1번지 어정프라자 상가동 1층 111호","indutype":"일반휴게음식 - 일반한식","category":"restaurant"},{"name":"뚱보막창","tel":"031-8005-7761","addr":"경기도 용인시 기흥구 상하동 483-1번지 어정프라자 113,114호","indutype":"일반휴게음식 - 일반한식","category":"restaurant"},{"name":"마당시즌2","tel":"031-286-0051","addr":"경기도 용인시 기흥구 상하동 483-1번지 어정프라자 303호","indutype":"일반휴게음식 - 일반한식","category":"restaurant"},{"name":"미소설렁탕","tel":"031-285-1662","addr":"경기도 용인시 기흥구 상하동 483-1번지 어정프라자 102호","indutype":"일반휴게음식 - 주점","category":"restaurant"},{"name":"미쓰꼬치","tel":"031-281-2889","addr":"경기도 용인시 기흥구 상하동 483-1번지 어정프라자 1층 102호","indutype":"일반휴게음식 - 일반한식","category":"restaurant"},{"name":"보드람치킨 어정역점","tel":"031-693-9282","addr":"경기도 용인시 기흥구 상하동 483-1번지 어정프라자 104호","indutype":"일반휴게음식 - 스넥","category":"restaurant"},{"name":"월선네","tel":"031-282-0003","addr":"경기도 용인시 기흥구 상하동 483-1번지 어정프라자 1층 112,116호","indutype":"일반휴게음식 - 일반한식","category":"restaurant"},{"name":"조영원족막골","tel":"031-275-3878","addr":"경기도 용인시 기흥구 상하동 483-1번지 어정프라자 109호 110호","indutype":"일반휴게음식 - 일반한식","category":"restaurant"},{"name":"진족발보쌈","tel":"031-333-9973","addr":"경기도 용인시 기흥구 상하동 483-1번지 어정프라자 1층 109,110호","indutype":"일반휴게음식 - 일반한식","category":"restaurant"}]},{"lat":"37.261407282","long":"127.13927435","imageIndex":4,"items":[{"name":"또봉이통닭","tel":"031-284-8333","addr":"경기도 용인시 기흥구 상하동 212-5번지 대림상가 101,102호","indutype":"일반휴게음식 - 스넥","category":"restaurant"},{"name":"카파커피","tel":"031-322-0447","addr":"경기도 용인시 기흥구 상하동 212-5번지 1층 107호","indutype":"일반휴게음식 - 서양음식","category":"restaurant"}]},{"lat":"37.258050877","long":"127.14319114","imageIndex":4,"items":[{"name":"마눌림숯불갈비,통닭","tel":"0000-0000-0000","addr":"경기도 용인시 기흥구 상하동 256-6번지 103호","indutype":"일반휴게음식 - 일반한식","category":"restaurant"},{"name":"바다이야기","tel":"031-275-8848","addr":"경기도 용인시 기흥구 상하동 256-6번지","indutype":"일반휴게음식 - 일식·회집","category":"restaurant"},{"name":"영빈관","tel":"031-282-3176","addr":"경기도 용인시 기흥구 상하동 256-6번지","indutype":"일반휴게음식 - 중국식","category":"restaurant"}]},{"lat":"37.274238532","long":"127.13874502","imageIndex":4,"items":[{"name":"망향비빔국수","tel":"031-287-1522","addr":"경기도 용인시 기흥구 상하동 465-3번지 갈곡프라자 101호","indutype":"일반휴게음식 - 일반한식","category":"restaurant"},{"name":"홍오빠대게","tel":"","addr":"경기도 용인시 기흥구 상하동 465-3번지","indutype":"일반휴게음식 - 일반한식","category":"restaurant"}]},{"lat":"37.273763108","long":"127.13688382","imageIndex":4,"items":[{"name":"모해커피031","tel":"031-281-1210","addr":"경기도 용인시 기흥구 상하동 631-1번지","indutype":"일반휴게음식 - 서양음식","category":"restaurant"}]},{"lat":"37.274020725","long":"127.14009762","imageIndex":4,"items":[{"name":"반달커피","tel":"","addr":"경기도 용인시 기흥구 상하동 462-6번지 1층","indutype":"일반휴게음식 - 서양음식","category":"restaurant"},{"name":"아우라지사또식당","tel":"031-281-2434","addr":"경기도 용인시 기흥구 상하동 462-6번지","indutype":"일반휴게음식 - 일반한식","category":"restaurant"}]},{"lat":"37.275044473","long":"127.14301972","imageIndex":4,"items":[{"name":"본가왕뼈감자탕 (어정역점)","tel":"031-284-7676","addr":"경기도 용인시 기흥구 상하동 485-5번지 1층","indutype":"일반휴게음식 - 일반한식","category":"restaurant"},{"name":"이철의생태랑동태랑","tel":"031-8005-6266","addr":"경기도 용인시 기흥구 상하동 485-5번지 1동 1층","indutype":"일반휴게음식 - 일반한식","category":"restaurant"},{"name":"풍천장어직판장","tel":"031-8005-8111","addr":"경기도 용인시 기흥구 상하동 485-5번지 2동 1층","indutype":"일반휴게음식 - 일반한식","category":"restaurant"}]},{"lat":"37.276630384","long":"127.14293246","imageIndex":4,"items":[{"name":"봉이네곱창","tel":"031-281-8878","addr":"경기도 용인시 기흥구 상하동 493번지","indutype":"일반휴게음식 - 일반한식","category":"restaurant"}]},{"lat":"37.258070347","long":"127.14196247","imageIndex":4,"items":[{"name":"블링블링","tel":"031-284-5677","addr":"경기도 용인시 기흥구 상하동 163-4번지 경원빌딩 지하1층","indutype":"일반휴게음식 - 일반한식","category":"restaurant"}]},{"lat":"37.259267797","long":"127.14274249","imageIndex":4,"items":[{"name":"서민정육점설렁탕","tel":"031-281-1335","addr":"경기도 용인시 기흥구 상하동 250-8번지 1층","indutype":"일반휴게음식 - 일반한식","category":"restaurant"}]},{"lat":"37.265853053","long":"127.13602428","imageIndex":4,"items":[{"name":"성동관","tel":"031-274-2399","addr":"경기도 용인시 기흥구 상하동 351번지 다동 1층","indutype":"일반휴게음식 - 중국식","category":"restaurant"},{"name":"쓰리플러스","tel":"","addr":"경기도 용인시 기흥구 상하동 351번지 가동 1층일부","indutype":"일반휴게음식 - 서양음식","category":"restaurant"}]},{"lat":"37.255960332","long":"127.14332253","imageIndex":4,"items":[{"name":"소래포구직판","tel":"031-281-7458","addr":"경기도 용인시 기흥구 상하동 148-2번지 101,102호 일부","indutype":"일반휴게음식 - 일식·회집","category":"restaurant"}]},{"lat":"37.266989634","long":"127.13487634","imageIndex":4,"items":[{"name":"소문난청담뼈해장국","tel":"031-223-5214","addr":"경기도 용인시 기흥구 상하동 354-8번지 1층","indutype":"일반휴게음식 - 일반한식","category":"restaurant"},{"name":"이구아나/(주)민제생태환경과학관","tel":"031-693-5530","addr":"경기도 용인시 기흥구 상하동 354-8번지","indutype":"일반휴게음식 - 일반한식","category":"restaurant"}]},{"lat":"37.253467215","long":"127.1409959","imageIndex":4,"items":[{"name":"속초코다리막국수","tel":"031-275-1515","addr":"경기도 용인시 기흥구 상하동 129번지 1층","indutype":"일반휴게음식 - 일반한식","category":"restaurant"}]},{"lat":"37.258600744","long":"127.14298925","imageIndex":4,"items":[{"name":"송탄이정부대찌개","tel":"031-281-3102","addr":"경기도 용인시 기흥구 상하동 242-1번지 1층 일부","indutype":"일반휴게음식 - 일반한식","category":"restaurant"},{"name":"오니버스(BUS)","tel":"","addr":"경기도 용인시 기흥구 상하동 242-1번지","indutype":"일반휴게음식 - 일반한식","category":"restaurant"},{"name":"회롱회롱(용인점)","tel":"070-8822-0702","addr":"경기도 용인시 기흥구 상하동 242-1번지 2층","indutype":"일반휴게음식 - 일반한식","category":"restaurant"}]},{"lat":"37.250216189","long":"127.14713286","imageIndex":4,"items":[{"name":"숲속도야지","tel":"031-281-5252","addr":"경기도 용인시 기흥구 상하동 54번지","indutype":"일반휴게음식 - 일반한식","category":"restaurant"}]},{"lat":"37.258384524","long":"127.14296631","imageIndex":4,"items":[{"name":"실로암죽김밥사랑","tel":"","addr":"경기도 용인시 기흥구 상하동 241-1번지 102호","indutype":"일반휴게음식 - 일반한식","category":"restaurant"}]},{"lat":"37.259800809","long":"127.14154856","imageIndex":4,"items":[{"name":"쌍령해장국(용인점)","tel":"031-281-8348","addr":"경기도 용인시 기흥구 상하동 247-2번지","indutype":"일반휴게음식 - 일반한식","category":"restaurant"}]},{"lat":"37.254904801","long":"127.14443651","imageIndex":4,"items":[{"name":"어수정평양냉면","tel":"031-282-1177","addr":"경기도 용인시 기흥구 상하동 117번지 1층","indutype":"일반휴게음식 - 일반한식","category":"restaurant"},{"name":"추계탕","tel":"031-281-2535","addr":"경기도 용인시 기흥구 상하동 117번지","indutype":"일반휴게음식 - 일반한식","category":"restaurant"}]},{"lat":"37.275710965","long":"127.14324646","imageIndex":4,"items":[{"name":"어정샤브샤브칼국수","tel":"031-284-0100","addr":"경기도 용인시 기흥구 상하동 482-13번지 1층","indutype":"일반휴게음식 - 일반한식","category":"restaurant"}]},{"lat":"37.252882294","long":"127.14035235","imageIndex":4,"items":[{"name":"온누리장작구이주식회사","tel":"031-693-9298","addr":"경기도 용인시 기흥구 상하동 129-2번지","indutype":"일반휴게음식 - 일반한식","category":"restaurant"}]},{"lat":"37.281236713","long":"127.14115939","imageIndex":4,"items":[{"name":"올커피앤티","tel":"031-717-9476","addr":"경기도 용인시 기흥구 상하동 506번지","indutype":"일반휴게음식 - 서양음식","category":"restaurant"}]},{"lat":"37.259070395","long":"127.14204322","imageIndex":4,"items":[{"name":"왕코네화로구이","tel":"031-283-0506","addr":"경기도 용인시 기흥구 상하동 244-5번지","indutype":"일반휴게음식 - 일반한식","category":"restaurant"}]},{"lat":"37.25579866","long":"127.13504845","imageIndex":4,"items":[{"name":"운봉소갈비살전문점/대가 유한회사","tel":"031-281-4533","addr":"경기도 용인시 기흥구 상하동 182번지","indutype":"일반휴게음식 - 일반한식","category":"restaurant"}]},{"lat":"37.261853786","long":"127.14271345","imageIndex":4,"items":[{"name":"육가네식당","tel":"031-282-8762","addr":"경기도 용인시 기흥구 상하동 579-1번지","indutype":"일반휴게음식 - 일반한식","category":"restaurant"}]},{"lat":"37.267042193","long":"127.13621802","imageIndex":4,"items":[{"name":"일곱빛깔 무지개백반","tel":"031-282-1160","addr":"경기도 용인시 기흥구 상하동 388-7번지 1층","indutype":"일반휴게음식 - 일반한식","category":"restaurant"}]},{"lat":"37.257437817","long":"127.14349436","imageIndex":4,"items":[{"name":"장어세상","tel":"031-282-9293","addr":"경기도 용인시 기흥구 상하동 157-1번지 1층","indutype":"일반휴게음식 - 일반한식","category":"restaurant"}]},{"lat":"37.262019539","long":"127.13965874","imageIndex":4,"items":[{"name":"천서리막국수","tel":"031-287-8686","addr":"경기도 용인시 기흥구 상하동 307-3번지 1층,지하1층일부","indutype":"일반휴게음식 - 일반한식","category":"restaurant"}]},{"lat":"37.261154448","long":"127.13974736","imageIndex":4,"items":[{"name":"청국장과보리밥","tel":"031-287-3323","addr":"경기도 용인시 기흥구 상하동 213-11번지 1층","indutype":"일반휴게음식 - 일반한식","category":"restaurant"},{"name":"청국장과보리밥","tel":"031-287-3323","addr":"경기도 용인시 기흥구 상하동 213-11번지 1층 외3필지","indutype":"일반휴게음식 - 일반한식","category":"restaurant"}]},{"lat":"37.261488128","long":"127.13948869","imageIndex":4,"items":[{"name":"카페 유익한공간","tel":"070-7848-9306","addr":"경기도 용인시 기흥구 상하동 213-2번지 외 1필지","indutype":"일반휴게음식 - 서양음식","category":"restaurant"}]},{"lat":"37.276819239","long":"127.14323724","imageIndex":4,"items":[{"name":"파찌네만두 어정점","tel":"031-275-2220","addr":"경기도 용인시 기흥구 상하동 491번지 가동 1층 101호","indutype":"일반휴게음식 - 일반한식","category":"restaurant"}]},{"lat":"37.273822943","long":"127.13971392","imageIndex":4,"items":[{"name":"피자어셈블(PIZZA ASSEMBLE)","tel":"","addr":"경기도 용인시 기흥구 상하동 462-4번지 1층","indutype":"일반휴게음식 - 서양음식","category":"restaurant"}]},{"lat":"37.274049005","long":"127.13901528","imageIndex":4,"items":[{"name":"하루비어 상하점","tel":"","addr":"경기도 용인시 기흥구 상하동 466-3번지 1층","indutype":"일반휴게음식 - 주점","category":"restaurant"}]},{"lat":"37.274299257","long":"127.14077462","imageIndex":4,"items":[{"name":"한국피자헛용인동백점","tel":"031-282-3058","addr":"경기도 용인시 기흥구 상하동 461번지 조영프라자 101,102호","indutype":"일반휴게음식 - 서양음식","category":"restaurant"}]},{"lat":"37.273492392","long":"127.13724413","imageIndex":4,"items":[{"name":"해마루","tel":"031-287-9792","addr":"경기도 용인시 기흥구 상하동 632-8번지","indutype":"일반휴게음식 - 일반한식","category":"restaurant"}]},{"lat":"37.259321406","long":"127.14312586","imageIndex":4,"items":[{"name":"호박집","tel":"031-283-0708","addr":"경기도 용인시 기흥구 상하동 250-4번지","indutype":"일반휴게음식 - 일반한식","category":"restaurant"}]},{"lat":"37.272880231","long":"127.13676951","imageIndex":4,"items":[{"name":"황후태후","tel":"031-281-0633","addr":"경기도 용인시 기흥구 상하동 631-4번지 1층","indutype":"일반휴게음식 - 일반한식","category":"restaurant"}]},{"lat":"37.261745169","long":"127.14313035","imageIndex":4,"items":[{"name":"훌랄라 바베큐치킨 상하점","tel":"031-693-8292","addr":"경기도 용인시 기흥구 상하동 299-3번지 205동 B01호","indutype":"일반휴게음식 - 일반한식","category":"restaurant"}]}]