[{"lat":"37.3339825768","long":"126.9575885244","imageIndex":0,"items":[{"name":"(주)디텍코리아","tel":"031-462-4747","addr":"경기도 의왕시 이동 311-3번지","indutype":"자동차정비 유지 - 자동차부품","category":"car"}]},{"lat":"37.3340367970","long":"126.9580059952","imageIndex":0,"items":[{"name":"금호타이어의왕","tel":"","addr":"경기도 의왕시 이동 313-10번지 201호","indutype":"자동차정비 유지 - 자동차시트·타이어","category":"car"}]},{"lat":"37.3361982548","long":"126.9554770489","imageIndex":0,"items":[{"name":"대원특장","tel":"031-462-1002","addr":"경기도 의왕시 이동 40-16번지","indutype":"자동차정비 유지 - 자동차부품","category":"car"},{"name":"동광로지스틱스","tel":"031-461-0059","addr":"경기도 의왕시 이동 40-16번지 의왕제1터미널구운영관 105호","indutype":"자동차판매 - 기타운송","category":"car"},{"name":"진보상사","tel":"031-461-7707","addr":"경기도 의왕시 이동 40-16번지 의왕제1터미널 경인ICD 1터미널 4군 한진정비고 내","indutype":"자동차정비 유지 - 자동차시트·타이어","category":"car"}]},{"lat":"37.3338384570","long":"126.9577014494","imageIndex":0,"items":[{"name":"유정상사","tel":"031-461-3164","addr":"경기도 의왕시 이동 311-4번지","indutype":"자동차정비 유지 - 자동차정비","category":"car"}]},{"lat":"37.3324535842","long":"126.9654202872","imageIndex":0,"items":[{"name":"의왕공업사(번호판제작소)","tel":"031-461-9514","addr":"경기도 의왕시 이동 545-1번지","indutype":"자동차정비 유지 - 가타자동차서비스","category":"car"}]},{"lat":"37.3298089701","long":"126.9528972015","imageIndex":0,"items":[{"name":"이오엘","tel":"070-8285-4389","addr":"경기도 의왕시 이동 218-79번지 행운빌 1층 103호","indutype":"자동차정비 유지 - 자동차부품","category":"car"}]},{"lat":"37.3340369036","long":"126.9582880920","imageIndex":0,"items":[{"name":"자동차마을","tel":"031-462-3604","addr":"경기도 의왕시 이동 313-1번지","indutype":"자동차정비 유지 - 자동차시트·타이어","category":"car"}]},{"lat":"37.3281768195","long":"126.9498970054","imageIndex":0,"items":[{"name":"제이디티(JDT)","tel":"","addr":"경기도 의왕시 이동 204-26번지 현대그린빌 302호","indutype":"자동차정비 유지 - 자동차부품","category":"car"}]},{"lat":"37.3341718553","long":"126.9577576692","imageIndex":0,"items":[{"name":"충남부품","tel":"031-451-1040","addr":"경기도 의왕시 이동 313-7번지","indutype":"자동차정비 유지 - 자동차부품","category":"car"}]},{"lat":"37.3295925147","long":"126.9524008837","imageIndex":4,"items":[{"name":"(주)행복푸드","tel":"","addr":"경기도 의왕시 이동 218-68번지 1층","indutype":"일반휴게음식 - 일반한식","category":"restaurant"}]},{"lat":"37.3382266887","long":"126.9584210288","imageIndex":4,"items":[{"name":"꽃게별곡","tel":"031-461-1690","addr":"경기도 의왕시 이동 347-1번지 1층","indutype":"일반휴게음식 - 일반한식","category":"restaurant"},{"name":"식도락","tel":"","addr":"경기도 의왕시 이동 347-1번지 1층","indutype":"일반휴게음식 - 일반한식","category":"restaurant"}]},{"lat":"37.3305581753","long":"126.9562252946","imageIndex":4,"items":[{"name":"덕성식당","tel":"031-461-8998","addr":"경기도 의왕시 이동 595번지 부곡덕성주유소 1층","indutype":"일반휴게음식 - 일반한식","category":"restaurant"}]},{"lat":"37.3297541225","long":"126.9510693540","imageIndex":4,"items":[{"name":"두꺼비","tel":"031-462-2623","addr":"경기도 의왕시 이동 218-40번지 그린빌 101호","indutype":"일반휴게음식 - 일반한식","category":"restaurant"}]},{"lat":"37.3290608170","long":"126.9521755769","imageIndex":4,"items":[{"name":"베이징","tel":"031-461-9887","addr":"경기도 의왕시 이동 204-1번지 금천빌딩 1층 101호","indutype":"일반휴게음식 - 중국식","category":"restaurant"}]},{"lat":"37.3296733303","long":"126.9517576860","imageIndex":4,"items":[{"name":"병천순대 나주곰탕","tel":"031-461-3834","addr":"경기도 의왕시 이동 218-56번지 101호","indutype":"일반휴게음식 - 일반한식","category":"restaurant"}]},{"lat":"37.3298987985","long":"126.9522539965","imageIndex":4,"items":[{"name":"복이랑아구랑","tel":"031-461-8894","addr":"경기도 의왕시 이동 218-63번지","indutype":"일반휴게음식 - 일반한식","category":"restaurant"}]},{"lat":"37.3303699437","long":"126.9587867261","imageIndex":4,"items":[{"name":"삼일푸드시스템","tel":"031-462-0832","addr":"경기도 의왕시 이동 614-1번지 의왕ICD제2터미널 지하층","indutype":"일반휴게음식 - 위탁급식업","category":"restaurant"}]},{"lat":"37.3361982548","long":"126.9554770489","imageIndex":4,"items":[{"name":"삼일푸드시스템1","tel":"031-462-4752","addr":"경기도 의왕시 이동 40-16번지 의왕아이시디 후생관 1층","indutype":"일반휴게음식 - 위탁급식업","category":"restaurant"}]},{"lat":"37.3295656711","long":"126.9528409467","imageIndex":4,"items":[{"name":"샛집","tel":"031-461-0466","addr":"경기도 의왕시 이동 218-77번지","indutype":"일반휴게음식 - 일반한식","category":"restaurant"}]},{"lat":"37.3297272004","long":"126.9513176035","imageIndex":4,"items":[{"name":"이동불백","tel":"031-461-9664","addr":"경기도 의왕시 이동 218-46번지 효창빌딩 101호","indutype":"일반휴게음식 - 일반한식","category":"restaurant"}]},{"lat":"37.3295655898","long":"126.9526491323","imageIndex":4,"items":[{"name":"카페큐브(Cafe CUBE)","tel":"070-7804-3505","addr":"경기도 의왕시 이동 218-74번지 현대블루빌 103호","indutype":"일반휴게음식 - 서양음식","category":"restaurant"}]},{"lat":"37.3296463824","long":"126.9519495190","imageIndex":4,"items":[{"name":"토속정","tel":"031-461-6634","addr":"경기도 의왕시 이동 218-59번지 102호","indutype":"일반휴게음식 - 일반한식","category":"restaurant"}]},{"lat":"37.3410902396","long":"126.9541423522","imageIndex":4,"items":[{"name":"홍성참숯갈비","tel":"031-462-9000","addr":"경기도 의왕시 이동 35번지","indutype":"일반휴게음식 - 일반한식","category":"restaurant"}]},{"lat":"37.3338952247","long":"126.9654534227","imageIndex":17,"items":[{"name":"경도산업","tel":"031-462-4111","addr":"경기도 의왕시 이동 509번지","indutype":"신변잡화 - 기타잡화","category":"other"}]},{"lat":"37.3285644339","long":"126.9502916402","imageIndex":17,"items":[{"name":"그린이앤씨","tel":"02-1588-1348","addr":"경기도 의왕시 이동 209-24번지 로즈하우스 204호","indutype":"용역 서비스 - 기타용역서비스","category":"other"}]},{"lat":"37.3285106023","long":"126.9508106979","imageIndex":17,"items":[{"name":"글로벌 냉난방","tel":"","addr":"경기도 의왕시 이동 204-19번지 서원하우스 102호","indutype":"용역 서비스 - 기타용역서비스","category":"other"}]},{"lat":"37.3290608170","long":"126.9521755769","imageIndex":17,"items":[{"name":"노벨교육사","tel":"031-386-9646","addr":"경기도 의왕시 이동 204-1번지 금천빌딩 202호","indutype":"서적문구 - 기타서적문구","category":"other"}]},{"lat":"37.3305581753","long":"126.9562252946","imageIndex":17,"items":[{"name":"덕성편의점","tel":"031-461-8998","addr":"경기도 의왕시 이동 595번지","indutype":"유통업 영리 - 편 의 점","category":"other"}]},{"lat":"37.3345590461","long":"126.9571142522","imageIndex":17,"items":[{"name":"매탄대리점","tel":"070-4100-6606","addr":"경기도 의왕시 이동 308번지","indutype":"유통업 영리 - 기타유통업","category":"other"},{"name":"미디어집","tel":"070-4829-8417","addr":"경기도 의왕시 이동 308번지 B109","indutype":"전기제품 - 가전제품","category":"other"},{"name":"새현대콘테이너","tel":"031-462-2454","addr":"경기도 의왕시 이동 308번지","indutype":"건축자재 - 기타건축자재","category":"other"}]},{"lat":"37.3320387160","long":"126.9641792999","imageIndex":17,"items":[{"name":"모감주나무공방","tel":"","addr":"경기도 의왕시 이동 562-1번지 2동","indutype":"문화.취미 - 문화취미기타","category":"other"}]},{"lat":"37.3416418559","long":"126.9592541062","imageIndex":17,"items":[{"name":"아이플라워","tel":"","addr":"경기도 의왕시 이동 15번지","indutype":"문화.취미 - 화원","category":"other"}]},{"lat":"37.3282041463","long":"126.9505626833","imageIndex":17,"items":[{"name":"의왕종합보수공사","tel":"","addr":"경기도 의왕시 이동 204-22번지 1층","indutype":"용역 서비스 - 기타용역서비스","category":"other"}]},{"lat":"37.3289254503","long":"126.9516792110","imageIndex":17,"items":[{"name":"제이엠씨프린팅","tel":"033-241-5215","addr":"경기도 의왕시 이동 204-5번지 오창하우스 306호","indutype":"사무통신 - 컴퓨터","category":"other"}]},{"lat":"37.3338412490","long":"126.9657242618","imageIndex":17,"items":[{"name":"좋은아침","tel":"031-462-1208","addr":"경기도 의왕시 이동 510번지","indutype":"건축자재 - 인테리어전문","category":"other"}]},{"lat":"37.3347303571","long":"126.9574188157","imageIndex":17,"items":[{"name":"주식회사채움스토리지(의왕점)","tel":"031-462-8887","addr":"경기도 의왕시 이동 317-2번지","indutype":"용역 서비스 - 보관및 창고업","category":"other"}]},{"lat":"37.3286449212","long":"126.9489488990","imageIndex":17,"items":[{"name":"청수양행","tel":"031-461-3706","addr":"경기도 의왕시 이동 207-1번지","indutype":"용역 서비스 - 기타용역서비스","category":"other"}]},{"lat":"37.3341193209","long":"126.9619553065","imageIndex":17,"items":[{"name":"카페다 서비스센터","tel":"","addr":"경기도 의왕시 이동 383-2번지 2동","indutype":"수리서비스 - 기타수리서비스","category":"other"}]},{"lat":"37.3319493344","long":"126.9664473418","imageIndex":17,"items":[{"name":"파랑광고기획","tel":"031-382-6667","addr":"경기도 의왕시 이동 541번지 B동 1층","indutype":"건축자재 - 인테리어전문","category":"other"}]},{"lat":"37.3331200889","long":"126.9646413783","imageIndex":17,"items":[{"name":"현대자원앤폐기물","tel":"","addr":"경기도 의왕시 이동 517번지","indutype":"용역 서비스 - 종합용역","category":"other"}]},{"lat":"37.3350939239","long":"126.9665586631","imageIndex":16,"items":[{"name":"다솜어린이집[아이행복]","tel":"031-462-1007","addr":"경기도 의왕시 이동 501-1번지","indutype":"학원 - 유아원","category":"study"}]},{"lat":"37.3340030871","long":"126.9646409306","imageIndex":7,"items":[{"name":"두레연","tel":"031-461-8666","addr":"경기도 의왕시 이동 504번지","indutype":"음료식품 - 기타음료식품","category":"food"}]},{"lat":"37.3410902396","long":"126.9541423522","imageIndex":7,"items":[{"name":"종가집고기","tel":"031-462-9000","addr":"경기도 의왕시 이동 35번지","indutype":"음료식품 - 정육점","category":"food"}]},{"lat":"37.3386134780","long":"126.9567281169","imageIndex":7,"items":[{"name":"채소양채소군","tel":"031-461-5077","addr":"경기도 의왕시 이동 57번지","indutype":"음료식품 - 농·축·수산품","category":"food"}]},{"lat":"37.3345590461","long":"126.9571142522","imageIndex":13,"items":[{"name":"비코스","tel":"080-020-1200","addr":"경기도 의왕시 이동 308번지 E110호","indutype":"보건위생 - 화장품","category":"beauty"}]},{"lat":"37.3408918898","long":"126.9538377881","imageIndex":13,"items":[{"name":"성윤테크","tel":"031-455-7677","addr":"경기도 의왕시 이동 37번지","indutype":"보건위생 - 의료용품","category":"beauty"}]}]