[{"lat":"37.48500912","long":"126.81268341","imageIndex":13,"items":[{"name":"(주)태평양소사영업소한말선","tel":"032-342-4506","addr":"경기도 부천시 괴안동 128-1번지","indutype":"보건위생 - 화장품","category":"beauty"},{"name":"(주)태평양역곡특약점김향운","tel":"032-342-4506","addr":"경기도 부천시 괴안동 128-1번지 역곡프라자 203호","indutype":"보건위생 - 화장품","category":"beauty"},{"name":"(주)태평양역곡특약점박춘자","tel":"032-342-4506","addr":"경기도 부천시 괴안동 128-1번지 역곡프라자 203호","indutype":"보건위생 - 화장품","category":"beauty"},{"name":"(주)태평양역곡특약점이복희","tel":"032-342-4506","addr":"경기도 부천시 괴안동 128-1번지 역곡프라자 203호","indutype":"보건위생 - 화장품","category":"beauty"},{"name":"(주)태평양역곡특약점이효숙","tel":"032-342-4506","addr":"경기도 부천시 괴안동 128-1번지 역곡프라자 203호","indutype":"보건위생 - 화장품","category":"beauty"},{"name":"(주)태평양역곡특약점한현옥","tel":"032-342-4506","addr":"경기도 부천시 괴안동 128-1번지 역곡프라자 203호","indutype":"보건위생 - 화장품","category":"beauty"},{"name":"김정문알로에역곡지부","tel":"032-342-0447","addr":"경기도 부천시 괴안동 128-1번지 역곡프라자 202호","indutype":"보건위생 - 화장품","category":"beauty"},{"name":"아모레 카운셀러","tel":"032-342-4506","addr":"경기도 부천시 괴안동 128-1번지 역곡프라자 402호","indutype":"보건위생 - 화장품","category":"beauty"},{"name":"아모레 카운셀러","tel":"032-342-4506","addr":"경기도 부천시 괴안동 128-1번지 역곡프라자 203호","indutype":"보건위생 - 화장품","category":"beauty"},{"name":"아모레 카운셀러","tel":"032-342-4506","addr":"경기도 부천시 괴안동 128-1번지 역곡프라자 402호","indutype":"보건위생 - 화장품","category":"beauty"},{"name":"아모레 카운셀러","tel":"032-341-5493","addr":"경기도 부천시 괴안동 128-1번지 역곡프라자 203호","indutype":"보건위생 - 화장품","category":"beauty"},{"name":"아모레카운셀러","tel":"032-342-4506","addr":"경기도 부천시 괴안동 128-1번지 역곡프라자 402호","indutype":"보건위생 - 화장품","category":"beauty"},{"name":"아모레카운셀러","tel":"032-342-4506","addr":"경기도 부천시 괴안동 128-1번지 역곡프라자 402호","indutype":"보건위생 - 화장품","category":"beauty"},{"name":"아모레카운셀러","tel":"032-342-4506","addr":"경기도 부천시 괴안동 128-1번지 역곡프라자 402호","indutype":"보건위생 - 화장품","category":"beauty"},{"name":"아모레카운셀러","tel":"032-342-4506","addr":"경기도 부천시 괴안동 역곡프라자 203호","indutype":"보건위생 - 화장품","category":"beauty"},{"name":"아모레카운셀러","tel":"032-342-4506","addr":"경기도 부천시 괴안동 128-1번지 역곡프라자 203호","indutype":"보건위생 - 화장품","category":"beauty"},{"name":"아모레카운셀러","tel":"032-432-4506","addr":"경기도 부천시 괴안동 128-1번지 역곡프라자 402호","indutype":"보건위생 - 화장품","category":"beauty"},{"name":"아모레카운셀러","tel":"032-342-4506","addr":"경기도 부천시 괴안동 128-1번지 역곡프라자 402호","indutype":"보건위생 - 화장품","category":"beauty"},{"name":"아모레카운셀러","tel":"032-342-4506","addr":"경기도 부천시 괴안동 128-1번지 역곡프라자 402호","indutype":"보건위생 - 화장품","category":"beauty"},{"name":"아모레카운셀러","tel":"032-342-4506","addr":"경기도 부천시 괴안동 128-1번지 역곡프라자 402호","indutype":"보건위생 - 화장품","category":"beauty"},{"name":"아모레카운셀러","tel":"032-342-4506","addr":"경기도 부천시 괴안동 128-1번지 역곡프라자 402호","indutype":"보건위생 - 화장품","category":"beauty"},{"name":"아모레카운셀러","tel":"032-342-4506","addr":"경기도 부천시 괴안동 128-1번지 역곡프라자 402호","indutype":"보건위생 - 화장품","category":"beauty"},{"name":"아모레카운셀러","tel":"032-342-4506","addr":"경기도 부천시 괴안동 128-1번지 역곡프라자","indutype":"보건위생 - 화장품","category":"beauty"},{"name":"아모레카운셀러","tel":"032-342-4506","addr":"경기도 부천시 괴안동 128-1번지 역곡프라자 402호","indutype":"보건위생 - 화장품","category":"beauty"},{"name":"아모레카운셀러","tel":"032-342-4506","addr":"경기도 부천시 괴안동 128-1번지 역곡프라자 402호","indutype":"보건위생 - 화장품","category":"beauty"},{"name":"아모레카운셀러","tel":"032-342-4506","addr":"경기도 부천시 괴안동 128-1번지 역곡프라자 402호","indutype":"보건위생 - 화장품","category":"beauty"},{"name":"아모레카운셀러","tel":"032-342-4506","addr":"경기도 부천시 괴안동 128-1번지 역곡프라자 402호","indutype":"보건위생 - 화장품","category":"beauty"},{"name":"아모레카운셀러","tel":"032-342-4506","addr":"경기도 부천시 괴안동 128-1번지 역곡프라자 402호","indutype":"보건위생 - 화장품","category":"beauty"},{"name":"아모레카운셀러","tel":"032-342-4506","addr":"경기도 부천시 괴안동 128-1번지 역곡프라자 203호","indutype":"보건위생 - 화장품","category":"beauty"},{"name":"아모레카운셀러","tel":"032-342-4506","addr":"경기도 부천시 괴안동 128-1번지 역곡프라자 402호","indutype":"보건위생 - 화장품","category":"beauty"},{"name":"아모레카운셀러","tel":"032-342-4506","addr":"경기도 부천시 괴안동 128-1번지 역곡프라자 402호","indutype":"보건위생 - 화장품","category":"beauty"},{"name":"아모레카운셀러","tel":"032-342-4506","addr":"경기도 부천시 괴안동 128-1번지 역곡프라자 402호","indutype":"보건위생 - 화장품","category":"beauty"},{"name":"아모레카운셀러","tel":"032-342-4506","addr":"경기도 부천시 괴안동 128-1번지 역곡프라자 402호","indutype":"보건위생 - 화장품","category":"beauty"},{"name":"아모레카운셀러","tel":"032-342-4506","addr":"경기도 부천시 괴안동 128-1번지 역곡프라자 402호","indutype":"보건위생 - 화장품","category":"beauty"},{"name":"아모레카운셀러","tel":"032-342-4506","addr":"경기도 부천시 괴안동 128-1번지 역곡프라자 402호","indutype":"보건위생 - 화장품","category":"beauty"},{"name":"아모레카운셀러","tel":"032-342-4506","addr":"경기도 부천시 괴안동 128-1번지 역곡프라자 203호","indutype":"보건위생 - 화장품","category":"beauty"},{"name":"아모레카운셀러","tel":"032-342-4506","addr":"경기도 부천시 괴안동 128-1번지 역곡프라자 402호","indutype":"보건위생 - 화장품","category":"beauty"},{"name":"아모레카운셀러","tel":"032-342-4506","addr":"경기도 부천시 괴안동 128-1번지 역곡프라자 203호","indutype":"보건위생 - 화장품","category":"beauty"},{"name":"아모레카운셀러","tel":"032-342-4506","addr":"경기도 부천시 괴안동 128-1번지 역곡프라자 203호","indutype":"보건위생 - 화장품","category":"beauty"},{"name":"아모레카운셀러","tel":"032-342-4506","addr":"경기도 부천시 괴안동 128-1번지 역곡프라자 203호","indutype":"보건위생 - 화장품","category":"beauty"},{"name":"아모레카운셀러","tel":"032-342-4506","addr":"경기도 부천시 괴안동 128-1번지 역곡프라자 제 2층 203호","indutype":"보건위생 - 화장품","category":"beauty"},{"name":"아모레카운셀러","tel":"032-342-4506","addr":"경기도 부천시 괴안동 128-1번지 역곡프라자 203호","indutype":"보건위생 - 화장품","category":"beauty"},{"name":"아모레카운셀러","tel":"032-342-4506","addr":"경기도 부천시 괴안동 128-1번지 역곡프라자 203호","indutype":"보건위생 - 화장품","category":"beauty"},{"name":"아모레카운셀러","tel":"032-342-4506","addr":"경기도 부천시 괴안동 128-1번지 역곡프라자 203호","indutype":"보건위생 - 화장품","category":"beauty"},{"name":"아모레카운셀러","tel":"032-342-4506","addr":"경기도 부천시 괴안동 128-1번지 역곡프라자 203호","indutype":"보건위생 - 화장품","category":"beauty"},{"name":"아모레카운셀러","tel":"032-342-4506","addr":"경기도 부천시 괴안동 128-1번지 역곡프라자 203호","indutype":"보건위생 - 화장품","category":"beauty"},{"name":"아모레카운셀러","tel":"032-342-4506","addr":"경기도 부천시 괴안동 128-1번지 역곡프라자 203호","indutype":"보건위생 - 화장품","category":"beauty"},{"name":"아모레카운셀러","tel":"032-342-4506","addr":"경기도 부천시 괴안동 128-1번지 역곡프라자 203호","indutype":"보건위생 - 화장품","category":"beauty"},{"name":"아모레카운셀러","tel":"032-342-4506","addr":"경기도 부천시 괴안동 128-1번지 역곡프라자 203호","indutype":"보건위생 - 화장품","category":"beauty"},{"name":"아모레카운셀러","tel":"032-342-4506","addr":"경기도 부천시 괴안동 128-1번지 역곡프라자 203호","indutype":"보건위생 - 화장품","category":"beauty"},{"name":"아모레카운셀러","tel":"032-342-4506","addr":"경기도 부천시 괴안동 128-1번지 역곡프라자 203호","indutype":"보건위생 - 화장품","category":"beauty"},{"name":"아모레카운셀러","tel":"032-342-4506","addr":"경기도 부천시 괴안동 128-1번지 역곡프라자 203호","indutype":"보건위생 - 화장품","category":"beauty"},{"name":"아모레카운셀러","tel":"032-342-4506","addr":"경기도 부천시 괴안동 128-1번지 역곡프라자 203호","indutype":"보건위생 - 화장품","category":"beauty"},{"name":"아모레카운셀러","tel":"032-342-4506","addr":"경기도 부천시 괴안동 128-1번지 역곡프라자 203호","indutype":"보건위생 - 화장품","category":"beauty"},{"name":"아모레카운셀러","tel":"032-342-4506","addr":"경기도 부천시 괴안동 128-1번지 역곡프라자 203호","indutype":"보건위생 - 화장품","category":"beauty"},{"name":"아모레카운셀러","tel":"032-342-4506","addr":"경기도 부천시 괴안동 128-1번지 역곡프라자 203호","indutype":"보건위생 - 화장품","category":"beauty"},{"name":"아모레카운셀러","tel":"032-342-4506","addr":"경기도 부천시 괴안동 128-1번지 역곡프라자 203호","indutype":"보건위생 - 화장품","category":"beauty"},{"name":"아모레카운셀러","tel":"032-342-4506","addr":"경기도 부천시 괴안동 128-1번지 역곡프라자 203호","indutype":"보건위생 - 화장품","category":"beauty"},{"name":"아모레카운셀러","tel":"032-342-4506","addr":"경기도 부천시 괴안동 128-1번지 역곡프라자 402호","indutype":"보건위생 - 화장품","category":"beauty"},{"name":"아모레카운셀러","tel":"032-342-4506","addr":"경기도 부천시 괴안동 128-1번지 역곡프라자 402호","indutype":"보건위생 - 화장품","category":"beauty"},{"name":"아모레카운셀러","tel":"032-342-4506","addr":"경기도 부천시 괴안동 128-1번지 역곡프라자 402호","indutype":"보건위생 - 화장품","category":"beauty"},{"name":"아모레카운셀러","tel":"032-342-4506","addr":"경기도 부천시 괴안동 128-1번지 역곡프라자 203호","indutype":"보건위생 - 화장품","category":"beauty"},{"name":"아모레카운셀러","tel":"032-342-4506","addr":"경기도 부천시 괴안동 128-1번지 역곡프라자 203호","indutype":"보건위생 - 화장품","category":"beauty"},{"name":"아모레카운셀러","tel":"032-342-4506","addr":"경기도 부천시 괴안동 128-1번지 역곡프라자 203호","indutype":"보건위생 - 화장품","category":"beauty"},{"name":"아모레카운셀러","tel":"032-342-4506","addr":"경기도 부천시 괴안동 128-1번지 역곡프라자 402호","indutype":"보건위생 - 화장품","category":"beauty"},{"name":"아모레카운셀러","tel":"032-342-4506","addr":"경기도 부천시 괴안동 128-1번지 역곡프라자 402호","indutype":"보건위생 - 화장품","category":"beauty"},{"name":"아모레카운셀러","tel":"032-342-4506","addr":"경기도 부천시 괴안동 128-1번지 역곡프라자 402호","indutype":"보건위생 - 화장품","category":"beauty"},{"name":"아모레카운셀러","tel":"032-342-4506","addr":"경기도 부천시 괴안동 128-1번지 역곡프라자 402호","indutype":"보건위생 - 화장품","category":"beauty"},{"name":"아모레카운셀러","tel":"032-342-4506","addr":"경기도 부천시 괴안동 128-1번지 역곡프라자 402호","indutype":"보건위생 - 화장품","category":"beauty"},{"name":"아모레카운셀러","tel":"032-342-4506","addr":"경기도 부천시 괴안동 128-1번지 역곡프라자 402호","indutype":"보건위생 - 화장품","category":"beauty"},{"name":"아모레카운셀러","tel":"032-342-4506","addr":"경기도 부천시 괴안동 128-1번지 역곡프라자 402호","indutype":"보건위생 - 화장품","category":"beauty"},{"name":"아모레카운셀러","tel":"032-342-4506","addr":"경기도 부천시 괴안동 128-1번지 역곡프라자 402호","indutype":"보건위생 - 화장품","category":"beauty"},{"name":"아모레카운셀러","tel":"032-342-4506","addr":"경기도 부천시 괴안동 128-1번지 역곡프라자 402호","indutype":"보건위생 - 화장품","category":"beauty"},{"name":"아모레카운셀터","tel":"032-342-4507","addr":"경기도 부천시 괴안동 128-1번지 역곡프라자 203호","indutype":"보건위생 - 화장품","category":"beauty"},{"name":"아모레카운셀터","tel":"032-342-4506","addr":"경기도 부천시 괴안동 128-1번지 역곡프라자 203호","indutype":"보건위생 - 화장품","category":"beauty"},{"name":"아모레카운셀터","tel":"032-342-4506","addr":"경기도 부천시 괴안동 128-1번지 역곡프라자 203호","indutype":"보건위생 - 화장품","category":"beauty"},{"name":"아모레카운셀터","tel":"032-342-4506","addr":"경기도 부천시 괴안동 128-1번지 역곡프라자 402호","indutype":"보건위생 - 화장품","category":"beauty"},{"name":"아모레카운셀터","tel":"032-342-4506","addr":"경기도 부천시 괴안동 128-1번지 역곡프라자 203호","indutype":"보건위생 - 화장품","category":"beauty"},{"name":"아모레카운셀터","tel":"032-342-4506","addr":"경기도 부천시 괴안동 128-1번지 역곡프라자 203호","indutype":"보건위생 - 화장품","category":"beauty"},{"name":"아모레카운셀터","tel":"032-342-4506","addr":"경기도 부천시 괴안동 128-1번지 역곡프라자 203호","indutype":"보건위생 - 화장품","category":"beauty"},{"name":"착한피부","tel":"","addr":"경기도 부천시 괴안동 128-1번지 역곡프라자 206호","indutype":"보건위생 - 피부미용실","category":"beauty"}]},{"lat":"37.475955207","long":"126.80782253","imageIndex":13,"items":[{"name":"64-1 머리깍는사람들","tel":"032-246-6969","addr":"경기도 부천시 괴안동 155-2번지 2층","indutype":"보건위생 - 미용원","category":"beauty"}]},{"lat":"37.484348562","long":"126.81093259","imageIndex":13,"items":[{"name":"LOVEME네일","tel":"032-342-1722","addr":"경기도 부천시 괴안동 113-1,2역곡하이뷰117","indutype":"보건위생 - 기타대인서비스","category":"beauty"},{"name":"금강보청기","tel":"032-654-1533","addr":"경기도 부천시 괴안동 113-1번지 역곡하이뷰 상가 115호","indutype":"보건위생 - 의료용품","category":"beauty"},{"name":"박승철헤어스튜디오 역곡점","tel":"032-351-6636","addr":"경기도 부천시 괴안동 113-1번지 역곡하이뷰 2층 203호","indutype":"보건위생 - 미용원","category":"beauty"},{"name":"엣지오브넬","tel":"032-344-4141","addr":"경기도 부천시 괴안동 113-1번지 역곡하이뷰 119호","indutype":"보건위생 - 피부미용실","category":"beauty"},{"name":"예쁠스킨앤바디(예쁠스킨&바디)","tel":"032-345-5700","addr":"경기도 부천시 괴안동 113-1번지 역곡하이뷰 3층 308호","indutype":"보건위생 - 피부미용실","category":"beauty"},{"name":"이종태 맞춤가발","tel":"032-347-2369","addr":"경기도 부천시 괴안동 113-1번지 역곡하이뷰 6층 606호","indutype":"보건위생 - 미용재료","category":"beauty"},{"name":"핸디워크(HANDIWORK)","tel":"02-6340-5385","addr":"경기도 부천시 괴안동 113-1번지 역곡하이뷰 118호","indutype":"보건위생 - 화장품","category":"beauty"}]},{"lat":"37.473930254","long":"126.80379196","imageIndex":13,"items":[{"name":"W헤어샵","tel":"032-345-6917","addr":"경기도 부천시 괴안동 238-2번지 1층","indutype":"보건위생 - 미용원","category":"beauty"},{"name":"아이마트안경콘택트","tel":"032-341-2992","addr":"경기도 부천시 괴안동 238-2.1층102~103호","indutype":"보건위생 - 안경","category":"beauty"}]},{"lat":"37.484014378","long":"126.81604393","imageIndex":13,"items":[{"name":"가디스헤어","tel":"070-4642-0152","addr":"경기도 부천시 괴안동 166-1번지","indutype":"보건위생 - 미용원","category":"beauty"}]},{"lat":"37.478957386","long":"126.80354121","imageIndex":13,"items":[{"name":"강스킨바디","tel":"032-344-9778","addr":"경기도 부천시 괴안동 28-2번지 기풍빌딩 2층 202호","indutype":"보건위생 - 피부미용실","category":"beauty"}]},{"lat":"37.477740767","long":"126.81435243","imageIndex":13,"items":[{"name":"권민선뷰티헤어","tel":"032-345-7554","addr":"경기도 부천시 괴안동 251-1번지 범박휴먼시아1단지 상가동 102호","indutype":"보건위생 - 미용원","category":"beauty"}]},{"lat":"37.483347506","long":"126.81034723","imageIndex":13,"items":[{"name":"글라스스토리","tel":"032-349-2172","addr":"경기도 부천시 괴안동 109-5번지 조양프라자 1층","indutype":"보건위생 - 안경","category":"beauty"}]},{"lat":"37.474236134","long":"126.80351983","imageIndex":13,"items":[{"name":"김실's.stylishhair","tel":"032-343-3024","addr":"경기도 부천시 괴안동 235-5번지 1층","indutype":"보건위생 - 미용원","category":"beauty"}]},{"lat":"37.484373376","long":"126.81516113","imageIndex":13,"items":[{"name":"김영주헤어샵","tel":"032-343-8904","addr":"경기도 부천시 괴안동 130-9번지","indutype":"보건위생 - 미용원","category":"beauty"}]},{"lat":"37.482652211","long":"126.8094106","imageIndex":13,"items":[{"name":"김정례헤어짱","tel":"032-343-9799","addr":"경기도 부천시 괴안동 110-30번지","indutype":"보건위생 - 미용원","category":"beauty"}]},{"lat":"37.487207139","long":"126.81810513","imageIndex":13,"items":[{"name":"김정심헤어스토리","tel":"032-351-8682","addr":"경기도 부천시 괴안동 188-7번지 오즈빌딩","indutype":"보건위생 - 미용원","category":"beauty"}]},{"lat":"37.485350815","long":"126.8179288","imageIndex":13,"items":[{"name":"까까정헤어샵","tel":"032-343-2715","addr":"경기도 부천시 괴안동 184-10번지","indutype":"보건위생 - 미용원","category":"beauty"}]},{"lat":"37.4862101","long":"126.82007496","imageIndex":13,"items":[{"name":"꿈나무아동종합상담소","tel":"032-347-7205","addr":"경기도 부천시 괴안동 185-35번지","indutype":"보건위생 - 기타대인서비스","category":"beauty"}]},{"lat":"37.485040056","long":"126.81512555","imageIndex":13,"items":[{"name":"끄르모아 남성헤어샵","tel":"02-1111-1111","addr":"경기도 부천시 괴안동 168-7번지 1층","indutype":"보건위생 - 미용원","category":"beauty"}]},{"lat":"37.485208319","long":"126.81329346","imageIndex":13,"items":[{"name":"남대문안경마트","tel":"032-348-2020","addr":"경기도 부천시 괴안동 128-2번지 두진쇼핑 1층","indutype":"보건위생 - 안경","category":"beauty"},{"name":"온누리보석사우나","tel":"032-342-1177","addr":"경기도 부천시 괴안동 128-2번지 온누리프라자 2층","indutype":"보건위생 - 사우나","category":"beauty"}]},{"lat":"37.478566754","long":"126.80701305","imageIndex":13,"items":[{"name":"네일예쁨","tel":"","addr":"경기도 부천시 괴안동 71-31번지 1층","indutype":"보건위생 - 피부미용실","category":"beauty"},{"name":"뷰티스토리","tel":"","addr":"경기도 부천시 괴안동 71-31번지","indutype":"보건위생 - 화장품","category":"beauty"}]},{"lat":"37.478123778","long":"126.81160423","imageIndex":13,"items":[{"name":"네일창고(NAIL CK)","tel":"070-7078-9060","addr":"경기도 부천시 괴안동 97-21번지 드림앤하우스 401호","indutype":"보건위생 - 미용재료","category":"beauty"}]},{"lat":"37.483148661","long":"126.80996333","imageIndex":13,"items":[{"name":"다비치안경 역곡역남부시장옆점","tel":"032-347-6177","addr":"경기도 부천시 괴안동 109-3번지 1층 101호,201호","indutype":"보건위생 - 안경","category":"beauty"}]},{"lat":"37.47934832","long":"126.81110366","imageIndex":13,"items":[{"name":"다사랑헤어라인","tel":"032-344-4876","addr":"경기도 부천시 괴안동 100-26번지 1층","indutype":"보건위생 - 미용원","category":"beauty"}]},{"lat":"37.482427776","long":"126.80990865","imageIndex":13,"items":[{"name":"다조아 건강센터","tel":"070-7355-5589","addr":"경기도 부천시 괴안동 108번지 청수빌딩 6층","indutype":"보건위생 - 피부미용실","category":"beauty"},{"name":"못된손톱","tel":"032-341-5777","addr":"경기도 부천시 괴안동 108번지 청수빌딩 1층 1호","indutype":"보건위생 - 화장품","category":"beauty"},{"name":"큐사랑염색","tel":"","addr":"경기도 부천시 괴안동 108번지 청수빌딩 1층","indutype":"보건위생 - 미용원","category":"beauty"}]},{"lat":"37.481068704","long":"126.80532194","imageIndex":13,"items":[{"name":"대박","tel":"032-000-0000","addr":"경기도 부천시 괴안동 3번지 지하","indutype":"보건위생 - 미용재료","category":"beauty"}]},{"lat":"37.480926811","long":"126.812185","imageIndex":13,"items":[{"name":"대현미용실","tel":"032-343-4170","addr":"경기도 부천시 괴안동 105-4번지","indutype":"보건위생 - 미용원","category":"beauty"}]},{"lat":"37.474434028","long":"126.80332712","imageIndex":13,"items":[{"name":"더나비","tel":"032-348-5113","addr":"경기도 부천시 괴안동 235-3번지 1층","indutype":"보건위생 - 화장품","category":"beauty"}]},{"lat":"37.485793484","long":"126.81868525","imageIndex":13,"items":[{"name":"더스타일(The STYLE)","tel":"031-344-4179","addr":"경기도 부천시 괴안동 184-11번지 101호","indutype":"보건위생 - 미용원","category":"beauty"}]},{"lat":"37.484620344","long":"126.81184772","imageIndex":13,"items":[{"name":"더페이스샵 역곡점","tel":"032-348-7003","addr":"경기도 부천시 괴안동 113-8번지 역곡noon빌딩 1층 3호","indutype":"보건위생 - 화장품","category":"beauty"},{"name":"멋진인생에스테틱두피센터역곡점","tel":"032-341-7071","addr":"경기도 부천시 괴안동 113-8번지 역곡유림빌딩 603호","indutype":"보건위생 - 피부미용실","category":"beauty"},{"name":"여우네","tel":"032-342-0710","addr":"경기도 부천시 괴안동 113-8번지 역곡noon빌딩 110호","indutype":"보건위생 - 미용재료","category":"beauty"},{"name":"지노헤어","tel":"032-349-3493","addr":"경기도 부천시 괴안동 113-8번지 역곡noon빌딩 2층 201호","indutype":"보건위생 - 미용원","category":"beauty"}]},{"lat":"37.476954803","long":"126.80751469","imageIndex":13,"items":[{"name":"도원미용실","tel":"032-347-4543","addr":"경기도 부천시 괴안동 86-4번지 그린홈프라자 106호","indutype":"보건위생 - 미용원","category":"beauty"},{"name":"루체헤어","tel":"032-341-1888","addr":"경기도 부천시 괴안동 86-4번지 그린홈프라자 1층 114호","indutype":"보건위생 - 미용원","category":"beauty"}]},{"lat":"37.478706203","long":"126.80962427","imageIndex":13,"items":[{"name":"또또미용실","tel":"032-343-8334","addr":"경기도 부천시 괴안동 98번지 삼성펠리스9차 1층","indutype":"보건위생 - 미용원","category":"beauty"}]},{"lat":"37.484819456","long":"126.81240123","imageIndex":13,"items":[{"name":"런던헤어","tel":"032-666-4400","addr":"경기도 부천시 괴안동 128번지 1층 103","indutype":"보건위생 - 미용원","category":"beauty"},{"name":"제이아트페이스","tel":"","addr":"경기도 부천시 괴안동 128번지 4층 403호","indutype":"보건위생 - 화장품","category":"beauty"}]},{"lat":"37.478318869","long":"126.8096818","imageIndex":13,"items":[{"name":"레드헤어","tel":"032-345-1327","addr":"경기도 부천시 괴안동 92-3번지","indutype":"보건위생 - 미용원","category":"beauty"}]},{"lat":"37.483124022","long":"126.8114332","imageIndex":13,"items":[{"name":"레몬","tel":"032-342-1468","addr":"경기도 부천시 괴안동 115번지 하이트프라자 102호","indutype":"보건위생 - 화장품","category":"beauty"},{"name":"살롱드팜","tel":"032-214-2678","addr":"경기도 부천시 괴안동 115번지 하이트프라자 2층 201호","indutype":"보건위생 - 미용원","category":"beauty"}]},{"lat":"37.482928486","long":"126.81309571","imageIndex":13,"items":[{"name":"레오헤어","tel":"032-342-8348","addr":"경기도 부천시 괴안동 116-6번지","indutype":"보건위생 - 미용원","category":"beauty"}]},{"lat":"37.480149561","long":"126.80524522","imageIndex":13,"items":[{"name":"루디아","tel":"032-341-7511","addr":"경기도 부천시 괴안동 40번지 화성연립 E동 202호 루디아화장품","indutype":"보건위생 - 화장품","category":"beauty"}]},{"lat":"37.484236408","long":"126.81401953","imageIndex":13,"items":[{"name":"루시아미용실","tel":"032-344-6684","addr":"경기도 부천시 괴안동 130-3번지 대신맨션 1층","indutype":"보건위생 - 미용원","category":"beauty"}]},{"lat":"37.488678639","long":"126.81995587","imageIndex":13,"items":[{"name":"리틀조미용실","tel":"032-349-2818","addr":"경기도 부천시 괴안동 200-5번지 1층","indutype":"보건위생 - 미용원","category":"beauty"}]},{"lat":"37.483403682","long":"126.81730045","imageIndex":13,"items":[{"name":"린헤어","tel":"032-342-2585","addr":"경기도 부천시 괴안동 165-12번지","indutype":"보건위생 - 미용원","category":"beauty"}]},{"lat":"37.478871532","long":"126.80607389","imageIndex":13,"items":[{"name":"마리헤어","tel":"070-8468-4383","addr":"경기도 부천시 괴안동 71-18번지","indutype":"보건위생 - 미용원","category":"beauty"}]},{"lat":"37.483485771","long":"126.81226894","imageIndex":13,"items":[{"name":"마임 역곡남부","tel":"032-343-2655","addr":"경기도 부천시 괴안동 115-5번지 2층","indutype":"보건위생 - 화장품","category":"beauty"},{"name":"마임역곡남부소망지사","tel":"032-343-2655","addr":"경기도 부천시 괴안동 115-5번지 2층 일부","indutype":"보건위생 - 화장품","category":"beauty"}]},{"lat":"37.478195253","long":"126.81123097","imageIndex":13,"items":[{"name":"마임향숙","tel":"032-8311-6153","addr":"경기도 부천시 괴안동 97-20번지 현대빌라 가동 302호","indutype":"보건위생 - 화장품","category":"beauty"}]},{"lat":"37.478265308","long":"126.80998719","imageIndex":13,"items":[{"name":"맑은피부관리샵","tel":"","addr":"경기도 부천시 괴안동 97번지 1층 일부호","indutype":"보건위생 - 피부미용실","category":"beauty"},{"name":"미화뷰티헤어","tel":"031-344-0504","addr":"경기도 부천시 괴안동 97번지 1층 103호","indutype":"보건위생 - 미용원","category":"beauty"}]},{"lat":"37.476406113","long":"126.80807008","imageIndex":13,"items":[{"name":"맨투맨","tel":"032-349-4555","addr":"경기도 부천시 괴안동 150-19번지 효림빌딩 102호","indutype":"보건위생 - 미용원","category":"beauty"},{"name":"일공공일안경원(괴안범박점)","tel":"032-351-3270","addr":"경기도 부천시 괴안동 150-19번지","indutype":"보건위생 - 안경","category":"beauty"}]},{"lat":"37.484928568","long":"126.81870999","imageIndex":13,"items":[{"name":"머리가예쁜사람들","tel":"032-344-8134","addr":"경기도 부천시 괴안동 184-30","indutype":"보건위생 - 미용원","category":"beauty"}]},{"lat":"37.483348408","long":"126.81090123","imageIndex":13,"items":[{"name":"머리못하는집","tel":"032-343-9284","addr":"경기도 부천시 괴안동 109-8번지","indutype":"보건위생 - 미용원","category":"beauty"}]},{"lat":"37.47818372","long":"126.80968215","imageIndex":13,"items":[{"name":"머리박사","tel":"032-348-2122","addr":"경기도 부천시 괴안동 92-17번지 1층","indutype":"보건위생 - 미용원","category":"beauty"}]},{"lat":"37.474541956","long":"126.80321379","imageIndex":13,"items":[{"name":"머리터","tel":"032-344-9738","addr":"경기도 부천시 괴안동 235-2번지 1층","indutype":"보건위생 - 미용원","category":"beauty"}]},{"lat":"37.477847065","long":"126.80768195","imageIndex":13,"items":[{"name":"메이드바이하나 (Made by hana)","tel":"070-7420-7260","addr":"경기도 부천시 괴안동 88-12번지 B.K palace 1층 103호","indutype":"보건위생 - 미용원","category":"beauty"}]},{"lat":"37.474156016","long":"126.8040966","imageIndex":13,"items":[{"name":"모애랑","tel":"032-2074-7728","addr":"경기도 부천시 괴안동 237-7번지 1층","indutype":"보건위생 - 미용원","category":"beauty"}]},{"lat":"37.474515918","long":"126.80380171","imageIndex":13,"items":[{"name":"몸숨맘","tel":"070-7312-5811","addr":"경기도 부천시 괴안동 236-2번지 1층","indutype":"보건위생 - 화장품","category":"beauty"}]},{"lat":"37.483513512","long":"126.81270982","imageIndex":13,"items":[{"name":"미미헤어샵","tel":"070-8259-9714","addr":"경기도 부천시 괴안동 115-7번지 1층","indutype":"보건위생 - 미용원","category":"beauty"}]},{"lat":"37.480292735","long":"126.80465694","imageIndex":13,"items":[{"name":"미소헤어홈","tel":"032-341-3488","addr":"경기도 부천시 괴안동 38-5번지 1층 일부","indutype":"보건위생 - 미용원","category":"beauty"}]},{"lat":"37.481572066","long":"126.8156543","imageIndex":13,"items":[{"name":"미앤미헤어","tel":"","addr":"경기도 부천시 괴안동 121-7번지 정원홈타운 1층 101호","indutype":"보건위생 - 미용원","category":"beauty"}]},{"lat":"37.48070827","long":"126.80530027","imageIndex":13,"items":[{"name":"미인헤어","tel":"032-0000-0000","addr":"경기도 부천시 괴안동 39-3번지","indutype":"보건위생 - 미용원","category":"beauty"},{"name":"스타미용재료","tel":"02-2688-1515","addr":"경기도 부천시 괴안동 39-3번지 1층","indutype":"보건위생 - 미용재료","category":"beauty"}]},{"lat":"37.478399329","long":"126.8092972","imageIndex":13,"items":[{"name":"벨헤어","tel":"032-684-2266","addr":"경기도 부천시 괴안동 92-11번지 C동 1층","indutype":"보건위생 - 미용원","category":"beauty"}]},{"lat":"37.475595466","long":"126.80282661","imageIndex":13,"items":[{"name":"보보스헤어라인","tel":"032-345-1674","addr":"경기도 부천시 괴안동 204-6번지","indutype":"보건위생 - 미용원","category":"beauty"}]},{"lat":"37.483315348","long":"126.81274424","imageIndex":13,"items":[{"name":"부곡탕","tel":"032-343-2777","addr":"경기도 부천시 괴안동 115-9번지","indutype":"보건위생 - 사우나","category":"beauty"}]},{"lat":"37.48193645","long":"126.81251031","imageIndex":13,"items":[{"name":"뷰티콜스","tel":"032-342-5886","addr":"경기도 부천시 괴안동 117번지 삼협연립 B동 101호","indutype":"보건위생 - 화장품","category":"beauty"}]},{"lat":"37.484234213","long":"126.81265146","imageIndex":13,"items":[{"name":"뷰티킹","tel":"032-341-0565","addr":"경기도 부천시 괴안동 127번지 2층","indutype":"보건위생 - 미용원","category":"beauty"}]},{"lat":"37.481983388","long":"126.81368602","imageIndex":13,"items":[{"name":"뷰티헤어","tel":"032-348-3733","addr":"경기도 부천시 괴안동 118-6번지 1층","indutype":"보건위생 - 미용원","category":"beauty"}]},{"lat":"37.479288071","long":"126.80732773","imageIndex":13,"items":[{"name":"블루가이","tel":"032-345-9086","addr":"경기도 부천시 괴안동 90-2번지 삼정빌라 105호","indutype":"보건위생 - 미용원","category":"beauty"}]},{"lat":"37.478926738","long":"126.80676339","imageIndex":13,"items":[{"name":"비압헤어","tel":"070-4128-0388","addr":"경기도 부천시 괴안동 71-11번지 1층","indutype":"보건위생 - 미용원","category":"beauty"}]},{"lat":"37.483709483","long":"126.81131864","imageIndex":13,"items":[{"name":"비오헤어갤러리","tel":"032-345-0561","addr":"경기도 부천시 괴안동 114-3번지 2,3번지","indutype":"보건위생 - 미용원","category":"beauty"}]},{"lat":"37.484511877","long":"126.81163318","imageIndex":13,"items":[{"name":"비타민","tel":"02-111-1111","addr":"경기도 부천시 괴안동 113-6번지 우남타워 4층 401호","indutype":"보건위생 - 기타대인서비스","category":"beauty"},{"name":"살롱드타샤","tel":"032-342-3333","addr":"경기도 부천시 괴안동 113-6번지 우남타워 1층 103호","indutype":"보건위생 - 피부미용실","category":"beauty"}]},{"lat":"37.48203175","long":"126.81576621","imageIndex":13,"items":[{"name":"빨간머리","tel":"032-611-7113","addr":"경기도 부천시 괴안동 158-19번지 중앙하이츠맨션 A동 101호","indutype":"보건위생 - 미용원","category":"beauty"}]},{"lat":"37.484375435","long":"126.81646137","imageIndex":13,"items":[{"name":"샤넬헤어샵","tel":"032-345-8002","addr":"경기도 부천시 괴안동 167-16번지 덕문빌딩 1층","indutype":"보건위생 - 미용원","category":"beauty"}]},{"lat":"37.482847826","long":"126.80782723","imageIndex":13,"items":[{"name":"소생안마원","tel":"032-325-8275","addr":"경기도 부천시 괴안동 111-65번지 대영빌딩 4층","indutype":"보건위생 - 안마시술소","category":"beauty"}]},{"lat":"37.476982475","long":"126.80251767","imageIndex":13,"items":[{"name":"수덴탈","tel":"070-7572-3711","addr":"경기도 부천시 괴안동 204-1번지 삼익아파트","indutype":"보건위생 - 의료용품","category":"beauty"}]},{"lat":"37.47737685","long":"126.8121601","imageIndex":13,"items":[{"name":"쉬즈","tel":"032-351-1158","addr":"경기도 부천시 괴안동 254-1번지 115호","indutype":"보건위생 - 화장품","category":"beauty"}]},{"lat":"37.47429164","long":"126.80437886","imageIndex":13,"items":[{"name":"스마트화장품","tel":"032-679-9696","addr":"경기도 부천시 괴안동 237-5번지","indutype":"보건위생 - 화장품","category":"beauty"}]},{"lat":"37.482679832","long":"126.80977233","imageIndex":13,"items":[{"name":"쌈박","tel":"032-347-5887","addr":"경기도 부천시 괴안동 109-20번지","indutype":"보건위생 - 미용원","category":"beauty"}]},{"lat":"37.480014962","long":"126.81104543","imageIndex":13,"items":[{"name":"씨엘(Ciel)","tel":"032-345-4505","addr":"경기도 부천시 괴안동 100-29번지 1층","indutype":"보건위생 - 미용원","category":"beauty"}]},{"lat":"37.478871852","long":"126.80626608","imageIndex":13,"items":[{"name":"씨이오(ceo)헤어갤러리","tel":"032-349-0333","addr":"경기도 부천시 괴안동 71-1번지","indutype":"보건위생 - 미용원","category":"beauty"}]},{"lat":"37.482962027","long":"126.81154668","imageIndex":13,"items":[{"name":"아리따움(역곡남부시장점)","tel":"032-351-9270","addr":"경기도 부천시 괴안동 115-14번지","indutype":"보건위생 - 화장품","category":"beauty"}]},{"lat":"37.487677329","long":"126.81917813","imageIndex":13,"items":[{"name":"안경스케치","tel":"032-343-0996","addr":"경기도 부천시 괴안동 190-13번지","indutype":"보건위생 - 안경","category":"beauty"}]},{"lat":"37.481238263","long":"126.80434918","imageIndex":13,"items":[{"name":"에끌라도","tel":"032-347-3563","addr":"경기도 부천시 괴안동 5-9번지 1층","indutype":"보건위생 - 화장품","category":"beauty"}]},{"lat":"37.482155462","long":"126.81423958","imageIndex":13,"items":[{"name":"에덴사미용재료","tel":"032-345-6940","addr":"경기도 부천시 괴안동 123-1번지","indutype":"보건위생 - 미용재료","category":"beauty"}]},{"lat":"37.485807278","long":"126.81599424","imageIndex":13,"items":[{"name":"에이블리네일","tel":"","addr":"경기도 부천시 괴안동 170번지 다소망빌 가동 2층 202호","indutype":"보건위생 - 피부미용실","category":"beauty"}]},{"lat":"37.4857329","long":"126.81454717","imageIndex":13,"items":[{"name":"에이스안경콘택트","tel":"032-342-1910","addr":"경기도 부천시 괴안동 169-2번지 1층","indutype":"보건위생 - 안경","category":"beauty"}]},{"lat":"37.483620208","long":"126.81182766","imageIndex":13,"items":[{"name":"여기는미용실","tel":"","addr":"경기도 부천시 괴안동 114-10번지 조양휴캐슬 1층 104호","indutype":"보건위생 - 미용원","category":"beauty"}]},{"lat":"37.488651066","long":"126.81960542","imageIndex":13,"items":[{"name":"역곡한증막","tel":"032-343-4424","addr":"경기도 부천시 괴안동 200-2번지","indutype":"보건위생 - 사우나","category":"beauty"}]},{"lat":"37.484342696","long":"126.81287731","imageIndex":13,"items":[{"name":"연세비전","tel":"032-348-6300","addr":"경기도 부천시 괴안동 127-1번지 창성빌딩 3층 2호","indutype":"보건위생 - 화장품","category":"beauty"}]},{"lat":"37.480761629","long":"126.80488182","imageIndex":13,"items":[{"name":"영화장품","tel":"032-341-8269","addr":"경기도 부천시 괴안동 39-1번지","indutype":"보건위생 - 화장품","category":"beauty"}]},{"lat":"37.477315629","long":"126.80777378","imageIndex":13,"items":[{"name":"예그린 아동가족 심리상담센터","tel":"032-341-2001","addr":"경기도 부천시 괴안동 88-15번지 2층","indutype":"보건위생 - 기타대인서비스","category":"beauty"}]},{"lat":"37.476954466","long":"126.80194117","imageIndex":13,"items":[{"name":"오페라하우스","tel":"032-345-3451","addr":"경기도 부천시 괴안동 30-3번지 1층 103호","indutype":"보건위생 - 안경","category":"beauty"}]},{"lat":"37.483376025","long":"126.81126296","imageIndex":13,"items":[{"name":"올스본코리아 역곡점","tel":"032-343-9227","addr":"경기도 부천시 괴안동 114-12번지 연지빌딩 604호","indutype":"보건위생 - 의료용품","category":"beauty"}]},{"lat":"37.483926581","long":"126.81184949","imageIndex":13,"items":[{"name":"유노헤어","tel":"032-343-4938","addr":"경기도 부천시 괴안동 114-6번지","indutype":"보건위생 - 미용원","category":"beauty"}]},{"lat":"37.485899071","long":"126.81706814","imageIndex":13,"items":[{"name":"유니베라부천역곡대리점","tel":"032-344-7051","addr":"경기도 부천시 괴안동 170-7번지 해든빌 201호","indutype":"보건위생 - 화장품","category":"beauty"}]},{"lat":"37.481872068","long":"126.81734946","imageIndex":13,"items":[{"name":"윤인자미용실","tel":"032-344-8897","addr":"경기도 부천시 괴안동 161.102","indutype":"보건위생 - 미용원","category":"beauty"}]},{"lat":"37.481900283","long":"126.81243126","imageIndex":13,"items":[{"name":"은영종합화장품","tel":"032-344-6648","addr":"경기도 부천시 괴안동 117번지 삼협연립 상협나","indutype":"보건위생 - 화장품","category":"beauty"},{"name":"태후사랑","tel":"032-342-4558","addr":"경기도 부천시 괴안동 117번지 삼협연립 나동 103호","indutype":"보건위생 - 화장품","category":"beauty"}]},{"lat":"37.484457488","long":"126.8114298","imageIndex":13,"items":[{"name":"이니스프리","tel":"032-346-3777","addr":"경기도 부천시 괴안동 113-3번지 102호","indutype":"보건위생 - 화장품","category":"beauty"}]},{"lat":"37.478678745","long":"126.80393764","imageIndex":13,"items":[{"name":"이담헤어","tel":"032-347-3324","addr":"경기도 부천시 괴안동 31-1번지 헌철빌딩 103호","indutype":"보건위생 - 미용원","category":"beauty"},{"name":"태후사랑","tel":"032-347-6383","addr":"경기도 부천시 괴안동 31-1번지 1층","indutype":"보건위생 - 화장품","category":"beauty"}]},{"lat":"37.478651048","long":"126.80354202","imageIndex":13,"items":[{"name":"이루헤어샵","tel":"032-223-4568","addr":"경기도 부천시 괴안동 31-21번지 1층","indutype":"보건위생 - 미용원","category":"beauty"}]},{"lat":"37.48401402","long":"126.8158178","imageIndex":13,"items":[{"name":"이미연헤어코칭","tel":"032-351-9357","addr":"경기도 부천시 괴안동 166번지","indutype":"보건위생 - 미용원","category":"beauty"}]},{"lat":"37.482291584","long":"126.81484977","imageIndex":13,"items":[{"name":"이수연 헤어빛채","tel":"070-7672-8088","addr":"경기도 부천시 괴안동 123-4번지 청수이지빌 2층 2호","indutype":"보건위생 - 미용원","category":"beauty"}]},{"lat":"37.484149977","long":"126.81070697","imageIndex":13,"items":[{"name":"이승희헤어메니아","tel":"032-343-5831","addr":"경기도 부천시 괴안동 113-10번지","indutype":"보건위생 - 미용원","category":"beauty"},{"name":"인성메디텍","tel":"032-343-5094","addr":"경기도 부천시 괴안동 113-10번지 3층","indutype":"보건위생 - 의료용품","category":"beauty"}]},{"lat":"37.478621338","long":"126.80732946","imageIndex":13,"items":[{"name":"이주원헤어랜드","tel":"032-341-5403","addr":"경기도 부천시 괴안동 89-10번지","indutype":"보건위생 - 미용원","category":"beauty"}]},{"lat":"37.478900458","long":"126.80721568","imageIndex":13,"items":[{"name":"인하안경","tel":"032-349-3335","addr":"경기도 부천시 괴안동 89번지 명성프라자 101호","indutype":"보건위생 - 안경","category":"beauty"}]},{"lat":"37.48506748","long":"126.81537422","imageIndex":13,"items":[{"name":"정순헤어","tel":"032-341-1117","addr":"경기도 부천시 괴안동 168-15번지","indutype":"보건위생 - 미용원","category":"beauty"}]},{"lat":"37.488595793","long":"126.81882537","imageIndex":13,"items":[{"name":"제일","tel":"032-344-5915","addr":"경기도 부천시 괴안동 190-10번지 혜성아트빌라 101호","indutype":"보건위생 - 미용원","category":"beauty"}]},{"lat":"37.478428574","long":"126.81065379","imageIndex":13,"items":[{"name":"준메디칼","tel":"032-345-0952","addr":"경기도 부천시 괴안동 98-9","indutype":"보건위생 - 의료용품","category":"beauty"}]},{"lat":"37.482453715","long":"126.80924152","imageIndex":13,"items":[{"name":"지앤미헤어명작","tel":"032-344-7470","addr":"경기도 부천시 괴안동 110-25번지","indutype":"보건위생 - 미용원","category":"beauty"}]},{"lat":"37.484376094","long":"126.8168797","imageIndex":13,"items":[{"name":"참빛미용실","tel":"032-343-1650","addr":"경기도 부천시 괴안동 176-9번지","indutype":"보건위생 - 미용원","category":"beauty"}]},{"lat":"37.48476579","long":"126.81832597","imageIndex":13,"items":[{"name":"천지보살","tel":"","addr":"경기도 부천시 괴안동 183번지 성도프라임빌 201호","indutype":"보건위생 - 기타대인서비스","category":"beauty"}]},{"lat":"37.480069205","long":"126.81115835","imageIndex":13,"items":[{"name":"초이스헤어","tel":"032-348-9702","addr":"경기도 부천시 괴안동 100번지 1층","indutype":"보건위생 - 미용원","category":"beauty"}]},{"lat":"37.478927806","long":"126.8074078","imageIndex":13,"items":[{"name":"카다리나헤어라인","tel":"032-348-4785","addr":"경기도 부천시 괴안동 89-1번지","indutype":"보건위생 - 미용원","category":"beauty"}]},{"lat":"37.484009147","long":"126.81276509","imageIndex":13,"items":[{"name":"쿨샵","tel":"032-348-4734","addr":"경기도 부천시 괴안동 127-8번지","indutype":"보건위생 - 피부미용실","category":"beauty"}]},{"lat":"37.480456314","long":"126.80549314","imageIndex":13,"items":[{"name":"퀸즈","tel":"032-345-6638","addr":"경기도 부천시 괴안동 40-2번지 리아아파트 1층","indutype":"보건위생 - 화장품","category":"beauty"}]},{"lat":"37.481956973","long":"126.81407049","imageIndex":13,"items":[{"name":"타임플러스","tel":"032-343-6488","addr":"경기도 부천시 괴안동 123-18번지 1층 일부호","indutype":"보건위생 - 미용원","category":"beauty"}]},{"lat":"37.485928632","long":"126.81868492","imageIndex":13,"items":[{"name":"태후사랑(괴안2호점)","tel":"","addr":"경기도 부천시 괴안동 184-5번지 1층 일부","indutype":"보건위생 - 미용원","category":"beauty"}]},{"lat":"37.483537855","long":"126.81104773","imageIndex":13,"items":[{"name":"토리헤어","tel":"031-341-0567","addr":"경기도 부천시 괴안동 114번지 2층","indutype":"보건위생 - 미용원","category":"beauty"}]},{"lat":"37.478565515","long":"126.80626689","imageIndex":13,"items":[{"name":"피어나리헤어샵","tel":"032-341-8968","addr":"경기도 부천시 괴안동 71-24번지 중앙리더스빌 1층","indutype":"보건위생 - 미용원","category":"beauty"}]},{"lat":"37.476928688","long":"126.80806872","imageIndex":13,"items":[{"name":"하늘아래아동발달센터","tel":"032-348-0112","addr":"경기도 부천시 괴안동 87-1번지 홈타운 207호","indutype":"보건위생 - 기타대인서비스","category":"beauty"}]},{"lat":"37.482571251","long":"126.80948995","imageIndex":13,"items":[{"name":"행복스코리아","tel":"032-341-3471","addr":"경기도 부천시 괴안동 110-29번지","indutype":"보건위생 - 이용원","category":"beauty"}]},{"lat":"37.480374979","long":"126.80534637","imageIndex":13,"items":[{"name":"헤어고고","tel":"032-341-3760","addr":"경기도 부천시 괴안동 40-1번지 한영아트빌라 103호","indutype":"보건위생 - 미용원","category":"beauty"}]},{"lat":"37.484071233","long":"126.81215439","imageIndex":13,"items":[{"name":"화이트","tel":"032-343-7788","addr":"경기도 부천시 괴안동 114-7번지","indutype":"보건위생 - 화장품","category":"beauty"}]}]