[{"lat":"37.726567652","long":"126.69974767","imageIndex":4,"items":[{"name":"갈쌈","tel":"031-941-2945","addr":"경기도 파주시 신촌동 63-15번지","indutype":"일반휴게음식 - 일반한식","category":"restaurant"},{"name":"오복맛집","tel":"031-941-9358","addr":"경기도 파주시 신촌동 63-15번지","indutype":"일반휴게음식 - 일반한식","category":"restaurant"}]},{"lat":"37.726541469","long":"126.70007673","imageIndex":4,"items":[{"name":"나능이능이버섯백숙","tel":"031-8071-0100","addr":"경기도 파주시 신촌동 63-18번지","indutype":"일반휴게음식 - 일반한식","category":"restaurant"}]},{"lat":"37.726456879","long":"126.6987159","imageIndex":4,"items":[{"name":"명가한식부페","tel":"031-945-6992","addr":"경기도 파주시 신촌동 70-16번지","indutype":"일반휴게음식 - 일반한식","category":"restaurant"},{"name":"선지해장국전문","tel":"031-944-3331","addr":"경기도 파주시 신촌동 70-16번지","indutype":"일반휴게음식 - 일반한식","category":"restaurant"},{"name":"신촌리 무한리필","tel":"031-942-4048","addr":"경기도 파주시 신촌동 70-16번지","indutype":"일반휴게음식 - 일반한식","category":"restaurant"},{"name":"여명양평해장국","tel":"031-946-8001","addr":"경기도 파주시 신촌동 70-16번지","indutype":"일반휴게음식 - 일반한식","category":"restaurant"},{"name":"옹기꽃게장","tel":"031-949-9494","addr":"경기도 파주시 신촌동 70-16번지 C동","indutype":"일반휴게음식 - 일반한식","category":"restaurant"}]},{"lat":"37.729982907","long":"126.70352252","imageIndex":4,"items":[{"name":"무교동낙지,춘천닭갈비교하점","tel":"031-948-9968","addr":"경기도 파주시 신촌동 43-9번지 학산상가 1동 102호","indutype":"일반휴게음식 - 일반한식","category":"restaurant"},{"name":"본대리토종순대국","tel":"031-943-6668","addr":"경기도 파주시 신촌동 43-9번지","indutype":"일반휴게음식 - 일반한식","category":"restaurant"},{"name":"육대장파주교하점","tel":"031-944-5336","addr":"경기도 파주시 신촌동 43-9번지","indutype":"일반휴게음식 - 일반한식","category":"restaurant"},{"name":"통돼지 두루치기 문발점","tel":"031-943-8875","addr":"경기도 파주시 신촌동 43-9번지","indutype":"일반휴게음식 - 일반한식","category":"restaurant"}]},{"lat":"37.730921805","long":"126.70785207","imageIndex":4,"items":[{"name":"밀손칼국수","tel":"031-945-7766","addr":"경기도 파주시 신촌동 13-8번지","indutype":"일반휴게음식 - 일반한식","category":"restaurant"},{"name":"황제전복갈비짬뽕","tel":"","addr":"경기도 파주시 신촌동 13-8번지","indutype":"일반휴게음식 - 중국식","category":"restaurant"}]},{"lat":"37.726285111","long":"126.69501876","imageIndex":4,"items":[{"name":"박가네 비빔국수","tel":"031-942-9469","addr":"경기도 파주시 신촌동 78번지","indutype":"일반휴게음식 - 일반한식","category":"restaurant"}]},{"lat":"37.729621402","long":"126.69263414","imageIndex":4,"items":[{"name":"보리한식뷔페","tel":"031-941-6160","addr":"경기도 파주시 신촌동 719-7번지","indutype":"일반휴게음식 - 일반한식","category":"restaurant"}]},{"lat":"37.725394596","long":"126.69212999","imageIndex":4,"items":[{"name":"선굼터가정식백반","tel":"","addr":"경기도 파주시 신촌동 445번지","indutype":"일반휴게음식 - 일반한식","category":"restaurant"}]},{"lat":"37.730758345","long":"126.68988421","imageIndex":4,"items":[{"name":"스튜디오바프주식회사","tel":"031-955-9580","addr":"경기도 파주시 신촌동 737-3번지","indutype":"일반휴게음식 - 스넥","category":"restaurant"}]},{"lat":"37.727563315","long":"126.70154719","imageIndex":4,"items":[{"name":"신화착한낙지마당","tel":"031-949-5027","addr":"경기도 파주시 신촌동 60-1번지","indutype":"일반휴게음식 - 일반한식","category":"restaurant"}]},{"lat":"37.726422648","long":"126.69593698","imageIndex":4,"items":[{"name":"완행버스","tel":"031-942-2121","addr":"경기도 파주시 신촌동 65-2번지","indutype":"일반휴게음식 - 일반한식","category":"restaurant"},{"name":"해울 우렁쌈밥","tel":"031-949-9939","addr":"경기도 파주시 신촌동 65-2 4동","indutype":"일반휴게음식 - 일반한식","category":"restaurant"}]},{"lat":"37.730843096","long":"126.69126779","imageIndex":4,"items":[{"name":"이론푸드","tel":"031-111-1111","addr":"경기도 파주시 신촌동 736-3번지","indutype":"일반휴게음식 - 일반한식","category":"restaurant"}]},{"lat":"37.729953894","long":"126.70630183","imageIndex":4,"items":[{"name":"자연담은식탁","tel":"031-942-4266","addr":"경기도 파주시 신촌동 12-4번지","indutype":"일반휴게음식 - 일반한식","category":"restaurant"},{"name":"죽여주는 쌩고기통 김치찌개","tel":"031-941-0569","addr":"경기도 파주시 신촌동 12-4번지 교하모터스 1동","indutype":"일반휴게음식 - 일반한식","category":"restaurant"}]},{"lat":"37.726819225","long":"126.69255508","imageIndex":4,"items":[{"name":"장수대","tel":"031-957-8818","addr":"경기도 파주시 신촌동 441-2번지","indutype":"일반휴게음식 - 일반한식","category":"restaurant"}]},{"lat":"37.729873978","long":"126.70676724","imageIndex":4,"items":[{"name":"차이나쿡","tel":"031-948-1232","addr":"경기도 파주시 신촌동 12-6번지","indutype":"일반휴게음식 - 중국식","category":"restaurant"}]},{"lat":"37.725622191","long":"126.69302514","imageIndex":4,"items":[{"name":"참이맛감자탕(신촌점)","tel":"031-947-9298","addr":"경기도 파주시 신촌동 443-3번지","indutype":"일반휴게음식 - 일반한식","category":"restaurant"}]},{"lat":"37.727481244","long":"126.70116185","imageIndex":4,"items":[{"name":"청산흑가마","tel":"031-942-4950","addr":"경기도 파주시 신촌동 60-16번지","indutype":"일반휴게음식 - 일반한식","category":"restaurant"},{"name":"한경희코다리","tel":"031-942-3792","addr":"경기도 파주시 신촌동 60-16번지","indutype":"일반휴게음식 - 일반한식","category":"restaurant"}]},{"lat":"37.729728508","long":"126.70268412","imageIndex":4,"items":[{"name":"청석골 가마솥 추어탕","tel":"031-944-7557","addr":"경기도 파주시 신촌동 43-19번지","indutype":"일반휴게음식 - 일반한식","category":"restaurant"},{"name":"홍기와 쭈꾸미","tel":"031-949-6960","addr":"경기도 파주시 신촌동 43-19번지","indutype":"일반휴게음식 - 일반한식","category":"restaurant"}]},{"lat":"37.726343009","long":"126.69649312","imageIndex":4,"items":[{"name":"춘하추동추어탕","tel":"031-945-4131","addr":"경기도 파주시 신촌동 75번지","indutype":"일반휴게음식 - 일반한식","category":"restaurant"}]},{"lat":"37.725952913","long":"126.69202557","imageIndex":4,"items":[{"name":"커뮤니티가든(CUMMUNITY GARDEN)","tel":"02-330-5514","addr":"경기도 파주시 신촌동 439번지","indutype":"일반휴게음식 - 일반한식","category":"restaurant"}]},{"lat":"37.73256333","long":"126.69104504","imageIndex":4,"items":[{"name":"커피트립 (Coffee trip)","tel":"070-4209-3345","addr":"경기도 파주시 신촌동 735번지","indutype":"일반휴게음식 - 서양음식","category":"restaurant"}]},{"lat":"37.729618112","long":"126.69138636","imageIndex":4,"items":[{"name":"한실네며느리돈가스","tel":"031-948-1345","addr":"경기도 파주시 신촌동 740-5번지","indutype":"일반휴게음식 - 일반한식","category":"restaurant"}]}]