[{"lat":"37.37859309","long":"127.255011","imageIndex":8,"items":[{"name":"경안치과의원","tel":"031-768-2872","addr":"경기도 광주시 오포읍 양벌리 311-5번지 대명빌딩 2층","indutype":"병원 - 치과병원","category":"medical"}]},{"lat":"37.37801046","long":"127.2535864","imageIndex":8,"items":[{"name":"광주동물병원","tel":"031-763-8825","addr":"경기도 광주시 오포읍 양벌리 373-1번지","indutype":"기타의료기관 - 동물병원","category":"medical"}]},{"lat":"37.37008771","long":"127.2463349","imageIndex":8,"items":[{"name":"광주조은내과","tel":"031-766-7533","addr":"경기도 광주시 오포읍 양벌리 647-6번지 4층 401호","indutype":"의원 - 의원","category":"medical"},{"name":"수약국","tel":"031-761-1732","addr":"경기도 광주시 오포읍 양벌리 647-6번지","indutype":"약국 - 약국","category":"medical"},{"name":"아이온 소아청소년과의원","tel":"031-761-0363","addr":"경기도 광주시 오포읍 양벌리 647-6번지","indutype":"의원 - 의원","category":"medical"},{"name":"오포정형외과","tel":"031-700-0000","addr":"경기도 광주시 오포읍 양벌리 647-6번지","indutype":"의원 - 의원","category":"medical"}]},{"lat":"37.37834318","long":"127.2538924","imageIndex":8,"items":[{"name":"미래소아청소년과의원","tel":"031-798-3066","addr":"경기도 광주시 오포읍 양벌리 375-9번지 청우빌딩","indutype":"의원 - 의원","category":"medical"},{"name":"사랑약국","tel":"031-769-7908","addr":"경기도 광주시 오포읍 양벌리 375-9번지 1층 일부","indutype":"약국 - 약국","category":"medical"},{"name":"오포한의원","tel":"031-762-1075","addr":"경기도 광주시 오포읍 양벌리 375-9번지 1층","indutype":"의원 - 한의원","category":"medical"}]},{"lat":"37.37159027","long":"127.2473671","imageIndex":8,"items":[{"name":"밝은미소치과의원","tel":"031-769-7583","addr":"경기도 광주시 오포읍 양벌리 607-1번지","indutype":"의원 - 치과의원","category":"medical"}]},{"lat":"37.37745415","long":"127.2567233","imageIndex":8,"items":[{"name":"서울베스트치과의원","tel":"031-762-2833","addr":"경기도 광주시 오포읍 양벌리 367-5번지","indutype":"의원 - 치과의원","category":"medical"}]},{"lat":"37.3788995","long":"127.2549781","imageIndex":8,"items":[{"name":"서울본의원","tel":"031-797-0019","addr":"경기도 광주시 오포읍 양벌리 311-2번지 백마빌딩 201호","indutype":"의원 - 의원","category":"medical"}]},{"lat":"37.37006221","long":"127.2455898","imageIndex":8,"items":[{"name":"서울오치과의원","tel":"031-767-2275","addr":"경기도 광주시 오포읍 양벌리 650-3 3층","indutype":"의원 - 치과의원","category":"medical"},{"name":"오포세란의원","tel":"031-767-8275","addr":"경기도 광주시 오포읍 양벌리 650-3번지","indutype":"의원 - 의원","category":"medical"},{"name":"하늘약국","tel":"031-765-9152","addr":"경기도 광주시 오포읍 양벌리 650-3번지 1층","indutype":"약국 - 약국","category":"medical"}]},{"lat":"37.37031221","long":"127.2466969","imageIndex":8,"items":[{"name":"양벌한의원","tel":"053-762-1575","addr":"경기도 광주시 오포읍 양벌리 646-2번지 상가 104호","indutype":"의원 - 한의원","category":"medical"}]},{"lat":"37.37936757","long":"127.2551942","imageIndex":8,"items":[{"name":"양촌한의원","tel":"031-767-3888","addr":"경기도 광주시 오포읍 양벌리 290-6번지","indutype":"의원 - 한의원","category":"medical"}]},{"lat":"37.37795256","long":"127.2553927","imageIndex":8,"items":[{"name":"연세가정의원","tel":"031-769-8279","addr":"경기도 광주시 오포읍 양벌리 369번지","indutype":"의원 - 의원","category":"medical"}]},{"lat":"37.37025871","long":"127.2464258","imageIndex":8,"items":[{"name":"윤승피부과의원","tel":"031-731-5995","addr":"경기도 광주시 오포읍 양벌리 647-1번지 진흥빌딩 2층","indutype":"의원 - 의원","category":"medical"}]}]