[{"lat":"37.812893023","long":"126.86713945","imageIndex":4,"items":[{"name":"농가","tel":"031-958-2772","addr":"경기도 파주시 광탄면 방축리 204-1번지","indutype":"일반휴게음식 - 일반한식","category":"restaurant"}]},{"lat":"37.811783351","long":"126.86583552","imageIndex":4,"items":[{"name":"담터","tel":"031-942-2889","addr":"경기도 파주시 광탄면 방축리 199-1번지","indutype":"일반휴게음식 - 일반한식","category":"restaurant"}]},{"lat":"37.812506192","long":"126.86763983","imageIndex":4,"items":[{"name":"로스팅 하우스","tel":"031-942-5455","addr":"경기도 파주시 광탄면 방축리 202-4번지","indutype":"일반휴게음식 - 서양음식","category":"restaurant"}]},{"lat":"37.806312044","long":"126.8636427","imageIndex":4,"items":[{"name":"메밀마당막국수&장단콩두부마을","tel":"031-947-5077","addr":"경기도 파주시 광탄면 방축리 123-1번지","indutype":"일반휴게음식 - 일반한식","category":"restaurant"},{"name":"은아네 한우소고기국밥","tel":"031-947-5219","addr":"경기도 파주시 광탄면 방축리 123-1번지","indutype":"일반휴게음식 - 일반한식","category":"restaurant"},{"name":"일품누룽지백숙","tel":"031-912-7834","addr":"경기도 파주시 광탄면 방축리 123-1번지","indutype":"일반휴게음식 - 일반한식","category":"restaurant"},{"name":"캘리포니아레스펍","tel":"031-947-5222","addr":"경기도 파주시 광탄면 방축리 123-1번지","indutype":"일반휴게음식 - 주점","category":"restaurant"},{"name":"파주광탄흑염소","tel":"","addr":"경기도 파주시 광탄면 방축리 123-1번지","indutype":"일반휴게음식 - 일반한식","category":"restaurant"}]},{"lat":"37.810693624","long":"126.85863783","imageIndex":4,"items":[{"name":"연못능이백숙가든","tel":"031-941-0750","addr":"경기도 파주시 광탄면 방축리 145-5번지","indutype":"일반휴게음식 - 일반한식","category":"restaurant"}]},{"lat":"37.813171935","long":"126.8668096","imageIndex":4,"items":[{"name":"우선생옛날불고기","tel":"031-111-1111","addr":"경기도 파주시 광탄면 방축리 193-6번지","indutype":"일반휴게음식 - 일반한식","category":"restaurant"}]},{"lat":"37.807248271","long":"126.86300503","imageIndex":4,"items":[{"name":"장독대","tel":"031-947-8182","addr":"경기도 파주시 광탄면 방축리 124-1번지","indutype":"일반휴게음식 - 일반한식","category":"restaurant"}]},{"lat":"37.806860825","long":"126.8629717","imageIndex":4,"items":[{"name":"파주방축골한우마을","tel":"031-942-6200","addr":"경기도 파주시 광탄면 방축리 124-6","indutype":"일반휴게음식 - 일반한식","category":"restaurant"}]},{"lat":"37.810837031","long":"126.86555337","imageIndex":4,"items":[{"name":"한메소머리곰탕","tel":"031-948-3236","addr":"경기도 파주시 광탄면 방축리 29-12번지","indutype":"일반휴게음식 - 일반한식","category":"restaurant"}]}]