[{"lat":"37.195693876","long":"127.06524662","imageIndex":0,"items":[{"name":"(주) 오앤이-보나카바","tel":"031-377-5777","addr":"경기도 오산시 외삼미동 119-12번지 마동","indutype":"자동차정비 유지 - 주차장","category":"car"}]},{"lat":"37.190994205","long":"127.05764053","imageIndex":0,"items":[{"name":"(주)동탄현대상사","tel":"031-376-3101","addr":"경기도 오산시 외삼미동 344번지","indutype":"자동차정비 유지 - 자동차부품","category":"car"},{"name":"동탄현대상사","tel":"031-376-3101","addr":"경기도 오산시 외삼미동 344번지","indutype":"자동차정비 유지 - 자동차부품","category":"car"}]},{"lat":"37.190223552","long":"127.0475263","imageIndex":0,"items":[{"name":"(주)맥스특장","tel":"031-377-6605","addr":"경기도 오산시 외삼미동 566-1번지","indutype":"자동차판매 - 기타운송","category":"car"},{"name":"맥스1급자동차공업사","tel":"070-8731-0292","addr":"경기도 오산시 외삼미동 566-1번지","indutype":"자동차정비 유지 - 자동차정비","category":"car"},{"name":"맥스용품","tel":"02-0000-0000","addr":"경기도 오산시 외삼미동 566-1번지","indutype":"자동차정비 유지 - 자동차부품","category":"car"},{"name":"주식회사맥스리무진","tel":"031-377-6605","addr":"경기도 오산시 외삼미동 566-1번지","indutype":"자동차판매 - 국산신차판매","category":"car"},{"name":"카스 오토","tel":"031-377-5803","addr":"경기도 오산시 외삼미동 566-1번지 2층","indutype":"자동차정비 유지 - 카인테리어","category":"car"}]},{"lat":"37.193636976","long":"127.0513915","imageIndex":0,"items":[{"name":"(주)한국슈퍼맥스","tel":"031-372-4101","addr":"경기도 오산시 외삼미동 461-20번지","indutype":"자동차정비 유지 - 자동차부품","category":"car"}]},{"lat":"37.192335168","long":"127.06097527","imageIndex":0,"items":[{"name":"르노삼성 자동차 지정정비코너 삼미점","tel":"031-377-0052","addr":"경기도 오산시 외삼미동 산 13-8","indutype":"자동차정비 유지 - 자동차정비","category":"car"}]},{"lat":"37.191024804","long":"127.04928373","imageIndex":0,"items":[{"name":"맥스타이어(MAX TYRES)","tel":"031-334-0640","addr":"경기도 오산시 외삼미동 543-1번지 제","indutype":"자동차정비 유지 - 자동차시트·타이어","category":"car"}]},{"lat":"37.187919378","long":"127.06236839","imageIndex":0,"items":[{"name":"메카니카(MECHANICA)","tel":"02-1661-0766","addr":"경기도 오산시 외삼미동 614-35번지","indutype":"자동차정비 유지 - 자동차정비","category":"car"},{"name":"월드오토밋션","tel":"031-377-1996","addr":"경기도 오산시 외삼미동 614-35번지","indutype":"자동차정비 유지 - 자동차부품","category":"car"}]},{"lat":"37.197660842","long":"127.05988679","imageIndex":0,"items":[{"name":"밧데리1번지총판(동탄점)","tel":"031-613-0119","addr":"경기도 오산시 외삼미동 148번지","indutype":"자동차정비 유지 - 자동차부품","category":"car"}]},{"lat":"37.188973499","long":"127.06256068","imageIndex":0,"items":[{"name":"북오산공업사","tel":"031-378-1874","addr":"경기도 오산시 외삼미동 310번지 1층","indutype":"자동차정비 유지 - 자동차정비","category":"car"}]},{"lat":"37.198218144","long":"127.06261301","imageIndex":0,"items":[{"name":"서린","tel":"031-378-3667","addr":"경기도 오산시 외삼미동 124-1번지","indutype":"자동차정비 유지 - 자동차부품","category":"car"}]},{"lat":"37.188723364","long":"127.0581119","imageIndex":0,"items":[{"name":"스테이션앤스팀닥터세차","tel":"","addr":"경기도 오산시 외삼미동 328-7번지 1층 스테이션 세차장","indutype":"자동차정비 유지 - 세차장","category":"car"}]},{"lat":"37.198327966","long":"127.05914389","imageIndex":0,"items":[{"name":"쌍용자동차오산부품대리점","tel":"031-8015-1050","addr":"경기도 오산시 외삼미동 140번지","indutype":"자동차정비 유지 - 자동차부품","category":"car"}]},{"lat":"37.1929434","long":"127.05083918","imageIndex":0,"items":[{"name":"에어모션","tel":"031-372-7889","addr":"경기도 오산시 외삼미동 459-91번지","indutype":"자동차정비 유지 - 자동차부품","category":"car"}]},{"lat":"37.192249171","long":"127.05188618","imageIndex":0,"items":[{"name":"에프엠알퍼포먼스(FMR Performance)","tel":"031-378-3630","addr":"경기도 오산시 외삼미동 459-68번지 1층","indutype":"자동차정비 유지 - 자동차부품","category":"car"}]},{"lat":"37.190273995","long":"127.05627725","imageIndex":0,"items":[{"name":"오토자동차공업사","tel":"031-377-0932","addr":"경기도 오산시 외삼미동 340-3번지","indutype":"자동차정비 유지 - 자동차정비","category":"car"}]},{"lat":"37.197776521","long":"127.06283793","imageIndex":0,"items":[{"name":"우성산업사","tel":"031-372-4693","addr":"경기도 오산시 외삼미동 124-2번지 1층","indutype":"자동차정비 유지 - 자동차부품","category":"car"}]},{"lat":"37.195499534","long":"127.0573622","imageIndex":0,"items":[{"name":"지오카","tel":"","addr":"경기도 오산시 외삼미동 220-3번지 B동","indutype":"자동차정비 유지 - 자동차부품","category":"car"}]},{"lat":"37.197327839","long":"127.05908683","imageIndex":0,"items":[{"name":"카방","tel":"031-372-2280","addr":"경기도 오산시 외삼미동 175번지","indutype":"자동차정비 유지 - 카인테리어","category":"car"}]},{"lat":"37.192501504","long":"127.05178497","imageIndex":0,"items":[{"name":"피트모션(Fitmotion)","tel":"031-375-5182","addr":"경기도 오산시 외삼미동 459-67번지 1층전체","indutype":"자동차정비 유지 - 자동차정비","category":"car"}]},{"lat":"37.198776731","long":"127.06272608","imageIndex":0,"items":[{"name":"화성자동차종합서비스","tel":"031-8003-6350","addr":"경기도 오산시 외삼미동 126-3번지 외3필지","indutype":"자동차정비 유지 - 자동차정비","category":"car"}]},{"lat":"37.198911647","long":"127.06319927","imageIndex":0,"items":[{"name":"화성자동차종합서비스","tel":"031-8003-6350","addr":"경기도 오산시 외삼미동 126-10번지 외3필지","indutype":"자동차정비 유지 - 자동차정비","category":"car"},{"name":"화성자동차종합서비스","tel":"031-8003-6350","addr":"경기도 오산시 외삼미동 126-10번지","indutype":"자동차정비 유지 - 세차장","category":"car"}]}]