[{"lat":"37.257027001","long":"127.57025214","imageIndex":17,"items":[{"name":"강한","tel":"070-4208-7654","addr":"경기도 여주시 능서면 광대리 459-2번지 1층","indutype":"건축자재 - 기타건축자재","category":"other"}]},{"lat":"37.262638498","long":"127.58364154","imageIndex":17,"items":[{"name":"박경애","tel":"","addr":"경기도 여주시 능서면 광대리 79-16번지 1층","indutype":"신변잡화 - 액세서리","category":"other"}]},{"lat":"37.262911756","long":"127.58119737","imageIndex":17,"items":[{"name":"차칸설비","tel":"031-886-4617","addr":"경기도 여주시 능서면 광대리 83번지","indutype":"건축자재 - 보일러·펌프·샷시","category":"other"}]},{"lat":"37.272135601","long":"127.57055716","imageIndex":0,"items":[{"name":"경동기업","tel":"031-405-4404","addr":"경기도 여주시 능서면 광대리 3-8번지","indutype":"자동차정비 유지 - 견인서비스","category":"car"},{"name":"경동기업","tel":"031-866-6443","addr":"경기도 여주시 능서면 광대리 3-8번지","indutype":"자동차정비 유지 - 견인서비스","category":"car"},{"name":"경동기업 (연성치타렉카)","tel":"070-8508-4682","addr":"경기도 여주시 능서면 광대리 3-8번지","indutype":"자동차정비 유지 - 견인서비스","category":"car"}]},{"lat":"37.263246772","long":"127.58086174","imageIndex":7,"items":[{"name":"넓은들영농조합법인","tel":"031-885-9090","addr":"경기도 여주시 능서면 광대리 85-10번지","indutype":"음료식품 - 농·축·수산품","category":"food"}]},{"lat":"37.26735802","long":"127.58584234","imageIndex":9,"items":[{"name":"성산종합가스","tel":"031-883-4402","addr":"경기도 여주시 능서면 광대리 65-8번지","indutype":"연료판매점 - LPG 취급점","category":"oil"}]},{"lat":"37.262500303","long":"127.57314527","imageIndex":16,"items":[{"name":"한국치유문화원","tel":"031-881-6100","addr":"경기도 여주시 능서면 광대리 301-1번지","indutype":"학원 - 기타 교육기관","category":"study"}]}]