[{"lat":"37.091141244","long":"126.82824928","imageIndex":16,"items":[{"name":"(주)화성자동차학원","tel":"031-351-0405","addr":"경기도 화성시 우정읍 조암리 85번지","indutype":"학원 - 기능학원","category":"study"}]},{"lat":"37.08650362","long":"126.82408726","imageIndex":16,"items":[{"name":"공터영어장안마인드센터학원","tel":"","addr":"경기도 화성시 우정읍 조암리 800-3번지 101호","indutype":"학원 - 보습학원","category":"study"}]},{"lat":"37.084841067","long":"126.82105453","imageIndex":16,"items":[{"name":"김선화수학학원","tel":"031-351-1151","addr":"경기도 화성시 우정읍 조암리 244-8번지 1층 2층 일부","indutype":"학원 - 보습학원","category":"study"},{"name":"톱클래스학원","tel":"","addr":"경기도 화성시 우정읍 조암리 244-8번지 2층","indutype":"학원 - 보습학원","category":"study"}]},{"lat":"37.084813569","long":"126.82075093","imageIndex":16,"items":[{"name":"김선화어학원","tel":"031-351-1151","addr":"경기도 화성시 우정읍 조암리 243-1번지 2층","indutype":"학원 - 보습학원","category":"study"}]},{"lat":"37.082203047","long":"126.81658475","imageIndex":16,"items":[{"name":"멘사영재원","tel":"053-636-6522","addr":"경기도 화성시 우정읍 조암리 340-29번지","indutype":"학원 - 기타 교육기관","category":"study"}]},{"lat":"37.089311412","long":"126.82778109","imageIndex":16,"items":[{"name":"본오자동차운전전문학원","tel":"031-351-8900","addr":"경기도 화성시 우정읍 조암리 88-1번지","indutype":"학원 - 기능학원","category":"study"}]},{"lat":"37.086619328","long":"126.82314223","imageIndex":16,"items":[{"name":"아너스보습학원","tel":"070-8810-3474","addr":"경기도 화성시 우정읍 조암리 801번지 1층","indutype":"학원 - 보습학원","category":"study"}]},{"lat":"37.085037378","long":"126.81980566","imageIndex":16,"items":[{"name":"아름보습학원","tel":"031-358-4289","addr":"경기도 화성시 우정읍 조암리 218-7번지 2층","indutype":"학원 - 보습학원","category":"study"}]},{"lat":"37.086538523","long":"126.82333363","imageIndex":16,"items":[{"name":"아이비보습학원","tel":"031-358-8118","addr":"경기도 화성시 우정읍 조암리 801-1번지 1층","indutype":"학원 - 보습학원","category":"study"}]},{"lat":"37.088307222","long":"126.81916794","imageIndex":16,"items":[{"name":"에듀윤보습학원","tel":"031-351-1386","addr":"경기도 화성시 우정읍 조암리 148-4번지 2층","indutype":"학원 - 보습학원","category":"study"},{"name":"에듀윤음악미술학원","tel":"031-358-9783","addr":"경기도 화성시 우정읍 조암리 148-4번지 1층","indutype":"학원 - 예·체능계학원","category":"study"}]},{"lat":"37.087835322","long":"126.82285818","imageIndex":16,"items":[{"name":"용인대장안태권도","tel":"031-358-6998","addr":"경기도 화성시 우정읍 조암리 793-1번지 2층 2호","indutype":"학원 - 예·체능계학원","category":"study"}]},{"lat":"37.088202104","long":"126.81533286","imageIndex":16,"items":[{"name":"우정어린이집[아이행복]","tel":"031-351-5544","addr":"경기도 화성시 우정읍 조암리 386번지 B동","indutype":"학원 - 유아원","category":"study"}]},{"lat":"37.081364885","long":"126.7999985","imageIndex":16,"items":[{"name":"우정초등학교병설유치원[아이행복]","tel":"031-351-6767","addr":"경기도 화성시 우정읍 조암리 631-1번지","indutype":"학원 - 유치원","category":"study"}]},{"lat":"37.08339891","long":"126.81497356","imageIndex":16,"items":[{"name":"우정태권도학원","tel":"031-358-5623","addr":"경기도 화성시 우정읍 조암리 363-3번지 2층","indutype":"학원 - 예·체능계학원","category":"study"}]},{"lat":"37.086149466","long":"126.82227732","imageIndex":16,"items":[{"name":"잼스터디","tel":"070-8818-9304","addr":"경기도 화성시 우정읍 조암리 805-3번지 202호","indutype":"학원 - 기타 교육기관","category":"study"}]},{"lat":"37.088227119","long":"126.81980923","imageIndex":16,"items":[{"name":"조암 레전드 태권도","tel":"070-8699-4464","addr":"경기도 화성시 우정읍 조암리 148-2번지 202호","indutype":"학원 - 예·체능계학원","category":"study"}]},{"lat":"37.081948305","long":"126.81503337","imageIndex":16,"items":[{"name":"조암아기뜰어린이집[아이행복]","tel":"031-358-7989","addr":"경기도 화성시 우정읍 조암리 331-11번지 덕성빌라 101호","indutype":"학원 - 유아원","category":"study"}]},{"lat":"37.087286396","long":"126.82333186","imageIndex":16,"items":[{"name":"조암옥스포드학원","tel":"031-351-0865","addr":"경기도 화성시 우정읍 조암리 797-17번지 1층","indutype":"학원 - 외국어학원","category":"study"}]},{"lat":"37.084003725","long":"126.82147265","imageIndex":16,"items":[{"name":"지앤비영어TCC수학학원","tel":"031-351-0353","addr":"경기도 화성시 우정읍 조암리 256-7번지 2201호","indutype":"학원 - 보습학원","category":"study"}]},{"lat":"37.085787637","long":"126.82135593","imageIndex":16,"items":[{"name":"청어람학원","tel":"031-358-0411","addr":"경기도 화성시 우정읍 조암리 807번지 1층","indutype":"학원 - 보습학원","category":"study"}]},{"lat":"37.083623656","long":"126.81464685","imageIndex":16,"items":[{"name":"푸우창의존중어린이집[아이행복]","tel":"031-358-0914","addr":"경기도 화성시 우정읍 조암리 365-19번지 동명주택 나동 102호","indutype":"학원 - 유아원","category":"study"}]},{"lat":"37.089837834","long":"126.82429313","imageIndex":16,"items":[{"name":"한라키즈어린이집[아이행복]","tel":"031-8050-3871","addr":"경기도 화성시 우정읍 조암리 791번지 한라비발디 109동 104호","indutype":"학원 - 유아원","category":"study"}]},{"lat":"37.083840294","long":"126.82066328","imageIndex":16,"items":[{"name":"합기도 화랑 연무관","tel":"031-358-9634","addr":"경기도 화성시 우정읍 조암리 260-18번지 조암프라자 201호","indutype":"학원 - 예·체능계학원","category":"study"}]},{"lat":"37.087203833","long":"126.8223648","imageIndex":16,"items":[{"name":"화성우정차이랑중국어교습소","tel":"031-1111-1111","addr":"경기도 화성시 우정읍 조암리 802-7번지 102호","indutype":"학원 - 외국어학원","category":"study"}]}]