[{"lat":"37.298396709","long":"126.93037218","imageIndex":7,"items":[{"name":"(주)도담","tel":"031-419-5021","addr":"경기도 안산시 상록구 사사동 119-25번지","indutype":"음료식품 - 정육점","category":"food"}]},{"lat":"37.298375831","long":"126.9258495","imageIndex":7,"items":[{"name":"(주)롤리폴리캔디","tel":"070-4225-5080","addr":"경기도 안산시 상록구 사사동 141","indutype":"음료식품 - 기타음료식품","category":"food"}]},{"lat":"37.29909634","long":"126.92537507","imageIndex":7,"items":[{"name":"(주)엠케이커머스","tel":"031-419-2211","addr":"경기도 안산시 상록구 사사동 134-6번지 1층","indutype":"음료식품 - 정육점","category":"food"},{"name":"주식회사 브이에스에프씨","tel":"031-1588-2329","addr":"경기도 안산시 상록구 사사동 134-6번지","indutype":"음료식품 - 정육점","category":"food"},{"name":"주식회사 브이에스유통","tel":"031-419-6658","addr":"경기도 안산시 상록구 사사동 134-6번지","indutype":"음료식품 - 정육점","category":"food"}]},{"lat":"37.298009186","long":"126.93023721","imageIndex":7,"items":[{"name":"(주)해밀디에스에프","tel":"031-419-5021","addr":"경기도 안산시 상록구 사사동 119-34번지 2층","indutype":"음료식품 - 정육점","category":"food"}]},{"lat":"37.297956578","long":"126.91882344","imageIndex":7,"items":[{"name":"경기홀푸드","tel":"031-419-5719","addr":"경기도 안산시 상록구 사사동 443-11번지","indutype":"음료식품 - 기타음료식품","category":"food"}]},{"lat":"37.298452453","long":"126.91926275","imageIndex":7,"items":[{"name":"돌쇠사골국","tel":"031-419-5508","addr":"경기도 안산시 상록구 사사동 443-3번지","indutype":"음료식품 - 정육점","category":"food"}]},{"lat":"37.297397146","long":"126.9177075","imageIndex":7,"items":[{"name":"백암진식품","tel":"031-419-8935","addr":"경기도 안산시 상록구 사사동 436-2번지","indutype":"음료식품 - 정육점","category":"food"}]},{"lat":"37.299645727","long":"126.91234757","imageIndex":7,"items":[{"name":"상록수농원","tel":"031-408-3507","addr":"경기도 안산시 상록구 사사동 530-7 (전-하우스)","indutype":"음료식품 - 농·축·수산품","category":"food"},{"name":"주식회사 농업회사법인상록수된장마을","tel":"031-408-3507","addr":"경기도 안산시 상록구 사사동 530-7번지","indutype":"음료식품 - 기타음료식품","category":"food"}]},{"lat":"37.306008389","long":"126.92722912","imageIndex":7,"items":[{"name":"신도정육점","tel":"031-419-1744","addr":"경기도 안산시 상록구 사사동 47-6번지","indutype":"음료식품 - 정육점","category":"food"}]},{"lat":"37.293343505","long":"126.91906541","imageIndex":7,"items":[{"name":"웰빙C.T","tel":"031-419-7208","addr":"경기도 안산시 상록구 사사동 341번지","indutype":"음료식품 - 농·축·수산품","category":"food"}]},{"lat":"37.299561061","long":"126.91975779","imageIndex":7,"items":[{"name":"자담채","tel":"031-362-6000","addr":"경기도 안산시 상록구 사사동 447-1번지 1층","indutype":"음료식품 - 기타음료식품","category":"food"}]},{"lat":"37.305818043","long":"126.92548096","imageIndex":7,"items":[{"name":"주식회사 트로이","tel":"031-406-9202","addr":"경기도 안산시 상록구 사사동 45번지","indutype":"음료식품 - 기타음료식품","category":"food"}]},{"lat":"37.299509206","long":"126.922961","imageIndex":7,"items":[{"name":"주식회사경기식품","tel":"031-419-0262","addr":"경기도 안산시 상록구 사사동 378-1번지 1동 1층","indutype":"음료식품 - 제과점","category":"food"}]},{"lat":"37.296874674","long":"126.91787726","imageIndex":7,"items":[{"name":"주식회사동훤미트","tel":"031-501-0077","addr":"경기도 안산시 상록구 사사동 436-12번지","indutype":"음료식품 - 정육점","category":"food"}]},{"lat":"37.298788456","long":"126.92306327","imageIndex":7,"items":[{"name":"하나로 돌봄사업","tel":"","addr":"경기도 안산시 상록구 사사동 243-24번지 1층","indutype":"음료식품 - 기타음료식품","category":"food"}]},{"lat":"37.298842692","long":"126.92332262","imageIndex":7,"items":[{"name":"하명식품","tel":"031-502-0437","addr":"경기도 안산시 상록구 사사동 243-26번지 1층","indutype":"음료식품 - 기타음료식품","category":"food"}]},{"lat":"37.298010318","long":"126.91837224","imageIndex":7,"items":[{"name":"행진FS(Food System)","tel":"031-409-8595","addr":"경기도 안산시 상록구 사사동 446-30번지","indutype":"음료식품 - 정육점","category":"food"}]},{"lat":"37.29709659","long":"126.92617788","imageIndex":7,"items":[{"name":"헤브론팜","tel":"031-410-2400","addr":"경기도 안산시 상록구 사사동 237번지","indutype":"음료식품 - 농·축·수산품","category":"food"}]},{"lat":"37.296703019","long":"126.93075727","imageIndex":17,"items":[{"name":"(주)로보스타","tel":"031-400-3600","addr":"경기도 안산시 상록구 사사동 119-38번지","indutype":"기타 - 기타 전문점","category":"other"}]},{"lat":"37.297957611","long":"126.92028964","imageIndex":17,"items":[{"name":"(주)삼성철재","tel":"031-416-8383","addr":"경기도 안산시 상록구 사사동 372-6번지","indutype":"건축자재 - 기타건축자재","category":"other"}]},{"lat":"37.298791727","long":"126.92807097","imageIndex":17,"items":[{"name":"(주)알티하이텍","tel":"031-419-6464","addr":"경기도 안산시 상록구 사사동 119-55번지","indutype":"기타 - 기계공구","category":"other"}]},{"lat":"37.298927469","long":"126.92900696","imageIndex":17,"items":[{"name":"(주)에이멕스","tel":"031-419-1941","addr":"경기도 안산시 상록구 사사동 119번지","indutype":"기타 - 기타 전문점","category":"other"},{"name":"에이치엔씨시스템(주)/원격지","tel":"031-419-3916","addr":"경기도 안산시 상록구 사사동 119번지","indutype":"기타 - 기타 전문점","category":"other"},{"name":"제일엔지니어링","tel":"031-419-1404","addr":"경기도 안산시 상록구 사사동 119번지","indutype":"전기제품 - 냉열기기","category":"other"}]},{"lat":"37.297874288","long":"126.93065464","imageIndex":17,"items":[{"name":"(주)에이치앤디테크","tel":"031-416-4053","addr":"경기도 안산시 상록구 사사동 119-79번지 3층","indutype":"전기제품 - 기타전기제품","category":"other"},{"name":"현대와이어","tel":"031-455-9690","addr":"경기도 안산시 상록구 사사동 119-79번지","indutype":"기타 - 기계공구","category":"other"}]},{"lat":"37.299510737","long":"126.92526185","imageIndex":17,"items":[{"name":"(주)와이엠퍼니쳐","tel":"031-419-2480","addr":"경기도 안산시 상록구 사사동 134번지","indutype":"가구 - 일반가구","category":"other"}]},{"lat":"37.297875059","long":"126.93192911","imageIndex":17,"items":[{"name":"(주)원하이테크","tel":"031-419-2601","addr":"경기도 안산시 상록구 사사동 119-65번지","indutype":"전기제품 - 기타전기제품","category":"other"}]},{"lat":"37.297262332","long":"126.91818134","imageIndex":17,"items":[{"name":"(주)유진디자인소파","tel":"031-419-0131","addr":"경기도 안산시 상록구 사사동 439-2번지 1층","indutype":"가구 - 일반가구","category":"other"}]},{"lat":"37.300424323","long":"126.91734316","imageIndex":17,"items":[{"name":"(주)유찬산업","tel":"031-409-3401","addr":"경기도 안산시 상록구 사사동 510-1번지","indutype":"건축자재 - 목재·석재·철물","category":"other"}]},{"lat":"37.298594643","long":"126.92989829","imageIndex":17,"items":[{"name":"(주)제니시스안산공장","tel":"031-415-6191","addr":"경기도 안산시 상록구 사사동 119-20번지","indutype":"주방용구 - 주방용구","category":"other"}]},{"lat":"37.299122747","long":"126.92442763","imageIndex":17,"items":[{"name":"(주)카툴스","tel":"031-408-7500","addr":"경기도 안산시 상록구 사사동 138번지","indutype":"기타 - 기계공구","category":"other"}]},{"lat":"37.298982048","long":"126.92984152","imageIndex":17,"items":[{"name":"(주)코엘","tel":"031-408-7821","addr":"경기도 안산시 상록구 사사동 119-57번지","indutype":"전기제품 - 기타전기제품","category":"other"},{"name":"케이 이프로","tel":"031-000-0000","addr":"경기도 안산시 상록구 사사동 119-57번지 2층 201호","indutype":"레져용품 - 골프용품 전문점","category":"other"}]},{"lat":"37.296568204","long":"126.91770843","imageIndex":17,"items":[{"name":"(주)한일시티코리아","tel":"031-419-5533","addr":"경기도 안산시 상록구 사사동 433-1번지","indutype":"기타 - 기타 전문점","category":"other"}]},{"lat":"37.300011865","long":"126.92017461","imageIndex":17,"items":[{"name":"MSI","tel":"","addr":"경기도 안산시 상록구 사사동 450-4번지 1층","indutype":"기타 - 기계공구","category":"other"}]},{"lat":"37.296595534","long":"126.9181257","imageIndex":17,"items":[{"name":"강풍에어컨","tel":"031-407-2566","addr":"경기도 안산시 상록구 사사동 404-6번지","indutype":"용역 서비스 - 기타용역서비스","category":"other"}]},{"lat":"37.301978675","long":"126.92395094","imageIndex":17,"items":[{"name":"경성유통","tel":"070-7539-9081","addr":"경기도 안산시 상록구 사사동 108-9번지","indutype":"서적문구 - 문구용품","category":"other"}]},{"lat":"37.300596238","long":"126.91834679","imageIndex":17,"items":[{"name":"그린철망","tel":"031-406-7089","addr":"경기도 안산시 상록구 사사동 512번지","indutype":"건축자재 - 기타건축자재","category":"other"}]},{"lat":"37.298788835","long":"126.9236272","imageIndex":17,"items":[{"name":"글로벌테크","tel":"031-681-7822","addr":"경기도 안산시 상록구 사사동 243-28번지 1층","indutype":"기타 - 기계공구","category":"other"},{"name":"뉴엔코주식회사/원격지","tel":"031-437-2063","addr":"경기도 안산시 상록구 사사동 243-28번지","indutype":"기타 - 기타 전문점","category":"other"}]},{"lat":"37.295820029","long":"126.91725815","imageIndex":17,"items":[{"name":"금강열쇠","tel":"031-419-1999","addr":"경기도 안산시 상록구 사사동 407-2번지","indutype":"건축자재 - 목재·석재·철물","category":"other"},{"name":"탑크린","tel":"","addr":"경기도 안산시 상록구 사사동 407-2번지","indutype":"수리서비스 - 세탁소","category":"other"}]},{"lat":"37.304318039","long":"126.91915474","imageIndex":17,"items":[{"name":"농업회사법인(주)지앤인","tel":"031-752-3513","addr":"경기도 안산시 상록구 사사동 76번지","indutype":"문화.취미 - 화원","category":"other"}]},{"lat":"37.295231237","long":"126.91304082","imageIndex":17,"items":[{"name":"다르림 종합상사","tel":"031-406-0985","addr":"경기도 안산시 상록구 사사동 595번지","indutype":"기타 - 기계공구","category":"other"}]},{"lat":"37.301260773","long":"126.91528944","imageIndex":17,"items":[{"name":"대림시스템키친","tel":"031-457-7771","addr":"경기도 안산시 상록구 사사동 502번지","indutype":"주방용구 - 주방용구","category":"other"}]},{"lat":"37.299813236","long":"126.91959961","imageIndex":17,"items":[{"name":"대신기업","tel":"031-416-0081","addr":"경기도 안산시 상록구 사사동 450-2번지","indutype":"기타 - 기타 전문점","category":"other"}]},{"lat":"37.30200554","long":"126.92370278","imageIndex":17,"items":[{"name":"대한개발","tel":"070-8237-9920","addr":"경기도 안산시 상록구 사사동 108-6번지","indutype":"용역 서비스 - 기타용역서비스","category":"other"}]},{"lat":"37.297091299","long":"126.9184071","imageIndex":17,"items":[{"name":"덕유문구지류","tel":"031-419-3061","addr":"경기도 안산시 상록구 사사동 439-3번지","indutype":"서적문구 - 문구용품","category":"other"}]},{"lat":"37.298401966","long":"126.92448477","imageIndex":17,"items":[{"name":"데코피아","tel":"031-419-9220","addr":"경기도 안산시 상록구 사사동 239-8번지 4층","indutype":"기타 - 기타 전문점","category":"other"}]},{"lat":"37.298592595","long":"126.92665006","imageIndex":17,"items":[{"name":"동안산아디다스","tel":"031-416-2463","addr":"경기도 안산시 상록구 사사동 119-18번지 아이언패션아울렛A동2호","indutype":"레져용품 - 스포츠·레져용품","category":"other"}]},{"lat":"37.293868285","long":"126.93673725","imageIndex":17,"items":[{"name":"무릉농원","tel":"031-426-4798","addr":"경기도 안산시 상록구 사사동 179-2","indutype":"문화.취미 - 화원","category":"other"}]},{"lat":"37.298677788","long":"126.91937529","imageIndex":17,"items":[{"name":"문쟁이","tel":"031-419-8786","addr":"경기도 안산시 상록구 사사동 443-5번지","indutype":"건축자재 - 기타건축자재","category":"other"}]},{"lat":"37.2986777881","long":"126.9193752866","imageIndex":17,"items":[{"name":"문쟁이","tel":"031-419-8786","addr":"경기도 안산시 상록구 사사동 443-5번지","indutype":"제조업 - 인테리어,자재","category":"other"}]},{"lat":"37.298235671","long":"126.91850733","imageIndex":17,"items":[{"name":"미성테크","tel":"","addr":"경기도 안산시 상록구 사사동 446-28번지","indutype":"기타 - 기계공구","category":"other"}]},{"lat":"37.299536639","long":"126.91109576","imageIndex":17,"items":[{"name":"반월농자재","tel":"031-502-1344","addr":"경기도 안산시 상록구 사사동 537-1","indutype":"용역 서비스 - 기타용역서비스","category":"other"},{"name":"애경꽃플라워","tel":"031-419-2209","addr":"경기도 안산시 상록구 사사동 537-1번지","indutype":"문화.취미 - 화원","category":"other"},{"name":"예원분재","tel":"031-419-3033","addr":"경기도 안산시 상록구 사사동 537-1번지","indutype":"문화.취미 - 화원","category":"other"},{"name":"초계라라조경","tel":"031-419-3455","addr":"경기도 안산시 상록구 사사동 537-1번지","indutype":"문화.취미 - 화원","category":"other"}]},{"lat":"37.298977989","long":"126.92353677","imageIndex":17,"items":[{"name":"보령산업","tel":"031-419-4202","addr":"경기도 안산시 상록구 사사동 243-9번지","indutype":"가구 - 일반가구","category":"other"}]},{"lat":"37.299339045","long":"126.92450636","imageIndex":17,"items":[{"name":"삼성UPR상사","tel":"031-416-5690","addr":"경기도 안산시 상록구 사사동 137번지","indutype":"기타 - 기타 전문점","category":"other"}]},{"lat":"37.2996457265","long":"126.9123475660","imageIndex":17,"items":[{"name":"상록수 된장마을","tel":"031-408-3507","addr":"경기도 안산시 상록구 사사동 530-7번지","indutype":"제조업 - 장류제조","category":"other"}]},{"lat":"37.30609667","long":"126.92443167","imageIndex":17,"items":[{"name":"선진유통","tel":"031-418-4430","addr":"경기도 안산시 상록구 사사동 54번지","indutype":"신변잡화 - 기타잡화","category":"other"}]},{"lat":"37.293622687","long":"126.91887337","imageIndex":17,"items":[{"name":"수지원","tel":"02-0000-0000","addr":"경기도 안산시 상록구 사사동 327-1번지","indutype":"문화.취미 - 화원","category":"other"}]},{"lat":"37.298259607","long":"126.92725944","imageIndex":17,"items":[{"name":"스프리스안산아이언점","tel":"031-410-4336","addr":"경기도 안산시 상록구 사사동 119-103번지 아이언패션아울렛 A동 105호","indutype":"레져용품 - 스포츠·레져용품","category":"other"}]},{"lat":"37.2984561389","long":"126.9246538956","imageIndex":17,"items":[{"name":"승완공구철물","tel":"031-415-8967","addr":"경기도 안산시 상록구 사사동 239-19번지","indutype":"도매 및 소매업 - 공구,철물,난방용","category":"other"}]},{"lat":"37.298456139","long":"126.9246539","imageIndex":17,"items":[{"name":"승완공구철물","tel":"","addr":"경기도 안산시 상록구 사사동 239-19번지","indutype":"기타 - 기계공구","category":"other"},{"name":"한경건축자재 주식회사","tel":"031-410-7733","addr":"경기도 안산시 상록구 사사동 239-19번지","indutype":"건축자재 - 기타건축자재","category":"other"}]},{"lat":"37.298786363","long":"126.92001805","imageIndex":17,"items":[{"name":"신양KCC창호","tel":"031-502-0566","addr":"경기도 안산시 상록구 사사동 393-3번지","indutype":"건축자재 - 기타건축자재","category":"other"}]},{"lat":"37.297895025","long":"126.92098897","imageIndex":17,"items":[{"name":"신평가설산업","tel":"031-419-3107","addr":"경기도 안산시 상록구 사사동 371-1","indutype":"건축자재 - 기타건축자재","category":"other"}]},{"lat":"37.298681043","long":"126.92412357","imageIndex":17,"items":[{"name":"씨스페이시스 안산테콤점","tel":"","addr":"경기도 안산시 상록구 사사동 239-1번지 1층 상가동","indutype":"유통업 영리 - 편 의 점","category":"other"}]},{"lat":"37.295982441","long":"126.91757376","imageIndex":17,"items":[{"name":"씨유안산태현점","tel":"031-503-4786","addr":"경기도 안산시 상록구 사사동 407-1번지","indutype":"유통업 영리 - 편 의 점","category":"other"}]},{"lat":"37.296595252","long":"126.93134384","imageIndex":17,"items":[{"name":"아크노","tel":"070-7786-4245","addr":"경기도 안산시 상록구 사사동 119-69번지 3층","indutype":"직물 - 카페트,커튼,천막,지물","category":"other"}]},{"lat":"37.299815516","long":"126.92290428","imageIndex":17,"items":[{"name":"안산과학기자재","tel":"031-419-3855","addr":"경기도 안산시 상록구 사사동 379-3번지","indutype":"서적문구 - 문구용품","category":"other"}]},{"lat":"37.299263373","long":"126.91926185","imageIndex":17,"items":[{"name":"알파도어","tel":"031-419-0135","addr":"경기도 안산시 상록구 사사동 446-3번지 B동","indutype":"건축자재 - 기타건축자재","category":"other"}]},{"lat":"37.299038428","long":"126.91970197","imageIndex":17,"items":[{"name":"앙드","tel":"031-419-7715","addr":"경기도 안산시 상록구 사사동 447-13번지 15-5","indutype":"광학제품 - 사진관","category":"other"}]},{"lat":"37.303984677","long":"126.91917767","imageIndex":17,"items":[{"name":"애경대리점","tel":"031-419-4368","addr":"경기도 안산시 상록구 사사동 75-2번지","indutype":"신변잡화 - 기타잡화","category":"other"}]},{"lat":"37.299229995","long":"126.92311919","imageIndex":17,"items":[{"name":"영미사","tel":"031-4419-3855","addr":"경기도 안산시 상록구 사사동 377-8번지","indutype":"주방용구 - 주방용구","category":"other"}]},{"lat":"37.298981255","long":"126.92856704","imageIndex":17,"items":[{"name":"예성씨엔씨","tel":"031-419-3460","addr":"경기도 안산시 상록구 사사동 119-53번지","indutype":"기타 - 기계공구","category":"other"}]},{"lat":"37.297152866","long":"126.92967412","imageIndex":17,"items":[{"name":"예스플러스안산테콤점","tel":"031-437-8358","addr":"경기도 안산시 상록구 사사동 119-40번지","indutype":"유통업 영리 - 편 의 점","category":"other"}]},{"lat":"37.297289201","long":"126.91795575","imageIndex":17,"items":[{"name":"오리온씨엔에스","tel":"","addr":"경기도 안산시 상록구 사사동 436-3번지","indutype":"용역 서비스 - 기타용역서비스","category":"other"}]},{"lat":"37.299623918","long":"126.91945319","imageIndex":17,"items":[{"name":"오피스 아이피","tel":"031-419-2304","addr":"경기도 안산시 상록구 사사동 447-2번지 거성빌라 1층 102호","indutype":"서적문구 - 문구용품","category":"other"}]},{"lat":"37.296592323","long":"126.92665208","imageIndex":17,"items":[{"name":"원분재","tel":"031-419-9938","addr":"경기도 안산시 상록구 사사동 146-3 236-6/ 226-2","indutype":"문화.취미 - 화원","category":"other"}]},{"lat":"37.299788781","long":"126.92334418","imageIndex":17,"items":[{"name":"원프로토/원격지","tel":"031-419-8005","addr":"경기도 안산시 상록구 사사동 384-7번지","indutype":"기타 - 기타 전문점","category":"other"},{"name":"주손정밀","tel":"031-419-9011","addr":"경기도 안산시 상록구 사사동 384-7번지","indutype":"기타 - 기계공구","category":"other"}]},{"lat":"37.297262493","long":"126.91840691","imageIndex":17,"items":[{"name":"유니온디자인소파","tel":"031-419-0865","addr":"경기도 안산시 상록구 사사동 441번지","indutype":"가구 - 일반가구","category":"other"}]},{"lat":"37.303594619","long":"126.92876553","imageIndex":17,"items":[{"name":"유니커즈","tel":"070-8863-3343","addr":"경기도 안산시 상록구 사사동 13번지","indutype":"용역 서비스 - 종합용역","category":"other"}]},{"lat":"37.306566259","long":"126.92604419","imageIndex":17,"items":[{"name":"인시스","tel":"031-797-4215","addr":"경기도 안산시 상록구 사사동 49-1번지","indutype":"기타 - 기계공구","category":"other"}]},{"lat":"37.296179534","long":"126.91601714","imageIndex":17,"items":[{"name":"제스디자인","tel":"031-411-8257","addr":"경기도 안산시 상록구 사사동 427번지","indutype":"가구 - 일반가구","category":"other"}]},{"lat":"37.298010318","long":"126.91837224","imageIndex":17,"items":[{"name":"제이제이상사 (J.J)","tel":"031-418-2366","addr":"경기도 안산시 상록구 사사동 446-30번지 1층","indutype":"의류 - 기타의류","category":"other"}]},{"lat":"37.299680225","long":"126.92270141","imageIndex":17,"items":[{"name":"주식회사 에스아이레이져텍","tel":"031-501-4963","addr":"경기도 안산시 상록구 사사동 378번지","indutype":"전기제품 - 기타전기제품","category":"other"}]},{"lat":"37.297090678","long":"126.93111781","imageIndex":17,"items":[{"name":"주식회사 엘케이에프","tel":"031-401-0017","addr":"경기도 안산시 상록구 사사동 119-37번지 엘케이에프빌딩 5층","indutype":"신변잡화 - 기타잡화","category":"other"}]},{"lat":"37.298541395","long":"126.93122921","imageIndex":17,"items":[{"name":"주식회사 희망사업단","tel":"031-000-0000","addr":"경기도 안산시 상록구 사사동 119-61번지","indutype":"서적문구 - 출판 및 인쇄물","category":"other"}]},{"lat":"37.298422882","long":"126.92898489","imageIndex":17,"items":[{"name":"주식회사부현","tel":"070-4122-2584","addr":"경기도 안산시 상록구 사사동 119-23번지 3층","indutype":"기타 - 기계공구","category":"other"}]},{"lat":"37.297396573","long":"126.93037314","imageIndex":17,"items":[{"name":"주식회사엔씨엠","tel":"031-419-4070","addr":"경기도 안산시 상록구 사사동 119-86번지","indutype":"건축자재 - 건축용 요업제품","category":"other"}]},{"lat":"37.295846313","long":"126.91623181","imageIndex":17,"items":[{"name":"주식회사케어메이트","tel":"02-3473-4911","addr":"경기도 안산시 상록구 사사동 426-2번지","indutype":"기타의료기관 - 기타의료기관 및 기타","category":"other"}]},{"lat":"37.299340175","long":"126.926232","imageIndex":17,"items":[{"name":"주식회사홈페리코리아","tel":"031-319-2811","addr":"경기도 안산시 상록구 사사동 127-1 제디동2층","indutype":"가구 - 일반가구","category":"other"}]},{"lat":"37.306034868","long":"126.92637184","imageIndex":17,"items":[{"name":"진서실업","tel":"031-242-9876","addr":"경기도 안산시 상록구 사사동 46-1번지","indutype":"건축자재 - 목재·석재·철물","category":"other"}]},{"lat":"37.297172528","long":"126.91859874","imageIndex":17,"items":[{"name":"진화건장","tel":"031-419-3884","addr":"경기도 안산시 상록구 사사동 439-16번지","indutype":"건축자재 - 기타건축자재","category":"other"}]},{"lat":"37.298874251","long":"126.93037172","imageIndex":17,"items":[{"name":"천세산업(주)","tel":"031-465-1003","addr":"경기도 안산시 상록구 사사동 119-58번지","indutype":"건축자재 - 보일러·펌프·샷시","category":"other"}]},{"lat":"37.30011956","long":"126.91956543","imageIndex":17,"items":[{"name":"천하종합광고","tel":"031-402-8611","addr":"경기도 안산시 상록구 사사동 449-27번지","indutype":"건축자재 - 인테리어전문","category":"other"}]},{"lat":"37.294959384","long":"126.93829266","imageIndex":17,"items":[{"name":"태백농원","tel":"031-409-7171","addr":"경기도 안산시 상록구 사사동 173 170-2","indutype":"문화.취미 - 화원","category":"other"}]},{"lat":"37.305790486","long":"126.92468014","imageIndex":17,"items":[{"name":"한국건설자재시험연구원 (주)","tel":"031-419-3002","addr":"경기도 안산시 상록구 사사동 55번지","indutype":"용역 서비스 - 사무서비스","category":"other"}]},{"lat":"37.298817369","long":"126.92590545","imageIndex":0,"items":[{"name":"(주)삼일크레인","tel":"031-409-7022","addr":"경기도 안산시 상록구 사사동 130번지 1층","indutype":"자동차판매 - 기타운송","category":"car"}]},{"lat":"37.299340175","long":"126.926232","imageIndex":0,"items":[{"name":"1급프로모터스","tel":"031-419-6995","addr":"경기도 안산시 상록구 사사동 127-1번지","indutype":"자동차정비 유지 - 자동차정비","category":"car"},{"name":"송미1급자동차정비","tel":"031-419-0034","addr":"경기도 안산시 상록구 사사동 127-1번지 133호","indutype":"자동차정비 유지 - 자동차정비","category":"car"}]},{"lat":"37.295228982","long":"126.93700673","imageIndex":0,"items":[{"name":"국도카서비스","tel":"031-419-7172","addr":"경기도 안산시 상록구 사사동 177-14번지","indutype":"자동차정비 유지 - 자동차정비","category":"car"}]},{"lat":"37.297983465","long":"126.9186204","imageIndex":0,"items":[{"name":"메드(MAD)","tel":"070-777-8308","addr":"경기도 안산시 상록구 사사동 443-13번지","indutype":"자동차정비 유지 - 자동차정비","category":"car"}]},{"lat":"37.294701624","long":"126.91570306","imageIndex":0,"items":[{"name":"업휠","tel":"031-419-1988","addr":"경기도 안산시 상록구 사사동 419-2번지 다동","indutype":"자동차정비 유지 - 자동차정비","category":"car"}]},{"lat":"37.299258885","long":"126.92592755","imageIndex":0,"items":[{"name":"오토피아","tel":"031-297-0119","addr":"경기도 안산시 상록구 사사동 132번지","indutype":"자동차정비 유지 - 자동차정비","category":"car"}]},{"lat":"37.298148729","long":"126.92306394","imageIndex":0,"items":[{"name":"차만들기","tel":"031-419-5595","addr":"경기도 안산시 상록구 사사동 243-55번지","indutype":"자동차정비 유지 - 자동차정비","category":"car"}]},{"lat":"37.296703019","long":"126.93075727","imageIndex":4,"items":[{"name":"(주)에스엔제이푸드","tel":"031-899-8600","addr":"경기도 안산시 상록구 사사동 119-38번지 6층","indutype":"일반휴게음식 - 위탁급식업","category":"restaurant"}]},{"lat":"37.302513502","long":"126.91570532","imageIndex":4,"items":[{"name":"능이촌","tel":"031-438-5588","addr":"경기도 안산시 상록구 사사동 475-1번지","indutype":"일반휴게음식 - 일반한식","category":"restaurant"},{"name":"산촌쌈밥","tel":"031-416-7370","addr":"경기도 안산시 상록구 사사동 475-1번지","indutype":"일반휴게음식 - 일반한식","category":"restaurant"}]},{"lat":"37.302397203","long":"126.91684465","imageIndex":4,"items":[{"name":"다우리토종순대국","tel":"031-416-5972","addr":"경기도 안산시 상록구 사사동 479번지 1층","indutype":"일반휴게음식 - 일반한식","category":"restaurant"},{"name":"방일휴게소식당","tel":"031-419-0056","addr":"경기도 안산시 상록구 사사동 479번지 1층","indutype":"일반휴게음식 - 일반한식","category":"restaurant"}]},{"lat":"37.299061963","long":"126.92795791","imageIndex":4,"items":[{"name":"더드림푸드","tel":"031-417-8191","addr":"경기도 안산시 상록구 사사동 123-3번지","indutype":"일반휴게음식 - 일반한식","category":"restaurant"}]},{"lat":"37.298090903","long":"126.93126348","imageIndex":4,"items":[{"name":"미래한식부페","tel":"031-407-3246","addr":"경기도 안산시 상록구 사사동 119-29번지 3층","indutype":"일반휴게음식 - 일반한식","category":"restaurant"}]},{"lat":"37.298203071","long":"126.92348119","imageIndex":4,"items":[{"name":"반월부페","tel":"031-419-1911","addr":"경기도 안산시 상록구 사사동 243-21번지","indutype":"일반휴게음식 - 일반한식","category":"restaurant"}]},{"lat":"37.298339222","long":"126.92498109","imageIndex":4,"items":[{"name":"봉궁순대국본점/농업회사법인 (주)선진식품","tel":"031-439-0005","addr":"경기도 안산시 상록구 사사동 239-20번지 1층","indutype":"일반휴게음식 - 일반한식","category":"restaurant"}]},{"lat":"37.296595252","long":"126.93134384","imageIndex":4,"items":[{"name":"상록푸드","tel":"031-416-6500","addr":"경기도 안산시 상록구 사사동 119-69번지","indutype":"일반휴게음식 - 일반한식","category":"restaurant"}]},{"lat":"37.306008389","long":"126.92722912","imageIndex":4,"items":[{"name":"신도농장","tel":"031-419-1744","addr":"경기도 안산시 상록구 사사동 47-6번지 1층","indutype":"일반휴게음식 - 일반한식","category":"restaurant"}]},{"lat":"37.2986748","long":"126.92839816","imageIndex":4,"items":[{"name":"아름한식","tel":"031-419-2230","addr":"경기도 안산시 상록구 사사동 119-54번지 B동 1층","indutype":"일반휴게음식 - 일반한식","category":"restaurant"}]},{"lat":"37.293790066","long":"126.92654213","imageIndex":4,"items":[{"name":"아초원","tel":"031-419-3775","addr":"경기도 안산시 상록구 사사동 271-13번지 1층","indutype":"일반휴게음식 - 일반한식","category":"restaurant"}]},{"lat":"37.294285433","long":"126.92623713","imageIndex":4,"items":[{"name":"아초원별관","tel":"031-437-3838","addr":"경기도 안산시 상록구 사사동 271-5번지 외1필지 1층","indutype":"일반휴게음식 - 일반한식","category":"restaurant"}]},{"lat":"37.299653049","long":"126.92248714","imageIndex":4,"items":[{"name":"옛날시골밥상","tel":"031-419-1201","addr":"경기도 안산시 상록구 사사동 377-9번지 1층","indutype":"일반휴게음식 - 일반한식","category":"restaurant"},{"name":"옛날시골밥상","tel":"031-419-1201","addr":"경기도 안산시 상록구 사사동 377-9번지 1층","indutype":"일반휴게음식 - 일반한식","category":"restaurant"}]},{"lat":"37.298681043","long":"126.92412357","imageIndex":4,"items":[{"name":"웰빙밥상","tel":"031-416-2727","addr":"경기도 안산시 상록구 사사동 239-1","indutype":"일반휴게음식 - 일반한식","category":"restaurant"}]},{"lat":"37.296812094","long":"126.91856531","imageIndex":4,"items":[{"name":"임마누엘밥집","tel":"031-419-7338","addr":"경기도 안산시 상록구 사사동 397번지","indutype":"일반휴게음식 - 일반한식","category":"restaurant"}]},{"lat":"37.299901386","long":"126.91687005","imageIndex":4,"items":[{"name":"카페519","tel":"031-415-6666","addr":"경기도 안산시 상록구 사사동 519-4번지 2층","indutype":"일반휴게음식 - 서양음식","category":"restaurant"}]},{"lat":"37.29700994","long":"126.93170436","imageIndex":13,"items":[{"name":"(주)이케어","tel":"031-416-8927","addr":"경기도 안산시 상록구 사사동 119-4번지 2층 206호","indutype":"보건위생 - 의료용품","category":"beauty"}]},{"lat":"37.298034546","long":"126.92756418","imageIndex":13,"items":[{"name":"(주)인터불스","tel":"031-8085-0740","addr":"경기도 안산시 상록구 사사동 119-84번지","indutype":"보건위생 - 미용재료","category":"beauty"}]},{"lat":"37.299042035","long":"126.92500293","imageIndex":13,"items":[{"name":"미모리","tel":"031-408-0810","addr":"경기도 안산시 상록구 사사동 136-2번지 쌍용빌라 가동 101호","indutype":"보건위생 - 피부미용실","category":"beauty"}]},{"lat":"37.297649381","long":"126.93123006","imageIndex":13,"items":[{"name":"비욘드릴렉스 주식회사","tel":"031-431-8085","addr":"경기도 안산시 상록구 사사동 119-32번지","indutype":"보건위생 - 의료용품","category":"beauty"}]},{"lat":"37.297923099","long":"126.92251154","imageIndex":13,"items":[{"name":"천불사","tel":"031-406-2004","addr":"경기도 안산시 상록구 사사동 243-6번지","indutype":"보건위생 - 기타대인서비스","category":"beauty"}]},{"lat":"37.2983392216","long":"126.9249810943","imageIndex":5,"items":[{"name":"㈜선진식품봉궁순대국","tel":"031-439-0005","addr":"경기도 안산시 상록구 사사동 239-20번지","indutype":"숙박 및 음식점업 - 한식점업","category":"hotel"},{"name":"봉궁순대국 본점","tel":"031-439-0005","addr":"경기도 안산시 상록구 사사동 239-20번지","indutype":"숙박 및 음식점업 - 한식","category":"hotel"}]},{"lat":"37.2937900662","long":"126.9265421300","imageIndex":5,"items":[{"name":"아초원","tel":"031-437-3838","addr":"경기도 안산시 상록구 사사동 271-13번지","indutype":"숙박 및 음식점업 - 기타음식","category":"hotel"}]},{"lat":"37.2996530486","long":"126.9224871389","imageIndex":5,"items":[{"name":"옛날시골밥상","tel":"031-419-1201","addr":"경기도 안산시 상록구 사사동 377-9번지","indutype":"숙박 및 음식점업 - 한식","category":"hotel"}]},{"lat":"37.2986810432","long":"126.9241235690","imageIndex":5,"items":[{"name":"웰빙밥상","tel":"031-416-2727","addr":"경기도 안산시 상록구 사사동 239-1번지","indutype":"숙박 및 음식점업 - 한식","category":"hotel"}]},{"lat":"37.2999013862","long":"126.9168700466","imageIndex":5,"items":[{"name":"카페519","tel":"031-415-6666","addr":"경기도 안산시 상록구 사사동 519-4번지","indutype":"숙박 및 음식점업 - 카페","category":"hotel"}]},{"lat":"37.296095436","long":"126.91201348","imageIndex":13,"items":[{"name":"골드승마클럽","tel":"031-419-2121","addr":"경기도 안산시 상록구 사사동 587번지","indutype":"레저업소 - 기타레져업소","category":"leisure"}]},{"lat":"37.295007264","long":"126.92781532","imageIndex":13,"items":[{"name":"호강농원","tel":"031-419-0441","addr":"경기도 안산시 상록구 사사동 222-9번지 1층","indutype":"레저업소 - 기타레져업소","category":"leisure"}]},{"lat":"37.296595252","long":"126.93134384","imageIndex":7,"items":[{"name":"베스트올 테콤안산점","tel":"031-419-3060","addr":"경기도 안산시 상록구 사사동 119-69번지 1층 1호","indutype":"유통업 영리 - 슈퍼마켓","category":"mart"}]},{"lat":"37.29831133","long":"126.92368409","imageIndex":7,"items":[{"name":"유성하이퍼마켓","tel":"031-419-0020","addr":"경기도 안산시 상록구 사사동 243-50번지 101호","indutype":"유통업 영리 - 슈퍼마켓","category":"mart"}]},{"lat":"37.2983113301","long":"126.9236840916","imageIndex":7,"items":[{"name":"유성하이퍼마켓","tel":"031-419-0020","addr":"경기도 안산시 상록구 사사동 243-50번지","indutype":"도매 및 소매업 - 슈퍼마켓","category":"mart"}]},{"lat":"37.2949817336","long":"126.9167854240","imageIndex":7,"items":[{"name":"현대하이퍼마켓","tel":"031-437-4040","addr":"경기도 안산시 상록구 사사동 413번지 현대아파트","indutype":"도매 및 소매업 - 슈퍼마켓, 담배","category":"mart"}]},{"lat":"37.295343329","long":"126.91843161","imageIndex":16,"items":[{"name":"샛별어린이집[아이행복]","tel":"031-405-0100","addr":"경기도 안산시 상록구 사사동 402-1번지 1층","indutype":"학원 - 유아원","category":"study"}]}]