[{"lat":"37.293389429","long":"127.68197055","imageIndex":17,"items":[{"name":"가마코리아","tel":"031-885-7070","addr":"경기도 여주시 강천면 이호리 350-16번지","indutype":"문화.취미 - 민예·공예품","category":"other"},{"name":"창무도예연구원","tel":"031-885-7070","addr":"경기도 여주시 강천면 이호리 350-16번지","indutype":"문화.취미 - 민예·공예품","category":"other"},{"name":"한림요업","tel":"031-885-9810","addr":"경기도 여주시 강천면 이호리 350-16번지","indutype":"문화.취미 - 민예·공예품","category":"other"}]},{"lat":"37.293745088","long":"127.68279702","imageIndex":17,"items":[{"name":"나의손","tel":"031-886-1444","addr":"경기도 여주시 강천면 이호리 368-4번지","indutype":"문화.취미 - 민예·공예품","category":"other"}]},{"lat":"37.284084624","long":"127.69705342","imageIndex":17,"items":[{"name":"디자인비젼","tel":"031-883-8926","addr":"경기도 여주시 강천면 이호리 132-5번지","indutype":"용역 서비스 - 종합용역","category":"other"}]},{"lat":"37.288140843","long":"127.68435917","imageIndex":17,"items":[{"name":"목아미사","tel":"031-885-9952","addr":"경기도 여주시 강천면 이호리 444-2번지","indutype":"문화.취미 - 민예·공예품","category":"other"}]},{"lat":"37.288497635","long":"127.68810631","imageIndex":17,"items":[{"name":"목아박물관","tel":"031-885-9952","addr":"경기도 여주시 강천면 이호리 395-2번지","indutype":"문화.취미 - 티켓","category":"other"},{"name":"목아박물관판매장","tel":"031-885-9952","addr":"경기도 여주시 강천면 이호리 395-2번지","indutype":"기타 - 기타 전문점","category":"other"},{"name":"에듀뮤지움","tel":"031-882-9954","addr":"경기도 여주시 강천면 이호리 395-2번지","indutype":"신변잡화 - 기타잡화","category":"other"}]},{"lat":"37.286775793","long":"127.68358005","imageIndex":17,"items":[{"name":"봄날광고기획","tel":"","addr":"경기도 여주시 강천면 이호리 489번지","indutype":"건축자재 - 인테리어전문","category":"other"}]},{"lat":"37.289723291","long":"127.68180228","imageIndex":17,"items":[{"name":"사랑방","tel":"031-886-6808","addr":"경기도 여주시 강천면 이호리 477-3번지","indutype":"문화.취미 - 민예·공예품","category":"other"}]},{"lat":"37.294382298","long":"127.6816637","imageIndex":17,"items":[{"name":"예진도예","tel":"031-885-1192","addr":"경기도 여주시 강천면 이호리 342-1번지","indutype":"문화.취미 - 민예·공예품","category":"other"}]},{"lat":"37.292219408","long":"127.68174577","imageIndex":17,"items":[{"name":"이십일세기 철건","tel":"031-885-9787","addr":"경기도 여주시 강천면 이호리 352-1번지","indutype":"건축자재 - 목재·석재·철물","category":"other"}]},{"lat":"37.283527267","long":"127.69221085","imageIndex":17,"items":[{"name":"피톤치드산천","tel":"031-111-1111","addr":"경기도 여주시 강천면 이호리 193-6번지","indutype":"신변잡화 - 기타잡화","category":"other"}]},{"lat":"37.284223865","long":"127.69635558","imageIndex":17,"items":[{"name":"흙내가마","tel":"031-884-7918","addr":"경기도 여주시 강천면 이호리 129-8번지","indutype":"문화.취미 - 민예·공예품","category":"other"}]}]