[{"lat":"37.726705993","long":"126.81908844","imageIndex":16,"items":[{"name":"ESA영어학원","tel":"031-946-0546","addr":"경기도 파주시 조리읍 대원리 215-3 대원프라자 나동201호","indutype":"회원제형태 - 학원","category":"study"},{"name":"경희동문태권도장","tel":"031-941-0890","addr":"경기도 파주시 조리읍 대원리 215-3번지","indutype":"학원 - 예·체능계학원","category":"study"}]},{"lat":"37.741482205","long":"126.80281661","imageIndex":16,"items":[{"name":"THE큰미술관미술교습소","tel":"031-946-5979","addr":"경기도 파주시 조리읍 대원리 992-8번지","indutype":"학원 - 예·체능계학원","category":"study"},{"name":"봉일천K2학원","tel":"031-944-0287","addr":"경기도 파주시 조리읍 대원리 992-8번지","indutype":"학원 - 보습학원","category":"study"},{"name":"한라태권도체육관","tel":"031-942-0006","addr":"경기도 파주시 조리읍 대원리 992-8번지","indutype":"학원 - 예·체능계학원","category":"study"}]},{"lat":"37.728230923","long":"126.81484224","imageIndex":16,"items":[{"name":"The나눔수학교습소","tel":"031-948-5541","addr":"경기도 파주시 조리읍 대원리 221-8번지","indutype":"회원제형태 - 학원","category":"study"},{"name":"영댄스스튜디오","tel":"","addr":"경기도 파주시 조리읍 대원리 221-8번지","indutype":"학원 - 예·체능계학원","category":"study"},{"name":"하얀피아노음악학원","tel":"031-948-0045","addr":"경기도 파주시 조리읍 대원리 221-8번지","indutype":"학원 - 예·체능계학원","category":"study"}]},{"lat":"37.727287462","long":"126.81644402","imageIndex":16,"items":[{"name":"개인과외교습","tel":"","addr":"경기도 파주시 조리읍 대원리 272번지 그린시티동문아파트","indutype":"학원 - 기타 교육기관","category":"study"},{"name":"동문아이맘어린이집[아이행복]","tel":"031-948-5272","addr":"경기도 파주시 조리읍 대원리 272번지 그린시티동문아파트","indutype":"학원 - 유아원","category":"study"}]},{"lat":"37.72686353","long":"126.81613882","imageIndex":16,"items":[{"name":"꼬마요정어린이집[아이행복]","tel":"031-8070-7912","addr":"경기도 파주시 조리읍 대원리 272번지 그린시티동문아파트","indutype":"학원 - 유아원","category":"study"}]},{"lat":"37.742818404","long":"126.79918242","imageIndex":16,"items":[{"name":"나무와꿈어린이집[아이행복]","tel":"031-945-8805","addr":"경기도 파주시 조리읍 대원리 996-13번지","indutype":"학원 - 유아원","category":"study"},{"name":"한라나무와 꿈어린이집[아이행복]","tel":"070-4161-9621","addr":"경기도 파주시 조리읍 대원리 996-13번지","indutype":"학원 - 유아원","category":"study"}]},{"lat":"37.726067145","long":"126.81962314","imageIndex":16,"items":[{"name":"대원음악학원","tel":"031-945-3443","addr":"경기도 파주시 조리읍 대원리 238번지","indutype":"회원제형태 - 학원","category":"study"}]},{"lat":"37.72643055","long":"126.81581095","imageIndex":16,"items":[{"name":"동문베스트도만스쿨어린이집[아이행복]","tel":"031-942-6034","addr":"경기도 파주시 조리읍 대원리 272번지 그린시티동문아파트","indutype":"학원 - 유아원","category":"study"},{"name":"새싹리틀어린이집[아이행복]","tel":"031-948-7979","addr":"경기도 파주시 조리읍 대원리 272번지 그린시티동문아파트","indutype":"학원 - 유아원","category":"study"}]},{"lat":"37.728217233","long":"126.81757603","imageIndex":16,"items":[{"name":"동문솜사탕어린이집[아이행복]","tel":"031-947-1947","addr":"경기도 파주시 조리읍 대원리 218번지 그린시티동문아파트","indutype":"학원 - 유아원","category":"study"}]},{"lat":"37.728087926","long":"126.81556857","imageIndex":16,"items":[{"name":"리틀아띠어린이집[아이행복]","tel":"031-947-1030","addr":"경기도 파주시 조리읍 대원리 272번지 그린시티동문아파트","indutype":"학원 - 유아원","category":"study"}]},{"lat":"37.741819132","long":"126.79963897","imageIndex":16,"items":[{"name":"박상준개인과외","tel":"031-948-8863","addr":"경기도 파주시 조리읍 대원리 992-1번지 한라아파트","indutype":"학원 - 기타 교육기관","category":"study"}]},{"lat":"37.72755918","long":"126.8173508","imageIndex":16,"items":[{"name":"별나라어린이집[아이행복]","tel":"031-946-7978","addr":"경기도 파주시 조리읍 대원리 218번지 그린시티동문아파트","indutype":"학원 - 유아원","category":"study"}]},{"lat":"37.741341785","long":"126.79973104","imageIndex":16,"items":[{"name":"브릭스페셜","tel":"050-5958-5958","addr":"경기도 파주시 조리읍 대원리 992-1번지 한라아파트","indutype":"학원 - 외국어학원","category":"study"}]},{"lat":"37.74215219","long":"126.79946788","imageIndex":16,"items":[{"name":"샘터어린이집[아이행복]","tel":"031-945-3216","addr":"경기도 파주시 조리읍 대원리 992-1번지 한라아파트","indutype":"학원 - 유아원","category":"study"}]},{"lat":"37.742924196","long":"126.79784334","imageIndex":16,"items":[{"name":"성균관독서실","tel":"031-945-4149","addr":"경기도 파주시 조리읍 대원리 1033-7번지","indutype":"학원 - 독서실","category":"study"}]},{"lat":"37.735561936","long":"126.80223129","imageIndex":16,"items":[{"name":"수정유치원","tel":"031-943-3939","addr":"경기도 파주시 조리읍 대원리 637-5번지","indutype":"학원 - 유치원","category":"study"},{"name":"수정유치원[아이행복]","tel":"031-943-3939","addr":"경기도 파주시 조리읍 대원리 637-5번지","indutype":"학원 - 유치원","category":"study"}]},{"lat":"37.728020091","long":"126.81825712","imageIndex":16,"items":[{"name":"수지쌤영어","tel":"070-4196-8294","addr":"경기도 파주시 조리읍 대원리 218번지 그린시티동문아파트","indutype":"회원제형태 - 학원","category":"study"}]},{"lat":"37.726678096","long":"126.81853269","imageIndex":16,"items":[{"name":"아이그린어린이집[아이행복]","tel":"031-948-7599","addr":"경기도 파주시 조리읍 대원리 272번지 그린시티동문아파트","indutype":"학원 - 유아원","category":"study"}]},{"lat":"37.726354338","long":"126.81890782","imageIndex":16,"items":[{"name":"아이와뜰어린이집[아이행복]","tel":"031-945-3977","addr":"경기도 파주시 조리읍 대원리 272번지 그린시티동문아파트","indutype":"학원 - 유아원","category":"study"},{"name":"아이와뜰어린이집[아이행복]","tel":"031-945-3977","addr":"경기도 파주시 조리읍 대원리 272번지 그린시티동문아파트","indutype":"학원 - 유아원","category":"study"}]},{"lat":"37.726549826","long":"126.81717183","imageIndex":16,"items":[{"name":"작은아이와뜰어린이집[아이행복]","tel":"031-945-3977","addr":"경기도 파주시 조리읍 대원리 272번지 그린시티동문아파트","indutype":"학원 - 유아원","category":"study"}]},{"lat":"37.726454291","long":"126.81945204","imageIndex":16,"items":[{"name":"최강보습학원","tel":"031-942-0506","addr":"경기도 파주시 조리읍 대원리 215-1번지","indutype":"학원 - 보습학원","category":"study"}]},{"lat":"37.732067968","long":"126.80865006","imageIndex":16,"items":[{"name":"큰별아이어린이집[아이행복]","tel":"031-948-2822","addr":"경기도 파주시 조리읍 대원리 578-6번지","indutype":"학원 - 유아원","category":"study"}]},{"lat":"37.727094056","long":"126.81950718","imageIndex":16,"items":[{"name":"파주대원초등학교병설유치원[아이행복]","tel":"031-948-7027","addr":"경기도 파주시 조리읍 대원리 203번지","indutype":"학원 - 유치원","category":"study"}]},{"lat":"37.741977208","long":"126.80250895","imageIndex":16,"items":[{"name":"행복한유치원[아이행복]","tel":"031-944-6148","addr":"경기도 파주시 조리읍 대원리 992-7번지","indutype":"학원 - 유치원","category":"study"}]}]