[{"lat":"37.965878563","long":"127.32484089","imageIndex":17,"items":[{"name":"대광전기","tel":"031-0000-0000","addr":"경기도 포천시 일동면 화대리 676번지","indutype":"전기제품 - 기타전기제품","category":"other"},{"name":"순흥광고기획","tel":"031-531-3631","addr":"경기도 포천시 일동면 화대리 676번지","indutype":"건축자재 - 인테리어전문","category":"other"},{"name":"한라건축유리","tel":"031-532-1188","addr":"경기도 포천시 일동면 화대리 676번지","indutype":"건축자재 - 유리","category":"other"}]},{"lat":"37.966160383","long":"127.32719775","imageIndex":17,"items":[{"name":"대기문구 도매센타 일동점","tel":"535-7780","addr":"경기도 포천시 일동면 화대리 672-2번지","indutype":"도소매 - 문구","category":"other"},{"name":"양지","tel":"031-532-3040","addr":"경기도 포천시 일동면 화대리 672-2번지","indutype":"가구 - 일반가구","category":"other"},{"name":"양지종합가구","tel":"031-532-3040","addr":"경기도 포천시 일동면 화대리 672-2번지","indutype":"가구 - 일반가구","category":"other"},{"name":"인스토아편의점","tel":"031-532-3040","addr":"경기도 포천시 일동면 화대리 672-2번지","indutype":"유통업 영리 - 편 의 점","category":"other"}]},{"lat":"37.968767821","long":"127.32908697","imageIndex":17,"items":[{"name":"리하우징","tel":"031-532-3144","addr":"경기도 포천시 일동면 화대리 638-2번지","indutype":"용역 서비스 - 기타용역서비스","category":"other"},{"name":"세븐일레븐포천일동운담점","tel":"","addr":"경기도 포천시 일동면 화대리 638-2번지","indutype":"유통업 영리 - 편 의 점","category":"other"},{"name":"세븐일레븐포천일동운담점","tel":"536-3367","addr":"경기도 포천시 일동면 화대리 638-2번지","indutype":"소매업 - 편의점","category":"other"},{"name":"이동갈비유통","tel":"533-3360","addr":"경기도 포천시 일동면 화대리 638-2번지","indutype":"도소매 - 농축산물유통","category":"other"}]},{"lat":"37.965800931","long":"127.33012078","imageIndex":17,"items":[{"name":"미래건축설비","tel":"031-536-9998","addr":"경기도 포천시 일동면 화대리 701-3번지","indutype":"건축자재 - 보일러·펌프·샷시","category":"other"},{"name":"순빛공방","tel":"031-000-0000","addr":"경기도 포천시 일동면 화대리 701-3번지","indutype":"문화.취미 - 문화취미기타","category":"other"},{"name":"순빛공방","tel":"","addr":"경기도 포천시 일동면 화대리 701-3번지","indutype":"교육서비스 - 공방","category":"other"}]},{"lat":"37.965931838","long":"127.32512562","imageIndex":17,"items":[{"name":"삼화페인트","tel":"031-535-7023","addr":"경기도 포천시 일동면 화대리 676-4번지","indutype":"용역 서비스 - 기타용역서비스","category":"other"}]},{"lat":"37.977180929","long":"127.3423382","imageIndex":17,"items":[{"name":"신가드포켓","tel":"031-853-7215","addr":"경기도 포천시 일동면 화대리 243-1","indutype":"레져용품 - 스포츠·레져용품","category":"other"}]},{"lat":"37.96760707","long":"127.32856973","imageIndex":17,"items":[{"name":"예쁜신발","tel":"031-531-0434","addr":"경기도 포천시 일동면 화대리 662-1번지","indutype":"신변잡화 - 신발","category":"other"}]},{"lat":"37.961355549","long":"127.3216805","imageIndex":17,"items":[{"name":"옷장이모","tel":"031-532-0868","addr":"경기도 포천시 일동면 화대리 793번지","indutype":"의류 - 정장","category":"other"},{"name":"옷장이모","tel":"532-0868","addr":"경기도 포천시 일동면 화대리 793번지","indutype":"소매업 - 의류","category":"other"}]},{"lat":"37.96268735","long":"127.32225522","imageIndex":17,"items":[{"name":"일동건재","tel":"031-531-5295","addr":"경기도 포천시 일동면 화대리 803번지","indutype":"건축자재 - 기타건축자재","category":"other"}]},{"lat":"37.969966247","long":"127.32901261","imageIndex":17,"items":[{"name":"일동석재","tel":"031-533-0308","addr":"경기도 포천시 일동면 화대리 618-5번지","indutype":"건축자재 - 목재·석재·철물","category":"other"},{"name":"한글로영어포천지사","tel":"031-533-0171","addr":"경기도 포천시 일동면 화대리 618-5번지","indutype":"회원제형태 - 서적","category":"other"}]},{"lat":"37.967463555","long":"127.32834149","imageIndex":17,"items":[{"name":"일동제일유황온천","tel":"031-536-6000","addr":"경기도 포천시 일동면 화대리 663번지","indutype":"회원제형태 - 기타4","category":"other"}]},{"lat":"37.969352242","long":"127.32951063","imageIndex":17,"items":[{"name":"일동차유리","tel":"031-536-5356","addr":"경기도 포천시 일동면 화대리 631번지","indutype":"건축자재 - 유리","category":"other"}]},{"lat":"37.965160107","long":"127.32400703","imageIndex":17,"items":[{"name":"일동철강","tel":"031-536-4991","addr":"경기도 포천시 일동면 화대리 813-2","indutype":"건축자재 - 기타건축자재","category":"other"}]},{"lat":"37.960296384","long":"127.32023079","imageIndex":17,"items":[{"name":"일동하나로통신","tel":"031-532-0889","addr":"경기도 포천시 일동면 화대리 797-9번지 일동농협하나로마트 내","indutype":"사무통신 - 통신기기","category":"other"}]},{"lat":"37.959965438","long":"127.31934181","imageIndex":17,"items":[{"name":"일동하마빨래방","tel":"532-3563","addr":"경기도 포천시 일동면 화대리 797-3번지","indutype":"서비스 - 세탁소","category":"other"},{"name":"일동하마빨래방","tel":"031-532-3563","addr":"경기도 포천시 일동면 화대리 797-3","indutype":"수리서비스 - 세탁소","category":"other"}]},{"lat":"37.964908008","long":"127.32394903","imageIndex":17,"items":[{"name":"주식회사 비오엠","tel":"031-533-5607","addr":"경기도 포천시 일동면 화대리 813-10번지","indutype":"가구 - 철제가구","category":"other"}]},{"lat":"37.972797578","long":"127.3313696","imageIndex":17,"items":[{"name":"참진황토침대","tel":"031-532-4991","addr":"경기도 포천시 일동면 화대리 368-4번지","indutype":"가구 - 일반가구","category":"other"}]},{"lat":"37.957216763","long":"127.33597676","imageIndex":17,"items":[{"name":"하솜","tel":"031-4217-7946","addr":"경기도 포천시 일동면 화대리 94-2번지","indutype":"레져용품 - 스포츠·레져용품","category":"other"}]},{"lat":"37.96615488","long":"127.32592318","imageIndex":17,"items":[{"name":"황금축산153","tel":"532-4753","addr":"경기도 포천시 일동면 화대리 673-6번지","indutype":"도소매 - 축산물","category":"other"}]}]