[{"lat":"37.841194066","long":"126.86928021","imageIndex":17,"items":[{"name":"(주)코리아환경스마트","tel":"070-4314-6424","addr":"경기도 파주시 법원읍 대능리 186번지","indutype":"주방용구 - 주방용구","category":"other"}]},{"lat":"37.848886271","long":"126.87577668","imageIndex":17,"items":[{"name":"BBin클럽","tel":"031-959-6200","addr":"경기도 파주시 법원읍 대능리 81-26번지","indutype":"문화.취미 - 문화취미기타","category":"other"},{"name":"법원지물","tel":"031-958-4670","addr":"경기도 파주시 법원읍 대능리 81-26","indutype":"직물 - 카페트,커튼,천막,지물","category":"other"}]},{"lat":"37.835609192","long":"126.86236079","imageIndex":17,"items":[{"name":"CP TECH","tel":"031-953-8845","addr":"경기도 파주시 법원읍 대능리 388-7번지","indutype":"전기제품 - 기타전기제품","category":"other"}]},{"lat":"37.849830117","long":"126.87380943","imageIndex":17,"items":[{"name":"HZM인터내셔널","tel":"031-945-4155","addr":"경기도 파주시 법원읍 대능리 86-10번지","indutype":"의류 - 정장","category":"other"}]},{"lat":"37.850271364","long":"126.87361551","imageIndex":17,"items":[{"name":"S.O휘트니스클럽","tel":"031-958-7307","addr":"경기도 파주시 법원읍 대능리 92-7번지 4층 1호 대성빌딩","indutype":"회원제형태 - 레져업소","category":"other"},{"name":"지현꽃방","tel":"019-***-****","addr":"경기도 파주시 법원읍 대능리 92-7번지","indutype":"문화.취미 - 화원","category":"other"}]},{"lat":"37.848999816","long":"126.87250426","imageIndex":17,"items":[{"name":"ㅋㅋㅋ","tel":"070-8150-8522","addr":"경기도 파주시 법원읍 대능리 94-104번지","indutype":"의류 - 정장","category":"other"},{"name":"노블레스","tel":"031-958-3500","addr":"경기도 파주시 법원읍 대능리 94-104번지","indutype":"의류 - 정장","category":"other"}]},{"lat":"37.849584592","long":"126.87175334","imageIndex":17,"items":[{"name":"개울꽃방","tel":"031-958-8326","addr":"경기도 파주시 법원읍 대능리 94-55번지","indutype":"문화.취미 - 화원","category":"other"}]},{"lat":"37.848750232","long":"126.8749475","imageIndex":17,"items":[{"name":"건설도료","tel":"031-958-0074","addr":"경기도 파주시 법원읍 대능리 81-41","indutype":"건축자재 - 페인트","category":"other"}]},{"lat":"37.849775412","long":"126.8732187","imageIndex":17,"items":[{"name":"금오전기.철물","tel":"031-959-5557","addr":"경기도 파주시 법원읍 대능리 92-15번지","indutype":"기타 - 기계공구","category":"other"}]},{"lat":"37.849027396","long":"126.87300414","imageIndex":17,"items":[{"name":"금옥당","tel":"031-958-0180","addr":"경기도 파주시 법원읍 대능리 85-18번지","indutype":"신변잡화 - 귀금속","category":"other"}]},{"lat":"37.842391349","long":"126.8607574","imageIndex":17,"items":[{"name":"남양공구1호점","tel":"031-959-0989","addr":"경기도 파주시 법원읍 대능리 318번지","indutype":"전기제품 - 기타전기제품","category":"other"}]},{"lat":"37.846248405","long":"126.86933926","imageIndex":17,"items":[{"name":"니나의시크릿가든","tel":"031-953-0191","addr":"경기도 파주시 법원읍 대능리 218-1번지","indutype":"문화.취미 - 문화취미기타","category":"other"}]},{"lat":"37.849549727","long":"126.87281007","imageIndex":17,"items":[{"name":"다담을예쁨","tel":"","addr":"경기도 파주시 법원읍 대능리 94-65번지","indutype":"문화.취미 - 문화취미기타","category":"other"}]},{"lat":"37.847807052","long":"126.86935917","imageIndex":17,"items":[{"name":"달빛공방 협동조합","tel":"","addr":"경기도 파주시 법원읍 대능리 245-58번지","indutype":"문화.취미 - 문화취미기타","category":"other"}]},{"lat":"37.84630786","long":"126.86619203","imageIndex":17,"items":[{"name":"대보타일","tel":"031-958-4646","addr":"경기도 파주시 법원읍 대능리 237-6번지","indutype":"건축자재 - 건축용 요업제품","category":"other"}]},{"lat":"37.849611189","long":"126.87136699","imageIndex":17,"items":[{"name":"대한상사","tel":"","addr":"경기도 파주시 법원읍 대능리 94-58번지","indutype":"기타 - 기계공구","category":"other"}]},{"lat":"37.849772263","long":"126.87038957","imageIndex":17,"items":[{"name":"더스타일(THE STYLE)","tel":"","addr":"경기도 파주시 법원읍 대능리 95-56번지","indutype":"의류 - 정장","category":"other"}]},{"lat":"37.850496324","long":"126.87336515","imageIndex":17,"items":[{"name":"동명상회","tel":"031-959-1698","addr":"경기도 파주시 법원읍 대능리 93-2번지","indutype":"신변잡화 - 기념품점","category":"other"}]},{"lat":"37.846580575","long":"126.86830476","imageIndex":17,"items":[{"name":"동아 천막사","tel":"031-959-9057","addr":"경기도 파주시 법원읍 대능리 228-7번지","indutype":"직물 - 카페트,커튼,천막,지물","category":"other"}]},{"lat":"37.849555884","long":"126.87025361","imageIndex":17,"items":[{"name":"동영유리샷시","tel":"031-959-6262","addr":"경기도 파주시 법원읍 대능리 95-7번지","indutype":"건축자재 - 보일러·펌프·샷시","category":"other"}]},{"lat":"37.839750279","long":"126.85967186","imageIndex":17,"items":[{"name":"동예공방","tel":"031-952-8005","addr":"경기도 파주시 법원읍 대능리 379-2","indutype":"문화.취미 - 민예·공예품","category":"other"}]},{"lat":"37.849188483","long":"126.87202673","imageIndex":17,"items":[{"name":"마이컴블루","tel":"070-7578-5888","addr":"경기도 파주시 법원읍 대능리 94-67번지","indutype":"사무통신 - 컴퓨터","category":"other"}]},{"lat":"37.848579079","long":"126.87497052","imageIndex":17,"items":[{"name":"문화인쇄소","tel":"031-958-1031","addr":"경기도 파주시 법원읍 대능리 81-14","indutype":"용역 서비스 - 사무서비스","category":"other"}]},{"lat":"37.83547113","long":"126.85269386","imageIndex":17,"items":[{"name":"미니스톱 법원행복점","tel":"031-1577-9621","addr":"경기도 파주시 법원읍 대능리 527-11번지","indutype":"유통업 영리 - 편 의 점","category":"other"}]},{"lat":"37.848946249","long":"126.87294747","imageIndex":17,"items":[{"name":"민지","tel":"031-958-1313","addr":"경기도 파주시 법원읍 대능리 85-19번지","indutype":"사무통신 - 통신기기","category":"other"}]},{"lat":"37.849550065","long":"126.87311684","imageIndex":17,"items":[{"name":"보금당","tel":"031-958-1477","addr":"경기도 파주시 법원읍 대능리 92-21","indutype":"신변잡화 - 시계","category":"other"}]},{"lat":"37.850190853","long":"126.8741383","imageIndex":17,"items":[{"name":"보디가드","tel":"031-958-0139","addr":"경기도 파주시 법원읍 대능리 89-17번지","indutype":"의류 - 내의판매","category":"other"}]},{"lat":"37.849191271","long":"126.87456043","imageIndex":17,"items":[{"name":"붕어사랑","tel":"","addr":"경기도 파주시 법원읍 대능리 87-13번지","indutype":"신변잡화 - 기타잡화","category":"other"}]},{"lat":"37.841439761","long":"126.86361077","imageIndex":17,"items":[{"name":"석천사","tel":"031-959-9514","addr":"경기도 파주시 법원읍 대능리 340-4","indutype":"신변잡화 - 기념품점","category":"other"}]},{"lat":"37.849640708","long":"126.87361661","imageIndex":17,"items":[{"name":"세븐일레븐파주법원점","tel":"","addr":"경기도 파주시 법원읍 대능리 86-15","indutype":"유통업 영리 - 편 의 점","category":"other"}]},{"lat":"37.848719198","long":"126.87131176","imageIndex":17,"items":[{"name":"소리상사","tel":"031-958-4482","addr":"경기도 파주시 법원읍 대능리 245-1","indutype":"건축자재 - 페인트","category":"other"}]},{"lat":"37.848299033","long":"126.87427793","imageIndex":17,"items":[{"name":"손편한 시스템","tel":"031-958-8669","addr":"경기도 파주시 법원읍 대능리 82-28번지","indutype":"신변잡화 - 기타잡화","category":"other"}]},{"lat":"37.848749961","long":"126.87469754","imageIndex":17,"items":[{"name":"씨유파주대능점","tel":"031-959-3509","addr":"경기도 파주시 법원읍 대능리 81-43 4/1","indutype":"유통업 영리 - 편 의 점","category":"other"}]},{"lat":"37.848937665","long":"126.87333379","imageIndex":17,"items":[{"name":"아가방법원점","tel":"031-958-9723","addr":"경기도 파주시 법원읍 대능리 85-11번지","indutype":"의류 - 아동의류","category":"other"},{"name":"토탈패션","tel":"31-958-3861","addr":"경기도 파주시 법원읍 대능리 85-11번지","indutype":"의류 - 정장","category":"other"}]},{"lat":"37.849665055","long":"126.87119646","imageIndex":17,"items":[{"name":"아트인테리어","tel":"031-958-5989","addr":"경기도 파주시 법원읍 대능리 94-60번지","indutype":"건축자재 - 인테리어전문","category":"other"}]},{"lat":"37.848884245","long":"126.87391334","imageIndex":17,"items":[{"name":"오병이어옷방","tel":"031-958-5357","addr":"경기도 파주시 법원읍 대능리 84-5번지","indutype":"의류 - 정장","category":"other"}]},{"lat":"37.848939639","long":"126.87514032","imageIndex":17,"items":[{"name":"왕대박텔레콤","tel":"031-958-4933","addr":"경기도 파주시 법원읍 대능리 81-34","indutype":"사무통신 - 통신기기","category":"other"}]},{"lat":"37.850027899","long":"126.87342278","imageIndex":17,"items":[{"name":"용사의 집","tel":"031-958-9898","addr":"경기도 파주시 법원읍 대능리 92-10번지","indutype":"신변잡화 - 기타잡화","category":"other"},{"name":"이지컴퓨터","tel":"","addr":"경기도 파주시 법원읍 대능리 92-10번지","indutype":"수리서비스 - 사무·통신기기수리","category":"other"}]},{"lat":"37.849333953","long":"126.87321948","imageIndex":17,"items":[{"name":"원앙금방","tel":"031-958-7272","addr":"경기도 파주시 법원읍 대능리 86-22번지","indutype":"신변잡화 - 귀금속","category":"other"}]},{"lat":"37.846608205","long":"126.87699627","imageIndex":17,"items":[{"name":"윙스문구법원점","tel":"031-958-6745","addr":"경기도 파주시 법원읍 대능리 70-2번지","indutype":"서적문구 - 문구용품","category":"other"}]},{"lat":"37.845107325","long":"126.87211347","imageIndex":17,"items":[{"name":"재경가구,굿모닝가구백화점","tel":"031-958-7088","addr":"경기도 파주시 법원읍 대능리 218-23번지","indutype":"가구 - 일반가구","category":"other"}]},{"lat":"37.848612073","long":"126.87219818","imageIndex":17,"items":[{"name":"종합보수공사","tel":"031-959-1113","addr":"경기도 파주시 법원읍 대능리 97-21번지","indutype":"수리서비스 - 기타수리서비스","category":"other"}]},{"lat":"37.843527692","long":"126.86172091","imageIndex":17,"items":[{"name":"종합중고가전","tel":"031-959-2254","addr":"경기도 파주시 법원읍 대능리 328-1","indutype":"전기제품 - 기타전기제품","category":"other"}]},{"lat":"37.848859365","long":"126.87589034","imageIndex":17,"items":[{"name":"주디&에코","tel":"031-958-0894","addr":"경기도 파주시 법원읍 대능리 81-1번지","indutype":"의류 - 정장","category":"other"}]},{"lat":"37.845529562","long":"126.8710334","imageIndex":17,"items":[{"name":"주식회사 케이알산업","tel":"031-959-7774","addr":"경기도 파주시 법원읍 대능리 218-24번지","indutype":"전기제품 - 기타전기제품","category":"other"}]},{"lat":"37.846608593","long":"126.87735984","imageIndex":17,"items":[{"name":"준카 주식회사","tel":"031-954-9099","addr":"경기도 파주시 법원읍 대능리 70-1번지","indutype":"여행 - 렌터카","category":"other"},{"name":"준카(주)법원지점","tel":"031-958-8119","addr":"경기도 파주시 법원읍 대능리 70-1번지","indutype":"여행 - 렌터카","category":"other"}]},{"lat":"37.848973152","long":"126.8728338","imageIndex":17,"items":[{"name":"차칸고양이","tel":"02-111-1111","addr":"경기도 파주시 법원읍 대능리 85-34번지","indutype":"신변잡화 - 액세서리","category":"other"}]},{"lat":"37.836662987","long":"126.85475896","imageIndex":17,"items":[{"name":"충성몰","tel":"031-832-1548","addr":"경기도 파주시 법원읍 대능리 432-9번지","indutype":"신변잡화 - 기념품점","category":"other"}]},{"lat":"37.836417303","long":"126.85283962","imageIndex":17,"items":[{"name":"친구네 낚시마트","tel":"031-959-9879","addr":"경기도 파주시 법원읍 대능리 525-2번지","indutype":"레져용품 - 스포츠·레져용품","category":"other"}]},{"lat":"37.849856596","long":"126.87330946","imageIndex":17,"items":[{"name":"크레파스","tel":"031-958-7643","addr":"경기도 파주시 법원읍 대능리 92-13번지","indutype":"의류 - 기타의류","category":"other"}]},{"lat":"37.836245879","long":"126.85264685","imageIndex":17,"items":[{"name":"태창기업","tel":"031-958-0422","addr":"경기도 파주시 법원읍 대능리 525-7번지","indutype":"기타 - 기계공구","category":"other"}]},{"lat":"37.833524391","long":"126.85214119","imageIndex":17,"items":[{"name":"털보벽지","tel":"031-959-9009","addr":"경기도 파주시 법원읍 대능리 542-2번지","indutype":"직물 - 카페트,커튼,천막,지물","category":"other"}]},{"lat":"37.839856754","long":"126.85833112","imageIndex":17,"items":[{"name":"파주가구종합재활용","tel":"031-953-4989","addr":"경기도 파주시 법원읍 대능리 473번지","indutype":"가구 - 일반가구","category":"other"}]},{"lat":"37.849251372","long":"126.87186755","imageIndex":17,"items":[{"name":"플라워뱅크","tel":"031-958-0937","addr":"경기도 파주시 법원읍 대능리 94-20번지","indutype":"문화.취미 - 화원","category":"other"}]},{"lat":"37.84916376","long":"126.87411737","imageIndex":17,"items":[{"name":"하나텔레콤","tel":"031-958-8845","addr":"경기도 파주시 법원읍 대능리 87-19번지","indutype":"사무통신 - 통신기기","category":"other"}]},{"lat":"37.849555692","long":"126.87008319","imageIndex":17,"items":[{"name":"한국사무용가구","tel":"031-953-2524","addr":"경기도 파주시 법원읍 대능리 95-63번지","indutype":"가구 - 기타가구","category":"other"}]},{"lat":"37.849302994","long":"126.86969733","imageIndex":17,"items":[{"name":"한보","tel":"031-958-7783","addr":"경기도 파주시 법원읍 대능리 95-9번지","indutype":"건축자재 - 건축용 요업제품","category":"other"}]},{"lat":"37.843023995","long":"126.86241489","imageIndex":17,"items":[{"name":"한영건설중기","tel":"031-958-2220","addr":"경기도 파주시 법원읍 대능리 329번지","indutype":"건축자재 - 기타건축자재","category":"other"}]},{"lat":"37.834725307","long":"126.86155593","imageIndex":7,"items":[{"name":"(주)푸드미","tel":"031-959-8022","addr":"경기도 파주시 법원읍 대능리 389-4번지","indutype":"음료식품 - 농·축·수산품","category":"food"},{"name":"웰빙민속과자","tel":"031-923-1009","addr":"경기도 파주시 법원읍 대능리 389-4번지","indutype":"음료식품 - 기타음료식품","category":"food"}]},{"lat":"37.849611189","long":"126.87136699","imageIndex":7,"items":[{"name":"PUNJAB SIALKOT&HALAL FOOD","tel":"031-959-1214","addr":"경기도 파주시 법원읍 대능리 94-58번지","indutype":"음료식품 - 기타음료식품","category":"food"}]},{"lat":"37.849188609","long":"126.87214035","imageIndex":7,"items":[{"name":"건강한세상","tel":"031-959-0006","addr":"경기도 파주시 법원읍 대능리 94-68번지","indutype":"음료식품 - 기타음료식품","category":"food"}]},{"lat":"37.841163466","long":"126.86616744","imageIndex":7,"items":[{"name":"농업회사법인 모던밀 주식회사","tel":"031-959-1201","addr":"경기도 파주시 법원읍 대능리 198번지","indutype":"음료식품 - 기타음료식품","category":"food"}]},{"lat":"37.849468202","long":"126.87241254","imageIndex":7,"items":[{"name":"다비 축산물 도소매 직판장","tel":"031-959-1857","addr":"경기도 파주시 법원읍 대능리 94-42번지","indutype":"음료식품 - 정육점","category":"food"},{"name":"다비축산물도소매직판장","tel":"031-959-1857","addr":"경기도 파주시 법원읍 대능리 94-42번지","indutype":"음료식품 - 정육점","category":"food"}]},{"lat":"37.849217106","long":"126.87346964","imageIndex":7,"items":[{"name":"미래종합농산","tel":"00-0000-0000","addr":"경기도 파주시 법원읍 대능리 86-28번지","indutype":"음료식품 - 농·축·수산품","category":"food"}]},{"lat":"37.849522044","long":"126.87221929","imageIndex":7,"items":[{"name":"베리어스","tel":"","addr":"경기도 파주시 법원읍 대능리 94-43번지","indutype":"음료식품 - 기타음료식품","category":"food"}]},{"lat":"37.849721331","long":"126.87319607","imageIndex":7,"items":[{"name":"이쁜총각네","tel":"","addr":"경기도 파주시 법원읍 대능리 92-37번지","indutype":"음료식품 - 농·축·수산품","category":"food"}]},{"lat":"37.848857466","long":"126.87414062","imageIndex":7,"items":[{"name":"일품축산유통","tel":"031-958-0555","addr":"경기도 파주시 법원읍 대능리 84-2번지","indutype":"음료식품 - 정육점","category":"food"}]},{"lat":"37.849000243","long":"126.87289057","imageIndex":7,"items":[{"name":"자연을굽는마을","tel":"031-958-1039","addr":"경기도 파주시 법원읍 대능리 85-20번지","indutype":"음료식품 - 제과점","category":"food"}]},{"lat":"37.848884407","long":"126.87406104","imageIndex":7,"items":[{"name":"자유상회","tel":"031-959-9828","addr":"경기도 파주시 법원읍 대능리 84-45번지","indutype":"음료식품 - 기타음료식품","category":"food"}]},{"lat":"37.849529137","long":"126.87050363","imageIndex":7,"items":[{"name":"진미반찬","tel":"031-959-2217","addr":"경기도 파주시 법원읍 대능리 95-25번지","indutype":"음료식품 - 기타음료식품","category":"food"}]},{"lat":"37.84894655","long":"126.87322016","imageIndex":7,"items":[{"name":"하이축산유통","tel":"031-959-0553","addr":"경기도 파주시 법원읍 대능리 85-13번지","indutype":"음료식품 - 정육점","category":"food"}]},{"lat":"37.84852247","long":"126.87264145","imageIndex":13,"items":[{"name":"I-PC카페","tel":"031-111-1111","addr":"경기도 파주시 법원읍 대능리 97-13번지","indutype":"레저업소 - 기타레져업소","category":"leisure"}]},{"lat":"37.850496324","long":"126.87336515","imageIndex":13,"items":[{"name":"대성당구장","tel":"070-4686-9412","addr":"경기도 파주시 법원읍 대능리 93-2번지","indutype":"레저업소 - 당 구 장","category":"leisure"}]},{"lat":"37.850190853","long":"126.8741383","imageIndex":13,"items":[{"name":"숄라숄라","tel":"031-959-1213","addr":"경기도 파주시 법원읍 대능리 89-17번지","indutype":"레저업소 - 기타레져업소","category":"leisure"}]},{"lat":"37.849775412","long":"126.8732187","imageIndex":13,"items":[{"name":"수노래연습장","tel":"","addr":"경기도 파주시 법원읍 대능리 92-15번지","indutype":"레저업소 - 노 래 방","category":"leisure"},{"name":"왕실당구장","tel":"031-000-0000","addr":"경기도 파주시 법원읍 대능리 92-15번지","indutype":"레저업소 - 당 구 장","category":"leisure"},{"name":"짱노래연습장","tel":"031-958-7330","addr":"경기도 파주시 법원읍 대능리 92-15번지","indutype":"레저업소 - 노 래 방","category":"leisure"}]},{"lat":"37.8494413","long":"126.87252621","imageIndex":13,"items":[{"name":"쟁반노래방","tel":"031-958-9229","addr":"경기도 파주시 법원읍 대능리 94-41번지","indutype":"레저업소 - 노 래 방","category":"leisure"}]},{"lat":"37.850271364","long":"126.87361551","imageIndex":13,"items":[{"name":"탐스 피씨 카페(Toms PC cafe)","tel":"070-2045-2767","addr":"경기도 파주시 법원읍 대능리 92-7번지","indutype":"레저업소 - 기타레져업소","category":"leisure"}]},{"lat":"37.849026466","long":"126.87216336","imageIndex":13,"items":[{"name":"피씨나인","tel":"","addr":"경기도 파주시 법원읍 대능리 94-107번지 ,108,109","indutype":"레저업소 - 기타레져업소","category":"leisure"}]},{"lat":"37.849555692","long":"126.87008319","imageIndex":13,"items":[{"name":"필 당구클럽","tel":"","addr":"경기도 파주시 법원읍 대능리 95-63번지","indutype":"레저업소 - 당 구 장","category":"leisure"}]},{"lat":"37.848884158","long":"126.8738338","imageIndex":13,"items":[{"name":"할리노래연습장","tel":"031-958-1144","addr":"경기도 파주시 법원읍 대능리 84-38","indutype":"레저업소 - 노 래 방","category":"leisure"},{"name":"할리당구장","tel":"031-958-1193","addr":"경기도 파주시 법원읍 대능리 84-38번지","indutype":"레저업소 - 당 구 장","category":"leisure"}]},{"lat":"37.848939971","long":"126.87544709","imageIndex":13,"items":[{"name":"V라인S라인","tel":"070-2699-0807","addr":"경기도 파주시 법원읍 대능리 81-30번지","indutype":"보건위생 - 피부미용실","category":"beauty"}]},{"lat":"37.849270925","long":"126.87325367","imageIndex":13,"items":[{"name":"강남스타일","tel":"070-8956-2561","addr":"경기도 파주시 법원읍 대능리 86-24번지","indutype":"보건위생 - 미용원","category":"beauty"}]},{"lat":"37.848801635","long":"126.87252734","imageIndex":13,"items":[{"name":"경희헤어샵","tel":"031-958-9983","addr":"경기도 파주시 법원읍 대능리 97-8번지 2층","indutype":"보건위생 - 미용원","category":"beauty"}]},{"lat":"37.850190853","long":"126.8741383","imageIndex":13,"items":[{"name":"김혜수헤어","tel":"031-959-6977","addr":"경기도 파주시 법원읍 대능리 89-17번지","indutype":"보건위생 - 미용원","category":"beauty"}]},{"lat":"37.849997778","long":"126.87063913","imageIndex":13,"items":[{"name":"루나헤어","tel":"031-959-8487","addr":"경기도 파주시 법원읍 대능리 94-96번지","indutype":"보건위생 - 미용원","category":"beauty"}]},{"lat":"37.848999715","long":"126.87241337","imageIndex":13,"items":[{"name":"미미미용실","tel":"031-958-2393","addr":"경기도 파주시 법원읍 대능리 94-105번지","indutype":"보건위생 - 미용원","category":"beauty"},{"name":"미미안경원","tel":"031-958-4542","addr":"경기도 파주시 법원읍 대능리 94-105번지","indutype":"보건위생 - 안경","category":"beauty"}]},{"lat":"37.849163324","long":"126.8737197","imageIndex":13,"items":[{"name":"미소헤어","tel":"","addr":"경기도 파주시 법원읍 대능리 87-7번지","indutype":"보건위생 - 미용원","category":"beauty"}]},{"lat":"37.848939848","long":"126.87533348","imageIndex":13,"items":[{"name":"미용실","tel":"031-958-9972","addr":"경기도 파주시 법원읍 대능리 81-31","indutype":"보건위생 - 미용원","category":"beauty"}]},{"lat":"37.850606286","long":"126.87505791","imageIndex":13,"items":[{"name":"백유리헤어","tel":"031-959-6889","addr":"경기도 파주시 법원읍 대능리 91-11번지","indutype":"보건위생 - 미용원","category":"beauty"}]},{"lat":"37.84897389","long":"126.87350415","imageIndex":13,"items":[{"name":"솔리드헤어뱅크","tel":"031-958-8294","addr":"경기도 파주시 법원읍 대능리 85-9번지","indutype":"보건위생 - 미용원","category":"beauty"}]},{"lat":"37.849251372","long":"126.87186755","imageIndex":13,"items":[{"name":"수피부이야기","tel":"031-959-1013","addr":"경기도 파주시 법원읍 대능리 94-20번지","indutype":"보건위생 - 피부미용실","category":"beauty"}]},{"lat":"37.850054977","long":"126.87346818","imageIndex":13,"items":[{"name":"엣지머리방","tel":"031-959-9137","addr":"경기도 파주시 법원읍 대능리 92-46","indutype":"보건위생 - 미용원","category":"beauty"}]},{"lat":"37.849244682","long":"126.87396952","imageIndex":13,"items":[{"name":"조금옥헤어칼라","tel":"031-958-5258","addr":"경기도 파주시 법원읍 대능리 87-16번지","indutype":"보건위생 - 미용원","category":"beauty"}]},{"lat":"37.849334987","long":"126.87416252","imageIndex":13,"items":[{"name":"조금옥헤어칼라","tel":"031-959-3761","addr":"경기도 파주시 법원읍 대능리 87-11번지","indutype":"보건위생 - 미용재료","category":"beauty"}]},{"lat":"37.849523424","long":"126.87346911","imageIndex":13,"items":[{"name":"퍼플헤어샵","tel":"070-8887-3731","addr":"경기도 파주시 법원읍 대능리 86-17번지","indutype":"보건위생 - 미용원","category":"beauty"}]},{"lat":"37.834190766","long":"126.85188992","imageIndex":4,"items":[{"name":"가야보신탕","tel":"031-959-2378","addr":"경기도 파주시 법원읍 대능리 536-1번지","indutype":"일반휴게음식 - 일반한식","category":"restaurant"}]},{"lat":"37.849555692","long":"126.87008319","imageIndex":4,"items":[{"name":"강고집 고기마을","tel":"031-959-0559","addr":"경기도 파주시 법원읍 대능리 95-63번지","indutype":"일반휴게음식 - 일반한식","category":"restaurant"},{"name":"필","tel":"031-969-6768","addr":"경기도 파주시 법원읍 대능리 95-63번지","indutype":"일반휴게음식 - 서양음식","category":"restaurant"}]},{"lat":"37.848774481","long":"126.87241377","imageIndex":4,"items":[{"name":"객주","tel":"031-958-9756","addr":"경기도 파주시 법원읍 대능리 97-9번지","indutype":"일반휴게음식 - 주점","category":"restaurant"}]},{"lat":"37.849244682","long":"126.87396952","imageIndex":4,"items":[{"name":"건강마을","tel":"031-959-8333","addr":"경기도 파주시 법원읍 대능리 87-16번지","indutype":"일반휴게음식 - 일반한식","category":"restaurant"}]},{"lat":"37.848946249","long":"126.87294747","imageIndex":4,"items":[{"name":"고향식당","tel":"031-959-8448","addr":"경기도 파주시 법원읍 대능리 85-19번지","indutype":"일반휴게음식 - 일반한식","category":"restaurant"}]},{"lat":"37.848696386","long":"126.87514074","imageIndex":4,"items":[{"name":"금성반점","tel":"031-958-0175","addr":"경기도 파주시 법원읍 대능리 81-40번지","indutype":"일반휴게음식 - 중국식","category":"restaurant"},{"name":"명품찹쌀꽈배기핫도그","tel":"031-959-7312","addr":"경기도 파주시 법원읍 대능리 81-40번지","indutype":"일반휴게음식 - 스넥","category":"restaurant"}]},{"lat":"37.848660471","long":"126.87525442","imageIndex":4,"items":[{"name":"기사식당","tel":"031-958-0037","addr":"경기도 파주시 법원읍 대능리 81-39번지","indutype":"일반휴게음식 - 일반한식","category":"restaurant"}]},{"lat":"37.84916376","long":"126.87411737","imageIndex":4,"items":[{"name":"김밥나라","tel":"031-959-0526","addr":"경기도 파주시 법원읍 대능리 87-19번지","indutype":"일반휴게음식 - 스넥","category":"restaurant"}]},{"lat":"37.84897389","long":"126.87350415","imageIndex":4,"items":[{"name":"김밥이랑햄버거랑","tel":"031-958-5515","addr":"경기도 파주시 법원읍 대능리 85-9번지","indutype":"일반휴게음식 - 일반한식","category":"restaurant"}]},{"lat":"37.849439503","long":"126.87091282","imageIndex":4,"items":[{"name":"꼬기가","tel":"031-958-2692","addr":"경기도 파주시 법원읍 대능리 94-48번지","indutype":"일반휴게음식 - 일반한식","category":"restaurant"},{"name":"참이맛뼈다귀","tel":"031-959-2838","addr":"경기도 파주시 법원읍 대능리 94-48번지","indutype":"일반휴게음식 - 일반한식","category":"restaurant"}]},{"lat":"37.849829531","long":"126.87327542","imageIndex":4,"items":[{"name":"꼬레랑옛날통닭","tel":"031-959-8292","addr":"경기도 파주시 법원읍 대능리 92-14번지","indutype":"일반휴게음식 - 일반한식","category":"restaurant"}]},{"lat":"37.84102853","long":"126.85878326","imageIndex":4,"items":[{"name":"논두렁 밭두렁","tel":"031-953-0713","addr":"경기도 파주시 법원읍 대능리 475-3번지","indutype":"일반휴게음식 - 일반한식","category":"restaurant"}]},{"lat":"37.850000834","long":"126.87338874","imageIndex":4,"items":[{"name":"대능식당","tel":"031-958-9285","addr":"경기도 파주시 법원읍 대능리 92-11번지","indutype":"일반휴게음식 - 일반한식","category":"restaurant"}]},{"lat":"37.850132638","long":"126.87038893","imageIndex":4,"items":[{"name":"대박집","tel":"031-958-9620","addr":"경기도 파주시 법원읍 대능리 94-205번지","indutype":"일반휴게음식 - 일반한식","category":"restaurant"},{"name":"대박집","tel":"031-000-0000","addr":"경기도 파주시 법원읍 대능리 94-205번지","indutype":"일반휴게음식 - 일반한식","category":"restaurant"}]},{"lat":"37.850497593","long":"126.87452408","imageIndex":4,"items":[{"name":"대운각","tel":"031-958-7293","addr":"경기도 파주시 법원읍 대능리 89-3번지","indutype":"일반휴게음식 - 중국식","category":"restaurant"}]},{"lat":"37.8491682","long":"126.87000435","imageIndex":4,"items":[{"name":"돈장군집","tel":"031-958-8292","addr":"경기도 파주시 법원읍 대능리 95-8번지","indutype":"일반휴게음식 - 일반한식","category":"restaurant"}]},{"lat":"37.847085579","long":"126.86872422","imageIndex":4,"items":[{"name":"동행선교문화재단식당","tel":"031-954-4441","addr":"경기도 파주시 법원읍 대능리 222번지","indutype":"일반휴게음식 - 일반한식","category":"restaurant"},{"name":"예가한식부페","tel":"031-958-2001","addr":"경기도 파주시 법원읍 대능리 222번지","indutype":"일반휴게음식 - 일반한식","category":"restaurant"}]},{"lat":"37.848639227","long":"126.87231175","imageIndex":4,"items":[{"name":"등촌","tel":"031-958-8887","addr":"경기도 파주시 법원읍 대능리 97-17번지","indutype":"일반휴게음식 - 일반한식","category":"restaurant"}]},{"lat":"37.849027396","long":"126.87300414","imageIndex":4,"items":[{"name":"떡뽀이","tel":"031-944-8000","addr":"경기도 파주시 법원읍 대능리 85-18번지 1층","indutype":"일반휴게음식 - 스넥","category":"restaurant"}]},{"lat":"37.848855842","long":"126.87266358","imageIndex":4,"items":[{"name":"로뎀나무카페","tel":"031-959-5179","addr":"경기도 파주시 법원읍 대능리 85-23번지","indutype":"일반휴게음식 - 서양음식","category":"restaurant"}]},{"lat":"37.848358722","long":"126.87122151","imageIndex":4,"items":[{"name":"마산아구탕","tel":"031-958-4430","addr":"경기도 파주시 법원읍 대능리 245-16번지","indutype":"일반휴게음식 - 일반한식","category":"restaurant"}]},{"lat":"37.849550552","long":"126.87355996","imageIndex":4,"items":[{"name":"마셔주","tel":"031-958-6777","addr":"경기도 파주시 법원읍 대능리 86-16번지","indutype":"일반휴게음식 - 주점","category":"restaurant"},{"name":"막창1번지","tel":"031-958-0117","addr":"경기도 파주시 법원읍 대능리 86-16번지","indutype":"일반휴게음식 - 일반한식","category":"restaurant"}]},{"lat":"37.84938923","long":"126.87433285","imageIndex":4,"items":[{"name":"맛나반점","tel":"031-959-1197","addr":"경기도 파주시 법원읍 대능리 87-29번지","indutype":"일반휴게음식 - 중국식","category":"restaurant"},{"name":"왕포차","tel":"","addr":"경기도 파주시 법원읍 대능리 87-29번지","indutype":"일반휴게음식 - 일반한식","category":"restaurant"}]},{"lat":"37.849305238","long":"126.87169703","imageIndex":4,"items":[{"name":"명동왕족발보쌈","tel":"031-958-5277","addr":"경기도 파주시 법원읍 대능리 94-144번지","indutype":"일반휴게음식 - 일반한식","category":"restaurant"},{"name":"훌랄라","tel":"031-959-1182","addr":"경기도 파주시 법원읍 대능리 94-144번지","indutype":"일반휴게음식 - 스넥","category":"restaurant"}]},{"lat":"37.83547113","long":"126.85269386","imageIndex":4,"items":[{"name":"무봉리토종순대국(법원리점)","tel":"031-958-6900","addr":"경기도 파주시 법원읍 대능리 527-11번지","indutype":"일반휴게음식 - 일반한식","category":"restaurant"}]},{"lat":"37.835696654","long":"126.8529206","imageIndex":4,"items":[{"name":"바다쭈꾸미파주법원점","tel":"031-958-7788","addr":"경기도 파주시 법원읍 대능리 527-7번지","indutype":"일반휴게음식 - 일반한식","category":"restaurant"}]},{"lat":"37.849056637","long":"126.8750265","imageIndex":4,"items":[{"name":"밥집","tel":"031-958-0915","addr":"경기도 파주시 법원읍 대능리 88-40번지","indutype":"일반휴게음식 - 일반한식","category":"restaurant"}]},{"lat":"37.848857466","long":"126.87414062","imageIndex":4,"items":[{"name":"법원카페","tel":"031-111-1111","addr":"경기도 파주시 법원읍 대능리 84-2번지","indutype":"일반휴게음식 - 서양음식","category":"restaurant"}]},{"lat":"37.849361106","long":"126.87333305","imageIndex":4,"items":[{"name":"블로썸","tel":"","addr":"경기도 파주시 법원읍 대능리 86-21번지","indutype":"일반휴게음식 - 서양음식","category":"restaurant"}]},{"lat":"37.8494413","long":"126.87252621","imageIndex":4,"items":[{"name":"빠시옹 치킨","tel":"031-954-9944","addr":"경기도 파주시 법원읍 대능리 94-41번지","indutype":"일반휴게음식 - 스넥","category":"restaurant"}]},{"lat":"37.849188609","long":"126.87214035","imageIndex":4,"items":[{"name":"빽버거","tel":"031-123-4567","addr":"경기도 파주시 법원읍 대능리 94-68번지","indutype":"일반휴게음식 - 서양음식","category":"restaurant"}]},{"lat":"37.850001507","long":"126.87400229","imageIndex":4,"items":[{"name":"사돈","tel":"031-958-1253","addr":"경기도 파주시 법원읍 대능리 89-20번지","indutype":"일반휴게음식 - 일반한식","category":"restaurant"}]},{"lat":"37.849054449","long":"126.87302681","imageIndex":4,"items":[{"name":"소문난분식","tel":"031-959-5848","addr":"경기도 파주시 법원읍 대능리 85-17번지","indutype":"일반휴게음식 - 일반한식","category":"restaurant"}]},{"lat":"37.849692553","long":"126.87161681","imageIndex":4,"items":[{"name":"손이가솥뚜껑삼겹살","tel":"031-958-1971","addr":"경기도 파주시 법원읍 대능리 94-54번지","indutype":"일반휴게음식 - 일반한식","category":"restaurant"}]},{"lat":"37.849521526","long":"126.87175346","imageIndex":4,"items":[{"name":"솔루체피자","tel":"031-958-3007","addr":"경기도 파주시 법원읍 대능리 94-44번지","indutype":"일반휴게음식 - 일반한식","category":"restaurant"}]},{"lat":"37.845557877","long":"126.86430743","imageIndex":4,"items":[{"name":"시골밥상","tel":"031-957-1259","addr":"경기도 파주시 법원읍 대능리 235-4번지","indutype":"일반휴게음식 - 일반한식","category":"restaurant"}]},{"lat":"37.849665055","long":"126.87119646","imageIndex":4,"items":[{"name":"써니","tel":"031-958-2926","addr":"경기도 파주시 법원읍 대능리 94-60번지","indutype":"일반휴게음식 - 주점","category":"restaurant"},{"name":"여기가좋와","tel":"","addr":"경기도 파주시 법원읍 대능리 94-60번지","indutype":"일반휴게음식 - 주점","category":"restaurant"}]},{"lat":"37.84513888","long":"126.86813696","imageIndex":4,"items":[{"name":"아리랑","tel":"031-958-0078","addr":"경기도 파주시 법원읍 대능리 230-3번지","indutype":"일반휴게음식 - 일반한식","category":"restaurant"}]},{"lat":"37.848606858","long":"126.87566354","imageIndex":4,"items":[{"name":"얼큰이칼국수","tel":"031-958-9188","addr":"경기도 파주시 법원읍 대능리 81-35번지","indutype":"일반휴게음식 - 일반한식","category":"restaurant"}]},{"lat":"37.84913688","long":"126.87425375","imageIndex":4,"items":[{"name":"영광상회 손만두","tel":"031-958-0365","addr":"경기도 파주시 법원읍 대능리 87-20번지","indutype":"일반휴게음식 - 일반한식","category":"restaurant"}]},{"lat":"37.849584275","long":"126.87146929","imageIndex":4,"items":[{"name":"예원닭강정","tel":"031-959-9255","addr":"경기도 파주시 법원읍 대능리 94-57번지","indutype":"일반휴게음식 - 스넥","category":"restaurant"}]},{"lat":"37.84897404","long":"126.8736405","imageIndex":4,"items":[{"name":"요거프레소 파주법원점","tel":"031-959-6575","addr":"경기도 파주시 법원읍 대능리 85-4번지","indutype":"일반휴게음식 - 서양음식","category":"restaurant"}]},{"lat":"37.848078782","long":"126.87064256","imageIndex":4,"items":[{"name":"윙인더박스","tel":"031-958-9464","addr":"경기도 파주시 법원읍 대능리 245-31번지","indutype":"일반휴게음식 - 스넥","category":"restaurant"}]},{"lat":"37.849775936","long":"126.87369591","imageIndex":4,"items":[{"name":"은성식당","tel":"031-959-2971","addr":"경기도 파주시 법원읍 대능리 86-12번지","indutype":"일반휴게음식 - 일반한식","category":"restaurant"}]},{"lat":"37.849721855","long":"126.87367328","imageIndex":4,"items":[{"name":"이춘봉돈까스","tel":"031-959-2522","addr":"경기도 파주시 법원읍 대능리 86-13번지","indutype":"일반휴게음식 - 일반한식","category":"restaurant"}]},{"lat":"37.849332051","long":"126.87150383","imageIndex":4,"items":[{"name":"자연춘천닭갈비","tel":"031-959-7703","addr":"경기도 파주시 법원읍 대능리 94-45번지","indutype":"일반휴게음식 - 일반한식","category":"restaurant"}]},{"lat":"37.849271075","long":"126.87339002","imageIndex":4,"items":[{"name":"장보고","tel":"031-958-3788","addr":"경기도 파주시 법원읍 대능리 86-26번지","indutype":"일반휴게음식 - 일반한식","category":"restaurant"}]},{"lat":"37.849495633","long":"126.87277608","imageIndex":4,"items":[{"name":"촌닭시대","tel":"031-958-9998","addr":"경기도 파주시 법원읍 대능리 94-39번지","indutype":"일반휴게음식 - 일반한식","category":"restaurant"}]},{"lat":"37.850496324","long":"126.87336515","imageIndex":4,"items":[{"name":"카리스마","tel":"031-959-9130","addr":"경기도 파주시 법원읍 대능리 93-2번지 2층","indutype":"일반휴게음식 - 일반한식","category":"restaurant"},{"name":"해동호프소주","tel":"031-945-2866","addr":"경기도 파주시 법원읍 대능리 93-2","indutype":"일반휴게음식 - 주점","category":"restaurant"}]},{"lat":"37.849083542","long":"126.87491284","imageIndex":4,"items":[{"name":"카페라온","tel":"031-959-3392","addr":"경기도 파주시 법원읍 대능리 88-42번지","indutype":"일반휴게음식 - 일반한식","category":"restaurant"}]},{"lat":"37.848803496","long":"126.87422025","imageIndex":4,"items":[{"name":"통일식당","tel":"031-958-5353","addr":"경기도 파주시 법원읍 대능리 84-51번지","indutype":"일반휴게음식 - 일반한식","category":"restaurant"}]},{"lat":"37.848803658","long":"126.87436795","imageIndex":4,"items":[{"name":"티바두마리치킨","tel":"031-958-1180","addr":"경기도 파주시 법원읍 대능리 84-34번지","indutype":"일반휴게음식 - 스넥","category":"restaurant"}]},{"lat":"37.848882933","long":"126.87272034","imageIndex":4,"items":[{"name":"피자스쿨 파주법원읍점","tel":"031-958-7888","addr":"경기도 파주시 법원읍 대능리 85-22번지","indutype":"일반휴게음식 - 서양음식","category":"restaurant"}]},{"lat":"37.849270925","long":"126.87325367","imageIndex":4,"items":[{"name":"화사랑","tel":"031-959-3320","addr":"경기도 파주시 법원읍 대능리 86-24번지","indutype":"일반휴게음식 - 주점","category":"restaurant"}]},{"lat":"37.835336278","long":"126.85292133","imageIndex":0,"items":[{"name":"경기자동차매매상사","tel":"031-866-9999","addr":"경기도 파주시 법원읍 대능리 528-5번지","indutype":"자동차판매 - 중고자동차판매","category":"car"}]},{"lat":"37.846027471","long":"126.86524955","imageIndex":0,"items":[{"name":"대능현대자동차공업사","tel":"031-943-7140","addr":"경기도 파주시 법원읍 대능리 237-3번지","indutype":"자동차정비 유지 - 자동차정비","category":"car"}]},{"lat":"37.843823589","long":"126.8763307","imageIndex":0,"items":[{"name":"대성자동차매매상사","tel":"031-541-5100","addr":"경기도 파주시 법원읍 대능리 54번지 봉우빌라","indutype":"자동차판매 - 중고자동차판매","category":"car"}]},{"lat":"37.846552883","long":"126.86772538","imageIndex":0,"items":[{"name":"매직카자동차용품","tel":"031-959-6070","addr":"경기도 파주시 법원읍 대능리 228-5","indutype":"자동차정비 유지 - 자동차부품","category":"car"}]},{"lat":"37.842468009","long":"126.86460859","imageIndex":0,"items":[{"name":"삼삼자동차공업사","tel":"031-958-8600","addr":"경기도 파주시 법원읍 대능리 211번지","indutype":"자동차정비 유지 - 자동차정비","category":"car"}]},{"lat":"37.846608593","long":"126.87735984","imageIndex":0,"items":[{"name":"슬기자동차공업사","tel":"031-958-8117","addr":"경기도 파주시 법원읍 대능리 70-1번지","indutype":"자동차정비 유지 - 자동차정비","category":"car"}]},{"lat":"37.845639256","long":"126.86455722","imageIndex":0,"items":[{"name":"천현카센타(타이어타운 법원점)","tel":"031-959-4541","addr":"경기도 파주시 법원읍 대능리 235-3번지","indutype":"자동차정비 유지 - 자동차정비","category":"car"}]},{"lat":"37.848854922","long":"126.87183417","imageIndex":0,"items":[{"name":"파주자동차공업사","tel":"031-958-6049","addr":"경기도 파주시 법원읍 대능리 94-208번지","indutype":"자동차정비 유지 - 자동차정비","category":"car"}]},{"lat":"37.849415985","long":"126.87408284","imageIndex":5,"items":[{"name":"귀빈장여관","tel":"031-958-1763","addr":"경기도 파주시 법원읍 대능리 87-10번지","indutype":"숙박업 - 여관/기타숙박업","category":"hotel"}]},{"lat":"37.849722762","long":"126.8745027","imageIndex":5,"items":[{"name":"블루장모텔","tel":"031-958-0243","addr":"경기도 파주시 법원읍 대능리 89-27번지","indutype":"숙박업 - 여관/기타숙박업","category":"hotel"}]},{"lat":"37.849442776","long":"126.87386692","imageIndex":5,"items":[{"name":"서원파크장","tel":"031-959-1926","addr":"경기도 파주시 법원읍 대능리 86-32번지","indutype":"숙박업 - 여관/기타숙박업","category":"hotel"}]},{"lat":"37.849334987","long":"126.87416252","imageIndex":5,"items":[{"name":"안드레 박 모텔","tel":"031-958-8254","addr":"경기도 파주시 법원읍 대능리 87-11번지","indutype":"숙박업 - 여관/기타숙박업","category":"hotel"},{"name":"안드레 박 모텔(Andre Park Motel)","tel":"031-958-8254","addr":"경기도 파주시 법원읍 대능리 87-11번지","indutype":"숙박업 - 여관/기타숙박업","category":"hotel"}]},{"lat":"37.849910339","long":"126.87302531","imageIndex":5,"items":[{"name":"정든장","tel":"031-958-1752","addr":"경기도 파주시 법원읍 대능리 93-4번지","indutype":"숙박업 - 여관/기타숙박업","category":"hotel"}]},{"lat":"37.836969962","long":"126.85528091","imageIndex":9,"items":[{"name":"그린가스 주식회사","tel":"031-959-9780","addr":"경기도 파주시 법원읍 대능리 432-11번지","indutype":"연료판매점 - LPG 취급점","category":"oil"}]},{"lat":"37.843050725","long":"126.86216489","imageIndex":9,"items":[{"name":"대능주유소","tel":"031-959-5025","addr":"경기도 파주시 법원읍 대능리 329-2번지","indutype":"연료판매점 - SK주유소","category":"oil"}]},{"lat":"37.849522874","long":"126.87296918","imageIndex":8,"items":[{"name":"김두현치과의원","tel":"031-958-2875","addr":"경기도 파주시 법원읍 대능리 92-44번지","indutype":"의원 - 치과의원","category":"medical"}]},{"lat":"37.849188912","long":"126.87241303","imageIndex":8,"items":[{"name":"늘편한병원","tel":"031-958-9800","addr":"경기도 파주시 법원읍 대능리 94-71번지","indutype":"병원 - 병원","category":"medical"}]},{"lat":"37.849387369","long":"126.87263992","imageIndex":8,"items":[{"name":"대광의원","tel":"031-959-1954","addr":"경기도 파주시 법원읍 대능리 94-38번지","indutype":"의원 - 의원","category":"medical"},{"name":"법원신세계약국","tel":"031-958-2237","addr":"경기도 파주시 법원읍 대능리 94-38번지","indutype":"약국 - 약국","category":"medical"}]},{"lat":"37.849189012","long":"126.87250393","imageIndex":8,"items":[{"name":"법원서울치과의원","tel":"031-958-7528","addr":"경기도 파주시 법원읍 대능리 94-72번지","indutype":"의원 - 치과의원","category":"medical"},{"name":"법원천하약국","tel":"031-959-9002","addr":"경기도 파주시 법원읍 대능리 94-72번지","indutype":"약국 - 약국","category":"medical"},{"name":"파주의료소비자협동조합 우리한의원","tel":"031-958-8080","addr":"경기도 파주시 법원읍 대능리 94-72번지","indutype":"의원 - 한의원","category":"medical"}]},{"lat":"37.849217318","long":"126.8736628","imageIndex":8,"items":[{"name":"법원중앙외과의원","tel":"031-959-1112","addr":"경기도 파주시 법원읍 대능리 86-31번지","indutype":"의원 - 의원","category":"medical"}]},{"lat":"37.849549727","long":"126.87281007","imageIndex":8,"items":[{"name":"신플란트치과의원","tel":"031-959-2828","addr":"경기도 파주시 법원읍 대능리 94-65번지","indutype":"의원 - 치과의원","category":"medical"}]},{"lat":"37.848749961","long":"126.87469754","imageIndex":8,"items":[{"name":"왕한의원","tel":"031-959-9007","addr":"경기도 파주시 법원읍 대능리 81-43번지","indutype":"의원 - 한의원","category":"medical"}]},{"lat":"37.849271224","long":"126.87352636","imageIndex":8,"items":[{"name":"중앙약국","tel":"031-958-0105","addr":"경기도 파주시 법원읍 대능리 86-29번지","indutype":"약국 - 약국","category":"medical"}]},{"lat":"37.84849845","long":"126.87539104","imageIndex":8,"items":[{"name":"파주서울의원","tel":"031-959-1119","addr":"경기도 파주시 법원읍 대능리 81-10번지","indutype":"의원 - 의원","category":"medical"}]},{"lat":"37.850632038","long":"126.87388757","imageIndex":8,"items":[{"name":"한샘가정의학과의원","tel":"031-959-8001","addr":"경기도 파주시 법원읍 대능리 92-30번지","indutype":"의원 - 의원","category":"medical"}]},{"lat":"37.849640708","long":"126.87361661","imageIndex":7,"items":[{"name":"대명마트","tel":"031-958-0040","addr":"경기도 파주시 법원읍 대능리 86-15번지","indutype":"유통업 영리 - 슈퍼마켓","category":"mart"}]},{"lat":"37.848774695","long":"126.87260692","imageIndex":7,"items":[{"name":"월드스토어","tel":"031-8071-3440","addr":"경기도 파주시 법원읍 대능리 97-7번지","indutype":"유통업 영리 - 슈퍼마켓","category":"mart"}]},{"lat":"37.84852117","long":"126.87147118","imageIndex":7,"items":[{"name":"제일킹마트","tel":"031-958-0428","addr":"경기도 파주시 법원읍 대능리 245-11번지","indutype":"유통업 영리 - 슈퍼마켓","category":"mart"}]},{"lat":"37.849772263","long":"126.87038957","imageIndex":7,"items":[{"name":"청진슈퍼","tel":"","addr":"경기도 파주시 법원읍 대능리 95-56번지","indutype":"유통업 영리 - 슈퍼마켓","category":"mart"}]},{"lat":"37.848750232","long":"126.8749475","imageIndex":7,"items":[{"name":"하모니마트법원점","tel":"031-958-0550","addr":"경기도 파주시 법원읍 대능리 81-41번지","indutype":"유통업 영리 - 슈퍼마켓","category":"mart"}]},{"lat":"37.849327767","long":"126.87581001","imageIndex":16,"items":[{"name":"미소어린이집[아이행복]","tel":"031-959-4004","addr":"경기도 파주시 법원읍 대능리 88-20","indutype":"학원 - 유아원","category":"study"}]},{"lat":"37.848585384","long":"126.87250499","imageIndex":16,"items":[{"name":"법원중앙컴퓨터학원","tel":"031-958-4626","addr":"경기도 파주시 법원읍 대능리 97-15번지 2층","indutype":"학원 - 컴퓨터학원","category":"study"},{"name":"아이비츠중앙학원","tel":"031-958-4626","addr":"경기도 파주시 법원읍 대능리 97-15번지, 2층","indutype":"학원 - 기타 교육기관","category":"study"}]},{"lat":"37.850057404","long":"126.87569514","imageIndex":16,"items":[{"name":"새빛유치원[아이행복]","tel":"031-958-1458","addr":"경기도 파주시 법원읍 대능리 90-2","indutype":"학원 - 유치원","category":"study"}]}]