[{"lat":"37.264551303","long":"127.63922246","imageIndex":0,"items":[{"name":"고속자동차정비공업사","tel":"031-882-2479","addr":"경기도 여주시 점봉동 435-2번지","indutype":"자동차정비 유지 - 자동차정비","category":"car"}]},{"lat":"37.258443486","long":"127.6456978","imageIndex":0,"items":[{"name":"네비원","tel":"031-886-8277","addr":"경기도 여주시 점봉동 347번지 네비게이션 나동 2호","indutype":"자동차정비 유지 - 자동차부품","category":"car"}]},{"lat":"37.260249314","long":"127.64166626","imageIndex":0,"items":[{"name":"대한전지기술공사","tel":"031-883-8215","addr":"경기도 여주시 점봉동 444-10번지","indutype":"자동차정비 유지 - 자동차부품","category":"car"}]},{"lat":"37.259752926","long":"127.63847192","imageIndex":0,"items":[{"name":"디오코리아","tel":"031-884-0364","addr":"경기도 여주시 점봉동 459-2번지","indutype":"자동차정비 유지 - 자동차부품","category":"car"}]},{"lat":"37.25785999","long":"127.65354964","imageIndex":0,"items":[{"name":"명성골드자동차공업사","tel":"031-886-2888","addr":"경기도 여주시 점봉동 70번지","indutype":"자동차정비 유지 - 자동차정비","category":"car"}]},{"lat":"37.257364651","long":"127.64691731","imageIndex":0,"items":[{"name":"미스터칸","tel":"031-883-3996","addr":"경기도 여주시 점봉동 349-3번지 1동 1층","indutype":"자동차정비 유지 - 윤활유 전문 판매","category":"car"}]},{"lat":"37.257782163","long":"127.64635725","imageIndex":0,"items":[{"name":"밧데리1번가","tel":"031-323-6016","addr":"경기도 여주시 점봉동 348-3번지","indutype":"자동차정비 유지 - 자동차부품","category":"car"}]},{"lat":"37.264750123","long":"127.6391114","imageIndex":0,"items":[{"name":"브라더모터스","tel":"031-881-2927","addr":"경기도 여주시 점봉동 434-2번지","indutype":"자동차정비 유지 - 자동차정비","category":"car"}]},{"lat":"37.266442507","long":"127.63771644","imageIndex":0,"items":[{"name":"쌍용자동차여주서비스프라자","tel":"031-881-6082","addr":"경기도 여주시 점봉동 429-46번지 46","indutype":"자동차정비 유지 - 자동차정비","category":"car"}]},{"lat":"37.257669721","long":"127.6438313","imageIndex":0,"items":[{"name":"여주종합폐차장","tel":"031-884-9933","addr":"경기도 여주시 점봉동 367-17번지","indutype":"자동차정비 유지 - 가타자동차서비스","category":"car"}]},{"lat":"37.266501261","long":"127.64019713","imageIndex":0,"items":[{"name":"카앤피플 여주지점","tel":"","addr":"경기도 여주시 점봉동 429-54번지 3층 305호","indutype":"자동차정비 유지 - 세차장","category":"car"}]},{"lat":"37.262662811","long":"127.64022115","imageIndex":0,"items":[{"name":"타이어직매장여주점","tel":"02-1111-1111","addr":"경기도 여주시 점봉동 438번지 A동 1호","indutype":"자동차정비 유지 - 자동차시트·타이어","category":"car"}]},{"lat":"37.266531214","long":"127.63797648","imageIndex":0,"items":[{"name":"타이어클럽","tel":"031-882-2331","addr":"경기도 여주시 점봉동 429-38번지 1층 101,102,103호","indutype":"자동차정비 유지 - 자동차시트·타이어","category":"car"}]}]