[{"lat":"37.501624322","long":"126.7869924","imageIndex":8,"items":[{"name":"W치과의원","tel":"032-614-2080","addr":"경기도 부천시 춘의동 203-1번지 외1필지춘의메디칼빌딩 403호","indutype":"의원 - 치과의원","category":"medical"}]},{"lat":"37.503147074","long":"126.78215897","imageIndex":8,"items":[{"name":"고운미소약국","tel":"032-676-0757","addr":"경기도 부천시 춘의동 144-26번지 1층","indutype":"약국 - 약국","category":"medical"}]},{"lat":"37.50226427","long":"126.78712627","imageIndex":8,"items":[{"name":"메디컬 우리약국","tel":"032-679-1237","addr":"경기도 부천시 춘의동 165-6번지 A동 1층 일부","indutype":"약국 - 약국","category":"medical"}]},{"lat":"37.505480078","long":"126.78185805","imageIndex":8,"items":[{"name":"부천제일의원","tel":"032-671-9011","addr":"경기도 부천시 춘의동 127번지 광성프라자 1층 1호","indutype":"의원 - 의원","category":"medical"}]},{"lat":"37.502617558","long":"126.78326883","imageIndex":8,"items":[{"name":"수정약국(의경약국)","tel":"032-664-3423","addr":"경기도 부천시 춘의동 173-3번지","indutype":"약국 - 약국","category":"medical"}]},{"lat":"37.50462355","long":"126.78640699","imageIndex":8,"items":[{"name":"오한의원","tel":"032-676-2354","addr":"경기도 부천시 춘의동 122-4번지 세종빌딩 3층","indutype":"의원 - 한의원","category":"medical"},{"name":"이종석치과의원","tel":"032-676-2880","addr":"경기도 부천시 춘의동 122-4번지 세종빌딩 3층","indutype":"의원 - 치과의원","category":"medical"}]},{"lat":"37.503181703","long":"126.78626413","imageIndex":8,"items":[{"name":"춘의생한의원","tel":"032-653-8800","addr":"경기도 부천시 춘의동 166-2번지 3동","indutype":"의원 - 한의원","category":"medical"}]}]