[{"lat":"37.508224009","long":"127.63280267","imageIndex":4,"items":[{"name":"369치킨호프","tel":"031-771-7369","addr":"경기도 양평군 용문면 광탄리 175-8번지","indutype":"일반휴게음식 - 스넥","category":"restaurant"},{"name":"커피타임","tel":"070-4064-5890","addr":"경기도 양평군 용문면 광탄리 175-8번지","indutype":"일반휴게음식 - 서양음식","category":"restaurant"}]},{"lat":"37.506748479","long":"127.63072061","imageIndex":4,"items":[{"name":"BHC치킨","tel":"031-775-9992","addr":"경기도 양평군 용문면 광탄리 74-16","indutype":"일반휴게음식 - 일반한식","category":"restaurant"},{"name":"사랑해회센타","tel":"031-773-8885","addr":"경기도 양평군 용문면 광탄리 74-16번지 1층","indutype":"일반휴게음식 - 일식·회집","category":"restaurant"}]},{"lat":"37.507191728","long":"127.63208149","imageIndex":4,"items":[{"name":"곰순댓국","tel":"031-775-1143","addr":"경기도 양평군 용문면 광탄리 73-2번지","indutype":"일반휴게음식 - 일반한식","category":"restaurant"}]},{"lat":"37.508553554","long":"127.63351796","imageIndex":4,"items":[{"name":"광탄곱창","tel":"031-772-0603","addr":"경기도 양평군 용문면 광탄리 174-1번지","indutype":"일반휴게음식 - 일반한식","category":"restaurant"}]},{"lat":"37.506222991","long":"127.62957394","imageIndex":4,"items":[{"name":"광탄짬뽕","tel":"031-775-6630","addr":"경기도 양평군 용문면 광탄리 76-6번지","indutype":"일반휴게음식 - 중국식","category":"restaurant"}]},{"lat":"37.507743708","long":"127.63163373","imageIndex":4,"items":[{"name":"금강산","tel":"031-774-6329","addr":"경기도 양평군 용문면 광탄리 162-2번지","indutype":"일반휴게음식 - 중국식","category":"restaurant"}]},{"lat":"37.507026327","long":"127.63099437","imageIndex":4,"items":[{"name":"내고향손맛길","tel":"031-773-3943","addr":"경기도 양평군 용문면 광탄리 74-20번지","indutype":"일반휴게음식 - 일반한식","category":"restaurant"}]},{"lat":"37.510632874","long":"127.63724521","imageIndex":4,"items":[{"name":"너븐여울","tel":"031-771-4257","addr":"경기도 양평군 용문면 광탄리 222-4번지","indutype":"일반휴게음식 - 일반한식","category":"restaurant"},{"name":"옛집","tel":"031-771-4257","addr":"경기도 양평군 용문면 광탄리 222-4번지","indutype":"일반휴게음식 - 일반한식","category":"restaurant"}]},{"lat":"37.507639726","long":"127.63254895","imageIndex":4,"items":[{"name":"논두렁","tel":"031-775-5109","addr":"경기도 양평군 용문면 광탄리 164-4번지","indutype":"일반휴게음식 - 일반한식","category":"restaurant"}]},{"lat":"37.510993885","long":"127.6337647","imageIndex":4,"items":[{"name":"농가막국수","tel":"031-772-3493","addr":"경기도 양평군 용문면 광탄리 250","indutype":"일반휴게음식 - 일반한식","category":"restaurant"}]},{"lat":"37.50849628","long":"127.63243173","imageIndex":4,"items":[{"name":"늘봄","tel":"031-774-0075","addr":"경기도 양평군 용문면 광탄리 161-7번지","indutype":"일반휴게음식 - 일반한식","category":"restaurant"},{"name":"영남한우촌","tel":"031-773-3486","addr":"경기도 양평군 용문면 광탄리 161-7","indutype":"일반휴게음식 - 일반한식","category":"restaurant"},{"name":"회령만두","tel":"031-775-2955","addr":"경기도 양평군 용문면 광탄리 161-7번지 1층","indutype":"일반휴게음식 - 일반한식","category":"restaurant"}]},{"lat":"37.510858684","long":"127.63377487","imageIndex":4,"items":[{"name":"대길한정식","tel":"031-775-5086","addr":"경기도 양평군 용문면 광탄리 181-2번지","indutype":"일반휴게음식 - 일반한식","category":"restaurant"}]},{"lat":"37.511105751","long":"127.63810879","imageIndex":4,"items":[{"name":"르빵카페","tel":"031-775-1239","addr":"경기도 양평군 용문면 광탄리 235-2번지","indutype":"일반휴게음식 - 서양음식","category":"restaurant"}]},{"lat":"37.508388288","long":"127.6324082","imageIndex":4,"items":[{"name":"마산아구찜","tel":"031-772-5549","addr":"경기도 양평군 용문면 광탄리 161-4번지","indutype":"일반휴게음식 - 일반한식","category":"restaurant"}]},{"lat":"37.508693233","long":"127.63435607","imageIndex":4,"items":[{"name":"보리밥과청국장","tel":"031-771-0342","addr":"경기도 양평군 용문면 광탄리 193-3번지 1층","indutype":"일반휴게음식 - 일반한식","category":"restaurant"}]},{"lat":"37.511442118","long":"127.63418696","imageIndex":4,"items":[{"name":"봉황매운탕","tel":"031-772-4888","addr":"경기도 양평군 용문면 광탄리 243-2번지","indutype":"일반휴게음식 - 일반한식","category":"restaurant"}]},{"lat":"37.50827207","long":"127.63223758","imageIndex":4,"items":[{"name":"소도먹고닭도먹고","tel":"031-474-5875","addr":"경기도 양평군 용문면 광탄리 161-30번지 1층","indutype":"일반휴게음식 - 일반한식","category":"restaurant"}]},{"lat":"37.507774264","long":"127.63266317","imageIndex":4,"items":[{"name":"양산박 손두부","tel":"031-774-1711","addr":"경기도 양평군 용문면 광탄리 164-3번지 1층","indutype":"일반휴게음식 - 일반한식","category":"restaurant"}]},{"lat":"37.507387584","long":"127.63252421","imageIndex":4,"items":[{"name":"엄마손칼국수","tel":"031-000-0000","addr":"경기도 양평군 용문면 광탄리 165-5번지 1층 101호","indutype":"일반휴게음식 - 일반한식","category":"restaurant"}]},{"lat":"37.508636107","long":"127.62815775","imageIndex":4,"items":[{"name":"오투카페","tel":"070-0000-0000","addr":"경기도 양평군 용문면 광탄리 782번지 용운사","indutype":"일반휴게음식 - 서양음식","category":"restaurant"}]},{"lat":"37.510913229","long":"127.62519084","imageIndex":4,"items":[{"name":"용문장례식장내식당","tel":"031-773-4321","addr":"경기도 양평군 용문면 광탄리 434-5","indutype":"일반휴게음식 - 일반한식","category":"restaurant"}]},{"lat":"37.506803437","long":"127.63055142","imageIndex":4,"items":[{"name":"한섬갈비","tel":"031-773-3488","addr":"경기도 양평군 용문면 광탄리 74-14번지 1층","indutype":"일반휴게음식 - 일반한식","category":"restaurant"},{"name":"한섬갈비탕","tel":"031-773-3485","addr":"경기도 양평군 용문면 광탄리 74-14번지 2층","indutype":"일반휴게음식 - 일반한식","category":"restaurant"}]},{"lat":"37.510633027","long":"127.63385214","imageIndex":17,"items":[{"name":"GS25양평광탄리점","tel":"","addr":"경기도 양평군 용문면 광탄리 182-5번지","indutype":"유통업 영리 - 편 의 점","category":"other"}]},{"lat":"37.507387584","long":"127.63252421","imageIndex":17,"items":[{"name":"강바다낚시","tel":"031-771-4672","addr":"경기도 양평군 용문면 광탄리 165-5번지 1층 103호","indutype":"레져용품 - 스포츠·레져용품","category":"other"}]},{"lat":"37.511776584","long":"127.63901931","imageIndex":17,"items":[{"name":"경기도청/해양수산자원연구소","tel":"031-8008-6507","addr":"경기도 양평군 용문면 광탄리 235-1번지 해양수산자원연구소","indutype":"용역 서비스 - 사무서비스","category":"other"}]},{"lat":"37.515828951","long":"127.62587638","imageIndex":17,"items":[{"name":"고풍가구","tel":"031-772-6985","addr":"경기도 양평군 용문면 광탄리 389번지","indutype":"수리서비스 - 가정용품수리","category":"other"}]},{"lat":"37.510913229","long":"127.62519084","imageIndex":17,"items":[{"name":"광이쉼터","tel":"031-774-0173","addr":"경기도 양평군 용문면 광탄리 434-5","indutype":"유통업 영리 - 편 의 점","category":"other"},{"name":"용문장례식장","tel":"031-773-4321","addr":"경기도 양평군 용문면 광탄리 434-5번지 외2필지","indutype":"용역 서비스 - 가례서비스업","category":"other"}]},{"lat":"37.507743708","long":"127.63163373","imageIndex":17,"items":[{"name":"광창샤시","tel":"031-773-3959","addr":"경기도 양평군 용문면 광탄리 162-2번지","indutype":"용역 서비스 - 기타용역서비스","category":"other"}]},{"lat":"37.507749345","long":"127.63226712","imageIndex":17,"items":[{"name":"광탄낚시","tel":"031-772-2869","addr":"경기도 양평군 용문면 광탄리 175-4번지","indutype":"레져용품 - 스포츠·레져용품","category":"other"}]},{"lat":"37.512246096","long":"127.63715707","imageIndex":17,"items":[{"name":"구내매점","tel":"070-4194-6194","addr":"경기도 양평군 용문면 광탄리 235-8번지","indutype":"신변잡화 - 기타잡화","category":"other"}]},{"lat":"37.507191728","long":"127.63208149","imageIndex":17,"items":[{"name":"금호철물","tel":"031-774-4804","addr":"경기도 양평군 용문면 광탄리 73-2","indutype":"기타 - 기계공구","category":"other"}]},{"lat":"37.508224009","long":"127.63280267","imageIndex":17,"items":[{"name":"씨유양평광탄리점","tel":"031-772-7488","addr":"경기도 양평군 용문면 광탄리 175-8번지","indutype":"유통업 영리 - 편 의 점","category":"other"}]},{"lat":"37.511332914","long":"127.62590687","imageIndex":17,"items":[{"name":"중앙리빙샷시","tel":"031-775-2822","addr":"경기도 양평군 용문면 광탄리 433번지","indutype":"건축자재 - 기타건축자재","category":"other"}]},{"lat":"37.510055789","long":"127.63733081","imageIndex":17,"items":[{"name":"평창당","tel":"031-774-5370","addr":"경기도 양평군 용문면 광탄리 216번지","indutype":"문화.취미 - 민예·공예품","category":"other"}]},{"lat":"37.506748479","long":"127.63072061","imageIndex":13,"items":[{"name":"LA당구장","tel":"031-775-0029","addr":"경기도 양평군 용문면 광탄리 74-16번지","indutype":"레저업소 - 당 구 장","category":"leisure"}]},{"lat":"37.508224009","long":"127.63280267","imageIndex":13,"items":[{"name":"광탄패밀리노래연습장","tel":"031-775-5252","addr":"경기도 양평군 용문면 광탄리 175-8번지","indutype":"레저업소 - 노 래 방","category":"leisure"}]},{"lat":"37.506748479","long":"127.63072061","imageIndex":5,"items":[{"name":"LA모텔","tel":"031-775-0029","addr":"경기도 양평군 용문면 광탄리 74-16","indutype":"숙박업 - 여관/기타숙박업","category":"hotel"}]},{"lat":"37.506525768","long":"127.63024374","imageIndex":5,"items":[{"name":"버킹검궁여관","tel":"031-772-2758","addr":"경기도 양평군 용문면 광탄리 74-27번지","indutype":"숙박업 - 여관/기타숙박업","category":"hotel"}]},{"lat":"37.509664801","long":"127.63799479","imageIndex":5,"items":[{"name":"페르마타","tel":"","addr":"경기도 양평군 용문면 광탄리 208-2번지","indutype":"숙박업 - 여관/기타숙박업","category":"hotel"}]},{"lat":"37.507577368","long":"127.62218867","imageIndex":7,"items":[{"name":"고려인삼연구(주)","tel":"031-774-3417","addr":"경기도 양평군 용문면 광탄리 590-1","indutype":"건강식품 - 홍삼제품","category":"food"}]},{"lat":"37.509439382","long":"127.646351","imageIndex":7,"items":[{"name":"농업회사법인주식회사늘해랑유통","tel":"031-775-8635","addr":"경기도 양평군 용문면 광탄리 848번지","indutype":"음료식품 - 농·축·수산품","category":"food"}]},{"lat":"37.507335704","long":"127.64715856","imageIndex":7,"items":[{"name":"대장금","tel":"031-383-8885","addr":"경기도 양평군 용문면 광탄리 904번지","indutype":"음료식품 - 농·축·수산품","category":"food"},{"name":"황금상회","tel":"031-773-0082","addr":"경기도 양평군 용문면 광탄리 904번지","indutype":"음료식품 - 미곡상","category":"food"}]},{"lat":"37.510856346","long":"127.6375751","imageIndex":7,"items":[{"name":"상광상회","tel":"031-772-0057","addr":"경기도 양평군 용문면 광탄리 222","indutype":"음료식품 - 기타음료식품","category":"food"}]},{"lat":"37.50849628","long":"127.63243173","imageIndex":7,"items":[{"name":"영남식육점","tel":"031-774-3486","addr":"경기도 양평군 용문면 광탄리 161-7번지","indutype":"음료식품 - 농·축·수산품","category":"food"}]},{"lat":"37.508498147","long":"127.63208114","imageIndex":7,"items":[{"name":"진성축산","tel":"031-774-2554","addr":"경기도 양평군 용문면 광탄리 161-6번지","indutype":"음료식품 - 정육점","category":"food"}]},{"lat":"37.508224009","long":"127.63280267","imageIndex":8,"items":[{"name":"광탄약국","tel":"031-771-1248","addr":"경기도 양평군 용문면 광탄리 175-8번지","indutype":"약국 - 약국","category":"medical"}]},{"lat":"37.509861301","long":"127.63326883","imageIndex":13,"items":[{"name":"광탄이용원","tel":"031-773-5693","addr":"경기도 양평군 용문면 광탄리 159-5번지","indutype":"보건위생 - 이용원","category":"beauty"}]},{"lat":"37.50869533","long":"127.63227506","imageIndex":7,"items":[{"name":"더드림할인마트","tel":"031-774-2554","addr":"경기도 양평군 용문면 광탄리 161-35번지","indutype":"유통업 영리 - 슈퍼마켓","category":"mart"}]},{"lat":"37.51544408","long":"127.62880272","imageIndex":16,"items":[{"name":"양평양떼목장","tel":"031-774-4512","addr":"경기도 양평군 용문면 광탄리 300번지","indutype":"학원 - 기타 교육기관","category":"study"}]},{"lat":"37.509774284","long":"127.63269129","imageIndex":16,"items":[{"name":"용문초등학교","tel":"031-774-5435","addr":"경기도 양평군 용문면 광탄리 154번지 용문초등학교","indutype":"학원 - 초중고교육기관","category":"study"}]},{"lat":"37.51044486","long":"127.62516433","imageIndex":9,"items":[{"name":"용문주유소","tel":"031-771-5107","addr":"경기도 양평군 용문면 광탄리 434-6번지","indutype":"연료판매점 - 쌍용S-OIL","category":"oil"}]},{"lat":"37.509326505","long":"127.62538124","imageIndex":9,"items":[{"name":"정품주유소","tel":"031-772-8344","addr":"경기도 양평군 용문면 광탄리 438-4번지 정품주유소","indutype":"연료판매점 - SK주유소","category":"oil"}]},{"lat":"37.506474234","long":"127.62976831","imageIndex":9,"items":[{"name":"주식회사비에스플랜광탄","tel":"031-772-4514","addr":"경기도 양평군 용문면 광탄리 74-6번지","indutype":"연료판매점 - 현대정유(오일뱅크)","category":"oil"}]}]