[{"lat":"37.485566609","long":"126.79084894","imageIndex":4,"items":[{"name":"공주커피맥주","tel":"032-342-0709","addr":"경기도 부천시 소사동 6-27번지 지하1층","indutype":"일반휴게음식 - 서양음식","category":"restaurant"},{"name":"이디야커피 (부천성모병원)","tel":"031-345-9690","addr":"경기도 부천시 소사동 6-27번지 1층","indutype":"일반휴게음식 - 서양음식","category":"restaurant"}]},{"lat":"37.485621722","long":"126.79143673","imageIndex":4,"items":[{"name":"교동갈비탕","tel":"032-345-8142","addr":"경기도 부천시 소사동 9-22번지 1층","indutype":"일반휴게음식 - 일반한식","category":"restaurant"},{"name":"병천토속순대","tel":"032-345-2883","addr":"경기도 부천시 소사동 9-22번지 1층","indutype":"일반휴게음식 - 일반한식","category":"restaurant"}]},{"lat":"37.48442677","long":"126.79332827","imageIndex":4,"items":[{"name":"구수한통닭","tel":"032-345-9870","addr":"경기도 부천시 소사동 17-10번지 1층 일부","indutype":"일반휴게음식 - 일반한식","category":"restaurant"}]},{"lat":"37.485791267","long":"126.79052042","imageIndex":4,"items":[{"name":"굽모닝숯불바베큐","tel":"032-342-5292","addr":"경기도 부천시 소사동 6-16번지 1층","indutype":"일반휴게음식 - 일반한식","category":"restaurant"},{"name":"피자상회","tel":"032-342-7857","addr":"경기도 부천시 소사동 6-16번지 1층","indutype":"일반휴게음식 - 서양음식","category":"restaurant"}]},{"lat":"37.485900239","long":"126.79099499","imageIndex":4,"items":[{"name":"남원골추어탕","tel":"032--341-5600","addr":"경기도 부천시 소사동 5-8번지 1층","indutype":"일반휴게음식 - 일반한식","category":"restaurant"}]},{"lat":"37.483597117","long":"126.79291226","imageIndex":4,"items":[{"name":"넌보쌈(!)난삼합(?)","tel":"032-347-5353","addr":"경기도 부천시 소사동 48-21번지 1층","indutype":"일반휴게음식 - 일반한식","category":"restaurant"}]},{"lat":"37.485677276","long":"126.79227327","imageIndex":4,"items":[{"name":"다누리","tel":"032-342-3688","addr":"경기도 부천시 소사동 16-23번지 1층 일부","indutype":"일반휴게음식 - 일반한식","category":"restaurant"}]},{"lat":"37.48509286","long":"126.79296461","imageIndex":4,"items":[{"name":"대박만두","tel":"","addr":"경기도 부천시 소사동 16-9번지 1층","indutype":"일반휴게음식 - 일반한식","category":"restaurant"},{"name":"별난만두","tel":"032-461-3431","addr":"경기도 부천시 소사동 16-9번지","indutype":"일반휴게음식 - 스넥","category":"restaurant"},{"name":"수산시장","tel":"032-345-3537","addr":"경기도 부천시 소사동 16-9번지 1층","indutype":"일반휴게음식 - 일식·회집","category":"restaurant"}]},{"lat":"37.484453358","long":"126.79307946","imageIndex":4,"items":[{"name":"더데이지","tel":"032-349-8761","addr":"경기도 부천시 소사동 17-11번지 1층","indutype":"일반휴게음식 - 서양음식","category":"restaurant"}]},{"lat":"37.486376565","long":"126.79032655","imageIndex":4,"items":[{"name":"더큰도시락","tel":"032-344-9326","addr":"경기도 부천시 소사동 5-16번지 1층","indutype":"일반휴게음식 - 일반한식","category":"restaurant"},{"name":"엄마손김밥","tel":"032-201-1827","addr":"경기도 부천시 소사동 5-16번지 1층","indutype":"일반휴게음식 - 스넥","category":"restaurant"}]},{"lat":"37.484315975","long":"126.79182483","imageIndex":4,"items":[{"name":"도미노피자 소사역곡점","tel":"032-342-3082","addr":"경기도 부천시 소사동 46-8번지 1층","indutype":"일반휴게음식 - 서양음식","category":"restaurant"}]},{"lat":"37.486484439","long":"126.79019056","imageIndex":4,"items":[{"name":"돈토랑","tel":"032-345-8421","addr":"경기도 부천시 소사동 5-15번지","indutype":"일반휴게음식 - 일반한식","category":"restaurant"}]},{"lat":"37.48570366","long":"126.79191138","imageIndex":4,"items":[{"name":"또모찌","tel":"032-341-5700","addr":"경기도 부천시 소사동 9-1번지 1층","indutype":"일반휴게음식 - 서양음식","category":"restaurant"},{"name":"바지락손칼국수","tel":"032-341-4125","addr":"경기도 부천시 소사동 9-1번지","indutype":"일반휴게음식 - 일반한식","category":"restaurant"},{"name":"죽이야기","tel":"032-347-0386","addr":"경기도 부천시 소사동 9-1번지","indutype":"일반휴게음식 - 일반한식","category":"restaurant"}]},{"lat":"37.485155728","long":"126.79285136","imageIndex":4,"items":[{"name":"마부마라탕","tel":"","addr":"경기도 부천시 소사동 16-10번지","indutype":"일반휴게음식 - 스넥","category":"restaurant"}]},{"lat":"37.484570628","long":"126.79315828","imageIndex":4,"items":[{"name":"만나빈대떡","tel":"032-342-0907","addr":"경기도 부천시 소사동 17-9번지","indutype":"일반휴게음식 - 일반한식","category":"restaurant"}]},{"lat":"37.486286669","long":"126.79043987","imageIndex":4,"items":[{"name":"맘스터치 소명점","tel":"032-351-0285","addr":"경기도 부천시 소사동 5-17번지 조양빌딩 1층","indutype":"일반휴게음식 - 서양음식","category":"restaurant"},{"name":"신흥양꼬치","tel":"032-236-1705","addr":"경기도 부천시 소사동 5-17번지 조양빌딩 1층 일부","indutype":"일반휴게음식 - 일반한식","category":"restaurant"}]},{"lat":"37.484155871","long":"126.79298984","imageIndex":4,"items":[{"name":"맥심다방","tel":"032-341-9953","addr":"경기도 부천시 소사동 45-14번지","indutype":"일반휴게음식 - 서양음식","category":"restaurant"},{"name":"자매영양탕","tel":"070-7313-8721","addr":"경기도 부천시 소사동 45-14번지 103호","indutype":"일반휴게음식 - 일반한식","category":"restaurant"}]},{"lat":"37.484760076","long":"126.79329342","imageIndex":4,"items":[{"name":"머슴생고기","tel":"032-344-9704","addr":"경기도 부천시 소사동 18-24번지 101호","indutype":"일반휴게음식 - 일반한식","category":"restaurant"}]},{"lat":"37.484294657","long":"126.79504722","imageIndex":4,"items":[{"name":"멀뫼식당","tel":"070-7340-2714","addr":"경기도 부천시 소사동 19-2번지 진성아트빌 102호","indutype":"일반휴게음식 - 일반한식","category":"restaurant"}]},{"lat":"37.484536809","long":"126.79441339","imageIndex":4,"items":[{"name":"미당골뼈다귀","tel":"032-351-0183","addr":"경기도 부천시 소사동 19-10번지 1층","indutype":"일반휴게음식 - 일반한식","category":"restaurant"},{"name":"옛날장터치킨","tel":"032-344-1999","addr":"경기도 부천시 소사동 19-10번지 1층","indutype":"일반휴게음식 - 일반한식","category":"restaurant"}]},{"lat":"37.4837073","long":"126.7940765","imageIndex":4,"items":[{"name":"미친양꼬치","tel":"032-345-7818","addr":"경기도 부천시 소사동 44-25번지 1층","indutype":"일반휴게음식 - 중국식","category":"restaurant"}]},{"lat":"37.485038258","long":"126.79265948","imageIndex":4,"items":[{"name":"민트핫도그","tel":"","addr":"경기도 부천시 소사동 17-5번지 1층 3호","indutype":"일반휴게음식 - 일반한식","category":"restaurant"}]},{"lat":"37.485900624","long":"126.79120981","imageIndex":4,"items":[{"name":"백세한방삼계탕","tel":"032-344-6800","addr":"경기도 부천시 소사동 5-11번지 1층","indutype":"일반휴게음식 - 일반한식","category":"restaurant"}]},{"lat":"37.483375548","long":"126.79499323","imageIndex":4,"items":[{"name":"베이크스토리 소사점","tel":"032-0347-3290","addr":"경기도 부천시 소사동 43-51번지 서해선소사 상가-02호","indutype":"일반휴게음식 - 서양음식","category":"restaurant"}]},{"lat":"37.484039345","long":"126.79332936","imageIndex":4,"items":[{"name":"별지기","tel":"032-1111-1111","addr":"경기도 부천시 소사동 44번지","indutype":"일반휴게음식 - 주점","category":"restaurant"}]},{"lat":"37.485820587","long":"126.79179798","imageIndex":4,"items":[{"name":"본죽성모병원점","tel":"032-348-6288","addr":"경기도 부천시 소사동 9번지 2층","indutype":"일반휴게음식 - 일반한식","category":"restaurant"}]},{"lat":"37.48668229","long":"126.78998648","imageIndex":4,"items":[{"name":"봉구스밥버거","tel":"032-345-1490","addr":"경기도 부천시 소사동 3-19번지 1층","indutype":"일반휴게음식 - 일반한식","category":"restaurant"}]},{"lat":"37.485676085","long":"126.79160618","imageIndex":4,"items":[{"name":"부자설렁탕","tel":"032-347-0336","addr":"경기도 부천시 소사동 9-24번지","indutype":"일반휴게음식 - 일반한식","category":"restaurant"}]},{"lat":"37.485819697","long":"126.7913005","imageIndex":4,"items":[{"name":"불짬뽕","tel":"032-348-8440","addr":"경기도 부천시 소사동 5-48번지 1층","indutype":"일반휴게음식 - 중국식","category":"restaurant"},{"name":"카페홀릭 부천성모병원점","tel":"032-201-2345","addr":"경기도 부천시 소사동 5-48번지 1층 일부","indutype":"일반휴게음식 - 서양음식","category":"restaurant"},{"name":"황금죽","tel":"032-341-1044","addr":"경기도 부천시 소사동 5-48번지 1층","indutype":"일반휴게음식 - 스넥","category":"restaurant"}]},{"lat":"37.483815218","long":"126.79396314","imageIndex":4,"items":[{"name":"사거리보리밥","tel":"070-4042-7561","addr":"경기도 부천시 소사동 44-11번지","indutype":"일반휴게음식 - 일반한식","category":"restaurant"},{"name":"유니의부엌","tel":"032-341-0800","addr":"경기도 부천시 소사동 44-11번지 1층일부","indutype":"일반휴게음식 - 일반한식","category":"restaurant"}]},{"lat":"37.486980431","long":"126.7904379","imageIndex":4,"items":[{"name":"사보","tel":"032-344-3870","addr":"경기도 부천시 소사동 3-23번지","indutype":"일반휴게음식 - 일반한식","category":"restaurant"}]},{"lat":"37.484652158","long":"126.79340679","imageIndex":4,"items":[{"name":"삼미정","tel":"032-344-3220","addr":"경기도 부천시 소사동 18-25번지","indutype":"일반휴게음식 - 일반한식","category":"restaurant"}]},{"lat":"37.485317021","long":"126.79235342","imageIndex":4,"items":[{"name":"소명부대백반","tel":"032-344-9118","addr":"경기도 부천시 소사동 9-11번지 1층","indutype":"일반휴게음식 - 일반한식","category":"restaurant"}]},{"lat":"37.485100139","long":"126.79199222","imageIndex":4,"items":[{"name":"소사동사람들","tel":"","addr":"경기도 부천시 소사동 9-15번지 1층","indutype":"일반휴게음식 - 주점","category":"restaurant"},{"name":"황토골","tel":"032-344-9160","addr":"경기도 부천시 소사동 9-15번지","indutype":"일반휴게음식 - 일반한식","category":"restaurant"}]},{"lat":"37.485928099","long":"126.79145848","imageIndex":4,"items":[{"name":"소사옥","tel":"032-216-2004","addr":"경기도 부천시 소사동 5-43번지 1층","indutype":"일반휴게음식 - 일반한식","category":"restaurant"}]},{"lat":"37.486124938","long":"126.79068907","imageIndex":4,"items":[{"name":"손가네숯불갈비","tel":"032-349-4990","addr":"경기도 부천시 소사동 5-39번지","indutype":"일반휴게음식 - 일반한식","category":"restaurant"}]},{"lat":"37.485263063","long":"126.79241011","imageIndex":4,"items":[{"name":"손마루","tel":"032-342-0090","addr":"경기도 부천시 소사동 9-12번지","indutype":"일반휴게음식 - 스넥","category":"restaurant"}]},{"lat":"37.482989671","long":"126.79587619","imageIndex":4,"items":[{"name":"송이식당","tel":"032-348-6090","addr":"경기도 부천시 소사동 43-42번지 1층 일부","indutype":"일반휴게음식 - 일반한식","category":"restaurant"},{"name":"옛장터","tel":"032-345-7810","addr":"경기도 부천시 소사동 43-42","indutype":"일반휴게음식 - 일반한식","category":"restaurant"},{"name":"주먹고기","tel":"032-346-3155","addr":"경기도 부천시 소사동 43-42번지","indutype":"일반휴게음식 - 일반한식","category":"restaurant"}]},{"lat":"37.485738446","long":"126.79121027","imageIndex":4,"items":[{"name":"스마일","tel":"","addr":"경기도 부천시 소사동 5-49번지 2층","indutype":"일반휴게음식 - 주점","category":"restaurant"},{"name":"커피에반하다","tel":"","addr":"경기도 부천시 소사동 5-49번지 1층","indutype":"일반휴게음식 - 서양음식","category":"restaurant"}]},{"lat":"37.48362641","long":"126.79418979","imageIndex":4,"items":[{"name":"신마포갈매기","tel":"","addr":"경기도 부천시 소사동 44-53번지 1층","indutype":"일반휴게음식 - 일반한식","category":"restaurant"}]},{"lat":"37.485294625","long":"126.78991127","imageIndex":4,"items":[{"name":"실내마차","tel":"032-346-5551","addr":"경기도 부천시 소사동 7-17번지 1층","indutype":"일반휴게음식 - 주점","category":"restaurant"}]},{"lat":"37.48429416","long":"126.79476456","imageIndex":4,"items":[{"name":"쑤니비어","tel":"032-111-1111","addr":"경기도 부천시 소사동 19-5번지 1층","indutype":"일반휴게음식 - 주점","category":"restaurant"}]},{"lat":"37.483509461","long":"126.79429187","imageIndex":4,"items":[{"name":"앵두","tel":"070-7315-5650","addr":"경기도 부천시 소사동 44-51번지 광명빌딩 지하1층","indutype":"일반휴게음식 - 주점","category":"restaurant"}]},{"lat":"37.484489037","long":"126.79287584","imageIndex":4,"items":[{"name":"여우호프","tel":"032-662-1741","addr":"경기도 부천시 소사동 17-12번지","indutype":"일반휴게음식 - 주점","category":"restaurant"},{"name":"이가네맛집","tel":"","addr":"경기도 부천시 소사동 17-12번지 1층","indutype":"일반휴게음식 - 일반한식","category":"restaurant"}]},{"lat":"37.483260225","long":"126.79602242","imageIndex":4,"items":[{"name":"역전다방","tel":"032-345-3367","addr":"경기도 부천시 소사동 43-29번지 4층","indutype":"일반휴게음식 - 서양음식","category":"restaurant"}]},{"lat":"37.483872938","long":"126.79604335","imageIndex":4,"items":[{"name":"역전할머니맥주 (소사점)","tel":"032-341-7624","addr":"경기도 부천시 소사동 42-6번지 스카이포인트아파트 102호","indutype":"일반휴게음식 - 주점","category":"restaurant"},{"name":"휘카페 소사직영점","tel":"","addr":"경기도 부천시 소사동 42-6번지 스카이포인트아파트 103호","indutype":"일반휴게음식 - 서양음식","category":"restaurant"}]},{"lat":"37.48357177","long":"126.79901773","imageIndex":4,"items":[{"name":"예찬돌솥추어탕","tel":"032-349-6435","addr":"경기도 부천시 소사동 37-52번지 지하","indutype":"일반휴게음식 - 일반한식","category":"restaurant"}]},{"lat":"37.485899183","long":"126.79040705","imageIndex":4,"items":[{"name":"옛촌","tel":"032-342-8777","addr":"경기도 부천시 소사동 6-15번지 1층","indutype":"일반휴게음식 - 중국식","category":"restaurant"}]},{"lat":"37.483903795","long":"126.79310361","imageIndex":4,"items":[{"name":"우리포차","tel":"032-348-1291","addr":"경기도 부천시 소사동 48번지 1층","indutype":"일반휴게음식 - 주점","category":"restaurant"}]},{"lat":"37.484903994","long":"126.79315734","imageIndex":4,"items":[{"name":"이가김밥","tel":"032-341-0405","addr":"경기도 부천시 소사동 18-37번지 1층 일부","indutype":"일반휴게음식 - 스넥","category":"restaurant"}]},{"lat":"37.485232796","long":"126.79060114","imageIndex":4,"items":[{"name":"이야기쇼","tel":"032-347-0306","addr":"경기도 부천시 소사동 7-1번지","indutype":"일반휴게음식 - 주점","category":"restaurant"}]},{"lat":"37.485568754","long":"126.79204744","imageIndex":4,"items":[{"name":"자매분식","tel":"032-344-9898","addr":"경기도 부천시 소사동 9-32번지","indutype":"일반휴게음식 - 스넥","category":"restaurant"}]},{"lat":"37.485954136","long":"126.79090438","imageIndex":4,"items":[{"name":"정통중화짜장","tel":"032-347-1328","addr":"경기도 부천시 소사동 5-5번지","indutype":"일반휴게음식 - 중국식","category":"restaurant"}]},{"lat":"37.484373452","long":"126.79374676","imageIndex":4,"items":[{"name":"제비가물고온박씨네숯불갈비","tel":"032-348-2001","addr":"경기도 부천시 소사동 18-28번지 이화연립 2층 1호","indutype":"일반휴게음식 - 일반한식","category":"restaurant"}]},{"lat":"37.485068333","long":"126.79437799","imageIndex":4,"items":[{"name":"제육혁명(소사점)","tel":"032-652-0606","addr":"경기도 부천시 소사동 22-6번지 1층 일부","indutype":"일반휴게음식 - 일반한식","category":"restaurant"}]},{"lat":"37.48476647","long":"126.79182356","imageIndex":4,"items":[{"name":"집밥권선생","tel":"032-341-5570","addr":"경기도 부천시 소사동 8-21번지 1층","indutype":"일반휴게음식 - 일반한식","category":"restaurant"}]},{"lat":"37.483096619","long":"126.79520882","imageIndex":4,"items":[{"name":"카페(CAFE)3번출구","tel":"","addr":"경기도 부천시 소사동 43-35번지 ,1,2층","indutype":"일반휴게음식 - 서양음식","category":"restaurant"}]},{"lat":"37.486817744","long":"126.79015569","imageIndex":4,"items":[{"name":"카페뚜루","tel":"032-345-8687","addr":"경기도 부천시 소사동 3-15번지 1층 일부","indutype":"일반휴게음식 - 서양음식","category":"restaurant"},{"name":"케이엘푸드","tel":"031-341-8243","addr":"경기도 부천시 소사동 3-15번지 1층","indutype":"일반휴게음식 - 일반한식","category":"restaurant"}]},{"lat":"37.486044052","long":"126.79080237","imageIndex":4,"items":[{"name":"카페오브젝트","tel":"032-349-9418","addr":"경기도 부천시 소사동 5-3번지 1층","indutype":"일반휴게음식 - 서양음식","category":"restaurant"}]},{"lat":"37.484848446","long":"126.79232082","imageIndex":4,"items":[{"name":"퀸램양꼬치","tel":"032-111-1111","addr":"경기도 부천시 소사동 17-15번지 뉴월드하이빌 1층","indutype":"일반휴게음식 - 일반한식","category":"restaurant"}]},{"lat":"37.484012756","long":"126.79357817","imageIndex":4,"items":[{"name":"탕가네생고기김치찌개(소사점)","tel":"032-348-5959","addr":"경기도 부천시 소사동 44-4번지","indutype":"일반휴게음식 - 일반한식","category":"restaurant"}]},{"lat":"37.484235834","long":"126.79235646","imageIndex":4,"items":[{"name":"토암골옛날막창","tel":"032-271-0222","addr":"경기도 부천시 소사동 45-1번지 1층","indutype":"일반휴게음식 - 일반한식","category":"restaurant"}]},{"lat":"37.485260881","long":"126.79118901","imageIndex":4,"items":[{"name":"푸짐한밥상","tel":"032-348-2558","addr":"경기도 부천시 소사동 8-2번지 1층","indutype":"일반휴게음식 - 일반한식","category":"restaurant"}]},{"lat":"37.484293382","long":"126.79432361","imageIndex":4,"items":[{"name":"하트호프","tel":"032-664-5208","addr":"경기도 부천시 소사동 19-17번지 지층","indutype":"일반휴게음식 - 주점","category":"restaurant"},{"name":"홍가네양꼬치","tel":"032-349-5886","addr":"경기도 부천시 소사동 19-17번지 2층","indutype":"일반휴게음식 - 일반한식","category":"restaurant"}]},{"lat":"37.484738489","long":"126.79129224","imageIndex":4,"items":[{"name":"한나분식","tel":"032-341-8373","addr":"경기도 부천시 소사동 8-29번지 1층","indutype":"일반휴게음식 - 스넥","category":"restaurant"}]},{"lat":"37.484571269","long":"126.79352008","imageIndex":4,"items":[{"name":"한성양꼬치","tel":"032-715-6252","addr":"경기도 부천시 소사동 18-26번지 1층 일부","indutype":"일반휴게음식 - 중국식","category":"restaurant"}]},{"lat":"37.484957913","long":"126.79307805","imageIndex":4,"items":[{"name":"한손맛국밥전문","tel":"032-433-0766","addr":"경기도 부천시 소사동 18-23번지 1층","indutype":"일반휴게음식 - 일반한식","category":"restaurant"}]},{"lat":"37.483900936","long":"126.79659728","imageIndex":4,"items":[{"name":"해촌","tel":"032-341-7988","addr":"경기도 부천시 소사동 41-25번지 대한정밀 1층","indutype":"일반휴게음식 - 일반한식","category":"restaurant"}]}]