[{"lat":"37.203607582","long":"127.03667527","imageIndex":0,"items":[{"name":"autoOasis(홈플러스병점)점","tel":"031-225-7461","addr":"경기도 화성시 병점동 399-4번지","indutype":"자동차정비 유지 - 자동차정비","category":"car"},{"name":"크린매직병점점","tel":"031-246-5421","addr":"경기도 화성시 병점동 399-4번지 홈플러스 3층","indutype":"자동차정비 유지 - 세차장","category":"car"}]},{"lat":"37.205581432","long":"127.03459218","imageIndex":0,"items":[{"name":"동탄출장세차","tel":"","addr":"경기도 화성시 병점동 386-38번지 204호","indutype":"자동차정비 유지 - 세차장","category":"car"}]},{"lat":"37.207966502","long":"127.0433912","imageIndex":0,"items":[{"name":"마리렌","tel":"031-890-6115","addr":"경기도 화성시 병점동 259-15번지 우남프라자","indutype":"자동차정비 유지 - 세차장","category":"car"}]},{"lat":"37.2104718","long":"127.04216461","imageIndex":0,"items":[{"name":"명일모터스","tel":"031-225-3110","addr":"경기도 화성시 병점동 833-8번지","indutype":"자동차정비 유지 - 자동차정비","category":"car"}]},{"lat":"37.200138156","long":"127.03813803","imageIndex":0,"items":[{"name":"병점타이어프로","tel":"031-223-2522","addr":"경기도 화성시 병점동 525-3번지 1층 2호","indutype":"자동차정비 유지 - 자동차시트·타이어","category":"car"}]},{"lat":"37.200083986","long":"127.03849845","imageIndex":0,"items":[{"name":"썬넥스","tel":"031-221-8178","addr":"경기도 화성시 병점동 524-4번지 1층 103호","indutype":"자동차정비 유지 - 카인테리어","category":"car"}]},{"lat":"37.202078712","long":"127.02422765","imageIndex":0,"items":[{"name":"오토코리아","tel":"031-224-1653","addr":"경기도 화성시 병점동 755-2번지","indutype":"자동차정비 유지 - 자동차정비","category":"car"}]},{"lat":"37.213478463","long":"127.04986077","imageIndex":0,"items":[{"name":"오토페이스(AUTOPACE)","tel":"031-253-0245","addr":"경기도 화성시 병점동 849번지 안화동마을주공7단지 706동 1404호","indutype":"자동차정비 유지 - 자동차부품","category":"car"}]},{"lat":"37.214048438","long":"127.04358597","imageIndex":0,"items":[{"name":"주식회사 예본파워텍","tel":"031-353-9801","addr":"경기도 화성시 병점동 846번지 태안프라자 5층 501호","indutype":"자동차정비 유지 - 주차장","category":"car"}]},{"lat":"37.214859129","long":"127.04428491","imageIndex":0,"items":[{"name":"카앤피플 화성2호점","tel":"031-000-0000","addr":"경기도 화성시 병점동 844-7번지 상록프라자 2층 206동 라14호","indutype":"자동차정비 유지 - 세차장","category":"car"},{"name":"케이웰자산관리 주식회사","tel":"031-5183-4545","addr":"경기도 화성시 병점동 844-7번지 상록프라자 2층 206-가M호","indutype":"자동차정비 유지 - 주차장","category":"car"}]}]