[{"lat":"37.689547073","long":"126.75779896","imageIndex":17,"items":[{"name":"가스텍엔지니어링","tel":"031-925-6278","addr":"경기도 고양시 일산서구 덕이로","indutype":"기타 - 기계공구","category":"other"},{"name":"우남유통","tel":"031-971-4324","addr":"경기도 고양시 일산서구 덕이로","indutype":"유통업 영리 - 기타유통업","category":"other"}]},{"lat":"37.701539822","long":"126.73345933","imageIndex":17,"items":[{"name":"그린유통","tel":"031-912-6949","addr":"경기도 고양시 일산서구 덕이로","indutype":"전기제품 - 가전제품","category":"other"}]},{"lat":"37.689346193","long":"126.75651849","imageIndex":17,"items":[{"name":"나블","tel":"031-919-6132","addr":"경기도 고양시 일산서구 덕이로","indutype":"의류 - 정장","category":"other"}]},{"lat":"37.68960014","long":"126.75732261","imageIndex":17,"items":[{"name":"바이독","tel":"031-913-1979","addr":"경기도 고양시 일산서구 덕이로","indutype":"광학제품 - 사진관","category":"other"}]},{"lat":"37.690824518","long":"126.7568764","imageIndex":17,"items":[{"name":"봉캐릭터","tel":"031-919-7717","addr":"경기도 고양시 일산서구 덕이로","indutype":"용역 서비스 - 종합용역","category":"other"}]},{"lat":"37.693906102","long":"126.74030118","imageIndex":17,"items":[{"name":"비엔제이골프(B&J GOLF) 일산점","tel":"031-916-1019","addr":"경기도 고양시 일산서구 덕이로","indutype":"레져용품 - 스포츠·레져용품","category":"other"}]},{"lat":"37.690067029","long":"126.75655012","imageIndex":17,"items":[{"name":"제일기획 엔디자인","tel":"031-976-9201","addr":"경기도 고양시 일산서구 덕이로","indutype":"회원제형태 - 기타4","category":"other"}]},{"lat":"37.70170687","long":"126.73165577","imageIndex":17,"items":[{"name":"칼의 장인","tel":"031-922-7778","addr":"경기도 고양시 일산서구 덕이로","indutype":"회원제형태 - 기타3","category":"other"}]},{"lat":"37.689295017","long":"126.75790183","imageIndex":17,"items":[{"name":"케이인테리어","tel":"031-916-8114","addr":"경기도 고양시 일산서구 덕이로","indutype":"건축자재 - 인테리어전문","category":"other"}]},{"lat":"37.689570745","long":"126.75618896","imageIndex":17,"items":[{"name":"토드비일산점","tel":"070-4244-1695","addr":"경기도 고양시 일산서구 덕이로","indutype":"의류 - 아동의류","category":"other"}]},{"lat":"37.689482377","long":"126.75701689","imageIndex":17,"items":[{"name":"파리스(PARIS)","tel":"02-557-9855","addr":"경기도 고양시 일산서구 덕이로","indutype":"용역 서비스 - 종합용역","category":"other"}]},{"lat":"37.690625858","long":"126.75666164","imageIndex":17,"items":[{"name":"프리스타일","tel":"031-911-8002","addr":"경기도 고양시 일산서구 덕이로","indutype":"건축자재 - 건축용 요업제품","category":"other"}]}]