[{"lat":"37.169470264","long":"126.9829304","imageIndex":4,"items":[{"name":"강당골생삼겹살","tel":"031-8059-4988","addr":"경기도 화성시 정남면 괘랑리 1051-1","indutype":"일반휴게음식 - 일반한식","category":"restaurant"},{"name":"피아체피자","tel":"031-354-2885","addr":"경기도 화성시 정남면 괘랑리 1051-1번지 1층","indutype":"일반휴게음식 - 서양음식","category":"restaurant"}]},{"lat":"37.172524847","long":"126.98319983","imageIndex":4,"items":[{"name":"강릉교동짬뽕&호프치킨","tel":"031-377-5894","addr":"경기도 화성시 정남면 괘랑리 918-1번지 1층","indutype":"일반휴게음식 - 중국식","category":"restaurant"}]},{"lat":"37.175913255","long":"126.98637436","imageIndex":4,"items":[{"name":"강원한식뷔페","tel":"031-359-9245","addr":"경기도 화성시 정남면 괘랑리 869-3번지 1층","indutype":"일반휴게음식 - 일반한식","category":"restaurant"}]},{"lat":"37.172750231","long":"126.98395418","imageIndex":4,"items":[{"name":"대한우돈가","tel":"031-8059-5943","addr":"경기도 화성시 정남면 괘랑리 921번지","indutype":"일반휴게음식 - 일반한식","category":"restaurant"}]},{"lat":"37.178084851","long":"126.98698196","imageIndex":4,"items":[{"name":"만석한식부페","tel":"031-354-4555","addr":"경기도 화성시 정남면 괘랑리 265-1번지","indutype":"일반휴게음식 - 일반한식","category":"restaurant"}]},{"lat":"37.186744915","long":"127.00486408","imageIndex":4,"items":[{"name":"명성한식뷔페","tel":"031-353-6115","addr":"경기도 화성시 정남면 괘랑리 54-4번지","indutype":"일반휴게음식 - 일반한식","category":"restaurant"}]},{"lat":"37.170389352","long":"126.98306527","imageIndex":4,"items":[{"name":"명품플러스로뎀커피","tel":"031-8059-1380","addr":"경기도 화성시 정남면 괘랑리 1061-6번지 1층 일부호","indutype":"일반휴게음식 - 서양음식","category":"restaurant"}]},{"lat":"37.178192908","long":"126.98648647","imageIndex":4,"items":[{"name":"북경","tel":"031-366-2441","addr":"경기도 화성시 정남면 괘랑리 747-1번지","indutype":"일반휴게음식 - 중국식","category":"restaurant"}]},{"lat":"37.169695552","long":"126.98308797","imageIndex":4,"items":[{"name":"빵빵커피숍","tel":"","addr":"경기도 화성시 정남면 괘랑리 1049-17번지","indutype":"일반휴게음식 - 서양음식","category":"restaurant"}]},{"lat":"37.169470306","long":"126.9831781","imageIndex":4,"items":[{"name":"서봉산숯불갈비","tel":"031-354-5535","addr":"경기도 화성시 정남면 괘랑리 1049-7번지","indutype":"일반휴게음식 - 일반한식","category":"restaurant"}]},{"lat":"37.170803626","long":"126.98187165","imageIndex":4,"items":[{"name":"시골순대","tel":"031-353-4310","addr":"경기도 화성시 정남면 괘랑리 1065-5","indutype":"일반휴게음식 - 일반한식","category":"restaurant"}]},{"lat":"37.169362249","long":"126.98359473","imageIndex":4,"items":[{"name":"영동순대","tel":"031-352-6390","addr":"경기도 화성시 정남면 괘랑리 1049-9번지 외4필지","indutype":"일반휴게음식 - 일반한식","category":"restaurant"}]},{"lat":"37.179805948","long":"126.98779238","imageIndex":4,"items":[{"name":"오병이어","tel":"031-354-5676","addr":"경기도 화성시 정남면 괘랑리 731-1번지","indutype":"일반휴게음식 - 일반한식","category":"restaurant"}]},{"lat":"37.170884912","long":"126.98298632","imageIndex":4,"items":[{"name":"이가네","tel":"0311-352-9348","addr":"경기도 화성시 정남면 괘랑리 1062-8번지","indutype":"일반휴게음식 - 일반한식","category":"restaurant"}]},{"lat":"37.172470868","long":"126.98370653","imageIndex":4,"items":[{"name":"정남해장국","tel":"031-372-7820","addr":"경기도 화성시 정남면 괘랑리 921-8번지","indutype":"일반휴게음식 - 일반한식","category":"restaurant"}]},{"lat":"37.184356118","long":"126.98709326","imageIndex":4,"items":[{"name":"제이엘627-4","tel":"031-353-8878","addr":"경기도 화성시 정남면 괘랑리 627-4번지","indutype":"일반휴게음식 - 서양음식","category":"restaurant"}]},{"lat":"37.171804099","long":"126.98372922","imageIndex":4,"items":[{"name":"조은식당","tel":"031-366-3157","addr":"경기도 화성시 정남면 괘랑리 920-5번지 1층","indutype":"일반휴게음식 - 일반한식","category":"restaurant"}]},{"lat":"37.186717057","long":"126.98875953","imageIndex":4,"items":[{"name":"큰맘한식부페","tel":"","addr":"경기도 화성시 정남면 괘랑리 515-1번지 1층","indutype":"일반휴게음식 - 일반한식","category":"restaurant"}]},{"lat":"37.170001912","long":"126.98312167","imageIndex":4,"items":[{"name":"페리카나","tel":"031-352-1780","addr":"경기도 화성시 정남면 괘랑리 1048-3번지","indutype":"일반휴게음식 - 주점","category":"restaurant"}]},{"lat":"37.183248799","long":"126.99823102","imageIndex":4,"items":[{"name":"푸짐한 한식부페","tel":"031-000-0000","addr":"경기도 화성시 정남면 괘랑리 103번지","indutype":"일반휴게음식 - 일반한식","category":"restaurant"}]},{"lat":"37.18194133","long":"126.98711629","imageIndex":4,"items":[{"name":"한촌식당","tel":"031-353-6884","addr":"경기도 화성시 정남면 괘랑리 676번지","indutype":"일반휴게음식 - 일반한식","category":"restaurant"}]},{"lat":"37.170416351","long":"126.98287385","imageIndex":4,"items":[{"name":"화성회관","tel":"031-352-2316","addr":"경기도 화성시 정남면 괘랑리 1061-2번지","indutype":"일반휴게음식 - 일반한식","category":"restaurant"}]}]