[{"lat":"38.0556962","long":"127.086364","imageIndex":7,"items":[{"name":"땅에미소유기농영농조합법인","tel":"031-833-3217","addr":"경기도 연천군 청산면 장탄리 509-1번지","indutype":"음료식품 - 농·축·수산품","category":"food"},{"name":"땅에미소유기농영농조합법인","tel":"031-833-3217","addr":"경기도 연천군 청산면 장탄리 509-1","indutype":"음료식품 - 농·축·수산품","category":"food"}]},{"lat":"38.01912038","long":"127.0847509","imageIndex":7,"items":[{"name":"오이원","tel":"","addr":"경기도 연천군 청산면 장탄리 977-1번지","indutype":"음료식품 - 농·축·수산품","category":"food"}]},{"lat":"38.03898179","long":"127.0898877","imageIndex":17,"items":[{"name":"벽계수공업사","tel":"031-832-0963","addr":"경기도 연천군 청산면 장탄리 407-2번지","indutype":"건축자재 - 보일러·펌프·샷시","category":"other"}]},{"lat":"38.03645365","long":"127.0971406","imageIndex":17,"items":[{"name":"연천군청/청산골프연습장","tel":"031-833-7088","addr":"경기도 연천군 청산면 장탄리 325번지","indutype":"회원제형태 - 레져업소","category":"other"}]},{"lat":"38.03898179","long":"127.0898877","imageIndex":9,"items":[{"name":"삼팔연탄","tel":"031-835-8959","addr":"경기도 연천군 청산면 장탄리 407-2번지","indutype":"연료판매점 - 기타연료","category":"oil"}]},{"lat":"38.03834366","long":"127.0994782","imageIndex":5,"items":[{"name":"아리 펜션","tel":"031-835-2062","addr":"경기도 연천군 청산면 장탄리 23-20번지","indutype":"숙박업 - 여관/기타숙박업","category":"hotel"}]},{"lat":"38.03128569","long":"127.0929767","imageIndex":5,"items":[{"name":"투","tel":"031-832-4318","addr":"경기도 연천군 청산면 장탄리 102-1번지","indutype":"숙박업 - 여관/기타숙박업","category":"hotel"}]},{"lat":"38.03139405","long":"127.0926465","imageIndex":4,"items":[{"name":"청산오리진흙구이능이백숙","tel":"031-832-7292","addr":"경기도 연천군 청산면 장탄리 259-10번지","indutype":"일반휴게음식 - 일반한식","category":"restaurant"}]},{"lat":"38.04014504","long":"127.0884196","imageIndex":13,"items":[{"name":"한국불교태고종 수불사","tel":"031-832-6222","addr":"경기도 연천군 청산면 장탄리 406번지","indutype":"보건위생 - 기타대인서비스","category":"beauty"}]},{"lat":"38.03092129","long":"127.0980903","imageIndex":0,"items":[{"name":"한국타이어","tel":"031-832-0089","addr":"경기도 연천군 청산면 장탄리 99-5번지","indutype":"자동차정비 유지 - 자동차시트·타이어","category":"car"}]}]