[{"lat":"37.242844206","long":"126.58476735","imageIndex":8,"items":[{"name":"(재)아주산업의학연구소대부센타치과의원","tel":"032-884-2875","addr":"경기도 안산시 단원구 대부북동 473-2번지 현수빌딩 1층","indutype":"의원 - 치과의원","category":"medical"},{"name":"대부센타치과의원","tel":"032-887-2870","addr":"경기도 안산시 단원구 대부북동 473-2번지 현수빌딩 1층","indutype":"의원 - 치과의원","category":"medical"}]},{"lat":"37.242513973","long":"126.58565951","imageIndex":8,"items":[{"name":"굿모닝의원","tel":"032-881-7557","addr":"경기도 안산시 단원구 대부북동 485-5번지 2층 207호","indutype":"의원 - 의원","category":"medical"},{"name":"마트약국","tel":"032-881-1071","addr":"경기도 안산시 단원구 대부북동 485-5번지","indutype":"약국 - 약국","category":"medical"}]},{"lat":"37.2421802024","long":"126.5855486534","imageIndex":8,"items":[{"name":"대부명성한의원","tel":"032-886-8081","addr":"경기도 안산시 단원구 대부북동 491-3번지","indutype":"보건업 및 사회복지서비스업 - 한의원","category":"medical"}]},{"lat":"37.242180202","long":"126.58554865","imageIndex":8,"items":[{"name":"대부명성한의원","tel":"032-886-8081","addr":"경기도 안산시 단원구 대부북동 491-3번지 1층2호3호","indutype":"의원 - 한의원","category":"medical"}]},{"lat":"37.242620505","long":"126.58520812","imageIndex":8,"items":[{"name":"대부약국","tel":"032-886-2087","addr":"경기도 안산시 단원구 대부북동 493-1번지","indutype":"약국 - 약국","category":"medical"}]},{"lat":"37.241759743","long":"126.58640749","imageIndex":8,"items":[{"name":"대부이조은치과의원","tel":"032-886-9536","addr":"경기도 안산시 단원구 대부북동 526번지 중앙의원 202호","indutype":"의원 - 치과의원","category":"medical"}]},{"lat":"37.2425139727","long":"126.5856595146","imageIndex":8,"items":[{"name":"마트약국","tel":"032-881-1071","addr":"경기도 안산시 단원구 대부북동 485-5번지","indutype":"도매 및 소매업 - 약국","category":"medical"}]},{"lat":"37.242401716","long":"126.58448804","imageIndex":8,"items":[{"name":"포도나무메디컬의원","tel":"032-882-7588","addr":"경기도 안산시 단원구 대부북동 501-6번지","indutype":"의원 - 의원","category":"medical"},{"name":"포도나무약국","tel":"032-884-3428","addr":"경기도 안산시 단원구 대부북동 501-6번지","indutype":"약국 - 약국","category":"medical"}]}]