[{"lat":"37.191159103","long":"126.90928994","imageIndex":4,"items":[{"name":"939커피","tel":"031-353-2246","addr":"경기도 화성시 팔탄면 기천리 47-13번지 1층","indutype":"일반휴게음식 - 서양음식","category":"restaurant"}]},{"lat":"37.18888818","long":"126.90890983","imageIndex":4,"items":[{"name":"기천맛집","tel":"031-354-6865","addr":"경기도 화성시 팔탄면 기천리 63번지","indutype":"일반휴게음식 - 일반한식","category":"restaurant"}]},{"lat":"37.189943751","long":"126.89970714","imageIndex":4,"items":[{"name":"솔잎사이","tel":"031-354-4241","addr":"경기도 화성시 팔탄면 기천리 181-1번지","indutype":"일반휴게음식 - 칵테일바","category":"restaurant"}]},{"lat":"37.191492514","long":"126.90932332","imageIndex":7,"items":[{"name":"I.G.A마트팔탄기천점","tel":"031-768-0708","addr":"경기도 화성시 팔탄면 기천리 47-8번지","indutype":"유통업 영리 - 슈퍼마켓","category":"mart"}]},{"lat":"37.174776238","long":"126.90687797","imageIndex":17,"items":[{"name":"MCT(엠씨티)","tel":"031-8003-1351","addr":"경기도 화성시 팔탄면 기천리 887","indutype":"신변잡화 - 기타잡화","category":"other"}]},{"lat":"37.174298531","long":"126.90668715","imageIndex":17,"items":[{"name":"거평홀딩","tel":"031-8059-2915","addr":"경기도 화성시 팔탄면 기천리 887-7 1동1호","indutype":"건축자재 - 기타건축자재","category":"other"}]},{"lat":"37.176140305","long":"126.9112903","imageIndex":17,"items":[{"name":"꿈고무래","tel":"","addr":"경기도 화성시 팔탄면 기천리 799번지","indutype":"문화.취미 - 문화취미기타","category":"other"}]},{"lat":"37.173136942","long":"126.90762319","imageIndex":17,"items":[{"name":"명성상사","tel":"031-352-3630","addr":"경기도 화성시 팔탄면 기천리 906번지 1-1","indutype":"신변잡화 - 기타잡화","category":"other"},{"name":"해피종합상사","tel":"031-366-5550","addr":"경기도 화성시 팔탄면 기천리 906번지","indutype":"신변잡화 - 기타잡화","category":"other"}]},{"lat":"37.191492514","long":"126.90932332","imageIndex":17,"items":[{"name":"미니스톱 팔탄기천점","tel":"031-1577-9621","addr":"경기도 화성시 팔탄면 기천리 47-8번지","indutype":"유통업 영리 - 편 의 점","category":"other"}]},{"lat":"37.172107838","long":"126.9052712","imageIndex":17,"items":[{"name":"미래인터내셔널","tel":"031-353-9338","addr":"경기도 화성시 팔탄면 기천리 962-28번지","indutype":"기타 - 기계공구","category":"other"}]},{"lat":"37.172360334","long":"126.90551859","imageIndex":17,"items":[{"name":"베세토(주)","tel":"031-8043-2185","addr":"경기도 화성시 팔탄면 기천리 962-7번지","indutype":"기타 - 기계공구","category":"other"}]},{"lat":"37.171441769","long":"126.90612779","imageIndex":17,"items":[{"name":"세진산업","tel":"031-359-9458","addr":"경기도 화성시 팔탄면 기천리 963번지 1호","indutype":"서적문구 - 출판 및 인쇄물","category":"other"}]},{"lat":"37.190742655","long":"126.89629352","imageIndex":17,"items":[{"name":"수원헬스건강수","tel":"031-354-1261","addr":"경기도 화성시 팔탄면 기천리 174-13번지","indutype":"용역 서비스 - 종합용역","category":"other"}]},{"lat":"37.183967521","long":"126.90768842","imageIndex":17,"items":[{"name":"아이나라","tel":"","addr":"경기도 화성시 팔탄면 기천리 452번지 1층","indutype":"의류 - 아동의류","category":"other"}]},{"lat":"37.172631804","long":"126.90693698","imageIndex":17,"items":[{"name":"우진테크","tel":"031-352-4001","addr":"경기도 화성시 팔탄면 기천리 895번지 2층","indutype":"전기제품 - 기타전기제품","category":"other"}]},{"lat":"37.177472004","long":"126.90893523","imageIndex":17,"items":[{"name":"제일농기계백화점","tel":"031-353-6762","addr":"경기도 화성시 팔탄면 기천리 765-1번지","indutype":"농업 - 농기계","category":"other"}]},{"lat":"37.189411961","long":"126.91040707","imageIndex":17,"items":[{"name":"텔레포트(Teleport)","tel":"031-000-0000","addr":"경기도 화성시 팔탄면 기천리 18번지 1층","indutype":"광학제품 - 사진관","category":"other"}]},{"lat":"37.17444211","long":"126.90596632","imageIndex":7,"items":[{"name":"경인수산유튱","tel":"031-406-2850","addr":"경기도 화성시 팔탄면 기천리 889번지","indutype":"음료식품 - 기타음료식품","category":"food"}]},{"lat":"37.173889318","long":"126.9134099","imageIndex":7,"items":[{"name":"기천리농산물직판장","tel":"031-297-6055","addr":"경기도 화성시 팔탄면 기천리 822-6번지","indutype":"음료식품 - 농·축·수산품","category":"food"}]},{"lat":"37.174334819","long":"126.90699112","imageIndex":7,"items":[{"name":"기천유통","tel":"031-366-1842","addr":"경기도 화성시 팔탄면 기천리 887-8","indutype":"음료식품 - 정육점","category":"food"}]},{"lat":"37.176913359","long":"126.90893593","imageIndex":7,"items":[{"name":"손수청옥된장","tel":"031-354-9050","addr":"경기도 화성시 팔탄면 기천리 768-3","indutype":"음료식품 - 기타음료식품","category":"food"}]},{"lat":"37.175608647","long":"126.91123464","imageIndex":7,"items":[{"name":"화성 효 인삼","tel":"031-8059-5274","addr":"경기도 화성시 팔탄면 기천리 797-3번지","indutype":"건강식품 - 홍삼제품","category":"food"}]},{"lat":"37.18896983","long":"126.89879623","imageIndex":16,"items":[{"name":"노아숲체원","tel":"031-8059-5428","addr":"경기도 화성시 팔탄면 기천리 177-23번지","indutype":"학원 - 기타 교육기관","category":"study"}]},{"lat":"37.190609974","long":"126.90993258","imageIndex":16,"items":[{"name":"베네딕도교육원","tel":"031-354-2160","addr":"경기도 화성시 팔탄면 기천리 29번지","indutype":"학원 - 기타 교육기관","category":"study"}]},{"lat":"37.173109283","long":"126.90684629","imageIndex":0,"items":[{"name":"대일실업","tel":"031-454-5492","addr":"경기도 화성시 팔탄면 기천리 894-1번지","indutype":"자동차판매 - 기타운송","category":"car"}]},{"lat":"37.172722715","long":"126.90793899","imageIndex":0,"items":[{"name":"화성지게차부품","tel":"02-1111-1111","addr":"경기도 화성시 팔탄면 기천리 956번지 102호","indutype":"자동차정비 유지 - 자동차부품","category":"car"}]}]