[{"lat":"37.181692042","long":"127.04378257","imageIndex":7,"items":[{"name":"가람하늘","tel":"","addr":"경기도 오산시 세교동 615-9번지 2층 201호","indutype":"건강식품 - 기타건강식품","category":"food"}]},{"lat":"37.18594554","long":"127.04206181","imageIndex":7,"items":[{"name":"광장동수제모찌오산세교점","tel":"031-376-0946","addr":"경기도 오산시 세교동 600-4번지 오산세교CL타워 1층 120호","indutype":"음료식품 - 기타음료식품","category":"food"}]},{"lat":"37.196579445","long":"127.03678477","imageIndex":7,"items":[{"name":"대일","tel":"031-376-0893","addr":"경기도 오산시 세교동 26번지","indutype":"음료식품 - 기타음료식품","category":"food"}]},{"lat":"37.183800402","long":"127.04400894","imageIndex":7,"items":[{"name":"도노디비노","tel":"031-293-0225","addr":"경기도 오산시 세교동 606-6번지 101호","indutype":"음료식품 - 제과점","category":"food"}]},{"lat":"37.182917725","long":"127.0430062","imageIndex":7,"items":[{"name":"몸편한힐링하우스","tel":"031-378-0027","addr":"경기도 오산시 세교동 611-6번지 1층","indutype":"건강식품 - 기타건강식품","category":"food"}]},{"lat":"37.182413096","long":"127.04314107","imageIndex":7,"items":[{"name":"밥도둑엔","tel":"02-111-1111","addr":"경기도 오산시 세교동 611-10번지 세마빌 1층 102호","indutype":"음료식품 - 기타음료식품","category":"food"},{"name":"밥도둑엔","tel":"070-4333-0211","addr":"경기도 오산시 세교동 611-10번지 세마빌 1층 102호","indutype":"음료식품 - 기타음료식품","category":"food"}]},{"lat":"37.184052764","long":"127.04380637","imageIndex":7,"items":[{"name":"세교착한과일","tel":"031-000-0000","addr":"경기도 오산시 세교동 606-5번지 101호","indutype":"음료식품 - 농·축·수산품","category":"food"},{"name":"쥐4(G4)","tel":"070-7743-0976","addr":"경기도 오산시 세교동 606-5번지 1층 101호","indutype":"음료식품 - 농·축·수산품","category":"food"}]},{"lat":"37.18827969","long":"127.04066651","imageIndex":7,"items":[{"name":"세마동주민자치회","tel":"031-376-3642","addr":"경기도 오산시 세교동 595-2번지","indutype":"음료식품 - 농·축·수산품","category":"food"},{"name":"오산로컬협동조합","tel":"031-376-6625","addr":"경기도 오산시 세교동 595-2번지 세마동주민센터 2층","indutype":"음료식품 - 농·축·수산품","category":"food"}]},{"lat":"37.186277446","long":"127.0463077","imageIndex":7,"items":[{"name":"에코푸드","tel":"031-8050-3975","addr":"경기도 오산시 세교동 587번지 행복주택 503동 405호","indutype":"음료식품 - 농·축·수산품","category":"food"}]},{"lat":"37.19499259","long":"127.0401968","imageIndex":7,"items":[{"name":"영농조합법인 물향기농산","tel":"031-375-4848","addr":"경기도 오산시 세교동 33","indutype":"음료식품 - 농·축·수산품","category":"food"}]},{"lat":"37.196235803","long":"127.04089574","imageIndex":7,"items":[{"name":"위드미","tel":"031-373-7809","addr":"경기도 오산시 세교동 100번지 A동 1층","indutype":"음료식품 - 농·축·수산품","category":"food"}]},{"lat":"37.191858146","long":"127.03625332","imageIndex":7,"items":[{"name":"잔다리마을공동체농업회사법인주식회사","tel":"031-377-5866","addr":"경기도 오산시 세교동 60-1번지 102호","indutype":"음료식품 - 농·축·수산품","category":"food"}]},{"lat":"37.186722119","long":"127.03658892","imageIndex":7,"items":[{"name":"주식회사 남강에프디","tel":"031-373-9977","addr":"경기도 오산시 세교동 424-7번지","indutype":"음료식품 - 기타음료식품","category":"food"}]},{"lat":"37.183667916","long":"127.03541637","imageIndex":7,"items":[{"name":"주식회사 아리온트레이딩","tel":"031-222-0033","addr":"경기도 오산시 세교동 500-11번지 1층","indutype":"음료식품 - 주류 판매점","category":"food"}]},{"lat":"37.186333107","long":"127.04170163","imageIndex":7,"items":[{"name":"파리바게뜨오산세마점/오산개발주식회사","tel":"031-375-1455","addr":"경기도 오산시 세교동 600-2번지 오산타워","indutype":"음료식품 - 제과점","category":"food"}]},{"lat":"37.189577959","long":"127.03816691","imageIndex":7,"items":[{"name":"파인힐골프연습장매점","tel":"031-8935-5527","addr":"경기도 오산시 세교동 360-4번지","indutype":"음료식품 - 기타음료식품","category":"food"}]}]