[{"lat":"37.16422683","long":"127.37581061","imageIndex":0,"items":[{"name":"1급시장카센타","tel":"031-334-2628","addr":"경기도 용인시 처인구 백암면 474","indutype":"자동차정비 유지 - 자동차정비","category":"car"}]},{"lat":"37.174092419","long":"127.34625658","imageIndex":0,"items":[{"name":"TBX백암점동성자동차공업사","tel":"031-334-5886","addr":"경기도 용인시 처인구 백암면 가좌리267-13","indutype":"자동차정비 유지 - 자동차정비","category":"car"}]},{"lat":"37.153284369","long":"127.38549408","imageIndex":0,"items":[{"name":"금강보링","tel":"031-323-5562","addr":"경기도 용인시 처인구 백암면 백봉리 1382-41번지","indutype":"자동차정비 유지 - 자동차정비","category":"car"},{"name":"한성대영카센타","tel":"031-333-0951","addr":"경기도 용인시 처인구 백암면 백봉리 1382-41번지","indutype":"자동차정비 유지 - 자동차정비","category":"car"}]},{"lat":"37.159893532","long":"127.36981139","imageIndex":0,"items":[{"name":"나사코리아","tel":"02-417-3518","addr":"경기도 용인시 처인구 백암면 근창리 53번지","indutype":"자동차정비 유지 - 자동차부품","category":"car"}]},{"lat":"37.135509611","long":"127.40105923","imageIndex":0,"items":[{"name":"대성카공업사","tel":"031-332-3669","addr":"경기도 용인시 처인구 백암면 백봉리 232-1","indutype":"자동차정비 유지 - 자동차정비","category":"car"}]},{"lat":"37.155948233","long":"127.38369508","imageIndex":0,"items":[{"name":"대원카센타","tel":"031-333-7030","addr":"경기도 용인시 처인구 백암면 박곡리 743-2번지","indutype":"자동차정비 유지 - 자동차정비","category":"car"},{"name":"씨엔에스(CNS)세차","tel":"","addr":"경기도 용인시 처인구 백암면 박곡리 743-2번지 대원카공업사 101호","indutype":"자동차정비 유지 - 세차장","category":"car"}]},{"lat":"37.171030588","long":"127.35489005","imageIndex":0,"items":[{"name":"미르카센타","tel":"031-388-7577","addr":"경기도 용인시 처인구 백암면 근곡리 366-14","indutype":"자동차정비 유지 - 카인테리어","category":"car"}]},{"lat":"37.143094259","long":"127.42001927","imageIndex":0,"items":[{"name":"박씨네 출장세차","tel":"070-8151-9313","addr":"경기도 용인시 처인구 백암면 고안리 622-3번지","indutype":"자동차정비 유지 - 세차장","category":"car"}]},{"lat":"37.135391982","long":"127.39851516","imageIndex":0,"items":[{"name":"백봉","tel":"070-8968-0901","addr":"경기도 용인시 처인구 백암면 백봉리 237-1번지 무지개빌라 나동 302호","indutype":"자동차정비 유지 - 자동차부품","category":"car"}]},{"lat":"37.143840184","long":"127.38866558","imageIndex":0,"items":[{"name":"백암 광택사","tel":"031-338-5578","addr":"경기도 용인시 처인구 백암면 백봉리 956-1번지","indutype":"자동차정비 유지 - 카인테리어","category":"car"}]},{"lat":"37.164452743","long":"127.37272687","imageIndex":0,"items":[{"name":"백암서비스","tel":"","addr":"경기도 용인시 처인구 백암면 백암리 446번지","indutype":"자동차정비 유지 - 견인서비스","category":"car"}]},{"lat":"37.169419813","long":"127.37485656","imageIndex":0,"items":[{"name":"백암점현대자동차","tel":"031-322-5325","addr":"경기도 용인시 처인구 백암면 백암리 220-1번지","indutype":"자동차정비 유지 - 중장비수리","category":"car"}]},{"lat":"37.163117882","long":"127.37025479","imageIndex":0,"items":[{"name":"서울오토바이","tel":"031-332-4359","addr":"경기도 용인시 처인구 백암면 근창리20-6","indutype":"자동차판매 - 이륜차판매","category":"car"}]},{"lat":"37.164733528","long":"127.37513758","imageIndex":0,"items":[{"name":"신용자동차부분정비공업사","tel":"031-332-4018","addr":"경기도 용인시 처인구 백암면 백암리368-4","indutype":"자동차정비 유지 - 자동차정비","category":"car"}]},{"lat":"37.160784435","long":"127.35533789","imageIndex":0,"items":[{"name":"안성대형렉카","tel":"031-675-1813","addr":"경기도 용인시 처인구 백암면 근창리 372-1번지","indutype":"자동차정비 유지 - 견인서비스","category":"car"},{"name":"처인렉카","tel":"031-000-0000","addr":"경기도 용인시 처인구 백암면 근창리 372-1번지","indutype":"자동차정비 유지 - 견인서비스","category":"car"}]},{"lat":"37.114098427","long":"127.36231086","imageIndex":0,"items":[{"name":"안전통운","tel":"","addr":"경기도 용인시 처인구 백암면 석천리 582번지","indutype":"자동차정비 유지 - 견인서비스","category":"car"}]},{"lat":"37.144123745","long":"127.38736138","imageIndex":0,"items":[{"name":"양양공업사","tel":"031-322-6513","addr":"경기도 용인시 처인구 백암면 백봉리 927-7번지","indutype":"자동차정비 유지 - 자동차시트·타이어","category":"car"}]},{"lat":"37.162566141","long":"127.37669185","imageIndex":0,"items":[{"name":"오수자동차정비공업사","tel":"031-332-9399","addr":"경기도 용인시 처인구 백암면 백암리 501-4번지","indutype":"자동차정비 유지 - 자동차정비","category":"car"}]},{"lat":"37.173225858","long":"127.35899882","imageIndex":0,"items":[{"name":"용인시 자동차 전문정비 협동조합","tel":"031-332-9399","addr":"경기도 용인시 처인구 백암면 근곡리 256-10번지 1층","indutype":"자동차정비 유지 - 자동차부품","category":"car"}]},{"lat":"37.158142923","long":"127.38208499","imageIndex":0,"items":[{"name":"원터카센타","tel":"031-339-1257","addr":"경기도 용인시 처인구 백암면 박곡리 682-1번지","indutype":"자동차정비 유지 - 자동차정비","category":"car"}]},{"lat":"37.140983412","long":"127.41813934","imageIndex":0,"items":[{"name":"유창에스텍","tel":"02-1234-1234","addr":"경기도 용인시 처인구 백암면 고안리 610-3번지 2동","indutype":"자동차판매 - 기타운송","category":"car"}]},{"lat":"37.138702578","long":"127.39738442","imageIndex":0,"items":[{"name":"이화적재함공업사","tel":"031-334-0588","addr":"경기도 용인시 처인구 백암면 백봉리 569번지","indutype":"자동차정비 유지 - 자동차정비","category":"car"}]},{"lat":"37.12376467","long":"127.37464431","imageIndex":0,"items":[{"name":"장평자동차수리점","tel":"031-334-6288","addr":"경기도 용인시 처인구 백암면 장평리 587-5","indutype":"자동차정비 유지 - 자동차정비","category":"car"}]},{"lat":"37.143397508","long":"127.3890235","imageIndex":0,"items":[{"name":"전진공업사","tel":"031-322-0505","addr":"경기도 용인시 처인구 백암면 백봉리 955번지","indutype":"자동차정비 유지 - 자동차정비","category":"car"}]},{"lat":"37.181335725","long":"127.34661593","imageIndex":0,"items":[{"name":"중부산업","tel":"031-321-2177","addr":"경기도 용인시 처인구 백암면 가좌리 380번지","indutype":"자동차정비 유지 - 자동차정비","category":"car"}]},{"lat":"37.161175963","long":"127.36297268","imageIndex":0,"items":[{"name":"평화자동차 세차장","tel":"031-334-1799","addr":"경기도 용인시 처인구 백암면 근창리 296-4번지","indutype":"자동차정비 유지 - 세차장","category":"car"}]},{"lat":"37.151174295","long":"127.38600125","imageIndex":0,"items":[{"name":"평화자동차서비스백봉점","tel":"031-322-6926","addr":"경기도 용인시 처인구 백암면 백봉리 836-2번지","indutype":"자동차정비 유지 - 자동차정비","category":"car"}]},{"lat":"37.161337121","long":"127.36331119","imageIndex":0,"items":[{"name":"평화자동차써비스","tel":"031-321-0787","addr":"경기도 용인시 처인구 백암면 근창리 296-1번지","indutype":"자동차정비 유지 - 자동차정비","category":"car"},{"name":"평화자동차써비스","tel":"031-321-0787","addr":"경기도 용인시 처인구 백암면 근창리 296-1번지","indutype":"자동차정비 유지 - 자동차정비","category":"car"}]},{"lat":"37.162982989","long":"127.3759396","imageIndex":0,"items":[{"name":"한성스팀손세차","tel":"031-9386-4711","addr":"경기도 용인시 처인구 백암면 백암리 503-7번지","indutype":"자동차정비 유지 - 세차장","category":"car"}]}]