[{"lat":"37.42647117","long":"127.2426761","imageIndex":4,"items":[{"name":"10day 커피숍","tel":"031-797-7336","addr":"경기도 광주시 회덕동 274-1번지","indutype":"일반휴게음식 - 서양음식","category":"restaurant"}]},{"lat":"37.42608393","long":"127.2425845","imageIndex":4,"items":[{"name":"굽네치킨 회덕점","tel":"031-797-9293","addr":"경기도 광주시 회덕동 274-5번지","indutype":"일반휴게음식 - 스넥","category":"restaurant"},{"name":"풍천장어","tel":"031-767-0577","addr":"경기도 광주시 회덕동 274-5번지","indutype":"일반휴게음식 - 일반한식","category":"restaurant"}]},{"lat":"37.4289753","long":"127.2473954","imageIndex":4,"items":[{"name":"그릿","tel":"031-797-9049","addr":"경기도 광주시 회덕동 385번지 1층","indutype":"일반휴게음식 - 서양음식","category":"restaurant"}]},{"lat":"37.42691323","long":"127.2423951","imageIndex":4,"items":[{"name":"돌쇠해장국","tel":"031-765-8549","addr":"경기도 광주시 회덕동 272-1번지","indutype":"일반휴게음식 - 일반한식","category":"restaurant"}]},{"lat":"37.4292212","long":"127.241702","imageIndex":4,"items":[{"name":"생생보리밥","tel":"031-765-7733","addr":"경기도 광주시 회덕동 328-3번지","indutype":"일반휴게음식 - 일반한식","category":"restaurant"}]},{"lat":"37.42722417","long":"127.2445653","imageIndex":4,"items":[{"name":"시골집옹심이메밀칼국수","tel":"031-797-1544","addr":"경기도 광주시 회덕동 298-1번지","indutype":"일반휴게음식 - 일반한식","category":"restaurant"},{"name":"전설의치킨","tel":"031-797-9248","addr":"경기도 광주시 회덕동 298-1번지 1층","indutype":"일반휴게음식 - 스넥","category":"restaurant"}]},{"lat":"37.42794213","long":"127.2415284","imageIndex":4,"items":[{"name":"여수동갈매기살","tel":"031-763-8868","addr":"경기도 광주시 회덕동 271-1번지","indutype":"일반휴게음식 - 일반한식","category":"restaurant"}]},{"lat":"37.42927617","long":"127.2412502","imageIndex":4,"items":[{"name":"유로코피자","tel":"031-767-1828","addr":"경기도 광주시 회덕동 264-3번지 1층","indutype":"일반휴게음식 - 서양음식","category":"restaurant"}]},{"lat":"37.42722007","long":"127.2421475","imageIndex":4,"items":[{"name":"통돌이삼겹살","tel":"031-768-9600","addr":"경기도 광주시 회덕동 271-5번지 신주빌딩 103호","indutype":"일반휴게음식 - 일반한식","category":"restaurant"},{"name":"회덕포차","tel":"031-769-6879","addr":"경기도 광주시 회덕동 271-5번지 신주빌딩 1층","indutype":"일반휴게음식 - 일반한식","category":"restaurant"}]},{"lat":"37.42783371","long":"127.241675","imageIndex":4,"items":[{"name":"통통한치킨","tel":"031-761-8157","addr":"경기도 광주시 회덕동 271-22번지","indutype":"일반휴게음식 - 주점","category":"restaurant"}]},{"lat":"37.4275585","long":"127.2440918","imageIndex":4,"items":[{"name":"풍년갈비","tel":"031-763-9595","addr":"경기도 광주시 회덕동 299번지 1층 107,108호","indutype":"일반휴게음식 - 일반한식","category":"restaurant"}]},{"lat":"37.43189312","long":"127.243699","imageIndex":4,"items":[{"name":"함바식당","tel":"070-4221-9531","addr":"경기도 광주시 회덕동 198번지","indutype":"일반휴게음식 - 일반한식","category":"restaurant"}]},{"lat":"37.42805964","long":"127.2413368","imageIndex":4,"items":[{"name":"화덕에통째로구운족발 광주회덕점","tel":"031-764-8555","addr":"경기도 광주시 회덕동 271-12번지 1층","indutype":"일반휴게음식 - 일반한식","category":"restaurant"}]},{"lat":"37.43603046","long":"127.2428422","imageIndex":4,"items":[{"name":"회덕골가든","tel":"031-762-4883","addr":"경기도 광주시 회덕동 161번지 스타파크뷰","indutype":"일반휴게음식 - 일반한식","category":"restaurant"}]},{"lat":"37.43960858","long":"127.2422774","imageIndex":4,"items":[{"name":"회덕생고기전문점","tel":"","addr":"경기도 광주시 회덕동 127-2번지 1층","indutype":"일반휴게음식 - 일반한식","category":"restaurant"}]}]