[{"lat":"37.757015668","long":"127.07909379","imageIndex":0,"items":[{"name":"(주)샤인마스터","tel":"","addr":"경기도 의정부시 금오동 458-5번지","indutype":"자동차정비 유지 - 세차장","category":"car"}]},{"lat":"37.748621339","long":"127.05837777","imageIndex":0,"items":[{"name":"3M카케어센타노이즈제로","tel":"031-848-8714","addr":"경기도 의정부시 금오동 348-14번지 현대아트홈","indutype":"자동차정비 유지 - 카인테리어","category":"car"}]},{"lat":"37.745433356","long":"127.05532331","imageIndex":0,"items":[{"name":"BF자동차매매상사","tel":"070-4603-4020","addr":"경기도 의정부시 금오동 369-3번지","indutype":"자동차판매 - 중고자동차판매","category":"car"}]},{"lat":"37.757565301","long":"127.07901492","imageIndex":0,"items":[{"name":"BT모터스","tel":"070-8872-3438","addr":"경기도 의정부시 금오동 60-16번지 나동","indutype":"자동차정비 유지 - 자동차부품","category":"car"}]},{"lat":"37.753985085","long":"127.0698199","imageIndex":0,"items":[{"name":"EDS금오셀프세차타운","tel":"031-821-2337","addr":"경기도 의정부시 금오동 447-1번지","indutype":"자동차정비 유지 - 세차장","category":"car"},{"name":"다나모터스","tel":"031-821-2337","addr":"경기도 의정부시 금오동 447-1번지","indutype":"자동차정비 유지 - 세차장","category":"car"}]},{"lat":"37.749235765","long":"127.05446365","imageIndex":0,"items":[{"name":"J.K바이크","tel":"070-7799-5282","addr":"경기도 의정부시 금오동 404-15번지","indutype":"자동차판매 - 이륜차판매","category":"car"}]},{"lat":"37.753373616","long":"127.06770876","imageIndex":0,"items":[{"name":"MK자동차외장관리","tel":"031-841-1522","addr":"경기도 의정부시 금오동 445-3번지 서측단층 1층 104호","indutype":"자동차정비 유지 - 자동차정비","category":"car"},{"name":"스마일오토카 카젠금오점","tel":"031-821-5189","addr":"경기도 의정부시 금오동 445-3번지 101호","indutype":"자동차정비 유지 - 자동차정비","category":"car"},{"name":"우리카시트용품","tel":"031-847-9225","addr":"경기도 의정부시 금오동 445-3번지 102동 103호","indutype":"자동차정비 유지 - 자동차부품","category":"car"},{"name":"한성상사","tel":"031-853-4664","addr":"경기도 의정부시 금오동 445-3번지 102호","indutype":"회원제형태 - 자동차서비스","category":"car"}]},{"lat":"37.757897294","long":"127.08109193","imageIndex":0,"items":[{"name":"T스테이션금오점","tel":"031-845-4446","addr":"경기도 의정부시 금오동 55-3번지","indutype":"자동차정비 유지 - 자동차시트·타이어","category":"car"}]},{"lat":"37.746180787","long":"127.05612941","imageIndex":0,"items":[{"name":"골든모터스","tel":"031-845-6677","addr":"경기도 의정부시 금오동 369-31번지","indutype":"자동차정비 유지 - 자동차정비","category":"car"},{"name":"의정부윤활유","tel":"031-842-3900","addr":"경기도 의정부시 금오동 369-31번지","indutype":"자동차정비 유지 - 자동차부품","category":"car"}]},{"lat":"37.749377758","long":"127.05918395","imageIndex":0,"items":[{"name":"그린24시셀프세차장","tel":"031-821-1112","addr":"경기도 의정부시 금오동 335-3번지","indutype":"자동차정비 유지 - 세차장","category":"car"}]},{"lat":"37.758234795","long":"127.07456719","imageIndex":0,"items":[{"name":"그린카서비스","tel":"031-847-3294","addr":"경기도 의정부시 금오동 80-23번지","indutype":"자동차정비 유지 - 자동차정비","category":"car"}]},{"lat":"37.755397498","long":"127.07339565","imageIndex":0,"items":[{"name":"금오자동차정비","tel":"031-846-9040","addr":"경기도 의정부시 금오동 449-1번지 서쪽상가 1층","indutype":"자동차정비 유지 - 자동차정비","category":"car"}]},{"lat":"37.75393304","long":"127.06617736","imageIndex":0,"items":[{"name":"금오적재함","tel":"031-847-4156","addr":"경기도 의정부시 금오동 212-3번지","indutype":"자동차정비 유지 - 자동차정비","category":"car"}]},{"lat":"37.753175531","long":"127.06748164","imageIndex":0,"items":[{"name":"금오점기아오토큐","tel":"031-847-7810","addr":"경기도 의정부시 금오동 445-10번지","indutype":"자동차정비 유지 - 자동차정비","category":"car"},{"name":"희망오토미션","tel":"031-848-9596","addr":"경기도 의정부시 금오동 445-10번지","indutype":"자동차정비 유지 - 자동차정비","category":"car"}]},{"lat":"37.753598009","long":"127.06922949","imageIndex":0,"items":[{"name":"금오중부점현대자동차","tel":"031-821-1514","addr":"경기도 의정부시 금오동 446-17번지","indutype":"자동차정비 유지 - 자동차정비","category":"car"}]},{"lat":"37.755232386","long":"127.07815011","imageIndex":0,"items":[{"name":"금오카독크","tel":"031-847-2020","addr":"경기도 의정부시 금오동 99-1번지","indutype":"자동차정비 유지 - 자동차정비","category":"car"}]},{"lat":"37.75167986","long":"127.04837201","imageIndex":0,"items":[{"name":"대원자동차유리","tel":"031-843-7287","addr":"경기도 의정부시 금오동 441","indutype":"자동차정비 유지 - 자동차부품","category":"car"},{"name":"신광","tel":"031-821-7282","addr":"경기도 의정부시 금오동 441번지 1층","indutype":"자동차정비 유지 - 카인테리어","category":"car"},{"name":"신도특수유","tel":"031-843-4613","addr":"경기도 의정부시 금오동 441번지","indutype":"자동차정비 유지 - 자동차부품","category":"car"},{"name":"오토코리아","tel":"031-846-6768","addr":"경기도 의정부시 금오동 441","indutype":"자동차정비 유지 - 자동차정비","category":"car"},{"name":"형제사","tel":"031-847-4025","addr":"경기도 의정부시 금오동 441번지","indutype":"자동차정비 유지 - 자동차시트·타이어","category":"car"}]},{"lat":"37.755512508","long":"127.07684543","imageIndex":0,"items":[{"name":"더좋은사람","tel":"","addr":"경기도 의정부시 금오동 454-10번지 세명그린빌 202호","indutype":"자동차정비 유지 - 자동차부품","category":"car"}]},{"lat":"37.753760289","long":"127.06903673","imageIndex":0,"items":[{"name":"동양자동차 공업사","tel":"031-111-1111","addr":"경기도 의정부시 금오동 446-15","indutype":"자동차정비 유지 - 세차장","category":"car"}]},{"lat":"37.757703384","long":"127.07431702","imageIndex":0,"items":[{"name":"동원모터스","tel":"031-847-0073","addr":"경기도 의정부시 금오동 80-19번지 이롬프라자 110호 109","indutype":"자동차정비 유지 - 자동차정비","category":"car"}]},{"lat":"37.752510107","long":"127.06509817","imageIndex":0,"items":[{"name":"동진상사","tel":"031-847-8133","addr":"경기도 의정부시 금오동 202-2번지","indutype":"자동차정비 유지 - 카인테리어","category":"car"}]},{"lat":"37.749065172","long":"127.05310194","imageIndex":0,"items":[{"name":"로얄자동차용품","tel":"031-847-4933","addr":"경기도 의정부시 금오동 388-14번지","indutype":"자동차정비 유지 - 카인테리어","category":"car"}]},{"lat":"37.750098603","long":"127.0590143","imageIndex":0,"items":[{"name":"로얄자동차전문정비","tel":"031-848-0709","addr":"경기도 의정부시 금오동 286-125번지","indutype":"자동차정비 유지 - 자동차정비","category":"car"}]},{"lat":"37.753319696","long":"127.06745908","imageIndex":0,"items":[{"name":"린스몰","tel":"070-7655-2800","addr":"경기도 의정부시 금오동 445-2번지","indutype":"회원제형태 - 자동차서비스","category":"car"}]},{"lat":"37.748209337","long":"127.05293117","imageIndex":0,"items":[{"name":"만도 블랙박스","tel":"031-840-8800","addr":"경기도 의정부시 금오동 386-54번지 1층","indutype":"자동차정비 유지 - 자동차부품","category":"car"}]},{"lat":"37.744767079","long":"127.05434709","imageIndex":0,"items":[{"name":"명문상사","tel":"031-846-9077","addr":"경기도 의정부시 금오동 369-11번지","indutype":"자동차정비 유지 - 자동차부품","category":"car"}]},{"lat":"37.748818647","long":"127.06026145","imageIndex":0,"items":[{"name":"모빌리언","tel":"031-838-7477","addr":"경기도 의정부시 금오동 465-2번지 1층","indutype":"자동차정비 유지 - 카인테리어","category":"car"}]},{"lat":"37.75012805","long":"127.05368134","imageIndex":0,"items":[{"name":"미라노이멕스 경기북부지사","tel":"","addr":"경기도 의정부시 금오동 396-5번지 2층 2호","indutype":"자동차정비 유지 - 자동차부품","category":"car"}]},{"lat":"37.749732804","long":"127.05087844","imageIndex":0,"items":[{"name":"보쉬카서비스 의정부점","tel":"031-826-3629","addr":"경기도 의정부시 금오동 435-3번지","indutype":"자동차정비 유지 - 자동차정비","category":"car"}]},{"lat":"37.748739236","long":"127.05670992","imageIndex":0,"items":[{"name":"상록수","tel":"031-841-2938","addr":"경기도 의정부시 금오동 413-3삼풍빌딩2층202~203호","indutype":"자동차정비 유지 - 자동차부품","category":"car"}]},{"lat":"37.749849099","long":"127.05287554","imageIndex":0,"items":[{"name":"스피드메이트금오사거리점","tel":"031-841-5131","addr":"경기도 의정부시 금오동 395-6번지","indutype":"자동차정비 유지 - 자동차정비","category":"car"}]},{"lat":"37.748233454","long":"127.05937597","imageIndex":0,"items":[{"name":"신곡점현대자동차","tel":"031-821-8204","addr":"경기도 의정부시 금오동 464-3번지","indutype":"자동차정비 유지 - 자동차정비","category":"car"}]},{"lat":"37.750845208","long":"127.06145443","imageIndex":0,"items":[{"name":"신세계타이어","tel":"031-821-0715","addr":"경기도 의정부시 금오동 319-3","indutype":"자동차정비 유지 - 자동차시트·타이어","category":"car"}]},{"lat":"37.752065384","long":"127.07098692","imageIndex":0,"items":[{"name":"에스카워쉬","tel":"070-4123-9018","addr":"경기도 의정부시 금오동 475-1번지 5층","indutype":"자동차정비 유지 - 세차장","category":"car"},{"name":"오토오아시스홈플러스의정부점","tel":"031-850-8099","addr":"경기도 의정부시 금오동 475-1번지 홈플러스 5층","indutype":"자동차정비 유지 - 자동차정비","category":"car"}]},{"lat":"37.750205978","long":"127.06054619","imageIndex":0,"items":[{"name":"예지상사","tel":"031-855-6261","addr":"경기도 의정부시 금오동 336-5번지 공주빌딩 1층","indutype":"자동차정비 유지 - 자동차부품","category":"car"},{"name":"의정부배터리할인마트","tel":"031-847-4748","addr":"경기도 의정부시 금오동 336-5번지 공주빌딩 1층","indutype":"자동차정비 유지 - 자동차부품","category":"car"}]},{"lat":"37.757231661","long":"127.07945714","imageIndex":0,"items":[{"name":"오렌지셀프세차타운","tel":"031-847-0877","addr":"경기도 의정부시 금오동 459-2 .3.4.5","indutype":"자동차정비 유지 - 세차장","category":"car"}]},{"lat":"37.75387766","long":"127.06859429","imageIndex":0,"items":[{"name":"오토케어세차장","tel":"031-846-8181","addr":"경기도 의정부시 금오동 446-1번지","indutype":"자동차정비 유지 - 세차장","category":"car"}]},{"lat":"37.751097266","long":"127.06187447","imageIndex":0,"items":[{"name":"올댓마이카","tel":"031-821-4239","addr":"경기도 의정부시 금오동 320-1번지","indutype":"자동차정비 유지 - 자동차부품","category":"car"}]},{"lat":"37.756124453","long":"127.07795811","imageIndex":0,"items":[{"name":"우리자동차공업사","tel":"031-846-5109","addr":"경기도 의정부시 금오동 457-7번지","indutype":"자동차정비 유지 - 자동차정비","category":"car"}]},{"lat":"37.748623612","long":"127.05331723","imageIndex":0,"items":[{"name":"우리차병원","tel":"031-856-4750","addr":"경기도 의정부시 금오동 384-3번지","indutype":"자동차정비 유지 - 자동차정비","category":"car"}]},{"lat":"37.750098041","long":"127.06018301","imageIndex":0,"items":[{"name":"워시존 의정부점","tel":"031-0000-0000","addr":"경기도 의정부시 금오동 336-4번지,332-1","indutype":"자동차정비 유지 - 세차장","category":"car"}]},{"lat":"37.757376517","long":"127.07836789","imageIndex":0,"items":[{"name":"유한회사 대신물산","tel":"051-558-5531","addr":"경기도 의정부시 금오동 88-8번지 웅석빌딩 304호","indutype":"자동차정비 유지 - 주차장","category":"car"}]},{"lat":"37.749038403","long":"127.05248921","imageIndex":0,"items":[{"name":"으뜸카써비스","tel":"031-847-4660","addr":"경기도 의정부시 금오동 388-9번지","indutype":"자동차정비 유지 - 자동차정비","category":"car"},{"name":"카맨샵","tel":"031-826-8967","addr":"경기도 의정부시 금오동 388-9번지","indutype":"자동차정비 유지 - 자동차정비","category":"car"}]},{"lat":"37.749515518","long":"127.0534086","imageIndex":0,"items":[{"name":"의정부쌍용지사","tel":"031-845-0349","addr":"경기도 의정부시 금오동 391-9번지 1층","indutype":"자동차정비 유지 - 자동차부품","category":"car"}]},{"lat":"37.749957073","long":"127.05320466","imageIndex":0,"items":[{"name":"이에스모터스","tel":"","addr":"경기도 의정부시 금오동 395-12번지 1층","indutype":"자동차정비 유지 - 자동차정비","category":"car"}]},{"lat":"37.748434373","long":"127.05340787","imageIndex":0,"items":[{"name":"자동차밧데리전문할인매장","tel":"031-841-2488","addr":"경기도 의정부시 금오동 384-5번지","indutype":"자동차정비 유지 - 자동차부품","category":"car"}]},{"lat":"37.749872846","long":"127.06009206","imageIndex":0,"items":[{"name":"자동차외형복원금오점","tel":"031-846-3197","addr":"경기도 의정부시 금오동 336-15번지","indutype":"자동차정비 유지 - 카인테리어","category":"car"}]},{"lat":"37.747594431","long":"127.05799123","imageIndex":0,"items":[{"name":"전국상사","tel":"031-842-4603","addr":"경기도 의정부시 금오동 362-3번지","indutype":"자동차정비 유지 - 자동차부품","category":"car"}]},{"lat":"37.74984873","long":"127.05373789","imageIndex":0,"items":[{"name":"정한공업사","tel":"031-846-8223","addr":"경기도 의정부시 금오동 397-1번지","indutype":"자동차정비 유지 - 자동차정비","category":"car"}]},{"lat":"37.750432101","long":"127.05870818","imageIndex":0,"items":[{"name":"종합사","tel":"031-847-9071","addr":"경기도 의정부시 금오동 286-108번지","indutype":"자동차정비 유지 - 자동차정비","category":"car"}]},{"lat":"37.748875339","long":"127.05456552","imageIndex":0,"items":[{"name":"주식회사 에이치씨글로벌 금오지점","tel":"031-842-0101","addr":"경기도 의정부시 금오동 405-3번지","indutype":"자동차정비 유지 - 자동차시트·타이어","category":"car"}]},{"lat":"37.749647712","long":"127.0598763","imageIndex":0,"items":[{"name":"주식회사 타이어코치","tel":"","addr":"경기도 의정부시 금오동 332-2번지 1층","indutype":"자동차정비 유지 - 자동차시트·타이어","category":"car"}]},{"lat":"37.755844503","long":"127.07897911","imageIndex":0,"items":[{"name":"주식회사 한국자동차","tel":"031-840-4401","addr":"경기도 의정부시 금오동 96-1번지","indutype":"자동차정비 유지 - 자동차정비","category":"car"}]},{"lat":"37.751598323","long":"127.06845611","imageIndex":0,"items":[{"name":"주식회사미디어케어라인","tel":"031-852-5508","addr":"경기도 의정부시 금오동 471-2번지 해피타워, 해피플러스III 402호","indutype":"자동차정비 유지 - 주차장","category":"car"}]},{"lat":"37.750010735","long":"127.05412379","imageIndex":0,"items":[{"name":"차병원 모터스","tel":"031-848-5337","addr":"경기도 의정부시 금오동 397-3번지 1층","indutype":"자동차정비 유지 - 자동차정비","category":"car"}]},{"lat":"37.747929984","long":"127.05306713","imageIndex":0,"items":[{"name":"케이모터스(K motors)","tel":"031-8083-9779","addr":"경기도 의정부시 금오동 386-56번지","indutype":"자동차정비 유지 - 자동차정비","category":"car"}]},{"lat":"37.753625266","long":"127.06882102","imageIndex":0,"items":[{"name":"크린카서비스","tel":"031-821-1279","addr":"경기도 의정부시 금오동 446-28번지","indutype":"자동차정비 유지 - 자동차정비","category":"car"}]},{"lat":"37.751205284","long":"127.06206745","imageIndex":0,"items":[{"name":"타이어클럽","tel":"031-821-9987","addr":"경기도 의정부시 금오동 310-2번지","indutype":"자동차정비 유지 - 자동차시트·타이어","category":"car"}]},{"lat":"37.748459506","long":"127.05765148","imageIndex":0,"items":[{"name":"탑라인","tel":"031-871-5889","addr":"경기도 의정부시 금오동 343-1번지","indutype":"자동차정비 유지 - 자동차부품","category":"car"}]},{"lat":"37.75162052","long":"127.06045651","imageIndex":0,"items":[{"name":"태양자동차써비스","tel":"031-847-8205","addr":"경기도 의정부시 금오동 289-5번지","indutype":"자동차정비 유지 - 자동차정비","category":"car"}]},{"lat":"37.751346012","long":"127.06853532","imageIndex":0,"items":[{"name":"한솔자동차서비스","tel":"031-852-6567","addr":"경기도 의정부시 금오동 471-3번지 101호 (101호~102호)","indutype":"자동차정비 유지 - 자동차정비","category":"car"}]},{"lat":"37.747704706","long":"127.05315775","imageIndex":0,"items":[{"name":"형제모터스","tel":"031-847-0997","addr":"경기도 의정부시 금오동 380-2번지 동양빌딩 지하","indutype":"자동차정비 유지 - 자동차부품","category":"car"}]},{"lat":"37.752764582","long":"127.06076377","imageIndex":0,"items":[{"name":"휠디제이(WHEEL DJ)","tel":"031-000-0000","addr":"경기도 의정부시 금오동 296-1번지","indutype":"자동차정비 유지 - 자동차시트·타이어","category":"car"}]}]