[{"lat":"37.335240015","long":"127.48587186","imageIndex":4,"items":[{"name":"달봉이부페.찐빵","tel":"031-638-2727","addr":"경기도 이천시 백사면 송말리 104-3번지","indutype":"일반휴게음식 - 일반한식","category":"restaurant"}]},{"lat":"37.338236518","long":"127.48681637","imageIndex":4,"items":[{"name":"마포갈비 백사점","tel":"031-634-5233","addr":"경기도 이천시 백사면 송말리 93-1번지","indutype":"일반휴게음식 - 일반한식","category":"restaurant"}]},{"lat":"37.334684211","long":"127.48517999","imageIndex":4,"items":[{"name":"바른나무","tel":"031-000-0000","addr":"경기도 이천시 백사면 송말리 105-10번지 1층","indutype":"일반휴게음식 - 서양음식","category":"restaurant"}]},{"lat":"37.33781957","long":"127.48742305","imageIndex":4,"items":[{"name":"백사기사님식당","tel":"031-631-0689","addr":"경기도 이천시 백사면 송말리 93-2번지","indutype":"일반휴게음식 - 일반한식","category":"restaurant"}]},{"lat":"37.336325227","long":"127.4870975","imageIndex":4,"items":[{"name":"양평해장국 (백사점)","tel":"031-631-5522","addr":"경기도 이천시 백사면 송말리 95-4번지 A동","indutype":"일반휴게음식 - 일반한식","category":"restaurant"}]},{"lat":"37.347513821","long":"127.48315159","imageIndex":4,"items":[{"name":"어메이징 이천 브루어리","tel":"02-464-5208","addr":"경기도 이천시 백사면 송말리 276-2번지","indutype":"일반휴게음식 - 서양음식","category":"restaurant"}]},{"lat":"37.335902456","long":"127.48692552","imageIndex":4,"items":[{"name":"옥계촌","tel":"031-634-0607","addr":"경기도 이천시 백사면 송말리 97-2번지","indutype":"일반휴게음식 - 일반한식","category":"restaurant"}]},{"lat":"37.335264186","long":"127.48657162","imageIndex":4,"items":[{"name":"재운방주","tel":"031-632-2799","addr":"경기도 이천시 백사면 송말리 104-9번지","indutype":"일반휴게음식 - 일반한식","category":"restaurant"},{"name":"카페 484","tel":"031-635-2000","addr":"경기도 이천시 백사면 송말리 104-9번지","indutype":"일반휴게음식 - 서양음식","category":"restaurant"}]},{"lat":"37.335713665","long":"127.48682275","imageIndex":4,"items":[{"name":"홍등","tel":"031-632-7047","addr":"경기도 이천시 백사면 송말리 98번지","indutype":"일반휴게음식 - 중국식","category":"restaurant"}]},{"lat":"37.334459056","long":"127.48515598","imageIndex":4,"items":[{"name":"흥부네찐빵만두","tel":"031-632-5860","addr":"경기도 이천시 백사면 송말리 105-9번지","indutype":"일반휴게음식 - 일반한식","category":"restaurant"}]}]