[{"lat":"37.22698348","long":"126.63270942","imageIndex":7,"items":[{"name":"(재)경기문화재단경기창작센터","tel":"032-890-4812","addr":"경기도 안산시 단원구 선감동 400-3번지","indutype":"음료식품 - 기타음료식품","category":"food"}]},{"lat":"37.200324054","long":"126.64512853","imageIndex":7,"items":[{"name":"(주)365대부도캠핑시티","tel":"02-1644-3655","addr":"경기도 안산시 단원구 선감동 683-78번지","indutype":"음료식품 - 기타음료식품","category":"food"}]},{"lat":"37.191018125","long":"126.64571304","imageIndex":7,"items":[{"name":"가영네횟집","tel":"032-882-4049","addr":"경기도 안산시 단원구 선감동 717-3","indutype":"음료식품 - 농·축·수산품","category":"food"},{"name":"최가네","tel":"032-882-0524","addr":"경기도 안산시 단원구 선감동 717-3","indutype":"음료식품 - 농·축·수산품","category":"food"}]},{"lat":"37.210539618","long":"126.65346177","imageIndex":7,"items":[{"name":"거성호","tel":"031-882-1740","addr":"경기도 안산시 단원구 선감동 23번지","indutype":"음료식품 - 농·축·수산품","category":"food"}]},{"lat":"37.227009764","long":"126.64417996","imageIndex":7,"items":[{"name":"달콤하냥","tel":"","addr":"경기도 안산시 단원구 선감동 3-6번지","indutype":"음료식품 - 농·축·수산품","category":"food"}]},{"lat":"37.222542032","long":"126.63003827","imageIndex":7,"items":[{"name":"대부돌핀호","tel":"032-886-5602","addr":"경기도 안산시 단원구 선감동 642번지 18/1","indutype":"음료식품 - 농·축·수산품","category":"food"}]},{"lat":"37.192404953","long":"126.64545873","imageIndex":7,"items":[{"name":"대부수산","tel":"032-885-9996","addr":"경기도 안산시 단원구 선감동 717-2","indutype":"음료식품 - 농·축·수산품","category":"food"}]},{"lat":"37.223016434","long":"126.6319063","imageIndex":7,"items":[{"name":"대부수산","tel":"032-885-9955","addr":"경기도 안산시 단원구 선감동 617번지","indutype":"음료식품 - 농·축·수산품","category":"food"}]},{"lat":"37.235291477","long":"126.62431842","imageIndex":7,"items":[{"name":"동환네포장마차","tel":"031-886-6464","addr":"경기도 안산시 단원구 선감동 718","indutype":"음료식품 - 농·축·수산품","category":"food"}]},{"lat":"37.230011004","long":"126.63562438","imageIndex":7,"items":[{"name":"만창수산","tel":"032-883-5601","addr":"경기도 안산시 단원구 선감동 산21","indutype":"음료식품 - 농·축·수산품","category":"food"},{"name":"태양호","tel":"032-883-3668","addr":"경기도 안산시 단원구 선감동 산21","indutype":"음료식품 - 농·축·수산품","category":"food"}]},{"lat":"37.21101872","long":"126.65398904","imageIndex":7,"items":[{"name":"불도수산","tel":"032-886-3930","addr":"경기도 안산시 단원구 선감동 20","indutype":"음료식품 - 농·축·수산품","category":"food"}]},{"lat":"37.227123832","long":"126.63437638","imageIndex":7,"items":[{"name":"산아래농원","tel":"031-886-9363","addr":"경기도 안산시 단원구 선감동 390","indutype":"음료식품 - 농·축·수산품","category":"food"}]},{"lat":"37.210683516","long":"126.65337098","imageIndex":7,"items":[{"name":"서산수산","tel":"032-886-3751","addr":"경기도 안산시 단원구 선감동 21","indutype":"음료식품 - 농·축·수산품","category":"food"},{"name":"아산수산","tel":"031-886-4657","addr":"경기도 안산시 단원구 선감동 21","indutype":"음료식품 - 농·축·수산품","category":"food"}]},{"lat":"37.221847173","long":"126.64132004","imageIndex":7,"items":[{"name":"선감농장","tel":"032-886-9352","addr":"경기도 안산시 단원구 선감동 산90","indutype":"음료식품 - 농·축·수산품","category":"food"}]},{"lat":"37.213428596","long":"126.64629465","imageIndex":7,"items":[{"name":"우명리테일","tel":"","addr":"경기도 안산시 단원구 선감동 산130번지","indutype":"음료식품 - 기타음료식품","category":"food"}]},{"lat":"37.226624551","long":"126.63318442","imageIndex":7,"items":[{"name":"일구도소매횟집","tel":"031-886-5419","addr":"경기도 안산시 단원구 선감동 411번지","indutype":"음료식품 - 농·축·수산품","category":"food"}]},{"lat":"37.195851268","long":"126.6469067","imageIndex":7,"items":[{"name":"제3만창호","tel":"032-883-5601","addr":"경기도 안산시 단원구 선감동 681-4번지","indutype":"음료식품 - 농·축·수산품","category":"food"}]},{"lat":"37.196103622","long":"126.64692804","imageIndex":7,"items":[{"name":"찬미호","tel":"032-858-2623","addr":"경기도 안산시 단원구 선감동 681-42","indutype":"음료식품 - 농·축·수산품","category":"food"}]},{"lat":"37.222599175","long":"126.63101823","imageIndex":7,"items":[{"name":"털보수산","tel":"032-886-9366","addr":"경기도 안산시 단원구 선감동 625번지","indutype":"음료식품 - 농·축·수산품","category":"food"},{"name":"형제수산","tel":"032-886-5629","addr":"경기도 안산시 단원구 선감동 625번지 1층","indutype":"음료식품 - 농·축·수산품","category":"food"}]},{"lat":"37.194323996","long":"126.64540463","imageIndex":7,"items":[{"name":"펜션코리아","tel":"031-497-0711","addr":"경기도 안산시 단원구 선감동 717-10번지 101호","indutype":"음료식품 - 기타음료식품","category":"food"}]},{"lat":"37.20824111","long":"126.65012664","imageIndex":7,"items":[{"name":"호산호","tel":"032-886-5419","addr":"경기도 안산시 단원구 선감동 32-3","indutype":"음료식품 - 농·축·수산품","category":"food"}]},{"lat":"37.192404953","long":"126.64545873","imageIndex":4,"items":[{"name":"17호미정네회집","tel":"032-883-4485","addr":"경기도 안산시 단원구 선감동 717-2,가동1층17호","indutype":"일반휴게음식 - 일식·회집","category":"restaurant"},{"name":"71호유성회집","tel":"032-886-0598","addr":"경기도 안산시 단원구 선감동 717-2가동1층71호","indutype":"일반휴게음식 - 일식·회집","category":"restaurant"},{"name":"77호원조회집","tel":"032-884-3962","addr":"경기도 안산시 단원구 선감동 717-2번지 수산물직판장 가동 1층 77호","indutype":"일반휴게음식 - 일반한식","category":"restaurant"},{"name":"99.9털보회집","tel":"031-885-9996","addr":"경기도 안산시 단원구 선감동 717-2가동1층99.9","indutype":"일반휴게음식 - 일반한식","category":"restaurant"},{"name":"99호채홍회집","tel":"032-882-7716","addr":"경기도 안산시 단원구 선감동 717-2가동1층99호","indutype":"일반휴게음식 - 일반한식","category":"restaurant"},{"name":"9호수원회집","tel":"032-882-9844","addr":"경기도 안산시 단원구 선감동 717-2번지 수산물직판장 가동 1층 9호","indutype":"일반휴게음식 - 일식·회집","category":"restaurant"},{"name":"경북영덕수산","tel":"032-884-0087","addr":"경기도 안산시 단원구 선감동 717-2가동1층24호","indutype":"일반휴게음식 - 일반한식","category":"restaurant"},{"name":"광주회집","tel":"032-886-5493","addr":"경기도 안산시 단원구 선감동 717-2가동1층33호","indutype":"일반휴게음식 - 일반한식","category":"restaurant"},{"name":"금영선주","tel":"032-884-5985","addr":"경기도 안산시 단원구 선감동 717-2번지 수산물직판장 1층 37호","indutype":"일반휴게음식 - 일식·회집","category":"restaurant"},{"name":"목포회집","tel":"032-882-7921","addr":"경기도 안산시 단원구 선감동 717-2번지","indutype":"일반휴게음식 - 일반한식","category":"restaurant"},{"name":"백악관","tel":"032-886-2552","addr":"경기도 안산시 단원구 선감동 717-2번지 수산물직판장 가동 2층","indutype":"일반휴게음식 - 일반한식","category":"restaurant"},{"name":"선영회집","tel":"032-882-9223","addr":"경기도 안산시 단원구 선감동 717-2,가동1층15호","indutype":"일반휴게음식 - 일식·회집","category":"restaurant"},{"name":"신성회집","tel":"032-883-0672","addr":"경기도 안산시 단원구 선감동 717-2가동1층1호","indutype":"일반휴게음식 - 일반한식","category":"restaurant"},{"name":"인천6호회집","tel":"032-886-3671","addr":"경기도 안산시 단원구 선감동 717-2가동1층6호","indutype":"일반휴게음식 - 일반한식","category":"restaurant"},{"name":"장박사은규 14호","tel":"032-883-9954","addr":"경기도 안산시 단원구 선감동 717-2 가동 1층 14호","indutype":"일반휴게음식 - 일반한식","category":"restaurant"},{"name":"재성이네21호","tel":"032-885-3434","addr":"경기도 안산시 단원구 선감동 717-2,가동1층21호","indutype":"일반휴게음식 - 일반한식","category":"restaurant"},{"name":"전남광주회집","tel":"032-883-0692","addr":"경기도 안산시 단원구 선감동 717-2,가동1층35호","indutype":"일반휴게음식 - 일식·회집","category":"restaurant"},{"name":"정읍횟집","tel":"032-886-5490","addr":"경기도 안산시 단원구 선감동 717-2가동1층31호","indutype":"일반휴게음식 - 일식·회집","category":"restaurant"},{"name":"처녀회집","tel":"032-884-4427","addr":"경기도 안산시 단원구 선감동 717-2 가동1층30호 처녀회집","indutype":"일반휴게음식 - 일식·회집","category":"restaurant"},{"name":"최가네회집","tel":"032-882-0524","addr":"경기도 안산시 단원구 선감동 717-2가동1층28호","indutype":"일반휴게음식 - 일반한식","category":"restaurant"},{"name":"충남회집","tel":"032-886-8096","addr":"경기도 안산시 단원구 선감동 717-2,가동1층27호","indutype":"일반휴게음식 - 일식·회집","category":"restaurant"},{"name":"탄도수산물직판장","tel":"032-886-2552","addr":"경기도 안산시 단원구 선감동 717-2번지","indutype":"일반휴게음식 - 일반한식","category":"restaurant"},{"name":"탄도수산물직판장","tel":"032-886-2552","addr":"경기도 안산시 단원구 선감동 717-2번지 1층","indutype":"일반휴게음식 - 일반한식","category":"restaurant"}]},{"lat":"37.200603439","long":"126.64514974","imageIndex":4,"items":[{"name":"365아고라시티","tel":"031-1644-3655","addr":"경기도 안산시 단원구 선감동 683-60번지 1층","indutype":"일반휴게음식 - 일반한식","category":"restaurant"}]},{"lat":"37.234155478","long":"126.62409872","imageIndex":4,"items":[{"name":"갯마을","tel":"032-884-8851","addr":"경기도 안산시 단원구 선감동 668-13번지 106,107호","indutype":"일반휴게음식 - 일반한식","category":"restaurant"},{"name":"뉴(new) 나루터","tel":"032-884-3139","addr":"경기도 안산시 단원구 선감동 668-13번지 103,104호","indutype":"일반휴게음식 - 일반한식","category":"restaurant"},{"name":"참사리횟집","tel":"032-889-1333","addr":"경기도 안산시 단원구 선감동 668-13번지 101,102호","indutype":"일반휴게음식 - 일반한식","category":"restaurant"}]},{"lat":"37.210683516","long":"126.65337098","imageIndex":4,"items":[{"name":"광명식당(6호)","tel":"032-882-5904","addr":"경기도 안산시 단원구 선감동 21번지","indutype":"일반휴게음식 - 일식·회집","category":"restaurant"}]},{"lat":"37.193099929","long":"126.64584965","imageIndex":4,"items":[{"name":"누에섬","tel":"032-881-7705","addr":"경기도 안산시 단원구 선감동 717-4번지 1층","indutype":"일반휴게음식 - 일반한식","category":"restaurant"},{"name":"아모르","tel":"070-4922-1261","addr":"경기도 안산시 단원구 선감동 717-4번지 1층","indutype":"일반휴게음식 - 서양음식","category":"restaurant"}]},{"lat":"37.222566542","long":"126.62923818","imageIndex":4,"items":[{"name":"단영수산","tel":"032-883-9670","addr":"경기도 안산시 단원구 선감동 639-16번지","indutype":"일반휴게음식 - 일식·회집","category":"restaurant"}]},{"lat":"37.193211542","long":"126.6470092","imageIndex":4,"items":[{"name":"대부도 바지락칼국수","tel":"032-886-9878","addr":"경기도 안산시 단원구 선감동 682번지 1동 102호","indutype":"일반휴게음식 - 일반한식","category":"restaurant"},{"name":"탄도항 수타","tel":"032-886-9878","addr":"경기도 안산시 단원구 선감동 682번지 1층 102호","indutype":"일반휴게음식 - 중국식","category":"restaurant"}]},{"lat":"37.222403302","long":"126.63756542","imageIndex":4,"items":[{"name":"대부수산","tel":"032-886-6813","addr":"경기도 안산시 단원구 선감동 287-8번지","indutype":"일반휴게음식 - 일식·회집","category":"restaurant"}]},{"lat":"37.222516597","long":"126.63054542","imageIndex":4,"items":[{"name":"대선수산","tel":"032-886-9050","addr":"경기도 안산시 단원구 선감동 628번지","indutype":"일반휴게음식 - 일식·회집","category":"restaurant"}]},{"lat":"37.226569611","long":"126.632903","imageIndex":4,"items":[{"name":"대성가든","tel":"032-886-3880","addr":"경기도 안산시 단원구 선감동 410번지","indutype":"일반휴게음식 - 일반한식","category":"restaurant"}]},{"lat":"37.233147238","long":"126.62721394","imageIndex":4,"items":[{"name":"등대가든","tel":"00-0000-0000","addr":"경기도 안산시 단원구 선감동 668-10번지 1호","indutype":"일반휴게음식 - 일반한식","category":"restaurant"}]},{"lat":"37.199376518","long":"126.64464866","imageIndex":4,"items":[{"name":"보물섬","tel":"032-880-0400","addr":"경기도 안산시 단원구 선감동 683-81번지 101,102호","indutype":"일반휴게음식 - 일반한식","category":"restaurant"}]},{"lat":"37.219740036","long":"126.63879507","imageIndex":4,"items":[{"name":"선감식당","tel":"032-886-4162","addr":"경기도 안산시 단원구 선감동 268-2번지","indutype":"일반휴게음식 - 일반한식","category":"restaurant"}]},{"lat":"37.205322338","long":"126.64431642","imageIndex":4,"items":[{"name":"아르페지오네","tel":"070-7117-2506","addr":"경기도 안산시 단원구 선감동 680-9번지","indutype":"일반휴게음식 - 서양음식","category":"restaurant"},{"name":"아르페지오네","tel":"032-889-3753","addr":"경기도 안산시 단원구 선감동 680-9번지 1층","indutype":"일반휴게음식 - 일반한식","category":"restaurant"}]},{"lat":"37.200822486","long":"126.64309867","imageIndex":4,"items":[{"name":"엔케렘 하늘정원","tel":"032-880-2115","addr":"경기도 안산시 단원구 선감동 683-52번지 2층","indutype":"일반휴게음식 - 서양음식","category":"restaurant"}]},{"lat":"37.194516231","long":"126.64640613","imageIndex":4,"items":[{"name":"전망대횟집","tel":"032-883-1689","addr":"경기도 안산시 단원구 선감동 681-58번지","indutype":"일반휴게음식 - 일반한식","category":"restaurant"}]},{"lat":"37.213428596","long":"126.64629465","imageIndex":4,"items":[{"name":"전망대횟집","tel":"032-885-3500","addr":"경기도 안산시 단원구 선감동 산130번지","indutype":"일반휴게음식 - 일식·회집","category":"restaurant"}]},{"lat":"37.233902581","long":"126.62390841","imageIndex":4,"items":[{"name":"참사리횟집","tel":"032-889-1333","addr":"경기도 안산시 단원구 선감동 668-11 제가동제1,2층107,207호","indutype":"일반휴게음식 - 일식·회집","category":"restaurant"}]},{"lat":"37.202017396","long":"126.64492905","imageIndex":4,"items":[{"name":"천하수산","tel":"032-886-3765","addr":"경기도 안산시 단원구 선감동 683-14번지 1층","indutype":"일반휴게음식 - 일반한식","category":"restaurant"}]},{"lat":"37.205819092","long":"126.64470833","imageIndex":4,"items":[{"name":"카페 153","tel":"032-882-4016","addr":"경기도 안산시 단원구 선감동 680-3번지 1층","indutype":"일반휴게음식 - 서양음식","category":"restaurant"}]},{"lat":"37.193242259","long":"126.64524079","imageIndex":4,"items":[{"name":"해솔카페","tel":"","addr":"경기도 안산시 단원구 선감동 717-25번지 1,2층","indutype":"일반휴게음식 - 서양음식","category":"restaurant"}]},{"lat":"37.2075457481","long":"126.6465926849","imageIndex":5,"items":[{"name":"18호 물고기두마리","tel":"032-883-3668","addr":"경기도 안산시 단원구 선감동 산143-8번지","indutype":"숙박 및 음식점업 - 일식","category":"hotel"},{"name":"만창수산","tel":"","addr":"경기도 안산시 단원구 선감동 산143-8번지","indutype":"숙박 및 음식점업 - 일식","category":"hotel"},{"name":"형제수산","tel":"032-886-6920","addr":"경기도 안산시 단원구 선감동 산143-8번지","indutype":"숙박 및 음식점업 - 일식","category":"hotel"}]},{"lat":"37.1919667088","long":"126.6465420062","imageIndex":5,"items":[{"name":"30호 처녀회집","tel":"032-884-4427","addr":"경기도 안산시 단원구 선감동 725번지","indutype":"숙박 및 음식점업 - 한식","category":"hotel"}]},{"lat":"37.1924049532","long":"126.6454587270","imageIndex":5,"items":[{"name":"99.9털보횟집","tel":"032-885-9996","addr":"경기도 안산시 단원구 선감동 717-2번지","indutype":"숙박 및 음식점업 - 한식","category":"hotel"},{"name":"목포횟집","tel":"","addr":"경기도 안산시 단원구 선감동 717-2번지","indutype":"숙박 및 음식점업 - 횟집","category":"hotel"},{"name":"인천6호횟집","tel":"","addr":"경기도 안산시 단원구 선감동 717-2번지","indutype":"숙박 및 음식점업 - 한식","category":"hotel"},{"name":"정읍횟집","tel":"032-886-5490","addr":"경기도 안산시 단원구 선감동 717-2번지","indutype":"숙박 및 음식점업 - 한식","category":"hotel"},{"name":"최가네횟집","tel":"","addr":"경기도 안산시 단원구 선감동 717-2번지","indutype":"숙박 및 음식점업 - 한식","category":"hotel"}]},{"lat":"37.2341554782","long":"126.6240987196","imageIndex":5,"items":[{"name":"갯마을횟집","tel":"032-884-8851","addr":"경기도 안산시 단원구 선감동 668-13번지","indutype":"숙박 및 음식점업 - 한식","category":"hotel"}]},{"lat":"37.2106835159","long":"126.6533709836","imageIndex":5,"items":[{"name":"광명식당","tel":"032-882-5904","addr":"경기도 안산시 단원구 선감동 21번지","indutype":"숙박 및 음식점업 - 횟집","category":"hotel"}]},{"lat":"37.2224033016","long":"126.6375654166","imageIndex":5,"items":[{"name":"대부수산88호","tel":"","addr":"경기도 안산시 단원구 선감동 287-8번지","indutype":"숙박 및 음식점업 - 일식","category":"hotel"}]},{"lat":"37.2056845176","long":"126.6449004677","imageIndex":5,"items":[{"name":"대선수산","tel":"032-886-9050","addr":"경기도 안산시 단원구 선감동 680-4번지","indutype":"숙박 및 음식점업 - 일식","category":"hotel"},{"name":"아산수산","tel":"","addr":"경기도 안산시 단원구 선감동 680-4번지","indutype":"숙박 및 음식점업 - 일식","category":"hotel"},{"name":"와인수산","tel":"","addr":"경기도 안산시 단원구 선감동 680-4번지","indutype":"숙박 및 음식점업 - 횟집","category":"hotel"}]},{"lat":"37.2331472382","long":"126.6272139405","imageIndex":5,"items":[{"name":"등대가든","tel":"032-882-2515","addr":"경기도 안산시 단원구 선감동 668-10번지","indutype":"숙박 및 음식점업 - 한식","category":"hotel"}]},{"lat":"37.2056831893","long":"126.6444611515","imageIndex":5,"items":[{"name":"바다그림펜션","tel":"032-886-1241","addr":"경기도 안산시 단원구 선감동 680-6번지","indutype":"숙박 및 음식점업 - 펜션","category":"hotel"}]},{"lat":"37.1922923296","long":"126.6469571956","imageIndex":5,"items":[{"name":"장박사은규14호","tel":"","addr":"경기도 안산시 단원구 선감동 717-1번지","indutype":"숙박 및 음식점업 - 한식","category":"hotel"}]},{"lat":"37.2225665420","long":"126.6292381791","imageIndex":5,"items":[{"name":"충남횟집","tel":"032-883-9670","addr":"경기도 안산시 단원구 선감동 639-16번지","indutype":"숙박 및 음식점업 - 한식","category":"hotel"}]},{"lat":"37.2225991748","long":"126.6310182341","imageIndex":5,"items":[{"name":"털보수산","tel":"032-886-9366","addr":"경기도 안산시 단원구 선감동 625번지","indutype":"숙박 및 음식점업 - 일식","category":"hotel"}]},{"lat":"37.1932422586","long":"126.6452407865","imageIndex":5,"items":[{"name":"해솔카페","tel":"","addr":"경기도 안산시 단원구 선감동 717-25번지","indutype":"숙박 및 음식점업 - 카페","category":"hotel"}]},{"lat":"37.201656749","long":"126.6448519","imageIndex":7,"items":[{"name":"365해피마트","tel":"032-891-0719","addr":"경기도 안산시 단원구 선감동 683-3번지","indutype":"유통업 영리 - 슈퍼마켓","category":"mart"}]},{"lat":"37.2016567494","long":"126.6448519049","imageIndex":7,"items":[{"name":"365해피마트","tel":"","addr":"경기도 안산시 단원구 선감동 683-3번지","indutype":"도매 및 소매업 - 슈퍼","category":"mart"}]},{"lat":"37.233155965","long":"126.62429529","imageIndex":7,"items":[{"name":"대부도펜션타운마트","tel":"","addr":"경기도 안산시 단원구 선감동 686-2번지","indutype":"유통업 영리 - 슈퍼마켓","category":"mart"},{"name":"타운할인마트","tel":"02-1588-1934","addr":"경기도 안산시 단원구 선감동 686-2번지 1층","indutype":"유통업 영리 - 슈퍼마켓","category":"mart"}]},{"lat":"37.205684518","long":"126.64490047","imageIndex":7,"items":[{"name":"바이데이 편의점","tel":"032-882-4016","addr":"경기도 안산시 단원구 선감동 680-4 1층","indutype":"유통업 영리 - 슈퍼마켓","category":"mart"}]},{"lat":"37.233153838","long":"126.62363044","imageIndex":7,"items":[{"name":"비비큐(BBQ)슈퍼","tel":"031-882-2032","addr":"경기도 안산시 단원구 선감동 686번지 1층일부","indutype":"유통업 영리 - 슈퍼마켓","category":"mart"}]},{"lat":"37.2331538377","long":"126.6236304426","imageIndex":7,"items":[{"name":"비비큐슈퍼","tel":"","addr":"경기도 안산시 단원구 선감동 686번지","indutype":"도매 및 소매업 - 슈퍼마켓","category":"mart"}]},{"lat":"37.193211542","long":"126.6470092","imageIndex":7,"items":[{"name":"선감도슈퍼낚시","tel":"032-886-7831","addr":"경기도 안산시 단원구 선감동 682번지 연번지 101호","indutype":"유통업 영리 - 슈퍼마켓","category":"mart"}]},{"lat":"37.2134285961","long":"126.6462946450","imageIndex":7,"items":[{"name":"우명리테일","tel":"","addr":"경기도 안산시 단원구 선감동 산130번지","indutype":"도매 및 소매업 - 슈퍼마켓","category":"mart"}]},{"lat":"37.2331559648","long":"126.6242952887","imageIndex":7,"items":[{"name":"타운할인마트","tel":"031-882-2032","addr":"경기도 안산시 단원구 선감동 686-2번지","indutype":"도매 및 소매업 - 슈퍼마켓","category":"mart"}]},{"lat":"37.191018125","long":"126.64571304","imageIndex":7,"items":[{"name":"탄도항낚시슈퍼","tel":"032-891-1079","addr":"경기도 안산시 단원구 선감동 717-3번지","indutype":"유통업 영리 - 슈퍼마켓","category":"mart"}]},{"lat":"37.193242259","long":"126.64524079","imageIndex":7,"items":[{"name":"해솔마트","tel":"","addr":"경기도 안산시 단원구 선감동 717-25번지 102호","indutype":"유통업 영리 - 슈퍼마켓","category":"mart"}]},{"lat":"37.23270661","long":"126.62465813","imageIndex":7,"items":[{"name":"홈마트","tel":"070-1111-1111","addr":"경기도 안산시 단원구 선감동 687-20번지","indutype":"유통업 영리 - 슈퍼마켓","category":"mart"}]},{"lat":"37.2331559648","long":"126.6242952887","imageIndex":17,"items":[{"name":"㈜대부도펜션타운","tel":"031-1588-1934","addr":"경기도 안산시 단원구 선감동 686-2번지","indutype":"부동산업 및 임대업 - 펜션중개,전자","category":"other"},{"name":"브니엘타운","tel":"","addr":"경기도 안산시 단원구 선감동 686-2번지","indutype":"부동산업 및 임대업 - 임대","category":"other"}]},{"lat":"37.219511997","long":"126.64378733","imageIndex":17,"items":[{"name":"경기도평생대학","tel":"032-721-6479","addr":"경기도 안산시 단원구 선감동 산120-1번지","indutype":"용역 서비스 - 사무서비스","category":"other"}]},{"lat":"37.201049246","long":"126.64359321","imageIndex":17,"items":[{"name":"그린나래패션","tel":"","addr":"경기도 안산시 단원구 선감동 683번지","indutype":"의류 - 내의판매","category":"other"}]},{"lat":"37.19712906","long":"126.64634879","imageIndex":17,"items":[{"name":"대부도 서바이벌","tel":"","addr":"경기도 안산시 단원구 선감동 산147-15번지","indutype":"레져용품 - 스포츠·레져용품","category":"other"}]},{"lat":"37.1971290599","long":"126.6463487935","imageIndex":17,"items":[{"name":"대부도 서바이벌","tel":"","addr":"경기도 안산시 단원구 선감동 산147-15번지","indutype":"협회 및 단체, 수리 및 기타 개인서","category":"other"}]},{"lat":"37.2049022962","long":"126.6454561257","imageIndex":17,"items":[{"name":"대부수산","tel":"032-885-9955","addr":"경기도 안산시 단원구 선감동 680번지","indutype":"도매 및 소매업 - 수산물","category":"other"}]},{"lat":"37.223568486","long":"126.63268104","imageIndex":17,"items":[{"name":"대부환경","tel":"031-1899-3272","addr":"경기도 안산시 단원구 선감동 576번지","indutype":"용역 서비스 - 기타용역서비스","category":"other"}]},{"lat":"37.2110187200","long":"126.6539890387","imageIndex":17,"items":[{"name":"불도수산","tel":"032-886-3930","addr":"경기도 안산시 단원구 선감동 20번지","indutype":"도매 및 소매업 - 수산물","category":"other"}]},{"lat":"37.2106835159","long":"126.6533709836","imageIndex":17,"items":[{"name":"서산수산","tel":"","addr":"경기도 안산시 단원구 선감동 21번지","indutype":"도매 및 소매업 - 수산물","category":"other"},{"name":"서산수산","tel":"032-886-3751","addr":"경기도 안산시 단원구 선감동 21번지","indutype":"도매 및 소매업 - 수산물","category":"other"}]},{"lat":"37.222403302","long":"126.63756542","imageIndex":17,"items":[{"name":"선감3호","tel":"032-886-6813","addr":"경기도 안산시 단원구 선감동 287-8번지","indutype":"기타 - 기타 전문점","category":"other"}]},{"lat":"37.2053223378","long":"126.6443164177","imageIndex":17,"items":[{"name":"정문규미술관","tel":"032-881-2753","addr":"경기도 안산시 단원구 선감동 680-9번지","indutype":"협회 및 단체, 수리 및 기타 개인서","category":"other"}]},{"lat":"37.205322338","long":"126.64431642","imageIndex":17,"items":[{"name":"정문규미술관","tel":"032-881-2753","addr":"경기도 안산시 단원구 선감동 680-9번지","indutype":"문화.취미 - 티켓","category":"other"}]},{"lat":"37.1943239956","long":"126.6454046292","imageIndex":17,"items":[{"name":"펜션코리아","tel":"","addr":"경기도 안산시 단원구 선감동 717-10번지","indutype":"부동산업 및 임대업 - 펜션예약, 펜","category":"other"}]},{"lat":"37.1934329","long":"126.64571293","imageIndex":17,"items":[{"name":"펜션타운","tel":"032-882-2515","addr":"경기도 안산시 단원구 선감동 717-13번지","indutype":"용역 서비스 - 사무서비스","category":"other"}]},{"lat":"37.231872008","long":"126.62571028","imageIndex":17,"items":[{"name":"펜션파크","tel":"032-889-8823","addr":"경기도 안산시 단원구 선감동 694-8","indutype":"레져용품 - 스포츠·레져용품","category":"other"}]},{"lat":"37.220288781","long":"126.62982402","imageIndex":13,"items":[{"name":"대부선감어촌계영어조합법인","tel":"032-886-6133","addr":"경기도 안산시 단원구 선감동 208-17번지 1층","indutype":"레저업소 - 기타레져업소","category":"leisure"},{"name":"선감체험마을영어조합법인","tel":"032-886-6133","addr":"경기도 안산시 단원구 선감동 208-17번지 1층","indutype":"레저업소 - 기타레져업소","category":"leisure"}]},{"lat":"37.205683769","long":"126.64465265","imageIndex":13,"items":[{"name":"세종도예원","tel":"032-325-6699","addr":"경기도 안산시 단원구 선감동 680-5번지 3층","indutype":"레저업소 - 기타레져업소","category":"leisure"},{"name":"하늘노래연습장","tel":"032-885-4951","addr":"경기도 안산시 단원구 선감동 680-5번지 1층","indutype":"레저업소 - 노 래 방","category":"leisure"}]},{"lat":"37.205684518","long":"126.64490047","imageIndex":13,"items":[{"name":"소리바다노래연습장","tel":"032-882-3117","addr":"경기도 안산시 단원구 선감동 680-4 2층","indutype":"레저업소 - 노 래 방","category":"leisure"}]},{"lat":"37.19274125","long":"126.64642574","imageIndex":13,"items":[{"name":"안산요트아카데미","tel":"031-406-3388","addr":"경기도 안산시 단원구 선감동 산 160-2","indutype":"레저업소 - 기타레져업소","category":"leisure"}]},{"lat":"37.199376518","long":"126.64464866","imageIndex":13,"items":[{"name":"에스(S)노래연습장","tel":"","addr":"경기도 안산시 단원구 선감동 683-81번지","indutype":"레저업소 - 노 래 방","category":"leisure"}]},{"lat":"37.201656749","long":"126.6448519","imageIndex":13,"items":[{"name":"주식회사 대부도캠핑시티","tel":"02-1644-3655","addr":"경기도 안산시 단원구 선감동 683-3번지","indutype":"레저업소 - 기타레져업소","category":"leisure"}]},{"lat":"37.192404953","long":"126.64545873","imageIndex":13,"items":[{"name":"탄도어촌계","tel":"032-885-3745","addr":"경기도 안산시 단원구 선감동 717-2번지","indutype":"레저업소 - 기타레져업소","category":"leisure"}]},{"lat":"37.194323996","long":"126.64540463","imageIndex":13,"items":[{"name":"탄도힐링오토캠핑장","tel":"032-888-0711","addr":"경기도 안산시 단원구 선감동 717-10","indutype":"레저업소 - 기타레져업소","category":"leisure"}]},{"lat":"37.203265085","long":"126.64634246","imageIndex":13,"items":[{"name":"에코 해달별","tel":"031-998-8610","addr":"경기도 안산시 단원구 선감동 산144번지","indutype":"보건위생 - 미용재료","category":"beauty"}]},{"lat":"37.192404953","long":"126.64545873","imageIndex":16,"items":[{"name":"탄도어촌계","tel":"032-885-3745","addr":"경기도 안산시 단원구 선감동 717-2번지","indutype":"학원 - 기타 교육기관","category":"study"}]}]