[{"lat":"37.279377771","long":"126.97865047","imageIndex":16,"items":[{"name":"구운청산학원","tel":"031-292-7793","addr":"경기도 수원시 권선구 서둔동 260-10번지","indutype":"학원 - 보습학원","category":"study"},{"name":"레몬음악학원","tel":"031-295-1778","addr":"경기도 수원시 권선구 서둔동 260-10번지 2층","indutype":"학원 - 예·체능계학원","category":"study"}]},{"lat":"37.266765204","long":"126.99042439","imageIndex":16,"items":[{"name":"나이팅게일어린이집[아이행복]","tel":"031-296-0365","addr":"경기도 수원시 권선구 서둔동 39-30번지","indutype":"학원 - 유아원","category":"study"},{"name":"나이팅게일어린이집[아이행복]","tel":"031-296-0365","addr":"경기도 수원시 권선구 서둔동 39-30번지","indutype":"학원 - 유아원","category":"study"}]},{"lat":"37.278568056","long":"126.98552884","imageIndex":16,"items":[{"name":"농촌진흥청어린이집[아이행복]","tel":"031-299-2925","addr":"경기도 수원시 권선구 서둔동 225-1번지","indutype":"학원 - 유아원","category":"study"},{"name":"수원시 지속가능 도시재단","tel":"031-218-0372","addr":"경기도 수원시 권선구 서둔동 225-1번지 2층","indutype":"학원 - 기타 교육기관","category":"study"}]},{"lat":"37.266566927","long":"126.98995092","imageIndex":16,"items":[{"name":"다라음악전문학원","tel":"031-227-2089","addr":"경기도 수원시 권선구 서둔동 39-42번지 2층","indutype":"학원 - 예·체능계학원","category":"study"}]},{"lat":"37.278873189","long":"126.9786168","imageIndex":16,"items":[{"name":"대성제넥스까치보습학원","tel":"031-294-5877","addr":"경기도 수원시 권선구 서둔동 260-18번지","indutype":"학원 - 기타 교육기관","category":"study"}]},{"lat":"37.269405464","long":"126.9930283","imageIndex":16,"items":[{"name":"대원평생교육원","tel":"031-291-6110","addr":"경기도 수원시 권선구 서둔동 14-3번지 2층 201호","indutype":"학원 - 기타 교육기관","category":"study"}]},{"lat":"37.264098671","long":"126.99706488","imageIndex":16,"items":[{"name":"똑똑블럭 수원역사점","tel":"031-8067-4049","addr":"경기도 수원시 권선구 서둔동 381번지 3층","indutype":"학원 - 기타 교육기관","category":"study"}]},{"lat":"37.266484881","long":"126.98306265","imageIndex":16,"items":[{"name":"부엉이공방","tel":"","addr":"경기도 수원시 권선구 서둔동 103-25번지","indutype":"학원 - 기타 교육기관","category":"study"},{"name":"비엔아이 스포에듀 (BNI SPOEDU)","tel":"070-7756-3231","addr":"경기도 수원시 권선구 서둔동 103-25번지 경기상상캠퍼스 청년 1981동 1층 102호","indutype":"학원 - 기타 교육기관","category":"study"}]},{"lat":"37.278648237","long":"126.98015036","imageIndex":16,"items":[{"name":"사랑어린이집[아이행복]","tel":"031-293-9724","addr":"경기도 수원시 권선구 서둔동 260-90번지","indutype":"학원 - 유아원","category":"study"}]},{"lat":"37.266990584","long":"126.99164193","imageIndex":16,"items":[{"name":"새예일어린이집[아이행복]","tel":"031-291-8406","addr":"경기도 수원시 권선구 서둔동 45-39번지","indutype":"학원 - 유아원","category":"study"}]},{"lat":"37.268045063","long":"126.9950578","imageIndex":16,"items":[{"name":"생각하는영어교습소","tel":"","addr":"경기도 수원시 권선구 서둔동 371번지 센트라우스 상가동 201호","indutype":"학원 - 외국어학원","category":"study"}]},{"lat":"37.270927381","long":"126.98581245","imageIndex":16,"items":[{"name":"서둔주니어보습학원","tel":"031-295-8411","addr":"경기도 수원시 권선구 서둔동 207-18,2층,3층","indutype":"학원 - 보습학원","category":"study"}]},{"lat":"37.268207365","long":"126.99708711","imageIndex":16,"items":[{"name":"서평초등학교","tel":"031-296-6771","addr":"경기도 수원시 권선구 서둔동 294-3번지 서평초등학교","indutype":"학원 - 초중고교육기관","category":"study"},{"name":"서평초등학교_수업료","tel":"031-2966-771","addr":"경기도 수원시 권선구 서둔동 294-3번지 서평초등학교","indutype":"학원 - 초중고교육기관","category":"study"}]},{"lat":"37.266071119","long":"126.98789919","imageIndex":16,"items":[{"name":"서호중학교","tel":"031-293-5207","addr":"경기도 수원시 권선구 서둔동 103-22번지 서호중학교","indutype":"학원 - 초중고교육기관","category":"study"}]},{"lat":"37.265765048","long":"126.99028927","imageIndex":16,"items":[{"name":"서호초등학교","tel":"031-547-3005","addr":"경기도 수원시 권선구 서둔동 39-7번지 서호초등학교","indutype":"학원 - 초중고교육기관","category":"study"}]},{"lat":"37.275125","long":"126.97903519","imageIndex":16,"items":[{"name":"아이앤제이스포츠아카데미","tel":"031-278-1279","addr":"경기도 수원시 권선구 서둔동 240-5번지","indutype":"학원 - 예·체능계학원","category":"study"}]},{"lat":"37.270260224","long":"126.98325333","imageIndex":16,"items":[{"name":"에덴어린이집[아이행복]","tel":"031-294-6311","addr":"경기도 수원시 권선구 서둔동 148-1번지","indutype":"학원 - 유아원","category":"study"}]},{"lat":"37.271070436","long":"126.97934088","imageIndex":16,"items":[{"name":"에벤에셀음악학원","tel":"031-293-5777","addr":"경기도 수원시 권선구 서둔동 171-1번지","indutype":"학원 - 예·체능계학원","category":"study"}]},{"lat":"37.267792248","long":"126.98925173","imageIndex":16,"items":[{"name":"연강학원","tel":"031-296-5665","addr":"경기도 수원시 권선구 서둔동 51-2번지 2층","indutype":"학원 - 보습학원","category":"study"}]},{"lat":"37.266963609","long":"126.99225072","imageIndex":16,"items":[{"name":"예일어린이집[아이행복]","tel":"031-291-8405","addr":"경기도 수원시 권선구 서둔동 17-6번지","indutype":"학원 - 유아원","category":"study"}]},{"lat":"37.266566887","long":"126.98959016","imageIndex":16,"items":[{"name":"용인대 서호태권도장","tel":"031-291-7404","addr":"경기도 수원시 권선구 서둔동 39-37번지","indutype":"학원 - 예·체능계학원","category":"study"}]},{"lat":"37.28104476","long":"126.9790897","imageIndex":16,"items":[{"name":"용인대한호태권도장","tel":"031-292-6541","addr":"경기도 수원시 권선구 서둔동 361-1번지 용인대한태권도장","indutype":"학원 - 예·체능계학원","category":"study"}]},{"lat":"37.266657435","long":"126.99442661","imageIndex":16,"items":[{"name":"이해법수학뮤엠영어플러스학원","tel":"031-293-7905","addr":"경기도 수원시 권선구 서둔동 17-27번지 TOP빌딩 301호","indutype":"학원 - 보습학원","category":"study"},{"name":"이해법수학뮤엠영어플러스학원","tel":"031-293-7905","addr":"경기도 수원시 권선구 서둔동 17-27번지 TOP빌딩 301호","indutype":"학원 - 보습학원","category":"study"}]},{"lat":"37.27459343","long":"126.97921575","imageIndex":16,"items":[{"name":"중앙어린이집[아이행복]","tel":"031-298-6682","addr":"경기도 수원시 권선구 서둔동 377번지 서수원울트라참누리파크 201동 101호","indutype":"학원 - 유아원","category":"study"}]},{"lat":"37.267233658","long":"126.98966896","imageIndex":16,"items":[{"name":"진흥교육아카데미어린이집","tel":"031-291-8605","addr":"경기도 수원시 권선구 서둔동 39-55번지","indutype":"학원 - 유아원","category":"study"},{"name":"포근안어린이집[아이행복]","tel":"031-291-8605","addr":"경기도 수원시 권선구 서둔동 39-55번지","indutype":"학원 - 유아원","category":"study"}]},{"lat":"37.278071344","long":"126.97895533","imageIndex":16,"items":[{"name":"창조역량연구소 (CES)","tel":"031-296-6900","addr":"경기도 수원시 권선구 서둔동 260-48번지","indutype":"학원 - 기타 교육기관","category":"study"}]},{"lat":"37.268576741","long":"126.99621898","imageIndex":16,"items":[{"name":"토마토어린이집[아이행복]","tel":"031-297-7338","addr":"경기도 수원시 권선구 서둔동 371번지 센트라우스 115동 102호","indutype":"학원 - 유아원","category":"study"}]},{"lat":"37.274737915","long":"126.98087314","imageIndex":16,"items":[{"name":"팩토리스포츠","tel":"070-8263-0390","addr":"경기도 수원시 권선구 서둔동 235-2번지 1층","indutype":"학원 - 기타 교육기관","category":"study"}]},{"lat":"37.266630375","long":"126.99403203","imageIndex":16,"items":[{"name":"평동경희대태권도장","tel":"031-292-5162","addr":"경기도 수원시 권선구 서둔동 17-65번지 정안빌딩 4층","indutype":"학원 - 예·체능계학원","category":"study"}]},{"lat":"37.269045212","long":"126.99517044","imageIndex":16,"items":[{"name":"플로라음악학원","tel":"031-293-9443","addr":"경기도 수원시 권선구 서둔동 17-436번지","indutype":"학원 - 예·체능계학원","category":"study"}]},{"lat":"37.26935135","long":"126.9924195","imageIndex":16,"items":[{"name":"현대직업전문학교 주식회사","tel":"031-294-5511","addr":"경기도 수원시 권선구 서둔동 14-17번지 2층","indutype":"학원 - 기능학원","category":"study"}]}]