[{"lat":"36.991995843","long":"127.08847859","imageIndex":13,"items":[{"name":"(주)에스바디워크필라테스(평택역점)","tel":"031-111-1111","addr":"경기도 평택시 평택동 291번지 601호","indutype":"레저업소 - 헬스클럽","category":"leisure"},{"name":"그래 롤러타자","tel":"031-651-0870","addr":"경기도 평택시 평택동 291번지 지층 101호","indutype":"레저업소 - 기타레져업소","category":"leisure"},{"name":"다함께야구왕","tel":"031-692-5400","addr":"경기도 평택시 평택동 291번지 11층 1101호,1102호","indutype":"레저업소 - 기타레져업소","category":"leisure"},{"name":"헬스보이짐","tel":"031-653-4455","addr":"경기도 평택시 평택동 291번지 701호","indutype":"레저업소 - 헬스클럽","category":"leisure"}]},{"lat":"36.992276266","long":"127.08695119","imageIndex":13,"items":[{"name":"0시노래연습장","tel":"031-656-6610","addr":"경기도 평택시 평택동 45-4번지 외 1필지","indutype":"레저업소 - 노 래 방","category":"leisure"}]},{"lat":"36.991715851","long":"127.08938816","imageIndex":13,"items":[{"name":"POPS DVD 영화관","tel":"031-652-0322","addr":"경기도 평택시 평택동 291-6번지 4층","indutype":"레저업소 - 기타레져업소","category":"leisure"}]},{"lat":"36.992662756","long":"127.08831084","imageIndex":13,"items":[{"name":"공때리네당구장","tel":"031-868-6670","addr":"경기도 평택시 평택동 43-5번지","indutype":"레저업소 - 당 구 장","category":"leisure"},{"name":"럭셔리뮤","tel":"070-4143-0350","addr":"경기도 평택시 평택동 43-5번지 2층","indutype":"레저업소 - 노 래 방","category":"leisure"},{"name":"샹떼PC방평택역점","tel":"031-9999-9280","addr":"경기도 평택시 평택동 43-5번지 3층","indutype":"레저업소 - 기타레져업소","category":"leisure"}]},{"lat":"36.99349328","long":"127.08614373","imageIndex":13,"items":[{"name":"국제요가협회남평택지부","tel":"","addr":"경기도 평택시 평택동 63-3번지 2층","indutype":"레저업소 - 헬스클럽","category":"leisure"}]},{"lat":"36.993998209","long":"127.08567247","imageIndex":13,"items":[{"name":"귀빈노래연습장","tel":"031-652-2453","addr":"경기도 평택시 평택동 64-7번지 지하1층","indutype":"레저업소 - 노 래 방","category":"leisure"}]},{"lat":"36.994186653","long":"127.08678479","imageIndex":13,"items":[{"name":"그레이스짐","tel":"031-653-0788","addr":"경기도 평택시 평택동 66-4번지 2층","indutype":"레저업소 - 헬스클럽","category":"leisure"}]},{"lat":"36.991247213","long":"127.08949995","imageIndex":13,"items":[{"name":"금강산음악당구장","tel":"031-611-8381","addr":"경기도 평택시 평택동 293-2번지 남서울프라자 7층","indutype":"레저업소 - 당 구 장","category":"leisure"},{"name":"러브 실내낚시터","tel":"031-651-0507","addr":"경기도 평택시 평택동 293-2번지 지하","indutype":"레저업소 - 기타레져업소","category":"leisure"}]},{"lat":"36.992021887","long":"127.08983783","imageIndex":13,"items":[{"name":"꽁냥꽁냥꽁","tel":"031-207-4200","addr":"경기도 평택시 평택동 292-8번지 3층","indutype":"레저업소 - 기타레져업소","category":"leisure"}]},{"lat":"36.992716536","long":"127.08870406","imageIndex":13,"items":[{"name":"꿈돌이노래연습장","tel":"031-655-2663","addr":"경기도 평택시 평택동 282번지","indutype":"레저업소 - 노 래 방","category":"leisure"}]},{"lat":"36.991410025","long":"127.08864643","imageIndex":13,"items":[{"name":"놀숲 평택로데오점","tel":"031-692-8883","addr":"경기도 평택시 평택동 298-1번지 702호","indutype":"레저업소 - 기타레져업소","category":"leisure"},{"name":"아이팝PC(평택역3호점)","tel":"070-6431-0083","addr":"경기도 평택시 평택동 298-1번지 301, 302","indutype":"레저업소 - 기타레져업소","category":"leisure"}]},{"lat":"36.993129258","long":"127.09111969","imageIndex":13,"items":[{"name":"둥지노래연습장","tel":"031-654-0706","addr":"경기도 평택시 평택동 286-5번지 지하층","indutype":"레저업소 - 노 래 방","category":"leisure"}]},{"lat":"36.992304159","long":"127.0857268","imageIndex":13,"items":[{"name":"디스코팡팡","tel":"031-653-7558","addr":"경기도 평택시 평택동 55-11번지","indutype":"레저업소 - 기타레져업소","category":"leisure"}]},{"lat":"36.991914226","long":"127.08919742","imageIndex":13,"items":[{"name":"라이리포켓볼클럽","tel":"02-1111-1111","addr":"경기도 평택시 평택동 291-4번지 로데오스타 B02호","indutype":"레저업소 - 당 구 장","category":"leisure"},{"name":"제스트짐","tel":"031-691-8872","addr":"경기도 평택시 평택동 291-4번지 402호","indutype":"레저업소 - 헬스클럽","category":"leisure"},{"name":"조커보드게임","tel":"031-651-7959","addr":"경기도 평택시 평택동 291-4번지 701호","indutype":"레저업소 - 기타레져업소","category":"leisure"}]},{"lat":"36.991637013","long":"127.08623157","imageIndex":13,"items":[{"name":"루트 이스케이프","tel":"031-618-5522","addr":"경기도 평택시 평택동 55-7번지","indutype":"레저업소 - 기타레져업소","category":"leisure"}]},{"lat":"36.992743755","long":"127.08844573","imageIndex":13,"items":[{"name":"몬스터당구장","tel":"031-655-9960","addr":"경기도 평택시 평택동 43-4번지 3층","indutype":"레저업소 - 당 구 장","category":"leisure"}]},{"lat":"36.992130458","long":"127.08923136","imageIndex":13,"items":[{"name":"벌떼당구클럽","tel":"031-652-2333","addr":"경기도 평택시 평택동 290-2번지 3층","indutype":"레저업소 - 당 구 장","category":"leisure"},{"name":"앗싸 노래연습장","tel":"031-653-7782","addr":"경기도 평택시 평택동 290-2번지 지하1층","indutype":"레저업소 - 노 래 방","category":"leisure"}]},{"lat":"36.992102942","long":"127.08989409","imageIndex":13,"items":[{"name":"보익스-평택점","tel":"031-691-8223","addr":"경기도 평택시 평택동 292번지 3층","indutype":"레저업소 - 노 래 방","category":"leisure"}]},{"lat":"36.989826699","long":"127.08502768","imageIndex":13,"items":[{"name":"빙고노래연습장","tel":"031-656-0228","addr":"경기도 평택시 평택동 185-27번지","indutype":"레저업소 - 노 래 방","category":"leisure"}]},{"lat":"36.993942234","long":"127.08836843","imageIndex":13,"items":[{"name":"수 당구클럽","tel":"031-111-1111","addr":"경기도 평택시 평택동 35-10번지 3층 303,304호","indutype":"레저업소 - 당 구 장","category":"leisure"}]},{"lat":"36.990942107","long":"127.0877585","imageIndex":13,"items":[{"name":"슈퍼스타코인노래연습장","tel":"","addr":"경기도 평택시 평택동 52-2번지 3층","indutype":"레저업소 - 노 래 방","category":"leisure"}]},{"lat":"36.989121209","long":"127.08877865","imageIndex":13,"items":[{"name":"스타휘트니스(평택점)","tel":"031-655-9797","addr":"경기도 평택시 평택동 316번지 롯데인벤스스카이 101동 220호","indutype":"레저업소 - 헬스클럽","category":"leisure"}]},{"lat":"36.992797714","long":"127.08859182","imageIndex":13,"items":[{"name":"싸이노래연습장","tel":"031-654-6300","addr":"경기도 평택시 평택동 43-1번지","indutype":"레저업소 - 노 래 방","category":"leisure"}]},{"lat":"36.993330661","long":"127.08675015","imageIndex":13,"items":[{"name":"아이비스PC방","tel":"070-4712-6149","addr":"경기도 평택시 평택동 65-23번지 부광빌딩 3층","indutype":"레저업소 - 기타레져업소","category":"leisure"}]},{"lat":"36.99222111","long":"127.08847884","imageIndex":13,"items":[{"name":"아이센스PC","tel":"","addr":"경기도 평택시 평택동 290-4번지 광천빌딩 3층 301호","indutype":"레저업소 - 기타레져업소","category":"leisure"},{"name":"프로방스노래연습장","tel":"031-657-4433","addr":"경기도 평택시 평택동 290-4번지 광천빌딩","indutype":"레저업소 - 노 래 방","category":"leisure"}]},{"lat":"36.992580879","long":"127.08938913","imageIndex":13,"items":[{"name":"아이팝PC (평택역2호점)","tel":"070-4538-5888","addr":"경기도 평택시 평택동 289-2번지 원빌딩 지하1층","indutype":"레저업소 - 기타레져업소","category":"leisure"}]},{"lat":"36.993240116","long":"127.08736788","imageIndex":13,"items":[{"name":"아인당구클럽","tel":"031-611-0056","addr":"경기도 평택시 평택동 37-20번지 5층","indutype":"레저업소 - 당 구 장","category":"leisure"}]},{"lat":"36.991495454","long":"127.0824234","imageIndex":13,"items":[{"name":"애경노래연습장","tel":"","addr":"경기도 평택시 평택동 91-24번지 지하1층","indutype":"레저업소 - 노 래 방","category":"leisure"}]},{"lat":"36.993715775","long":"127.09000826","imageIndex":13,"items":[{"name":"에스비에스당구클럽","tel":"031-656-1955","addr":"경기도 평택시 평택동 32-2번지 2층 202호","indutype":"레저업소 - 당 구 장","category":"leisure"}]},{"lat":"36.99187938","long":"127.08753487","imageIndex":13,"items":[{"name":"와와노래방","tel":"031-655-6554","addr":"경기도 평택시 평택동 46-12번지","indutype":"레저업소 - 노 래 방","category":"leisure"}]},{"lat":"36.98874543","long":"127.08500405","imageIndex":13,"items":[{"name":"원당구클럽","tel":"031-657-3235","addr":"경기도 평택시 평택동 181-2번지 엘림빌딩 3층 301호","indutype":"레저업소 - 당 구 장","category":"leisure"}]},{"lat":"36.991130189","long":"127.08934256","imageIndex":13,"items":[{"name":"원요가앤발레핏라운지","tel":"031-652-6669","addr":"경기도 평택시 평택동 293-3번지 세라빌딩 2층 203호","indutype":"레저업소 - 헬스클럽","category":"leisure"}]},{"lat":"36.992581457","long":"127.08859158","imageIndex":13,"items":[{"name":"이에스씨ESC)방탈출카페","tel":"031-651-6087","addr":"경기도 평택시 평택동 282-2번지 4층","indutype":"레저업소 - 기타레져업소","category":"leisure"},{"name":"이에스씨방탈출카페(평택점)","tel":"031-651-6087","addr":"경기도 평택시 평택동 282-2번지 4층","indutype":"레저업소 - 기타레져업소","category":"leisure"}]},{"lat":"36.991964326","long":"127.0819521","imageIndex":13,"items":[{"name":"인디고 피씨방","tel":"","addr":"경기도 평택시 평택동 86-3번지 2층","indutype":"레저업소 - 기타레져업소","category":"leisure"}]},{"lat":"36.992356392","long":"127.08831049","imageIndex":13,"items":[{"name":"잼놀만화카페","tel":"070-7862-1697","addr":"경기도 평택시 평택동 282-6번지 3층","indutype":"레저업소 - 기타레져업소","category":"leisure"}]},{"lat":"36.992383626","long":"127.08802969","imageIndex":13,"items":[{"name":"제우스당구장","tel":"031-652-0754","addr":"경기도 평택시 평택동 43-8번지","indutype":"레저업소 - 당 구 장","category":"leisure"}]},{"lat":"36.992491472","long":"127.08842298","imageIndex":13,"items":[{"name":"짱구네다락방","tel":"031-111-1111","addr":"경기도 평택시 평택동 282-3번지 3층","indutype":"레저업소 - 기타레져업소","category":"leisure"}]},{"lat":"36.989998759","long":"127.08378102","imageIndex":13,"items":[{"name":"초콜릿PC방","tel":"02-222-2222","addr":"경기도 평택시 평택동 164-17번지 3층","indutype":"레저업소 - 기타레져업소","category":"leisure"}]},{"lat":"36.993579483","long":"127.09153584","imageIndex":13,"items":[{"name":"춤추는노래연습장","tel":"031-653-4131","addr":"경기도 평택시 평택동 285-6번지","indutype":"레저업소 - 노 래 방","category":"leisure"}]},{"lat":"36.990440474","long":"127.08350066","imageIndex":13,"items":[{"name":"큐당구장","tel":"031-655-5825","addr":"경기도 평택시 평택동 169-3번지","indutype":"레저업소 - 당 구 장","category":"leisure"},{"name":"하나노래방","tel":"031-658-1940","addr":"경기도 평택시 평택동 169-3번지","indutype":"레저업소 - 노 래 방","category":"leisure"}]},{"lat":"36.991742432","long":"127.09000601","imageIndex":13,"items":[{"name":"큐당구장 (Q당구장)","tel":"031-656-3040","addr":"경기도 평택시 평택동 292-4번지 3층","indutype":"레저업소 - 당 구 장","category":"leisure"}]},{"lat":"36.991915662","long":"127.08719792","imageIndex":13,"items":[{"name":"타이탄피씨(TITAN PC)","tel":"","addr":"경기도 평택시 평택동 46-4번지 영세빌딩 지하1층","indutype":"레저업소 - 기타레져업소","category":"leisure"}]},{"lat":"36.99304827","long":"127.09097356","imageIndex":13,"items":[{"name":"틴틴노래연습장","tel":"031-656-9378","addr":"경기도 평택시 평택동 286-6번지","indutype":"레저업소 - 노 래 방","category":"leisure"}]},{"lat":"36.991355766","long":"127.08891596","imageIndex":13,"items":[{"name":"파티파티노래연습장","tel":"070-8233-6014","addr":"경기도 평택시 평택동 298-2번지 지하","indutype":"레저업소 - 노 래 방","category":"leisure"}]},{"lat":"36.992383002","long":"127.08889465","imageIndex":13,"items":[{"name":"평택라온요가","tel":"031-652-0010","addr":"경기도 평택시 평택동 290-7번지","indutype":"레저업소 - 헬스클럽","category":"leisure"}]},{"lat":"36.989052328","long":"127.08422932","imageIndex":13,"items":[{"name":"해피당구장","tel":"","addr":"경기도 평택시 평택동 148-1번지","indutype":"레저업소 - 당 구 장","category":"leisure"}]},{"lat":"36.992247253","long":"127.08970329","imageIndex":13,"items":[{"name":"해피로PC 평택역점","tel":"","addr":"경기도 평택시 평택동 289-4번지 5층","indutype":"레저업소 - 기타레져업소","category":"leisure"}]},{"lat":"36.993078083","long":"127.08714304","imageIndex":13,"items":[{"name":"힐링노래연습장","tel":"031-691-3395","addr":"경기도 평택시 평택동 37-21번지","indutype":"레저업소 - 노 래 방","category":"leisure"}]}]