[{"lat":"37.252237928","long":"127.07399491","imageIndex":17,"items":[{"name":"(사)국제요가협회수원영통지부","tel":"031-204-7933","addr":"경기도 수원시 영통구 영통동 998-5번지 센타프라자 705호","indutype":"기타 - 비영리/대상","category":"other"},{"name":"가우세무회계사무소","tel":"031-205-9100","addr":"경기도 수원시 영통구 영통동 998-5번지 센타프라자 2층 209호","indutype":"용역 서비스 - 법률회계서비스(개인)","category":"other"},{"name":"경인세무Group","tel":"031-203-0355","addr":"경기도 수원시 영통구 영통동 998-5번지 센터프라자 7층","indutype":"용역 서비스 - 법률회계서비스(개인)","category":"other"},{"name":"고홍렬세무회계사무소","tel":"031-204-0080","addr":"경기도 수원시 영통구 영통동 998-5번지 센터프라자 402호","indutype":"용역 서비스 - 법률회계서비스(법인)","category":"other"},{"name":"국제요가협회영통지부","tel":"031-273-2013","addr":"경기도 수원시 영통구 영통동 998-5번지 센타프라자 307호","indutype":"회원제형태 - 레져업소","category":"other"},{"name":"기독교서점토브","tel":"031-203-0910","addr":"경기도 수원시 영통구 영통동 998-5번지 410호 409호,410호","indutype":"서적문구 - 전문서적","category":"other"},{"name":"당주수세무회계사무소","tel":"031-206-6200","addr":"경기도 수원시 영통구 영통동 998-5번지 센터프라자 207호","indutype":"용역 서비스 - 법률회계서비스(개인)","category":"other"},{"name":"도그스퀘어 수원점","tel":"031-204-0034","addr":"경기도 수원시 영통구 영통동 998-5번지 센타프라자 1층 111호","indutype":"문화.취미 - 애완동물","category":"other"},{"name":"드림디포 영통점","tel":"031-273-6550","addr":"경기도 수원시 영통구 영통동 998-5번지 센타프라자 201호 센터프라자엠","indutype":"사무통신 - 기타 사무용품","category":"other"},{"name":"미니골드영통점","tel":"031-206-6043","addr":"경기도 수원시 영통구 영통동 998-5번지 센터프라자 108호","indutype":"신변잡화 - 액세서리","category":"other"},{"name":"미니스톱 영통센타점","tel":"031-1577-9621","addr":"경기도 수원시 영통구 영통동 998-5번지 센타프라자 108호","indutype":"유통업 영리 - 편 의 점","category":"other"},{"name":"세무사김용연사무소","tel":"031-205-9100","addr":"경기도 수원시 영통구 영통동 998-5번지 센터프라자 2층 208호","indutype":"용역 서비스 - 법률회계서비스(개인)","category":"other"},{"name":"세무사이성호사무소","tel":"031-204-0084","addr":"경기도 수원시 영통구 영통동 998-5번지 센터프라자 403호","indutype":"용역 서비스 - 법률회계서비스(개인)","category":"other"},{"name":"수원영통모임센터","tel":"031-304-0907","addr":"경기도 수원시 영통구 영통동 998-5번지 센타프라자 808호","indutype":"용역 서비스 - 사무서비스","category":"other"},{"name":"수인아트홀","tel":"031-273-7230","addr":"경기도 수원시 영통구 영통동 998-5번지 센타프라자 704호","indutype":"용역 서비스 - 사무서비스","category":"other"},{"name":"수정보통신","tel":"031-204-0302","addr":"경기도 수원시 영통구 영통동 998-5번지 센터프라자 110호","indutype":"사무통신 - 통신기기","category":"other"},{"name":"아모레카운셀러","tel":"031-206-6141","addr":"경기도 수원시 영통구 영통동 998-5번지 센터프라자 503호","indutype":"회원제형태 - 기타4","category":"other"},{"name":"애띠애","tel":"031-206-8262","addr":"경기도 수원시 영통구 영통동 998-5번지 센타프라자 302호","indutype":"회원제형태 - 기타4","category":"other"},{"name":"어썸","tel":"031-273-7280","addr":"경기도 수원시 영통구 영통동 998-5번지 센타프라자 105호 센터프라자","indutype":"의류 - 정장","category":"other"},{"name":"이현동세무회계사무소","tel":"031-206-1414","addr":"경기도 수원시 영통구 영통동 998-5번지 센터프라자 308호","indutype":"용역 서비스 - 법률회계서비스(개인)","category":"other"},{"name":"정진성세무회계사무소","tel":"031-206-9494","addr":"경기도 수원시 영통구 영통동 998-5번지 센터프라자 403호","indutype":"용역 서비스 - 법률회계서비스(개인)","category":"other"}]},{"lat":"37.245046315","long":"127.05988864","imageIndex":17,"items":[{"name":"(주) 바이오나인","tel":"031-274-9614","addr":"경기도 수원시 영통구 영통동 980-3번지 디지털엠파이어 1층 187호","indutype":"서적문구 - 과학기자재","category":"other"},{"name":"(주)모아시스","tel":"031-303-4989","addr":"경기도 수원시 영통구 영통동 980-3번지 디지털엠파이어빌딩 136호","indutype":"의류 - 정장","category":"other"},{"name":"김영주골프수원영통점","tel":"031-303-5989","addr":"경기도 수원시 영통구 영통동 980-3번지","indutype":"레져용품 - 스포츠·레져용품","category":"other"},{"name":"꽃화성flower","tel":"031-303-8650","addr":"경기도 수원시 영통구 영통동 980-3번지 디지털엠파이어빌딩 2층 230호","indutype":"문화.취미 - 화원","category":"other"},{"name":"내추럴포인트","tel":"031-000-0000","addr":"경기도 수원시 영통구 영통동 980-3번지 디지털엠파이어빌딩 154호","indutype":"신변잡화 - 기타잡화","category":"other"},{"name":"도이터 영통점","tel":"031-204-3832","addr":"경기도 수원시 영통구 영통동 980-3번지 영통디지털엠파이어F동180,181호","indutype":"레져용품 - 스포츠·레져용품","category":"other"},{"name":"드림오피스","tel":"031-303-2800","addr":"경기도 수원시 영통구 영통동 980-3번지 디아뜨갤러리 상가 2층 51호","indutype":"서적문구 - 문구용품","category":"other"},{"name":"디원탑(donetop)","tel":"031-273-7714","addr":"경기도 수원시 영통구 영통동 980-3번지 디지털엠파이어빌딩 1층 174호","indutype":"용역 서비스 - 사무서비스","category":"other"},{"name":"모던스토리","tel":"031-204-6237","addr":"경기도 수원시 영통구 영통동 980-3번지 디지털엠파이어빌딩 C동 B2층 202호","indutype":"광학제품 - 사진관","category":"other"},{"name":"씨유디지털엠파이어１호점","tel":"031-204-0870","addr":"경기도 수원시 영통구 영통동 980-3번지 디지털엠파이어빌딩 2층 226호","indutype":"유통업 영리 - 편 의 점","category":"other"},{"name":"엠파이어수선점","tel":"031-303-5959","addr":"경기도 수원시 영통구 영통동 980-3번지 디아뜨갤러리 1층 196호","indutype":"수리서비스 - 세탁소","category":"other"},{"name":"예지상설","tel":"031-273-2788","addr":"경기도 수원시 영통구 영통동 980-3번지 디아뜨갤러리 1동 16호","indutype":"레져용품 - 스포츠·레져용품","category":"other"},{"name":"옥스패션","tel":"031-303-5718","addr":"경기도 수원시 영통구 영통동 980-3번지 디지털엠파이어빌딩 1층 137호","indutype":"의류 - 정장","category":"other"},{"name":"주식회사 비에스에너지","tel":"070-4408-8146","addr":"경기도 수원시 영통구 영통동 980-3번지 디지털엠파이어빌딩 603호","indutype":"직물 - 옷감·직물","category":"other"},{"name":"주식회사 코스모젠","tel":"031-203-3134","addr":"경기도 수원시 영통구 영통동 980-3번지 디지털엠파이어빌딩 6층 604호","indutype":"문화.취미 - 화원","category":"other"},{"name":"주식회사 태라스포츠","tel":"031-204-0102","addr":"경기도 수원시 영통구 영통동 980-3번지 디지털엠파이어빌딩 125호,127호","indutype":"레져용품 - 스포츠·레져용품","category":"other"},{"name":"크린토피아 코인워시 수원망포역점","tel":"031-206-8800","addr":"경기도 수원시 영통구 영통동 980-3번지 디지털엠파이어빌딩 1층 105호","indutype":"수리서비스 - 세탁소","category":"other"},{"name":"타임닉스","tel":"031-303-4500","addr":"경기도 수원시 영통구 영통동 980-3번지 영통디지털엠파이어제9층 E-905호","indutype":"전기제품 - 기타전기제품","category":"other"}]},{"lat":"37.244991866","long":"127.06068881","imageIndex":17,"items":[{"name":"(주)골드폼","tel":"031-304-3737","addr":"경기도 수원시 영통구 영통동 980-3번지 디지털엠파이어빌딩 F동 12층 1203호","indutype":"건축자재 - 기타건축자재","category":"other"},{"name":"(주)대성이엔지","tel":"031-273-0015","addr":"경기도 수원시 영통구 영통동 980-3번지 디지털엠파이어빌딩 F동 183호","indutype":"용역 서비스 - 기타용역서비스","category":"other"},{"name":"CRS컴퓨터 엠파이어점","tel":"031-206-1001","addr":"경기도 수원시 영통구 영통동 980-3번지 디지털엠파이어빌딩 F동 241호","indutype":"사무통신 - 컴퓨터","category":"other"},{"name":"MK기획","tel":"031-273-3990","addr":"경기도 수원시 영통구 영통동 980-3번지 디지털엠파이어빌딩 F동 247호","indutype":"서적문구 - 문구용품","category":"other"},{"name":"건강해GYM","tel":"031-303-8264","addr":"경기도 수원시 영통구 영통동 980-3번지 디지털엠파이어빌딩 F동 3층","indutype":"회원제형태 - 레져업소","category":"other"},{"name":"그린조경","tel":"","addr":"경기도 수원시 영통구 영통동 980-3번지 디지털엠파이어빌딩 F동 2층 241호","indutype":"건축자재 - 인테리어전문","category":"other"},{"name":"기현씨엔씨","tel":"031-204-1742","addr":"경기도 수원시 영통구 영통동 980-3번지 디지털엠파이어빌딩 F동 1106호","indutype":"서적문구 - 과학기자재","category":"other"},{"name":"애드파크","tel":"031-303-8181","addr":"경기도 수원시 영통구 영통동 980-3번지 영통디지털엠파이어빌딩 F동 245호","indutype":"서적문구 - 출판 및 인쇄물","category":"other"},{"name":"엔에스이텍","tel":"031-202-6448","addr":"경기도 수원시 영통구 영통동 980-3번지 디지털엠파이어빌딩 F동 1306호","indutype":"기타 - 기계공구","category":"other"},{"name":"엠파이어공인중개사사무소","tel":"031-303-2700","addr":"경기도 수원시 영통구 영통동 980-3번지 디지털엠파이어빌딩 F동 240호","indutype":"용역 서비스 - 부동산 중개·임대","category":"other"},{"name":"주식회사 엠에스텍","tel":"031-273-6715","addr":"경기도 수원시 영통구 영통동 980-3번지 디지털엠파이어빌딩 F동 176호","indutype":"전기제품 - 기타전기제품","category":"other"},{"name":"피톤치드35","tel":"031-212-4799","addr":"경기도 수원시 영통구 영통동 980-3번지 디지털엠파이어빌딩 F동 715호","indutype":"신변잡화 - 기타잡화","category":"other"}]},{"lat":"37.252571126","long":"127.07429956","imageIndex":17,"items":[{"name":"(주)공칠콜라영통","tel":"031-0000-0000","addr":"경기도 수원시 영통구 영통동 998-4번지 e-폴리스 111호","indutype":"의류 - 정장","category":"other"},{"name":"(주)와이케이동그라미 수원지점","tel":"031-206-3588","addr":"경기도 수원시 영통구 영통동 998-4번지 E-폴리스 6층 601-604호","indutype":"기타의료기관 - 산후조리원","category":"other"},{"name":"동대문보다싸고이쁜옷집","tel":"031-202-8896","addr":"경기도 수원시 영통구 영통동 998-4번지 e-폴리스 1층 112,112-1호","indutype":"의류 - 정장","category":"other"},{"name":"쁘띠비즈센터","tel":"031-314-3522","addr":"경기도 수원시 영통구 영통동 998-4번지 이폴리스빌딩 511호","indutype":"건축자재 - 부동산 분양","category":"other"},{"name":"산타마리아 (Santa Maria)","tel":"","addr":"경기도 수원시 영통구 영통동 998-4번지 6층 606-1호","indutype":"용역 서비스 - 소프트웨어","category":"other"},{"name":"아이리텍 영통아이폰수리센타","tel":"031-202-3777","addr":"경기도 수원시 영통구 영통동 998-4번지 E-폴리스 1층 114호","indutype":"수리서비스 - 사무·통신기기수리","category":"other"},{"name":"어린왕자","tel":"031-273-0428","addr":"경기도 수원시 영통구 영통동 998-4번지 E폴리스 1층 109호","indutype":"의류 - 정장","category":"other"},{"name":"유텍쥬얼리","tel":"031-204-4458","addr":"경기도 수원시 영통구 영통동 998-4번지 이폴리스 107호","indutype":"신변잡화 - 시계","category":"other"},{"name":"종로보석 수원영통점","tel":"031-205-1077","addr":"경기도 수원시 영통구 영통동 998-4번지 E-폴리스 113호","indutype":"신변잡화 - 귀금속","category":"other"},{"name":"주식회사 페이펄문구센터영통점","tel":"031-206-7021","addr":"경기도 수원시 영통구 영통동 998-4번지 지하 B동 101호","indutype":"서적문구 - 문구용품","category":"other"}]},{"lat":"37.248351462","long":"127.07886037","imageIndex":17,"items":[{"name":"(주)나노튠/원격지","tel":"031-202-1696","addr":"경기도 수원시 영통구 영통동 1021-4번지 청명타운텔 209호","indutype":"기타 - 기타 전문점","category":"other"},{"name":"(주)레드마우스","tel":"031-202-1558","addr":"경기도 수원시 영통구 영통동 1021-4번지 청명타운텔 703호","indutype":"용역 서비스 - 소프트웨어","category":"other"},{"name":"(주)미디어에버","tel":"031-202-3364","addr":"경기도 수원시 영통구 영통동 1021-4번지 청명타운텔 203호","indutype":"전기제품 - 가전제품","category":"other"},{"name":"그린마크로","tel":"031-202-1646","addr":"경기도 수원시 영통구 영통동 1021-4 502-2호","indutype":"서적문구 - 과학기자재","category":"other"},{"name":"나노앤그린","tel":"031-8183-7312","addr":"경기도 수원시 영통구 영통동 1021-4번지 청명타운텔 709호","indutype":"전기제품 - 기타전기제품","category":"other"},{"name":"다함건축사사무소","tel":"031-202-8050","addr":"경기도 수원시 영통구 영통동 1021-4번지 청명타운텔 609호","indutype":"용역 서비스 - 사무서비스","category":"other"},{"name":"드림인국제특허법률사무소","tel":"031-267-3393","addr":"경기도 수원시 영통구 영통동 1021-4 202호~203호","indutype":"용역 서비스 - 법률회계서비스(개인)","category":"other"},{"name":"머스트컴퍼니","tel":"070-8831-1904","addr":"경기도 수원시 영통구 영통동 1021-4번지 영통 청명타운텔 7층 702호","indutype":"용역 서비스 - 종합용역","category":"other"},{"name":"소프트로직(주)","tel":"031-205-9413","addr":"경기도 수원시 영통구 영통동 1021-4번지 청명타운텔 502호","indutype":"기타 - 기타 전문점","category":"other"},{"name":"신나는퍼즐북","tel":"031-204-9424","addr":"경기도 수원시 영통구 영통동 1021-4번지","indutype":"서적문구 - 기타서적문구","category":"other"},{"name":"아이엔텍","tel":"031-204-4220","addr":"경기도 수원시 영통구 영통동 1021-4번지 청명타운텔 607호","indutype":"전기제품 - 기타전기제품","category":"other"},{"name":"아이엔텍/원격지","tel":"031-204-4221","addr":"경기도 수원시 영통구 영통동 1021-4번지 청명타운텔 607호","indutype":"기타 - 기타 전문점","category":"other"},{"name":"지티에스씨(G.T.S.C)","tel":"","addr":"경기도 수원시 영통구 영통동 1021-4번지 청명타운텔 609호","indutype":"용역 서비스 - 정보서비스","category":"other"}]},{"lat":"37.254408805","long":"127.07500016","imageIndex":17,"items":[{"name":"(주)남곡건축사사무소","tel":"031-204-1700","addr":"경기도 수원시 영통구 영통동 996-4번지 보보스프라자 713호","indutype":"용역 서비스 - 사무서비스","category":"other"},{"name":"(주)더존이앤씨","tel":"031-273-6666","addr":"경기도 수원시 영통구 영통동 996-4번지 보보스프라자 711호","indutype":"건축자재 - 부동산 분양","category":"other"},{"name":"(주)라온에스디","tel":"070-4617-0500","addr":"경기도 수원시 영통구 영통동 996-4번지 보보스프라자 712호","indutype":"전기제품 - 가전제품","category":"other"},{"name":"(주)에코웨이","tel":"031-707-1991","addr":"경기도 수원시 영통구 영통동 996-4번지 보보스프라자 221호","indutype":"건축자재 - 건축용 요업제품","category":"other"},{"name":"MR.DOG","tel":"031-205-9111","addr":"경기도 수원시 영통구 영통동 996-4번지 보보스프라자 209호","indutype":"문화.취미 - 애완동물","category":"other"},{"name":"강병진세무회계사무소","tel":"031-203-3565","addr":"경기도 수원시 영통구 영통동 996-4번지 보보스프라자 제 6층 605호","indutype":"용역 서비스 - 법률회계서비스(개인)","category":"other"},{"name":"금단비가","tel":"031-206-2152","addr":"경기도 수원시 영통구 영통동 996-4번지 보보스프라자 303호","indutype":"회원제형태 - 기타4","category":"other"},{"name":"나우원데브랩","tel":"","addr":"경기도 수원시 영통구 영통동 996-4번지 보보스프라자 7층 710-50호","indutype":"용역 서비스 - 소프트웨어","category":"other"},{"name":"노옥자스킨케어","tel":"031-202-6760","addr":"경기도 수원시 영통구 영통동 996-4번지 보보스프라자 6층 607호","indutype":"회원제형태 - 기타4","category":"other"},{"name":"드림에듀","tel":"","addr":"경기도 수원시 영통구 영통동 996-4번지 7층 710-46호","indutype":"서적문구 - 일반서적","category":"other"},{"name":"럭스빌수원점","tel":"031-203-1689","addr":"경기도 수원시 영통구 영통동 996-4번지 보보스프라자 1층 123호","indutype":"신변잡화 - 신발","category":"other"},{"name":"르하임스터디카페 수원영통점","tel":"031-8019-8338","addr":"경기도 수원시 영통구 영통동 996-4번지 보보스프라자 513동 514호","indutype":"용역 서비스 - 사무서비스","category":"other"},{"name":"바른결법률사무소","tel":"031-8004-0679","addr":"경기도 수원시 영통구 영통동 996-4번지 709-27호","indutype":"용역 서비스 - 법률회계서비스(개인)","category":"other"},{"name":"수피부관리실","tel":"031-206-7666","addr":"경기도 수원시 영통구 영통동 996-4번지 보보스프라자 310호,311호","indutype":"회원제형태 - 기타4","category":"other"},{"name":"스토리백","tel":"070-4641-1244","addr":"경기도 수원시 영통구 영통동 996-4번지 보보스프라자 7층 710-31호","indutype":"용역 서비스 - 종합용역","category":"other"},{"name":"씨유영통보보스점","tel":"031-204-1355","addr":"경기도 수원시 영통구 영통동 996-4번지 보보스프라자 108호","indutype":"유통업 영리 - 편 의 점","category":"other"},{"name":"안마의자안마기코디샵모아모아","tel":"031-202-8293","addr":"경기도 수원시 영통구 영통동 996-4번지 보보스프라자 203호","indutype":"레져용품 - 스포츠·레져용품","category":"other"},{"name":"에이블테크놀로지","tel":"","addr":"경기도 수원시 영통구 영통동 996-4번지 보보스프라자 7층 710-18호","indutype":"용역 서비스 - 종합용역","category":"other"},{"name":"에이치","tel":"031-226-0303","addr":"경기도 수원시 영통구 영통동 996-4번지","indutype":"사무통신 - 통신기기","category":"other"},{"name":"영웅폰","tel":"031-206-6001","addr":"경기도 수원시 영통구 영통동 996-4번지 보보스프라자 110호","indutype":"사무통신 - 통신기기","category":"other"},{"name":"유원세무회계사무소","tel":"031-203-1263","addr":"경기도 수원시 영통구 영통동 996-4번지 보보스프라자 217호","indutype":"용역 서비스 - 법률회계서비스(개인)","category":"other"},{"name":"이창주 세무회계 사무소","tel":"031-8081-5080","addr":"경기도 수원시 영통구 영통동 996-4번지 보보스프라자 605호","indutype":"용역 서비스 - 법률회계서비스(개인)","category":"other"},{"name":"일오삼법무사김종화사무소","tel":"031-202-1531","addr":"경기도 수원시 영통구 영통동 996-4번지 보보스프라자 703호","indutype":"용역 서비스 - 법률회계서비스(개인)","category":"other"},{"name":"제이컴퍼니(J COMPANY)","tel":"031-0000-0000","addr":"경기도 수원시 영통구 영통동 996-4번지 보보스프라자 710-49호","indutype":"용역 서비스 - 종합용역","category":"other"},{"name":"주식회사 산타투어(SANTA TOUR CO, LTD)","tel":"031-205-0008","addr":"경기도 수원시 영통구 영통동 996-4번지 보보스프라자 314호","indutype":"여행 - 관광여행","category":"other"},{"name":"주식회사 플레이스인","tel":"031-8001-5270","addr":"경기도 수원시 영통구 영통동 996-4번지 보보스프라자 306호","indutype":"용역 서비스 - 사무서비스","category":"other"},{"name":"주짓수(KOREA BJJ ACADEMY)","tel":"031-7754-4209","addr":"경기도 수원시 영통구 영통동 996-4번지 보보스프라자 315호","indutype":"회원제형태 - 레져업소","category":"other"},{"name":"지코어주식회사","tel":"031-205-6627","addr":"경기도 수원시 영통구 영통동 996-4번지 보보스프라자 219호","indutype":"레져용품 - 골프용품 전문점","category":"other"},{"name":"코오롱스포츠 영통점","tel":"031-203-1891","addr":"경기도 수원시 영통구 영통동 996-4번지 보보스프라자 1층 109호","indutype":"레져용품 - 스포츠·레져용품","category":"other"},{"name":"트렌드모바일","tel":"031-203-8950","addr":"경기도 수원시 영통구 영통동 996-4번지 보보스프라자 112호","indutype":"사무통신 - 통신기기","category":"other"},{"name":"티에스세무그룹","tel":"031-202-0208","addr":"경기도 수원시 영통구 영통동 996-4번지 보보스프라자 301동 302호","indutype":"용역 서비스 - 법률회계서비스(개인)","category":"other"}]},{"lat":"37.24827083","long":"127.07813894","imageIndex":17,"items":[{"name":"(주)더준","tel":"070-7777-2450","addr":"경기도 수원시 영통구 영통동 1021-7번지 이레빌딩 5층","indutype":"서적문구 - 기타서적문구","category":"other"},{"name":"GS25영통학사점","tel":"","addr":"경기도 수원시 영통구 영통동 1021-7번지 이레빌딩 1층","indutype":"유통업 영리 - 편 의 점","category":"other"},{"name":"네오임팩/원격지","tel":"031-204-3447","addr":"경기도 수원시 영통구 영통동 1021-7번지 이레빌딩 6층","indutype":"기타 - 기타 전문점","category":"other"},{"name":"브라우니","tel":"","addr":"경기도 수원시 영통구 영통동 1021-7번지 이레빌딩 3층","indutype":"광학제품 - 사진관","category":"other"}]},{"lat":"37.252876902","long":"127.07524668","imageIndex":17,"items":[{"name":"(주)도리통신","tel":"031-206-9982","addr":"경기도 수원시 영통구 영통동 998-8번지 1층 104-1호","indutype":"사무통신 - 통신기기","category":"other"},{"name":"(주)스마일정보통신","tel":"031-202-9010","addr":"경기도 수원시 영통구 영통동 998-8번지 키라레스토아빌딩 103호","indutype":"사무통신 - 통신기기","category":"other"},{"name":"(주)스마일정보통신_PS","tel":"031-0-0000","addr":"경기도 수원시 영통구 영통동 998-8번지 키라에스토아빌딩 103호","indutype":"사무통신 - 통신기기","category":"other"},{"name":"베이프로전자담배","tel":"031-205-2262","addr":"경기도 수원시 영통구 영통동 998-8번지 키라레스토아 1층 103호","indutype":"기타 - 기타 전문점","category":"other"},{"name":"스마일정보통신/LG할부","tel":"031-233-7017","addr":"경기도 수원시 영통구 영통동 998-8번지 키라레스토아빌딩 103호","indutype":"사무통신 - 통신기기(무이자할부)","category":"other"},{"name":"실버스토리","tel":"031-203-0803","addr":"경기도 수원시 영통구 영통동 998-8 키라레스토아빌딩1층105-2호","indutype":"신변잡화 - 액세서리","category":"other"},{"name":"어쿠스틱마트 수원점","tel":"031-204-1530","addr":"경기도 수원시 영통구 영통동 998-8번지 키라레스토아 4층 406호","indutype":"레져용품 - 악기점","category":"other"}]},{"lat":"37.255850672","long":"127.07464082","imageIndex":17,"items":[{"name":"(주)라온투어","tel":"031-242-2622","addr":"경기도 수원시 영통구 영통동 958-1번지 드림피아빌딩 133호","indutype":"여행 - 관광여행","category":"other"},{"name":"GreenFlower","tel":"031-202-4570","addr":"경기도 수원시 영통구 영통동 958-1번지 드림피아빌딩 128호","indutype":"문화.취미 - 화원","category":"other"},{"name":"법무사윤강호사무소","tel":"031-206-8366","addr":"경기도 수원시 영통구 영통동 958-1번지 드림피아 101호","indutype":"용역 서비스 - 법률회계서비스(개인)","category":"other"},{"name":"벽창호I&C","tel":"031-206-6611","addr":"경기도 수원시 영통구 영통동 958-1번지 드림피아빌딩 121호","indutype":"건축자재 - 인테리어전문","category":"other"},{"name":"세종기획","tel":"031-202-6790","addr":"경기도 수원시 영통구 영통동 958-1번지 드림피아빌딩 111호","indutype":"용역 서비스 - 종합용역","category":"other"},{"name":"쉐마","tel":"070-8822-0390","addr":"경기도 수원시 영통구 영통동 958-1번지 드림피아빌딩 129호","indutype":"의류 - 정장","category":"other"},{"name":"이마트24 영통점","tel":"","addr":"경기도 수원시 영통구 영통동 958-1번지 드림피아빌딩 113호","indutype":"유통업 영리 - 편 의 점","category":"other"},{"name":"이마트24 영통점","tel":"","addr":"경기도 수원시 영통구 영통동 958-1번지 드림피아 113호","indutype":"유통업 영리 - 편 의 점","category":"other"},{"name":"지음세무회계컨설팅","tel":"031-216-3727","addr":"경기도 수원시 영통구 영통동 958-1번지 드림피아빌딩 2층 201호","indutype":"용역 서비스 - 법률회계서비스(개인)","category":"other"},{"name":"플랜트 스터디카페","tel":"","addr":"경기도 수원시 영통구 영통동 958-1번지 드림피아빌딩 207호","indutype":"용역 서비스 - 사무서비스","category":"other"}]},{"lat":"37.2453613","long":"127.06066655","imageIndex":17,"items":[{"name":"(주)메트로써키트/원격지","tel":"031-214-1289","addr":"경기도 수원시 영통구 영통동 980-3번지 디지털엠파이어빌딩 E동 502호","indutype":"기타 - 기타 전문점","category":"other"},{"name":"(주)본에어코리아","tel":"031-273-0003","addr":"경기도 수원시 영통구 영통동 980-3번지 디지털엠파이어빌딩 E동 209호","indutype":"여행 - 관광여행","category":"other"},{"name":"빌킹아트홀","tel":"031-303-4900","addr":"경기도 수원시 영통구 영통동 980-3번지 디지털엠파이어빌딩 E동 303호","indutype":"레져용품 - 스포츠·레져용품","category":"other"},{"name":"빌킹코리아","tel":"031-303-4900","addr":"경기도 수원시 영통구 영통동 980-3번지 디지털엠파이어빌딩 E동 305호","indutype":"레져용품 - 스포츠·레져용품","category":"other"},{"name":"아이더영통점","tel":"031-204-0203","addr":"경기도 수원시 영통구 영통동 980-3번지 디지털엠파이어 E동 122호,123호","indutype":"의류 - 스포츠의류","category":"other"},{"name":"아이모바일 망포점","tel":"031-205-8733","addr":"경기도 수원시 영통구 영통동 980-3번지 디지털엠파이어빌딩 E동 119호","indutype":"사무통신 - 통신기기","category":"other"},{"name":"주식회사 리틀아카데미","tel":"031-252-8001","addr":"경기도 수원시 영통구 영통동 980-3번지 디지털엠파이어빌딩 E동 605호","indutype":"서적문구 - 기타서적문구","category":"other"}]},{"lat":"37.247911121","long":"127.07702275","imageIndex":17,"items":[{"name":"(주)바구니","tel":"031-8025-7676","addr":"경기도 수원시 영통구 영통동 1024-7번지 영통빌딩 7층","indutype":"신변잡화 - 기타잡화","category":"other"},{"name":"유비스","tel":"031-206-1237","addr":"경기도 수원시 영통구 영통동 1024-7번지 영통빌딩 107호","indutype":"사무통신 - 통신기기","category":"other"},{"name":"화목한가정","tel":"070-4282-6767","addr":"경기도 수원시 영통구 영통동 1024-7번지 영통빌딩 303호","indutype":"건축자재 - 기타건축자재","category":"other"}]},{"lat":"37.245262903","long":"127.05917876","imageIndex":17,"items":[{"name":"(주)바이오맥","tel":"031-206-2363","addr":"경기도 수원시 영통구 영통동 980-3번지 디지털엠파이어빌딩 A동 1303호","indutype":"농업 - 비료,사료,종자","category":"other"},{"name":"노무법인 예일","tel":"031-205-8915","addr":"경기도 수원시 영통구 영통동 980-3번지 디지털엠파이어빌딩 A동 152호","indutype":"용역 서비스 - 법률회계서비스(법인)","category":"other"},{"name":"다올","tel":"","addr":"경기도 수원시 영통구 영통동 980-3번지 디지털엠파이어빌딩 A동 301호","indutype":"서적문구 - 출판 및 인쇄물","category":"other"},{"name":"디케이아이엔씨(DK I. N.C)","tel":"031-303-5455","addr":"경기도 수원시 영통구 영통동 980-3번지 디지털엠파이어빌딩 A동 148호","indutype":"전기제품 - 기타전기제품","category":"other"},{"name":"청우씨스템","tel":"031-303-5420","addr":"경기도 수원시 영통구 영통동 980-3번지 디지털엠파이어빌딩 A동 907호","indutype":"기타 - 기타 전문점","category":"other"}]},{"lat":"37.254463837","long":"127.07338831","imageIndex":17,"items":[{"name":"(주)삼성시온산후조리원","tel":"031-201-0690","addr":"경기도 수원시 영통구 영통동 959-1번지 모던타운 8층","indutype":"기타의료기관 - 산후조리원","category":"other"},{"name":"(주)시온산후조리원","tel":"031-206-7500","addr":"경기도 수원시 영통구 영통동 959-1번지 8층","indutype":"기타의료기관 - 산후조리원","category":"other"},{"name":"배성주한옷","tel":"031-206-3993","addr":"경기도 수원시 영통구 영통동 959-1번지 모던타운 1층","indutype":"의류 - 맞춤복점","category":"other"},{"name":"성원광고기획","tel":"031-204-9594","addr":"경기도 수원시 영통구 영통동 959-1번지 모던타운 103호","indutype":"용역 서비스 - 종합용역","category":"other"},{"name":"수원알파","tel":"031-205-3033","addr":"경기도 수원시 영통구 영통동 959-1번지 모던타운 104호","indutype":"레져용품 - 스포츠·레져용품","category":"other"},{"name":"스터디센터 영통","tel":"031-203-5300","addr":"경기도 수원시 영통구 영통동 959-1번지 모던타운 101호 일부","indutype":"용역 서비스 - 사무서비스","category":"other"},{"name":"점프셈장안영통본부","tel":"031-206-5030","addr":"경기도 수원시 영통구 영통동 959-1번지 모던타운 5층 504호","indutype":"회원제형태 - 서적","category":"other"},{"name":"하우스터디 영통센터 모임공간","tel":"031-273-9053","addr":"경기도 수원시 영통구 영통동 959-1번지 수원영통모던타운 4층 405A호","indutype":"용역 서비스 - 사무서비스","category":"other"},{"name":"향기나는꽃집","tel":"031-204-9150","addr":"경기도 수원시 영통구 영통동 959-1번지 모던타운 220호","indutype":"문화.취미 - 화원","category":"other"}]},{"lat":"37.252236294","long":"127.07666629","imageIndex":17,"items":[{"name":"(주)샤론산후조리원","tel":"031-204-9700","addr":"경기도 수원시 영통구 영통동 1011-5번지 테라스가든빌딩 6층","indutype":"기타의료기관 - 산후조리원","category":"other"},{"name":"제임스의 사진공작소","tel":"031-233-4558","addr":"경기도 수원시 영통구 영통동 1011-5번지 영통테라스가든상가 201~203,215호","indutype":"광학제품 - 사진관","category":"other"}]},{"lat":"37.247909957","long":"127.07885992","imageIndex":17,"items":[{"name":"(주)세진렌트카","tel":"031-262-7000","addr":"경기도 수원시 영통구 영통동 1024-16번지 일번지빌딩 403호","indutype":"여행 - 렌터카","category":"other"}]},{"lat":"37.244947153","long":"127.05999","imageIndex":17,"items":[{"name":"(주)솔트린","tel":"031-205-7878","addr":"경기도 수원시 영통구 영통동 980-3번지 디지털엠파이어빌딩 D동 165호","indutype":"전기제품 - 기타전기제품","category":"other"},{"name":"뉴센트주식회사","tel":"031-303-5730","addr":"경기도 수원시 영통구 영통동 980-3엠파이어빌딩D동1004호.1005호","indutype":"기타 - 기타 전문점","category":"other"},{"name":"대영인판사","tel":"031-255-5316","addr":"경기도 수원시 영통구 영통동 980-3번지 디지털엠파이어빌딩 D동 163호","indutype":"서적문구 - 출판 및 인쇄물","category":"other"}]},{"lat":"37.250877087","long":"127.07446703","imageIndex":17,"items":[{"name":"(주)아우스디지","tel":"031-548-2617","addr":"경기도 수원시 영통구 영통동 1007-12번지 지하1층","indutype":"레져용품 - 스포츠·레져용품","category":"other"}]},{"lat":"37.251182744","long":"127.07560574","imageIndex":17,"items":[{"name":"(주)아카데미창","tel":"000-1566-3634","addr":"경기도 수원시 영통구 영통동 1009-4번지 3층 2호","indutype":"회원제형태 - 서적","category":"other"}]},{"lat":"37.246435737","long":"127.05594491","imageIndex":17,"items":[{"name":"(주)에듀세븐","tel":"","addr":"경기도 수원시 영통구 영통동 978-11번지 망포프라자 3층","indutype":"용역 서비스 - 사무서비스","category":"other"},{"name":"영통고릴라전자담배","tel":"","addr":"경기도 수원시 영통구 영통동 978-11번지 망포프라자 102호","indutype":"기타 - 기타 전문점","category":"other"}]},{"lat":"37.252128957","long":"127.07539249","imageIndex":17,"items":[{"name":"(주)에어제이","tel":"070-4686-5770","addr":"경기도 수원시 영통구 영통동 1010-13번지 거성빌딩 802호","indutype":"여행 - 관광여행","category":"other"},{"name":"꼬마천사 교육사","tel":"031-215-8456","addr":"경기도 수원시 영통구 영통동 1010-13번지 거성빌딩 802호","indutype":"서적문구 - 기타서적문구","category":"other"},{"name":"다올파트너스","tel":"031-8009-0002","addr":"경기도 수원시 영통구 영통동 1010-13번지 거성빌딩 802호","indutype":"용역 서비스 - 사무서비스","category":"other"},{"name":"딱다구리","tel":"031-594-1789","addr":"경기도 수원시 영통구 영통동 1010-13번지 거성프라자 802호","indutype":"건축자재 - 인테리어전문","category":"other"},{"name":"메디와이즈(Mediwise)","tel":"","addr":"경기도 수원시 영통구 영통동 1010-13번지 거성빌딩 802호","indutype":"수리서비스 - 기타수리서비스","category":"other"},{"name":"무한가전","tel":"031-111-1111","addr":"경기도 수원시 영통구 영통동 1010-13번지 거성프라자 802호","indutype":"전기제품 - 가전제품","category":"other"},{"name":"열관리난방공사","tel":"031-000-0000","addr":"경기도 수원시 영통구 영통동 1010-13번지 거성빌딩 803호","indutype":"용역 서비스 - 기타용역서비스","category":"other"},{"name":"해피코믹스","tel":"031-204-7325","addr":"경기도 수원시 영통구 영통동 1010-13번지 거성빌딩 403호","indutype":"서적문구 - 일반서적","category":"other"}]},{"lat":"37.253102414","long":"127.07482984","imageIndex":17,"items":[{"name":"(주)오렌지파크","tel":"070-8830-5254","addr":"경기도 수원시 영통구 영통동 998-2번지 르네상스시티프라자 517호","indutype":"건축자재 - 조명기구","category":"other"},{"name":"뽀블리","tel":"","addr":"경기도 수원시 영통구 영통동 998-2번지 르네상스시티프라자 4층 409호","indutype":"신변잡화 - 기타잡화","category":"other"},{"name":"세무사연인식세무회계","tel":"031-204-9200","addr":"경기도 수원시 영통구 영통동 998-2번지 르네상스시티프라자 4동 413호","indutype":"용역 서비스 - 법률회계서비스(개인)","category":"other"},{"name":"수원전자담배멀티프라자","tel":"070-7943-5075","addr":"경기도 수원시 영통구 영통동 998-2번지 르네상스시티프라자 101호","indutype":"기타 - 기타 전문점","category":"other"},{"name":"아이보람","tel":"031-204-8919","addr":"경기도 수원시 영통구 영통동 998-2번지 르네상스시티프라자 401호","indutype":"회원제형태 - 서적","category":"other"},{"name":"안병은세무회계사무소","tel":"031-206-2440","addr":"경기도 수원시 영통구 영통동 998-2번지 르네상스프라자 5층 503호","indutype":"용역 서비스 - 법률회계서비스(개인)","category":"other"},{"name":"올리브제이(olive_je)","tel":"","addr":"경기도 수원시 영통구 영통동 998-2번지 르네상스시티프라자 504호","indutype":"문화.취미 - 문화취미기타","category":"other"},{"name":"용문산업 주식회사","tel":"031-258-8780","addr":"경기도 수원시 영통구 영통동 998-2번지 르네상스시티프라자 515호","indutype":"용역 서비스 - 종합용역","category":"other"},{"name":"이끌림","tel":"031-111-1111","addr":"경기도 수원시 영통구 영통동 998-2번지 르네상스시티프라자 102호","indutype":"의류 - 정장","category":"other"},{"name":"이솔캘리그라피","tel":"","addr":"경기도 수원시 영통구 영통동 998-2번지 르네상스시티프라자 506호","indutype":"문화.취미 - 민예·공예품","category":"other"},{"name":"탑번역통역","tel":"02-877-2842","addr":"경기도 수원시 영통구 영통동 998-2번지 르네상스시티프라자 517호","indutype":"용역 서비스 - 사무서비스","category":"other"},{"name":"한독철물","tel":"031-203-1675","addr":"경기도 수원시 영통구 영통동 998-2번지 르네상스시티프라자 105호","indutype":"기타 - 기계공구","category":"other"},{"name":"휘트니스클럽S영통점","tel":"031-206-9682","addr":"경기도 수원시 영통구 영통동 998-2번지 시티프라자","indutype":"회원제형태 - 레져업소","category":"other"}]},{"lat":"37.251767292","long":"127.07740976","imageIndex":17,"items":[{"name":"(주)오션스인터내셔널","tel":"031-205-5520","addr":"경기도 수원시 영통구 영통동 1012-1번지 영통역아이파크 308호","indutype":"레져용품 - 스포츠·레져용품","category":"other"},{"name":"(주)진렌트카 수원남부영업소","tel":"031-202-1818","addr":"경기도 수원시 영통구 영통동 1012-1번지 영통역아이파크 329호","indutype":"여행 - 렌터카","category":"other"},{"name":"GS25영통아이파크점","tel":"","addr":"경기도 수원시 영통구 영통동 1012-1번지 105~106호","indutype":"유통업 영리 - 편 의 점","category":"other"},{"name":"금이화","tel":"031-203-7701","addr":"경기도 수원시 영통구 영통동 1012-1번지 영통역아이파크 1층 134호","indutype":"신변잡화 - 액세서리","category":"other"},{"name":"느루","tel":"","addr":"경기도 수원시 영통구 영통동 1012-1번지 영통역아이파크 336호","indutype":"문화.취미 - 문화취미기타","category":"other"},{"name":"더 폰 (The Phone)","tel":"031-8001-7701","addr":"경기도 수원시 영통구 영통동 1012-1번지 영통역아이파크 1층 101호","indutype":"사무통신 - 통신기기","category":"other"},{"name":"더블유인터내셔널","tel":"031-308-5361","addr":"경기도 수원시 영통구 영통동 1012-1번지 영통역아이파크 319호","indutype":"용역 서비스 - 사무서비스","category":"other"},{"name":"딩가딩","tel":"031-111-1111","addr":"경기도 수원시 영통구 영통동 1012-1번지 영통역아이파크 3층 320호","indutype":"의류 - 기타의류","category":"other"},{"name":"법무사 행정사 정원희사무소","tel":"031-205-7133","addr":"경기도 수원시 영통구 영통동 1012-1번지 영통아이파크 3층 301호","indutype":"용역 서비스 - 법률회계서비스(개인)","category":"other"},{"name":"보니데이 (Bonny day)","tel":"031-214-7015","addr":"경기도 수원시 영통구 영통동 1012-1번지 영통역아이파크 상업시설 212호","indutype":"문화.취미 - 문화취미기타","category":"other"},{"name":"스웨덴하우스","tel":"031-205-1547","addr":"경기도 수원시 영통구 영통동 1012-1번지 영통역아이파크 330호","indutype":"가구 - 일반가구","category":"other"},{"name":"엘리사벳","tel":"","addr":"경기도 수원시 영통구 영통동 1012-1번지 영통역아이파크 1617호","indutype":"의류 - 정장","category":"other"},{"name":"펭귄하우스","tel":"","addr":"경기도 수원시 영통구 영통동 1012-1번지 영통역아이파크 2층 238호","indutype":"수리서비스 - 세탁소","category":"other"},{"name":"플스빌(수원영통점)","tel":"031-203-3339","addr":"경기도 수원시 영통구 영통동 1012-1번지 영통역아이파크 3층 305호","indutype":"서적문구 - 완구점","category":"other"},{"name":"화이트쉽","tel":"","addr":"경기도 수원시 영통구 영통동 1012-1번지 영통역아이파크 3층 311호","indutype":"의류 - 정장","category":"other"}]},{"lat":"37.251543528","long":"127.07499743","imageIndex":17,"items":[{"name":"(주)유진항공여행사","tel":"031-204-0101","addr":"경기도 수원시 영통구 영통동 1009-6번지 매직프라자 301호","indutype":"여행 - 관광여행","category":"other"},{"name":"가현 세무법인 수원지점","tel":"031-206-9994","addr":"경기도 수원시 영통구 영통동 1009-6번지 매직프라자 501호502호","indutype":"용역 서비스 - 법률회계서비스(법인)","category":"other"},{"name":"가현세무그룹","tel":"031-206-9994","addr":"경기도 수원시 영통구 영통동 1009-6번지 매직프라자 501호","indutype":"용역 서비스 - 법률회계서비스(개인)","category":"other"},{"name":"감성 이엔티","tel":"031-1588-9747","addr":"경기도 수원시 영통구 영통동 1009-6번지 매직프라자 8층 801호","indutype":"문화.취미 - 티켓","category":"other"},{"name":"김동제 세무회계사무소","tel":"031-205-1122","addr":"경기도 수원시 영통구 영통동 1009-6번지 매직프라자 405호","indutype":"용역 서비스 - 법률회계서비스(개인)","category":"other"},{"name":"류재석세무회계사무소","tel":"031-203-4200","addr":"경기도 수원시 영통구 영통동 1009-6번지 매직프라자 406호","indutype":"용역 서비스 - 법률회계서비스(개인)","category":"other"},{"name":"매직프라자상가번영회","tel":"031-203-1139","addr":"경기도 수원시 영통구 영통동 1009-6번지 매직프라자 관리사무소","indutype":"용역 서비스 - 부동산 중개·임대","category":"other"},{"name":"미르기획","tel":"031-204-0995","addr":"경기도 수원시 영통구 영통동 1009-6번지 매직프라자 401호","indutype":"서적문구 - 출판 및 인쇄물","category":"other"},{"name":"베누스산후조리원","tel":"031-204-2049","addr":"경기도 수원시 영통구 영통동 1009-6번지 매직프라자 6층","indutype":"기타의료기관 - 산후조리원","category":"other"},{"name":"스카이골프존","tel":"031-205-0030","addr":"경기도 수원시 영통구 영통동 1009-6번지","indutype":"회원제형태 - 레져업소","category":"other"},{"name":"스포코리아","tel":"031-205-0371","addr":"경기도 수원시 영통구 영통동 1009-6번지 매직프라자 9층","indutype":"회원제형태 - 레져업소","category":"other"},{"name":"영통역비너스솔브","tel":"031-205-5652","addr":"경기도 수원시 영통구 영통동 1009-6번지 매직프라자 1층 109호","indutype":"의류 - 내의판매","category":"other"},{"name":"주식회사 디오코","tel":"070-5030-3037","addr":"경기도 수원시 영통구 영통동 1009-6번지 매직프라자 4층 405호","indutype":"용역 서비스 - 소프트웨어","category":"other"},{"name":"주식회사에스앤에스","tel":"031-202-0375","addr":"경기도 수원시 영통구 영통동 1009-6번지 매직프라자 112호","indutype":"건축자재 - 부동산 분양","category":"other"},{"name":"지호통신","tel":"031-204-2212","addr":"경기도 수원시 영통구 영통동 1009-6번지 111호,112호,113호","indutype":"사무통신 - 통신기기","category":"other"},{"name":"한국사회교육원제630115지부","tel":"031-203-0223","addr":"경기도 수원시 영통구 영통동 1009-6번지 매직프라자 403호","indutype":"문화.취미 - 문화취미기타","category":"other"}]},{"lat":"37.25315598","long":"127.07564146","imageIndex":17,"items":[{"name":"(주)인비보텍","tel":"031-000-0000","addr":"경기도 수원시 영통구 영통동 998-9번지 럭셔리프라자 3층 301-12호","indutype":"용역 서비스 - 사무서비스","category":"other"},{"name":"OPEN","tel":"031-205-0827","addr":"경기도 수원시 영통구 영통동 998-9번지 럭셔리프라자 107호","indutype":"의류 - 정장","category":"other"},{"name":"가치랩스","tel":"","addr":"경기도 수원시 영통구 영통동 998-9번지 럭셔리프라자 3층 301-12호","indutype":"서적문구 - 출판 및 인쇄물","category":"other"},{"name":"골드쉘순금나라수원점","tel":"031-246-1665","addr":"경기도 수원시 영통구 영통동 998-9번지 럭셔리프라자 105호","indutype":"신변잡화 - 귀금속","category":"other"},{"name":"내츄럴바이오","tel":"031-601-6316","addr":"경기도 수원시 영통구 영통동 998-9번지 럭셔리프라자 3층 301-10호","indutype":"용역 서비스 - 사무서비스","category":"other"},{"name":"세무사오영호사무소","tel":"031-204-5959","addr":"경기도 수원시 영통구 영통동 998-9번지 럭셔리프라자 804호 세무사오영호사무소","indutype":"용역 서비스 - 법률회계서비스(개인)","category":"other"},{"name":"세무회계사무소서일","tel":"031-206-5231","addr":"경기도 수원시 영통구 영통동 998-9번지 럭셔리프라자 7층 707호","indutype":"용역 서비스 - 법률회계서비스(개인)","category":"other"},{"name":"스윙스크린골프","tel":"031-282-0100","addr":"경기도 수원시 영통구 영통동 998-9번지 럭셔리프라자 901호,903호","indutype":"회원제형태 - 레져업소","category":"other"},{"name":"아띠기프트","tel":"031-1661-9670","addr":"경기도 수원시 영통구 영통동 998-9번지 럭셔리프라자 3층 301-5호","indutype":"유통업 영리 - 기타유통업","category":"other"},{"name":"오피스천국","tel":"","addr":"경기도 수원시 영통구 영통동 998-9번지 럭셔리프라자 3층 301-08호","indutype":"사무통신 - 기타 사무용품","category":"other"},{"name":"이엘앤케이","tel":"","addr":"경기도 수원시 영통구 영통동 998-9번지 럭셔리프라자 3층 301-11호","indutype":"신변잡화 - 기타잡화","category":"other"},{"name":"주식회사 빈코리아","tel":"031-244-7789","addr":"경기도 수원시 영통구 영통동 998-9번지 럭셔리프라자 607호","indutype":"용역 서비스 - 종합용역","category":"other"},{"name":"주식회사 쓰담","tel":"031-000-0000","addr":"경기도 수원시 영통구 영통동 998-9번지 럭셔리프라자 3층 301-12호","indutype":"문화.취미 - 애완동물","category":"other"},{"name":"한마음","tel":"","addr":"경기도 수원시 영통구 영통동 998-9번지 럭셔리프라자 3층 301-10호","indutype":"의류 - 스포츠의류","category":"other"}]},{"lat":"37.249910231","long":"127.07888447","imageIndex":17,"items":[{"name":"(주)인스이앤씨","tel":"031-111-1111","addr":"경기도 수원시 영통구 영통동 1013-1번지 탑빌딩 636호","indutype":"건축자재 - 인테리어전문","category":"other"},{"name":"공인gine번역행정사사무소","tel":"070-8031-4038","addr":"경기도 수원시 영통구 영통동 1013-1번지 탑빌딩 602호","indutype":"용역 서비스 - 사무서비스","category":"other"},{"name":"디에이기획","tel":"031-8007-3067","addr":"경기도 수원시 영통구 영통동 1013-1번지 탑빌딩 3층 323호","indutype":"용역 서비스 - 종합용역","category":"other"},{"name":"디자인리멤버스","tel":"031-297-6917","addr":"경기도 수원시 영통구 영통동 1013-1번지 탑빌딩 305호","indutype":"용역 서비스 - 사무서비스","category":"other"},{"name":"비젼테크","tel":"031-000-0000","addr":"경기도 수원시 영통구 영통동 1013-1번지 탑빌딩 607호","indutype":"용역 서비스 - 기타용역서비스","category":"other"},{"name":"에어클린스 영통동탄점","tel":"","addr":"경기도 수원시 영통구 영통동 1013-1번지 탑빌딩 647호","indutype":"용역 서비스 - 종합용역","category":"other"},{"name":"엘리트통번역","tel":"02-448-2025","addr":"경기도 수원시 영통구 영통동 1013-1번지 탑빌딩 343호","indutype":"용역 서비스 - 사무서비스","category":"other"},{"name":"영원한현재","tel":"","addr":"경기도 수원시 영통구 영통동 1013-1번지 탑빌딩 3층 377호","indutype":"건축자재 - 인테리어전문","category":"other"},{"name":"주식회사 엠케이디","tel":"031-206-5880","addr":"경기도 수원시 영통구 영통동 1013-1번지 탑빌딩 308호","indutype":"전기제품 - 기타전기제품","category":"other"},{"name":"주식회사 엠케이스텝","tel":"","addr":"경기도 수원시 영통구 영통동 1013-1번지 탑빌딩 458호","indutype":"용역 서비스 - 종합용역","category":"other"},{"name":"주식회사 호경엔지니어링","tel":"031-203-6877","addr":"경기도 수원시 영통구 영통동 1013-1번지 혜성빌딩 608호","indutype":"전기제품 - 기타전기제품","category":"other"},{"name":"테키너스","tel":"070-7619-7499","addr":"경기도 수원시 영통구 영통동 1013-1번지 혜성빌딩 436호","indutype":"기타 - 기계공구","category":"other"},{"name":"티제이파트너즈","tel":"031-302-9256","addr":"경기도 수원시 영통구 영통동 1013-1번지 혜성빌딩 657호","indutype":"용역 서비스 - 사무서비스","category":"other"},{"name":"하늘산책","tel":"031-307-2177","addr":"경기도 수원시 영통구 영통동 1013-1번지 혜성빌딩 3층 321호","indutype":"여행 - 관광여행","category":"other"}]},{"lat":"37.253460219","long":"127.07900076","imageIndex":17,"items":[{"name":"(주)잉크스테이션","tel":"031-202-5514","addr":"경기도 수원시 영통구 영통동 1045-2번지","indutype":"사무통신 - 사무용 OA기기","category":"other"},{"name":"류연유논리수학영통교육센타","tel":"031-206-0827","addr":"경기도 수원시 영통구 영통동 1045-2번지 3층","indutype":"회원제형태 - 서적","category":"other"}]},{"lat":"37.249740677","long":"127.07628064","imageIndex":17,"items":[{"name":"(주)제이엠아이앤티엘","tel":"070-8611-5919","addr":"경기도 수원시 영통구 영통동 1005-11번지 103호","indutype":"레져용품 - 스포츠·레져용품","category":"other"},{"name":"도예공방비도","tel":"031-202-5047","addr":"경기도 수원시 영통구 영통동 1005-11번지 B1","indutype":"문화.취미 - 문화취미기타","category":"other"}]},{"lat":"37.265463033","long":"127.0772767","imageIndex":17,"items":[{"name":"(주)좋은녀석들","tel":"031-203-8271","addr":"경기도 수원시 영통구 영통동 949-1번지 대교빌딩 301호","indutype":"전기제품 - 가전제품","category":"other"},{"name":"에스포유(S FOR U)","tel":"070-4453-8979","addr":"경기도 수원시 영통구 영통동 949-1번지 대교빌딩 302호","indutype":"용역 서비스 - 소프트웨어","category":"other"}]},{"lat":"37.247910115","long":"127.07861196","imageIndex":17,"items":[{"name":"(주)참좋은여행사","tel":"031-206-0765","addr":"경기도 수원시 영통구 영통동 1024-15번지","indutype":"여행 - 관광여행","category":"other"},{"name":"스마트키즈에듀케이션(Smart Kids Educatio","tel":"031-203-7537","addr":"경기도 수원시 영통구 영통동 1024-15번지 경희레스피아 5층 501호","indutype":"서적문구 - 기타서적문구","category":"other"},{"name":"신디 스튜디오","tel":"070-5118-2236","addr":"경기도 수원시 영통구 영통동 1024-15번지 경희레스피아 304호","indutype":"광학제품 - 사진관","category":"other"},{"name":"주식회사 놀이나무 수원지점","tel":"02-943-4433","addr":"경기도 수원시 영통구 영통동 1024-15번지","indutype":"서적문구 - 기타서적문구","category":"other"},{"name":"프린트하우스","tel":"031-601-7070","addr":"경기도 수원시 영통구 영통동 1024-15번지 경희레스피아 101호","indutype":"서적문구 - 출판 및 인쇄물","category":"other"},{"name":"프린트하우스경희대점","tel":"031-205-0260","addr":"경기도 수원시 영통구 영통동 1024-15번지 경희레스피아 B1호","indutype":"용역 서비스 - 사무서비스","category":"other"}]},{"lat":"37.26610634","long":"127.07134735","imageIndex":17,"items":[{"name":"(주)탑렌트카","tel":"031-291-5335","addr":"경기도 수원시 영통구 영통동 1153번지 영통아이파크 상가동 1층 101호","indutype":"여행 - 렌터카","category":"other"},{"name":"소유","tel":"","addr":"경기도 수원시 영통구 영통동 1153번지 영통아이파크 제 이스트윙동 25층 2501호","indutype":"신변잡화 - 귀금속","category":"other"}]},{"lat":"37.265517734","long":"127.07625085","imageIndex":17,"items":[{"name":"(주)티에프유","tel":"031-212-8323","addr":"경기도 수원시 영통구 영통동 950-1번지 3층","indutype":"건축자재 - 목재·석재·철물","category":"other"},{"name":"GS25영통프리미엄점","tel":"02-2006-2485","addr":"경기도 수원시 영통구 영통동 950-1번지 1층","indutype":"유통업 영리 - 편 의 점","category":"other"},{"name":"밝은미래법무사","tel":"031-206-7962","addr":"경기도 수원시 영통구 영통동 950-1번지","indutype":"용역 서비스 - 법률회계서비스(개인)","category":"other"},{"name":"밝은미래법무사합동사무소","tel":"031-111-1111","addr":"경기도 수원시 영통구 영통동 950-1번지 2층","indutype":"용역 서비스 - 법률회계서비스(개인)","category":"other"}]},{"lat":"37.250270411","long":"127.07924552","imageIndex":17,"items":[{"name":"(주)티엘씨","tel":"070-4025-3991","addr":"경기도 수원시 영통구 영통동 1029-8번지 222호","indutype":"용역 서비스 - 사무서비스","category":"other"},{"name":"MS진공","tel":"070-8810-2919","addr":"경기도 수원시 영통구 영통동 1029-8번지","indutype":"유통업 영리 - 기타유통업","category":"other"},{"name":"디자인 제이","tel":"","addr":"경기도 수원시 영통구 영통동 1029-8번지 308호","indutype":"용역 서비스 - 사무서비스","category":"other"},{"name":"보성도어시스템(Bosung Door system)","tel":"031-206-6341","addr":"경기도 수원시 영통구 영통동 1029-8번지","indutype":"용역 서비스 - 기타용역서비스","category":"other"},{"name":"소셜퀵네트워크","tel":"","addr":"경기도 수원시 영통구 영통동 1029-8번지 505호","indutype":"용역 서비스 - 기타용역서비스","category":"other"},{"name":"시온산업 (주)","tel":"031-225-8285","addr":"경기도 수원시 영통구 영통동 1029-8번지 324호","indutype":"문화.취미 - 화랑","category":"other"}]},{"lat":"37.253685693","long":"127.07866283","imageIndex":17,"items":[{"name":"(주)한샘리하우스두리대리점","tel":"031-202-0447","addr":"경기도 수원시 영통구 영통동 1038-17번지 1층","indutype":"건축자재 - 인테리어전문","category":"other"},{"name":"마리 디자인","tel":"031-202-0447","addr":"경기도 수원시 영통구 영통동 1038-17번지 1층 우측","indutype":"건축자재 - 인테리어전문","category":"other"}]},{"lat":"37.245334608","long":"127.05996775","imageIndex":17,"items":[{"name":"(주)휴민텍","tel":"031-303-8919","addr":"경기도 수원시 영통구 영통동 980-3번지 디지털엠파이어빌딩 C동 1402호","indutype":"기타 - 기타 전문점","category":"other"},{"name":"네오테크/원격지","tel":"011-****-****","addr":"경기도 수원시 영통구 영통동 980-3번지 디지털엠파이어빌딩 C-1305호 내","indutype":"기타 - 기타 전문점","category":"other"},{"name":"미즈노수원점(디아트점)","tel":"031-273-7720","addr":"경기도 수원시 영통구 영통동 980-3 디지털엠파이어빌딩 c-113호","indutype":"레져용품 - 스포츠·레져용품","category":"other"},{"name":"스캐쳐스","tel":"031-206-4805","addr":"경기도 수원시 영통구 영통동 980-3번지 디지털엠파이어빌딩 C동 112호","indutype":"레져용품 - 스포츠·레져용품","category":"other"},{"name":"에이드에스테틱","tel":"031-202-1548","addr":"경기도 수원시 영통구 영통동 980-3번지 디지털엠파이어빌딩 C동 208호","indutype":"회원제형태 - 기타4","category":"other"},{"name":"유아이텍","tel":"02-1566-1419","addr":"경기도 수원시 영통구 영통동 980-3번지 디지털엠파이어빌딩 C동 1층 145호","indutype":"수리서비스 - 사무·통신기기수리","category":"other"},{"name":"케이스위스","tel":"031-205-5696","addr":"경기도 수원시 영통구 영통동 980-3번지 디지털엠파이어빌딩 C동 111호","indutype":"레져용품 - 스포츠·레져용품","category":"other"}]},{"lat":"37.265909358","long":"127.08366932","imageIndex":17,"items":[{"name":"119인테리어","tel":"031-202-1174","addr":"경기도 수원시 영통구 영통동 1053-2번지 벽산.풍림아파트 상가 1동 117호","indutype":"용역 서비스 - 사무서비스","category":"other"},{"name":"시모네타","tel":"031-203-7341","addr":"경기도 수원시 영통구 영통동 1053-2번지 벽산 상가 101호","indutype":"의류 - 정장","category":"other"}]},{"lat":"37.244947531","long":"127.05920106","imageIndex":17,"items":[{"name":"AQUA(아쿠아)","tel":"1544-56-98","addr":"경기도 수원시 영통구 영통동 980-3번지 디지털엠파이어빌딩 B동 804호","indutype":"주방용구 - 정수기","category":"other"},{"name":"꽃화성","tel":"031-8062-4970","addr":"경기도 수원시 영통구 영통동 980-3번지 엠파이어빌딩 B동 230호","indutype":"문화.취미 - 화원","category":"other"},{"name":"주식회사 그리고","tel":"031-303-8088","addr":"경기도 수원시 영통구 영통동 980-3번지 디지털엠파이어빌딩 B동 405호","indutype":"레져용품 - 스포츠·레져용품","category":"other"},{"name":"주식회사멤써치","tel":"031-205-3989","addr":"경기도 수원시 영통구 영통동 980-3번지 디지털엠파이어빌딩 B-707","indutype":"전기제품 - 기타전기제품","category":"other"}]},{"lat":"37.26804461","long":"127.08394218","imageIndex":17,"items":[{"name":"Ace상사","tel":"031-273-6780","addr":"경기도 수원시 영통구 영통동 1054-3번지 신명.한국아파트","indutype":"사무통신 - 통신기기","category":"other"},{"name":"영통종합보수","tel":"031-273-4405","addr":"경기도 수원시 영통구 영통동 1054-3번지 신명.한국아파트 지하 6호","indutype":"용역 서비스 - 기타용역서비스","category":"other"},{"name":"유일기기상사","tel":"031-205-0945","addr":"경기도 수원시 영통구 영통동 1054-3번지 신명한국 상가 지하층 66호","indutype":"건축자재 - 보일러·펌프·샷시","category":"other"},{"name":"크린토피아한국신명점","tel":"031-204-3728","addr":"경기도 수원시 영통구 영통동 1054-3번지 한국신명 상가동 지층 9호","indutype":"수리서비스 - 세탁소","category":"other"},{"name":"하나종합인테리어","tel":"031-204-8204","addr":"경기도 수원시 영통구 영통동 1054-3번지 신명한국 상가 110호","indutype":"건축자재 - 기타건축자재","category":"other"}]},{"lat":"37.25240811","long":"127.07566328","imageIndex":17,"items":[{"name":"COVER BOX","tel":"031-205-1918","addr":"경기도 수원시 영통구 영통동 1010-1번지 106호,제107호,108호","indutype":"신변잡화 - 기타잡화","category":"other"}]},{"lat":"37.251379457","long":"127.07802931","imageIndex":17,"items":[{"name":"ChatsWorth House(차스위스하우스)","tel":"031-1544-9386","addr":"경기도 수원시 영통구 영통동 1012-2번지 경기지방중소기업청","indutype":"신변잡화 - 액세서리","category":"other"},{"name":"미니팟","tel":"070-4419-1236","addr":"경기도 수원시 영통구 영통동 1012-2번지 4층 특화형 1인 창조기업 비즈니스센터18호","indutype":"문화.취미 - 화원","category":"other"},{"name":"에그레이","tel":"070-8667-7940","addr":"경기도 수원시 영통구 영통동 1012-2번지 경기지방중소기업청 4층 6호","indutype":"의류 - 아동의류","category":"other"},{"name":"주식회사플레이코드(PlayCode Co.,Ltd)","tel":"031-000-0000","addr":"경기도 수원시 영통구 영통동 1012-2번지 경기지방중소기업청 4층","indutype":"전기제품 - 기타전기제품","category":"other"},{"name":"쿠브토이 주식회사","tel":"","addr":"경기도 수원시 영통구 영통동 1012-2번지 경기지방중소기업청 4층 15호","indutype":"서적문구 - 완구점","category":"other"}]},{"lat":"37.248017725","long":"127.07941231","imageIndex":17,"items":[{"name":"DC스포츠","tel":"031-276-6500","addr":"경기도 수원시 영통구 영통동 1025-18번지","indutype":"레져용품 - 스포츠·레져용품","category":"other"}]},{"lat":"37.265021493","long":"127.07733263","imageIndex":17,"items":[{"name":"EZ생활연구소","tel":"070-8750-0091","addr":"경기도 수원시 영통구 영통동 949-4번지","indutype":"의류 - 아동의류","category":"other"},{"name":"꽃집","tel":"031-203-2675","addr":"경기도 수원시 영통구 영통동 949-4번지 차경빌딩 102호","indutype":"문화.취미 - 화원","category":"other"},{"name":"꿀랩","tel":"02-3351-9959","addr":"경기도 수원시 영통구 영통동 949-4번지 2층 205호","indutype":"유통업 영리 - 기타유통업","category":"other"}]},{"lat":"37.255463467","long":"127.07424593","imageIndex":17,"items":[{"name":"GCM스포츠센터","tel":"031-262-3211","addr":"경기도 수원시 영통구 영통동 958-2번지 훼미리타워 지하층 101호","indutype":"회원제형태 - 레져업소","category":"other"},{"name":"VISIONGOLF영통","tel":"031-205-4038","addr":"경기도 수원시 영통구 영통동 958-2번지 훼미리타워 201,202,204호","indutype":"회원제형태 - 레져업소","category":"other"},{"name":"넥스트프로바이더","tel":"031-201-1171","addr":"경기도 수원시 영통구 영통동 958-2번지 훼미리타워 1419호","indutype":"용역 서비스 - 소프트웨어","category":"other"},{"name":"로고젠영어수원영통대리점","tel":"031-203-0585","addr":"경기도 수원시 영통구 영통동 958-2번지 훼미리타워 1123호","indutype":"회원제형태 - 서적","category":"other"},{"name":"루이까스텔 수원봉영로점","tel":"031-202-1056","addr":"경기도 수원시 영통구 영통동 958-2번지 훼미리타워","indutype":"의류 - 스포츠의류","category":"other"},{"name":"미라클케어","tel":"031-202-0565","addr":"경기도 수원시 영통구 영통동 958-2번지 훼미리타워 623호","indutype":"회원제형태 - 기타4","category":"other"},{"name":"법률사무소 비상","tel":"031-8009-0909","addr":"경기도 수원시 영통구 영통동 958-2번지 훼미리타워 227호","indutype":"용역 서비스 - 법률회계서비스(개인)","category":"other"},{"name":"신도OA월드","tel":"","addr":"경기도 수원시 영통구 영통동 958-2번지 훼미리타워 2층 210호","indutype":"사무통신 - 사무용 OA기기","category":"other"},{"name":"아티끄에스가죽공방","tel":"0503-152-3432","addr":"경기도 수원시 영통구 영통동 958-2번지 훼미리타워 714호","indutype":"신변잡화 - 가방","category":"other"},{"name":"엔디케이 사운드 라보(NDK Sound Labo)","tel":"","addr":"경기도 수원시 영통구 영통동 958-2번지 훼미리타워 11층 1117호","indutype":"수리서비스 - 기타수리서비스","category":"other"},{"name":"여성법무사사무소이혁준","tel":"031-203-8998","addr":"경기도 수원시 영통구 영통동 958-2번지 훼미리타워 240호 239","indutype":"용역 서비스 - 법률회계서비스(개인)","category":"other"},{"name":"영통풀잎문화센터","tel":"","addr":"경기도 수원시 영통구 영통동 958-2번지 훼미리타워 1214호","indutype":"문화.취미 - 문화취미기타","category":"other"},{"name":"이종환법무사사무소","tel":"031-202-1010","addr":"경기도 수원시 영통구 영통동 958-2번지 훼미리타워 212호","indutype":"용역 서비스 - 법률회계서비스(개인)","category":"other"},{"name":"주식회사애플라인드원","tel":"031-273-8400","addr":"경기도 수원시 영통구 영통동 958-2번지","indutype":"용역 서비스 - 종합용역","category":"other"},{"name":"토토애드","tel":"031-273-5238","addr":"경기도 수원시 영통구 영통동 958-2번지 훼미리타워 1603호","indutype":"기타 - 기타 전문점","category":"other"},{"name":"피엠에스/원격지","tel":"031-201-1521","addr":"경기도 수원시 영통구 영통동 958-2번지 훼미리타워 608호","indutype":"기타 - 기타 전문점","category":"other"}]},{"lat":"37.247993212","long":"127.07541107","imageIndex":17,"items":[{"name":"GS25수원영일점","tel":"","addr":"경기도 수원시 영통구 영통동 991-12번지","indutype":"유통업 영리 - 편 의 점","category":"other"}]},{"lat":"37.266208102","long":"127.081584","imageIndex":17,"items":[{"name":"GS25수원황골점","tel":"02-2006-2485","addr":"경기도 수원시 영통구 영통동 945-7번지","indutype":"유통업 영리 - 편 의 점","category":"other"},{"name":"J골프아카데미","tel":"031-206-7554","addr":"경기도 수원시 영통구 영통동 945-7번지 7층 전부","indutype":"회원제형태 - 레져업소","category":"other"}]},{"lat":"37.25099435","long":"127.07425299","imageIndex":17,"items":[{"name":"GS25영통럭키점","tel":"080-555-2525","addr":"경기도 수원시 영통구 영통동 1008-1번지 1층","indutype":"유통업 영리 - 편 의 점","category":"other"},{"name":"김승규세무회계사무소","tel":"031-204-3003","addr":"경기도 수원시 영통구 영통동 1008-1번지 상가 4층","indutype":"용역 서비스 - 법률회계서비스(개인)","category":"other"},{"name":"박한준세무회계사무소","tel":"031-203-2500","addr":"경기도 수원시 영통구 영통동 1008-1번지 5층","indutype":"용역 서비스 - 법률회계서비스(개인)","category":"other"},{"name":"세무사김봉수사무소","tel":"031-202-5858","addr":"경기도 수원시 영통구 영통동 1008-1번지 6층","indutype":"용역 서비스 - 법률회계서비스(개인)","category":"other"}]},{"lat":"37.245159204","long":"127.06811627","imageIndex":17,"items":[{"name":"GS25영통미리내점","tel":"","addr":"경기도 수원시 영통구 영통동 986-7번지","indutype":"유통업 영리 - 편 의 점","category":"other"}]},{"lat":"37.246570978","long":"127.0557534","imageIndex":17,"items":[{"name":"GS25영통방죽점","tel":"","addr":"경기도 수원시 영통구 영통동 978-2번지","indutype":"유통업 영리 - 편 의 점","category":"other"}]},{"lat":"37.252717314","long":"127.07086182","imageIndex":17,"items":[{"name":"GS25영통역점","tel":"","addr":"경기도 수원시 영통구 영통동 961-6번지 영통트리플렉스 102호","indutype":"유통업 영리 - 편 의 점","category":"other"},{"name":"민호스튜디오","tel":"031-202-0913","addr":"경기도 수원시 영통구 영통동 961-6번지 영통트리플렉스 102호 일부","indutype":"광학제품 - 사진관","category":"other"}]},{"lat":"37.259820869","long":"127.07996535","imageIndex":17,"items":[{"name":"GS25영통청명점","tel":"","addr":"경기도 수원시 영통구 영통동 1050-9번지","indutype":"유통업 영리 - 편 의 점","category":"other"}]},{"lat":"37.249792988","long":"127.07905343","imageIndex":17,"items":[{"name":"GS25영통해광점","tel":"","addr":"경기도 수원시 영통구 영통동 1013-16번지 1층","indutype":"유통업 영리 - 편 의 점","category":"other"}]},{"lat":"37.264489851","long":"127.07738847","imageIndex":17,"items":[{"name":"GS25황골주공점","tel":"","addr":"경기도 수원시 영통구 영통동 954-1번지 1층","indutype":"유통업 영리 - 편 의 점","category":"other"}]},{"lat":"37.249070655","long":"127.08136329","imageIndex":17,"items":[{"name":"HM 호이카카","tel":"031-205-6038","addr":"경기도 수원시 영통구 영통동 273-1번지 창업보육센터 501호 내","indutype":"문화.취미 - 애완동물","category":"other"},{"name":"Kplus(케이플러스)","tel":"031-633-1852","addr":"경기도 수원시 영통구 영통동 273-1번지 경희대학교 애지원 송관 B동 317-1호","indutype":"레져용품 - 스포츠·레져용품","category":"other"}]},{"lat":"37.249881478","long":"127.08152193","imageIndex":17,"items":[{"name":"J''s(제이즈)","tel":"","addr":"경기도 수원시 영통구 영통동 273번지 1층","indutype":"의류 - 정장","category":"other"}]},{"lat":"37.253435589","long":"127.07516831","imageIndex":17,"items":[{"name":"L&S에듀","tel":"070-7520-5056","addr":"경기도 수원시 영통구 영통동 998-1번지 평익빌딩 4층 409호","indutype":"회원제형태 - 서적","category":"other"},{"name":"공인노무사 로앤HR컨설팅","tel":"031-202-1835","addr":"경기도 수원시 영통구 영통동 998-1번지 평익칼라스위트 217호","indutype":"용역 서비스 - 법률회계서비스(개인)","category":"other"},{"name":"공주와왕자","tel":"031-202-4946","addr":"경기도 수원시 영통구 영통동 998-1번지 평익빌딩 112호","indutype":"직물 - 침구·수예점","category":"other"},{"name":"더블유디자인","tel":"031-546-8815","addr":"경기도 수원시 영통구 영통동 998-1번지 평익칼라스위트 502호","indutype":"용역 서비스 - 사무서비스","category":"other"},{"name":"뚱보텔레콤","tel":"031-204-9599","addr":"경기도 수원시 영통구 영통동 998-1번지 평익칼라스위트 114호","indutype":"사무통신 - 통신기기","category":"other"},{"name":"라온","tel":"","addr":"경기도 수원시 영통구 영통동 998-1번지 평익빌딩 4층 409호","indutype":"주방용구 - 주방용구","category":"other"},{"name":"미소산후조리원(영통점)","tel":"031-273-0051","addr":"경기도 수원시 영통구 영통동 998-1번지 5층 505,506,507","indutype":"기타의료기관 - 산후조리원","category":"other"},{"name":"바르다디자인","tel":"","addr":"경기도 수원시 영통구 영통동 998-1번지 평익칼라스위트 409호","indutype":"서적문구 - 출판 및 인쇄물","category":"other"},{"name":"법무사손명환사무소","tel":"031-202-4799","addr":"경기도 수원시 영통구 영통동 998-1번지 평일빌딩 213호","indutype":"용역 서비스 - 법률회계서비스(개인)","category":"other"},{"name":"봄날의기억","tel":"031-205-3817","addr":"경기도 수원시 영통구 영통동 998-1번지 평익칼라스위트 2층 202호","indutype":"광학제품 - 사진관","category":"other"},{"name":"비비드디자인","tel":"031-204-7194","addr":"경기도 수원시 영통구 영통동 998-1번지 4층","indutype":"용역 서비스 - 종합용역","category":"other"},{"name":"비투솔루션즈","tel":"032-273-6200","addr":"경기도 수원시 영통구 영통동 998-1번지 평익칼라스위트 4층 409호","indutype":"전기제품 - 기타전기제품","category":"other"},{"name":"빅맨","tel":"02-000-0000","addr":"경기도 수원시 영통구 영통동 998-1번지 평익칼라스위트 108호","indutype":"의류 - 정장","category":"other"},{"name":"알루앤코리아","tel":"070-4419-9359","addr":"경기도 수원시 영통구 영통동 998-1번지 평익칼라스위트 409호","indutype":"기타 - 기계공구","category":"other"},{"name":"알에프시티","tel":"031-221-8370","addr":"경기도 수원시 영통구 영통동 998-1번지 평익칼라스위트 215호","indutype":"전기제품 - 기타전기제품","category":"other"},{"name":"에보니홀","tel":"070-4131-9021","addr":"경기도 수원시 영통구 영통동 998-1번지","indutype":"용역 서비스 - 사무서비스","category":"other"},{"name":"영통스크린골프","tel":"031-202-2020","addr":"경기도 수원시 영통구 영통동 998-1번지 평익빌딩 702동 703호","indutype":"회원제형태 - 레져업소","category":"other"},{"name":"예진솔텍","tel":"031-294-4942","addr":"경기도 수원시 영통구 영통동 998-1번지 평익빌딩 4층 481호","indutype":"전기제품 - 기타전기제품","category":"other"},{"name":"우리들 세무법인 수원지점","tel":"031-206-1800","addr":"경기도 수원시 영통구 영통동 998-1번지 평익빌딩 606호","indutype":"용역 서비스 - 법률회계서비스(법인)","category":"other"},{"name":"유넷솔루션","tel":"070-7677-4008","addr":"경기도 수원시 영통구 영통동 998-1번지 평익칼라스위트 4층 411(424)호","indutype":"사무통신 - 컴퓨터","category":"other"},{"name":"유정수세무회계사무소","tel":"031-225-3881","addr":"경기도 수원시 영통구 영통동 998-1번지 평익빌딩 611호","indutype":"용역 서비스 - 법률회계서비스(개인)","category":"other"},{"name":"유진플라워","tel":"031-226-7118","addr":"경기도 수원시 영통구 영통동 998-1번지 평익칼라스위트 101호","indutype":"문화.취미 - 화원","category":"other"},{"name":"이연스킨케어","tel":"031-273-3580","addr":"경기도 수원시 영통구 영통동 998-1번지 평익칼라스위트 203호","indutype":"회원제형태 - 기타4","category":"other"},{"name":"주식회사 디엔에이치산업","tel":"031-205-1342","addr":"경기도 수원시 영통구 영통동 998-1번지 9층 901-5호","indutype":"건축자재 - 기타건축자재","category":"other"},{"name":"주식회사 컨버텍","tel":"031-689-3017","addr":"경기도 수원시 영통구 영통동 998-1번지 평익칼라스위트 4층 411호","indutype":"사무통신 - 컴퓨터","category":"other"},{"name":"주식회사프라임정보통신","tel":"","addr":"경기도 수원시 영통구 영통동 998-1번지 평익빌딩 4층 409호","indutype":"사무통신 - 컴퓨터","category":"other"},{"name":"코리아세븐케이","tel":"031-206-1690","addr":"경기도 수원시 영통구 영통동 998-1번지 평익빌딩 4층","indutype":"용역 서비스 - 소프트웨어","category":"other"},{"name":"평익개발(주)","tel":"031-205-1921","addr":"경기도 수원시 영통구 영통동 998-1번지 평익칼라스위트 9층","indutype":"용역 서비스 - 기타용역서비스","category":"other"},{"name":"한국세이프더푸드 협동조합","tel":"031-1688-6325","addr":"경기도 수원시 영통구 영통동 998-1번지 평익빌딩 4층 410호","indutype":"용역 서비스 - 종합용역","category":"other"},{"name":"한덕상사","tel":"031-202-2922","addr":"경기도 수원시 영통구 영통동 998-1번지 평익칼라스위트 216호","indutype":"기타 - 기계공구","category":"other"},{"name":"한올행정사사무소","tel":"031-291-5065","addr":"경기도 수원시 영통구 영통동 998-1번지 1층","indutype":"용역 서비스 - 법률회계서비스(개인)","category":"other"},{"name":"행복만들기심리상담센타","tel":"031-202-7311","addr":"경기도 수원시 영통구 영통동 998-1번지","indutype":"회원제형태 - 기타4","category":"other"},{"name":"홍스튜디오","tel":"031-206-6222","addr":"경기도 수원시 영통구 영통동 998-1번지 평익빌딩 504호","indutype":"광학제품 - 사진관","category":"other"}]},{"lat":"37.248353278","long":"127.07597497","imageIndex":17,"items":[{"name":"M(엠)Consulting(컨설팅)","tel":"","addr":"경기도 수원시 영통구 영통동 1023-1번지 메가플러스 3층 307호","indutype":"용역 서비스 - 사무서비스","category":"other"},{"name":"씨에이아이소프트","tel":"031-893-1070","addr":"경기도 수원시 영통구 영통동 1023-1번지 메가플러스 9층 907호","indutype":"서적문구 - 과학기자재","category":"other"},{"name":"주식회사 쓰리에이치(3H)","tel":"031-000-0000","addr":"경기도 수원시 영통구 영통동 1023-1번지 메가플러스4 301호","indutype":"신변잡화 - 기타잡화","category":"other"},{"name":"퀼트하우스","tel":"031-203-9066","addr":"경기도 수원시 영통구 영통동 1023-1번지 메가플러스포스 1동 102호","indutype":"문화.취미 - 문화취미기타","category":"other"}]},{"lat":"37.249018878","long":"127.07783536","imageIndex":17,"items":[{"name":"Y＆C 컴퍼니","tel":"031-501-9777","addr":"경기도 수원시 영통구 영통동 1018-11번지 102호","indutype":"문화.취미 - 티켓","category":"other"}]},{"lat":"37.250882301","long":"127.06524698","imageIndex":17,"items":[{"name":"가락","tel":"031-204-9653","addr":"경기도 수원시 영통구 영통동 968 동보신명상가105호","indutype":"신변잡화 - 귀금속","category":"other"},{"name":"크린토피아","tel":"031-203-4100","addr":"경기도 수원시 영통구 영통동 968 동보신명상가B10호","indutype":"수리서비스 - 세탁소","category":"other"},{"name":"토토도예공방","tel":"031-429-6984","addr":"경기도 수원시 영통구 영통동 968번지 동보.신명아파트 상가 307호","indutype":"문화.취미 - 문화취미기타","category":"other"},{"name":"평화인테리어","tel":"031-202-1951","addr":"경기도 수원시 영통구 영통동 968 동보신명상가 106","indutype":"건축자재 - 인테리어전문","category":"other"}]},{"lat":"37.254324119","long":"127.06547526","imageIndex":17,"items":[{"name":"가영인테리어","tel":"031-203-8786","addr":"경기도 수원시 영통구 영통동 963-2 B06호","indutype":"건축자재 - 인테리어전문","category":"other"},{"name":"삼천리고급세탁소","tel":"031-205-2824","addr":"경기도 수원시 영통구 영통동 963-2 신성(아)상가 B03-2호","indutype":"수리서비스 - 세탁소","category":"other"},{"name":"하이크리닝","tel":"031-202-1379","addr":"경기도 수원시 영통구 영통동 963-2신안상가지하8","indutype":"수리서비스 - 세탁소","category":"other"}]},{"lat":"37.246515851","long":"127.05808642","imageIndex":17,"items":[{"name":"가인","tel":"031-204-9996","addr":"경기도 수원시 영통구 영통동 975-11번지 ASK빌딩 3층","indutype":"회원제형태 - 기타4","category":"other"}]},{"lat":"37.246182417","long":"127.05819888","imageIndex":17,"items":[{"name":"가인미가","tel":"031-273-3367","addr":"경기도 수원시 영통구 영통동 976-5번지 5층","indutype":"회원제형태 - 기타4","category":"other"}]},{"lat":"37.253379321","long":"127.07869634","imageIndex":17,"items":[{"name":"감각대장","tel":"031-204-9089","addr":"경기도 수원시 영통구 영통동 1042-1번지 1층","indutype":"용역 서비스 - 사무서비스","category":"other"},{"name":"세븐일레븐수원영통원룸점","tel":"","addr":"경기도 수원시 영통구 영통동 1042-1번지","indutype":"유통업 영리 - 편 의 점","category":"other"},{"name":"실라악기사","tel":"031-238-4636","addr":"경기도 수원시 영통구 영통동 1042-1번지 1층","indutype":"레져용품 - 악기점","category":"other"}]},{"lat":"37.254299045","long":"127.07763769","imageIndex":17,"items":[{"name":"강산조경","tel":"031-232-7059","addr":"경기도 수원시 영통구 영통동 1038-9번지 사랑제일교회 402호","indutype":"건축자재 - 인테리어전문","category":"other"},{"name":"미르인테리어","tel":"031-202-1300","addr":"경기도 수원시 영통구 영통동 1038-9번지","indutype":"건축자재 - 인테리어전문","category":"other"}]},{"lat":"37.25035499","long":"127.07363246","imageIndex":17,"items":[{"name":"강태욱세무회계사무소","tel":"031-202-1313","addr":"경기도 수원시 영통구 영통동 1000-6번지 4층","indutype":"용역 서비스 - 법률회계서비스(개인)","category":"other"},{"name":"명품브라더스","tel":"031-204-9203","addr":"경기도 수원시 영통구 영통동 1000-6번지 6호 102","indutype":"수리서비스 - 신변잡화수리","category":"other"},{"name":"엘한복수원영통점","tel":"031-203-7732","addr":"경기도 수원시 영통구 영통동 1000-6번지","indutype":"의류 - 맞춤복점","category":"other"}]},{"lat":"37.262821544","long":"127.07958511","imageIndex":17,"items":[{"name":"경기유통","tel":"031-202-2567","addr":"경기도 수원시 영통구 영통동 955-1번지 황골마을주공1단지아파트","indutype":"회원제형태 - 기타1","category":"other"}]},{"lat":"37.247910417","long":"127.07813858","imageIndex":17,"items":[{"name":"경희철물","tel":"031-205-0522","addr":"경기도 수원시 영통구 영통동 1024-13번지 104호","indutype":"건축자재 - 목재·석재·철물","category":"other"},{"name":"씨유경희대정문점","tel":"031-602-8318","addr":"경기도 수원시 영통구 영통동 1024-13번지 1층","indutype":"유통업 영리 - 편 의 점","category":"other"},{"name":"열쇠랑도장이랑","tel":"031-205-0522","addr":"경기도 수원시 영통구 영통동 1024-13 6 37/1","indutype":"기타 - 기계공구","category":"other"}]},{"lat":"37.252687277","long":"127.07591153","imageIndex":17,"items":[{"name":"골드이션","tel":"031-205-8881","addr":"경기도 수원시 영통구 영통동 1011-6번지 플래티넘프라 1층 108호","indutype":"신변잡화 - 액세서리","category":"other"},{"name":"못된고양이 수원영통역점","tel":"070-4296-5922","addr":"경기도 수원시 영통구 영통동 1011-6번지 플래티넘빌딩 106호","indutype":"신변잡화 - 액세서리","category":"other"},{"name":"준상사","tel":"031-203-6547","addr":"경기도 수원시 영통구 영통동 1011-6플래티넘프라자1-101,1-102","indutype":"의류 - 정장","category":"other"}]},{"lat":"37.251987415","long":"127.07097388","imageIndex":17,"items":[{"name":"골든스터디카페 영통점","tel":"","addr":"경기도 수원시 영통구 영통동 960-3번지 뉴월드프라자 601호","indutype":"용역 서비스 - 사무서비스","category":"other"},{"name":"더골드","tel":"031-202-5505","addr":"경기도 수원시 영통구 영통동 960-3 뉴월드프라자3층 308-1","indutype":"신변잡화 - 귀금속","category":"other"},{"name":"동아서적","tel":"031-205-9937","addr":"경기도 수원시 영통구 영통동 960-3 뉴월드프라자4층 409-1호","indutype":"서적문구 - 전문서적","category":"other"},{"name":"모바일플러스","tel":"070-2104-7663","addr":"경기도 수원시 영통구 영통동 960-3번지 뉴월드프라자 1층 102호","indutype":"사무통신 - 통신기기","category":"other"},{"name":"미니스톱영통뉴월드점","tel":"031-203-9126","addr":"경기도 수원시 영통구 영통동 960-3번지 뉴월드프라자 109호","indutype":"유통업 영리 - 편 의 점","category":"other"},{"name":"베이비몽","tel":"070-8624-1584","addr":"경기도 수원시 영통구 영통동 960-3번지 NEW WORLD PLAZA 211호","indutype":"문화.취미 - 애완동물","category":"other"},{"name":"블루사진관","tel":"031-206-6454","addr":"경기도 수원시 영통구 영통동 960-3번지 NEWWORLDPLAZA 410호","indutype":"광학제품 - 사진관","category":"other"},{"name":"세민세무그룹","tel":"031-8025-1000","addr":"경기도 수원시 영통구 영통동 960-3번지 뉴월드프라자 602호","indutype":"용역 서비스 - 법률회계서비스(개인)","category":"other"},{"name":"소리케어넷","tel":"031-206-5633","addr":"경기도 수원시 영통구 영통동 960-3뉴월드프라자304-1","indutype":"기타의료기관 - 기타의료기관 및 기타","category":"other"},{"name":"신데렐라","tel":"031-206-3038","addr":"경기도 수원시 영통구 영통동 960-3번지 NEWWORLDPLAZA 1층 106호","indutype":"의류 - 정장","category":"other"},{"name":"영통옷수선","tel":"031-203-7079","addr":"경기도 수원시 영통구 영통동 960-3번지 뉴월드프라자 131호","indutype":"수리서비스 - 세탁소","category":"other"},{"name":"조은옷수선","tel":"031-206-1518","addr":"경기도 수원시 영통구 영통동 960-3 뉴월드프라자 129","indutype":"수리서비스 - 세탁소","category":"other"},{"name":"타이거짐 (Tiger gym) 8호점","tel":"031-206-2010","addr":"경기도 수원시 영통구 영통동 960-3번지 PLAZA 406호, NEW WORLD","indutype":"회원제형태 - 레져업소","category":"other"},{"name":"폰플러스","tel":"031-206-9006","addr":"경기도 수원시 영통구 영통동 960-3번지 뉴월드프라자 112호","indutype":"사무통신 - 통신기기","category":"other"},{"name":"하우공방","tel":"031-203-1144","addr":"경기도 수원시 영통구 영통동 960-3번지 뉴월드프라자 302호","indutype":"신변잡화 - 기타잡화","category":"other"}]},{"lat":"37.251994412","long":"127.07438919","imageIndex":17,"items":[{"name":"공인회계사김영천사무소","tel":"031-202-0096","addr":"경기도 수원시 영통구 영통동 998-6번지 아셈프라자 201호","indutype":"용역 서비스 - 법률회계서비스(개인)","category":"other"},{"name":"미니스톱영통아셈점","tel":"031-204-0357","addr":"경기도 수원시 영통구 영통동 998-6번지 아셈프라자 109호","indutype":"유통업 영리 - 편 의 점","category":"other"},{"name":"분홍무지개","tel":"031-8007-3111","addr":"경기도 수원시 영통구 영통동 998-6번지 아셈프라자 2층 209호","indutype":"신변잡화 - 기타잡화","category":"other"},{"name":"세무사김갑수사무소","tel":"031-251-9215","addr":"경기도 수원시 영통구 영통동 998-6번지 아셈프라자 7층 703호","indutype":"용역 서비스 - 법률회계서비스(개인)","category":"other"},{"name":"세무사이형근사무소","tel":"031-206-8448","addr":"경기도 수원시 영통구 영통동 998-6번지 아셈프라자 407호","indutype":"용역 서비스 - 법률회계서비스(개인)","category":"other"},{"name":"세무사최상원회계사무소","tel":"031-273-7077","addr":"경기도 수원시 영통구 영통동 998-6번지 아셈프라자 4층 401호","indutype":"용역 서비스 - 법률회계서비스(개인)","category":"other"},{"name":"신발나라","tel":"031-206-2260","addr":"경기도 수원시 영통구 영통동 998-6번지 아셈프라자 115호","indutype":"신변잡화 - 신발","category":"other"},{"name":"일루이영통점","tel":"031-202-2680","addr":"경기도 수원시 영통구 영통동 998-6번지 아셈프라자 1층 107호","indutype":"신변잡화 - 액세서리","category":"other"},{"name":"임동윤세무사사무소","tel":"031-205-0079","addr":"경기도 수원시 영통구 영통동 998-6아셈프라자5층 501-1","indutype":"용역 서비스 - 법률회계서비스(개인)","category":"other"},{"name":"테마요가","tel":"031-205-5583","addr":"경기도 수원시 영통구 영통동 998-6번지 아셈프라자 808호","indutype":"회원제형태 - 레져업소","category":"other"},{"name":"트루젠동수원점","tel":"031-221-2377","addr":"경기도 수원시 영통구 영통동 998-6번지 아셈프라자 101호","indutype":"의류 - 정장","category":"other"}]},{"lat":"37.253266139","long":"127.07224875","imageIndex":17,"items":[{"name":"교보서적","tel":"031-273-1993","addr":"경기도 수원시 영통구 영통동 959-4번지 다모아프라자 2층 209호","indutype":"서적문구 - 일반서적","category":"other"},{"name":"교보서적","tel":"031-273-1993","addr":"경기도 수원시 영통구 영통동 959-4번지 다모아프라자 2층 209호","indutype":"서적문구 - 일반서적","category":"other"},{"name":"네버랜드뫼비우스","tel":"031-273-8583","addr":"경기도 수원시 영통구 영통동 959-4번지 다모아프라자 4층 406호","indutype":"서적문구 - 전문서적","category":"other"},{"name":"데이지","tel":"031-205-8824","addr":"경기도 수원시 영통구 영통동 959-4번지 다모아프라자 207호","indutype":"의류 - 정장","category":"other"},{"name":"뷰티라인","tel":"031-273-1223","addr":"경기도 수원시 영통구 영통동 959-4번지 다모아프라자 502호","indutype":"회원제형태 - 기타4","category":"other"},{"name":"앤하우스(수원점)","tel":"031-204-4280","addr":"경기도 수원시 영통구 영통동 959-4번지","indutype":"직물 - 침구·수예점","category":"other"},{"name":"양키캔들(수원영통점)","tel":"031-202-1201","addr":"경기도 수원시 영통구 영통동 959-4번지 다모아프라자 105호","indutype":"신변잡화 - 기타잡화","category":"other"},{"name":"에코플러스 스터디카페 영통2호점","tel":"070-3186-8273","addr":"경기도 수원시 영통구 영통동 959-4번지 다모아프라자 5층 505호","indutype":"용역 서비스 - 사무서비스","category":"other"},{"name":"왕대박","tel":"031-202-5556","addr":"경기도 수원시 영통구 영통동 959-4번지 다모아프라자 101,102호","indutype":"사무통신 - 통신기기","category":"other"},{"name":"유림무역","tel":"031-242-8024","addr":"경기도 수원시 영통구 영통동 959-4번지 다모아프라자 111호","indutype":"레져용품 - 스포츠·레져용품","category":"other"},{"name":"주식회사 아이조아바이오","tel":"031-273-3375","addr":"경기도 수원시 영통구 영통동 959-4번지 다모아프라자 501호","indutype":"용역 서비스 - 사무서비스","category":"other"},{"name":"주식회사 에이와이골드","tel":"031-203-9959","addr":"경기도 수원시 영통구 영통동 959-4번지 다모아프라자 302호","indutype":"신변잡화 - 귀금속","category":"other"},{"name":"청음세무회계사무소","tel":"031-202-6007","addr":"경기도 수원시 영통구 영통동 959-4번지 다모아프라자 503호","indutype":"용역 서비스 - 법률회계서비스(개인)","category":"other"}]},{"lat":"37.24968378","long":"127.08072147","imageIndex":17,"items":[{"name":"구봉산골프","tel":"","addr":"경기도 수원시 영통구 영통동 1025-1번지 보보스스프렉스 1층 116호","indutype":"레져용품 - 골프용품 전문점","category":"other"},{"name":"씨스페이시스 서부마트","tel":"031-202-2242","addr":"경기도 수원시 영통구 영통동 1025-1번지 109,110호","indutype":"유통업 영리 - 편 의 점","category":"other"},{"name":"제이엠뷰티케어","tel":"031-204-2821","addr":"경기도 수원시 영통구 영통동 1025-1보보스스포렉스131.132호2층일부","indutype":"회원제형태 - 기타4","category":"other"}]},{"lat":"37.252740469","long":"127.07730927","imageIndex":17,"items":[{"name":"국가대표체형교정센터","tel":"031-203-1578","addr":"경기도 수원시 영통구 영통동 1037-11번지","indutype":"회원제형태 - 기타4","category":"other"}]},{"lat":"37.249493369","long":"127.06774806","imageIndex":17,"items":[{"name":"극동.풍림세탁소","tel":"031-206-4224","addr":"경기도 수원시 영통구 영통동 967-2번지 극동.풍림아파트 106호","indutype":"수리서비스 - 세탁소","category":"other"}]},{"lat":"37.250125955","long":"127.07969623","imageIndex":17,"items":[{"name":"기적적으로 만드는 꽃나무","tel":"031-205-2959","addr":"경기도 수원시 영통구 영통동 1027-24번지 1층 104호","indutype":"문화.취미 - 화원","category":"other"},{"name":"서서림","tel":"","addr":"경기도 수원시 영통구 영통동 1027-24번지 104호","indutype":"서적문구 - 일반서적","category":"other"}]},{"lat":"37.254975943","long":"127.07583483","imageIndex":17,"items":[{"name":"김도형특허법률사무소","tel":"031-203-1015","addr":"경기도 수원시 영통구 영통동 996-3번지 대우월드마크 102동 3302호","indutype":"용역 서비스 - 법률회계서비스(개인)","category":"other"}]},{"lat":"37.2504607","long":"127.06156089","imageIndex":17,"items":[{"name":"김민재세탁소","tel":"031-202-0553","addr":"경기도 수원시 영통구 영통동 972-2번지 주공8단지 가상가 103호","indutype":"수리서비스 - 세탁소","category":"other"},{"name":"베스트토탈","tel":"","addr":"경기도 수원시 영통구 영통동 972-2번지 벽적골주공 휴먼시아8단지 839동 13층 02호","indutype":"건축자재 - 인테리어전문","category":"other"},{"name":"씨유영통태연점","tel":"02-1577-8007","addr":"경기도 수원시 영통구 영통동 972-2번지 벽적골주공휴먼시아8단지 나상가동 1층 104호","indutype":"유통업 영리 - 편 의 점","category":"other"}]},{"lat":"37.253821917","long":"127.07697218","imageIndex":17,"items":[{"name":"김영환가구조형소 (KIM YOUNG HWAN STUDIO)","tel":"031-206-7710","addr":"경기도 수원시 영통구 영통동 1038-2번지 지하1층","indutype":"가구 - 일반가구","category":"other"}]},{"lat":"37.250823256","long":"127.07408375","imageIndex":17,"items":[{"name":"김용복세무회계사무소","tel":"031-273-7000","addr":"경기도 수원시 영통구 영통동 1000-1번지 부영빌딩 6층","indutype":"용역 서비스 - 법률회계서비스(개인)","category":"other"}]},{"lat":"37.248687157","long":"127.07516377","imageIndex":17,"items":[{"name":"꽃밭에","tel":"031-202-7709","addr":"경기도 수원시 영통구 영통동 993-3번지 101호","indutype":"문화.취미 - 화원","category":"other"}]},{"lat":"37.253216693","long":"127.07938376","imageIndex":17,"items":[{"name":"끄라소따","tel":"031-206-4800","addr":"경기도 수원시 영통구 영통동 1045-5번지 1층 2호","indutype":"의류 - 정장","category":"other"},{"name":"냥이친구","tel":"031-548-0336","addr":"경기도 수원시 영통구 영통동 1045-5번지 6층","indutype":"문화.취미 - 애완동물","category":"other"}]},{"lat":"37.264354682","long":"127.07741089","imageIndex":17,"items":[{"name":"나노정보통신","tel":"031-205-0600","addr":"경기도 수원시 영통구 영통동 954-2번지 102호","indutype":"사무통신 - 통신기기","category":"other"}]},{"lat":"37.2465435","long":"127.05674521","imageIndex":17,"items":[{"name":"나라토지정보(주)","tel":"031-206-6910","addr":"경기도 수원시 영통구 영통동 978-7번지 정원빌딩 4층","indutype":"용역 서비스 - 사무서비스","category":"other"},{"name":"베스트문구","tel":"031-203-0379","addr":"경기도 수원시 영통구 영통동 978-7번지","indutype":"서적문구 - 문구용품","category":"other"},{"name":"제일종합장식","tel":"031-202-1792","addr":"경기도 수원시 영통구 영통동 978-7번지","indutype":"직물 - 카페트,커튼,천막,지물","category":"other"}]},{"lat":"37.246767019","long":"127.06044221","imageIndex":17,"items":[{"name":"너울라운지","tel":"031-000-0000","addr":"경기도 수원시 영통구 영통동 974-5번지 지하1층","indutype":"용역 서비스 - 사무서비스","category":"other"}]},{"lat":"37.249633712","long":"127.07438696","imageIndex":17,"items":[{"name":"늘(NEUL)","tel":"031-205-0207","addr":"경기도 수원시 영통구 영통동 1000-16번지 102호","indutype":"의류 - 정장","category":"other"},{"name":"명작스튜디오","tel":"031-273-6013","addr":"경기도 수원시 영통구 영통동 1000-16번지 102호","indutype":"용역 서비스 - 종합용역","category":"other"},{"name":"에스제이플라워마켓","tel":"031-205-1045","addr":"경기도 수원시 영통구 영통동 1000-16번지 101호","indutype":"문화.취미 - 화원","category":"other"}]},{"lat":"37.252352663","long":"127.07788375","imageIndex":17,"items":[{"name":"늘푸른꽃방","tel":"031-378-4999","addr":"경기도 수원시 영통구 영통동 1034-2번지 일부 1층","indutype":"문화.취미 - 화원","category":"other"}]},{"lat":"37.24501833","long":"127.06183843","imageIndex":17,"items":[{"name":"닛닛","tel":"070-7648-3457","addr":"경기도 수원시 영통구 영통동 981-2번지","indutype":"직물 - 침구·수예점","category":"other"},{"name":"더큰사람","tel":"070-3525-2838","addr":"경기도 수원시 영통구 영통동 981-2번지 판타지움 1층","indutype":"용역 서비스 - 종합용역","category":"other"},{"name":"리로드","tel":"070-9424-6868","addr":"경기도 수원시 영통구 영통동 981-2번지 판타지움 1층 14호","indutype":"의류 - 아동의류","category":"other"},{"name":"스파오 수원망포점","tel":"031-000-0000","addr":"경기도 수원시 영통구 영통동 981-2번지 1층 106호","indutype":"의류 - 정장","category":"other"},{"name":"썬인터내셔널","tel":"031-205-2040","addr":"경기도 수원시 영통구 영통동 981-2번지 지하1층 102호","indutype":"레져용품 - 골프용품 전문점","category":"other"},{"name":"요리다(YORIDO)","tel":"070-6938-5868","addr":"경기도 수원시 영통구 영통동 981-2번지 1층","indutype":"문화.취미 - 애완동물","category":"other"},{"name":"일리아","tel":"031-203-0940","addr":"경기도 수원시 영통구 영통동 981-2번지 더판타지움 1층","indutype":"문화.취미 - 화원","category":"other"},{"name":"주식회사 하이골프","tel":"031-8061-8000","addr":"경기도 수원시 영통구 영통동 981-2번지","indutype":"회원제형태 - 레져업소","category":"other"},{"name":"주식회사 호아(HOA.Inc)","tel":"070-4567-4444","addr":"경기도 수원시 영통구 영통동 981-2번지 1층 판타지움","indutype":"문화.취미 - 애완동물","category":"other"},{"name":"페뷰","tel":"070-4567-4444","addr":"경기도 수원시 영통구 영통동 981-2번지 더판타지움 1층 꿈이룸","indutype":"신변잡화 - 액세서리","category":"other"},{"name":"히든스팟","tel":"070-4567-4444","addr":"경기도 수원시 영통구 영통동 981-2번지","indutype":"용역 서비스 - 정보서비스","category":"other"}]},{"lat":"37.253460737","long":"127.07818919","imageIndex":17,"items":[{"name":"다올인테리어","tel":"031-273-6850","addr":"경기도 수원시 영통구 영통동 1041-3번지 1층","indutype":"건축자재 - 인테리어전문","category":"other"}]},{"lat":"37.264850284","long":"127.07735501","imageIndex":17,"items":[{"name":"다운포스","tel":"031-205-1120","addr":"경기도 수원시 영통구 영통동 949-5번지 지하층","indutype":"서적문구 - 완구점","category":"other"},{"name":"월드크리닝 수원황골점","tel":"031-206-8916","addr":"경기도 수원시 영통구 영통동 949-5번지 101호","indutype":"수리서비스 - 세탁소","category":"other"}]},{"lat":"37.25943553","long":"127.07666204","imageIndex":17,"items":[{"name":"대동문구","tel":"031-206-2500","addr":"경기도 수원시 영통구 영통동 956-2번지 대우.동신아파트","indutype":"서적문구 - 문구용품","category":"other"},{"name":"동신공인중개사","tel":"031-206-1700","addr":"경기도 수원시 영통구 영통동 956-2번지 대우동신 상가 102호","indutype":"용역 서비스 - 부동산 중개·임대","category":"other"}]},{"lat":"37.245159605","long":"127.06738368","imageIndex":17,"items":[{"name":"대림세탁소","tel":"031-202-2208","addr":"경기도 수원시 영통구 영통동 986-11번지 104호","indutype":"수리서비스 - 세탁소","category":"other"},{"name":"핸디페어 수원영통2동점","tel":"031-204-1221","addr":"경기도 수원시 영통구 영통동 986-11번지 103호","indutype":"용역 서비스 - 종합용역","category":"other"}]},{"lat":"37.249931371","long":"127.07385749","imageIndex":17,"items":[{"name":"대성종합상사","tel":"031-205-9901","addr":"경기도 수원시 영통구 영통동 1000-11번지","indutype":"직물 - 카페트,커튼,천막,지물","category":"other"},{"name":"레끌레드","tel":"031-202-0986","addr":"경기도 수원시 영통구 영통동 1000-11번지 104호","indutype":"의류 - 정장","category":"other"},{"name":"욕실플러스(수원점)","tel":"031-202-7839","addr":"경기도 수원시 영통구 영통동 1000-11번지 102호","indutype":"건축자재 - 건축용 요업제품","category":"other"},{"name":"한아름꽃백화점","tel":"031-203-5949","addr":"경기도 수원시 영통구 영통동 1000-11번지","indutype":"문화.취미 - 화원","category":"other"}]},{"lat":"37.252992108","long":"127.07833525","imageIndex":17,"items":[{"name":"대신상사","tel":"031-203-6203","addr":"경기도 수원시 영통구 영통동 1042-5번지","indutype":"건축자재 - 페인트","category":"other"}]},{"lat":"37.25099334","long":"127.07590989","imageIndex":17,"items":[{"name":"대영행정사","tel":"031-295-7807","addr":"경기도 수원시 영통구 영통동 1009-3번지 호원빌딩 102호","indutype":"용역 서비스 - 법률회계서비스(개인)","category":"other"},{"name":"유호랑","tel":"070-4229-9220","addr":"경기도 수원시 영통구 영통동 1009-3번지 호원빌딩 802호","indutype":"의류 - 기타의류","category":"other"},{"name":"인터테크주식회사","tel":"031-203-8121","addr":"경기도 수원시 영통구 영통동 1009-3번지 호원빌딩 806호","indutype":"전기제품 - 기타전기제품","category":"other"}]},{"lat":"37.249767575","long":"127.07649482","imageIndex":17,"items":[{"name":"대웅기업","tel":"031-205-1616","addr":"경기도 수원시 영통구 영통동 1005-13번지","indutype":"가구 - 일반가구","category":"other"}]},{"lat":"37.252688807","long":"127.07338666","imageIndex":17,"items":[{"name":"대현티씨에스 주식회사","tel":"070-7854-6666","addr":"경기도 수원시 영통구 영통동 995-5번지 111,112,113호","indutype":"사무통신 - 통신기기","category":"other"},{"name":"대현티씨에스 주식회사","tel":"070-7842-5740","addr":"경기도 수원시 영통구 영통동 995-5번지 111,112,113호","indutype":"사무통신 - 통신기기","category":"other"},{"name":"대현티씨에스 주식회사","tel":"070-7842-5740","addr":"경기도 수원시 영통구 영통동 995-5번지 111,112,113호","indutype":"사무통신 - 통신기기","category":"other"},{"name":"대현티씨에스 주식회사","tel":"070-7853-7777","addr":"경기도 수원시 영통구 영통동 995-5번지 111,112,113호","indutype":"사무통신 - 통신기기","category":"other"},{"name":"대현티씨에스주식회사","tel":"070-7842-5740","addr":"경기도 수원시 영통구 영통동 995-5번지 111,112,113호","indutype":"사무통신 - 통신기기","category":"other"},{"name":"대현티씨에스주식회사","tel":"031-241-3690","addr":"경기도 수원시 영통구 영통동 995-5 111,112,113호","indutype":"사무통신 - 통신기기","category":"other"},{"name":"대현티씨에스주식회사","tel":"070-7835-8877","addr":"경기도 수원시 영통구 영통동 995-5번지 111,112,113호","indutype":"사무통신 - 통신기기","category":"other"},{"name":"대현티씨에스주식회사","tel":"070-7853-9933","addr":"경기도 수원시 영통구 영통동 995-5 111,112,113호","indutype":"사무통신 - 통신기기","category":"other"},{"name":"대현티씨에스주식회사","tel":"070-7842-5740","addr":"경기도 수원시 영통구 영통동 995-5번지 111,112,113호","indutype":"사무통신 - 통신기기","category":"other"},{"name":"대현티씨에스주식회사","tel":"070-7842-5740","addr":"경기도 수원시 영통구 영통동 995-5번지 111,112,113호","indutype":"사무통신 - 통신기기","category":"other"},{"name":"대현티씨에스주식회사","tel":"070-7842-5740","addr":"경기도 수원시 영통구 영통동 995-5번지 111,112,113호","indutype":"사무통신 - 통신기기","category":"other"},{"name":"대현티씨에스주식회사","tel":"070-7842-5740","addr":"경기도 수원시 영통구 영통동 995-5번지 밀레니엄프라자 111,112,113호","indutype":"사무통신 - 통신기기","category":"other"},{"name":"대현티씨에스주식회사","tel":"070-4705-8000","addr":"경기도 수원시 영통구 영통동 995-5번지 밀레니엄프라자 111호 ,112호,113호","indutype":"사무통신 - 통신기기","category":"other"},{"name":"대현티씨에스주식회사","tel":"070-7008-7000","addr":"경기도 수원시 영통구 영통동 995-5,111,112,113호","indutype":"사무통신 - 통신기기","category":"other"},{"name":"대현티씨에스주식회사","tel":"070-7842-5740","addr":"경기도 수원시 영통구 영통동 995-5번지 111,112,113호","indutype":"사무통신 - 통신기기","category":"other"},{"name":"대현티씨에스주식회사","tel":"070-7842-5740","addr":"경기도 수원시 영통구 영통동 995-5번지 밀레니엄프라자 111,112,113호","indutype":"사무통신 - 통신기기","category":"other"},{"name":"대현티씨에스주식회사","tel":"070-7842-5740","addr":"경기도 수원시 영통구 영통동 995-5번지 111호 , ,112호,113호","indutype":"사무통신 - 통신기기","category":"other"},{"name":"삼성 다이아몬드 앤 금 거래소","tel":"031-206-4944","addr":"경기도 수원시 영통구 영통동 995-5번지 밀레니엄프라자 209호","indutype":"신변잡화 - 귀금속","category":"other"},{"name":"에블린","tel":"070-8899-2565","addr":"경기도 수원시 영통구 영통동 995-5번지 밀레니엄프라자 1층 103-2호","indutype":"의류 - 내의판매","category":"other"},{"name":"주식회사 퀸","tel":"031-206-0203","addr":"경기도 수원시 영통구 영통동 995-5번지 밀레니엄프라자 101동 212-1호","indutype":"건축자재 - 인테리어전문","category":"other"},{"name":"중앙텔레콤","tel":"031-217-7777","addr":"경기도 수원시 영통구 영통동 995-5번지 밀레니엄프라자 115-1호","indutype":"사무통신 - 통신기기","category":"other"},{"name":"캔들나무영통점","tel":"031-203-1200","addr":"경기도 수원시 영통구 영통동 995-5번지 밀레니엄프라자 108호","indutype":"신변잡화 - 기타잡화","category":"other"},{"name":"퀸하우스","tel":"031-206-0203","addr":"경기도 수원시 영통구 영통동 995-5,밀레니엄프라자306-1호,403-105","indutype":"직물 - 카페트,커튼,천막,지물","category":"other"},{"name":"태현티씨에스주식회사","tel":"070-7842-5740","addr":"경기도 수원시 영통구 영통동 995-5번지 111,112,113호","indutype":"사무통신 - 통신기기","category":"other"},{"name":"플러스 동물연구소","tel":"070-8823-6678","addr":"경기도 수원시 영통구 영통동 995-5번지 밀레니엄프라자 118호","indutype":"문화.취미 - 애완동물","category":"other"}]},{"lat":"37.264183657","long":"127.07714016","imageIndex":17,"items":[{"name":"더 블러썸디자인","tel":"031-202-9907","addr":"경기도 수원시 영통구 영통동 953-4번지 3층 302호","indutype":"건축자재 - 인테리어전문","category":"other"},{"name":"주식회사 제니스디자인그룹","tel":"031-202-9997","addr":"경기도 수원시 영통구 영통동 953-4번지 3층","indutype":"용역 서비스 - 종합용역","category":"other"}]},{"lat":"37.255049224","long":"127.07386229","imageIndex":17,"items":[{"name":"더 주노","tel":"","addr":"경기도 수원시 영통구 영통동 958-3번지 영통하우스토리 G동 1층 지04호","indutype":"의류 - 정장","category":"other"},{"name":"명품모바일","tel":"031-273-9447","addr":"경기도 수원시 영통구 영통동 958-3번지 영통하우스토리 제지 06호","indutype":"사무통신 - 통신기기","category":"other"},{"name":"씨유영통하우스토리점","tel":"02-1577-8007","addr":"경기도 수원시 영통구 영통동 958-3번지 영통하우스토리 1층 106호","indutype":"유통업 영리 - 편 의 점","category":"other"},{"name":"씨유영통하우스토리점","tel":"031-206-6056","addr":"경기도 수원시 영통구 영통동 958-3번지 영통하우스스토리 106호","indutype":"유통업 영리 - 편 의 점","category":"other"},{"name":"영통텔레콤","tel":"031-202-3332","addr":"경기도 수원시 영통구 영통동 958-3번지 영통하우스토리지하1층지하07호","indutype":"사무통신 - 통신기기","category":"other"}]},{"lat":"37.252018909","long":"127.07846954","imageIndex":17,"items":[{"name":"더블유디스페이스(WD space)","tel":"031-203-3323","addr":"경기도 수원시 영통구 영통동 1034-7번지 4,5층","indutype":"의류 - 정장","category":"other"}]},{"lat":"37.254922172","long":"127.07536135","imageIndex":17,"items":[{"name":"더웰FIT","tel":"031-202-4903","addr":"경기도 수원시 영통구 영통동 996-3번지 대우월드마크영통101동상가202호","indutype":"회원제형태 - 기타4","category":"other"},{"name":"디아벨(DAbel)","tel":"070-4103-8698","addr":"경기도 수원시 영통구 영통동 996-3번지 대우월드마크 101동 3403호","indutype":"신변잡화 - 기타잡화","category":"other"},{"name":"제이지어쏘시엣","tel":"031-273-5077","addr":"경기도 수원시 영통구 영통동 996-3번지 대우월드마크제오에프 101동 802호","indutype":"회원제형태 - 기타4","category":"other"},{"name":"참바른글씨","tel":"031-273-9967","addr":"경기도 수원시 영통구 영통동 996-3번지 대우월드마크 101동 216호","indutype":"회원제형태 - 서적","category":"other"}]},{"lat":"37.247910259","long":"127.07838654","imageIndex":17,"items":[{"name":"더하모니","tel":"031-206-1021","addr":"경기도 수원시 영통구 영통동 1024-14번지 경희유니빌 14동 101호","indutype":"의류 - 정장","category":"other"},{"name":"주식회사아이컨택트/원격지","tel":"031-273-0136","addr":"경기도 수원시 영통구 영통동 1024-14번지 경희유니빌 806호","indutype":"기타 - 기타 전문점","category":"other"}]},{"lat":"37.249551082","long":"127.0768891","imageIndex":17,"items":[{"name":"도그마루","tel":"","addr":"경기도 수원시 영통구 영통동 1014-15번지 101호 일부","indutype":"문화.취미 - 애완동물","category":"other"}]},{"lat":"37.250939755","long":"127.07513211","imageIndex":17,"items":[{"name":"도레미캣 수원점","tel":"031-000-0000","addr":"경기도 수원시 영통구 영통동 1008-9번지 4층","indutype":"문화.취미 - 애완동물","category":"other"},{"name":"러브인글로벌","tel":"031-204-4801","addr":"경기도 수원시 영통구 영통동 1008-9번지","indutype":"회원제형태 - 기타4","category":"other"},{"name":"핸드(HAND)","tel":"031-111-1111","addr":"경기도 수원시 영통구 영통동 1008-9번지","indutype":"레져용품 - 스포츠·레져용품","category":"other"}]},{"lat":"37.253939002","long":"127.0770512","imageIndex":17,"items":[{"name":"도예공방라온제나","tel":"031-205-4007","addr":"경기도 수원시 영통구 영통동 1038-3번지 근생빌딩 지하1층","indutype":"문화.취미 - 민예·공예품","category":"other"}]},{"lat":"37.255518076","long":"127.07333294","imageIndex":17,"items":[{"name":"동아스크린골프","tel":"031-202-2115","addr":"경기도 수원시 영통구 영통동 961-4 동아프라자117-1외","indutype":"회원제형태 - 레져업소","category":"other"},{"name":"동아프라자상가관리협의회","tel":"031-202-2115","addr":"경기도 수원시 영통구 영통동 961-4번지 동아빌딩","indutype":"용역 서비스 - 사무서비스","category":"other"},{"name":"탑독(TOP DOG)","tel":"031-202-1233","addr":"경기도 수원시 영통구 영통동 961-4번지 1층 109호","indutype":"문화.취미 - 애완동물","category":"other"}]},{"lat":"37.244605753","long":"127.05789343","imageIndex":17,"items":[{"name":"디아이","tel":"","addr":"경기도 수원시 영통구 영통동 1106번지 현대프라자 304동 711호","indutype":"사무통신 - 컴퓨터","category":"other"},{"name":"라움스포츠","tel":"02-000-0000","addr":"경기도 수원시 영통구 영통동 1106번지 현대프라자 304동 509호","indutype":"레져용품 - 스포츠·레져용품","category":"other"},{"name":"부성에코인테리어","tel":"031-273-6745","addr":"경기도 수원시 영통구 영통동 1106번지 현대프라자 104호","indutype":"건축자재 - 인테리어전문","category":"other"},{"name":"세븐일레븐수원영통현대점","tel":"031-1577-0711","addr":"경기도 수원시 영통구 영통동 1106번지 현대프라자 102호","indutype":"유통업 영리 - 편 의 점","category":"other"},{"name":"앤들레스7(ENDLESS 7)","tel":"","addr":"경기도 수원시 영통구 영통동 1106번지 현대프라자 304동 209호","indutype":"용역 서비스 - 종합용역","category":"other"},{"name":"종이접기및점핑클레이영통지부","tel":"031-202-0074","addr":"경기도 수원시 영통구 영통동 1106번지 현대프라자 404호","indutype":"서적문구 - 문구용품","category":"other"},{"name":"주식회사 드림아이디","tel":"031-1833-7351","addr":"경기도 수원시 영통구 영통동 1106번지 현대프라자 203호","indutype":"용역 서비스 - 종합용역","category":"other"},{"name":"주식회사국도아이디","tel":"031-204-3444","addr":"경기도 수원시 영통구 영통동 1106번지 현대프라자 201호","indutype":"건축자재 - 인테리어전문","category":"other"},{"name":"파인에플 교육연구소","tel":"","addr":"경기도 수원시 영통구 영통동 1106번지 현대프라자 304호","indutype":"서적문구 - 출판 및 인쇄물","category":"other"}]},{"lat":"37.260406192","long":"127.08049577","imageIndex":17,"items":[{"name":"디자인드림","tel":"031-206-2228","addr":"경기도 수원시 영통구 영통동 1050-4번지 1층","indutype":"직물 - 카페트,커튼,천막,지물","category":"other"}]},{"lat":"37.250434666","long":"127.07596571","imageIndex":17,"items":[{"name":"떠올림","tel":"","addr":"경기도 수원시 영통구 영통동 1005-1번지 3층 303호","indutype":"광학제품 - 사진관","category":"other"},{"name":"바이먼스","tel":"031-234-2710","addr":"경기도 수원시 영통구 영통동 1005-1번지 3층","indutype":"서적문구 - 과학기자재","category":"other"},{"name":"아토바이오텍","tel":"031-8007-3111","addr":"경기도 수원시 영통구 영통동 1005-1번지 주흥빌딩 3층 303호","indutype":"건축자재 - 기타건축자재","category":"other"},{"name":"중국여행사","tel":"031-293-0094","addr":"경기도 수원시 영통구 영통동 1005-1번지 1층","indutype":"여행 - 관광여행","category":"other"}]},{"lat":"37.248794406","long":"127.07658404","imageIndex":17,"items":[{"name":"러브하우스","tel":"031-273-2033","addr":"경기도 수원시 영통구 영통동 1016-4번지","indutype":"신변잡화 - 기타잡화","category":"other"}]},{"lat":"37.244460147","long":"127.06091382","imageIndex":17,"items":[{"name":"러블리앤(Lovelyand)","tel":"070-7612-4555","addr":"경기도 수원시 영통구 영통동 1116번지","indutype":"의류 - 아동의류","category":"other"},{"name":"주식회사 고우프랑","tel":"031-204-5400","addr":"경기도 수원시 영통구 영통동 1116번지 103호","indutype":"여행 - 관광여행","category":"other"}]},{"lat":"37.252377952","long":"127.06536093","imageIndex":17,"items":[{"name":"레고교실","tel":"031-273-0198","addr":"경기도 수원시 영통구 영통동 964-4번지 소망교육센터 3층 305호","indutype":"서적문구 - 완구점","category":"other"},{"name":"수체형비만관리","tel":"031-205-5253","addr":"경기도 수원시 영통구 영통동 964-4번지 소망문화센터 405호","indutype":"회원제형태 - 기타4","category":"other"},{"name":"스텔라","tel":"070-7719-4806","addr":"경기도 수원시 영통구 영통동 964-4번지 소망문화센터 1층 103호","indutype":"의류 - 정장","category":"other"},{"name":"예안인테리어디자인","tel":"031-202-7004","addr":"경기도 수원시 영통구 영통동 964-4번지 소망문화센터 1층 104호","indutype":"건축자재 - 인테리어전문","category":"other"},{"name":"튼튼영어영통지사","tel":"031-205-0549","addr":"경기도 수원시 영통구 영통동 964-4번지 소망문화센터 304호","indutype":"회원제형태 - 서적","category":"other"}]},{"lat":"37.245547693","long":"127.06618932","imageIndex":17,"items":[{"name":"로뎀멀티미디어","tel":"031-8733-3556","addr":"경기도 수원시 영통구 영통동 983-5 동호빌301호","indutype":"광학제품 - 사진관","category":"other"}]},{"lat":"37.247768462","long":"127.0745768","imageIndex":17,"items":[{"name":"로즈피엘","tel":"070-4157-6075","addr":"경기도 수원시 영통구 영통동 991-3번지 1층 101호","indutype":"문화.취미 - 화원","category":"other"}]},{"lat":"37.249603466","long":"127.07952663","imageIndex":17,"items":[{"name":"로커스에어텍주식회사","tel":"031-206-8034","addr":"경기도 수원시 영통구 영통동 1019-27번지","indutype":"전기제품 - 냉열기기","category":"other"},{"name":"현조경개발주식회사","tel":"031-273-3536","addr":"경기도 수원시 영통구 영통동 1019-27번지 101호","indutype":"건축자재 - 인테리어전문","category":"other"}]},{"lat":"37.251684993","long":"127.07930331","imageIndex":17,"items":[{"name":"로코코플라워(rococo flower)","tel":"070-8113-0756","addr":"경기도 수원시 영통구 영통동 1030-13번지 102호","indutype":"문화.취미 - 화원","category":"other"}]},{"lat":"37.247153544","long":"127.0623022","imageIndex":17,"items":[{"name":"롯데세탁소","tel":"031-205-6650","addr":"경기도 수원시 영통구 영통동 971-1벽적골롯데@근린상가1층112호","indutype":"수리서비스 - 세탁소","category":"other"},{"name":"명인열쇠","tel":"031-206-0002","addr":"경기도 수원시 영통구 영통동 971-1롯데프라자전면출입구","indutype":"기타 - 기계공구","category":"other"},{"name":"스마일사진관","tel":"031-273-5979","addr":"경기도 수원시 영통구 영통동 971-1번지 벽적골롯데아파트 지하1층 117호","indutype":"광학제품 - 사진관","category":"other"},{"name":"스피드옷수선","tel":"031-205-4122","addr":"경기도 수원시 영통구 영통동 971-1 롯데프라자 103-2","indutype":"수리서비스 - 세탁소","category":"other"}]},{"lat":"37.252964405","long":"127.0793835","imageIndex":17,"items":[{"name":"루비플라워핸드메이드샵","tel":"","addr":"경기도 수원시 영통구 영통동 1044-1번지 1층 102호","indutype":"신변잡화 - 액세서리","category":"other"},{"name":"영통국민유리","tel":"031-203-4921","addr":"경기도 수원시 영통구 영통동 1044-1번지","indutype":"건축자재 - 유리","category":"other"},{"name":"행복동 모퉁이","tel":"070-4247-0329","addr":"경기도 수원시 영통구 영통동 1044-1번지 1층 103호","indutype":"문화.취미 - 문화취미기타","category":"other"}]},{"lat":"37.265847691","long":"127.08158362","imageIndex":17,"items":[{"name":"리틀타익스","tel":"031-205-4222","addr":"경기도 수원시 영통구 영통동 947-12번지 상가 104호","indutype":"서적문구 - 완구점","category":"other"}]},{"lat":"37.24671282","long":"127.06072394","imageIndex":17,"items":[{"name":"린연습실","tel":"031-202-5460","addr":"경기도 수원시 영통구 영통동 974-6번지 세일빌딩 6층","indutype":"용역 서비스 - 사무서비스","category":"other"},{"name":"무한통신주식회사","tel":"031-206-3400","addr":"경기도 수원시 영통구 영통동 974-6번지 세일빌딩 109호","indutype":"사무통신 - 통신기기","category":"other"},{"name":"수에스테틱","tel":"031-205-6971","addr":"경기도 수원시 영통구 영통동 974-6번지 세일빌딩 3층 301호","indutype":"회원제형태 - 기타4","category":"other"},{"name":"수원프라자","tel":"031-205-4010","addr":"경기도 수원시 영통구 영통동 974-6번지 세일빌딩 1층 108호","indutype":"사무통신 - 통신기기","category":"other"},{"name":"커피랑도서관영통1호점","tel":"070-4215-1140","addr":"경기도 수원시 영통구 영통동 974-6번지 세일빌딩 3층 305호","indutype":"용역 서비스 - 사무서비스","category":"other"},{"name":"폰이십사","tel":"070-4200-7012","addr":"경기도 수원시 영통구 영통동 974-6번지 일부세일빌딩 106호","indutype":"사무통신 - 통신기기","category":"other"}]},{"lat":"37.253796439","long":"127.07444725","imageIndex":17,"items":[{"name":"마녀의 밥그릇","tel":"","addr":"경기도 수원시 영통구 영통동 995-2번지 미네시티 107호","indutype":"주방용구 - 주방용식기","category":"other"},{"name":"미용하는 남자","tel":"031-205-5937","addr":"경기도 수원시 영통구 영통동 995-2번지 미네시티 119호","indutype":"문화.취미 - 애완동물","category":"other"},{"name":"세사리빙영통점","tel":"031-206-9989","addr":"경기도 수원시 영통구 영통동 995-2번지 미네시티프라자 110호,111호","indutype":"직물 - 침구·수예점","category":"other"},{"name":"앤피랄테스영통점","tel":"031-273-1202","addr":"경기도 수원시 영통구 영통동 995-2번지 미네시티제209-1호","indutype":"회원제형태 - 레져업소","category":"other"},{"name":"영통컴퓨터","tel":"031-205-0047","addr":"경기도 수원시 영통구 영통동 995-2번지 123호 미네시티수원컴퓨터","indutype":"사무통신 - 컴퓨터","category":"other"},{"name":"오하플로르","tel":"031-111-1111","addr":"경기도 수원시 영통구 영통동 995-2번지 미네시티 1층 112호","indutype":"문화.취미 - 화원","category":"other"},{"name":"인디안.니(영통점)","tel":"031-273-1343","addr":"경기도 수원시 영통구 영통동 995-2번지 미네시티 1층 101호","indutype":"의류 - 정장","category":"other"},{"name":"칼라비","tel":"031-203-5665","addr":"경기도 수원시 영통구 영통동 995-2번지 미네시티 112호","indutype":"의류 - 정장","category":"other"},{"name":"휴에스테틱","tel":"031-206-7760","addr":"경기도 수원시 영통구 영통동 995-2번지 미네시티 205호","indutype":"회원제형태 - 기타4","category":"other"}]},{"lat":"37.251017601","long":"127.08027198","imageIndex":17,"items":[{"name":"마르 도자기(MAR ceramic studio)","tel":"","addr":"경기도 수원시 영통구 영통동 1027-6번지 302호","indutype":"문화.취미 - 민예·공예품","category":"other"}]},{"lat":"37.260099805","long":"127.08055182","imageIndex":17,"items":[{"name":"마리앤제이","tel":"","addr":"경기도 수원시 영통구 영통동 1051-5번지 3층","indutype":"의류 - 정장","category":"other"}]},{"lat":"37.249848598","long":"127.07660761","imageIndex":17,"items":[{"name":"맑은세상","tel":"031-275-3131","addr":"경기도 수원시 영통구 영통동 1005-14번지","indutype":"주방용구 - 정수기","category":"other"}]},{"lat":"37.247911479","long":"127.07644793","imageIndex":17,"items":[{"name":"매일문구","tel":"031-206-6385","addr":"경기도 수원시 영통구 영통동 1024-3번지 1층 102호","indutype":"서적문구 - 문구용품","category":"other"}]},{"lat":"37.254019426","long":"127.07811084","imageIndex":17,"items":[{"name":"명품아울렛","tel":"031-205-0169","addr":"경기도 수원시 영통구 영통동 1038-13번지 1층 일부","indutype":"신변잡화 - 기타잡화","category":"other"},{"name":"한돌서예","tel":"031-204-1116","addr":"경기도 수원시 영통구 영통동 1038-13번지 4층 우측","indutype":"문화.취미 - 문화취미기타","category":"other"}]},{"lat":"37.249047905","long":"127.07461183","imageIndex":17,"items":[{"name":"모닝글로리 영통점","tel":"031-273-8876","addr":"경기도 수원시 영통구 영통동 990-1번지","indutype":"서적문구 - 문구용품","category":"other"}]},{"lat":"37.265848331","long":"127.08061409","imageIndex":17,"items":[{"name":"모아꽃방마트","tel":"031-206-7874","addr":"경기도 수원시 영통구 영통동 947-8번지","indutype":"유통업 영리 - 기타유통업","category":"other"}]},{"lat":"37.246605019","long":"127.06005888","imageIndex":17,"items":[{"name":"모아피부샵","tel":"031-273-7591","addr":"경기도 수원시 영통구 영통동 974-9번지 4층","indutype":"회원제형태 - 기타4","category":"other"}]},{"lat":"37.248714579","long":"127.07452134","imageIndex":17,"items":[{"name":"몬스터 스튜디오(Monster Studio)","tel":"","addr":"경기도 수원시 영통구 영통동 990-20번지 B03호","indutype":"용역 서비스 - 종합용역","category":"other"}]},{"lat":"37.249604162","long":"127.07844459","imageIndex":17,"items":[{"name":"무자기","tel":"","addr":"경기도 수원시 영통구 영통동 1013-5번지 B102호","indutype":"문화.취미 - 문화취미기타","category":"other"}]},{"lat":"37.257625536","long":"127.07491304","imageIndex":17,"items":[{"name":"문구팬시","tel":"031-204-1895","addr":"경기도 수원시 영통구 영통동 957-6청명마을삼익벽산상가114","indutype":"서적문구 - 문구용품","category":"other"},{"name":"크린토피아세탁체인점","tel":"031-204-6914","addr":"경기도 수원시 영통구 영통동 957-6 삼익 벽산지하4호","indutype":"수리서비스 - 세탁소","category":"other"}]},{"lat":"37.248271737","long":"127.07669624","imageIndex":17,"items":[{"name":"미니스톱 영통경희대점","tel":"031-1577-9621","addr":"경기도 수원시 영통구 영통동 1023-5번지","indutype":"유통업 영리 - 편 의 점","category":"other"},{"name":"미니스톱영통경희대점","tel":"031-1577-9621","addr":"경기도 수원시 영통구 영통동 1023-5번지 1층","indutype":"유통업 영리 - 편 의 점","category":"other"}]},{"lat":"37.246876928","long":"127.05664401","imageIndex":17,"items":[{"name":"미도인테리어","tel":"031-206-8020","addr":"경기도 수원시 영통구 영통동 977-4번지 101호","indutype":"직물 - 카페트,커튼,천막,지물","category":"other"}]},{"lat":"37.252488463","long":"127.07685816","imageIndex":17,"items":[{"name":"미라클스터디카페","tel":"031-546-8732","addr":"경기도 수원시 영통구 영통동 1011-3번지 4층 403호 일부","indutype":"용역 서비스 - 사무서비스","category":"other"},{"name":"영통3동주민자치위원회","tel":"031-228-8998","addr":"경기도 수원시 영통구 영통동 1011-3번지 501호","indutype":"문화.취미 - 문화취미기타","category":"other"}]},{"lat":"37.253045315","long":"127.07966538","imageIndex":17,"items":[{"name":"미쎄스지","tel":"070-8632-0596","addr":"경기도 수원시 영통구 영통동 1045-7번지 3층","indutype":"의류 - 내의판매","category":"other"}]},{"lat":"37.251044521","long":"127.08044108","imageIndex":17,"items":[{"name":"바둑아 놀자!","tel":"031-203-3278","addr":"경기도 수원시 영통구 영통동 1027-5번지 1층","indutype":"문화.취미 - 애완동물","category":"other"}]},{"lat":"37.247825109","long":"127.07016989","imageIndex":17,"items":[{"name":"바바앤유","tel":"","addr":"경기도 수원시 영통구 영통동 988-2번지 르네상스시티프라자 5층 516호","indutype":"문화.취미 - 문화취미기타","category":"other"}]},{"lat":"37.250074184","long":"127.07607808","imageIndex":17,"items":[{"name":"바이쟌느","tel":"070-4412-8111","addr":"경기도 수원시 영통구 영통동 1006-4번지 1층","indutype":"문화.취미 - 문화취미기타","category":"other"},{"name":"원주민꽃농원","tel":"031-204-2844","addr":"경기도 수원시 영통구 영통동 1006-4번지","indutype":"문화.취미 - 화원","category":"other"}]},{"lat":"37.26679377","long":"127.08158461","imageIndex":17,"items":[{"name":"박문근법무사사무소","tel":"031-273-8443","addr":"경기도 수원시 영통구 영통동 945-4번지 한솔프라자 404호","indutype":"용역 서비스 - 법률회계서비스(개인)","category":"other"},{"name":"아리담스킨앤바디","tel":"031-205-0805","addr":"경기도 수원시 영통구 영통동 945-4번지 한솔프라자 204호","indutype":"회원제형태 - 기타4","category":"other"},{"name":"아이북렌탈","tel":"031-202-2048","addr":"경기도 수원시 영통구 영통동 945-4번지 한솔프라자 204호","indutype":"서적문구 - 일반서적","category":"other"},{"name":"주식회사링크툴러","tel":"031-538-1377","addr":"경기도 수원시 영통구 영통동 945-4번지 한솔프라자","indutype":"용역 서비스 - 종합용역","category":"other"},{"name":"토즈멤버십라운지 영통2센터","tel":"031-202-7250","addr":"경기도 수원시 영통구 영통동 945-4번지 한솔프라자 7층 701호","indutype":"용역 서비스 - 사무서비스","category":"other"},{"name":"특허법인 태하","tel":"031-202-8868","addr":"경기도 수원시 영통구 영통동 945-4번지 한솔프라자 501,501-1호","indutype":"용역 서비스 - 법률회계서비스(법인)","category":"other"},{"name":"한국요가연수원영통수련원","tel":"031-203-9997","addr":"경기도 수원시 영통구 영통동 945-4번지 한솔프라자 505호","indutype":"회원제형태 - 레져업소","category":"other"},{"name":"한솔공인중개사사무소","tel":"031-203-7788","addr":"경기도 수원시 영통구 영통동 945-4번지 한솔프라자 1층","indutype":"용역 서비스 - 법률회계서비스(개인)","category":"other"}]},{"lat":"37.250436029","long":"127.0737227","imageIndex":17,"items":[{"name":"박이주디자인","tel":"031-202-0017","addr":"경기도 수원시 영통구 영통동 1000-5번지 지오디자인빌딩 1층","indutype":"직물 - 카페트,커튼,천막,지물","category":"other"},{"name":"세벗세무회계사무소","tel":"031-206-7823","addr":"경기도 수원시 영통구 영통동 1000-5번지","indutype":"용역 서비스 - 법률회계서비스(개인)","category":"other"},{"name":"이강모경영,부동산컨설팅사무소","tel":"031-222-7820","addr":"경기도 수원시 영통구 영통동 1000-5번지","indutype":"회원제형태 - 사무서비스","category":"other"}]},{"lat":"37.246659389","long":"127.05941648","imageIndex":17,"items":[{"name":"베스트올영통벽적골점","tel":"031-206-9604","addr":"경기도 수원시 영통구 영통동 974-1번지 토야프라자 103호","indutype":"유통업 영리 - 편 의 점","category":"other"}]},{"lat":"37.254931044","long":"127.0755868","imageIndex":17,"items":[{"name":"변호사 오경연 법률사무소","tel":"031-202-9978","addr":"경기도 수원시 영통구 영통동 996-3번지 대우월드마크영통 201호","indutype":"용역 서비스 - 법률회계서비스(개인)","category":"other"},{"name":"씨앤에이치프리미어렌탈(주)수원지점","tel":"031-226-2231","addr":"경기도 수원시 영통구 영통동 996-3번지 대우월드마크영통 1층 112호","indutype":"여행 - 렌터카","category":"other"},{"name":"엘림","tel":"031-202-3703","addr":"경기도 수원시 영통구 영통동 996-3번지 대우월드마크 3층 316,317,318,319호","indutype":"신변잡화 - 기타잡화","category":"other"},{"name":"주식회사 꽃보다여행","tel":"031-206-3088","addr":"경기도 수원시 영통구 영통동 996-3번지 대우월드마크 4층 402호","indutype":"여행 - 관광여행","category":"other"},{"name":"주식회사 와이드","tel":"031-226-2231","addr":"경기도 수원시 영통구 영통동 996-3번지 대우 월드마크 영통 112호","indutype":"여행 - 렌터카","category":"other"},{"name":"하이퍼메딕스(Hypermedics)","tel":"031-206-1446","addr":"경기도 수원시 영통구 영통동 996-3번지 대우월드마크영통 오에프 608호","indutype":"용역 서비스 - 사무서비스","category":"other"}]},{"lat":"37.246606659","long":"127.05655365","imageIndex":17,"items":[{"name":"비채온힐링카페","tel":"02-579-6161","addr":"경기도 수원시 영통구 영통동 978-6번지 5층","indutype":"사무통신 - 기타 사무용품","category":"other"}]},{"lat":"37.266406328","long":"127.08158421","imageIndex":17,"items":[{"name":"비책스터디카페","tel":"031-273-2888","addr":"경기도 수원시 영통구 영통동 945-6번지 한성프라자 7층 일부","indutype":"용역 서비스 - 사무서비스","category":"other"},{"name":"제일서적","tel":"031-206-3824","addr":"경기도 수원시 영통구 영통동 945-6번지 한성프라자 101호","indutype":"서적문구 - 일반서적","category":"other"},{"name":"초코크림베이비스튜디오","tel":"031-374-6064","addr":"경기도 수원시 영통구 영통동 945-6번지 한성프라자 제 3층 301호","indutype":"광학제품 - 사진관","category":"other"}]},{"lat":"37.24807486","long":"127.0744982","imageIndex":17,"items":[{"name":"비트앤바이트","tel":"031-205-6654","addr":"경기도 수원시 영통구 영통동 990-14번지 지하","indutype":"사무통신 - 컴퓨터","category":"other"}]},{"lat":"37.250100957","long":"127.07649514","imageIndex":17,"items":[{"name":"빅홈여행사","tel":"031-203-5888","addr":"경기도 수원시 영통구 영통동 1005-6번지 101호","indutype":"여행 - 관광여행","category":"other"}]},{"lat":"37.250129143","long":"127.07461285","imageIndex":17,"items":[{"name":"삼성인테리어","tel":"031-202-0085","addr":"경기도 수원시 영통구 영통동 1002-11번지","indutype":"건축자재 - 인테리어전문","category":"other"}]},{"lat":"37.265632504","long":"127.07997127","imageIndex":17,"items":[{"name":"샘터공인중개사사무소","tel":"031-203-8200","addr":"경기도 수원시 영통구 영통동 948-4번지 황골주공 상가 104호","indutype":"용역 서비스 - 부동산 중개·임대","category":"other"}]},{"lat":"37.253911217","long":"127.07824599","imageIndex":17,"items":[{"name":"샤이나콜렉션","tel":"031-273-5255","addr":"경기도 수원시 영통구 영통동 1038-14번지 1층 3호","indutype":"의류 - 정장","category":"other"}]},{"lat":"37.253766872","long":"127.07852765","imageIndex":17,"items":[{"name":"샤인조","tel":"031-205-1003","addr":"경기도 수원시 영통구 영통동 1038-16번지 금상빌딩 1층 102호","indutype":"의류 - 정장","category":"other"}]},{"lat":"37.252155565","long":"127.07608009","imageIndex":17,"items":[{"name":"샬롬테라피","tel":"031-204-0028","addr":"경기도 수원시 영통구 영통동 1010-3번지 대림빌딩 4층 401호","indutype":"회원제형태 - 기타4","category":"other"},{"name":"휴","tel":"031-202-7584","addr":"경기도 수원시 영통구 영통동 1010-3번지 대림빌딩 301호","indutype":"회원제형태 - 기타4","category":"other"}]},{"lat":"37.250044517","long":"127.0802259","imageIndex":17,"items":[{"name":"세고비아 수원","tel":"070-4404-8708","addr":"경기도 수원시 영통구 영통동 1027-18번지","indutype":"레져용품 - 악기점","category":"other"}]},{"lat":"37.250715186","long":"127.07399348","imageIndex":17,"items":[{"name":"세무사송범주사무소","tel":"031-251-6666","addr":"경기도 수원시 영통구 영통동 1000-2번지 원창빌딩 7층","indutype":"용역 서비스 - 법률회계서비스(개인)","category":"other"}]},{"lat":"37.250544105","long":"127.0738017","imageIndex":17,"items":[{"name":"세무사이경섭사무소","tel":"031-204-5851","addr":"경기도 수원시 영통구 영통동 1000-4번지 3층","indutype":"용역 서비스 - 법률회계서비스(개인)","category":"other"}]},{"lat":"37.251210332","long":"127.07469278","imageIndex":17,"items":[{"name":"세무사이대현사무소","tel":"031-204-7799","addr":"경기도 수원시 영통구 영통동 1008-5번지 다온빌딩 4층","indutype":"용역 서비스 - 법률회계서비스(개인)","category":"other"}]},{"lat":"37.249489397","long":"127.07463479","imageIndex":17,"items":[{"name":"세븐일레븐수원영통영일점","tel":"","addr":"경기도 수원시 영통구 영통동 1000-18번지","indutype":"유통업 영리 - 편 의 점","category":"other"}]},{"lat":"37.258514369","long":"127.07997529","imageIndex":17,"items":[{"name":"세븐일레븐영통청명주공점","tel":"031-1577-0711","addr":"경기도 수원시 영통구 영통동 1048-5번지 가상가 103호","indutype":"유통업 영리 - 편 의 점","category":"other"}]},{"lat":"37.246182317","long":"127.05841303","imageIndex":17,"items":[{"name":"세븐토이 (Seven Toy)","tel":"031-222-9513","addr":"경기도 수원시 영통구 영통동 976-6번지 한솔빌딩 4층 좌측","indutype":"서적문구 - 완구점","category":"other"}]},{"lat":"37.252327596","long":"127.07471638","imageIndex":17,"items":[{"name":"소녀폰중고폰 수원영통역점","tel":"031-111-1111","addr":"경기도 수원시 영통구 영통동 998-7번지 2층 202호","indutype":"사무통신 - 통신기기","category":"other"},{"name":"애플바","tel":"070-7420-3852","addr":"경기도 수원시 영통구 영통동 998-7번지 522호","indutype":"수리서비스 - 사무·통신기기수리","category":"other"},{"name":"영통점예스","tel":"031-000-0000","addr":"경기도 수원시 영통구 영통동 998-7번지 101-2호","indutype":"의류 - 내의판매","category":"other"},{"name":"커피랑도서관 수원영통역점","tel":"","addr":"경기도 수원시 영통구 영통동 998-7번지 클래시아 3층 307호","indutype":"용역 서비스 - 사무서비스","category":"other"}]},{"lat":"37.252792792","long":"127.08002582","imageIndex":17,"items":[{"name":"소솜사진관","tel":"031-1111-1111","addr":"경기도 수원시 영통구 영통동 1033-1번지 지하1층","indutype":"광학제품 - 사진관","category":"other"}]},{"lat":"37.250183524","long":"127.07408315","imageIndex":17,"items":[{"name":"솜씨공방","tel":"031-206-8212","addr":"경기도 수원시 영통구 영통동 1001-9번지","indutype":"문화.취미 - 문화취미기타","category":"other"}]},{"lat":"37.250021555","long":"127.07372232","imageIndex":17,"items":[{"name":"솜씨장이 옷수선","tel":"031-203-4631","addr":"경기도 수원시 영통구 영통동 1000-10번지 103호","indutype":"수리서비스 - 세탁소","category":"other"},{"name":"영통스포츠","tel":"031-206-3553","addr":"경기도 수원시 영통구 영통동 1000-10번지","indutype":"레져용품 - 스포츠·레져용품","category":"other"},{"name":"영통철물","tel":"031-204-8182","addr":"경기도 수원시 영통구 영통동 1000-10번지","indutype":"기타 - 기계공구","category":"other"}]},{"lat":"37.25043182","long":"127.08044045","imageIndex":17,"items":[{"name":"수원 조아 인테리어","tel":"031-227-3939","addr":"경기도 수원시 영통구 영통동 1027-14번지 1층","indutype":"건축자재 - 인테리어전문","category":"other"}]},{"lat":"37.249459177","long":"127.07971809","imageIndex":17,"items":[{"name":"수원신도판매영통점","tel":"031-206-8388","addr":"경기도 수원시 영통구 영통동 1019-29번지","indutype":"사무통신 - 사무용 OA기기","category":"other"}]},{"lat":"37.246543268","long":"127.0572524","imageIndex":17,"items":[{"name":"수원영통동우체국","tel":"031-202-2005","addr":"경기도 수원시 영통구 영통동 975-1번지","indutype":"용역 서비스 - 공공요금대행서비스/소","category":"other"}]},{"lat":"37.25423684","long":"127.07625118","imageIndex":17,"items":[{"name":"수원우편집중국","tel":"031-201-7320","addr":"경기도 수원시 영통구 영통동 997번지","indutype":"용역 서비스 - 공공요금대행서비스/소","category":"other"},{"name":"수원청명우체국","tel":"031-206-4100","addr":"경기도 수원시 영통구 영통동 997번지","indutype":"용역 서비스 - 공공요금대행서비스/소","category":"other"}]},{"lat":"37.249967195","long":"127.0742182","imageIndex":17,"items":[{"name":"수원자주고름한복","tel":"031-205-8296","addr":"경기도 수원시 영통구 영통동 1002-7","indutype":"의류 - 맞춤복점","category":"other"}]},{"lat":"37.246075546","long":"127.05544874","imageIndex":17,"items":[{"name":"수원전자담배마샤영통점","tel":"031-202-8873","addr":"경기도 수원시 영통구 영통동 979-2번지 늘푸른빌딩 104호","indutype":"기타 - 기타 전문점","category":"other"},{"name":"에이블어학원","tel":"031-206-2828","addr":"경기도 수원시 영통구 영통동 979-2번지","indutype":"회원제형태 - 서적","category":"other"}]},{"lat":"37.26679447","long":"127.08052487","imageIndex":17,"items":[{"name":"수원황곡우체국","tel":"031-206-2004","addr":"경기도 수원시 영통구 영통동 947-4번지","indutype":"용역 서비스 - 공공요금대행서비스/소","category":"other"}]},{"lat":"37.253297873","long":"127.07924858","imageIndex":17,"items":[{"name":"쉬이즈","tel":"031-203-5434","addr":"경기도 수원시 영통구 영통동 1045-4번지 더원빌딩 1층 102호","indutype":"의류 - 기타의류","category":"other"},{"name":"씨디버디주식회사","tel":"031-205-9904","addr":"경기도 수원시 영통구 영통동 1045-4번지 더원빌딩 4층","indutype":"유통업 영리 - 기타유통업","category":"other"}]},{"lat":"37.246631864","long":"127.06044211","imageIndex":17,"items":[{"name":"쉼표 연습실","tel":"031-206-3741","addr":"경기도 수원시 영통구 영통동 974-7번지 6층","indutype":"용역 서비스 - 사무서비스","category":"other"}]},{"lat":"37.251795679","long":"127.0752231","imageIndex":17,"items":[{"name":"슈즈타운탑존","tel":"031-203-2633","addr":"경기도 수원시 영통구 영통동 1009-1번지 아이텐텐빌딩 103호","indutype":"신변잡화 - 신발","category":"other"},{"name":"스터디플래닛멤버쉽라운지수원영통센터","tel":"031-205-5509","addr":"경기도 수원시 영통구 영통동 1009-1번지 아이텐텐빌딩 803호 일부","indutype":"용역 서비스 - 사무서비스","category":"other"},{"name":"에코플러스 스터디까페","tel":"","addr":"경기도 수원시 영통구 영통동 1009-1번지 아이텐텐빌딩 505호","indutype":"용역 서비스 - 사무서비스","category":"other"},{"name":"주식회사스토리에듀","tel":"031-205-0579","addr":"경기도 수원시 영통구 영통동 1009-1번지 아이텐텐빌딩 503호","indutype":"회원제형태 - 서적","category":"other"},{"name":"토즈스터디센터영통센터","tel":"031-273-9033","addr":"경기도 수원시 영통구 영통동 1009-1번지 아이텐텐빌딩 601호 일부","indutype":"용역 서비스 - 사무서비스","category":"other"}]},{"lat":"37.251716221","long":"127.0724953","imageIndex":17,"items":[{"name":"스위스(영통점)","tel":"031-202-4767","addr":"경기도 수원시 영통구 영통동 994-2 홈플러스3층","indutype":"신변잡화 - 귀금속","category":"other"}]},{"lat":"37.252849254","long":"127.07624984","imageIndex":17,"items":[{"name":"스카이커머스","tel":"070-4104-3119","addr":"경기도 수원시 영통구 영통동 1011-1번지 키넥스프라자 204호","indutype":"건축자재 - 기타건축자재","category":"other"},{"name":"웨딩스토리디온","tel":"031-205-2080","addr":"경기도 수원시 영통구 영통동 1011-1번지 108호 ,109호,110호영통시네마","indutype":"회원제형태 - 기타4","category":"other"},{"name":"주식회사 스카이커머스(SKY COMMERCE Co.Lt","tel":"070-4104-3119","addr":"경기도 수원시 영통구 영통동 1011-1번지 키넥스프라자 204호","indutype":"기타 - 기계공구","category":"other"},{"name":"지인","tel":"","addr":"경기도 수원시 영통구 영통동 1011-1번지 1층 109,110호","indutype":"의류 - 정장","category":"other"},{"name":"코코마펫","tel":"031-204-0407","addr":"경기도 수원시 영통구 영통동 1011-1번지 113호","indutype":"문화.취미 - 애완동물","category":"other"},{"name":"키넥스꽃방","tel":"031-203-1567","addr":"경기도 수원시 영통구 영통동 1011-1번지 연번지 114호","indutype":"문화.취미 - 화원","category":"other"}]},{"lat":"37.247910944","long":"127.07730452","imageIndex":17,"items":[{"name":"스터디플로우","tel":"02-0000-0000","addr":"경기도 수원시 영통구 영통동 1024-8번지 영프라자 2층","indutype":"용역 서비스 - 사무서비스","category":"other"}]},{"lat":"37.248794685","long":"127.07613319","imageIndex":17,"items":[{"name":"스피드영통","tel":"070-4128-0050","addr":"경기도 수원시 영통구 영통동 1016-1번지 1층 101호","indutype":"사무통신 - 통신기기","category":"other"},{"name":"크린토피아 코인워시 수원영통점","tel":"031-205-7150","addr":"경기도 수원시 영통구 영통동 1016-1번지 104호","indutype":"수리서비스 - 세탁소","category":"other"}]},{"lat":"37.248822449","long":"127.07493848","imageIndex":17,"items":[{"name":"시온플라워","tel":"031-273-6004","addr":"경기도 수원시 영통구 영통동 993-1번지 104호","indutype":"문화.취미 - 화원","category":"other"},{"name":"써니플라워","tel":"","addr":"경기도 수원시 영통구 영통동 993-1번지 1층 103호","indutype":"문화.취미 - 화원","category":"other"}]},{"lat":"37.247767776","long":"127.05916935","imageIndex":17,"items":[{"name":"신영문구","tel":"031-203-0825","addr":"경기도 수원시 영통구 영통동 973-3번지 두산.우성.한신아파트 우성상가 B-101호","indutype":"서적문구 - 문구용품","category":"other"}]},{"lat":"37.246244796","long":"127.05966413","imageIndex":17,"items":[{"name":"신은철복싱월드","tel":"031-203-8090","addr":"경기도 수원시 영통구 영통동 976-13번지 6층","indutype":"회원제형태 - 레져업소","category":"other"}]},{"lat":"37.247849047","long":"127.07541093","imageIndex":17,"items":[{"name":"신형종합인쇄","tel":"031-273-1477","addr":"경기도 수원시 영통구 영통동 991-13번지 1층","indutype":"서적문구 - 출판 및 인쇄물","category":"other"}]},{"lat":"37.250182119","long":"127.07638251","imageIndex":17,"items":[{"name":"신흥한중행정사무소","tel":"031-293-1892","addr":"경기도 수원시 영통구 영통동 1005-5번지","indutype":"용역 서비스 - 법률회계서비스(개인)","category":"other"}]},{"lat":"37.254380223","long":"127.07750251","imageIndex":17,"items":[{"name":"심플소잉NCC수원영통점","tel":"031-273-9411","addr":"경기도 수원시 영통구 영통동 1038-8번지 1층","indutype":"직물 - 옷감·직물","category":"other"},{"name":"중앙유니피아","tel":"031-211-9442","addr":"경기도 수원시 영통구 영통동 1038-8번지","indutype":"레져용품 - 스포츠·레져용품","category":"other"},{"name":"중앙유니피아","tel":"031-211-9442","addr":"경기도 수원시 영통구 영통동 1038-8번지","indutype":"레져용품 - 스포츠·레져용품","category":"other"}]},{"lat":"37.247911772","long":"127.07597455","imageIndex":17,"items":[{"name":"씨유경희대로점","tel":"031-202-5887","addr":"경기도 수원시 영통구 영통동 1024-1번지 1층","indutype":"유통업 영리 - 편 의 점","category":"other"}]},{"lat":"37.246128783","long":"127.05727464","imageIndex":17,"items":[{"name":"씨유망포역점","tel":"031-898-6567","addr":"경기도 수원시 영통구 영통동 976-1번지 1층","indutype":"유통업 영리 - 편 의 점","category":"other"}]},{"lat":"37.24876659","long":"127.07783511","imageIndex":17,"items":[{"name":"씨유수원영통매영로점","tel":"031-273-9087","addr":"경기도 수원시 영통구 영통동 1018-13번지","indutype":"유통업 영리 - 편 의 점","category":"other"}]},{"lat":"37.246604926","long":"127.06025048","imageIndex":17,"items":[{"name":"씨유수원영통벽적골점","tel":"031-273-1363","addr":"경기도 수원시 영통구 영통동 974-8번지","indutype":"유통업 영리 - 편 의 점","category":"other"}]},{"lat":"37.267235461","long":"127.08130322","imageIndex":17,"items":[{"name":"씨유영통리슈빌점","tel":"031-205-5287","addr":"경기도 수원시 영통구 영통동 945-2번지 수원영통리슈빌스카이오피스텔 1층 132호","indutype":"유통업 영리 - 편 의 점","category":"other"},{"name":"연우심리연구소경기지부","tel":"031-266-9802","addr":"경기도 수원시 영통구 영통동 945-2번지 계룡리슈빌스카이오피스텔 905호","indutype":"용역 서비스 - 사무서비스","category":"other"},{"name":"주식회사 하티","tel":"070-7420-0966","addr":"경기도 수원시 영통구 영통동 945-2번지 수원영통리슈빌스카이오피스텔 1211호","indutype":"용역 서비스 - 종합용역","category":"other"},{"name":"지니페르마","tel":"031-206-4646","addr":"경기도 수원시 영통구 영통동 945-2번지 수원영통리슈빌스카이오피스텔 312호","indutype":"회원제형태 - 서적","category":"other"},{"name":"첸트룸 컨설팅","tel":"070-7518-6734","addr":"경기도 수원시 영통구 영통동 945-2번지 수원영통리슈빌스카이오피스텔 210호","indutype":"용역 서비스 - 사무서비스","category":"other"}]},{"lat":"37.252578113","long":"127.07757964","imageIndex":17,"items":[{"name":"씨유영통조달청점","tel":"031-205-6216","addr":"경기도 수원시 영통구 영통동 1037-13번지 1층","indutype":"유통업 영리 - 편 의 점","category":"other"}]},{"lat":"37.250189209","long":"127.07941451","imageIndex":17,"items":[{"name":"씨유영통화수분2호점","tel":"031-273-8103","addr":"경기도 수원시 영통구 영통동 1029-9번지 1층","indutype":"유통업 영리 - 편 의 점","category":"other"},{"name":"친친","tel":"031-202-1846","addr":"경기도 수원시 영통구 영통동 1029-9번지 3층","indutype":"의류 - 정장","category":"other"}]},{"lat":"37.263795988","long":"127.07750052","imageIndex":17,"items":[{"name":"씨코드 디자인","tel":"031-269-0481","addr":"경기도 수원시 영통구 영통동 954-6번지 정원빌딩 1층 105호","indutype":"건축자재 - 인테리어전문","category":"other"}]},{"lat":"37.26312567","long":"127.08294486","imageIndex":17,"items":[{"name":"씨티엔텍","tel":"031-202-1136","addr":"경기도 수원시 영통구 영통동 1052-2번지 쌍용아파트","indutype":"신변잡화 - 기타잡화","category":"other"}]},{"lat":"37.252217344","long":"127.07814286","imageIndex":17,"items":[{"name":"아이러브독","tel":"02-446-0706","addr":"경기도 수원시 영통구 영통동 1034-4번지 1층","indutype":"문화.취미 - 애완동물","category":"other"},{"name":"주식회사센지니어링","tel":"031-203-0224","addr":"경기도 수원시 영통구 영통동 1034-4번지 현정빌딩 602호","indutype":"용역 서비스 - 소프트웨어","category":"other"}]},{"lat":"37.25193773","long":"127.07860472","imageIndex":17,"items":[{"name":"안진 국제특허법률사무소","tel":"031-226-2369","addr":"경기도 수원시 영통구 영통동 1034-14번지 영통동빌딩 3층 빌딩","indutype":"용역 서비스 - 법률회계서비스(개인)","category":"other"},{"name":"주식회사 디엘건축","tel":"031-410-9697","addr":"경기도 수원시 영통구 영통동 1034-14번지 영통동빌딩 4층","indutype":"용역 서비스 - 기타용역서비스","category":"other"}]},{"lat":"37.249769002","long":"127.07416166","imageIndex":17,"items":[{"name":"액정스쿨","tel":"031-202-9778","addr":"경기도 수원시 영통구 영통동 1000-14번지 101호","indutype":"수리서비스 - 사무·통신기기수리","category":"other"}]},{"lat":"37.252793187","long":"127.07941714","imageIndex":17,"items":[{"name":"어드레스(address)청명북로15","tel":"031-202-5009","addr":"경기도 수원시 영통구 영통동 1044-11번지","indutype":"의류 - 정장","category":"other"}]},{"lat":"37.253550416","long":"127.07885432","imageIndex":17,"items":[{"name":"에넥스민하우징","tel":"031-205-5981","addr":"경기도 수원시 영통구 영통동 1045-1번지 1층","indutype":"건축자재 - 인테리어전문","category":"other"},{"name":"왈츠","tel":"031-202-3288","addr":"경기도 수원시 영통구 영통동 1045-1번지","indutype":"의류 - 정장","category":"other"}]},{"lat":"37.250001124","long":"127.06166197","imageIndex":17,"items":[{"name":"에듀바비수원팔달지사","tel":"02-1522-0701","addr":"경기도 수원시 영통구 영통동 972-2번지 벽적골주공휴먼시아8단지 839동 103호","indutype":"용역 서비스 - 사무서비스","category":"other"}]},{"lat":"37.260514241","long":"127.08060861","imageIndex":17,"items":[{"name":"에스엠에이스","tel":"031-203-7809","addr":"경기도 수원시 영통구 영통동 1050-3번지 1층 상가","indutype":"주방용구 - 주방용구","category":"other"}]},{"lat":"37.257325122","long":"127.06438432","imageIndex":17,"items":[{"name":"에이스스크린골프","tel":"031-216-1188","addr":"경기도 수원시 영통구 영통동 70-2번지","indutype":"회원제형태 - 레져업소","category":"other"}]},{"lat":"37.249127095","long":"127.07768894","imageIndex":17,"items":[{"name":"에이스정보통신","tel":"031-203-0580","addr":"경기도 수원시 영통구 영통동 1018-9번지","indutype":"사무통신 - 통신기기","category":"other"}]},{"lat":"37.266595806","long":"127.08118982","imageIndex":17,"items":[{"name":"엘앤에스 (L&S)","tel":"070-7420-6499","addr":"경기도 수원시 영통구 영통동 946-6번지 삼광빌딩 7층","indutype":"레져용품 - 스포츠·레져용품","category":"other"}]},{"lat":"37.253181203","long":"127.07852706","imageIndex":17,"items":[{"name":"연우피앤씨(연우P&C)","tel":"031-204-5946","addr":"경기도 수원시 영통구 영통동 1042-3번지 1층 우측","indutype":"건축자재 - 인테리어전문","category":"other"}]},{"lat":"37.266262863","long":"127.08052432","imageIndex":17,"items":[{"name":"영통1동주민자치위원회","tel":"031-228-8740","addr":"경기도 수원시 영통구 영통동 947-6번지","indutype":"문화.취미 - 문화취미기타","category":"other"}]},{"lat":"37.246850222","long":"127.05592266","imageIndex":17,"items":[{"name":"영통2동주민자치위원회","tel":"031-228-8747","addr":"경기도 수원시 영통구 영통동 977-2번지","indutype":"문화.취미 - 문화취미기타","category":"other"}]},{"lat":"37.253019354","long":"127.07799713","imageIndex":17,"items":[{"name":"영통장식(인테리어)","tel":"031-202-0474","addr":"경기도 수원시 영통구 영통동 1041-8번지","indutype":"직물 - 카페트,커튼,천막,지물","category":"other"}]},{"lat":"37.256965036","long":"127.06375277","imageIndex":17,"items":[{"name":"원삼철물","tel":"031-202-1431","addr":"경기도 수원시 영통구 영통동 76-8번지","indutype":"건축자재 - 목재·석재·철물","category":"other"}]},{"lat":"37.257270683","long":"127.06510571","imageIndex":17,"items":[{"name":"웰이노텍주식회사","tel":"031-216-8704","addr":"경기도 수원시 영통구 영통동 64-19번지","indutype":"레져용품 - 스포츠·레져용품","category":"other"}]},{"lat":"37.253514605","long":"127.07849358","imageIndex":17,"items":[{"name":"위드퍼피","tel":"031-202-7750","addr":"경기도 수원시 영통구 영통동 1041-14번지 1층","indutype":"문화.취미 - 애완동물","category":"other"}]},{"lat":"37.263182989","long":"127.0779734","imageIndex":17,"items":[{"name":"유림세탁소","tel":"031-202-3651","addr":"경기도 수원시 영통구 영통동 955-8 황골마을주공1단지가상가동지하1호","indutype":"수리서비스 - 세탁소","category":"other"}]},{"lat":"37.246435923","long":"127.05552789","imageIndex":17,"items":[{"name":"유엔비","tel":"031-206-8902","addr":"경기도 수원시 영통구 영통동 978-1번지","indutype":"회원제형태 - 기타4","category":"other"}]},{"lat":"37.253101269","long":"127.07668968","imageIndex":17,"items":[{"name":"윤퀼트","tel":"031-205-4137","addr":"경기도 수원시 영통구 영통동 1037-6번지 남일빌딩 3층 301호","indutype":"직물 - 침구·수예점","category":"other"},{"name":"파라베베스튜디오","tel":"031-205-7601","addr":"경기도 수원시 영통구 영통동 1037-6번지 남일빌딩 2층","indutype":"광학제품 - 사진관","category":"other"}]},{"lat":"37.249153754","long":"127.07827507","imageIndex":17,"items":[{"name":"이(e)세탁소","tel":"031-205-9559","addr":"경기도 수원시 영통구 영통동 1019-8번지","indutype":"수리서비스 - 세탁소","category":"other"}]},{"lat":"37.263958208","long":"127.07744432","imageIndex":17,"items":[{"name":"이볼비","tel":"031-206-8422","addr":"경기도 수원시 영통구 영통동 954-5번지 세진빌딩 4층 401호 4층 이불비","indutype":"용역 서비스 - 사무서비스","category":"other"}]},{"lat":"37.251015249","long":"127.06930483","imageIndex":17,"items":[{"name":"이슈","tel":"031-202-1120","addr":"경기도 수원시 영통구 영통동 966-2번지 신나무실건영2차@ 상가 107호","indutype":"의류 - 정장","category":"other"}]},{"lat":"37.249687842","long":"127.0742743","imageIndex":17,"items":[{"name":"인트 이앤에이 (IINT E&A)","tel":"031-206-6369","addr":"경기도 수원시 영통구 영통동 1000-15번지 지층","indutype":"레져용품 - 악기점","category":"other"}]},{"lat":"37.249379119","long":"127.07810623","imageIndex":17,"items":[{"name":"잇스토어 영통점","tel":"070-860-8212","addr":"경기도 수원시 영통구 영통동 1013-9번지 1층 101호","indutype":"유통업 영리 - 편 의 점","category":"other"}]},{"lat":"37.264679413","long":"127.07683626","imageIndex":17,"items":[{"name":"제세 코퍼레이션","tel":"070-7755-7114","addr":"경기도 수원시 영통구 영통동 952-5번지","indutype":"기타 - 기계공구","category":"other"}]},{"lat":"37.248488779","long":"127.07541155","imageIndex":17,"items":[{"name":"제일종합상사","tel":"031-205-2999","addr":"경기도 수원시 영통구 영통동 993-10번지","indutype":"용역 서비스 - 종합용역","category":"other"},{"name":"플뢰르 드 단비(Fleur de danbi)","tel":"031-202-6060","addr":"경기도 수원시 영통구 영통동 993-10번지 1층 105호","indutype":"문화.취미 - 화원","category":"other"}]},{"lat":"37.253153527","long":"127.07953022","imageIndex":17,"items":[{"name":"주식회사 사람과사람들","tel":"031-273-0996","addr":"경기도 수원시 영통구 영통동 1045-6번지 아이디빌딩 5층","indutype":"신변잡화 - 기타잡화","category":"other"},{"name":"태후사랑","tel":"031-273-2089","addr":"경기도 수원시 영통구 영통동 1045-6번지","indutype":"회원제형태 - 기타1","category":"other"}]},{"lat":"37.251684363","long":"127.08027266","imageIndex":17,"items":[{"name":"주식회사 에코에듀","tel":"031-206-0508","addr":"경기도 수원시 영통구 영통동 1032-8번지 지하1층","indutype":"서적문구 - 일반서적","category":"other"}]},{"lat":"37.248271144","long":"127.07764301","imageIndex":17,"items":[{"name":"주식회사 젬피스","tel":"070-8816-7079","addr":"경기도 수원시 영통구 영통동 1022-6번지 영통동상가빌딩 지하1층","indutype":"의류 - 정장","category":"other"}]},{"lat":"37.26590739","long":"127.07258727","imageIndex":17,"items":[{"name":"주식회사 주안솔루션","tel":"070-7431-6536","addr":"경기도 수원시 영통구 영통동 3-2번지 90동 302호","indutype":"전기제품 - 기타전기제품","category":"other"}]},{"lat":"37.248765435","long":"127.07963849","imageIndex":17,"items":[{"name":"주식회사 지영산업","tel":"031-1644-1579","addr":"경기도 수원시 영통구 영통동 1025-5번지 601호","indutype":"직물 - 침구·수예점","category":"other"}]},{"lat":"37.255986349","long":"127.07377299","imageIndex":17,"items":[{"name":"주식회사 케이에프엠미디어","tel":"031-210-0906","addr":"경기도 수원시 영통구 영통동 961-17번지 신관 4층","indutype":"용역 서비스 - 종합용역","category":"other"}]},{"lat":"37.246298318","long":"127.06077998","imageIndex":17,"items":[{"name":"주식회사 피트니스바디7","tel":"031-1544-7627","addr":"경기도 수원시 영통구 영통동 976-18번지 3층","indutype":"회원제형태 - 레져업소","category":"other"}]},{"lat":"37.250299865","long":"127.07539074","imageIndex":17,"items":[{"name":"중고나라(영통점)","tel":"02-2677-7026","addr":"경기도 수원시 영통구 영통동 1008-17번지","indutype":"전기제품 - 가전제품","category":"other"}]},{"lat":"37.248406305","long":"127.07763187","imageIndex":17,"items":[{"name":"지앤애드","tel":"031-204-7560","addr":"경기도 수원시 영통구 영통동 1022-3번지 탐진최씨부호군파종회빌딩 2층 전체","indutype":"서적문구 - 출판 및 인쇄물","category":"other"}]},{"lat":"37.249965662","long":"127.07672044","imageIndex":17,"items":[{"name":"차이나행정사무소","tel":"031-204-1311","addr":"경기도 수원시 영통구 영통동 1005-8번지 101호","indutype":"용역 서비스 - 법률회계서비스(개인)","category":"other"}]},{"lat":"37.248188614","long":"127.07988587","imageIndex":17,"items":[{"name":"착한털도둑","tel":"031-206-5522","addr":"경기도 수원시 영통구 영통동 1025-15번지 105호","indutype":"문화.취미 - 애완동물","category":"other"},{"name":"천지인","tel":"031-202-5883","addr":"경기도 수원시 영통구 영통동 1025-15번지","indutype":"용역 서비스 - 종합용역","category":"other"}]},{"lat":"37.249792449","long":"127.0798875","imageIndex":17,"items":[{"name":"청명기술","tel":"031-202-6118","addr":"경기도 수원시 영통구 영통동 1027-28번지 1층 102호","indutype":"건축자재 - 목재·석재·철물","category":"other"}]},{"lat":"37.25132453","long":"127.07938184","imageIndex":17,"items":[{"name":"커피정원","tel":"031-206-7367","addr":"경기도 수원시 영통구 영통동 1030-7번지 1층","indutype":"문화.취미 - 화원","category":"other"}]},{"lat":"37.251728447","long":"127.06679189","imageIndex":17,"items":[{"name":"컴퓨터수리 컴닥터","tel":"031-204-7119","addr":"경기도 수원시 영통구 영통동 965-2번지 신원.미주아파트 643동 2003호","indutype":"수리서비스 - 사무·통신기기수리","category":"other"}]},{"lat":"37.252216869","long":"127.07888679","imageIndex":17,"items":[{"name":"코리아덴탈","tel":"031-342-6070","addr":"경기도 수원시 영통구 영통동 1034-11번지 201호","indutype":"신변잡화 - 기타잡화","category":"other"}]},{"lat":"37.249298969","long":"127.07660707","imageIndex":17,"items":[{"name":"코코","tel":"031-8015-1385","addr":"경기도 수원시 영통구 영통동 1015-1번지 105호","indutype":"의류 - 정장","category":"other"}]},{"lat":"37.260631301","long":"127.08072146","imageIndex":17,"items":[{"name":"크린 웨어","tel":"031-216-3580","addr":"경기도 수원시 영통구 영통동 1050-2번지 지하1층 B01호","indutype":"용역 서비스 - 종합용역","category":"other"}]},{"lat":"37.25707309","long":"127.06388813","imageIndex":17,"items":[{"name":"크린월드","tel":"031-202-4782","addr":"경기도 수원시 영통구 영통동 74-5번지 2","indutype":"회원제형태 - 기타3","category":"other"}]},{"lat":"37.253352521","long":"127.07833561","imageIndex":17,"items":[{"name":"크린토피아코인워시수원영통로데오점","tel":"031-204-9989","addr":"경기도 수원시 영통구 영통동 1041-12번지","indutype":"수리서비스 - 세탁소","category":"other"}]},{"lat":"37.248741288","long":"127.07505111","imageIndex":17,"items":[{"name":"트웬티피프티","tel":"031-204-9362","addr":"경기도 수원시 영통구 영통동 993-2번지","indutype":"의류 - 정장","category":"other"}]},{"lat":"37.24607535","long":"127.0558883","imageIndex":17,"items":[{"name":"펫플라자","tel":"031-206-7512","addr":"경기도 수원시 영통구 영통동 979-4번지","indutype":"문화.취미 - 애완동물","category":"other"}]},{"lat":"37.250129279","long":"127.07438743","imageIndex":17,"items":[{"name":"펭귄세탁소","tel":"031-206-1008","addr":"경기도 수원시 영통구 영통동 1002-5번지 102호","indutype":"수리서비스 - 세탁소","category":"other"}]},{"lat":"37.252405977","long":"127.07905606","imageIndex":17,"items":[{"name":"편의점사랑","tel":"031-222-2512","addr":"경기도 수원시 영통구 영통동 1044-7번지","indutype":"유통업 영리 - 편 의 점","category":"other"}]},{"lat":"37.246489014","long":"127.05766938","imageIndex":17,"items":[{"name":"품스튜디오","tel":"031-203-2009","addr":"경기도 수원시 영통구 영통동 975-13번지 서린프라자 902호","indutype":"광학제품 - 사진관","category":"other"},{"name":"황산회계사무소","tel":"031-234-3838","addr":"경기도 수원시 영통구 영통동 975-13번지","indutype":"용역 서비스 - 법률회계서비스(개인)","category":"other"}]},{"lat":"37.257066429","long":"127.07567903","imageIndex":17,"items":[{"name":"플라워랜드","tel":"042-472-4845","addr":"경기도 수원시 영통구 영통동 벽산삼익@335-1204","indutype":"문화.취미 - 화원","category":"other"}]},{"lat":"37.248381313","long":"127.07432942","imageIndex":17,"items":[{"name":"플라워엠(M)","tel":"031-205-4195","addr":"경기도 수원시 영통구 영통동 990-8번지 101호","indutype":"문화.취미 - 화원","category":"other"}]},{"lat":"37.252217014","long":"127.07866136","imageIndex":17,"items":[{"name":"하누리교육","tel":"031-257-7279","addr":"경기도 수원시 영통구 영통동 1034-9번지 402호","indutype":"서적문구 - 기타서적문구","category":"other"}]},{"lat":"37.265238037","long":"127.07685935","imageIndex":17,"items":[{"name":"하늘기획","tel":"070-4215-5718","addr":"경기도 수원시 영통구 영통동 951-3번지 3층 301호","indutype":"유통업 영리 - 기타유통업","category":"other"}]},{"lat":"37.248822798","long":"127.07436365","imageIndex":17,"items":[{"name":"하모니하우스","tel":"031-202-1530","addr":"경기도 수원시 영통구 영통동 990-4번지 101호일부","indutype":"용역 서비스 - 종합용역","category":"other"}]},{"lat":"37.26584799","long":"127.08113268","imageIndex":17,"items":[{"name":"하우스터디 영통2센터 모임공간","tel":"031-204-8666","addr":"경기도 수원시 영통구 영통동 947-10번지 3층","indutype":"용역 서비스 - 사무서비스","category":"other"}]},{"lat":"37.254128098","long":"127.07724301","imageIndex":17,"items":[{"name":"하지연 아로마","tel":"031-202-3703","addr":"경기도 수원시 영통구 영통동 1038-5번지 지하1층","indutype":"신변잡화 - 기타잡화","category":"other"},{"name":"한우리 수원영통지부","tel":"031-202-2464","addr":"경기도 수원시 영통구 영통동 1038-5번지 3층","indutype":"회원제형태 - 서적","category":"other"}]},{"lat":"37.252659291","long":"127.07744445","imageIndex":17,"items":[{"name":"한국모유수유정보센터","tel":"031-213-1387","addr":"경기도 수원시 영통구 영통동 1037-12번지 3층전체","indutype":"기타의료기관 - 기타의료기관 및 기타","category":"other"}]},{"lat":"37.250714256","long":"127.07552639","imageIndex":17,"items":[{"name":"한빛세무회계사무소","tel":"031-895-6009","addr":"경기도 수원시 영통구 영통동 1008-12번지 5층","indutype":"용역 서비스 - 법률회계서비스(개인)","category":"other"}]},{"lat":"37.251909636","long":"127.08025035","imageIndex":17,"items":[{"name":"헤븐월드","tel":"031-206-1630","addr":"경기도 수원시 영통구 영통동 1032-6번지 지층 3호","indutype":"용역 서비스 - 종합용역","category":"other"}]},{"lat":"37.250101437","long":"127.07571742","imageIndex":17,"items":[{"name":"헤펠레목공방","tel":"031-202-8362","addr":"경기도 수원시 영통구 영통동 1006-9번지 1층","indutype":"가구 - 일반가구","category":"other"}]},{"lat":"37.248520904","long":"127.06655249","imageIndex":17,"items":[{"name":"현경세탁","tel":"031-202-8944","addr":"경기도 수원시 영통구 영통동 970-5번지 제가상가동 지하층 104,105호","indutype":"수리서비스 - 세탁소","category":"other"}]}]