[{"lat":"37.2703945332","long":"126.5713790445","imageIndex":5,"items":[{"name":"11호남도할머니칼국수","tel":"032-882-1542","addr":"경기도 안산시 단원구 대부북동 1837-29번지","indutype":"숙박 및 음식점업 - 한식","category":"hotel"}]},{"lat":"37.2705646139","long":"126.5710736676","imageIndex":5,"items":[{"name":"16호원조할머니칼국수","tel":"032-883-5590","addr":"경기도 안산시 단원구 대부북동 1837-1번지","indutype":"숙박 및 음식점업 - 요식업","category":"hotel"}]},{"lat":"37.2685943679","long":"126.5743769315","imageIndex":5,"items":[{"name":"1호 친할머니칼국수","tel":"032-880-9983","addr":"경기도 안산시 단원구 대부북동 1222-3번지","indutype":"숙박 및 음식점업 - 한식","category":"hotel"},{"name":"1호친할머니칼국수","tel":"032-880-9983","addr":"경기도 안산시 단원구 대부북동 1222-3번지","indutype":"숙박 및 음식점업 - 칼국수","category":"hotel"}]},{"lat":"37.2716212523","long":"126.5717441014","imageIndex":5,"items":[{"name":"20호 할머니칼국수","tel":"031-886-0280","addr":"경기도 안산시 단원구 대부북동 1161-79번지","indutype":"숙박 및 음식점업 - 간이음식","category":"hotel"}]},{"lat":"37.2720311495","long":"126.5704902914","imageIndex":5,"items":[{"name":"33호할머니칼국수","tel":"032-886-9908","addr":"경기도 안산시 단원구 대부북동 1161-105번지","indutype":"숙박 및 음식점업 - 칼국수","category":"hotel"}]},{"lat":"37.2881697546","long":"126.5758221707","imageIndex":5,"items":[{"name":"갯벌놀이터","tel":"032-883-2133","addr":"경기도 안산시 단원구 대부북동 1848-58번지","indutype":"숙박 및 음식점업 - 한식","category":"hotel"}]},{"lat":"37.2415353539","long":"126.5840983799","imageIndex":5,"items":[{"name":"고가네소문난순대국","tel":"032-880-0464","addr":"경기도 안산시 단원구 대부북동 509-4번지","indutype":"숙박 및 음식점업 - 일반음식","category":"hotel"}]},{"lat":"37.2882293378","long":"126.5773554989","imageIndex":5,"items":[{"name":"교동짬뽕","tel":"032-888-0006","addr":"경기도 안산시 단원구 대부북동 1847-17번지","indutype":"숙박 및 음식점업 - 중식","category":"hotel"}]},{"lat":"37.2742049486","long":"126.5565534191","imageIndex":5,"items":[{"name":"구봉도 버섯마을","tel":"032-881-6888","addr":"경기도 안산시 단원구 대부북동 1865-45번지","indutype":"숙박 및 음식점업 - 한식","category":"hotel"}]},{"lat":"37.2703096837","long":"126.5728226357","imageIndex":5,"items":[{"name":"구팔한우안산대부도점","tel":"032-880-9938","addr":"경기도 안산시 단원구 대부북동 1161-20번지","indutype":"숙박 및 음식점업 - 한식","category":"hotel"}]},{"lat":"37.2422601012","long":"126.5852101099","imageIndex":5,"items":[{"name":"꾼","tel":"","addr":"경기도 안산시 단원구 대부북동 492-3번지","indutype":"숙박 및 음식점업 - 기타음식","category":"hotel"},{"name":"서울뼈다귀감자탕","tel":"032-886-1060","addr":"경기도 안산시 단원구 대부북동 492-3번지","indutype":"숙박 및 음식점업 - 한식","category":"hotel"}]},{"lat":"37.2876746110","long":"126.5759377375","imageIndex":5,"items":[{"name":"노랑보랑베이커리카페","tel":"032-882-2279","addr":"경기도 안산시 단원구 대부북동 1848-185번지","indutype":"숙박 및 음식점업 - 제과,커피","category":"hotel"},{"name":"장메밀왕돈가스","tel":"032-880-0468","addr":"경기도 안산시 단원구 대부북동 1848-185번지","indutype":"숙박 및 음식점업 - 기타음식","category":"hotel"}]},{"lat":"37.2767273906","long":"126.5516901812","imageIndex":5,"items":[{"name":"노을이아름다운펜션","tel":"032-886-1838","addr":"경기도 안산시 단원구 대부북동 1871-14번지","indutype":"숙박 및 음식점업 - 펜션","category":"hotel"}]},{"lat":"37.2870373484","long":"126.5741257780","imageIndex":5,"items":[{"name":"대갓집해물왕창칼국수","tel":"032-881-2543","addr":"경기도 안산시 단원구 대부북동 1848-100번지","indutype":"숙박 및 음식점업 - 칼국수","category":"hotel"}]},{"lat":"37.2803135392","long":"126.5517138791","imageIndex":5,"items":[{"name":"대부갱주","tel":"032-880-9643","addr":"경기도 안산시 단원구 대부북동 1870-74번지","indutype":"숙박 및 음식점업 - 한식","category":"hotel"}]},{"lat":"37.2533159374","long":"126.5751848659","imageIndex":5,"items":[{"name":"대부단호박찐빵","tel":"032-889-5050","addr":"경기도 안산시 단원구 대부북동 814-1번지","indutype":"숙박 및 음식점업 - 제과류","category":"hotel"}]},{"lat":"37.2853354824","long":"126.5719365130","imageIndex":5,"items":[{"name":"대부닭강정","tel":"","addr":"경기도 안산시 단원구 대부북동 1848-124번지","indutype":"숙박 및 음식점업 - 일반음식","category":"hotel"}]},{"lat":"37.2432365453","long":"126.5836043472","imageIndex":5,"items":[{"name":"대부도 빵집","tel":"031-884-3150","addr":"경기도 안산시 단원구 대부북동 449-3번지","indutype":"숙박 및 음식점업 - 제과점","category":"hotel"}]},{"lat":"37.2670087551","long":"126.5597412771","imageIndex":5,"items":[{"name":"대부도펜션반딧불","tel":"032-886-8131","addr":"경기도 안산시 단원구 대부북동 1864-2번지","indutype":"숙박 및 음식점업 - 민박,매점,통신","category":"hotel"}]},{"lat":"37.2884233361","long":"126.5761816008","imageIndex":5,"items":[{"name":"대부도풍천민물장어직판장","tel":"032-880-0595","addr":"경기도 안산시 단원구 대부북동 1848-50번지","indutype":"숙박 및 음식점업 - 한식","category":"hotel"}]},{"lat":"37.2686207412","long":"126.5692471024","imageIndex":5,"items":[{"name":"대부맛집청미","tel":"032-887-1108","addr":"경기도 안산시 단원구 대부북동 1826-156번지","indutype":"숙박 및 음식점업 - 한식점업","category":"hotel"}]},{"lat":"37.2433167566","long":"126.5757936167","imageIndex":5,"items":[{"name":"대부매콤명태조림","tel":"032-880-9985","addr":"경기도 안산시 단원구 대부북동 648-1번지","indutype":"숙박 및 음식점업 - 일반음식","category":"hotel"}]},{"lat":"37.2767291661","long":"126.5497959333","imageIndex":5,"items":[{"name":"독도 조개타운","tel":"032-886-4833","addr":"경기도 안산시 단원구 대부북동 1871-12번지","indutype":"숙박 및 음식점업 - 한식","category":"hotel"},{"name":"돌돌이횟집","tel":"032-886-0998","addr":"경기도 안산시 단원구 대부북동 1871-12번지","indutype":"숙박 및 음식점업 - 한식","category":"hotel"},{"name":"형제횟집","tel":"032-886-6556","addr":"경기도 안산시 단원구 대부북동 1871-12번지","indutype":"숙박 및 음식점업 - 한식","category":"hotel"}]},{"lat":"37.2838639531","long":"126.5686860547","imageIndex":5,"items":[{"name":"동서가든","tel":"032-885-4461","addr":"경기도 안산시 단원구 대부북동 1851-2번지","indutype":"숙박 및 음식점업 - 한식","category":"hotel"}]},{"lat":"37.2876988321","long":"126.5751594968","imageIndex":5,"items":[{"name":"동원횟집","tel":"032-881-8811","addr":"경기도 안산시 단원구 대부북동 1848-78번지","indutype":"숙박 및 음식점업 - 일반음식","category":"hotel"}]},{"lat":"37.2762519651","long":"126.5522455010","imageIndex":5,"items":[{"name":"뜨락","tel":"","addr":"경기도 안산시 단원구 대부북동 1871-21번지","indutype":"숙박 및 음식점업 - 민박","category":"hotel"}]},{"lat":"37.2698928042","long":"126.5721598282","imageIndex":5,"items":[{"name":"맘대로바지락칼국수","tel":"032-886-4453","addr":"경기도 안산시 단원구 대부북동 1837-70번지","indutype":"숙박 및 음식점업 - 기타음식점","category":"hotel"}]},{"lat":"37.2878670310","long":"126.5768275250","imageIndex":5,"items":[{"name":"맛자랑칼국수","tel":"032-883-4156","addr":"경기도 안산시 단원구 대부북동 1847-24번지","indutype":"숙박 및 음식점업 - 요식업","category":"hotel"}]},{"lat":"37.2419796353","long":"126.5848848259","imageIndex":5,"items":[{"name":"명성식당","tel":"032-884-2054","addr":"경기도 안산시 단원구 대부북동 505번지","indutype":"숙박 및 음식점업 - 한식","category":"hotel"}]},{"lat":"37.2398402991","long":"126.5737170607","imageIndex":5,"items":[{"name":"모두가본집","tel":"032-887-2505","addr":"경기도 안산시 단원구 대부북동 640-26번지","indutype":"숙박 및 음식점업 - 한식","category":"hotel"}]},{"lat":"37.2763644144","long":"126.5533836227","imageIndex":5,"items":[{"name":"몽당연필펜션","tel":"032-886-0808","addr":"경기도 안산시 단원구 대부북동 1871-1번지","indutype":"숙박 및 음식점업 - 펜션","category":"hotel"}]},{"lat":"37.2881180118","long":"126.5764652482","imageIndex":5,"items":[{"name":"문씨네","tel":"032-882-9168","addr":"경기도 안산시 단원구 대부북동 1848-156번지","indutype":"숙박 및 음식점업 - 한식","category":"hotel"}]},{"lat":"37.2825594036","long":"126.5692122496","imageIndex":5,"items":[{"name":"미리내우리밀칼국수","tel":"032-886-6916","addr":"경기도 안산시 단원구 대부북동 1850-5번지","indutype":"숙박 및 음식점업 - 한식","category":"hotel"}]},{"lat":"37.2747577463","long":"126.5597973357","imageIndex":5,"items":[{"name":"민들레펜션","tel":"032-885-4788","addr":"경기도 안산시 단원구 대부북동 1865-17번지","indutype":"숙박 및 음식점업 - 펜션","category":"hotel"},{"name":"봉평메밀마을","tel":"032-885-4788","addr":"경기도 안산시 단원구 대부북동 1865-17번지","indutype":"숙박 및 음식점업 - 한식","category":"hotel"}]},{"lat":"37.2578153356","long":"126.5736038365","imageIndex":5,"items":[{"name":"밀알칼국수","tel":"032-881-0331","addr":"경기도 안산시 단원구 대부북동 920-1번지","indutype":"숙박 및 음식점업 - 음식점","category":"hotel"}]},{"lat":"37.2634494781","long":"126.5694120315","imageIndex":5,"items":[{"name":"바다양푼이동태탕","tel":"032-882-1544","addr":"경기도 안산시 단원구 대부북동 1799-1번지","indutype":"숙박 및 음식점업 - 한식","category":"hotel"}]},{"lat":"37.2767878649","long":"126.5605521532","imageIndex":5,"items":[{"name":"바다횟집","tel":"032-886-3164","addr":"경기도 안산시 단원구 대부북동 1866-12번지","indutype":"숙박 및 음식점업 - 횟집","category":"hotel"}]},{"lat":"37.2738159281","long":"126.5682364003","imageIndex":5,"items":[{"name":"바바부단커피창고","tel":"032-880-9712","addr":"경기도 안산시 단원구 대부북동 1857-61번지","indutype":"숙박 및 음식점업 - 일반음식점","category":"hotel"}]},{"lat":"37.2683140699","long":"126.5691586691","imageIndex":5,"items":[{"name":"바지락마을","tel":"032-885-0550","addr":"경기도 안산시 단원구 대부북동 1826-157번지","indutype":"숙박 및 음식점업 - 기타음식점업","category":"hotel"}]},{"lat":"37.2739811686","long":"126.5690697869","imageIndex":5,"items":[{"name":"배터지는집","tel":"032-884-4787","addr":"경기도 안산시 단원구 대부북동 1857-7번지","indutype":"숙박 및 음식점업 - 한식","category":"hotel"}]},{"lat":"37.2410978793","long":"126.5852390627","imageIndex":5,"items":[{"name":"백년손님","tel":"032-880-9835","addr":"경기도 안산시 단원구 대부북동 517-5번지","indutype":"숙박 및 음식점업 - 한식","category":"hotel"}]},{"lat":"37.2755040270","long":"126.5691061489","imageIndex":5,"items":[{"name":"백합칼국수","tel":"","addr":"경기도 안산시 단원구 대부북동 1856-132번지","indutype":"숙박 및 음식점업 - 기타음식","category":"hotel"}]},{"lat":"37.2575890624","long":"126.5733233110","imageIndex":5,"items":[{"name":"벚나무집","tel":"02-880-9724","addr":"경기도 안산시 단원구 대부북동 920-4번지","indutype":"숙박 및 음식점업 - 한식","category":"hotel"}]},{"lat":"37.2701174396","long":"126.5719894350","imageIndex":5,"items":[{"name":"북동삼거리손칼국수","tel":"032-880-9971","addr":"경기도 안산시 단원구 대부북동 1837-69번지","indutype":"숙박 및 음식점업 - 기타음식점업","category":"hotel"}]},{"lat":"37.2588743062","long":"126.5724367525","imageIndex":5,"items":[{"name":"북수원","tel":"","addr":"경기도 안산시 단원구 대부북동 1280-1번지","indutype":"숙박 및 음식점업 - 한식","category":"hotel"}]},{"lat":"37.2868682808","long":"126.5747131279","imageIndex":5,"items":[{"name":"불란서찐빵","tel":"032-880-9766","addr":"경기도 안산시 단원구 대부북동 1844-7번지","indutype":"숙박 및 음식점업 - 기타음식","category":"hotel"}]},{"lat":"37.2811993949","long":"126.5524640761","imageIndex":5,"items":[{"name":"블루이펜션","tel":"032-885-0876","addr":"경기도 안산시 단원구 대부북동 1870-80번지","indutype":"숙박 및 음식점업 - 팬션","category":"hotel"}]},{"lat":"37.2704769378","long":"126.5717393518","imageIndex":5,"items":[{"name":"빛고을 소한마리","tel":"032-886-0633","addr":"경기도 안산시 단원구 대부북동 1837-65번지","indutype":"숙박 및 음식점업 - 한식","category":"hotel"}]},{"lat":"37.2867838833","long":"126.5738001908","imageIndex":5,"items":[{"name":"사또횟집","tel":"032-881-4424","addr":"경기도 안산시 단원구 대부북동 1848-104번지","indutype":"숙박 및 음식점업 - 수산물","category":"hotel"}]},{"lat":"37.2810932610","long":"126.5482700839","imageIndex":5,"items":[{"name":"산호횟집","tel":"032-886-1521","addr":"경기도 안산시 단원구 대부북동 산34-1번지","indutype":"숙박 및 음식점업 - 생선회/어패류","category":"hotel"}]},{"lat":"37.2871138742","long":"126.5753545129","imageIndex":5,"items":[{"name":"삼대째할머니칼국수","tel":"032-886-4356","addr":"경기도 안산시 단원구 대부북동 1848-89번지","indutype":"숙박 및 음식점업 - 한식","category":"hotel"}]},{"lat":"37.2674563816","long":"126.5686900867","imageIndex":5,"items":[{"name":"삼삼오오맛집","tel":"032-880-9956","addr":"경기도 안산시 단원구 대부북동 1826-21번지","indutype":"숙박 및 음식점업 - 한식","category":"hotel"}]},{"lat":"37.2964795409","long":"126.5739932465","imageIndex":5,"items":[{"name":"상복호","tel":"032-882-1209","addr":"경기도 안산시 단원구 대부북동 1955-1번지","indutype":"숙박 및 음식점업 - 한식","category":"hotel"}]},{"lat":"37.2430140439","long":"126.5843832242","imageIndex":5,"items":[{"name":"새김밥천국","tel":"032-884-3119","addr":"경기도 안산시 단원구 대부북동 470-9번지","indutype":"숙박 및 음식점업 - 기타음식","category":"hotel"}]},{"lat":"37.2604242495","long":"126.5700155537","imageIndex":5,"items":[{"name":"샤브랑버섯소고기샤브","tel":"032-886-6755","addr":"경기도 안산시 단원구 대부북동 1392-16번지","indutype":"숙박 및 음식점업 - 일반음식","category":"hotel"}]},{"lat":"37.2883364441","long":"126.5770729716","imageIndex":5,"items":[{"name":"솔밭칼국수전문점","tel":"032-882-7361","addr":"경기도 안산시 단원구 대부북동 1847-14번지","indutype":"숙박 및 음식점업 - 한식","category":"hotel"}]},{"lat":"37.2814481958","long":"126.5684067581","imageIndex":5,"items":[{"name":"솔밭회집","tel":"032-886-2992","addr":"경기도 안산시 단원구 대부북동 산20-6번지","indutype":"숙박 및 음식점업 - 요식업","category":"hotel"},{"name":"에바다","tel":"032-887-9191","addr":"경기도 안산시 단원구 대부북동 산20-6번지","indutype":"숙박 및 음식점업 - 카페","category":"hotel"},{"name":"충무공이순신","tel":"032-886-6801","addr":"경기도 안산시 단원구 대부북동 산20-6번지","indutype":"숙박 및 음식점업 - 일식","category":"hotel"}]},{"lat":"37.2740918483","long":"126.5697681917","imageIndex":5,"items":[{"name":"수노을대부도맛집","tel":"","addr":"경기도 안산시 단원구 대부북동 1857-75번지","indutype":"숙박 및 음식점업 - 일반음식점","category":"hotel"}]},{"lat":"37.2738983837","long":"126.5686079949","imageIndex":5,"items":[{"name":"수타왕","tel":"032-886-7088","addr":"경기도 안산시 단원구 대부북동 1857-60번지","indutype":"숙박 및 음식점업 - 중식","category":"hotel"}]},{"lat":"37.2865059622","long":"126.5741851763","imageIndex":5,"items":[{"name":"수호할머니칼국수","tel":"032-881-1320","addr":"경기도 안산시 단원구 대부북동 1844-3번지","indutype":"숙박 및 음식점업 - 한식","category":"hotel"}]},{"lat":"37.2866417248","long":"126.5743535568","imageIndex":5,"items":[{"name":"신우정","tel":"032-884-1446","addr":"경기도 안산시 단원구 대부북동 1844-6번지","indutype":"숙박 및 음식점업 - 한식","category":"hotel"},{"name":"신우정","tel":"032-884-1446","addr":"경기도 안산시 단원구 대부북동 1844-6번지","indutype":"숙박 및 음식점업 - 한식","category":"hotel"}]},{"lat":"37.2777287572","long":"126.5496546378","imageIndex":5,"items":[{"name":"썬리치 레저타운","tel":"032-884-6622","addr":"경기도 안산시 단원구 대부북동 1871-33번지","indutype":"숙박 및 음식점업 - 매점,펜션","category":"hotel"}]},{"lat":"37.2816452121","long":"126.5536002909","imageIndex":5,"items":[{"name":"아라민박","tel":"032-885-9400","addr":"경기도 안산시 단원구 대부북동 1870-85번지","indutype":"숙박 및 음식점업 - 팬션","category":"hotel"}]},{"lat":"37.2719803390","long":"126.5713812692","imageIndex":5,"items":[{"name":"엄지척 까투리할매 손칼국수","tel":"032-884-0770","addr":"경기도 안산시 단원구 대부북동 1161-15번지","indutype":"숙박 및 음식점업 - 한식","category":"hotel"}]},{"lat":"37.2699518086","long":"126.5710433443","imageIndex":5,"items":[{"name":"여정농원바지랑칼국수","tel":"032-880-9674","addr":"경기도 안산시 단원구 대부북동 1837-10번지","indutype":"숙박 및 음식점업 - 한식","category":"hotel"}]},{"lat":"37.2763432801","long":"126.5694621389","imageIndex":5,"items":[{"name":"옛날 보리밥 칼국수","tel":"032-886-6110","addr":"경기도 안산시 단원구 대부북동 1856-12번지","indutype":"숙박 및 음식점업 - 요식업","category":"hotel"}]},{"lat":"37.2472317145","long":"126.5770451284","imageIndex":5,"items":[{"name":"오다가다한끼","tel":"032-880-9623","addr":"경기도 안산시 단원구 대부북동 697-3번지","indutype":"숙박 및 음식점업 - 한식","category":"hotel"}]},{"lat":"37.2586769865","long":"126.5726858712","imageIndex":5,"items":[{"name":"왕진물칼국수","tel":"032-887-2288","addr":"경기도 안산시 단원구 대부북동 1278번지","indutype":"숙박 및 음식점업 - 한식","category":"hotel"}]},{"lat":"37.2697890111","long":"126.5708751611","imageIndex":5,"items":[{"name":"왕할머니손칼국수","tel":"032-888-8933","addr":"경기도 안산시 단원구 대부북동 1837-11번지","indutype":"숙박 및 음식점업 - 한식","category":"hotel"}]},{"lat":"37.2428421352","long":"126.5841813114","imageIndex":5,"items":[{"name":"요리왕중화요리","tel":"032-886-8808","addr":"경기도 안산시 단원구 대부북동 472-5번지","indutype":"숙박 및 음식점업 - 중식","category":"hotel"}]},{"lat":"37.2777564484","long":"126.5690706737","imageIndex":5,"items":[{"name":"우리밀 칼국수","tel":"032-884-9083","addr":"경기도 안산시 단원구 대부북동 1855-42번지","indutype":"숙박 및 음식점업 - 한식","category":"hotel"}]},{"lat":"37.2696503125","long":"126.5723754188","imageIndex":5,"items":[{"name":"우리칼국수","tel":"032-881-1232","addr":"경기도 안산시 단원구 대부북동 1837-39번지","indutype":"숙박 및 음식점업 - 한식","category":"hotel"}]},{"lat":"37.2761424157","long":"126.5687416814","imageIndex":5,"items":[{"name":"유가네 칼국수","tel":"032-886-5334","addr":"경기도 안산시 단원구 대부북동 1856-50번지","indutype":"숙박 및 음식점업 - 한식","category":"hotel"}]},{"lat":"37.2834512290","long":"126.5691620275","imageIndex":5,"items":[{"name":"윤숙이네 손칼국수","tel":"032-882-1947","addr":"경기도 안산시 단원구 대부북동 1851-1번지","indutype":"숙박 및 음식점업 - 한식","category":"hotel"}]},{"lat":"37.2869772164","long":"126.5749380459","imageIndex":5,"items":[{"name":"이런칼국수를봤나","tel":"032-886-2563","addr":"경기도 안산시 단원구 대부북동 1841-14번지","indutype":"숙박 및 음식점업 - 한식","category":"hotel"}]},{"lat":"37.2814544182","long":"126.5531842157","imageIndex":5,"items":[{"name":"이야기가있는바다","tel":"032-886-4942","addr":"경기도 안산시 단원구 대부북동 1870-83번지","indutype":"숙박 및 음식점업 - 민박","category":"hotel"}]},{"lat":"37.2637840458","long":"126.5697370398","imageIndex":5,"items":[{"name":"이영화교동짬뽕","tel":"032-880-9733","addr":"경기도 안산시 단원구 대부북동 1802-6번지","indutype":"숙박 및 음식점업 - 중식","category":"hotel"}]},{"lat":"37.2587548381","long":"126.5717948969","imageIndex":5,"items":[{"name":"입이행복한집","tel":"032-886-7949","addr":"경기도 안산시 단원구 대부북동 1332-2번지","indutype":"숙박 및 음식점업 - 한식","category":"hotel"}]},{"lat":"37.2839479770","long":"126.5694861898","imageIndex":5,"items":[{"name":"전통 우리밀 칼국수","tel":"032-886-2993","addr":"경기도 안산시 단원구 대부북동 1849-36번지","indutype":"숙박 및 음식점업 - 한식","category":"hotel"}]},{"lat":"37.2422030167","long":"126.5843538981","imageIndex":5,"items":[{"name":"진미한식부페","tel":"032-880-0497","addr":"경기도 안산시 단원구 대부북동 501-8번지","indutype":"숙박 및 음식점업 - 한식","category":"hotel"},{"name":"투존치킨","tel":"032-886-0113","addr":"경기도 안산시 단원구 대부북동 501-8번지","indutype":"숙박 및 음식점업 - 치킨","category":"hotel"}]},{"lat":"37.2856718875","long":"126.5727690605","imageIndex":5,"items":[{"name":"천년대운옛날동태탕","tel":"031-881-8515","addr":"경기도 안산시 단원구 대부북동 1845번지","indutype":"숙박 및 음식점업 - 한식","category":"hotel"},{"name":"홍백칼국수","tel":"","addr":"경기도 안산시 단원구 대부북동 1845번지","indutype":"숙박 및 음식점업 - 한식","category":"hotel"}]},{"lat":"37.2867233047","long":"126.5744884149","imageIndex":5,"items":[{"name":"천안옛날호두과자","tel":"032-883-2261","addr":"경기도 안산시 단원구 대부북동 1841-9번지","indutype":"숙박 및 음식점업 - 호두과자","category":"hotel"}]},{"lat":"37.2878979484","long":"126.5754064615","imageIndex":5,"items":[{"name":"총각네조개구이","tel":"032-889-3001","addr":"경기도 안산시 단원구 대부북동 1848-71번지","indutype":"숙박 및 음식점업 - 일반음식점","category":"hotel"}]},{"lat":"37.2853900350","long":"126.5720715202","imageIndex":5,"items":[{"name":"최가네짬뽕","tel":"032-886-8089","addr":"경기도 안산시 단원구 대부북동 1848-323번지","indutype":"숙박 및 음식점업 - 한식","category":"hotel"}]},{"lat":"37.2870917352","long":"126.5742156836","imageIndex":5,"items":[{"name":"커피에 빠지다","tel":"032-882-1021","addr":"경기도 안산시 단원구 대부북동 1848-99번지","indutype":"숙박 및 음식점업 - 카페","category":"hotel"}]},{"lat":"37.2773422770","long":"126.5499050118","imageIndex":5,"items":[{"name":"큰언니간장게장","tel":"032-880-9741","addr":"경기도 안산시 단원구 대부북동 1870-56번지","indutype":"숙박 및 음식점업 - 기타음식점업","category":"hotel"}]},{"lat":"37.2855875573","long":"126.5718786928","imageIndex":5,"items":[{"name":"파도수산","tel":"032-886-6629","addr":"경기도 안산시 단원구 대부북동 1848-122번지","indutype":"숙박 및 음식점업 - 한식","category":"hotel"}]},{"lat":"37.2806437790","long":"126.5701816846","imageIndex":5,"items":[{"name":"포도밭 할머니칼국수","tel":"032-887-3080","addr":"경기도 안산시 단원구 대부북동 1854-113번지","indutype":"숙박 및 음식점업 - 한식","category":"hotel"}]},{"lat":"37.2752552789","long":"126.5603243451","imageIndex":5,"items":[{"name":"포도향기펜션","tel":"070-4203-0232","addr":"경기도 안산시 단원구 대부북동 1865-14번지","indutype":"숙박 및 음식점업 - 민박","category":"hotel"}]},{"lat":"37.2773142976","long":"126.5496571227","imageIndex":5,"items":[{"name":"푸른섬","tel":"032-885-9234","addr":"경기도 안산시 단원구 대부북동 1871-32번지","indutype":"숙박 및 음식점업 - 음식점","category":"hotel"}]},{"lat":"37.2862855919","long":"126.5730474841","imageIndex":5,"items":[{"name":"하겐나(Hagenna)","tel":"032-888-3455","addr":"경기도 안산시 단원구 대부북동 1848-111번지","indutype":"숙박 및 음식점업 - 커피,주류","category":"hotel"}]},{"lat":"37.2861133778","long":"126.5727665478","imageIndex":5,"items":[{"name":"하늘 바다에","tel":"032-886-2663","addr":"경기도 안산시 단원구 대부북동 1848-113번지","indutype":"숙박 및 음식점업 - 한식","category":"hotel"}]},{"lat":"37.2613981290","long":"126.5827371371","imageIndex":5,"items":[{"name":"한마당오리","tel":"032-886-5292","addr":"경기도 안산시 단원구 대부북동 1035번지","indutype":"숙박 및 음식점업 - 한식","category":"hotel"}]},{"lat":"37.2424017165","long":"126.5844880408","imageIndex":5,"items":[{"name":"한우마을","tel":"032-882-1553","addr":"경기도 안산시 단원구 대부북동 501-6번지","indutype":"숙박 및 음식점업 - 한식","category":"hotel"}]},{"lat":"37.2745313168","long":"126.5692132040","imageIndex":5,"items":[{"name":"해녀물회","tel":"032-883-1999","addr":"경기도 안산시 단원구 대부북동 1856-303번지","indutype":"숙박 및 음식점업 - 한식","category":"hotel"}]},{"lat":"37.2766206452","long":"126.5520516249","imageIndex":5,"items":[{"name":"해솔길펜션","tel":"","addr":"경기도 안산시 단원구 대부북동 1871-16번지","indutype":"숙박 및 음식점업 - 민박","category":"hotel"}]},{"lat":"37.2873132750","long":"126.5756804123","imageIndex":5,"items":[{"name":"허벌네횟집","tel":"032-883-1362","addr":"경기도 안산시 단원구 대부북동 1848-75번지","indutype":"숙박 및 음식점업 - 일반음식","category":"hotel"}]},{"lat":"37.2739807183","long":"126.5568253383","imageIndex":5,"items":[{"name":"화이트아일랜드","tel":"032-886-1120","addr":"경기도 안산시 단원구 대부북동 1865-97번지","indutype":"숙박 및 음식점업 - 민박","category":"hotel"}]}]