[{"lat":"37.275486896","long":"127.01764112","imageIndex":4,"items":[{"name":"난타","tel":"031-245-5652","addr":"경기도 수원시 팔달구 영동 44-11번지 지층","indutype":"일반휴게음식 - 주점","category":"restaurant"},{"name":"화춘옥","tel":"031-256-7181","addr":"경기도 수원시 팔달구 영동 44-11번지 1층 B호","indutype":"일반휴게음식 - 일반한식","category":"restaurant"}]},{"lat":"37.27579309","long":"127.01883635","imageIndex":4,"items":[{"name":"남강 진주냉면","tel":"031-247-5656","addr":"경기도 수원시 팔달구 영동 28-8번지 ,2,3층","indutype":"일반휴게음식 - 일반한식","category":"restaurant"}]},{"lat":"37.275459848","long":"127.01777642","imageIndex":4,"items":[{"name":"남문나주곰탕","tel":"031-252-6489","addr":"경기도 수원시 팔달구 영동 44-3번지 1층","indutype":"일반휴게음식 - 일반한식","category":"restaurant"}]},{"lat":"37.277072587","long":"127.01855473","imageIndex":4,"items":[{"name":"네꼬야영동점","tel":"031-255-4756","addr":"경기도 수원시 팔달구 영동 8번지 영동시장","indutype":"일반휴게음식 - 서양음식","category":"restaurant"},{"name":"달동산","tel":"","addr":"경기도 수원시 팔달구 영동 8번지 영동시장 가동 2층 2228호","indutype":"일반휴게음식 - 서양음식","category":"restaurant"},{"name":"모두아김밥","tel":"070-4687-4678","addr":"경기도 수원시 팔달구 영동 8번지 영동시장 나동 1층 267호","indutype":"일반휴게음식 - 스넥","category":"restaurant"},{"name":"쉬림프스테이크","tel":"","addr":"경기도 수원시 팔달구 영동 8번지 영동시장 A동 2층","indutype":"일반휴게음식 - 서양음식","category":"restaurant"},{"name":"우주가","tel":"031-235-7896","addr":"경기도 수원시 팔달구 영동 8번지 영동시장 A동 2층 2216호","indutype":"일반휴게음식 - 일반한식","category":"restaurant"},{"name":"주방장이양","tel":"","addr":"경기도 수원시 팔달구 영동 8번지 영동시장 A동 2층","indutype":"일반휴게음식 - 서양음식","category":"restaurant"},{"name":"토끼굴","tel":"031-1111-1111","addr":"경기도 수원시 팔달구 영동 8번지 영동시장 2층 2226호","indutype":"일반휴게음식 - 서양음식","category":"restaurant"}]},{"lat":"37.275513749","long":"127.01900542","imageIndex":4,"items":[{"name":"두리문","tel":"031-253-5560","addr":"경기도 수원시 팔달구 영동 36-2번지 두리문 2층","indutype":"일반휴게음식 - 일반한식","category":"restaurant"}]},{"lat":"37.27735198","long":"127.01797975","imageIndex":4,"items":[{"name":"명커피숍","tel":"031-253-9997","addr":"경기도 수원시 팔달구 영동 5-11번지","indutype":"일반휴게음식 - 서양음식","category":"restaurant"}]},{"lat":"37.275432682","long":"127.01881372","imageIndex":4,"items":[{"name":"박은자맛사랑","tel":"031-252-5959","addr":"경기도 수원시 팔달구 영동 28-15번지 1층","indutype":"일반휴게음식 - 일반한식","category":"restaurant"}]},{"lat":"37.276847443","long":"127.01767521","imageIndex":4,"items":[{"name":"서울마님죽","tel":"070-5022-4846","addr":"경기도 수원시 팔달구 영동 6-12","indutype":"일반휴게음식 - 일반한식","category":"restaurant"}]},{"lat":"37.275847307","long":"127.01764119","imageIndex":4,"items":[{"name":"수원성남문떡볶이","tel":"031-244-8749","addr":"경기도 수원시 팔달구 영동 11-7번지 1층","indutype":"일반휴게음식 - 일반한식","category":"restaurant"}]},{"lat":"37.275874216","long":"127.01858831","imageIndex":4,"items":[{"name":"숯부래","tel":"031-207-5150","addr":"경기도 수원시 팔달구 영동 27-2번지","indutype":"일반휴게음식 - 일반한식","category":"restaurant"}]},{"lat":"37.277207844","long":"127.01775421","imageIndex":4,"items":[{"name":"신포우리만두","tel":"031-245-2000","addr":"경기도 수원시 팔달구 영동 5-8번지","indutype":"일반휴게음식 - 일반한식","category":"restaurant"}]},{"lat":"37.27573916","long":"127.01783285","imageIndex":4,"items":[{"name":"영동식당","tel":"031-255-1569","addr":"경기도 수원시 팔달구 영동 11-3 외1필지(11-11)","indutype":"일반휴게음식 - 일반한식","category":"restaurant"}]},{"lat":"37.275739077","long":"127.01847553","imageIndex":4,"items":[{"name":"영분식","tel":"","addr":"경기도 수원시 팔달구 영동 27-3번지","indutype":"일반휴게음식 - 스넥","category":"restaurant"},{"name":"요희네집","tel":"031-207-9555","addr":"경기도 수원시 팔달구 영동 27-3번지 노블레스 1층 104호","indutype":"일반휴게음식 - 일반한식","category":"restaurant"},{"name":"중앙삼계탕","tel":"031-256-4634","addr":"경기도 수원시 팔달구 영동 27-3번지 노블레스 102호","indutype":"일반휴게음식 - 일반한식","category":"restaurant"}]},{"lat":"37.275739124","long":"127.01811473","imageIndex":4,"items":[{"name":"영희네집","tel":"031-254-1111","addr":"경기도 수원시 팔달구 영동 13-3번지 1층","indutype":"일반휴게음식 - 일반한식","category":"restaurant"}]},{"lat":"37.275405584","long":"127.01930982","imageIndex":4,"items":[{"name":"자바데이브 수원영동","tel":"031-252-6630","addr":"경기도 수원시 팔달구 영동 35-8번지","indutype":"일반휴게음식 - 일반한식","category":"restaurant"}]},{"lat":"37.277379044","long":"127.01772042","imageIndex":4,"items":[{"name":"장우동","tel":"031-258-4880","addr":"경기도 수원시 팔달구 영동 5-21번지","indutype":"일반휴게음식 - 일반한식","category":"restaurant"}]},{"lat":"37.27595536","long":"127.0181937","imageIndex":4,"items":[{"name":"장터집","tel":"031-245-6035","addr":"경기도 수원시 팔달구 영동 13-9번지","indutype":"일반휴게음식 - 일반한식","category":"restaurant"}]},{"lat":"37.275513888","long":"127.01794555","imageIndex":4,"items":[{"name":"짬뽕의전설","tel":"031-257-8088","addr":"경기도 수원시 팔달구 영동 43-11번지 ,1,2층","indutype":"일반휴게음식 - 일반한식","category":"restaurant"}]},{"lat":"37.276378875","long":"127.01794573","imageIndex":4,"items":[{"name":"크로바식당","tel":"031-243-3393","addr":"경기도 수원시 팔달구 영동 10-1번지 크로바백화점 3층","indutype":"일반휴게음식 - 일반한식","category":"restaurant"}]},{"lat":"37.275685079","long":"127.01797941","imageIndex":4,"items":[{"name":"홍두깨","tel":"031-247-3351","addr":"경기도 수원시 팔달구 영동 13-4번지","indutype":"일반휴게음식 - 일반한식","category":"restaurant"}]},{"lat":"37.275685098","long":"127.01783284","imageIndex":4,"items":[{"name":"화온반","tel":"031-241-1226","addr":"경기도 수원시 팔달구 영동 11-4번지 1층","indutype":"일반휴게음식 - 일반한식","category":"restaurant"}]}]