[{"lat":"37.592143506","long":"127.15029249","imageIndex":16,"items":[{"name":"CHO 수학과학 학원","tel":"031-562-0550","addr":"경기도 구리시 토평동 997-5번지 3층 일부","indutype":"학원 - 보습학원","category":"study"},{"name":"FTK 잉글리쉬 어학원","tel":"031-524-9995","addr":"경기도 구리시 토평동 997-5번지 크라제빌딩 4층 5층","indutype":"학원 - 외국어학원","category":"study"}]},{"lat":"37.590726503","long":"127.1449568","imageIndex":16,"items":[{"name":"강의하는아이들구리학원","tel":"031-551-7045","addr":"경기도 구리시 토평동 964-1번지 동영빌딩 5층","indutype":"학원 - 보습학원","category":"study"},{"name":"동영빌딩","tel":"031-567-0555","addr":"경기도 구리시 토평동 964-1번지 동영빌딩","indutype":"학원 - 독서실","category":"study"}]},{"lat":"37.590505866","long":"127.14856824","imageIndex":16,"items":[{"name":"강한대치고등1관학원","tel":"031-111-1111","addr":"경기도 구리시 토평동 966-2번지 천광빌딩 2층 일부","indutype":"학원 - 보습학원","category":"study"}]},{"lat":"37.590978244","long":"127.14539885","imageIndex":16,"items":[{"name":"공부공간 솜니움독서실","tel":"031-557-9997","addr":"경기도 구리시 토평동 964-3번지 새롬프라자9차 501호 일부, 502호","indutype":"학원 - 독서실","category":"study"},{"name":"마스터키학원","tel":"031-564-9505","addr":"경기도 구리시 토평동 964-3번지 새롬프라자9차 501호","indutype":"학원 - 보습학원","category":"study"}]},{"lat":"37.591169303","long":"127.1512077","imageIndex":16,"items":[{"name":"구리여자고등학교","tel":"031-563-7201","addr":"경기도 구리시 토평동 214번지","indutype":"학원 - 초중고교육기관","category":"study"},{"name":"구리여자중학교","tel":"031-563-4372","addr":"경기도 구리시 토평동 214번지","indutype":"학원 - 초중고교육기관","category":"study"}]},{"lat":"37.592863948","long":"127.15056566","imageIndex":16,"items":[{"name":"궁중무예 합기도","tel":"031-556-5004","addr":"경기도 구리시 토평동 997-1번지 외1필지 3층","indutype":"학원 - 예·체능계학원","category":"study"},{"name":"스터디플래닛독서실","tel":"031-523-2709","addr":"경기도 구리시 토평동 997-1번지 4층 일부","indutype":"학원 - 독서실","category":"study"},{"name":"주식회사 공부의신","tel":"031-558-5522","addr":"경기도 구리시 토평동 997-1번지 5층","indutype":"학원 - 보습학원","category":"study"},{"name":"현대에듀보습학원","tel":"031-565-5188","addr":"경기도 구리시 토평동 997-1번지","indutype":"학원 - 보습학원","category":"study"}]},{"lat":"37.586639106","long":"127.1424016","imageIndex":16,"items":[{"name":"꼬야런치","tel":"070-8267-2645","addr":"경기도 구리시 토평동 955번지 토평마을e편한세상 106동 301호","indutype":"학원 - 기타 교육기관","category":"study"}]},{"lat":"37.593953262","long":"127.15125851","imageIndex":16,"items":[{"name":"나래독서실","tel":"031-562-9177","addr":"경기도 구리시 토평동 999번지 노다지빌딩 3층","indutype":"학원 - 독서실","category":"study"},{"name":"율곡학원","tel":"031-567-6660","addr":"경기도 구리시 토평동 999번지 4층","indutype":"학원 - 보습학원","category":"study"}]},{"lat":"37.588560607","long":"127.1478738","imageIndex":16,"items":[{"name":"대원공부방","tel":"02-111-1111","addr":"경기도 구리시 토평동 987번지 골드빌 2층 203호","indutype":"학원 - 기타 교육기관","category":"study"}]},{"lat":"37.588893258","long":"127.14845188","imageIndex":16,"items":[{"name":"더잉글리쉬학원","tel":"031-557-9600","addr":"경기도 구리시 토평동 981-2번지","indutype":"학원 - 보습학원","category":"study"}]},{"lat":"37.591675281","long":"127.15006511","imageIndex":16,"items":[{"name":"도쿄아오이일본어교습소","tel":"031-555-2079","addr":"경기도 구리시 토평동 996번지 4층","indutype":"학원 - 외국어학원","category":"study"},{"name":"스프링퐁퐁학원","tel":"070-7529-2141","addr":"경기도 구리시 토평동 996번지 팰리스빌딩 4층일부","indutype":"학원 - 보습학원","category":"study"}]},{"lat":"37.593898919","long":"127.15148486","imageIndex":16,"items":[{"name":"라온수학학원","tel":"","addr":"경기도 구리시 토평동 999-1번지 정민빌딩 2층","indutype":"학원 - 보습학원","category":"study"},{"name":"모짜르트음악학원","tel":"031-563-8998","addr":"경기도 구리시 토평동 999-1번지","indutype":"학원 - 예·체능계학원","category":"study"},{"name":"모차르트음악학원","tel":"031-563-8998","addr":"경기도 구리시 토평동 999-1번지 정민빌딩 3층","indutype":"학원 - 예·체능계학원","category":"study"},{"name":"숲미술학원","tel":"031-555-5774","addr":"경기도 구리시 토평동 999-1번지 정민빌딩 3층","indutype":"학원 - 예·체능계학원","category":"study"},{"name":"해법엘리트학원","tel":"031-512-2223","addr":"경기도 구리시 토평동 999-1번지 정민빌딩 2층","indutype":"학원 - 보습학원","category":"study"}]},{"lat":"37.590591629","long":"127.14473009","imageIndex":16,"items":[{"name":"리드앤톡영어학원","tel":"031-556-3204","addr":"경기도 구리시 토평동 964번지 메인프라자","indutype":"학원 - 외국어학원","category":"study"},{"name":"용인대창룡체육관","tel":"031-564-3005","addr":"경기도 구리시 토평동 964번지 메인프라자 401호","indutype":"회원제형태 - 학원","category":"study"},{"name":"한세기요양보호사교육원","tel":"031-555-0045","addr":"경기도 구리시 토평동 964번지 메인프라자 3층 301호","indutype":"학원 - 기능학원","category":"study"}]},{"lat":"37.585367047","long":"127.14381444","imageIndex":16,"items":[{"name":"명성그린유치원","tel":"031-566-6430","addr":"경기도 구리시 토평동 595-3번지","indutype":"학원 - 유치원","category":"study"},{"name":"햇빛사랑어린이집[아이행복]","tel":"031-566-6430","addr":"경기도 구리시 토평동 595-3번지","indutype":"학원 - 유아원","category":"study"}]},{"lat":"37.593314265","long":"127.15070242","imageIndex":16,"items":[{"name":"민영학원","tel":"031-552-6616","addr":"경기도 구리시 토평동 998-4번지 창의빌딩 4층","indutype":"회원제형태 - 학원","category":"study"}]},{"lat":"37.592341664","long":"127.15033817","imageIndex":16,"items":[{"name":"바른수학바른영어학원","tel":"031-556-6516","addr":"경기도 구리시 토평동 997-4번지 선화빌딩 401호","indutype":"학원 - 보습학원","category":"study"},{"name":"아이클노리미술학원","tel":"0231-568-4461","addr":"경기도 구리시 토평동 997-4번지 3층","indutype":"학원 - 예·체능계학원","category":"study"},{"name":"티엠음악학원","tel":"031-556-0386","addr":"경기도 구리시 토평동 997-4번지 선화빌딩 5층 502호","indutype":"학원 - 예·체능계학원","category":"study"}]},{"lat":"37.582090476","long":"127.14128364","imageIndex":16,"items":[{"name":"베스트나인베이스볼","tel":"070-7420-2947","addr":"경기도 구리시 토평동 706-3번지","indutype":"학원 - 예·체능계학원","category":"study"}]},{"lat":"37.591477067","long":"127.15006472","imageIndex":16,"items":[{"name":"브레인스쿨구리학원","tel":"031-558-7081","addr":"경기도 구리시 토평동 995번지 토평프라자 401호","indutype":"학원 - 기타 교육기관","category":"study"},{"name":"소르본학원","tel":"031-567-5550","addr":"경기도 구리시 토평동 995번지 토평프라자 301호","indutype":"학원 - 보습학원","category":"study"},{"name":"수채화향기","tel":"031-565-1259","addr":"경기도 구리시 토평동 995번지 토평프라자 103호","indutype":"학원 - 예·체능계학원","category":"study"},{"name":"이앤엠플러스학원","tel":"031-558-9992","addr":"경기도 구리시 토평동 995번지 301호 일부","indutype":"학원 - 보습학원","category":"study"},{"name":"저스트보컬교습소","tel":"031-567-1335","addr":"경기도 구리시 토평동 995번지 2층 201호","indutype":"학원 - 예·체능계학원","category":"study"},{"name":"탑국어영어학원","tel":"031-565-7972","addr":"경기도 구리시 토평동 995번지 토평프라자 201호 일부","indutype":"학원 - 보습학원","category":"study"}]},{"lat":"37.593871618","long":"127.15169995","imageIndex":16,"items":[{"name":"삼육이와스외국어학원","tel":"031-558-4315","addr":"경기도 구리시 토평동 999-2번지 신성빌딩","indutype":"학원 - 외국어학원","category":"study"}]},{"lat":"37.593808264","long":"127.15192628","imageIndex":16,"items":[{"name":"수택정훈태권도장","tel":"","addr":"경기도 구리시 토평동 999-3번지 승민빌딩 4층","indutype":"학원 - 예·체능계학원","category":"study"},{"name":"키즈체육도장","tel":"031-562-2979","addr":"경기도 구리시 토평동 999-3번지 승민빌딩 4층","indutype":"회원제형태 - 학원","category":"study"}]},{"lat":"37.591726237","long":"127.15253355","imageIndex":16,"items":[{"name":"수택초등학교","tel":"031-564-4163","addr":"경기도 구리시 토평동 1007번지 수택초등학교","indutype":"학원 - 초중고교육기관","category":"study"},{"name":"수택초등학교병설유치원[아이행복]","tel":"031-564-4162","addr":"경기도 구리시 토평동 1007번지","indutype":"학원 - 유치원","category":"study"}]},{"lat":"37.585980575","long":"127.143091","imageIndex":16,"items":[{"name":"숨은씨앗미술교습소","tel":"031-556-1125","addr":"경기도 구리시 토평동 955번지 토평마을e편한세상 상가 202호","indutype":"학원 - 예·체능계학원","category":"study"}]},{"lat":"37.589229032","long":"127.14648246","imageIndex":16,"items":[{"name":"시립토평마을 어린이집[아이행복]","tel":"031-551-7942","addr":"경기도 구리시 토평동 984번지","indutype":"학원 - 유아원","category":"study"}]},{"lat":"37.590478571","long":"127.14878332","imageIndex":16,"items":[{"name":"아비온항공승무원학원","tel":"031-555-8017","addr":"경기도 구리시 토평동 966-3번지 2층","indutype":"학원 - 기능학원","category":"study"}]},{"lat":"37.590843371","long":"127.14517215","imageIndex":16,"items":[{"name":"안광고시원","tel":"031-551-9494","addr":"경기도 구리시 토평동 964-2번지","indutype":"학원 - 독서실","category":"study"}]},{"lat":"37.588281957","long":"127.14734112","imageIndex":16,"items":[{"name":"엔젤스포츠","tel":"031-792-8544","addr":"경기도 구리시 토평동 986-5번지 지층 3호","indutype":"학원 - 기타 교육기관","category":"study"}]},{"lat":"37.588661816","long":"127.14615302","imageIndex":16,"items":[{"name":"우리라온어린이집[아이행복]","tel":"031-553-7433","addr":"경기도 구리시 토평동 959번지 상록아파트 502동 101호","indutype":"학원 - 유아원","category":"study"}]},{"lat":"37.589451626","long":"127.14864545","imageIndex":16,"items":[{"name":"워릭프랭클린어학원","tel":"031-565-9981","addr":"경기도 구리시 토평동 980번지 토평프라자 4층 402호","indutype":"회원제형태 - 학원","category":"study"},{"name":"칸타빌레음악원","tel":"031-551-1157","addr":"경기도 구리시 토평동 980번지 새롬10차 401호","indutype":"학원 - 예·체능계학원","category":"study"}]},{"lat":"37.594007662","long":"127.15098687","imageIndex":16,"items":[{"name":"윤수학학원","tel":"031-514-5406","addr":"경기도 구리시 토평동 998번지 새롬프라자10차 301호","indutype":"학원 - 보습학원","category":"study"}]},{"lat":"37.590424134","long":"127.14908892","imageIndex":16,"items":[{"name":"이아이이고려대학교국제어학원 영어교육프","tel":"031-558-0594","addr":"경기도 구리시 토평동 966-4번지 프라임빌딩 5층","indutype":"학원 - 외국어학원","category":"study"}]},{"lat":"37.593476342","long":"127.150782","imageIndex":16,"items":[{"name":"잉글리쉬무무수택제2학원","tel":"031-566-9905","addr":"경기도 구리시 토평동 998-3번지 한주빌딩 3층","indutype":"학원 - 보습학원","category":"study"}]},{"lat":"37.585918445","long":"127.14229836","imageIndex":16,"items":[{"name":"정전기협회한국지부(KOREA CHAPTER ESD)","tel":"031-750-9200","addr":"경기도 구리시 토평동 955번지 토평마을e편한세상 107동 304호","indutype":"회원제형태 - 학원","category":"study"}]},{"lat":"37.579012141","long":"127.15353829","imageIndex":16,"items":[{"name":"지엘(GL)유소년FC","tel":"031-558-4667","addr":"경기도 구리시 토평동 462-1번지 외1필지","indutype":"학원 - 기타 교육기관","category":"study"}]},{"lat":"37.585142281","long":"127.15078816","imageIndex":16,"items":[{"name":"초록나라어린이집[아이행복]","tel":"031-565-5084","addr":"경기도 구리시 토평동 389번지","indutype":"학원 - 유아원","category":"study"}]},{"lat":"37.58916967","long":"127.14340269","imageIndex":16,"items":[{"name":"토평고등학교","tel":"031-560-6000","addr":"경기도 구리시 토평동 962번지 토평고등학교","indutype":"학원 - 초중고교육기관","category":"study"}]},{"lat":"37.58633166","long":"127.14334074","imageIndex":16,"items":[{"name":"토평사임당어린이집[아이행복]","tel":"031-558-7942","addr":"경기도 구리시 토평동 955번지 토평마을e편한세상 103동 102호","indutype":"학원 - 유아원","category":"study"}]},{"lat":"37.587759487","long":"127.14726086","imageIndex":16,"items":[{"name":"토평이젠수학교습소","tel":"031-565-4237","addr":"경기도 구리시 토평동 611-32번지 청운빌딩 1층 일부","indutype":"회원제형태 - 학원","category":"study"},{"name":"토평태권도체육관","tel":"031-563-7188","addr":"경기도 구리시 토평동 611-32번지 청운빌딩 203호","indutype":"회원제형태 - 학원","category":"study"}]},{"lat":"37.589781117","long":"127.14442285","imageIndex":16,"items":[{"name":"토평중학교","tel":"031-556-6194","addr":"경기도 구리시 토평동 963번지 토평중학교","indutype":"학원 - 초중고교육기관","category":"study"}]},{"lat":"37.587481165","long":"127.14645645","imageIndex":16,"items":[{"name":"토평초등학교","tel":"031-563-5105","addr":"경기도 구리시 토평동 611-3번지 토평초등학교","indutype":"학원 - 초중고교육기관","category":"study"},{"name":"토평초등학교병설유치원[아이행복]","tel":"031-563-8498","addr":"경기도 구리시 토평동 611-3번지 토평초등학교","indutype":"학원 - 유치원","category":"study"}]},{"lat":"37.593034651","long":"127.15095097","imageIndex":16,"items":[{"name":"통문장토평영어교습소","tel":"031-555-3305","addr":"경기도 구리시 토평동 1002번지 102호","indutype":"회원제형태 - 학원","category":"study"}]},{"lat":"37.590311917","long":"127.14506923","imageIndex":16,"items":[{"name":"하얀어린이집","tel":"031-551-3333","addr":"경기도 구리시 토평동 973번지 1층","indutype":"학원 - 유치원","category":"study"}]},{"lat":"37.588696808","long":"127.14701358","imageIndex":16,"items":[{"name":"해오름독서실","tel":"031-569-1288","addr":"경기도 구리시 토평동 662-3번지 2층","indutype":"학원 - 독서실","category":"study"}]}]