[{"lat":"37.42911102","long":"127.00314181","imageIndex":7,"items":[{"name":"공원할인마트","tel":"02-504-7267","addr":"경기도 과천시 문원동 15-91번지","indutype":"유통업 영리 - 슈퍼마켓","category":"mart"}]},{"lat":"37.421181833","long":"126.99384441","imageIndex":7,"items":[{"name":"공원할인마트","tel":"02-504-7267","addr":"경기도 과천시 문원동 15-91번지","indutype":"소매업 - 슈퍼마켓","category":"mart"}]},{"lat":"37.424299472","long":"127.00950224","imageIndex":7,"items":[{"name":"문원마트","tel":"02-502-2827","addr":"경기도 과천시 문원동 115-173번지","indutype":"유통업 영리 - 슈퍼마켓","category":"mart"}]},{"lat":"37.41618901","long":"126.98345251","imageIndex":7,"items":[{"name":"문원마트","tel":"02-502-2827","addr":"경기도 과천시 문원동 115-173번지","indutype":"소매업 - 슈퍼마켓","category":"mart"}]},{"lat":"37.415693514","long":"126.98380282","imageIndex":7,"items":[{"name":"세곡새마을구판장","tel":"02-502-4998","addr":"경기도 과천시 문원동 929-1번지","indutype":"소매업 - 슈퍼마켓","category":"mart"}]},{"lat":"37.412829613","long":"126.99533644","imageIndex":7,"items":[{"name":"세곡새마을구판장","tel":"02-502-4998","addr":"경기도 과천시 문원동 929-1번지","indutype":"유통업 영리 - 슈퍼마켓","category":"mart"}]},{"lat":"37.423605694","long":"127.00958126","imageIndex":7,"items":[{"name":"소망마트","tel":"02-503-7116","addr":"경기도 과천시 문원동 115-161번지","indutype":"유통업 영리 - 슈퍼마켓","category":"mart"}]},{"lat":"37.428083503","long":"126.99350464","imageIndex":7,"items":[{"name":"소망마트","tel":"02-503-7116","addr":"경기도 과천시 문원동 115-161번지","indutype":"소매업 - 슈퍼마켓","category":"mart"}]},{"lat":"37.453879482","long":"127.00747051","imageIndex":7,"items":[{"name":"진로24시마트","tel":"02-504-6490","addr":"경기도 과천시 문원동 115-153번지","indutype":"소매업 - 슈퍼, 담배","category":"mart"}]},{"lat":"37.42424543","long":"127.00916331","imageIndex":7,"items":[{"name":"진로24시마트","tel":"02-504-6490","addr":"경기도 과천시 문원동 115-153번지","indutype":"유통업 영리 - 슈퍼마켓","category":"mart"}]}]