[{"lat":"37.245719985","long":"127.45493702","imageIndex":13,"items":[{"name":"(주)다나","tel":"02-466-4023","addr":"경기도 이천시 고담동 413-4번지","indutype":"보건위생 - 화장품","category":"beauty"}]},{"lat":"37.250332253","long":"127.47368617","imageIndex":17,"items":[{"name":"ITS(아이티에스)","tel":"070-8826-7267","addr":"경기도 이천시 고담동 71-1번지 6층 603호","indutype":"전기제품 - 기타전기제품","category":"other"},{"name":"성광엘이디","tel":"031-638-9331","addr":"경기도 이천시 고담동 71-1번지 413호","indutype":"건축자재 - 조명기구","category":"other"},{"name":"이천전자담배","tel":"031-634-6344","addr":"경기도 이천시 고담동 71-1번지 STK빌딩 105호","indutype":"기타 - 기타 전문점","category":"other"}]},{"lat":"37.244467374","long":"127.45498589","imageIndex":17,"items":[{"name":"세븐일레븐이천고담점","tel":"031-631-9373","addr":"경기도 이천시 고담동 430-11번지","indutype":"유통업 영리 - 편 의 점","category":"other"}]},{"lat":"37.243328039","long":"127.45368301","imageIndex":17,"items":[{"name":"중앙유통","tel":"","addr":"경기도 이천시 고담동 450-7번지","indutype":"농업 - 농기계","category":"other"}]},{"lat":"37.239584563","long":"127.45004314","imageIndex":17,"items":[{"name":"한영공사","tel":"","addr":"경기도 이천시 고담동 492-10번지","indutype":"용역 서비스 - 기타용역서비스","category":"other"}]},{"lat":"37.240441638","long":"127.45213312","imageIndex":0,"items":[{"name":"건국자동차매매상사","tel":"031-631-8991","addr":"경기도 이천시 고담동 477-1번지","indutype":"자동차판매 - 중고자동차판매","category":"car"}]},{"lat":"37.24504984","long":"127.45582338","imageIndex":0,"items":[{"name":"달구지바닥난방","tel":"031-635-3981","addr":"경기도 이천시 고담동 411-4번지","indutype":"자동차정비 유지 - 주차장","category":"car"}]},{"lat":"37.239966967","long":"127.45137523","imageIndex":0,"items":[{"name":"비엠(BM)모터스","tel":"031-631-4105","addr":"경기도 이천시 고담동 477-42번지","indutype":"자동차판매 - 중고자동차판매","category":"car"},{"name":"한양매매상사","tel":"031-636-8949","addr":"경기도 이천시 고담동 477-42번지 이천자동차매매단지","indutype":"자동차판매 - 중고자동차판매","category":"car"}]},{"lat":"37.239862598","long":"127.45038288","imageIndex":4,"items":[{"name":"고담골","tel":"031-631-2668","addr":"경기도 이천시 고담동 492-7번지","indutype":"일반휴게음식 - 중국식","category":"restaurant"}]},{"lat":"37.238224963","long":"127.46157506","imageIndex":4,"items":[{"name":"고담낚시터가든","tel":"031-634-0877","addr":"경기도 이천시 고담동 298-3번지","indutype":"일반휴게음식 - 일반한식","category":"restaurant"}]},{"lat":"37.250775087","long":"127.47335079","imageIndex":4,"items":[{"name":"남촌집","tel":"031-633-2210","addr":"경기도 이천시 고담동 64-23번지","indutype":"일반휴게음식 - 일반한식","category":"restaurant"}]},{"lat":"37.239584563","long":"127.45004314","imageIndex":4,"items":[{"name":"태건기사식당","tel":"031-633-2204","addr":"경기도 이천시 고담동 492-10번지","indutype":"일반휴게음식 - 일반한식","category":"restaurant"}]},{"lat":"37.250332253","long":"127.47368617","imageIndex":4,"items":[{"name":"토프레소 이천하이닉스점","tel":"031-634-8882","addr":"경기도 이천시 고담동 71-1번지","indutype":"일반휴게음식 - 서양음식","category":"restaurant"}]},{"lat":"37.250332253","long":"127.47368617","imageIndex":13,"items":[{"name":"고담골프존","tel":"031-634-1873","addr":"경기도 이천시 고담동 71-1번지 B101-1호","indutype":"레저업소 - 스크린골프","category":"leisure"}]},{"lat":"37.238333869","long":"127.46137287","imageIndex":13,"items":[{"name":"고담낚시터","tel":"031-634-0877","addr":"경기도 이천시 고담동 297","indutype":"레저업소 - 기타레져업소","category":"leisure"}]},{"lat":"37.244800046","long":"127.46451142","imageIndex":16,"items":[{"name":"고담베이비0123어린이집[아이행복]","tel":"031-632-9839","addr":"경기도 이천시 고담동 186번지","indutype":"학원 - 유아원","category":"study"},{"name":"통통베이비어린이집[아이행복]","tel":"031-631-8842","addr":"경기도 이천시 고담동 186번지","indutype":"학원 - 유아원","category":"study"}]},{"lat":"37.245024945","long":"127.46460295","imageIndex":16,"items":[{"name":"베이비0123어린이집[아이행복]","tel":"031-634-0115","addr":"경기도 이천시 고담동 146번지","indutype":"학원 - 유아원","category":"study"}]},{"lat":"37.242244687","long":"127.45424006","imageIndex":16,"items":[{"name":"작은꽃어린이집[아이행복]","tel":"031-634-2559","addr":"경기도 이천시 고담동 444-16번지","indutype":"학원 - 유아원","category":"study"}]},{"lat":"37.251496704","long":"127.47087555","imageIndex":16,"items":[{"name":"파스텔어린이집[아이행복]","tel":"031-637-6642","addr":"경기도 이천시 고담동 65번지","indutype":"학원 - 유아원","category":"study"}]},{"lat":"37.239864054","long":"127.45237763","imageIndex":7,"items":[{"name":"농업회사법인 주식회사 그린","tel":"031-634-0001","addr":"경기도 이천시 고담동 477-18번지","indutype":"음료식품 - 농·축·수산품","category":"food"}]},{"lat":"37.242139228","long":"127.45354068","imageIndex":7,"items":[{"name":"농업회사법인 캄코그린 주식회사","tel":"031-000-0000","addr":"경기도 이천시 고담동 468-3번지","indutype":"음료식품 - 기타음료식품","category":"food"}]},{"lat":"37.250775087","long":"127.47335079","imageIndex":7,"items":[{"name":"주원농장","tel":"02-1111-1111","addr":"경기도 이천시 고담동 64-23번지","indutype":"음료식품 - 농·축·수산품","category":"food"}]},{"lat":"37.244361232","long":"127.45446682","imageIndex":7,"items":[{"name":"청담오리유통","tel":"031-632-5230","addr":"경기도 이천시 고담동 450-3번지","indutype":"음료식품 - 정육점","category":"food"}]}]