[{"lat":"37.51339451","long":"126.76974347","imageIndex":7,"items":[{"name":"(주)티코리아","tel":"032-672-3742","addr":"경기도 부천시 약대동 136번지","indutype":"음료식품 - 기타음료식품","category":"food"},{"name":"데코리아","tel":"032-672-3742","addr":"경기도 부천시 약대동 136번지","indutype":"음료식품 - 기타음료식품","category":"food"}]},{"lat":"37.512312547","long":"126.76935096","imageIndex":7,"items":[{"name":"강인위더스","tel":"032-670-0184","addr":"경기도 부천시 약대동 138-7번지 다니엘종합병원 802호 일부","indutype":"건강식품 - 기타건강식품","category":"food"}]},{"lat":"37.516064499","long":"126.76674901","imageIndex":7,"items":[{"name":"꽃뜰케이크","tel":"032-6354-5416","addr":"경기도 부천시 약대동 216-1번지 부천아이파크","indutype":"음료식품 - 기타음료식품","category":"food"},{"name":"달구네","tel":"031-111-1111","addr":"경기도 부천시 약대동 216-1번지 부천아이파크","indutype":"음료식품 - 제과점","category":"food"},{"name":"착한생고기","tel":"031-1111-1111","addr":"경기도 부천시 약대동 216-1번지 현대아이파크21단지 상가 103호","indutype":"음료식품 - 정육점","category":"food"},{"name":"현대홈마트내정육","tel":"032-111-1111","addr":"경기도 부천시 약대동 216-1번지 부천아이파크 상가","indutype":"음료식품 - 정육점","category":"food"}]},{"lat":"37.514842631","long":"126.76849475","imageIndex":7,"items":[{"name":"동광건강원","tel":"032-679-3636","addr":"경기도 부천시 약대동 84-1번지","indutype":"건강식품 - 기타건강식품","category":"food"}]},{"lat":"37.510564924","long":"126.77410676","imageIndex":7,"items":[{"name":"매일유업영광특판","tel":"032-672-7508","addr":"경기도 부천시 약대동 169-35번지 102호","indutype":"음료식품 - 기타음료식품","category":"food"}]},{"lat":"37.513096427","long":"126.77396331","imageIndex":7,"items":[{"name":"미광수산","tel":"032-671-5912","addr":"경기도 부천시 약대동 170-7번지","indutype":"음료식품 - 농·축·수산품","category":"food"}]},{"lat":"37.514034387","long":"126.76983197","imageIndex":7,"items":[{"name":"밥도둑 찬찬찬","tel":"070-4806-5042","addr":"경기도 부천시 약대동 104번지 1층 5호","indutype":"음료식품 - 기타음료식품","category":"food"}]},{"lat":"37.514701114","long":"126.76982989","imageIndex":7,"items":[{"name":"베스킨라빈스 부천신흥시장점","tel":"032-676-4266","addr":"경기도 부천시 약대동 93-1번지 1층 일부","indutype":"음료식품 - 제과점","category":"food"}]},{"lat":"37.510565625","long":"126.77446869","imageIndex":7,"items":[{"name":"부천쌀도매","tel":"032-677-3385","addr":"경기도 부천시 약대동 177-1번지 1층","indutype":"음료식품 - 미곡상","category":"food"}]},{"lat":"37.512927581","long":"126.77054798","imageIndex":7,"items":[{"name":"서울우유중1동대리점","tel":"032-675-5389","addr":"경기도 부천시 약대동 128-11번지 101호","indutype":"음료식품 - 기타음료식품","category":"food"}]},{"lat":"37.515394185","long":"126.76496397","imageIndex":7,"items":[{"name":"알레 (ALLEZ)","tel":"031-111-1111","addr":"경기도 부천시 약대동 182-57번지 1층","indutype":"음료식품 - 제과점","category":"food"},{"name":"즐거운엄마협동조합","tel":"070-4148-7179","addr":"경기도 부천시 약대동 182-57번지 1층","indutype":"음료식품 - 기타음료식품","category":"food"}]},{"lat":"37.5121188701","long":"126.7716589309","imageIndex":7,"items":[{"name":"양파창고","tel":"02-1111-1111","addr":"경기도 부천시 약대동 164-9번지","indutype":"음료식품 - 농·축·수산품","category":"food"}]},{"lat":"37.51292302","long":"126.77282145","imageIndex":7,"items":[{"name":"여주농산","tel":"032-678-5169","addr":"경기도 부천시 약대동 169-75번지","indutype":"음료식품 - 미곡상","category":"food"}]},{"lat":"37.511900806","long":"126.77535816","imageIndex":7,"items":[{"name":"주식회사 정담에프엔에스","tel":"032-672-9979","addr":"경기도 부천시 약대동 176-32번지 6층","indutype":"음료식품 - 기타음료식품","category":"food"},{"name":"주식회사 정담푸드","tel":"032-672-9979","addr":"경기도 부천시 약대동 176-32번지 한성빌딩 4층,6층","indutype":"음료식품 - 기타음료식품","category":"food"}]},{"lat":"37.516232441","long":"126.76513097","imageIndex":7,"items":[{"name":"주식회사엘케이디앤","tel":"032-321-8206","addr":"경기도 부천시 약대동 182-9번지","indutype":"음료식품 - 기타음료식품","category":"food"}]},{"lat":"37.509535518","long":"126.77293364","imageIndex":7,"items":[{"name":"중앙야채","tel":"","addr":"경기도 부천시 약대동 209번지 부천위브트레지움2단지아파트","indutype":"음료식품 - 농·축·수산품","category":"food"}]},{"lat":"37.514179414","long":"126.77027264","imageIndex":7,"items":[{"name":"칠갑산건강원","tel":"032-672-6789","addr":"경기도 부천시 약대동 97-2번지","indutype":"건강식품 - 기타건강식품","category":"food"}]},{"lat":"37.511536447","long":"126.76871999","imageIndex":7,"items":[{"name":"파리바게뜨","tel":"032-672-8204","addr":"경기도 부천시 약대동 196번지 상가동B106,B107호","indutype":"음료식품 - 제과점","category":"food"}]},{"lat":"37.510672823","long":"126.77399333","imageIndex":7,"items":[{"name":"해피다이어트","tel":"032-612-4005","addr":"경기도 부천시 약대동 169-32번지 삼화그린빌","indutype":"회원제형태 - 건강식품","category":"food"}]}]