[{"lat":"37.324509877","long":"127.0985797","imageIndex":13,"items":[{"name":"24시노래연습장","tel":"031-262-5139","addr":"경기도 용인시 수지구 풍덕천동 716-7번지","indutype":"레저업소 - 노 래 방","category":"leisure"}]},{"lat":"37.325178692","long":"127.09599685","imageIndex":13,"items":[{"name":"DIVE HERE","tel":"070-0000-0000","addr":"경기도 용인시 수지구 풍덕천동 705-5번지 일신빌딩 2층 203호","indutype":"레저업소 - 기타레져업소","category":"leisure"},{"name":"행복한골프연습장","tel":"031-265-0347","addr":"경기도 용인시 수지구 풍덕천동 705-5번지 일신빌딩 5층","indutype":"레저업소 - 골프연습장","category":"leisure"}]},{"lat":"37.325007285","long":"127.09626742","imageIndex":13,"items":[{"name":"JS당구클럽","tel":"031-289-4747","addr":"경기도 용인시 수지구 풍덕천동 709-2번지 2층","indutype":"레저업소 - 당 구 장","category":"leisure"}]},{"lat":"37.323034204","long":"127.09607318","imageIndex":13,"items":[{"name":"MBC노래연습장","tel":"031-263-1623","addr":"경기도 용인시 수지구 풍덕천동 719-2번지","indutype":"레저업소 - 노 래 방","category":"leisure"}]},{"lat":"37.326732418","long":"127.10219301","imageIndex":13,"items":[{"name":"OCN노래연습장","tel":"031-263-2915","addr":"경기도 용인시 수지구 풍덕천동 742-8번지","indutype":"레저업소 - 노 래 방","category":"leisure"}]},{"lat":"37.325061692","long":"127.09582747","imageIndex":13,"items":[{"name":"PGA골프연습장","tel":"031-265-5788","addr":"경기도 용인시 수지구 풍덕천동 705-4번지 덕원빌딩 3층","indutype":"레저업소 - 골프연습장","category":"leisure"}]},{"lat":"37.32556328","long":"127.09955134","imageIndex":13,"items":[{"name":"SBS노래연습장","tel":"031-261-0949","addr":"경기도 용인시 수지구 풍덕천동 703-5번지 지하1층","indutype":"레저업소 - 노 래 방","category":"leisure"}]},{"lat":"37.324368385","long":"127.09521736","imageIndex":13,"items":[{"name":"SKY","tel":"031-263-0951","addr":"경기도 용인시 수지구 풍덕천동 708번지","indutype":"레저업소 - 노 래 방","category":"leisure"},{"name":"스카이 노래연습장","tel":"031-266-1227","addr":"경기도 용인시 수지구 풍덕천동 708번지 수양프라자 5층","indutype":"레저업소 - 노 래 방","category":"leisure"}]},{"lat":"37.332842784","long":"127.1004408","imageIndex":13,"items":[{"name":"VIP","tel":"031-272-8414","addr":"경기도 용인시 수지구 풍덕천동 669-10번지 지하층","indutype":"레저업소 - 노 래 방","category":"leisure"},{"name":"브이아이피 (VIP)노래방","tel":"","addr":"경기도 용인시 수지구 풍덕천동 669-10번지 지하1층","indutype":"레저업소 - 노 래 방","category":"leisure"}]},{"lat":"37.323925973","long":"127.0963789","imageIndex":13,"items":[{"name":"고릴라주짓수","tel":"070-7854-7975","addr":"경기도 용인시 수지구 풍덕천동 713-3번지 수지파크빌딩 지하1층","indutype":"레저업소 - 헬스클럽","category":"leisure"},{"name":"빌리야드타운","tel":"031-276-4407","addr":"경기도 용인시 수지구 풍덕천동 713-3번지 수지파크빌딩 3층","indutype":"레저업소 - 당 구 장","category":"leisure"}]},{"lat":"37.324619293","long":"127.09696645","imageIndex":13,"items":[{"name":"골든보우","tel":"070-8115-6558","addr":"경기도 용인시 수지구 풍덕천동 710-7번지 우송빌딩 2층","indutype":"레저업소 - 기타레져업소","category":"leisure"},{"name":"허슬러당구클럽","tel":"031-263-7752","addr":"경기도 용인시 수지구 풍덕천동 710-7번지 우송빌딩 4층","indutype":"레저업소 - 당 구 장","category":"leisure"}]},{"lat":"37.323507974","long":"127.10074464","imageIndex":13,"items":[{"name":"골프존파크 수지24","tel":"031-889-7777","addr":"경기도 용인시 수지구 풍덕천동 1195번지 수지푸르지오월드마크 201동 219호","indutype":"레저업소 - 스크린골프","category":"leisure"},{"name":"에스앤지 스크린골프","tel":"031-889-1717","addr":"경기도 용인시 수지구 풍덕천동 1195번지 수지 103동 221-229,240호","indutype":"레저업소 - 스크린골프","category":"leisure"},{"name":"에스앤지스크린골프","tel":"031-889-1717","addr":"경기도 용인시 수지구 풍덕천동 1195번지 103동 225호","indutype":"레저업소 - 스크린골프","category":"leisure"},{"name":"카카오골프","tel":"070-4649-1101","addr":"경기도 용인시 수지구 풍덕천동 1195번지 수지푸르지오월드마크 103동 221~224,226호~240호","indutype":"레저업소 - 스크린골프","category":"leisure"},{"name":"헬로방방용인수지점","tel":"031-272-2222","addr":"경기도 용인시 수지구 풍덕천동 1195번지 233-235호","indutype":"레저업소 - 기타레져업소","category":"leisure"}]},{"lat":"37.324150987","long":"127.09668381","imageIndex":13,"items":[{"name":"당구25","tel":"031-233-5975","addr":"경기도 용인시 수지구 풍덕천동 714 3층","indutype":"레저업소 - 당 구 장","category":"leisure"}]},{"lat":"37.324340353","long":"127.09649224","imageIndex":13,"items":[{"name":"당구클럽 하이런","tel":"031-000-0000","addr":"경기도 용인시 수지구 풍덕천동 710-4번지 동림빌딩 6층","indutype":"레저업소 - 당 구 장","category":"leisure"},{"name":"엔젤스노래연습장","tel":"031-242-3475","addr":"경기도 용인시 수지구 풍덕천동 710-4번지 4층","indutype":"레저업소 - 노 래 방","category":"leisure"}]},{"lat":"37.315401807","long":"127.08491804","imageIndex":13,"items":[{"name":"더라인 필라테스","tel":"031-000-0000","addr":"경기도 용인시 수지구 풍덕천동 1209번지 e편한세상 수지","indutype":"레저업소 - 헬스클럽","category":"leisure"}]},{"lat":"37.327368371","long":"127.09574004","imageIndex":13,"items":[{"name":"더풋살파크","tel":"02-1577-0000","addr":"경기도 용인시 수지구 풍덕천동 29-7번지 옥상층","indutype":"레저업소 - 기타레져업소","category":"leisure"}]},{"lat":"37.324422771","long":"127.09479998","imageIndex":13,"items":[{"name":"돌핀짐","tel":"031-309-1110","addr":"경기도 용인시 수지구 풍덕천동 707-4번지 3층","indutype":"레저업소 - 헬스클럽","category":"leisure"},{"name":"롤리폴리 풍덕천점","tel":"031-262-9982","addr":"경기도 용인시 수지구 풍덕천동 707-4번지 2층","indutype":"레저업소 - 기타레져업소","category":"leisure"}]},{"lat":"37.320041222","long":"127.09807764","imageIndex":13,"items":[{"name":"듀오 필라테스 (DuoPilates)","tel":"070-8600-9301","addr":"경기도 용인시 수지구 풍덕천동 193-8번지 훼미리빌딩 310호","indutype":"레저업소 - 헬스클럽","category":"leisure"},{"name":"위너3D골프연습장","tel":"","addr":"경기도 용인시 수지구 풍덕천동 193-8번지 훼미리빌딩 605-609,612-614호","indutype":"레저업소 - 골프연습장","category":"leisure"}]},{"lat":"37.32467436","long":"127.0956916","imageIndex":13,"items":[{"name":"라이또PC방 풍덕천점","tel":"070-6558-3639","addr":"경기도 용인시 수지구 풍덕천동 708-3번지 2층","indutype":"레저업소 - 기타레져업소","category":"leisure"}]},{"lat":"37.323286835","long":"127.09563348","imageIndex":13,"items":[{"name":"라이프앤유 필라테스","tel":"031-261-2498","addr":"경기도 용인시 수지구 풍덕천동 712-3번지 수지프라자 2층 203호","indutype":"레저업소 - 헬스클럽","category":"leisure"}]},{"lat":"37.324233126","long":"127.09535259","imageIndex":13,"items":[{"name":"락휴","tel":"070-4067-2522","addr":"경기도 용인시 수지구 풍덕천동 708-4번지 수양빌딩 2층","indutype":"레저업소 - 노 래 방","category":"leisure"},{"name":"즐거운당구장","tel":"031-726-4713","addr":"경기도 용인시 수지구 풍덕천동 708-4번지","indutype":"레저업소 - 당 구 장","category":"leisure"}]},{"lat":"37.330150835","long":"127.08588187","imageIndex":13,"items":[{"name":"레이크골프 유한섭","tel":"031-205-1934","addr":"경기도 용인시 수지구 풍덕천동 410번지 A동 5층 1호","indutype":"레저업소 - 골프연습장","category":"leisure"}]},{"lat":"37.316403124","long":"127.0831931","imageIndex":13,"items":[{"name":"만현탁구장","tel":"031-261-6071","addr":"경기도 용인시 수지구 풍덕천동 522-2번지 태영프라자 402호,403호","indutype":"레저업소 - 기타레져업소","category":"leisure"},{"name":"아띠랑키즈","tel":"070-7521-6171","addr":"경기도 용인시 수지구 풍덕천동 522-2번지 태영프라자 204호","indutype":"레저업소 - 기타레져업소","category":"leisure"}]},{"lat":"37.326953637","long":"127.09607802","imageIndex":13,"items":[{"name":"맥스노래연습장","tel":"031-262-7780","addr":"경기도 용인시 수지구 풍덕천동 29-9번지","indutype":"레저업소 - 노 래 방","category":"leisure"}]},{"lat":"37.323701437","long":"127.09546476","imageIndex":13,"items":[{"name":"맥스피드피씨방 수지구청점","tel":"070-4719-4599","addr":"경기도 용인시 수지구 풍덕천동 712-4번지 3층","indutype":"레저업소 - 기타레져업소","category":"leisure"},{"name":"퍼스널스튜디오","tel":"031-272-7111","addr":"경기도 용인시 수지구 풍덕천동 712-4번지 해오름빌딩 6층","indutype":"레저업소 - 헬스클럽","category":"leisure"}]},{"lat":"37.32403514","long":"127.09504772","imageIndex":13,"items":[{"name":"메카헬스짐","tel":"031-262-8685","addr":"경기도 용인시 수지구 풍덕천동 707-3번지","indutype":"레저업소 - 볼 링 장","category":"leisure"}]},{"lat":"37.323232162","long":"127.09641189","imageIndex":13,"items":[{"name":"모아노래연습장","tel":"031-263-0660","addr":"경기도 용인시 수지구 풍덕천동 718-1번지 지하1층","indutype":"레저업소 - 노 래 방","category":"leisure"}]},{"lat":"37.332842673","long":"127.1005762","imageIndex":13,"items":[{"name":"문골프스쿨","tel":"031-769-0079","addr":"경기도 용인시 수지구 풍덕천동 669-11번지 301호","indutype":"레저업소 - 골프연습장","category":"leisure"}]},{"lat":"37.325319413","long":"127.10027312","imageIndex":13,"items":[{"name":"방가","tel":"031-262-1117","addr":"경기도 용인시 수지구 풍덕천동 730-8번지 지하1층","indutype":"레저업소 - 노 래 방","category":"leisure"}]},{"lat":"37.323592747","long":"127.09618669","imageIndex":13,"items":[{"name":"샵 코인노래연습장","tel":"070-4755-4788","addr":"경기도 용인시 수지구 풍덕천동 713-5번지 지하1층","indutype":"레저업소 - 노 래 방","category":"leisure"},{"name":"어니스트짐(Honest Gym)","tel":"031-308-1552","addr":"경기도 용인시 수지구 풍덕천동 713-5번지 금오프라자 5층","indutype":"레저업소 - 헬스클럽","category":"leisure"}]},{"lat":"37.323845006","long":"127.09622085","imageIndex":13,"items":[{"name":"수지PC방(풍덕천점)","tel":"","addr":"경기도 용인시 수지구 풍덕천동 713-2번지 성하빌딩 201호","indutype":"레저업소 - 기타레져업소","category":"leisure"}]},{"lat":"37.324034424","long":"127.09596159","imageIndex":13,"items":[{"name":"수지Q코인노래연습장","tel":"031-282-1516","addr":"경기도 용인시 수지구 풍덕천동 711-3번지 2층","indutype":"레저업소 - 노 래 방","category":"leisure"}]},{"lat":"37.32218013","long":"127.09363519","imageIndex":13,"items":[{"name":"수지SNPE 바른자세 척추운동","tel":"070-8802-9258","addr":"경기도 용인시 수지구 풍덕천동 1070-7번지 3층 302호","indutype":"레저업소 - 헬스클럽","category":"leisure"}]},{"lat":"37.32537366","long":"127.10004753","imageIndex":13,"items":[{"name":"수지노래방","tel":"031-262-5560","addr":"경기도 용인시 수지구 풍덕천동 730번지 지하층 101호","indutype":"레저업소 - 노 래 방","category":"leisure"}]},{"lat":"37.324151397","long":"127.09616482","imageIndex":13,"items":[{"name":"수지당구클럽","tel":"070-4375-0437","addr":"경기도 용인시 수지구 풍덕천동 711-4번지 부광빌딩 3층","indutype":"레저업소 - 당 구 장","category":"leisure"}]},{"lat":"37.324484623","long":"127.09635703","imageIndex":13,"items":[{"name":"수지코인노래연습장","tel":"070-8816-1183","addr":"경기도 용인시 수지구 풍덕천동 710번지 봉산빌딩 2층","indutype":"레저업소 - 노 래 방","category":"leisure"},{"name":"지코당구클럽","tel":"031-276-4948","addr":"경기도 용인시 수지구 풍덕천동 710번지 봉산빌딩 3층","indutype":"레저업소 - 당 구 장","category":"leisure"}]},{"lat":"37.332591415","long":"127.09932339","imageIndex":13,"items":[{"name":"스타노래연습장","tel":"031-261-0347","addr":"경기도 용인시 수지구 풍덕천동 670번지","indutype":"레저업소 - 노 래 방","category":"leisure"}]},{"lat":"37.323008171","long":"127.09479826","imageIndex":13,"items":[{"name":"스타덤pc 수지구청역점","tel":"070-4060-1078","addr":"경기도 용인시 수지구 풍덕천동 1078번지 203,204","indutype":"레저업소 - 기타레져업소","category":"leisure"}]},{"lat":"37.318281858","long":"127.08943378","imageIndex":13,"items":[{"name":"쌤스","tel":"","addr":"경기도 용인시 수지구 풍덕천동 1112번지 신정마을현대성우아파트","indutype":"레저업소 - 기타레져업소","category":"leisure"}]},{"lat":"37.324286665","long":"127.09601831","imageIndex":13,"items":[{"name":"아이비노래연습장","tel":"031-263-0045","addr":"경기도 용인시 수지구 풍덕천동 711-2번지 2층","indutype":"레저업소 - 노 래 방","category":"leisure"},{"name":"아이비노래연습장","tel":"031-892-9943","addr":"경기도 용인시 수지구 풍덕천동 711-2번지","indutype":"레저업소 - 노 래 방","category":"leisure"}]},{"lat":"37.321898982","long":"127.0959928","imageIndex":13,"items":[{"name":"아임필라테스&요가","tel":"031-261-0812","addr":"경기도 용인시 수지구 풍덕천동 1080-20번지 중수프라자 601동 602호","indutype":"레저업소 - 헬스클럽","category":"leisure"},{"name":"주식회사 바디앤","tel":"031-261-0812","addr":"경기도 용인시 수지구 풍덕천동 1080-20번지 중수프라자 601호","indutype":"레저업소 - 헬스클럽","category":"leisure"}]},{"lat":"37.323673043","long":"127.09719092","imageIndex":13,"items":[{"name":"애플노래방","tel":"031-262-8199","addr":"경기도 용인시 수지구 풍덕천동 717-1번지 지하1층","indutype":"레저업소 - 노 래 방","category":"leisure"}]},{"lat":"37.321152307","long":"127.09449138","imageIndex":13,"items":[{"name":"에스더 필라테스","tel":"031-261-0008","addr":"경기도 용인시 수지구 풍덕천동 1082-1번지 미래빌딩 7층","indutype":"레저업소 - 헬스클럽","category":"leisure"}]},{"lat":"37.324402896","long":"127.09715798","imageIndex":13,"items":[{"name":"에스제이당구클럽","tel":"031-796-2554","addr":"경기도 용인시 수지구 풍덕천동 714-3번지 세원빌딩 5층","indutype":"레저업소 - 당 구 장","category":"leisure"},{"name":"제트 피씨(Z PC)","tel":"070-288-7673","addr":"경기도 용인시 수지구 풍덕천동 714-3번지 세원빌딩 2층","indutype":"레저업소 - 기타레져업소","category":"leisure"},{"name":"컬쳐PC수지직영본점","tel":"","addr":"경기도 용인시 수지구 풍덕천동 714-3번지 세원빌딩 2층","indutype":"레저업소 - 기타레져업소","category":"leisure"}]},{"lat":"37.32567386","long":"127.0964939","imageIndex":13,"items":[{"name":"에이 라운지(A LOUNGE)","tel":"031-265-0999","addr":"경기도 용인시 수지구 풍덕천동 704번지 현대프라자 404호","indutype":"레저업소 - 기타레져업소","category":"leisure"}]},{"lat":"37.324815527","long":"127.09943756","imageIndex":13,"items":[{"name":"에이스","tel":"031-261-7639","addr":"경기도 용인시 수지구 풍덕천동 729-14번지 지하1층","indutype":"레저업소 - 노 래 방","category":"leisure"}]},{"lat":"37.323736715","long":"127.09643508","imageIndex":13,"items":[{"name":"에이스 당구클럽","tel":"","addr":"경기도 용인시 수지구 풍덕천동 713-6번지 요진타워 B02호","indutype":"레저업소 - 당 구 장","category":"leisure"},{"name":"팝콘노래연습장","tel":"031-263-2227","addr":"경기도 용인시 수지구 풍덕천동 713-6번지 요진타워 B1-08,09호","indutype":"레저업소 - 노 래 방","category":"leisure"},{"name":"포텐PC","tel":"070-7598-4881","addr":"경기도 용인시 수지구 풍덕천동 713-6번지 요진타워 2층","indutype":"레저업소 - 기타레져업소","category":"leisure"}]},{"lat":"37.324592611","long":"127.0965264","imageIndex":13,"items":[{"name":"에이스킹보드게임카페","tel":"","addr":"경기도 용인시 수지구 풍덕천동 710-1번지 고덕빌딩 4층","indutype":"레저업소 - 기타레져업소","category":"leisure"}]},{"lat":"37.326228179","long":"127.10179745","imageIndex":13,"items":[{"name":"영스타노래연습장","tel":"031-262-1117","addr":"경기도 용인시 수지구 풍덕천동 743-5번지","indutype":"레저업소 - 노 래 방","category":"leisure"}]},{"lat":"37.325313274","long":"127.0967191","imageIndex":13,"items":[{"name":"오케이(OK)당구장","tel":"070-8222-3739","addr":"경기도 용인시 수지구 풍덕천동 704-2번지 옥산빌딩 3층","indutype":"레저업소 - 당 구 장","category":"leisure"},{"name":"탑노래방","tel":"031-261-9353","addr":"경기도 용인시 수지구 풍덕천동 704-2번지 옥산빌딩 2층","indutype":"레저업소 - 노 래 방","category":"leisure"}]},{"lat":"37.325008002","long":"127.09535353","imageIndex":13,"items":[{"name":"와일드 복싱짐 수지관","tel":"031-262-7336","addr":"경기도 용인시 수지구 풍덕천동 706-3번지 강남빌딩 5층 502호","indutype":"레저업소 - 헬스클럽","category":"leisure"}]},{"lat":"37.325259677","long":"127.09613234","imageIndex":13,"items":[{"name":"원알엠 피티니스","tel":"070-4036-9600","addr":"경기도 용인시 수지구 풍덕천동 705-6번지 선용빌딩 지층","indutype":"레저업소 - 헬스클럽","category":"leisure"}]},{"lat":"37.323483829","long":"127.09719068","imageIndex":13,"items":[{"name":"월드컵노래연습장","tel":"031-276-5320","addr":"경기도 용인시 수지구 풍덕천동 717-6번지","indutype":"레저업소 - 노 래 방","category":"leisure"}]},{"lat":"37.323539139","long":"127.09561123","imageIndex":13,"items":[{"name":"위너스당구장","tel":"031-276-9388","addr":"경기도 용인시 수지구 풍덕천동 712-5번지 5층","indutype":"레저업소 - 당 구 장","category":"leisure"},{"name":"제스트 짐","tel":"031-272-3339","addr":"경기도 용인시 수지구 풍덕천동 712-5번지 4층","indutype":"레저업소 - 헬스클럽","category":"leisure"}]},{"lat":"37.319680995","long":"127.09785155","imageIndex":13,"items":[{"name":"점프노리 풍덕천점","tel":"031-272-0099","addr":"경기도 용인시 수지구 풍덕천동 193-12번지 제상가동 2층 201호","indutype":"레저업소 - 기타레져업소","category":"leisure"}]},{"lat":"37.323953572","long":"127.09565687","imageIndex":13,"items":[{"name":"제닉스아레나PC","tel":"031-693-5959","addr":"경기도 용인시 수지구 풍덕천동 711번지 경방프라자 지하층 01호","indutype":"레저업소 - 기타레져업소","category":"leisure"}]},{"lat":"37.324872735","long":"127.09550004","imageIndex":13,"items":[{"name":"쥬얼리노래연습장","tel":"031-896-2545","addr":"경기도 용인시 수지구 풍덕천동 706-7번지 경진빌딩 3층","indutype":"레저업소 - 노 래 방","category":"leisure"},{"name":"헌터PC용인수지본점","tel":"","addr":"경기도 용인시 수지구 풍덕천동 706-7번지 2층","indutype":"레저업소 - 기타레져업소","category":"leisure"}]},{"lat":"37.320927288","long":"127.0941865","imageIndex":13,"items":[{"name":"칼라 노래연습장","tel":"031-263-5589","addr":"경기도 용인시 수지구 풍덕천동 1089-6번지 지하1층","indutype":"레저업소 - 노 래 방","category":"leisure"}]},{"lat":"37.329673002","long":"127.08629883","imageIndex":13,"items":[{"name":"케이아이 스포츠","tel":"031-266-1472","addr":"경기도 용인시 수지구 풍덕천동 413번지","indutype":"레저업소 - 기타레져업소","category":"leisure"}]},{"lat":"37.324701045","long":"127.09613165","imageIndex":13,"items":[{"name":"코인101","tel":"031-0000-0000","addr":"경기도 용인시 수지구 풍덕천동 709-3번지 3층","indutype":"레저업소 - 노 래 방","category":"leisure"}]},{"lat":"37.323569282","long":"127.10285451","imageIndex":13,"items":[{"name":"콘서트노래연습장","tel":"031-261-1297","addr":"경기도 용인시 수지구 풍덕천동 981","indutype":"레저업소 - 노 래 방","category":"leisure"}]},{"lat":"37.321340766","long":"127.09546186","imageIndex":13,"items":[{"name":"크로스핏메이트2.0","tel":"031-265-0608","addr":"경기도 용인시 수지구 풍덕천동 1082-9번지 서초빌딩 지하1층","indutype":"레저업소 - 헬스클럽","category":"leisure"}]},{"lat":"37.323619072","long":"127.09707803","imageIndex":13,"items":[{"name":"크리스탈","tel":"070-9144-8544","addr":"경기도 용인시 수지구 풍덕천동 717번지 지층","indutype":"레저업소 - 헬스클럽","category":"leisure"}]},{"lat":"37.32367787","long":"127.10230182","imageIndex":13,"items":[{"name":"키즈리더스클럽","tel":"031-272-3450","addr":"경기도 용인시 수지구 풍덕천동 85-3번지","indutype":"레저업소 - 기타레져업소","category":"leisure"}]},{"lat":"37.323871006","long":"127.09751835","imageIndex":13,"items":[{"name":"토마토노래연습장","tel":"031-422-3333","addr":"경기도 용인시 수지구 풍덕천동 717-4번지","indutype":"레저업소 - 노 래 방","category":"leisure"}]},{"lat":"37.321485229","long":"127.09507845","imageIndex":13,"items":[{"name":"트윙클슬라임","tel":"031-272-8876","addr":"경기도 용인시 수지구 풍덕천동 1082-5번지 105호","indutype":"레저업소 - 기타레져업소","category":"leisure"}]},{"lat":"37.321846302","long":"127.09422146","imageIndex":13,"items":[{"name":"파브","tel":"031-266-3370","addr":"경기도 용인시 수지구 풍덕천동 1080-2번지 지하 101호","indutype":"레저업소 - 노 래 방","category":"leisure"}]},{"lat":"37.325040004","long":"127.10038558","imageIndex":13,"items":[{"name":"포인트 당구장","tel":"070-8870-8840","addr":"경기도 용인시 수지구 풍덕천동 69-90번지 2층","indutype":"레저업소 - 당 구 장","category":"leisure"}]},{"lat":"37.332618694","long":"127.09901877","imageIndex":13,"items":[{"name":"품바노래방","tel":"031-896-3433","addr":"경기도 용인시 수지구 풍덕천동 668-7번지","indutype":"레저업소 - 노 래 방","category":"leisure"}]},{"lat":"37.323728007","long":"127.09605147","imageIndex":13,"items":[{"name":"프로당구클럽","tel":"031-261-3110","addr":"경기도 용인시 수지구 풍덕천동 713-1번지 2층","indutype":"레저업소 - 당 구 장","category":"leisure"}]},{"lat":"37.324458943","long":"127.09463079","imageIndex":13,"items":[{"name":"핏플","tel":"031-261-6717","addr":"경기도 용인시 수지구 풍덕천동 707번지 한길타운 4층 401호","indutype":"레저업소 - 헬스클럽","category":"leisure"},{"name":"하이짐 수지구청점","tel":"","addr":"경기도 용인시 수지구 풍덕천동 707번지 한길타운 B층 01호","indutype":"레저업소 - 헬스클럽","category":"leisure"}]},{"lat":"37.32472903","long":"127.09491318","imageIndex":13,"items":[{"name":"한빛노래연습장","tel":"031-272-2952","addr":"경기도 용인시 수지구 풍덕천동 706번지","indutype":"레저업소 - 노 래 방","category":"leisure"}]},{"lat":"37.323231876","long":"127.09677292","imageIndex":13,"items":[{"name":"행운노래연습장","tel":"031-263-2750","addr":"경기도 용인시 수지구 풍덕천동 718-9번지 지하1층","indutype":"레저업소 - 노 래 방","category":"leisure"}]}]