[{"lat":"37.143094259","long":"127.42001927","imageIndex":4,"items":[{"name":"(주)신세계푸드 써닝리더십센터","tel":"02-3397-6176","addr":"경기도 용인시 처인구 백암면 고안리 622-3번지","indutype":"일반휴게음식 - 위탁급식업","category":"restaurant"}]},{"lat":"37.137459048","long":"127.39741172","imageIndex":4,"items":[{"name":"(주)신푸드","tel":"031-321-5347","addr":"경기도 용인시 처인구 백암면 백봉리 565-5번지","indutype":"일반휴게음식 - 일반한식","category":"restaurant"}]},{"lat":"37.117377232","long":"127.37433179","imageIndex":4,"items":[{"name":"The루비","tel":"031-744-8488","addr":"경기도 용인시 처인구 백암면 장평리 628-26번지 가동 1층","indutype":"일반휴게음식 - 서양음식","category":"restaurant"},{"name":"솔솔우동","tel":"031-322-6233","addr":"경기도 용인시 처인구 백암면 장평리 628-26번지 나동 1층, 2층","indutype":"일반휴게음식 - 일반한식","category":"restaurant"}]},{"lat":"37.16323157","long":"127.37425206","imageIndex":4,"items":[{"name":"가마골","tel":"031-322-2984","addr":"경기도 용인시 처인구 백암면 백암리 456-7번지","indutype":"일반휴게음식 - 일반한식","category":"restaurant"}]},{"lat":"37.165420568","long":"127.37442039","imageIndex":4,"items":[{"name":"가마치통닭(용인백암점)","tel":"031-336-8900","addr":"경기도 용인시 처인구 백암면 백암리 365번지 백암빌딩","indutype":"일반휴게음식 - 스넥","category":"restaurant"},{"name":"터미널분식수제왕김말이","tel":"","addr":"경기도 용인시 처인구 백암면 백암리 365번지 백암빌딩","indutype":"일반휴게음식 - 스넥","category":"restaurant"}]},{"lat":"37.194866797","long":"127.36558796","imageIndex":4,"items":[{"name":"가창골","tel":"031-333-0094","addr":"경기도 용인시 처인구 백암면 가창리 210번지","indutype":"일반휴게음식 - 일반한식","category":"restaurant"}]},{"lat":"37.157510439","long":"127.38263345","imageIndex":4,"items":[{"name":"가화만사성","tel":"031-336-5888","addr":"경기도 용인시 처인구 백암면 박곡리 690-4번지 1층","indutype":"일반휴게음식 - 중국식","category":"restaurant"}]},{"lat":"37.165122206","long":"127.37474543","imageIndex":4,"items":[{"name":"갈채까페","tel":"031-111-1111","addr":"경기도 용인시 처인구 백암면 백암리 367번지 2층","indutype":"일반휴게음식 - 서양음식","category":"restaurant"},{"name":"정석통족바베큐구이","tel":"031-321-0259","addr":"경기도 용인시 처인구 백암면 백암리 367번지","indutype":"일반휴게음식 - 일반한식","category":"restaurant"}]},{"lat":"37.162586545","long":"127.36724626","imageIndex":4,"items":[{"name":"강촌손두부해물찜","tel":"031-333-7115","addr":"경기도 용인시 처인구 백암면 근창리 112-6번지","indutype":"일반휴게음식 - 일반한식","category":"restaurant"}]},{"lat":"37.158451431","long":"127.38141107","imageIndex":4,"items":[{"name":"개성닭칼국수","tel":"031-323-3739","addr":"경기도 용인시 처인구 백암면 박곡리 681-6번지 2층","indutype":"일반휴게음식 - 일반한식","category":"restaurant"},{"name":"개성한방삼계탕","tel":"031-323-3738","addr":"경기도 용인시 처인구 백암면 박곡리681-6","indutype":"일반휴게음식 - 일반한식","category":"restaurant"}]},{"lat":"37.163809989","long":"127.37369197","imageIndex":4,"items":[{"name":"건강사철탕","tel":"031-332-8844","addr":"경기도 용인시 처인구 백암면 백암리 458-10번지","indutype":"일반휴게음식 - 일반한식","category":"restaurant"}]},{"lat":"37.165060183","long":"127.37152516","imageIndex":4,"items":[{"name":"계성치킨","tel":"031-332-9918","addr":"경기도 용인시 처인구 백암면 백암리 407-10번지","indutype":"일반휴게음식 - 스넥","category":"restaurant"}]},{"lat":"37.164669164","long":"127.37267163","imageIndex":4,"items":[{"name":"고기천하","tel":"031-321-1333","addr":"경기도 용인시 처인구 백암면 백암리 421-1번지 1층","indutype":"일반휴게음식 - 일반한식","category":"restaurant"}]},{"lat":"37.164697249","long":"127.37233401","imageIndex":4,"items":[{"name":"고래사냥","tel":"031-321-9864","addr":"경기도 용인시 처인구 백암면 백암리 423번지","indutype":"일반휴게음식 - 스넥","category":"restaurant"}]},{"lat":"37.164510802","long":"127.37144368","imageIndex":4,"items":[{"name":"고향만두집","tel":"031-328-8968","addr":"경기도 용인시 처인구 백암면 백암리 637-1번지","indutype":"일반휴게음식 - 일반한식","category":"restaurant"}]},{"lat":"37.164059137","long":"127.37469519","imageIndex":4,"items":[{"name":"곰다방","tel":"031-323-6844","addr":"경기도 용인시 처인구 백암면 백암리 460번지 1층","indutype":"일반휴게음식 - 서양음식","category":"restaurant"},{"name":"백년황태","tel":"031-334-3997","addr":"경기도 용인시 처인구 백암면 백암리 460","indutype":"일반휴게음식 - 일반한식","category":"restaurant"},{"name":"영양분식","tel":"","addr":"경기도 용인시 처인구 백암면 백암리 460번지","indutype":"일반휴게음식 - 일반한식","category":"restaurant"}]},{"lat":"37.164365662","long":"127.3746404","imageIndex":4,"items":[{"name":"곰탱이맛집","tel":"031-323-2547","addr":"경기도 용인시 처인구 백암면 백암리 465-3번지","indutype":"일반휴게음식 - 일반한식","category":"restaurant"},{"name":"백암본가순대","tel":"031-334-9425","addr":"경기도 용인시 처인구 백암면 백암리 465-3","indutype":"일반휴게음식 - 일반한식","category":"restaurant"},{"name":"자작마을","tel":"031-322-5564","addr":"경기도 용인시 처인구 백암면 백암리465-3","indutype":"일반휴게음식 - 일반한식","category":"restaurant"}]},{"lat":"37.165779953","long":"127.37186642","imageIndex":4,"items":[{"name":"광덕이네","tel":"031-334-7964","addr":"경기도 용인시 처인구 백암면 백암리 402-1번지","indutype":"일반휴게음식 - 일반한식","category":"restaurant"},{"name":"인향이네식당","tel":"031-339-3316","addr":"경기도 용인시 처인구 백암면 백암리 402-1번지","indutype":"일반휴게음식 - 일반한식","category":"restaurant"}]},{"lat":"37.164453445","long":"127.3725017","imageIndex":4,"items":[{"name":"길목","tel":"031-332-9575","addr":"경기도 용인시 처인구 백암면 백암리 445번지 가동 1층일부","indutype":"일반휴게음식 - 일반한식","category":"restaurant"},{"name":"상원식당","tel":"031-333-9030","addr":"경기도 용인시 처인구 백암면 백암리 445번지 영진타워","indutype":"일반휴게음식 - 일반한식","category":"restaurant"}]},{"lat":"37.16558944","long":"127.37228206","imageIndex":4,"items":[{"name":"김가네양꼬치","tel":"031-322-3632","addr":"경기도 용인시 처인구 백암면 백암리 390번지 1층","indutype":"일반휴게음식 - 일반한식","category":"restaurant"}]},{"lat":"37.157672804","long":"127.38257797","imageIndex":4,"items":[{"name":"김경국 갈비김치찌개","tel":"031-339-1119","addr":"경기도 용인시 처인구 백암면 박곡리 682-16번지","indutype":"일반휴게음식 - 일반한식","category":"restaurant"}]},{"lat":"37.155948233","long":"127.38369508","imageIndex":4,"items":[{"name":"낙지세상","tel":"031-333-5513","addr":"경기도 용인시 처인구 백암면 박곡리 743-2번지 1층","indutype":"일반휴게음식 - 일반한식","category":"restaurant"},{"name":"전주콩뿌리콩나물국밥","tel":"031-339-9997","addr":"경기도 용인시 처인구 백암면 박곡리 743-2번지","indutype":"일반휴게음식 - 일반한식","category":"restaurant"}]},{"lat":"37.164505504","long":"127.3731437","imageIndex":4,"items":[{"name":"네네치킨","tel":"031-321-9279","addr":"경기도 용인시 처인구 백암면 백암리 447-10번지","indutype":"일반휴게음식 - 스넥","category":"restaurant"},{"name":"중앙식당","tel":"031-333-7750","addr":"경기도 용인시 처인구 백암면 백암리 447-10번지","indutype":"일반휴게음식 - 일반한식","category":"restaurant"}]},{"lat":"37.164733528","long":"127.37513758","imageIndex":4,"items":[{"name":"달마지","tel":"031-323-2741","addr":"경기도 용인시 처인구 백암면 백암리 368-4번지","indutype":"일반휴게음식 - 일반한식","category":"restaurant"},{"name":"돈코돈코","tel":"031-322-7057","addr":"경기도 용인시 처인구 백암면 백암리 368-4번지 1층","indutype":"일반휴게음식 - 일반한식","category":"restaurant"}]},{"lat":"37.16503869","long":"127.37263966","imageIndex":4,"items":[{"name":"대박장소","tel":"031-339-4049","addr":"경기도 용인시 처인구 백암면 백암리 416번지","indutype":"일반휴게음식 - 일반한식","category":"restaurant"},{"name":"블루문커피&호프","tel":"031-335-8803","addr":"경기도 용인시 처인구 백암면 백암리 416번지","indutype":"일반휴게음식 - 주점","category":"restaurant"}]},{"lat":"37.164199682","long":"127.37297333","imageIndex":4,"items":[{"name":"대원","tel":"031-332-2590","addr":"경기도 용인시 처인구 백암면 백암리450-5","indutype":"일반휴게음식 - 일반한식","category":"restaurant"},{"name":"수정다방","tel":"031-337-1180","addr":"경기도 용인시 처인구 백암면 백암리 450-5번지","indutype":"일반휴게음식 - 서양음식","category":"restaurant"}]},{"lat":"37.171505348","long":"127.37064443","imageIndex":4,"items":[{"name":"더불쭈쭈꾸미","tel":"031-335-8892","addr":"경기도 용인시 처인구 백암면 근곡리 8-2번지 1층","indutype":"일반휴게음식 - 일반한식","category":"restaurant"}]},{"lat":"37.165731707","long":"127.37289073","imageIndex":4,"items":[{"name":"도니랑하누","tel":"031-321-9957","addr":"경기도 용인시 처인구 백암면 백암리 375-4번지","indutype":"일반휴게음식 - 일반한식","category":"restaurant"},{"name":"육야키선생","tel":"031-338-9992","addr":"경기도 용인시 처인구 백암면 백암리 375-4번지","indutype":"일반휴게음식 - 일반한식","category":"restaurant"},{"name":"커피밀(coffeemill)","tel":"031-321-9991","addr":"경기도 용인시 처인구 백암면 백암리 375-4번지","indutype":"일반휴게음식 - 서양음식","category":"restaurant"}]},{"lat":"37.16267469","long":"127.37655729","imageIndex":4,"items":[{"name":"돈가네옛날김치돼지찌개 백암점","tel":"031-332-4023","addr":"경기도 용인시 처인구 백암면 백암리 501번지","indutype":"일반휴게음식 - 일반한식","category":"restaurant"}]},{"lat":"37.165091205","long":"127.37313529","imageIndex":4,"items":[{"name":"동북숯불꼬치구이","tel":"031-333-3203","addr":"경기도 용인시 처인구 백암면 백암리 374-10번지 나동 1층","indutype":"일반휴게음식 - 일반한식","category":"restaurant"},{"name":"영화포차","tel":"031-333-4660","addr":"경기도 용인시 처인구 백암면 백암리 374-10번지 1층","indutype":"일반휴게음식 - 일반한식","category":"restaurant"}]},{"lat":"37.147839933","long":"127.38336176","imageIndex":4,"items":[{"name":"동원구내식당","tel":"031-8097-3065","addr":"경기도 용인시 처인구 백암면 백봉리 860-12번지","indutype":"일반휴게음식 - 위탁급식업","category":"restaurant"}]},{"lat":"37.117071057","long":"127.37427404","imageIndex":4,"items":[{"name":"동태랑부대랑","tel":"031-336-8848","addr":"경기도 용인시 처인구 백암면 장평리 628-27번지","indutype":"일반휴게음식 - 일반한식","category":"restaurant"},{"name":"에이치(H)","tel":"031-0000-0000","addr":"경기도 용인시 처인구 백암면 장평리 628-27번지 1층","indutype":"일반휴게음식 - 서양음식","category":"restaurant"}]},{"lat":"37.164229066","long":"127.37221915","imageIndex":4,"items":[{"name":"둥지그린호프","tel":"031-322-7040","addr":"경기도 용인시 처인구 백암면 백암리 440-2번지","indutype":"일반휴게음식 - 스넥","category":"restaurant"}]},{"lat":"37.111096316","long":"127.394136","imageIndex":4,"items":[{"name":"드라미블랙누들","tel":"031-321-5668","addr":"경기도 용인시 처인구 백암면 옥산리 991-4번지 1층","indutype":"일반휴게음식 - 중국식","category":"restaurant"}]},{"lat":"37.162705616","long":"127.36661636","imageIndex":4,"items":[{"name":"라움쿤스트","tel":"","addr":"경기도 용인시 처인구 백암면 근창리 122-18번지 101호","indutype":"일반휴게음식 - 서양음식","category":"restaurant"}]},{"lat":"37.164614802","long":"127.37564363","imageIndex":4,"items":[{"name":"라이스한식뷔페","tel":"031-335-0998","addr":"경기도 용인시 처인구 백암면 백암리 472-1번지 1층 일부","indutype":"일반휴게음식 - 일반한식","category":"restaurant"}]},{"lat":"37.163784016","long":"127.37622499","imageIndex":4,"items":[{"name":"롯데리아용인백암점","tel":"031-334-0070","addr":"경기도 용인시 처인구 백암면 백암리 493번지","indutype":"일반휴게음식 - 서양음식","category":"restaurant"},{"name":"부엌","tel":"031-336-8686","addr":"경기도 용인시 처인구 백암면 백암리 493번지","indutype":"일반휴게음식 - 일반한식","category":"restaurant"},{"name":"아궁이","tel":"031-336-8686","addr":"경기도 용인시 처인구 백암면 백암리 493번지 2층","indutype":"일반휴게음식 - 일반한식","category":"restaurant"}]},{"lat":"37.156146748","long":"127.38360601","imageIndex":4,"items":[{"name":"리노","tel":"031-3715-4746","addr":"경기도 용인시 처인구 백암면 박곡리 739-2번지 1,2층 일부","indutype":"일반휴게음식 - 서양음식","category":"restaurant"}]},{"lat":"37.155310022","long":"127.38321907","imageIndex":4,"items":[{"name":"마당오리","tel":"031-322-5285","addr":"경기도 용인시 처인구 백암면 박곡리 932-12번지 1층","indutype":"일반휴게음식 - 일반한식","category":"restaurant"}]},{"lat":"37.158200415","long":"127.38939147","imageIndex":4,"items":[{"name":"마루가든","tel":"031-336-3585","addr":"경기도 용인시 처인구 백암면 박곡리 711-1번지","indutype":"일반휴게음식 - 일반한식","category":"restaurant"}]},{"lat":"37.164064458","long":"127.37299518","imageIndex":4,"items":[{"name":"만나가정식백반","tel":"031-334-2750","addr":"경기도 용인시 처인구 백암면 백암리 450-9번지","indutype":"일반휴게음식 - 스넥","category":"restaurant"},{"name":"신불닭발","tel":"031-332-4441","addr":"경기도 용인시 처인구 백암면 백암리 450-9번지","indutype":"일반휴게음식 - 일반한식","category":"restaurant"}]},{"lat":"37.163198206","long":"127.37050286","imageIndex":4,"items":[{"name":"만복식당","tel":"031-333-2244","addr":"경기도 용인시 처인구 백암면 근창리 24-3번지","indutype":"일반휴게음식 - 일반한식","category":"restaurant"}]},{"lat":"37.157365986","long":"127.38272278","imageIndex":4,"items":[{"name":"만수네흑염소","tel":"031-323-5596","addr":"경기도 용인시 처인구 백암면 박곡리 690-5번지","indutype":"일반휴게음식 - 일반한식","category":"restaurant"}]},{"lat":"37.164783273","long":"127.37364043","imageIndex":4,"items":[{"name":"맛고을","tel":"031-333-3137","addr":"경기도 용인시 처인구 백암면 백암리 373-4번지","indutype":"일반휴게음식 - 일반한식","category":"restaurant"},{"name":"속푸리","tel":"031-336-3136","addr":"경기도 용인시 처인구 백암면 백암리373-4","indutype":"일반휴게음식 - 중국식","category":"restaurant"}]},{"lat":"37.165343668","long":"127.37308023","imageIndex":4,"items":[{"name":"맛나식당","tel":"031-339-9888","addr":"경기도 용인시 처인구 백암면 백암리 374-16번지","indutype":"일반휴게음식 - 일반한식","category":"restaurant"}]},{"lat":"37.183591644","long":"127.37533145","imageIndex":4,"items":[{"name":"맛있는밥집옥이네식당","tel":"070-5440-2621","addr":"경기도 용인시 처인구 백암면 가창리 380-2번지 1층 103호","indutype":"일반휴게음식 - 일반한식","category":"restaurant"},{"name":"수제비와 칼국수","tel":"031-333-2621","addr":"경기도 용인시 처인구 백암면 가창리 380-2번지 104호","indutype":"일반휴게음식 - 일반한식","category":"restaurant"},{"name":"천미중화요리","tel":"031-334-6778","addr":"경기도 용인시 처인구 백암면 가창리 380-2번지","indutype":"일반휴게음식 - 중국식","category":"restaurant"}]},{"lat":"37.16553643","long":"127.37194404","imageIndex":4,"items":[{"name":"맛집삼계탕","tel":"031-332-4106","addr":"경기도 용인시 처인구 백암면 백암리 402-4번지","indutype":"일반휴게음식 - 일반한식","category":"restaurant"}]},{"lat":"37.16430893","long":"127.37261359","imageIndex":4,"items":[{"name":"명동왕만두","tel":"031-339-4062","addr":"경기도 용인시 처인구 백암면 백암리444-1","indutype":"일반휴게음식 - 스넥","category":"restaurant"}]},{"lat":"37.16514976","long":"127.37169447","imageIndex":4,"items":[{"name":"몽실이포차","tel":"031-321-0102","addr":"경기도 용인시 처인구 백암면 백암리 406번지","indutype":"일반휴게음식 - 일반한식","category":"restaurant"},{"name":"허니닭강정","tel":"031-322-8943","addr":"경기도 용인시 처인구 백암면 백암리 406번지","indutype":"일반휴게음식 - 일반한식","category":"restaurant"}]},{"lat":"37.143597163","long":"127.38858556","imageIndex":4,"items":[{"name":"미림식당","tel":"031-323-4725","addr":"경기도 용인시 처인구 백암면 백봉리 959-15번지 1층","indutype":"일반휴게음식 - 일반한식","category":"restaurant"}]},{"lat":"37.164786579","long":"127.37258214","imageIndex":4,"items":[{"name":"민가네 뚝배기 감자탕","tel":"031-334-8986","addr":"경기도 용인시 처인구 백암면 백암리 425번지","indutype":"일반휴게음식 - 일반한식","category":"restaurant"}]},{"lat":"37.13731331","long":"127.39788366","imageIndex":4,"items":[{"name":"백봉식당","tel":"02-1111-1111","addr":"경기도 용인시 처인구 백암면 백봉리 207-5번지 1층 일부","indutype":"일반휴게음식 - 일반한식","category":"restaurant"}]},{"lat":"37.143540939","long":"127.38924934","imageIndex":4,"items":[{"name":"백봉중화요리","tel":"031-338-2111","addr":"경기도 용인시 처인구 백암면 백봉리 955-2번지","indutype":"일반휴게음식 - 중국식","category":"restaurant"}]},{"lat":"37.136153115","long":"127.39993717","imageIndex":4,"items":[{"name":"백봉치킨","tel":"031-339-1673","addr":"경기도 용인시 처인구 백암면 백봉리 218-3번지","indutype":"일반휴게음식 - 스넥","category":"restaurant"}]},{"lat":"37.139479045","long":"127.39419207","imageIndex":4,"items":[{"name":"백봉한식뷔페","tel":"070-8822-2294","addr":"경기도 용인시 처인구 백암면 백봉리 600-5번지","indutype":"일반휴게음식 - 일반한식","category":"restaurant"}]},{"lat":"37.163808579","long":"127.3741423","imageIndex":4,"items":[{"name":"백암고기백반","tel":"031-321-1176","addr":"경기도 용인시 처인구 백암면 백암리 459-23번지","indutype":"일반휴게음식 - 일반한식","category":"restaurant"}]},{"lat":"37.164088955","long":"127.37380592","imageIndex":4,"items":[{"name":"백암식당","tel":"031-322-5432","addr":"경기도 용인시 처인구 백암면 백암리 458-1","indutype":"일반휴게음식 - 일반한식","category":"restaurant"}]},{"lat":"37.165670707","long":"127.37222616","imageIndex":4,"items":[{"name":"백암왕족발","tel":"031-333-5237","addr":"경기도 용인시 처인구 백암면 백암리 389번지","indutype":"일반휴게음식 - 스넥","category":"restaurant"}]},{"lat":"37.16392172","long":"127.37541506","imageIndex":4,"items":[{"name":"백암이내순대족발","tel":"031-334-1818","addr":"경기도 용인시 처인구 백암면 백암리 470-5번지","indutype":"일반휴게음식 - 일반한식","category":"restaurant"}]},{"lat":"37.165233116","long":"127.37385654","imageIndex":4,"items":[{"name":"백암정육점식당","tel":"031-337-2800","addr":"경기도 용인시 처인구 백암면 백암리 374-20번지 3층","indutype":"일반휴게음식 - 일반한식","category":"restaurant"},{"name":"이모네떡복이김밥점","tel":"031-334-7503","addr":"경기도 용인시 처인구 백암면 백암리 374-20번지","indutype":"일반휴게음식 - 일반한식","category":"restaurant"},{"name":"차&대포","tel":"031-334-0723","addr":"경기도 용인시 처인구 백암면 백암리 374-20번지","indutype":"일반휴게음식 - 일반한식","category":"restaurant"}]},{"lat":"37.164726708","long":"127.37443951","imageIndex":4,"items":[{"name":"백암추어탕","tel":"031-321-6929","addr":"경기도 용인시 처인구 백암면 백암리366-6","indutype":"일반휴게음식 - 일반한식","category":"restaurant"},{"name":"스타호프","tel":"031-322-3412","addr":"경기도 용인시 처인구 백암면 백암리 366-6번지 지하1층","indutype":"일반휴게음식 - 스넥","category":"restaurant"}]},{"lat":"37.15608765","long":"127.38517048","imageIndex":4,"items":[{"name":"백암한우","tel":"031-339-8975","addr":"경기도 용인시 처인구 백암면 박곡리 729-12번지","indutype":"일반휴게음식 - 일반한식","category":"restaurant"}]},{"lat":"37.1518424","long":"127.38558812","imageIndex":4,"items":[{"name":"백암휴게소식당","tel":"031-337-2490","addr":"경기도 용인시 처인구 백암면 백봉리 834-2","indutype":"일반휴게음식 - 일반한식","category":"restaurant"}]},{"lat":"37.158650339","long":"127.38119816","imageIndex":4,"items":[{"name":"별난버섯","tel":"031-332-0446","addr":"경기도 용인시 처인구 백암면 박곡리 681-4번지 1층","indutype":"일반휴게음식 - 일반한식","category":"restaurant"},{"name":"수진이네","tel":"031-339-3899","addr":"경기도 용인시 처인구 백암면 박곡리 681-4번지","indutype":"일반휴게음식 - 일반한식","category":"restaurant"}]},{"lat":"37.139758921","long":"127.39402469","imageIndex":4,"items":[{"name":"별치킨호프","tel":"031-336-5256","addr":"경기도 용인시 처인구 백암면 백봉리 600-2번지 3층","indutype":"일반휴게음식 - 스넥","category":"restaurant"}]},{"lat":"37.141144661","long":"127.39730706","imageIndex":4,"items":[{"name":"비앤비","tel":"031-323-0330","addr":"경기도 용인시 처인구 백암면 백봉리 165-1번지","indutype":"일반휴게음식 - 일반한식","category":"restaurant"}]},{"lat":"37.164149341","long":"127.37177968","imageIndex":4,"items":[{"name":"비에이치씨(BHC)치킨","tel":"031-332-1112","addr":"경기도 용인시 처인구 백암면 백암리 436-1번지 1층","indutype":"일반휴게음식 - 스넥","category":"restaurant"}]},{"lat":"37.164677577","long":"127.37286307","imageIndex":4,"items":[{"name":"빅타임","tel":"031-334-4079","addr":"경기도 용인시 처인구 백암면 백암리 420-2","indutype":"일반휴게음식 - 일반한식","category":"restaurant"}]},{"lat":"37.165311068","long":"127.37485895","imageIndex":4,"items":[{"name":"뺑아리동동","tel":"031-332-8496","addr":"경기도 용인시 처인구 백암면 백암리 367-2","indutype":"일반휴게음식 - 일반한식","category":"restaurant"}]},{"lat":"37.167372134","long":"127.3784494","imageIndex":4,"items":[{"name":"사부자설렁탕","tel":"031-332-2290","addr":"경기도 용인시 처인구 백암면 백암리 312-2번지 1층","indutype":"일반휴게음식 - 일반한식","category":"restaurant"},{"name":"쉐프의 부대찌개","tel":"031-338-8253","addr":"경기도 용인시 처인구 백암면 백암리 312-2번지 2층","indutype":"일반휴게음식 - 일반한식","category":"restaurant"}]},{"lat":"37.166480858","long":"127.3724778","imageIndex":4,"items":[{"name":"산돼지식당","tel":"031-339-8452","addr":"경기도 용인시 처인구 백암면 백암리386-5","indutype":"일반휴게음식 - 일반한식","category":"restaurant"},{"name":"수제돈가스한식뷔페","tel":"031-337-0750","addr":"경기도 용인시 처인구 백암면 백암리 386-5번지 2층","indutype":"일반휴게음식 - 일반한식","category":"restaurant"}]},{"lat":"37.140398292","long":"127.40755646","imageIndex":4,"items":[{"name":"샘터골송어회","tel":"031-333-3359","addr":"경기도 용인시 처인구 백암면 고안리 675번지","indutype":"일반휴게음식 - 일반한식","category":"restaurant"},{"name":"황가네오리","tel":"031-321-4561","addr":"경기도 용인시 처인구 백암면 고안리 675번지","indutype":"일반휴게음식 - 일반한식","category":"restaurant"}]},{"lat":"37.163863522","long":"127.37386111","imageIndex":4,"items":[{"name":"소담","tel":"031-333-2484","addr":"경기도 용인시 처인구 백암면 백암리 459-20번지","indutype":"일반휴게음식 - 일반한식","category":"restaurant"},{"name":"수연호프","tel":"031-322-1007","addr":"경기도 용인시 처인구 백암면 백암리 459-20","indutype":"일반휴게음식 - 스넥","category":"restaurant"}]},{"lat":"37.163808156","long":"127.3742774","imageIndex":4,"items":[{"name":"송백집","tel":"031-333-9307","addr":"경기도 용인시 처인구 백암면 백암리 459-24번지","indutype":"일반휴게음식 - 일반한식","category":"restaurant"},{"name":"처음처럼","tel":"031-333-9307","addr":"경기도 용인시 처인구 백암면 백암리 459-24번지 1층","indutype":"일반휴게음식 - 일반한식","category":"restaurant"}]},{"lat":"37.165423987","long":"127.37332832","imageIndex":4,"items":[{"name":"솥뚜껑삼겹살","tel":"070-8976-6007","addr":"경기도 용인시 처인구 백암면 백암리 374-5번지","indutype":"일반휴게음식 - 일반한식","category":"restaurant"}]},{"lat":"37.163891785","long":"127.3734672","imageIndex":4,"items":[{"name":"수정식당","tel":"031-332-4165","addr":"경기도 용인시 처인구 백암면 백암리458-2","indutype":"일반휴게음식 - 일반한식","category":"restaurant"}]},{"lat":"37.16511623","long":"127.37377716","imageIndex":4,"items":[{"name":"술이야","tel":"","addr":"경기도 용인시 처인구 백암면 백암리 374-15번지 2층","indutype":"일반휴게음식 - 주점","category":"restaurant"}]},{"lat":"37.164836912","long":"127.3737758","imageIndex":4,"items":[{"name":"시골밥상김밥","tel":"031-339-7728","addr":"경기도 용인시 처인구 백암면 백암리 373-3번지","indutype":"일반휴게음식 - 일반한식","category":"restaurant"}]},{"lat":"37.155731444","long":"127.38386285","imageIndex":4,"items":[{"name":"시우한식부페","tel":"031-321-0750","addr":"경기도 용인시 처인구 백암면 박곡리 729-6번지 상원가든 가동 1층","indutype":"일반휴게음식 - 일반한식","category":"restaurant"}]},{"lat":"37.166419961","long":"127.37177946","imageIndex":4,"items":[{"name":"시크릿","tel":"","addr":"경기도 용인시 처인구 백암면 백암리 641-26번지 1층","indutype":"일반휴게음식 - 주점","category":"restaurant"},{"name":"옛집","tel":"031-333-3807","addr":"경기도 용인시 처인구 백암면 백암리 641-26","indutype":"일반휴게음식 - 일반한식","category":"restaurant"},{"name":"일미회센타","tel":"031-322-8333","addr":"경기도 용인시 처인구 백암면 641-26","indutype":"일반휴게음식 - 일식·회집","category":"restaurant"}]},{"lat":"37.14784316","long":"127.38794301","imageIndex":4,"items":[{"name":"신화맛집","tel":"031-332-9380","addr":"경기도 용인시 처인구 백암면 백봉리 757-13번지 1층","indutype":"일반휴게음식 - 일반한식","category":"restaurant"}]},{"lat":"37.163835963","long":"127.37402985","imageIndex":4,"items":[{"name":"썬호프","tel":"031-334-4973","addr":"경기도 용인시 처인구 백암면 백암리 459-22번지 1층","indutype":"일반휴게음식 - 일반한식","category":"restaurant"}]},{"lat":"37.165644729","long":"127.37188828","imageIndex":4,"items":[{"name":"아지트","tel":"031-334-3822","addr":"경기도 용인시 처인구 백암면 백암리 402-3번지 1층","indutype":"일반휴게음식 - 일반한식","category":"restaurant"}]},{"lat":"37.157011835","long":"127.39735569","imageIndex":4,"items":[{"name":"안채","tel":"031-336-5414","addr":"경기도 용인시 처인구 백암면 박곡리283-2","indutype":"일반휴게음식 - 일반한식","category":"restaurant"}]},{"lat":"37.144791311","long":"127.36713837","imageIndex":4,"items":[{"name":"알렉스더커피","tel":"070-4148-7714","addr":"경기도 용인시 처인구 백암면 근삼리 282-1번지","indutype":"일반휴게음식 - 서양음식","category":"restaurant"}]},{"lat":"37.178953206","long":"127.35099681","imageIndex":4,"items":[{"name":"어몽더독","tel":"","addr":"경기도 용인시 처인구 백암면 가좌리 183-1번지","indutype":"일반휴게음식 - 서양음식","category":"restaurant"},{"name":"어몽더독(among the dog)","tel":"031-000-0000","addr":"경기도 용인시 처인구 백암면 가좌리 183-1번지 1층","indutype":"일반휴게음식 - 서양음식","category":"restaurant"}]},{"lat":"37.16422861","long":"127.37236551","imageIndex":4,"items":[{"name":"어울림","tel":"031-2220-3775","addr":"경기도 용인시 처인구 백암면 백암리 442번지 1층","indutype":"일반휴게음식 - 서양음식","category":"restaurant"}]},{"lat":"37.165120836","long":"127.3723023","imageIndex":4,"items":[{"name":"영후네야식","tel":"031-339-1253","addr":"경기도 용인시 처인구 백암면 백암리 413-1번지 1층","indutype":"일반휴게음식 - 일반한식","category":"restaurant"}]},{"lat":"37.124791964","long":"127.41547402","imageIndex":4,"items":[{"name":"예향","tel":"031-000-0000","addr":"경기도 용인시 처인구 백암면 고안리 97-1번지","indutype":"일반휴게음식 - 일반한식","category":"restaurant"}]},{"lat":"37.163593645","long":"127.37083127","imageIndex":4,"items":[{"name":"옛골푸드","tel":"031-323-5877","addr":"경기도 용인시 처인구 백암면 근창리 19-1번지 1층","indutype":"일반휴게음식 - 일반한식","category":"restaurant"}]},{"lat":"37.164534595","long":"127.37536178","imageIndex":4,"items":[{"name":"오렌지궁전","tel":"031-336-5225","addr":"경기도 용인시 처인구 백암면 백암리 468번지 1층","indutype":"일반휴게음식 - 주점","category":"restaurant"},{"name":"훌랄라 숯불치킨 백암점","tel":"031-339-6802","addr":"경기도 용인시 처인구 백암면 백암리 468번지 1층","indutype":"일반휴게음식 - 스넥","category":"restaurant"}]},{"lat":"37.165031751","long":"127.37197536","imageIndex":4,"items":[{"name":"오복맛집","tel":"031-336-9188","addr":"경기도 용인시 처인구 백암면 백암리 409번지 1층","indutype":"일반휴게음식 - 일반한식","category":"restaurant"}]},{"lat":"37.163976147","long":"127.37242057","imageIndex":4,"items":[{"name":"옥산가든","tel":"031-334-9919","addr":"경기도 용인시 처인구 백암면 백암리 443-4번지 외1필지","indutype":"일반휴게음식 - 일반한식","category":"restaurant"}]},{"lat":"37.175670481","long":"127.37566416","imageIndex":4,"items":[{"name":"와조(WAZO)갤러리카페","tel":"031-336-6654","addr":"경기도 용인시 처인구 백암면 백암리 42-2번지","indutype":"일반휴게음식 - 일반한식","category":"restaurant"}]},{"lat":"37.157781359","long":"127.38244342","imageIndex":4,"items":[{"name":"완산골콩나물피순대","tel":"031-332-4063","addr":"경기도 용인시 처인구 백암면 박곡리 682-6번지 1층","indutype":"일반휴게음식 - 일반한식","category":"restaurant"}]},{"lat":"37.164558545","long":"127.37347045","imageIndex":4,"items":[{"name":"요거프레소백암점","tel":"031-333-7416","addr":"경기도 용인시 처인구 백암면 백암리 447-12번지 1층","indutype":"일반휴게음식 - 서양음식","category":"restaurant"}]},{"lat":"37.156397733","long":"127.38680436","imageIndex":4,"items":[{"name":"용인가든","tel":"031-334-4858","addr":"경기도 용인시 처인구 백암면 박곡리 728번지","indutype":"일반휴게음식 - 일반한식","category":"restaurant"}]},{"lat":"37.163117882","long":"127.37025479","imageIndex":4,"items":[{"name":"워어언샤앗","tel":"031-335-1522","addr":"경기도 용인시 처인구 백암면 근창리 20-6번지","indutype":"일반휴게음식 - 스넥","category":"restaurant"}]},{"lat":"37.17841858","long":"127.36991222","imageIndex":4,"items":[{"name":"웰빙음식점모란","tel":"031-333-7880","addr":"경기도 용인시 처인구 백암면 가창리 451-2번지","indutype":"일반휴게음식 - 일반한식","category":"restaurant"}]},{"lat":"37.161365466","long":"127.37741772","imageIndex":4,"items":[{"name":"유리네맛집","tel":"031-339-8666","addr":"경기도 용인시 처인구 백암면 백암리 544-2번지","indutype":"일반휴게음식 - 일반한식","category":"restaurant"}]},{"lat":"37.123846997","long":"127.37425087","imageIndex":4,"items":[{"name":"으뜸짬뽕드라마","tel":"031-339-8692","addr":"경기도 용인시 처인구 백암면 장평리 611-1번지 1층","indutype":"일반휴게음식 - 중국식","category":"restaurant"}]},{"lat":"37.165585714","long":"127.37347547","imageIndex":4,"items":[{"name":"이십오시(25시)뼈다귀","tel":"031-332-4880","addr":"경기도 용인시 처인구 백암면 백암리 374-14번지 1층","indutype":"일반휴게음식 - 일반한식","category":"restaurant"}]},{"lat":"37.165953584","long":"127.37397265","imageIndex":4,"items":[{"name":"이차로HOF","tel":"031-4991-0439","addr":"경기도 용인시 처인구 백암면 백암리 364-3번지 2층","indutype":"일반휴게음식 - 주점","category":"restaurant"}]},{"lat":"37.164814382","long":"127.37233458","imageIndex":4,"items":[{"name":"인생술집","tel":"031-335-5127","addr":"경기도 용인시 처인구 백암면 백암리 424번지","indutype":"일반휴게음식 - 스넥","category":"restaurant"},{"name":"청사초롱","tel":"031-335-5127","addr":"경기도 용인시 처인구 백암면 백암리 424번지","indutype":"일반휴게음식 - 주점","category":"restaurant"}]},{"lat":"37.161253596","long":"127.36411011","imageIndex":4,"items":[{"name":"자매식당","tel":"031-333-6355","addr":"경기도 용인시 처인구 백암면 근창리 89-6번지 1층","indutype":"일반휴게음식 - 일반한식","category":"restaurant"}]},{"lat":"37.123594532","long":"127.3743059","imageIndex":4,"items":[{"name":"장평곱창","tel":"031-332-9253","addr":"경기도 용인시 처인구 백암면 장평리611-3","indutype":"일반휴게음식 - 일반한식","category":"restaurant"}]},{"lat":"37.123702832","long":"127.37425017","imageIndex":4,"items":[{"name":"장평치킨","tel":"031-333-2300","addr":"경기도 용인시 처인구 백암면 장평리 611-2번지 1층","indutype":"일반휴게음식 - 스넥","category":"restaurant"}]},{"lat":"37.140123021","long":"127.39563602","imageIndex":4,"items":[{"name":"재동축산 주식회사","tel":"031-338-6993","addr":"경기도 용인시 처인구 백암면 백봉리 612-5번지","indutype":"일반휴게음식 - 일반한식","category":"restaurant"}]},{"lat":"37.165951079","long":"127.37477201","imageIndex":4,"items":[{"name":"전통갈비","tel":"031-333-6111","addr":"경기도 용인시 처인구 백암면 347-2","indutype":"일반휴게음식 - 갈비전문점","category":"restaurant"}]},{"lat":"37.114905508","long":"127.37236201","imageIndex":4,"items":[{"name":"조비산가든","tel":"031-333-1193","addr":"경기도 용인시 처인구 백암면 석천리 384-3번지 조비산가든","indutype":"일반휴게음식 - 일반한식","category":"restaurant"}]},{"lat":"37.156367149","long":"127.3851156","imageIndex":4,"items":[{"name":"준라이브","tel":"031-339-8975","addr":"경기도 용인시 처인구 백암면 박곡리 731-1","indutype":"일반휴게음식 - 스넥","category":"restaurant"}]},{"lat":"37.16495283","long":"127.37127695","imageIndex":4,"items":[{"name":"중앙왕족발보쌈","tel":"031-339-1233","addr":"경기도 용인시 처인구 백암면 백암리 407-14번지","indutype":"일반휴게음식 - 일반한식","category":"restaurant"}]},{"lat":"37.165397378","long":"127.37319308","imageIndex":4,"items":[{"name":"차이나","tel":"031-321-8832","addr":"경기도 용인시 처인구 백암면 백암리 374-47번지","indutype":"일반휴게음식 - 중국식","category":"restaurant"}]},{"lat":"37.156844369","long":"127.35008489","imageIndex":4,"items":[{"name":"참좋은맛집","tel":"031-321-5884","addr":"경기도 용인시 처인구 백암면 근창리 606-4번지 1층 일부","indutype":"일반휴게음식 - 일반한식","category":"restaurant"}]},{"lat":"37.157512097","long":"127.38211561","imageIndex":4,"items":[{"name":"채우미","tel":"031-321-8721","addr":"경기도 용인시 처인구 백암면 박곡리 689-1번지","indutype":"일반휴게음식 - 일반한식","category":"restaurant"}]},{"lat":"37.165535027","long":"127.37239438","imageIndex":4,"items":[{"name":"처갓집양념치킨 백암점","tel":"031-321-9282","addr":"경기도 용인시 처인구 백암면 백암리 391번지","indutype":"일반휴게음식 - 스넥","category":"restaurant"},{"name":"홍도야","tel":"031-321-0062","addr":"경기도 용인시 처인구 백암면 백암리 391번지","indutype":"일반휴게음식 - 서양음식","category":"restaurant"}]},{"lat":"37.16569886","long":"127.37186602","imageIndex":4,"items":[{"name":"청송회관","tel":"031-322-5060","addr":"경기도 용인시 처인구 백암면 백암리402","indutype":"일반휴게음식 - 일반한식","category":"restaurant"}]},{"lat":"37.141486088","long":"127.3636672","imageIndex":4,"items":[{"name":"카페드아리(CAFEDEAREE)","tel":"","addr":"경기도 용인시 처인구 백암면 근삼리 389-1번지 예아리박물관 C동 1층","indutype":"일반휴게음식 - 서양음식","category":"restaurant"}]},{"lat":"37.165119958","long":"127.37258376","imageIndex":4,"items":[{"name":"카페라쥬","tel":"031-332-6058","addr":"경기도 용인시 처인구 백암면 백암리 415번지","indutype":"일반휴게음식 - 서양음식","category":"restaurant"}]},{"lat":"37.164922084","long":"127.37247021","imageIndex":4,"items":[{"name":"캐슬바베큐치킨","tel":"031-334-2217","addr":"경기도 용인시 처인구 백암면 백암리 426번지","indutype":"일반휴게음식 - 일반한식","category":"restaurant"}]},{"lat":"37.164256762","long":"127.37488755","imageIndex":4,"items":[{"name":"커피샌프란시스코","tel":"031-321-8883","addr":"경기도 용인시 처인구 백암면 백암리 466번지 1층","indutype":"일반휴게음식 - 서양음식","category":"restaurant"},{"name":"피자스쿨용인백암점","tel":"031-334-7077","addr":"경기도 용인시 처인구 백암면 백암리 466번지 1층","indutype":"일반휴게음식 - 서양음식","category":"restaurant"}]},{"lat":"37.098963405","long":"127.40896708","imageIndex":4,"items":[{"name":"콩사랑","tel":"031-321-3329","addr":"경기도 용인시 처인구 백암면 옥산리 321번지","indutype":"일반휴게음식 - 일반한식","category":"restaurant"}]},{"lat":"37.147231219","long":"127.41452655","imageIndex":4,"items":[{"name":"클로포(clofo)","tel":"031-330-7236","addr":"경기도 용인시 처인구 백암면 고안리 633-2번지 IAE고등기술연구원","indutype":"일반휴게음식 - 서양음식","category":"restaurant"}]},{"lat":"37.173370848","long":"127.35267145","imageIndex":4,"items":[{"name":"템프터제이과자점","tel":"031-339-1030","addr":"경기도 용인시 처인구 백암면 근곡리 583-3번지 송림유치원 가동 1층","indutype":"일반휴게음식 - 서양음식","category":"restaurant"}]},{"lat":"37.131288761","long":"127.40755297","imageIndex":4,"items":[{"name":"토박이","tel":"031-332-2194","addr":"경기도 용인시 처인구 백암면 고안리 462-1번지","indutype":"일반휴게음식 - 일반한식","category":"restaurant"}]},{"lat":"37.165004543","long":"127.37491374","imageIndex":4,"items":[{"name":"펀비어킹백악점","tel":"031-000-0000","addr":"경기도 용인시 처인구 백암면 백암리 368-1번지 1층 일부","indutype":"일반휴게음식 - 일반한식","category":"restaurant"}]},{"lat":"37.178085515","long":"127.36980926","imageIndex":4,"items":[{"name":"푸짐한자매밥상","tel":"031-333-6169","addr":"경기도 용인시 처인구 백암면 근곡리 99-9번지 1층","indutype":"일반휴게음식 - 일반한식","category":"restaurant"}]},{"lat":"37.157313259","long":"127.38230599","imageIndex":4,"items":[{"name":"풍성식당","tel":"031-332-4604","addr":"경기도 용인시 처인구 백암면 박곡리 689-3번지 2층","indutype":"일반휴게음식 - 일반한식","category":"restaurant"}]},{"lat":"37.124869488","long":"127.41649843","imageIndex":4,"items":[{"name":"한아름야식","tel":"031-322-2890","addr":"경기도 용인시 처인구 백암면 고안리 92번지","indutype":"일반휴게음식 - 일반한식","category":"restaurant"}]},{"lat":"37.164174963","long":"127.37511232","imageIndex":4,"items":[{"name":"해물칼국수. 불타는닭발","tel":"031-339-5158","addr":"경기도 용인시 처인구 백암면 백암리 470-3번지","indutype":"일반휴게음식 - 일반한식","category":"restaurant"}]},{"lat":"37.163895862","long":"127.37216124","imageIndex":4,"items":[{"name":"해피데이","tel":"031-322-7079","addr":"경기도 용인시 처인구 백암면 백암리 436-5번지 2층","indutype":"일반휴게음식 - 일반한식","category":"restaurant"}]},{"lat":"37.12470468","long":"127.35600324","imageIndex":4,"items":[{"name":"형석이네숯불갈비","tel":"031-323-1711","addr":"경기도 용인시 처인구 백암면 용천리 613-3번지 1층","indutype":"일반휴게음식 - 일반한식","category":"restaurant"}]},{"lat":"37.165284739","long":"127.37175142","imageIndex":4,"items":[{"name":"홍류","tel":"031-334-0335","addr":"경기도 용인시 처인구 백암면 백암리 404-4번지","indutype":"일반휴게음식 - 중국식","category":"restaurant"}]},{"lat":"37.111314824","long":"127.3680018","imageIndex":4,"items":[{"name":"황새울가든","tel":"031-332-3009","addr":"경기도 용인시 처인구 백암면 석천리 448-1번지","indutype":"일반휴게음식 - 일반한식","category":"restaurant"}]},{"lat":"37.1124029","long":"127.35074822","imageIndex":4,"items":[{"name":"황새울식당","tel":"031-333-9080","addr":"경기도 용인시 처인구 백암면 석천리 731번지","indutype":"일반휴게음식 - 일반한식","category":"restaurant"}]},{"lat":"37.163951897","long":"127.3744132","imageIndex":4,"items":[{"name":"힘좋은참낙지","tel":"031-332-4443","addr":"경기도 용인시 처인구 백암면 백암리 459-25번지 1층","indutype":"일반휴게음식 - 일반한식","category":"restaurant"}]}]