[{"lat":"37.719674865","long":"126.79012676","imageIndex":0,"items":[{"name":"(주)거성모터스","tel":"031-976-0061","addr":"경기도 고양시 일산동구 설문동 744-3번지","indutype":"자동차판매 - 중고자동차판매","category":"car"},{"name":"소통 모터스","tel":"031-976-8524","addr":"경기도 고양시 일산동구 설문동 744-3번지","indutype":"자동차판매 - 중고자동차판매","category":"car"},{"name":"주식회사 드림모터스","tel":"031-977-9246","addr":"경기도 고양시 일산동구 설문동 744-3번지","indutype":"자동차판매 - 중고자동차판매","category":"car"},{"name":"주식회사 성연모터스","tel":"031-977-2260","addr":"경기도 고양시 일산동구 설문동 744-3번지","indutype":"자동차판매 - 중고자동차판매","category":"car"},{"name":"주식회사 신독모터스","tel":"031-975-9754","addr":"경기도 고양시 일산동구 설문동 744-3번지","indutype":"자동차판매 - 중고자동차판매","category":"car"},{"name":"주식회사 월드모터스","tel":"","addr":"경기도 고양시 일산동구 설문동 744-3번지","indutype":"자동차판매 - 중고자동차판매","category":"car"}]},{"lat":"37.708989606","long":"126.81120521","imageIndex":0,"items":[{"name":"88자동차종합상사","tel":"031-905-5109","addr":"경기도 고양시 일산동구 설문동 167번지","indutype":"자동차정비 유지 - 자동차정비","category":"car"},{"name":"길승사","tel":"031-977-3416","addr":"경기도 고양시 일산동구 설문동 167번지","indutype":"자동차정비 유지 - 자동차부품","category":"car"}]},{"lat":"37.714066793","long":"126.80323059","imageIndex":0,"items":[{"name":"AJ모터스","tel":"031-977-5773","addr":"경기도 고양시 일산동구 설문동 493-10번지","indutype":"자동차정비 유지 - 자동차정비","category":"car"},{"name":"CS모터스","tel":"031-977-6354","addr":"경기도 고양시 일산동구 설문동 493-10번지","indutype":"자동차정비 유지 - 자동차정비","category":"car"}]},{"lat":"37.717709762","long":"126.78956529","imageIndex":0,"items":[{"name":"ART모터스","tel":"031-977-7704","addr":"경기도 고양시 일산동구 설문동 797-6번지","indutype":"자동차정비 유지 - 자동차정비","category":"car"}]},{"lat":"37.725148611","long":"126.79287878","imageIndex":0,"items":[{"name":"KL 모터스","tel":"031-977-9430","addr":"경기도 고양시 일산동구 설문동 705-8번지","indutype":"자동차정비 유지 - 자동차정비","category":"car"}]},{"lat":"37.717097974","long":"126.7900434","imageIndex":0,"items":[{"name":"남지산업","tel":"031-977-7090","addr":"경기도 고양시 일산동구 설문동 796-2번지","indutype":"자동차정비 유지 - 자동차부품","category":"car"},{"name":"남지상사","tel":"031-977-7090","addr":"경기도 고양시 일산동구 설문동 796-2번지","indutype":"자동차정비 유지 - 자동차부품","category":"car"}]},{"lat":"37.713901267","long":"126.80659937","imageIndex":0,"items":[{"name":"뉴나인모터스","tel":"031-976-9573","addr":"경기도 고양시 일산동구 설문동 512-2번지","indutype":"자동차정비 유지 - 자동차정비","category":"car"}]},{"lat":"37.708675982","long":"126.81226068","imageIndex":0,"items":[{"name":"대왕보링자동차공업사","tel":"02-372-9825","addr":"경기도 고양시 일산동구 설문동 167-9번지","indutype":"자동차정비 유지 - 자동차정비","category":"car"}]},{"lat":"37.718343536","long":"126.79128744","imageIndex":0,"items":[{"name":"대현모터스","tel":"031-977-5329","addr":"경기도 고양시 일산동구 설문동 769-2번지","indutype":"자동차정비 유지 - 자동차정비","category":"car"}]},{"lat":"37.723287543","long":"126.79003703","imageIndex":0,"items":[{"name":"도깨비공업사","tel":"031-904-6112","addr":"경기도 고양시 일산동구 설문동 722-6번지","indutype":"자동차정비 유지 - 자동차정비","category":"car"}]},{"lat":"37.725062634","long":"126.79520432","imageIndex":0,"items":[{"name":"디테일러명 일산","tel":"","addr":"경기도 고양시 일산동구 설문동 707-6번지","indutype":"자동차정비 유지 - 세차장","category":"car"}]},{"lat":"37.725956664","long":"126.8015993","imageIndex":0,"items":[{"name":"디테일링월드","tel":"070-8860-8865","addr":"경기도 고양시 일산동구 설문동 576-1번지","indutype":"자동차정비 유지 - 카인테리어","category":"car"}]},{"lat":"37.728566333","long":"126.79978863","imageIndex":0,"items":[{"name":"디펙토리설문점","tel":"070-7420-7600","addr":"경기도 고양시 일산동구 설문동 606번지","indutype":"자동차정비 유지 - 세차장","category":"car"}]},{"lat":"37.718041707","long":"126.80422934","imageIndex":0,"items":[{"name":"아즈펙토","tel":"031-975-1163","addr":"경기도 고양시 일산동구 설문동 530-84번지","indutype":"자동차정비 유지 - 카인테리어","category":"car"}]},{"lat":"37.717403335","long":"126.78950946","imageIndex":0,"items":[{"name":"에스제이(SJ)모터스","tel":"031-976-8879","addr":"경기도 고양시 일산동구 설문동 798-2번지","indutype":"자동차정비 유지 - 자동차정비","category":"car"}]},{"lat":"37.726951512","long":"126.79856798","imageIndex":0,"items":[{"name":"우리현대","tel":"031-977-0977","addr":"경기도 고양시 일산동구 설문동","indutype":"자동차정비 유지 - 자동차정비","category":"car"}]},{"lat":"37.709072219","long":"126.81214626","imageIndex":0,"items":[{"name":"원일 대형 세차장","tel":"031-977-3040","addr":"경기도 고양시 일산동구 설문동 167-1번지","indutype":"자동차정비 유지 - 세차장","category":"car"}]},{"lat":"37.714875354","long":"126.80723192","imageIndex":0,"items":[{"name":"이화모터스","tel":"031-977-7445","addr":"경기도 고양시 일산동구 설문동 494-11번지","indutype":"자동차정비 유지 - 자동차정비","category":"car"}]},{"lat":"37.72198357","long":"126.79137917","imageIndex":0,"items":[{"name":"주식회사 인코리아","tel":"031-919-6322","addr":"경기도 고양시 일산동구 설문동 719-70번지","indutype":"자동차정비 유지 - 자동차부품","category":"car"}]},{"lat":"37.715181547","long":"126.80715172","imageIndex":0,"items":[{"name":"카샵","tel":"031-977-5177","addr":"경기도 고양시 일산동구 설문동 494-2번지","indutype":"자동차정비 유지 - 카인테리어","category":"car"}]},{"lat":"37.719789669","long":"126.78884478","imageIndex":0,"items":[{"name":"클럽타이어JK일산점","tel":"031-976-3727","addr":"경기도 고양시 일산동구 설문동 744-8번지","indutype":"자동차정비 유지 - 자동차시트·타이어","category":"car"}]},{"lat":"37.708767559","long":"126.81317902","imageIndex":0,"items":[{"name":"태흥모터스","tel":"031-962-0858","addr":"경기도 고양시 일산동구 설문동 167-13번지","indutype":"자동차정비 유지 - 자동차정비","category":"car"}]},{"lat":"37.722816704","long":"126.8209242","imageIndex":0,"items":[{"name":"투베이스","tel":"070-7743-2855","addr":"경기도 고양시 일산동구 설문동 31-20번지","indutype":"자동차정비 유지 - 자동차부품","category":"car"}]},{"lat":"37.723541974","long":"126.79123863","imageIndex":0,"items":[{"name":"틴팅클럽","tel":"031-977-9875","addr":"경기도 고양시 일산동구 설문동 722-60번지","indutype":"자동차정비 유지 - 자동차부품","category":"car"}]},{"lat":"37.716485998","long":"126.8114581","imageIndex":0,"items":[{"name":"플랜에스(PlanS)","tel":"","addr":"경기도 고양시 일산동구 설문동 238-6번지","indutype":"자동차정비 유지 - 자동차부품","category":"car"}]},{"lat":"37.717877232","long":"126.79251369","imageIndex":0,"items":[{"name":"휠리페어","tel":"02-842-3888","addr":"경기도 고양시 일산동구 설문동 776-1번지","indutype":"자동차정비 유지 - 자동차정비","category":"car"}]}]