[{"lat":"37.269749145","long":"127.63267086","imageIndex":7,"items":[{"name":"Y SHOP","tel":"031-880-5595","addr":"경기도 여주시 교동 454-4번지","indutype":"음료식품 - 기타음료식품","category":"food"},{"name":"여주대학교학생회관편의점","tel":"031-880-5472","addr":"경기도 여주시 교동 454-4번지 여주대학교","indutype":"음료식품 - 기타음료식품","category":"food"}]},{"lat":"37.287388034","long":"127.6298295","imageIndex":7,"items":[{"name":"강원영농축산","tel":"031-881-6685","addr":"경기도 여주시 교동 211번지","indutype":"음료식품 - 정육점","category":"food"}]},{"lat":"37.26902558","long":"127.63824545","imageIndex":7,"items":[{"name":"경기여주지역자활센터","tel":"031-881-0872","addr":"경기도 여주시 교동 45-20번지","indutype":"음료식품 - 농·축·수산품","category":"food"},{"name":"여민협동조합","tel":"031-884-7402","addr":"경기도 여주시 교동 45-20번지 2층","indutype":"음료식품 - 기타음료식품","category":"food"}]},{"lat":"37.273300846","long":"127.63741323","imageIndex":7,"items":[{"name":"뚜레쥬르 여주대로데오점","tel":"031-884-0016","addr":"경기도 여주시 교동 59-2번지 101호","indutype":"음료식품 - 제과점","category":"food"},{"name":"파리바게뜨 여주대학점","tel":"031-881-5118","addr":"경기도 여주시 교동 59-2번지 1층 106호","indutype":"음료식품 - 제과점","category":"food"}]},{"lat":"37.273805572","long":"127.63738365","imageIndex":7,"items":[{"name":"아미띠에(제과점)","tel":"031-885-8933","addr":"경기도 여주시 교동 61-2번지 108,109","indutype":"음료식품 - 제과점","category":"food"}]},{"lat":"37.270473306","long":"127.62864073","imageIndex":7,"items":[{"name":"오성농원","tel":"031-858-4604","addr":"경기도 여주시 교동 453-38번지","indutype":"음료식품 - 농·축·수산품","category":"food"}]},{"lat":"37.274913345","long":"127.63747187","imageIndex":7,"items":[{"name":"픽미픽미아이스 여주점","tel":"031-111-1111","addr":"경기도 여주시 교동 68-4번지 1층 103호","indutype":"음료식품 - 기타음료식품","category":"food"}]},{"lat":"37.279585514","long":"127.63655266","imageIndex":7,"items":[{"name":"현미와누룽지","tel":"031-886-7011","addr":"경기도 여주시 교동 99-2번지","indutype":"음료식품 - 기타음료식품","category":"food"}]}]