[{"lat":"37.294381385","long":"127.41882307","imageIndex":4,"items":[{"name":"(박)달재반점","tel":"031-634-2858","addr":"경기도 이천시 사음동 191-4번지 2,3층 외1필지","indutype":"일반휴게음식 - 중국식","category":"restaurant"}]},{"lat":"37.295184691","long":"127.4158501","imageIndex":4,"items":[{"name":"yellow latte (옐로우라떼)","tel":"031-634-3722","addr":"경기도 이천시 사음동 448-2번지 1동","indutype":"일반휴게음식 - 서양음식","category":"restaurant"}]},{"lat":"37.294188609","long":"127.42238581","imageIndex":4,"items":[{"name":"가마솥쌀밥집","tel":"031-633-8816","addr":"경기도 이천시 사음동 162-2번지","indutype":"일반휴게음식 - 일반한식","category":"restaurant"}]},{"lat":"37.29634823","long":"127.41029633","imageIndex":4,"items":[{"name":"고향집 (사음점)","tel":"031-637-3234","addr":"경기도 이천시 사음동 552번지","indutype":"일반휴게음식 - 일반한식","category":"restaurant"}]},{"lat":"37.296713005","long":"127.41682838","imageIndex":4,"items":[{"name":"공간다락","tel":"031-8259-2930","addr":"경기도 이천시 사음동 420번지","indutype":"일반휴게음식 - 서양음식","category":"restaurant"}]},{"lat":"37.298634771","long":"127.42121497","imageIndex":4,"items":[{"name":"공방카페 커피뜰","tel":"031-634-1798","addr":"경기도 이천시 사음동 291-20번지 104동 지하1층","indutype":"일반휴게음식 - 서양음식","category":"restaurant"}]},{"lat":"37.294463743","long":"127.41846263","imageIndex":4,"items":[{"name":"관촌순두부","tel":"031-635-6561","addr":"경기도 이천시 사음동 192-1번지","indutype":"일반휴게음식 - 일반한식","category":"restaurant"}]},{"lat":"37.293768691","long":"127.42137975","imageIndex":4,"items":[{"name":"교동짬뽕","tel":"031-633-8907","addr":"경기도 이천시 사음동 164-15번지","indutype":"일반휴게음식 - 중국식","category":"restaurant"},{"name":"궁사주카페","tel":"","addr":"경기도 이천시 사음동 164-15번지 가동 105호","indutype":"일반휴게음식 - 서양음식","category":"restaurant"}]},{"lat":"37.298766868","long":"127.40915896","imageIndex":4,"items":[{"name":"나랏님 장작불곰탕","tel":"031-638-7188","addr":"경기도 이천시 사음동 576-4번지","indutype":"일반휴게음식 - 일반한식","category":"restaurant"}]},{"lat":"37.295829458","long":"127.41955284","imageIndex":4,"items":[{"name":"대웅식당","tel":"031-632-5315","addr":"경기도 이천시 사음동 255번지 대웅빌라","indutype":"일반휴게음식 - 일반한식","category":"restaurant"}]},{"lat":"37.298323286","long":"127.40976561","imageIndex":4,"items":[{"name":"대풍","tel":"031-635-3315","addr":"경기도 이천시 사음동 566-2번지","indutype":"일반휴게음식 - 일반한식","category":"restaurant"}]},{"lat":"37.290655751","long":"127.42516297","imageIndex":4,"items":[{"name":"더 라인하우스","tel":"031-637-2400","addr":"경기도 이천시 사음동 150-8번지","indutype":"일반휴게음식 - 일반한식","category":"restaurant"}]},{"lat":"37.298743163","long":"127.40818888","imageIndex":4,"items":[{"name":"목우해장국","tel":"031-632-6377","addr":"경기도 이천시 사음동 570번지","indutype":"일반휴게음식 - 일반한식","category":"restaurant"}]},{"lat":"37.293962932","long":"127.41221197","imageIndex":4,"items":[{"name":"무갤러리","tel":"031-634-5770","addr":"경기도 이천시 사음동 539-2번지 2층","indutype":"일반휴게음식 - 일반한식","category":"restaurant"}]},{"lat":"37.293686227","long":"127.41921396","imageIndex":4,"items":[{"name":"미소원정육식당","tel":"031-638-1171","addr":"경기도 이천시 사음동 172-3번지","indutype":"일반휴게음식 - 일반한식","category":"restaurant"},{"name":"주식회사코주부비앤씨","tel":"031-633-9494","addr":"경기도 이천시 사음동 172-3번지","indutype":"일반휴게음식 - 일반한식","category":"restaurant"},{"name":"주식회사코주부비앤씨","tel":"031-633-9494","addr":"경기도 이천시 사음동 172-3번지","indutype":"일반휴게음식 - 일반한식","category":"restaurant"}]},{"lat":"37.295102814","long":"127.41607521","imageIndex":4,"items":[{"name":"봉평","tel":"031-634-2026","addr":"경기도 이천시 사음동 448-3번지 1동 1층","indutype":"일반휴게음식 - 일반한식","category":"restaurant"}]},{"lat":"37.294547574","long":"127.41510228","imageIndex":4,"items":[{"name":"브라운돈가스","tel":"031-631-7706","addr":"경기도 이천시 사음동 463-2번지 COFFEE ME YOU","indutype":"일반휴게음식 - 서양음식","category":"restaurant"},{"name":"임금님토종염소탕","tel":"031-633-8253","addr":"경기도 이천시 사음동 463-2번지 1동 1층","indutype":"일반휴게음식 - 일반한식","category":"restaurant"}]},{"lat":"37.297907351","long":"127.41019195","imageIndex":4,"items":[{"name":"비비큐(신둔사음점)","tel":"031-634-9282","addr":"경기도 이천시 사음동 564-4번지","indutype":"일반휴게음식 - 스넥","category":"restaurant"}]},{"lat":"37.293466452","long":"127.42021647","imageIndex":4,"items":[{"name":"설봉숯불장어구이","tel":"031-633-4754","addr":"경기도 이천시 사음동 169-16번지","indutype":"일반휴게음식 - 일반한식","category":"restaurant"}]},{"lat":"37.29634866","long":"127.42051435","imageIndex":4,"items":[{"name":"손칼국수밀사랑","tel":"031-631-2767","addr":"경기도 이천시 사음동 246-3번지","indutype":"일반휴게음식 - 일반한식","category":"restaurant"}]},{"lat":"37.301158928","long":"127.40788603","imageIndex":4,"items":[{"name":"옛날쌀밥집","tel":"031-633-3010","addr":"경기도 이천시 사음동 641번지","indutype":"일반휴게음식 - 일반한식","category":"restaurant"}]},{"lat":"37.296241057","long":"127.42036714","imageIndex":4,"items":[{"name":"우리분식","tel":"031-000-0000","addr":"경기도 이천시 사음동 247-2번지 동우빌라 나동 103호","indutype":"일반휴게음식 - 스넥","category":"restaurant"}]},{"lat":"37.294408058","long":"127.41635336","imageIndex":4,"items":[{"name":"이조갈비","tel":"031-637-7026","addr":"경기도 이천시 사음동 452-4번지","indutype":"일반휴게음식 - 일반한식","category":"restaurant"}]},{"lat":"37.293522975","long":"127.41951756","imageIndex":4,"items":[{"name":"이천돼지","tel":"031-635-9393","addr":"경기도 이천시 사음동 171-1번지","indutype":"일반휴게음식 - 일반한식","category":"restaurant"}]},{"lat":"37.29540698","long":"127.41926856","imageIndex":4,"items":[{"name":"이천면옥","tel":"031-634-8252","addr":"경기도 이천시 사음동 200-5번지","indutype":"일반휴게음식 - 일반한식","category":"restaurant"}]},{"lat":"37.297074232","long":"127.41140551","imageIndex":4,"items":[{"name":"이천쌀초밥","tel":"031-637-7778","addr":"경기도 이천시 사음동 555-1번지","indutype":"일반휴게음식 - 일반한식","category":"restaurant"}]},{"lat":"37.302570099","long":"127.40888616","imageIndex":4,"items":[{"name":"이천한내송어회","tel":"031-635-6088","addr":"경기도 이천시 사음동 638","indutype":"일반휴게음식 - 일반한식","category":"restaurant"}]},{"lat":"37.291941014","long":"127.42098619","imageIndex":4,"items":[{"name":"잣나무집","tel":"031-635-4537","addr":"경기도 이천시 사음동 167-2번지","indutype":"일반휴게음식 - 일반한식","category":"restaurant"}]},{"lat":"37.297265271","long":"127.41087647","imageIndex":4,"items":[{"name":"장원염소탕","tel":"031-633-8852","addr":"경기도 이천시 사음동 558-11번지","indutype":"일반휴게음식 - 일반한식","category":"restaurant"}]},{"lat":"37.296410456","long":"127.42087559","imageIndex":4,"items":[{"name":"주민쎈타","tel":"031-632-5000","addr":"경기도 이천시 사음동 245번지 1층","indutype":"일반휴게음식 - 일반한식","category":"restaurant"}]},{"lat":"37.293797952","long":"127.4181883","imageIndex":4,"items":[{"name":"진안추어탕","tel":"031-634-7576","addr":"경기도 이천시 사음동 193번지","indutype":"일반휴게음식 - 일반한식","category":"restaurant"}]},{"lat":"37.295410531","long":"127.41568217","imageIndex":4,"items":[{"name":"최가네감자탕(사음점)","tel":"031-632-3277","addr":"경기도 이천시 사음동 425-2번지","indutype":"일반휴게음식 - 일반한식","category":"restaurant"}]},{"lat":"37.29920921","long":"127.40891321","imageIndex":4,"items":[{"name":"카페 카펠라","tel":"031-631-3877","addr":"경기도 이천시 사음동 573-1번지","indutype":"일반휴게음식 - 서양음식","category":"restaurant"}]},{"lat":"37.294739041","long":"127.41185528","imageIndex":4,"items":[{"name":"카페토루","tel":"031-635-4955","addr":"경기도 이천시 사음동 536번지","indutype":"일반휴게음식 - 서양음식","category":"restaurant"},{"name":"카페토루","tel":"031-635-4955","addr":"경기도 이천시 사음동 536번지 1층","indutype":"일반휴게음식 - 서양음식","category":"restaurant"}]},{"lat":"37.298855729","long":"127.40952035","imageIndex":4,"items":[{"name":"한중명가","tel":"031-633-1324","addr":"경기도 이천시 사음동 575-1번지","indutype":"일반휴게음식 - 일반한식","category":"restaurant"}]},{"lat":"37.295826636","long":"127.42035357","imageIndex":4,"items":[{"name":"후다닭","tel":"031-634-8982","addr":"경기도 이천시 사음동 202번지","indutype":"일반휴게음식 - 일반한식","category":"restaurant"}]}]