[{"lat":"37.774611138","long":"126.71604384","imageIndex":4,"items":[{"name":"가나잔치집","tel":"031-944-9269","addr":"경기도 파주시 탄현면 갈현리 838-14번지","indutype":"일반휴게음식 - 일반한식","category":"restaurant"},{"name":"백년짬뽕돈까스전문점","tel":"031-945-5874","addr":"경기도 파주시 탄현면 갈현리 838-14번지","indutype":"일반휴게음식 - 중국식","category":"restaurant"}]},{"lat":"37.774640676","long":"126.71707662","imageIndex":4,"items":[{"name":"김정수장릉국밥","tel":"031-945-8440","addr":"경기도 파주시 탄현면 갈현리 260-1번지","indutype":"일반휴게음식 - 일반한식","category":"restaurant"},{"name":"이모네 밥상","tel":"031-943-1922","addr":"경기도 파주시 탄현면 갈현리 260-1번지","indutype":"일반휴게음식 - 일반한식","category":"restaurant"}]},{"lat":"37.776589541","long":"126.72199535","imageIndex":4,"items":[{"name":"당뫼산장","tel":"031-945-9540","addr":"경기도 파주시 탄현면 갈현리 223-3번지","indutype":"일반휴게음식 - 일반한식","category":"restaurant"}]},{"lat":"37.768924082","long":"126.70790545","imageIndex":4,"items":[{"name":"로빈갈비/(주)로빈의숲","tel":"031-945-1999","addr":"경기도 파주시 탄현면 갈현리 792-41번지","indutype":"일반휴게음식 - 일반한식","category":"restaurant"}]},{"lat":"37.768306571","long":"126.71320812","imageIndex":4,"items":[{"name":"메기마을","tel":"031-945-2747","addr":"경기도 파주시 탄현면 갈현리 797-1","indutype":"일반휴게음식 - 일반한식","category":"restaurant"}]},{"lat":"37.775117485","long":"126.71679102","imageIndex":4,"items":[{"name":"명태앤쿡","tel":"031-944-5359","addr":"경기도 파주시 탄현면 갈현리 656번지","indutype":"일반휴게음식 - 일반한식","category":"restaurant"}]},{"lat":"37.772361693","long":"126.72098983","imageIndex":4,"items":[{"name":"써니카페","tel":"031-943-8388","addr":"경기도 파주시 탄현면 갈현리 1769번지","indutype":"일반휴게음식 - 서양음식","category":"restaurant"},{"name":"전라도밥상","tel":"031-943-6199","addr":"경기도 파주시 탄현면 갈현리 1769번지","indutype":"일반휴게음식 - 일반한식","category":"restaurant"}]},{"lat":"37.774700154","long":"126.71560083","imageIndex":4,"items":[{"name":"언더독커피","tel":"","addr":"경기도 파주시 탄현면 갈현리 835-1번지","indutype":"일반휴게음식 - 서양음식","category":"restaurant"}]},{"lat":"37.772090541","long":"126.72062766","imageIndex":4,"items":[{"name":"에버그린","tel":"070-9977-9987","addr":"경기도 파주시 탄현면 갈현리 309-1번지","indutype":"일반휴게음식 - 서양음식","category":"restaurant"}]},{"lat":"37.772584344","long":"126.71991072","imageIndex":4,"items":[{"name":"옛날순대국밥","tel":"031-945-4041","addr":"경기도 파주시 탄현면 갈현리 286-4번지","indutype":"일반휴게음식 - 일반한식","category":"restaurant"}]},{"lat":"37.772918155","long":"126.7201024","imageIndex":4,"items":[{"name":"우리집김치찌개","tel":"070-6528-3838","addr":"경기도 파주시 탄현면 갈현리 287-21번지","indutype":"일반휴게음식 - 일반한식","category":"restaurant"}]},{"lat":"37.772503641","long":"126.72006993","imageIndex":4,"items":[{"name":"원조장터 양평해장국","tel":"031-948-5822","addr":"경기도 파주시 탄현면 갈현리 286-3번지","indutype":"일반휴게음식 - 일반한식","category":"restaurant"}]},{"lat":"37.773503848","long":"126.72013422","imageIndex":4,"items":[{"name":"이불고기","tel":"031-942-6636","addr":"경기도 파주시 탄현면 갈현리 284-4번지","indutype":"일반휴게음식 - 일반한식","category":"restaurant"}]},{"lat":"37.774363254","long":"126.71784951","imageIndex":4,"items":[{"name":"자연밥상","tel":"031-941-9512","addr":"경기도 파주시 탄현면 갈현리 265-6번지","indutype":"일반휴게음식 - 일반한식","category":"restaurant"}]},{"lat":"37.774610668","long":"126.71585088","imageIndex":4,"items":[{"name":"장릉골","tel":"031-947-5953","addr":"경기도 파주시 탄현면 갈현리 838-3번지","indutype":"일반휴게음식 - 일반한식","category":"restaurant"}]},{"lat":"37.772143673","long":"126.72024155","imageIndex":4,"items":[{"name":"장터원조국수","tel":"031-944-5811","addr":"경기도 파주시 탄현면 갈현리 318번지","indutype":"일반휴게음식 - 일반한식","category":"restaurant"}]},{"lat":"37.773199377","long":"126.7209072","imageIndex":4,"items":[{"name":"정미식당통일동산","tel":"","addr":"경기도 파주시 탄현면 갈현리 284-19번지","indutype":"일반휴게음식 - 일반한식","category":"restaurant"}]},{"lat":"37.774587087","long":"126.71726978","imageIndex":4,"items":[{"name":"제주바릇","tel":"031-946-1877","addr":"경기도 파주시 탄현면 갈현리 260-9번지","indutype":"일반휴게음식 - 일반한식","category":"restaurant"}]},{"lat":"37.768925076","long":"126.70830268","imageIndex":4,"items":[{"name":"참나무","tel":"031-945-1999","addr":"경기도 파주시 탄현면 갈현리 792-39번지","indutype":"일반휴게음식 - 일반한식","category":"restaurant"}]},{"lat":"37.774059073","long":"126.71873601","imageIndex":4,"items":[{"name":"청석골","tel":"031-946-4417","addr":"경기도 파주시 탄현면 갈현리 266-4번지","indutype":"일반휴게음식 - 일반한식","category":"restaurant"}]},{"lat":"37.773865593","long":"126.7169661","imageIndex":4,"items":[{"name":"홍삼스파 구내식당","tel":"031-744-2233","addr":"경기도 파주시 탄현면 갈현리 654-8번지","indutype":"일반휴게음식 - 일반한식","category":"restaurant"}]}]