[{"lat":"37.710049535","long":"127.44416788","imageIndex":17,"items":[{"name":"(사)아쉬탕가요가코리아협회","tel":"02-3474-2000","addr":"경기도 가평군 설악면 회곡리 472번지","indutype":"회원제형태 - 레져업소","category":"other"}]},{"lat":"37.704995308","long":"127.4489233","imageIndex":17,"items":[{"name":"(주)씨윈피에스","tel":"02-583-8707","addr":"경기도 가평군 설악면 회곡리 428-1번지 르메이에르청평빌라 102동 302호","indutype":"용역 서비스 - 종합용역","category":"other"}]},{"lat":"37.679640969","long":"127.46795185","imageIndex":17,"items":[{"name":"(주)이도아이티","tel":"031-790-1395","addr":"경기도 가평군 설악면 회곡리 43번지","indutype":"유통업 영리 - 기타유통업","category":"other"}]},{"lat":"37.708278692","long":"127.44788833","imageIndex":17,"items":[{"name":"31종합레져","tel":"","addr":"경기도 가평군 설악면 회곡리 480-2번지","indutype":"레져용품 - 스포츠·레져용품","category":"other"}]},{"lat":"37.687530059","long":"127.46420317","imageIndex":17,"items":[{"name":"GS25청평삼밭골점","tel":"","addr":"경기도 가평군 설악면 회곡리 243-8번지 삼밭골주유소","indutype":"유통업 영리 - 편 의 점","category":"other"}]},{"lat":"37.705081018","long":"127.44769912","imageIndex":17,"items":[{"name":"갤러리설악","tel":"031-584-3432","addr":"경기도 가평군 설악면 회곡리 527","indutype":"문화.취미 - 골동품점","category":"other"}]},{"lat":"37.70794059","long":"127.44914508","imageIndex":17,"items":[{"name":"리버그린설비","tel":"070-4922-1261","addr":"경기도 가평군 설악면 회곡리 447-8번지","indutype":"용역 서비스 - 기타용역서비스","category":"other"},{"name":"이마트24 가평리버점","tel":"031-111-1111","addr":"경기도 가평군 설악면 회곡리 447-8번지","indutype":"유통업 영리 - 편 의 점","category":"other"}]},{"lat":"37.700552649","long":"127.44678761","imageIndex":17,"items":[{"name":"사륜오토바이(뉴돌고래)","tel":"031-696-5047","addr":"경기도 가평군 설악면 회곡리 산 73","indutype":"레져용품 - 스포츠·레져용품","category":"other"}]},{"lat":"37.699945723","long":"127.45711383","imageIndex":17,"items":[{"name":"시골빛두리","tel":"031-584-5427","addr":"경기도 가평군 설악면 회곡리 317-8번지","indutype":"회원제형태 - 기타4","category":"other"}]},{"lat":"37.707112889","long":"127.44883393","imageIndex":17,"items":[{"name":"에코오토캠핑","tel":"031-585-3334","addr":"경기도 가평군 설악면 회곡리 441-19","indutype":"레져용품 - 스포츠·레져용품","category":"other"}]},{"lat":"37.677727681","long":"127.48447858","imageIndex":17,"items":[{"name":"열린효경원","tel":"031-585-5671","addr":"경기도 가평군 설악면 회곡리 4-14번지","indutype":"기타의료기관 - 기타의료기관 및 기타","category":"other"}]},{"lat":"37.710523504","long":"127.44511196","imageIndex":17,"items":[{"name":"참새언덕","tel":"031-584-3364","addr":"경기도 가평군 설악면 회곡리 473-24번지","indutype":"주방용구 - 주방용식기","category":"other"}]},{"lat":"37.701278767","long":"127.45486546","imageIndex":17,"items":[{"name":"케이엘리조트","tel":"","addr":"경기도 가평군 설악면 회곡리 305-4번지","indutype":"레져용품 - 스포츠·레져용품","category":"other"}]}]