[{"lat":"37.165392162","long":"127.04380757","imageIndex":8,"items":[{"name":"(의료)오산신경정신병원유지재단","tel":"031-373-1254","addr":"경기도 오산시 궐동 543번지","indutype":"병원 - 병원","category":"medical"}]},{"lat":"37.159838018","long":"127.05341885","imageIndex":8,"items":[{"name":"감초한약국","tel":"070-4849-5530","addr":"경기도 오산시 궐동 681-1번지 센트하임 114호","indutype":"약국 - 약국","category":"medical"}]},{"lat":"37.157804234","long":"127.06674653","imageIndex":8,"items":[{"name":"기쁨약국","tel":"031-378-3893","addr":"경기도 오산시 궐동 78-4번지 죽산빌딩 1층","indutype":"약국 - 약국","category":"medical"},{"name":"우리의원","tel":"031-376-6511","addr":"경기도 오산시 궐동 78-4번지 죽산빌딩 2층","indutype":"의원 - 의원","category":"medical"}]},{"lat":"37.160305145","long":"127.05663895","imageIndex":8,"items":[{"name":"명문약국","tel":"031-378-1646","addr":"경기도 오산시 궐동 619-4번지","indutype":"약국 - 약국","category":"medical"},{"name":"서울연합의원.한의원","tel":"031-373-6558","addr":"경기도 오산시 궐동 619-4번지 거동빌딩 2층","indutype":"의원 - 의원","category":"medical"},{"name":"연세삼성치과","tel":"031-372-2858","addr":"경기도 오산시 궐동 619-4번지 거동빌딩 3층","indutype":"의원 - 치과의원","category":"medical"}]},{"lat":"37.159886863","long":"127.06445166","imageIndex":8,"items":[{"name":"미르약국","tel":"031-377-5506","addr":"경기도 오산시 궐동 592번지 1층","indutype":"약국 - 약국","category":"medical"},{"name":"황재영정형외과","tel":"031-378-8873","addr":"경기도 오산시 궐동 592번지","indutype":"의원 - 의원","category":"medical"}]},{"lat":"37.158083643","long":"127.06658915","imageIndex":8,"items":[{"name":"성모약국","tel":"031-374-6032","addr":"경기도 오산시 궐동 43-12번지","indutype":"약국 - 약국","category":"medical"}]},{"lat":"37.159448173","long":"127.05875482","imageIndex":8,"items":[{"name":"오산고려내과의원","tel":"031-372-5868","addr":"경기도 오산시 궐동 626-6번지","indutype":"의원 - 의원","category":"medical"},{"name":"오산고려내과의원","tel":"031-372-5868","addr":"경기도 오산시 궐동 626-6번지 서윤빌딩 3층","indutype":"의원 - 의원","category":"medical"},{"name":"푸른약국","tel":"031-377-9907","addr":"경기도 오산시 궐동 626-6번지 서윤빌딩 101호,102호","indutype":"약국 - 약국","category":"medical"},{"name":"화이트치과의원","tel":"031-378-2202","addr":"경기도 오산시 궐동 626-6번지","indutype":"의원 - 치과의원","category":"medical"}]},{"lat":"37.162838333","long":"127.05380363","imageIndex":8,"items":[{"name":"우리은혜약국","tel":"031-378-5206","addr":"경기도 오산시 궐동 611-3번지 에스에스프라자 1층 107호","indutype":"약국 - 약국","category":"medical"},{"name":"코아의원","tel":"031-372-7087","addr":"경기도 오산시 궐동 611-3번지 에스에스(SS)프라자 2층 201호","indutype":"의원 - 의원","category":"medical"}]},{"lat":"37.159945177","long":"127.05563673","imageIndex":8,"items":[{"name":"우리치과의원","tel":"031-372-2788","addr":"경기도 오산시 궐동 672-3번지 예림빌딩 2층","indutype":"의원 - 치과의원","category":"medical"}]},{"lat":"37.159971997","long":"127.05610959","imageIndex":8,"items":[{"name":"장씨삼대한의원","tel":"031-372-8575","addr":"경기도 오산시 궐동 670-1번지 3층","indutype":"의원 - 한의원","category":"medical"}]},{"lat":"37.163667352","long":"127.05366908","imageIndex":8,"items":[{"name":"주식회사 이지팜","tel":"031-376-2058","addr":"경기도 오산시 궐동 608-5번지 명문프라자 102동 104호","indutype":"약국 - 제약회사","category":"medical"}]},{"lat":"37.15885976","long":"127.06428196","imageIndex":8,"items":[{"name":"쥬만지동물병원","tel":"031-374-0275","addr":"경기도 오산시 궐동 586-13번지 1층","indutype":"기타의료기관 - 동물병원","category":"medical"}]},{"lat":"37.158861844","long":"127.06011658","imageIndex":8,"items":[{"name":"튼튼동물병원","tel":"031-372-8333","addr":"경기도 오산시 궐동 632-2번지 101호","indutype":"기타의료기관 - 동물병원","category":"medical"}]},{"lat":"37.160332389","long":"127.05616613","imageIndex":8,"items":[{"name":"하나치과의원","tel":"031-377-0428","addr":"경기도 오산시 궐동 619-1번지 2층","indutype":"의원 - 치과의원","category":"medical"}]}]