[{"lat":"37.802665928","long":"126.79770101","imageIndex":17,"items":[{"name":"동원생수유통","tel":"031-949-2295","addr":"경기도 파주시 파주읍 백석리 452","indutype":"유통업 영리 - 기타유통업","category":"other"}]},{"lat":"37.807445119","long":"126.81087153","imageIndex":17,"items":[{"name":"샤인아트","tel":"031-953-8005","addr":"경기도 파주시 파주읍 백석리 135-26번지","indutype":"서적문구 - 문구용품","category":"other"}]},{"lat":"37.810192377","long":"126.81608814","imageIndex":17,"items":[{"name":"세패스 (SEPES)","tel":"031-954-2393","addr":"경기도 파주시 파주읍 백석리 182번지","indutype":"기타 - 기계공구","category":"other"}]},{"lat":"37.810669722","long":"126.80495806","imageIndex":17,"items":[{"name":"신태양 농자재","tel":"031-942-4947","addr":"경기도 파주시 파주읍 백석리 399-34번지","indutype":"농업 - 기타농업관련","category":"other"}]},{"lat":"37.802944308","long":"126.79717792","imageIndex":17,"items":[{"name":"심야전기119(그린하우스)","tel":"031-948-3109","addr":"경기도 파주시 파주읍 백석리 451-1번지","indutype":"수리서비스 - 기타수리서비스","category":"other"}]},{"lat":"37.802503507","long":"126.8137003","imageIndex":17,"items":[{"name":"오떼르","tel":"02-3141-3803","addr":"경기도 파주시 파주읍 백석리 120-1","indutype":"신변잡화 - 기타잡화","category":"other"}]},{"lat":"37.807276282","long":"126.81231411","imageIndex":17,"items":[{"name":"윈터팩","tel":"070-4898-1572","addr":"경기도 파주시 파주읍 백석리 141-6번지","indutype":"문화.취미 - 애완동물","category":"other"}]},{"lat":"37.808615433","long":"126.81031207","imageIndex":17,"items":[{"name":"조르바하우스","tel":"","addr":"경기도 파주시 파주읍 백석리 143-14번지","indutype":"문화.취미 - 애완동물","category":"other"}]},{"lat":"37.806860723","long":"126.80614919","imageIndex":17,"items":[{"name":"주식회사 엔엘산업","tel":"031-949-7612","addr":"경기도 파주시 파주읍 백석리 402-1번지","indutype":"가구 - 일반가구","category":"other"}]},{"lat":"37.813276747","long":"126.81242361","imageIndex":17,"items":[{"name":"주식회사가구가든","tel":"031-954-0865","addr":"경기도 파주시 파주읍 백석리 218-3","indutype":"가구 - 일반가구","category":"other"}]},{"lat":"37.80622058","long":"126.82275236","imageIndex":17,"items":[{"name":"주식회사미주이앤지","tel":"031-953-3834","addr":"경기도 파주시 파주읍 백석리 69-3번지","indutype":"건축자재 - 기타건축자재","category":"other"}]},{"lat":"37.799471422","long":"126.79992393","imageIndex":17,"items":[{"name":"중부샤링","tel":"031-952-9218","addr":"경기도 파주시 파주읍 백석리 561-38번지","indutype":"건축자재 - 기타건축자재","category":"other"}]},{"lat":"37.801226551","long":"126.79893128","imageIndex":17,"items":[{"name":"케이솔텍","tel":"031-000-0000","addr":"경기도 파주시 파주읍 백석리 561-52번지","indutype":"기타 - 기계공구","category":"other"}]},{"lat":"37.80225412","long":"126.79406864","imageIndex":17,"items":[{"name":"테크롤","tel":"031-947-0943","addr":"경기도 파주시 파주읍 백석리 474번지","indutype":"건축자재 - 목재·석재·철물","category":"other"}]},{"lat":"37.80194774","long":"126.79403544","imageIndex":17,"items":[{"name":"파주타일","tel":"031-944-1486","addr":"경기도 파주시 파주읍 백석리 476번지","indutype":"건축자재 - 건축용 요업제품","category":"other"}]},{"lat":"37.809026169","long":"126.80806256","imageIndex":17,"items":[{"name":"풍성한가게","tel":"031-925-8570","addr":"경기도 파주시 파주읍 백석리 151-2번지","indutype":"의류 - 정장","category":"other"}]},{"lat":"37.800003326","long":"126.80542934","imageIndex":17,"items":[{"name":"허니시스템","tel":"","addr":"경기도 파주시 파주읍 백석리 431-20번지","indutype":"용역 서비스 - 기타용역서비스","category":"other"}]},{"lat":"37.799476605","long":"126.80295551","imageIndex":17,"items":[{"name":"황소이엔지","tel":"031-952-9589","addr":"경기도 파주시 파주읍 백석리 431-15번지","indutype":"기타 - 기계공구","category":"other"}]}]