[{"lat":"37.627276859","long":"127.20250481","imageIndex":17,"items":[{"name":"(사)경기도중소기업씨이오연합회 남양주지","tel":"031-592-7749","addr":"경기도 남양주시 금곡동 651-1번지 다남프라자 406호","indutype":"기타 - 비영리/비대상","category":"other"},{"name":"대신원예종묘","tel":"031-592-8887","addr":"경기도 남양주시 금곡동 651-1번지 다남프라자 411호","indutype":"문화.취미 - 화원","category":"other"},{"name":"더스카이 휘트니스","tel":"031-595-9198","addr":"경기도 남양주시 금곡동 651-1번지 다남프라자 210~212호","indutype":"회원제형태 - 레져업소","category":"other"},{"name":"문","tel":"031-511-5465","addr":"경기도 남양주시 금곡동 651-1번지 다남프라자 105호","indutype":"의류 - 기타의류","category":"other"},{"name":"블루스카이","tel":"031-594-6755","addr":"경기도 남양주시 금곡동 651-1번지 다남프라자 412호","indutype":"신변잡화 - 기타잡화","category":"other"},{"name":"비손음악학원","tel":"031-591-3619","addr":"경기도 남양주시 금곡동 651-1번지 다남프라자 413호","indutype":"회원제형태 - 기타4","category":"other"},{"name":"씨유다남프라자점","tel":"031-559-7604","addr":"경기도 남양주시 금곡동 651-1번지 다남프라자 107호","indutype":"유통업 영리 - 편 의 점","category":"other"},{"name":"우성중기","tel":"031-593-9661","addr":"경기도 남양주시 금곡동 651-1번지 다남프라자 402호","indutype":"기타 - 기계공구","category":"other"},{"name":"진접토건","tel":"031-554-6008","addr":"경기도 남양주시 금곡동 651-1번지 다남프라자 402호","indutype":"기타 - 기계공구","category":"other"},{"name":"천마건설중기","tel":"031-591-4300","addr":"경기도 남양주시 금곡동 651-1번지 다남프라자 402호","indutype":"기타 - 기계공구","category":"other"},{"name":"춘양건기","tel":"031-542-8993","addr":"경기도 남양주시 금곡동 651-1번지 다남프라자 402호","indutype":"기타 - 기계공구","category":"other"},{"name":"춘양건기","tel":"031-559-6677","addr":"경기도 남양주시 금곡동 651-1번지 다남프라자 4층 402호","indutype":"기타 - 기계공구","category":"other"},{"name":"크린토피아(금곡다남프라자점)","tel":"031-592-5377","addr":"경기도 남양주시 금곡동 651-1번지 다남프라자 108호","indutype":"수리서비스 - 세탁소","category":"other"},{"name":"태웅건축사사무소","tel":"031-592-1097","addr":"경기도 남양주시 금곡동 651-1번지 외10필지다남프라자 312호","indutype":"용역 서비스 - 사무서비스","category":"other"},{"name":"피아노디스커버리","tel":"080-011-7700","addr":"경기도 남양주시 금곡동 651-1번지 다남프라자 302호","indutype":"레져용품 - 악기점","category":"other"}]},{"lat":"37.632641353","long":"127.20561194","imageIndex":17,"items":[{"name":"(사)중소기업융합다산교류회","tel":"031-511-7939","addr":"경기도 남양주시 금곡동 434-10번지 2층","indutype":"기타 - 비영리/비대상","category":"other"}]},{"lat":"37.624893576","long":"127.19994971","imageIndex":17,"items":[{"name":"(주)가인렌트카금곡영업소","tel":"02-413-1668","addr":"경기도 남양주시 금곡동 606번지","indutype":"여행 - 렌터카","category":"other"},{"name":"금강기획","tel":"031-592-3737","addr":"경기도 남양주시 금곡동 606번지","indutype":"용역 서비스 - 종합용역","category":"other"}]},{"lat":"37.634223515","long":"127.2076668","imageIndex":17,"items":[{"name":"(주)나누리","tel":"031-511-3588","addr":"경기도 남양주시 금곡동 416-1번지 금곡프라자 502호","indutype":"문화.취미 - 민예·공예품","category":"other"},{"name":"금곡햇살요양원","tel":"031-593-7333","addr":"경기도 남양주시 금곡동 416-1번지 금곡프라자 401호","indutype":"기타의료기관 - 기타의료기관 및 기타","category":"other"},{"name":"금곡힐링 샵","tel":"031-511-9396","addr":"경기도 남양주시 금곡동 416-1번지 금곡프라자 501호","indutype":"회원제형태 - 기타4","category":"other"},{"name":"엘레강스","tel":"031-591-8833","addr":"경기도 남양주시 금곡동 416-1번지 금곡프라자 1층103호","indutype":"의류 - 정장","category":"other"},{"name":"엘레강스","tel":"031-591-8833","addr":"경기도 남양주시 금곡동 416-1번지 금곡프라자 103호","indutype":"의류 - 내의판매","category":"other"}]},{"lat":"37.634835778","long":"127.20789506","imageIndex":17,"items":[{"name":"(주)다사랑실버케어 남양주센터","tel":"031-511-2067","addr":"경기도 남양주시 금곡동 402-4번지 좋은인상프라자 424호","indutype":"기타의료기관 - 기타의료기관 및 기타","category":"other"},{"name":"명지도서","tel":"031-595-5540","addr":"경기도 남양주시 금곡동 402-4번지 좋은인상프라자","indutype":"서적문구 - 일반서적","category":"other"},{"name":"삼성게임프라자","tel":"031-592-2087","addr":"경기도 남양주시 금곡동 402-4번지","indutype":"서적문구 - 완구점","category":"other"},{"name":"좋은인상","tel":"031-592-4605","addr":"경기도 남양주시 금곡동 402-4번지 좋은인상프라자","indutype":"회원제형태 - 레져업소","category":"other"}]},{"lat":"37.623000666","long":"127.20577832","imageIndex":17,"items":[{"name":"(주)다인퍼스트","tel":"031-595-4330","addr":"경기도 남양주시 금곡동 494번지","indutype":"신변잡화 - 기타잡화","category":"other"}]},{"lat":"37.636309749","long":"127.22483658","imageIndex":17,"items":[{"name":"(주)동암바이오","tel":"070-8869-9346","addr":"경기도 남양주시 금곡동 산14-1번지","indutype":"문화.취미 - 화원","category":"other"}]},{"lat":"37.632562033","long":"127.2045808","imageIndex":17,"items":[{"name":"(주)미금유선방송","tel":"031-591-9577","addr":"경기도 남양주시 금곡동 433-20번지 3층","indutype":"용역 서비스 - CATV","category":"other"}]},{"lat":"37.632254832","long":"127.20508976","imageIndex":17,"items":[{"name":"(주)베스트항공여행사","tel":"031-592-8226","addr":"경기도 남양주시 금곡동 433-3번지 삼익빌딩 3층 302호","indutype":"여행 - 관광여행","category":"other"},{"name":"사단법인남양주청년회의소","tel":"031-592-2146","addr":"경기도 남양주시 금곡동 433-3번지 삼익빌딩 3층","indutype":"기타 - 비영리/대상","category":"other"}]},{"lat":"37.636109677","long":"127.21102547","imageIndex":17,"items":[{"name":"(주)성원조경","tel":"031-594-6593","addr":"경기도 남양주시 금곡동 159-66번지 한울음악학원 9호","indutype":"용역 서비스 - 기타용역서비스","category":"other"},{"name":"명품자연세탁소","tel":"031-592-5410","addr":"경기도 남양주시 금곡동 159-66번지","indutype":"수리서비스 - 세탁소","category":"other"},{"name":"이마트24 남양주금곡점","tel":"02-000-0000","addr":"경기도 남양주시 금곡동 159-66번지","indutype":"유통업 영리 - 편 의 점","category":"other"},{"name":"정직한종합설비","tel":"031-528-1249","addr":"경기도 남양주시 금곡동 159-66번지 한울음악학원 1층 3호","indutype":"용역 서비스 - 기타용역서비스","category":"other"}]},{"lat":"37.634478527","long":"127.20608142","imageIndex":17,"items":[{"name":"(주)세원렌트카","tel":"031-559-0027","addr":"경기도 남양주시 금곡동 404-4번지","indutype":"여행 - 렌터카","category":"other"}]},{"lat":"37.623698016","long":"127.2036733","imageIndex":17,"items":[{"name":"(주)씨앤필","tel":"031-577-1657","addr":"경기도 남양주시 금곡동 566-8번지","indutype":"신변잡화 - 기타잡화","category":"other"}]},{"lat":"37.633946797","long":"127.21133665","imageIndex":17,"items":[{"name":"(주)알엔에이비즈","tel":"031-592-1562","addr":"경기도 남양주시 금곡동 153-6번지","indutype":"회원제형태 - 기타4","category":"other"}]},{"lat":"37.637640344","long":"127.21661524","imageIndex":17,"items":[{"name":"(주)와라닷컴","tel":"031-111-1111","addr":"경기도 남양주시 금곡동 205-27번지 외 1필지 주건축물제 1동","indutype":"전기제품 - 가전제품","category":"other"}]},{"lat":"37.633804887","long":"127.19953141","imageIndex":17,"items":[{"name":"(주)완소","tel":"031-594-2231","addr":"경기도 남양주시 금곡동 694-15번지","indutype":"의류 - 정장","category":"other"},{"name":"대성설비","tel":"031-541-0806","addr":"경기도 남양주시 금곡동 694-15번지","indutype":"용역 서비스 - 기타용역서비스","category":"other"}]},{"lat":"37.619143236","long":"127.2116691","imageIndex":17,"items":[{"name":"(주)지후앤산업","tel":"031-574-5634","addr":"경기도 남양주시 금곡동 64번지","indutype":"전기제품 - 냉열기기","category":"other"},{"name":"정우산업","tel":"031-595-7720","addr":"경기도 남양주시 금곡동 64번지","indutype":"기타 - 기계공구","category":"other"}]},{"lat":"37.624086705","long":"127.20817139","imageIndex":17,"items":[{"name":"(주)하나관광","tel":"070-4327-9299","addr":"경기도 남양주시 금곡동 463번지 약수터가든 302호","indutype":"여행 - 관광여행","category":"other"}]},{"lat":"37.633526784","long":"127.20416423","imageIndex":17,"items":[{"name":"(주)하나로이동통신","tel":"031-592-0058","addr":"경기도 남양주시 금곡동 682-30번지","indutype":"사무통신 - 통신기기","category":"other"},{"name":"(주)하나로이동통신_PS","tel":"031-592-0058","addr":"경기도 남양주시 금곡동 682-30번지","indutype":"사무통신 - 통신기기","category":"other"},{"name":"금곡요양원","tel":"031-511-2929","addr":"경기도 남양주시 금곡동 682-30번지","indutype":"기타의료기관 - 기타의료기관 및 기타","category":"other"}]},{"lat":"37.633976995","long":"127.20953542","imageIndex":17,"items":[{"name":"(주)하나로이동통신/특별할부","tel":"031-592-0058","addr":"경기도 남양주시 금곡동 423-21번지 은하빌딩 1층 SK텔레콤","indutype":"사무통신 - 통신기기(무이자할부)","category":"other"}]},{"lat":"37.635888597","long":"127.21375523","imageIndex":17,"items":[{"name":"ALP","tel":"070-4144-2410","addr":"경기도 남양주시 금곡동 158-1번지 삼정빌딩 405호","indutype":"가구 - 기타가구","category":"other"},{"name":"삼신건축사사무소","tel":"031-591-4412","addr":"경기도 남양주시 금곡동 158-1번지 삼정빌딩 402호","indutype":"용역 서비스 - 법률회계서비스(개인)","category":"other"},{"name":"주식회사나라측량설계","tel":"031-591-1188","addr":"경기도 남양주시 금곡동 158-1번지","indutype":"용역 서비스 - 사무서비스","category":"other"},{"name":"코아교재","tel":"031-592-2392","addr":"경기도 남양주시 금곡동 158-1번지 삼정빌딩 101호","indutype":"서적문구 - 문구용품","category":"other"}]},{"lat":"37.634388771","long":"127.21105466","imageIndex":17,"items":[{"name":"DB CHEM","tel":"031-592-2971","addr":"경기도 남양주시 금곡동 153-1 센타프라자 202","indutype":"서적문구 - 과학기자재","category":"other"},{"name":"나봄투(NABOM2)","tel":"031-593-9284","addr":"경기도 남양주시 금곡동 153-1번지 센타프라자 3층 2호","indutype":"의류 - 정장","category":"other"},{"name":"디플러스(D+)도담요양원","tel":"031-594-5551","addr":"경기도 남양주시 금곡동 153-1번지 센타프라자 6층 601호","indutype":"기타의료기관 - 기타의료기관 및 기타","category":"other"},{"name":"법무사최건규사무소","tel":"031-591-4854","addr":"경기도 남양주시 금곡동 153-1번지","indutype":"용역 서비스 - 법률회계서비스(개인)","category":"other"},{"name":"에넥스 남양주점","tel":"031-594-2778","addr":"경기도 남양주시 금곡동 153-1번지 센타프라자 3층 305호","indutype":"가구 - 일반가구","category":"other"},{"name":"핑크걸","tel":"031-515-2112","addr":"경기도 남양주시 금곡동 153-1번지 센타프라자 302호","indutype":"의류 - 정장","category":"other"}]},{"lat":"37.63466827","long":"127.21094215","imageIndex":17,"items":[{"name":"DC땡백화점","tel":"031-593-6999","addr":"경기도 남양주시 금곡동 158-20번지 세화빌딩 G동 1층 2호","indutype":"신변잡화 - 기타잡화","category":"other"},{"name":"골드샤인","tel":"031-592-3406","addr":"경기도 남양주시 금곡동 158-20번지 세화빌딩 1층 1호","indutype":"신변잡화 - 귀금속","category":"other"},{"name":"포토랜드","tel":"031-591-3570","addr":"경기도 남양주시 금곡동 158-20번지","indutype":"광학제품 - 사진관","category":"other"}]},{"lat":"37.624340257","long":"127.20216846","imageIndex":17,"items":[{"name":"GS25금곡로드점","tel":"","addr":"경기도 남양주시 금곡동 638-7번지 5호GS25 금곡로드점","indutype":"유통업 영리 - 편 의 점","category":"other"},{"name":"창대철물공구","tel":"031-515-3333","addr":"경기도 남양주시 금곡동 638-7번지","indutype":"기타 - 기계공구","category":"other"}]},{"lat":"37.632060403","long":"127.2028688","imageIndex":17,"items":[{"name":"GS25금곡승민점","tel":"","addr":"경기도 남양주시 금곡동 678-32번지 대림하이츠 2동 101호","indutype":"유통업 영리 - 편 의 점","category":"other"}]},{"lat":"37.621670604","long":"127.20380378","imageIndex":17,"items":[{"name":"KY 시스템","tel":"02-0000-0000","addr":"경기도 남양주시 금곡동 584-2번지","indutype":"전기제품 - 가전제품","category":"other"},{"name":"진영공조 시스템","tel":"","addr":"경기도 남양주시 금곡동 584-2번지","indutype":"전기제품 - 냉열기기","category":"other"}]},{"lat":"37.633444729","long":"127.20473046","imageIndex":17,"items":[{"name":"LG금곡중앙대리점","tel":"031-591-4477","addr":"경기도 남양주시 금곡동 432-30번지","indutype":"전기제품 - 가전제품","category":"other"}]},{"lat":"37.630169062","long":"127.20245591","imageIndex":17,"items":[{"name":"NAME-ez","tel":"031-556-3857","addr":"경기도 남양주시 금곡동 678-65 이레화인빌 A-303","indutype":"사무통신 - 컴퓨터","category":"other"}]},{"lat":"37.635031086","long":"127.20956099","imageIndex":17,"items":[{"name":"S.M미디어","tel":"031-575-4715","addr":"경기도 남양주시 금곡동 159-33번지","indutype":"유통업 영리 - 기타유통업","category":"other"}]},{"lat":"37.641333316","long":"127.2070065","imageIndex":17,"items":[{"name":"VAN-PRO","tel":"","addr":"경기도 남양주시 금곡동 381-4번지","indutype":"여행 - 렌터카","category":"other"}]},{"lat":"37.636025922","long":"127.21253204","imageIndex":17,"items":[{"name":"ZIP인테리어","tel":"070-7435-3993","addr":"경기도 남양주시 금곡동 159-75번지 2층","indutype":"건축자재 - 인테리어전문","category":"other"},{"name":"아직 난 예쁘다","tel":"02-000-0000","addr":"경기도 남양주시 금곡동 159-75번지","indutype":"의류 - 정장","category":"other"}]},{"lat":"37.639503629","long":"127.2074207","imageIndex":17,"items":[{"name":"가구앤퍼니","tel":"031-511-5728","addr":"경기도 남양주시 금곡동 390-6번지 외 2필지","indutype":"가구 - 일반가구","category":"other"}]},{"lat":"37.633697563","long":"127.19905531","imageIndex":17,"items":[{"name":"가온PC","tel":"070-4623-6001","addr":"경기도 남양주시 금곡동 694-2번지 2층 203호","indutype":"사무통신 - 컴퓨터","category":"other"}]},{"lat":"37.634775651","long":"127.20619552","imageIndex":17,"items":[{"name":"감탄","tel":"","addr":"경기도 남양주시 금곡동 404-168번지 두승5차 203호","indutype":"용역 서비스 - 종합용역","category":"other"}]},{"lat":"37.63408175","long":"127.20628426","imageIndex":17,"items":[{"name":"강아지엄마","tel":"031-593-3837","addr":"경기도 남양주시 금곡동 404-40번지","indutype":"문화.취미 - 애완동물","category":"other"},{"name":"대동지물장식","tel":"031-592-8354","addr":"경기도 남양주시 금곡동 404-40번지","indutype":"의류 - 아동의류","category":"other"},{"name":"만성","tel":"031-591-7111","addr":"경기도 남양주시 금곡동 404-40번지","indutype":"건축자재 - 목재·석재·철물","category":"other"}]},{"lat":"37.63391932","long":"127.20114044","imageIndex":17,"items":[{"name":"강희산업","tel":"031-592-7514","addr":"경기도 남양주시 금곡동 산78-11번지","indutype":"건축자재 - 기타건축자재","category":"other"}]},{"lat":"37.642640578","long":"127.21669754","imageIndex":17,"items":[{"name":"건영우드","tel":"031-591-8752","addr":"경기도 남양주시 금곡동 234-2번지 2층","indutype":"건축자재 - 인테리어전문","category":"other"}]},{"lat":"37.634697966","long":"127.20942412","imageIndex":17,"items":[{"name":"경기동부환경운동협의회친환경사업단","tel":"031-591-1094","addr":"경기도 남양주시 금곡동 421-10번지 1층","indutype":"신변잡화 - 기타잡화","category":"other"}]},{"lat":"37.633783942","long":"127.21172138","imageIndex":17,"items":[{"name":"경문아트스쿨어린이집","tel":"031-592-3906","addr":"경기도 남양주시 금곡동 154-7번지","indutype":"기타 - 비영리/대상","category":"other"}]},{"lat":"37.629283671","long":"127.20389224","imageIndex":17,"items":[{"name":"골드림","tel":"031-592-6136","addr":"경기도 남양주시 금곡동 454-21번지 강남상가 101호","indutype":"의류 - 내의판매","category":"other"}]},{"lat":"37.634614791","long":"127.21061345","imageIndex":17,"items":[{"name":"공간종합장식","tel":"031-592-3710","addr":"경기도 남양주시 금곡동 157-5번지 금곡빌딩 102호","indutype":"직물 - 카페트,커튼,천막,지물","category":"other"},{"name":"여우비","tel":"031-591-8768","addr":"경기도 남양주시 금곡동 157-5번지 금곡빌딩 101호","indutype":"의류 - 정장","category":"other"},{"name":"피노키오","tel":"031-592-7244","addr":"경기도 남양주시 금곡동 157-5번지","indutype":"신변잡화 - 신발","category":"other"},{"name":"피노키오","tel":"031-592-4475","addr":"경기도 남양주시 금곡동 157-5번지","indutype":"신변잡화 - 신발","category":"other"}]},{"lat":"37.63350476","long":"127.20649794","imageIndex":17,"items":[{"name":"공용공구모타","tel":"031-559-5645","addr":"경기도 남양주시 금곡동 430-26번지","indutype":"건축자재 - 보일러·펌프·샷시","category":"other"},{"name":"캐리어남양주센타","tel":"031-572-0041","addr":"경기도 남양주시 금곡동 430-26번지 보성빌딩 102호","indutype":"전기제품 - 냉열기기","category":"other"}]},{"lat":"37.633336671","long":"127.20469618","imageIndex":17,"items":[{"name":"광림유통","tel":"031-577-2850","addr":"경기도 남양주시 금곡동 432-8번지 ,432-14,432-8","indutype":"레져용품 - 스포츠·레져용품","category":"other"},{"name":"소망유통","tel":"031-559-5300","addr":"경기도 남양주시 금곡동 432-8번지","indutype":"레져용품 - 스포츠·레져용품","category":"other"}]},{"lat":"37.636060872","long":"127.21314393","imageIndex":17,"items":[{"name":"광성철물건재","tel":"031-592-7199","addr":"경기도 남양주시 금곡동 158-28번지","indutype":"건축자재 - 목재·석재·철물","category":"other"},{"name":"연아트","tel":"031-528-6263","addr":"경기도 남양주시 금곡동 158-28번지 1층 4호","indutype":"신변잡화 - 기타잡화","category":"other"},{"name":"참인테리어","tel":"031-592-8203","addr":"경기도 남양주시 금곡동 158-28번지","indutype":"직물 - 카페트,커튼,천막,지물","category":"other"}]},{"lat":"37.634862829","long":"127.2130046","imageIndex":17,"items":[{"name":"광천사우나","tel":"031-511-6819","addr":"경기도 남양주시 금곡동 158-10번지","indutype":"회원제형태 - 기타4","category":"other"},{"name":"디케이싱크대(DK싱크대)","tel":"","addr":"경기도 남양주시 금곡동 158-10번지 1층 15,16호","indutype":"주방용구 - 주방용구","category":"other"},{"name":"로엔디자인","tel":"031-591-7900","addr":"경기도 남양주시 금곡동 158-10번지 1층 13-14호","indutype":"건축자재 - 인테리어전문","category":"other"},{"name":"봉구시스템","tel":"031-524-9949","addr":"경기도 남양주시 금곡동 158-10번지 금곡종합상가 1층 10호","indutype":"건축자재 - 인테리어전문","category":"other"},{"name":"수진쥬얼리","tel":"","addr":"경기도 남양주시 금곡동 158-10번지 1층","indutype":"신변잡화 - 액세서리","category":"other"},{"name":"프라임2","tel":"","addr":"경기도 남양주시 금곡동 158-10번지 금곡종합상가 외6필지 9호","indutype":"광학제품 - 사진관","category":"other"},{"name":"한들시스템","tel":"031-511-8983","addr":"경기도 남양주시 금곡동 158-10번지 1층 102호,103호,112로","indutype":"건축자재 - 기타건축자재","category":"other"}]},{"lat":"37.635782482","long":"127.20750114","imageIndex":17,"items":[{"name":"구남스포츠 맥스스포츠","tel":"031-1111-1111","addr":"경기도 남양주시 금곡동 404-111번지 1층","indutype":"레져용품 - 스포츠·레져용품","category":"other"}]},{"lat":"37.633832203","long":"127.20469752","imageIndex":17,"items":[{"name":"구리교차로(주)","tel":"031-595-9200","addr":"경기도 남양주시 금곡동 700-32번지 3층","indutype":"서적문구 - 정기간행물","category":"other"}]},{"lat":"37.635863607","long":"127.21261089","imageIndex":17,"items":[{"name":"구제멀티샵","tel":"031-599-3692","addr":"경기도 남양주시 금곡동 158-54번지","indutype":"의류 - 기타의류","category":"other"},{"name":"네오","tel":"031-593-5931","addr":"경기도 남양주시 금곡동 158-54번지","indutype":"의류 - 정장","category":"other"},{"name":"솜사탕","tel":"070-3371-2358","addr":"경기도 남양주시 금곡동 158-54번지 좌측 2번째 상가 1층","indutype":"의류 - 정장","category":"other"},{"name":"야발","tel":"031-513-4180","addr":"경기도 남양주시 금곡동 158-54번지","indutype":"신변잡화 - 신발","category":"other"}]},{"lat":"37.633194545","long":"127.20350626","imageIndex":17,"items":[{"name":"금강보청기","tel":"031-511-0770","addr":"경기도 남양주시 금곡동 682-17번지","indutype":"기타의료기관 - 기타의료기관 및 기타","category":"other"}]},{"lat":"37.625280387","long":"127.20031322","imageIndex":17,"items":[{"name":"금곡그린","tel":"031-511-7102","addr":"경기도 남양주시 금곡동 659번지","indutype":"레져용품 - 스포츠·레져용품","category":"other"},{"name":"씨유금곡로드점","tel":"031-594-8740","addr":"경기도 남양주시 금곡동 659번지 1층","indutype":"유통업 영리 - 편 의 점","category":"other"}]},{"lat":"37.634030715","long":"127.20972816","imageIndex":17,"items":[{"name":"금곡꽃화원","tel":"031-592-4310","addr":"경기도 남양주시 금곡동 423-17번지","indutype":"문화.취미 - 화원","category":"other"}]},{"lat":"37.632001667","long":"127.2056102","imageIndex":17,"items":[{"name":"금곡동사무소","tel":"031-590-8237","addr":"경기도 남양주시 금곡동 434-12번지 금곡동사무소","indutype":"용역 서비스 - 사무서비스","category":"other"}]},{"lat":"37.625586261","long":"127.2005859","imageIndex":17,"items":[{"name":"금곡동주민자치위원회","tel":"031-595-6226","addr":"경기도 남양주시 금곡동 654-2번지 1층","indutype":"문화.취미 - 문화취미기타","category":"other"}]},{"lat":"37.634561371","long":"127.21025077","imageIndex":17,"items":[{"name":"금곡수족관","tel":"031-592-7812","addr":"경기도 남양주시 금곡동 422번지","indutype":"문화.취미 - 수족관","category":"other"},{"name":"폼나리","tel":"031-851-9675","addr":"경기도 남양주시 금곡동 422번지","indutype":"의류 - 정장","category":"other"}]},{"lat":"37.634748217","long":"127.21158813","imageIndex":17,"items":[{"name":"금곡열쇠","tel":"031-592-1304","addr":"경기도 남양주시 금곡동 158-59번지","indutype":"건축자재 - 목재·석재·철물","category":"other"}]},{"lat":"37.63479283","long":"127.20668272","imageIndex":17,"items":[{"name":"금곡전자","tel":"031-000-0000","addr":"경기도 남양주시 금곡동 404-255번지 신부영주택 103동 101호","indutype":"전기제품 - 냉열기기","category":"other"}]},{"lat":"37.634395012","long":"127.21261809","imageIndex":17,"items":[{"name":"금곡체육사","tel":"031-592-5214","addr":"경기도 남양주시 금곡동 154-23번지","indutype":"레져용품 - 스포츠·레져용품","category":"other"}]},{"lat":"37.641445647","long":"127.21483597","imageIndex":17,"items":[{"name":"금성냉동","tel":"031-511-5002","addr":"경기도 남양주시 금곡동 319번지","indutype":"전기제품 - 냉열기기","category":"other"},{"name":"명림씽크","tel":"031-511-8921","addr":"경기도 남양주시 금곡동 319번지 1층","indutype":"가구 - 일반가구","category":"other"}]},{"lat":"37.632748234","long":"127.20103536","imageIndex":17,"items":[{"name":"금성목공기계","tel":"031-572-0061","addr":"경기도 남양주시 금곡동 687-10","indutype":"기타 - 기계공구","category":"other"}]},{"lat":"37.642583702","long":"127.21325295","imageIndex":17,"items":[{"name":"금호냉동","tel":"031-511-4611","addr":"경기도 남양주시 금곡동 263-2번지 1층","indutype":"수리서비스 - 가정용품수리","category":"other"}]},{"lat":"37.634945406","long":"127.21216647","imageIndex":17,"items":[{"name":"길패션","tel":"031-592-1529","addr":"경기도 남양주시 금곡동 158-14번지 중앙상가 길패션","indutype":"의류 - 정장","category":"other"},{"name":"배호일세무회계사무소","tel":"031-592-6337","addr":"경기도 남양주시 금곡동 158-14번지 만복빌딩 303호","indutype":"용역 서비스 - 법률회계서비스(개인)","category":"other"},{"name":"에덴","tel":"031-592-3547","addr":"경기도 남양주시 금곡동 158-14번지","indutype":"신변잡화 - 시계","category":"other"},{"name":"연성엔지니어링","tel":"031-592-9411","addr":"경기도 남양주시 금곡동 158-14번지 미금중앙종합상가 2층 7-2호","indutype":"기타 - 기계공구","category":"other"},{"name":"영창피아노남양주대리점","tel":"031-592-1771","addr":"경기도 남양주시 금곡동 158-14번지","indutype":"레져용품 - 악기점","category":"other"},{"name":"장미주단","tel":"031-592-0722","addr":"경기도 남양주시 금곡동 158-14번지","indutype":"직물 - 침구·수예점","category":"other"},{"name":"화영플라워","tel":"031-592-7319","addr":"경기도 남양주시 금곡동 158-14번지 만복빌딩 305호","indutype":"문화.취미 - 화원","category":"other"}]},{"lat":"37.634723016","long":"127.21560992","imageIndex":17,"items":[{"name":"꽃마음","tel":"031-514-2719","addr":"경기도 남양주시 금곡동 152-160번지 꽃마을플라워","indutype":"문화.취미 - 화원","category":"other"},{"name":"솔솔플라워 아뜰리에","tel":"","addr":"경기도 남양주시 금곡동 152-160번지","indutype":"문화.취미 - 화원","category":"other"}]},{"lat":"37.632638538","long":"127.19656018","imageIndex":17,"items":[{"name":"꽃풍경","tel":"031-591-9597","addr":"경기도 남양주시 금곡동 758-5번지","indutype":"문화.취미 - 화원","category":"other"},{"name":"미스플라워","tel":"031-591-9597","addr":"경기도 남양주시 금곡동 758-5번지","indutype":"문화.취미 - 화원","category":"other"}]},{"lat":"37.631831428","long":"127.19973013","imageIndex":17,"items":[{"name":"꽃피는산골","tel":"031-592-7359","addr":"경기도 남양주시 금곡동 690번지","indutype":"문화.취미 - 화원","category":"other"}]},{"lat":"37.632392356","long":"127.20369669","imageIndex":17,"items":[{"name":"나무향가득 공방","tel":"070-8718-8792","addr":"경기도 남양주시 금곡동 산108-1번지 인정프린스 상가 201호","indutype":"가구 - 일반가구","category":"other"},{"name":"원일산업사","tel":"031-592-2114","addr":"경기도 남양주시 금곡동 산108-1번지 인정 상가 101호","indutype":"기타 - 기타 전문점","category":"other"},{"name":"이엔에프(E&F)","tel":"031-595-2039","addr":"경기도 남양주시 금곡동 산108-1번지 인정프린스 상가동 201호","indutype":"가구 - 일반가구","category":"other"},{"name":"주식회사 제이와이네트웍스","tel":"031-511-9733","addr":"경기도 남양주시 금곡동 산108-1번지 인정프린스 상가동 1층 1호","indutype":"주방용구 - 주방용구","category":"other"}]},{"lat":"37.624173018","long":"127.21033519","imageIndex":17,"items":[{"name":"남양데코","tel":"031-566-3583","addr":"경기도 남양주시 금곡동 127-2번지","indutype":"직물 - 침구·수예점","category":"other"}]},{"lat":"37.63355844","long":"127.21186803","imageIndex":17,"items":[{"name":"남양스포츠","tel":"031-511-7207","addr":"경기도 남양주시 금곡동 152-76번지 동보주택 102호","indutype":"레져용품 - 스포츠·레져용품","category":"other"}]},{"lat":"37.635001629","long":"127.19500288","imageIndex":17,"items":[{"name":"남양에어컨","tel":"031-591-6134","addr":"경기도 남양주시 금곡동 761-1번지","indutype":"전기제품 - 냉열기기","category":"other"}]},{"lat":"37.633695506","long":"127.21078083","imageIndex":17,"items":[{"name":"남양주라이온스클럽","tel":"031-592-3950","addr":"경기도 남양주시 금곡동 156-7번지 대원빌딩 3층","indutype":"기타 - 비영리/대상","category":"other"},{"name":"대흥건축사사무소","tel":"031-592-2283","addr":"경기도 남양주시 금곡동 156-7번지 대월빌딩 301호","indutype":"용역 서비스 - 법률회계서비스(개인)","category":"other"},{"name":"아셀","tel":"","addr":"경기도 남양주시 금곡동 156-7번지 병지빌딩 4층 401호","indutype":"용역 서비스 - 종합용역","category":"other"},{"name":"주식회사대한기업","tel":"031-592-0677","addr":"경기도 남양주시 금곡동 156-7번지 병지빌딩 3층","indutype":"용역 서비스 - 종합용역","category":"other"},{"name":"최종완법무사사무소","tel":"031-592-9966","addr":"경기도 남양주시 금곡동 156-7번지","indutype":"용역 서비스 - 법률회계서비스(개인)","category":"other"}]},{"lat":"37.634164607","long":"127.21044226","imageIndex":17,"items":[{"name":"남양주백합로타리클럽","tel":"031-591-1991","addr":"경기도 남양주시 금곡동 156-40번지 양주빌딩 401호","indutype":"기타 - 비영리/비대상","category":"other"}]},{"lat":"37.635221538","long":"127.21394594","imageIndex":17,"items":[{"name":"남양주서비스","tel":"031-0000-0000","addr":"경기도 남양주시 금곡동 158-66번지 301호","indutype":"수리서비스 - 기타수리서비스","category":"other"},{"name":"아트플러스","tel":"031-568-5913","addr":"경기도 남양주시 금곡동 158-66번지 304호","indutype":"신변잡화 - 기타잡화","category":"other"},{"name":"탑디자인","tel":"031-592-1150","addr":"경기도 남양주시 금곡동 158-66번지 1층 1호","indutype":"건축자재 - 인테리어전문","category":"other"}]},{"lat":"37.633779911","long":"127.20888912","imageIndex":17,"items":[{"name":"남양주시의사회","tel":"031-511-0714","addr":"경기도 남양주시 금곡동 427-19번지","indutype":"기타 - 기타 전문점","category":"other"},{"name":"드림디포(금곡점)","tel":"031-511-6842","addr":"경기도 남양주시 금곡동 427-19번지","indutype":"서적문구 - 문구용품","category":"other"},{"name":"휴안채요양원","tel":"031-593-5159","addr":"경기도 남양주시 금곡동 427-19번지","indutype":"기타의료기관 - 기타의료기관 및 기타","category":"other"}]},{"lat":"37.626838987","long":"127.20036266","imageIndex":17,"items":[{"name":"남양주시장애인복지관","tel":"031-592-7150","addr":"경기도 남양주시 금곡동 615-10번지","indutype":"기타의료기관 - 기타의료기관 및 기타","category":"other"},{"name":"남양주시장애인복지관","tel":"031-592-7150","addr":"경기도 남양주시 금곡동 615-10번지","indutype":"기타의료기관 - 기타의료기관 및 기타","category":"other"},{"name":"남양주시장애인복지관","tel":"031-592-7150","addr":"경기도 남양주시 금곡동 615-10번지","indutype":"기타의료기관 - 기타의료기관 및 기타","category":"other"}]},{"lat":"37.635667885","long":"127.21624705","imageIndex":17,"items":[{"name":"남양주시청 (남양주 유기농테마파크)","tel":"031-560-1471","addr":"경기도 남양주시 금곡동 185-10번지 남양주시청제1청사","indutype":"문화.취미 - 티켓","category":"other"},{"name":"남양주시청/남양주몽골문화촌","tel":"031-590-4597","addr":"경기도 남양주시 금곡동 185-10번지","indutype":"문화.취미 - 티켓","category":"other"}]},{"lat":"37.635366738","long":"127.20824773","imageIndex":17,"items":[{"name":"남양주철물건재","tel":"031-591-1994","addr":"경기도 남양주시 금곡동 406-49번지","indutype":"건축자재 - 목재·석재·철물","category":"other"}]},{"lat":"37.637888182","long":"127.22391224","imageIndex":17,"items":[{"name":"남양주헤펠레공방","tel":"031-7715-0808","addr":"경기도 남양주시 금곡동 4-5번지 1동","indutype":"가구 - 일반가구","category":"other"},{"name":"안심전기조명","tel":"031-564-3304","addr":"경기도 남양주시 금곡동 4-5번지","indutype":"전기제품 - 기타전기제품","category":"other"}]},{"lat":"37.637588904","long":"127.2151649","imageIndex":17,"items":[{"name":"남양컴AS","tel":"031-591-6341","addr":"경기도 남양주시 금곡동 172-22번지","indutype":"사무통신 - 컴퓨터","category":"other"},{"name":"세븐일레븐금곡한림점","tel":"","addr":"경기도 남양주시 금곡동 172-22번지 1층","indutype":"유통업 영리 - 편 의 점","category":"other"}]},{"lat":"37.626361663","long":"127.20024811","imageIndex":17,"items":[{"name":"다몬전기통신공사","tel":"031-577-7757","addr":"경기도 남양주시 금곡동 614번지","indutype":"사무통신 - 컴퓨터","category":"other"},{"name":"대산토건주식회사","tel":"031-573-1103","addr":"경기도 남양주시 금곡동 614번지 4층","indutype":"용역 서비스 - 기타용역서비스","category":"other"}]},{"lat":"37.634143144","long":"127.21239081","imageIndex":17,"items":[{"name":"다산기획","tel":"031-559-6151","addr":"경기도 남양주시 금곡동 152-57번지 1층","indutype":"용역 서비스 - 종합용역","category":"other"}]},{"lat":"37.636781295","long":"127.20822896","imageIndex":17,"items":[{"name":"다산노동컨설팅","tel":"031-595-2509","addr":"경기도 남양주시 금곡동 404-15번지 서전빌딩 B동 202호","indutype":"용역 서비스 - 법률회계서비스(개인)","category":"other"},{"name":"사랑방미라보부동산","tel":"031-591-1250","addr":"경기도 남양주시 금곡동 404-15번지 서진빌딩 B동 101호","indutype":"용역 서비스 - 부동산 중개·임대","category":"other"},{"name":"세븐일레븐남양주금곡본점","tel":"","addr":"경기도 남양주시 금곡동 404-15번지 서전빌딩 B동 103호","indutype":"유통업 영리 - 편 의 점","category":"other"},{"name":"주식회사대영소방","tel":"031-594-8807","addr":"경기도 남양주시 금곡동 404-15번지 서전빌딩 B동 203호","indutype":"기타 - 기계공구","category":"other"}]},{"lat":"37.642278121","long":"127.21283287","imageIndex":17,"items":[{"name":"다산열쇠","tel":"","addr":"경기도 남양주시 금곡동 272-1번지 장현드림빌 1층 105호","indutype":"수리서비스 - 기타수리서비스","category":"other"}]},{"lat":"37.623641347","long":"127.21039035","imageIndex":17,"items":[{"name":"다스","tel":"031-595-3713","addr":"경기도 남양주시 금곡동 101번지","indutype":"회원제형태 - 기타4","category":"other"},{"name":"썬플라워","tel":"070-8254-2466","addr":"경기도 남양주시 금곡동 101번지","indutype":"문화.취미 - 화원","category":"other"}]},{"lat":"37.634641753","long":"127.20547009","imageIndex":17,"items":[{"name":"다우기획","tel":"031-595-7388","addr":"경기도 남양주시 금곡동 414-34, 8, 8주택 다-104","indutype":"회원제형태 - 기타4","category":"other"}]},{"lat":"37.633808204","long":"127.20816414","imageIndex":17,"items":[{"name":"다이소 금곡점","tel":"031-591-9749","addr":"경기도 남양주시 금곡동 427-31번지 ,1,2층","indutype":"신변잡화 - 기타잡화","category":"other"},{"name":"세븐스킨스쿠버스쿨","tel":"","addr":"경기도 남양주시 금곡동 427-31번지 덕지빌딩 1층 1호","indutype":"레져용품 - 스포츠·레져용품","category":"other"},{"name":"유니북스(주)남양주","tel":"031-591-4045","addr":"경기도 남양주시 금곡동 427-31번지 덕지빌딩 3층","indutype":"회원제형태 - 서적","category":"other"},{"name":"휴대폰 할인마트","tel":"070-8726-9994","addr":"경기도 남양주시 금곡동 427-31번지 덕지빌딩","indutype":"사무통신 - 통신기기","category":"other"}]},{"lat":"37.633833237","long":"127.20930844","imageIndex":17,"items":[{"name":"다정모바일","tel":"031-593-7011","addr":"경기도 남양주시 금곡동 425-3번지 우순빌딩 1층","indutype":"사무통신 - 통신기기","category":"other"},{"name":"대신조경건설주식회사","tel":"031-592-1118","addr":"경기도 남양주시 금곡동 425-3번지 2층","indutype":"건축자재 - 인테리어전문","category":"other"},{"name":"태성모바일","tel":"031-593-7011","addr":"경기도 남양주시 금곡동 425-3번지 우순빌딩","indutype":"사무통신 - 통신기기","category":"other"}]},{"lat":"37.6340899","long":"127.20678277","imageIndex":17,"items":[{"name":"대진인쇄사","tel":"031-591-4007","addr":"경기도 남양주시 금곡동 404-61번지","indutype":"용역 서비스 - 종합용역","category":"other"}]},{"lat":"37.624500975","long":"127.20302979","imageIndex":17,"items":[{"name":"델타전자","tel":"031-595-0053","addr":"경기도 남양주시 금곡동 641-1번지","indutype":"전기제품 - 가전제품","category":"other"}]},{"lat":"37.637113627","long":"127.2139173","imageIndex":17,"items":[{"name":"동아가스eng","tel":"031-513-5533","addr":"경기도 남양주시 금곡동 162-30번지 구원빌딩 101호","indutype":"기타 - 기계공구","category":"other"}]},{"lat":"37.63324841","long":"127.20361969","imageIndex":17,"items":[{"name":"동아기계공업","tel":"031-592-0988","addr":"경기도 남양주시 금곡동 682-16번지","indutype":"기타 - 기계공구","category":"other"}]},{"lat":"37.637315309","long":"127.21196919","imageIndex":17,"items":[{"name":"동일교육","tel":"031-556-3812","addr":"경기도 남양주시 금곡동 162-81번지 영화빌라 105동 202호","indutype":"회원제형태 - 기타4","category":"other"}]},{"lat":"37.635439528","long":"127.21296091","imageIndex":17,"items":[{"name":"디스 이즈 미 빅토리","tel":"02-4863-5108","addr":"경기도 남양주시 금곡동 158-7번지 금곡빌라 A동 308호","indutype":"의류 - 정장","category":"other"}]},{"lat":"37.637779592","long":"127.21433838","imageIndex":17,"items":[{"name":"디앤제이몰","tel":"070-8843-5270","addr":"경기도 남양주시 금곡동 162-74번지 3층 1호","indutype":"전기제품 - 가전제품","category":"other"}]},{"lat":"37.637281039","long":"127.19503141","imageIndex":17,"items":[{"name":"디에이방재","tel":"031-593-6119","addr":"경기도 남양주시 금곡동 730-1번지","indutype":"기타 - 기계공구","category":"other"}]},{"lat":"37.633498516","long":"127.20488921","imageIndex":17,"items":[{"name":"디자인6380","tel":"031-595-7666","addr":"경기도 남양주시 금곡동 432-31번지 영종빌딩 2층","indutype":"건축자재 - 인테리어전문","category":"other"}]},{"lat":"37.628729157","long":"127.20147783","imageIndex":17,"items":[{"name":"디자인도담","tel":"031-564-1225","addr":"경기도 남양주시 금곡동 674-1번지 대농연립 상가동 1층","indutype":"용역 서비스 - 종합용역","category":"other"}]},{"lat":"37.633449645","long":"127.20710956","imageIndex":17,"items":[{"name":"디자인피노키오","tel":"031-592-2560","addr":"경기도 남양주시 금곡동 431-6번지 2층","indutype":"용역 서비스 - 종합용역","category":"other"}]},{"lat":"37.630445919","long":"127.20389537","imageIndex":17,"items":[{"name":"디지탈OA","tel":"031-591-6168","addr":"경기도 남양주시 금곡동 664-2번지 104호","indutype":"사무통신 - 사무용 OA기기","category":"other"}]},{"lat":"37.633309703","long":"127.20986211","imageIndex":17,"items":[{"name":"라인건축사사무소","tel":"031-591-2073","addr":"경기도 남양주시 금곡동 156-11번지 일신상가 2층","indutype":"용역 서비스 - 사무서비스","category":"other"},{"name":"세광볼트","tel":"031-595-4304","addr":"경기도 남양주시 금곡동 156-11번지","indutype":"기타 - 기계공구","category":"other"}]},{"lat":"37.634893965","long":"127.20550476","imageIndex":17,"items":[{"name":"린나이보일러 판매·수리","tel":"031-562-0482","addr":"경기도 남양주시 금곡동 414-15번지 88주택 라동 1층 104호","indutype":"건축자재 - 보일러·펌프·샷시","category":"other"}]},{"lat":"37.635531275","long":"127.21203217","imageIndex":17,"items":[{"name":"만물수리센타","tel":"031-551-2721","addr":"경기도 남양주시 금곡동 158-6번지 1층","indutype":"수리서비스 - 기타수리서비스","category":"other"},{"name":"파소","tel":"031-511-6916","addr":"경기도 남양주시 금곡동 158-6번지","indutype":"의류 - 정장","category":"other"}]},{"lat":"37.6352267","long":"127.2058682","imageIndex":17,"items":[{"name":"맥누수탐지종합설비","tel":"031-516-3734","addr":"경기도 남양주시 금곡동 404-7번지","indutype":"용역 서비스 - 기타용역서비스","category":"other"},{"name":"백바이크","tel":"031-591-3211","addr":"경기도 남양주시 금곡동 404-7번지","indutype":"레져용품 - 스포츠·레져용품","category":"other"},{"name":"베스트저울","tel":"031-511-4524","addr":"경기도 남양주시 금곡동 404-7번지","indutype":"주방용구 - 주방용구","category":"other"},{"name":"씨티에스","tel":"031-557-1373","addr":"경기도 남양주시 금곡동 404-7번지 103호","indutype":"용역 서비스 - 기타용역서비스","category":"other"}]},{"lat":"37.63436282","long":"127.21044281","imageIndex":17,"items":[{"name":"메가","tel":"031-592-3391","addr":"경기도 남양주시 금곡동 423-13번지 1층","indutype":"사무통신 - 컴퓨터","category":"other"},{"name":"베이비전문점","tel":"031-592-5179","addr":"경기도 남양주시 금곡동 423-13번지","indutype":"의류 - 내의판매","category":"other"}]},{"lat":"37.630257102","long":"127.20366829","imageIndex":17,"items":[{"name":"명보조명장식","tel":"031-592-6086","addr":"경기도 남양주시 금곡동 664-6번지","indutype":"직물 - 카페트,커튼,천막,지물","category":"other"},{"name":"씨유금곡대로점","tel":"031-593-0488","addr":"경기도 남양주시 금곡동 664-6번지 1층 102호","indutype":"유통업 영리 - 편 의 점","category":"other"},{"name":"조일상사","tel":"031-593-7049","addr":"경기도 남양주시 금곡동 664-6번지","indutype":"건축자재 - 페인트","category":"other"}]},{"lat":"37.625641702","long":"127.19975912","imageIndex":17,"items":[{"name":"명인에어컨","tel":"","addr":"경기도 남양주시 금곡동 612번지 명지해드는터 102동 101호","indutype":"전기제품 - 냉열기기","category":"other"}]},{"lat":"37.635943807","long":"127.21310961","imageIndex":17,"items":[{"name":"명품스토리","tel":"031-592-8444","addr":"경기도 남양주시 금곡동 158-26번지 두승주택2차 207호","indutype":"의류 - 정장","category":"other"}]},{"lat":"37.633561198","long":"127.21030464","imageIndex":17,"items":[{"name":"몽피크금곡점","tel":"031-559-3118","addr":"경기도 남양주시 금곡동 156-39번지 1층","indutype":"레져용품 - 스포츠·레져용품","category":"other"},{"name":"흥덕지형정보(주)","tel":"031-559-7811","addr":"경기도 남양주시 금곡동 156-39번지 3층","indutype":"기타 - 기타 전문점","category":"other"}]},{"lat":"37.623451189","long":"127.20575689","imageIndex":17,"items":[{"name":"미라-준(HYGIENE SERVICE)","tel":"02-1566-6459","addr":"경기도 남양주시 금곡동 487번지 나동","indutype":"신변잡화 - 기타잡화","category":"other"}]},{"lat":"37.621534165","long":"127.20456233","imageIndex":17,"items":[{"name":"미래산업","tel":"031-511-8503","addr":"경기도 남양주시 금곡동 558-2번지","indutype":"기타 - 기계공구","category":"other"},{"name":"한빛광고","tel":"031-574-2006","addr":"경기도 남양주시 금곡동 558-2번지","indutype":"건축자재 - 인테리어전문","category":"other"}]},{"lat":"37.640366785","long":"127.20844277","imageIndex":17,"items":[{"name":"미성중기","tel":"031-591-5701","addr":"경기도 남양주시 금곡동 367번지","indutype":"수리서비스 - 기타수리서비스","category":"other"}]},{"lat":"37.641361788","long":"127.21133471","imageIndex":17,"items":[{"name":"미티맘마","tel":"031-593-3008","addr":"경기도 남양주시 금곡동 292-3번지","indutype":"문화.취미 - 애완동물","category":"other"}]},{"lat":"37.637336735","long":"127.21510754","imageIndex":17,"items":[{"name":"민패션(MIN FASHION)","tel":"031-592-7905","addr":"경기도 남양주시 금곡동 172-23번지 한림타운 103동 106호","indutype":"회원제형태 - 기타4","category":"other"}]},{"lat":"37.635726967","long":"127.20833936","imageIndex":17,"items":[{"name":"박공구","tel":"031-559-0909","addr":"경기도 남양주시 금곡동 406-1번지","indutype":"기타 - 기계공구","category":"other"}]},{"lat":"37.633836767","long":"127.20728055","imageIndex":17,"items":[{"name":"백양사","tel":"031-553-5512","addr":"경기도 남양주시 금곡동 430-35번지","indutype":"의류 - 내의판매","category":"other"}]},{"lat":"37.633084865","long":"127.20442361","imageIndex":17,"items":[{"name":"범진기계","tel":"031-592-3409","addr":"경기도 남양주시 금곡동 432-9","indutype":"기타 - 기계공구","category":"other"}]},{"lat":"37.635358969","long":"127.20753396","imageIndex":17,"items":[{"name":"법무사조규송사무소","tel":"031-559-2299","addr":"경기도 남양주시 금곡동 404-92번지 소라빌딩 301호","indutype":"용역 서비스 - 법률회계서비스(개인)","category":"other"}]},{"lat":"37.634721728","long":"127.21128217","imageIndex":17,"items":[{"name":"베스트올금곡점","tel":"031-592-7235","addr":"경기도 남양주시 금곡동 158-23번지","indutype":"유통업 영리 - 편 의 점","category":"other"},{"name":"황금보석","tel":"031-554-3155","addr":"경기도 남양주시 금곡동 158-23번지","indutype":"신변잡화 - 귀금속","category":"other"}]},{"lat":"37.632504117","long":"127.196118","imageIndex":17,"items":[{"name":"벽지촌","tel":"031-554-2040","addr":"경기도 남양주시 금곡동 758-16번지","indutype":"직물 - 카페트,커튼,천막,지물","category":"other"}]},{"lat":"37.635172786","long":"127.20047534","imageIndex":17,"items":[{"name":"봄봄매트(청주세종점)","tel":"031-592-7656","addr":"경기도 남양주시 금곡동 699-15번지 삼성주택 아동 B01호","indutype":"직물 - 침구·수예점","category":"other"}]},{"lat":"37.633389815","long":"127.21041745","imageIndex":17,"items":[{"name":"비고츠키 성남지사","tel":"031-558-5424","addr":"경기도 남양주시 금곡동 156-38번지 향군회관 205호","indutype":"회원제형태 - 서적","category":"other"},{"name":"아이비(Ib)페이퍼","tel":"031-559-9505","addr":"경기도 남양주시 금곡동 156-38번지 향군회관 2층 205호","indutype":"유통업 영리 - 기타유통업","category":"other"},{"name":"에이치비 비즈","tel":"031-510-0224","addr":"경기도 남양주시 금곡동 156-38번지 향군빌딩 301호","indutype":"서적문구 - 문구용품","category":"other"},{"name":"키즈에이원","tel":"031-591-4426","addr":"경기도 남양주시 금곡동 156-38번지","indutype":"회원제형태 - 서적","category":"other"},{"name":"태강비엔비(주)","tel":"031-592-2238","addr":"경기도 남양주시 금곡동 156-38번지 4층","indutype":"용역 서비스 - 기타용역서비스","category":"other"}]},{"lat":"37.623920209","long":"127.21064033","imageIndex":17,"items":[{"name":"사단법인 한국이벤트협회 서울경기지회","tel":"031-575-8593","addr":"경기도 남양주시 금곡동 101-1번지","indutype":"기타 - 비영리/비대상","category":"other"}]},{"lat":"37.636221123","long":"127.21422067","imageIndex":17,"items":[{"name":"삼낭건설","tel":"031-511-1170","addr":"경기도 남양주시 금곡동 166-1번지","indutype":"용역 서비스 - 기타용역서비스","category":"other"},{"name":"옥토건축사사무소","tel":"031-529-8833","addr":"경기도 남양주시 금곡동 166-1번지 경춘로양골1길,13번지 1층","indutype":"용역 서비스 - 사무서비스","category":"other"}]},{"lat":"37.641387192","long":"127.21225252","imageIndex":17,"items":[{"name":"삼성 엘이디와 욕실","tel":"","addr":"경기도 남양주시 금곡동 294번지 102호","indutype":"건축자재 - 인테리어전문","category":"other"}]},{"lat":"37.621280949","long":"127.2103045","imageIndex":17,"items":[{"name":"삼성공조기","tel":"031-564-7734","addr":"경기도 남양주시 금곡동 76","indutype":"용역 서비스 - 기타용역서비스","category":"other"}]},{"lat":"37.634367156","long":"127.21308251","imageIndex":17,"items":[{"name":"삼성인테리어필름동부총판","tel":"031-592-4285","addr":"경기도 남양주시 금곡동 154-27번지","indutype":"건축자재 - 인테리어전문","category":"other"}]},{"lat":"37.638111117","long":"127.21535899","imageIndex":17,"items":[{"name":"삼영상사","tel":"02-2215-9363","addr":"경기도 남양주시 금곡동 172-8번지 회성주택 202호","indutype":"신변잡화 - 기타잡화","category":"other"},{"name":"웃음드림연구소","tel":"031-592-4994","addr":"경기도 남양주시 금곡동 172-8번지 회성주택 201호","indutype":"용역 서비스 - 종합용역","category":"other"}]},{"lat":"37.621478263","long":"127.20563826","imageIndex":17,"items":[{"name":"상원포장기계","tel":"031-593-4073","addr":"경기도 남양주시 금곡동 513-4번지","indutype":"기타 - 기타 전문점","category":"other"}]},{"lat":"37.63486748","long":"127.19986276","imageIndex":17,"items":[{"name":"생물나라","tel":"031-564-9004","addr":"경기도 남양주시 금곡동 699-6번지 1층 1호","indutype":"문화.취미 - 수족관","category":"other"},{"name":"인사이드독","tel":"070-8157-7478","addr":"경기도 남양주시 금곡동 699-6번지 102호","indutype":"문화.취미 - 애완동물","category":"other"}]},{"lat":"37.634198837","long":"127.20630724","imageIndex":17,"items":[{"name":"서래장여관","tel":"031-591-3917","addr":"경기도 남양주시 금곡동 404-205번지","indutype":"회원제형태 - 기타4","category":"other"}]},{"lat":"37.633140641","long":"127.20341548","imageIndex":17,"items":[{"name":"서리서리공방","tel":"031-592-1933","addr":"경기도 남양주시 금곡동 682-11번지 3층","indutype":"문화.취미 - 민예·공예품","category":"other"}]},{"lat":"37.622951524","long":"127.20814561","imageIndex":17,"items":[{"name":"서울창호시스템","tel":"031-565-3500","addr":"경기도 남양주시 금곡동 478번지","indutype":"건축자재 - 보일러·펌프·샷시","category":"other"}]},{"lat":"37.634082531","long":"127.2058311","imageIndex":17,"items":[{"name":"성우유리","tel":"031-592-7223","addr":"경기도 남양주시 금곡동 404-41번지","indutype":"건축자재 - 유리","category":"other"},{"name":"씨유남양주금곡점","tel":"031-591-7808","addr":"경기도 남양주시 금곡동 404-41번지","indutype":"유통업 영리 - 편 의 점","category":"other"}]},{"lat":"37.633808735","long":"127.20785826","imageIndex":17,"items":[{"name":"성원사","tel":"031-511-3315","addr":"경기도 남양주시 금곡동 427-28번지 성원빌딩","indutype":"신변잡화 - 귀금속","category":"other"}]},{"lat":"37.631167734","long":"127.20328557","imageIndex":17,"items":[{"name":"성원세탁소","tel":"031-592-0049","addr":"경기도 남양주시 금곡동 680-23번지","indutype":"수리서비스 - 세탁소","category":"other"}]},{"lat":"37.634894928","long":"127.21013841","imageIndex":17,"items":[{"name":"성은 문구 마트","tel":"031-592-7790","addr":"경기도 남양주시 금곡동 159-122번지 예성빌딩 1층","indutype":"서적문구 - 문구용품","category":"other"},{"name":"주식회사 예성아름터","tel":"031-591-7115","addr":"경기도 남양주시 금곡동 159-122번지","indutype":"유통업 영리 - 기타유통업","category":"other"}]},{"lat":"37.633145553","long":"127.20050396","imageIndex":17,"items":[{"name":"세븐일레븐남양주군장리점","tel":"031-1577-0711","addr":"경기도 남양주시 금곡동 685-18번지 1층","indutype":"유통업 영리 - 편 의 점","category":"other"}]},{"lat":"37.620027326","long":"127.21102594","imageIndex":17,"items":[{"name":"세븐퍼니쳐","tel":"02-461-5477","addr":"경기도 남양주시 금곡동 71번지","indutype":"주방용구 - 주방용구","category":"other"}]},{"lat":"37.636978181","long":"127.21906052","imageIndex":17,"items":[{"name":"세빈이네다육농장","tel":"070-7788-7322","addr":"경기도 남양주시 금곡동 185-2번지","indutype":"문화.취미 - 화원","category":"other"}]},{"lat":"37.622034461","long":"127.20703302","imageIndex":17,"items":[{"name":"세움인테리어디자인(목공방)","tel":"","addr":"경기도 남양주시 금곡동 519-4번지","indutype":"가구 - 기타가구","category":"other"}]},{"lat":"37.620279438","long":"127.21111726","imageIndex":17,"items":[{"name":"세현인테리어.가구","tel":"031-567-1277","addr":"경기도 남양주시 금곡동 75-3번지","indutype":"건축자재 - 인테리어전문","category":"other"}]},{"lat":"37.635836205","long":"127.20769388","imageIndex":17,"items":[{"name":"소망씽크","tel":"031-592-4243","addr":"경기도 남양주시 금곡동 404-94번지","indutype":"주방용구 - 기타주방용구","category":"other"}]},{"lat":"37.634026902","long":"127.211892","imageIndex":17,"items":[{"name":"송연아트","tel":"031-592-9777","addr":"경기도 남양주시 금곡동 154-10번지","indutype":"건축자재 - 인테리어전문","category":"other"},{"name":"학교문구","tel":"031-592-9449","addr":"경기도 남양주시 금곡동 154-10번지","indutype":"서적문구 - 문구용품","category":"other"}]},{"lat":"37.633172961","long":"127.20027745","imageIndex":17,"items":[{"name":"수인장갑공업사","tel":"031-591-7876","addr":"경기도 남양주시 금곡동 685-19번지","indutype":"기타 - 기타 전문점","category":"other"}]},{"lat":"37.634916504","long":"127.21322001","imageIndex":17,"items":[{"name":"승탑인테리어","tel":"031-591-8498","addr":"경기도 남양주시 금곡동 158-52번지","indutype":"주방용구 - 주방용구","category":"other"},{"name":"유일컴","tel":"031-946-6384","addr":"경기도 남양주시 금곡동 158-52번지 이화빌딩 4층","indutype":"용역 서비스 - 종합용역","category":"other"}]},{"lat":"37.633363991","long":"127.20452632","imageIndex":17,"items":[{"name":"시온","tel":"031-592-5005","addr":"경기도 남양주시 금곡동 432-29번지 시온빌딩 1동 1층 1호","indutype":"의류 - 기타의류","category":"other"}]},{"lat":"37.627005205","long":"127.20330837","imageIndex":17,"items":[{"name":"신성세탁소","tel":"031-595-2928","addr":"경기도 남양주시 금곡동 628번지 신성푸른솔아파트 상가동 101호","indutype":"수리서비스 - 세탁소","category":"other"}]},{"lat":"37.63519327","long":"127.21463694","imageIndex":17,"items":[{"name":"신우광고기획","tel":"031-591-4151","addr":"경기도 남양주시 금곡동 185-21","indutype":"서적문구 - 출판 및 인쇄물","category":"other"}]},{"lat":"37.637343066","long":"127.21659173","imageIndex":17,"items":[{"name":"썬에어컨","tel":"","addr":"경기도 남양주시 금곡동 203-53번지 대림빌라 5동 302호","indutype":"용역 서비스 - 기타용역서비스","category":"other"}]},{"lat":"37.622618894","long":"127.20772558","imageIndex":17,"items":[{"name":"씨에이치가구","tel":"031-511-7265","addr":"경기도 남양주시 금곡동 479-2","indutype":"가구 - 기타가구","category":"other"}]},{"lat":"37.63516661","long":"127.19877594","imageIndex":17,"items":[{"name":"씨엠케이","tel":"031-559-7937","addr":"경기도 남양주시 금곡동 749-1번지","indutype":"전기제품 - 기타전기제품","category":"other"}]},{"lat":"37.634362381","long":"127.21069205","imageIndex":17,"items":[{"name":"아도니제","tel":"031-593-7615","addr":"경기도 남양주시 금곡동 156-20번지 남양빌딩 1층 1호","indutype":"의류 - 정장","category":"other"}]},{"lat":"37.633032794","long":"127.20325659","imageIndex":17,"items":[{"name":"아랑주한복","tel":"031-594-4006","addr":"경기도 남양주시 금곡동 682-13번지 2층","indutype":"의류 - 맞춤복점","category":"other"}]},{"lat":"37.63638979","long":"127.22539195","imageIndex":17,"items":[{"name":"아이루키","tel":"02-733-5599","addr":"경기도 남양주시 금곡동 14-1번지","indutype":"신변잡화 - 기타잡화","category":"other"}]},{"lat":"37.62125058","long":"127.21219604","imageIndex":17,"items":[{"name":"아트맨(Art man)","tel":"070-7725-0406","addr":"경기도 남양주시 금곡동 79-7번지","indutype":"가구 - 기타가구","category":"other"}]},{"lat":"37.633942571","long":"127.19800235","imageIndex":17,"items":[{"name":"안보화학","tel":"070-8276-3038","addr":"경기도 남양주시 금곡동 751-1번지 진덕아파트 104호","indutype":"서적문구 - 과학기자재","category":"other"}]},{"lat":"37.634201183","long":"127.21013648","imageIndex":17,"items":[{"name":"애드플로우","tel":"02-593-9553","addr":"경기도 남양주시 금곡동 423-5번지 5층 A563호","indutype":"용역 서비스 - 종합용역","category":"other"},{"name":"타임컴퍼니","tel":"","addr":"경기도 남양주시 금곡동 423-5번지 5층 A562호","indutype":"용역 서비스 - 종합용역","category":"other"}]},{"lat":"37.63772553","long":"127.20925123","imageIndex":17,"items":[{"name":"앨빈코리아 (ALVIN KOREA)","tel":"070-7786-2446","addr":"경기도 남양주시 금곡동 404-212번지","indutype":"문화.취미 - 애완동물","category":"other"}]},{"lat":"37.636917973","long":"127.22239121","imageIndex":17,"items":[{"name":"야호 베이비 스튜디오","tel":"031-559-7753","addr":"경기도 남양주시 금곡동 13-4번지","indutype":"광학제품 - 사진관","category":"other"}]},{"lat":"37.635199777","long":"127.20049807","imageIndex":17,"items":[{"name":"양지","tel":"070-8253-8841","addr":"경기도 남양주시 금곡동 699-13 삼성주택지층 가-101 23/2","indutype":"회원제형태 - 기타4","category":"other"}]},{"lat":"37.636584078","long":"127.21278286","imageIndex":17,"items":[{"name":"에스에이치조명","tel":"031-591-2907","addr":"경기도 남양주시 금곡동 162-55번지 대성빌라 1층","indutype":"건축자재 - 조명기구","category":"other"},{"name":"은성사","tel":"031-591-8070","addr":"경기도 남양주시 금곡동 162-55번지","indutype":"수리서비스 - 세탁소","category":"other"}]},{"lat":"37.632447685","long":"127.20294914","imageIndex":17,"items":[{"name":"에스케이(SK)철물설비","tel":"070-8816-1183","addr":"경기도 남양주시 금곡동 685-3번지","indutype":"건축자재 - 목재·석재·철물","category":"other"},{"name":"왕대박","tel":"031-595-2723","addr":"경기도 남양주시 금곡동 685-3번지","indutype":"레져용품 - 스포츠·레져용품","category":"other"},{"name":"정원표구화랑","tel":"031-593-9222","addr":"경기도 남양주시 금곡동 685-3번지","indutype":"문화.취미 - 화방·표구점","category":"other"}]},{"lat":"37.625781156","long":"127.20255745","imageIndex":17,"items":[{"name":"에코컨설팅 주식회사","tel":"02-0000-0000","addr":"경기도 남양주시 금곡동 634번지 2층","indutype":"용역 서비스 - 사무서비스","category":"other"}]},{"lat":"37.635387362","long":"127.21189581","imageIndex":17,"items":[{"name":"엘리푸드","tel":"","addr":"경기도 남양주시 금곡동 157-1번지 최박사곱창 1층 102호","indutype":"문화.취미 - 애완동물","category":"other"},{"name":"허브","tel":"031-592-1529","addr":"경기도 남양주시 금곡동 157-1번지","indutype":"의류 - 기타의류","category":"other"}]},{"lat":"37.635418553","long":"127.21461492","imageIndex":17,"items":[{"name":"엘지벽지장판","tel":"031-592-8437","addr":"경기도 남양주시 금곡동 185-69번지","indutype":"직물 - 카페트,커튼,천막,지물","category":"other"}]},{"lat":"37.633006015","long":"127.20310924","imageIndex":17,"items":[{"name":"역전지물포","tel":"031-571-2595","addr":"경기도 남양주시 금곡동 686-4번지","indutype":"직물 - 카페트,커튼,천막,지물","category":"other"}]},{"lat":"37.635143855","long":"127.20688761","imageIndex":17,"items":[{"name":"연지불교사","tel":"031-559-5571","addr":"경기도 남양주시 금곡동 404-90번지","indutype":"신변잡화 - 기념품점","category":"other"}]},{"lat":"37.631889392","long":"127.20276638","imageIndex":17,"items":[{"name":"예양컴퓨터","tel":"031-591-8822","addr":"경기도 남양주시 금곡동 678-43번지 대림하이츠 4동 203호","indutype":"사무통신 - 컴퓨터","category":"other"}]},{"lat":"37.636421965","long":"127.21274842","imageIndex":17,"items":[{"name":"예윤인테리어","tel":"031-594-5789","addr":"경기도 남양주시 금곡동 164-6번지","indutype":"건축자재 - 인테리어전문","category":"other"}]},{"lat":"37.634227639","long":"127.20527637","imageIndex":17,"items":[{"name":"예지","tel":"","addr":"경기도 남양주시 금곡동 428-16번지 라이파이 201호","indutype":"용역 서비스 - 기타용역서비스","category":"other"}]},{"lat":"37.633284275","long":"127.20372175","imageIndex":17,"items":[{"name":"오성산업","tel":"031-592-8886","addr":"경기도 남양주시 금곡동 682-10번지","indutype":"용역 서비스 - 종합용역","category":"other"}]},{"lat":"37.634659734","long":"127.2054928","imageIndex":17,"items":[{"name":"오케엔지니어링","tel":"031-592-3455","addr":"경기도 남양주시 금곡동 414-34번지 88주택 다동 402호","indutype":"건축자재 - 기타건축자재","category":"other"},{"name":"이지시스템","tel":"031-1111-1111","addr":"경기도 남양주시 금곡동 414-34번지 팔팔주택 다동 304호","indutype":"용역 서비스 - 기타용역서비스","category":"other"}]},{"lat":"37.632583474","long":"127.19717179","imageIndex":17,"items":[{"name":"우림목재합판","tel":"031-593-0597","addr":"경기도 남양주시 금곡동 749-9번지","indutype":"건축자재 - 목재·석재·철물","category":"other"}]},{"lat":"37.6312401","long":"127.20311583","imageIndex":17,"items":[{"name":"우수종합인테리어","tel":"031-591-0214","addr":"경기도 남양주시 금곡동 680-52번지 유창마이빌 다동 101호","indutype":"직물 - 카페트,커튼,천막,지물","category":"other"}]},{"lat":"37.634278791","long":"127.21210796","imageIndex":17,"items":[{"name":"우진건축사사무소","tel":"031-591-2662","addr":"경기도 남양주시 금곡동 154-17번지","indutype":"용역 서비스 - 사무서비스","category":"other"}]},{"lat":"37.632530649","long":"127.20183913","imageIndex":17,"items":[{"name":"원포유텔레콤(남양주)","tel":"031-591-5200","addr":"경기도 남양주시 금곡동 685-5번지","indutype":"사무통신 - 통신기기","category":"other"}]},{"lat":"37.639004803","long":"127.20931142","imageIndex":17,"items":[{"name":"위드건축","tel":"031-559-7359","addr":"경기도 남양주시 금곡동 356-3번지","indutype":"건축자재 - 인테리어전문","category":"other"}]},{"lat":"37.635918048","long":"127.21239579","imageIndex":17,"items":[{"name":"이레패션","tel":"031-592-6743","addr":"경기도 남양주시 금곡동 159-5번지","indutype":"의류 - 정장","category":"other"}]},{"lat":"37.634504012","long":"127.20697649","imageIndex":17,"items":[{"name":"이마트24 금곡중앙점","tel":"","addr":"경기도 남양주시 금곡동 404-257번지 정드림노인전문병원 1층 101호","indutype":"유통업 영리 - 편 의 점","category":"other"},{"name":"이마트24금곡중앙점","tel":"","addr":"경기도 남양주시 금곡동 404-257번지 정드림노인전문병원 1층 101호","indutype":"유통업 영리 - 편 의 점","category":"other"}]},{"lat":"37.636194541","long":"127.21397135","imageIndex":17,"items":[{"name":"이마트24 남양주시청점","tel":"02-6916-1500","addr":"경기도 남양주시 금곡동 166-2번지","indutype":"유통업 영리 - 편 의 점","category":"other"},{"name":"이마트24 남양주시청점","tel":"02-6916-1500","addr":"경기도 남양주시 금곡동 166-2번지","indutype":"유통업 영리 - 편 의 점","category":"other"},{"name":"진영사","tel":"031-515-8166","addr":"경기도 남양주시 금곡동 166-2번지 1층","indutype":"신변잡화 - 기념품점","category":"other"},{"name":"힐스템남양주금곡센타","tel":"031-592-3288","addr":"경기도 남양주시 금곡동 166-2번지","indutype":"전기제품 - 기타전기제품","category":"other"}]},{"lat":"37.641752471","long":"127.20947764","imageIndex":17,"items":[{"name":"이화","tel":"070-8849-1358","addr":"경기도 남양주시 금곡동 376번지","indutype":"용역 서비스 - 종합용역","category":"other"}]},{"lat":"37.633707794","long":"127.19831895","imageIndex":17,"items":[{"name":"일산유통","tel":"031-592-8551","addr":"경기도 남양주시 금곡동 752-1번지 성일그린빌라 가동 102호","indutype":"유통업 영리 - 기타유통업","category":"other"}]},{"lat":"37.633809011","long":"127.20769965","imageIndex":17,"items":[{"name":"잠자리이불","tel":"031-515-3314","addr":"경기도 남양주시 금곡동 427-29번지","indutype":"직물 - 침구·수예점","category":"other"}]},{"lat":"37.636362079","long":"127.21599979","imageIndex":17,"items":[{"name":"장인건축사사무소","tel":"031-591-3702","addr":"경기도 남양주시 금곡동 203-80번지 2층 201호","indutype":"용역 서비스 - 사무서비스","category":"other"}]},{"lat":"37.635782049","long":"127.20775038","imageIndex":17,"items":[{"name":"전기나라","tel":"031-559-8223","addr":"경기도 남양주시 금곡동 404-74번지 1층","indutype":"전기제품 - 기타전기제품","category":"other"}]},{"lat":"37.6333103","long":"127.20431092","imageIndex":17,"items":[{"name":"정오토바이","tel":"031-593-8524","addr":"경기도 남양주시 금곡동 432-1번지","indutype":"수리서비스 - 레져용품수리","category":"other"}]},{"lat":"37.63861711","long":"127.20946896","imageIndex":17,"items":[{"name":"주식회사 가람레이저","tel":"031-559-2001","addr":"경기도 남양주시 금곡동 356-2번지","indutype":"기타 - 기계공구","category":"other"}]},{"lat":"37.641474973","long":"127.20844582","imageIndex":17,"items":[{"name":"주식회사 골프최저가연구소","tel":"070-8839-3535","addr":"경기도 남양주시 금곡동 372-1번지 1층","indutype":"레져용품 - 골프용품 전문점","category":"other"}]},{"lat":"37.6323632","long":"127.20494278","imageIndex":17,"items":[{"name":"주식회사 대한도료상사","tel":"031-591-7705","addr":"경기도 남양주시 금곡동 433-7번지 중앙빌딩 1층","indutype":"건축자재 - 페인트","category":"other"},{"name":"주식회사구리교차로","tel":"031-591-2236","addr":"경기도 남양주시 금곡동 433-7번지 중앙빌딩","indutype":"서적문구 - 정기간행물","category":"other"}]},{"lat":"37.630445649","long":"127.20405397","imageIndex":17,"items":[{"name":"주식회사 삼우상사앤하우징","tel":"031-511-7885","addr":"경기도 남양주시 금곡동 664-1번지 1층 101호","indutype":"건축자재 - 기타건축자재","category":"other"}]},{"lat":"37.636611434","long":"127.22250361","imageIndex":17,"items":[{"name":"주식회사 인썸","tel":"070-4325-4183","addr":"경기도 남양주시 금곡동 15-4번지","indutype":"직물 - 카페트,커튼,천막,지물","category":"other"}]},{"lat":"37.633560204","long":"127.20569374","imageIndex":17,"items":[{"name":"주식회사열린건축사사무소","tel":"031-592-0430","addr":"경기도 남양주시 금곡동 431-8번지","indutype":"용역 서비스 - 사무서비스","category":"other"}]},{"lat":"37.624364462","long":"127.20383368","imageIndex":17,"items":[{"name":"주식회사크리오스","tel":"031-592-2159","addr":"경기도 남양주시 금곡동 643-2번지 2층","indutype":"건축자재 - 기타건축자재","category":"other"}]},{"lat":"37.620673256","long":"127.20219265","imageIndex":17,"items":[{"name":"지지올레","tel":"070-5029-5596","addr":"경기도 남양주시 금곡동 551-1번지","indutype":"신변잡화 - 가방","category":"other"}]},{"lat":"37.624308641","long":"127.2100637","imageIndex":17,"items":[{"name":"진석상사","tel":"031-591-9892","addr":"경기도 남양주시 금곡동 470번지","indutype":"신변잡화 - 기타잡화","category":"other"}]},{"lat":"37.63661439","long":"127.21597785","imageIndex":17,"items":[{"name":"청목공방","tel":"031-556-2977","addr":"경기도 남양주시 금곡동 203-21번지","indutype":"문화.취미 - 민예·공예품","category":"other"}]},{"lat":"37.634948257","long":"127.20536896","imageIndex":17,"items":[{"name":"칼의부활남양주구리점","tel":"","addr":"경기도 남양주시 금곡동 414-4번지 팔팔주택 나동 102호","indutype":"용역 서비스 - 기타용역서비스","category":"other"}]},{"lat":"37.635392641","long":"127.20889357","imageIndex":17,"items":[{"name":"커버넌트 컴퍼니(COVENANT COMPANY)","tel":"","addr":"경기도 남양주시 금곡동 399-32번지 101호","indutype":"신변잡화 - 시계","category":"other"}]},{"lat":"37.63411317","long":"127.20894668","imageIndex":17,"items":[{"name":"컴퓨터매니아","tel":"031-591-7826","addr":"경기도 남양주시 금곡동 419-4번지 1층","indutype":"사무통신 - 컴퓨터","category":"other"}]},{"lat":"37.631142509","long":"127.20222061","imageIndex":17,"items":[{"name":"쿨앤핫 에어컨","tel":"","addr":"경기도 남양주시 금곡동 677-2번지 안디옥교회 103동 217호","indutype":"용역 서비스 - 기타용역서비스","category":"other"}]},{"lat":"37.63442157","long":"127.20775798","imageIndex":17,"items":[{"name":"키움에듀","tel":"031-556-4631","addr":"경기도 남양주시 금곡동 406-17번지 부산다과빌딩 4층","indutype":"의류 - 아동의류","category":"other"}]},{"lat":"37.637809885","long":"127.19669822","imageIndex":17,"items":[{"name":"태정건설","tel":"031-591-8903","addr":"경기도 남양주시 금곡동 735번지","indutype":"용역 서비스 - 기타용역서비스","category":"other"}]},{"lat":"37.635612827","long":"127.20661699","imageIndex":17,"items":[{"name":"토토의 책 읽는 흙공작소","tel":"070-8848-5634","addr":"경기도 남양주시 금곡동 404-119번지","indutype":"문화.취미 - 문화취미기타","category":"other"}]},{"lat":"37.632467084","long":"127.20213351","imageIndex":17,"items":[{"name":"포유냉동","tel":"031-559-4424","addr":"경기도 남양주시 금곡동 685-10번지 2동 4호 (3필지)","indutype":"용역 서비스 - 기타용역서비스","category":"other"}]},{"lat":"37.628630107","long":"127.20144358","imageIndex":17,"items":[{"name":"프렌쥬","tel":"031-627-6262","addr":"경기도 남양주시 금곡동 674-1번지 대농연립 라동 201호","indutype":"회원제형태 - 기타4","category":"other"}]},{"lat":"37.635727414","long":"127.21319963","imageIndex":17,"items":[{"name":"프린스공조","tel":"070-4905-2923","addr":"경기도 남양주시 금곡동 158-29번지 두승5차 3층 305호","indutype":"용역 서비스 - 기타용역서비스","category":"other"}]},{"lat":"37.635393502","long":"127.19777956","imageIndex":17,"items":[{"name":"플러스냉열","tel":"031-566-6660","addr":"경기도 남양주시 금곡동 743번지 1동 102호","indutype":"용역 서비스 - 기타용역서비스","category":"other"}]},{"lat":"37.634608939","long":"127.2088121","imageIndex":17,"items":[{"name":"하우스박종합인테리어","tel":"031-591-5033","addr":"경기도 남양주시 금곡동 159-22번지","indutype":"건축자재 - 인테리어전문","category":"other"}]},{"lat":"37.637084362","long":"127.22011447","imageIndex":17,"items":[{"name":"하우스크리닝","tel":"02-1688-0903","addr":"경기도 남양주시 금곡동 186-13번지","indutype":"용역 서비스 - 기타용역서비스","category":"other"}]},{"lat":"37.632890498","long":"127.21255722","imageIndex":17,"items":[{"name":"한국불교 무량사","tel":"031-595-7432","addr":"경기도 남양주시 금곡동 146-4번지","indutype":"기타 - 비영리/비대상","category":"other"}]},{"lat":"37.633268925","long":"127.21254696","imageIndex":17,"items":[{"name":"해드림디자인","tel":"02-3667-4245","addr":"경기도 남양주시 금곡동 152-81번지 한림골든밸리 102동 402호","indutype":"용역 서비스 - 사무서비스","category":"other"}]},{"lat":"37.627502426","long":"127.20231284","imageIndex":17,"items":[{"name":"해피맘","tel":"070-7591-8689","addr":"경기도 남양주시 금곡동 651외10필지다남프라자제3층306","indutype":"회원제형태 - 서적","category":"other"}]},{"lat":"37.63236554","long":"127.19820215","imageIndex":17,"items":[{"name":"헤미플라워&다산에코팜","tel":"031-592-8887","addr":"경기도 남양주시 금곡동 755-3번지","indutype":"문화.취미 - 화원","category":"other"}]},{"lat":"37.625502085","long":"127.20242077","imageIndex":17,"items":[{"name":"현Entertainment","tel":"031-595-8503","addr":"경기도 남양주시 금곡동 636-1번지","indutype":"문화.취미 - 티켓","category":"other"}]},{"lat":"37.641033263","long":"127.20858057","imageIndex":17,"items":[{"name":"현종합상사","tel":"070-8278-1228","addr":"경기도 남양주시 금곡동 370-2번지","indutype":"건축자재 - 목재·석재·철물","category":"other"}]},{"lat":"37.633838216","long":"127.20644221","imageIndex":17,"items":[{"name":"현주양품","tel":"031-592-5151","addr":"경기도 남양주시 금곡동 430-39번지 백삼빌딩 1층 3호","indutype":"의류 - 정장","category":"other"}]},{"lat":"37.637466783","long":"127.2129213","imageIndex":17,"items":[{"name":"현컴퍼니","tel":"031-516-1393","addr":"경기도 남양주시 금곡동 164-10번지 인정빌라 나동 306호","indutype":"신변잡화 - 기타잡화","category":"other"}]},{"lat":"37.639449768","long":"127.20730726","imageIndex":17,"items":[{"name":"협신기업","tel":"031-511-2124","addr":"경기도 남양주시 금곡동 391번지","indutype":"용역 서비스 - 기타용역서비스","category":"other"}]},{"lat":"37.634305459","long":"127.21231196","imageIndex":17,"items":[{"name":"형제상사","tel":"031-592-3723","addr":"경기도 남양주시 금곡동 154-20번지","indutype":"레져용품 - 스포츠·레져용품","category":"other"}]},{"lat":"37.637499019","long":"127.2099757","imageIndex":17,"items":[{"name":"휴먼테크(Human tech)","tel":"","addr":"경기도 남양주시 금곡동 401-4번지","indutype":"건축자재 - 인테리어전문","category":"other"}]},{"lat":"37.639945594","long":"127.20713867","imageIndex":17,"items":[{"name":"휴시스템","tel":"031-595-2893","addr":"경기도 남양주시 금곡동 389-3,390-1","indutype":"전기제품 - 가전제품","category":"other"}]}]