[{"lat":"37.485898124","long":"126.78005015","imageIndex":7,"items":[{"name":"(주)대농","tel":"070-7884-6395","addr":"경기도 부천시 심곡동 383-8번지 프리존빌딩 401호","indutype":"음료식품 - 농·축·수산품","category":"food"},{"name":"바오로건강기능","tel":"032-663-9290","addr":"경기도 부천시 심곡동 383-8번지 프리존빌딩 701호","indutype":"건강식품 - 기타건강식품","category":"food"}]},{"lat":"37.490512705","long":"126.77610149","imageIndex":7,"items":[{"name":"(주)제이케이푸드","tel":"032-671-1511","addr":"경기도 부천시 심곡동 327-3번지 1층","indutype":"음료식품 - 농·축·수산품","category":"food"}]},{"lat":"37.484735532","long":"126.78471188","imageIndex":7,"items":[{"name":"38정육점","tel":"031-111-1111","addr":"경기도 부천시 심곡동 171-19번지 1층 일부","indutype":"음료식품 - 정육점","category":"food"}]},{"lat":"37.493841084","long":"126.7828309","imageIndex":7,"items":[{"name":"SM푸드","tel":"032-322-3755","addr":"경기도 부천시 심곡동 100-27번지 1층","indutype":"음료식품 - 정육점","category":"food"}]},{"lat":"37.491981963","long":"126.78118545","imageIndex":7,"items":[{"name":"강화쌀유통","tel":"032-651-7779","addr":"경기도 부천시 심곡동 431-9번지 1층","indutype":"음료식품 - 농·축·수산품","category":"food"}]},{"lat":"37.495454314","long":"126.78307495","imageIndex":7,"items":[{"name":"경아네야채","tel":"032-676-7639","addr":"경기도 부천시 심곡동 92-42번지","indutype":"음료식품 - 농·축·수산품","category":"food"}]},{"lat":"37.490373874","long":"126.77419097","imageIndex":7,"items":[{"name":"고기아가씨","tel":"032-613-1783","addr":"경기도 부천시 심곡동 324-15번지 1층","indutype":"음료식품 - 정육점","category":"food"},{"name":"대성방앗간","tel":"032-654-4914","addr":"경기도 부천시 심곡동 324-15번지","indutype":"음료식품 - 미곡상","category":"food"}]},{"lat":"37.485291144","long":"126.78798916","imageIndex":7,"items":[{"name":"고을농장","tel":"032-611-1277","addr":"경기도 부천시 심곡동 130-6번지 화신오피스텔 603호, 903호","indutype":"음료식품 - 농·축·수산품","category":"food"}]},{"lat":"37.488484679","long":"126.77568926","imageIndex":7,"items":[{"name":"공영상회","tel":"032-664-8679","addr":"경기도 부천시 심곡동 343번지","indutype":"음료식품 - 기타음료식품","category":"food"}]},{"lat":"37.488565776","long":"126.78526609","imageIndex":7,"items":[{"name":"광장계란","tel":"031-613-6066","addr":"경기도 부천시 심곡동 160-1번지 1층","indutype":"음료식품 - 농·축·수산품","category":"food"}]},{"lat":"37.484898069","long":"126.78007574","imageIndex":7,"items":[{"name":"굴다리정육점","tel":"","addr":"경기도 부천시 심곡동 387-1번지 1층","indutype":"음료식품 - 정육점","category":"food"}]},{"lat":"37.488289965","long":"126.78229315","imageIndex":7,"items":[{"name":"그린청과","tel":"032-653-5710","addr":"경기도 부천시 심곡동 194번지 중앙자유시장 22호","indutype":"음료식품 - 농·축·수산품","category":"food"},{"name":"세풍상회","tel":"032-611-2730","addr":"경기도 부천시 심곡동 194번지 중앙시장제4,5호","indutype":"음료식품 - 농·축·수산품","category":"food"},{"name":"월드미트무역","tel":"032-663-2900","addr":"경기도 부천시 심곡동 194번지 중앙시장 19호","indutype":"음료식품 - 정육점","category":"food"},{"name":"자유방앗간","tel":"032-664-0125","addr":"경기도 부천시 심곡동 194번지","indutype":"음료식품 - 제과점","category":"food"}]},{"lat":"37.497123887","long":"126.78455145","imageIndex":7,"items":[{"name":"그린피아","tel":"032-651-8600","addr":"경기도 부천시 심곡동 88-42번지","indutype":"음료식품 - 기타음료식품","category":"food"}]},{"lat":"37.488541164","long":"126.78171575","imageIndex":7,"items":[{"name":"근원정육점","tel":"032-654-2703","addr":"경기도 부천시 심곡동 377-1번지","indutype":"음료식품 - 정육점","category":"food"}]},{"lat":"37.489848801","long":"126.7823564","imageIndex":7,"items":[{"name":"글로벌유에스에이코리아","tel":"032-661-0327","addr":"경기도 부천시 심곡동 356-7번지 기성뷰그리안 2층 202호","indutype":"음료식품 - 농·축·수산품","category":"food"},{"name":"한국민속과자유통","tel":"032-612-8953","addr":"경기도 부천시 심곡동 356-7번지 외 1필지 기성뷰그리안","indutype":"음료식품 - 기타음료식품","category":"food"}]},{"lat":"37.492509262","long":"126.78371681","imageIndex":7,"items":[{"name":"금강유통","tel":"032-611-9338","addr":"경기도 부천시 심곡동 114-6번지","indutype":"음료식품 - 농·축·수산품","category":"food"},{"name":"동명유통","tel":"032-611-9338","addr":"경기도 부천시 심곡동 114-6번지 2층","indutype":"음료식품 - 농·축·수산품","category":"food"}]},{"lat":"37.497150352","long":"126.78424605","imageIndex":7,"items":[{"name":"꿀벌날다","tel":"032-655-0816","addr":"경기도 부천시 심곡동 39-9번지 1층","indutype":"음료식품 - 기타음료식품","category":"food"},{"name":"미래식품","tel":"032-661-8003","addr":"경기도 부천시 심곡동 39-9번지 1층","indutype":"음료식품 - 기타음료식품","category":"food"},{"name":"한의사의약선도시락춘(CHUNN)","tel":"032-653-8810","addr":"경기도 부천시 심곡동 39-9번지 1층 일부","indutype":"음료식품 - 기타음료식품","category":"food"}]},{"lat":"37.488066732","long":"126.77388141","imageIndex":7,"items":[{"name":"노아유통","tel":"032-668-0508","addr":"경기도 부천시 심곡동 347-1번지","indutype":"음료식품 - 농·축·수산품","category":"food"},{"name":"샬롬홍삼건강센터","tel":"032-668-0508","addr":"경기도 부천시 심곡동 347-1번지","indutype":"건강식품 - 기타건강식품","category":"food"}]},{"lat":"37.485733589","long":"126.77410336","imageIndex":7,"items":[{"name":"농업회사법인 주식회사 새힘농산","tel":"032-655-9254","addr":"경기도 부천시 심곡동 359-19번지","indutype":"음료식품 - 농·축·수산품","category":"food"}]},{"lat":"37.487708959","long":"126.77523933","imageIndex":7,"items":[{"name":"늘푸른건강원","tel":"032-612-4887","addr":"경기도 부천시 심곡동 347-34번지","indutype":"건강식품 - 기타건강식품","category":"food"}]},{"lat":"37.490789861","long":"126.78452466","imageIndex":7,"items":[{"name":"다복한우","tel":"070-7798-8227","addr":"경기도 부천시 심곡동 122번지 1층 일부","indutype":"음료식품 - 정육점","category":"food"}]},{"lat":"37.491146899","long":"126.78271443","imageIndex":7,"items":[{"name":"대일푸드","tel":"032-000-0000","addr":"경기도 부천시 심곡동 367-2번지","indutype":"음료식품 - 정육점","category":"food"}]},{"lat":"37.48884593","long":"126.78087812","imageIndex":7,"items":[{"name":"동진C&T","tel":"032-215-5505","addr":"경기도 부천시 심곡동 376-18번지 1층","indutype":"음료식품 - 기타음료식품","category":"food"}]},{"lat":"37.483929394","long":"126.78730338","imageIndex":7,"items":[{"name":"두성물산","tel":"032-668-3377","addr":"경기도 부천시 심곡동 141-9번지 남영라끄빌","indutype":"건강식품 - 기타건강식품","category":"food"}]},{"lat":"37.486207117","long":"126.78146257","imageIndex":7,"items":[{"name":"뚜레쥬르 부천북부역","tel":"032-657-3770","addr":"경기도 부천시 심곡동 176-17번지 1층","indutype":"음료식품 - 제과점","category":"food"}]},{"lat":"37.486126476","long":"126.77694014","imageIndex":7,"items":[{"name":"롤로 코리아","tel":"032-655-9394","addr":"경기도 부천시 심곡동 463-13번지 동산빌라 1층","indutype":"음료식품 - 기타음료식품","category":"food"}]},{"lat":"37.496872926","long":"126.7852646","imageIndex":7,"items":[{"name":"롤로코리아","tel":"032-656-4346","addr":"경기도 부천시 심곡동 87-3번지 원미빌딩 1층 일부","indutype":"음료식품 - 기타음료식품","category":"food"}]},{"lat":"37.485206553","long":"126.78121678","imageIndex":7,"items":[{"name":"마리웨일237부천역점","tel":"032-611-9482","addr":"경기도 부천시 심곡동 174-6번지 1층 일부","indutype":"음료식품 - 기타음료식품","category":"food"}]},{"lat":"37.48915165","long":"126.78054931","imageIndex":7,"items":[{"name":"마인드 딜리버리","tel":"070-4410-9920","addr":"경기도 부천시 심곡동 420-16번지 1층 일부","indutype":"음료식품 - 제과점","category":"food"}]},{"lat":"37.492958095","long":"126.78282219","imageIndex":7,"items":[{"name":"맛있는 닭","tel":"070-2699-0807","addr":"경기도 부천시 심곡동 97-16번지","indutype":"음료식품 - 정육점","category":"food"}]},{"lat":"37.488592452","long":"126.78507379","imageIndex":7,"items":[{"name":"모닝유통","tel":"032-666-2585","addr":"경기도 부천시 심곡동 160-2번지 외1필지지 지하층","indutype":"음료식품 - 기타음료식품","category":"food"}]},{"lat":"37.495427957","long":"126.78343689","imageIndex":7,"items":[{"name":"무등산건강원","tel":"032-664-3322","addr":"경기도 부천시 심곡동 92-21번지","indutype":"건강식품 - 기타건강식품","category":"food"}]},{"lat":"37.490094349","long":"126.77407875","imageIndex":7,"items":[{"name":"무한삼보반찬","tel":"032-000-0000","addr":"경기도 부천시 심곡동 334-6번지 1층","indutype":"음료식품 - 기타음료식품","category":"food"}]},{"lat":"37.490344387","long":"126.78237756","imageIndex":7,"items":[{"name":"미래농산","tel":"032-666-8001","addr":"경기도 부천시 심곡동 365-15번지 금강빌딩 1층","indutype":"음료식품 - 기타음료식품","category":"food"}]},{"lat":"37.485207485","long":"126.78171427","imageIndex":7,"items":[{"name":"배스킨라빈스","tel":"032-611-7277","addr":"경기도 부천시 심곡동 174-3번지","indutype":"음료식품 - 제과점","category":"food"}]},{"lat":"37.487598939","long":"126.78376508","imageIndex":7,"items":[{"name":"베스킨라빈스(부천심곡점)","tel":"032-614-2326","addr":"경기도 부천시 심곡동 164-1번지 1층","indutype":"음료식품 - 제과점","category":"food"},{"name":"장독대 부천북부역점","tel":"032-655-5289","addr":"경기도 부천시 심곡동 164-1번지 1층 일부 3호","indutype":"음료식품 - 기타음료식품","category":"food"}]},{"lat":"37.488292527","long":"126.7741634","imageIndex":7,"items":[{"name":"베지밀부천대리점","tel":"032-651-4616","addr":"경기도 부천시 심곡동 344-6번지","indutype":"음료식품 - 기타음료식품","category":"food"}]},{"lat":"37.485179016","long":"126.78579601","imageIndex":7,"items":[{"name":"복권천국","tel":"032-665-0601","addr":"경기도 부천시 심곡동 145-4번지 1층","indutype":"음료식품 - 기타음료식품","category":"food"}]},{"lat":"37.491677979","long":"126.7729884","imageIndex":7,"items":[{"name":"부자정육점마트","tel":"032-688-5988","addr":"경기도 부천시 심곡동 308-21번지 부영빌딩 1층","indutype":"음료식품 - 정육점","category":"food"}]},{"lat":"37.492681389","long":"126.77940808","imageIndex":7,"items":[{"name":"부천제일총국","tel":"070-7318-3226","addr":"경기도 부천시 심곡동 444-11번지 1층","indutype":"회원제형태 - 건강식품","category":"food"}]},{"lat":"37.4886251","long":"126.78324195","imageIndex":7,"items":[{"name":"브레드오뜨","tel":"032-656-4809","addr":"경기도 부천시 심곡동 349-3번지 노마즈하우스 104호","indutype":"음료식품 - 제과점","category":"food"},{"name":"원클럽허브다이어트","tel":"031-111-1111","addr":"경기도 부천시 심곡동 349-3번지 노마즈하우스 109호","indutype":"건강식품 - 기타건강식품","category":"food"}]},{"lat":"37.486098191","long":"126.78588381","imageIndex":7,"items":[{"name":"산삼인","tel":"070-8733-3384","addr":"경기도 부천시 심곡동 147-23 2 9/6","indutype":"건강식품 - 인삼제품","category":"food"}]},{"lat":"37.490178819","long":"126.77583112","imageIndex":7,"items":[{"name":"삼보정육점","tel":"032-656-1834","addr":"경기도 부천시 심곡동 325-15번지","indutype":"음료식품 - 정육점","category":"food"}]},{"lat":"37.490896709","long":"126.77432507","imageIndex":7,"items":[{"name":"상공야채","tel":"032-564-7785","addr":"경기도 부천시 심곡동 323-21번지","indutype":"음료식품 - 농·축·수산품","category":"food"}]},{"lat":"37.492314032","long":"126.78049471","imageIndex":7,"items":[{"name":"서울우유심곡대리점","tel":"032-208-3747","addr":"경기도 부천시 심곡동 437-13번지 태원하이츠 101호","indutype":"음료식품 - 기타음료식품","category":"food"}]},{"lat":"37.48404325","long":"126.78551664","imageIndex":7,"items":[{"name":"서진유통","tel":"","addr":"경기도 부천시 심곡동 142-10번지 1005호","indutype":"음료식품 - 농·축·수산품","category":"food"}]},{"lat":"37.484654226","long":"126.77977119","imageIndex":7,"items":[{"name":"선장쌀상회","tel":"032-651-1749","addr":"경기도 부천시 심곡동 388-11번지","indutype":"음료식품 - 미곡상","category":"food"}]},{"lat":"37.48926476","long":"126.78321747","imageIndex":7,"items":[{"name":"세일매점","tel":"031-1111-1111","addr":"경기도 부천시 심곡동 355-6번지 지하1층","indutype":"음료식품 - 기타음료식품","category":"food"}]},{"lat":"37.485792622","long":"126.78630304","imageIndex":7,"items":[{"name":"소담방울기정떡","tel":"032-613-9870","addr":"경기도 부천시 심곡동 146-1번지 태정빌딩 1층","indutype":"음료식품 - 제과점","category":"food"}]},{"lat":"37.491876218","long":"126.7729991","imageIndex":7,"items":[{"name":"소미니청과","tel":"","addr":"경기도 부천시 심곡동 308-10번지 중앙리더스빌 203호","indutype":"음료식품 - 농·축·수산품","category":"food"}]},{"lat":"37.491930871","long":"126.77330423","imageIndex":7,"items":[{"name":"숲속의 Slender Herb Diet","tel":"032-548-7398","addr":"경기도 부천시 심곡동 305번지 그린맨션1","indutype":"건강식품 - 기타건강식품","category":"food"}]},{"lat":"37.48598575","long":"126.78354365","imageIndex":7,"items":[{"name":"스낵부천","tel":"032-661-7400","addr":"경기도 부천시 심곡동 168-8번지 삼영빌딩1층3호 1층","indutype":"음료식품 - 기타음료식품","category":"food"}]},{"lat":"37.486233531","long":"126.7811346","imageIndex":7,"items":[{"name":"스넥스토리","tel":"032-613-2933","addr":"경기도 부천시 심곡동 382-3번지 101호","indutype":"음료식품 - 기타음료식품","category":"food"}]},{"lat":"37.486487294","long":"126.78679853","imageIndex":7,"items":[{"name":"승일유통","tel":"032-612-6543","addr":"경기도 부천시 심곡동 136-6번지 대상하이츠빌 101호","indutype":"음료식품 - 미곡상","category":"food"}]},{"lat":"37.485461536","long":"126.78266327","imageIndex":7,"items":[{"name":"식빵상회","tel":"032-747-8874","addr":"경기도 부천시 심곡동 175-5번지 1층","indutype":"음료식품 - 제과점","category":"food"}]},{"lat":"37.49251318","long":"126.77624244","imageIndex":7,"items":[{"name":"신림이삭","tel":"032-555-9185","addr":"경기도 부천시 심곡동 301-10번지","indutype":"음료식품 - 기타음료식품","category":"food"}]},{"lat":"37.493958254","long":"126.78285318","imageIndex":7,"items":[{"name":"심곡방앗간","tel":"032-653-8163","addr":"경기도 부천시 심곡동 100-6","indutype":"음료식품 - 미곡상","category":"food"}]},{"lat":"37.492987037","long":"126.78385111","imageIndex":7,"items":[{"name":"싱싱과일","tel":"032-656-5255","addr":"경기도 부천시 심곡동 112-24번지","indutype":"음료식품 - 농·축·수산품","category":"food"}]},{"lat":"37.494871649","long":"126.78468239","imageIndex":7,"items":[{"name":"아띠 블랑제","tel":"032-651-0455","addr":"경기도 부천시 심곡동 93-1번지 110호, 109호 일부","indutype":"음료식품 - 제과점","category":"food"}]},{"lat":"37.493150949","long":"126.77996076","imageIndex":7,"items":[{"name":"아마존(Amazon)","tel":"0505-307-0860","addr":"경기도 부천시 심곡동 440-21번지 1층 1호","indutype":"건강식품 - 기타건강식품","category":"food"}]},{"lat":"37.486487087","long":"126.77705212","imageIndex":7,"items":[{"name":"아싸비어 부천점","tel":"02-1577-4016","addr":"경기도 부천시 심곡동 463-5번지 1층","indutype":"음료식품 - 기타음료식품","category":"food"}]},{"lat":"37.486264211","long":"126.77829653","imageIndex":7,"items":[{"name":"아이스크림할인점","tel":"032-1111-1111","addr":"경기도 부천시 심곡동 398-16번지 1층","indutype":"음료식품 - 기타음료식품","category":"food"}]},{"lat":"37.491122065","long":"126.77438092","imageIndex":7,"items":[{"name":"앙트르메","tel":"032-613-5828","addr":"경기도 부천시 심곡동 323-19번지 1층 일부","indutype":"음료식품 - 제과점","category":"food"}]},{"lat":"37.485231952","long":"126.78518531","imageIndex":7,"items":[{"name":"야채언니 과일오빠","tel":"031-111-1111","addr":"경기도 부천시 심곡동 145-11번지 정주빌딩 1층","indutype":"음료식품 - 농·축·수산품","category":"food"}]},{"lat":"37.485791983","long":"126.78110199","imageIndex":7,"items":[{"name":"얌얌식빵","tel":"032-612-0029","addr":"경기도 부천시 심곡동 383-1번지 시네마존 1층 109호","indutype":"음료식품 - 제과점","category":"food"}]},{"lat":"37.487703588","long":"126.78677241","imageIndex":7,"items":[{"name":"언니네작은빵집","tel":"032-349-1800","addr":"경기도 부천시 심곡동 151-20번지 1층","indutype":"음료식품 - 제과점","category":"food"}]},{"lat":"37.487959754","long":"126.78399016","imageIndex":7,"items":[{"name":"에코엔조이","tel":"032-345-1379","addr":"경기도 부천시 심곡동 161-20번지 부천중앙프라자 제1층제8호1/2,제9,10호","indutype":"건강식품 - 기타건강식품","category":"food"}]},{"lat":"37.492487258","long":"126.77216046","imageIndex":7,"items":[{"name":"에토스커피(Ethos coffee)","tel":"032-612-4688","addr":"경기도 부천시 심곡동 292-1번지 1층","indutype":"음료식품 - 기타음료식품","category":"food"}]},{"lat":"37.488735274","long":"126.78434972","imageIndex":7,"items":[{"name":"영도빌딩(심곡)","tel":"032-651-9424","addr":"경기도 부천시 심곡동 161-3번지","indutype":"회원제형태 - 건강식품","category":"food"},{"name":"유니베라부천","tel":"032-651-9424","addr":"경기도 부천시 심곡동 161-3번지 영도빌딩 5층","indutype":"건강식품 - 기타건강식품","category":"food"}]},{"lat":"37.49445365","long":"126.78277257","imageIndex":7,"items":[{"name":"영진수산","tel":"070-5022-4846","addr":"경기도 부천시 심곡동 107-29번지 1층","indutype":"음료식품 - 농·축·수산품","category":"food"}]},{"lat":"37.489626142","long":"126.77423848","imageIndex":7,"items":[{"name":"예스마트","tel":"032-654-9151","addr":"경기도 부천시 심곡동 330-50번지 1층","indutype":"음료식품 - 농·축·수산품","category":"food"}]},{"lat":"37.487452656","long":"126.77315964","imageIndex":7,"items":[{"name":"오병이어 세계과자","tel":"","addr":"경기도 부천시 심곡동 357-18번지 2층","indutype":"음료식품 - 기타음료식품","category":"food"}]},{"lat":"37.490013304","long":"126.77410161","imageIndex":7,"items":[{"name":"우리 떡방","tel":"032-667-5050","addr":"경기도 부천시 심곡동 334-7번지","indutype":"음료식품 - 제과점","category":"food"}]},{"lat":"37.495285497","long":"126.78435326","imageIndex":7,"items":[{"name":"우리동네고기촌","tel":"032-665-9285","addr":"경기도 부천시 심곡동 92-44번지 1층","indutype":"음료식품 - 정육점","category":"food"}]},{"lat":"37.486709636","long":"126.78521494","imageIndex":7,"items":[{"name":"우리밀푸드","tel":"070-8238-4500","addr":"경기도 부천시 심곡동 165-16번지","indutype":"음료식품 - 기타음료식품","category":"food"}]},{"lat":"37.486400687","long":"126.7838025","imageIndex":7,"items":[{"name":"우명유통","tel":"","addr":"경기도 부천시 심곡동 168-9번지 6층","indutype":"음료식품 - 농·축·수산품","category":"food"}]},{"lat":"37.486987105","long":"126.78421913","imageIndex":7,"items":[{"name":"우정환전소","tel":"","addr":"경기도 부천시 심곡동 165-20번지 1층","indutype":"음료식품 - 기타음료식품","category":"food"}]},{"lat":"37.48506426","long":"126.77744082","imageIndex":7,"items":[{"name":"원미상사","tel":"032-667-6135","addr":"경기도 부천시 심곡동 465-3번지 금호타운 2층 203호","indutype":"음료식품 - 기타음료식품","category":"food"}]},{"lat":"37.489766293","long":"126.78646117","imageIndex":7,"items":[{"name":"일동후디스부천동부대리점","tel":"032-663-2833","addr":"경기도 부천시 심곡동 126-19번지 1층","indutype":"음료식품 - 기타음료식품","category":"food"}]},{"lat":"37.485708223","long":"126.78943522","imageIndex":7,"items":[{"name":"일진냉동","tel":"032-664-0090","addr":"경기도 부천시 심곡동 124-12번지","indutype":"음료식품 - 농·축·수산품","category":"food"}]},{"lat":"37.484731988","long":"126.78280109","imageIndex":7,"items":[{"name":"일품몰","tel":"","addr":"경기도 부천시 심곡동 498번지 52(79)호","indutype":"건강식품 - 기타건강식품","category":"food"}]},{"lat":"37.494203894","long":"126.78413025","imageIndex":7,"items":[{"name":"자연건강원","tel":"032-653-0306","addr":"경기도 부천시 심곡동 96-30번지","indutype":"건강식품 - 기타건강식품","category":"food"}]},{"lat":"37.489761018","long":"126.78360046","imageIndex":7,"items":[{"name":"자이언트매점","tel":"02-000-0000","addr":"경기도 부천시 심곡동 355-1번지 지하1층","indutype":"음료식품 - 기타음료식품","category":"food"}]},{"lat":"37.490843021","long":"126.77451746","imageIndex":7,"items":[{"name":"정성농산","tel":"032-665-9942","addr":"경기도 부천시 심곡동 326-37번지 1층","indutype":"음료식품 - 미곡상","category":"food"}]},{"lat":"37.486900029","long":"126.78585888","imageIndex":7,"items":[{"name":"정화야채가게","tel":"070-7425-2895","addr":"경기도 부천시 심곡동 149-10번지 미림아트빌 201호","indutype":"음료식품 - 농·축·수산품","category":"food"}]},{"lat":"37.487788789","long":"126.77929828","imageIndex":7,"items":[{"name":"좋은아침bread","tel":"032-652-8863","addr":"경기도 부천시 심곡동 406-31번지 1층","indutype":"음료식품 - 제과점","category":"food"}]},{"lat":"37.497402315","long":"126.78407569","imageIndex":7,"items":[{"name":"주식회사 대현유통","tel":"032-662-2839","addr":"경기도 부천시 심곡동 37-2번지","indutype":"음료식품 - 기타음료식품","category":"food"}]},{"lat":"37.484621207","long":"126.7813768","imageIndex":7,"items":[{"name":"주식회사보성이앤씨","tel":"032-612-1800","addr":"경기도 부천시 심곡동 173-8번지 2층 201호","indutype":"음료식품 - 기타음료식품","category":"food"}]},{"lat":"37.485874307","long":"126.77699743","imageIndex":7,"items":[{"name":"중국식품점","tel":"","addr":"경기도 부천시 심곡동 464-6번지 스카이파크 109호","indutype":"음료식품 - 기타음료식품","category":"food"}]},{"lat":"37.489096269","long":"126.77984843","imageIndex":7,"items":[{"name":"지구빵/주식회사 유베리에프앤비","tel":"02-457-0155","addr":"경기도 부천시 심곡동 420-6번지 2층","indutype":"음료식품 - 제과점","category":"food"}]},{"lat":"37.489009932","long":"126.78185005","imageIndex":7,"items":[{"name":"지성떡방앗간","tel":"032-657-5949","addr":"경기도 부천시 심곡동 376-13번지","indutype":"음료식품 - 제과점","category":"food"}]},{"lat":"37.490710087","long":"126.78523725","imageIndex":7,"items":[{"name":"진리야채","tel":"032-663-8382","addr":"경기도 부천시 심곡동 120-15번지 2층","indutype":"음료식품 - 농·축·수산품","category":"food"}]},{"lat":"37.4894038","long":"126.78532019","imageIndex":7,"items":[{"name":"진한양행","tel":"032-655-7337","addr":"경기도 부천시 심곡동 155-2번지 2층","indutype":"회원제형태 - 건강식품","category":"food"}]},{"lat":"37.490509257","long":"126.78382442","imageIndex":7,"items":[{"name":"청록천","tel":"032-656-9322","addr":"경기도 부천시 심곡동 367-12번지","indutype":"건강식품 - 기타건강식품","category":"food"}]},{"lat":"37.488314199","long":"126.78080055","imageIndex":7,"items":[{"name":"카페 마마건스","tel":"070-8672-1056","addr":"경기도 부천시 심곡동 377-14번지 1층","indutype":"음료식품 - 기타음료식품","category":"food"}]},{"lat":"37.486483136","long":"126.7749943","imageIndex":7,"items":[{"name":"칼슘왕 진세노 apexel","tel":"032-668-3366","addr":"경기도 부천시 심곡동 360번지 1층 일부","indutype":"건강식품 - 기타건강식품","category":"food"}]},{"lat":"37.486037811","long":"126.78246937","imageIndex":7,"items":[{"name":"케이크만들기단하나","tel":"032-664-6722","addr":"경기도 부천시 심곡동 177-12번지 2층","indutype":"음료식품 - 제과점","category":"food"}]},{"lat":"37.488343083","long":"126.7866575","imageIndex":7,"items":[{"name":"쿡앤베이킹","tel":"032-323-6456","addr":"경기도 부천시 심곡동 800번지 ILS빌딩 지층 24호","indutype":"음료식품 - 기타음료식품","category":"food"}]},{"lat":"37.491710413","long":"126.78051911","imageIndex":7,"items":[{"name":"크랩나라","tel":"","addr":"경기도 부천시 심곡동 430-24번지 명품캐슬 나동 101호","indutype":"음료식품 - 농·축·수산품","category":"food"}]},{"lat":"37.489322119","long":"126.77543797","imageIndex":7,"items":[{"name":"탄탄(tantan)","tel":"031-000-0000","addr":"경기도 부천시 심곡동 330-33번지 1층","indutype":"음료식품 - 제과점","category":"food"}]},{"lat":"37.485427871","long":"126.78394101","imageIndex":7,"items":[{"name":"파리바게트(부천역사거리점)","tel":"032-614-9990","addr":"경기도 부천시 심곡동 170-18번지 1층","indutype":"음료식품 - 제과점","category":"food"}]},{"lat":"37.491843285","long":"126.78412583","imageIndex":7,"items":[{"name":"파리바게트대성점","tel":"032-661-0702","addr":"경기도 부천시 심곡동 104-3번지 부천대성병원재단법인 별관 1층","indutype":"음료식품 - 제과점","category":"food"}]},{"lat":"37.485402059","long":"126.77505412","imageIndex":7,"items":[{"name":"포장마차","tel":"02-1600-9147","addr":"경기도 부천시 심곡동 362-44번지 건환다세대","indutype":"음료식품 - 제과점","category":"food"}]},{"lat":"37.486927511","long":"126.77649676","imageIndex":7,"items":[{"name":"포장전문 활어회","tel":"032-655-1325","addr":"경기도 부천시 심곡동 351-39번지 1층","indutype":"음료식품 - 기타음료식품","category":"food"}]},{"lat":"37.496590756","long":"126.78371619","imageIndex":7,"items":[{"name":"푸다스","tel":"070-4114-4092","addr":"경기도 부천시 심곡동 40-92번지 1층","indutype":"음료식품 - 농·축·수산품","category":"food"}]},{"lat":"37.485402622","long":"126.78007424","imageIndex":7,"items":[{"name":"프루미에 케이크","tel":"","addr":"경기도 부천시 심곡동 385번지 피노키오상가 4층 428호","indutype":"음료식품 - 기타음료식품","category":"food"}]},{"lat":"37.488933031","long":"126.78410039","imageIndex":7,"items":[{"name":"플러스홈코리아","tel":"031-6570-6477","addr":"경기도 부천시 심곡동 158-10번지 2층","indutype":"건강식품 - 기타건강식품","category":"food"}]},{"lat":"37.491348775","long":"126.77513783","imageIndex":7,"items":[{"name":"픽미픽미아이스","tel":"","addr":"경기도 부천시 심곡동 304-17번지 1층 일부","indutype":"음료식품 - 기타음료식품","category":"food"}]},{"lat":"37.493815232","long":"126.78346422","imageIndex":7,"items":[{"name":"한마음 커뮤니케이션","tel":"032-721-6176","addr":"경기도 부천시 심곡동 100-4번지 라이프타운 2층 202호","indutype":"음료식품 - 미곡상","category":"food"}]},{"lat":"37.488237108","long":"126.77346253","imageIndex":7,"items":[{"name":"한성상사","tel":"032-328-4527","addr":"경기도 부천시 심곡동 346-3번지","indutype":"음료식품 - 농·축·수산품","category":"food"}]},{"lat":"37.490238079","long":"126.7833503","imageIndex":7,"items":[{"name":"한아름","tel":"032-614-8806","addr":"경기도 부천시 심곡동 365-1번지 1층","indutype":"음료식품 - 기타음료식품","category":"food"}]},{"lat":"37.484931761","long":"126.78363719","imageIndex":7,"items":[{"name":"한우리축산물도매센터","tel":"032-655-7632","addr":"경기도 부천시 심곡동 171-12번지","indutype":"음료식품 - 정육점","category":"food"}]},{"lat":"37.491042075","long":"126.78449","imageIndex":7,"items":[{"name":"해피하우스","tel":"","addr":"경기도 부천시 심곡동 121번지 대성빌딩 1층 일부","indutype":"음료식품 - 기타음료식품","category":"food"}]},{"lat":"37.49561999","long":"126.78496292","imageIndex":7,"items":[{"name":"해피하우스","tel":"02-1111-1111","addr":"경기도 부천시 심곡동 89-16번지 1층 일부","indutype":"음료식품 - 기타음료식품","category":"food"}]},{"lat":"37.49062052","long":"126.77594286","imageIndex":7,"items":[{"name":"허니구쯔(HONEY GOOZZ)","tel":"","addr":"경기도 부천시 심곡동 326-18번지 1층 일부","indutype":"음료식품 - 기타음료식품","category":"food"}]},{"lat":"37.491708579","long":"126.77954667","imageIndex":7,"items":[{"name":"홍익상사","tel":"","addr":"경기도 부천시 심곡동 430-18번지 2층","indutype":"음료식품 - 농·축·수산품","category":"food"}]},{"lat":"37.49020992","long":"126.77327558","imageIndex":7,"items":[{"name":"황가네전통김치","tel":"032-662-7856","addr":"경기도 부천시 심곡동 334-2번지 1층","indutype":"음료식품 - 기타음료식품","category":"food"}]},{"lat":"37.488982352","long":"126.77213732","imageIndex":7,"items":[{"name":"황금게장 심곡점","tel":"032-425-2996","addr":"경기도 부천시 심곡동 345-24번지","indutype":"음료식품 - 기타음료식품","category":"food"}]},{"lat":"37.490734903","long":"126.77451778","imageIndex":7,"items":[{"name":"황소마을정육점","tel":"032-664-5769","addr":"경기도 부천시 심곡동 326-36번지","indutype":"음료식품 - 정육점","category":"food"}]},{"lat":"37.490292719","long":"126.7741573","imageIndex":7,"items":[{"name":"효성생고기백화점","tel":"032-655-2732","addr":"경기도 부천시 심곡동 324-16번지","indutype":"음료식품 - 정육점","category":"food"}]},{"lat":"37.486764153","long":"126.78546353","imageIndex":7,"items":[{"name":"효소상회","tel":"032-652-5148","addr":"경기도 부천시 심곡동 148-3번지","indutype":"건강식품 - 기타건강식품","category":"food"}]}]