[{"lat":"37.174223128","long":"127.11324188","imageIndex":4,"items":[{"name":"2동탄대반점","tel":"031-378-8463","addr":"경기도 화성시 산척동 708-3번지 1층","indutype":"일반휴게음식 - 중국식","category":"restaurant"},{"name":"신진미통닭산척점","tel":"031-376-0688","addr":"경기도 화성시 산척동 708-10번지 1층","indutype":"일반휴게음식 - 스넥","category":"restaurant"},{"name":"아띠랑스","tel":"031-378-7777","addr":"경기도 화성시 산척동 710-1번지 1층","indutype":"일반휴게음식 - 서양음식","category":"restaurant"},{"name":"처갓집양념치킨 동탄중앙점","tel":"031-375-8292","addr":"경기도 화성시 산척동 249번지 1층 일부","indutype":"일반휴게음식 - 스넥","category":"restaurant"},{"name":"하오츠 양꼬치","tel":"031-378-7553","addr":"경기도 화성시 산척동 708-6번지","indutype":"일반휴게음식 - 중국식","category":"restaurant"}]},{"lat":"37.17386227","long":"127.11371428","imageIndex":4,"items":[{"name":"60계치킨 동탄호수점","tel":"031-373-6066","addr":"경기도 화성시 산척동 712-6번지 1층 일부호","indutype":"일반휴게음식 - 스넥","category":"restaurant"},{"name":"8딱8딱 활어회전문점","tel":"031-111-1111","addr":"경기도 화성시 산척동 715-4번지 1층 일부호","indutype":"일반휴게음식 - 일식·회집","category":"restaurant"},{"name":"노랑통닭 호수중앙점","tel":"","addr":"경기도 화성시 산척동 714-6번지 1층 102호","indutype":"일반휴게음식 - 스넥","category":"restaurant"},{"name":"다경감자탕 동탄2호점","tel":"031-376-1044","addr":"경기도 화성시 산척동 715-1번지 1층 전부","indutype":"일반휴게음식 - 일반한식","category":"restaurant"},{"name":"동탄김밥나라","tel":"031-377-0887","addr":"경기도 화성시 산척동 711-5번지 102호","indutype":"일반휴게음식 - 스넥","category":"restaurant"},{"name":"마망카롱","tel":"","addr":"경기도 화성시 산척동 712-7번지 1층 103호","indutype":"일반휴게음식 - 서양음식","category":"restaurant"},{"name":"버무리떡볶이 동탄호수공원점","tel":"031-372-5209","addr":"경기도 화성시 산척동 712-5번지 1층 101호","indutype":"일반휴게음식 - 일반한식","category":"restaurant"},{"name":"본도시락 동탄호수공원점","tel":"031-378-4282","addr":"경기도 화성시 산척동 716-5번지 1층 101호","indutype":"일반휴게음식 - 일반한식","category":"restaurant"},{"name":"비에이치씨(bhc) 동탄산척동점","tel":"031-376-0264","addr":"경기도 화성시 산척동 711-5번지 1층 일부 103호","indutype":"일반휴게음식 - 스넥","category":"restaurant"},{"name":"손조오향각","tel":"","addr":"경기도 화성시 산척동 716-8번지 1층","indutype":"일반휴게음식 - 중국식","category":"restaurant"},{"name":"수미반점","tel":"031-374-7456","addr":"경기도 화성시 산척동 715-5번지","indutype":"일반휴게음식 - 중국식","category":"restaurant"},{"name":"용인순대국","tel":"031-378-2009","addr":"경기도 화성시 산척동 714-4번지 1층","indutype":"일반휴게음식 - 일반한식","category":"restaurant"},{"name":"용인토종순대국","tel":"031-378-2009","addr":"경기도 화성시 산척동 714-4번지 1층","indutype":"일반휴게음식 - 일반한식","category":"restaurant"},{"name":"웰빙 월람 삼겹쌈","tel":"","addr":"경기도 화성시 산척동 715-2번지 1층 일부호","indutype":"일반휴게음식 - 일반한식","category":"restaurant"},{"name":"진수성찬 캐더링","tel":"031-000-0000","addr":"경기도 화성시 산척동 710-2번지 1층 전부호","indutype":"일반휴게음식 - 일반한식","category":"restaurant"},{"name":"청기와감자탕순대철판볶음","tel":"031-000-0000","addr":"경기도 화성시 산척동 710-4번지 1층 전부호","indutype":"일반휴게음식 - 일반한식","category":"restaurant"}]},{"lat":"37.167558096","long":"127.1286346","imageIndex":4,"items":[{"name":"7분통닭반도10차점","tel":"","addr":"경기도 화성시 산척동 744번지 그린힐반도유보라아이비파크10 3654동 B124호","indutype":"일반휴게음식 - 스넥","category":"restaurant"},{"name":"메가엠지씨커피","tel":"070-9122-5972","addr":"경기도 화성시 산척동 744번지 그린힐반도유보라아이비파크10 3653동 지하1층 106호","indutype":"일반휴게음식 - 서양음식","category":"restaurant"},{"name":"모두의만족","tel":"031-377-6332","addr":"경기도 화성시 산척동 744번지 그린힐 반도유보라 아이비파크 10 3655동 지1층 B128호","indutype":"일반휴게음식 - 일반한식","category":"restaurant"},{"name":"바사칸 왕새우튀김","tel":"","addr":"경기도 화성시 산척동 744번지 그린힐반도유보라10차 카림에비뉴3차 1단지 B117호","indutype":"일반휴게음식 - 스넥","category":"restaurant"},{"name":"백채김치찌개","tel":"031-378-7503","addr":"경기도 화성시 산척동 744번지 그린힐반도유보라아이비파크10 3654동 지하1층 B118호","indutype":"일반휴게음식 - 일반한식","category":"restaurant"},{"name":"오마뎅","tel":"070-8846-4340","addr":"경기도 화성시 산척동 744번지 그린힐반도유보라 아이비파크10 지1층 B122호","indutype":"일반휴게음식 - 일반한식","category":"restaurant"},{"name":"커피에 반하다","tel":"031-375-4670","addr":"경기도 화성시 산척동 744번지 그린힐반도유보라아이비파크10 지하1층 123호","indutype":"일반휴게음식 - 서양음식","category":"restaurant"},{"name":"호수꼬치 동탄2신도시점","tel":"031-8055-8508","addr":"경기도 화성시 산척동 744번지 그린힐반도유보라아이비파크10 3653동 지하1층 B108호","indutype":"일반휴게음식 - 일반한식","category":"restaurant"},{"name":"혼곱창","tel":"","addr":"경기도 화성시 산척동 744번지 그린힐반도유보라아이비파크10 지하1층 115호","indutype":"일반휴게음식 - 일반한식","category":"restaurant"}]},{"lat":"37.168695908","long":"127.10752541","imageIndex":4,"items":[{"name":"BBQ동탄호수공원점","tel":"031-377-9282","addr":"경기도 화성시 산척동 584번지 지2층 B206,B207호","indutype":"일반휴게음식 - 스넥","category":"restaurant"},{"name":"가족생각","tel":"031-8077-9590","addr":"경기도 화성시 산척동 584번지 3층 306호","indutype":"일반휴게음식 - 일반한식","category":"restaurant"},{"name":"남도연","tel":"","addr":"경기도 화성시 산척동 584번지 산척프라자 2층 207, 208, 209호","indutype":"일반휴게음식 - 일반한식","category":"restaurant"},{"name":"더치앤빈","tel":"070-8840-1829","addr":"경기도 화성시 산척동 584번지 1층 111호","indutype":"일반휴게음식 - 서양음식","category":"restaurant"},{"name":"모닝딜라이트","tel":"031-376-0418","addr":"경기도 화성시 산척동 584번지 202호 201호, 202호","indutype":"일반휴게음식 - 서양음식","category":"restaurant"},{"name":"뽕뜨락동탄호수공원점","tel":"031-373-8004","addr":"경기도 화성시 산척동 584번지 1층 101호","indutype":"일반휴게음식 - 서양음식","category":"restaurant"},{"name":"열정갈비","tel":"031-372-9366","addr":"경기도 화성시 산척동 584번지 2층 203,204호","indutype":"일반휴게음식 - 일반한식","category":"restaurant"},{"name":"티바두마리치킨 동탄호수점","tel":"","addr":"경기도 화성시 산척동 584번지 110호","indutype":"일반휴게음식 - 일반한식","category":"restaurant"},{"name":"프래그런스","tel":"031-372-8125","addr":"경기도 화성시 산척동 584번지 산척프라자 지하2층 B210호","indutype":"일반휴게음식 - 서양음식","category":"restaurant"},{"name":"한식사랑","tel":"031-111-1111","addr":"경기도 화성시 산척동 584번지 산척호수프라자 3층 301,302호","indutype":"일반휴게음식 - 일반한식","category":"restaurant"},{"name":"호수포차","tel":"031-372-0708","addr":"경기도 화성시 산척동 584번지 지층 B208호","indutype":"일반휴게음식 - 일반한식","category":"restaurant"},{"name":"황소곱창구이","tel":"031-375-5593","addr":"경기도 화성시 산척동 584번지 산척호수프라자 B211호","indutype":"일반휴게음식 - 일반한식","category":"restaurant"},{"name":"히노아지 동탄호수공원점","tel":"031-373-3637","addr":"경기도 화성시 산척동 584번지 호수산척프라자 지하2층 B203호","indutype":"일반휴게음식 - 일식·회집","category":"restaurant"}]},{"lat":"37.16864016","long":"127.10941689","imageIndex":4,"items":[{"name":"가든한식뷔페","tel":"031-377-1188","addr":"경기도 화성시 산척동 727-8번지 3층 302호","indutype":"일반휴게음식 - 일반한식","category":"restaurant"},{"name":"경성주막1929동탄호수공원점","tel":"031-377-7108","addr":"경기도 화성시 산척동 727-8번지 지하2층 201호202호","indutype":"일반휴게음식 - 일반한식","category":"restaurant"},{"name":"밸런스키친","tel":"031-000-0000","addr":"경기도 화성시 산척동 727-8번지 지하1층 파케이드스텔라 B-104호","indutype":"일반휴게음식 - 일반한식","category":"restaurant"},{"name":"비엔나커피하우스","tel":"031-313-1313","addr":"경기도 화성시 산척동 727-8번지 3층 301호","indutype":"일반휴게음식 - 일반한식","category":"restaurant"},{"name":"유어스","tel":"031-374-0447","addr":"경기도 화성시 산척동 727-8번지 파케이드스텔라 지하 B103호","indutype":"일반휴게음식 - 서양음식","category":"restaurant"},{"name":"크래프트한스 동탄호수공원점","tel":"","addr":"경기도 화성시 산척동 727-8번지 파케이드스텔라 지하2층 B-203호","indutype":"일반휴게음식 - 스넥","category":"restaurant"},{"name":"행복한집","tel":"031-376-7056","addr":"경기도 화성시 산척동 727-8번지 파케이드스텔라 2층 205호","indutype":"일반휴게음식 - 일반한식","category":"restaurant"}]},{"lat":"37.173358306","long":"127.11304921","imageIndex":4,"items":[{"name":"가보족발동탄점","tel":"031-375-5530","addr":"경기도 화성시 산척동 714-9번지","indutype":"일반휴게음식 - 일반한식","category":"restaurant"},{"name":"나무카페","tel":"","addr":"경기도 화성시 산척동 714-7번지 1층 일부호","indutype":"일반휴게음식 - 서양음식","category":"restaurant"},{"name":"장원꼼장어닭발","tel":"","addr":"경기도 화성시 산척동 714-1번지 1층 일부호","indutype":"일반휴게음식 - 일반한식","category":"restaurant"}]},{"lat":"37.171858327","long":"127.1078","imageIndex":4,"items":[{"name":"감성커피 동탄호수공원점","tel":"","addr":"경기도 화성시 산척동 717-1번지 드림타워 108호","indutype":"일반휴게음식 - 서양음식","category":"restaurant"},{"name":"순수치킨 동탄호수점","tel":"031-372-6226","addr":"경기도 화성시 산척동 717-1번지 드림타워 111호","indutype":"일반휴게음식 - 스넥","category":"restaurant"},{"name":"아딸 동탄호수점","tel":"031-375-1725","addr":"경기도 화성시 산척동 717-1번지 드림타워 103호","indutype":"일반휴게음식 - 일반한식","category":"restaurant"},{"name":"청년다방 남동탄점","tel":"031-8077-4859","addr":"경기도 화성시 산척동 717-1번지 1층 104호","indutype":"일반휴게음식 - 스넥","category":"restaurant"}]},{"lat":"37.167029395","long":"127.10705024","imageIndex":4,"items":[{"name":"감성커피(동탄호수공원우성점)","tel":"031-372-4008","addr":"경기도 화성시 산척동 728-4번지 우성메디피아 1층 106호","indutype":"일반휴게음식 - 서양음식","category":"restaurant"},{"name":"공감식탁 씬","tel":"","addr":"경기도 화성시 산척동 728-4번지 동탄2우성메디피아 2층 205,206호","indutype":"일반휴게음식 - 일반한식","category":"restaurant"},{"name":"라온카페","tel":"031-372-8464","addr":"경기도 화성시 산척동 728-4번지 동탄2우성메디피아 10층 1007호","indutype":"일반휴게음식 - 서양음식","category":"restaurant"},{"name":"얌샘김밥 동탄호수공원점","tel":"031-372-4706","addr":"경기도 화성시 산척동 728-4번지 동탄2우성메디피아 1층 103호","indutype":"일반휴게음식 - 스넥","category":"restaurant"}]},{"lat":"37.170804158","long":"127.10774225","imageIndex":4,"items":[{"name":"겟201동탄점","tel":"031-377-3201","addr":"경기도 화성시 산척동 717-5번지 1동 3층 301,302호","indutype":"일반휴게음식 - 일반한식","category":"restaurant"},{"name":"총각네 옛날통닭","tel":"031-0000-0000","addr":"경기도 화성시 산척동 717-5번지 1동 1층 114호","indutype":"일반휴게음식 - 스넥","category":"restaurant"},{"name":"하한정","tel":"","addr":"경기도 화성시 산척동 717-5번지 레이크파로스 1동 2층 205호","indutype":"일반휴게음식 - 일반한식","category":"restaurant"}]},{"lat":"37.170533391","long":"127.11794299","imageIndex":4,"items":[{"name":"고봉민김밥인 화성산척점","tel":"031-376-2029","addr":"경기도 화성시 산척동 723번지 풍산리치안타워 116호","indutype":"일반휴게음식 - 스넥","category":"restaurant"},{"name":"닭장수후라이드 산척점","tel":"031-376-1882","addr":"경기도 화성시 산척동 723번지 풍산리치안타워 1층 112호","indutype":"일반휴게음식 - 스넥","category":"restaurant"},{"name":"메가엠지씨커피 동탄산척점","tel":"","addr":"경기도 화성시 산척동 723번지 1동 11호","indutype":"일반휴게음식 - 서양음식","category":"restaurant"},{"name":"신사부대찌개품격삼겹살(동탄호수점)","tel":"031-374-8859","addr":"경기도 화성시 산척동 723번지 풍산리치안타워 2층 206호","indutype":"일반휴게음식 - 일반한식","category":"restaurant"},{"name":"신사품격고기전문점","tel":"","addr":"경기도 화성시 산척동 723번지 2층 207호","indutype":"일반휴게음식 - 일반한식","category":"restaurant"}]},{"lat":"37.166171016","long":"127.12813691","imageIndex":4,"items":[{"name":"김복남맥주","tel":"031-372-0449","addr":"경기도 화성시 산척동 745번지 레이크힐반도유보라아이비파크10.2 3627동 B133호","indutype":"일반휴게음식 - 주점","category":"restaurant"},{"name":"달빛맥주 동탄카림3차점","tel":"02-1234-1234","addr":"경기도 화성시 산척동 745번지 레이크힐반도유보라아이비파크10.2 1층 136,137호","indutype":"일반휴게음식 - 주점","category":"restaurant"},{"name":"닭강정5반하다 동탄2호점","tel":"031-378-0038","addr":"경기도 화성시 산척동 745번지 레이크힐반도유보라아이비파크10.2 3236동 지하1층 B126호","indutype":"일반휴게음식 - 일반한식","category":"restaurant"},{"name":"돼지랑닭이랑","tel":"","addr":"경기도 화성시 산척동 745번지 레이크힐반도유보라아이비파크10.2 2층 225,226호","indutype":"일반휴게음식 - 일반한식","category":"restaurant"},{"name":"맥주활력수(동탄카림3차점)","tel":"031-8055-0679","addr":"경기도 화성시 산척동 745번지 레이크힐 반도유보라 아이비파크 10.2 1층 138,139,140호","indutype":"일반휴게음식 - 주점","category":"restaurant"},{"name":"미스터빠삭","tel":"031-372-6788","addr":"경기도 화성시 산척동 745번지 레이크힐반도유보라아이비파크10.2 지하1층 123호","indutype":"일반휴게음식 - 서양음식","category":"restaurant"},{"name":"바쭈삼술쭈삼","tel":"031-375-3131","addr":"경기도 화성시 산척동 745번지 레이크힐반도유보라아이비파크10.2 3626동 1충 127호 ,128,129호","indutype":"일반휴게음식 - 일반한식","category":"restaurant"},{"name":"셀렉토커피 동탄2반도10차점","tel":"","addr":"경기도 화성시 산척동 745번지 레이크힐반도유보라아이비파크10.2 3625동 지층 B104호","indutype":"일반휴게음식 - 서양음식","category":"restaurant"},{"name":"얌샘김밥 동탄2세정초점","tel":"031-377-2399","addr":"경기도 화성시 산척동 745번지 레이크힐 반도유보라 아이비파크10.2 3625동 지하1층 B107호","indutype":"일반휴게음식 - 일반한식","category":"restaurant"},{"name":"육끝","tel":"031-000-0000","addr":"경기도 화성시 산척동 745번지 레이크힐 반도유보라 아이비파크 10.2 3627동 지하 1층 B134호,B135호","indutype":"일반휴게음식 - 일반한식","category":"restaurant"},{"name":"자담치킨 산척점","tel":"031-376-4560","addr":"경기도 화성시 산척동 745번지 레이크힐 반도유보라 아이비파크 10.2 3627동 지1층 B144호","indutype":"일반휴게음식 - 스넥","category":"restaurant"},{"name":"카페드프랑","tel":"031-375-9072","addr":"경기도 화성시 산척동 745번지 레이크힐 반도유보라 아이비파크 10.2 2층 223호,224호","indutype":"일반휴게음식 - 서양음식","category":"restaurant"},{"name":"피자마루 산척점","tel":"031-8058-5425","addr":"경기도 화성시 산척동 745번지 레이크힐반도유보라아이비파크10.2 3625동 지하1층 B114호","indutype":"일반휴게음식 - 서양음식","category":"restaurant"}]},{"lat":"37.168748739","long":"127.10891037","imageIndex":4,"items":[{"name":"남문떡볶이","tel":"031-831-3519","addr":"경기도 화성시 산척동 727-6번지 1층 109호","indutype":"일반휴게음식 - 스넥","category":"restaurant"},{"name":"동탄야시장","tel":"","addr":"경기도 화성시 산척동 727-6번지 피페이드스타 1층 101~103호","indutype":"일반휴게음식 - 일반한식","category":"restaurant"},{"name":"민'S비어","tel":"","addr":"경기도 화성시 산척동 727-6번지 파케이드스타 지하2층 201호","indutype":"일반휴게음식 - 주점","category":"restaurant"},{"name":"신계동장어","tel":"031-376-3588","addr":"경기도 화성시 산척동 727-6번지 3층 304호(파케이드 스타)","indutype":"일반휴게음식 - 일반한식","category":"restaurant"},{"name":"아빠가튀긴닭동탄호수공원점","tel":"031-377-9272","addr":"경기도 화성시 산척동 727-6번지 파케이트스타 지하2층 B204호","indutype":"일반휴게음식 - 스넥","category":"restaurant"},{"name":"월천삼계탕(동탄호수공원점)","tel":"","addr":"경기도 화성시 산척동 727-6번지 피케이드스타 지하1층 B-104호","indutype":"일반휴게음식 - 일반한식","category":"restaurant"},{"name":"카페나인(cafe nine)","tel":"031-375-2729","addr":"경기도 화성시 산척동 727-6번지 B101호","indutype":"일반휴게음식 - 서양음식","category":"restaurant"},{"name":"하늘아래","tel":"031-376-3775","addr":"경기도 화성시 산척동 727-6번지 파케이드스타 2층 203호","indutype":"일반휴게음식 - 일반한식","category":"restaurant"}]},{"lat":"37.168749252","long":"127.10833615","imageIndex":4,"items":[{"name":"대만샌드위치 메이젠","tel":"031-8077-2492","addr":"경기도 화성시 산척동 727-5번지 B103호","indutype":"일반휴게음식 - 스넥","category":"restaurant"},{"name":"두찜 동탄호수공원점","tel":"031-378-2725","addr":"경기도 화성시 산척동 727-5번지 지하2층 B201호","indutype":"일반휴게음식 - 스넥","category":"restaurant"},{"name":"에드가","tel":"","addr":"경기도 화성시 산척동 727-5번지 레이크스카이 지하2층 B204호","indutype":"일반휴게음식 - 일반한식","category":"restaurant"},{"name":"푸라닭화성동탄호수공원점","tel":"031-378-9206","addr":"경기도 화성시 산척동 727-5번지 지하2층 레이크스카이 B202,203호","indutype":"일반휴게음식 - 스넥","category":"restaurant"},{"name":"플린","tel":"","addr":"경기도 화성시 산척동 727-5번지 3층 302,303호","indutype":"일반휴게음식 - 서양음식","category":"restaurant"}]},{"lat":"37.174530328","long":"127.11233026","imageIndex":4,"items":[{"name":"대찬대박식당","tel":"031-376-5611","addr":"경기도 화성시 산척동 707-11번지 101호","indutype":"일반휴게음식 - 일반한식","category":"restaurant"},{"name":"바사칸 동네치킨동탄호수점","tel":"070-8116-9282","addr":"경기도 화성시 산척동 707-11번지 1층 일부호","indutype":"일반휴게음식 - 스넥","category":"restaurant"},{"name":"신비한커피","tel":"031-377-0381","addr":"경기도 화성시 산척동 707-9번지 1층","indutype":"일반휴게음식 - 서양음식","category":"restaurant"},{"name":"카페우유니(cafe uyuni)","tel":"031-377-1229","addr":"경기도 화성시 산척동 707-1번지","indutype":"일반휴게음식 - 서양음식","category":"restaurant"},{"name":"황금푸드","tel":"031-375-5581","addr":"경기도 화성시 산척동 707-11번지 103호","indutype":"일반휴게음식 - 일반한식","category":"restaurant"}]},{"lat":"37.169893356","long":"127.11824603","imageIndex":4,"items":[{"name":"도쿄라멘3900 (산척점)","tel":"031-376-3905","addr":"경기도 화성시 산척동 724-2번지 모닝그레이스빌딩 1동 1층 101호","indutype":"일반휴게음식 - 일식·회집","category":"restaurant"},{"name":"동명카츠 동탄2신도시점","tel":"031-377-5764","addr":"경기도 화성시 산척동 724-2번지 1층 115호","indutype":"일반휴게음식 - 일식·회집","category":"restaurant"},{"name":"만랩커피 동탄산척점","tel":"","addr":"경기도 화성시 산척동 724-1번지 중산타워 1층 103호","indutype":"일반휴게음식 - 서양음식","category":"restaurant"},{"name":"본죽&비빔밥 cafe 동탄산척점","tel":"031-373-2311","addr":"경기도 화성시 산척동 724-2번지 모닝그레이스빌딩 1동 1층 107호","indutype":"일반휴게음식 - 일반한식","category":"restaurant"},{"name":"송정식당","tel":"031-374-9279","addr":"경기도 화성시 산척동 724-3번지 효천프라자 201호","indutype":"일반휴게음식 - 일반한식","category":"restaurant"},{"name":"신전떡볶이","tel":"031-111-1111","addr":"경기도 화성시 산척동 724-1번지 1동 114호","indutype":"일반휴게음식 - 스넥","category":"restaurant"},{"name":"이디야커피 화성동탄산척점","tel":"031-8077-9947","addr":"경기도 화성시 산척동 724-3번지 효천프라자 101,102호","indutype":"일반휴게음식 - 서양음식","category":"restaurant"},{"name":"장수동 멸치국수","tel":"031-373-6876","addr":"경기도 화성시 산척동 724-1번지 1동 1층 112호","indutype":"일반휴게음식 - 일반한식","category":"restaurant"},{"name":"투썸플레이스 동탄산척점","tel":"031-376-3611","addr":"경기도 화성시 산척동 724-2번지 모닝그레이스빌딩 108,109호","indutype":"일반휴게음식 - 서양음식","category":"restaurant"},{"name":"피자킹덤","tel":"","addr":"경기도 화성시 산척동 724-1번지 종산타워 1동 1층 118호","indutype":"일반휴게음식 - 서양음식","category":"restaurant"}]},{"lat":"37.167533732","long":"127.1073324","imageIndex":4,"items":[{"name":"동탄명가부대찌개","tel":"031-377-3877","addr":"경기도 화성시 산척동 728-2번지 우성에듀파크 2층 206,207호","indutype":"일반휴게음식 - 일반한식","category":"restaurant"},{"name":"명랑핫도그(동탄호수공원점)","tel":"031-372-5889","addr":"경기도 화성시 산척동 728-2번지 우성메디피아 113-2호","indutype":"일반휴게음식 - 스넥","category":"restaurant"},{"name":"백채김치찌개","tel":"","addr":"경기도 화성시 산척동 728-2번지 2층 204호","indutype":"일반휴게음식 - 일반한식","category":"restaurant"},{"name":"베러플레이스","tel":"031-111-1111","addr":"경기도 화성시 산척동 728-2번지 2층 214호","indutype":"일반휴게음식 - 일반한식","category":"restaurant"},{"name":"삼육칠하우스동탄호수공원점","tel":"031-374-0367","addr":"경기도 화성시 산척동 728-2번지 2층 201,202,203호","indutype":"일반휴게음식 - 일반한식","category":"restaurant"},{"name":"홍춘천치즈닭갈비 동탄호수점","tel":"031-375-7885","addr":"경기도 화성시 산척동 728-2번지 211호","indutype":"일반휴게음식 - 일반한식","category":"restaurant"}]},{"lat":"37.172754681","long":"127.11296951","imageIndex":4,"items":[{"name":"동탄식당","tel":"","addr":"경기도 화성시 산척동 716-4번지","indutype":"일반휴게음식 - 일반한식","category":"restaurant"},{"name":"봉순이바지락칼국수","tel":"031-373-4547","addr":"경기도 화성시 산척동 716-3번지","indutype":"일반휴게음식 - 일반한식","category":"restaurant"}]},{"lat":"37.177555097","long":"127.11525111","imageIndex":4,"items":[{"name":"두리아바비큐치킨동탄점","tel":"031-373-1150","addr":"경기도 화성시 산척동 48번지 동탄호수공원금강펜테리움센트럴파크II 지하3층 108호","indutype":"일반휴게음식 - 스넥","category":"restaurant"},{"name":"안심치킨 동탄2신도시점","tel":"031-373-1154","addr":"경기도 화성시 산척동 48번지 동탄호수공원금강펜테리움센트럴파크II 지하3층 104호","indutype":"일반휴게음식 - 스넥","category":"restaurant"},{"name":"커피에반하다","tel":"031-000-0000","addr":"경기도 화성시 산척동 48번지 금강펜테리움센트럴파크II 1층 107호","indutype":"일반휴게음식 - 서양음식","category":"restaurant"},{"name":"피자마루","tel":"031-377-5005","addr":"경기도 화성시 산척동 48번지 동탄호수공원 금강펜테리움 센트럴파크2 G동 2층 121호","indutype":"일반휴게음식 - 서양음식","category":"restaurant"},{"name":"홍익돈가스","tel":"031-373-4209","addr":"경기도 화성시 산척동 48번지 금강펜테리움센트럴파크 110동 112호 단지내상가","indutype":"일반휴게음식 - 일반한식","category":"restaurant"}]},{"lat":"37.166642046","long":"127.10693711","imageIndex":4,"items":[{"name":"못난이꽈배기동탄2호점","tel":"031-372-5020","addr":"경기도 화성시 산척동 728-5번지 우성애비뉴타워 1층 112호일부","indutype":"일반휴게음식 - 일반한식","category":"restaurant"},{"name":"알로하김밥","tel":"031-376-6966","addr":"경기도 화성시 산척동 728-5번지 우성애비뉴타워 119호","indutype":"일반휴게음식 - 일반한식","category":"restaurant"},{"name":"컬투치킨동탄호수공원점","tel":"","addr":"경기도 화성시 산척동 728-5번지 1층 118호","indutype":"일반휴게음식 - 스넥","category":"restaurant"},{"name":"홍짜장","tel":"","addr":"경기도 화성시 산척동 728-5번지 우성애비뉴타워 121호","indutype":"일반휴게음식 - 중국식","category":"restaurant"}]},{"lat":"37.174000944","long":"127.10988607","imageIndex":4,"items":[{"name":"보니타","tel":"031-0000-0000","addr":"경기도 화성시 산척동 699번지 동탄더샵레이크에듀타운 지1층 B11호","indutype":"일반휴게음식 - 서양음식","category":"restaurant"}]},{"lat":"37.173056264","long":"127.11799186","imageIndex":4,"items":[{"name":"보드람치킨동탄호수공원점","tel":"031-8003-2277","addr":"경기도 화성시 산척동 642번지 서희스타힐스NHF 1층","indutype":"일반휴게음식 - 스넥","category":"restaurant"}]},{"lat":"37.173665556","long":"127.11208129","imageIndex":4,"items":[{"name":"보싸마보싸마","tel":"031-377-5221","addr":"경기도 화성시 산척동 716-1번지","indutype":"일반휴게음식 - 일반한식","category":"restaurant"},{"name":"비어사케 동탄점","tel":"","addr":"경기도 화성시 산척동 713-9번지 1층 일부호","indutype":"일반휴게음식 - 주점","category":"restaurant"},{"name":"서진화로 첫번째이야기","tel":"","addr":"경기도 화성시 산척동 713-2번지 1층","indutype":"일반휴게음식 - 일반한식","category":"restaurant"},{"name":"솔다방","tel":"02-1577-0000","addr":"경기도 화성시 산척동 713-7번지 1층 일부호","indutype":"일반휴게음식 - 서양음식","category":"restaurant"},{"name":"유인순족발보쌈","tel":"031-377-4676","addr":"경기도 화성시 산척동 713-7번지 1층 일부호","indutype":"일반휴게음식 - 일반한식","category":"restaurant"},{"name":"응급실국물떡볶이 화성동탄호수공원점","tel":"031-376-6119","addr":"경기도 화성시 산척동 713-9번지 1층 일부호","indutype":"일반휴게음식 - 스넥","category":"restaurant"},{"name":"카페 다해","tel":"","addr":"경기도 화성시 산척동 707-8번지 1층 일부 103호","indutype":"일반휴게음식 - 서양음식","category":"restaurant"}]},{"lat":"37.165920666","long":"127.10755536","imageIndex":4,"items":[{"name":"본죽&비빔밥Cafe 동탄호수공원점","tel":"031-372-3688","addr":"경기도 화성시 산척동 728-6번지 1층 110호","indutype":"일반휴게음식 - 일반한식","category":"restaurant"}]},{"lat":"37.17397093","long":"127.11314018","imageIndex":4,"items":[{"name":"오꼬친","tel":"031-376-5792","addr":"경기도 화성시 산척동 708-8번지 1층 일부호","indutype":"일반휴게음식 - 스넥","category":"restaurant"}]},{"lat":"37.174610858","long":"127.11293842","imageIndex":4,"items":[{"name":"카페 하우스","tel":"031-111-1111","addr":"경기도 화성시 산척동 708-11번지 1층 전체호","indutype":"일반휴게음식 - 서양음식","category":"restaurant"}]},{"lat":"37.174782129","long":"127.11285985","imageIndex":4,"items":[{"name":"케미스트리 커피","tel":"070-0000-0000","addr":"경기도 화성시 산척동 707-2번지 1층","indutype":"일반휴게음식 - 서양음식","category":"restaurant"}]},{"lat":"37.173971192","long":"127.11285868","imageIndex":4,"items":[{"name":"파닥파닥회초밥","tel":"031-8055-8853","addr":"경기도 화성시 산척동 707-6번지 1층 전체호","indutype":"일반휴게음식 - 일반한식","category":"restaurant"}]}]