[{"lat":"37.634748217","long":"127.21158813","imageIndex":8,"items":[{"name":"금곡온누리약국","tel":"031-511-7783","addr":"경기도 남양주시 금곡동 158-59번지","indutype":"약국 - 약국","category":"medical"}]},{"lat":"37.627368371","long":"127.20166678","imageIndex":8,"items":[{"name":"금곡의원","tel":"031-559-7591","addr":"경기도 남양주시 금곡동 653번지","indutype":"의원 - 의원","category":"medical"},{"name":"동남약국","tel":"031-591-8073","addr":"경기도 남양주시 금곡동 653 동곡상가 106","indutype":"약국 - 약국","category":"medical"},{"name":"이사랑치과의원","tel":"031-591-2815","addr":"경기도 남양주시 금곡동 653번지 동곡상가 2층 1호","indutype":"의원 - 치과의원","category":"medical"}]},{"lat":"37.63466827","long":"127.21094215","imageIndex":8,"items":[{"name":"금곡제일한의원","tel":"031-595-7533","addr":"경기도 남양주시 금곡동 158-20번지 세화빌딩 2층 2호","indutype":"의원 - 한의원","category":"medical"}]},{"lat":"37.634223515","long":"127.2076668","imageIndex":8,"items":[{"name":"금곡중앙약국","tel":"031-559-4455","addr":"경기도 남양주시 금곡동 416-1번지 금곡프라자 106호","indutype":"약국 - 약국","category":"medical"},{"name":"참의원","tel":"031-591-4102","addr":"경기도 남양주시 금곡동 416-1번지 금곡프라자 303호","indutype":"의원 - 의원","category":"medical"}]},{"lat":"37.634388771","long":"127.21105466","imageIndex":8,"items":[{"name":"금곡한의원","tel":"031-595-5005","addr":"경기도 남양주시 금곡동 153-1번지 남양주센터프라자 4층 401호","indutype":"의원 - 한의원","category":"medical"},{"name":"문비뇨기과의원","tel":"031-592-4580","addr":"경기도 남양주시 금곡동 153-1번지 센타프라자 304호","indutype":"의원 - 의원","category":"medical"},{"name":"비타민플러스약국","tel":"031-595-2772","addr":"경기도 남양주시 금곡동 153-1번지 센터프라자 103호","indutype":"약국 - 약국","category":"medical"},{"name":"삼성엠알진단방사선과의원","tel":"031-559-4300","addr":"경기도 남양주시 금곡동 153-1번지 센터프라자 501호","indutype":"의원 - 의원","category":"medical"},{"name":"센트럴치과의원","tel":"031-591-1675","addr":"경기도 남양주시 금곡동 153-1번지 센터프라자 405호","indutype":"의원 - 치과의원","category":"medical"},{"name":"소망의원","tel":"031-559-1798","addr":"경기도 남양주시 금곡동 153-1번지 센터프라자 501호","indutype":"의원 - 의원","category":"medical"},{"name":"유이비인후과","tel":"031-591-4069","addr":"경기도 남양주시 금곡동 153-1번지 센터프라자 301호","indutype":"의원 - 의원","category":"medical"},{"name":"진서약국","tel":"031-591-3862","addr":"경기도 남양주시 금곡동 153-1번지 센타프라자 1층 102호","indutype":"약국 - 약국","category":"medical"},{"name":"한마음약국","tel":"031-595-3999","addr":"경기도 남양주시 금곡동 153-1센타프라자빌딩302-1","indutype":"약국 - 약국","category":"medical"},{"name":"한앤수연합소아청소년과의원","tel":"031-592-5055","addr":"경기도 남양주시 금곡동 153-1번지 센타프라자 303호","indutype":"의원 - 의원","category":"medical"},{"name":"한양마취통증의학과의원","tel":"031-511-7746","addr":"경기도 남양주시 금곡동 153-1번지 센타프라자 5층 501호","indutype":"의원 - 의원","category":"medical"},{"name":"한양치과의원","tel":"031-592-7531","addr":"경기도 남양주시 금곡동 153-1번지 센터프라자빌딩 202호","indutype":"의원 - 치과의원","category":"medical"}]},{"lat":"37.634721728","long":"127.21128217","imageIndex":8,"items":[{"name":"나라내과의원","tel":"031-559-8289","addr":"경기도 남양주시 금곡동 158-23번지 2층","indutype":"의원 - 의원","category":"medical"}]},{"lat":"37.627276859","long":"127.20250481","imageIndex":8,"items":[{"name":"다남한의원","tel":"031-591-2555","addr":"경기도 남양주시 금곡동 651-1번지 다남프라자 214호","indutype":"의원 - 한의원","category":"medical"},{"name":"신성약국","tel":"031-595-8363","addr":"경기도 남양주시 금곡동 651-1번지 다남프라자 123호","indutype":"약국 - 약국","category":"medical"}]},{"lat":"37.633808735","long":"127.20785826","imageIndex":8,"items":[{"name":"대관령동물병원","tel":"031-591-7270","addr":"경기도 남양주시 금곡동 427-28번지","indutype":"기타의료기관 - 동물병원","category":"medical"}]},{"lat":"37.634144251","long":"127.20661298","imageIndex":8,"items":[{"name":"대양치과의원","tel":"031-591-7800","addr":"경기도 남양주시 금곡동 404-77번지","indutype":"의원 - 치과의원","category":"medical"}]},{"lat":"37.633779911","long":"127.20888912","imageIndex":8,"items":[{"name":"동서울의원","tel":"031-592-5155","addr":"경기도 남양주시 금곡동 427-19번지","indutype":"의원 - 의원","category":"medical"}]},{"lat":"37.63519327","long":"127.21463694","imageIndex":8,"items":[{"name":"동의당한의원","tel":"031-595-8275","addr":"경기도 남양주시 금곡동 185-21번지 2층","indutype":"의원 - 한의원","category":"medical"}]},{"lat":"37.633780346","long":"127.20863988","imageIndex":8,"items":[{"name":"미애로여성의원","tel":"031-511-9090","addr":"경기도 남양주시 금곡동 427-23번지","indutype":"의원 - 의원","category":"medical"},{"name":"종로프라자약국","tel":"031-559-8806","addr":"경기도 남양주시 금곡동 427-23번지 대성빌딩","indutype":"약국 - 약국","category":"medical"}]},{"lat":"37.633838216","long":"127.20644221","imageIndex":8,"items":[{"name":"백삼한방요양원","tel":"031-592-5103","addr":"경기도 남양주시 금곡동 430-39번지","indutype":"병원 - 병원","category":"medical"},{"name":"백삼한의원","tel":"031-592-5103","addr":"경기도 남양주시 금곡동 430-39번지","indutype":"의원 - 한의원","category":"medical"}]},{"lat":"37.634253461","long":"127.20597885","imageIndex":8,"items":[{"name":"삼대한약방","tel":"031-592-7383","addr":"경기도 남양주시 금곡동 404-214번지","indutype":"약국 - 한약방","category":"medical"}]},{"lat":"37.633946797","long":"127.21133665","imageIndex":8,"items":[{"name":"수정약국","tel":"031-592-5288","addr":"경기도 남양주시 금곡동 153-6번지 프렌닥터중앙의원 2호","indutype":"약국 - 약국","category":"medical"}]},{"lat":"37.637336735","long":"127.21510754","imageIndex":8,"items":[{"name":"스카이메디칼","tel":"031-510-1188","addr":"경기도 남양주시 금곡동 172-23번지 삼미빌딩 2층 1호","indutype":"약국 - 제약회사","category":"medical"}]},{"lat":"37.634945406","long":"127.21216647","imageIndex":8,"items":[{"name":"양지한의원","tel":"031-559-8977","addr":"경기도 남양주시 금곡동 158-14번지 만복빌딩 2층 4호","indutype":"의원 - 한의원","category":"medical"},{"name":"현대치과","tel":"031-592-3749","addr":"경기도 남양주시 금곡동 158-14.2층5","indutype":"의원 - 치과의원","category":"medical"}]},{"lat":"37.636335357","long":"127.21582977","imageIndex":8,"items":[{"name":"옵티마건강을그리는약국","tel":"031-591-3675","addr":"경기도 남양주시 금곡동 203-31번지","indutype":"약국 - 약국","category":"medical"}]},{"lat":"37.633832203","long":"127.20469752","imageIndex":8,"items":[{"name":"유진약국","tel":"031-511-1364","addr":"경기도 남양주시 금곡동 700-32번지 외 1필지 1층","indutype":"약국 - 약국","category":"medical"}]},{"lat":"37.633805406","long":"127.2045615","imageIndex":8,"items":[{"name":"해림온누리약국","tel":"031-591-0826","addr":"경기도 남양주시 금곡동 700-30번지 행복빌딩","indutype":"약국 - 약국","category":"medical"}]}]