[{"lat":"37.74706788","long":"126.91219105","imageIndex":7,"items":[{"name":"고갯마루쉼터","tel":"031-963-6373","addr":"경기도 고양시 덕양구 벽제동 4-4번지","indutype":"음료식품 - 농·축·수산품","category":"food"}]},{"lat":"37.732987042","long":"126.91363759","imageIndex":7,"items":[{"name":"고양레저타운","tel":"031-968-4600","addr":"경기도 고양시 덕양구 벽제동 576-3번지","indutype":"음료식품 - 기타음료식품","category":"food"}]},{"lat":"37.721009596","long":"126.89816971","imageIndex":7,"items":[{"name":"금강산","tel":"031-969-4241","addr":"경기도 고양시 덕양구 벽제동 441-4번지","indutype":"음료식품 - 정육점","category":"food"}]},{"lat":"37.721538619","long":"126.90572299","imageIndex":7,"items":[{"name":"농업회사법인 우리팜미트 주식회사","tel":"070-4335-7608","addr":"경기도 고양시 덕양구 벽제동 509-7번지","indutype":"음료식품 - 정육점","category":"food"},{"name":"청풍명월(주)","tel":"070-4232-1571","addr":"경기도 고양시 덕양구 벽제동 509-7번지","indutype":"음료식품 - 정육점","category":"food"}]},{"lat":"37.711048792","long":"126.90254993","imageIndex":7,"items":[{"name":"미래통상","tel":"031-962-0609","addr":"경기도 고양시 덕양구 벽제동","indutype":"음료식품 - 기타음료식품","category":"food"}]},{"lat":"37.723403621","long":"126.8953647","imageIndex":7,"items":[{"name":"사회복지법인위캔","tel":"031-969-3535","addr":"경기도 고양시 덕양구 벽제동 489-2번지","indutype":"음료식품 - 기타음료식품","category":"food"},{"name":"위캔센터","tel":"031-969-3535","addr":"경기도 고양시 덕양구 벽제동 489-2번지","indutype":"음료식품 - 제과점","category":"food"}]},{"lat":"37.7131545","long":"126.89960974","imageIndex":7,"items":[{"name":"선우푸드시스템","tel":"031-963-6401","addr":"경기도 고양시 덕양구 벽제동 316-6번지","indutype":"음료식품 - 기타음료식품","category":"food"}]},{"lat":"37.724592916","long":"126.89539701","imageIndex":7,"items":[{"name":"애덕의집보호작업장(소울베이커리)","tel":"031-962-5802","addr":"경기도 고양시 덕양구 벽제동 486번지","indutype":"음료식품 - 제과점","category":"food"}]},{"lat":"37.731210004","long":"126.91083779","imageIndex":7,"items":[{"name":"에디스푸드","tel":"031-962-9240","addr":"경기도 고양시 덕양구 벽제동 563-1번지","indutype":"음료식품 - 기타음료식품","category":"food"}]},{"lat":"37.70413076","long":"126.90414682","imageIndex":7,"items":[{"name":"용천수산","tel":"031-963-1441","addr":"경기도 고양시 덕양구 벽제동 208-54번지","indutype":"음료식품 - 농·축·수산품","category":"food"}]}]