[{"lat":"37.486272024","long":"127.5016202","imageIndex":4,"items":[{"name":"넘버원 아저씨","tel":"","addr":"경기도 양평군 양평읍 창대리 646-13번지","indutype":"일반휴게음식 - 일반한식","category":"restaurant"}]},{"lat":"37.483077494","long":"127.498535","imageIndex":4,"items":[{"name":"두리봉막국수","tel":"031-771-3052","addr":"경기도 양평군 양평읍 창대리 721번지 1층","indutype":"일반휴게음식 - 일반한식","category":"restaurant"}]},{"lat":"37.487946093","long":"127.50203838","imageIndex":4,"items":[{"name":"로비한","tel":"031-772-5568","addr":"경기도 양평군 양평읍 창대리 649-2번지 2층","indutype":"일반휴게음식 - 일반한식","category":"restaurant"}]},{"lat":"37.483168903","long":"127.50036721","imageIndex":4,"items":[{"name":"무지개식당","tel":"031-771-7477","addr":"경기도 양평군 양평읍 창대리 694-3번지 1층","indutype":"일반휴게음식 - 일반한식","category":"restaurant"},{"name":"바로짬뽕","tel":"031-771-1185","addr":"경기도 양평군 양평읍 창대리 694-3번지","indutype":"일반휴게음식 - 중국식","category":"restaurant"}]},{"lat":"37.488188922","long":"127.50214176","imageIndex":4,"items":[{"name":"민갈비앤쌈밥","tel":"031-775-1580","addr":"경기도 양평군 양평읍 창대리 649-6","indutype":"일반휴게음식 - 일반한식","category":"restaurant"}]},{"lat":"37.483834805","long":"127.50056383","imageIndex":4,"items":[{"name":"밀양돼지국밥","tel":"031-772-2202","addr":"경기도 양평군 양평읍 창대리 687-7번지","indutype":"일반휴게음식 - 일반한식","category":"restaurant"}]},{"lat":"37.489974039","long":"127.50822559","imageIndex":4,"items":[{"name":"부산돼지국밥","tel":"031-775-0701","addr":"경기도 양평군 양평읍 창대리 635-2번지","indutype":"일반휴게음식 - 일반한식","category":"restaurant"}]},{"lat":"37.487667272","long":"127.50192345","imageIndex":4,"items":[{"name":"양평어무이해장국","tel":"031-771-7557","addr":"경기도 양평군 양평읍 창대리 649-3번지 1층","indutype":"일반휴게음식 - 일반한식","category":"restaurant"}]},{"lat":"37.477691093","long":"127.50880989","imageIndex":4,"items":[{"name":"핫플레이스","tel":"031-2111-1111","addr":"경기도 양평군 양평읍 창대리 408-1번지","indutype":"일반휴게음식 - 서양음식","category":"restaurant"}]},{"lat":"37.477884792","long":"127.50775979","imageIndex":4,"items":[{"name":"홍일식당","tel":"031-772-1990","addr":"경기도 양평군 양평읍 창대리 416-1번지","indutype":"일반휴게음식 - 일반한식","category":"restaurant"}]},{"lat":"37.477633585","long":"127.50750939","imageIndex":4,"items":[{"name":"황금룡","tel":"031-774-9235","addr":"경기도 양평군 양평읍 창대리 414-2번지","indutype":"일반휴게음식 - 중국식","category":"restaurant"}]}]