[{"lat":"37.646463183","long":"126.78068179","imageIndex":13,"items":[{"name":"1.5노래연습장","tel":"031-905-6009","addr":"경기도 고양시 일산동구 백석동 1414-15번지","indutype":"레저업소 - 노 래 방","category":"leisure"}]},{"lat":"37.648604624","long":"126.78887926","imageIndex":13,"items":[{"name":"7블럭 노래연습장","tel":"031-906-5051","addr":"경기도 고양시 일산동구 백석동 1158-2번지","indutype":"레저업소 - 노 래 방","category":"leisure"}]},{"lat":"37.646437013","long":"126.78598475","imageIndex":13,"items":[{"name":"BnB 당구클럽","tel":"031-819-3949","addr":"경기도 고양시 일산동구 백석동 1278-1번지","indutype":"레저업소 - 당 구 장","category":"leisure"}]},{"lat":"37.644907573","long":"126.77754782","imageIndex":13,"items":[{"name":"K.POP노래연습장","tel":"031-906-7480","addr":"경기도 고양시 일산동구 백석동 1458-4번지","indutype":"레저업소 - 노 래 방","category":"leisure"}]},{"lat":"37.649239552","long":"126.78627122","imageIndex":13,"items":[{"name":"MBC 당구 클럽","tel":"02-1111-1111","addr":"경기도 고양시 일산동구 백석동 1225번지","indutype":"레저업소 - 당 구 장","category":"leisure"},{"name":"센스노래연습장","tel":"031-905-5516","addr":"경기도 고양시 일산동구 백석동 1225번지","indutype":"레저업소 - 노 래 방","category":"leisure"},{"name":"파우PC방","tel":"070-4652-4774","addr":"경기도 고양시 일산동구 백석동 1225번지","indutype":"레저업소 - 기타레져업소","category":"leisure"}]},{"lat":"37.649519155","long":"126.79140354","imageIndex":13,"items":[{"name":"Mr.블루피시방","tel":"031-904-3174","addr":"경기도 고양시 일산동구 백석동 1149-4번지","indutype":"레저업소 - 기타레져업소","category":"leisure"}]},{"lat":"37.642879617","long":"126.78676556","imageIndex":13,"items":[{"name":"OSJ 주짓수","tel":"031-902-7496","addr":"경기도 고양시 일산동구 백석동 1331-1번지","indutype":"레저업소 - 헬스클럽","category":"leisure"},{"name":"백석당구클럽","tel":"031-904-4040","addr":"경기도 고양시 일산동구 백석동 1331-1번지","indutype":"레저업소 - 당 구 장","category":"leisure"},{"name":"비젼노래방","tel":"031-932-1537","addr":"경기도 고양시 일산동구 백석동 1331-1번지","indutype":"레저업소 - 노 래 방","category":"leisure"},{"name":"제니필라테스","tel":"031-905-3343","addr":"경기도 고양시 일산동구 백석동 1331-1번지","indutype":"레저업소 - 헬스클럽","category":"leisure"},{"name":"커브스 백석 클럽","tel":"031-907-0023","addr":"경기도 고양시 일산동구 백석동 1331-1번지","indutype":"레저업소 - 헬스클럽","category":"leisure"},{"name":"포유짐","tel":"031-901-9685","addr":"경기도 고양시 일산동구 백석동 1331-1번지","indutype":"레저업소 - 헬스클럽","category":"leisure"}]},{"lat":"37.640948618","long":"126.79011354","imageIndex":13,"items":[{"name":"Pilates Lab (필라테스 랩)","tel":"","addr":"경기도 고양시 일산동구 백석동 1300번지","indutype":"레저업소 - 헬스클럽","category":"leisure"},{"name":"광탄중앙헬스","tel":"031-947-4568","addr":"경기도 고양시 일산동구 백석동","indutype":"레저업소 - 헬스클럽","category":"leisure"}]},{"lat":"37.646216774","long":"126.77901688","imageIndex":13,"items":[{"name":"QnB당구장","tel":"031-901-0161","addr":"경기도 고양시 일산동구 백석동 1452번지","indutype":"레저업소 - 당 구 장","category":"leisure"},{"name":"하이임팩트 댄스 아카데미","tel":"031-814-5486","addr":"경기도 고양시 일산동구 백석동 1452번지","indutype":"레저업소 - 헬스클럽","category":"leisure"}]},{"lat":"37.648905988","long":"126.78615887","imageIndex":13,"items":[{"name":"SBS노래연습장","tel":"031-908-0061","addr":"경기도 고양시 일산동구 백석동 1226-2번지","indutype":"레저업소 - 노 래 방","category":"leisure"}]},{"lat":"37.645516548","long":"126.78518294","imageIndex":13,"items":[{"name":"TOP 복싱 다이어트","tel":"031-907-3566","addr":"경기도 고양시 일산동구 백석동 1288-2번지","indutype":"레저업소 - 헬스클럽","category":"leisure"},{"name":"굿바디주호","tel":"031-912-0767","addr":"경기도 고양시 일산동구 백석동 1288-2번지","indutype":"레저업소 - 헬스클럽","category":"leisure"},{"name":"대디당구클럽","tel":"031-902-8859","addr":"경기도 고양시 일산동구 백석동 1288-2번지","indutype":"레저업소 - 당 구 장","category":"leisure"},{"name":"오렌지노래연습장","tel":"","addr":"경기도 고양시 일산동구 백석동 1288-2번지","indutype":"레저업소 - 노 래 방","category":"leisure"},{"name":"일산볼링장","tel":"031-932-8860","addr":"경기도 고양시 일산동구 백석동","indutype":"레저업소 - 볼 링 장","category":"leisure"}]},{"lat":"37.643164174","long":"126.789654","imageIndex":13,"items":[{"name":"VIP(브이아이피)","tel":"031-936-7480","addr":"경기도 고양시 일산동구 백석동 1242번지","indutype":"레저업소 - 헬스클럽","category":"leisure"},{"name":"주식회사 제이엠에스","tel":"031-936-7494","addr":"경기도 고양시 일산동구 백석동 1242번지","indutype":"레저업소 - 헬스클럽","category":"leisure"}]},{"lat":"37.646133446","long":"126.78749265","imageIndex":13,"items":[{"name":"VIP노래연습장","tel":"031-901-0244","addr":"경기도 고양시 일산동구 백석동 1273-1번지","indutype":"레저업소 - 노 래 방","category":"leisure"}]},{"lat":"37.643575286","long":"126.78781729","imageIndex":13,"items":[{"name":"YG스쿼시","tel":"031-901-8244","addr":"경기도 고양시 일산동구 백석동 1297-2번지","indutype":"레저업소 - 헬스클럽","category":"leisure"},{"name":"온PC","tel":"","addr":"경기도 고양시 일산동구 백석동 1297-2번지","indutype":"레저업소 - 기타레져업소","category":"leisure"}]},{"lat":"37.641772239","long":"126.78721065","imageIndex":13,"items":[{"name":"Zen (젠)노래연습장","tel":"031-902-0087","addr":"경기도 고양시 일산동구 백석동 1309번지","indutype":"레저업소 - 노 래 방","category":"leisure"},{"name":"밍크노래연습장","tel":"031-932-8605","addr":"경기도 고양시 일산동구 백석동 1309번지","indutype":"레저업소 - 노 래 방","category":"leisure"},{"name":"허리우드 당구클럽","tel":"070-4300-4939","addr":"경기도 고양시 일산동구 백석동 1309번지","indutype":"레저업소 - 당 구 장","category":"leisure"}]},{"lat":"37.645989023","long":"126.78734576","imageIndex":13,"items":[{"name":"가요무대노래연습장","tel":"031-906-5664","addr":"경기도 고양시 일산동구 백석동 1273-2번지","indutype":"레저업소 - 노 래 방","category":"leisure"}]},{"lat":"37.646794569","long":"126.78937168","imageIndex":13,"items":[{"name":"가을노래연습장","tel":"031-908-8076","addr":"경기도 고양시 일산동구 백석동 1246번지","indutype":"레저업소 - 노 래 방","category":"leisure"}]},{"lat":"37.649386097","long":"126.79257105","imageIndex":13,"items":[{"name":"굿바디 플라잉 요가 앤 필라테스","tel":"031-908-2666","addr":"경기도 고양시 일산동구 백석동 1146번지","indutype":"레저업소 - 헬스클럽","category":"leisure"},{"name":"아이큐(IQ)당구클럽","tel":"031-902-2770","addr":"경기도 고양시 일산동구 백석동 1146번지","indutype":"레저업소 - 당 구 장","category":"leisure"}]},{"lat":"37.649215055","long":"126.79265085","imageIndex":13,"items":[{"name":"귀빈당구장","tel":"031-901-2321","addr":"경기도 고양시 일산동구 백석동 1146-1번지","indutype":"레저업소 - 당 구 장","category":"leisure"},{"name":"케이스타 백석점","tel":"070-6298-3273","addr":"경기도 고양시 일산동구 백석동 1146-1번지","indutype":"레저업소 - 기타레져업소","category":"leisure"}]},{"lat":"37.647849543","long":"126.78490419","imageIndex":13,"items":[{"name":"길목노래연습장","tel":"031-932-9955","addr":"경기도 고양시 일산동구 백석동 1207-5번지","indutype":"레저업소 - 노 래 방","category":"leisure"}]},{"lat":"37.640490003","long":"126.79060204","imageIndex":13,"items":[{"name":"길필라테스","tel":"","addr":"경기도 고양시 일산동구 백석동 1300번지","indutype":"레저업소 - 헬스클럽","category":"leisure"},{"name":"알알필라테스","tel":"02-1800-5748","addr":"경기도 고양시 일산동구 백석동 1300번지","indutype":"레저업소 - 헬스클럽","category":"leisure"}]},{"lat":"37.640300505","long":"126.78549274","imageIndex":13,"items":[{"name":"뉴레벨 퍼스널 트레이닝","tel":"031-901-5345","addr":"경기도 고양시 일산동구 백석동 1325번지","indutype":"레저업소 - 헬스클럽","category":"leisure"},{"name":"컨트롤PC방","tel":"070-7631-8585","addr":"경기도 고양시 일산동구 백석동 1325번지","indutype":"레저업소 - 기타레져업소","category":"leisure"}]},{"lat":"37.642268928","long":"126.78784371","imageIndex":13,"items":[{"name":"다짐필라테스 백석역점","tel":"031-908-8899","addr":"경기도 고양시 일산동구 백석동 1308번지","indutype":"레저업소 - 헬스클럽","category":"leisure"},{"name":"세븐스타코인노래연습장 백석역점","tel":"","addr":"경기도 고양시 일산동구 백석동 1308번지","indutype":"레저업소 - 노 래 방","category":"leisure"},{"name":"스타덤PC일산본점","tel":"031-932-7819","addr":"경기도 고양시 일산동구 백석동 1308번지","indutype":"레저업소 - 기타레져업소","category":"leisure"},{"name":"에그짐","tel":"031-902-9682","addr":"경기도 고양시 일산동구 백석동 1308번지","indutype":"레저업소 - 헬스클럽","category":"leisure"},{"name":"연예인노래연습장","tel":"031-901-9587","addr":"경기도 고양시 일산동구 백석동 1308번지","indutype":"레저업소 - 노 래 방","category":"leisure"},{"name":"오페라 노래연습장","tel":"031-905-7774","addr":"경기도 고양시 일산동구 백석동 1308번지","indutype":"레저업소 - 노 래 방","category":"leisure"},{"name":"즈나냐 요가원","tel":"","addr":"경기도 고양시 일산동구 백석동 1308번지","indutype":"레저업소 - 헬스클럽","category":"leisure"},{"name":"짐플러스 휘트니스","tel":"031-908-0474","addr":"경기도 고양시 일산동구 백석동 1308번지","indutype":"레저업소 - 헬스클럽","category":"leisure"},{"name":"코스모스당구장","tel":"031-906-4394","addr":"경기도 고양시 일산동구 백석동 1308번지","indutype":"레저업소 - 당 구 장","category":"leisure"},{"name":"팝스디브이디영화관","tel":"031-903-9095","addr":"경기도 고양시 일산동구 백석동 1308번지","indutype":"레저업소 - 기타레져업소","category":"leisure"}]},{"lat":"37.648077746","long":"126.78651255","imageIndex":13,"items":[{"name":"땅벌노래연습장","tel":"02-866-5488","addr":"경기도 고양시 일산동구 백석동 1213번지","indutype":"레저업소 - 노 래 방","category":"leisure"}]},{"lat":"37.645384714","long":"126.78698492","imageIndex":13,"items":[{"name":"또왕 노래연습장","tel":"031-901-5991","addr":"경기도 고양시 일산동구 백석동 1286-2번지","indutype":"레저업소 - 노 래 방","category":"leisure"}]},{"lat":"37.648771966","long":"126.78677115","imageIndex":13,"items":[{"name":"로또노래연습장","tel":"031-904-5338","addr":"경기도 고양시 일산동구 백석동 1228-2번지","indutype":"레저업소 - 노 래 방","category":"leisure"}]},{"lat":"37.644351847","long":"126.78876682","imageIndex":13,"items":[{"name":"로마노래연습장","tel":"031-902-6814","addr":"경기도 고양시 일산동구 백석동 1282-7번지","indutype":"레저업소 - 노 래 방","category":"leisure"}]},{"lat":"37.644851524","long":"126.78610267","imageIndex":13,"items":[{"name":"모티플짐(MOTIPLE GYM)","tel":"031-901-0520","addr":"경기도 고양시 일산동구 백석동 1294-2번지","indutype":"레저업소 - 헬스클럽","category":"leisure"}]},{"lat":"37.643024539","long":"126.78718437","imageIndex":13,"items":[{"name":"뮤즈 노래연습장","tel":"031-907-8886","addr":"경기도 고양시 일산동구 백석동 1331번지","indutype":"레저업소 - 노 래 방","category":"leisure"},{"name":"쿨 노래연습장","tel":"031-908-8885","addr":"경기도 고양시 일산동구 백석동 1331번지","indutype":"레저업소 - 노 래 방","category":"leisure"}]},{"lat":"37.646996797","long":"126.78662899","imageIndex":13,"items":[{"name":"미소노래연습장","tel":"031-904-8958","addr":"경기도 고양시 일산동구 백석동 1277번지","indutype":"레저업소 - 노 래 방","category":"leisure"}]},{"lat":"37.646213705","long":"126.78703918","imageIndex":13,"items":[{"name":"발리노래연습장","tel":"031-906-0192","addr":"경기도 고양시 일산동구 백석동 1274-2번지","indutype":"레저업소 - 노 래 방","category":"leisure"}]},{"lat":"37.642358734","long":"126.7926815","imageIndex":13,"items":[{"name":"벨라필라테스","tel":"031-111-1111","addr":"경기도 고양시 일산동구 백석동 1237번지 일산요진와이시티","indutype":"레저업소 - 헬스클럽","category":"leisure"},{"name":"에쎌필라테스(SLBodyStudio)","tel":"","addr":"경기도 고양시 일산동구 백석동 1237번지 일산요진와이시티","indutype":"레저업소 - 헬스클럽","category":"leisure"}]},{"lat":"37.647159427","long":"126.78687781","imageIndex":13,"items":[{"name":"별 노래연습장","tel":"031-905-6043","addr":"경기도 고양시 일산동구 백석동 1253-3번지","indutype":"레저업소 - 노 래 방","category":"leisure"}]},{"lat":"37.644324118","long":"126.78838166","imageIndex":13,"items":[{"name":"볼륨업","tel":"031-903-5788","addr":"경기도 고양시 일산동구 백석동 1284-4번지","indutype":"레저업소 - 노 래 방","category":"leisure"}]},{"lat":"37.643882481","long":"126.77860466","imageIndex":13,"items":[{"name":"비취노래연습장","tel":"031-905-2520","addr":"경기도 고양시 일산동구 백석동 1442-3번지","indutype":"레저업소 - 노 래 방","category":"leisure"}]},{"lat":"37.648604464","long":"126.78388216","imageIndex":13,"items":[{"name":"뻐꾸기 노래연습장","tel":"031-903-9697","addr":"경기도 고양시 일산동구 백석동 1203-9번지","indutype":"레저업소 - 노 래 방","category":"leisure"}]},{"lat":"37.644746715","long":"126.78302103","imageIndex":13,"items":[{"name":"상상노래연습장","tel":"031-905-2220","addr":"경기도 고양시 일산동구 백석동 1424-1번지","indutype":"레저업소 - 노 래 방","category":"leisure"}]},{"lat":"37.645906006","long":"126.78629223","imageIndex":13,"items":[{"name":"설빈 노래연습장","tel":"031-903-0594","addr":"경기도 고양시 일산동구 백석동 1287-3번지","indutype":"레저업소 - 노 래 방","category":"leisure"}]},{"lat":"37.648524933","long":"126.78965001","imageIndex":13,"items":[{"name":"세븐","tel":"031-903-7798","addr":"경기도 고양시 일산동구 백석동 1162-5번지","indutype":"레저업소 - 노 래 방","category":"leisure"}]},{"lat":"37.647771667","long":"126.78664941","imageIndex":13,"items":[{"name":"세븐 노래연습장","tel":"031-907-1977","addr":"경기도 고양시 일산동구 백석동 1212-1번지","indutype":"레저업소 - 노 래 방","category":"leisure"}]},{"lat":"37.6465454","long":"126.78613174","imageIndex":13,"items":[{"name":"소나타노래연습장","tel":"031-901-4348","addr":"경기도 고양시 일산동구 백석동 1278번지","indutype":"레저업소 - 노 래 방","category":"leisure"}]},{"lat":"37.64880047","long":"126.7925727","imageIndex":13,"items":[{"name":"소리골노래연습장","tel":"031-901-8083","addr":"경기도 고양시 일산동구 백석동 1150-5번지","indutype":"레저업소 - 노 래 방","category":"leisure"}]},{"lat":"37.645188281","long":"126.78795994","imageIndex":13,"items":[{"name":"소리꾼노래연습장","tel":"031-904-1582","addr":"경기도 고양시 일산동구 백석동 1281-3번지","indutype":"레저업소 - 노 래 방","category":"leisure"}]},{"lat":"37.645269924","long":"126.78826563","imageIndex":13,"items":[{"name":"스카이노래연습장","tel":"031-904-9757","addr":"경기도 고양시 일산동구 백석동 1267-3번지","indutype":"레저업소 - 노 래 방","category":"leisure"}]},{"lat":"37.645465593","long":"126.78687138","imageIndex":13,"items":[{"name":"스타노래연습장","tel":"031-907-9039","addr":"경기도 고양시 일산동구 백석동 1286-1번지","indutype":"레저업소 - 노 래 방","category":"leisure"}]},{"lat":"37.644414008","long":"126.78826809","imageIndex":13,"items":[{"name":"썬노래연습장","tel":"031-908-8801","addr":"경기도 고양시 일산동구 백석동 1284-3번지","indutype":"레저업소 - 노 래 방","category":"leisure"}]},{"lat":"37.647879492","long":"126.78649046","imageIndex":13,"items":[{"name":"썸 노래연습장","tel":"031-903-0118","addr":"경기도 고양시 일산동구 백석동 1213-6번지","indutype":"레저업소 - 노 래 방","category":"leisure"}]},{"lat":"37.640129229","long":"126.7903878","imageIndex":13,"items":[{"name":"쎄시봉","tel":"031-932-7890","addr":"경기도 고양시 일산동구 백석동 1301번지","indutype":"레저업소 - 노 래 방","category":"leisure"}]},{"lat":"37.644684442","long":"126.78834663","imageIndex":13,"items":[{"name":"씽씽노래연습장","tel":"031-908-1824","addr":"경기도 고양시 일산동구 백석동 1282-11번지","indutype":"레저업소 - 노 래 방","category":"leisure"}]},{"lat":"37.634081183","long":"126.78407207","imageIndex":13,"items":[{"name":"아야 베이스볼 클럽","tel":"","addr":"경기도 고양시 일산동구 백석동 1104-104번지","indutype":"레저업소 - 기타레져업소","category":"leisure"}]},{"lat":"37.644659187","long":"126.78440363","imageIndex":13,"items":[{"name":"알파퍼스널트레이닝","tel":"","addr":"경기도 고양시 일산동구 백석동 1335-2번지","indutype":"레저업소 - 헬스클럽","category":"leisure"}]},{"lat":"37.644497048","long":"126.78934427","imageIndex":13,"items":[{"name":"앗싸노래연습장","tel":"070-4255-3566","addr":"경기도 고양시 일산동구 백석동 1263-1번지","indutype":"레저업소 - 노 래 방","category":"leisure"},{"name":"케이원 당구클럽","tel":"","addr":"경기도 고양시 일산동구 백석동 1263-1번지","indutype":"레저업소 - 당 구 장","category":"leisure"}]},{"lat":"37.644190022","long":"126.7889599","imageIndex":13,"items":[{"name":"엄지피시방","tel":"070-4254-5440","addr":"경기도 고양시 일산동구 백석동 1283-1번지","indutype":"레저업소 - 기타레져업소","category":"leisure"}]},{"lat":"37.653407313","long":"126.79420285","imageIndex":13,"items":[{"name":"에스골프아카데미","tel":"02-2638-5557","addr":"경기도 고양시 일산동구 백석동 1135번지 백송마을6단지아파트","indutype":"레저업소 - 골프연습장","category":"leisure"}]},{"lat":"37.647683105","long":"126.78748817","imageIndex":13,"items":[{"name":"엠노래연습장","tel":"031-905-3973","addr":"경기도 고양시 일산동구 백석동 1243-2번지","indutype":"레저업소 - 노 래 방","category":"leisure"}]},{"lat":"37.645240912","long":"126.78717796","imageIndex":13,"items":[{"name":"영노래연습장","tel":"031-901-0324","addr":"경기도 고양시 일산동구 백석동 1286-4번지","indutype":"레저업소 - 노 래 방","category":"leisure"}]},{"lat":"37.64321206","long":"126.78626606","imageIndex":13,"items":[{"name":"오디션 노래연습장","tel":"031-907-5517","addr":"경기도 고양시 일산동구 백석동 1341번지","indutype":"레저업소 - 노 래 방","category":"leisure"}]},{"lat":"37.648771197","long":"126.7863519","imageIndex":13,"items":[{"name":"올리브노래연습장","tel":"031-903-8695","addr":"경기도 고양시 일산동구 백석동 1227번지","indutype":"레저업소 - 노 래 방","category":"leisure"}]},{"lat":"37.647488517","long":"126.78948301","imageIndex":13,"items":[{"name":"올인노래연습장","tel":"031-901-8080","addr":"경기도 고양시 일산동구 백석동 1167-2번지","indutype":"레저업소 - 노 래 방","category":"leisure"}]},{"lat":"37.645800276","long":"126.78759558","imageIndex":13,"items":[{"name":"요요 노래연습장","tel":"031-932-5514","addr":"경기도 고양시 일산동구 백석동 1272-1번지","indutype":"레저업소 - 노 래 방","category":"leisure"}]},{"lat":"37.647328259","long":"126.7855969","imageIndex":13,"items":[{"name":"우리당구장","tel":"","addr":"경기도 고양시 일산동구 백석동 1210-2번지","indutype":"레저업소 - 당 구 장","category":"leisure"}]},{"lat":"37.648190168","long":"126.7839627","imageIndex":13,"items":[{"name":"우주노래연습장","tel":"031-907-9080","addr":"경기도 고양시 일산동구 백석동 1202-3번지","indutype":"레저업소 - 노 래 방","category":"leisure"}]},{"lat":"37.637439527","long":"126.78773301","imageIndex":13,"items":[{"name":"원요가","tel":"","addr":"경기도 고양시 일산동구 백석동 1330번지","indutype":"레저업소 - 헬스클럽","category":"leisure"}]},{"lat":"37.645850806","long":"126.79062078","imageIndex":13,"items":[{"name":"윤 피티","tel":"","addr":"경기도 고양시 일산동구 백석동 1247-6번지","indutype":"레저업소 - 헬스클럽","category":"leisure"}]},{"lat":"37.644827482","long":"126.78773436","imageIndex":13,"items":[{"name":"이차로 노래연습장","tel":"031-903-5959","addr":"경기도 고양시 일산동구 백석동 1285-4번지","indutype":"레저업소 - 노 래 방","category":"leisure"}]},{"lat":"37.646356059","long":"126.79101592","imageIndex":13,"items":[{"name":"일산만화","tel":"031-902-5589","addr":"경기도 고양시 일산동구 백석동 1181-5번지","indutype":"레저업소 - 기타레져업소","category":"leisure"}]},{"lat":"37.64710438","long":"126.78148439","imageIndex":13,"items":[{"name":"일산클라이밍센터","tel":"031-904-5015","addr":"경기도 고양시 일산동구 백석동 1351번지 흰돌마을2단지아파트","indutype":"레저업소 - 기타레져업소","category":"leisure"}]},{"lat":"37.645268801","long":"126.77798863","imageIndex":13,"items":[{"name":"제이알댄스 아카데미","tel":"","addr":"경기도 고양시 일산동구 백석동 1458번지","indutype":"레저업소 - 헬스클럽","category":"leisure"}]},{"lat":"37.639797501","long":"126.79129514","imageIndex":13,"items":[{"name":"주식회사마린스포","tel":"031-814-0610","addr":"경기도 고양시 일산동구 백석동 1299번지","indutype":"레저업소 - 기타레져업소","category":"leisure"}]},{"lat":"37.64602415","long":"126.7868471","imageIndex":13,"items":[{"name":"청노래연습장","tel":"031-905-0504","addr":"경기도 고양시 일산동구 백석동 1279-5번지","indutype":"레저업소 - 노 래 방","category":"leisure"}]},{"lat":"37.643689675","long":"126.78632133","imageIndex":13,"items":[{"name":"청춘노래연습장","tel":"031-905-6680","addr":"경기도 고양시 일산동구 백석동 1332-1번지","indutype":"레저업소 - 노 래 방","category":"leisure"},{"name":"힐링밤(Healing Balm)","tel":"","addr":"경기도 고양시 일산동구 백석동 1332-1번지","indutype":"레저업소 - 헬스클럽","category":"leisure"}]},{"lat":"37.648298893","long":"126.78429099","imageIndex":13,"items":[{"name":"첼로 노래연습장","tel":"070-4900-5343","addr":"경기도 고양시 일산동구 백석동 1203-5번지","indutype":"레저업소 - 노 래 방","category":"leisure"}]},{"lat":"37.644936568","long":"126.78826659","imageIndex":13,"items":[{"name":"카나리아노래연습장","tel":"031-905-7800","addr":"경기도 고양시 일산동구 백석동 1282번지","indutype":"레저업소 - 노 래 방","category":"leisure"}]},{"lat":"37.649691129","long":"126.79184497","imageIndex":13,"items":[{"name":"카멜레온노래연습장","tel":"031-901-8345","addr":"경기도 고양시 일산동구 백석동 1149-1번지","indutype":"레저업소 - 노 래 방","category":"leisure"}]},{"lat":"37.648018833","long":"126.78879029","imageIndex":13,"items":[{"name":"쿵쿵따 노래연습장","tel":"031-901-3004","addr":"경기도 고양시 일산동구 백석동 1159-3번지","indutype":"레저업소 - 노 래 방","category":"leisure"}]},{"lat":"37.64691392","long":"126.78565477","imageIndex":13,"items":[{"name":"큐노래연습장","tel":"031-903-5070","addr":"경기도 고양시 일산동구 백석동 1196번지","indutype":"레저업소 - 노 래 방","category":"leisure"}]},{"lat":"37.652297259","long":"126.79315209","imageIndex":13,"items":[{"name":"키덜트골프클럽","tel":"","addr":"경기도 고양시 일산동구 백석동 1139번지 백송마을8단지아파트","indutype":"레저업소 - 골프연습장","category":"leisure"}]},{"lat":"37.638855836","long":"126.78871461","imageIndex":13,"items":[{"name":"킹 당구클럽","tel":"031-902-0255","addr":"경기도 고양시 일산동구 백석동 1318번지","indutype":"레저업소 - 당 구 장","category":"leisure"},{"name":"휠노래연습장","tel":"031-906-6064","addr":"경기도 고양시 일산동구 백석동 1318번지","indutype":"레저업소 - 노 래 방","category":"leisure"}]},{"lat":"37.64849731","long":"126.78932148","imageIndex":13,"items":[{"name":"타워노래연습장","tel":"031-903-6083","addr":"경기도 고양시 일산동구 백석동 1161번지","indutype":"레저업소 - 노 래 방","category":"leisure"}]},{"lat":"37.646796544","long":"126.78551914","imageIndex":13,"items":[{"name":"파티노래연습장","tel":"031-906-3878","addr":"경기도 고양시 일산동구 백석동 1196-1번지","indutype":"레저업소 - 노 래 방","category":"leisure"}]},{"lat":"37.648378416","long":"126.78834734","imageIndex":13,"items":[{"name":"팡팡노래연습장","tel":"031-907-0262","addr":"경기도 고양시 일산동구 백석동 1158-5번지","indutype":"레저업소 - 노 래 방","category":"leisure"}]},{"lat":"37.645106078","long":"126.78734831","imageIndex":13,"items":[{"name":"프레야 노래연습장","tel":"031-907-3222","addr":"경기도 고양시 일산동구 백석동 1285번지","indutype":"레저업소 - 노 래 방","category":"leisure"}]},{"lat":"37.647460891","long":"126.78423679","imageIndex":13,"items":[{"name":"필라테스 바디랩","tel":"031-905-1135","addr":"경기도 고양시 일산동구 백석동 1200-3번지","indutype":"레저업소 - 헬스클럽","category":"leisure"}]},{"lat":"37.6451074","long":"126.78807348","imageIndex":13,"items":[{"name":"행복노래연습장","tel":"031-908-0891","addr":"경기도 고양시 일산동구 백석동 1281-4번지","indutype":"레저업소 - 노 래 방","category":"leisure"}]},{"lat":"37.649383217","long":"126.790962","imageIndex":13,"items":[{"name":"행운노래연습장","tel":"031-932-1533","addr":"경기도 고양시 일산동구 백석동 1153번지","indutype":"레저업소 - 노 래 방","category":"leisure"}]},{"lat":"37.645052165","long":"126.78742778","imageIndex":13,"items":[{"name":"홍콩 노래연습장","tel":"031-907-7829","addr":"경기도 고양시 일산동구 백석동 1285-1번지","indutype":"레저업소 - 노 래 방","category":"leisure"}]},{"lat":"37.645219191","long":"126.79010136","imageIndex":13,"items":[{"name":"흥부노래연습장","tel":"031-1111-1111","addr":"경기도 고양시 일산동구 백석동 1262-1번지","indutype":"레저업소 - 노 래 방","category":"leisure"}]},{"lat":"37.645575592","long":"126.78790217","imageIndex":13,"items":[{"name":"희노래연습장","tel":"031-902-3809","addr":"경기도 고양시 일산동구 백석동 1271-1번지","indutype":"레저업소 - 노 래 방","category":"leisure"}]},{"lat":"37.646301577","long":"126.78582651","imageIndex":13,"items":[{"name":"희돌탁구","tel":"031-932-4105","addr":"경기도 고양시 일산동구 백석동 1278-2번지","indutype":"레저업소 - 기타레져업소","category":"leisure"}]},{"lat":"37.64426821","long":"126.7824899","imageIndex":13,"items":[{"name":"히트박스","tel":"031-6324-8900","addr":"경기도 고양시 일산동구 백석동 1424-6번지","indutype":"레저업소 - 기타레져업소","category":"leisure"}]},{"lat":"37.647441722","long":"126.78852","imageIndex":13,"items":[{"name":"힐링 노래연습장","tel":"","addr":"경기도 고양시 일산동구 백석동 1244-5번지","indutype":"레저업소 - 노 래 방","category":"leisure"}]}]