[{"lat":"37.296013822","long":"127.10543457","imageIndex":17,"items":[{"name":"(자)경인렌트카","tel":"032-342-4000","addr":"경기도 용인시 기흥구 마북동 502-233번지 102호","indutype":"여행 - 렌터카","category":"other"},{"name":"태성포스시스템","tel":"031-282-5512","addr":"경기도 용인시 기흥구 마북동 502-233번지","indutype":"사무통신 - 통신기기","category":"other"}]},{"lat":"37.292623307","long":"127.10846367","imageIndex":17,"items":[{"name":"(주)가온나노테크","tel":"031-283-0002","addr":"경기도 용인시 기흥구 마북동 431번지 비즈13팀","indutype":"신변잡화 - 기타잡화","category":"other"},{"name":"(주)스타일언리미티드","tel":"031-287-4659","addr":"경기도 용인시 기흥구 마북동 431","indutype":"의류 - 정장","category":"other"},{"name":"(주)인터넷연구소","tel":"070-4799-9161","addr":"경기도 용인시 기흥구 마북동 431번지 경기도여성능력개발센타 B20호","indutype":"직물 - 침구·수예점","category":"other"},{"name":"경기캘리그라피디자인센터 (gcdc)","tel":"","addr":"경기도 용인시 기흥구 마북동 431번지 경기도여성능력개발센타 1호","indutype":"용역 서비스 - 사무서비스","category":"other"},{"name":"고니네미","tel":"","addr":"경기도 용인시 기흥구 마북동 431번지 경기도여성능력개발센터 꿈마루동 24호","indutype":"문화.취미 - 화원","category":"other"},{"name":"괜찮은곳","tel":"","addr":"경기도 용인시 기흥구 마북동 431번지 경기도여성능력개발센타 1층 Biz 16팀호","indutype":"주방용구 - 주방용구","category":"other"},{"name":"글공장(황금선Design gallery)","tel":"","addr":"경기도 용인시 기흥구 마북동 431번지 경기도여성능력개발센터 꿈마루 11호","indutype":"용역 서비스 - 사무서비스","category":"other"},{"name":"디자인포유","tel":"031-274-5505","addr":"경기도 용인시 기흥구 마북동 431번지 경기도여성능력개발센터비즈7팀","indutype":"신변잡화 - 기타잡화","category":"other"},{"name":"라훔","tel":"031-731-9709","addr":"경기도 용인시 기흥구 마북동 431번지 경기동여성능력개발센터 Post-B1 107호","indutype":"서적문구 - 출판 및 인쇄물","category":"other"},{"name":"리나팰리스","tel":"","addr":"경기도 용인시 기흥구 마북동 431번지 경기도여성인력개발센터 비즈니스동17","indutype":"신변잡화 - 가방","category":"other"},{"name":"리네옷장","tel":"031-000-0000","addr":"경기도 용인시 기흥구 마북동 431번지 경기도일자리재단 여성능력개발본부 꿈마루 08호","indutype":"의류 - 맞춤복점","category":"other"},{"name":"버블바바라(bublebabara)","tel":"","addr":"경기도 용인시 기흥구 마북동 431번지 경기도여성능력개발센터 끔마루","indutype":"신변잡화 - 액세서리","category":"other"},{"name":"베베마더(BEBEMOTHER)","tel":"","addr":"경기도 용인시 기흥구 마북동 431번지 꿈마루 30호","indutype":"의류 - 아동의류","category":"other"},{"name":"벨피움","tel":"031-000-0000","addr":"경기도 용인시 기흥구 마북동 431번지 꿈마루 18호","indutype":"문화.취미 - 화원","category":"other"},{"name":"슈즘","tel":"031-551-9294","addr":"경기도 용인시 기흥구 마북동 431번지 경기도여성능력개발센타비즈19호","indutype":"신변잡화 - 신발","category":"other"},{"name":"스토리키즈 (Story Kids)","tel":"","addr":"경기도 용인시 기흥구 마북동 431번지 경기도여성능력개발센타 B15호","indutype":"문화.취미 - 티켓","category":"other"},{"name":"알앤텍솔루션","tel":"","addr":"경기도 용인시 기흥구 마북동 431번지 경기도여성능력개발센타","indutype":"신변잡화 - 기타잡화","category":"other"},{"name":"에스제이 네츄럴(SJ Natural)","tel":"02-1111-1111","addr":"경기도 용인시 기흥구 마북동 431번지 꿈마루 02호","indutype":"신변잡화 - 기타잡화","category":"other"},{"name":"에스투메이드(S2메이드)","tel":"050-4401-2443","addr":"경기도 용인시 기흥구 마북동 431번지 경기도여성능력개방센터 꿈마루 5호","indutype":"신변잡화 - 기타잡화","category":"other"},{"name":"에이치제이 클래식(HJ. C.)","tel":"031-1111-1111","addr":"경기도 용인시 기흥구 마북동 431번지 경기도일자리재단 15호","indutype":"신변잡화 - 가방","category":"other"},{"name":"옥림코리아(Wallen KOREA)","tel":"031-000-0000","addr":"경기도 용인시 기흥구 마북동 431번지 재단법인 일자리재단 고용성장본부 B15호","indutype":"신변잡화 - 기타잡화","category":"other"},{"name":"와이에스(YS)","tel":"031-287-6007","addr":"경기도 용인시 기흥구 마북동 431번지 여성능력개발센터 B16호","indutype":"전기제품 - 가전제품","category":"other"},{"name":"자리(ZARI)","tel":"031-287-0754","addr":"경기도 용인시 기흥구 마북동 431번지 여성능력개발센타","indutype":"서적문구 - 문구용품","category":"other"},{"name":"제이드핸즈","tel":"","addr":"경기도 용인시 기흥구 마북동 431번지 경기도여성능력개발센타 1층 32호","indutype":"직물 - 침구·수예점","category":"other"},{"name":"주식회사 아이유디자인","tel":"031-285-0919","addr":"경기도 용인시 기흥구 마북동 431번지 비즈니스동 2층 1호 비즈","indutype":"서적문구 - 완구점","category":"other"},{"name":"주오디자인(Jewoh Design)","tel":"031-703-3161","addr":"경기도 용인시 기흥구 마북동 431번지 여성능력개발센터비즈 16팀","indutype":"용역 서비스 - 사무서비스","category":"other"},{"name":"지투지(G2G)","tel":"031-275-1599","addr":"경기도 용인시 기흥구 마북동 431번지 경기도여성능력개발센터 BIZ동 17호","indutype":"신변잡화 - 기타잡화","category":"other"},{"name":"페이퍼서울","tel":"031-891-1188","addr":"경기도 용인시 기흥구 마북동 431번지 1층 꿈마루 22호","indutype":"서적문구 - 문구용품","category":"other"},{"name":"하루에코","tel":"031-000-0000","addr":"경기도 용인시 기흥구 마북동 431번지","indutype":"용역 서비스 - 사무서비스","category":"other"},{"name":"하우컴퍼니","tel":"070-8627-9983","addr":"경기도 용인시 기흥구 마북동 431번지 비즈 2호","indutype":"신변잡화 - 가방","category":"other"},{"name":"하이호이(hihoi)","tel":"031-423-8455","addr":"경기도 용인시 기흥구 마북동 431번지 경기도여성능력개발센타 31호","indutype":"서적문구 - 문구용품","category":"other"},{"name":"한국플라워공예센터","tel":"031-757-1107","addr":"경기도 용인시 기흥구 마북동 431번지 경기도여성능력개발센터 꿈마루23호","indutype":"문화.취미 - 민예·공예품","category":"other"},{"name":"허밍(HUMMING)","tel":"","addr":"경기도 용인시 기흥구 마북동 431번지 경기도여성능력개발센터 내 꿈마루","indutype":"용역 서비스 - 사무서비스","category":"other"},{"name":"현디자인","tel":"031-000-0000","addr":"경기도 용인시 기흥구 마북동 431번지 경기도여성능력개발센타","indutype":"용역 서비스 - 사무서비스","category":"other"}]},{"lat":"37.296984138","long":"127.1086051","imageIndex":17,"items":[{"name":"(주)천지인산업개발 마북지점","tel":"031-287-6200","addr":"경기도 용인시 기흥구 마북동 476-5번지","indutype":"용역 서비스 - 부동산 중개·임대","category":"other"}]},{"lat":"37.301706807","long":"127.10713416","imageIndex":17,"items":[{"name":"(주)투리치","tel":"070-4126-0001","addr":"경기도 용인시 기흥구 마북동 526-3번지 연원마을엘지자이아파트","indutype":"용역 서비스 - 사무서비스","category":"other"}]},{"lat":"37.300756477","long":"127.1118587","imageIndex":17,"items":[{"name":"101플라워","tel":"02-1644-3101","addr":"경기도 용인시 기흥구 마북동 524-8번지 연원마을삼호.벽산아파트","indutype":"문화.취미 - 화원","category":"other"}]},{"lat":"37.317039952","long":"127.12804835","imageIndex":17,"items":[{"name":"119에스프레소","tel":"031-683-5136","addr":"경기도 용인시 기흥구 마북동 9-9번지","indutype":"수리서비스 - 가정용품수리","category":"other"}]},{"lat":"37.294988563","long":"127.11332781","imageIndex":17,"items":[{"name":"E세탁할인점","tel":"031-274-2217","addr":"경기도 용인시 기흥구 마북동 331-1번지 리딩프라자 109호","indutype":"수리서비스 - 세탁소","category":"other"},{"name":"가이오DC","tel":"031-275-8336","addr":"경기도 용인시 기흥구 마북동 331-1번지 리딩프라자 106호","indutype":"서적문구 - 기타서적문구","category":"other"},{"name":"로열짐","tel":"031-769-3253","addr":"경기도 용인시 기흥구 마북동 331-1번지 리딩프라자 110호","indutype":"회원제형태 - 레져업소","category":"other"},{"name":"샤인헤나","tel":"031-286-3006","addr":"경기도 용인시 기흥구 마북동 331-1번지 리딩프라자 110호","indutype":"문화.취미 - 문화취미기타","category":"other"},{"name":"참조은스크린골프","tel":"031-285-7748","addr":"경기도 용인시 기흥구 마북동 331-1번지 리딩프라자,401호~402호 401호","indutype":"회원제형태 - 레져업소","category":"other"},{"name":"프렌즈슬라임","tel":"","addr":"경기도 용인시 기흥구 마북동 331-1번지 리딩프라자 305호","indutype":"서적문구 - 완구점","category":"other"},{"name":"효미인실버케어","tel":"031-287-7577","addr":"경기도 용인시 기흥구 마북동 331-1번지 리딩프라자 204호","indutype":"기타의료기관 - 기타의료기관 및 기타","category":"other"}]},{"lat":"37.295959467","long":"127.11566381","imageIndex":17,"items":[{"name":"GS25구성효성점","tel":"","addr":"경기도 용인시 기흥구 마북동 342-3번지","indutype":"유통업 영리 - 편 의 점","category":"other"},{"name":"기분존","tel":"031-274-9411","addr":"경기도 용인시 기흥구 마북동 342-3번지 103호","indutype":"사무통신 - 컴퓨터","category":"other"}]},{"lat":"37.299677284","long":"127.11918832","imageIndex":17,"items":[{"name":"GS25기흥교동점","tel":"","addr":"경기도 용인시 기흥구 마북동 251-33번지","indutype":"유통업 영리 - 편 의 점","category":"other"}]},{"lat":"37.309377976","long":"127.13112642","imageIndex":17,"items":[{"name":"GS25기흥마북점","tel":"","addr":"경기도 용인시 기흥구 마북동 66번지 101호","indutype":"유통업 영리 - 편 의 점","category":"other"}]},{"lat":"37.304097023","long":"127.12347002","imageIndex":17,"items":[{"name":"GS25기흥한성점","tel":"","addr":"경기도 용인시 기흥구 마북동 181-2번지 한성프라자 103호","indutype":"유통업 영리 - 편 의 점","category":"other"},{"name":"르네셀","tel":"031-274-4459","addr":"경기도 용인시 기흥구 마북동 181-2번지 한성프라자 108호","indutype":"회원제형태 - 기타1","category":"other"},{"name":"스튜디오 나다르","tel":"031-284-3778","addr":"경기도 용인시 기흥구 마북동 181-2번지 한성프라자 401호","indutype":"광학제품 - 사진관","category":"other"}]},{"lat":"37.29787603","long":"127.10874169","imageIndex":17,"items":[{"name":"GS25마북누리점","tel":"","addr":"경기도 용인시 기흥구 마북동 475-1번지 102호","indutype":"유통업 영리 - 편 의 점","category":"other"},{"name":"아리따운뷰티샵","tel":"031-285-7220","addr":"경기도 용인시 기흥구 마북동 475-1번지","indutype":"회원제형태 - 기타4","category":"other"},{"name":"파로스현악기사","tel":"031-283-5388","addr":"경기도 용인시 기흥구 마북동 475-1번지","indutype":"레져용품 - 악기점","category":"other"}]},{"lat":"37.303509681","long":"127.10618918","imageIndex":17,"items":[{"name":"GS25용인마북점","tel":"","addr":"경기도 용인시 기흥구 마북동 554-1번지","indutype":"유통업 영리 - 편 의 점","category":"other"}]},{"lat":"37.301848514","long":"127.10988644","imageIndex":17,"items":[{"name":"H2휘트니스","tel":"031-284-8088","addr":"경기도 용인시 기흥구 마북동 524-26번지 마북프라자 4층","indutype":"회원제형태 - 레져업소","category":"other"},{"name":"미솜디자인","tel":"031-283-5283","addr":"경기도 용인시 기흥구 마북동 524-26번지 마북프라자 102호","indutype":"건축자재 - 인테리어전문","category":"other"},{"name":"이엔와이 디지털(E&Y Digital)","tel":"031-286-3386","addr":"경기도 용인시 기흥구 마북동 524-26번지 마북프라자 104호","indutype":"수리서비스 - 사무·통신기기수리","category":"other"},{"name":"이엘(EL)디자인","tel":"031-784-9314","addr":"경기도 용인시 기흥구 마북동 524-26번지 마북프라자 101호","indutype":"건축자재 - 인테리어전문","category":"other"}]},{"lat":"37.293794808","long":"127.10827358","imageIndex":17,"items":[{"name":"OVERFLOWERING","tel":"031-8955-757","addr":"경기도 용인시 기흥구 마북동 425-24번지 1층 7호","indutype":"문화.취미 - 화원","category":"other"},{"name":"수지낚시","tel":"","addr":"경기도 용인시 기흥구 마북동 425-24번지 올리브스퀘어 C동 1층 5호","indutype":"레져용품 - 스포츠·레져용품","category":"other"}]},{"lat":"37.294959116","long":"127.11588788","imageIndex":17,"items":[{"name":"Sports Wear","tel":"031-111-1111","addr":"경기도 용인시 기흥구 마북동 316-1번지 강산빌딩 3층 302호","indutype":"의류 - 스포츠의류","category":"other"},{"name":"소루(SORU)","tel":"070-8265-8250","addr":"경기도 용인시 기흥구 마북동 316-1번지","indutype":"문화.취미 - 화원","category":"other"}]},{"lat":"37.297371134","long":"127.10910189","imageIndex":17,"items":[{"name":"갤러리 하우스","tel":"031-285-3890","addr":"경기도 용인시 기흥구 마북동 475-3번지 상록마북프라자 1층","indutype":"건축자재 - 조명기구","category":"other"},{"name":"남부효요양원(화평)","tel":"031-284-9491","addr":"경기도 용인시 기흥구 마북동 475-3번지","indutype":"기타의료기관 - 기타의료기관 및 기타","category":"other"},{"name":"남부효요양원(희락)","tel":"031-284-9491","addr":"경기도 용인시 기흥구 마북동 475-3번지 마북프라자 3층","indutype":"기타의료기관 - 기타의료기관 및 기타","category":"other"},{"name":"반석서점","tel":"031-284-4700","addr":"경기도 용인시 기흥구 마북동 475-3번지 마북프라자 지하1층","indutype":"서적문구 - 일반서적","category":"other"},{"name":"베르디","tel":"070-7799-2327","addr":"경기도 용인시 기흥구 마북동 475-3번지 상록마북프라자 109호","indutype":"의류 - 정장","category":"other"},{"name":"스마트폰 아이(기흥점)","tel":"031-204-6680","addr":"경기도 용인시 기흥구 마북동 475-3번지 상록마북프라자 111호","indutype":"수리서비스 - 사무·통신기기수리","category":"other"},{"name":"태양조명프라자","tel":"031-285-5722","addr":"경기도 용인시 기흥구 마북동 475-3번지 상록마북프라자 201호","indutype":"건축자재 - 조명기구","category":"other"},{"name":"태양조명프라자","tel":"031-285-5722","addr":"경기도 용인시 기흥구 마북동 475-3번지 상록마북프라자 201호","indutype":"건축자재 - 조명기구","category":"other"}]},{"lat":"37.295237796","long":"127.1165537","imageIndex":17,"items":[{"name":"경기구성우체국","tel":"031-283-2105","addr":"경기도 용인시 기흥구 마북동 317-4번지","indutype":"용역 서비스 - 공공요금대행서비스/소","category":"other"}]},{"lat":"37.300238091","long":"127.10718852","imageIndex":17,"items":[{"name":"경동책문구","tel":"031-287-7713","addr":"경기도 용인시 기흥구 마북동 524-13번지 벽산 분산상가 202동 105호","indutype":"서적문구 - 문구용품","category":"other"},{"name":"이우문구","tel":"031-287-6126","addr":"경기도 용인시 기흥구 마북동 524-13번지 벽산 주상가 107호","indutype":"서적문구 - 문구용품","category":"other"},{"name":"크린토피아 용인연원마을점","tel":"031-275-7878","addr":"경기도 용인시 기흥구 마북동 524-13번지 벽산주상가 109-1, 109-2호","indutype":"수리서비스 - 세탁소","category":"other"}]},{"lat":"37.294653412","long":"127.11521074","imageIndex":17,"items":[{"name":"고구마텔레콤","tel":"070-4202-0883","addr":"경기도 용인시 기흥구 마북동 324-1번지","indutype":"사무통신 - 통신기기","category":"other"},{"name":"미라클","tel":"031-283-2835","addr":"경기도 용인시 기흥구 마북동 324-1번지 1층","indutype":"의류 - 정장","category":"other"}]},{"lat":"37.301154749","long":"127.1194049","imageIndex":17,"items":[{"name":"공예사랑방","tel":"070-7803-2509","addr":"경기도 용인시 기흥구 마북동 244-3번지","indutype":"직물 - 침구·수예점","category":"other"}]},{"lat":"37.302152142","long":"127.12215854","imageIndex":17,"items":[{"name":"교동 조명전기","tel":"031-284-5804","addr":"경기도 용인시 기흥구 마북동 170-2번지 중앙프라자 2층","indutype":"전기제품 - 기타전기제품","category":"other"}]},{"lat":"37.296516127","long":"127.11771728","imageIndex":17,"items":[{"name":"구성기업","tel":"031-283-5061","addr":"경기도 용인시 기흥구 마북동 298-1번지","indutype":"건축자재 - 기타건축자재","category":"other"}]},{"lat":"37.294653776","long":"127.11482729","imageIndex":17,"items":[{"name":"구성만물상","tel":"031-282-2253","addr":"경기도 용인시 기흥구 마북동 324-6번지","indutype":"전기제품 - 기타전기제품","category":"other"}]},{"lat":"37.295066764","long":"127.11638427","imageIndex":17,"items":[{"name":"구성법무사사무소","tel":"031-284-1990","addr":"경기도 용인시 기흥구 마북동 317-18번지 2층","indutype":"용역 서비스 - 법률회계서비스(개인)","category":"other"},{"name":"구성잉크","tel":"031-283-3223","addr":"경기도 용인시 기흥구 마북동 317-18번지 1층","indutype":"사무통신 - 기타 사무용품","category":"other"},{"name":"구성지물","tel":"031-283-5791","addr":"경기도 용인시 기흥구 마북동 317-18번지","indutype":"직물 - 카페트,커튼,천막,지물","category":"other"}]},{"lat":"37.299156175","long":"127.10796526","imageIndex":17,"items":[{"name":"구성역 공인중개사사무소","tel":"031-284-2770","addr":"경기도 용인시 기흥구 마북동 521번지","indutype":"용역 서비스 - 부동산 중개·임대","category":"other"},{"name":"애터미","tel":"070-4112-1154","addr":"경기도 용인시 기흥구 마북동 521번지 신한빌딩 1층","indutype":"의류 - 정장","category":"other"},{"name":"용인구성모임센터","tel":"031-305-0914","addr":"경기도 용인시 기흥구 마북동 521번지 3층 일부","indutype":"용역 서비스 - 사무서비스","category":"other"}]},{"lat":"37.295759694","long":"127.11727629","imageIndex":17,"items":[{"name":"구성제분소","tel":"031-283-1693","addr":"경기도 용인시 기흥구 마북동 301-5","indutype":"유통업 영리 - 기타유통업","category":"other"},{"name":"아모르","tel":"070-8612-5206","addr":"경기도 용인시 기흥구 마북동 301-5번지","indutype":"의류 - 기타의류","category":"other"}]},{"lat":"37.295760129","long":"127.11682516","imageIndex":17,"items":[{"name":"국제로타리3600지구구성로타리클럽","tel":"031-284-4553","addr":"경기도 용인시 기흥구 마북동 317-1번지","indutype":"기타 - 비영리/대상","category":"other"}]},{"lat":"37.303630351","long":"127.12163075","imageIndex":17,"items":[{"name":"그라피즘(GRAPHISM)","tel":"031-275-6780","addr":"경기도 용인시 기흥구 마북동 625번지 교동마을현대필그린아파트","indutype":"의류 - 정장","category":"other"}]},{"lat":"37.300896112","long":"127.12568686","imageIndex":17,"items":[{"name":"그래핀 힐링","tel":"","addr":"경기도 용인시 기흥구 마북동 630번지 교동마을현대홈타운 114동 602호","indutype":"신변잡화 - 기타잡화","category":"other"},{"name":"엠지케이(M.G.K)","tel":"070-4122-9148","addr":"경기도 용인시 기흥구 마북동 630번지 교동마을현대홈타운 114동 1702호","indutype":"회원제형태 - 기타4","category":"other"}]},{"lat":"37.299822339","long":"127.10863163","imageIndex":17,"items":[{"name":"그린텔레콤","tel":"031-286-0203","addr":"경기도 용인시 기흥구 마북동 519-19번지 즐거운교회 104호","indutype":"사무통신 - 통신기기","category":"other"},{"name":"꼬맹이의하루","tel":"031-284-1108","addr":"경기도 용인시 기흥구 마북동 519-19번지 즐거운교회 101호","indutype":"의류 - 정장","category":"other"},{"name":"연원보수&인테리어","tel":"031-693-7077","addr":"경기도 용인시 기흥구 마북동 519-19번지 즐거운교회 203호","indutype":"용역 서비스 - 기타용역서비스","category":"other"}]},{"lat":"37.307316267","long":"127.12961141","imageIndex":17,"items":[{"name":"나나꾸에","tel":"","addr":"경기도 용인시 기흥구 마북동 649번지 마북2차e편한세상 203동 302호","indutype":"직물 - 침구·수예점","category":"other"}]},{"lat":"37.297455143","long":"127.1156886","imageIndex":17,"items":[{"name":"나미스타일&카페","tel":"031-111-1111","addr":"경기도 용인시 기흥구 마북동 345-4번지","indutype":"의류 - 정장","category":"other"},{"name":"다육플라워","tel":"070-7864-6628","addr":"경기도 용인시 기흥구 마북동 345-4번지","indutype":"문화.취미 - 화원","category":"other"}]},{"lat":"37.298010536","long":"127.1094637","imageIndex":17,"items":[{"name":"난이다육","tel":"031-211-0847","addr":"경기도 용인시 기흥구 마북동 517-9","indutype":"문화.취미 - 화원","category":"other"}]},{"lat":"37.29465293","long":"127.11571825","imageIndex":17,"items":[{"name":"대성기획","tel":"031-283-1304","addr":"경기도 용인시 기흥구 마북동 321번지","indutype":"기타 - 기계공구","category":"other"},{"name":"지영스튜디오","tel":"031-283-1049","addr":"경기도 용인시 기흥구 마북동 321번지","indutype":"광학제품 - 사진관","category":"other"}]},{"lat":"37.301850025","long":"127.1178833","imageIndex":17,"items":[{"name":"도경","tel":"031-285-3552","addr":"경기도 용인시 기흥구 마북동 162-47번지","indutype":"용역 서비스 - 부동산 중개·임대","category":"other"}]},{"lat":"37.298602063","long":"127.1129045","imageIndex":17,"items":[{"name":"디룸","tel":"","addr":"경기도 용인시 기흥구 마북동 629번지 삼성래미안1차아파트","indutype":"신변잡화 - 신발","category":"other"},{"name":"젬아띠","tel":"070-8773-5972","addr":"경기도 용인시 기흥구 마북동 629번지 삼성래미안1차아파트","indutype":"신변잡화 - 액세서리","category":"other"}]},{"lat":"37.303627962","long":"127.12398812","imageIndex":17,"items":[{"name":"딸부자통신","tel":"031-284-2226","addr":"경기도 용인시 기흥구 마북동 182-15번지 테라스가든B빌딩 B동 109호","indutype":"사무통신 - 통신기기","category":"other"},{"name":"미니살롱","tel":"070-7078-5588","addr":"경기도 용인시 기흥구 마북동 182-15번지 테라스가든B빌딩 106호","indutype":"의류 - 정장","category":"other"},{"name":"미니살롱","tel":"031-000-0000","addr":"경기도 용인시 기흥구 마북동 182-15번지 테라스가든B빌딩 106호","indutype":"의류 - 정장","category":"other"},{"name":"심플","tel":"031-287-8852","addr":"경기도 용인시 기흥구 마북동 182-15번지 테라스가든 116호","indutype":"의류 - 정장","category":"other"},{"name":"씨유마북가든점","tel":"031-88-6693","addr":"경기도 용인시 기흥구 마북동 182-15번지 테라스가든빌딩 B동 104호","indutype":"유통업 영리 - 편 의 점","category":"other"},{"name":"주식회사메이트라인","tel":"02-532-0888","addr":"경기도 용인시 기흥구 마북동 182-15번지 테라스가든B빌딩","indutype":"용역 서비스 - 사무서비스","category":"other"},{"name":"지인","tel":"031-284-4656","addr":"경기도 용인시 기흥구 마북동 182-15번지 테라스가든B빌딩 110호","indutype":"건축자재 - 인테리어전문","category":"other"},{"name":"협우물산주식회사","tel":"031-284-9797","addr":"경기도 용인시 기흥구 마북동 182-15번지","indutype":"기타 - 기타 전문점","category":"other"}]},{"lat":"37.299748437","long":"127.11065042","imageIndex":17,"items":[{"name":"라 오브 스튜디오","tel":"031-000-0000","addr":"경기도 용인시 기흥구 마북동 629번지 삼성래미안1차아파트","indutype":"신변잡화 - 액세서리","category":"other"}]},{"lat":"37.307020348","long":"127.1282799","imageIndex":17,"items":[{"name":"라플뢰르디유","tel":"02-0000-0000","addr":"경기도 용인시 기흥구 마북동 636번지 교동마을마북e편한세상","indutype":"문화.취미 - 화원","category":"other"}]},{"lat":"37.3026668","long":"127.12108783","imageIndex":17,"items":[{"name":"러닝팩토리","tel":"031-287-9674","addr":"경기도 용인시 기흥구 마북동 625번지 교동마을현대필그린아파트","indutype":"용역 서비스 - 사무서비스","category":"other"}]},{"lat":"37.29801688","long":"127.11238484","imageIndex":17,"items":[{"name":"롤코","tel":"031-259-2131","addr":"경기도 용인시 기흥구 마북동 629번지 삼성래미안1차아파트","indutype":"의류 - 정장","category":"other"}]},{"lat":"37.300309173","long":"127.10831651","imageIndex":17,"items":[{"name":"루즈홍","tel":"","addr":"경기도 용인시 기흥구 마북동 524-8번지 연원마을삼호.벽산아파트","indutype":"신변잡화 - 액세서리","category":"other"},{"name":"훈민정음","tel":"","addr":"경기도 용인시 기흥구 마북동 524-8번지 연원마을삼호.벽산아파트","indutype":"문화.취미 - 문화취미기타","category":"other"}]},{"lat":"37.300981709","long":"127.12126566","imageIndex":17,"items":[{"name":"리알씨","tel":"031-890-4961","addr":"경기도 용인시 기흥구 마북동 236번지 한성그린빌라 상가동 108호","indutype":"사무통신 - 컴퓨터","category":"other"}]},{"lat":"37.300709105","long":"127.11435127","imageIndex":17,"items":[{"name":"리프러츠(lifepilots)","tel":"","addr":"경기도 용인시 기흥구 마북동 624-1번지 연원마을삼성쉐르빌아파트","indutype":"용역 서비스 - 사무서비스","category":"other"},{"name":"블루진 사이언스","tel":"031-307-5205","addr":"경기도 용인시 기흥구 마북동 624-1번지 연원마을삼성쉐르빌아파트","indutype":"서적문구 - 과학기자재","category":"other"},{"name":"엔젤","tel":"031-282-7155","addr":"경기도 용인시 기흥구 마북동 624-1번지 연원마을삼성쉐르빌아파트","indutype":"용역 서비스 - 소프트웨어","category":"other"},{"name":"클릭윙","tel":"031-287-2968","addr":"경기도 용인시 기흥구 마북동 624-1번지 연원마을삼성쉐르빌아파트","indutype":"회원제형태 - 기타4","category":"other"}]},{"lat":"37.316182797","long":"127.12916376","imageIndex":17,"items":[{"name":"멀티(MT) 이벤트","tel":"031-284-3304","addr":"경기도 용인시 기흥구 마북동 21-36번지","indutype":"용역 서비스 - 종합용역","category":"other"}]},{"lat":"37.300643287","long":"127.12620527","imageIndex":17,"items":[{"name":"메이킹수아","tel":"","addr":"경기도 용인시 기흥구 마북동 630번지 교동마을현대홈타운 113동 1301호","indutype":"의류 - 내의판매","category":"other"}]},{"lat":"37.296763294","long":"127.11363491","imageIndex":17,"items":[{"name":"명성숫돌연마","tel":"031-283-7793","addr":"경기도 용인시 기흥구 마북동 352번지 우림필유아파트","indutype":"수리서비스 - 가정용품수리","category":"other"}]},{"lat":"37.292179577","long":"127.11093285","imageIndex":17,"items":[{"name":"명운레지던스(MW모빌월드)","tel":"070-8224-7111","addr":"경기도 용인시 기흥구 마북동 415-8번지","indutype":"유통업 영리 - 편 의 점","category":"other"}]},{"lat":"37.3025645","long":"127.10516149","imageIndex":17,"items":[{"name":"목조건축학교","tel":"031-284-5885","addr":"경기도 용인시 기흥구 마북동 502-144번지 일부","indutype":"용역 서비스 - 사무서비스","category":"other"}]},{"lat":"37.305706591","long":"127.12663089","imageIndex":17,"items":[{"name":"무궁화세탁","tel":"031-283-8937","addr":"경기도 용인시 기흥구 마북동 143번지 교동마을신창아파트","indutype":"수리서비스 - 세탁소","category":"other"}]},{"lat":"37.295453849","long":"127.10696764","imageIndex":17,"items":[{"name":"문화건설(주)","tel":"031-286-8484","addr":"경기도 용인시 기흥구 마북동 502-99","indutype":"용역 서비스 - 기타용역서비스","category":"other"},{"name":"용인시앤에이","tel":"031-286-2230","addr":"경기도 용인시 기흥구 마북동 502-99","indutype":"건축자재 - 기타건축자재","category":"other"}]},{"lat":"37.305315011","long":"127.12188154","imageIndex":17,"items":[{"name":"미리온교육","tel":"031-722-2222","addr":"경기도 용인시 기흥구 마북동 155-2 302호","indutype":"서적문구 - 일반서적","category":"other"}]},{"lat":"37.302567229","long":"127.11218841","imageIndex":17,"items":[{"name":"바디컨피던스","tel":"031-274-5565","addr":"경기도 용인시 기흥구 마북동 550-4번지","indutype":"회원제형태 - 레져업소","category":"other"},{"name":"이삭인테리어","tel":"031-274-8225","addr":"경기도 용인시 기흥구 마북동 550-4연원마을현대상가305","indutype":"건축자재 - 인테리어전문","category":"other"}]},{"lat":"37.29879475","long":"127.10910389","imageIndex":17,"items":[{"name":"바른골프클럽","tel":"031-284-7677","addr":"경기도 용인시 기흥구 마북동 516-32번지 3층","indutype":"회원제형태 - 레져업소","category":"other"},{"name":"세븐일레븐용인마북래미안점","tel":"","addr":"경기도 용인시 기흥구 마북동 516-32번지 진영빌딩 104호","indutype":"유통업 영리 - 편 의 점","category":"other"},{"name":"잉크클럽","tel":"031-283-4343","addr":"경기도 용인시 기흥구 마북동 516-32번지 외1필지 진영빌딩 1층 105호","indutype":"사무통신 - 기타 사무용품","category":"other"},{"name":"제이&컴퍼니로보틱스인베트먼트","tel":"070-8876-3549","addr":"경기도 용인시 기흥구 마북동 516-32번지 진영비링201호","indutype":"서적문구 - 과학기자재","category":"other"}]},{"lat":"37.299044763","long":"127.1116081","imageIndex":17,"items":[{"name":"바른손","tel":"031-305-2087","addr":"경기도 용인시 기흥구 마북동 629번지 삼성래미안1차아파트 분산상가 1층 104호","indutype":"서적문구 - 문구용품","category":"other"},{"name":"삼성레미안세탁","tel":"031-285-0818","addr":"경기도 용인시 기흥구 마북동 629번지 삼성레미안1차A주상가동109호 1층","indutype":"수리서비스 - 세탁소","category":"other"}]},{"lat":"37.305454152","long":"127.12677711","imageIndex":17,"items":[{"name":"밸류다임","tel":"070-8972-1974","addr":"경기도 용인시 기흥구 마북동 143번지 교동마을신창아파트","indutype":"용역 서비스 - 사무서비스","category":"other"},{"name":"프린터 컴 솔루션","tel":"031-274-2111","addr":"경기도 용인시 기흥구 마북동 143번지 교동마을신창아파트","indutype":"회원제형태 - 기타3","category":"other"}]},{"lat":"37.30598065","long":"127.122988","imageIndex":17,"items":[{"name":"보라꽃농원","tel":"031-263-9405","addr":"경기도 용인시 기흥구 마북동 153-1번지","indutype":"문화.취미 - 화원","category":"other"}]},{"lat":"37.302224486","long":"127.11257141","imageIndex":17,"items":[{"name":"보정카리스","tel":"031-275-5171","addr":"경기도 용인시 기흥구 마북동 550-4번지 연원마을현대아이파크","indutype":"회원제형태 - 기타1","category":"other"}]},{"lat":"37.316733307","long":"127.12832987","imageIndex":17,"items":[{"name":"브라운스토리","tel":"031-283-8731","addr":"경기도 용인시 기흥구 마북동 9-5번지 2층","indutype":"서적문구 - 완구점","category":"other"}]},{"lat":"37.303044233","long":"127.12208099","imageIndex":17,"items":[{"name":"블룸 (BLOOM)","tel":"","addr":"경기도 용인시 기흥구 마북동 173번지 103-1호","indutype":"의류 - 정장","category":"other"},{"name":"전라북도우수상품관 용인점","tel":"","addr":"경기도 용인시 기흥구 마북동 173번지 108호","indutype":"신변잡화 - 기념품점","category":"other"}]},{"lat":"37.299516193","long":"127.10840563","imageIndex":17,"items":[{"name":"비비드","tel":"031-8005-8210","addr":"경기도 용인시 기흥구 마북동 520-7번지 연원프라자 106호","indutype":"의류 - 정장","category":"other"},{"name":"연원골프스쿨","tel":"031-274-7707","addr":"경기도 용인시 기흥구 마북동 520-7연원프라자지하1층4","indutype":"회원제형태 - 레져업소","category":"other"},{"name":"온열면역센터","tel":"031-284-5075","addr":"경기도 용인시 기흥구 마북동 520-7번지 연원프라자 103호","indutype":"신변잡화 - 기타잡화","category":"other"},{"name":"퀸에스테틱","tel":"031-889-5153","addr":"경기도 용인시 기흥구 마북동 520-7번지 연원프라자 401호","indutype":"회원제형태 - 기타4","category":"other"}]},{"lat":"37.295570697","long":"127.11705044","imageIndex":17,"items":[{"name":"빈티지","tel":"031-4221-2889","addr":"경기도 용인시 기흥구 마북동 317-21번지 1층","indutype":"의류 - 정장","category":"other"},{"name":"크린라이프","tel":"031-283-9935","addr":"경기도 용인시 기흥구 마북동 317-21번지","indutype":"수리서비스 - 세탁소","category":"other"}]},{"lat":"37.299947668","long":"127.11910979","imageIndex":17,"items":[{"name":"사단법인아리사회복지원","tel":"031-889-6683","addr":"경기도 용인시 기흥구 마북동 251-4번지 시온빌라 1동 102호","indutype":"기타 - 비영리/대상","category":"other"}]},{"lat":"37.299155452","long":"127.10877732","imageIndex":17,"items":[{"name":"새롬디자인","tel":"031-283-9872","addr":"경기도 용인시 기흥구 마북동 520-26번지 102호","indutype":"건축자재 - 인테리어전문","category":"other"},{"name":"예스스크린골프","tel":"031-286-7676","addr":"경기도 용인시 기흥구 마북동 520-26번지 고산빌딩 3층","indutype":"회원제형태 - 레져업소","category":"other"}]},{"lat":"37.301841202","long":"127.10799155","imageIndex":17,"items":[{"name":"샤이니 쥬얼리","tel":"070-2781-0901","addr":"경기도 용인시 기흥구 마북동 526-3번지 연원마을엘지자이아파트","indutype":"회원제형태 - 기타4","category":"other"}]},{"lat":"37.308485843","long":"127.1312377","imageIndex":17,"items":[{"name":"세븐일레븐용인마북연수원점","tel":"","addr":"경기도 용인시 기흥구 마북동 115-2번지 화곡빌딩 1층 103호","indutype":"유통업 영리 - 편 의 점","category":"other"}]},{"lat":"37.297820618","long":"127.11024165","imageIndex":17,"items":[{"name":"세신철물,조명,전기","tel":"031-274-2663","addr":"경기도 용인시 기흥구 마북동 474-4번지","indutype":"전기제품 - 기타전기제품","category":"other"}]},{"lat":"37.300767816","long":"127.10929841","imageIndex":17,"items":[{"name":"소소한정원(Petite Jardin)","tel":"031-745-1111","addr":"경기도 용인시 기흥구 마북동 524-8번지 연원마을삼호.벽산아파트","indutype":"회원제형태 - 기타4","category":"other"},{"name":"엠디에이 테크놀로지 (MDA Technology)","tel":"070-8289-8360","addr":"경기도 용인시 기흥구 마북동 524-8번지","indutype":"사무통신 - 컴퓨터","category":"other"}]},{"lat":"37.30037458","long":"127.12465963","imageIndex":17,"items":[{"name":"솔내문구","tel":"031-285-7585","addr":"경기도 용인시 기흥구 마북동 630번지 교동마을현대홈타운 상가 108호","indutype":"서적문구 - 문구용품","category":"other"},{"name":"씨유기흥현대점","tel":"080-080-3663","addr":"경기도 용인시 기흥구 마북동 630번지 교동마을현대홈타운 상가동 103호","indutype":"유통업 영리 - 편 의 점","category":"other"},{"name":"현대명품세탁","tel":"031-275-0949","addr":"경기도 용인시 기흥구 마북동 630번지 현대홈타운 상가 109호","indutype":"수리서비스 - 세탁소","category":"other"},{"name":"현대세탁소","tel":"031-585-5747","addr":"경기도 용인시 기흥구 마북동 630번지 현대홈타운 상가 204호","indutype":"수리서비스 - 세탁소","category":"other"}]},{"lat":"37.302757743","long":"127.12024203","imageIndex":17,"items":[{"name":"솔로몬서적","tel":"","addr":"경기도 용인시 기흥구 마북동 625번지 교동마을현대필그린아파트","indutype":"서적문구 - 일반서적","category":"other"},{"name":"에코 에듀케이션","tel":"","addr":"경기도 용인시 기흥구 마북동 625번지 교동마을현대필그린아파트","indutype":"서적문구 - 일반서적","category":"other"},{"name":"에코에듀케이션","tel":"070-7560-4922","addr":"경기도 용인시 기흥구 마북동 625번지 교동마을현대필그린109동903호~903호 109동 903호","indutype":"회원제형태 - 서적","category":"other"},{"name":"예인디자인","tel":"031-285-7175","addr":"경기도 용인시 기흥구 마북동 625번지 교동마을현대필그린아파트","indutype":"건축자재 - 인테리어전문","category":"other"}]},{"lat":"37.304456786","long":"127.12410224","imageIndex":17,"items":[{"name":"스마일디자인","tel":"031-284-6660","addr":"경기도 용인시 기흥구 마북동 184-11번지","indutype":"건축자재 - 인테리어전문","category":"other"}]},{"lat":"37.29973313","long":"127.1076277","imageIndex":17,"items":[{"name":"스타키보청기용인난청센타","tel":"031-275-0099","addr":"경기도 용인시 기흥구 마북동 524-1번지 팬아시아빌딩 501호","indutype":"기타의료기관 - 기타의료기관 및 기타","category":"other"},{"name":"올리비아하슬러직영마북점","tel":"031-693-7783","addr":"경기도 용인시 기흥구 마북동 524-1번지 1층 101호,102호,103호","indutype":"레져용품 - 스포츠·레져용품","category":"other"}]},{"lat":"37.300556089","long":"127.12338542","imageIndex":17,"items":[{"name":"시즈(ciiz)","tel":"070-7623-7290","addr":"경기도 용인시 기흥구 마북동 630번지 교동마을현대홈타운 102동 504호","indutype":"의류 - 정장","category":"other"}]},{"lat":"37.300009839","long":"127.12002347","imageIndex":17,"items":[{"name":"씨유기흥교동점","tel":"031-238-9959","addr":"경기도 용인시 기흥구 마북동 232-2번지","indutype":"유통업 영리 - 편 의 점","category":"other"},{"name":"형제종합설비철물","tel":"031-287-4222","addr":"경기도 용인시 기흥구 마북동 232-2번지 1층","indutype":"용역 서비스 - 기타용역서비스","category":"other"}]},{"lat":"37.317653643","long":"127.12710173","imageIndex":17,"items":[{"name":"씨유단대기숙사점","tel":"031-275-7262","addr":"경기도 용인시 기흥구 마북동 9-3번지","indutype":"유통업 영리 - 편 의 점","category":"other"}]},{"lat":"37.299822862","long":"127.10804514","imageIndex":17,"items":[{"name":"씨유용인마북점","tel":"031-287-4111","addr":"경기도 용인시 기흥구 마북동 524-17번지 삼호빌딩 101호","indutype":"유통업 영리 - 편 의 점","category":"other"},{"name":"포인트 인테리어","tel":"031-693-7772","addr":"경기도 용인시 기흥구 마북동 524-17번지 미소가있는치과 1층 102호","indutype":"건축자재 - 인테리어전문","category":"other"}]},{"lat":"37.2948461","long":"127.11148928","imageIndex":17,"items":[{"name":"아라(ARA)스튜디오","tel":"031-283-4111","addr":"경기도 용인시 기흥구 마북동 373-9번지","indutype":"광학제품 - 사진관","category":"other"}]},{"lat":"37.303424186","long":"127.12055889","imageIndex":17,"items":[{"name":"아리스트링","tel":"031-287-2238","addr":"경기도 용인시 기흥구 마북동 625번지 교동마을현대필그린아파트","indutype":"레져용품 - 악기점","category":"other"}]},{"lat":"37.300042288","long":"127.12359889","imageIndex":17,"items":[{"name":"아이디자인","tel":"031-206-5110","addr":"경기도 용인시 기흥구 마북동 630번지 교동마을 현대홈타운105동2층2호","indutype":"서적문구 - 출판 및 인쇄물","category":"other"}]},{"lat":"37.293739778","long":"127.10935618","imageIndex":17,"items":[{"name":"앨리스","tel":"031-286-6122","addr":"경기도 용인시 기흥구 마북동 502-385번지 올리브스퀘어 C동 1층","indutype":"신변잡화 - 액세서리","category":"other"}]},{"lat":"37.299595893","long":"127.11949272","imageIndex":17,"items":[{"name":"어울림인테리어","tel":"031-274-3232","addr":"경기도 용인시 기흥구 마북동 254-2번지 대왕빌딩 108호","indutype":"건축자재 - 인테리어전문","category":"other"}]},{"lat":"37.299676439","long":"127.12004551","imageIndex":17,"items":[{"name":"에듀바비 경기용인기흥지사","tel":"02-1522-0701","addr":"경기도 용인시 기흥구 마북동 255-4번지 4B동 602호","indutype":"용역 서비스 - 사무서비스","category":"other"}]},{"lat":"37.301259141","long":"127.1139122","imageIndex":17,"items":[{"name":"에스라티","tel":"031-707-0312","addr":"경기도 용인시 기흥구 마북동 624","indutype":"회원제형태 - 기타4","category":"other"}]},{"lat":"37.295040133","long":"127.11596694","imageIndex":17,"items":[{"name":"에스케이렌트카주식회사","tel":"031-286-4280","addr":"경기도 용인시 기흥구 마북동 316번지 강산빌딩 4층","indutype":"여행 - 렌터카","category":"other"}]},{"lat":"37.302906095","long":"127.10607557","imageIndex":17,"items":[{"name":"에이스컴퓨터","tel":"031-283-5133","addr":"경기도 용인시 기흥구 마북동 554-10,1칸","indutype":"사무통신 - 통신기기","category":"other"}]},{"lat":"37.303736142","long":"127.1239319","imageIndex":17,"items":[{"name":"에이씨티더블2","tel":"031-284-2226","addr":"경기도 용인시 기흥구 마북동 182-3번지 테라스가든 B동 109호","indutype":"사무통신 - 통신기기","category":"other"}]},{"lat":"37.30118026","long":"127.12093888","imageIndex":17,"items":[{"name":"에코스존","tel":"070-4829-7122","addr":"경기도 용인시 기흥구 마북동 237-3번지 2층","indutype":"용역 서비스 - 종합용역","category":"other"}]},{"lat":"37.303376206","long":"127.12346887","imageIndex":17,"items":[{"name":"엔씨통신 마북점","tel":"070-4202-4001","addr":"경기도 용인시 기흥구 마북동 174-3번지 가동 103호","indutype":"사무통신 - 통신기기","category":"other"}]},{"lat":"37.301848187","long":"127.11024737","imageIndex":17,"items":[{"name":"엔크리스토","tel":"031-274-6011","addr":"경기도 용인시 기흥구 마북동 548-1번지 중앙프라자 4층 402호","indutype":"신변잡화 - 기타잡화","category":"other"},{"name":"자인인테리어","tel":"031-286-8104","addr":"경기도 용인시 기흥구 마북동 548-1 연원마을증앙프라자101호","indutype":"건축자재 - 인테리어전문","category":"other"},{"name":"파란명함","tel":"031-287-1874","addr":"경기도 용인시 기흥구 마북동 548-1번지 중앙프라자 402호","indutype":"서적문구 - 출판 및 인쇄물","category":"other"}]},{"lat":"37.301460952","long":"127.119552","imageIndex":17,"items":[{"name":"엘제이(LJ)엔터프라이즈","tel":"031-275-9713","addr":"경기도 용인시 기흥구 마북동 245-1번지 산에들에 2층 201호","indutype":"용역 서비스 - 사무서비스","category":"other"}]},{"lat":"37.302371594","long":"127.11893305","imageIndex":17,"items":[{"name":"엘피스토리(LP STORY)","tel":"031-285-2298","addr":"경기도 용인시 기흥구 마북동 638번지 교동마을구성자이3차","indutype":"회원제형태 - 사무서비스","category":"other"}]},{"lat":"37.295434208","long":"127.10879466","imageIndex":17,"items":[{"name":"엠앤제이","tel":"031-283-1012","addr":"경기도 용인시 기흥구 마북동 502-29번지","indutype":"의류 - 정장","category":"other"}]},{"lat":"37.30303623","long":"127.12107713","imageIndex":17,"items":[{"name":"엠제이컴(MJ COMMUNICATIONS)","tel":"","addr":"경기도 용인시 기흥구 마북동 625번지 교동마을현대필그린아파트","indutype":"용역 서비스 - 종합용역","category":"other"}]},{"lat":"37.300749073","long":"127.11009919","imageIndex":17,"items":[{"name":"엠코퍼레이션","tel":"02-557-3930","addr":"경기도 용인시 기흥구 마북동 524-8번지 연원마을삼호.벽산아파트","indutype":"회원제형태 - 기타4","category":"other"}]},{"lat":"37.301288248","long":"127.12107439","imageIndex":17,"items":[{"name":"여우야","tel":"070-4655-9025","addr":"경기도 용인시 기흥구 마북동 237-5번지","indutype":"의류 - 정장","category":"other"}]},{"lat":"37.302481863","long":"127.12573455","imageIndex":17,"items":[{"name":"연은정보기술","tel":"02-445-5411","addr":"경기도 용인시 기흥구 마북동 204-5번지 교동마을정광아파트","indutype":"사무통신 - 컴퓨터","category":"other"}]},{"lat":"37.29748781","long":"127.10960959","imageIndex":17,"items":[{"name":"오롯사무기기","tel":"02-1644-5956","addr":"경기도 용인시 기흥구 마북동 474-5번지","indutype":"사무통신 - 사무용 OA기기","category":"other"}]},{"lat":"37.300792573","long":"127.12118641","imageIndex":17,"items":[{"name":"울림","tel":"031-284-9189","addr":"경기도 용인시 기흥구 마북동 235-1번지","indutype":"사무통신 - 컴퓨터","category":"other"}]},{"lat":"37.294932225","long":"127.11574122","imageIndex":17,"items":[{"name":"월드플러스","tel":"031-284-0865","addr":"경기도 용인시 기흥구 마북동 339-1번지","indutype":"전기제품 - 기타전기제품","category":"other"}]},{"lat":"37.303095932","long":"127.1244046","imageIndex":17,"items":[{"name":"위드미용인마북점","tel":"02-6916-1500","addr":"경기도 용인시 기흥구 마북동 194-1번지 마북프라자 205호","indutype":"유통업 영리 - 편 의 점","category":"other"},{"name":"크린토피아 용인마북점","tel":"031-283-5211","addr":"경기도 용인시 기흥구 마북동 194-1번지 마북프라자 2호","indutype":"수리서비스 - 세탁소","category":"other"}]},{"lat":"37.300820622","long":"127.11068579","imageIndex":17,"items":[{"name":"위드미용인한아름점","tel":"031-285-0282","addr":"경기도 용인시 기흥구 마북동 524-8번지 벽산분산상가 202동 101호","indutype":"유통업 영리 - 편 의 점","category":"other"},{"name":"크린에이드(구성점)","tel":"031-285-7131","addr":"경기도 용인시 기흥구 마북동 524-8벽산분산상가104","indutype":"수리서비스 - 세탁소","category":"other"}]},{"lat":"37.300712167","long":"127.12049827","imageIndex":17,"items":[{"name":"유명의류할인매장","tel":"031-284-7870","addr":"경기도 용인시 기흥구 마북동 239-5번지","indutype":"의류 - 정장","category":"other"}]},{"lat":"37.297320451","long":"127.10526717","imageIndex":17,"items":[{"name":"유에스레이지매트리스(USLAZYMATTRESS)","tel":"","addr":"경기도 용인시 기흥구 마북동 502-80번지 3층","indutype":"가구 - 일반가구","category":"other"}]},{"lat":"37.295016776","long":"127.11205343","imageIndex":17,"items":[{"name":"이브자리","tel":"031-284-7949","addr":"경기도 용인시 기흥구 마북동 370-5번지 1층","indutype":"직물 - 침구·수예점","category":"other"}]},{"lat":"37.296488152","long":"127.10907809","imageIndex":17,"items":[{"name":"이태리조명","tel":"031-285-5722","addr":"경기도 용인시 기흥구 마북동 470-22번지","indutype":"건축자재 - 조명기구","category":"other"}]},{"lat":"37.296128873","long":"127.11752497","imageIndex":17,"items":[{"name":"장흥전파사","tel":"031-283-0307","addr":"경기도 용인시 기흥구 마북동 301-7","indutype":"전기제품 - 기타전기제품","category":"other"}]},{"lat":"37.29543019","long":"127.11319311","imageIndex":17,"items":[{"name":"주니어리더십센타예스아이엠","tel":"031-693-6911","addr":"경기도 용인시 기흥구 마북동 352-6번지 2층","indutype":"회원제형태 - 기타4","category":"other"}]},{"lat":"37.296985683","long":"127.11665783","imageIndex":17,"items":[{"name":"주성어패럴","tel":"070-7420-0993","addr":"경기도 용인시 기흥구 마북동 651번지 효성해링턴플레이스 101동 10층 1001호","indutype":"의류 - 정장","category":"other"}]},{"lat":"37.314318048","long":"127.12882222","imageIndex":17,"items":[{"name":"주식회사 고도전기공업","tel":"031-281-7228","addr":"경기도 용인시 기흥구 마북동 23-25번지","indutype":"전기제품 - 기타전기제품","category":"other"}]},{"lat":"37.29356913","long":"127.10874694","imageIndex":17,"items":[{"name":"주식회사 디프라토","tel":"031-768-8410","addr":"경기도 용인시 기흥구 마북동 425-25번지 올리브스퀘어 1층","indutype":"의류 - 정장","category":"other"}]},{"lat":"37.308846031","long":"127.13144136","imageIndex":17,"items":[{"name":"주식회사 예다움","tel":"031-283-5522","addr":"경기도 용인시 기흥구 마북동 72번지","indutype":"건축자재 - 기타건축자재","category":"other"}]},{"lat":"37.297653801","long":"127.10530146","imageIndex":17,"items":[{"name":"주식회사 올텍","tel":"031-684-9815","addr":"경기도 용인시 기흥구 마북동 502-76번지 2층","indutype":"건축자재 - 조명기구","category":"other"}]},{"lat":"37.295012811","long":"127.11627141","imageIndex":17,"items":[{"name":"주식회사글컴정보통신","tel":"031-285-2016","addr":"경기도 용인시 기흥구 마북동 317-5번지 1층","indutype":"사무통신 - 통신기기","category":"other"}]},{"lat":"37.293211659","long":"127.10540821","imageIndex":17,"items":[{"name":"주식회사오르자","tel":"031-000-0000","addr":"경기도 용인시 기흥구 마북동 444번지","indutype":"레져용품 - 스포츠·레져용품","category":"other"}]},{"lat":"37.304338143","long":"127.12556838","imageIndex":17,"items":[{"name":"지비티(GBT)","tel":"031-305-0819","addr":"경기도 용인시 기흥구 마북동 617번지 교동마을엘지자이","indutype":"회원제형태 - 기타1","category":"other"}]},{"lat":"37.301234983","long":"127.1202735","imageIndex":17,"items":[{"name":"집운헌","tel":"031-283-1911","addr":"경기도 용인시 기흥구 마북동 238번지","indutype":"신변잡화 - 기념품점","category":"other"}]},{"lat":"37.314786097","long":"127.12927424","imageIndex":17,"items":[{"name":"짜임","tel":"031-8001-5151","addr":"경기도 용인시 기흥구 마북동 22-2번지","indutype":"가구 - 일반가구","category":"other"}]},{"lat":"37.302204763","long":"127.12357979","imageIndex":17,"items":[{"name":"코리아아트","tel":"031-707-6228","addr":"경기도 용인시 기흥구 마북동 641번지 동양파라곤아파트","indutype":"회원제형태 - 기타4","category":"other"}]},{"lat":"37.301485863","long":"127.12168377","imageIndex":17,"items":[{"name":"코코베리","tel":"070-7018-5367","addr":"경기도 용인시 기흥구 마북동 168-6번지 현대타운 105호","indutype":"의류 - 정장","category":"other"}]},{"lat":"37.300728696","long":"127.11267074","imageIndex":17,"items":[{"name":"크레도컴퍼니","tel":"070-5057-0460","addr":"경기도 용인시 기흥구 마북동 524-8번지 연원마을삼호.벽산아파트","indutype":"서적문구 - 출판 및 인쇄물","category":"other"}]},{"lat":"37.294736665","long":"127.11291015","imageIndex":17,"items":[{"name":"티파니","tel":"031-285-7077","addr":"경기도 용인시 기흥구 마북동 329-1번지","indutype":"신변잡화 - 귀금속","category":"other"},{"name":"효성디자인","tel":"031-283-1215","addr":"경기도 용인시 기흥구 마북동 329-1번지","indutype":"건축자재 - 인테리어전문","category":"other"}]},{"lat":"37.304211649","long":"127.12590656","imageIndex":17,"items":[{"name":"포그네이불","tel":"031-275-2009","addr":"경기도 용인시 기흥구 마북동 617번지 교동마을엘지자이상가 1층 103호 상가","indutype":"직물 - 침구·수예점","category":"other"}]},{"lat":"37.301398593","long":"127.10923162","imageIndex":17,"items":[{"name":"플로피아","tel":"031-287-7055","addr":"경기도 용인시 기흥구 마북동 524-8번지 연원마을삼호.벽산아파트","indutype":"문화.취미 - 화원","category":"other"}]},{"lat":"37.295598292","long":"127.11646402","imageIndex":17,"items":[{"name":"피카스튜디오 (Fika studio)","tel":"070-4225-3170","addr":"경기도 용인시 기흥구 마북동 314-3번지","indutype":"광학제품 - 사진관","category":"other"}]},{"lat":"37.300207796","long":"127.12029446","imageIndex":17,"items":[{"name":"하나유리","tel":"031-275-2172","addr":"경기도 용인시 기흥구 마북동 232-3번지 101호","indutype":"건축자재 - 유리","category":"other"}]},{"lat":"37.302404655","long":"127.12193336","imageIndex":17,"items":[{"name":"한겨레 특공무술 체육관","tel":"031-284-2189","addr":"경기도 용인시 기흥구 마북동 171-2번지 가동 3층","indutype":"회원제형태 - 레져업소","category":"other"}]},{"lat":"37.300757314","long":"127.11094511","imageIndex":17,"items":[{"name":"한국공기질정화협회","tel":"","addr":"경기도 용인시 기흥구 마북동 524-8번지 연원마을삼호.벽산아파트","indutype":"전기제품 - 기타전기제품","category":"other"}]},{"lat":"37.308872558","long":"127.13190389","imageIndex":17,"items":[{"name":"한국미술관","tel":"031-283-6418","addr":"경기도 용인시 기흥구 마북동 73-1번지","indutype":"문화.취미 - 화랑","category":"other"},{"name":"한국미술관 문화비","tel":"031-283-6418","addr":"경기도 용인시 기흥구 마북동 73-1번지","indutype":"문화.취미 - 티켓","category":"other"}]},{"lat":"37.294317922","long":"127.10768786","imageIndex":17,"items":[{"name":"한성에프앤시주식회사","tel":"031-286-3670","addr":"경기도 용인시 기흥구 마북동 502-115번지","indutype":"의류 - 정장","category":"other"},{"name":"한성에프앤시주식회사","tel":"031-238-5652","addr":"경기도 용인시 기흥구 마북동 502-115번지","indutype":"유통업 영리 - 편 의 점","category":"other"},{"name":"한성에프앤시주식회사","tel":"031-283-3652","addr":"경기도 용인시 기흥구 마북동 502-115번지","indutype":"의류 - 스포츠의류","category":"other"}]},{"lat":"37.294598976","long":"127.11560539","imageIndex":17,"items":[{"name":"한일장식인테리어","tel":"031-283-8488","addr":"경기도 용인시 기흥구 마북동 321-4번지","indutype":"직물 - 카페트,커튼,천막,지물","category":"other"}]},{"lat":"37.30037017","long":"127.12010298","imageIndex":17,"items":[{"name":"한화인테리어","tel":"031-8001-1593","addr":"경기도 용인시 기흥구 마북동 240-1번지 외2필지삼보빌라제1층 101호","indutype":"건축자재 - 인테리어전문","category":"other"}]},{"lat":"37.294157732","long":"127.11533406","imageIndex":17,"items":[{"name":"해가떴다","tel":"031-274-3857","addr":"경기도 용인시 기흥구 마북동 620번지 용화마을태영데시앙아파트","indutype":"서적문구 - 출판 및 인쇄물","category":"other"}]},{"lat":"37.306047984","long":"127.12757894","imageIndex":17,"items":[{"name":"해피룩(Happy Look)","tel":"031-717-7533","addr":"경기도 용인시 기흥구 마북동 636번지 교동마을마북e편한세상","indutype":"의류 - 내의판매","category":"other"}]},{"lat":"37.298461118","long":"127.10938539","imageIndex":17,"items":[{"name":"행복공작소","tel":"031-000-0000","addr":"경기도 용인시 기흥구 마북동 516-34번지 아남빌라 402호","indutype":"문화.취미 - 문화취미기타","category":"other"}]},{"lat":"37.299537289","long":"127.1240154","imageIndex":17,"items":[{"name":"헤븐스톤인테리어","tel":"031-283-8404","addr":"경기도 용인시 기흥구 마북동 630번지 교동마을현대홈타운 106동 1202호","indutype":"건축자재 - 인테리어전문","category":"other"}]}]