[{"lat":"37.242991117","long":"127.12171588","imageIndex":13,"items":[{"name":"네일 설레임","tel":"031-111-1111","addr":"경기도 용인시 기흥구 공세동 714번지","indutype":"보건위생 - 피부미용실","category":"beauty"},{"name":"오땡큐","tel":"031-287-8595","addr":"경기도 용인시 기흥구 공세동 714번지 탑실마을대주피오레2단지 상가 501동 106호","indutype":"보건위생 - 미용원","category":"beauty"}]},{"lat":"37.234802162","long":"127.11080584","imageIndex":13,"items":[{"name":"뉴월드팜","tel":"","addr":"경기도 용인시 기흥구 공세동 173-3번지 201호","indutype":"보건위생 - 화장품","category":"beauty"}]},{"lat":"37.245326302","long":"127.11071941","imageIndex":13,"items":[{"name":"도도에스테틱","tel":"031-282-6436","addr":"경기도 용인시 기흥구 공세동 676번지 화성파크드림프라브 301동 지2층 104호","indutype":"보건위생 - 피부미용실","category":"beauty"},{"name":"올가스킨","tel":"070-7420-2552","addr":"경기도 용인시 기흥구 공세동 676번지 화,성파크드림프라브상가 301동 지2층 102호","indutype":"보건위생 - 화장품","category":"beauty"},{"name":"코코헤어","tel":"031-283-3592","addr":"경기도 용인시 기흥구 공세동 676번지 화성파크프라브 103호","indutype":"보건위생 - 미용원","category":"beauty"}]},{"lat":"37.244051162","long":"127.10586003","imageIndex":13,"items":[{"name":"두발짱(보라점)","tel":"031-286-5880","addr":"경기도 용인시 기흥구 공세동 672-3번지 서원프라자 105호","indutype":"보건위생 - 미용원","category":"beauty"}]},{"lat":"37.243323781","long":"127.10299638","imageIndex":13,"items":[{"name":"상현상사","tel":"02-983-7823","addr":"경기도 용인시 기흥구 공세동 388-17 1층 105","indutype":"보건위생 - 화장품","category":"beauty"}]},{"lat":"37.241856151","long":"127.10174345","imageIndex":13,"items":[{"name":"솔올바이오 경기점","tel":"","addr":"경기도 용인시 기흥구 공세동 476-190번지 호수타운 101동 202호","indutype":"보건위생 - 화장품","category":"beauty"}]},{"lat":"37.245045566","long":"127.10202938","imageIndex":13,"items":[{"name":"쑥뜸","tel":"031-211-3261","addr":"경기도 용인시 기흥구 공세동 476-86번지","indutype":"보건위생 - 미용재료","category":"beauty"}]},{"lat":"37.242940692","long":"127.10836052","imageIndex":13,"items":[{"name":"오렌지","tel":"031-274-3439","addr":"경기도 용인시 기흥구 공세동 679번지 한보라마을휴먼시아9단지 상가 103호","indutype":"보건위생 - 미용원","category":"beauty"}]},{"lat":"37.245687918","long":"127.10938998","imageIndex":13,"items":[{"name":"올가스킨","tel":"031-286-5240","addr":"경기도 용인시 기흥구 공세동 674번지 한보라마을휴먼시아7단지아파트","indutype":"보건위생 - 화장품","category":"beauty"}]},{"lat":"37.239019759","long":"127.10996663","imageIndex":13,"items":[{"name":"윤슬헤어","tel":"031-284-5955","addr":"경기도 용인시 기흥구 공세동 734-3번지 1층 105호","indutype":"보건위생 - 미용원","category":"beauty"}]},{"lat":"37.238884808","long":"127.10974104","imageIndex":13,"items":[{"name":"정원헤어","tel":"031-287-6127","addr":"경기도 용인시 기흥구 공세동 734-2번지","indutype":"보건위생 - 미용원","category":"beauty"}]},{"lat":"37.246685451","long":"127.10202026","imageIndex":13,"items":[{"name":"주식회사 메디타임","tel":"031-777-3900","addr":"경기도 용인시 기흥구 공세동 476-112번지","indutype":"보건위생 - 의료용품","category":"beauty"}]},{"lat":"37.244519727","long":"127.10582686","imageIndex":13,"items":[{"name":"헤어체인지","tel":"031-275-3310","addr":"경기도 용인시 기흥구 공세동 671-1번지 휴먼프라자 105호","indutype":"보건위생 - 미용원","category":"beauty"}]}]