[{"lat":"37.130171217","long":"126.91429415","imageIndex":0,"items":[{"name":"SM카서비스","tel":"031-8059-0028","addr":"경기도 화성시 향남읍 행정리 420-12번지 1층","indutype":"자동차정비 유지 - 자동차정비","category":"car"}]},{"lat":"37.129969891","long":"126.92259947","imageIndex":0,"items":[{"name":"금화상사","tel":"031-8059-0375","addr":"경기도 화성시 향남읍 행정리 486-4번지 향남프라자","indutype":"자동차정비 유지 - 주차장","category":"car"}]},{"lat":"37.126693394","long":"126.91460204","imageIndex":0,"items":[{"name":"네바퀴자동차","tel":"031-353-7579","addr":"경기도 화성시 향남읍 행정리 455-6 택지개발지구115-4블록 101","indutype":"자동차정비 유지 - 카인테리어","category":"car"}]},{"lat":"37.127111146","long":"126.93301159","imageIndex":0,"items":[{"name":"드림모터스","tel":"031-352-3222","addr":"경기도 화성시 향남읍 행정리 55-3","indutype":"자동차정비 유지 - 자동차정비","category":"car"},{"name":"드림모터스","tel":"031-352-3222","addr":"경기도 화성시 향남읍 행정리 55-3번지","indutype":"자동차정비 유지 - 자동차정비","category":"car"}]},{"lat":"37.125168689","long":"126.92468631","imageIndex":0,"items":[{"name":"명은 카프라자","tel":"031-366-4771","addr":"경기도 화성시 향남읍 행정리 507-17번지","indutype":"자동차정비 유지 - 자동차정비","category":"car"},{"name":"성우카","tel":"031-354-0951","addr":"경기도 화성시 향남읍 행정리 507-17번지","indutype":"자동차정비 유지 - 자동차정비","category":"car"}]},{"lat":"37.130638822","long":"126.91304446","imageIndex":0,"items":[{"name":"백두카센타","tel":"031-359-9451","addr":"경기도 화성시 향남읍 행정리 418-1","indutype":"자동차정비 유지 - 자동차정비","category":"car"}]},{"lat":"37.125972513","long":"126.91454661","imageIndex":0,"items":[{"name":"삼성애니카 세차장","tel":"031-353-3381","addr":"경기도 화성시 향남읍 행정리 459-1번지","indutype":"자동차정비 유지 - 세차장","category":"car"}]},{"lat":"37.13076224","long":"126.92175461","imageIndex":0,"items":[{"name":"소낙스","tel":"031-354-6446","addr":"경기도 화성시 향남읍 행정리 487-1번지","indutype":"자동차정비 유지 - 세차장","category":"car"},{"name":"오토오아시스 홈플러스 향남점","tel":"031-354-7406","addr":"경기도 화성시 향남읍 행정리 487-1번지 화성향남점 4층 주차장 내","indutype":"자동차정비 유지 - 자동차정비","category":"car"}]},{"lat":"37.132108927","long":"126.92802156","imageIndex":0,"items":[{"name":"에스티","tel":"031-8059-4625","addr":"경기도 화성시 향남읍 행정리 479번지 복사꽃마을한국아델리움 901동 101호","indutype":"자동차정비 유지 - 자동차정비","category":"car"}]},{"lat":"37.13064024","long":"126.91493506","imageIndex":0,"items":[{"name":"오박사자동차외형복원","tel":"031-366-1098","addr":"경기도 화성시 향남읍 행정리 421-3","indutype":"자동차정비 유지 - 가타자동차서비스","category":"car"}]},{"lat":"37.125365976","long":"126.92326825","imageIndex":0,"items":[{"name":"오토카하우스","tel":"031-8059-4688","addr":"경기도 화성시 향남읍 행정리 506-1","indutype":"자동차정비 유지 - 자동차부품","category":"car"}]},{"lat":"37.123418137","long":"126.92096352","imageIndex":0,"items":[{"name":"올인원카 향남점","tel":"","addr":"경기도 화성시 향남읍 행정리 502-8번지 102호","indutype":"자동차정비 유지 - 카인테리어","category":"car"}]},{"lat":"37.123752794","long":"126.92281984","imageIndex":0,"items":[{"name":"워시존","tel":"031-366-1222","addr":"경기도 화성시 향남읍 행정리 512-1번지","indutype":"자동차정비 유지 - 세차장","category":"car"}]},{"lat":"37.123726005","long":"126.92317995","imageIndex":0,"items":[{"name":"자동차마을","tel":"031-352-7728","addr":"경기도 화성시 향남읍 행정리 512-14번지","indutype":"자동차정비 유지 - 자동차정비","category":"car"}]},{"lat":"37.125251547","long":"126.91437866","imageIndex":0,"items":[{"name":"제이에스모터스(JS모터스)","tel":"031-8059-5189","addr":"경기도 화성시 향남읍 행정리 459-5번지","indutype":"자동차정비 유지 - 자동차정비","category":"car"}]},{"lat":"37.128449817","long":"126.91376725","imageIndex":0,"items":[{"name":"카업(향남점)","tel":"031-366-0029","addr":"경기도 화성시 향남읍 행정리 448-1번지 1층","indutype":"자동차정비 유지 - 카인테리어","category":"car"}]},{"lat":"37.124222912","long":"126.9251824","imageIndex":0,"items":[{"name":"카일링","tel":"031-354-0215","addr":"경기도 화성시 향남읍 행정리 515-5번지","indutype":"자동차정비 유지 - 카인테리어","category":"car"}]},{"lat":"37.125729028","long":"126.91427682","imageIndex":0,"items":[{"name":"케이알 멀티샵","tel":"031-8059-4799","addr":"경기도 화성시 향남읍 행정리 457-7번지 1층 상가 1층","indutype":"자동차정비 유지 - 자동차부품","category":"car"},{"name":"케이알멀티샵","tel":"031-8059-4799","addr":"경기도 화성시 향남읍 행정리 457-7번지 1층","indutype":"자동차정비 유지 - 자동차부품","category":"car"}]},{"lat":"37.123561766","long":"126.92018694","imageIndex":0,"items":[{"name":"티스테이션향남신도시점","tel":"031-377-6028","addr":"경기도 화성시 향남읍 행정리 496-15","indutype":"자동차정비 유지 - 자동차시트·타이어","category":"car"}]},{"lat":"37.127683925","long":"126.91376815","imageIndex":0,"items":[{"name":"행정카센타","tel":"053-551-5767","addr":"경기도 화성시 향남읍 행정리 450-14번지","indutype":"자동차정비 유지 - 자동차정비","category":"car"}]},{"lat":"37.123417786","long":"126.92045716","imageIndex":0,"items":[{"name":"향남상사","tel":"031-353-2247","addr":"경기도 화성시 향남읍 행정리 502-10","indutype":"자동차정비 유지 - 자동차부품","category":"car"}]},{"lat":"37.132112865","long":"126.92038021","imageIndex":0,"items":[{"name":"향남읍행정복지센터","tel":"031-369-3472","addr":"경기도 화성시 향남읍 행정리 287-1번지","indutype":"자동차정비 유지 - 주차장","category":"car"}]},{"lat":"37.127324299","long":"126.92793624","imageIndex":0,"items":[{"name":"화성제일","tel":"070-7569-0801","addr":"경기도 화성시 향남읍 행정리 482번지 살구꽃마을화성파크드림 1507동 1201호","indutype":"자동차정비 유지 - 자동차정비","category":"car"}]}]