[{"lat":"37.246552006","long":"127.22642725","imageIndex":13,"items":[{"name":"JH SERVICE","tel":"070-5033-8879","addr":"경기도 용인시 처인구 고림동 340-30번지 힐링하우스 103동 102호","indutype":"보건위생 - 기타대인서비스","category":"beauty"}]},{"lat":"37.258551458","long":"127.22282165","imageIndex":13,"items":[{"name":"MediRound (메디라운드)","tel":"031-339-2293","addr":"경기도 용인시 처인구 고림동 475-10번지","indutype":"보건위생 - 의료용품","category":"beauty"},{"name":"지오디헤어(GOD헤어)","tel":"070-7550-6871","addr":"경기도 용인시 처인구 고림동 475-10번지 2호","indutype":"보건위생 - 미용재료","category":"beauty"}]},{"lat":"37.248939637","long":"127.22647938","imageIndex":13,"items":[{"name":"까끼까끼","tel":"031-336-4222","addr":"경기도 용인시 처인구 고림동 342번지 고림빌딩 가동 1층","indutype":"보건위생 - 미용원","category":"beauty"}]},{"lat":"37.248163327","long":"127.22723225","imageIndex":13,"items":[{"name":"다솜미술심리상담센터","tel":"031-333-4193","addr":"경기도 용인시 처인구 고림동 264-3번지 이튼프라자 상가동 206호","indutype":"보건위생 - 기타대인서비스","category":"beauty"},{"name":"엠제이뷰티","tel":"031-322-9581","addr":"경기도 용인시 처인구 고림동 264-3번지 이튼프라자 226호","indutype":"보건위생 - 피부미용실","category":"beauty"},{"name":"이튼미용실","tel":"031-339-8018","addr":"경기도 용인시 처인구 고림동 264-3번지 이튼프라자 2층 215호","indutype":"보건위생 - 미용원","category":"beauty"},{"name":"태후사랑용인고림점","tel":"031-322-1713","addr":"경기도 용인시 처인구 고림동 264-3번지 이-튼프라자 제상가동 217호","indutype":"보건위생 - 미용원","category":"beauty"}]},{"lat":"37.238775436","long":"127.21703921","imageIndex":13,"items":[{"name":"대연암","tel":"","addr":"경기도 용인시 처인구 고림동 781-72번지 루이빌 B동 402호","indutype":"보건위생 - 기타대인서비스","category":"beauty"}]},{"lat":"37.240271141","long":"127.21704344","imageIndex":13,"items":[{"name":"리리헤어","tel":"031-338-0666","addr":"경기도 용인시 처인구 고림동 748-7번지","indutype":"보건위생 - 미용원","category":"beauty"}]},{"lat":"37.24735526","long":"127.21592513","imageIndex":13,"items":[{"name":"미쁨","tel":"","addr":"경기도 용인시 처인구 고림동 698-3번지 2층","indutype":"보건위생 - 화장품","category":"beauty"}]},{"lat":"37.248387043","long":"127.22804443","imageIndex":13,"items":[{"name":"바비뉴욕","tel":"031-336-6665","addr":"경기도 용인시 처인구 고림동 264-5번지 명도태권도 103호","indutype":"보건위생 - 미용원","category":"beauty"},{"name":"유헤어","tel":"031-339-1404","addr":"경기도 용인시 처인구 고림동 264-5번지 명도태권도 102호","indutype":"보건위생 - 미용원","category":"beauty"}]},{"lat":"37.241109361","long":"127.21689931","imageIndex":13,"items":[{"name":"바이온텍용인점","tel":"031-338-8758","addr":"경기도 용인시 처인구 고림동 747-4번지","indutype":"보건위생 - 의료용품","category":"beauty"},{"name":"아띠헤어","tel":"031-334-1923","addr":"경기도 용인시 처인구 고림동 747-4번지 1층 일부","indutype":"보건위생 - 미용원","category":"beauty"}]},{"lat":"37.265438781","long":"127.22578409","imageIndex":13,"items":[{"name":"샤론헤어","tel":"02-1111-1111","addr":"경기도 용인시 처인구 고림동 1000번지 2층","indutype":"보건위생 - 미용원","category":"beauty"}]},{"lat":"37.239076426","long":"127.21501152","imageIndex":13,"items":[{"name":"소선헤어","tel":"031-943-9698","addr":"경기도 용인시 처인구 고림동 792-8번지 1층","indutype":"보건위생 - 미용원","category":"beauty"}]},{"lat":"37.266217569","long":"127.22370075","imageIndex":13,"items":[{"name":"신아헤어샵","tel":"031-334-9904","addr":"경기도 용인시 처인구 고림동 820-105번지 1층","indutype":"보건위생 - 미용원","category":"beauty"}]},{"lat":"37.241996358","long":"127.2146816","imageIndex":13,"items":[{"name":"예성헤어","tel":"031-334-3411","addr":"경기도 용인시 처인구 고림동 1005번지 고림지구양우내안애에듀파크 102호","indutype":"보건위생 - 미용원","category":"beauty"}]},{"lat":"37.239289999","long":"127.21649972","imageIndex":13,"items":[{"name":"유니끄헤어샵(#)","tel":"031-336-0880","addr":"경기도 용인시 처인구 고림동 781-57번지 금강아트맨션 102동 103호","indutype":"보건위생 - 미용원","category":"beauty"}]},{"lat":"37.239804822","long":"127.21581372","imageIndex":13,"items":[{"name":"장미헤어라인","tel":"031-335-8705","addr":"경기도 용인시 처인구 고림동 781-33번지 영남빌라","indutype":"보건위생 - 미용원","category":"beauty"}]},{"lat":"37.239742034","long":"127.21565576","imageIndex":13,"items":[{"name":"제일미용실","tel":"031-335-4015","addr":"경기도 용인시 처인구 고림동 781-35번지","indutype":"보건위생 - 미용원","category":"beauty"}]},{"lat":"37.236415031","long":"127.21687477","imageIndex":13,"items":[{"name":"진애정헤어","tel":"031-334-6334","addr":"경기도 용인시 처인구 고림동 797-29번지 1층","indutype":"보건위생 - 미용원","category":"beauty"}]},{"lat":"37.265827471","long":"127.22512009","imageIndex":13,"items":[{"name":"펌앤컬","tel":"031-338-2894","addr":"경기도 용인시 처인구 고림동 820-131번지 1층","indutype":"보건위생 - 미용원","category":"beauty"}]},{"lat":"37.265437009","long":"127.2169794","imageIndex":13,"items":[{"name":"헤어까페","tel":"031-333-3330","addr":"경기도 용인시 처인구 고림동 820-68","indutype":"보건위생 - 미용원","category":"beauty"}]},{"lat":"37.249271221","long":"127.22262561","imageIndex":13,"items":[{"name":"헤어샵구공","tel":"031-321-5151","addr":"경기도 용인시 처인구 고림동 599-4번지 큰집 101호","indutype":"보건위생 - 미용원","category":"beauty"}]},{"lat":"37.238216596","long":"127.21715033","imageIndex":13,"items":[{"name":"헤어스케치","tel":"031-323-1525","addr":"경기도 용인시 처인구 고림동 795-2번지 대영빌딩 102호","indutype":"보건위생 - 미용원","category":"beauty"}]}]