[{"lat":"37.856774914","long":"126.99788215","imageIndex":17,"items":[{"name":"(주)에스엔케이","tel":"031-868-5589","addr":"경기도 양주시 은현면 도하리 535-7번지","indutype":"광학제품 - 기타광학제품","category":"other"}]},{"lat":"37.839251714","long":"127.00557432","imageIndex":17,"items":[{"name":"국보화학","tel":"","addr":"경기도 양주시 은현면 도하리 395-3번지","indutype":"건축자재 - 페인트","category":"other"}]},{"lat":"37.841747025","long":"127.01165243","imageIndex":17,"items":[{"name":"다우물산","tel":"031-867-6013","addr":"경기도 양주시 은현면 도하리 317-3번지","indutype":"직물 - 기타직물","category":"other"}]},{"lat":"37.860081127","long":"127.01179096","imageIndex":17,"items":[{"name":"대경상사","tel":"031-866-4432","addr":"경기도 양주시 은현면 도하리 26-14번지 1층","indutype":"건축자재 - 기타건축자재","category":"other"}]},{"lat":"37.849774721","long":"127.00179116","imageIndex":17,"items":[{"name":"대일염료","tel":"031-959-3065","addr":"경기도 양주시 은현면 도하리 474-1번지","indutype":"건축자재 - 기타건축자재","category":"other"}]},{"lat":"37.837864295","long":"127.00326816","imageIndex":17,"items":[{"name":"대진애드벌룬","tel":"031-847-3400","addr":"경기도 양주시 은현면 도하리 380-4번지","indutype":"건축자재 - 인테리어전문","category":"other"}]},{"lat":"37.852277916","long":"127.02118672","imageIndex":17,"items":[{"name":"동일박스","tel":"031-879-9761","addr":"경기도 양주시 은현면 도하리 56-11번지","indutype":"유통업 영리 - 기타유통업","category":"other"}]},{"lat":"37.846278593","long":"126.9921794","imageIndex":17,"items":[{"name":"뵈뵈건강S라인","tel":"070-7560-8282","addr":"경기도 양주시 은현면 도하리 727번지","indutype":"의류 - 정장","category":"other"}]},{"lat":"37.849142975","long":"127.01893629","imageIndex":17,"items":[{"name":"삼성 FR","tel":"02-971-8523","addr":"경기도 양주시 은현면 도하리 60","indutype":"직물 - 기타직물","category":"other"}]},{"lat":"37.847558415","long":"127.00268876","imageIndex":17,"items":[{"name":"아이스팜","tel":"02-3492-9545","addr":"경기도 양주시 은현면 도하리 437-1번지","indutype":"유통업 영리 - 기타유통업","category":"other"}]},{"lat":"37.837810238","long":"127.003484","imageIndex":17,"items":[{"name":"엘제이 앤텍","tel":"031-858-8633","addr":"경기도 양주시 은현면 도하리 381-12번지","indutype":"기타 - 기계공구","category":"other"}]},{"lat":"37.846999832","long":"127.00309778","imageIndex":17,"items":[{"name":"오띠모","tel":"070--8877-0469","addr":"경기도 양주시 은현면 도하리 431-1번지","indutype":"의류 - 내의판매","category":"other"}]},{"lat":"37.859333294","long":"127.01248404","imageIndex":17,"items":[{"name":"오성기계","tel":"031-855-8270","addr":"경기도 양주시 은현면 도하리 34-12번지","indutype":"용역 서비스 - 기타용역서비스","category":"other"}]},{"lat":"37.859747635","long":"127.01354091","imageIndex":17,"items":[{"name":"조광ENG","tel":"031-868-3008","addr":"경기도 양주시 은현면 도하리 35-17번지","indutype":"기타 - 기계공구","category":"other"}]},{"lat":"37.849134605","long":"127.01323261","imageIndex":17,"items":[{"name":"주식회사 제이케이엘이디","tel":"031-866-9782","addr":"경기도 양주시 은현면 도하리 93-21번지","indutype":"건축자재 - 조명기구","category":"other"}]},{"lat":"37.850638963","long":"127.01540299","imageIndex":17,"items":[{"name":"진호유통","tel":"031-866-6973","addr":"경기도 양주시 은현면 도하리 75-7번지","indutype":"레져용품 - 스포츠·레져용품","category":"other"}]},{"lat":"37.847278698","long":"126.99288368","imageIndex":17,"items":[{"name":"코스모 텍스타일","tel":"031-858-2884","addr":"경기도 양주시 은현면 도하리 721-2번지 외1필지","indutype":"직물 - 옷감·직물","category":"other"}]},{"lat":"37.847198027","long":"127.00123448","imageIndex":17,"items":[{"name":"탑보드","tel":"031-877-2988","addr":"경기도 양주시 은현면 도하리 435-1번지 다,라호","indutype":"건축자재 - 목재·석재·철물","category":"other"}]},{"lat":"37.849224901","long":"127.01059666","imageIndex":17,"items":[{"name":"플러스 편의점","tel":"031-565-4058","addr":"경기도 양주시 은현면 도하리 172-2번지 가동","indutype":"유통업 영리 - 편 의 점","category":"other"}]},{"lat":"37.859585549","long":"127.01257499","imageIndex":17,"items":[{"name":"하나종합기계","tel":"031-877-1222","addr":"경기도 양주시 은현면 도하리 34-11,34-14,34-8","indutype":"건축자재 - 기타건축자재","category":"other"}]},{"lat":"37.858945891","long":"127.01248399","imageIndex":0,"items":[{"name":"경기적재함","tel":"031-858-4636","addr":"경기도 양주시 은현면 도하리 44-13번지","indutype":"자동차정비 유지 - 자동차부품","category":"car"}]},{"lat":"37.845332931","long":"127.00907383","imageIndex":0,"items":[{"name":"대양테크","tel":"031-858-2277","addr":"경기도 양주시 은현면 도하리 233번지","indutype":"자동차정비 유지 - 자동차부품","category":"car"}]},{"lat":"37.851359774","long":"127.01482363","imageIndex":0,"items":[{"name":"드림상사","tel":"031-865-2828","addr":"경기도 양주시 은현면 도하리 116번지","indutype":"자동차정비 유지 - 자동차부품","category":"car"}]},{"lat":"37.839612069","long":"127.00638093","imageIndex":0,"items":[{"name":"석산타이어","tel":"031-864-3079","addr":"경기도 양주시 은현면 도하리 339번지","indutype":"자동차정비 유지 - 자동차시트·타이어","category":"car"},{"name":"충남부품","tel":"","addr":"경기도 양주시 은현면 도하리 339번지","indutype":"자동차정비 유지 - 자동차부품","category":"car"}]},{"lat":"37.838720183","long":"127.00415427","imageIndex":0,"items":[{"name":"주식회사수앤수","tel":"031-855-7524","addr":"경기도 양주시 은현면 도하리 385-11번지","indutype":"자동차정비 유지 - 자동차부품","category":"car"}]},{"lat":"37.863720414","long":"127.01692799","imageIndex":0,"items":[{"name":"코스트모터스","tel":"031-868-8248","addr":"경기도 양주시 은현면 도하리 6-7번지","indutype":"자동차정비 유지 - 자동차정비","category":"car"}]},{"lat":"37.847639327","long":"127.00926717","imageIndex":13,"items":[{"name":"더베스트 힐링","tel":"031-796-2554","addr":"경기도 양주시 은현면 도하리 220-3번지","indutype":"보건위생 - 피부미용실","category":"beauty"}]},{"lat":"37.860081127","long":"127.01179096","imageIndex":4,"items":[{"name":"돈까스전문점허브","tel":"031-868-5888","addr":"경기도 양주시 은현면 도하리 26-14번지 가동 1층","indutype":"일반휴게음식 - 서양음식","category":"restaurant"}]},{"lat":"37.860919078","long":"127.01067742","imageIndex":4,"items":[{"name":"또오리","tel":"031-857-3112","addr":"경기도 양주시 은현면 도하리 27-1번지","indutype":"일반휴게음식 - 일반한식","category":"restaurant"}]},{"lat":"37.851639196","long":"127.0134602","imageIndex":4,"items":[{"name":"양주식당","tel":"031-862-8588","addr":"경기도 양주시 은현면 도하리 102번지 1층","indutype":"일반휴게음식 - 일반한식","category":"restaurant"}]},{"lat":"37.852585182","long":"127.01346034","imageIndex":4,"items":[{"name":"우리식당","tel":"031-857-8962","addr":"경기도 양주시 은현면 도하리 129-3번지","indutype":"일반휴게음식 - 일반한식","category":"restaurant"}]},{"lat":"37.849224901","long":"127.01059666","imageIndex":4,"items":[{"name":"일미정","tel":"031-865-2545","addr":"경기도 양주시 은현면 도하리 172-2번지","indutype":"일반휴게음식 - 일반한식","category":"restaurant"}]},{"lat":"37.851134709","long":"127.01301701","imageIndex":4,"items":[{"name":"향목","tel":"031-861-9292","addr":"경기도 양주시 은현면 도하리 96번지","indutype":"일반휴게음식 - 일반한식","category":"restaurant"}]},{"lat":"37.844477036","long":"126.9966787","imageIndex":7,"items":[{"name":"살구골 야채","tel":"031-862-6558","addr":"경기도 양주시 은현면 도하리 631-3번지 1층","indutype":"음료식품 - 농·축·수산품","category":"food"}]},{"lat":"37.846224567","long":"126.99252026","imageIndex":7,"items":[{"name":"심형농장","tel":"031-859-6283","addr":"경기도 양주시 은현면 도하리 725","indutype":"음료식품 - 정육점","category":"food"}]},{"lat":"37.861108204","long":"127.01167745","imageIndex":7,"items":[{"name":"알부자집","tel":"","addr":"경기도 양주시 은현면 도하리 26-3번지 상가동 103호","indutype":"음료식품 - 농·축·수산품","category":"food"}]},{"lat":"37.861720631","long":"127.01415484","imageIndex":7,"items":[{"name":"주식회사 미가촌","tel":"070-4949-8200","addr":"경기도 양주시 은현면 도하리 39-6번지","indutype":"음료식품 - 기타음료식품","category":"food"}]},{"lat":"37.849143349","long":"127.01590266","imageIndex":7,"items":[{"name":"하리네 농원","tel":"031-864-5872","addr":"경기도 양주시 은현면 도하리 82번지","indutype":"음료식품 - 농·축·수산품","category":"food"}]},{"lat":"37.852359932","long":"127.01363074","imageIndex":7,"items":[{"name":"할머니 가게","tel":"031-859-6667","addr":"경기도 양주시 은현면 도하리 125-2번지","indutype":"음료식품 - 기타음료식품","category":"food"}]},{"lat":"37.855639467","long":"126.9935416","imageIndex":7,"items":[{"name":"행복축산","tel":"031-876-3777","addr":"경기도 양주시 은현면 도하리 771-11","indutype":"음료식품 - 정육점","category":"food"}]},{"lat":"37.847306147","long":"127.00188209","imageIndex":7,"items":[{"name":"살구골슈퍼","tel":"031-863-7256","addr":"경기도 양주시 은현면 도하리 432-7번지 1층","indutype":"유통업 영리 - 슈퍼마켓","category":"mart"}]}]