[{"lat":"37.857501287","long":"127.03157397","imageIndex":0,"items":[{"name":"(주)중앙알디씨(RDC)","tel":"031-863-7474","addr":"경기도 양주시 은현면 선암리 91-1","indutype":"자동차정비 유지 - 가타자동차서비스","category":"car"}]},{"lat":"37.87030502","long":"127.02500987","imageIndex":0,"items":[{"name":"거성자동차공업사","tel":"031-857-0905","addr":"경기도 양주시 은현면 선암리 296-5","indutype":"자동차정비 유지 - 자동차정비","category":"car"}]},{"lat":"37.863250726","long":"127.02479185","imageIndex":0,"items":[{"name":"금강자동차유리(썬팅)","tel":"031-861-4351","addr":"경기도 양주시 은현면 선암리 225-5번지 1층","indutype":"자동차정비 유지 - 자동차부품","category":"car"}]},{"lat":"37.872855278","long":"127.02148731","imageIndex":0,"items":[{"name":"대산상사","tel":"031-867-0284","addr":"경기도 양주시 은현면 선암리 507-2번지","indutype":"자동차정비 유지 - 자동차부품","category":"car"},{"name":"양주송둘라","tel":"031-861-1035","addr":"경기도 양주시 은현면 선암리 507-2","indutype":"자동차정비 유지 - 자동차부품","category":"car"}]},{"lat":"37.866556702","long":"127.02715666","imageIndex":0,"items":[{"name":"대진휠타","tel":"031-857-6918","addr":"경기도 양주시 은현면 선암리 255번지 가동","indutype":"자동차정비 유지 - 자동차부품","category":"car"}]},{"lat":"37.862998428","long":"127.02498496","imageIndex":0,"items":[{"name":"덕정삼성라디에터","tel":"031-859-0388","addr":"경기도 양주시 은현면 선암리 225-7번지","indutype":"자동차정비 유지 - 자동차부품","category":"car"}]},{"lat":"37.858889498","long":"127.02823367","imageIndex":0,"items":[{"name":"블루모터스","tel":"031-868-8860","addr":"경기도 양주시 은현면 선암리 168-4번지 블루모터스","indutype":"자동차정비 유지 - 자동차정비","category":"car"}]},{"lat":"37.869521731","long":"127.02200927","imageIndex":0,"items":[{"name":"성원모터스","tel":"031-866-2370","addr":"경기도 양주시 은현면 선암리 527-3번지","indutype":"자동차정비 유지 - 자동차정비","category":"car"},{"name":"성원모터스","tel":"031-866-2370","addr":"경기도 양주시 은현면 선암리 527-3번지","indutype":"자동차정비 유지 - 세차장","category":"car"}]},{"lat":"37.861917324","long":"127.024871","imageIndex":0,"items":[{"name":"세종상사","tel":"031-861-8988","addr":"경기도 양주시 은현면 선암리 226-15","indutype":"자동차정비 유지 - 자동차정비","category":"car"},{"name":"세종손세차장","tel":"031-894-2619","addr":"경기도 양주시 은현면 선암리 226-15번지","indutype":"자동차정비 유지 - 세차장","category":"car"}]},{"lat":"37.856663885","long":"127.02957375","imageIndex":0,"items":[{"name":"에이치케이HK모터스","tel":"031-867-8890","addr":"경기도 양주시 은현면 선암리 102-1번지 1층","indutype":"자동차판매 - 중고자동차판매","category":"car"}]},{"lat":"37.873549416","long":"127.01862334","imageIndex":0,"items":[{"name":"오로라하이테크","tel":"031-867-2263","addr":"경기도 양주시 은현면 선암리 490-2번지 3","indutype":"자동차정비 유지 - 자동차정비","category":"car"}]},{"lat":"37.862836238","long":"127.02509855","imageIndex":0,"items":[{"name":"원우공업사","tel":"031-864-5490","addr":"경기도 양주시 은현면 선암리 225-2","indutype":"자동차정비 유지 - 자동차정비","category":"car"}]},{"lat":"37.869828062","long":"127.02192979","imageIndex":0,"items":[{"name":"은현용품","tel":"031-866-6857","addr":"경기도 양주시 은현면 선암리 527-1번지","indutype":"자동차정비 유지 - 자동차부품","category":"car"}]},{"lat":"37.859385101","long":"127.02782475","imageIndex":0,"items":[{"name":"주식회사 엠케이모터스","tel":"031-1111-1111","addr":"경기도 양주시 은현면 선암리 166번지","indutype":"자동차판매 - 중고자동차판매","category":"car"}]},{"lat":"37.871557285","long":"127.02520346","imageIndex":0,"items":[{"name":"현대모터스","tel":"031-867-8204","addr":"경기도 양주시 은현면 선암리 316-1","indutype":"자동차정비 유지 - 자동차정비","category":"car"}]},{"lat":"37.871521314","long":"127.02485112","imageIndex":0,"items":[{"name":"현대손세차","tel":"","addr":"경기도 양주시 은현면 선암리 316-9번지","indutype":"자동차정비 유지 - 세차장","category":"car"}]}]