[{"lat":"37.417747112","long":"126.9077548","imageIndex":7,"items":[{"name":"2동공판장","tel":"031-471-0872","addr":"경기도 안양시 만안구 석수동 266-10번지","indutype":"유통업 영리 - 슈퍼마켓","category":"mart"}]},{"lat":"37.417189671","long":"126.90923533","imageIndex":7,"items":[{"name":"가족할인마트","tel":"031-474-7080","addr":"경기도 안양시 만안구 석수동 268-9번지","indutype":"유통업 영리 - 슈퍼마켓","category":"mart"}]},{"lat":"37.420687824","long":"126.91212297","imageIndex":7,"items":[{"name":"관악산현대마트","tel":"031-471-8763","addr":"경기도 안양시 만안구 석수동 166번지","indutype":"유통업 영리 - 슈퍼마켓","category":"mart"}]},{"lat":"37.413190363","long":"126.91070875","imageIndex":7,"items":[{"name":"관악하이퍼마트","tel":"031-473-7962","addr":"경기도 안양시 만안구 석수동 321-41번지","indutype":"유통업 영리 - 슈퍼마켓","category":"mart"}]},{"lat":"37.418880475","long":"126.91703916","imageIndex":7,"items":[{"name":"대일슈퍼","tel":"031-473-6393","addr":"경기도 안양시 만안구 석수동 219번지 삼호그린빌라","indutype":"유통업 영리 - 슈퍼마켓","category":"mart"}]},{"lat":"37.417582922","long":"126.91689379","imageIndex":7,"items":[{"name":"대흥슈퍼","tel":"031-471-0976","addr":"경기도 안양시 만안구 석수동 210-58번지 대흥빌라","indutype":"유통업 영리 - 슈퍼마켓","category":"mart"}]},{"lat":"37.408275579","long":"126.89498084","imageIndex":7,"items":[{"name":"동원슈퍼","tel":"031-472-2050","addr":"경기도 안양시 만안구 석수동 749-9번지","indutype":"유통업 영리 - 슈퍼마켓","category":"mart"}]},{"lat":"37.422324983","long":"126.90870926","imageIndex":7,"items":[{"name":"동화상회","tel":"031-471-4237","addr":"경기도 안양시 만안구 석수동 101-48번지 동화연립1차","indutype":"유통업 영리 - 슈퍼마켓","category":"mart"}]},{"lat":"37.40644082","long":"126.89865426","imageIndex":7,"items":[{"name":"디씨아울렛마트","tel":"031-474-4171","addr":"경기도 안양시 만안구 석수동 781번지","indutype":"유통업 영리 - 슈퍼마켓","category":"mart"}]},{"lat":"37.405666392","long":"126.89915229","imageIndex":7,"items":[{"name":"로얄슈퍼","tel":"031-473-3464","addr":"경기도 안양시 만안구 석수동 777번지","indutype":"유통업 영리 - 슈퍼마켓","category":"mart"}]},{"lat":"37.415775218","long":"126.90939523","imageIndex":7,"items":[{"name":"무림슈퍼","tel":"031-471-4610","addr":"경기도 안양시 만안구 석수동 275-2번지","indutype":"유통업 영리 - 슈퍼마켓","category":"mart"}]},{"lat":"37.411749699","long":"126.91193043","imageIndex":7,"items":[{"name":"석수할인마트","tel":"031-472-0588","addr":"경기도 안양시 만안구 석수동 324-5번지","indutype":"유통업 영리 - 슈퍼마켓","category":"mart"}]},{"lat":"37.407467768","long":"126.89842694","imageIndex":7,"items":[{"name":"설아할인마트","tel":"031-474-5987","addr":"경기도 안양시 만안구 석수동 785-16번지","indutype":"유통업 영리 - 슈퍼마켓","category":"mart"}]},{"lat":"37.410827502","long":"126.9078991","imageIndex":7,"items":[{"name":"성실하이퍼","tel":"031-473-5884","addr":"경기도 안양시 만안구 석수동 302-1번지","indutype":"유통업 영리 - 슈퍼마켓","category":"mart"},{"name":"성실하이퍼마켓","tel":"031-473-5884","addr":"경기도 안양시 만안구 석수동 302-1번지","indutype":"유통업 영리 - 슈퍼마켓","category":"mart"}]},{"lat":"37.408221447","long":"126.89490186","imageIndex":7,"items":[{"name":"아울렛마트","tel":"031-471-2982","addr":"경기도 안양시 만안구 석수동 749-8번지","indutype":"유통업 영리 - 슈퍼마켓","category":"mart"}]},{"lat":"37.434213318","long":"126.90272856","imageIndex":7,"items":[{"name":"연희네편의점","tel":"","addr":"경기도 안양시 만안구 석수동","indutype":"유통업 영리 - 슈퍼마켓","category":"mart"}]},{"lat":"37.404829058","long":"126.89984241","imageIndex":7,"items":[{"name":"영광슈퍼","tel":"031-472-3034","addr":"경기도 안양시 만안구 석수동 792-9번지 영광빌라","indutype":"유통업 영리 - 슈퍼마켓","category":"mart"}]},{"lat":"37.412942328","long":"126.90479011","imageIndex":7,"items":[{"name":"영풍마트","tel":"031-471-4662","addr":"경기도 안양시 만안구 석수동 346-3번지 영풍마드레빌아파트","indutype":"유통업 영리 - 슈퍼마켓","category":"mart"}]},{"lat":"37.415741792","long":"126.91276152","imageIndex":7,"items":[{"name":"올마켓","tel":"031-474-8944","addr":"경기도 안양시 만안구 석수동 184번지","indutype":"유통업 영리 - 슈퍼마켓","category":"mart"}]},{"lat":"37.419606044","long":"126.92387284","imageIndex":7,"items":[{"name":"워터랜드매점","tel":"031-471-2356","addr":"경기도 안양시 만안구 석수동 825-1번지","indutype":"유통업 영리 - 슈퍼마켓","category":"mart"}]},{"lat":"37.427607639","long":"126.90117825","imageIndex":7,"items":[{"name":"자이슈퍼","tel":"031-471-3350","addr":"경기도 안양시 만안구 석수동","indutype":"유통업 영리 - 슈퍼마켓","category":"mart"}]},{"lat":"37.404440337","long":"126.89837467","imageIndex":7,"items":[{"name":"팔부자슈퍼","tel":"031-472-6658","addr":"경기도 안양시 만안구 석수동 775-6번지 우성다세대","indutype":"유통업 영리 - 슈퍼마켓","category":"mart"}]},{"lat":"37.407249397","long":"126.89604403","imageIndex":7,"items":[{"name":"행운마트","tel":"031-473-4578","addr":"경기도 안양시 만안구 석수동 757-5번지 골든빌라","indutype":"유통업 영리 - 슈퍼마켓","category":"mart"}]}]