[{"lat":"37.244218439","long":"127.43229712","imageIndex":17,"items":[{"name":"(주)아모르컨벤션웨딩","tel":"031-638-5222","addr":"경기도 이천시 호법면 유산리 784-14번지","indutype":"용역 서비스 - 혼례서비스","category":"other"}]},{"lat":"37.246805924","long":"127.43435181","imageIndex":17,"items":[{"name":"글로벌축복교회","tel":"031-634-9988","addr":"경기도 이천시 호법면 유산리 508-11번지","indutype":"용역 서비스 - 혼례서비스","category":"other"}]},{"lat":"37.243889168","long":"127.43857283","imageIndex":17,"items":[{"name":"동서철물건재","tel":"031-635-4288","addr":"경기도 이천시 호법면 유산리 536-4번지","indutype":"건축자재 - 기타건축자재","category":"other"}]},{"lat":"37.241746057","long":"127.43821113","imageIndex":17,"items":[{"name":"동원샘물","tel":"031-635-8472","addr":"경기도 이천시 호법면 유산리 545-14번지","indutype":"유통업 영리 - 기타유통업","category":"other"}]},{"lat":"37.247862049","long":"127.44118802","imageIndex":17,"items":[{"name":"베베창꼬","tel":"031-633-0054","addr":"경기도 이천시 호법면 유산리 356-5번지 1동 103호","indutype":"의류 - 아동의류","category":"other"}]},{"lat":"37.250110301","long":"127.44235071","imageIndex":17,"items":[{"name":"삼성NS","tel":"031-635-9511","addr":"경기도 이천시 호법면 유산리 399번지 삼성NS","indutype":"전기제품 - 기타전기제품","category":"other"}]},{"lat":"37.245773308","long":"127.43830191","imageIndex":17,"items":[{"name":"서희토목ENG","tel":"031-637-1663","addr":"경기도 이천시 호법면 유산리 466번지 송암빌딩","indutype":"용역 서비스 - 사무서비스","category":"other"}]},{"lat":"37.24933552","long":"127.44232366","imageIndex":17,"items":[{"name":"세원종합테크","tel":"031-636-0914","addr":"경기도 이천시 호법면 유산리 369-8번지","indutype":"기타 - 기계공구","category":"other"}]},{"lat":"37.236475184","long":"127.43324489","imageIndex":17,"items":[{"name":"쇼미더도어","tel":"031-636-8439","addr":"경기도 이천시 호법면 유산리 729-2번지","indutype":"건축자재 - 인테리어전문","category":"other"}]},{"lat":"37.243438685","long":"127.4311544","imageIndex":17,"items":[{"name":"씨스페이스이천호법점","tel":"031-636-1110","addr":"경기도 이천시 호법면 유산리 777-1번지 1층 우측","indutype":"유통업 영리 - 편 의 점","category":"other"}]},{"lat":"37.244355715","long":"127.43665955","imageIndex":17,"items":[{"name":"씨유이천유산로드점","tel":"031-898-6567","addr":"경기도 이천시 호법면 유산리 517-1번지","indutype":"유통업 영리 - 편 의 점","category":"other"}]},{"lat":"37.244940667","long":"127.4368545","imageIndex":17,"items":[{"name":"씨유이천유산점","tel":"031-637-7845","addr":"경기도 이천시 호법면 유산리 495번지","indutype":"유통업 영리 - 편 의 점","category":"other"}]},{"lat":"37.244828273","long":"127.43059874","imageIndex":17,"items":[{"name":"이지연한복","tel":"031-636-1254","addr":"경기도 이천시 호법면 유산리 783-1번지","indutype":"의류 - 맞춤복점","category":"other"}]},{"lat":"37.24866148","long":"127.44185764","imageIndex":17,"items":[{"name":"이천가설재렌탈","tel":"031-633-9233","addr":"경기도 이천시 호법면 유산리 325번지","indutype":"건축자재 - 기타건축자재","category":"other"}]},{"lat":"37.247081341","long":"127.44032691","imageIndex":17,"items":[{"name":"이천제일광고기획","tel":"031-638-8052","addr":"경기도 이천시 호법면 유산리 355-3번지","indutype":"용역 서비스 - 종합용역","category":"other"}]},{"lat":"37.24552533","long":"127.43712835","imageIndex":17,"items":[{"name":"좋은판넬","tel":"031-635-4767","addr":"경기도 이천시 호법면 유산리 496","indutype":"건축자재 - 기타건축자재","category":"other"}]},{"lat":"37.238526021","long":"127.43912798","imageIndex":17,"items":[{"name":"키우다","tel":"031-0000-0000","addr":"경기도 이천시 호법면 유산리 318번지","indutype":"문화.취미 - 화원","category":"other"}]},{"lat":"37.244720899","long":"127.43535427","imageIndex":17,"items":[{"name":"포레스트그린","tel":"","addr":"경기도 이천시 호법면 유산리 806-3번지 2동 1층","indutype":"문화.취미 - 화원","category":"other"}]},{"lat":"37.241246896","long":"127.42929373","imageIndex":17,"items":[{"name":"한국미니스톱(주) 이천지점","tel":"031-1577-9621","addr":"경기도 이천시 호법면 유산리 769번지","indutype":"유통업 영리 - 편 의 점","category":"other"}]}]