[{"lat":"37.851061882","long":"127.16333892","imageIndex":8,"items":[{"name":"레몬약국","tel":"031-543-9584","addr":"경기도 포천시 선단동 498-1번지","indutype":"약국 - 약국","category":"medical"},{"name":"선단경희의원","tel":"031-541-3781","addr":"경기도 포천시 선단동 498-1번지","indutype":"의원 - 의원","category":"medical"},{"name":"선단본치과의원","tel":"031-541-3987","addr":"경기도 포천시 선단동 498-1번지 3층 나호","indutype":"의원 - 치과의원","category":"medical"}]},{"lat":"37.854256282","long":"127.16619788","imageIndex":8,"items":[{"name":"명인치과의원","tel":"031-542-2275","addr":"경기도 포천시 선단동 55-1 3층","indutype":"의원 - 치과의원","category":"medical"},{"name":"서울최내과의원","tel":"031-542-8252","addr":"경기도 포천시 선단동 55-1번지 4층 3호","indutype":"의원 - 의원","category":"medical"},{"name":"희망약국","tel":"544-8273","addr":"경기도 포천시 선단동 55-1번지 현진빌딩 1층","indutype":"보건업 - 약국","category":"medical"},{"name":"희망약국","tel":"031-544-8273","addr":"경기도 포천시 선단동 55-1번지 현진빌딩 1층","indutype":"약국 - 약국","category":"medical"}]},{"lat":"37.850972468","long":"127.16283879","imageIndex":8,"items":[{"name":"삼보약국","tel":"031-543-5325","addr":"경기도 포천시 선단동 460-15번지","indutype":"약국 - 약국","category":"medical"}]},{"lat":"37.852643845","long":"127.16602388","imageIndex":8,"items":[{"name":"안아픈세상한의원","tel":"031-544-8575","addr":"경기도 포천시 선단동 42번지","indutype":"의원 - 한의원","category":"medical"}]},{"lat":"37.853950011","long":"127.16616311","imageIndex":8,"items":[{"name":"이엽한의원","tel":"031-544-2277","addr":"경기도 포천시 선단동 52-1번지 2층","indutype":"의원 - 한의원","category":"medical"}]}]