[{"lat":"37.743149222","long":"126.80834881","imageIndex":13,"items":[{"name":"3POP PC 봉일천점","tel":"070-8408-6848","addr":"경기도 파주시 조리읍 봉일천리 142-2번지","indutype":"레저업소 - 기타레져업소","category":"leisure"}]},{"lat":"37.74336672","long":"126.80911975","imageIndex":13,"items":[{"name":"Q당구장","tel":"031-949-0338","addr":"경기도 파주시 조리읍 봉일천리 210-29","indutype":"레저업소 - 당 구 장","category":"leisure"}]},{"lat":"37.742843161","long":"126.80850845","imageIndex":13,"items":[{"name":"고고씽 노래방","tel":"031-946-5591","addr":"경기도 파주시 조리읍 봉일천리 142-10번지","indutype":"레저업소 - 노 래 방","category":"leisure"}]},{"lat":"37.74511622","long":"126.81012498","imageIndex":13,"items":[{"name":"노리파크 봉일천점","tel":"031-942-5289","addr":"경기도 파주시 조리읍 봉일천리 221-9번지","indutype":"레저업소 - 기타레져업소","category":"leisure"}]},{"lat":"37.743591604","long":"126.8089036","imageIndex":13,"items":[{"name":"라인휘트니스","tel":"031-943-7979","addr":"경기도 파주시 조리읍 봉일천리 210-35번지","indutype":"레저업소 - 헬스클럽","category":"leisure"},{"name":"타워노래방","tel":"031-948-2232","addr":"경기도 파주시 조리읍 봉일천리 210-35번지","indutype":"레저업소 - 노 래 방","category":"leisure"}]},{"lat":"37.742899603","long":"126.80996055","imageIndex":13,"items":[{"name":"렉스스크린골프","tel":"031-943-9453","addr":"경기도 파주시 조리읍 봉일천리 125-11번지","indutype":"레저업소 - 스크린골프","category":"leisure"},{"name":"베가PC방","tel":"070-9999-7418","addr":"경기도 파주시 조리읍 봉일천리 125-11번지","indutype":"레저업소 - 기타레져업소","category":"leisure"}]},{"lat":"37.743734596","long":"126.80819979","imageIndex":13,"items":[{"name":"보배당구클럽","tel":"031-947-3653","addr":"경기도 파주시 조리읍 봉일천리 209-3번지","indutype":"레저업소 - 당 구 장","category":"leisure"},{"name":"아트노래연습장","tel":"031-946-9852","addr":"경기도 파주시 조리읍 봉일천리 209-3번지","indutype":"레저업소 - 노 래 방","category":"leisure"}]},{"lat":"37.744203053","long":"126.80817587","imageIndex":13,"items":[{"name":"아이랑 키즈카페","tel":"031-944-4339","addr":"경기도 파주시 조리읍 봉일천리 209-1번지","indutype":"레저업소 - 기타레져업소","category":"leisure"}]},{"lat":"37.743041744","long":"126.80873485","imageIndex":13,"items":[{"name":"젠노래연습장","tel":"","addr":"경기도 파주시 조리읍 봉일천리 141-22번지","indutype":"레저업소 - 노 래 방","category":"leisure"}]},{"lat":"37.747555897","long":"126.80896133","imageIndex":13,"items":[{"name":"티제이스포츠","tel":"031-948-4040","addr":"경기도 파주시 조리읍 봉일천리 269번지 파주푸르지오아파트","indutype":"레저업소 - 헬스클럽","category":"leisure"}]},{"lat":"37.743733093","long":"126.80729213","imageIndex":13,"items":[{"name":"한국특공무술","tel":"031-949-7733","addr":"경기도 파주시 조리읍 봉일천리 160-36번지","indutype":"레저업소 - 헬스클럽","category":"leisure"}]}]