[{"lat":"37.283470451","long":"126.8237013","imageIndex":4,"items":[{"name":"59쌀피자송산신도시점","tel":"031-356-1346","addr":"경기도 화성시 새솔동 18번지 송산그린시티 이지더원 레이크뷰 상가 2동 지하1층 B116호","indutype":"일반휴게음식 - 서양음식","category":"restaurant"},{"name":"88켄터키치킨(송산신도시점)","tel":"031-357-1488","addr":"경기도 화성시 새솔동 18번지 송산그리시티 이지더원 레이크뷰 4동 1층 106호","indutype":"일반휴게음식 - 스넥","category":"restaurant"},{"name":"너나들이","tel":"","addr":"경기도 화성시 새솔동 18번지 송산그린시티 이지더원 레이크뷰 3동 1층 112호","indutype":"일반휴게음식 - 서양음식","category":"restaurant"},{"name":"노가리굼터","tel":"","addr":"경기도 화성시 새솔동 18번지 상가 2동 B108호","indutype":"일반휴게음식 - 일반한식","category":"restaurant"},{"name":"만복만두","tel":"031-366-7171","addr":"경기도 화성시 새솔동 18번지 송산그린시티 이지더원 레이크뷰 5동 1층 102호","indutype":"일반휴게음식 - 일반한식","category":"restaurant"},{"name":"만호황소곱창","tel":"031-366-9683","addr":"경기도 화성시 새솔동 18번지 송산그린시티 이지더원 레이크뷰 2동 1층 114호","indutype":"일반휴게음식 - 일반한식","category":"restaurant"},{"name":"부자족발","tel":"031-355-8242","addr":"경기도 화성시 새솔동 18번지 송산그린시티 이지더원 레이크뷰 상가 2동 지하1층 B115호","indutype":"일반휴게음식 - 일반한식","category":"restaurant"},{"name":"비아지오","tel":"02-1111-1111","addr":"경기도 화성시 새솔동 18번지 송산그린시티이지더원레이크뷰 상가 2동 지하1층 120호","indutype":"일반휴게음식 - 서양음식","category":"restaurant"},{"name":"사리원손만두(송산그린시티점)","tel":"031-353-4217","addr":"경기도 화성시 새솔동 18번지 상가 2동 지하1층 B104호","indutype":"일반휴게음식 - 일반한식","category":"restaurant"},{"name":"소풍","tel":"031-356-9774","addr":"경기도 화성시 새솔동 18번지 송산그린시티 이지더원 레이크뷰 상가 3동 108호","indutype":"일반휴게음식 - 일반한식","category":"restaurant"},{"name":"송산찌개","tel":"070-8690-6218","addr":"경기도 화성시 새솔동 18번지 상가 2동 B117호","indutype":"일반휴게음식 - 일반한식","category":"restaurant"},{"name":"신전떡볶이 송산그린점","tel":"031-355-8956","addr":"경기도 화성시 새솔동 18번지 상가 2동 B112호","indutype":"일반휴게음식 - 스넥","category":"restaurant"},{"name":"오븐마루치킨 송산신도시점","tel":"031-356-4356","addr":"경기도 화성시 새솔동 18번지 송산그린시티이지더원레이크뷰 상가3동113,0번지 114호","indutype":"일반휴게음식 - 스넥","category":"restaurant"},{"name":"요거프레소 송산그린점","tel":"031-356-6948","addr":"경기도 화성시 새솔동 18번지 송산그린시티이지더원레이크뷰 상가 2동 107호","indutype":"일반휴게음식 - 서양음식","category":"restaurant"},{"name":"제주 올래화로","tel":"070-0000-0000","addr":"경기도 화성시 새솔동 18번지 상가 2동 B111호","indutype":"일반휴게음식 - 일반한식","category":"restaurant"},{"name":"참맛치킨 꿀맛닭강정","tel":"031-355-9848","addr":"경기도 화성시 새솔동 18번지 송산그린시티 이지더원 레이크뷰 1층 102호","indutype":"일반휴게음식 - 일반한식","category":"restaurant"},{"name":"치킨매니아","tel":"031-357-9547","addr":"경기도 화성시 새솔동 18번지 송산그린시티 이지더원 레이크뷰 상가2동 지하1층 B109,B110호","indutype":"일반휴게음식 - 스넥","category":"restaurant"},{"name":"토마토김밥송산그린시티점","tel":"031-355-0503","addr":"경기도 화성시 새솔동 18번지 송산그린시티 이지더원 레이크뷰 상가 2동 101호","indutype":"일반휴게음식 - 스넥","category":"restaurant"},{"name":"토박이","tel":"031-366-8022","addr":"경기도 화성시 새솔동 18번지 송산그린시티이지더원레이크뷰 상가 2동 지하1층 B118,B119호","indutype":"일반휴게음식 - 일반한식","category":"restaurant"},{"name":"페리카나 (송산점)","tel":"031-356-7877","addr":"경기도 화성시 새솔동 18번지 송산그린시티 이지더원 레이크뷰 상가 3동 105호","indutype":"일반휴게음식 - 스넥","category":"restaurant"},{"name":"플레이스191카페","tel":"","addr":"경기도 화성시 새솔동 18번지 송산그린시티 상가 4동 115호","indutype":"일반휴게음식 - 서양음식","category":"restaurant"},{"name":"피자마루 송산새솔점","tel":"031-355-4343","addr":"경기도 화성시 새솔동 18번지 송산그린시티 이지더원 레이크뷰 4동 1층 112호","indutype":"일반휴게음식 - 서양음식","category":"restaurant"},{"name":"황금돼지","tel":"031-355-2925","addr":"경기도 화성시 새솔동 18번지 송산그린시티 이지더원 레이크뷰 상가4동 1층 104,105호","indutype":"일반휴게음식 - 일반한식","category":"restaurant"}]},{"lat":"37.287276412","long":"126.82018516","imageIndex":4,"items":[{"name":"60계치킨 송산점","tel":"031-356-6059","addr":"경기도 화성시 새솔동 16번지 송산그린시티요진와이시티 상가동 1층 113호","indutype":"일반휴게음식 - 일반한식","category":"restaurant"},{"name":"청년다방","tel":"031-355-6268","addr":"경기도 화성시 새솔동 16번지 송산그린시티요진와이시티 1층 111호","indutype":"일반휴게음식 - 일반한식","category":"restaurant"},{"name":"티바두마리치킨","tel":"031-357-6789","addr":"경기도 화성시 새솔동 16번지 송산그린시티요진와이시티 상가동 115호","indutype":"일반휴게음식 - 주점","category":"restaurant"}]},{"lat":"37.287409903","long":"126.81339615","imageIndex":4,"items":[{"name":"대승푸드","tel":"070-4254-0160","addr":"경기도 화성시 새솔동 43번지 송산그린시티 공동주택지구내 EAA10블럭","indutype":"일반휴게음식 - 일반한식","category":"restaurant"}]},{"lat":"37.279792998","long":"126.82286433","imageIndex":4,"items":[{"name":"트루테이스트","tel":"","addr":"경기도 화성시 새솔동 22번지 송산그린시티반도유보라아이비파크 상가 B동 지하1층 105호","indutype":"일반휴게음식 - 서양음식","category":"restaurant"},{"name":"홍희통닭","tel":"031-356-9247","addr":"경기도 화성시 새솔동 22번지 송산그린시티반도유보라아이비파크 상가 A동 1층 104호","indutype":"일반휴게음식 - 스넥","category":"restaurant"}]},{"lat":"37.279792998","long":"126.82286433","imageIndex":17,"items":[{"name":"GS25송산그린점","tel":"","addr":"경기도 화성시 새솔동 22번지 송산그린시티반도유보라아이비파크 상가동 101~102호","indutype":"유통업 영리 - 편 의 점","category":"other"},{"name":"간판바로광고","tel":"","addr":"경기도 화성시 새솔동 22번지 송산그린시티반도유보라아이비파크 609동 901호","indutype":"건축자재 - 인테리어전문","category":"other"},{"name":"수노을통신","tel":"031-355-1027","addr":"경기도 화성시 새솔동 22번지 송산그린시티반도유보라아이비파크 B동 104호","indutype":"사무통신 - 통신기기","category":"other"},{"name":"아이셋교육사","tel":"030-3313-0569","addr":"경기도 화성시 새솔동 22번지 송산그린시티반도유보라아이비파크 611동 904호","indutype":"서적문구 - 기타서적문구","category":"other"},{"name":"아이셋교육사","tel":"","addr":"경기도 화성시 새솔동 22번지 송산그린시티반도유보라아이비파크 611동 904호","indutype":"서적문구 - 기타서적문구","category":"other"},{"name":"오렌지팟 송산점","tel":"031-304-2200","addr":"경기도 화성시 새솔동 22번지 EAB6BL 반도유보라 아이비파크 근린생활시설B동 108호","indutype":"서적문구 - 문구용품","category":"other"},{"name":"월드크리닝 화성송린점","tel":"031-356-2608","addr":"경기도 화성시 새솔동 22번지 송산그린시티반도유보라아이비파크 B동 106호","indutype":"수리서비스 - 세탁소","category":"other"}]},{"lat":"37.290147536","long":"126.81815958","imageIndex":17,"items":[{"name":"GS25송산대방점","tel":"","addr":"경기도 화성시 새솔동 11번지 송산신도시 대방노블랜드 리버스위트 2차 상가동 108, 209호","indutype":"유통업 영리 - 편 의 점","category":"other"}]},{"lat":"37.287276412","long":"126.82018516","imageIndex":17,"items":[{"name":"GS25송산수노을점","tel":"","addr":"경기도 화성시 새솔동 16번지 송산그린시티요진와이시티 110호 근린생활시설","indutype":"유통업 영리 - 편 의 점","category":"other"},{"name":"라이크어플라워","tel":"","addr":"경기도 화성시 새솔동 16번지 송산그린시티요진와이시티 108동 1202호","indutype":"문화.취미 - 화원","category":"other"},{"name":"반하나 통신","tel":"031-355-5919","addr":"경기도 화성시 새솔동 16번지 송산그린시티요진와이시티 상가 101호","indutype":"사무통신 - 통신기기","category":"other"},{"name":"백마크리닝 송산1호점","tel":"031-000-0000","addr":"경기도 화성시 새솔동 16번지 송산그린시티요진와이시티 114호 근린생활시설","indutype":"수리서비스 - 세탁소","category":"other"},{"name":"이룸이엔지","tel":"","addr":"경기도 화성시 새솔동 16번지 송산그린시티요진와이시티 107동 1802호","indutype":"용역 서비스 - 기타용역서비스","category":"other"}]},{"lat":"37.283470451","long":"126.8237013","imageIndex":17,"items":[{"name":"비어앤크림 송산점(Beer&Cream.픽미픽미이","tel":"02-1833-6436","addr":"경기도 화성시 새솔동 18번지 이지더원 상가 3동 104호","indutype":"유통업 영리 - 편 의 점","category":"other"},{"name":"크린팩토리 송산점","tel":"031-355-5423","addr":"경기도 화성시 새솔동 18번지 송산그린시티 이지더원 레이크뷰 상가 2동 B122호","indutype":"수리서비스 - 세탁소","category":"other"},{"name":"피플앤독","tel":"031-111-1111","addr":"경기도 화성시 새솔동 18번지 송산그린시티 이지더원 레이크뷰 3동 102호","indutype":"문화.취미 - 애완동물","category":"other"}]},{"lat":"37.285355228","long":"126.818893","imageIndex":17,"items":[{"name":"세모토s","tel":"","addr":"경기도 화성시 새솔동 14번지 송산신도시대방노블랜드더퍼스티지1차 103동 102호","indutype":"신변잡화 - 기타잡화","category":"other"},{"name":"이마트24 송산대방점","tel":"","addr":"경기도 화성시 새솔동 14번지 송산신도시대방노블랜드더퍼스트지1차 상가동 101,102호","indutype":"유통업 영리 - 편 의 점","category":"other"}]},{"lat":"37.285355228","long":"126.818893","imageIndex":16,"items":[{"name":"개인과외","tel":"031-111-1111","addr":"경기도 화성시 새솔동 14번지 송산신도시대방노블랜드더퍼스티지1차 108동 1102호","indutype":"학원 - 기타 교육기관","category":"study"},{"name":"뉴라라음악학원","tel":"031-366-7951","addr":"경기도 화성시 새솔동 14번지 송산신도시대방노블랜드더퍼스티지1차 상가동 201호,202호","indutype":"학원 - 예·체능계학원","category":"study"},{"name":"아이동산어린이집[아이행복]","tel":"031-355-9707","addr":"경기도 화성시 새솔동 14번지 송산신도시대방노블랜드더퍼스티지1차 107동 102호","indutype":"학원 - 유아원","category":"study"},{"name":"영재바둑교습소","tel":"031-366-7999","addr":"경기도 화성시 새솔동 14번지 송산신도시대방노블랜드더퍼스티지1차 상가동 203호","indutype":"학원 - 기타 교육기관","category":"study"},{"name":"용인대 청룡 태권도장","tel":"031-355-2250","addr":"경기도 화성시 새솔동 14번지 송산신도시대방노블랜드더퍼스티지1차 상가동 2층 205 ,206,207호","indutype":"학원 - 예·체능계학원","category":"study"}]},{"lat":"37.279792998","long":"126.82286433","imageIndex":16,"items":[{"name":"꿈열매유치원[아이행복]","tel":"031-647-3080","addr":"경기도 화성시 새솔동 22번지 반도유보라단지","indutype":"학원 - 유치원","category":"study"},{"name":"리드인독서공부방","tel":"031-407-3915","addr":"경기도 화성시 새솔동 22번지 반도유보라 603동 403호","indutype":"학원 - 기타 교육기관","category":"study"},{"name":"새솔아이비어린이집[아이행복]","tel":"031-355-4028","addr":"경기도 화성시 새솔동 22번지 반도유보라아이비파크 관리동","indutype":"학원 - 유아원","category":"study"},{"name":"신혜리","tel":"","addr":"경기도 화성시 새솔동 22번지 송산그린시티반도유보라아이비파크 602동 201호","indutype":"학원 - 기타 교육기관","category":"study"}]},{"lat":"37.283470451","long":"126.8237013","imageIndex":16,"items":[{"name":"뉴쇼팽음악학원","tel":"031-335-7894","addr":"경기도 화성시 새솔동 18번지 송산그린시티 이지더원 레이크뷰 상가동 B108,B109호","indutype":"학원 - 예·체능계학원","category":"study"},{"name":"라미수학","tel":"","addr":"경기도 화성시 새솔동 18번지 송산그린시티이지더원레이크뷰 203동 304호","indutype":"학원 - 기타 교육기관","category":"study"},{"name":"슈퍼태권도장","tel":"031-355-7942","addr":"경기도 화성시 새솔동 18번지 송산그린시티 이지더원 레이크뷰 상가 1동 B110호 B111호 B112호","indutype":"학원 - 예·체능계학원","category":"study"},{"name":"시립이지 수노을 어린이집[아이행복]","tel":"031-356-6860","addr":"경기도 화성시 새솔동 18번지 송산그린시티 이지더원 레이크뷰","indutype":"학원 - 유아원","category":"study"},{"name":"청아어린이집[아이행복]","tel":"070-8184-1007","addr":"경기도 화성시 새솔동 18번지 송산그린시티이지더원레이크뷰 202동 104호","indutype":"학원 - 유아원","category":"study"}]},{"lat":"37.288666232","long":"126.8158514","imageIndex":16,"items":[{"name":"뮤엠영어송산대방3차NEST","tel":"","addr":"경기도 화성시 새솔동 13번지 대방노블랜드더센트럴3차 307동 302호","indutype":"학원 - 기타 교육기관","category":"study"},{"name":"해법중국어 송산그린시티교실","tel":"","addr":"경기도 화성시 새솔동 13번지 더센트럴3차 307동 802호","indutype":"학원 - 기타 교육기관","category":"study"}]},{"lat":"37.276809771","long":"126.82231895","imageIndex":16,"items":[{"name":"송린중학교","tel":"","addr":"경기도 화성시 새솔동 125번지","indutype":"학원 - 초중고교육기관","category":"study"},{"name":"시립송린어린이집[아이행복]","tel":"031-8055-7707","addr":"경기도 화성시 새솔동 125번지 송산그린시티 중1이음터","indutype":"학원 - 유아원","category":"study"}]},{"lat":"37.287276412","long":"126.82018516","imageIndex":16,"items":[{"name":"송산수노을어린이집[아이행복]","tel":"031-8077-2272","addr":"경기도 화성시 새솔동 16번지 요진와이시티 104동 104호","indutype":"학원 - 유아원","category":"study"},{"name":"수노을수학교실","tel":"","addr":"경기도 화성시 새솔동 16번지 송산그린시티요진와이시티 103동 803호","indutype":"학원 - 기타 교육기관","category":"study"},{"name":"요진어린이집[아이행복]","tel":"031-355-9958","addr":"경기도 화성시 새솔동 16번지 송산그린시티요진와이시티 102동 101호","indutype":"학원 - 유아원","category":"study"},{"name":"이시현","tel":"031-487-2800","addr":"경기도 화성시 새솔동 16번지 송산그린시티요진와이시티 108동 104호","indutype":"학원 - 기타 교육기관","category":"study"}]},{"lat":"37.281192297","long":"126.81876782","imageIndex":16,"items":[{"name":"시립수노을어린이집[아이행복]","tel":"031-357-1543","addr":"경기도 화성시 새솔동 98번지 새솔동주민센터 내","indutype":"학원 - 유아원","category":"study"}]},{"lat":"37.283470451","long":"126.8237013","imageIndex":7,"items":[{"name":"꼬기반찬","tel":"","addr":"경기도 화성시 새솔동 18번지 송산그린시티 이지더원 레이크뷰 상가 4동 108호","indutype":"음료식품 - 기타음료식품","category":"food"},{"name":"블럭제빵소 화성송산점","tel":"031-356-7610","addr":"경기도 화성시 새솔동 18번지 송산그린시티 이지더원 레이크뷰 4동 1층 103호","indutype":"음료식품 - 제과점","category":"food"},{"name":"싱싱정육점","tel":"031-357-8334","addr":"경기도 화성시 새솔동 18번지 송산그린시티 이지더원 레이크뷰 3동 107호","indutype":"음료식품 - 정육점","category":"food"},{"name":"쿡1015","tel":"031-357-0815","addr":"경기도 화성시 새솔동 18번지 송산그린시티 이지더원 레이크뷰 상가 2동 지하1층 8102호","indutype":"음료식품 - 기타음료식품","category":"food"},{"name":"프렌드유베이커리","tel":"031-357-7942","addr":"경기도 화성시 새솔동 18번지 송산그린시티이지더원레이크뷰 상가 4동 1층 101호","indutype":"음료식품 - 제과점","category":"food"}]},{"lat":"37.287276412","long":"126.82018516","imageIndex":7,"items":[{"name":"다름 달음 과일","tel":"070-0000-0000","addr":"경기도 화성시 새솔동 16번지 송산그린시티요진와이시티 8호","indutype":"음료식품 - 농·축·수산품","category":"food"},{"name":"두배로 토종한우한돈","tel":"031-357-9092","addr":"경기도 화성시 새솔동 16번지 송산그린시티요진와이시티 5호","indutype":"음료식품 - 정육점","category":"food"},{"name":"좋은날(떡)방앗간","tel":"031-356-5467","addr":"경기도 화성시 새솔동 16번지 송산그린시티요진와이시티 상가동 104호","indutype":"음료식품 - 제과점","category":"food"}]},{"lat":"37.279792998","long":"126.82286433","imageIndex":7,"items":[{"name":"더 달달(THE 달달) 아이스크림 할인점","tel":"070-7423-6603","addr":"경기도 화성시 새솔동 22번지 송산그린시티반도유보라아이비파크 상가비동 지하1층 비103호","indutype":"음료식품 - 기타음료식품","category":"food"}]},{"lat":"37.283470451","long":"126.8237013","imageIndex":13,"items":[{"name":"디엔에스 (D&S)","tel":"031-408-8495","addr":"경기도 화성시 새솔동 18번지 송산그린시티이지더원레이크뷰 209동 102호","indutype":"보건위생 - 미용재료","category":"beauty"},{"name":"수수네일","tel":"031-401-3730","addr":"경기도 화성시 새솔동 18번지 송산그린시티이지더원레이크뷰 상가2동 지하1층B121호","indutype":"보건위생 - 피부미용실","category":"beauty"},{"name":"올가뷰티","tel":"","addr":"경기도 화성시 새솔동 18번지 송산그린시티 이지더원 레이크뷰 4동 111호","indutype":"보건위생 - 화장품","category":"beauty"},{"name":"조스헤어","tel":"031-357-3909","addr":"경기도 화성시 새솔동 18번지 송산이지더원 상가 4동 1층 114호","indutype":"보건위생 - 미용원","category":"beauty"},{"name":"클래식헤어하우스","tel":"031-356-9206","addr":"경기도 화성시 새솔동 18번지 송산그리시티이지더원레이크뷰 3동 111호","indutype":"보건위생 - 미용원","category":"beauty"}]},{"lat":"37.285355228","long":"126.818893","imageIndex":13,"items":[{"name":"수헤어코프","tel":"031-357-0032","addr":"경기도 화성시 새솔동 14번지 송산신도시대방노블랜드더퍼스티지1차 상가동 2층 204호","indutype":"보건위생 - 미용원","category":"beauty"}]},{"lat":"37.279792998","long":"126.82286433","imageIndex":13,"items":[{"name":"아르떼헤어","tel":"031-000-0000","addr":"경기도 화성시 새솔동 22번지 송산그린시티반도유보라아이비파크 상가 A동 105호","indutype":"보건위생 - 미용원","category":"beauty"}]},{"lat":"37.288666232","long":"126.8158514","imageIndex":13,"items":[{"name":"헤어벨","tel":"031-483-3060","addr":"경기도 화성시 새솔동 13번지 송산신도시 대방노블랜드 더센트럴 3차 상가동 2층 204호","indutype":"보건위생 - 미용원","category":"beauty"}]},{"lat":"37.276809771","long":"126.82231895","imageIndex":0,"items":[{"name":"송린이음터","tel":"031-355-1946","addr":"경기도 화성시 새솔동 125번지","indutype":"자동차정비 유지 - 주차장","category":"car"}]},{"lat":"37.283470451","long":"126.8237013","imageIndex":7,"items":[{"name":"진로할인마트","tel":"031-355-0852","addr":"경기도 화성시 새솔동 18번지 송산그린시티 이지더원 레이크뷰 상가 5동 104-111호","indutype":"유통업 영리 - 슈퍼마켓","category":"mart"}]},{"lat":"37.285355228","long":"126.818893","imageIndex":7,"items":[{"name":"플러스마트","tel":"031-356-2546","addr":"경기도 화성시 새솔동 14번지 송산신도시대방노블랜드더퍼스티지1차 상가동 101,102호","indutype":"유통업 영리 - 슈퍼마켓","category":"mart"}]}]