[{"lat":"37.506846253","long":"126.81087501","imageIndex":4,"items":[{"name":"1155 (일일오오)","tel":"032-111-1111","addr":"경기도 부천시 작동 430-5번지 헤브론빌라 1층","indutype":"일반휴게음식 - 서양음식","category":"restaurant"}]},{"lat":"37.514811655","long":"126.80579858","imageIndex":4,"items":[{"name":"25시김밥","tel":"","addr":"경기도 부천시 작동 67-3번지","indutype":"일반휴게음식 - 일반한식","category":"restaurant"},{"name":"명품잔치국수","tel":"032-683-1253","addr":"경기도 부천시 작동 67-3번지 103,104호","indutype":"일반휴게음식 - 스넥","category":"restaurant"}]},{"lat":"37.518290642","long":"126.81765524","imageIndex":4,"items":[{"name":"갤러리호프","tel":"070-8285-4070","addr":"경기도 부천시 작동 34-7번지 1층","indutype":"일반휴게음식 - 주점","category":"restaurant"}]},{"lat":"37.50664741","long":"126.81049098","imageIndex":4,"items":[{"name":"게이트3","tel":"032-676-5343","addr":"경기도 부천시 작동 438-2번지 1층","indutype":"일반휴게음식 - 서양음식","category":"restaurant"}]},{"lat":"37.509786325","long":"126.81263188","imageIndex":4,"items":[{"name":"경도복집","tel":"032-678-1090","addr":"경기도 부천시 작동 202-6번지 2층","indutype":"일반휴게음식 - 일반한식","category":"restaurant"}]},{"lat":"37.518728538","long":"126.81538052","imageIndex":4,"items":[{"name":"김밥천국 작동점","tel":"032-682-8998","addr":"경기도 부천시 작동 32-11번지 1층","indutype":"일반휴게음식 - 일반한식","category":"restaurant"},{"name":"다프지오","tel":"032-675-6728","addr":"경기도 부천시 작동 32-11번지","indutype":"일반휴게음식 - 주점","category":"restaurant"}]},{"lat":"37.514208409","long":"126.806049","imageIndex":4,"items":[{"name":"까치가야밀면","tel":"032-675-5242","addr":"경기도 부천시 작동 66-6번지 스타리버파크 103호","indutype":"일반휴게음식 - 일반한식","category":"restaurant"}]},{"lat":"37.516566209","long":"126.80438005","imageIndex":4,"items":[{"name":"꽃마름 부천작동점","tel":"032-677-3977","addr":"경기도 부천시 작동 63-7번지 주건축물제 1동 5층","indutype":"일반휴게음식 - 일반한식","category":"restaurant"},{"name":"데이지(Daisy)","tel":"032-682-7505","addr":"경기도 부천시 작동 63-7번지","indutype":"일반휴게음식 - 스넥","category":"restaurant"},{"name":"로스팅을 그리다","tel":"","addr":"경기도 부천시 작동 63-7번지 호환빌딩 106호","indutype":"일반휴게음식 - 서양음식","category":"restaurant"},{"name":"춘장","tel":"032-673-8333","addr":"경기도 부천시 작동 63-7번지 1층","indutype":"일반휴게음식 - 중국식","category":"restaurant"},{"name":"춘장","tel":"032-673-1722","addr":"경기도 부천시 작동 63-7번지 지하1층","indutype":"일반휴게음식 - 일반한식","category":"restaurant"},{"name":"토브하리 (TOVHARI)","tel":"032-674-3832","addr":"경기도 부천시 작동 63-7번지 107호","indutype":"일반휴게음식 - 서양음식","category":"restaurant"}]},{"lat":"37.518791157","long":"126.81509757","imageIndex":4,"items":[{"name":"노유민코페","tel":"032-673-3969","addr":"경기도 부천시 작동 32번지 영미빌딩 1층","indutype":"일반휴게음식 - 일반한식","category":"restaurant"},{"name":"모히칸","tel":"032-672-8052","addr":"경기도 부천시 작동 32번지 영미빌딩 모히칸","indutype":"일반휴게음식 - 주점","category":"restaurant"},{"name":"장터치킨(작동점)","tel":"032-676-2956","addr":"경기도 부천시 작동 32번지 영미빌딩 1층 일부","indutype":"일반휴게음식 - 스넥","category":"restaurant"}]},{"lat":"37.51711655","long":"126.80481974","imageIndex":4,"items":[{"name":"뉴욕야시장","tel":"032-684-2345","addr":"경기도 부천시 작동 63번지 1동 1층","indutype":"일반휴게음식 - 서양음식","category":"restaurant"},{"name":"소부자","tel":"032-672-5616","addr":"경기도 부천시 작동 63번지 문화타운 1동 6,7,8,9호","indutype":"일반휴게음식 - 일반한식","category":"restaurant"},{"name":"왕노가리2","tel":"032-671-6691","addr":"경기도 부천시 작동 63번지 1동3호","indutype":"일반휴게음식 - 주점","category":"restaurant"},{"name":"육회집","tel":"032-676-2324","addr":"경기도 부천시 작동 63번지 문화타운 1동 12호","indutype":"일반휴게음식 - 일반한식","category":"restaurant"},{"name":"춘천숯불닭갈비","tel":"032-676-2332","addr":"경기도 부천시 작동 63번지 1동 10,11호","indutype":"일반휴게음식 - 일반한식","category":"restaurant"},{"name":"큰집코다리","tel":"032-672-2333","addr":"경기도 부천시 작동 63번지 3동 1층","indutype":"일반휴게음식 - 일반한식","category":"restaurant"},{"name":"포레스트탭룸","tel":"0507-1306-5390","addr":"경기도 부천시 작동 63번지","indutype":"일반휴게음식 - 일반한식","category":"restaurant"}]},{"lat":"37.518395335","long":"126.81548316","imageIndex":4,"items":[{"name":"대박작동보리밥","tel":"","addr":"경기도 부천시 작동 33-5번지 1층","indutype":"일반휴게음식 - 일반한식","category":"restaurant"}]},{"lat":"37.510952594","long":"126.80954117","imageIndex":4,"items":[{"name":"대왕대구탕","tel":"032-671-8595","addr":"경기도 부천시 작동 351-6번지","indutype":"일반휴게음식 - 일반한식","category":"restaurant"}]},{"lat":"37.50678985","long":"126.8094388","imageIndex":4,"items":[{"name":"더샘(The Sam)","tel":"032-672-2340","addr":"경기도 부천시 작동 435-5번지 1층","indutype":"일반휴게음식 - 서양음식","category":"restaurant"}]},{"lat":"37.514509237","long":"126.81370574","imageIndex":4,"items":[{"name":"덕가본가","tel":"032-671-5266","addr":"경기도 부천시 작동 125-2번지","indutype":"일반휴게음식 - 일반한식","category":"restaurant"}]},{"lat":"37.517063381","long":"126.80535151","imageIndex":4,"items":[{"name":"돈우리","tel":"032-678-0158","addr":"경기도 부천시 작동 69번지 성진타운 104동 1층 102호","indutype":"일반휴게음식 - 일반한식","category":"restaurant"},{"name":"비어캠프","tel":"070-4250-6457","addr":"경기도 부천시 작동 69번지 성진타운 104동 101호","indutype":"일반휴게음식 - 주점","category":"restaurant"},{"name":"옹골진아구해물","tel":"032-681-7672","addr":"경기도 부천시 작동 69번지 성진타운 104동 103호","indutype":"일반휴게음식 - 일반한식","category":"restaurant"}]},{"lat":"37.51850944","long":"126.81929487","imageIndex":4,"items":[{"name":"로타리짬뽕","tel":"031-683-8939","addr":"경기도 부천시 작동 30-8번지","indutype":"일반휴게음식 - 중국식","category":"restaurant"}]},{"lat":"37.506980996","long":"126.81062584","imageIndex":4,"items":[{"name":"마고코로카레","tel":"","addr":"경기도 부천시 작동 430-3번지 1층","indutype":"일반휴게음식 - 일식·회집","category":"restaurant"}]},{"lat":"37.518343083","long":"126.81662575","imageIndex":4,"items":[{"name":"맛들임","tel":"032-672-5158","addr":"경기도 부천시 작동 34번지 1층","indutype":"일반휴게음식 - 일반한식","category":"restaurant"}]},{"lat":"37.518368933","long":"126.81587913","imageIndex":4,"items":[{"name":"멕시칸치킨 원종 중앙지점","tel":"","addr":"경기도 부천시 작동 33-8번지","indutype":"일반휴게음식 - 스넥","category":"restaurant"},{"name":"아주특별한김밥 작동점","tel":"070-7378-0704","addr":"경기도 부천시 작동 33-8번지 1층 일부","indutype":"일반휴게음식 - 스넥","category":"restaurant"},{"name":"왕십리야채곱창","tel":"032-672-2491","addr":"경기도 부천시 작동 33-8번지 1층","indutype":"일반휴게음식 - 일반한식","category":"restaurant"}]},{"lat":"37.515622825","long":"126.80596611","imageIndex":4,"items":[{"name":"멤버마을","tel":"02-831-6712","addr":"경기도 부천시 작동 70번지 2층","indutype":"일반휴게음식 - 일반한식","category":"restaurant"}]},{"lat":"37.518784655","long":"126.81668122","imageIndex":4,"items":[{"name":"무진장","tel":"032-679-3831","addr":"경기도 부천시 작동 31번지 1층 일부","indutype":"일반휴게음식 - 중국식","category":"restaurant"}]},{"lat":"37.510207668","long":"126.81131881","imageIndex":4,"items":[{"name":"밀밭촌","tel":"032-683-8988","addr":"경기도 부천시 작동 197-1번지 지하1층","indutype":"일반휴게음식 - 일반한식","category":"restaurant"}]},{"lat":"37.516702514","long":"126.80506968","imageIndex":4,"items":[{"name":"발해순대국","tel":"032-674-1330","addr":"경기도 부천시 작동 63-2번지 남영아트빌라 나동 3,4호","indutype":"일반휴게음식 - 일반한식","category":"restaurant"}]},{"lat":"37.512755667","long":"126.82159373","imageIndex":4,"items":[{"name":"버터 팬 (BUTTER PAN)","tel":"070-8810-1492","addr":"경기도 부천시 작동 149-2번지 1층","indutype":"일반휴게음식 - 서양음식","category":"restaurant"}]},{"lat":"37.516566665","long":"126.80465152","imageIndex":4,"items":[{"name":"베르네닭강정","tel":"032-675-8318","addr":"경기도 부천시 작동 63번지 11호","indutype":"일반휴게음식 - 스넥","category":"restaurant"}]},{"lat":"37.512125153","long":"126.81592864","imageIndex":4,"items":[{"name":"보림","tel":"032-681-0248","addr":"경기도 부천시 작동 162-2번지","indutype":"일반휴게음식 - 일반한식","category":"restaurant"}]},{"lat":"37.518207542","long":"126.81637724","imageIndex":4,"items":[{"name":"봉떼르","tel":"070-6846-8467","addr":"경기도 부천시 작동 33-12번지","indutype":"일반휴게음식 - 서양음식","category":"restaurant"}]},{"lat":"37.519421595","long":"126.81493763","imageIndex":4,"items":[{"name":"봉선생국시마루","tel":"032-671-0444","addr":"경기도 부천시 작동 9-2번지 1층","indutype":"일반휴게음식 - 일반한식","category":"restaurant"}]},{"lat":"37.507230685","long":"126.80904182","imageIndex":4,"items":[{"name":"봉슈(BongSu)","tel":"070-8830-0909","addr":"경기도 부천시 작동 427-4번지 1층","indutype":"일반휴게음식 - 서양음식","category":"restaurant"}]},{"lat":"37.51520381","long":"126.81421299","imageIndex":4,"items":[{"name":"부천오리","tel":"032-677-8268","addr":"경기도 부천시 작동 127-3번지","indutype":"일반휴게음식 - 일반한식","category":"restaurant"},{"name":"사랑채보리밥","tel":"032-678-2325","addr":"경기도 부천시 작동 127-3번지","indutype":"일반휴게음식 - 일반한식","category":"restaurant"}]},{"lat":"37.511980691","long":"126.81573672","imageIndex":4,"items":[{"name":"브니엘 커피하우스","tel":"032-671-8680","addr":"경기도 부천시 작동 163-7번지 1층","indutype":"일반휴게음식 - 서양음식","category":"restaurant"},{"name":"서당골미꾸라지매운탕","tel":"032-679-5532","addr":"경기도 부천시 작동 163-7번지","indutype":"일반휴게음식 - 일반한식","category":"restaurant"}]},{"lat":"37.51378521","long":"126.80620847","imageIndex":4,"items":[{"name":"브라보장작구이","tel":"032-672-9277","addr":"경기도 부천시 작동 66-8번지","indutype":"일반휴게음식 - 일반한식","category":"restaurant"}]},{"lat":"37.512846251","long":"126.82191021","imageIndex":4,"items":[{"name":"산마루촌","tel":"032-676-5252","addr":"경기도 부천시 작동 149-1번지 3","indutype":"일반휴게음식 - 일반한식","category":"restaurant"}]},{"lat":"37.514595623","long":"126.81704226","imageIndex":4,"items":[{"name":"산새울","tel":"032-678-5299","addr":"경기도 부천시 작동 144-2번지","indutype":"일반휴게음식 - 일반한식","category":"restaurant"}]},{"lat":"37.516872772","long":"126.80451498","imageIndex":4,"items":[{"name":"송가네빈대떡","tel":"032-674-4900","addr":"경기도 부천시 작동 63-8번지 1층일부3호","indutype":"일반휴게음식 - 일반한식","category":"restaurant"},{"name":"왈가닭치킨","tel":"032-674-4900","addr":"경기도 부천시 작동 63-8번지 문화타운 2동 1,2호","indutype":"일반휴게음식 - 일반한식","category":"restaurant"},{"name":"장충동왕족발","tel":"032-681-6691","addr":"경기도 부천시 작동 63-8번지 2동 10,11호","indutype":"일반휴게음식 - 일반한식","category":"restaurant"},{"name":"진미회세꼬시","tel":"032-675-5305","addr":"경기도 부천시 작동 63-8번지 2동 1층 6,7호","indutype":"일반휴게음식 - 일식·회집","category":"restaurant"},{"name":"황소부추곱창","tel":"032-684-6660","addr":"경기도 부천시 작동 63-8번지 문화타운 2동 8호","indutype":"일반휴게음식 - 일반한식","category":"restaurant"}]},{"lat":"37.509480299","long":"126.81282493","imageIndex":4,"items":[{"name":"시골마루보쌈부천작동점","tel":"032-677-7759","addr":"경기도 부천시 작동 225-2번지","indutype":"일반휴게음식 - 일반한식","category":"restaurant"}]},{"lat":"37.517898173","long":"126.81446637","imageIndex":4,"items":[{"name":"시골집","tel":"070-7543-3018","addr":"경기도 부천시 작동 49-1번지 우성하이츠빌 1층","indutype":"일반휴게음식 - 일반한식","category":"restaurant"}]},{"lat":"37.512817413","long":"126.82073397","imageIndex":4,"items":[{"name":"시골향기 작동점","tel":"032-675-7077","addr":"경기도 부천시 작동 147번지","indutype":"일반휴게음식 - 일반한식","category":"restaurant"}]},{"lat":"37.507095499","long":"126.80901955","imageIndex":4,"items":[{"name":"신우리냉면","tel":"032-683-6366","addr":"경기도 부천시 작동 427-5번지","indutype":"일반휴게음식 - 일반한식","category":"restaurant"}]},{"lat":"37.517735905","long":"126.81441022","imageIndex":4,"items":[{"name":"싱글벙글복어","tel":"032-671-5335","addr":"경기도 부천시 작동 49-2번지","indutype":"일반휴게음식 - 일식·회집","category":"restaurant"}]},{"lat":"37.512899147","long":"126.82115227","imageIndex":4,"items":[{"name":"쌈천지","tel":"032-678-8586","addr":"경기도 부천시 작동 147-1번지 ,2,3층","indutype":"일반휴게음식 - 일반한식","category":"restaurant"}]},{"lat":"37.506376229","long":"126.81554713","imageIndex":4,"items":[{"name":"안골민속가든","tel":"032-671-7852","addr":"경기도 부천시 작동 247-1번지","indutype":"일반휴게음식 - 일반한식","category":"restaurant"}]},{"lat":"37.506929412","long":"126.8121528","imageIndex":4,"items":[{"name":"에스오이 (soe)","tel":"032-674-0814","addr":"경기도 부천시 작동 372-1번지 1층","indutype":"일반휴게음식 - 서양음식","category":"restaurant"}]},{"lat":"37.506620748","long":"126.81071725","imageIndex":4,"items":[{"name":"엔드","tel":"032-672-2584","addr":"경기도 부천시 작동 438-3번지 1층","indutype":"일반휴게음식 - 일반한식","category":"restaurant"}]},{"lat":"37.518317015","long":"126.81723664","imageIndex":4,"items":[{"name":"오늘국밥","tel":"032-679-8255","addr":"경기도 부천시 작동 34-4번지","indutype":"일반휴게음식 - 일반한식","category":"restaurant"}]},{"lat":"37.506674071","long":"126.81026472","imageIndex":4,"items":[{"name":"올라","tel":"032-672-0717","addr":"경기도 부천시 작동 438-1번지 1층","indutype":"일반휴게음식 - 스넥","category":"restaurant"}]},{"lat":"37.513118485","long":"126.81735132","imageIndex":4,"items":[{"name":"외정황토못메기(부천점)","tel":"032-678-0333","addr":"경기도 부천시 작동 158번지","indutype":"일반휴게음식 - 일반한식","category":"restaurant"}]},{"lat":"37.51478847","long":"126.81365979","imageIndex":4,"items":[{"name":"으뜸원","tel":"032-684-5210","addr":"경기도 부천시 작동 125-7번지","indutype":"일반휴게음식 - 일반한식","category":"restaurant"}]},{"lat":"37.514485056","long":"126.81549293","imageIndex":4,"items":[{"name":"은자네 갑오징어","tel":"02-676-0237","addr":"경기도 부천시 작동 134-1번지","indutype":"일반휴게음식 - 일반한식","category":"restaurant"}]},{"lat":"37.506952971","long":"126.81001518","imageIndex":4,"items":[{"name":"이상일커피하우스","tel":"032-678-5052","addr":"경기도 부천시 작동 428-6번지 1층","indutype":"일반휴게음식 - 서양음식","category":"restaurant"}]},{"lat":"37.51290005","long":"126.82174042","imageIndex":4,"items":[{"name":"이일공이","tel":"032-678-2102","addr":"경기도 부천시 작동 149번지 1,2층","indutype":"일반휴게음식 - 서양음식","category":"restaurant"}]},{"lat":"37.518421574","long":"126.81498538","imageIndex":4,"items":[{"name":"이츠굿베이커리카페 부천작동점","tel":"032-710-0477","addr":"경기도 부천시 작동 33-2번지 1층","indutype":"일반휴게음식 - 서양음식","category":"restaurant"}]},{"lat":"37.506209607","long":"126.81276536","imageIndex":4,"items":[{"name":"일미청국장","tel":"032-674-9932","addr":"경기도 부천시 작동 272번지 1층","indutype":"일반휴게음식 - 일반한식","category":"restaurant"}]},{"lat":"37.518872731","long":"126.81540278","imageIndex":4,"items":[{"name":"작동갈비","tel":"032-673-1968","addr":"경기도 부천시 작동 32-12번지 1층","indutype":"일반휴게음식 - 일반한식","category":"restaurant"}]},{"lat":"37.518203876","long":"126.81406969","imageIndex":4,"items":[{"name":"작동순대국","tel":"032-678-5333","addr":"경기도 부천시 작동 58-3번지","indutype":"일반휴게음식 - 일반한식","category":"restaurant"}]},{"lat":"37.514951932","long":"126.81446246","imageIndex":4,"items":[{"name":"작동영양촌","tel":"032-671-0035","addr":"경기도 부천시 작동 126-15번지","indutype":"일반휴게음식 - 일반한식","category":"restaurant"}]},{"lat":"37.514563622","long":"126.8139092","imageIndex":4,"items":[{"name":"작동오리불고기","tel":"032-681-5292","addr":"경기도 부천시 작동 126-10번지","indutype":"일반휴게음식 - 일반한식","category":"restaurant"}]},{"lat":"37.513957281","long":"126.80673963","imageIndex":4,"items":[{"name":"잔치마을","tel":"032-671-0715","addr":"경기도 부천시 작동 71-5번지 1층","indutype":"일반휴게음식 - 일반한식","category":"restaurant"}]},{"lat":"37.516423303","long":"126.80512697","imageIndex":4,"items":[{"name":"전장군숯불갈비 작동점","tel":"032-684-8277","addr":"경기도 부천시 작동 68-1번지","indutype":"일반휴게음식 - 일반한식","category":"restaurant"}]},{"lat":"37.512672179","long":"126.80874498","imageIndex":4,"items":[{"name":"정가네만두샤브","tel":"032-678-2518","addr":"경기도 부천시 작동 111-12번지 (111-23,111-25)","indutype":"일반휴게음식 - 일반한식","category":"restaurant"}]},{"lat":"37.507068748","long":"126.80918927","imageIndex":4,"items":[{"name":"주다방","tel":"070-8887-6535","addr":"경기도 부천시 작동 427-6번지 101호","indutype":"일반휴게음식 - 서양음식","category":"restaurant"}]},{"lat":"37.515038426","long":"126.80671417","imageIndex":4,"items":[{"name":"철순이네 김치찌개","tel":"032-673-2200","addr":"경기도 부천시 작동 70-18번지","indutype":"일반휴게음식 - 일반한식","category":"restaurant"}]},{"lat":"37.51583891","long":"126.80587505","imageIndex":4,"items":[{"name":"카페 키아마","tel":"070-8845-7857","addr":"경기도 부천시 작동 69-7번지 필하우스 1층 101호","indutype":"일반휴게음식 - 서양음식","category":"restaurant"}]},{"lat":"37.507042163","long":"126.80946077","imageIndex":4,"items":[{"name":"카페노브 (cafe Nov)","tel":"070-4151-0525","addr":"경기도 부천시 작동 428-3번지 1층 일부 1호","indutype":"일반휴게음식 - 서양음식","category":"restaurant"}]},{"lat":"37.507402558","long":"126.80945984","imageIndex":4,"items":[{"name":"카페드아만다","tel":"032-677-5816","addr":"경기도 부천시 작동 427-9번지 1층","indutype":"일반휴게음식 - 서양음식","category":"restaurant"}]},{"lat":"37.507347961","long":"126.809132","imageIndex":4,"items":[{"name":"카페리메인","tel":"02-453-5107","addr":"경기도 부천시 작동 427-3번지 1층","indutype":"일반휴게음식 - 서양음식","category":"restaurant"}]},{"lat":"37.50673642","long":"126.80982348","imageIndex":4,"items":[{"name":"카페여리","tel":"032-679-4195","addr":"경기도 부천시 작동 435-7번지 1층","indutype":"일반휴게음식 - 서양음식","category":"restaurant"}]},{"lat":"37.518060423","long":"126.8145112","imageIndex":4,"items":[{"name":"카페테라스","tel":"032-678-8460","addr":"경기도 부천시 작동 49번지","indutype":"일반휴게음식 - 서양음식","category":"restaurant"}]},{"lat":"37.507231685","long":"126.80965255","imageIndex":4,"items":[{"name":"코르드블랭크","tel":"070-8865-1876","addr":"경기도 부천시 작동 428-1번지 1층","indutype":"일반휴게음식 - 서양음식","category":"restaurant"}]},{"lat":"37.507429236","long":"126.80924489","imageIndex":4,"items":[{"name":"코모레비 (comorebi)","tel":"","addr":"경기도 부천시 작동 427-2번지 1층","indutype":"일반휴게음식 - 서양음식","category":"restaurant"}]},{"lat":"37.507150374","long":"126.80951704","imageIndex":4,"items":[{"name":"키햐아","tel":"032-676-7771","addr":"경기도 부천시 작동 428-2번지","indutype":"일반휴게음식 - 일식·회집","category":"restaurant"}]},{"lat":"37.514843181","long":"126.81406685","imageIndex":4,"items":[{"name":"터","tel":"032-672-3392","addr":"경기도 부천시 작동 126-1번지","indutype":"일반휴게음식 - 일반한식","category":"restaurant"}]},{"lat":"37.507312274","long":"126.80934698","imageIndex":4,"items":[{"name":"트릿츠(TREATS)","tel":"02-1111-1111","addr":"경기도 부천시 작동 427-8번지 1층","indutype":"일반휴게음식 - 서양음식","category":"restaurant"}]},{"lat":"37.513146083","long":"126.81771319","imageIndex":4,"items":[{"name":"풍년명절작동점","tel":"032-682-0707","addr":"경기도 부천시 작동 157-5번지 ,2,3층","indutype":"일반휴게음식 - 일반한식","category":"restaurant"}]},{"lat":"37.519592819","long":"126.81495982","imageIndex":4,"items":[{"name":"할매집","tel":"032-682-3373","addr":"경기도 부천시 작동 9-1번지 1층","indutype":"일반휴게음식 - 일반한식","category":"restaurant"}]},{"lat":"37.515782712","long":"126.80459704","imageIndex":4,"items":[{"name":"행복동태해물","tel":"032-674-8840","addr":"경기도 부천시 작동 64-8번지 1층","indutype":"일반휴게음식 - 일반한식","category":"restaurant"}]},{"lat":"37.518508312","long":"126.81857094","imageIndex":4,"items":[{"name":"효담푸드서비스","tel":"032-244-5254","addr":"경기도 부천시 작동 30-12번지 1층","indutype":"일반휴게음식 - 일반한식","category":"restaurant"}]}]