[{"lat":"37.48668229","long":"126.78998648","imageIndex":17,"items":[{"name":"(주)갓스포","tel":"070-4114-1141","addr":"경기도 부천시 소사동 3-19번지 1층 3호","indutype":"레져용품 - 스포츠·레져용품","category":"other"},{"name":"스페이스(Space)&창","tel":"032-346-1988","addr":"경기도 부천시 소사동 3-19번지 1층 3호","indutype":"직물 - 카페트,커튼,천막,지물","category":"other"},{"name":"씨유부천소명여고점","tel":"080-080-3663","addr":"경기도 부천시 소사동 3-19번지 1층","indutype":"유통업 영리 - 편 의 점","category":"other"}]},{"lat":"37.485068333","long":"126.79437799","imageIndex":17,"items":[{"name":"(주)하나정보","tel":"032-343-8003","addr":"경기도 부천시 소사동 22-6번지 4층","indutype":"사무통신 - 통신기기","category":"other"}]},{"lat":"37.48429416","long":"126.79476456","imageIndex":17,"items":[{"name":"(주)한국창의개발원","tel":"032-1566-0290","addr":"경기도 부천시 소사동 19-5번지","indutype":"회원제형태 - 서적","category":"other"},{"name":"열린브레인언론기관부설 평생교육시설","tel":"032-328-0030","addr":"경기도 부천시 소사동 19-5번지 2층","indutype":"회원제형태 - 기타4","category":"other"},{"name":"장환이벤트","tel":"032-343-8732","addr":"경기도 부천시 소사동 19-5번지 명지빌딩 3층","indutype":"용역 서비스 - 종합용역","category":"other"}]},{"lat":"37.484960214","long":"126.79437829","imageIndex":17,"items":[{"name":"(주)한미실업","tel":"032-346-5388","addr":"경기도 부천시 소사동 22-7번지","indutype":"건축자재 - 기타건축자재","category":"other"}]},{"lat":"37.484626009","long":"126.79390435","imageIndex":17,"items":[{"name":"Dollits","tel":"070-7584-1838","addr":"경기도 부천시 소사동 18-32번지 2층","indutype":"서적문구 - 완구점","category":"other"}]},{"lat":"37.484515421","long":"126.79763578","imageIndex":17,"items":[{"name":"GS25소사원룸점","tel":"","addr":"경기도 부천시 소사동 27-5번지 1층 101~102호","indutype":"유통업 영리 - 편 의 점","category":"other"}]},{"lat":"37.483126951","long":"126.79198646","imageIndex":17,"items":[{"name":"Navid(니비드)","tel":"032-346-1134","addr":"경기도 부천시 소사동 74-68번지","indutype":"의류 - 정장","category":"other"}]},{"lat":"37.485819353","long":"126.79110828","imageIndex":17,"items":[{"name":"SPAR편의점","tel":"032-345-1456","addr":"경기도 부천시 소사동 5-10번지","indutype":"유통업 영리 - 편 의 점","category":"other"}]},{"lat":"37.484369691","long":"126.79163247","imageIndex":17,"items":[{"name":"가나공업사","tel":"032-343-8638","addr":"경기도 부천시 소사동 46번지","indutype":"건축자재 - 보일러·펌프·샷시","category":"other"},{"name":"세명크리닝빨래방","tel":"","addr":"경기도 부천시 소사동 46번지","indutype":"수리서비스 - 세탁소","category":"other"}]},{"lat":"37.484039345","long":"126.79332936","imageIndex":17,"items":[{"name":"강원건업","tel":"032-347-6320","addr":"경기도 부천시 소사동 44","indutype":"건축자재 - 기타건축자재","category":"other"},{"name":"진성텔레콤2호","tel":"032-271-9933","addr":"경기도 부천시 소사동 44번지 1층 2호","indutype":"사무통신 - 통신기기","category":"other"}]},{"lat":"37.484294418","long":"126.79491154","imageIndex":17,"items":[{"name":"경인종합상사","tel":"032-347-7164","addr":"경기도 부천시 소사동 19-3번지","indutype":"기타 - 기계공구","category":"other"},{"name":"행복한 강아지","tel":"032-000-0000","addr":"경기도 부천시 소사동 19-3번지 1층","indutype":"문화.취미 - 애완동물","category":"other"}]},{"lat":"37.484874103","long":"126.7915519","imageIndex":17,"items":[{"name":"공간크린몰","tel":"070-7971-3615","addr":"경기도 부천시 소사동 8-26번지","indutype":"용역 서비스 - 종합용역","category":"other"}]},{"lat":"37.483988361","long":"126.79507068","imageIndex":17,"items":[{"name":"교동설비","tel":"032-347-5235","addr":"경기도 부천시 소사동 42-3번지 1층","indutype":"용역 서비스 - 기타용역서비스","category":"other"}]},{"lat":"37.484373452","long":"126.79374676","imageIndex":17,"items":[{"name":"금보석","tel":"032-345-8555","addr":"경기도 부천시 소사동 18-28번지 이화연립","indutype":"신변잡화 - 시계","category":"other"}]},{"lat":"37.485652857","long":"126.7937432","imageIndex":17,"items":[{"name":"달콤반지","tel":"070-8826-2730","addr":"경기도 부천시 소사동 15-17번지 우주골드타운 402호","indutype":"신변잡화 - 액세서리","category":"other"}]},{"lat":"37.484565515","long":"126.79029776","imageIndex":17,"items":[{"name":"대광엔지니어링","tel":"032-345-5581","addr":"경기도 부천시 소사동 80-83번지","indutype":"용역 서비스 - 기타용역서비스","category":"other"},{"name":"리프컴퓨터수리점","tel":"","addr":"경기도 부천시 소사동 80-83번지 204호","indutype":"수리서비스 - 사무·통신기기수리","category":"other"},{"name":"믿음산업","tel":"032-343-6812","addr":"경기도 부천시 소사동 80-83번지","indutype":"건축자재 - 기타건축자재","category":"other"}]},{"lat":"37.485620486","long":"126.79074703","imageIndex":17,"items":[{"name":"대박알뜰매장","tel":"032-341-8849","addr":"경기도 부천시 소사동 6-24번지 1층","indutype":"수리서비스 - 기타수리서비스","category":"other"}]},{"lat":"37.484266891","long":"126.79462896","imageIndex":17,"items":[{"name":"대운사무기","tel":"032-348-6496","addr":"경기도 부천시 소사동 19-14번지","indutype":"사무통신 - 컴퓨터","category":"other"}]},{"lat":"37.483016165","long":"126.79557085","imageIndex":17,"items":[{"name":"동서복지간병인협회","tel":"032-342-8082","addr":"경기도 부천시 소사동 43-39번지 3층","indutype":"용역 서비스 - 종합용역","category":"other"},{"name":"세븐일레븐부천소사역점","tel":"011-***-****","addr":"경기도 부천시 소사동 43-39번지","indutype":"유통업 영리 - 편 의 점","category":"other"}]},{"lat":"37.484791515","long":"126.79071546","imageIndex":17,"items":[{"name":"동아인테리어","tel":"032-654-0011","addr":"경기도 부천시 소사동 7-4번지","indutype":"건축자재 - 인테리어전문","category":"other"}]},{"lat":"37.485458653","long":"126.7909397","imageIndex":17,"items":[{"name":"동해정보통신","tel":"032-348-5011","addr":"경기도 부천시 소사동 6-28번지 1층","indutype":"사무통신 - 통신기기","category":"other"}]},{"lat":"37.486258683","long":"126.78990853","imageIndex":17,"items":[{"name":"두리열쇠","tel":"041-547-0050","addr":"경기도 부천시 소사동 6번지","indutype":"건축자재 - 목재·석재·철물","category":"other"}]},{"lat":"37.484315975","long":"126.79182483","imageIndex":17,"items":[{"name":"디보스","tel":"032-681-7456","addr":"경기도 부천시 소사동 46-8번지 신흥빌딩 2층","indutype":"기타 - 기타 전문점","category":"other"},{"name":"충북전기중고가전마트","tel":"032-342-1106","addr":"경기도 부천시 소사동 46-8번지","indutype":"수리서비스 - 가정용품수리","category":"other"}]},{"lat":"37.483545122","long":"126.79407695","imageIndex":17,"items":[{"name":"딥인서비스","tel":"070-8616-2223","addr":"경기도 부천시 소사동 44-44번지 101호","indutype":"용역 서비스 - 사무서비스","category":"other"}]},{"lat":"37.48400885","long":"126.79138475","imageIndex":17,"items":[{"name":"러브캣","tel":"070-2699-0807","addr":"경기도 부천시 소사동 79-19번지 1층","indutype":"문화.취미 - 애완동물","category":"other"}]},{"lat":"37.483290821","long":"126.79293573","imageIndex":17,"items":[{"name":"루디아","tel":"070-8235-6030","addr":"경기도 부천시 소사동 49-9번지","indutype":"의류 - 내의판매","category":"other"}]},{"lat":"37.485426969","long":"126.79338201","imageIndex":17,"items":[{"name":"메리K핑크","tel":"070-8914-4791","addr":"경기도 부천시 소사동 16-5번지 초원빌라 102호","indutype":"회원제형태 - 기타1","category":"other"}]},{"lat":"37.485677276","long":"126.79227327","imageIndex":17,"items":[{"name":"명신그릇","tel":"032-349-8279","addr":"경기도 부천시 소사동 16-23번지","indutype":"주방용구 - 주방용식기","category":"other"}]},{"lat":"37.485175713","long":"126.79395935","imageIndex":17,"items":[{"name":"바버아저씨","tel":"","addr":"경기도 부천시 소사동 22-45번지 지층","indutype":"의류 - 정장","category":"other"},{"name":"저울할인마트 (카스전자저울총판)","tel":"032-613-2224","addr":"경기도 부천시 소사동 22-45번지 2층","indutype":"주방용구 - 주방용구","category":"other"}]},{"lat":"37.48442677","long":"126.79332827","imageIndex":17,"items":[{"name":"바이수","tel":"032-651-9593","addr":"경기도 부천시 소사동 17-10번지 1층 3호","indutype":"의류 - 정장","category":"other"},{"name":"을지라사","tel":"032-346-1040","addr":"경기도 부천시 소사동 17-10번지","indutype":"의류 - 맞춤복점","category":"other"}]},{"lat":"37.484792164","long":"126.79107726","imageIndex":17,"items":[{"name":"백조씽크","tel":"032-342-9658","addr":"경기도 부천시 소사동 8-31번지 1층","indutype":"주방용구 - 주방용구","category":"other"}]},{"lat":"37.485155728","long":"126.79285136","imageIndex":17,"items":[{"name":"보물섬","tel":"032-341-8808","addr":"경기도 부천시 소사동 16-10번지","indutype":"기타 - 기계공구","category":"other"}]},{"lat":"37.485181812","long":"126.79231988","imageIndex":17,"items":[{"name":"보물찾기구제점","tel":"070-7301-8417","addr":"경기도 부천시 소사동 9-13번지 1층","indutype":"의류 - 기타의류","category":"other"}]},{"lat":"37.484717505","long":"126.79469555","imageIndex":17,"items":[{"name":"볼록미디어","tel":"070-7018-4096","addr":"경기도 부천시 소사동 19-9번지 엘지주택 가동 202호","indutype":"용역 서비스 - 소프트웨어","category":"other"}]},{"lat":"37.48481895","long":"126.79094151","imageIndex":17,"items":[{"name":"부천가전가구","tel":"032-347-0852","addr":"경기도 부천시 소사동 8-32번지 1층","indutype":"전기제품 - 가전제품","category":"other"}]},{"lat":"37.483926522","long":"126.79577185","imageIndex":17,"items":[{"name":"부천유리","tel":"032-347-5280","addr":"경기도 부천시 소사동 42-24번지","indutype":"건축자재 - 유리","category":"other"}]},{"lat":"37.48415579","long":"126.79807772","imageIndex":17,"items":[{"name":"삼풍에너지","tel":"032-351-9201","addr":"경기도 부천시 소사동 36-2번지 성수빌라 1층 102호","indutype":"전기제품 - 냉열기기","category":"other"}]},{"lat":"37.486150809","long":"126.79004452","imageIndex":17,"items":[{"name":"서진티에스","tel":"032-111-1111","addr":"경기도 부천시 소사동 6-1번지 1층","indutype":"건축자재 - 기타건축자재","category":"other"}]},{"lat":"37.484067275","long":"126.79899377","imageIndex":17,"items":[{"name":"선경부동산","tel":"032-349-9044","addr":"경기도 부천시 소사동 36-32","indutype":"용역 서비스 - 부동산 중개·임대","category":"other"}]},{"lat":"37.484453841","long":"126.79849524","imageIndex":17,"items":[{"name":"성가꽃화원","tel":"032-347-3983","addr":"경기도 부천시 소사동 36-40번지 오성빌라","indutype":"문화.취미 - 화원","category":"other"}]},{"lat":"37.484795192","long":"126.79277323","imageIndex":17,"items":[{"name":"성가상회","tel":"032-347-0563","addr":"경기도 부천시 소사동 17-7번지","indutype":"의류 - 내의판매","category":"other"}]},{"lat":"37.483815218","long":"126.79396314","imageIndex":17,"items":[{"name":"성가애견마을","tel":"032-673-8566","addr":"경기도 부천시 소사동 44-11번지","indutype":"문화.취미 - 애완동물","category":"other"}]},{"lat":"37.482988858","long":"126.79541263","imageIndex":17,"items":[{"name":"성인꽃화원","tel":"032-348-9392","addr":"경기도 부천시 소사동 43-38번지","indutype":"문화.취미 - 화원","category":"other"}]},{"lat":"37.484294657","long":"126.79504722","imageIndex":17,"items":[{"name":"성호타일","tel":"032-341-1233","addr":"경기도 부천시 소사동 19-2번지 진성아트빌 1층 102호","indutype":"건축자재 - 건축용 요업제품","category":"other"},{"name":"우진중고가구","tel":"032-215-5127","addr":"경기도 부천시 소사동 19-2번지 진성아트빌 101호","indutype":"가구 - 일반가구","category":"other"}]},{"lat":"37.48306467","long":"126.7975493","imageIndex":17,"items":[{"name":"소사의류수선","tel":"032-341-5990","addr":"경기도 부천시 소사동 40-21번지","indutype":"수리서비스 - 세탁소","category":"other"}]},{"lat":"37.484488764","long":"126.79785068","imageIndex":17,"items":[{"name":"수정세탁소","tel":"032-341-7567","addr":"경기도 부천시 소사동 36번지 1층","indutype":"수리서비스 - 세탁소","category":"other"}]},{"lat":"37.483787773","long":"126.79888147","imageIndex":17,"items":[{"name":"쉐이프(Shapes)","tel":"032-349-3477","addr":"경기도 부천시 소사동 37-23번지 4층","indutype":"용역 서비스 - 기타용역서비스","category":"other"},{"name":"프리사인","tel":"070-7699-2367","addr":"경기도 부천시 소사동 37-23번지 1층","indutype":"건축자재 - 인테리어전문","category":"other"}]},{"lat":"37.485377847","long":"126.79109822","imageIndex":17,"items":[{"name":"시대만물가구","tel":"032-346-6780","addr":"경기도 부천시 소사동 8-231F","indutype":"수리서비스 - 기타수리서비스","category":"other"}]},{"lat":"37.486376565","long":"126.79032655","imageIndex":17,"items":[{"name":"신광타올부천대리점","tel":"032-344-6644","addr":"경기도 부천시 소사동 5-16번지","indutype":"직물 - 옷감·직물","category":"other"}]},{"lat":"37.484570628","long":"126.79315828","imageIndex":17,"items":[{"name":"신발상설매장","tel":"032-348-1290","addr":"경기도 부천시 소사동 17-9번지","indutype":"신변잡화 - 신발","category":"other"},{"name":"주주유통","tel":"032-666-5033","addr":"경기도 부천시 소사동 17-9번지 1층 좌측에서 2번째 점포 1칸","indutype":"주방용구 - 주방용구","category":"other"}]},{"lat":"37.483647691","long":"126.79604397","imageIndex":17,"items":[{"name":"씨드윈","tel":"032-662-5549","addr":"경기도 부천시 소사동 42-13번지","indutype":"신변잡화 - 기타잡화","category":"other"}]},{"lat":"37.484260759","long":"126.7962684","imageIndex":17,"items":[{"name":"씨유부천소사역점","tel":"080-080-3663","addr":"경기도 부천시 소사동 26-25번지 대흥센스빌 1층 101호","indutype":"유통업 영리 - 편 의 점","category":"other"}]},{"lat":"37.485263063","long":"126.79241011","imageIndex":17,"items":[{"name":"아름토탈패숀","tel":"032-346-6958","addr":"경기도 부천시 소사동 9-12번지","indutype":"의류 - 정장","category":"other"}]},{"lat":"37.485598598","long":"126.79363028","imageIndex":17,"items":[{"name":"아코시스템","tel":"032-341-0667","addr":"경기도 부천시 소사동 15-32번지","indutype":"레져용품 - 음반/영상물","category":"other"}]},{"lat":"37.485017269","long":"126.79099748","imageIndex":17,"items":[{"name":"아쿠아aps","tel":"","addr":"경기도 부천시 소사동 8-5번지 선일빌라 303호","indutype":"회원제형태 - 기타3","category":"other"}]},{"lat":"37.483904297","long":"126.79338627","imageIndex":17,"items":[{"name":"에스엠텔레콤","tel":"032-212-6935","addr":"경기도 부천시 소사동 44번지 1호","indutype":"사무통신 - 통신기기","category":"other"}]},{"lat":"37.485959694","long":"126.79402501","imageIndex":17,"items":[{"name":"엘이디스쿨","tel":"032-349-4492","addr":"경기도 부천시 소사동 13-32번지 대삭빌딩 3층","indutype":"회원제형태 - 기타4","category":"other"}]},{"lat":"37.485568754","long":"126.79204744","imageIndex":17,"items":[{"name":"여자향기","tel":"032-212-2555","addr":"경기도 부천시 소사동 9-32번지 1층","indutype":"의류 - 정장","category":"other"}]},{"lat":"37.485731234","long":"126.79221658","imageIndex":17,"items":[{"name":"예쁜언니들 샵","tel":"032-348-7942","addr":"경기도 부천시 소사동 16-24번지 1층","indutype":"의류 - 정장","category":"other"}]},{"lat":"37.483953056","long":"126.79548911","imageIndex":17,"items":[{"name":"예인인테리어건축설비","tel":"032-666-7676","addr":"경기도 부천시 소사동 42-22번지 지층","indutype":"건축자재 - 인테리어전문","category":"other"}]},{"lat":"37.486042894","long":"126.79015789","imageIndex":17,"items":[{"name":"욕실홈데코","tel":"","addr":"경기도 부천시 소사동 6-4번지","indutype":"건축자재 - 인테리어전문","category":"other"}]},{"lat":"37.48503618","long":"126.79149492","imageIndex":17,"items":[{"name":"용운상사","tel":"02-854-4353","addr":"경기도 부천시 소사동 8-16번지","indutype":"신변잡화 - 기타잡화","category":"other"}]},{"lat":"37.484961401","long":"126.78999136","imageIndex":17,"items":[{"name":"우드 스토리","tel":"032-351-9963","addr":"경기도 부천시 소사동 7-14번지 1층 1호","indutype":"건축자재 - 목재·석재·철물","category":"other"}]},{"lat":"37.484848446","long":"126.79232082","imageIndex":17,"items":[{"name":"위드패션","tel":"032-342-9994","addr":"경기도 부천시 소사동 17-15번지 뉴월드하이빌 102. 103호","indutype":"의류 - 정장","category":"other"}]},{"lat":"37.484489037","long":"126.79287584","imageIndex":17,"items":[{"name":"이어폰뱅크(Ear phonebank)","tel":"02-1644-8902","addr":"경기도 부천시 소사동 17-12번지 1층","indutype":"사무통신 - 통신기기","category":"other"}]},{"lat":"37.485038258","long":"126.79265948","imageIndex":17,"items":[{"name":"장터상설매장","tel":"032-349-1103","addr":"경기도 부천시 소사동 17-5번지","indutype":"신변잡화 - 기타잡화","category":"other"}]},{"lat":"37.484012756","long":"126.79357817","imageIndex":17,"items":[{"name":"전자프라자","tel":"032-653-8804","addr":"경기도 부천시 소사동 44-4번지","indutype":"전기제품 - 가전제품","category":"other"}]},{"lat":"37.485989038","long":"126.79027111","imageIndex":17,"items":[{"name":"젠스포츠","tel":"032-348-0697","addr":"경기도 부천시 소사동 6-5번지","indutype":"레져용품 - 스포츠·레져용품","category":"other"}]},{"lat":"37.483821502","long":"126.79754723","imageIndex":17,"items":[{"name":"조은씽크","tel":"02-2616-9934","addr":"경기도 부천시 소사동 41-22번지 1층 점포및지하실","indutype":"주방용구 - 주방용구","category":"other"},{"name":"희경","tel":"032-342-0950","addr":"경기도 부천시 소사동 41-22번지","indutype":"신변잡화 - 가방","category":"other"}]},{"lat":"37.484536809","long":"126.79441339","imageIndex":17,"items":[{"name":"종합철거공사","tel":"032-343-1415","addr":"경기도 부천시 소사동 19-10번지 205호 일부","indutype":"용역 서비스 - 사무서비스","category":"other"}]},{"lat":"37.484870215","long":"126.79443507","imageIndex":17,"items":[{"name":"주원","tel":"070-7370-2761","addr":"경기도 부천시 소사동 22-8번지 신한빌라트 404호","indutype":"회원제형태 - 기타4","category":"other"}]},{"lat":"37.486044052","long":"126.79080237","imageIndex":17,"items":[{"name":"중앙자전거할인매장","tel":"032-349-9418","addr":"경기도 부천시 소사동 5-3번지","indutype":"레져용품 - 스포츠·레져용품","category":"other"}]},{"lat":"37.484453358","long":"126.79307946","imageIndex":17,"items":[{"name":"찬비텔레콤","tel":"032-348-4011","addr":"경기도 부천시 소사동 17-11번지 1층","indutype":"사무통신 - 통신기기","category":"other"}]},{"lat":"37.485100139","long":"126.79199222","imageIndex":17,"items":[{"name":"최박사명품구제","tel":"032-349-0088","addr":"경기도 부천시 소사동 9-15번지 1층","indutype":"의류 - 기타의류","category":"other"},{"name":"화이트사인","tel":"032-344-7423","addr":"경기도 부천시 소사동 9-15번지","indutype":"용역 서비스 - 종합용역","category":"other"}]},{"lat":"37.484898054","long":"126.80007694","imageIndex":17,"items":[{"name":"캐슬미디어","tel":"032-111-1111","addr":"경기도 부천시 소사동 35-16번지 정화빌라 102동 301호","indutype":"용역 서비스 - 종합용역","category":"other"}]},{"lat":"37.4837073","long":"126.7940765","imageIndex":17,"items":[{"name":"크로커다일부천소사점","tel":"032-349-8568","addr":"경기도 부천시 소사동 44-25번지","indutype":"의류 - 정장","category":"other"}]},{"lat":"37.484770184","long":"126.79907101","imageIndex":17,"items":[{"name":"크린스토리","tel":"032-345-9586","addr":"경기도 부천시 소사동 33-5번지 하이트맨션 가동 101호","indutype":"용역 서비스 - 종합용역","category":"other"}]},{"lat":"37.485236617","long":"126.79273807","imageIndex":17,"items":[{"name":"크린토피아","tel":"032-349-5952","addr":"경기도 부천시 소사동 16-18번지","indutype":"수리서비스 - 세탁소","category":"other"}]},{"lat":"37.483822855","long":"126.79832736","imageIndex":17,"items":[{"name":"태승기계","tel":"032-000-0000","addr":"경기도 부천시 소사동 37-14번지 1층 일부","indutype":"기타 - 기계공구","category":"other"}]},{"lat":"37.484293681","long":"126.79449321","imageIndex":17,"items":[{"name":"태영한중여행사","tel":"032-341-5188","addr":"경기도 부천시 소사동 19-15번지","indutype":"여행 - 관광여행","category":"other"},{"name":"현대지물포","tel":"032-348-7576","addr":"경기도 부천시 소사동 19-15번지","indutype":"직물 - 카페트,커튼,천막,지물","category":"other"},{"name":"휴전기조명","tel":"032-343-3450","addr":"경기도 부천시 소사동 19-15번지 1층","indutype":"건축자재 - 조명기구","category":"other"}]},{"lat":"37.484293382","long":"126.79432361","imageIndex":17,"items":[{"name":"폰마트","tel":"031-341-3466","addr":"경기도 부천시 소사동 19-17번지 1층","indutype":"사무통신 - 통신기기","category":"other"}]},{"lat":"37.485599238","long":"126.79399209","imageIndex":17,"items":[{"name":"푸른낚시","tel":"032-351-5880","addr":"경기도 부천시 소사동 22-38번지 상원빌딩 1층","indutype":"레져용품 - 스포츠·레져용품","category":"other"}]},{"lat":"37.486484439","long":"126.79019056","imageIndex":17,"items":[{"name":"플라워 오브 아리엘","tel":"032-351-9131","addr":"경기도 부천시 소사동 5-15번지 1층","indutype":"문화.취미 - 화원","category":"other"}]},{"lat":"37.483986067","long":"126.79377045","imageIndex":17,"items":[{"name":"피닉스텔레콤","tel":"032-344-9958","addr":"경기도 부천시 소사동 44-6번지 1층","indutype":"사무통신 - 통신기기","category":"other"}]},{"lat":"37.483096619","long":"126.79520882","imageIndex":17,"items":[{"name":"피에이지","tel":"02-000-0000","addr":"경기도 부천시 소사동 43-35번지 3층","indutype":"의류 - 내의판매","category":"other"}]},{"lat":"37.484542754","long":"126.79268348","imageIndex":17,"items":[{"name":"하카전자담배 부천점","tel":"032-471-0377","addr":"경기도 부천시 소사동 17-13번지 옹진수산업협동조합 102호","indutype":"기타 - 기타 전문점","category":"other"}]},{"lat":"37.483459175","long":"126.79644021","imageIndex":17,"items":[{"name":"한국난방에너지","tel":"032-345-0455","addr":"경기도 부천시 소사동 40번지 1층 1부","indutype":"용역 서비스 - 기타용역서비스","category":"other"}]},{"lat":"37.485954136","long":"126.79090438","imageIndex":17,"items":[{"name":"한국화원","tel":"032-344-6868","addr":"경기도 부천시 소사동 5-5번지 1층","indutype":"문화.취미 - 화원","category":"other"},{"name":"한국화원","tel":"032-344-6868","addr":"경기도 부천시 소사동 5-5번지 1층 일부","indutype":"문화.취미 - 화원","category":"other"}]},{"lat":"37.48384664","long":"126.79646175","imageIndex":17,"items":[{"name":"한일공업사","tel":"032-348-3426","addr":"경기도 부천시 소사동 41번지","indutype":"용역 서비스 - 기타용역서비스","category":"other"}]},{"lat":"37.485738446","long":"126.79121027","imageIndex":17,"items":[{"name":"함초롬플라워","tel":"032-323-2820","addr":"경기도 부천시 소사동 5-49번지","indutype":"문화.취미 - 화원","category":"other"}]},{"lat":"37.484649199","long":"126.79174475","imageIndex":17,"items":[{"name":"현대가구백화점","tel":"032-346-9842","addr":"경기도 부천시 소사동 8-23번지","indutype":"가구 - 일반가구","category":"other"}]},{"lat":"37.484765337","long":"126.7911904","imageIndex":17,"items":[{"name":"현대쇼파","tel":"032-344-5998","addr":"경기도 부천시 소사동 8-30번지","indutype":"수리서비스 - 가정용품수리","category":"other"}]},{"lat":"37.48529368","long":"126.7944339","imageIndex":16,"items":[{"name":"경기항공직업전문학교","tel":"032-341-3900","addr":"경기도 부천시 소사동 22-1번지 2,3,4층","indutype":"학원 - 기능학원","category":"study"}]},{"lat":"37.486258683","long":"126.78990853","imageIndex":16,"items":[{"name":"김수영보습학원","tel":"032-348-7492","addr":"경기도 부천시 소사동 6번지 2층","indutype":"학원 - 보습학원","category":"study"}]},{"lat":"37.486484439","long":"126.79019056","imageIndex":16,"items":[{"name":"으뜸국어보습학원","tel":"032-349-1195","addr":"경기도 부천시 소사동 5-15번지 3층","indutype":"학원 - 보습학원","category":"study"},{"name":"중앙에듀 보습학원","tel":"032-345-9070","addr":"경기도 부천시 소사동 5-15번지 2층","indutype":"학원 - 보습학원","category":"study"}]},{"lat":"37.484626009","long":"126.79390435","imageIndex":16,"items":[{"name":"장원교육 부천원미지점","tel":"032-223-0979","addr":"경기도 부천시 소사동 18-32번지 3층","indutype":"학원 - 학습지 교육","category":"study"}]},{"lat":"37.485731234","long":"126.79221658","imageIndex":16,"items":[{"name":"해밀교육연구소","tel":"032-684-6670","addr":"경기도 부천시 소사동 16-24번지","indutype":"학원 - 기타 교육기관","category":"study"}]},{"lat":"37.485566609","long":"126.79084894","imageIndex":4,"items":[{"name":"공주커피맥주","tel":"032-342-0709","addr":"경기도 부천시 소사동 6-27번지 지하1층","indutype":"일반휴게음식 - 서양음식","category":"restaurant"},{"name":"이디야커피 (부천성모병원)","tel":"031-345-9690","addr":"경기도 부천시 소사동 6-27번지 1층","indutype":"일반휴게음식 - 서양음식","category":"restaurant"}]},{"lat":"37.485621722","long":"126.79143673","imageIndex":4,"items":[{"name":"교동갈비탕","tel":"032-345-8142","addr":"경기도 부천시 소사동 9-22번지 1층","indutype":"일반휴게음식 - 일반한식","category":"restaurant"},{"name":"병천토속순대","tel":"032-345-2883","addr":"경기도 부천시 소사동 9-22번지 1층","indutype":"일반휴게음식 - 일반한식","category":"restaurant"}]},{"lat":"37.48442677","long":"126.79332827","imageIndex":4,"items":[{"name":"구수한통닭","tel":"032-345-9870","addr":"경기도 부천시 소사동 17-10번지 1층 일부","indutype":"일반휴게음식 - 일반한식","category":"restaurant"}]},{"lat":"37.485791267","long":"126.79052042","imageIndex":4,"items":[{"name":"굽모닝숯불바베큐","tel":"032-342-5292","addr":"경기도 부천시 소사동 6-16번지 1층","indutype":"일반휴게음식 - 일반한식","category":"restaurant"},{"name":"피자상회","tel":"032-342-7857","addr":"경기도 부천시 소사동 6-16번지 1층","indutype":"일반휴게음식 - 서양음식","category":"restaurant"}]},{"lat":"37.485900239","long":"126.79099499","imageIndex":4,"items":[{"name":"남원골추어탕","tel":"032--341-5600","addr":"경기도 부천시 소사동 5-8번지 1층","indutype":"일반휴게음식 - 일반한식","category":"restaurant"}]},{"lat":"37.483597117","long":"126.79291226","imageIndex":4,"items":[{"name":"넌보쌈(!)난삼합(?)","tel":"032-347-5353","addr":"경기도 부천시 소사동 48-21번지 1층","indutype":"일반휴게음식 - 일반한식","category":"restaurant"}]},{"lat":"37.485677276","long":"126.79227327","imageIndex":4,"items":[{"name":"다누리","tel":"032-342-3688","addr":"경기도 부천시 소사동 16-23번지 1층 일부","indutype":"일반휴게음식 - 일반한식","category":"restaurant"}]},{"lat":"37.48509286","long":"126.79296461","imageIndex":4,"items":[{"name":"대박만두","tel":"","addr":"경기도 부천시 소사동 16-9번지 1층","indutype":"일반휴게음식 - 일반한식","category":"restaurant"},{"name":"별난만두","tel":"032-461-3431","addr":"경기도 부천시 소사동 16-9번지","indutype":"일반휴게음식 - 스넥","category":"restaurant"},{"name":"수산시장","tel":"032-345-3537","addr":"경기도 부천시 소사동 16-9번지 1층","indutype":"일반휴게음식 - 일식·회집","category":"restaurant"}]},{"lat":"37.484453358","long":"126.79307946","imageIndex":4,"items":[{"name":"더데이지","tel":"032-349-8761","addr":"경기도 부천시 소사동 17-11번지 1층","indutype":"일반휴게음식 - 서양음식","category":"restaurant"}]},{"lat":"37.486376565","long":"126.79032655","imageIndex":4,"items":[{"name":"더큰도시락","tel":"032-344-9326","addr":"경기도 부천시 소사동 5-16번지 1층","indutype":"일반휴게음식 - 일반한식","category":"restaurant"},{"name":"엄마손김밥","tel":"032-201-1827","addr":"경기도 부천시 소사동 5-16번지 1층","indutype":"일반휴게음식 - 스넥","category":"restaurant"}]},{"lat":"37.484315975","long":"126.79182483","imageIndex":4,"items":[{"name":"도미노피자 소사역곡점","tel":"032-342-3082","addr":"경기도 부천시 소사동 46-8번지 1층","indutype":"일반휴게음식 - 서양음식","category":"restaurant"}]},{"lat":"37.486484439","long":"126.79019056","imageIndex":4,"items":[{"name":"돈토랑","tel":"032-345-8421","addr":"경기도 부천시 소사동 5-15번지","indutype":"일반휴게음식 - 일반한식","category":"restaurant"}]},{"lat":"37.48570366","long":"126.79191138","imageIndex":4,"items":[{"name":"또모찌","tel":"032-341-5700","addr":"경기도 부천시 소사동 9-1번지 1층","indutype":"일반휴게음식 - 서양음식","category":"restaurant"},{"name":"바지락손칼국수","tel":"032-341-4125","addr":"경기도 부천시 소사동 9-1번지","indutype":"일반휴게음식 - 일반한식","category":"restaurant"},{"name":"죽이야기","tel":"032-347-0386","addr":"경기도 부천시 소사동 9-1번지","indutype":"일반휴게음식 - 일반한식","category":"restaurant"}]},{"lat":"37.485155728","long":"126.79285136","imageIndex":4,"items":[{"name":"마부마라탕","tel":"","addr":"경기도 부천시 소사동 16-10번지","indutype":"일반휴게음식 - 스넥","category":"restaurant"}]},{"lat":"37.484570628","long":"126.79315828","imageIndex":4,"items":[{"name":"만나빈대떡","tel":"032-342-0907","addr":"경기도 부천시 소사동 17-9번지","indutype":"일반휴게음식 - 일반한식","category":"restaurant"}]},{"lat":"37.486286669","long":"126.79043987","imageIndex":4,"items":[{"name":"맘스터치 소명점","tel":"032-351-0285","addr":"경기도 부천시 소사동 5-17번지 조양빌딩 1층","indutype":"일반휴게음식 - 서양음식","category":"restaurant"},{"name":"신흥양꼬치","tel":"032-236-1705","addr":"경기도 부천시 소사동 5-17번지 조양빌딩 1층 일부","indutype":"일반휴게음식 - 일반한식","category":"restaurant"}]},{"lat":"37.484155871","long":"126.79298984","imageIndex":4,"items":[{"name":"맥심다방","tel":"032-341-9953","addr":"경기도 부천시 소사동 45-14번지","indutype":"일반휴게음식 - 서양음식","category":"restaurant"},{"name":"자매영양탕","tel":"070-7313-8721","addr":"경기도 부천시 소사동 45-14번지 103호","indutype":"일반휴게음식 - 일반한식","category":"restaurant"}]},{"lat":"37.484760076","long":"126.79329342","imageIndex":4,"items":[{"name":"머슴생고기","tel":"032-344-9704","addr":"경기도 부천시 소사동 18-24번지 101호","indutype":"일반휴게음식 - 일반한식","category":"restaurant"}]},{"lat":"37.484294657","long":"126.79504722","imageIndex":4,"items":[{"name":"멀뫼식당","tel":"070-7340-2714","addr":"경기도 부천시 소사동 19-2번지 진성아트빌 102호","indutype":"일반휴게음식 - 일반한식","category":"restaurant"}]},{"lat":"37.484536809","long":"126.79441339","imageIndex":4,"items":[{"name":"미당골뼈다귀","tel":"032-351-0183","addr":"경기도 부천시 소사동 19-10번지 1층","indutype":"일반휴게음식 - 일반한식","category":"restaurant"},{"name":"옛날장터치킨","tel":"032-344-1999","addr":"경기도 부천시 소사동 19-10번지 1층","indutype":"일반휴게음식 - 일반한식","category":"restaurant"}]},{"lat":"37.4837073","long":"126.7940765","imageIndex":4,"items":[{"name":"미친양꼬치","tel":"032-345-7818","addr":"경기도 부천시 소사동 44-25번지 1층","indutype":"일반휴게음식 - 중국식","category":"restaurant"}]},{"lat":"37.485038258","long":"126.79265948","imageIndex":4,"items":[{"name":"민트핫도그","tel":"","addr":"경기도 부천시 소사동 17-5번지 1층 3호","indutype":"일반휴게음식 - 일반한식","category":"restaurant"}]},{"lat":"37.485900624","long":"126.79120981","imageIndex":4,"items":[{"name":"백세한방삼계탕","tel":"032-344-6800","addr":"경기도 부천시 소사동 5-11번지 1층","indutype":"일반휴게음식 - 일반한식","category":"restaurant"}]},{"lat":"37.483375548","long":"126.79499323","imageIndex":4,"items":[{"name":"베이크스토리 소사점","tel":"032-0347-3290","addr":"경기도 부천시 소사동 43-51번지 서해선소사 상가-02호","indutype":"일반휴게음식 - 서양음식","category":"restaurant"}]},{"lat":"37.484039345","long":"126.79332936","imageIndex":4,"items":[{"name":"별지기","tel":"032-1111-1111","addr":"경기도 부천시 소사동 44번지","indutype":"일반휴게음식 - 주점","category":"restaurant"}]},{"lat":"37.485820587","long":"126.79179798","imageIndex":4,"items":[{"name":"본죽성모병원점","tel":"032-348-6288","addr":"경기도 부천시 소사동 9번지 2층","indutype":"일반휴게음식 - 일반한식","category":"restaurant"}]},{"lat":"37.48668229","long":"126.78998648","imageIndex":4,"items":[{"name":"봉구스밥버거","tel":"032-345-1490","addr":"경기도 부천시 소사동 3-19번지 1층","indutype":"일반휴게음식 - 일반한식","category":"restaurant"}]},{"lat":"37.485676085","long":"126.79160618","imageIndex":4,"items":[{"name":"부자설렁탕","tel":"032-347-0336","addr":"경기도 부천시 소사동 9-24번지","indutype":"일반휴게음식 - 일반한식","category":"restaurant"}]},{"lat":"37.485819697","long":"126.7913005","imageIndex":4,"items":[{"name":"불짬뽕","tel":"032-348-8440","addr":"경기도 부천시 소사동 5-48번지 1층","indutype":"일반휴게음식 - 중국식","category":"restaurant"},{"name":"카페홀릭 부천성모병원점","tel":"032-201-2345","addr":"경기도 부천시 소사동 5-48번지 1층 일부","indutype":"일반휴게음식 - 서양음식","category":"restaurant"},{"name":"황금죽","tel":"032-341-1044","addr":"경기도 부천시 소사동 5-48번지 1층","indutype":"일반휴게음식 - 스넥","category":"restaurant"}]},{"lat":"37.483815218","long":"126.79396314","imageIndex":4,"items":[{"name":"사거리보리밥","tel":"070-4042-7561","addr":"경기도 부천시 소사동 44-11번지","indutype":"일반휴게음식 - 일반한식","category":"restaurant"},{"name":"유니의부엌","tel":"032-341-0800","addr":"경기도 부천시 소사동 44-11번지 1층일부","indutype":"일반휴게음식 - 일반한식","category":"restaurant"}]},{"lat":"37.486980431","long":"126.7904379","imageIndex":4,"items":[{"name":"사보","tel":"032-344-3870","addr":"경기도 부천시 소사동 3-23번지","indutype":"일반휴게음식 - 일반한식","category":"restaurant"}]},{"lat":"37.484652158","long":"126.79340679","imageIndex":4,"items":[{"name":"삼미정","tel":"032-344-3220","addr":"경기도 부천시 소사동 18-25번지","indutype":"일반휴게음식 - 일반한식","category":"restaurant"}]},{"lat":"37.485317021","long":"126.79235342","imageIndex":4,"items":[{"name":"소명부대백반","tel":"032-344-9118","addr":"경기도 부천시 소사동 9-11번지 1층","indutype":"일반휴게음식 - 일반한식","category":"restaurant"}]},{"lat":"37.485100139","long":"126.79199222","imageIndex":4,"items":[{"name":"소사동사람들","tel":"","addr":"경기도 부천시 소사동 9-15번지 1층","indutype":"일반휴게음식 - 주점","category":"restaurant"},{"name":"황토골","tel":"032-344-9160","addr":"경기도 부천시 소사동 9-15번지","indutype":"일반휴게음식 - 일반한식","category":"restaurant"}]},{"lat":"37.485928099","long":"126.79145848","imageIndex":4,"items":[{"name":"소사옥","tel":"032-216-2004","addr":"경기도 부천시 소사동 5-43번지 1층","indutype":"일반휴게음식 - 일반한식","category":"restaurant"}]},{"lat":"37.486124938","long":"126.79068907","imageIndex":4,"items":[{"name":"손가네숯불갈비","tel":"032-349-4990","addr":"경기도 부천시 소사동 5-39번지","indutype":"일반휴게음식 - 일반한식","category":"restaurant"}]},{"lat":"37.485263063","long":"126.79241011","imageIndex":4,"items":[{"name":"손마루","tel":"032-342-0090","addr":"경기도 부천시 소사동 9-12번지","indutype":"일반휴게음식 - 스넥","category":"restaurant"}]},{"lat":"37.482989671","long":"126.79587619","imageIndex":4,"items":[{"name":"송이식당","tel":"032-348-6090","addr":"경기도 부천시 소사동 43-42번지 1층 일부","indutype":"일반휴게음식 - 일반한식","category":"restaurant"},{"name":"옛장터","tel":"032-345-7810","addr":"경기도 부천시 소사동 43-42","indutype":"일반휴게음식 - 일반한식","category":"restaurant"},{"name":"주먹고기","tel":"032-346-3155","addr":"경기도 부천시 소사동 43-42번지","indutype":"일반휴게음식 - 일반한식","category":"restaurant"}]},{"lat":"37.485738446","long":"126.79121027","imageIndex":4,"items":[{"name":"스마일","tel":"","addr":"경기도 부천시 소사동 5-49번지 2층","indutype":"일반휴게음식 - 주점","category":"restaurant"},{"name":"커피에반하다","tel":"","addr":"경기도 부천시 소사동 5-49번지 1층","indutype":"일반휴게음식 - 서양음식","category":"restaurant"}]},{"lat":"37.48362641","long":"126.79418979","imageIndex":4,"items":[{"name":"신마포갈매기","tel":"","addr":"경기도 부천시 소사동 44-53번지 1층","indutype":"일반휴게음식 - 일반한식","category":"restaurant"}]},{"lat":"37.485294625","long":"126.78991127","imageIndex":4,"items":[{"name":"실내마차","tel":"032-346-5551","addr":"경기도 부천시 소사동 7-17번지 1층","indutype":"일반휴게음식 - 주점","category":"restaurant"}]},{"lat":"37.48429416","long":"126.79476456","imageIndex":4,"items":[{"name":"쑤니비어","tel":"032-111-1111","addr":"경기도 부천시 소사동 19-5번지 1층","indutype":"일반휴게음식 - 주점","category":"restaurant"}]},{"lat":"37.483509461","long":"126.79429187","imageIndex":4,"items":[{"name":"앵두","tel":"070-7315-5650","addr":"경기도 부천시 소사동 44-51번지 광명빌딩 지하1층","indutype":"일반휴게음식 - 주점","category":"restaurant"}]},{"lat":"37.484489037","long":"126.79287584","imageIndex":4,"items":[{"name":"여우호프","tel":"032-662-1741","addr":"경기도 부천시 소사동 17-12번지","indutype":"일반휴게음식 - 주점","category":"restaurant"},{"name":"이가네맛집","tel":"","addr":"경기도 부천시 소사동 17-12번지 1층","indutype":"일반휴게음식 - 일반한식","category":"restaurant"}]},{"lat":"37.483260225","long":"126.79602242","imageIndex":4,"items":[{"name":"역전다방","tel":"032-345-3367","addr":"경기도 부천시 소사동 43-29번지 4층","indutype":"일반휴게음식 - 서양음식","category":"restaurant"}]},{"lat":"37.483872938","long":"126.79604335","imageIndex":4,"items":[{"name":"역전할머니맥주 (소사점)","tel":"032-341-7624","addr":"경기도 부천시 소사동 42-6번지 스카이포인트아파트 102호","indutype":"일반휴게음식 - 주점","category":"restaurant"},{"name":"휘카페 소사직영점","tel":"","addr":"경기도 부천시 소사동 42-6번지 스카이포인트아파트 103호","indutype":"일반휴게음식 - 서양음식","category":"restaurant"}]},{"lat":"37.48357177","long":"126.79901773","imageIndex":4,"items":[{"name":"예찬돌솥추어탕","tel":"032-349-6435","addr":"경기도 부천시 소사동 37-52번지 지하","indutype":"일반휴게음식 - 일반한식","category":"restaurant"}]},{"lat":"37.485899183","long":"126.79040705","imageIndex":4,"items":[{"name":"옛촌","tel":"032-342-8777","addr":"경기도 부천시 소사동 6-15번지 1층","indutype":"일반휴게음식 - 중국식","category":"restaurant"}]},{"lat":"37.483903795","long":"126.79310361","imageIndex":4,"items":[{"name":"우리포차","tel":"032-348-1291","addr":"경기도 부천시 소사동 48번지 1층","indutype":"일반휴게음식 - 주점","category":"restaurant"}]},{"lat":"37.484903994","long":"126.79315734","imageIndex":4,"items":[{"name":"이가김밥","tel":"032-341-0405","addr":"경기도 부천시 소사동 18-37번지 1층 일부","indutype":"일반휴게음식 - 스넥","category":"restaurant"}]},{"lat":"37.485232796","long":"126.79060114","imageIndex":4,"items":[{"name":"이야기쇼","tel":"032-347-0306","addr":"경기도 부천시 소사동 7-1번지","indutype":"일반휴게음식 - 주점","category":"restaurant"}]},{"lat":"37.485568754","long":"126.79204744","imageIndex":4,"items":[{"name":"자매분식","tel":"032-344-9898","addr":"경기도 부천시 소사동 9-32번지","indutype":"일반휴게음식 - 스넥","category":"restaurant"}]},{"lat":"37.485954136","long":"126.79090438","imageIndex":4,"items":[{"name":"정통중화짜장","tel":"032-347-1328","addr":"경기도 부천시 소사동 5-5번지","indutype":"일반휴게음식 - 중국식","category":"restaurant"}]},{"lat":"37.484373452","long":"126.79374676","imageIndex":4,"items":[{"name":"제비가물고온박씨네숯불갈비","tel":"032-348-2001","addr":"경기도 부천시 소사동 18-28번지 이화연립 2층 1호","indutype":"일반휴게음식 - 일반한식","category":"restaurant"}]},{"lat":"37.485068333","long":"126.79437799","imageIndex":4,"items":[{"name":"제육혁명(소사점)","tel":"032-652-0606","addr":"경기도 부천시 소사동 22-6번지 1층 일부","indutype":"일반휴게음식 - 일반한식","category":"restaurant"}]},{"lat":"37.48476647","long":"126.79182356","imageIndex":4,"items":[{"name":"집밥권선생","tel":"032-341-5570","addr":"경기도 부천시 소사동 8-21번지 1층","indutype":"일반휴게음식 - 일반한식","category":"restaurant"}]},{"lat":"37.483096619","long":"126.79520882","imageIndex":4,"items":[{"name":"카페(CAFE)3번출구","tel":"","addr":"경기도 부천시 소사동 43-35번지 ,1,2층","indutype":"일반휴게음식 - 서양음식","category":"restaurant"}]},{"lat":"37.486817744","long":"126.79015569","imageIndex":4,"items":[{"name":"카페뚜루","tel":"032-345-8687","addr":"경기도 부천시 소사동 3-15번지 1층 일부","indutype":"일반휴게음식 - 서양음식","category":"restaurant"},{"name":"케이엘푸드","tel":"031-341-8243","addr":"경기도 부천시 소사동 3-15번지 1층","indutype":"일반휴게음식 - 일반한식","category":"restaurant"}]},{"lat":"37.486044052","long":"126.79080237","imageIndex":4,"items":[{"name":"카페오브젝트","tel":"032-349-9418","addr":"경기도 부천시 소사동 5-3번지 1층","indutype":"일반휴게음식 - 서양음식","category":"restaurant"}]},{"lat":"37.484848446","long":"126.79232082","imageIndex":4,"items":[{"name":"퀸램양꼬치","tel":"032-111-1111","addr":"경기도 부천시 소사동 17-15번지 뉴월드하이빌 1층","indutype":"일반휴게음식 - 일반한식","category":"restaurant"}]},{"lat":"37.484012756","long":"126.79357817","imageIndex":4,"items":[{"name":"탕가네생고기김치찌개(소사점)","tel":"032-348-5959","addr":"경기도 부천시 소사동 44-4번지","indutype":"일반휴게음식 - 일반한식","category":"restaurant"}]},{"lat":"37.484235834","long":"126.79235646","imageIndex":4,"items":[{"name":"토암골옛날막창","tel":"032-271-0222","addr":"경기도 부천시 소사동 45-1번지 1층","indutype":"일반휴게음식 - 일반한식","category":"restaurant"}]},{"lat":"37.485260881","long":"126.79118901","imageIndex":4,"items":[{"name":"푸짐한밥상","tel":"032-348-2558","addr":"경기도 부천시 소사동 8-2번지 1층","indutype":"일반휴게음식 - 일반한식","category":"restaurant"}]},{"lat":"37.484293382","long":"126.79432361","imageIndex":4,"items":[{"name":"하트호프","tel":"032-664-5208","addr":"경기도 부천시 소사동 19-17번지 지층","indutype":"일반휴게음식 - 주점","category":"restaurant"},{"name":"홍가네양꼬치","tel":"032-349-5886","addr":"경기도 부천시 소사동 19-17번지 2층","indutype":"일반휴게음식 - 일반한식","category":"restaurant"}]},{"lat":"37.484738489","long":"126.79129224","imageIndex":4,"items":[{"name":"한나분식","tel":"032-341-8373","addr":"경기도 부천시 소사동 8-29번지 1층","indutype":"일반휴게음식 - 스넥","category":"restaurant"}]},{"lat":"37.484571269","long":"126.79352008","imageIndex":4,"items":[{"name":"한성양꼬치","tel":"032-715-6252","addr":"경기도 부천시 소사동 18-26번지 1층 일부","indutype":"일반휴게음식 - 중국식","category":"restaurant"}]},{"lat":"37.484957913","long":"126.79307805","imageIndex":4,"items":[{"name":"한손맛국밥전문","tel":"032-433-0766","addr":"경기도 부천시 소사동 18-23번지 1층","indutype":"일반휴게음식 - 일반한식","category":"restaurant"}]},{"lat":"37.483900936","long":"126.79659728","imageIndex":4,"items":[{"name":"해촌","tel":"032-341-7988","addr":"경기도 부천시 소사동 41-25번지 대한정밀 1층","indutype":"일반휴게음식 - 일반한식","category":"restaurant"}]},{"lat":"37.485738446","long":"126.79121027","imageIndex":13,"items":[{"name":"국제의료기","tel":"032-345-8700","addr":"경기도 부천시 소사동 5-49번지","indutype":"보건위생 - 의료용품","category":"beauty"}]},{"lat":"37.484652158","long":"126.79340679","imageIndex":13,"items":[{"name":"나이스안경","tel":"032-259-1002","addr":"경기도 부천시 소사동 18-25번지 1층","indutype":"보건위생 - 안경","category":"beauty"},{"name":"화이트화장품","tel":"032-351-1065","addr":"경기도 부천시 소사동 18-25번지 1층","indutype":"보건위생 - 화장품","category":"beauty"}]},{"lat":"37.48428945","long":"126.79210757","imageIndex":13,"items":[{"name":"남자컷트전문점","tel":"032-347-7081","addr":"경기도 부천시 소사동 46-10번지","indutype":"보건위생 - 미용원","category":"beauty"}]},{"lat":"37.483016165","long":"126.79557085","imageIndex":13,"items":[{"name":"도도헤어","tel":"032-349-3070","addr":"경기도 부천시 소사동 43-39번지 2층","indutype":"보건위생 - 미용원","category":"beauty"}]},{"lat":"37.486565711","long":"126.79029209","imageIndex":13,"items":[{"name":"루다네일","tel":"","addr":"경기도 부천시 소사동 5번지 1층 일부","indutype":"보건위생 - 피부미용실","category":"beauty"}]},{"lat":"37.484565515","long":"126.79029776","imageIndex":13,"items":[{"name":"리프","tel":"","addr":"경기도 부천시 소사동 80-83번지 202호","indutype":"보건위생 - 화장품","category":"beauty"}]},{"lat":"37.484489037","long":"126.79287584","imageIndex":13,"items":[{"name":"말고자르고헤어","tel":"032-343-2020","addr":"경기도 부천시 소사동 17-12번지","indutype":"보건위생 - 미용원","category":"beauty"}]},{"lat":"37.484039345","long":"126.79332936","imageIndex":13,"items":[{"name":"메이리헤어","tel":"032-345-0614","addr":"경기도 부천시 소사동 44번지 1층 2호","indutype":"보건위생 - 미용원","category":"beauty"}]},{"lat":"37.485621722","long":"126.79143673","imageIndex":13,"items":[{"name":"미래플러스","tel":"032-349-9488","addr":"경기도 부천시 소사동 9-22번지 2층","indutype":"보건위생 - 피부미용실","category":"beauty"}]},{"lat":"37.486258683","long":"126.78990853","imageIndex":13,"items":[{"name":"미앤미헤어","tel":"032-345-5953","addr":"경기도 부천시 소사동 6번지 일부 1층","indutype":"보건위생 - 미용원","category":"beauty"}]},{"lat":"37.48415579","long":"126.79807772","imageIndex":13,"items":[{"name":"박소영헤어","tel":"032-342-9675","addr":"경기도 부천시 소사동 36-2번지 성수빌라 101호","indutype":"보건위생 - 미용원","category":"beauty"}]},{"lat":"37.48442677","long":"126.79332827","imageIndex":13,"items":[{"name":"뷰티포유","tel":"032-308-7509","addr":"경기도 부천시 소사동 17-10번지 2층","indutype":"보건위생 - 기타대인서비스","category":"beauty"},{"name":"최남순헤어닥터","tel":"032-347-1611","addr":"경기도 부천시 소사동 17-10번지","indutype":"보건위생 - 미용원","category":"beauty"}]},{"lat":"37.485820587","long":"126.79179798","imageIndex":13,"items":[{"name":"성모녹십자의료기","tel":"032-514-4000","addr":"경기도 부천시 소사동 9번지 1층","indutype":"보건위생 - 의료용품","category":"beauty"}]},{"lat":"37.48668229","long":"126.78998648","imageIndex":13,"items":[{"name":"세익의료기","tel":"032-347-7070","addr":"경기도 부천시 소사동 3-19번지 1층","indutype":"보건위생 - 의료용품","category":"beauty"}]},{"lat":"37.483459175","long":"126.79644021","imageIndex":13,"items":[{"name":"썬헤어","tel":"032-346-8533","addr":"경기도 부천시 소사동 40번지 1층","indutype":"보건위생 - 미용원","category":"beauty"}]},{"lat":"37.485620486","long":"126.79074703","imageIndex":13,"items":[{"name":"안경민국","tel":"070-7379-1001","addr":"경기도 부천시 소사동 6-24번지 서광빌라 1층","indutype":"보건위생 - 안경","category":"beauty"}]},{"lat":"37.484488764","long":"126.79785068","imageIndex":13,"items":[{"name":"엘림미용실","tel":"070-4964-8815","addr":"경기도 부천시 소사동 36번지","indutype":"보건위생 - 미용원","category":"beauty"},{"name":"해피헤어","tel":"032-343-5886","addr":"경기도 부천시 소사동 36번지 1층","indutype":"보건위생 - 미용원","category":"beauty"}]},{"lat":"37.483065004","long":"126.79774151","imageIndex":13,"items":[{"name":"오리엔탈 오라클 타로","tel":"070-5017-5310","addr":"경기도 부천시 소사동 39-12번지 101호","indutype":"보건위생 - 기타대인서비스","category":"beauty"}]},{"lat":"37.4858714","long":"126.78998878","imageIndex":13,"items":[{"name":"옥언니네헤나샵","tel":"","addr":"경기도 부천시 소사동 6-7번지","indutype":"보건위생 - 미용재료","category":"beauty"}]},{"lat":"37.48429416","long":"126.79476456","imageIndex":13,"items":[{"name":"유정미용실","tel":"032-347-6252","addr":"경기도 부천시 소사동 19-5번지 1층 일부","indutype":"보건위생 - 미용원","category":"beauty"}]},{"lat":"37.484293382","long":"126.79432361","imageIndex":13,"items":[{"name":"제이모","tel":"032-347-5091","addr":"경기도 부천시 소사동 19-17번지","indutype":"보건위생 - 미용재료","category":"beauty"}]},{"lat":"37.484011612","long":"126.79293371","imageIndex":13,"items":[{"name":"태후사랑","tel":"032-341-7083","addr":"경기도 부천시 소사동 45-18번지","indutype":"보건위생 - 화장품","category":"beauty"}]},{"lat":"37.484405427","long":"126.79146277","imageIndex":13,"items":[{"name":"한스헤어","tel":"032-342-1801","addr":"경기도 부천시 소사동 80-105번지 1층","indutype":"보건위생 - 미용원","category":"beauty"}]},{"lat":"37.484236076","long":"126.79249213","imageIndex":13,"items":[{"name":"헤어끌레오","tel":"032-349-7373","addr":"경기도 부천시 소사동 45-5번지","indutype":"보건위생 - 미용원","category":"beauty"}]},{"lat":"37.484571269","long":"126.79352008","imageIndex":7,"items":[{"name":"궁중떡방앗간","tel":"032-347-5367","addr":"경기도 부천시 소사동 18-26번지","indutype":"음료식품 - 제과점","category":"food"}]},{"lat":"37.485506752","long":"126.79264686","imageIndex":7,"items":[{"name":"금강야채","tel":"032-348-3839","addr":"경기도 부천시 소사동 16-19번지 금강아파트","indutype":"음료식품 - 농·축·수산품","category":"food"}]},{"lat":"37.485487867","long":"126.79216073","imageIndex":7,"items":[{"name":"다복청과슈퍼","tel":"032-342-5552","addr":"경기도 부천시 소사동 9-4번지","indutype":"음료식품 - 기타음료식품","category":"food"}]},{"lat":"37.484651415","long":"126.79298845","imageIndex":7,"items":[{"name":"대박청과","tel":"032-548-7526","addr":"경기도 부천시 소사동 17-8번지 1층","indutype":"음료식품 - 농·축·수산품","category":"food"}]},{"lat":"37.484850035","long":"126.79321403","imageIndex":7,"items":[{"name":"동북왕만두","tel":"","addr":"경기도 부천시 소사동 18-38번지 1층","indutype":"음료식품 - 기타음료식품","category":"food"}]},{"lat":"37.484067016","long":"126.79369108","imageIndex":7,"items":[{"name":"본래한우한돈","tel":"032-343-1823","addr":"경기도 부천시 소사동 44-5번지 1층","indutype":"음료식품 - 정육점","category":"food"},{"name":"퍼주는집","tel":"070-7529-8843","addr":"경기도 부천시 소사동 44-5번지","indutype":"음료식품 - 농·축·수산품","category":"food"}]},{"lat":"37.48668229","long":"126.78998648","imageIndex":7,"items":[{"name":"샌치한언니","tel":"032-342-0555","addr":"경기도 부천시 소사동 3-19번지 1층","indutype":"음료식품 - 기타음료식품","category":"food"}]},{"lat":"37.485767173","long":"126.79215995","imageIndex":7,"items":[{"name":"성가방아간","tel":"032-347-4667","addr":"경기도 부천시 소사동 16-25번지","indutype":"음료식품 - 미곡상","category":"food"}]},{"lat":"37.48442677","long":"126.79332827","imageIndex":7,"items":[{"name":"성호청과","tel":"032-349-3195","addr":"경기도 부천시 소사동 17-10번지","indutype":"음료식품 - 농·축·수산품","category":"food"},{"name":"신광건어물","tel":"032-349-2951","addr":"경기도 부천시 소사동 17-10번지 1층 111호","indutype":"음료식품 - 농·축·수산품","category":"food"}]},{"lat":"37.484405184","long":"126.7913271","imageIndex":7,"items":[{"name":"세연식품","tel":"032-344-3442","addr":"경기도 부천시 소사동 80-88번지","indutype":"음료식품 - 기타음료식품","category":"food"}]},{"lat":"37.487342267","long":"126.79123967","imageIndex":7,"items":[{"name":"소명여중고 매점","tel":"070-7099-5521","addr":"경기도 부천시 소사동 2-7번지 1층","indutype":"음료식품 - 기타음료식품","category":"food"}]},{"lat":"37.485433948","long":"126.79224003","imageIndex":7,"items":[{"name":"수제빵전문점(브레드에이스)","tel":"032-584-7670","addr":"경기도 부천시 소사동 9-5번지 1층","indutype":"음료식품 - 제과점","category":"food"},{"name":"창우 중국식품","tel":"032-344-5209","addr":"경기도 부천시 소사동 9-5번지","indutype":"음료식품 - 기타음료식품","category":"food"}]},{"lat":"37.485263063","long":"126.79241011","imageIndex":7,"items":[{"name":"신안건어물","tel":"032-346-6958","addr":"경기도 부천시 소사동 9-12번지","indutype":"음료식품 - 농·축·수산품","category":"food"}]},{"lat":"37.485738446","long":"126.79121027","imageIndex":7,"items":[{"name":"쌀빵의달인","tel":"032-348-2239","addr":"경기도 부천시 소사동 5-49번지","indutype":"음료식품 - 제과점","category":"food"},{"name":"트레플베이커리","tel":"032-348-2239","addr":"경기도 부천시 소사동 5-49번지","indutype":"음료식품 - 제과점","category":"food"}]},{"lat":"37.485954136","long":"126.79090438","imageIndex":7,"items":[{"name":"아임유어마카롱","tel":"","addr":"경기도 부천시 소사동 5-5번지 1층","indutype":"음료식품 - 기타음료식품","category":"food"}]},{"lat":"37.484155871","long":"126.79298984","imageIndex":7,"items":[{"name":"우림식품점","tel":"032-351-8413","addr":"경기도 부천시 소사동 45-14번지 104 (1층104호~105호)","indutype":"음료식품 - 기타음료식품","category":"food"}]},{"lat":"37.484760076","long":"126.79329342","imageIndex":7,"items":[{"name":"우수축산","tel":"032-343-8020","addr":"경기도 부천시 소사동 18-24번지 가동 102호","indutype":"음료식품 - 정육점","category":"food"}]},{"lat":"37.484373452","long":"126.79374676","imageIndex":7,"items":[{"name":"우정정육점","tel":"032-348-8477","addr":"경기도 부천시 소사동 18-28번지 우정정육점","indutype":"음료식품 - 정육점","category":"food"},{"name":"파리바게뜨 성가시장점","tel":"032-345-6507","addr":"경기도 부천시 소사동 18-28번지 이화연립 1층 4.5호","indutype":"음료식품 - 제과점","category":"food"}]},{"lat":"37.485317021","long":"126.79235342","imageIndex":7,"items":[{"name":"유자식품","tel":"02-111-1111","addr":"경기도 부천시 소사동 9-11번지 1층","indutype":"음료식품 - 기타음료식품","category":"food"}]},{"lat":"37.484650591","long":"126.79252489","imageIndex":7,"items":[{"name":"중앙웰빙","tel":"032-349-0439","addr":"경기도 부천시 소사동 17-14번지 신협빌딩 2층","indutype":"건강식품 - 기타건강식품","category":"food"}]},{"lat":"37.484626009","long":"126.79390435","imageIndex":7,"items":[{"name":"철수산","tel":"032-343-1117","addr":"경기도 부천시 소사동 18-32번지 충 1","indutype":"음료식품 - 농·축·수산품","category":"food"}]},{"lat":"37.484903994","long":"126.79315734","imageIndex":7,"items":[{"name":"충남방앗간","tel":"032-347-1634","addr":"경기도 부천시 소사동 18-37번지","indutype":"음료식품 - 제과점","category":"food"}]},{"lat":"37.48540096","long":"126.79395872","imageIndex":7,"items":[{"name":"태경축산정육점","tel":"032-344-7801","addr":"경기도 부천시 소사동 22-41번지","indutype":"음료식품 - 정육점","category":"food"}]},{"lat":"37.486956822","long":"126.79234882","imageIndex":7,"items":[{"name":"파리바게트 부천성모병원점","tel":"032-342-3294","addr":"경기도 부천시 소사동 2번지 가톨릭대학교부천성모병원 지하1층 일부","indutype":"음료식품 - 제과점","category":"food"}]},{"lat":"37.485234054","long":"126.79130215","imageIndex":0,"items":[{"name":"금성자동차공업사","tel":"032-349-2846","addr":"경기도 부천시 소사동 8-13번지","indutype":"자동차정비 유지 - 자동차정비","category":"car"}]},{"lat":"37.483874735","long":"126.79707222","imageIndex":0,"items":[{"name":"남양카써비스","tel":"032-341-7899","addr":"경기도 부천시 소사동 41-3번지","indutype":"자동차정비 유지 - 자동차정비","category":"car"}]},{"lat":"37.484207135","long":"126.79651729","imageIndex":0,"items":[{"name":"뉴모텍부천","tel":"032-344-4020","addr":"경기도 부천시 소사동 27-13번지 우리하이츠 101,102호","indutype":"자동차정비 유지 - 자동차부품","category":"car"}]},{"lat":"37.484512208","long":"126.79071625","imageIndex":0,"items":[{"name":"달리 이펙트","tel":"070-3231-9094","addr":"경기도 부천시 소사동 79-16번지 1층","indutype":"자동차정비 유지 - 자동차부품","category":"car"}]},{"lat":"37.486150809","long":"126.79004452","imageIndex":0,"items":[{"name":"대성오토바이매매상사","tel":"032-684-5282","addr":"경기도 부천시 소사동 6-1번지","indutype":"자동차판매 - 이륜차판매","category":"car"}]},{"lat":"37.483820242","long":"126.79682363","imageIndex":0,"items":[{"name":"덴트하우스","tel":"032-341-0585","addr":"경기도 부천시 소사동 41-1번지","indutype":"자동차정비 유지 - 가타자동차서비스","category":"car"}]},{"lat":"37.484960214","long":"126.79437829","imageIndex":0,"items":[{"name":"명성기업","tel":"032-349-1054","addr":"경기도 부천시 소사동 22-7번지 1층","indutype":"자동차정비 유지 - 자동차부품","category":"car"}]},{"lat":"37.485265812","long":"126.7939591","imageIndex":0,"items":[{"name":"미래서비스","tel":"032-341-6544","addr":"경기도 부천시 소사동 22-44번지","indutype":"자동차정비 유지 - 자동차부품","category":"car"}]},{"lat":"37.484565515","long":"126.79029776","imageIndex":0,"items":[{"name":"삼진카프라자","tel":"032-344-6668","addr":"경기도 부천시 소사동 80-83번지","indutype":"자동차정비 유지 - 자동차정비","category":"car"}]},{"lat":"37.485377847","long":"126.79109822","imageIndex":0,"items":[{"name":"성가자동차공업사","tel":"032-343-2074","addr":"경기도 부천시 소사동 8번지","indutype":"자동차정비 유지 - 자동차정비","category":"car"}]},{"lat":"37.484820287","long":"126.79168773","imageIndex":0,"items":[{"name":"은성카스테레오","tel":"032-349-1101","addr":"경기도 부천시 소사동 8-20번지","indutype":"자동차정비 유지 - 자동차부품","category":"car"}]},{"lat":"37.485710422","long":"126.79065633","imageIndex":0,"items":[{"name":"카덴","tel":"032-351-8277","addr":"경기도 부천시 소사동 6-23번지 1층","indutype":"자동차정비 유지 - 카인테리어","category":"car"}]},{"lat":"37.483814217","long":"126.79854221","imageIndex":0,"items":[{"name":"토토차동차공업사","tel":"032-345-7712","addr":"경기도 부천시 소사동 37-19번지 1층","indutype":"자동차정비 유지 - 자동차정비","category":"car"}]},{"lat":"37.485100139","long":"126.79199222","imageIndex":0,"items":[{"name":"하마카센타","tel":"032-348-1377","addr":"경기도 부천시 소사동 9-15번지","indutype":"자동차정비 유지 - 자동차정비","category":"car"}]},{"lat":"37.485315831","long":"126.79168634","imageIndex":0,"items":[{"name":"협성상사","tel":"032-347-9449","addr":"경기도 부천시 소사동 9-18번지","indutype":"자동차정비 유지 - 자동차부품","category":"car"}]},{"lat":"37.483515385","long":"126.79255069","imageIndex":7,"items":[{"name":"뉴마트","tel":"032-349-8810","addr":"경기도 부천시 소사동 74-15번지","indutype":"유통업 영리 - 슈퍼마켓","category":"mart"}]},{"lat":"37.483454182","long":"126.79360234","imageIndex":7,"items":[{"name":"단홍중국식품","tel":"032-346-1658","addr":"경기도 부천시 소사동 48-12번지 1층 일부","indutype":"유통업 영리 - 슈퍼마켓","category":"mart"}]},{"lat":"37.485128216","long":"126.79258008","imageIndex":7,"items":[{"name":"대성 할인 마트","tel":"032-344-7028","addr":"경기도 부천시 소사동 17번지 1층","indutype":"유통업 영리 - 슈퍼마켓","category":"mart"}]},{"lat":"37.484401601","long":"126.79437984","imageIndex":7,"items":[{"name":"도화공판장","tel":"032-345-5115","addr":"경기도 부천시 소사동 19-11번지 1층","indutype":"유통업 영리 - 슈퍼마켓","category":"mart"}]},{"lat":"37.484346348","long":"126.79885734","imageIndex":7,"items":[{"name":"만복슈퍼","tel":"032-346-5725","addr":"경기도 부천시 소사동 36-19번지","indutype":"유통업 영리 - 슈퍼마켓","category":"mart"}]},{"lat":"37.48587505","long":"126.79202396","imageIndex":7,"items":[{"name":"우리슈퍼","tel":"032-347-1039","addr":"경기도 부천시 소사동 10-5번지","indutype":"유통업 영리 - 슈퍼마켓","category":"mart"}]},{"lat":"37.484571269","long":"126.79352008","imageIndex":7,"items":[{"name":"창대할인마트","tel":"032-202-7765","addr":"경기도 부천시 소사동 18-26번지 1층","indutype":"유통업 영리 - 슈퍼마켓","category":"mart"}]},{"lat":"37.484405427","long":"126.79146277","imageIndex":7,"items":[{"name":"푸름이네미니슈퍼","tel":"032-341-3167","addr":"경기도 부천시 소사동 80-105번지","indutype":"유통업 영리 - 슈퍼마켓","category":"mart"}]},{"lat":"37.484651415","long":"126.79298845","imageIndex":7,"items":[{"name":"플러스할인마트","tel":"032-346-3024","addr":"경기도 부천시 소사동 17-8번지 1층 및지하","indutype":"유통업 영리 - 슈퍼마켓","category":"mart"}]},{"lat":"37.4837073","long":"126.7940765","imageIndex":7,"items":[{"name":"하늘이네 중국식품","tel":"070-7361-5188","addr":"경기도 부천시 소사동 44-25번지 1층","indutype":"유통업 영리 - 슈퍼마켓","category":"mart"}]},{"lat":"37.48442677","long":"126.79332827","imageIndex":8,"items":[{"name":"다산약국","tel":"032-344-8190","addr":"경기도 부천시 소사동 17-10번지 1층 101-2호","indutype":"약국 - 약국","category":"medical"},{"name":"소사경희한의원","tel":"032-348-4202","addr":"경기도 부천시 소사동 17-10번지 우덕빌딩","indutype":"의원 - 한의원","category":"medical"}]},{"lat":"37.486209846","long":"126.7928258","imageIndex":8,"items":[{"name":"성모서울약국","tel":"032-343-5500","addr":"경기도 부천시 소사동 15-2번지","indutype":"약국 - 약국","category":"medical"}]},{"lat":"37.484848446","long":"126.79232082","imageIndex":8,"items":[{"name":"소사중앙약국","tel":"032-345-2255","addr":"경기도 부천시 소사동 17-15번지 뉴월드하이빌 105호","indutype":"약국 - 약국","category":"medical"}]},{"lat":"37.484650591","long":"126.79252489","imageIndex":8,"items":[{"name":"중앙의원","tel":"032-349-0439","addr":"경기도 부천시 소사동 17-14번지","indutype":"의원 - 의원","category":"medical"}]},{"lat":"37.484401601","long":"126.79437984","imageIndex":13,"items":[{"name":"도화당구장","tel":"032-345-3577","addr":"경기도 부천시 소사동 19-11번지","indutype":"레저업소 - 당 구 장","category":"leisure"},{"name":"민트PC방","tel":"","addr":"경기도 부천시 소사동 19-11번지 2층","indutype":"레저업소 - 기타레져업소","category":"leisure"}]},{"lat":"37.485676085","long":"126.79160618","imageIndex":13,"items":[{"name":"보물섬노래연습장","tel":"032-342-9525","addr":"경기도 부천시 소사동 9-24번지 2층","indutype":"레저업소 - 노 래 방","category":"leisure"}]},{"lat":"37.48442677","long":"126.79332827","imageIndex":13,"items":[{"name":"블랙잭 당구장","tel":"","addr":"경기도 부천시 소사동 17-10번지 3층","indutype":"레저업소 - 당 구 장","category":"leisure"},{"name":"에스비에스 노래연습장","tel":"","addr":"경기도 부천시 소사동 17-10번지 지층 2호","indutype":"레저업소 - 노 래 방","category":"leisure"}]},{"lat":"37.484373452","long":"126.79374676","imageIndex":13,"items":[{"name":"짱노래연습장","tel":"032-351-6451","addr":"경기도 부천시 소사동 18-28번지 이화연립 지층","indutype":"레저업소 - 노 래 방","category":"leisure"}]},{"lat":"37.485791267","long":"126.79052042","imageIndex":13,"items":[{"name":"친구2노래연습장","tel":"032-000-0000","addr":"경기도 부천시 소사동 6-16번지 지층","indutype":"레저업소 - 노 래 방","category":"leisure"}]}]