[{"lat":"37.285317961","long":"127.00655814","imageIndex":16,"items":[{"name":"i튼튼어린이집[아이행복]","tel":"031-247-8896","addr":"경기도 수원시 팔달구 화서동 20-9번지","indutype":"학원 - 유아원","category":"study"}]},{"lat":"37.282182159","long":"126.99463912","imageIndex":16,"items":[{"name":"강남선수학학원","tel":"031-255-6609","addr":"경기도 수원시 팔달구 화서동 244-16번지 현대프라자 401호","indutype":"학원 - 기타 교육기관","category":"study"},{"name":"국가대표다온태권도장","tel":"031-207-3730","addr":"경기도 수원시 팔달구 화서동 244-16번지 현대프라자 301호","indutype":"학원 - 예·체능계학원","category":"study"},{"name":"등용문독서실","tel":"031-302-6196","addr":"경기도 수원시 팔달구 화서동 244-16번지 현대프라자 403호","indutype":"학원 - 독서실","category":"study"},{"name":"목가음악교습소","tel":"031-244-1177","addr":"경기도 수원시 팔달구 화서동 244-16번지 현대프라자 201호","indutype":"학원 - 예·체능계학원","category":"study"},{"name":"샛소미술교습소","tel":"052-257-8225","addr":"경기도 수원시 팔달구 화서동 현대프라자 203호","indutype":"학원 - 예·체능계학원","category":"study"},{"name":"이든샘영어수학전문학원","tel":"031-207-0434","addr":"경기도 수원시 팔달구 화서동 244-16번지 현대프라자 3층 303호","indutype":"학원 - 보습학원","category":"study"},{"name":"한솔주니어랩학원","tel":"031-255-2243","addr":"경기도 수원시 팔달구 화서동 244-16번지 현대프라자 402호","indutype":"회원제형태 - 학원","category":"study"}]},{"lat":"37.28523481","long":"126.98050923","imageIndex":16,"items":[{"name":"강남어학원","tel":"031-296-2209","addr":"경기도 수원시 팔달구 화서동 725-2번지 우성빌딩 3층","indutype":"회원제형태 - 학원","category":"study"}]},{"lat":"37.285342959","long":"126.98064451","imageIndex":16,"items":[{"name":"개념원리수학화서학원","tel":"031-292-7749","addr":"경기도 수원시 팔달구 화서동 725-3번지 리더스빌딩 2층","indutype":"회원제형태 - 학원","category":"study"},{"name":"다수인수학학원","tel":"031-298-3787","addr":"경기도 수원시 팔달구 화서동 725-3번지 리더스빌딩","indutype":"학원 - 보습학원","category":"study"},{"name":"수하버드독서실","tel":"031-296-3179","addr":"경기도 수원시 팔달구 화서동 725-3번지 리더스빌딩 5층","indutype":"학원 - 독서실","category":"study"}]},{"lat":"37.287930985","long":"127.00146107","imageIndex":16,"items":[{"name":"고운맘어린이집[아이행복]","tel":"031-255-0609","addr":"경기도 수원시 팔달구 화서동 743번지 화서위브하늘채 104동 102호","indutype":"학원 - 유아원","category":"study"}]},{"lat":"37.28248849","long":"126.99439101","imageIndex":16,"items":[{"name":"공잘학원","tel":"031-257-9700","addr":"경기도 수원시 팔달구 화서동 244-2번지 기둥빌딩","indutype":"학원 - 보습학원","category":"study"},{"name":"뮤엠영어화양학원","tel":"070-7545-0186","addr":"경기도 수원시 팔달구 화서동 244-2번지 2층","indutype":"학원 - 보습학원","category":"study"}]},{"lat":"37.285595163","long":"126.98020465","imageIndex":16,"items":[{"name":"김민정무용학원","tel":"031-296-9923","addr":"경기도 수원시 팔달구 화서동 724-2번지 5층","indutype":"학원 - 예·체능계학원","category":"study"},{"name":"미강맥스에듀학원","tel":"031-292-7828","addr":"경기도 수원시 팔달구 화서동 724-2번지 3층","indutype":"학원 - 보습학원","category":"study"}]},{"lat":"37.277650279","long":"127.00228437","imageIndex":16,"items":[{"name":"꿈꾸는아이들어린이집[아이행복]","tel":"031-471-2738","addr":"경기도 수원시 팔달구 화서동 96-2번지 1층","indutype":"학원 - 유아원","category":"study"}]},{"lat":"37.28601179","long":"127.00497944","imageIndex":16,"items":[{"name":"능률주니어랩화서학원","tel":"031-241-1937","addr":"경기도 수원시 팔달구 화서동 15-1번지 3층","indutype":"회원제형태 - 학원","category":"study"}]},{"lat":"37.285705113","long":"126.99383809","imageIndex":16,"items":[{"name":"대한논술교습소","tel":"031-248-6333","addr":"경기도 수원시 팔달구 화서동 648번지 주공프라자 505,506","indutype":"학원 - 보습학원","category":"study"},{"name":"라이즈컴퍼니실용음악학원","tel":"031-252-1302","addr":"경기도 수원시 팔달구 화서동 648번지 화서주공프라자 204호","indutype":"학원 - 예·체능계학원","category":"study"},{"name":"숙지피아노플릇학원","tel":"031-258-8330","addr":"경기도 수원시 팔달구 화서동 648번지 주공프라자 4층 403호","indutype":"학원 - 예·체능계학원","category":"study"}]},{"lat":"37.284731706","long":"126.99053419","imageIndex":16,"items":[{"name":"대호합기도","tel":"031-246-7992","addr":"경기도 수원시 팔달구 화서동 644-7번지 아트프라자","indutype":"학원 - 예·체능계학원","category":"study"},{"name":"성균관축구교실","tel":"02-6340-5359","addr":"경기도 수원시 팔달구 화서동 644-7번지 아트프라자 10층 1호","indutype":"학원 - 예·체능계학원","category":"study"},{"name":"수원탑학원","tel":"031-253-4542","addr":"경기도 수원시 팔달구 화서동 644-7번지 아트프라자 505호","indutype":"학원 - 컴퓨터학원","category":"study"},{"name":"이승희수학학원","tel":"031-242-0458","addr":"경기도 수원시 팔달구 화서동 644-7번지 아트프라자 203호","indutype":"학원 - 보습학원","category":"study"},{"name":"제이에스엘피고등영어학원","tel":"031-244-0888","addr":"경기도 수원시 팔달구 화서동 644-7번지 아트프라자 701호 남측일부","indutype":"학원 - 보습학원","category":"study"},{"name":"제이에스엘피영어전문학원","tel":"031-8013-2888","addr":"경기도 수원시 팔달구 화서동 644-7번지 아트프라자 7층 1호","indutype":"학원 - 보습학원","category":"study"}]},{"lat":"37.281398413","long":"126.99711993","imageIndex":16,"items":[{"name":"더줌영어교습소","tel":"070-8238-0580","addr":"경기도 수원시 팔달구 화서동 206-9번지","indutype":"회원제형태 - 학원","category":"study"}]},{"lat":"37.28265067","long":"126.99431206","imageIndex":16,"items":[{"name":"더줌영어학원","tel":"070-4384-0101","addr":"경기도 수원시 팔달구 화서동 275-20번지 2층","indutype":"학원 - 외국어학원","category":"study"}]},{"lat":"37.285460124","long":"126.98081363","imageIndex":16,"items":[{"name":"더프라임영수전문학원","tel":"031-293-6655","addr":"경기도 수원시 팔달구 화서동 725-4번지 한샘빌딩 5층","indutype":"학원 - 보습학원","category":"study"},{"name":"도도수학교습소","tel":"031-292-0588","addr":"경기도 수원시 팔달구 화서동 725-4번지 한샘빌딩 5층 우측일부","indutype":"학원 - 보습학원","category":"study"},{"name":"비상아이비츠학원","tel":"031-246-0006","addr":"경기도 수원시 팔달구 화서동 725-4번지 한샘빌딩 4층","indutype":"학원 - 보습학원","category":"study"},{"name":"에르스트학원","tel":"031-292-0454","addr":"경기도 수원시 팔달구 화서동 725-4번지 한샘빌딩 3층","indutype":"회원제형태 - 학원","category":"study"},{"name":"율현해법영어학원","tel":"031-227-6035","addr":"경기도 수원시 팔달구 화서동 725-4번지 2층","indutype":"학원 - 보습학원","category":"study"}]},{"lat":"37.285180873","long":"126.98117456","imageIndex":16,"items":[{"name":"도도다국어전문교습소","tel":"031-296-5852","addr":"경기도 수원시 팔달구 화서동 726-7번지 103호","indutype":"학원 - 보습학원","category":"study"},{"name":"비상잉글리시아이 율현점 영어교습소","tel":"031-304-9339","addr":"경기도 수원시 팔달구 화서동 726-7번지 102호","indutype":"학원 - 외국어학원","category":"study"}]},{"lat":"37.28251558","long":"126.99525928","imageIndex":16,"items":[{"name":"도르르미술학원","tel":"","addr":"경기도 수원시 팔달구 화서동 246-2번지 1층 일부","indutype":"학원 - 예·체능계학원","category":"study"}]},{"lat":"37.285703316","long":"126.98036249","imageIndex":16,"items":[{"name":"독수강영학원","tel":"031-298-0908","addr":"경기도 수원시 팔달구 화서동 724-3번지 한영빌딩 4층 401호","indutype":"학원 - 보습학원","category":"study"},{"name":"별하스터디센터수원화서독서실","tel":"031-296-0202","addr":"경기도 수원시 팔달구 화서동 724-3번지 5층","indutype":"학원 - 독서실","category":"study"}]},{"lat":"37.283461875","long":"127.00553191","imageIndex":16,"items":[{"name":"동광어린이집[아이행복]","tel":"031-252-7892","addr":"경기도 수원시 팔달구 화서동 41-4번지","indutype":"학원 - 유아원","category":"study"}]},{"lat":"37.280650658","long":"126.99970217","imageIndex":16,"items":[{"name":"두리보습학원","tel":"031-246-4329","addr":"경기도 수원시 팔달구 화서동 119-21번지 2층","indutype":"학원 - 보습학원","category":"study"}]},{"lat":"37.282056155","long":"126.99697329","imageIndex":16,"items":[{"name":"듀라(DULA)","tel":"","addr":"경기도 수원시 팔달구 화서동 212-6번지 화서맨션 다동 505호","indutype":"학원 - 기타 교육기관","category":"study"}]},{"lat":"37.279731648","long":"127.00397572","imageIndex":16,"items":[{"name":"드럼이야기 음악학원","tel":"031-269-7492","addr":"경기도 수원시 팔달구 화서동 71-83번지 2층","indutype":"학원 - 예·체능계학원","category":"study"}]},{"lat":"37.286957849","long":"126.99994999","imageIndex":16,"items":[{"name":"또래숲속공동육아후원회","tel":"031-242-2255","addr":"경기도 수원시 팔달구 화서동 344-65번지","indutype":"학원 - 유아원","category":"study"}]},{"lat":"37.278902707","long":"127.00347958","imageIndex":16,"items":[{"name":"레인보우실용음악학원","tel":"031-255-1070","addr":"경기도 수원시 팔달구 화서동 71-96번지 3층","indutype":"회원제형태 - 학원","category":"study"}]},{"lat":"37.28320851","long":"126.98670051","imageIndex":16,"items":[{"name":"매홀평생교육원","tel":"031-298-8217","addr":"경기도 수원시 팔달구 화서동 410-7번지 수원성감리교회 2층 교육원","indutype":"학원 - 기타 교육기관","category":"study"}]},{"lat":"37.28831841","long":"127.00050252","imageIndex":16,"items":[{"name":"명근유도체육관","tel":"031-292-3332","addr":"경기도 수원시 팔달구 화서동 743번지 화서위브하늘채 상가 201동 204호","indutype":"학원 - 예·체능계학원","category":"study"},{"name":"수학의품격화서분원학원","tel":"031-257-3700","addr":"경기도 수원시 팔달구 화서동 743번지 화서위브하늘채 203동 202호","indutype":"학원 - 보습학원","category":"study"},{"name":"수호천사태권도 2관","tel":"031-246-6781","addr":"경기도 수원시 팔달구 화서동 743번지 화서위브하늘채 203동 204호 204,205호","indutype":"학원 - 예·체능계학원","category":"study"},{"name":"연세국어교습소","tel":"031-245-1885","addr":"경기도 수원시 팔달구 화서동 743번지 화서위브하늘채 203동 101호","indutype":"학원 - 보습학원","category":"study"},{"name":"쾰른피아노전문학원","tel":"031-247-4007","addr":"경기도 수원시 팔달구 화서동 743번지 위브하늘채 상가 203동 201호","indutype":"회원제형태 - 학원","category":"study"},{"name":"하늘채어린이집[아이행복]","tel":"031-2458-8790","addr":"경기도 수원시 팔달구 화서동 743번지 화서위브하늘채 종합복지관 내","indutype":"학원 - 유아원","category":"study"},{"name":"화서세움학원","tel":"031-8808-0509","addr":"경기도 수원시 팔달구 화서동 743번지 화서위브하늘채 상가 203-203","indutype":"학원 - 보습학원","category":"study"}]},{"lat":"37.285099759","long":"126.98106182","imageIndex":16,"items":[{"name":"명아틀리에미술교습소","tel":"031-291-6426","addr":"경기도 수원시 팔달구 화서동 726-8번지 101호","indutype":"학원 - 예·체능계학원","category":"study"}]},{"lat":"37.285730533","long":"126.98136611","imageIndex":16,"items":[{"name":"뮤엠영어화서어학원","tel":"031-298-0055","addr":"경기도 수원시 팔달구 화서동 727번지 서수원프라자 5층 503호","indutype":"학원 - 외국어학원","category":"study"},{"name":"에듀비엔비(edu B&B)","tel":"031-295-6667","addr":"경기도 수원시 팔달구 화서동 727번지 서수원프라자 3층","indutype":"학원 - 학습지 교육","category":"study"},{"name":"화서해법자하연학원","tel":"031-298-0330","addr":"경기도 수원시 팔달구 화서동 727번지 서수원프라자 501호","indutype":"학원 - 보습학원","category":"study"}]},{"lat":"37.284902952","long":"126.99103033","imageIndex":16,"items":[{"name":"미쁨아동발달센터","tel":"031-257-0188","addr":"경기도 수원시 팔달구 화서동 644-5번지 그린프라자 3층 306호","indutype":"학원 - 기타 교육기관","category":"study"},{"name":"민샘 해법수학","tel":"031-243-7772","addr":"경기도 수원시 팔달구 화서동 644-5번지 그린프라자 4층 404호","indutype":"학원 - 보습학원","category":"study"},{"name":"성균관수학교습소","tel":"031-253-9777","addr":"경기도 수원시 팔달구 화서동 644-5번지 그린프라자 205-1호","indutype":"학원 - 보습학원","category":"study"},{"name":"신예원미술교습소","tel":"031-254-9211","addr":"경기도 수원시 팔달구 화서동 644-5번지 그린프라자 208-2호","indutype":"학원 - 예·체능계학원","category":"study"},{"name":"신좋은그림미술교습소","tel":"031-245-2006","addr":"경기도 수원시 팔달구 화서동 644-5번지 그린프라자 402-2호","indutype":"학원 - 예·체능계학원","category":"study"},{"name":"예소리 음악학원","tel":"031-258-8570","addr":"경기도 수원시 팔달구 화서동 644-5번지 그린프라자 405호","indutype":"학원 - 예·체능계학원","category":"study"},{"name":"읽다쓰다리드인독서교습소","tel":"","addr":"경기도 수원시 팔달구 화서동 644-5번지 그린프라자 203-2호","indutype":"학원 - 보습학원","category":"study"},{"name":"탑이지수학학원","tel":"031-247-0979","addr":"경기도 수원시 팔달구 화서동 644-5번지 그린프라자 501호","indutype":"학원 - 보습학원","category":"study"},{"name":"프린스턴어학원","tel":"031-244-0578","addr":"경기도 수원시 팔달구 화서동 644-5번지 그린프라자407호,408-1호","indutype":"학원 - 외국어학원","category":"study"}]},{"lat":"37.281821908","long":"126.99739052","imageIndex":16,"items":[{"name":"블럭아이선일미술학원","tel":"031-258-6222","addr":"경기도 수원시 팔달구 화서동 211-12번지 외2필지 201호","indutype":"학원 - 예·체능계학원","category":"study"},{"name":"블루밍해법영어교습소","tel":"031-252-0045","addr":"경기도 수원시 팔달구 화서동 211-12번지 101호","indutype":"회원제형태 - 학원","category":"study"},{"name":"선일체육관","tel":"031-244-6111","addr":"경기도 수원시 팔달구 화서동 211-12번지 401호","indutype":"회원제형태 - 학원","category":"study"},{"name":"트레비앙 음악학원","tel":"031-256-0177","addr":"경기도 수원시 팔달구 화서동 211-12번지 501호","indutype":"학원 - 예·체능계학원","category":"study"}]},{"lat":"37.28239869","long":"127.00203626","imageIndex":16,"items":[{"name":"블루밍이화피아노교습소","tel":"031-241-0720","addr":"경기도 수원시 팔달구 화서동 81-48번지 2층","indutype":"학원 - 예·체능계학원","category":"study"}]},{"lat":"37.278875642","long":"127.00577981","imageIndex":16,"items":[{"name":"삼성영어화서학원","tel":"031-253-5505","addr":"경기도 수원시 팔달구 화서동 62-9번지 3층","indutype":"학원 - 외국어학원","category":"study"}]},{"lat":"37.280398297","long":"126.9976387","imageIndex":16,"items":[{"name":"삼성영어화서화양학원","tel":"031-207-3431","addr":"경기도 수원시 팔달구 화서동 125-8번지","indutype":"학원 - 보습학원","category":"study"}]},{"lat":"37.280037991","long":"127.00120188","imageIndex":16,"items":[{"name":"새로핌피아노교습소","tel":"031-246-0868","addr":"경기도 수원시 팔달구 화서동 105-3번지","indutype":"학원 - 예·체능계학원","category":"study"}]},{"lat":"37.280461413","long":"126.998755","imageIndex":16,"items":[{"name":"샬롬어린이집[아이행복]","tel":"031-253-8123","addr":"경기도 수원시 팔달구 화서동 118-6번지 1,2층","indutype":"학원 - 유아원","category":"study"}]},{"lat":"37.278037391","long":"126.9940307","imageIndex":16,"items":[{"name":"솔지평생교육원","tel":"070-8628-0675","addr":"경기도 수원시 팔달구 화서동 144-1번지","indutype":"회원제형태 - 학원","category":"study"}]},{"lat":"37.286786676","long":"127.00103257","imageIndex":16,"items":[{"name":"수원제일중학교","tel":"031-255-2953","addr":"경기도 수원시 팔달구 화서동 5번지 제일중학교","indutype":"학원 - 초중고교육기관","category":"study"}]},{"lat":"37.285128195","long":"126.99089498","imageIndex":16,"items":[{"name":"수원직업전문학원","tel":"031-548-2857","addr":"경기도 수원시 팔달구 화서동 644-4번지 정자프라자 3층 303,304호","indutype":"학원 - 기능학원","category":"study"}]},{"lat":"37.283011345","long":"127.00617464","imageIndex":16,"items":[{"name":"수원행복요양보호사교육원","tel":"031-252-5259","addr":"경기도 수원시 팔달구 화서동 69-1번지","indutype":"학원 - 기능학원","category":"study"}]},{"lat":"37.284848798","long":"126.9901395","imageIndex":16,"items":[{"name":"수원화서박문각공인중개사학원","tel":"031-258-8900","addr":"경기도 수원시 팔달구 화서동 644-1번지 풍성프라자 10층 1002호~1004호","indutype":"학원 - 보습학원","category":"study"},{"name":"파워텔수원전기학원","tel":"031-245-0903","addr":"경기도 수원시 팔달구 화서동 644-1번지 화성풍성프라자 6층 604호","indutype":"회원제형태 - 학원","category":"study"}]},{"lat":"37.278875663","long":"127.00475373","imageIndex":16,"items":[{"name":"수학원","tel":"031-242-6399","addr":"경기도 수원시 팔달구 화서동 62-7번지","indutype":"학원 - 보습학원","category":"study"},{"name":"연우속셈학원","tel":"031-242-8123","addr":"경기도 수원시 팔달구 화서동 62-7번지","indutype":"학원 - 보습학원","category":"study"},{"name":"용인대홍익태권도","tel":"031-892-7732","addr":"경기도 수원시 팔달구 화서동 62-7번지","indutype":"학원 - 예·체능계학원","category":"study"}]},{"lat":"37.286543397","long":"127.00488924","imageIndex":16,"items":[{"name":"수호천사태권도체육관","tel":"031-246-6781","addr":"경기도 수원시 팔달구 화서동 7-11번지","indutype":"학원 - 예·체능계학원","category":"study"},{"name":"와이비엠영어교습소","tel":"031-892-2020","addr":"경기도 수원시 팔달구 화서동 7-11번지 104호","indutype":"학원 - 외국어학원","category":"study"},{"name":"화서한솔학원","tel":"031-257-3799","addr":"경기도 수원시 팔달구 화서동 7-11번지 2층 일부","indutype":"학원 - 보습학원","category":"study"},{"name":"화홍푸르넷수학교습소","tel":"031-253-5382","addr":"경기도 수원시 팔달구 화서동 7-11번지 1층 104호","indutype":"학원 - 보습학원","category":"study"}]},{"lat":"37.282650602","long":"126.99342124","imageIndex":16,"items":[{"name":"숙지고등학교","tel":"031-8065-3185","addr":"경기도 수원시 팔달구 화서동 653번지 숙지고등학교","indutype":"학원 - 초중고교육기관","category":"study"},{"name":"숙지고등학교_수업료","tel":"031-8065-3185","addr":"경기도 수원시 팔달구 화서동 653번지 숙지고등학교","indutype":"학원 - 초중고교육기관","category":"study"}]},{"lat":"37.285849136","long":"126.99214658","imageIndex":16,"items":[{"name":"숙지어린이집[아이행복]","tel":"031-245-8501","addr":"경기도 수원시 팔달구 화서동 646번지 주공3단지 주민복지관","indutype":"학원 - 유아원","category":"study"}]},{"lat":"37.282127913","long":"126.99231625","imageIndex":16,"items":[{"name":"숙지중학교","tel":"031-258-9686","addr":"경기도 수원시 팔달구 화서동 652번지 숙지중학교","indutype":"학원 - 초중고교육기관","category":"study"}]},{"lat":"37.282929783","long":"126.99184253","imageIndex":16,"items":[{"name":"숙지초등학교","tel":"031-257-8471","addr":"경기도 수원시 팔달구 화서동 651번지 숙지초등학교","indutype":"학원 - 초중고교육기관","category":"study"}]},{"lat":"37.285038139","long":"126.99136861","imageIndex":16,"items":[{"name":"시립꽃뫼보듬이나눔이어린이집[아이행복]","tel":"031-253-7679","addr":"경기도 수원시 팔달구 화서동 660번지","indutype":"학원 - 유아원","category":"study"}]},{"lat":"37.28364992","long":"126.98603511","imageIndex":16,"items":[{"name":"시립서호어린이집[아이행복]","tel":"031-291-8428","addr":"경기도 수원시 팔달구 화서동 410-6번지 서호꽃뫼공원","indutype":"학원 - 유아원","category":"study"}]},{"lat":"37.276010163","long":"126.99522611","imageIndex":16,"items":[{"name":"시립화서1동어린이집[아이행복]","tel":"031-247-0697","addr":"경기도 수원시 팔달구 화서동 184-353번지 시립화서 어린이집","indutype":"학원 - 유아원","category":"study"},{"name":"시립화서1동어린이집[아이행복]","tel":"031-247-0697","addr":"경기도 수원시 팔달구 화서동 184-353번지","indutype":"학원 - 유아원","category":"study"}]},{"lat":"37.286695504","long":"126.98686891","imageIndex":16,"items":[{"name":"신동아어린이집[아이행복]","tel":"031-298-9082","addr":"경기도 수원시 팔달구 화서동 684-2번지 꽃뫼버들마을신동아 113동 102호","indutype":"학원 - 유아원","category":"study"}]},{"lat":"37.288579693","long":"126.99983716","imageIndex":16,"items":[{"name":"에덴어린이집[아이행복]","tel":"031-241-7145","addr":"경기도 수원시 팔달구 화서동 743번지 화서위브하늘채 108동 102호","indutype":"학원 - 유아원","category":"study"}]},{"lat":"37.278875664","long":"127.00105532","imageIndex":16,"items":[{"name":"엘리트인테리어기술전문학원","tel":"031-241-5435","addr":"경기도 수원시 팔달구 화서동 107-13번지 2층","indutype":"학원 - 기능학원","category":"study"}]},{"lat":"37.28412864","long":"127.00525002","imageIndex":16,"items":[{"name":"엘시드어린이집[아이행복]","tel":"031-243-0400","addr":"경기도 수원시 팔달구 화서동 39-35번지","indutype":"학원 - 유아원","category":"study"}]},{"lat":"37.285153686","long":"126.9803401","imageIndex":16,"items":[{"name":"연세와이티어학원","tel":"031-309-0505","addr":"경기도 수원시 팔달구 화서동 725-1번지 2층","indutype":"학원 - 외국어학원","category":"study"}]},{"lat":"37.285651398","long":"127.00278048","imageIndex":16,"items":[{"name":"영복여자고등학교","tel":"031-245-2500","addr":"경기도 수원시 팔달구 화서동 7-10번지 영복여자고등학교","indutype":"학원 - 초중고교육기관","category":"study"},{"name":"영복여자중학교","tel":"031-245-2514","addr":"경기도 수원시 팔달구 화서동 7-10번지 영복여자고등학교","indutype":"학원 - 초중고교육기관","category":"study"}]},{"lat":"37.278542298","long":"127.00270156","imageIndex":16,"items":[{"name":"예쁘지오미용학원","tel":"031-254-1110","addr":"경기도 수원시 팔달구 화서동 86-1번지 3층 왼쪽 3층","indutype":"회원제형태 - 학원","category":"study"}]},{"lat":"37.283425701","long":"126.99670255","imageIndex":16,"items":[{"name":"용인대청룡태권도","tel":"031-241-1030","addr":"경기도 수원시 팔달구 화서동 271-4번지 401호","indutype":"학원 - 예·체능계학원","category":"study"}]},{"lat":"37.278875673","long":"127.00400954","imageIndex":16,"items":[{"name":"용인대화서검도관","tel":"031-251-2588","addr":"경기도 수원시 팔달구 화서동 71-117번지 3층","indutype":"회원제형태 - 학원","category":"study"}]},{"lat":"37.278515267","long":"127.00317514","imageIndex":16,"items":[{"name":"원독서실","tel":"031-243-1158","addr":"경기도 수원시 팔달구 화서동 71-53번지 화서프라자 6층 601호","indutype":"학원 - 독서실","category":"study"}]},{"lat":"37.288606739","long":"127.00049123","imageIndex":16,"items":[{"name":"위브하늘채어린이집[아이행복]","tel":"031-268-3830","addr":"경기도 수원시 팔달구 화서동 743번지 화서위브하늘채 107동 102호","indutype":"학원 - 유아원","category":"study"}]},{"lat":"37.287541155","long":"126.9790651","imageIndex":16,"items":[{"name":"율천고등학교","tel":"031-299-3900","addr":"경기도 수원시 팔달구 화서동 720번지 율천고등학교","indutype":"학원 - 초중고교육기관","category":"study"},{"name":"율천고등학교_수업료","tel":"031-299-3900","addr":"경기도 수원시 팔달구 화서동 720번지 율천고등학교","indutype":"학원 - 초중고교육기관","category":"study"}]},{"lat":"37.285766799","long":"126.98264036","imageIndex":16,"items":[{"name":"율현중학교","tel":"031-298-9674","addr":"경기도 수원시 팔달구 화서동 729번지 율현중학교","indutype":"학원 - 초중고교육기관","category":"study"}]},{"lat":"37.286956173","long":"126.98275281","imageIndex":16,"items":[{"name":"율현초등학교","tel":"031-227-0924","addr":"경기도 수원시 팔달구 화서동 710번지 율현초등학교","indutype":"학원 - 초중고교육기관","category":"study"}]},{"lat":"37.288064411","long":"126.98261719","imageIndex":16,"items":[{"name":"율현태권도장","tel":"031-276-2767","addr":"경기도 수원시 팔달구 화서동 709번지 상가 201~203호","indutype":"학원 - 예·체능계학원","category":"study"}]},{"lat":"37.284822445","long":"127.00433664","imageIndex":16,"items":[{"name":"으뜸미술교습소","tel":"031-245-1734","addr":"경기도 수원시 팔달구 화서동 11-11번지 화서성원상떼빌 상가동 2층 202호","indutype":"학원 - 예·체능계학원","category":"study"}]},{"lat":"37.277740339","long":"126.99964591","imageIndex":16,"items":[{"name":"은빛어린이집[아이행복]","tel":"031-548-2301","addr":"경기도 수원시 팔달구 화서동 113-25번지","indutype":"학원 - 유아원","category":"study"}]},{"lat":"37.287371575","long":"126.98928203","imageIndex":16,"items":[{"name":"임은주무용학원","tel":"031-247-9973","addr":"경기도 수원시 팔달구 화서동 678-2번지 우영프라자 5층","indutype":"학원 - 예·체능계학원","category":"study"}]},{"lat":"37.289091485","long":"126.98206433","imageIndex":16,"items":[{"name":"정천중학교","tel":"031-292-4918","addr":"경기도 수원시 팔달구 화서동 708번지 정천중학교","indutype":"학원 - 초중고교육기관","category":"study"}]},{"lat":"37.28492992","long":"126.9904214","imageIndex":16,"items":[{"name":"주식회사 한국인재양성교육원","tel":"031-307-0111","addr":"경기도 수원시 팔달구 화서동 644-2 아트프라자 401,402,403,407","indutype":"회원제형태 - 학원","category":"study"}]},{"lat":"37.284876012","long":"126.99197757","imageIndex":16,"items":[{"name":"지음태권도장","tel":"031-258-3424","addr":"경기도 수원시 팔달구 화서동 649-2번지 2층","indutype":"학원 - 예·체능계학원","category":"study"},{"name":"파스칼학원","tel":"031-253-0065","addr":"경기도 수원시 팔달구 화서동 649-2번지 4층","indutype":"학원 - 기타 교육기관","category":"study"},{"name":"화서이화음악학원","tel":"031-246-9535","addr":"경기도 수원시 팔달구 화서동 649-2번지 3층","indutype":"학원 - 예·체능계학원","category":"study"}]},{"lat":"37.284649447","long":"126.98217832","imageIndex":16,"items":[{"name":"창작나라조형마을공예전문교습소","tel":"031-245-9669","addr":"경기도 수원시 팔달구 화서동 730번지 204(화서동코오롱A상가동2층)","indutype":"학원 - 기타 교육기관","category":"study"},{"name":"코오롱그랜드음악학원","tel":"031-227-0197","addr":"경기도 수원시 팔달구 화서동 730번지 상가동201,202,203호","indutype":"학원 - 예·체능계학원","category":"study"}]},{"lat":"37.28254257","long":"126.99463908","imageIndex":16,"items":[{"name":"청음음악교습소","tel":"031-223-5214","addr":"경기도 수원시 팔달구 화서동 245-1번지 2층 202호","indutype":"학원 - 예·체능계학원","category":"study"}]},{"lat":"37.281155101","long":"126.99645467","imageIndex":16,"items":[{"name":"케이에스엠피(KSMP)무예스쿨","tel":"031-241-4222","addr":"경기도 수원시 팔달구 화서동 212-2번지","indutype":"학원 - 예·체능계학원","category":"study"}]},{"lat":"37.278154539","long":"126.99422237","imageIndex":16,"items":[{"name":"킨더가든서호어린이집[아이행복]","tel":"031-241-1661","addr":"경기도 수원시 팔달구 화서동 155번지 1층","indutype":"학원 - 유아원","category":"study"}]},{"lat":"37.285793451","long":"126.98053162","imageIndex":16,"items":[{"name":"파워영재개발학원","tel":"031-297-7277","addr":"경기도 수원시 팔달구 화서동 724-4번지 4층","indutype":"학원 - 보습학원","category":"study"}]},{"lat":"37.282425688","long":"126.99997272","imageIndex":16,"items":[{"name":"푸른숲영수전문학원","tel":"031-242-1935","addr":"경기도 수원시 팔달구 화서동 250-4번지 블루밍푸른숲아파트 2동 503 204,205호","indutype":"학원 - 보습학원","category":"study"}]},{"lat":"37.281596511","long":"126.99492109","imageIndex":16,"items":[{"name":"프렌즈코딩학원","tel":"031-8001-0070","addr":"경기도 수원시 팔달구 화서동 244-22번지 2층 일부호","indutype":"학원 - 컴퓨터학원","category":"study"}]},{"lat":"37.279983934","long":"127.00158526","imageIndex":16,"items":[{"name":"한세미술교습소","tel":"031-255-7843","addr":"경기도 수원시 팔달구 화서동 100-12번지 1층","indutype":"학원 - 예·체능계학원","category":"study"}]},{"lat":"37.27998394","long":"127.00236329","imageIndex":16,"items":[{"name":"한세어린이집[아이행복]","tel":"031-242-7842","addr":"경기도 수원시 팔달구 화서동 71-35번지","indutype":"학원 - 유아원","category":"study"},{"name":"한세음악보습학원","tel":"031-247-8140","addr":"경기도 수원시 팔달구 화서동 71-35번지 2층","indutype":"학원 - 예·체능계학원","category":"study"}]},{"lat":"37.287210171","long":"127.00217153","imageIndex":16,"items":[{"name":"한신리베도만스쿨어린이집[아이행복]","tel":"031-244-3007","addr":"경기도 수원시 팔달구 화서동 769번지 화서한신휴플러스 102동 1층","indutype":"학원 - 유아원","category":"study"}]},{"lat":"37.280515433","long":"126.99769507","imageIndex":16,"items":[{"name":"행복나무유치원[아이행복]","tel":"031-253-7071","addr":"경기도 수원시 팔달구 화서동 125-6번지","indutype":"학원 - 유치원","category":"study"}]},{"lat":"37.280677505","long":"126.99556391","imageIndex":16,"items":[{"name":"화서3호점해법수학교습소","tel":"031-241-4572","addr":"경기도 수원시 팔달구 화서동 202-10번지","indutype":"회원제형태 - 학원","category":"study"}]},{"lat":"37.282461506","long":"126.99505631","imageIndex":16,"items":[{"name":"화서소리엘피아노","tel":"031-256-4041","addr":"경기도 수원시 팔달구 화서동 245-16번지 1층","indutype":"학원 - 예·체능계학원","category":"study"}]},{"lat":"37.284623557","long":"126.99028613","imageIndex":16,"items":[{"name":"화서제일고시학원","tel":"031-258-6300","addr":"경기도 수원시 팔달구 화서동 644-8번지 화서프라자 3층","indutype":"학원 - 기능학원","category":"study"}]},{"lat":"37.28076781","long":"127.00050275","imageIndex":16,"items":[{"name":"화서초등학교","tel":"031-243-2002","addr":"경기도 수원시 팔달구 화서동 104-2번지 화서초등학교","indutype":"학원 - 초중고교육기관","category":"study"},{"name":"화서초등학교_수업료","tel":"031-243-2002","addr":"경기도 수원시 팔달구 화서동 104-2번지 화서초등학교","indutype":"학원 - 초중고교육기관","category":"study"}]},{"lat":"37.279515207","long":"126.99600378","imageIndex":16,"items":[{"name":"화서톡스터,톡스터어학원","tel":"031-255-8818","addr":"경기도 수원시 팔달구 화서동 189-5 동소외 189-15","indutype":"회원제형태 - 학원","category":"study"}]},{"lat":"37.278956699","long":"126.99877764","imageIndex":16,"items":[{"name":"화서한미태권도","tel":"031-246-4950","addr":"경기도 수원시 팔달구 화서동 174-14번지 정재빌딩 501호","indutype":"학원 - 예·체능계학원","category":"study"}]},{"lat":"37.286622169","long":"126.97936986","imageIndex":16,"items":[{"name":"화서해법","tel":"031-296-7300","addr":"경기도 수원시 팔달구 화서동 722-16번지 1층","indutype":"학원 - 보습학원","category":"study"}]},{"lat":"37.285126744","long":"126.98081373","imageIndex":16,"items":[{"name":"화서해법수학학원","tel":"031-298-0330","addr":"경기도 수원시 팔달구 화서동 726-2번지","indutype":"학원 - 보습학원","category":"study"}]},{"lat":"37.283344625","long":"126.99700702","imageIndex":16,"items":[{"name":"화양어린이집[아이행복]","tel":"031-243-3592","addr":"경기도 수원시 팔달구 화서동 250-44번지","indutype":"학원 - 유아원","category":"study"}]},{"lat":"37.283236398","long":"126.99520282","imageIndex":16,"items":[{"name":"화양초등학교","tel":"031-243-6081","addr":"경기도 수원시 팔달구 화서동 274번지 화양초등학교","indutype":"학원 - 초중고교육기관","category":"study"}]},{"lat":"37.286930855","long":"127.00311879","imageIndex":16,"items":[{"name":"화홍초등학교","tel":"031-245-4701","addr":"경기도 수원시 팔달구 화서동 7-1번지 화홍초등학교","indutype":"학원 - 초중고교육기관","category":"study"}]}]