[{"lat":"37.244278134","long":"127.43815807","imageIndex":0,"items":[{"name":"금호타이어 이천대리점","tel":"031-638-0951","addr":"경기도 이천시 호법면 유산리 129-1번지","indutype":"자동차정비 유지 - 자동차시트·타이어","category":"car"}]},{"lat":"37.24375032","long":"127.43466123","imageIndex":0,"items":[{"name":"대림자동차매매상사","tel":"031-637-4988","addr":"경기도 이천시 호법면 유산리 803-6번지 (803-6외4필지)","indutype":"자동차판매 - 중고자동차판매","category":"car"},{"name":"서이천자동차매매상사","tel":"031-632-6981","addr":"경기도 이천시 호법면 유산리 803-6번지","indutype":"자동차판매 - 중고자동차판매","category":"car"}]},{"lat":"37.244355715","long":"127.43665955","imageIndex":0,"items":[{"name":"대성전자","tel":"031-635-0278","addr":"경기도 이천시 호법면 유산리 517-1번지 101호","indutype":"자동차정비 유지 - 자동차부품","category":"car"}]},{"lat":"37.247081341","long":"127.44032691","imageIndex":0,"items":[{"name":"사운드업","tel":"031-633-4732","addr":"경기도 이천시 호법면 유산리 355-3번지 B-2호","indutype":"자동차정비 유지 - 자동차부품","category":"car"}]},{"lat":"37.244439197","long":"127.43846329","imageIndex":0,"items":[{"name":"아주상사","tel":"031-635-8352","addr":"경기도 이천시 호법면 유산리 130-1번지","indutype":"자동차정비 유지 - 윤활유 전문 판매","category":"car"}]},{"lat":"37.24594064","long":"127.43935105","imageIndex":0,"items":[{"name":"차사랑모터스","tel":"031-636-6560","addr":"경기도 이천시 호법면 유산리 482-1번지","indutype":"자동차정비 유지 - 자동차정비","category":"car"},{"name":"차사랑모터스","tel":"031-636-6660","addr":"경기도 이천시 호법면 유산리 482-1번지","indutype":"자동차정비 유지 - 자동차정비","category":"car"}]},{"lat":"37.24174912","long":"127.43737716","imageIndex":0,"items":[{"name":"타이어빵구출장24시","tel":"031-636-8589","addr":"경기도 이천시 호법면 유산리 545번지","indutype":"자동차정비 유지 - 자동차정비","category":"car"}]},{"lat":"37.243780511","long":"127.43379359","imageIndex":0,"items":[{"name":"한라냉동공업","tel":"031-635-1946","addr":"경기도 이천시 호법면 유산리 803-1번지","indutype":"자동차정비 유지 - 자동차부품","category":"car"}]},{"lat":"37.24813431","long":"127.44065986","imageIndex":0,"items":[{"name":"한양정비센타","tel":"031-637-6565","addr":"경기도 이천시 호법면 유산리 357-2번지","indutype":"자동차정비 유지 - 자동차정비","category":"car"}]},{"lat":"37.247305176","long":"127.44071142","imageIndex":0,"items":[{"name":"현대밧데리","tel":"031-637-6546","addr":"경기도 이천시 호법면 유산리 354-4번지","indutype":"자동차정비 유지 - 자동차부품","category":"car"}]}]