[{"lat":"37.540399956","long":"127.21542088","imageIndex":13,"items":[{"name":"(Oh! GYM)오짐","tel":"","addr":"경기도 하남시 신장동 524-2번지 우신빌딩 2층","indutype":"레저업소 - 헬스클럽","category":"leisure"},{"name":"아트노래연습장","tel":"031-796-3466","addr":"경기도 하남시 신장동 524-2번지 우신빌딩 지하1층","indutype":"레저업소 - 노 래 방","category":"leisure"},{"name":"휘트니스피플 하남점","tel":"031-795-3912","addr":"경기도 하남시 신장동 524-2번지 우신빌딩 5층","indutype":"레저업소 - 헬스클럽","category":"leisure"}]},{"lat":"37.537927355","long":"127.21256261","imageIndex":13,"items":[{"name":"J Jun PT","tel":"","addr":"경기도 하남시 신장동 570번지 하남두산위브파크 1층 157호","indutype":"레저업소 - 헬스클럽","category":"leisure"}]},{"lat":"37.53848174","long":"127.20464395","imageIndex":13,"items":[{"name":"K2당구장","tel":"031-793-0093","addr":"경기도 하남시 신장동 427-179번지 3층","indutype":"레저업소 - 당 구 장","category":"leisure"}]},{"lat":"37.547288744","long":"127.21247566","imageIndex":13,"items":[{"name":"OK스크린골프","tel":"031-796-0753","addr":"경기도 하남시 신장동 303-20번지","indutype":"레저업소 - 스크린골프","category":"leisure"}]},{"lat":"37.536656675","long":"127.20759207","imageIndex":13,"items":[{"name":"SBS노래연습장","tel":"031-791-3233","addr":"경기도 하남시 신장동 432-32번지","indutype":"레저업소 - 노 래 방","category":"leisure"}]},{"lat":"37.540873386","long":"127.2075357","imageIndex":13,"items":[{"name":"S라인휘트니스클럽2호점","tel":"031-796-4443","addr":"경기도 하남시 신장동 424-2번지","indutype":"레저업소 - 헬스클럽","category":"leisure"}]},{"lat":"37.540038811","long":"127.21078078","imageIndex":13,"items":[{"name":"Vr+PC방","tel":"031-0000-0000","addr":"경기도 하남시 신장동 407-10번지 광장빌딩 2층","indutype":"레저업소 - 기타레져업소","category":"leisure"},{"name":"광장노래연습장","tel":"031-791-6088","addr":"경기도 하남시 신장동 407-10번지 4층","indutype":"레저업소 - 노 래 방","category":"leisure"},{"name":"광장당구장","tel":"031-791-6033","addr":"경기도 하남시 신장동 407-10번지 3층","indutype":"레저업소 - 당 구 장","category":"leisure"},{"name":"하남스크린 골프","tel":"031-794-1872","addr":"경기도 하남시 신장동 407-10번지 광장빌딩 지하1층","indutype":"레저업소 - 스크린골프","category":"leisure"}]},{"lat":"37.54439992","long":"127.22059209","imageIndex":13,"items":[{"name":"enjoy golf(엔조이 골프)","tel":"","addr":"경기도 하남시 신장동 602번지 하남유니온시티에일린의뜰 102동 401호","indutype":"레저업소 - 골프연습장","category":"leisure"}]},{"lat":"37.540426537","long":"127.21566988","imageIndex":13,"items":[{"name":"sun 핫요가 아카데미","tel":"031-794-7676","addr":"경기도 하남시 신장동 524-3번지 서원빌딩 6층","indutype":"레저업소 - 헬스클럽","category":"leisure"}]},{"lat":"37.538405324","long":"127.20716689","imageIndex":13,"items":[{"name":"가자 노래연습장","tel":"031-796-2448","addr":"경기도 하남시 신장동 428-30번지","indutype":"레저업소 - 노 래 방","category":"leisure"}]},{"lat":"37.541259374","long":"127.21347714","imageIndex":13,"items":[{"name":"갤럭시노래연습장","tel":"031-795-1645","addr":"경기도 하남시 신장동 149-2번지","indutype":"레저업소 - 노 래 방","category":"leisure"},{"name":"클래식당구장","tel":"031-791-5210","addr":"경기도 하남시 신장동 149-2번지 2층","indutype":"레저업소 - 당 구 장","category":"leisure"}]},{"lat":"37.541011665","long":"127.21595442","imageIndex":13,"items":[{"name":"긱스타 PC","tel":"070-4023-5009","addr":"경기도 하남시 신장동 523-1번지 현대베스코아빌딩 지하 110호","indutype":"레저업소 - 기타레져업소","category":"leisure"},{"name":"스카이볼링장","tel":"031-796-9088","addr":"경기도 하남시 신장동 523-1번지 현대베스코아빌딩 1302호 1301호","indutype":"레저업소 - 볼 링 장","category":"leisure"},{"name":"오페라노래연습장","tel":"031-792-5331","addr":"경기도 하남시 신장동 523-1번지 현대베스코아5층,525호,543-551호","indutype":"레저업소 - 노 래 방","category":"leisure"},{"name":"인어스휘트니스 하남점","tel":"031-795-8282","addr":"경기도 하남시 신장동 523-1번지 현대베스코아빌딩 11층 1101호","indutype":"레저업소 - 헬스클럽","category":"leisure"},{"name":"현대당구장","tel":"031-791-3989","addr":"경기도 하남시 신장동 523-1번지 현대베스코아 501동 502호","indutype":"레저업소 - 당 구 장","category":"leisure"}]},{"lat":"37.537155728","long":"127.20555684","imageIndex":13,"items":[{"name":"나이스당구장","tel":"031-791-8110","addr":"경기도 하남시 신장동 430-12번지","indutype":"레저업소 - 당 구 장","category":"leisure"}]},{"lat":"37.540011474","long":"127.21600815","imageIndex":13,"items":[{"name":"노래연습장","tel":"031-794-3985","addr":"경기도 하남시 신장동 526번지","indutype":"레저업소 - 노 래 방","category":"leisure"},{"name":"땡큐당구장","tel":"031-793-2133","addr":"경기도 하남시 신장동 526번지 형제빌딩 2층","indutype":"레저업소 - 당 구 장","category":"leisure"}]},{"lat":"37.537625382","long":"127.20489056","imageIndex":13,"items":[{"name":"놀숲하남신장점","tel":"","addr":"경기도 하남시 신장동 427-71번지 2층","indutype":"레저업소 - 기타레져업소","category":"leisure"}]},{"lat":"37.540711346","long":"127.21259303","imageIndex":13,"items":[{"name":"다짐","tel":"031-793-9877","addr":"경기도 하남시 신장동 390-11번지 3층","indutype":"레저업소 - 헬스클럽","category":"leisure"}]},{"lat":"37.540623132","long":"127.21152918","imageIndex":13,"items":[{"name":"대성골프스쿨","tel":"031-795-0202","addr":"경기도 하남시 신장동 387-1번지 지하1층","indutype":"레저업소 - 골프연습장","category":"leisure"}]},{"lat":"37.547703877","long":"127.21209208","imageIndex":13,"items":[{"name":"더존스크린골프","tel":"031-793-0753","addr":"경기도 하남시 신장동 303-25번지 2층","indutype":"레저업소 - 스크린골프","category":"leisure"}]},{"lat":"37.539372569","long":"127.20531392","imageIndex":13,"items":[{"name":"더캠프PC방","tel":"","addr":"경기도 하남시 신장동 427-279번지 지하1층","indutype":"레저업소 - 기타레져업소","category":"leisure"}]},{"lat":"37.540263912","long":"127.21591835","imageIndex":13,"items":[{"name":"디지탈라이브 노래방","tel":"031-791-1947","addr":"경기도 하남시 신장동 524-9번지","indutype":"레저업소 - 노 래 방","category":"leisure"},{"name":"째즈당구클럽","tel":"031-796-0705","addr":"경기도 하남시 신장동 524-9번지 형림빌딩 4층 1호","indutype":"레저업소 - 당 구 장","category":"leisure"}]},{"lat":"37.539156528","long":"127.20520018","imageIndex":13,"items":[{"name":"딩가딩가노래연습장","tel":"031-792-7786","addr":"경기도 하남시 신장동 427-288번지 지하1층","indutype":"레저업소 - 노 래 방","category":"leisure"}]},{"lat":"37.53717844","long":"127.20805738","imageIndex":13,"items":[{"name":"딩동댕노래연습장","tel":"070-8159-9753","addr":"경기도 하남시 신장동 432-83번지","indutype":"레저업소 - 노 래 방","category":"leisure"}]},{"lat":"37.543317025","long":"127.21155932","imageIndex":13,"items":[{"name":"라움플라잉스튜디오","tel":"031-111-1111","addr":"경기도 하남시 신장동 589-3번지 덕풍프라자 5층 502호","indutype":"레저업소 - 헬스클럽","category":"leisure"}]},{"lat":"37.540847136","long":"127.21223133","imageIndex":13,"items":[{"name":"라이또PC 하남신장점","tel":"070-7603-9236","addr":"경기도 하남시 신장동 390-5번지 3층","indutype":"레저업소 - 기타레져업소","category":"leisure"},{"name":"하남탁쿠클럽","tel":"031-791-9338","addr":"경기도 하남시 신장동 390-5번지 3층","indutype":"레저업소 - 기타레져업소","category":"leisure"}]},{"lat":"37.541072659","long":"127.20692524","imageIndex":13,"items":[{"name":"리온필라테스","tel":"031-791-4648","addr":"경기도 하남시 신장동 415-10번지 명지캐럿 2층 202호","indutype":"레저업소 - 헬스클럽","category":"leisure"},{"name":"우성당구장","tel":"031-796-4100","addr":"경기도 하남시 신장동 415-10번지 명지캐럿 207호","indutype":"레저업소 - 당 구 장","category":"leisure"}]},{"lat":"37.538343584","long":"127.20639733","imageIndex":13,"items":[{"name":"리치노래방","tel":"031-792-9905","addr":"경기도 하남시 신장동 427-18번지 지층","indutype":"레저업소 - 노 래 방","category":"leisure"}]},{"lat":"37.537515498","long":"127.20591988","imageIndex":13,"items":[{"name":"마루노래연습장","tel":"031-795-2273","addr":"경기도 하남시 신장동 427-50번지 2층","indutype":"레저업소 - 노 래 방","category":"leisure"}]},{"lat":"37.538514438","long":"127.20659014","imageIndex":13,"items":[{"name":"명성당구장","tel":"070-8157-9016","addr":"경기도 하남시 신장동 427-30번지 2층","indutype":"레저업소 - 당 구 장","category":"leisure"},{"name":"피아노노래연습장","tel":"031-795-0061","addr":"경기도 하남시 신장동 427-30번지 지하1층","indutype":"레저업소 - 노 래 방","category":"leisure"}]},{"lat":"37.536736565","long":"127.20828246","imageIndex":13,"items":[{"name":"명품노래연습장","tel":"031-795-9515","addr":"경기도 하남시 신장동 438-10번지 3층 301호","indutype":"레저업소 - 노 래 방","category":"leisure"}]},{"lat":"37.537706799","long":"127.20469843","imageIndex":13,"items":[{"name":"문's PT샵","tel":"031-794-8281","addr":"경기도 하남시 신장동 427-73번지 2층","indutype":"레저업소 - 헬스클럽","category":"leisure"}]},{"lat":"37.537596781","long":"127.20580695","imageIndex":13,"items":[{"name":"밀레니엄노래방","tel":"031-792-9808","addr":"경기도 하남시 신장동 427-51번지","indutype":"레저업소 - 노 래 방","category":"leisure"}]},{"lat":"37.539593502","long":"127.20781507","imageIndex":13,"items":[{"name":"반디노래연습장","tel":"031-792-6121","addr":"경기도 하남시 신장동 427-419번지 지하1층","indutype":"레저업소 - 노 래 방","category":"leisure"}]},{"lat":"37.543290934","long":"127.21102743","imageIndex":13,"items":[{"name":"벌키 키즈36.5","tel":"031-796-3605","addr":"경기도 하남시 신장동 589-1번지 현안사업2지구 근린상업시설 1, 2BL 유니온 프라자 301,302,303호","indutype":"레저업소 - 수 영 장","category":"leisure"}]},{"lat":"37.548344743","long":"127.2164732","imageIndex":13,"items":[{"name":"벤허 골프장","tel":"031-791-0755","addr":"경기도 하남시 신장동 251-11번지 2층","indutype":"레저업소 - 스크린골프","category":"leisure"}]},{"lat":"37.539904315","long":"127.21547605","imageIndex":13,"items":[{"name":"브이아이피당구클럽","tel":"031-796-2422","addr":"경기도 하남시 신장동 525번지 국제주차빌딩 3층 301호","indutype":"레저업소 - 당 구 장","category":"leisure"},{"name":"판테온노래연습장","tel":"031-796-1080","addr":"경기도 하남시 신장동 525번지","indutype":"레저업소 - 노 래 방","category":"leisure"}]},{"lat":"37.538901698","long":"127.2118412","imageIndex":13,"items":[{"name":"블링블링노래연습장","tel":"031-792-6748","addr":"경기도 하남시 신장동 448-10번지","indutype":"레저업소 - 노 래 방","category":"leisure"}]},{"lat":"37.538849767","long":"127.20544828","imageIndex":13,"items":[{"name":"사이버 노래연습장","tel":"031-796-9909","addr":"경기도 하남시 신장동 427-394번지 태산빌딩 5층","indutype":"레저업소 - 노 래 방","category":"leisure"}]},{"lat":"37.540434751","long":"127.21611119","imageIndex":13,"items":[{"name":"샐리 필라테스 앤 발레핏","tel":"031-796-0674","addr":"경기도 하남시 신장동 524-5번지 3층","indutype":"레저업소 - 헬스클럽","category":"leisure"}]},{"lat":"37.540346616","long":"127.20994433","imageIndex":13,"items":[{"name":"샨띠요가센터","tel":"031-791-9579","addr":"경기도 하남시 신장동 565-3번지 보문빌딩 402호","indutype":"레저업소 - 헬스클럽","category":"leisure"}]},{"lat":"37.539765218","long":"127.20751004","imageIndex":13,"items":[{"name":"성원당구장","tel":"031-795-0454","addr":"경기도 하남시 신장동 427-418번지","indutype":"레저업소 - 당 구 장","category":"leisure"}]},{"lat":"37.538545292","long":"127.20436125","imageIndex":13,"items":[{"name":"스카이노래연습장","tel":"031-791-1321","addr":"경기도 하남시 신장동 427-178번지 2층","indutype":"레저업소 - 노 래 방","category":"leisure"}]},{"lat":"37.540510853","long":"127.21387105","imageIndex":13,"items":[{"name":"스타일노래연습장","tel":"031-791-9650","addr":"경기도 하남시 신장동 519번지 트레벨 상가 209호","indutype":"레저업소 - 노 래 방","category":"leisure"},{"name":"신군커뮤니케이션","tel":"070-8662-1917","addr":"경기도 하남시 신장동 519번지 오피스텔트레벨 206호 810호","indutype":"레저업소 - 헬스클럽","category":"leisure"},{"name":"아사달노래연습장","tel":"031-796-9906","addr":"경기도 하남시 신장동 519번지 오피스텔트레벨214,215-1","indutype":"레저업소 - 노 래 방","category":"leisure"}]},{"lat":"37.538707504","long":"127.2095551","imageIndex":13,"items":[{"name":"신장1동주민자치위원회","tel":"031-793-7744","addr":"경기도 하남시 신장동 446-17번지","indutype":"레저업소 - 헬스클럽","category":"leisure"}]},{"lat":"37.535959197","long":"127.21480862","imageIndex":13,"items":[{"name":"써니노래방","tel":"031-751-6210","addr":"경기도 하남시 신장동 533-7번지","indutype":"레저업소 - 노 래 방","category":"leisure"}]},{"lat":"37.538823687","long":"127.20489379","imageIndex":13,"items":[{"name":"쓰리팝 PC","tel":"070-8028-3185","addr":"경기도 하남시 신장동 427-227번지","indutype":"레저업소 - 기타레져업소","category":"leisure"}]},{"lat":"37.536459939","long":"127.21189096","imageIndex":13,"items":[{"name":"악쓰는하마","tel":"02-427-0037","addr":"경기도 하남시 신장동 568번지 하남신장현대홈타운 101동 404호","indutype":"레저업소 - 노 래 방","category":"leisure"}]},{"lat":"37.537818902","long":"127.20761787","imageIndex":13,"items":[{"name":"엔돌핀 노래연습장","tel":"031-796-3201","addr":"경기도 하남시 신장동 430-39번지 지층 지하1층","indutype":"레저업소 - 노 래 방","category":"leisure"}]},{"lat":"37.539704845","long":"127.20594844","imageIndex":13,"items":[{"name":"올인노래연습장","tel":"031-791-7625","addr":"경기도 하남시 신장동 427-114번지","indutype":"레저업소 - 노 래 방","category":"leisure"}]},{"lat":"37.537710647","long":"127.20769678","imageIndex":13,"items":[{"name":"우리당구장","tel":"031-794-1915","addr":"경기도 하남시 신장동 430-99번지","indutype":"레저업소 - 당 구 장","category":"leisure"}]},{"lat":"37.536819811","long":"127.20703811","imageIndex":13,"items":[{"name":"월드컵노래연습장","tel":"031-794-7740","addr":"경기도 하남시 신장동 432-31번지","indutype":"레저업소 - 노 래 방","category":"leisure"},{"name":"해적왕 실내낚시카페 하남점","tel":"031-792-0710","addr":"경기도 하남시 신장동 432-31번지 지하1층","indutype":"레저업소 - 기타레져업소","category":"leisure"}]},{"lat":"37.537125871","long":"127.20719734","imageIndex":13,"items":[{"name":"제우스 당구장","tel":"","addr":"경기도 하남시 신장동 432-7번지 3층","indutype":"레저업소 - 당 구 장","category":"leisure"},{"name":"제우스pc방","tel":"","addr":"경기도 하남시 신장동 432-7번지 2층","indutype":"레저업소 - 기타레져업소","category":"leisure"}]},{"lat":"37.539683484","long":"127.2130088","imageIndex":13,"items":[{"name":"주식회사 이노스","tel":"031-111-1111","addr":"경기도 하남시 신장동 519-6번지 우성빌딩 6층 601호","indutype":"레저업소 - 수 영 장","category":"leisure"}]},{"lat":"37.541097097","long":"127.21353326","imageIndex":13,"items":[{"name":"주식회사 힐링스포츠","tel":"031-336-2990","addr":"경기도 하남시 신장동 148-2번지 1층","indutype":"레저업소 - 기타레져업소","category":"leisure"}]},{"lat":"37.540263565","long":"127.2161107","imageIndex":13,"items":[{"name":"중앙골프클럽","tel":"031-792-7100","addr":"경기도 하남시 신장동 524-8번지","indutype":"레저업소 - 골프연습장","category":"leisure"},{"name":"캔디노래연습장","tel":"031-796-3914","addr":"경기도 하남시 신장동 524-8번지","indutype":"레저업소 - 노 래 방","category":"leisure"}]},{"lat":"37.539543809","long":"127.2104739","imageIndex":13,"items":[{"name":"짱노래연습장","tel":"031-791-3231","addr":"경기도 하남시 신장동 407-16번지","indutype":"레저업소 - 노 래 방","category":"leisure"}]},{"lat":"37.540260649","long":"127.22261673","imageIndex":13,"items":[{"name":"창우골프연습장","tel":"031-794-2772","addr":"경기도 하남시 신장동 81-13번지 지하1층","indutype":"레저업소 - 골프연습장","category":"leisure"}]},{"lat":"37.537707031","long":"127.20456266","imageIndex":13,"items":[{"name":"천국노래연습장","tel":"031-794-8883","addr":"경기도 하남시 신장동 427-14번지 3층","indutype":"레저업소 - 노 래 방","category":"leisure"}]},{"lat":"37.540346853","long":"127.21488893","imageIndex":13,"items":[{"name":"코코당구장","tel":"031-795-7710","addr":"경기도 하남시 신장동 524번지 304-305호","indutype":"레저업소 - 당 구 장","category":"leisure"},{"name":"피에스타 PC방 하남시청점","tel":"070-4335-7092","addr":"경기도 하남시 신장동 524번지 하남리빙텔 10층 1001호","indutype":"레저업소 - 기타레져업소","category":"leisure"}]},{"lat":"37.536874164","long":"127.20686854","imageIndex":13,"items":[{"name":"콜로세움PC","tel":"","addr":"경기도 하남시 신장동 432-44번지 3층","indutype":"레저업소 - 기타레져업소","category":"leisure"},{"name":"하남","tel":"031-795-4939","addr":"경기도 하남시 신장동 432-44번지","indutype":"레저업소 - 당 구 장","category":"leisure"}]},{"lat":"37.54212196","long":"127.21975947","imageIndex":13,"items":[{"name":"키즈앤짐","tel":"031-796-9939","addr":"경기도 하남시 신장동 95-3번지","indutype":"레저업소 - 기타레져업소","category":"leisure"}]},{"lat":"37.538208865","long":"127.20614805","imageIndex":13,"items":[{"name":"태양당구장","tel":"031-792-7789","addr":"경기도 하남시 신장동 427-462번지 2층","indutype":"레저업소 - 당 구 장","category":"leisure"}]},{"lat":"37.538652694","long":"127.20478018","imageIndex":13,"items":[{"name":"텔미 노래연습장","tel":"031-796-5778","addr":"경기도 하남시 신장동 427-228번지","indutype":"레저업소 - 노 래 방","category":"leisure"}]},{"lat":"37.540434383","long":"127.21631485","imageIndex":13,"items":[{"name":"트리니티 복싱짐","tel":"070-8876-1212","addr":"경기도 하남시 신장동 524-6번지 건호빌딩 4층","indutype":"레저업소 - 헬스클럽","category":"leisure"}]},{"lat":"37.537541085","long":"127.20675721","imageIndex":13,"items":[{"name":"풍차노래연습장","tel":"031-794-9985","addr":"경기도 하남시 신장동 429-9번지 지층","indutype":"레저업소 - 노 래 방","category":"leisure"}]},{"lat":"37.538959453","long":"127.20453209","imageIndex":13,"items":[{"name":"프로방스노래연습장","tel":"031-795-4455","addr":"경기도 하남시 신장동 427-66번지 진도로르빌 상가 103동 104호","indutype":"레저업소 - 노 래 방","category":"leisure"}]},{"lat":"37.54007012","long":"127.21345116","imageIndex":13,"items":[{"name":"플러스당구장","tel":"031-794-1248","addr":"경기도 하남시 신장동 519-3번지 백천빌딩 5층 1호","indutype":"레저업소 - 당 구 장","category":"leisure"}]},{"lat":"37.546709335","long":"127.21403563","imageIndex":13,"items":[{"name":"하남 유소년 축구클럽","tel":"070-8955-0186","addr":"경기도 하남시 신장동 260-8번지","indutype":"레저업소 - 기타레져업소","category":"leisure"}]},{"lat":"37.542768365","long":"127.21102598","imageIndex":13,"items":[{"name":"하남숲 상상 아트연구소","tel":"031-791-5373","addr":"경기도 하남시 신장동 561번지 에코타운 203동 302호","indutype":"레저업소 - 기타레져업소","category":"leisure"}]},{"lat":"37.538399742","long":"127.2103689","imageIndex":13,"items":[{"name":"현대노래연습장","tel":"031-796-1555","addr":"경기도 하남시 신장동 450-33번지 지층","indutype":"레저업소 - 노 래 방","category":"leisure"}]},{"lat":"37.536982574","long":"127.20669912","imageIndex":13,"items":[{"name":"황진이 노래연습장","tel":"","addr":"경기도 하남시 신장동 430-2번지 2층","indutype":"레저업소 - 노 래 방","category":"leisure"}]}]