[{"lat":"37.721539795","long":"126.97707798","imageIndex":4,"items":[{"name":"BBQ 양주장흥점","tel":"031-826-0092","addr":"경기도 양주시 장흥면 부곡리 491번지 우남 상가 103호","indutype":"일반휴게음식 - 스넥","category":"restaurant"}]},{"lat":"37.719043708","long":"126.97518473","imageIndex":4,"items":[{"name":"가마솥한식뷔페","tel":"031-826-4190","addr":"경기도 양주시 장흥면 부곡리 540-20번지","indutype":"일반휴게음식 - 일반한식","category":"restaurant"},{"name":"이디야","tel":"031-837-1655","addr":"경기도 양주시 장흥면 부곡리 540-20번지 다동 1층","indutype":"일반휴게음식 - 서양음식","category":"restaurant"}]},{"lat":"37.719070944","long":"126.97608074","imageIndex":4,"items":[{"name":"강피자앤맘스터치(장흥점)","tel":"031-873-3651","addr":"경기도 양주시 장흥면 부곡리 540-10번지","indutype":"일반휴게음식 - 일반한식","category":"restaurant"}]},{"lat":"37.713045397","long":"126.95388838","imageIndex":4,"items":[{"name":"그랜드가든","tel":"031-826-4543","addr":"경기도 양주시 장흥면 부곡리 646-31번지","indutype":"일반휴게음식 - 일반한식","category":"restaurant"}]},{"lat":"37.742595604","long":"126.97913557","imageIndex":4,"items":[{"name":"깊은산속옹달샘","tel":"031-826-6336","addr":"경기도 양주시 장흥면 부곡리 84번지","indutype":"일반휴게음식 - 일반한식","category":"restaurant"}]},{"lat":"37.733351501","long":"126.97774319","imageIndex":4,"items":[{"name":"깻잎두마리칩킨 보쌈족발","tel":"031-837-9005","addr":"경기도 양주시 장흥면 부곡리 198번지","indutype":"일반휴게음식 - 일반한식","category":"restaurant"}]},{"lat":"37.739648996","long":"126.97685613","imageIndex":4,"items":[{"name":"꽃피는산골","tel":"031-829-1222","addr":"경기도 양주시 장흥면 부곡리 132-11번지","indutype":"일반휴게음식 - 중국식","category":"restaurant"},{"name":"신무교동낙지","tel":"031-855-9008","addr":"경기도 양주시 장흥면 부곡리 132-11번지","indutype":"일반휴게음식 - 일반한식","category":"restaurant"}]},{"lat":"37.719125633","long":"126.9790183","imageIndex":4,"items":[{"name":"다정꽃등심","tel":"031-829-0166","addr":"경기도 양주시 장흥면 부곡리 536-4번지","indutype":"일반휴게음식 - 일반한식","category":"restaurant"}]},{"lat":"37.741343017","long":"126.97788797","imageIndex":4,"items":[{"name":"대청마루","tel":"031-826-5575","addr":"경기도 양주시 장흥면 부곡리 120-4번지","indutype":"일반휴게음식 - 일반한식","category":"restaurant"}]},{"lat":"37.720153374","long":"126.982466","imageIndex":4,"items":[{"name":"미조숯불장어가","tel":"031-826-4416","addr":"경기도 양주시 장흥면 부곡리 534-1번지 미조숯불장어가","indutype":"일반휴게음식 - 일반한식","category":"restaurant"}]},{"lat":"37.750873712","long":"126.97193901","imageIndex":4,"items":[{"name":"밍","tel":"031-829-3007","addr":"경기도 양주시 장흥면 부곡리 98-5","indutype":"일반휴게음식 - 서양음식","category":"restaurant"}]},{"lat":"37.720405302","long":"126.98058312","imageIndex":4,"items":[{"name":"서광식당","tel":"","addr":"경기도 양주시 장흥면 부곡리 532-1번지 1층","indutype":"일반휴게음식 - 일반한식","category":"restaurant"},{"name":"한상궁족발","tel":"031-879-8070","addr":"경기도 양주시 장흥면 부곡리 532-1번지 1층","indutype":"일반휴게음식 - 일반한식","category":"restaurant"}]},{"lat":"37.729018396","long":"126.98021754","imageIndex":4,"items":[{"name":"소하나식당","tel":"031-855-2293","addr":"경기도 양주시 장흥면 부곡리 357-12번지","indutype":"일반휴게음식 - 일반한식","category":"restaurant"}]},{"lat":"37.731567468","long":"126.97710853","imageIndex":4,"items":[{"name":"송추돌판 생삼겹살","tel":"031-871-5292","addr":"경기도 양주시 장흥면 부곡리 329-1번지","indutype":"일반휴게음식 - 일반한식","category":"restaurant"}]},{"lat":"37.741648943","long":"126.9760726","imageIndex":4,"items":[{"name":"송추바베큐","tel":"031-258-9875","addr":"경기도 양주시 장흥면 부곡리 124-8번지","indutype":"일반휴게음식 - 일반한식","category":"restaurant"}]},{"lat":"37.735873907","long":"126.97649443","imageIndex":4,"items":[{"name":"송추워터피아3층","tel":"031-877-6928","addr":"경기도 양주시 장흥면 부곡리 183번지 3층","indutype":"일반휴게음식 - 일반한식","category":"restaurant"},{"name":"우암장꼬리곰탕","tel":"031-855-6928","addr":"경기도 양주시 장흥면 부곡리 183번지","indutype":"일반휴게음식 - 일반한식","category":"restaurant"}]},{"lat":"37.740649075","long":"126.9769352","imageIndex":4,"items":[{"name":"송추웰빙밥상","tel":"031-826-4778","addr":"경기도 양주시 장흥면 부곡리 123-6번지","indutype":"일반휴게음식 - 일반한식","category":"restaurant"}]},{"lat":"37.736621994","long":"126.97783284","imageIndex":4,"items":[{"name":"송추일번가","tel":"031-829-5533","addr":"경기도 양주시 장흥면 부곡리 145-5번지","indutype":"일반휴게음식 - 일반한식","category":"restaurant"}]},{"lat":"37.718963089","long":"126.977249","imageIndex":4,"items":[{"name":"송추커피","tel":"031-111-1111","addr":"경기도 양주시 장흥면 부곡리 537-1번지","indutype":"일반휴게음식 - 서양음식","category":"restaurant"}]},{"lat":"37.742342736","long":"126.97632195","imageIndex":4,"items":[{"name":"수석가든","tel":"031-829-0882","addr":"경기도 양주시 장흥면 부곡리 118-21번지","indutype":"일반휴게음식 - 일반한식","category":"restaurant"}]},{"lat":"37.749621326","long":"126.9717126","imageIndex":4,"items":[{"name":"알프스","tel":"031-855-7087","addr":"경기도 양주시 장흥면 부곡리 98-3번지 (외1필지(98-4번지))","indutype":"일반휴게음식 - 서양음식","category":"restaurant"}]},{"lat":"37.721764781","long":"126.97594366","imageIndex":4,"items":[{"name":"양심소먹으면돼지","tel":"031-826-5224","addr":"경기도 양주시 장흥면 부곡리 486-19번지 가동 1층","indutype":"일반휴게음식 - 일반한식","category":"restaurant"}]},{"lat":"37.750928007","long":"126.97285808","imageIndex":4,"items":[{"name":"여행스케치","tel":"031-877-9240","addr":"경기도 양주시 장흥면 부곡리 98-2번지","indutype":"일반휴게음식 - 서양음식","category":"restaurant"}]},{"lat":"37.741432834","long":"126.97660591","imageIndex":4,"items":[{"name":"오뚜기 토속마당","tel":"031-826-7846","addr":"경기도 양주시 장흥면 부곡리 123-1번지","indutype":"일반휴게음식 - 일반한식","category":"restaurant"}]},{"lat":"37.719205595","long":"126.97399375","imageIndex":4,"items":[{"name":"임진강추어탕","tel":"031-855-3381","addr":"경기도 양주시 장흥면 부곡리 578번지","indutype":"일반휴게음식 - 일반한식","category":"restaurant"}]},{"lat":"37.728017913","long":"126.97813066","imageIndex":4,"items":[{"name":"진달래향기","tel":"031-829-1655","addr":"경기도 양주시 장흥면 부곡리 393-3번지","indutype":"일반휴게음식 - 일반한식","category":"restaurant"}]},{"lat":"37.718900097","long":"126.97760063","imageIndex":4,"items":[{"name":"천하양대창구이","tel":"031-855-3327","addr":"경기도 양주시 장흥면 부곡리 537-3번지 1층","indutype":"일반휴게음식 - 일반한식","category":"restaurant"}]},{"lat":"37.736378704","long":"126.97768544","imageIndex":4,"items":[{"name":"취영루","tel":"031-829-0082","addr":"경기도 양주시 장흥면 부곡리 145-11번지","indutype":"일반휴게음식 - 중국식","category":"restaurant"}]},{"lat":"37.730072097","long":"126.97812998","imageIndex":4,"items":[{"name":"토담골","tel":"031-879-0189","addr":"경기도 양주시 장흥면 부곡리 340-6번지","indutype":"일반휴게음식 - 일반한식","category":"restaurant"}]},{"lat":"37.723431604","long":"126.97615857","imageIndex":4,"items":[{"name":"피자꼬꼬","tel":"031-878-7971","addr":"경기도 양주시 장흥면 부곡리 484-1번지","indutype":"일반휴게음식 - 서양음식","category":"restaurant"}]},{"lat":"37.721351417","long":"126.9811613","imageIndex":4,"items":[{"name":"한성가든","tel":"031-826-4065","addr":"경기도 양주시 장흥면 부곡리 519-14번지 1층","indutype":"일반휴게음식 - 일반한식","category":"restaurant"}]},{"lat":"37.725594171","long":"126.97736015","imageIndex":4,"items":[{"name":"한우장터","tel":"","addr":"경기도 양주시 장흥면 부곡리 402-11번지 1층","indutype":"일반휴게음식 - 일반한식","category":"restaurant"}]}]