[{"lat":"37.402361672","long":"126.91254037","imageIndex":17,"items":[{"name":"(주)믿음사","tel":"031-445-7362","addr":"경기도 안양시 만안구 박달로","indutype":"건축자재 - 인테리어전문","category":"other"}]},{"lat":"37.40275026","long":"126.91406461","imageIndex":17,"items":[{"name":"그린닥트대한종합공사","tel":"031-444-2993","addr":"경기도 안양시 만안구 박달로","indutype":"용역 서비스 - 기타용역서비스","category":"other"}]},{"lat":"37.402693904","long":"126.91106043","imageIndex":17,"items":[{"name":"김영희셀레베스","tel":"031-442-5135","addr":"경기도 안양시 만안구 박달로","indutype":"의류 - 정장","category":"other"}]},{"lat":"37.402332788","long":"126.91014605","imageIndex":17,"items":[{"name":"뉴청스튜디오","tel":"031-399-8877","addr":"경기도 안양시 만안구 박달로","indutype":"광학제품 - 사진관","category":"other"}]},{"lat":"37.403411687","long":"126.91912366","imageIndex":17,"items":[{"name":"다올","tel":"031-466-9218","addr":"경기도 안양시 만안구 박달로","indutype":"신변잡화 - 기타잡화","category":"other"}]},{"lat":"37.40157671","long":"126.90017439","imageIndex":17,"items":[{"name":"대산건축설비","tel":"031-442-5002","addr":"경기도 안양시 만안구 박달로","indutype":"건축자재 - 목재·석재·철물","category":"other"}]},{"lat":"37.402637482","long":"126.90806755","imageIndex":17,"items":[{"name":"동반텔레콤","tel":"031-442-8282","addr":"경기도 안양시 만안구 박달로","indutype":"사무통신 - 통신기기","category":"other"}]},{"lat":"37.402860295","long":"126.91665085","imageIndex":17,"items":[{"name":"방석닷컴","tel":"000-1600-8759","addr":"경기도 안양시 만안구 박달로","indutype":"직물 - 침구·수예점","category":"other"}]},{"lat":"37.402331384","long":"126.90837288","imageIndex":17,"items":[{"name":"세무회계사무소 성림","tel":"031-465-3455","addr":"경기도 안양시 만안구 박달로","indutype":"용역 서비스 - 법률회계서비스(개인)","category":"other"}]},{"lat":"37.401549296","long":"126.89973396","imageIndex":17,"items":[{"name":"아띠랑인테리어","tel":"031-348-7111","addr":"경기도 안양시 만안구 박달로","indutype":"용역 서비스 - 기타용역서비스","category":"other"}]},{"lat":"37.404639745","long":"126.88986967","imageIndex":17,"items":[{"name":"안양공예","tel":"031-442-0119","addr":"경기도 안양시 만안구 박달로","indutype":"레져용품 - 악기점","category":"other"}]},{"lat":"37.402331762","long":"126.90884723","imageIndex":17,"items":[{"name":"예지인테리어","tel":"031-469-0003","addr":"경기도 안양시 만안구 박달로","indutype":"건축자재 - 인테리어전문","category":"other"}]},{"lat":"37.402709894","long":"126.89780107","imageIndex":17,"items":[{"name":"유앤아이서적","tel":"031-444-5366","addr":"경기도 안양시 만안구 박달로","indutype":"회원제형태 - 서적","category":"other"}]},{"lat":"37.402668143","long":"126.91270941","imageIndex":17,"items":[{"name":"태화철물타일","tel":"031-446-7931","addr":"경기도 안양시 만안구 박달로","indutype":"건축자재 - 목재·석재·철물","category":"other"}]},{"lat":"37.402331887","long":"126.90900535","imageIndex":4,"items":[{"name":"거부정","tel":"031-442-3857","addr":"경기도 안양시 만안구 박달로","indutype":"일반휴게음식 - 주점","category":"restaurant"}]},{"lat":"37.40491659","long":"126.8873167","imageIndex":4,"items":[{"name":"고미정","tel":"031-447-0022","addr":"경기도 안양시 만안구 박달로","indutype":"일반휴게음식 - 일반한식","category":"restaurant"}]},{"lat":"37.402361438","long":"126.91223543","imageIndex":4,"items":[{"name":"김대리생생음악쌀마","tel":"031-445-9236","addr":"경기도 안양시 만안구 박달로","indutype":"일반휴게음식 - 일반한식","category":"restaurant"},{"name":"보람이네 한식분식","tel":"031-441-1236","addr":"경기도 안양시 만안구 박달로","indutype":"일반휴게음식 - 일반한식","category":"restaurant"}]},{"lat":"37.403885471","long":"126.89259274","imageIndex":4,"items":[{"name":"대림꼬꼬마당","tel":"031-464-0909","addr":"경기도 안양시 만안구 박달로","indutype":"일반휴게음식 - 스넥","category":"restaurant"}]},{"lat":"37.401939874","long":"126.90340399","imageIndex":4,"items":[{"name":"돼지도둑","tel":"031-445-3050","addr":"경기도 안양시 만안구 박달로","indutype":"일반휴게음식 - 일반한식","category":"restaurant"}]},{"lat":"37.4025267","long":"126.91634629","imageIndex":4,"items":[{"name":"소문난대박집","tel":"031-444-5303","addr":"경기도 안양시 만안구 박달로","indutype":"일반휴게음식 - 일반한식","category":"restaurant"}]},{"lat":"37.40275026","long":"126.91406461","imageIndex":4,"items":[{"name":"심양불고기","tel":"031-464-5488","addr":"경기도 안양시 만안구 박달로","indutype":"일반휴게음식 - 일반한식","category":"restaurant"}]},{"lat":"37.402664313","long":"126.90781905","imageIndex":4,"items":[{"name":"춘시향사천성","tel":"031-441-8750","addr":"경기도 안양시 만안구 박달로","indutype":"일반휴게음식 - 중국식","category":"restaurant"}]},{"lat":"37.402360233","long":"126.91067684","imageIndex":4,"items":[{"name":"호방다방","tel":"031-442-1705","addr":"경기도 안양시 만안구 박달로","indutype":"일반휴게음식 - 서양음식","category":"restaurant"}]},{"lat":"37.402498327","long":"126.90319996","imageIndex":4,"items":[{"name":"호식이두마리치킨박달점","tel":"031-464-0177","addr":"경기도 안양시 만안구 박달로","indutype":"일반휴게음식 - 스넥","category":"restaurant"}]},{"lat":"37.402360497","long":"126.91101566","imageIndex":4,"items":[{"name":"홍짬뽕","tel":"031-465-0945","addr":"경기도 안양시 만안구 박달로","indutype":"일반휴게음식 - 중국식","category":"restaurant"}]},{"lat":"37.402417302","long":"126.91461842","imageIndex":13,"items":[{"name":"글래모","tel":"031-466-1588","addr":"경기도 안양시 만안구 박달로","indutype":"보건위생 - 미용원","category":"beauty"}]},{"lat":"37.403885471","long":"126.89259274","imageIndex":13,"items":[{"name":"다사랑헤어","tel":"031-464-2695","addr":"경기도 안양시 만안구 박달로","indutype":"보건위생 - 미용원","category":"beauty"}]},{"lat":"37.40157671","long":"126.90017439","imageIndex":13,"items":[{"name":"러브헤어 (Love hair)","tel":"031-443-9979","addr":"경기도 안양시 만안구 박달로","indutype":"보건위생 - 미용원","category":"beauty"}]},{"lat":"37.402361438","long":"126.91223543","imageIndex":13,"items":[{"name":"수아헤어&가발","tel":"031-897-7321","addr":"경기도 안양시 만안구 박달로","indutype":"보건위생 - 미용원","category":"beauty"}]},{"lat":"37.402498327","long":"126.90319996","imageIndex":13,"items":[{"name":"이현주  미술심리 연구소","tel":"031-464-2666","addr":"경기도 안양시 만안구 박달로","indutype":"보건위생 - 기타대인서비스","category":"beauty"}]},{"lat":"37.402637482","long":"126.90806755","imageIndex":13,"items":[{"name":"타임헤어샵","tel":"031-466-2996","addr":"경기도 안양시 만안구 박달로","indutype":"보건위생 - 미용원","category":"beauty"}]},{"lat":"37.400295566","long":"126.90895142","imageIndex":16,"items":[{"name":"까꿍어린이집[아이행복]","tel":"031-468-4489","addr":"경기도 안양시 만안구 박달로 498","indutype":"학원 - 유아원","category":"study"}]},{"lat":"37.404371581","long":"126.89212896","imageIndex":16,"items":[{"name":"참나래어린이집[아이행복]","tel":"031-347-3261","addr":"경기도 안양시 만안구 박달로","indutype":"학원 - 유아원","category":"study"}]},{"lat":"37.402693694","long":"126.91078937","imageIndex":7,"items":[{"name":"두성","tel":"031-441-7882","addr":"경기도 안양시 만안구 박달로","indutype":"음료식품 - 농·축·수산품","category":"food"}]},{"lat":"37.402498327","long":"126.90319996","imageIndex":7,"items":[{"name":"최연찬베이커리","tel":"02-449-0455","addr":"경기도 안양시 만안구 박달로","indutype":"음료식품 - 제과점","category":"food"}]},{"lat":"37.402331582","long":"126.90862135","imageIndex":8,"items":[{"name":"세은약국","tel":"031-468-8253","addr":"경기도 안양시 만안구 박달로","indutype":"약국 - 약국","category":"medical"}]},{"lat":"37.402417302","long":"126.91461842","imageIndex":0,"items":[{"name":"스마트자동차","tel":"031-441-2258","addr":"경기도 안양시 만안구 박달로","indutype":"자동차정비 유지 - 자동차정비","category":"car"}]},{"lat":"37.402665769","long":"126.9096487","imageIndex":0,"items":[{"name":"안양제일자동차외형복원","tel":"031-443-7782","addr":"경기도 안양시 만안구 박달로","indutype":"자동차정비 유지 - 카인테리어","category":"car"}]}]