[{"lat":"37.31230102","long":"127.64161004","imageIndex":13,"items":[{"name":"H hair (헤어)","tel":"031-886-5766","addr":"경기도 여주시 오학동 408번지 여주오드카운티 상가동 103호","indutype":"보건위생 - 미용원","category":"beauty"}]},{"lat":"37.305745146","long":"127.64263742","imageIndex":13,"items":[{"name":"J에스테틱","tel":"031-885-1588","addr":"경기도 여주시 오학동 292-13번지","indutype":"보건위생 - 피부미용실","category":"beauty"},{"name":"헤어로비","tel":"031-885-1588","addr":"경기도 여주시 오학동 292-13번지","indutype":"보건위생 - 미용원","category":"beauty"}]},{"lat":"37.310463281","long":"127.64321884","imageIndex":13,"items":[{"name":"Oic피부&헤어","tel":"","addr":"경기도 여주시 오학동 279-41번지 1동 3호","indutype":"보건위생 - 피부미용실","category":"beauty"},{"name":"신유정헤어oic","tel":"031-882-6915","addr":"경기도 여주시 오학동 279-41번지 1층 3호","indutype":"보건위생 - 미용원","category":"beauty"}]},{"lat":"37.305106618","long":"127.6424177","imageIndex":13,"items":[{"name":"경기이화덴탈","tel":"031-886-0928","addr":"경기도 여주시 오학동 292-24번지","indutype":"보건위생 - 의료용품","category":"beauty"}]},{"lat":"37.308104459","long":"127.642883","imageIndex":13,"items":[{"name":"네일은 행복","tel":"031-882-4540","addr":"경기도 여주시 오학동 285-11번지 201호","indutype":"보건위생 - 피부미용실","category":"beauty"}]},{"lat":"37.302776451","long":"127.64344692","imageIndex":13,"items":[{"name":"다미인 토탈 뷰티샵","tel":"031-881-0027","addr":"경기도 여주시 오학동 369-2번지 2층","indutype":"보건위생 - 피부미용실","category":"beauty"}]},{"lat":"37.302407508","long":"127.64502284","imageIndex":13,"items":[{"name":"더페이스샵 하나로마트 여주점","tel":"031-886-2937","addr":"경기도 여주시 오학동 359-1번지","indutype":"보건위생 - 화장품","category":"beauty"}]},{"lat":"37.30985481","long":"127.64410481","imageIndex":13,"items":[{"name":"머리이야기","tel":"031-881-0898","addr":"경기도 여주시 오학동 256-4번지","indutype":"보건위생 - 미용원","category":"beauty"}]},{"lat":"37.328267271","long":"127.68041137","imageIndex":13,"items":[{"name":"미가람미용실","tel":"031-882-9100","addr":"경기도 여주시 오학동 322-2번지","indutype":"보건위생 - 미용원","category":"beauty"}]},{"lat":"37.308633771","long":"127.64330485","imageIndex":13,"items":[{"name":"박지연헤어필","tel":"031-881-2078","addr":"경기도 여주시 오학동 286번지","indutype":"보건위생 - 미용원","category":"beauty"}]},{"lat":"37.306384101","long":"127.64277819","imageIndex":13,"items":[{"name":"뷰티온","tel":"","addr":"경기도 여주시 오학동 292-11번지 1동 102호","indutype":"보건위생 - 피부미용실","category":"beauty"}]},{"lat":"37.309378886","long":"127.64380749","imageIndex":13,"items":[{"name":"새시대대리운전","tel":"031-884-1182","addr":"경기도 여주시 오학동 255-5번지","indutype":"보건위생 - 기타대인서비스","category":"beauty"}]},{"lat":"37.308303376","long":"127.64441875","imageIndex":13,"items":[{"name":"수정사우나","tel":"031-885-0308","addr":"경기도 여주시 오학동 297-12번지","indutype":"보건위생 - 사우나","category":"beauty"},{"name":"은성사우나","tel":"031-882-0059","addr":"경기도 여주시 오학동 297-12번지 지층","indutype":"보건위생 - 사우나","category":"beauty"}]},{"lat":"37.29735276","long":"127.63330693","imageIndex":13,"items":[{"name":"쉬크헤어","tel":"031-881-0731","addr":"경기도 여주시 오학동 100-28번지","indutype":"보건위생 - 미용원","category":"beauty"}]},{"lat":"37.302414802","long":"127.64699672","imageIndex":13,"items":[{"name":"쎄리하우스","tel":"031-883-6674","addr":"경기도 여주시 오학동 402-1번지 1층","indutype":"보건위생 - 미용원","category":"beauty"},{"name":"쎄리하우스(SSERIHOUSE)","tel":"031-883-6674","addr":"경기도 여주시 오학동 402-1번지","indutype":"보건위생 - 미용원","category":"beauty"}]},{"lat":"37.301411475","long":"127.64758595","imageIndex":13,"items":[{"name":"엘지럭셔리뷰티 신여주점","tel":"031-883-5355","addr":"경기도 여주시 오학동 404-12번지","indutype":"보건위생 - 화장품","category":"beauty"}]},{"lat":"37.302941371","long":"127.64294076","imageIndex":13,"items":[{"name":"여주시민스피드대리운전","tel":"031-886-8206","addr":"경기도 여주시 오학동 370-1번지","indutype":"보건위생 - 기타대인서비스","category":"beauty"}]},{"lat":"37.310019549","long":"127.64363244","imageIndex":13,"items":[{"name":"이엔아이지 해독센타","tel":"031-882-5032","addr":"경기도 여주시 오학동 283-5번지 2층","indutype":"보건위생 - 미용재료","category":"beauty"}]},{"lat":"37.303552531","long":"127.64488595","imageIndex":13,"items":[{"name":"이연희헤어커커","tel":"031-881-5580","addr":"경기도 여주시 오학동 361번지 신도상가 201호","indutype":"보건위생 - 미용원","category":"beauty"}]},{"lat":"37.310774245","long":"127.64236418","imageIndex":13,"items":[{"name":"제이헤어","tel":"031-886-0503","addr":"경기도 여주시 오학동 280-10번지 동우프라자 101호","indutype":"보건위생 - 미용원","category":"beauty"}]},{"lat":"37.310353517","long":"127.64352247","imageIndex":13,"items":[{"name":"준앤 큐사랑","tel":"031-1111-1111","addr":"경기도 여주시 오학동 279-38번지","indutype":"보건위생 - 미용재료","category":"beauty"}]},{"lat":"37.310102712","long":"127.64324962","imageIndex":13,"items":[{"name":"허브화장품","tel":"031-885-7077","addr":"경기도 여주시 오학동 279-40번지 1동 2층","indutype":"보건위생 - 화장품","category":"beauty"}]}]