[{"lat":"37.3974756657","long":"126.9873874441","imageIndex":13,"items":[{"name":"GOLPARK/주식회사 피아이에스지","tel":"02-582-9898","addr":"경기도 의왕시 포일동 657-2번지 에이스청계타워 A동 601-1호","indutype":"레저업소 - 스크린골프","category":"leisure"}]},{"lat":"37.3963310818","long":"126.9852306773","imageIndex":13,"items":[{"name":"S노래연습장","tel":"031-421-7488","addr":"경기도 의왕시 포일동 662-2번지 포일프라자 301,302호","indutype":"레저업소 - 노 래 방","category":"leisure"},{"name":"드림존스크린골프","tel":"031-424-0725","addr":"경기도 의왕시 포일동 662-2번지 포일프라자 303,304,305호","indutype":"레저업소 - 스크린골프","category":"leisure"},{"name":"알당구장","tel":"031-421-0960","addr":"경기도 의왕시 포일동 662-2번지 포일프라자 504호","indutype":"레저업소 - 당 구 장","category":"leisure"},{"name":"초콜릿","tel":"070-2030-3557","addr":"경기도 의왕시 포일동 662-2번지 포일프라자 201,202호","indutype":"레저업소 - 기타레져업소","category":"leisure"}]},{"lat":"37.3921132192","long":"126.9787836070","imageIndex":13,"items":[{"name":"놀PC방","tel":"070-2443-2989","addr":"경기도 의왕시 포일동 537-4번지 무주빌딩 지층","indutype":"레저업소 - 기타레져업소","category":"leisure"},{"name":"핏아이언짐","tel":"031-423-0388","addr":"경기도 의왕시 포일동 537-4번지 무주빌딩 3층","indutype":"레저업소 - 헬스클럽","category":"leisure"}]},{"lat":"37.3955291617","long":"126.9850840553","imageIndex":13,"items":[{"name":"리발란스 필라테스(re:balance pilates)","tel":"031-422-8911","addr":"경기도 의왕시 포일동 661번지 스마일타워 6층 601호","indutype":"레저업소 - 헬스클럽","category":"leisure"}]},{"lat":"37.3980518366","long":"126.9841122206","imageIndex":13,"items":[{"name":"리숨요가","tel":"031-111-1111","addr":"경기도 의왕시 포일동 667-2번지 1층","indutype":"레저업소 - 헬스클럽","category":"leisure"}]},{"lat":"37.3958895069","long":"126.9847000033","imageIndex":13,"items":[{"name":"리앤요가","tel":"031-422-1269","addr":"경기도 의왕시 포일동 662번지 파레사타워 406호","indutype":"레저업소 - 헬스클럽","category":"leisure"}]},{"lat":"37.3905004780","long":"126.9791116010","imageIndex":13,"items":[{"name":"삼보컴퓨터서비스센터","tel":"070-4194-4019","addr":"경기도 의왕시 포일동 546번지 지층","indutype":"레저업소 - 기타레져업소","category":"leisure"}]},{"lat":"37.3956643918","long":"126.9856147994","imageIndex":13,"items":[{"name":"숲속당구","tel":"031-422-8084","addr":"경기도 의왕시 포일동 660-2번지 스마일투 202,203호","indutype":"레저업소 - 당 구 장","category":"leisure"},{"name":"스마일","tel":"","addr":"경기도 의왕시 포일동 660-2번지 스마일투 704호","indutype":"레저업소 - 골프연습장","category":"leisure"}]},{"lat":"37.3964120835","long":"126.9846434109","imageIndex":13,"items":[{"name":"아이비스PC 포일점","tel":"","addr":"경기도 의왕시 포일동 663-3번지 유창씨밀레 1동 201호, 202호","indutype":"레저업소 - 기타레져업소","category":"leisure"}]},{"lat":"37.3914469647","long":"126.9813359195","imageIndex":13,"items":[{"name":"에스비에스 당구클럽","tel":"031-423-9696","addr":"경기도 의왕시 포일동 539-10번지 삼우상가 지층 1.2호","indutype":"레저업소 - 당 구 장","category":"leisure"}]},{"lat":"37.3991061034","long":"126.9846653451","imageIndex":13,"items":[{"name":"인덕원승마클럽","tel":"031-423-3232","addr":"경기도 의왕시 포일동 438 외6필지","indutype":"레저업소 - 기타레져업소","category":"leisure"}]},{"lat":"37.4009449504","long":"126.9908313688","imageIndex":13,"items":[{"name":"주식회사 알피티코리아","tel":"070-4858-4653","addr":"경기도 의왕시 포일동 653번지 인덕원아이티밸리 B동 1004호","indutype":"레저업소 - 기타레져업소","category":"leisure"},{"name":"주식회사 알피티코리아","tel":"070-4858-4654","addr":"경기도 의왕시 포일동 653번지 인덕원IT밸리 B동 1004호","indutype":"레저업소 - 기타레져업소","category":"leisure"}]},{"lat":"37.3959707464","long":"126.9856937811","imageIndex":13,"items":[{"name":"티나 필라테스","tel":"","addr":"경기도 의왕시 포일동 660번지 포일프라임타워 204호","indutype":"레저업소 - 헬스클럽","category":"leisure"}]},{"lat":"37.3955292650","long":"126.9857842267","imageIndex":13,"items":[{"name":"티업 스크린골프","tel":"031-423-1313","addr":"경기도 의왕시 포일동 660-3번지 4층","indutype":"레저업소 - 스크린골프","category":"leisure"}]},{"lat":"37.3961418360","long":"126.9850048582","imageIndex":13,"items":[{"name":"팀타이거짐 8호점","tel":"031-111-1111","addr":"경기도 의왕시 포일동 662-1번지","indutype":"레저업소 - 헬스클럽","category":"leisure"}]},{"lat":"37.3921145337","long":"126.9864512645","imageIndex":13,"items":[{"name":"포일GOLF연습장","tel":"031-423-7373","addr":"경기도 의왕시 포일동 510-7번지","indutype":"레저업소 - 골프연습장","category":"leisure"},{"name":"포일골프존스크린","tel":"031-424-7373","addr":"경기도 의왕시 포일동 510-7번지 3층","indutype":"레저업소 - 스크린골프","category":"leisure"}]}]