[{"lat":"37.074295485","long":"127.37514488","imageIndex":17,"items":[{"name":"삼죽농업협동조합","tel":"031-672-4770","addr":"경기도 안성시 삼죽면 용월리 463-1번지","indutype":"유통업 비영리 - 농,축협 직영매장","category":"other"}]},{"lat":"37.07340275","long":"127.37536542","imageIndex":17,"items":[{"name":"삼죽우체국","tel":"031-672-4000","addr":"경기도 안성시 삼죽면 용월리 467-1번지","indutype":"용역 서비스 - 공공요금대행서비스/소","category":"other"}]},{"lat":"37.074519367","long":"127.37558454","imageIndex":17,"items":[{"name":"삼죽철물종합건재","tel":"031-672-4202","addr":"경기도 안성시 삼죽면 용월리 461-1","indutype":"건축자재 - 목재·석재·철물","category":"other"}]},{"lat":"37.075014868","long":"127.37560945","imageIndex":17,"items":[{"name":"삼흥전자","tel":"031-672-4084","addr":"경기도 안성시 삼죽면 용월리 406-7번지 1층","indutype":"전기제품 - 기타전기제품","category":"other"}]},{"lat":"37.074015986","long":"127.37519974","imageIndex":17,"items":[{"name":"세븐일레븐안성삼죽점","tel":"031-1577-0711","addr":"경기도 안성시 삼죽면 용월리 464-1번지 1층","indutype":"유통업 영리 - 편 의 점","category":"other"}]},{"lat":"37.075768908","long":"127.38219172","imageIndex":17,"items":[{"name":"세븐일레븐용월산업단지점","tel":"031-1577-0711","addr":"경기도 안성시 삼죽면 용월리 449-1번지","indutype":"유통업 영리 - 편 의 점","category":"other"}]},{"lat":"37.072542659","long":"127.37666563","imageIndex":17,"items":[{"name":"주식회사 대영비료","tel":"02-3486-6791","addr":"경기도 안성시 삼죽면 용월리 468-1","indutype":"농업 - 비료,사료,종자","category":"other"}]},{"lat":"37.074795403","long":"127.39066581","imageIndex":17,"items":[{"name":"품원(주)","tel":"02-2059-6026","addr":"경기도 안성시 삼죽면 용월리 46-4번지","indutype":"용역 서비스 - 사무서비스","category":"other"}]},{"lat":"37.073098276","long":"127.38046917","imageIndex":17,"items":[{"name":"한울조명","tel":"031-677-6395","addr":"경기도 안성시 삼죽면 용월리 454-14번지","indutype":"건축자재 - 조명기구","category":"other"}]}]