[{"lat":"37.921026912","long":"127.21540829","imageIndex":0,"items":[{"name":"(주)포천자동차","tel":"031-535-4921","addr":"경기도 포천시 신북면 가채리 337-2번지","indutype":"자동차정비 유지 - 자동차정비","category":"car"},{"name":"포천자동차공업사","tel":"535-4921","addr":"경기도 포천시 신북면 가채리 337-2번지","indutype":"서비스 - 자동차 수리","category":"car"},{"name":"포천자동차공업사","tel":"031-536-8582","addr":"경기도 포천시 신북면 가채리 337-2번지","indutype":"자동차정비 유지 - 자동차정비","category":"car"}]},{"lat":"37.920331827","long":"127.22108133","imageIndex":0,"items":[{"name":"건창자동차공업사","tel":"535-7109","addr":"경기도 포천시 신북면 가채리 23번지","indutype":"서비스 - 자동차 수리","category":"car"},{"name":"에셀세차장","tel":"031-533-7717","addr":"경기도 포천시 신북면 가채리 23번지","indutype":"자동차정비 유지 - 세차장","category":"car"}]},{"lat":"37.913803967","long":"127.21402289","imageIndex":0,"items":[{"name":"그린자동차공업사","tel":"534-5774","addr":"경기도 포천시 신북면 가채리 190번지","indutype":"서비스 - 자동차 수리","category":"car"}]},{"lat":"37.904580078","long":"127.20277394","imageIndex":0,"items":[{"name":"대범상사","tel":"031-533-9600","addr":"경기도 포천시 신북면 가채리 819-18번지 A동 403호","indutype":"자동차정비 유지 - 윤활유 전문 판매","category":"car"}]},{"lat":"37.905964729","long":"127.20960006","imageIndex":0,"items":[{"name":"르노삼성자동차지정정비코너 신읍점","tel":"031-532-1335","addr":"경기도 포천시 신북면 가채리 797-4","indutype":"자동차정비 유지 - 자동차정비","category":"car"}]},{"lat":"37.905333962","long":"127.20966652","imageIndex":0,"items":[{"name":"부광상사","tel":"031-535-0909","addr":"경기도 포천시 신북면 가채리 799-3","indutype":"자동차정비 유지 - 자동차정비","category":"car"},{"name":"포천부분정비공업사","tel":"031-535-0909","addr":"경기도 포천시 신북면 가채리 799-3번지 1층","indutype":"자동차정비 유지 - 자동차정비","category":"car"},{"name":"포천부분정비공업사","tel":"535-0909","addr":"경기도 포천시 신북면 가채리 799-3번지","indutype":"서비스 - 자동차 수리","category":"car"}]},{"lat":"37.920804626","long":"127.21873991","imageIndex":0,"items":[{"name":"삼광중고타이어","tel":"031-535-0442","addr":"경기도 포천시 신북면 가채리 12-1번지","indutype":"자동차정비 유지 - 자동차시트·타이어","category":"car"}]},{"lat":"37.914191425","long":"127.21398988","imageIndex":0,"items":[{"name":"상일세차장","tel":"031-533-0909","addr":"경기도 포천시 신북면 가채리 185","indutype":"자동차정비 유지 - 세차장","category":"car"}]},{"lat":"37.904803931","long":"127.20880088","imageIndex":0,"items":[{"name":"신포천자동차공업사","tel":"535-2642","addr":"경기도 포천시 신북면 가채리 804-1번지","indutype":"서비스 - 자동차 수리","category":"car"},{"name":"포천자동차공업사","tel":"031-535-2642","addr":"경기도 포천시 신북면 가채리 804-1번지","indutype":"자동차정비 유지 - 자동차정비","category":"car"},{"name":"현대차유리","tel":"031-535-3621","addr":"경기도 포천시 신북면 가채리 804-1번지","indutype":"자동차정비 유지 - 자동차부품","category":"car"}]},{"lat":"37.909770836","long":"127.21232842","imageIndex":0,"items":[{"name":"애니카랜드신북점","tel":"031-535-8771","addr":"경기도 포천시 신북면 가채리 149-7번지","indutype":"자동차정비 유지 - 자동차정비","category":"car"},{"name":"애니카신북","tel":"535-8771","addr":"경기도 포천시 신북면 가채리 149-7번지","indutype":"서비스  - 자동차 수리","category":"car"}]},{"lat":"37.91122104","long":"127.21249174","imageIndex":0,"items":[{"name":"천호자동차공업사","tel":"534-5177","addr":"경기도 포천시 신북면 가채리 147-2","indutype":"서비스 - 자동차 수리","category":"car"}]}]