[{"lat":"37.803087437","long":"127.08331968","imageIndex":13,"items":[{"name":"Air","tel":"031-848-4169","addr":"경기도 양주시 만송동 246-20번지 C동 1층","indutype":"보건위생 - 미용원","category":"beauty"}]},{"lat":"37.796058213","long":"127.08596884","imageIndex":13,"items":[{"name":"루나헤어","tel":"031-843-7006","addr":"경기도 양주시 만송동 701번지 은빛마을휴먼시아 103호","indutype":"보건위생 - 미용원","category":"beauty"},{"name":"샬롬헤어","tel":"031-821-0206","addr":"경기도 양주시 만송동 701번지 은빛마을휴먼시아 상가 201호","indutype":"보건위생 - 미용원","category":"beauty"},{"name":"제이에스(J.S) 스킨케어","tel":"031-000-0000","addr":"경기도 양주시 만송동 701번지 은빛마을휴먼시아7단지아파트 상가동 202호","indutype":"보건위생 - 피부미용실","category":"beauty"}]},{"lat":"37.794283452","long":"127.08581926","imageIndex":13,"items":[{"name":"리엔비헤어","tel":"031-841-6126","addr":"경기도 양주시 만송동 700번지 은빛마을휴먼시아8단지아파트 2층 202호","indutype":"보건위생 - 미용원","category":"beauty"}]},{"lat":"37.797457886","long":"127.08129257","imageIndex":13,"items":[{"name":"아가","tel":"070-9717-6219","addr":"경기도 양주시 만송동 694번지 은빛마을휴먼시아 상가 203호","indutype":"보건위생 - 의료용품","category":"beauty"},{"name":"에이치솔루션","tel":"031-312-8014","addr":"경기도 양주시 만송동 694번지 은빛마을휴먼시아 상가 103호","indutype":"보건위생 - 미용재료","category":"beauty"}]},{"lat":"37.792344189","long":"127.10048543","imageIndex":13,"items":[{"name":"주식회사 케어플러스","tel":"031-000-0000","addr":"경기도 양주시 만송동 28-1번지 나동","indutype":"보건위생 - 의료용품","category":"beauty"}]},{"lat":"37.794066755","long":"127.09834189","imageIndex":13,"items":[{"name":"퍼퓸라이퍼","tel":"031-847-3238","addr":"경기도 양주시 만송동 11번지","indutype":"보건위생 - 화장품","category":"beauty"}]},{"lat":"37.796212672","long":"127.08410699","imageIndex":13,"items":[{"name":"헤어토크","tel":"031-1111-1111","addr":"경기도 양주시 만송동 698번지 은빛마을휴먼시아6단지 상가동 203호","indutype":"보건위생 - 미용원","category":"beauty"}]}]