[{"lat":"37.287469457","long":"127.46526811","imageIndex":13,"items":[{"name":"G헤어","tel":"031-694-1089","addr":"경기도 이천시 갈산동 219-10번지 1층 101호","indutype":"보건위생 - 미용원","category":"beauty"}]},{"lat":"37.282995181","long":"127.45495689","imageIndex":13,"items":[{"name":"V힐링슬립","tel":"031-636-3331","addr":"경기도 이천시 갈산동 605-2번지 1동 301호","indutype":"보건위생 - 피부미용실","category":"beauty"},{"name":"슈노아이 갈산2호점","tel":"02-1111-1111","addr":"경기도 이천시 갈산동 605-2번지 201호","indutype":"보건위생 - 미용원","category":"beauty"}]},{"lat":"37.280768663","long":"127.45757084","imageIndex":13,"items":[{"name":"길인지심리연구소","tel":"031-638-7975","addr":"경기도 이천시 갈산동 716-1번지 주공프라자 203호","indutype":"보건위생 - 기타대인서비스","category":"beauty"},{"name":"어반에이치","tel":"031-636-6210","addr":"경기도 이천시 갈산동 716-1번지 주공프라자 1층 107호","indutype":"보건위생 - 미용원","category":"beauty"},{"name":"하나건강","tel":"031-634-4808","addr":"경기도 이천시 갈산동 716-1번지 주공프라자 107호","indutype":"보건위생 - 의료용품","category":"beauty"}]},{"lat":"37.28052058","long":"127.45882096","imageIndex":13,"items":[{"name":"레이","tel":"031-631-9878","addr":"경기도 이천시 갈산동 715-15번지","indutype":"보건위생 - 미용원","category":"beauty"}]},{"lat":"37.283740831","long":"127.4578819","imageIndex":13,"items":[{"name":"루모스 네일(LUMOS NAIL)","tel":"","addr":"경기도 이천시 갈산동 649-3번지 1층 101호","indutype":"보건위생 - 피부미용실","category":"beauty"}]},{"lat":"37.281851333","long":"127.45719397","imageIndex":13,"items":[{"name":"머리애(  ) 봄","tel":"031-637-0419","addr":"경기도 이천시 갈산동 785번지 휴먼시아 상가동 102호","indutype":"보건위생 - 미용원","category":"beauty"}]},{"lat":"37.285161843","long":"127.45621026","imageIndex":13,"items":[{"name":"모모네일","tel":"031-637-4656","addr":"경기도 이천시 갈산동 592-54번지 1층 103호","indutype":"보건위생 - 피부미용실","category":"beauty"}]},{"lat":"37.282159875","long":"127.45896616","imageIndex":13,"items":[{"name":"뷰티팝","tel":"02-1577-0000","addr":"경기도 이천시 갈산동 667-2번지 1층","indutype":"보건위생 - 피부미용실","category":"beauty"},{"name":"퍼퓸","tel":"031-634-6500","addr":"경기도 이천시 갈산동 667-2번지","indutype":"보건위생 - 미용원","category":"beauty"}]},{"lat":"37.284382503","long":"127.45502157","imageIndex":13,"items":[{"name":"뷰티호텔","tel":"02-1577-0000","addr":"경기도 이천시 갈산동 601번지 스마트빌딩 202호","indutype":"보건위생 - 피부미용실","category":"beauty"},{"name":"오네일","tel":"","addr":"경기도 이천시 갈산동 601번지 스마트빌딩 2층","indutype":"보건위생 - 피부미용실","category":"beauty"},{"name":"올가네일","tel":"","addr":"경기도 이천시 갈산동 601번지 스마트빌딩","indutype":"보건위생 - 피부미용실","category":"beauty"}]},{"lat":"37.283940047","long":"127.45762375","imageIndex":13,"items":[{"name":"샵헤어","tel":"031-635-3777","addr":"경기도 이천시 갈산동 649-1번지 대아빌딩 1층","indutype":"보건위생 - 미용원","category":"beauty"}]},{"lat":"37.28382374","long":"127.4574088","imageIndex":13,"items":[{"name":"소울 에스테틱","tel":"031-634-6989","addr":"경기도 이천시 갈산동 643-18번지","indutype":"보건위생 - 피부미용실","category":"beauty"}]},{"lat":"37.284270028","long":"127.45615981","imageIndex":13,"items":[{"name":"쉬본헤어클럽","tel":"031-633-3756","addr":"경기도 이천시 갈산동 781번지 힐스테이트 상가 201호","indutype":"보건위생 - 미용원","category":"beauty"}]},{"lat":"37.281665059","long":"127.45406941","imageIndex":13,"items":[{"name":"스킨케어purple","tel":"031-633-3048","addr":"경기도 이천시 갈산동 618번지","indutype":"보건위생 - 화장품","category":"beauty"}]},{"lat":"37.280609159","long":"127.45921615","imageIndex":13,"items":[{"name":"아모르 데 디오스(Amor de Dios)","tel":"031-631-3336","addr":"경기도 이천시 갈산동 715-20번지 2층","indutype":"보건위생 - 미용원","category":"beauty"}]},{"lat":"37.283718218","long":"127.45437485","imageIndex":13,"items":[{"name":"아인미용실","tel":"031-638-9302","addr":"경기도 이천시 갈산동 789번지 화성파크드림 상가 301동 101호","indutype":"보건위생 - 미용원","category":"beauty"}]},{"lat":"37.28946971","long":"127.46295727","imageIndex":13,"items":[{"name":"이정호헤어필","tel":"031-638-6911","addr":"경기도 이천시 갈산동 469-1번지","indutype":"보건위생 - 미용원","category":"beauty"}]},{"lat":"37.282580162","long":"127.455101","imageIndex":13,"items":[{"name":"진헤어아트","tel":"031-637-9092","addr":"경기도 이천시 갈산동 610번지","indutype":"보건위생 - 미용원","category":"beauty"}]},{"lat":"37.285549618","long":"127.45612238","imageIndex":13,"items":[{"name":"컷앤터치","tel":"031-637-1834","addr":"경기도 이천시 갈산동 592-13번지 21세기빌딩 1층 101호","indutype":"보건위생 - 미용원","category":"beauty"}]},{"lat":"37.289246082","long":"127.46253865","imageIndex":13,"items":[{"name":"코디헤어","tel":"031-632-6676","addr":"경기도 이천시 갈산동 472-3번지 1층 105호","indutype":"보건위생 - 미용원","category":"beauty"}]},{"lat":"37.287656418","long":"127.46584438","imageIndex":13,"items":[{"name":"헤어컷(Hair Cut)","tel":"031-634-6537","addr":"경기도 이천시 갈산동 219-70번지 B동 102호","indutype":"보건위생 - 미용원","category":"beauty"}]}]