[{"lat":"37.615189329","long":"126.83442711","imageIndex":13,"items":[{"name":"(본점)리빙센스미용실","tel":"031-978-1888","addr":"경기도 고양시 덕양구 행신동 761번지","indutype":"보건위생 - 미용원","category":"beauty"},{"name":"글라스 마스터","tel":"031-973-1881","addr":"경기도 고양시 덕양구 행신동 761번지","indutype":"보건위생 - 안경","category":"beauty"},{"name":"스킨아트에스테틱","tel":"031-979-3422","addr":"경기도 고양시 덕양구 행신동 761번지","indutype":"보건위생 - 피부미용실","category":"beauty"},{"name":"젠틀맨","tel":"031-978-5228","addr":"경기도 고양시 덕양구 행신동 761번지","indutype":"보건위생 - 미용원","category":"beauty"}]},{"lat":"37.621941564","long":"126.84375685","imageIndex":13,"items":[{"name":"(사)한국정보교육문화협회덕양지부","tel":"031-974-9484","addr":"경기도 고양시 덕양구 행신동 967-9번지","indutype":"보건위생 - 기타대인서비스","category":"beauty"}]},{"lat":"37.613521413","long":"126.83364938","imageIndex":13,"items":[{"name":"(주)디보디에스","tel":"031-904-5567","addr":"경기도 고양시 덕양구 행신동 707-2번지","indutype":"보건위생 - 의료용품","category":"beauty"}]},{"lat":"37.612945909","long":"126.83443217","imageIndex":13,"items":[{"name":"(주)웰인터내셔날","tel":"031-978-1185","addr":"경기도 고양시 덕양구 행신동 762-5번지","indutype":"보건위생 - 화장품","category":"beauty"},{"name":"세인트누보산후조리원산모케어실","tel":"","addr":"경기도 고양시 덕양구 행신동 762-5번지","indutype":"보건위생 - 피부미용실","category":"beauty"},{"name":"스킨멜","tel":"031-970-3535","addr":"경기도 고양시 덕양구 행신동 762-5번지","indutype":"보건위생 - 화장품","category":"beauty"},{"name":"승지통상","tel":"02-333-1137","addr":"경기도 고양시 덕양구 행신동 762-5번지","indutype":"보건위생 - 의료용품","category":"beauty"},{"name":"주식회사 금성티케이","tel":"031-903-3977","addr":"경기도 고양시 덕양구 행신동 762-5번지","indutype":"보건위생 - 화장품","category":"beauty"},{"name":"챠밍캠프(행신점)","tel":"031-971-6700","addr":"경기도 고양시 덕양구 행신동 762-5번지","indutype":"보건위생 - 피부미용실","category":"beauty"}]},{"lat":"37.623298019","long":"126.83437483","imageIndex":13,"items":[{"name":"(주)이노스타","tel":"031-970-9110","addr":"경기도 고양시 덕양구 행신동 998번지","indutype":"보건위생 - 의료용품","category":"beauty"},{"name":"꿀벌스킨앤바디","tel":"031-971-7179","addr":"경기도 고양시 덕양구 행신동 998번지","indutype":"보건위생 - 피부미용실","category":"beauty"}]},{"lat":"37.615688604","long":"126.85043003","imageIndex":13,"items":[{"name":"AERI Cosmetics","tel":"031-1577-0000","addr":"경기도 고양시 덕양구 행신동 1096번지 서정마을3단지아파트","indutype":"보건위생 - 화장품","category":"beauty"}]},{"lat":"37.626452567","long":"126.84164024","imageIndex":13,"items":[{"name":"D&S","tel":"031-938-1450","addr":"경기도 고양시 덕양구 행신동 905번지 햇빛마을21단지아파트","indutype":"보건위생 - 화장품","category":"beauty"}]},{"lat":"37.624298887","long":"126.83492763","imageIndex":13,"items":[{"name":"EJNAIL(이제이네일)","tel":"031-938-1020","addr":"경기도 고양시 덕양구 행신동 943-1번지","indutype":"보건위생 - 피부미용실","category":"beauty"},{"name":"누가베스트 고양행신점","tel":"031-979-0033","addr":"경기도 고양시 덕양구 행신동 943-1번지","indutype":"보건위생 - 의료용품","category":"beauty"},{"name":"베네사헤어살롱","tel":"031-971-5224","addr":"경기도 고양시 덕양구 행신동 943-1번지","indutype":"보건위생 - 미용원","category":"beauty"},{"name":"비겐의료기","tel":"031-971-1110","addr":"경기도 고양시 덕양구 행신동 943-1번지","indutype":"보건위생 - 의료용품","category":"beauty"},{"name":"유니베라","tel":"031-938-0672","addr":"경기도 고양시 덕양구 행신동 943-1번지","indutype":"보건위생 - 화장품","category":"beauty"},{"name":"휴스킨앤바디","tel":"031-938-1020","addr":"경기도 고양시 덕양구 행신동 943-1번지","indutype":"보건위생 - 화장품","category":"beauty"}]},{"lat":"37.615745543","long":"126.83276089","imageIndex":13,"items":[{"name":"JANG'S헤어","tel":"031-814-4014","addr":"경기도 고양시 덕양구 행신동 719-2번지","indutype":"보건위생 - 미용원","category":"beauty"}]},{"lat":"37.616528996","long":"126.83248727","imageIndex":13,"items":[{"name":"K2헤어컬렉션","tel":"031-972-2779","addr":"경기도 고양시 덕양구 행신동 720-2번지","indutype":"보건위생 - 미용원","category":"beauty"},{"name":"영네일","tel":"031-938-8232","addr":"경기도 고양시 덕양구 행신동 720-2번지","indutype":"보건위생 - 피부미용실","category":"beauty"}]},{"lat":"37.624632569","long":"126.83515343","imageIndex":13,"items":[{"name":"Marry Merry hair","tel":"031-973-9900","addr":"경기도 고양시 덕양구 행신동 943번지","indutype":"보건위생 - 미용원","category":"beauty"},{"name":"다비치안경 행신점","tel":"031-927-1357","addr":"경기도 고양시 덕양구 행신동 943번지","indutype":"보건위생 - 안경","category":"beauty"},{"name":"블루클럽 행신점","tel":"031-979-1054","addr":"경기도 고양시 덕양구 행신동 943번지","indutype":"보건위생 - 미용원","category":"beauty"},{"name":"썬미용실","tel":"031-970-2228","addr":"경기도 고양시 덕양구 행신동 943번지","indutype":"보건위생 - 미용원","category":"beauty"},{"name":"썬바이오 의료기","tel":"031-970-9911","addr":"경기도 고양시 덕양구 행신동 943번지","indutype":"보건위생 - 의료용품","category":"beauty"}]},{"lat":"37.615136545","long":"126.835322","imageIndex":13,"items":[{"name":"SKINby   (스킨바이미)","tel":"031-970-3011","addr":"경기도 고양시 덕양구 행신동 757-1번지","indutype":"보건위생 - 피부미용실","category":"beauty"},{"name":"기노코스메틱","tel":"031-971-3400","addr":"경기도 고양시 덕양구 행신동 757-1번지","indutype":"보건위생 - 화장품","category":"beauty"},{"name":"사임당화장품 고양덕양지사","tel":"031-978-9364","addr":"경기도 고양시 덕양구 행신동 757-1번지","indutype":"보건위생 - 화장품","category":"beauty"},{"name":"생그린 고양행신지사(알로에피부#)","tel":"031-972-1504","addr":"경기도 고양시 덕양구 행신동 757-1번지","indutype":"보건위생 - 피부미용실","category":"beauty"},{"name":"조은하 스킨케어","tel":"031-979-6926","addr":"경기도 고양시 덕양구 행신동 757-1번지","indutype":"보건위생 - 피부미용실","category":"beauty"},{"name":"힐링","tel":"070-8197-7008","addr":"경기도 고양시 덕양구 행신동 757-1번지","indutype":"보건위생 - 피부미용실","category":"beauty"}]},{"lat":"37.615136898","long":"126.83557118","imageIndex":13,"items":[{"name":"SMC","tel":"031-972-6911","addr":"경기도 고양시 덕양구 행신동 757-2번지","indutype":"보건위생 - 의료용품","category":"beauty"},{"name":"리본에스테틱","tel":"031-973-1008","addr":"경기도 고양시 덕양구 행신동 757-2번지","indutype":"보건위생 - 피부미용실","category":"beauty"}]},{"lat":"37.617998869","long":"126.84642701","imageIndex":13,"items":[{"name":"가라뫼안경","tel":"031-938-5001","addr":"경기도 고양시 덕양구 행신동 1083-2번지","indutype":"보건위생 - 안경","category":"beauty"},{"name":"주식회사스킨업코리아","tel":"02-3416-0101","addr":"경기도 고양시 덕양구 행신동 1083-2번지","indutype":"보건위생 - 의료용품","category":"beauty"}]},{"lat":"37.616862715","long":"126.83273569","imageIndex":13,"items":[{"name":"가봄네일","tel":"","addr":"경기도 고양시 덕양구 행신동 726-8번지","indutype":"보건위생 - 피부미용실","category":"beauty"}]},{"lat":"37.614435086","long":"126.83624099","imageIndex":13,"items":[{"name":"가인","tel":"","addr":"경기도 고양시 덕양구 행신동 769번지 무원마을3단지아파트","indutype":"보건위생 - 화장품","category":"beauty"}]},{"lat":"37.617245059","long":"126.83548717","imageIndex":13,"items":[{"name":"가인헤어","tel":"031-535-1979","addr":"경기도 고양시 덕양구 행신동 746-10번지","indutype":"보건위생 - 미용원","category":"beauty"}]},{"lat":"37.622833831","long":"126.84398149","imageIndex":13,"items":[{"name":"고봉연헤어캠프","tel":"031-938-3382","addr":"경기도 고양시 덕양구 행신동 961-5번지","indutype":"보건위생 - 미용원","category":"beauty"}]},{"lat":"37.61746704","long":"126.84623557","imageIndex":13,"items":[{"name":"곱다","tel":"031-974-5751","addr":"경기도 고양시 덕양구 행신동 1086번지","indutype":"보건위생 - 미용원","category":"beauty"},{"name":"귀빈헤어샵","tel":"031-974-5751","addr":"경기도 고양시 덕양구 행신동 1086번지","indutype":"보건위생 - 미용원","category":"beauty"},{"name":"서정안경원","tel":"031-970-8882","addr":"경기도 고양시 덕양구 행신동 1086번지","indutype":"보건위생 - 안경","category":"beauty"},{"name":"젠틀맨","tel":"031-970-4442","addr":"경기도 고양시 덕양구 행신동 1086번지","indutype":"보건위생 - 미용원","category":"beauty"}]},{"lat":"37.616303753","long":"126.83248779","imageIndex":13,"items":[{"name":"국제안경","tel":"02-774-6344","addr":"경기도 고양시 덕양구 행신동 720-6번지","indutype":"보건위생 - 안경","category":"beauty"}]},{"lat":"37.62310602","long":"126.84539684","imageIndex":13,"items":[{"name":"굿모닝헬스케어","tel":"031-1577-2164","addr":"경기도 고양시 덕양구 행신동 223번지","indutype":"보건위생 - 의료용품","category":"beauty"}]},{"lat":"37.618745274","long":"126.84537206","imageIndex":13,"items":[{"name":"굿타이","tel":"031-971-0522","addr":"경기도 고양시 덕양구 행신동 1080-5번지","indutype":"보건위생 - 화장품","category":"beauty"},{"name":"헤어살롱비앤지","tel":"031-938-4567","addr":"경기도 고양시 덕양구 행신동 1080-5번지","indutype":"보건위생 - 미용원","category":"beauty"}]},{"lat":"37.613001627","long":"126.83559861","imageIndex":13,"items":[{"name":"굿프렌드","tel":"031-938-1203","addr":"경기도 고양시 덕양구 행신동 766-2번지","indutype":"보건위생 - 기타대인서비스","category":"beauty"},{"name":"대성메드","tel":"031-970-4186","addr":"경기도 고양시 덕양구 행신동 766-2번지","indutype":"보건위생 - 의료용품","category":"beauty"},{"name":"메디코스","tel":"070-4122-4350","addr":"경기도 고양시 덕양구 행신동 766-2번지","indutype":"보건위생 - 화장품","category":"beauty"},{"name":"영메디칼바이오","tel":"031-973-7585","addr":"경기도 고양시 덕양구 행신동 766-2번지","indutype":"보건위생 - 의료용품","category":"beauty"}]},{"lat":"37.618448014","long":"126.84541799","imageIndex":13,"items":[{"name":"권홍패밀리헤어(행신점)","tel":"031-938-2451","addr":"경기도 고양시 덕양구 행신동 1082-2번지","indutype":"보건위생 - 미용원","category":"beauty"},{"name":"네일비너스","tel":"031-971-1001","addr":"경기도 고양시 덕양구 행신동 1082-2번지","indutype":"보건위생 - 피부미용실","category":"beauty"},{"name":"라비에벨","tel":"031-979-2202","addr":"경기도 고양시 덕양구 행신동 1082-2번지","indutype":"보건위생 - 화장품","category":"beauty"},{"name":"참사랑아동발달상담센터(일산,덕양구점)","tel":"031-930-7388","addr":"경기도 고양시 덕양구 행신동 1082-2번지","indutype":"보건위생 - 기타대인서비스","category":"beauty"}]},{"lat":"37.622667889","long":"126.83476139","imageIndex":13,"items":[{"name":"그린비헤어","tel":"031-979-1308","addr":"경기도 고양시 덕양구 행신동 996-7번지","indutype":"보건위생 - 미용원","category":"beauty"},{"name":"샘터황토목욕탕","tel":"031-971-3002","addr":"경기도 고양시 덕양구 행신동 996-7번지","indutype":"보건위생 - 사우나","category":"beauty"},{"name":"진테라피","tel":"031-979-1577","addr":"경기도 고양시 덕양구 행신동 996-7번지","indutype":"보건위생 - 피부미용실","category":"beauty"}]},{"lat":"37.623521182","long":"126.83292441","imageIndex":13,"items":[{"name":"금강불교 조계종 봉정암","tel":"070-4379-2159","addr":"경기도 고양시 덕양구 행신동 637-63번지","indutype":"보건위생 - 기타대인서비스","category":"beauty"}]},{"lat":"37.613591845","long":"126.8325053","imageIndex":13,"items":[{"name":"김하연헤어","tel":"031-990-1560","addr":"경기도 고양시 덕양구 행신동 709번지","indutype":"보건위생 - 미용원","category":"beauty"}]},{"lat":"37.622943513","long":"126.84514798","imageIndex":13,"items":[{"name":"나나헤어","tel":"031-969-2060","addr":"경기도 고양시 덕양구 행신동 223-13번지","indutype":"보건위생 - 미용원","category":"beauty"}]},{"lat":"37.61996831","long":"126.83712347","imageIndex":13,"items":[{"name":"나디힐링센터","tel":"031-970-9080","addr":"경기도 고양시 덕양구 행신동 983번지 샘터마을2단지아파트","indutype":"보건위생 - 기타대인서비스","category":"beauty"}]},{"lat":"37.623274682","long":"126.8369802","imageIndex":13,"items":[{"name":"나영뷰티","tel":"031-973-3338","addr":"경기도 고양시 덕양구 행신동 952번지","indutype":"보건위생 - 피부미용실","category":"beauty"},{"name":"려네일","tel":"","addr":"경기도 고양시 덕양구 행신동 952번지","indutype":"보건위생 - 피부미용실","category":"beauty"},{"name":"브이아이피헤어(VIP헤어)","tel":"031-000-0000","addr":"경기도 고양시 덕양구 행신동 952번지","indutype":"보건위생 - 미용원","category":"beauty"},{"name":"선앤경헤어","tel":"031-971-4471","addr":"경기도 고양시 덕양구 행신동 952번지","indutype":"보건위생 - 미용원","category":"beauty"},{"name":"수바디체형","tel":"031-968-0852","addr":"경기도 고양시 덕양구 행신동 952번지","indutype":"보건위생 - 기타대인서비스","category":"beauty"},{"name":"스킨벨(Skin Belle)","tel":"031-978-8111","addr":"경기도 고양시 덕양구 행신동 952번지","indutype":"보건위생 - 미용재료","category":"beauty"},{"name":"천연머리염색","tel":"031-970-7751","addr":"경기도 고양시 덕양구 행신동 952번지","indutype":"보건위생 - 화장품","category":"beauty"}]},{"lat":"37.623606443","long":"126.83584671","imageIndex":13,"items":[{"name":"네일과사랑에빠지다","tel":"031-938-4182","addr":"경기도 고양시 덕양구 행신동 950번지","indutype":"보건위생 - 피부미용실","category":"beauty"},{"name":"네일플레이스","tel":"070-8615-7153","addr":"경기도 고양시 덕양구 행신동 950번지","indutype":"보건위생 - 피부미용실","category":"beauty"},{"name":"원모","tel":"031-972-5885","addr":"경기도 고양시 덕양구 행신동 950번지","indutype":"보건위생 - 미용재료","category":"beauty"},{"name":"임마누엘에스테틱","tel":"031-973-7730","addr":"경기도 고양시 덕양구 행신동 950번지","indutype":"보건위생 - 화장품","category":"beauty"},{"name":"제니","tel":"031-938-8057","addr":"경기도 고양시 덕양구 행신동 950번지","indutype":"보건위생 - 미용원","category":"beauty"}]},{"lat":"37.623417704","long":"126.83617563","imageIndex":13,"items":[{"name":"네일도예쁨","tel":"031-111-1111","addr":"경기도 고양시 덕양구 행신동 950-1번지","indutype":"보건위생 - 피부미용실","category":"beauty"},{"name":"누가의료기고양행신점","tel":"031-938-7587","addr":"경기도 고양시 덕양구 행신동 950-1번지","indutype":"보건위생 - 의료용품","category":"beauty"},{"name":"바롬","tel":"031-978-7267","addr":"경기도 고양시 덕양구 행신동 950-1번지","indutype":"보건위생 - 화장품","category":"beauty"},{"name":"아로마","tel":"070-8157-3333","addr":"경기도 고양시 덕양구 행신동 950-1번지","indutype":"보건위생 - 화장품","category":"beauty"},{"name":"이현토모토모","tel":"031-972-4465","addr":"경기도 고양시 덕양구 행신동 950-1번지","indutype":"보건위생 - 미용원","category":"beauty"}]},{"lat":"37.622527195","long":"126.8437556","imageIndex":13,"items":[{"name":"네일드림","tel":"031-938-9004","addr":"경기도 고양시 덕양구 행신동 966-6번지","indutype":"보건위생 - 피부미용실","category":"beauty"},{"name":"본헤어카페","tel":"031-814-9890","addr":"경기도 고양시 덕양구 행신동 966-6번지","indutype":"보건위생 - 미용원","category":"beauty"}]},{"lat":"37.621361897","long":"126.84151531","imageIndex":13,"items":[{"name":"네일반짝","tel":"031-846-0408","addr":"경기도 고양시 덕양구 행신동 958번지","indutype":"보건위생 - 피부미용실","category":"beauty"},{"name":"미몽헤어","tel":"070-4215-2148","addr":"경기도 고양시 덕양구 행신동 958번지","indutype":"보건위생 - 미용원","category":"beauty"}]},{"lat":"37.618467014","long":"126.84615419","imageIndex":13,"items":[{"name":"네일블룸(nail:bloom)","tel":"031-973-4125","addr":"경기도 고양시 덕양구 행신동 1079-2번지","indutype":"보건위생 - 미용재료","category":"beauty"},{"name":"매직에스테틱","tel":"031-971-4808","addr":"경기도 고양시 덕양구 행신동 1079-2번지","indutype":"보건위생 - 피부미용실","category":"beauty"},{"name":"심덴탈","tel":"070-7758-0102","addr":"경기도 고양시 덕양구 행신동 1079-2번지","indutype":"보건위생 - 의료용품","category":"beauty"},{"name":"진덴탈","tel":"031-978-6926","addr":"경기도 고양시 덕양구 행신동 1079-2번지","indutype":"보건위생 - 의료용품","category":"beauty"}]},{"lat":"37.61935763","long":"126.83854068","imageIndex":13,"items":[{"name":"네일헤몬","tel":"031-813-4141","addr":"경기도 고양시 덕양구 행신동 981번지","indutype":"보건위생 - 피부미용실","category":"beauty"},{"name":"어울림미용실","tel":"031-973-5953","addr":"경기도 고양시 덕양구 행신동 981번지","indutype":"보건위생 - 미용원","category":"beauty"},{"name":"오-땡큐","tel":"031-812-7728","addr":"경기도 고양시 덕양구 행신동 981번지","indutype":"보건위생 - 미용원","category":"beauty"}]},{"lat":"37.614799327","long":"126.83262713","imageIndex":13,"items":[{"name":"노블레스팜","tel":"031-926-3437","addr":"경기도 고양시 덕양구 행신동 712번지 골드프라자","indutype":"보건위생 - 의료용품","category":"beauty"},{"name":"스킨매니아","tel":"070-8163-2717","addr":"경기도 고양시 덕양구 행신동 712번지 골드프라자","indutype":"보건위생 - 화장품","category":"beauty"},{"name":"심리상담센터 숲","tel":"031-978-2356","addr":"경기도 고양시 덕양구 행신동 712번지 골드프라자","indutype":"보건위생 - 기타대인서비스","category":"beauty"},{"name":"이수련의헤어사랑","tel":"031-972-3400","addr":"경기도 고양시 덕양구 행신동 712번지 골드프라자","indutype":"보건위생 - 미용원","category":"beauty"},{"name":"힐링바디풋샵","tel":"031-978-8583","addr":"경기도 고양시 덕양구 행신동 712번지 골드프라자","indutype":"보건위생 - 화장품","category":"beauty"}]},{"lat":"37.621639254","long":"126.84009881","imageIndex":13,"items":[{"name":"뉴욕헤어","tel":"031-978-8889","addr":"경기도 고양시 덕양구 행신동 956번지","indutype":"보건위생 - 미용원","category":"beauty"}]},{"lat":"37.620998894","long":"126.84626214","imageIndex":13,"items":[{"name":"다올헤어","tel":"031-970-0328","addr":"경기도 고양시 덕양구 행신동 1062번지","indutype":"보건위생 - 미용원","category":"beauty"}]},{"lat":"37.613332209","long":"126.83364981","imageIndex":13,"items":[{"name":"더스파(THE SPA)","tel":"031-1111-1111","addr":"경기도 고양시 덕양구 행신동 707-3번지","indutype":"보건위생 - 피부미용실","category":"beauty"}]},{"lat":"37.622389185","long":"126.83518112","imageIndex":13,"items":[{"name":"더이쁨헤어","tel":"031-938-9340","addr":"경기도 고양시 덕양구 행신동 996-5번지","indutype":"보건위생 - 미용원","category":"beauty"}]},{"lat":"37.619298681","long":"126.82884504","imageIndex":13,"items":[{"name":"도도스네일(dodo's Nail)","tel":"","addr":"경기도 고양시 덕양구 행신동 650-57번지","indutype":"보건위생 - 피부미용실","category":"beauty"},{"name":"로미오와줄리엣","tel":"031-972-3366","addr":"경기도 고양시 덕양구 행신동 650-57번지","indutype":"보건위생 - 미용원","category":"beauty"}]},{"lat":"37.617248029","long":"126.83759389","imageIndex":13,"items":[{"name":"도도헤어","tel":"031-938-3551","addr":"경기도 고양시 덕양구 행신동 773번지","indutype":"보건위생 - 미용원","category":"beauty"}]},{"lat":"37.619357292","long":"126.83195978","imageIndex":13,"items":[{"name":"라라뷰티","tel":"031-970-2527","addr":"경기도 고양시 덕양구 행신동 616-1번지 양일빌딩","indutype":"보건위생 - 피부미용실","category":"beauty"},{"name":"제일대중목욕탕","tel":"031-973-2223","addr":"경기도 고양시 덕양구 행신동 616-1번지 양일빌딩","indutype":"보건위생 - 사우나","category":"beauty"}]},{"lat":"37.618972832","long":"126.8404331","imageIndex":13,"items":[{"name":"로데오미용실","tel":"031-938-3609","addr":"경기도 고양시 덕양구 행신동","indutype":"보건위생 - 미용원","category":"beauty"}]},{"lat":"37.624555583","long":"126.8380648","imageIndex":13,"items":[{"name":"루디아","tel":"031-974-0343","addr":"경기도 고양시 덕양구 행신동 937번지","indutype":"보건위생 - 미용원","category":"beauty"}]},{"lat":"37.61557786","long":"126.83520775","imageIndex":13,"items":[{"name":"리안헤어","tel":"031-979-8259","addr":"경기도 고양시 덕양구 행신동 756-14번지","indutype":"보건위생 - 미용원","category":"beauty"}]},{"lat":"37.615584281","long":"126.83339553","imageIndex":13,"items":[{"name":"리안헤어 행신역점","tel":"031-818-0015","addr":"경기도 고양시 덕양구 행신동 719-16번지","indutype":"보건위생 - 미용원","category":"beauty"}]},{"lat":"37.614610873","long":"126.83314857","imageIndex":13,"items":[{"name":"리플러스","tel":"031-971-0302","addr":"경기도 고양시 덕양구 행신동 713-1번지","indutype":"보건위생 - 의료용품","category":"beauty"},{"name":"지죤(G-ZONE)","tel":"031-938-3806","addr":"경기도 고양시 덕양구 행신동 713-1번지","indutype":"보건위생 - 미용원","category":"beauty"}]},{"lat":"37.618711425","long":"126.84034305","imageIndex":13,"items":[{"name":"마마아트스튜디오","tel":"070-4228-4268","addr":"경기도 고양시 덕양구 행신동 973번지 샘터마을1단지아파트","indutype":"보건위생 - 기타대인서비스","category":"beauty"}]},{"lat":"37.622806129","long":"126.84348315","imageIndex":13,"items":[{"name":"마벨헤어샵","tel":"031-974-6682","addr":"경기도 고양시 덕양구 행신동 961-1번지","indutype":"보건위생 - 미용원","category":"beauty"}]},{"lat":"37.619249618","long":"126.83226586","imageIndex":13,"items":[{"name":"머리못하는 집","tel":"031-970-2230","addr":"경기도 고양시 덕양구 행신동 619-18번지","indutype":"보건위생 - 미용원","category":"beauty"}]},{"lat":"37.622716546","long":"126.83101192","imageIndex":13,"items":[{"name":"명기","tel":"031-937-5007","addr":"경기도 고양시 덕양구 행신동 634-28번지","indutype":"보건위생 - 미용재료","category":"beauty"},{"name":"피카소헤어클리닉","tel":"031-978-3542","addr":"경기도 고양시 덕양구 행신동 634-28번지","indutype":"보건위생 - 미용원","category":"beauty"}]},{"lat":"37.623742325","long":"126.83636747","imageIndex":13,"items":[{"name":"명품","tel":"031-972-2555","addr":"경기도 고양시 덕양구 행신동 948-1번지","indutype":"보건위생 - 기타대인서비스","category":"beauty"},{"name":"태후사랑","tel":"031-970-9031","addr":"경기도 고양시 덕양구 행신동 948-1번지","indutype":"보건위생 - 화장품","category":"beauty"},{"name":"토니헤어","tel":"03-192-3223","addr":"경기도 고양시 덕양구 행신동 948-1번지","indutype":"보건위생 - 미용원","category":"beauty"}]},{"lat":"37.618216803","long":"126.83456753","imageIndex":13,"items":[{"name":"모두네일","tel":"031-974-4410","addr":"경기도 고양시 덕양구 행신동 741-6번지","indutype":"보건위생 - 미용재료","category":"beauty"}]},{"lat":"37.613945988","long":"126.83442992","imageIndex":13,"items":[{"name":"뮤텔라뷰티살롱","tel":"031-978-9080","addr":"경기도 고양시 덕양구 행신동 762번지","indutype":"보건위생 - 미용원","category":"beauty"},{"name":"주식회사 오휘 행신","tel":"031-904-9923","addr":"경기도 고양시 덕양구 행신동 762번지","indutype":"보건위생 - 화장품","category":"beauty"}]},{"lat":"37.615999501","long":"126.84034896","imageIndex":13,"items":[{"name":"미녀와피부스킨케어","tel":"031-978-8277","addr":"경기도 고양시 덕양구 행신동","indutype":"보건위생 - 화장품","category":"beauty"}]},{"lat":"37.622272332","long":"126.83537395","imageIndex":13,"items":[{"name":"미모헤어","tel":"031-970-3130","addr":"경기도 고양시 덕양구 행신동 996-4번지","indutype":"보건위생 - 미용원","category":"beauty"},{"name":"스킨케어","tel":"","addr":"경기도 고양시 덕양구 행신동 996-4번지","indutype":"보건위생 - 화장품","category":"beauty"},{"name":"임영미헤어","tel":"031-970-1253","addr":"경기도 고양시 덕양구 행신동 996-4번지","indutype":"보건위생 - 미용원","category":"beauty"}]},{"lat":"37.616997501","long":"126.8324862","imageIndex":13,"items":[{"name":"미크뷰티최","tel":"070-8958-3005","addr":"경기도 고양시 덕양구 행신동 726번지","indutype":"보건위생 - 미용원","category":"beauty"}]},{"lat":"37.62210517","long":"126.83189686","imageIndex":13,"items":[{"name":"민들레미용실","tel":"031-974-2087","addr":"경기도 고양시 덕양구 행신동 634-2번지","indutype":"보건위생 - 미용원","category":"beauty"}]},{"lat":"37.618196376","long":"126.84589424","imageIndex":13,"items":[{"name":"바라보다 안경원","tel":"031-972-0317","addr":"경기도 고양시 덕양구 행신동 1083번지","indutype":"보건위생 - 안경","category":"beauty"}]},{"lat":"37.61480341","long":"126.83548132","imageIndex":13,"items":[{"name":"바이봄","tel":"070-7743-9981","addr":"경기도 고양시 덕양구 행신동 758번지","indutype":"보건위생 - 미용원","category":"beauty"}]},{"lat":"37.614720824","long":"126.83442817","imageIndex":13,"items":[{"name":"베베크메디컬","tel":"070-7578-9866","addr":"경기도 고양시 덕양구 행신동 761-3번지","indutype":"보건위생 - 의료용품","category":"beauty"},{"name":"별애별손톱","tel":"","addr":"경기도 고양시 덕양구 행신동 761-3번지","indutype":"보건위생 - 피부미용실","category":"beauty"},{"name":"스칼렛뷰티룸","tel":"031-973-1661","addr":"경기도 고양시 덕양구 행신동 761-3번지","indutype":"보건위생 - 미용원","category":"beauty"}]},{"lat":"37.61602655","long":"126.84704276","imageIndex":13,"items":[{"name":"벨라헤어","tel":"031-938-9680","addr":"경기도 고양시 덕양구 행신동 1088번지 서정마을5단지아파트","indutype":"보건위생 - 미용원","category":"beauty"}]},{"lat":"37.617300536","long":"126.84300786","imageIndex":13,"items":[{"name":"보라헤어","tel":"031-973-3355","addr":"경기도 고양시 덕양구 행신동 793번지","indutype":"보건위생 - 미용원","category":"beauty"},{"name":"우리에스테틱","tel":"070-7799-2757","addr":"경기도 고양시 덕양구 행신동 793번지","indutype":"보건위생 - 피부미용실","category":"beauty"},{"name":"헤어스케치미용실","tel":"031-938-3119","addr":"경기도 고양시 덕양구 행신동","indutype":"보건위생 - 미용원","category":"beauty"}]},{"lat":"37.621997644","long":"126.84526325","imageIndex":13,"items":[{"name":"뷰티 화장품","tel":"","addr":"경기도 고양시 덕양구 행신동 225-5번지 신풍빌라","indutype":"보건위생 - 화장품","category":"beauty"}]},{"lat":"37.622354366","long":"126.83604208","imageIndex":13,"items":[{"name":"비비안헤어","tel":"031-972-1116","addr":"경기도 고양시 덕양구 행신동 993번지","indutype":"보건위생 - 미용원","category":"beauty"}]},{"lat":"37.612998134","long":"126.83315223","imageIndex":13,"items":[{"name":"비에스 옵틱","tel":"031-938-7591","addr":"경기도 고양시 덕양구 행신동 706-2번지","indutype":"보건위생 - 안경","category":"beauty"},{"name":"아리비즈코퍼레이션","tel":"031-938-4628","addr":"경기도 고양시 덕양구 행신동 706-2번지","indutype":"보건위생 - 의료용품","category":"beauty"},{"name":"엘메디칼","tel":"070-4109-7312","addr":"경기도 고양시 덕양구 행신동 706-2번지","indutype":"보건위생 - 의료용품","category":"beauty"},{"name":"원메디케어","tel":"","addr":"경기도 고양시 덕양구 행신동 706-2번지","indutype":"보건위생 - 의료용품","category":"beauty"},{"name":"제이메디컬","tel":"031-7514-0417","addr":"경기도 고양시 덕양구 행신동 706-2번지","indutype":"보건위생 - 의료용품","category":"beauty"}]},{"lat":"37.614605196","long":"126.83548176","imageIndex":13,"items":[{"name":"비타민헤어","tel":"031-811-1263","addr":"경기도 고양시 덕양구 행신동 758-1번지","indutype":"보건위생 - 미용원","category":"beauty"},{"name":"헤어리베","tel":"031-979-7935","addr":"경기도 고양시 덕양구 행신동 758-1번지","indutype":"보건위생 - 미용원","category":"beauty"}]},{"lat":"37.623414514","long":"126.8339328","imageIndex":13,"items":[{"name":"살롱드에스(SALON de S)","tel":"031-973-2992","addr":"경기도 고양시 덕양구 행신동 999-2번지","indutype":"보건위생 - 미용원","category":"beauty"},{"name":"아이월드안경원","tel":"031-938-0202","addr":"경기도 고양시 덕양구 행신동","indutype":"보건위생 - 안경","category":"beauty"},{"name":"준헤어랭귀지","tel":"031-973-3586","addr":"경기도 고양시 덕양구 행신동 999-2번지","indutype":"보건위생 - 미용원","category":"beauty"},{"name":"티에프코리아(TF Korea)","tel":"070-8151-2548","addr":"경기도 고양시 덕양구 행신동 999-2번지","indutype":"보건위생 - 안경","category":"beauty"}]},{"lat":"37.618856787","long":"126.8285629","imageIndex":13,"items":[{"name":"새늘헤어","tel":"031-938-2470","addr":"경기도 고양시 덕양구 행신동 653-22번지","indutype":"보건위생 - 미용원","category":"beauty"},{"name":"청개구리","tel":"031-974-1134","addr":"경기도 고양시 덕양구 행신동 653-22번지","indutype":"보건위생 - 화장품","category":"beauty"},{"name":"푸른화장품","tel":"031-938-8631","addr":"경기도 고양시 덕양구 행신동 653-22번지","indutype":"보건위생 - 화장품","category":"beauty"}]},{"lat":"37.622105776","long":"126.83231596","imageIndex":13,"items":[{"name":"새라","tel":"070-8955-4099","addr":"경기도 고양시 덕양구 행신동 634-73번지","indutype":"보건위생 - 화장품","category":"beauty"},{"name":"헤어그곳","tel":"031-938-1455","addr":"경기도 고양시 덕양구 행신동 634-73번지","indutype":"보건위생 - 미용원","category":"beauty"}]},{"lat":"37.624214456","long":"126.83259434","imageIndex":13,"items":[{"name":"샘미용실","tel":"031-978-3035","addr":"경기도 고양시 덕양구 행신동 1003번지","indutype":"보건위생 - 미용원","category":"beauty"}]},{"lat":"37.616863074","long":"126.83298488","imageIndex":13,"items":[{"name":"샬롬헤어샵","tel":"031-971-2960","addr":"경기도 고양시 덕양구 행신동 726-10번지","indutype":"보건위생 - 미용원","category":"beauty"}]},{"lat":"37.618192897","long":"126.83048998","imageIndex":13,"items":[{"name":"서광안경","tel":"031-971-3117","addr":"경기도 고양시 덕양구 행신동","indutype":"보건위생 - 안경","category":"beauty"},{"name":"헤어빌리지","tel":"031-972-3409","addr":"경기도 고양시 덕양구 행신동 692번지","indutype":"보건위생 - 미용원","category":"beauty"}]},{"lat":"37.62355352","long":"126.83665108","imageIndex":13,"items":[{"name":"세라미용실","tel":"031-973-4247","addr":"경기도 고양시 덕양구 행신동 948-2번지","indutype":"보건위생 - 미용원","category":"beauty"},{"name":"쉬즈에스테틱","tel":"031-978-8508","addr":"경기도 고양시 덕양구 행신동 948-2번지","indutype":"보건위생 - 피부미용실","category":"beauty"},{"name":"투맨(To.man)","tel":"031-971-7095","addr":"경기도 고양시 덕양구 행신동 948-2번지","indutype":"보건위생 - 미용원","category":"beauty"}]},{"lat":"37.624220653","long":"126.84348013","imageIndex":13,"items":[{"name":"세비앙헤어샵","tel":"031-972-8250","addr":"경기도 고양시 덕양구 행신동 920-1번지","indutype":"보건위생 - 미용원","category":"beauty"}]},{"lat":"37.616304993","long":"126.83334859","imageIndex":13,"items":[{"name":"손오공","tel":"","addr":"경기도 고양시 덕양구 행신동 722-6번지","indutype":"보건위생 - 화장품","category":"beauty"}]},{"lat":"37.613719627","long":"126.83364893","imageIndex":13,"items":[{"name":"수중국전통바디샵","tel":"031-978-9991","addr":"경기도 고양시 덕양구 행신동 707-1번지","indutype":"보건위생 - 피부미용실","category":"beauty"},{"name":"제이케이코스메틱","tel":"031-919-3345","addr":"경기도 고양시 덕양구 행신동 707-1번지","indutype":"보건위생 - 화장품","category":"beauty"}]},{"lat":"37.616917849","long":"126.83348312","imageIndex":13,"items":[{"name":"숯의힘","tel":"031-970-9917","addr":"경기도 고양시 덕양구 행신동 725번지","indutype":"보건위생 - 의료용품","category":"beauty"},{"name":"헤어멘토","tel":"031-973-0070","addr":"경기도 고양시 덕양구 행신동 725번지","indutype":"보건위생 - 미용원","category":"beauty"}]},{"lat":"37.621471063","long":"126.83579485","imageIndex":13,"items":[{"name":"슈에뜨헤어","tel":"031-970-6268","addr":"경기도 고양시 덕양구 행신동 987번지","indutype":"보건위생 - 미용원","category":"beauty"},{"name":"아르떼헤어","tel":"031-968-1042","addr":"경기도 고양시 덕양구 행신동 987번지","indutype":"보건위생 - 미용원","category":"beauty"}]},{"lat":"37.615053114","long":"126.83367989","imageIndex":13,"items":[{"name":"스타헤어필","tel":"031-974-0117","addr":"경기도 고양시 덕양구 행신동 714-1번지","indutype":"보건위생 - 미용원","category":"beauty"},{"name":"헬로우컷","tel":"031-978-6477","addr":"경기도 고양시 덕양구 행신동 714-1번지","indutype":"보건위생 - 미용원","category":"beauty"}]},{"lat":"37.62005176","long":"126.83245658","imageIndex":13,"items":[{"name":"승라미용샵","tel":"031-978-8779","addr":"경기도 고양시 덕양구 행신동 620-2번지","indutype":"보건위생 - 미용원","category":"beauty"},{"name":"헤어스토리","tel":"031-971-4716","addr":"경기도 고양시 덕양구 행신동 620-2번지","indutype":"보건위생 - 미용원","category":"beauty"}]},{"lat":"37.622660536","long":"126.83592812","imageIndex":13,"items":[{"name":"시원해마사지","tel":"","addr":"경기도 고양시 덕양구 행신동 995-2번지","indutype":"보건위생 - 화장품","category":"beauty"}]},{"lat":"37.62430011","long":"126.83578852","imageIndex":13,"items":[{"name":"씨앤엠클리닉","tel":"070-4797-3580","addr":"경기도 고양시 덕양구 행신동 945-1번지","indutype":"보건위생 - 기타대인서비스","category":"beauty"},{"name":"행신쑥뜸방","tel":"031-978-0975","addr":"경기도 고양시 덕양구 행신동 945-1번지","indutype":"보건위생 - 피부미용실","category":"beauty"}]},{"lat":"37.618196038","long":"126.83265337","imageIndex":13,"items":[{"name":"아가트코리아","tel":"031-972-2006","addr":"경기도 고양시 덕양구 행신동 735-7번지","indutype":"보건위생 - 미용재료","category":"beauty"}]},{"lat":"37.61724485","long":"126.83533992","imageIndex":13,"items":[{"name":"아름다운미용실","tel":"031-970-0171","addr":"경기도 고양시 덕양구 행신동 746-9번지","indutype":"보건위생 - 미용원","category":"beauty"}]},{"lat":"37.618195793","long":"126.83248347","imageIndex":13,"items":[{"name":"아마빌리스# (amabilis#)","tel":"","addr":"경기도 고양시 덕양구 행신동 735-6번지","indutype":"보건위생 - 미용원","category":"beauty"}]},{"lat":"37.61421628","long":"126.83442931","imageIndex":13,"items":[{"name":"아모레","tel":"031-978-9361","addr":"경기도 고양시 덕양구 행신동 761-6번지","indutype":"보건위생 - 화장품","category":"beauty"},{"name":"아모레 퍼시픽 카운셀러","tel":"031-978-9361","addr":"경기도 고양시 덕양구 행신동 761-6번지","indutype":"보건위생 - 화장품","category":"beauty"},{"name":"아모레카운셀러","tel":"031-978-9361","addr":"경기도 고양시 덕양구 행신동 761-6번지","indutype":"보건위생 - 화장품","category":"beauty"},{"name":"아모레카운셀러","tel":"031-6326-5655","addr":"경기도 고양시 덕양구 행신동 761-6번지","indutype":"보건위생 - 화장품","category":"beauty"},{"name":"아모레카운셀러","tel":"031-978-9361","addr":"경기도 고양시 덕양구 행신동 761-6번지","indutype":"보건위생 - 화장품","category":"beauty"},{"name":"아모레카운셀러","tel":"031-978-9361","addr":"경기도 고양시 덕양구 행신동 761-6번지","indutype":"보건위생 - 화장품","category":"beauty"},{"name":"아모레카운셀러","tel":"031-978-9361","addr":"경기도 고양시 덕양구 행신동 761-6번지","indutype":"보건위생 - 화장품","category":"beauty"},{"name":"아모레카운셀러","tel":"031-978-9361","addr":"경기도 고양시 덕양구 행신동 761-6번지","indutype":"보건위생 - 화장품","category":"beauty"},{"name":"아모레카운셀러","tel":"031-978-9361","addr":"경기도 고양시 덕양구 행신동 761-6번지","indutype":"보건위생 - 화장품","category":"beauty"},{"name":"아모레카운셀러","tel":"02-6326-5655","addr":"경기도 고양시 덕양구 행신동 761-6번지","indutype":"보건위생 - 화장품","category":"beauty"},{"name":"아모레카운셀러(김혜숙)","tel":"031-978-9361","addr":"경기도 고양시 덕양구 행신동 761-6번지","indutype":"보건위생 - 화장품","category":"beauty"},{"name":"아모레퍼시픽 카운셀러","tel":"031-978-9361","addr":"경기도 고양시 덕양구 행신동 761-6번지","indutype":"보건위생 - 화장품","category":"beauty"},{"name":"아모레퍼시픽 카운셀러","tel":"031-978-9361","addr":"경기도 고양시 덕양구 행신동 761-6번지","indutype":"보건위생 - 화장품","category":"beauty"},{"name":"아모레퍼시픽 카운셀러","tel":"031-978-9361","addr":"경기도 고양시 덕양구 행신동 761-6번지","indutype":"보건위생 - 화장품","category":"beauty"},{"name":"아모레퍼시픽 카운셀러","tel":"031-978-9361","addr":"경기도 고양시 덕양구 행신동 761-6번지","indutype":"보건위생 - 화장품","category":"beauty"},{"name":"아모레퍼시픽 카운셀러","tel":"031-978-9361","addr":"경기도 고양시 덕양구 행신동 761-6번지","indutype":"보건위생 - 화장품","category":"beauty"},{"name":"아모레퍼시픽 카운셀러","tel":"031-978-9361","addr":"경기도 고양시 덕양구 행신동 761-6번지","indutype":"보건위생 - 화장품","category":"beauty"},{"name":"아모레퍼시픽 카운셀러","tel":"031-978-9361","addr":"경기도 고양시 덕양구 행신동 761-6번지","indutype":"보건위생 - 화장품","category":"beauty"},{"name":"아모레퍼시픽 카운셀러","tel":"031-978-9361","addr":"경기도 고양시 덕양구 행신동 761-6번지","indutype":"보건위생 - 화장품","category":"beauty"},{"name":"아모레퍼시픽 카운셀러","tel":"031-978-9361","addr":"경기도 고양시 덕양구 행신동 761-6번지","indutype":"보건위생 - 화장품","category":"beauty"},{"name":"아모레퍼시픽 카운셀러 유명희","tel":"031-978-9361","addr":"경기도 고양시 덕양구 행신동 761-6번지","indutype":"보건위생 - 화장품","category":"beauty"},{"name":"아모레퍼시픽새행신점","tel":"031-978-9361","addr":"경기도 고양시 덕양구 행신동 761-6번지","indutype":"보건위생 - 화장품","category":"beauty"},{"name":"아모레퍼시픽새행신점","tel":"031-978-9361","addr":"경기도 고양시 덕양구 행신동 761-6번지","indutype":"보건위생 - 화장품","category":"beauty"},{"name":"아모레퍼시픽카운셀러","tel":"031-978-9361","addr":"경기도 고양시 덕양구 행신동 761-6번지","indutype":"보건위생 - 화장품","category":"beauty"},{"name":"아모레퍼시픽카운셀러","tel":"031-978-9361","addr":"경기도 고양시 덕양구 행신동 761-6번지","indutype":"보건위생 - 화장품","category":"beauty"},{"name":"아모레퍼시픽카운셀러","tel":"031-978-9361","addr":"경기도 고양시 덕양구 행신동 761-6번지","indutype":"보건위생 - 화장품","category":"beauty"},{"name":"아모레퍼시픽카운셀러","tel":"031-978-9361","addr":"경기도 고양시 덕양구 행신동 761-6번지","indutype":"보건위생 - 화장품","category":"beauty"},{"name":"아모레퍼시픽카운셀러","tel":"031-978-9361","addr":"경기도 고양시 덕양구 행신동 761-6번지","indutype":"보건위생 - 화장품","category":"beauty"},{"name":"아모레퍼시픽카운셀러","tel":"031-978-9361","addr":"경기도 고양시 덕양구 행신동 761-6번지","indutype":"보건위생 - 화장품","category":"beauty"},{"name":"아모레퍼시픽카운셀러","tel":"031-978-9361","addr":"경기도 고양시 덕양구 행신동 761-6번지","indutype":"보건위생 - 화장품","category":"beauty"},{"name":"아모레퍼시픽카운셀러","tel":"031-978-9361","addr":"경기도 고양시 덕양구 행신동 761-6번지","indutype":"보건위생 - 화장품","category":"beauty"},{"name":"아모레퍼시픽카운셀러","tel":"031-978-9361","addr":"경기도 고양시 덕양구 행신동 761-6번지","indutype":"보건위생 - 화장품","category":"beauty"},{"name":"아모레퍼시픽카운셀러","tel":"031-978-9361","addr":"경기도 고양시 덕양구 행신동 761-6번지","indutype":"보건위생 - 화장품","category":"beauty"},{"name":"아모레퍼시픽카운셀러","tel":"031-978-9361","addr":"경기도 고양시 덕양구 행신동 761-6번지","indutype":"보건위생 - 화장품","category":"beauty"},{"name":"아모레퍼시픽카운셀러","tel":"031-978-9361","addr":"경기도 고양시 덕양구 행신동 761-6번지","indutype":"보건위생 - 화장품","category":"beauty"},{"name":"아모레퍼시픽카운셀러","tel":"031-978-9361","addr":"경기도 고양시 덕양구 행신동 761-6번지","indutype":"보건위생 - 화장품","category":"beauty"},{"name":"아모레퍼시픽카운셀러","tel":"031-978-9361","addr":"경기도 고양시 덕양구 행신동 761-6번지","indutype":"보건위생 - 화장품","category":"beauty"},{"name":"아모레퍼시픽카운셀러","tel":"031-978-9361","addr":"경기도 고양시 덕양구 행신동 761-6번지","indutype":"보건위생 - 화장품","category":"beauty"},{"name":"아모레퍼시픽카운셀러","tel":"031-978-9361","addr":"경기도 고양시 덕양구 행신동 761-6번지","indutype":"보건위생 - 화장품","category":"beauty"},{"name":"태사랑","tel":"031-979-1235","addr":"경기도 고양시 덕양구 행신동 761-6번지","indutype":"보건위생 - 화장품","category":"beauty"}]},{"lat":"37.625861884","long":"126.84456409","imageIndex":13,"items":[{"name":"아무르헤어","tel":"031-970-0066","addr":"경기도 고양시 덕양구 행신동 913번지","indutype":"보건위생 - 미용원","category":"beauty"}]},{"lat":"37.623580397","long":"126.84306238","imageIndex":13,"items":[{"name":"아우라헤어","tel":"031-970-8559","addr":"경기도 고양시 덕양구 행신동 920-17번지","indutype":"보건위생 - 미용원","category":"beauty"}]},{"lat":"37.614613466","long":"126.83496074","imageIndex":13,"items":[{"name":"아이리스","tel":"031-978-4688","addr":"경기도 고양시 덕양구 행신동 760-1번지","indutype":"보건위생 - 화장품","category":"beauty"}]},{"lat":"37.616196294","long":"126.84595508","imageIndex":13,"items":[{"name":"아이엠어 헤어선생","tel":"031-972-4212","addr":"경기도 고양시 덕양구 행신동 798번지","indutype":"보건위생 - 미용원","category":"beauty"}]},{"lat":"37.622220987","long":"126.84384687","imageIndex":13,"items":[{"name":"아이즈온유(EYES ON YOU)","tel":"","addr":"경기도 고양시 덕양구 행신동 967-3번지","indutype":"보건위생 - 화장품","category":"beauty"}]},{"lat":"37.625111464","long":"126.83612654","imageIndex":13,"items":[{"name":"안경매니져","tel":"031-974-2580","addr":"경기도 고양시 덕양구 행신동 941번지","indutype":"보건위생 - 안경","category":"beauty"}]},{"lat":"37.614609041","long":"126.8516781","imageIndex":13,"items":[{"name":"어노브헤어","tel":"","addr":"경기도 고양시 덕양구 행신동 1105-1번지","indutype":"보건위생 - 미용원","category":"beauty"}]},{"lat":"37.617300095","long":"126.83617796","imageIndex":13,"items":[{"name":"여성회관미용실","tel":"031-938-7247","addr":"경기도 고양시 덕양구 행신동 774번지","indutype":"보건위생 - 미용원","category":"beauty"}]},{"lat":"37.614610123","long":"126.83262757","imageIndex":13,"items":[{"name":"여진미장","tel":"031-970-3583","addr":"경기도 고양시 덕양구 행신동 712-1번지 행신동센스빌2차","indutype":"보건위생 - 미용원","category":"beauty"}]},{"lat":"37.619556177","long":"126.83242373","imageIndex":13,"items":[{"name":"영헤어리더","tel":"031-971-0633","addr":"경기도 고양시 덕양구 행신동 619-15번지 대덕빌딩","indutype":"보건위생 - 미용원","category":"beauty"}]},{"lat":"37.623075793","long":"126.83022951","imageIndex":13,"items":[{"name":"예스","tel":"031-979-3338","addr":"경기도 고양시 덕양구 행신동 634-49번지","indutype":"보건위생 - 화장품","category":"beauty"}]},{"lat":"37.621582246","long":"126.83164886","imageIndex":13,"items":[{"name":"예스 코스메틱","tel":"031-818-5828","addr":"경기도 고양시 덕양구 행신동 633-27번지","indutype":"보건위생 - 미용재료","category":"beauty"}]},{"lat":"37.616529274","long":"126.83267982","imageIndex":13,"items":[{"name":"예진","tel":"031-979-9928","addr":"경기도 고양시 덕양구 행신동 720-3번지","indutype":"보건위생 - 화장품","category":"beauty"}]},{"lat":"37.621942634","long":"126.83164803","imageIndex":13,"items":[{"name":"오늘은 미용실","tel":"031-978-2222","addr":"경기도 고양시 덕양구 행신동 633-24번지","indutype":"보건위생 - 미용원","category":"beauty"}]},{"lat":"37.613944919","long":"126.8336824","imageIndex":13,"items":[{"name":"오렌지헤어팜","tel":"031-974-2825","addr":"경기도 고양시 덕양구 행신동 707번지","indutype":"보건위생 - 미용원","category":"beauty"},{"name":"제이메드 (J med)","tel":"031-972-8787","addr":"경기도 고양시 덕양구 행신동 707번지","indutype":"보건위생 - 의료용품","category":"beauty"},{"name":"주식회사 코리아엠티씨","tel":"031-979-9200","addr":"경기도 고양시 덕양구 행신동 707번지","indutype":"보건위생 - 화장품","category":"beauty"}]},{"lat":"37.613578089","long":"126.83548406","imageIndex":13,"items":[{"name":"오휘은수","tel":"031-815-5252","addr":"경기도 고양시 덕양구 행신동 765번지","indutype":"보건위생 - 화장품","category":"beauty"},{"name":"한마음가족상담센타","tel":"031-979-1367","addr":"경기도 고양시 덕양구 행신동 765번지","indutype":"보건위생 - 기타대인서비스","category":"beauty"}]},{"lat":"37.61733369","long":"126.83445625","imageIndex":13,"items":[{"name":"올인글로벌","tel":"","addr":"경기도 고양시 덕양구 행신동 745번지","indutype":"보건위생 - 의료용품","category":"beauty"}]},{"lat":"37.621356528","long":"126.84419985","imageIndex":13,"items":[{"name":"옻안타는 천연염색(행신점)","tel":"070-5022-2768","addr":"경기도 고양시 덕양구 행신동 234-8번지","indutype":"보건위생 - 미용원","category":"beauty"}]},{"lat":"37.613357756","long":"126.8326191","imageIndex":13,"items":[{"name":"와이디엠","tel":"02-365-1814","addr":"경기도 고양시 덕양구 행신동 709-1번지","indutype":"보건위생 - 의료용품","category":"beauty"},{"name":"잔트만아동청소년상담센터","tel":"031-938-7570","addr":"경기도 고양시 덕양구 행신동 709-1번지","indutype":"보건위생 - 기타대인서비스","category":"beauty"},{"name":"제나헤어","tel":"031-973-6220","addr":"경기도 고양시 덕양구 행신동 709-1번지","indutype":"보건위생 - 미용원","category":"beauty"},{"name":"주식회사케이플러스메디칼","tel":"031-979-7800","addr":"경기도 고양시 덕양구 행신동 709-1번지","indutype":"보건위생 - 의료용품","category":"beauty"}]},{"lat":"37.616862355","long":"126.83248651","imageIndex":13,"items":[{"name":"우먼센스","tel":"031-972-1128","addr":"경기도 고양시 덕양구 행신동 726-6번지","indutype":"보건위생 - 미용원","category":"beauty"}]},{"lat":"37.615745902","long":"126.83301007","imageIndex":13,"items":[{"name":"원 헤어메이크업","tel":"","addr":"경기도 고양시 덕양구 행신동 719-4번지","indutype":"보건위생 - 미용원","category":"beauty"}]},{"lat":"37.621410254","long":"126.83109422","imageIndex":13,"items":[{"name":"유스네일","tel":"031-970-5808","addr":"경기도 고양시 덕양구 행신동 633-21번지","indutype":"보건위생 - 피부미용실","category":"beauty"},{"name":"정헤어살롱","tel":"031-973-9866","addr":"경기도 고양시 덕양구 행신동 633-21번지","indutype":"보건위생 - 미용원","category":"beauty"}]},{"lat":"37.614387464","long":"126.83442892","imageIndex":13,"items":[{"name":"유진비앤피","tel":"031-979-4732","addr":"경기도 고양시 덕양구 행신동","indutype":"보건위생 - 의료용품","category":"beauty"}]},{"lat":"37.622524008","long":"126.83495427","imageIndex":13,"items":[{"name":"윤미용실","tel":"031-979-8677","addr":"경기도 고양시 덕양구 행신동 996-6번지","indutype":"보건위생 - 미용원","category":"beauty"},{"name":"한울","tel":"070-7404-9181","addr":"경기도 고양시 덕양구 행신동 996-6번지","indutype":"보건위생 - 미용재료","category":"beauty"}]},{"lat":"37.618465716","long":"126.84518009","imageIndex":13,"items":[{"name":"이니스프리행신점","tel":"031-979-7368","addr":"경기도 고양시 덕양구 행신동 1082-1번지","indutype":"보건위생 - 화장품","category":"beauty"}]},{"lat":"37.623498884","long":"126.82997932","imageIndex":13,"items":[{"name":"이미지연출","tel":"031-971-0897","addr":"경기도 고양시 덕양구 행신동 642-6번지","indutype":"보건위생 - 미용원","category":"beauty"}]},{"lat":"37.613494752","long":"126.84032043","imageIndex":13,"items":[{"name":"이지헤어","tel":"031-938-3994","addr":"경기도 고양시 덕양구 행신동 787번지","indutype":"보건위생 - 미용원","category":"beauty"}]},{"lat":"37.61333407","long":"126.83495229","imageIndex":13,"items":[{"name":"이화원 체형효소관리","tel":"031-938-8058","addr":"경기도 고양시 덕양구 행신동 763-3번지","indutype":"보건위생 - 피부미용실","category":"beauty"}]},{"lat":"37.624137742","long":"126.83565295","imageIndex":13,"items":[{"name":"인헤어","tel":"031-972-5940","addr":"경기도 고양시 덕양구 행신동 945-3번지","indutype":"보건위생 - 미용원","category":"beauty"},{"name":"힐링","tel":"070-8197-7008","addr":"경기도 고양시 덕양구 행신동 945-3번지","indutype":"보건위생 - 피부미용실","category":"beauty"}]},{"lat":"37.619327277","long":"126.84267504","imageIndex":13,"items":[{"name":"자뻑헤어","tel":"031-738-7607","addr":"경기도 고양시 덕양구 행신동 195-1번지","indutype":"보건위생 - 미용원","category":"beauty"}]},{"lat":"37.613445406","long":"126.83093133","imageIndex":13,"items":[{"name":"작품하나헤어샵","tel":"02-338-8768","addr":"경기도 고양시 덕양구 행신동 702번지","indutype":"보건위생 - 미용원","category":"beauty"},{"name":"제이엔헤어","tel":"031-979-3322","addr":"경기도 고양시 덕양구 행신동 702번지","indutype":"보건위생 - 미용원","category":"beauty"},{"name":"주샵","tel":"","addr":"경기도 고양시 덕양구 행신동 702번지","indutype":"보건위생 - 피부미용실","category":"beauty"}]},{"lat":"37.622937421","long":"126.83422839","imageIndex":13,"items":[{"name":"장경란샤인헤어","tel":"031-971-2922","addr":"경기도 고양시 덕양구 행신동 997번지","indutype":"보건위생 - 미용원","category":"beauty"}]},{"lat":"37.619610725","long":"126.83276341","imageIndex":13,"items":[{"name":"쟈니헤어","tel":"070-7538-2727","addr":"경기도 고양시 덕양구 행신동 621-4번지","indutype":"보건위생 - 미용원","category":"beauty"}]},{"lat":"37.616305269","long":"126.83354114","imageIndex":13,"items":[{"name":"제이네일","tel":"031-971-4142","addr":"경기도 고양시 덕양구 행신동 722-7번지","indutype":"보건위생 - 피부미용실","category":"beauty"}]},{"lat":"37.618359918","long":"126.84692463","imageIndex":13,"items":[{"name":"제이앤더블헤어","tel":"031-972-8342","addr":"경기도 고양시 덕양구 행신동 1078번지","indutype":"보건위생 - 미용원","category":"beauty"}]},{"lat":"37.621763669","long":"126.83249798","imageIndex":13,"items":[{"name":"제이앤제이","tel":"070-7634-3474","addr":"경기도 고양시 덕양구 행신동 621번지 행신1차에스케이뷰아파트","indutype":"보건위생 - 화장품","category":"beauty"},{"name":"제이엔제이","tel":"070-7634-3474","addr":"경기도 고양시 덕양구 행신동 621번지 행신1차에스케이뷰아파트","indutype":"보건위생 - 화장품","category":"beauty"}]},{"lat":"37.623219922","long":"126.83648191","imageIndex":13,"items":[{"name":"조은","tel":"070-4108-2566","addr":"경기도 고양시 덕양구 행신동 950-2번지","indutype":"보건위생 - 화장품","category":"beauty"},{"name":"조은여성사우나","tel":"031-972-9564","addr":"경기도 고양시 덕양구 행신동","indutype":"보건위생 - 사우나","category":"beauty"}]},{"lat":"37.620084169","long":"126.84273005","imageIndex":13,"items":[{"name":"좋은손경락","tel":"031-971-9191","addr":"경기도 고양시 덕양구 행신동 199-14번지","indutype":"보건위생 - 피부미용실","category":"beauty"}]},{"lat":"37.618772937","long":"126.84584772","imageIndex":13,"items":[{"name":"주노메디컬","tel":"02-2642-0403","addr":"경기도 고양시 덕양구 행신동 1080번지","indutype":"보건위생 - 의료용품","category":"beauty"},{"name":"헤어뷰올라","tel":"034-979-5989","addr":"경기도 고양시 덕양구 행신동 1080번지","indutype":"보건위생 - 미용원","category":"beauty"}]},{"lat":"37.621052365","long":"126.84582027","imageIndex":13,"items":[{"name":"지수연 헤어샵","tel":"031-938-5828","addr":"경기도 고양시 덕양구 행신동 1061-2번지","indutype":"보건위생 - 미용원","category":"beauty"}]},{"lat":"37.613361855","long":"126.83548455","imageIndex":13,"items":[{"name":"지오2000헤어","tel":"031-973-9557","addr":"경기도 고양시 덕양구 행신동 765-1번지","indutype":"보건위생 - 미용원","category":"beauty"},{"name":"한나쌀롱","tel":"","addr":"경기도 고양시 덕양구 행신동 765-1번지","indutype":"보건위생 - 미용원","category":"beauty"}]},{"lat":"37.614779833","long":"126.85137195","imageIndex":13,"items":[{"name":"지제이헤어","tel":"031-972-2824","addr":"경기도 고양시 덕양구 행신동 1104-3번지","indutype":"보건위생 - 미용원","category":"beauty"}]},{"lat":"37.615135981","long":"126.83492559","imageIndex":13,"items":[{"name":"천연염색허브미","tel":"031-973-4491","addr":"경기도 고양시 덕양구 행신동 757번지","indutype":"보건위생 - 미용원","category":"beauty"},{"name":"천지연목욕탕","tel":"031-973-0006","addr":"경기도 고양시 덕양구 행신동 757번지","indutype":"보건위생 - 사우나","category":"beauty"},{"name":"천지연사우나피부샵","tel":"070-2458-9633","addr":"경기도 고양시 덕양구 행신동 757번지","indutype":"보건위생 - 피부미용실","category":"beauty"},{"name":"홍콩안경","tel":"031-973-4007","addr":"경기도 고양시 덕양구 행신동 757번지","indutype":"보건위생 - 안경","category":"beauty"}]},{"lat":"37.618772822","long":"126.83276532","imageIndex":13,"items":[{"name":"카이로","tel":"031-970-6214","addr":"경기도 고양시 덕양구 행신동 736-2번지","indutype":"보건위생 - 기타대인서비스","category":"beauty"}]},{"lat":"37.613445531","long":"126.83731916","imageIndex":13,"items":[{"name":"칼라헤어필","tel":"031-938-4859","addr":"경기도 고양시 덕양구 행신동 767번지 무원마을5단지아파트","indutype":"보건위생 - 미용원","category":"beauty"}]},{"lat":"37.627273145","long":"126.84214823","imageIndex":13,"items":[{"name":"코오롱미용실","tel":"031-938-3222","addr":"경기도 고양시 덕양구 행신동","indutype":"보건위생 - 미용원","category":"beauty"}]},{"lat":"37.621162939","long":"126.84767769","imageIndex":13,"items":[{"name":"코이노니아","tel":"","addr":"경기도 고양시 덕양구 행신동 1064번지","indutype":"보건위생 - 미용원","category":"beauty"}]},{"lat":"37.617854907","long":"126.83351497","imageIndex":13,"items":[{"name":"키피쳐아트","tel":"031-978-5535","addr":"경기도 고양시 덕양구 행신동 732-13번지","indutype":"보건위생 - 화장품","category":"beauty"}]},{"lat":"37.617194998","long":"126.84492227","imageIndex":13,"items":[{"name":"태후사랑 행신점","tel":"070-4402-0007","addr":"경기도 고양시 덕양구 행신동 796번지","indutype":"보건위생 - 미용원","category":"beauty"}]},{"lat":"37.614751049","long":"126.836682","imageIndex":13,"items":[{"name":"토모토모미용실","tel":"031-978-1288","addr":"경기도 고양시 덕양구 행신동","indutype":"보건위생 - 미용원","category":"beauty"}]},{"lat":"37.623913125","long":"126.83609523","imageIndex":13,"items":[{"name":"파인뷰티","tel":"031-970-8484","addr":"경기도 고양시 덕양구 행신동 948번지","indutype":"보건위생 - 화장품","category":"beauty"}]},{"lat":"37.612997204","long":"126.83250666","imageIndex":13,"items":[{"name":"프로헤어","tel":"031-974-7766","addr":"경기도 고양시 덕양구 행신동 706번지 행신동센스빌1차","indutype":"보건위생 - 미용원","category":"beauty"}]},{"lat":"37.616023167","long":"126.83792507","imageIndex":13,"items":[{"name":"플러스화장품","tel":"031-970-1646","addr":"경기도 고양시 덕양구 행신동","indutype":"보건위생 - 화장품","category":"beauty"}]},{"lat":"37.624023314","long":"126.83756757","imageIndex":13,"items":[{"name":"피앤와이","tel":"031-901-0923","addr":"경기도 고양시 덕양구 행신동 946번지 햇빛마을22단지아파트","indutype":"보건위생 - 화장품","category":"beauty"}]},{"lat":"37.614800077","long":"126.83314814","imageIndex":13,"items":[{"name":"피올가 코리아","tel":"031-8076-1001","addr":"경기도 고양시 덕양구 행신동","indutype":"보건위생 - 화장품","category":"beauty"}]},{"lat":"37.615944001","long":"126.83293034","imageIndex":13,"items":[{"name":"핑크네일","tel":"031-973-8545","addr":"경기도 고양시 덕양구 행신동 721-12번지","indutype":"보건위생 - 피부미용실","category":"beauty"}]},{"lat":"37.615583368","long":"126.83276126","imageIndex":13,"items":[{"name":"한강(소망)","tel":"031-970-1945","addr":"경기도 고양시 덕양구 행신동 719-11번지","indutype":"보건위생 - 화장품","category":"beauty"}]},{"lat":"37.623469721","long":"126.83473693","imageIndex":13,"items":[{"name":"함다온뷰티플레이스","tel":"02-4685-1873","addr":"경기도 고양시 덕양구 행신동 999-1번지","indutype":"보건위생 - 피부미용실","category":"beauty"},{"name":"헤어짱정명","tel":"031-970-1114","addr":"경기도 고양시 덕양구 행신동 999-1번지","indutype":"보건위생 - 미용원","category":"beauty"}]},{"lat":"37.615996755","long":"126.85184519","imageIndex":13,"items":[{"name":"함스헤어앤제이(HAM.NJ)","tel":"031-972-2612","addr":"경기도 고양시 덕양구 행신동 1093-7번지","indutype":"보건위생 - 미용원","category":"beauty"}]},{"lat":"37.62138372","long":"126.8314341","imageIndex":13,"items":[{"name":"해피행신사랑대리점","tel":"070-8210-8730","addr":"경기도 고양시 덕양구 행신동 633-61번지","indutype":"보건위생 - 화장품","category":"beauty"}]},{"lat":"37.618528481","long":"126.84495342","imageIndex":13,"items":[{"name":"행신불한증막","tel":"031-938-2887","addr":"경기도 고양시 덕양구 행신동 1082번지","indutype":"보건위생 - 사우나","category":"beauty"}]},{"lat":"37.622889636","long":"126.84528402","imageIndex":13,"items":[{"name":"헤라미용실","tel":"031-974-9952","addr":"경기도 고양시 덕양구 행신동 223-17번지","indutype":"보건위생 - 미용원","category":"beauty"}]},{"lat":"37.615577312","long":"126.83482266","imageIndex":13,"items":[{"name":"헤어 밍","tel":"031-938-8838","addr":"경기도 고양시 덕양구 행신동 756-11번지","indutype":"보건위생 - 미용원","category":"beauty"}]},{"lat":"37.621439858","long":"126.84587609","imageIndex":13,"items":[{"name":"헤어딥","tel":"031-978-0551","addr":"경기도 고양시 덕양구 행신동 1059-10번지","indutype":"보건위생 - 미용원","category":"beauty"}]},{"lat":"37.618583455","long":"126.83265249","imageIndex":13,"items":[{"name":"헤어라인탈렌트","tel":"031-971-4929","addr":"경기도 고양시 덕양구 행신동 735-1번지","indutype":"보건위생 - 미용원","category":"beauty"}]},{"lat":"37.620942786","long":"126.85159732","imageIndex":13,"items":[{"name":"헤어랩","tel":"","addr":"경기도 고양시 덕양구 행신동 1068번지","indutype":"보건위생 - 미용원","category":"beauty"}]},{"lat":"37.624912256","long":"126.83542467","imageIndex":13,"items":[{"name":"헤어살롱뜰","tel":"031-979-5979","addr":"경기도 고양시 덕양구 행신동 942번지","indutype":"보건위생 - 미용원","category":"beauty"}]},{"lat":"37.622853975","long":"126.84556728","imageIndex":13,"items":[{"name":"헤어스케치","tel":"031-979-6321","addr":"경기도 고양시 덕양구 행신동 223-20번지","indutype":"보건위생 - 미용원","category":"beauty"}]},{"lat":"37.619746949","long":"126.84657059","imageIndex":13,"items":[{"name":"헤어스케치은","tel":"031-938-5959","addr":"경기도 고양시 덕양구 행신동 1074번지","indutype":"보건위생 - 미용원","category":"beauty"}]},{"lat":"37.625861732","long":"126.84445081","imageIndex":13,"items":[{"name":"헤어씨피미용실","tel":"031-938-6002","addr":"경기도 고양시 덕양구 행신동 913번지","indutype":"보건위생 - 미용원","category":"beauty"}]},{"lat":"37.620111736","long":"126.84312644","imageIndex":13,"items":[{"name":"헤어엔젤","tel":"031-972-1333","addr":"경기도 고양시 덕양구 행신동","indutype":"보건위생 - 미용원","category":"beauty"}]},{"lat":"37.616052997","long":"126.83354171","imageIndex":13,"items":[{"name":"헤어인","tel":"031-972-9188","addr":"경기도 고양시 덕양구 행신동 722-11번지","indutype":"보건위생 - 미용원","category":"beauty"}]},{"lat":"37.62563559","long":"126.83723549","imageIndex":13,"items":[{"name":"헤어컷","tel":"031-938-3088","addr":"경기도 고양시 덕양구 행신동 939번지","indutype":"보건위생 - 미용원","category":"beauty"}]},{"lat":"37.620306781","long":"126.83437026","imageIndex":13,"items":[{"name":"훼미리헤어샵","tel":"031-970-5240","addr":"경기도 고양시 덕양구 행신동 989번지","indutype":"보건위생 - 미용원","category":"beauty"}]}]