[{"lat":"37.41094516","long":"127.1996816","imageIndex":7,"items":[{"name":"(주)대방식자재마트","tel":"031-762-6262","addr":"경기도 광주시 삼동 258-5번지 A동 1층 101호","indutype":"음료식품 - 기타음료식품","category":"food"}]},{"lat":"37.40876483","long":"127.1996194","imageIndex":7,"items":[{"name":"J Cafe (무인카페)","tel":"031-111-1111","addr":"경기도 광주시 삼동 504번지 우남퍼스트빌 103-1호","indutype":"음료식품 - 기타음료식품","category":"food"}]},{"lat":"37.41194846","long":"127.197764","imageIndex":7,"items":[{"name":"거산통돼지바베큐","tel":"031-730-2299","addr":"경기도 광주시 삼동 287-3번지 아트빌 202호","indutype":"음료식품 - 기타음료식품","category":"food"}]},{"lat":"37.40955832","long":"127.1992601","imageIndex":7,"items":[{"name":"농부박씨","tel":"","addr":"경기도 광주시 삼동 254번지 101호","indutype":"음료식품 - 기타음료식품","category":"food"}]},{"lat":"37.41652666","long":"127.202509","imageIndex":7,"items":[{"name":"다온축산","tel":"031-761-6631","addr":"경기도 광주시 삼동 141-5번지","indutype":"음료식품 - 정육점","category":"food"}]},{"lat":"37.40975109","long":"127.2025136","imageIndex":7,"items":[{"name":"대흥수산&마구로 앤 벤또","tel":"031-763-4492","addr":"경기도 광주시 삼동 231-4번지","indutype":"음료식품 - 기타음료식품","category":"food"},{"name":"유성참치","tel":"031-763-4493","addr":"경기도 광주시 삼동 231-4번지 가동 1층","indutype":"음료식품 - 농·축·수산품","category":"food"}]},{"lat":"37.41497141","long":"127.1949591","imageIndex":7,"items":[{"name":"동아수산","tel":"031-769-7610","addr":"경기도 광주시 삼동 404-4번지","indutype":"음료식품 - 농·축·수산품","category":"food"}]},{"lat":"37.40826147","long":"127.1988952","imageIndex":7,"items":[{"name":"리라상사","tel":"","addr":"경기도 광주시 삼동 504번지 우남퍼스트빌","indutype":"음료식품 - 기타음료식품","category":"food"}]},{"lat":"37.41811025","long":"127.2037897","imageIndex":7,"items":[{"name":"마을상회","tel":"031-761-1910","addr":"경기도 광주시 삼동 110-7번지","indutype":"음료식품 - 기타음료식품","category":"food"}]},{"lat":"37.41800238","long":"127.2036425","imageIndex":7,"items":[{"name":"베레쎄레","tel":"070-8031-1101","addr":"경기도 광주시 삼동 110-3번지","indutype":"건강식품 - 기타건강식품","category":"food"}]},{"lat":"37.41089208","long":"127.1990941","imageIndex":7,"items":[{"name":"장어1번지수산","tel":"031-763-0378","addr":"경기도 광주시 삼동 281-9번지","indutype":"음료식품 - 농·축·수산품","category":"food"}]},{"lat":"37.41072246","long":"127.1981449","imageIndex":7,"items":[{"name":"주식회사 비앤비컴퍼니","tel":"031-769-7461","addr":"경기도 광주시 삼동 254-22번지 1,2층","indutype":"음료식품 - 기타음료식품","category":"food"}]},{"lat":"37.40985866","long":"127.2028414","imageIndex":7,"items":[{"name":"파리바게뜨 광주삼동점","tel":"031-761-6398","addr":"경기도 광주시 삼동 228-2번지","indutype":"음료식품 - 제과점","category":"food"}]},{"lat":"37.41172751","long":"127.2005986","imageIndex":7,"items":[{"name":"피자와치킨의러브레터","tel":"031-797-1123","addr":"경기도 광주시 삼동 266-18번지","indutype":"음료식품 - 미곡상","category":"food"}]}]