[{"lat":"37.058550365","long":"127.35873203","imageIndex":4,"items":[{"name":"(주)로건에프앤비","tel":"","addr":"경기도 안성시 삼죽면 진촌리 632-18번지 동아방송예술대학교","indutype":"일반휴게음식 - 서양음식","category":"restaurant"},{"name":"(주)아워홈동아방송예술대안성점","tel":"031-670-6530","addr":"경기도 안성시 삼죽면 진촌리 632-18번지 동아방송예술대학교 1층","indutype":"일반휴게음식 - 위탁급식업","category":"restaurant"},{"name":"(주)아워홈동아방송예술대안성점","tel":"070-4325-5762","addr":"경기도 안성시 삼죽면 진촌리 632-18번지 동아방송예술대학","indutype":"일반휴게음식 - 위탁급식업","category":"restaurant"},{"name":"bbq","tel":"070-1478-1236","addr":"경기도 안성시 삼죽면 진촌리 632-18번지 동아방송예술대학교 1층","indutype":"일반휴게음식 - 스넥","category":"restaurant"}]},{"lat":"37.057690664","long":"127.36294405","imageIndex":4,"items":[{"name":"real 리얼","tel":"031-672-8025","addr":"경기도 안성시 삼죽면 진촌리 635-8번지","indutype":"일반휴게음식 - 일반한식","category":"restaurant"},{"name":"네네치킨","tel":"031-674-4447","addr":"경기도 안성시 삼죽면 진촌리 635-8번지","indutype":"일반휴게음식 - 스넥","category":"restaurant"},{"name":"네네치킨 동아방송대점","tel":"031-672-7644","addr":"경기도 안성시 삼죽면 진촌리 635-8번지 1층","indutype":"일반휴게음식 - 스넥","category":"restaurant"}]},{"lat":"37.057411067","long":"127.36303267","imageIndex":4,"items":[{"name":"고기동아리","tel":"031-674-9285","addr":"경기도 안성시 삼죽면 진촌리 633-7번지 1층 101호","indutype":"일반휴게음식 - 일반한식","category":"restaurant"},{"name":"블루호프","tel":"031-673-0964","addr":"경기도 안성시 삼죽면 진촌리 633-7번지 1층 103호","indutype":"일반휴게음식 - 주점","category":"restaurant"}]},{"lat":"37.057377086","long":"127.36531479","imageIndex":4,"items":[{"name":"구어통닭치킨","tel":"031-672-9289","addr":"경기도 안성시 삼죽면 진촌리 359-2","indutype":"일반휴게음식 - 일반한식","category":"restaurant"},{"name":"대박숯불바베큐치킨","tel":"031-672-9919","addr":"경기도 안성시 삼죽면 진촌리 359-2번지","indutype":"일반휴게음식 - 스넥","category":"restaurant"}]},{"lat":"37.056104384","long":"127.36308271","imageIndex":4,"items":[{"name":"대가불보쌈","tel":"031-674-5020","addr":"경기도 안성시 삼죽면 진촌리 559-15번지","indutype":"일반휴게음식 - 일반한식","category":"restaurant"},{"name":"바우덕이","tel":"031-673-9051","addr":"경기도 안성시 삼죽면 진촌리 559-15번지","indutype":"일반휴게음식 - 일반한식","category":"restaurant"},{"name":"쑤아리질러","tel":"070-7543-2964","addr":"경기도 안성시 삼죽면 진촌리 559-15번지 1층","indutype":"일반휴게음식 - 서양음식","category":"restaurant"}]},{"lat":"37.055493631","long":"127.36539577","imageIndex":4,"items":[{"name":"동아대반점","tel":"031-673-2309","addr":"경기도 안성시 삼죽면 진촌리 398-6번지","indutype":"일반휴게음식 - 중국식","category":"restaurant"},{"name":"커피7","tel":"031-674-1001","addr":"경기도 안성시 삼죽면 진촌리 398-6번지 1층","indutype":"일반휴게음식 - 서양음식","category":"restaurant"}]},{"lat":"37.056988737","long":"127.36264843","imageIndex":4,"items":[{"name":"마슬랜","tel":"031-672-9630","addr":"경기도 안성시 삼죽면 진촌리 633-1번지 A동 1층","indutype":"일반휴게음식 - 스넥","category":"restaurant"},{"name":"모여모여","tel":"031-757-7833","addr":"경기도 안성시 삼죽면 진촌리 633-1번지","indutype":"일반휴게음식 - 일반한식","category":"restaurant"}]},{"lat":"37.060849844","long":"127.36997476","imageIndex":4,"items":[{"name":"미가","tel":"031-671-6660","addr":"경기도 안성시 삼죽면 진촌리 206-2번지","indutype":"일반휴게음식 - 일반한식","category":"restaurant"}]},{"lat":"37.054160602","long":"127.36522079","imageIndex":4,"items":[{"name":"백봉각","tel":"031-209-3642","addr":"경기도 안성시 삼죽면 진촌리 406-16번지 1층","indutype":"일반휴게음식 - 일반한식","category":"restaurant"}]},{"lat":"37.048213329","long":"127.37406196","imageIndex":4,"items":[{"name":"별밤지기","tel":"031-602-0775","addr":"경기도 안성시 삼죽면 진촌리 7-10번지","indutype":"일반휴게음식 - 일반한식","category":"restaurant"}]},{"lat":"37.045190381","long":"127.36380677","imageIndex":4,"items":[{"name":"봉순대","tel":"031-677-3698","addr":"경기도 안성시 삼죽면 진촌리 424-2","indutype":"일반휴게음식 - 일반한식","category":"restaurant"}]},{"lat":"37.056078444","long":"127.36272283","imageIndex":4,"items":[{"name":"비컨559(BEACON559)","tel":"031-673-7513","addr":"경기도 안성시 삼죽면 진촌리 559-14번지 1층","indutype":"일반휴게음식 - 서양음식","category":"restaurant"}]},{"lat":"37.066075457","long":"127.37591428","imageIndex":4,"items":[{"name":"사주카페","tel":"031-691-1316","addr":"경기도 안성시 삼죽면 진촌리 271-2번지","indutype":"일반휴게음식 - 서양음식","category":"restaurant"}]},{"lat":"37.056267493","long":"127.36277993","imageIndex":4,"items":[{"name":"새나라치킨","tel":"031-674-8815","addr":"경기도 안성시 삼죽면 진촌리 559-5번지 2층","indutype":"일반휴게음식 - 스넥","category":"restaurant"},{"name":"아마떼","tel":"031-674-5544","addr":"경기도 안성시 삼죽면 진촌리 559-5번지","indutype":"일반휴게음식 - 서양음식","category":"restaurant"}]},{"lat":"37.056799518","long":"127.36264753","imageIndex":4,"items":[{"name":"신스쭈꾸미","tel":"031-671-9895","addr":"경기도 안성시 삼죽면 진촌리 633-12번지 가동 1층","indutype":"일반휴게음식 - 일반한식","category":"restaurant"},{"name":"오븐쿡치킨","tel":"031-671-9558","addr":"경기도 안성시 삼죽면 진촌리 633-12번지 1층103 호(X7-X9)","indutype":"일반휴게음식 - 스넥","category":"restaurant"},{"name":"한솥도시락 동아방송대점","tel":"031-671-6470","addr":"경기도 안성시 삼죽면 진촌리 633-12","indutype":"일반휴게음식 - 일반한식","category":"restaurant"},{"name":"홍스포차 동아예대점","tel":"","addr":"경기도 안성시 삼죽면 진촌리 633-12번지 가동 1층","indutype":"일반휴게음식 - 주점","category":"restaurant"}]},{"lat":"37.059487162","long":"127.36773083","imageIndex":4,"items":[{"name":"약초꾼 한방 삼계탕","tel":"031-671-7779","addr":"경기도 안성시 삼죽면 진촌리 325-3번지","indutype":"일반휴게음식 - 일반한식","category":"restaurant"}]},{"lat":"37.056738101","long":"127.36506441","imageIndex":4,"items":[{"name":"올쏘밋","tel":"031-677-2468","addr":"경기도 안성시 삼죽면 진촌리 399-3번지","indutype":"일반휴게음식 - 일반한식","category":"restaurant"},{"name":"올쏘밋본점","tel":"031-677-2468","addr":"경기도 안성시 삼죽면 진촌리 399-3번지","indutype":"일반휴게음식 - 일반한식","category":"restaurant"}]},{"lat":"37.055960285","long":"127.36305955","imageIndex":4,"items":[{"name":"육회본가안성점","tel":"031-677-1112","addr":"경기도 안성시 삼죽면 진촌리 559-11번지 1층","indutype":"일반휴게음식 - 일반한식","category":"restaurant"}]},{"lat":"37.056771224","long":"127.36306338","imageIndex":4,"items":[{"name":"이디야커피 동아대점","tel":"031-677-6151","addr":"경기도 안성시 삼죽면 진촌리 633-14번지 1,2층","indutype":"일반휴게음식 - 서양음식","category":"restaurant"}]},{"lat":"37.055321806","long":"127.36264056","imageIndex":4,"items":[{"name":"지하술집","tel":"031-111-1111","addr":"경기도 안성시 삼죽면 진촌리 560-2번지 지층","indutype":"일반휴게음식 - 주점","category":"restaurant"}]},{"lat":"37.065493778","long":"127.37175118","imageIndex":4,"items":[{"name":"해원","tel":"031-673-0010","addr":"경기도 안성시 삼죽면 진촌리 296-1번지 C동 1층","indutype":"일반휴게음식 - 일반한식","category":"restaurant"}]},{"lat":"37.05024678","long":"127.37211581","imageIndex":4,"items":[{"name":"호수낀닭","tel":"031-674-8799","addr":"경기도 안성시 삼죽면 진촌리 18-2번지","indutype":"일반휴게음식 - 일반한식","category":"restaurant"}]},{"lat":"37.065493778","long":"127.37175118","imageIndex":7,"items":[{"name":"(주)지오미트","tel":"031-674-1951","addr":"경기도 안성시 삼죽면 진촌리 296-1번지","indutype":"음료식품 - 정육점","category":"food"}]},{"lat":"37.052635468","long":"127.36303259","imageIndex":7,"items":[{"name":"농업회사법인 주식회사 주성","tel":"031-675-1000","addr":"경기도 안성시 삼죽면 진촌리 555","indutype":"음료식품 - 농·축·수산품","category":"food"}]},{"lat":"37.055189576","long":"127.36464108","imageIndex":7,"items":[{"name":"대박농원","tel":"031-677-1116","addr":"경기도 안성시 삼죽면 진촌리 405-13번지","indutype":"음료식품 - 농·축·수산품","category":"food"}]},{"lat":"37.055826708","long":"127.36549853","imageIndex":7,"items":[{"name":"산새소리","tel":"","addr":"경기도 안성시 삼죽면 진촌리 398-1번지","indutype":"음료식품 - 농·축·수산품","category":"food"}]},{"lat":"37.051939136","long":"127.3638612","imageIndex":7,"items":[{"name":"영농조합법인 도촌","tel":"031-675-2114","addr":"경기도 안성시 삼죽면 진촌리 409-1번지","indutype":"음료식품 - 기타음료식품","category":"food"}]},{"lat":"37.051129771","long":"127.36036117","imageIndex":7,"items":[{"name":"진농장블루베리마을","tel":"031-673-6722","addr":"경기도 안성시 삼죽면 진촌리 518","indutype":"음료식품 - 농·축·수산품","category":"food"}]},{"lat":"37.060689465","long":"127.36938934","imageIndex":17,"items":[{"name":"(주)티와이 태양주유소","tel":"02-1899-3877","addr":"경기도 안성시 삼죽면 진촌리 303-2번지","indutype":"여행 - 렌터카","category":"other"}]},{"lat":"37.058550365","long":"127.35873203","imageIndex":17,"items":[{"name":"GS25동아대기숙사점","tel":"02-2006-2485","addr":"경기도 안성시 삼죽면 진촌리 632-18","indutype":"유통업 영리 - 편 의 점","category":"other"},{"name":"구내서점(청림)","tel":"031-674-5366","addr":"경기도 안성시 삼죽면 진촌리 632-18번지","indutype":"서적문구 - 일반서적","category":"other"},{"name":"세븐일레븐동아승차장점","tel":"","addr":"경기도 안성시 삼죽면 진촌리 632-18","indutype":"유통업 영리 - 편 의 점","category":"other"}]},{"lat":"37.056185887","long":"127.36294819","imageIndex":17,"items":[{"name":"GS25동아방송대점","tel":"02-2006-2118","addr":"경기도 안성시 삼죽면 진촌리 559-6","indutype":"유통업 영리 - 편 의 점","category":"other"}]},{"lat":"37.048495641","long":"127.36433952","imageIndex":17,"items":[{"name":"다윤","tel":"031-673-3521","addr":"경기도 안성시 삼죽면 진촌리 420","indutype":"기타 - 기타 전문점","category":"other"}]},{"lat":"37.049297674","long":"127.3643096","imageIndex":17,"items":[{"name":"대찬특장공업","tel":"031-673-1779","addr":"경기도 안성시 삼죽면 진촌리 416번지","indutype":"기타 - 기계공구","category":"other"}]},{"lat":"37.061488993","long":"127.37016897","imageIndex":17,"items":[{"name":"도기헤븐","tel":"031-677-1964","addr":"경기도 안성시 삼죽면 진촌리 210-6번지","indutype":"문화.취미 - 애완동물","category":"other"}]},{"lat":"37.056738101","long":"127.36506441","imageIndex":17,"items":[{"name":"미니스톱동아방송대점","tel":"031-671-8566","addr":"경기도 안성시 삼죽면 진촌리 399-3번지","indutype":"유통업 영리 - 편 의 점","category":"other"}]},{"lat":"37.055321806","long":"127.36264056","imageIndex":17,"items":[{"name":"세븐일레븐동아방송대원룸점","tel":"","addr":"경기도 안성시 삼죽면 진촌리 560-2번지 1층","indutype":"유통업 영리 - 편 의 점","category":"other"}]},{"lat":"37.054519844","long":"127.36264802","imageIndex":17,"items":[{"name":"씨유동아방송대원룸점","tel":"031-691-5100","addr":"경기도 안성시 삼죽면 진촌리 569번지","indutype":"유통업 영리 - 편 의 점","category":"other"}]},{"lat":"37.057411067","long":"127.36303267","imageIndex":17,"items":[{"name":"씨유안성진촌원룸점","tel":"031-674-4922","addr":"경기도 안성시 삼죽면 진촌리 633-7번지","indutype":"유통업 영리 - 편 의 점","category":"other"}]},{"lat":"37.055106544","long":"127.36231351","imageIndex":17,"items":[{"name":"안성반품마트몰","tel":"031-675-5245","addr":"경기도 안성시 삼죽면 진촌리 563-16번지 1층 104호","indutype":"신변잡화 - 기타잡화","category":"other"}]},{"lat":"37.054659049","long":"127.36131084","imageIndex":17,"items":[{"name":"월드오브더위치(World Of The Witch)","tel":"070-8960-6135","addr":"경기도 안성시 삼죽면 진촌리 564번지 커풀원룸 A동 204호","indutype":"직물 - 침구·수예점","category":"other"}]},{"lat":"37.057377086","long":"127.36531479","imageIndex":17,"items":[{"name":"이마트24 동아방송대점","tel":"","addr":"경기도 안성시 삼죽면 진촌리 359-2번지 1층","indutype":"유통업 영리 - 편 의 점","category":"other"},{"name":"이마트24 동아방송대점","tel":"031-000-0000","addr":"경기도 안성시 삼죽면 진촌리 359-2번지","indutype":"유통업 영리 - 편 의 점","category":"other"}]},{"lat":"37.057854845","long":"127.3652496","imageIndex":17,"items":[{"name":"주식회사 고라이브","tel":"","addr":"경기도 안성시 삼죽면 진촌리 360-1번지 푸른타운 4동 103호","indutype":"광학제품 - 사진관","category":"other"}]},{"lat":"37.047411405","long":"127.36531237","imageIndex":17,"items":[{"name":"창일피엠중기","tel":"031-211-3548","addr":"경기도 안성시 삼죽면 진촌리 421-1번지","indutype":"수리서비스 - 기타수리서비스","category":"other"},{"name":"피엠머시너리","tel":"031-672-6842","addr":"경기도 안성시 삼죽면 진촌리 421-1번지","indutype":"수리서비스 - 기타수리서비스","category":"other"}]},{"lat":"37.061239395","long":"127.36636754","imageIndex":17,"items":[{"name":"태광 바이오텍","tel":"031-841-9736","addr":"경기도 안성시 삼죽면 진촌리 310-3번지 1층","indutype":"농업 - 비료,사료,종자","category":"other"}]},{"lat":"37.054126754","long":"127.36153318","imageIndex":17,"items":[{"name":"푸른솔 요양원","tel":"031-677-9522","addr":"경기도 안성시 삼죽면 진촌리 566-2번지","indutype":"기타의료기관 - 기타의료기관 및 기타","category":"other"}]},{"lat":"37.060437589","long":"127.36925321","imageIndex":17,"items":[{"name":"한양사료유통","tel":"031-673-0810","addr":"경기도 안성시 삼죽면 진촌리 303-6번지","indutype":"농업 - 비료,사료,종자","category":"other"}]},{"lat":"37.05643873","long":"127.3657263","imageIndex":17,"items":[{"name":"황금철물","tel":"031-676-0409","addr":"경기도 안성시 삼죽면 진촌리 395-1번지","indutype":"건축자재 - 목재·석재·철물","category":"other"}]},{"lat":"37.060689465","long":"127.36938934","imageIndex":9,"items":[{"name":"(주)티와이태양주유소","tel":"031-672-5282","addr":"경기도 안성시 삼죽면 진촌리 303-2번지","indutype":"연료판매점 - GS주유소","category":"oil"}]},{"lat":"37.046577341","long":"127.36402691","imageIndex":9,"items":[{"name":"경인충전소","tel":"031-672-2557","addr":"경기도 안성시 삼죽면 진촌리 437번지","indutype":"연료판매점 - 쌍용S-OIL 가스충전","category":"oil"}]},{"lat":"37.059047102","long":"127.36725652","imageIndex":9,"items":[{"name":"연세석유(주)동아대self주유소","tel":"031-671-8975","addr":"경기도 안성시 삼죽면 진촌리 329-3번지","indutype":"연료판매점 - SK주유소","category":"oil"},{"name":"연세석유직영안성동아대셀프주유소","tel":"031-959-8975","addr":"경기도 안성시 삼죽면 진촌리 329-3번지","indutype":"연료판매점 - SK주유소","category":"oil"}]},{"lat":"37.064628499","long":"127.37183694","imageIndex":9,"items":[{"name":"푸른주유소","tel":"","addr":"경기도 안성시 삼죽면 진촌리 299-1번지","indutype":"연료판매점 - 주유소","category":"oil"}]},{"lat":"37.05024678","long":"127.37211581","imageIndex":13,"items":[{"name":"개나리낚시공원","tel":"","addr":"경기도 안성시 삼죽면 진촌리 18-2번지","indutype":"레저업소 - 기타레져업소","category":"leisure"}]},{"lat":"37.057411067","long":"127.36303267","imageIndex":13,"items":[{"name":"질러노래연습장","tel":"031-673-0963","addr":"경기도 안성시 삼죽면 진촌리 633-7번지","indutype":"레저업소 - 노 래 방","category":"leisure"}]},{"lat":"37.059298634","long":"127.36750507","imageIndex":0,"items":[{"name":"남산자동차정비공업사","tel":"031-672-7710","addr":"경기도 안성시 삼죽면 진촌리 328-1번지","indutype":"자동차정비 유지 - 자동차정비","category":"car"}]},{"lat":"37.051298095","long":"127.36428536","imageIndex":0,"items":[{"name":"제이엠시스템","tel":"031-672-9189","addr":"경기도 안성시 삼죽면 진촌리 413-3번지","indutype":"자동차정비 유지 - 자동차부품","category":"car"}]},{"lat":"37.047411405","long":"127.36531237","imageIndex":0,"items":[{"name":"태화중기","tel":"031-674-4359","addr":"경기도 안성시 삼죽면 진촌리 421-1번지","indutype":"자동차정비 유지 - 중장비수리","category":"car"}]},{"lat":"37.058550365","long":"127.35873203","imageIndex":16,"items":[{"name":"동아방송예술대학","tel":"031-670-6656","addr":"경기도 안성시 삼죽면 진촌리 632-18번지 동아방송예술대학","indutype":"학원 - 대학등록금","category":"study"}]},{"lat":"37.053434207","long":"127.36111396","imageIndex":16,"items":[{"name":"메가스터디교육(주)메가공무원,경찰전문관","tel":"031-676-9112","addr":"경기도 안성시 삼죽면 진촌리 577-1번지","indutype":"학원 - 보습학원","category":"study"}]},{"lat":"37.058550365","long":"127.35873203","imageIndex":5,"items":[{"name":"동아방송예술대학교","tel":"031-670-6656","addr":"경기도 안성시 삼죽면 진촌리 632-18번지 동아방송예술대학","indutype":"숙박업 - 여관/기타숙박업","category":"hotel"}]},{"lat":"37.065493778","long":"127.37175118","imageIndex":5,"items":[{"name":"버킹검모텔","tel":"031-673-2799","addr":"경기도 안성시 삼죽면 진촌리 296-1번지","indutype":"숙박업 - 여관/기타숙박업","category":"hotel"}]},{"lat":"37.048052759","long":"127.36478707","imageIndex":5,"items":[{"name":"쇼모텔","tel":"031-674-3985","addr":"경기도 안성시 삼죽면 진촌리 421-5번지","indutype":"숙박업 - 여관/기타숙박업","category":"hotel"}]}]