[{"lat":"37.87948122","long":"127.5254354","imageIndex":5,"items":[{"name":"77마일","tel":"031-581-0651","addr":"경기도 가평군 북면 이곡리 456-37번지","indutype":"숙박업 - 여관/기타숙박업","category":"hotel"}]},{"lat":"37.8726219","long":"127.52210234","imageIndex":5,"items":[{"name":"가평펜션","tel":"","addr":"경기도 가평군 북면 이곡리 554-8번지","indutype":"숙박업 - 여관/기타숙박업","category":"hotel"}]},{"lat":"37.872173404","long":"127.52165595","imageIndex":5,"items":[{"name":"강변마루펜션","tel":"031-582-4040","addr":"경기도 가평군 북면 이곡리 581-1","indutype":"숙박업 - 여관/기타숙박업","category":"hotel"}]},{"lat":"37.87453117","long":"127.52429796","imageIndex":5,"items":[{"name":"개울가펜션","tel":"031-581-8101","addr":"경기도 가평군 북면 이곡리 543","indutype":"숙박업 - 여관/기타숙박업","category":"hotel"}]},{"lat":"37.880117965","long":"127.54987796","imageIndex":5,"items":[{"name":"계곡사랑","tel":"031-582-7740","addr":"경기도 가평군 북면 이곡리 605-3번지","indutype":"숙박업 - 여관/기타숙박업","category":"hotel"}]},{"lat":"37.875171919","long":"127.54402211","imageIndex":5,"items":[{"name":"마레","tel":"031-581-7665","addr":"경기도 가평군 북면 이곡리 13-60번지","indutype":"숙박업 - 여관/기타숙박업","category":"hotel"}]},{"lat":"37.882699731","long":"127.54682798","imageIndex":5,"items":[{"name":"목동민박","tel":"031-582-0025","addr":"경기도 가평군 북면 이곡리 72-3번지","indutype":"숙박업 - 여관/기타숙박업","category":"hotel"}]},{"lat":"37.882286999","long":"127.54646121","imageIndex":5,"items":[{"name":"자연속풍경","tel":"031-582-0039","addr":"경기도 가평군 북면 이곡리 4-6","indutype":"숙박업 - 여관/기타숙박업","category":"hotel"}]},{"lat":"37.881058536","long":"127.54910062","imageIndex":5,"items":[{"name":"쿨펜션","tel":"031-582-5834","addr":"경기도 가평군 북면 이곡리 605-15번지","indutype":"숙박업 - 여관/기타숙박업","category":"hotel"}]},{"lat":"37.879760558","long":"127.54729513","imageIndex":16,"items":[{"name":"가평민들레교육 협동조합","tel":"031-0000-0000","addr":"경기도 가평군 북면 이곡리 11-2번지 2층","indutype":"학원 - 기타 교육기관","category":"study"}]},{"lat":"37.879700453","long":"127.54860183","imageIndex":16,"items":[{"name":"가평북중학교","tel":"031-581-0612","addr":"경기도 가평군 북면 이곡리 13-45번지 가평농어촌현대화시범학교","indutype":"학원 - 초중고교육기관","category":"study"},{"name":"목동초등학교","tel":"031-581-0612","addr":"경기도 가평군 북면 이곡리 13-45번지 가평농어촌현대화시범학교","indutype":"학원 - 초중고교육기관","category":"study"},{"name":"목동초병설유치원[아이행복]","tel":"031-581-0615","addr":"경기도 가평군 북면 이곡리 13-45번지 가평농어촌현대화시범학교","indutype":"학원 - 유치원","category":"study"}]},{"lat":"37.879365688","long":"127.5469626","imageIndex":16,"items":[{"name":"북면어린이집[아이행복]","tel":"031-582-8357","addr":"경기도 가평군 북면 이곡리 11-6번지","indutype":"학원 - 유아원","category":"study"}]},{"lat":"37.876481484","long":"127.52535737","imageIndex":7,"items":[{"name":"가평연인산잣집","tel":"031-582-9954","addr":"경기도 가평군 북면 이곡리 493-1번지","indutype":"음료식품 - 농·축·수산품","category":"food"}]},{"lat":"37.876280813","long":"127.52591289","imageIndex":7,"items":[{"name":"가평잣마을","tel":"031-581-9233","addr":"경기도 가평군 북면 이곡리 494번지","indutype":"음료식품 - 농·축·수산품","category":"food"}]},{"lat":"37.874230495","long":"127.52302289","imageIndex":7,"items":[{"name":"가평잣소라네농원","tel":"031-582-7389","addr":"경기도 가평군 북면 이곡리 544-2번지","indutype":"음료식품 - 농·축·수산품","category":"food"}]},{"lat":"37.874033552","long":"127.52273736","imageIndex":7,"items":[{"name":"가평잣이곡농산","tel":"031-582-0141","addr":"경기도 가평군 북면 이곡리 558번지","indutype":"음료식품 - 농·축·수산품","category":"food"}]},{"lat":"37.87731081","long":"127.52929591","imageIndex":7,"items":[{"name":"내촌잣","tel":"031-582-0465","addr":"경기도 가평군 북면 이곡리 211번지","indutype":"음료식품 - 농·축·수산품","category":"food"}]},{"lat":"37.874288783","long":"127.52410303","imageIndex":7,"items":[{"name":"박가네잣명가영농조합법인","tel":"031-582-7093","addr":"경기도 가평군 북면 이곡리 544-20번지","indutype":"음료식품 - 농·축·수산품","category":"food"}]},{"lat":"37.876060555","long":"127.52682061","imageIndex":7,"items":[{"name":"승예담","tel":"031-582-8253","addr":"경기도 가평군 북면 이곡리 530-1번지","indutype":"음료식품 - 기타음료식품","category":"food"}]},{"lat":"37.876173606","long":"127.53774408","imageIndex":7,"items":[{"name":"풍년농원","tel":"031-111-1111","addr":"경기도 가평군 북면 이곡리 187-4번지","indutype":"음료식품 - 농·축·수산품","category":"food"}]},{"lat":"37.879807409","long":"127.52501714","imageIndex":7,"items":[{"name":"한진아이템","tel":"031-582-9338","addr":"경기도 가평군 북면 이곡리 465번지","indutype":"음료식품 - 기타음료식품","category":"food"}]},{"lat":"37.878812643","long":"127.5278858","imageIndex":4,"items":[{"name":"가평잣갈비","tel":"031-582-0120","addr":"경기도 가평군 북면 이곡리 507-2번지 태암농장 B동 1호","indutype":"일반휴게음식 - 일반한식","category":"restaurant"}]},{"lat":"37.876565504","long":"127.52874504","imageIndex":4,"items":[{"name":"다슬기해장국전문점","tel":"031-582-4210","addr":"경기도 가평군 북면 이곡리 518-6번지","indutype":"일반휴게음식 - 일반한식","category":"restaurant"}]},{"lat":"37.87653487","long":"127.52955181","imageIndex":4,"items":[{"name":"명지쉼터가든","tel":"031-582-9462","addr":"경기도 가평군 북면 이곡리 207-2번지","indutype":"일반휴게음식 - 일반한식","category":"restaurant"}]},{"lat":"37.874337046","long":"127.52337597","imageIndex":4,"items":[{"name":"성일가든","tel":"031-582-8128","addr":"경기도 가평군 북면 이곡리 560번지","indutype":"일반휴게음식 - 일반한식","category":"restaurant"},{"name":"성일가든","tel":"031-582-8128","addr":"경기도 가평군 북면 이곡리 560번지","indutype":"일반휴게음식 - 일반한식","category":"restaurant"}]},{"lat":"37.881311682","long":"127.54890925","imageIndex":4,"items":[{"name":"이곡둑길153","tel":"031-111-1111","addr":"경기도 가평군 북면 이곡리 605-1번지","indutype":"일반휴게음식 - 일반한식","category":"restaurant"}]},{"lat":"37.876503811","long":"127.52843772","imageIndex":4,"items":[{"name":"이곡식당","tel":"031-582-0116","addr":"경기도 가평군 북면 이곡리 518-3번지","indutype":"일반휴게음식 - 일반한식","category":"restaurant"}]},{"lat":"37.876280813","long":"127.52591289","imageIndex":17,"items":[{"name":"가평잣마을","tel":"031-581-9233","addr":"경기도 가평군 북면 이곡리 494번지","indutype":"회원제형태 - 기타1","category":"other"}]},{"lat":"37.880619239","long":"127.53085395","imageIndex":17,"items":[{"name":"가평잣정보화마을운영위원회","tel":"031-582-6089","addr":"경기도 가평군 북면 이곡리 282-2번지","indutype":"문화.취미 - 문화취미기타","category":"other"}]},{"lat":"37.882148137","long":"127.54726724","imageIndex":17,"items":[{"name":"경기북면우체국","tel":"031-582-0012","addr":"경기도 가평군 북면 이곡리 2-5번지","indutype":"용역 서비스 - 공공요금대행서비스/소","category":"other"}]},{"lat":"37.880591954","long":"127.54674428","imageIndex":17,"items":[{"name":"세븐일레븐가평북면점","tel":"","addr":"경기도 가평군 북면 이곡리 7-32번지","indutype":"유통업 영리 - 편 의 점","category":"other"}]},{"lat":"37.872120702","long":"127.52134872","imageIndex":17,"items":[{"name":"화림건축자재","tel":"031-581-0425","addr":"경기도 가평군 북면 이곡리 582-1번지","indutype":"건축자재 - 기타건축자재","category":"other"},{"name":"화림상사","tel":"031-581-0425","addr":"경기도 가평군 북면 이곡리 582-1","indutype":"건축자재 - 기타건축자재","category":"other"}]},{"lat":"37.880144708","long":"127.54604764","imageIndex":7,"items":[{"name":"아이지에이마트북면점","tel":"031-582-0047","addr":"경기도 가평군 북면 이곡리 67-19번지","indutype":"유통업 영리 - 슈퍼마켓","category":"mart"}]}]