[{"lat":"37.236799194","long":"127.04469133","imageIndex":13,"items":[{"name":"(주)제이에스에프씨(JSFC Co.,Ltd.)","tel":"031-231-2791","addr":"경기도 수원시 영통구 망포동 212번지 박지성축구센터 1호","indutype":"레저업소 - 기타레져업소","category":"leisure"},{"name":"박지성축구센터","tel":"031-231-2791","addr":"경기도 수원시 영통구 망포동 212번지","indutype":"레저업소 - 기타레져업소","category":"leisure"}]},{"lat":"37.239578705","long":"127.05633454","imageIndex":13,"items":[{"name":"m1운동과학센터","tel":"031-206-1777","addr":"경기도 수원시 영통구 망포동 386번지 센트럴타워 306호","indutype":"레저업소 - 헬스클럽","category":"leisure"},{"name":"센트럴당구클럽","tel":"031-206-3369","addr":"경기도 수원시 영통구 망포동 386번지 센트럴타워 6층 610호","indutype":"레저업소 - 당 구 장","category":"leisure"},{"name":"카인드짐복싱","tel":"031-215-9682","addr":"경기도 수원시 영통구 망포동 386번지 센트럴타워 4층 406호","indutype":"레저업소 - 헬스클럽","category":"leisure"}]},{"lat":"37.237829572","long":"127.0587788","imageIndex":13,"items":[{"name":"구슬치기당구장","tel":"031-202-0711","addr":"경기도 수원시 영통구 망포동 532-1번지 세호프라자 6층 602,603호","indutype":"레저업소 - 당 구 장","category":"leisure"}]},{"lat":"37.237550001","long":"127.05930825","imageIndex":13,"items":[{"name":"궁노래연습장","tel":"031-273-3060","addr":"경기도 수원시 영통구 망포동 530-15번지 망포동근생빌딩 지하1층","indutype":"레저업소 - 노 래 방","category":"leisure"}]},{"lat":"37.237738872","long":"127.06002964","imageIndex":13,"items":[{"name":"금강산노래연습장","tel":"031-206-6084","addr":"경기도 수원시 영통구 망포동 485-3번지 지하1층","indutype":"레저업소 - 노 래 방","category":"leisure"}]},{"lat":"37.239300307","long":"127.05424945","imageIndex":13,"items":[{"name":"꼬마대통령 망포점","tel":"031-202-8598","addr":"경기도 수원시 영통구 망포동 378번지 정석그린프라자 2층 203,204호","indutype":"레저업소 - 기타레져업소","category":"leisure"}]},{"lat":"37.237244176","long":"127.05819235","imageIndex":13,"items":[{"name":"당구야놀자","tel":"031-202-1912","addr":"경기도 수원시 영통구 망포동 570-5번지 뉴LG프라자 3층 304호","indutype":"레저업소 - 당 구 장","category":"leisure"},{"name":"더나눔건강센터","tel":"070-8884-8275","addr":"경기도 수원시 영통구 망포동 570-5번지 뉴LG프라자 5층 506호","indutype":"레저업소 - 헬스클럽","category":"leisure"},{"name":"망고키즈카페","tel":"031-776-3324","addr":"경기도 수원시 영통구 망포동 570-5번지 뉴LG프라자 801-1호","indutype":"레저업소 - 기타레져업소","category":"leisure"},{"name":"스타짐","tel":"031-204-5528","addr":"경기도 수원시 영통구 망포동 570-5번지 뉴LG프라자 3층 305호","indutype":"레저업소 - 헬스클럽","category":"leisure"},{"name":"에픽 클라임(EPIC CLIMB)","tel":"031-202-3461","addr":"경기도 수원시 영통구 망포동 570-5번지 뉴LG프라자 4층 402호","indutype":"레저업소 - 기타레져업소","category":"leisure"},{"name":"와일드복싱 본관","tel":"031-205-6311","addr":"경기도 수원시 영통구 망포동 570-5번지 뉴LG프라자 301호","indutype":"레저업소 - 헬스클럽","category":"leisure"},{"name":"탑탁구클럽","tel":"031-205-7992","addr":"경기도 수원시 영통구 망포동 570-5번지 뉴LG프라자 3층 303호","indutype":"레저업소 - 기타레져업소","category":"leisure"},{"name":"테크노헬스","tel":"031-206-8075","addr":"경기도 수원시 영통구 망포동 570-5번지 뉴엘지프라자 801호","indutype":"레저업소 - 헬스클럽","category":"leisure"}]},{"lat":"37.238243358","long":"127.06022161","imageIndex":13,"items":[{"name":"라이또PC방","tel":"070-3698-0041","addr":"경기도 수원시 영통구 망포동 485-5번지 2층","indutype":"레저업소 - 기타레져업소","category":"leisure"}]},{"lat":"37.241217048","long":"127.05963782","imageIndex":13,"items":[{"name":"리틀비틀 영통점","tel":"031-891-9988","addr":"경기도 수원시 영통구 망포동 417-26번지 사국빌딩 202,203호","indutype":"레저업소 - 기타레져업소","category":"leisure"}]},{"lat":"37.237987853","long":"127.04664162","imageIndex":13,"items":[{"name":"만호노래연습장","tel":"031-202-1612","addr":"경기도 수원시 영통구 망포동 221-13번지","indutype":"레저업소 - 노 래 방","category":"leisure"}]},{"lat":"37.245048158","long":"127.05592139","imageIndex":13,"items":[{"name":"무비스노래연습장","tel":"031-254-0896","addr":"경기도 수원시 영통구 망포동 322-3번지 골든스퀘어 210,211호","indutype":"레저업소 - 노 래 방","category":"leisure"},{"name":"윤필라테스","tel":"070-4221-5930","addr":"경기도 수원시 영통구 망포동 322-3번지 골든스퀘어 3층 305호","indutype":"레저업소 - 헬스클럽","category":"leisure"}]},{"lat":"37.237487737","long":"127.05758398","imageIndex":13,"items":[{"name":"바디커트","tel":"070-7728-9079","addr":"경기도 수원시 영통구 망포동 569-3번지 유림프라자 403호","indutype":"레저업소 - 헬스클럽","category":"leisure"}]},{"lat":"37.234877381","long":"127.0515306","imageIndex":13,"items":[{"name":"스카이","tel":"031-206-6333","addr":"경기도 수원시 영통구 망포동 649-38번지 진성프라자 201호","indutype":"레저업소 - 노 래 방","category":"leisure"}]},{"lat":"37.237576473","long":"127.06046903","imageIndex":13,"items":[{"name":"신영당구클럽","tel":"031-202-9572","addr":"경기도 수원시 영통구 망포동 483-1번지 월드빌딩 3층","indutype":"레저업소 - 당 구 장","category":"leisure"},{"name":"허브","tel":"031-273-1991","addr":"경기도 수원시 영통구 망포동 483-1번지 201호","indutype":"레저업소 - 노 래 방","category":"leisure"}]},{"lat":"37.237990904","long":"127.0605595","imageIndex":13,"items":[{"name":"썅떼PC방","tel":"031-3399-3195","addr":"경기도 수원시 영통구 망포동 485-14번지 2층","indutype":"레저업소 - 기타레져업소","category":"leisure"}]},{"lat":"37.237630856","long":"127.05980417","imageIndex":13,"items":[{"name":"앵콜노래연습장","tel":"031-203-6677","addr":"경기도 수원시 영통구 망포동 485-16번지","indutype":"레저업소 - 노 래 방","category":"leisure"},{"name":"탑피시(PC)방","tel":"","addr":"경기도 수원시 영통구 망포동 485-16번지 2층","indutype":"레저업소 - 기타레져업소","category":"leisure"}]},{"lat":"37.243016221","long":"127.04497652","imageIndex":13,"items":[{"name":"어라운드 필라테스(Around pilates)","tel":"","addr":"경기도 수원시 영통구 망포동 766번지 아이파크캐슬1단지 116동 1401호","indutype":"레저업소 - 헬스클럽","category":"leisure"}]},{"lat":"37.247383221","long":"127.05272208","imageIndex":13,"items":[{"name":"에이스당구장","tel":"031-202-3232","addr":"경기도 수원시 영통구 망포동 11-9번지 201호","indutype":"레저업소 - 당 구 장","category":"leisure"}]},{"lat":"37.238045136","long":"127.06021019","imageIndex":13,"items":[{"name":"영통마음수련회","tel":"031-205-9952","addr":"경기도 수원시 영통구 망포동 485-2번지 동양하이츠빌라 C동 102호","indutype":"레저업소 - 기타레져업소","category":"leisure"}]},{"lat":"37.237857579","long":"127.05667142","imageIndex":13,"items":[{"name":"원요가필라테스","tel":"031-205-7969","addr":"경기도 수원시 영통구 망포동 558번지 신영통알파빌딩 4층 401,402일부호","indutype":"레저업소 - 헬스클럽","category":"leisure"},{"name":"휘트니스클럽S망포11호점","tel":"031-204-8747","addr":"경기도 수원시 영통구 망포동 558번지 신영통알파빌딩 701동 705호","indutype":"레저업소 - 헬스클럽","category":"leisure"}]},{"lat":"37.238885293","long":"127.05547756","imageIndex":13,"items":[{"name":"이든(E-den)기구 필라테스","tel":"031-203-0025","addr":"경기도 수원시 영통구 망포동 544-11번지 망포프라자 5층 501호","indutype":"레저업소 - 헬스클럽","category":"leisure"}]},{"lat":"37.236769439","long":"127.05180228","imageIndex":13,"items":[{"name":"점프스쿨줄넘기클럽","tel":"031-202-8359","addr":"경기도 수원시 영통구 망포동 650-103번지 B동 2층","indutype":"레저업소 - 기타레져업소","category":"leisure"}]},{"lat":"37.2404622","long":"127.05525326","imageIndex":13,"items":[{"name":"점프존 망포점","tel":"031-202-6026","addr":"경기도 수원시 영통구 망포동 397-1번지 코스모프라자 4층","indutype":"레저업소 - 기타레져업소","category":"leisure"}]},{"lat":"37.238821735","long":"127.0565594","imageIndex":13,"items":[{"name":"중앙당구장","tel":"031-9112-8774","addr":"경기도 수원시 영통구 망포동 542-11번지 중앙프라자 3층","indutype":"레저업소 - 당 구 장","category":"leisure"}]},{"lat":"37.240632533","long":"127.05716926","imageIndex":13,"items":[{"name":"크로스핏 범 (망포)","tel":"031-203-7009","addr":"경기도 수원시 영통구 망포동 723번지 한양수자인에듀파크","indutype":"레저업소 - 헬스클럽","category":"leisure"}]},{"lat":"37.241154266","long":"127.05902919","imageIndex":13,"items":[{"name":"킹 노래연습장","tel":"031-202-7880","addr":"경기도 수원시 영통구 망포동 417-2번지 204호","indutype":"레저업소 - 노 래 방","category":"leisure"},{"name":"풀타임PC방","tel":"031-1234-5678","addr":"경기도 수원시 영통구 망포동 417-2번지 3층","indutype":"레저업소 - 기타레져업소","category":"leisure"}]},{"lat":"37.239272837","long":"127.05525243","imageIndex":13,"items":[{"name":"탁이랑탁구교실","tel":"031-202-3700","addr":"경기도 수원시 영통구 망포동 380-1번지 엘지프라자 4층","indutype":"레저업소 - 기타레져업소","category":"leisure"}]},{"lat":"37.241327375","long":"127.05483686","imageIndex":13,"items":[{"name":"탑오브필라테스","tel":"031-205-5353","addr":"경기도 수원시 영통구 망포동 370-3번지 태장프라자 4층","indutype":"레저업소 - 헬스클럽","category":"leisure"}]},{"lat":"37.239326754","long":"127.05557929","imageIndex":13,"items":[{"name":"팡팡","tel":"031-203-2191","addr":"경기도 수원시 영통구 망포동 383-1번지 지하1층 101호","indutype":"레저업소 - 노 래 방","category":"leisure"}]},{"lat":"37.23968752","long":"127.05477939","imageIndex":13,"items":[{"name":"퍼니노리","tel":"031-203-8146","addr":"경기도 수원시 영통구 망포동 382-3번지 307,307-1,308호","indutype":"레저업소 - 기타레져업소","category":"leisure"}]},{"lat":"37.238578333","long":"127.0568297","imageIndex":13,"items":[{"name":"필드앤스크린골프","tel":"031-206-0759","addr":"경기도 수원시 영통구 망포동 557-1번지 효성빌딩","indutype":"레저업소 - 스크린골프","category":"leisure"}]}]