[{"lat":"37.414783467","long":"126.90858316","imageIndex":13,"items":[{"name":"김현앤Beauty","tel":"031-472-8202","addr":"경기도 안양시 만안구 안양로","indutype":"보건위생 - 미용원","category":"beauty"}]},{"lat":"37.400438675","long":"126.91956743","imageIndex":13,"items":[{"name":"더하라주쿠헤어","tel":"031-465-9436","addr":"경기도 안양시 만안구 안양로","indutype":"보건위생 - 미용원","category":"beauty"}]},{"lat":"37.398745594","long":"126.92073254","imageIndex":13,"items":[{"name":"엔에스코포레이션","tel":"031-442-9123","addr":"경기도 안양시 만안구 안양로","indutype":"보건위생 - 화장품","category":"beauty"}]},{"lat":"37.407940083","long":"126.91409237","imageIndex":13,"items":[{"name":"오도라타주식회사","tel":"031-466-7296","addr":"경기도 안양시 만안구 안양로","indutype":"보건위생 - 화장품","category":"beauty"}]},{"lat":"37.393442312","long":"126.92618145","imageIndex":13,"items":[{"name":"오렌지클럽","tel":"031-446-1311","addr":"경기도 안양시 만안구 안양로","indutype":"보건위생 - 미용원","category":"beauty"}]},{"lat":"37.41119006","long":"126.91062084","imageIndex":13,"items":[{"name":"쥬파크헤어","tel":"031-472-2680","addr":"경기도 안양시 만안구 안양로","indutype":"보건위생 - 미용원","category":"beauty"}]},{"lat":"37.384725192","long":"126.93373303","imageIndex":13,"items":[{"name":"지앤지헤어","tel":"031-465-3784","addr":"경기도 안양시 만안구 안양로","indutype":"보건위생 - 미용원","category":"beauty"},{"name":"쿨레컷","tel":"031-465-6733","addr":"경기도 안양시 만안구 안양로","indutype":"보건위생 - 미용원","category":"beauty"}]}]