[{"lat":"37.270684704","long":"127.01511471","imageIndex":5,"items":[{"name":"대화파크","tel":"031-223-3992","addr":"경기도 수원시 팔달구 매교동 74-5,2,3층","indutype":"숙박업 - 여관/기타숙박업","category":"hotel"}]},{"lat":"37.27048638","long":"127.01602791","imageIndex":5,"items":[{"name":"동현여관","tel":"031-239-4766","addr":"경기도 수원시 팔달구 매교동 28-31번지","indutype":"숙박업 - 여관/기타숙박업","category":"hotel"}]},{"lat":"37.268540142","long":"127.01617413","imageIndex":5,"items":[{"name":"부국파크","tel":"031-225-3466","addr":"경기도 수원시 팔달구 매교동 159-28번지","indutype":"숙박업 - 여관/기타숙박업","category":"hotel"}]},{"lat":"37.26823396","long":"127.01458444","imageIndex":5,"items":[{"name":"삼호장여관","tel":"031-233-6348","addr":"경기도 수원시 팔달구 매교동 120-7번지","indutype":"숙박업 - 여관/기타숙박업","category":"hotel"}]},{"lat":"37.27059451","long":"127.01597155","imageIndex":5,"items":[{"name":"성진여관","tel":"031-233-4948","addr":"경기도 수원시 팔달구 매교동 24-6","indutype":"숙박업 - 여관/기타숙박업","category":"hotel"}]},{"lat":"37.269378322","long":"127.01400963","imageIndex":5,"items":[{"name":"세븐모텔","tel":"070-8666-4178","addr":"경기도 수원시 팔달구 매교동 77-83번지 2,3층","indutype":"숙박업 - 여관/기타숙박업","category":"hotel"}]},{"lat":"37.267873363","long":"127.01633185","imageIndex":5,"items":[{"name":"천호파크","tel":"031-236-9422","addr":"경기도 수원시 팔달구 매교동 158-17번지","indutype":"숙박업 - 여관/기타숙박업","category":"hotel"}]},{"lat":"37.270297327","long":"127.01447201","imageIndex":5,"items":[{"name":"티파니","tel":"031-267-3578","addr":"경기도 수원시 팔달구 매교동 74-18번지","indutype":"숙박업 - 여관/기타숙박업","category":"hotel"}]}]