[{"lat":"37.279519785","long":"127.43743631","imageIndex":16,"items":[{"name":"디액터스 입시 연기학원","tel":"","addr":"경기도 이천시 관고동 25-2번지 2층201호,202호","indutype":"학원 - 예·체능계학원","category":"study"}]},{"lat":"37.279546637","long":"127.43502347","imageIndex":16,"items":[{"name":"별하어린이집[아이행복]","tel":"031-636-5109","addr":"경기도 이천시 관고동 232-12번지 권능어린이집","indutype":"학원 - 유아원","category":"study"},{"name":"빨간망토어린이집[아이행복]","tel":"031-636-5109","addr":"경기도 이천시 관고동 232-12번지","indutype":"학원 - 유아원","category":"study"}]},{"lat":"37.283659272","long":"127.43393064","imageIndex":16,"items":[{"name":"샬롬어린이집[아이행복]","tel":"031-637-3448","addr":"경기도 이천시 관고동 199-9번지","indutype":"학원 - 유아원","category":"study"}]},{"lat":"37.281469059","long":"127.43413239","imageIndex":16,"items":[{"name":"세종어린이집[아이행복]","tel":"031-637-3334","addr":"경기도 이천시 관고동 223-2번지","indutype":"학원 - 유아원","category":"study"}]},{"lat":"37.28174389","long":"127.4378212","imageIndex":16,"items":[{"name":"스티브에브리잉글리쉬","tel":"031-631-0583","addr":"경기도 이천시 관고동 17-3번지 2층","indutype":"학원 - 보습학원","category":"study"},{"name":"이샘수학학원","tel":"031-637-7023","addr":"경기도 이천시 관고동 17-3번지 3층","indutype":"회원제형태 - 학원","category":"study"}]},{"lat":"37.281965218","long":"127.43643553","imageIndex":16,"items":[{"name":"애플트리어린이집","tel":"031-638-5210","addr":"경기도 이천시 관고동 20-17번지","indutype":"학원 - 유아원","category":"study"},{"name":"애플트리어린이집[아이행복]","tel":"031-638-5210","addr":"경기도 이천시 관고동 20-17번지","indutype":"학원 - 유아원","category":"study"}]},{"lat":"37.281772659","long":"127.43734778","imageIndex":16,"items":[{"name":"양정씨앤씨(C&C)입시미술학원","tel":"031-632-6410","addr":"경기도 이천시 관고동 17 1,3층","indutype":"학원 - 예·체능계학원","category":"study"}]},{"lat":"37.282407977","long":"127.43854669","imageIndex":16,"items":[{"name":"오렌지원룸텔","tel":"031-631-0210","addr":"경기도 이천시 관고동 4번지","indutype":"학원 - 독서실","category":"study"}]},{"lat":"37.282298588","long":"127.43643744","imageIndex":16,"items":[{"name":"이엔엠(EnM)영수학원","tel":"031-694-7272","addr":"경기도 이천시 관고동 20-1번지","indutype":"학원 - 보습학원","category":"study"}]},{"lat":"37.276851894","long":"127.42774681","imageIndex":16,"items":[{"name":"이천 도예교육원","tel":"031-633-3241","addr":"경기도 이천시 관고동 406","indutype":"회원제형태 - 학원","category":"study"}]},{"lat":"37.283684849","long":"127.43679495","imageIndex":16,"items":[{"name":"이천양정여자고등학교","tel":"031-633-7801","addr":"경기도 이천시 관고동 77번지","indutype":"학원 - 초중고교육기관","category":"study"}]},{"lat":"37.280213555","long":"127.4374403","imageIndex":16,"items":[{"name":"중앙고시텔","tel":"031-638-5735","addr":"경기도 이천시 관고동 23-19번지","indutype":"학원 - 독서실","category":"study"}]},{"lat":"37.281686969","long":"127.43859892","imageIndex":16,"items":[{"name":"진명학원","tel":"031-631-4959","addr":"경기도 이천시 관고동 14번지 2층","indutype":"학원 - 보습학원","category":"study"}]},{"lat":"37.281604343","long":"127.43901565","imageIndex":16,"items":[{"name":"창조의아침미술학원","tel":"031-631-7058","addr":"경기도 이천시 관고동 14-4번지 2층","indutype":"학원 - 예·체능계학원","category":"study"}]},{"lat":"37.282245714","long":"127.43856831","imageIndex":16,"items":[{"name":"클릭전원미술학원","tel":"031-635-0259","addr":"경기도 이천시 관고동 4-28번지 301호","indutype":"학원 - 예·체능계학원","category":"study"}]},{"lat":"37.282324641","long":"127.43423875","imageIndex":16,"items":[{"name":"킹 버드 코리아 보습학원","tel":"031-636-2245","addr":"경기도 이천시 관고동 212-3번지 1층","indutype":"학원 - 외국어학원","category":"study"}]},{"lat":"37.280657046","long":"127.43934846","imageIndex":16,"items":[{"name":"형제고시텔","tel":"031-636-3100","addr":"경기도 이천시 관고동 12-4번지","indutype":"학원 - 독서실","category":"study"}]}]