[{"lat":"37.726015179","long":"127.06078832","imageIndex":16,"items":[{"name":"7단지 수학공부방","tel":"031-878-2506","addr":"경기도 의정부시 장암동 17-32번지 장암주공7단지 705동 104호","indutype":"학원 - 기타 교육기관","category":"study"}]},{"lat":"37.724792272","long":"127.05568307","imageIndex":16,"items":[{"name":"경희대 동암태권도","tel":"031-836-7890","addr":"경기도 의정부시 장암동 24-1번지 장암빌딩 2층","indutype":"학원 - 예·체능계학원","category":"study"}]},{"lat":"37.726297871","long":"127.05340417","imageIndex":16,"items":[{"name":"멘토수학학원","tel":"031-876-1237","addr":"경기도 의정부시 장암동 20-14번지 211호","indutype":"학원 - 보습학원","category":"study"},{"name":"쎈영수학원","tel":"031-878-4708","addr":"경기도 의정부시 장암동 20-14번지 별곡프라자 3층 309호","indutype":"학원 - 보습학원","category":"study"},{"name":"연세씨엠(CM)수학학원","tel":"031-826-7188","addr":"경기도 의정부시 장암동 20-14번지 발곡프라자 303호","indutype":"학원 - 보습학원","category":"study"},{"name":"우리국어논술학원","tel":"031-826-0033","addr":"경기도 의정부시 장암동 20-14번지 발곡프라자 412호","indutype":"회원제형태 - 학원","category":"study"},{"name":"윤홍영어전문학원","tel":"031-823-9986","addr":"경기도 의정부시 장암동 20-14번지 407호","indutype":"회원제형태 - 학원","category":"study"},{"name":"의정부해법학원","tel":"031-877-4800","addr":"경기도 의정부시 장암동 20-14번지 발곡프라자 2층 206호","indutype":"학원 - 보습학원","category":"study"},{"name":"장암몬스터영수학원","tel":"031-823-9507","addr":"경기도 의정부시 장암동 20-14번지 발곡프라자 4층 406호","indutype":"학원 - 보습학원","category":"study"},{"name":"장현준영어전문학원","tel":"031-877-0414","addr":"경기도 의정부시 장암동 20-14번지 발곡프라자 4층 410호","indutype":"학원 - 보습학원","category":"study"},{"name":"클로이샘영어교습소","tel":"031-842-1272","addr":"경기도 의정부시 장암동 20-14번지 발곡프라자 314호","indutype":"회원제형태 - 학원","category":"study"},{"name":"티앤에스 보습학원","tel":"031-879-6888","addr":"경기도 의정부시 장암동 20-14번지 발곡프라자 4층 411호","indutype":"학원 - 보습학원","category":"study"},{"name":"해법스마트중국어교습소","tel":"031-875-2888","addr":"경기도 의정부시 장암동 20-14번지 313호","indutype":"회원제형태 - 학원","category":"study"},{"name":"호암검도관","tel":"031-855-2671","addr":"경기도 의정부시 장암동 20-14번지 209호,210호","indutype":"학원 - 예·체능계학원","category":"study"}]},{"lat":"37.726270361","long":"127.05451578","imageIndex":16,"items":[{"name":"면학독서실","tel":"031-876-2336","addr":"경기도 의정부시 장암동 20-9번지 장암골드프라자 3층 304호","indutype":"학원 - 독서실","category":"study"},{"name":"온리원영어교습소","tel":"070-4409-6642","addr":"경기도 의정부시 장암동 20-9번지 골드프라자 1층 106호","indutype":"회원제형태 - 학원","category":"study"},{"name":"이엔아이음악학원","tel":"031-874-7555","addr":"경기도 의정부시 장암동 20-9번지 장암골드프라자 202호","indutype":"학원 - 예·체능계학원","category":"study"},{"name":"지혜의숲학원","tel":"031-877-3209","addr":"경기도 의정부시 장암동 20-9번지 장암골드프라자 3층 305호","indutype":"학원 - 보습학원","category":"study"}]},{"lat":"37.725152446","long":"127.05614839","imageIndex":16,"items":[{"name":"뮤엠영어교습소","tel":"031-824-3756","addr":"경기도 의정부시 장암동 17-17번지 피카소의꿈 A동 1층 일부","indutype":"학원 - 외국어학원","category":"study"}]},{"lat":"37.725269719","long":"127.05581953","imageIndex":16,"items":[{"name":"바하어드벤처음악학원","tel":"031-827-3670","addr":"경기도 의정부시 장암동 17-7번지 2층","indutype":"학원 - 예·체능계학원","category":"study"}]},{"lat":"37.725179674","long":"127.05570603","imageIndex":16,"items":[{"name":"샤갈의즐거운상상","tel":"031-871-8009","addr":"경기도 의정부시 장암동 17-8번지 2층","indutype":"학원 - 예·체능계학원","category":"study"},{"name":"열공학원","tel":"031-878-0715","addr":"경기도 의정부시 장암동 17-8 2층","indutype":"학원 - 보습학원","category":"study"},{"name":"장암최강체육관","tel":"031-872-8454","addr":"경기도 의정부시 장암동 17-8 ,9 3층","indutype":"학원 - 예·체능계학원","category":"study"}]},{"lat":"37.68974601","long":"127.05309593","imageIndex":16,"items":[{"name":"숲속음악교습소","tel":"02-933-7729","addr":"경기도 의정부시 장암동 413번지 수락리버시티1단지 상가동 1층 104호","indutype":"학원 - 예·체능계학원","category":"study"}]},{"lat":"37.723492861","long":"127.06003774","imageIndex":16,"items":[{"name":"연세장암태권스쿨","tel":"031-826-8733","addr":"경기도 의정부시 장암동 14-13번지 주공2단지상가동지 지하층","indutype":"학원 - 예·체능계학원","category":"study"}]},{"lat":"37.724963368","long":"127.05587602","imageIndex":16,"items":[{"name":"유니아트미술학원","tel":"070-4048-0507","addr":"경기도 의정부시 장암동 26-6번지 2층","indutype":"학원 - 예·체능계학원","category":"study"}]},{"lat":"37.725377834","long":"127.0558196","imageIndex":16,"items":[{"name":"유니온 스토리 영어수학학원","tel":"031-876-0595","addr":"경기도 의정부시 장암동 17-15번지 3층","indutype":"학원 - 보습학원","category":"study"}]},{"lat":"37.689934818","long":"127.0540144","imageIndex":16,"items":[{"name":"유니팝미술교습소","tel":"","addr":"경기도 의정부시 장암동 412번지 수락리버시티2단지 상가동 2층 202호","indutype":"학원 - 예·체능계학원","category":"study"},{"name":"피아노마스터음악교습소","tel":"02-932-5267","addr":"경기도 의정부시 장암동 412번지 수락리버시티2단지 상가 201호","indutype":"학원 - 예·체능계학원","category":"study"}]},{"lat":"37.724909523","long":"127.05539958","imageIndex":16,"items":[{"name":"장암삼성영어학원","tel":"031-826-9950","addr":"경기도 의정부시 장암동 19-5번지 2층","indutype":"학원 - 외국어학원","category":"study"}]},{"lat":"37.725753722","long":"127.0611511","imageIndex":16,"items":[{"name":"제이공부방","tel":"070-8031-4038","addr":"경기도 의정부시 장암동 17-32번지 장암주공7단지 704동 1306호","indutype":"학원 - 기타 교육기관","category":"study"}]},{"lat":"37.723062649","long":"127.05519411","imageIndex":16,"items":[{"name":"차일드유장암영어교실","tel":"031-876-0762","addr":"경기도 의정부시 장암동 37번지 의정부장암1차푸르지오 104동 102호","indutype":"회원제형태 - 학원","category":"study"}]},{"lat":"37.726014485","long":"127.06218352","imageIndex":16,"items":[{"name":"키즈유토피아","tel":"","addr":"경기도 의정부시 장암동 17-32번지 장암주공7단지 702동 1005호","indutype":"학원 - 예·체능계학원","category":"study"}]},{"lat":"37.699077634","long":"127.05835217","imageIndex":16,"items":[{"name":"파인드론","tel":"031-878-9003","addr":"경기도 의정부시 장암동 206-14번지","indutype":"학원 - 기타 교육기관","category":"study"}]},{"lat":"37.699241814","long":"127.0539074","imageIndex":16,"items":[{"name":"한국아이템디자인연구소","tel":"031-873-7855","addr":"경기도 의정부시 장암동 243-1번지 가동,나동","indutype":"학원 - 기타 교육기관","category":"study"}]}]