[{"lat":"37.183190146","long":"127.08958348","imageIndex":17,"items":[{"name":"(사) 한국레이저가공학회","tel":"062-715-2402","addr":"경기도 화성시 방교동 751-5번지 104호","indutype":"용역 서비스 - 사무서비스","category":"other"}]},{"lat":"37.165277271","long":"127.08977693","imageIndex":17,"items":[{"name":"(주) 뉴폴","tel":"031-377-4587","addr":"경기도 화성시 방교동 842-3번지","indutype":"신변잡화 - 기타잡화","category":"other"}]},{"lat":"37.166054779","long":"127.08614121","imageIndex":17,"items":[{"name":"(주)네스타(Nestar)","tel":"031-376-3800","addr":"경기도 화성시 방교동 839-5번지","indutype":"용역 서비스 - 사무서비스","category":"other"},{"name":"(주)디엠오토메이션","tel":"031-377-7336","addr":"경기도 화성시 방교동 839-5번지 3층","indutype":"전기제품 - 기타전기제품","category":"other"}]},{"lat":"37.172080779","long":"127.08891772","imageIndex":17,"items":[{"name":"(주)동남이엔지","tel":"031-373-9486","addr":"경기도 화성시 방교동 833-1번지 301호","indutype":"용역 서비스 - 종합용역","category":"other"},{"name":"GS25화성산단점","tel":"080-555-2525","addr":"경기도 화성시 방교동 740-132 청도프라자109호","indutype":"유통업 영리 - 편 의 점","category":"other"}]},{"lat":"37.163171574","long":"127.08594666","imageIndex":17,"items":[{"name":"(주)봄","tel":"031-8005-8747","addr":"경기도 화성시 방교동 846-1번지 (주)하이트로닉스 3층 302호","indutype":"유통업 영리 - 기타유통업","category":"other"}]},{"lat":"37.173305141","long":"127.09036038","imageIndex":17,"items":[{"name":"GS25동탄기흥로점","tel":"","addr":"경기도 화성시 방교동 829-6번지 104호","indutype":"유통업 영리 - 편 의 점","category":"other"}]},{"lat":"37.163747575","long":"127.086893","imageIndex":17,"items":[{"name":"GS25동탄방교리점","tel":"","addr":"경기도 화성시 방교동 844-4번지 108호","indutype":"유통업 영리 - 편 의 점","category":"other"}]},{"lat":"37.181774239","long":"127.09130482","imageIndex":17,"items":[{"name":"GS25동탄산단점","tel":"","addr":"경기도 화성시 방교동 769-7번지 101호","indutype":"유통업 영리 - 편 의 점","category":"other"}]},{"lat":"37.164477165","long":"127.08725408","imageIndex":17,"items":[{"name":"MK-BED","tel":"031-377-6130","addr":"경기도 화성시 방교동 844-2번지","indutype":"가구 - 일반가구","category":"other"},{"name":"에스에이치케이블 주식회사","tel":"031-378-6333","addr":"경기도 화성시 방교동 844-2번지 세비앙프라자 103호","indutype":"전기제품 - 기타전기제품","category":"other"},{"name":"유희공방","tel":"031-377-4947","addr":"경기도 화성시 방교동 844-2번지 114호115호","indutype":"가구 - 일반가구","category":"other"},{"name":"화인하우스","tel":"031-8015-2970","addr":"경기도 화성시 방교동 844-2번지 1층 109,110,111호","indutype":"가구 - 일반가구","category":"other"}]},{"lat":"37.179775644","long":"127.08897149","imageIndex":17,"items":[{"name":"SM에듀(드림디포 방교점)","tel":"031-241-2544","addr":"경기도 화성시 방교동 761-2번지 1층","indutype":"서적문구 - 문구용품","category":"other"}]},{"lat":"37.170723712","long":"127.08393946","imageIndex":17,"items":[{"name":"SY전자","tel":"031-376-6432","addr":"경기도 화성시 방교동 798-3번지","indutype":"전기제품 - 기타전기제품","category":"other"}]},{"lat":"37.182027885","long":"127.08946954","imageIndex":17,"items":[{"name":"가람가구","tel":"031-374-4692","addr":"경기도 화성시 방교동 756-1번지 1층 102호","indutype":"가구 - 일반가구","category":"other"}]},{"lat":"37.180775824","long":"127.08893884","imageIndex":17,"items":[{"name":"공감인테리어필름","tel":"","addr":"경기도 화성시 방교동 758-2번지 1층 103호","indutype":"건축자재 - 인테리어전문","category":"other"}]},{"lat":"37.172809692","long":"127.09019091","imageIndex":17,"items":[{"name":"광동스크린골프","tel":"031-372-8384","addr":"경기도 화성시 방교동 829-4번지 501,502호","indutype":"회원제형태 - 레져업소","category":"other"},{"name":"동탄배관","tel":"031-374-8138","addr":"경기도 화성시 방교동 829-4번지 105호","indutype":"건축자재 - 기타건축자재","category":"other"}]},{"lat":"37.181414233","long":"127.09075261","imageIndex":17,"items":[{"name":"다모아미디어","tel":"031-1877-5668","addr":"경기도 화성시 방교동 770-15번지 1층 1호","indutype":"용역 서비스 - 종합용역","category":"other"}]},{"lat":"37.183197614","long":"127.09166684","imageIndex":17,"items":[{"name":"대영공구","tel":"031-374-0530","addr":"경기도 화성시 방교동 765-8번지 상가동 101호","indutype":"기타 - 기계공구","category":"other"},{"name":"대영공구","tel":"031-374-0530","addr":"경기도 화성시 방교동 765-8번지 상가동 101호","indutype":"기타 - 기계공구","category":"other"},{"name":"스위트창","tel":"031-613-8968","addr":"경기도 화성시 방교동 765-8번지 202호","indutype":"직물 - 침구·수예점","category":"other"}]},{"lat":"37.180360959","long":"127.08946763","imageIndex":17,"items":[{"name":"도그플래닛","tel":"031-377-0633","addr":"경기도 화성시 방교동 759-8번지 1층 101호","indutype":"문화.취미 - 애완동물","category":"other"}]},{"lat":"37.170386515","long":"127.0893324","imageIndex":17,"items":[{"name":"동탄샤링산업","tel":"031-373-6795","addr":"경기도 화성시 방교동 835-8번지 동탄일반산업단지10블록8로트","indutype":"건축자재 - 기타건축자재","category":"other"}]},{"lat":"37.179946939","long":"127.08883655","imageIndex":17,"items":[{"name":"동탄제일꽃도매","tel":"031-613-4867","addr":"경기도 화성시 방교동 760-12번지 1층","indutype":"문화.취미 - 화원","category":"other"}]},{"lat":"37.180746529","long":"127.09200181","imageIndex":17,"items":[{"name":"드림퍼니쳐","tel":"031-378-3288","addr":"경기도 화성시 방교동 780-1번지 d동 1층103-106호 동탄프리미엄아울렛 d동 103-106","indutype":"가구 - 일반가구","category":"other"}]},{"lat":"37.181413214","long":"127.0921152","imageIndex":17,"items":[{"name":"디즈니골프동탄점","tel":"031-323-6016","addr":"경기도 화성시 방교동 779-4번지 동탄프리미엄아울렛 F동 1층 111,112호","indutype":"레져용품 - 골프용품 전문점","category":"other"},{"name":"어쿠스틱준","tel":"031-376-7670","addr":"경기도 화성시 방교동 779-4번지 동탄프리미엄아울렛 F동 203호","indutype":"레져용품 - 악기점","category":"other"},{"name":"와이드앵글(동탄점)","tel":"031-375-1118","addr":"경기도 화성시 방교동 779-4번지 F동 1층 101,102호","indutype":"의류 - 스포츠의류","category":"other"}]},{"lat":"37.181226058","long":"127.08933349","imageIndex":17,"items":[{"name":"리플라워케이크","tel":"","addr":"경기도 화성시 방교동 757-4번지 102호","indutype":"문화.취미 - 문화취미기타","category":"other"},{"name":"스티커요","tel":"070-8804-1850","addr":"경기도 화성시 방교동 757-4번지 1층 리브레캔들","indutype":"신변잡화 - 기타잡화","category":"other"},{"name":"이도(I do)","tel":"031-8015-4062","addr":"경기도 화성시 방교동 757-4번지 1층","indutype":"기타 - 기계공구","category":"other"}]},{"lat":"37.182947349","long":"127.08891878","imageIndex":17,"items":[{"name":"마리모","tel":"","addr":"경기도 화성시 방교동 752-1번지 1층","indutype":"문화.취미 - 문화취미기타","category":"other"}]},{"lat":"37.180802486","long":"127.08944562","imageIndex":17,"items":[{"name":"모아 (MOA)","tel":"031-375-5485","addr":"경기도 화성시 방교동 758-5번지","indutype":"서적문구 - 출판 및 인쇄물","category":"other"}]},{"lat":"37.171584473","long":"127.08991927","imageIndex":17,"items":[{"name":"미니스톱동탄산단점","tel":"031-1577-9621","addr":"경기도 화성시 방교동 833-6번지","indutype":"유통업 영리 - 편 의 점","category":"other"},{"name":"씰리침대 동탄점","tel":"","addr":"경기도 화성시 방교동 833-6번지 태흥프라자 1층 101호,102호일부","indutype":"가구 - 일반가구","category":"other"}]},{"lat":"37.180639404","long":"127.09066162","imageIndex":17,"items":[{"name":"봄날종합관리 주식회사","tel":"031-372-6539","addr":"경기도 화성시 방교동 773-2번지 1층","indutype":"용역 서비스 - 종합용역","category":"other"}]},{"lat":"37.181162124","long":"127.09050457","imageIndex":17,"items":[{"name":"붐스토어동탄점","tel":"031-377-3723","addr":"경기도 화성시 방교동 771-1번지 1층 102호","indutype":"유통업 영리 - 편 의 점","category":"other"}]},{"lat":"37.181388039","long":"127.0896152","imageIndex":17,"items":[{"name":"비비드포레","tel":"070-8600-3890","addr":"경기도 화성시 방교동 756-6번지 1층 101호","indutype":"문화.취미 - 화원","category":"other"},{"name":"제뉴인 하이파오피스","tel":"031-375-1372","addr":"경기도 화성시 방교동 756-6번지","indutype":"가구 - 기타가구","category":"other"}]},{"lat":"37.172810459","long":"127.08914374","imageIndex":17,"items":[{"name":"세븐일레븐동탄AP점","tel":"","addr":"경기도 화성시 방교동 829-1번지 산란프라자 109호","indutype":"유통업 영리 - 편 의 점","category":"other"}]},{"lat":"37.182495632","long":"127.09055115","imageIndex":17,"items":[{"name":"세븐일레븐동탄산업단지점","tel":"","addr":"경기도 화성시 방교동 767-1번지 102호","indutype":"유통업 영리 - 편 의 점","category":"other"}]},{"lat":"37.17208003","long":"127.08994236","imageIndex":17,"items":[{"name":"세진프로파일","tel":"031-726-1380","addr":"경기도 화성시 방교동 833-4번지 동탄테크노타워 106호","indutype":"건축자재 - 기타건축자재","category":"other"},{"name":"씨유동탄테크노타워점","tel":"031-239-6693","addr":"경기도 화성시 방교동 833-4번지 110호","indutype":"유통업 영리 - 편 의 점","category":"other"},{"name":"오피스넥스(화성점)","tel":"031-374-6541","addr":"경기도 화성시 방교동 833-4번지 201호","indutype":"서적문구 - 문구용품","category":"other"},{"name":"이레화스너주식회사","tel":"031-372-8100","addr":"경기도 화성시 방교동 833-4번지 112호","indutype":"기타 - 기계공구","category":"other"},{"name":"이브자리 남동탄점","tel":"031-000-0000","addr":"경기도 화성시 방교동 833-4번지 1층 101호~104호","indutype":"직물 - 침구·수예점","category":"other"},{"name":"이브창","tel":"031-378-2942","addr":"경기도 화성시 방교동 833-4번지 동탄테크노타워 104호","indutype":"직물 - 카페트,커튼,천막,지물","category":"other"},{"name":"이은공구","tel":"031-376-0912","addr":"경기도 화성시 방교동 833-4번지 108호","indutype":"기타 - 기계공구","category":"other"},{"name":"청라도시개발 주식회사","tel":"031-000-0000","addr":"경기도 화성시 방교동 833-4번지 318호","indutype":"용역 서비스 - 기타용역서비스","category":"other"}]},{"lat":"37.180640561","long":"127.08908508","imageIndex":17,"items":[{"name":"스튜디오에이치","tel":"031-377-3871","addr":"경기도 화성시 방교동 759-3번지","indutype":"용역 서비스 - 사무서비스","category":"other"}]},{"lat":"37.182559516","long":"127.08944762","imageIndex":17,"items":[{"name":"신도오피스넷","tel":"","addr":"경기도 화성시 방교동 753-4번지 1층 101호","indutype":"사무통신 - 사무용 OA기기","category":"other"}]},{"lat":"37.182801902","long":"127.09066412","imageIndex":17,"items":[{"name":"씨앤케이","tel":"031-000-0000","addr":"경기도 화성시 방교동 766-11번지 1층","indutype":"주방용구 - 주방용구","category":"other"},{"name":"이호 주식회사","tel":"","addr":"경기도 화성시 방교동 766-11번지 1층","indutype":"신변잡화 - 가방","category":"other"}]},{"lat":"37.179802207","long":"127.08961339","imageIndex":17,"items":[{"name":"씨유동탄사랑점","tel":"031-377-7218","addr":"경기도 화성시 방교동 761-6번지 101(동탄(2)택지)","indutype":"유통업 영리 - 편 의 점","category":"other"}]},{"lat":"37.181863701","long":"127.09216078","imageIndex":17,"items":[{"name":"아델커튼","tel":"031-375-7880","addr":"경기도 화성시 방교동 779-2번지 동탄프리미엄아울렛 H동1층104호,105호","indutype":"직물 - 카페트,커튼,천막,지물","category":"other"}]},{"lat":"37.182803027","long":"127.08913258","imageIndex":17,"items":[{"name":"이룸디자인건축","tel":"031-377-4948","addr":"경기도 화성시 방교동 752-9번지 1층","indutype":"건축자재 - 인테리어전문","category":"other"}]},{"lat":"37.182305185","long":"127.09219508","imageIndex":17,"items":[{"name":"이마트24 동탄코오롱","tel":"02-6916-1627","addr":"경기도 화성시 방교동 779-1번지 케이프라자 1층","indutype":"유통업 영리 - 편 의 점","category":"other"},{"name":"이마트24동탄코오롱","tel":"02-6916-1500","addr":"경기도 화성시 방교동 779-1번지 케어프라자 104호","indutype":"유통업 영리 - 편 의 점","category":"other"}]},{"lat":"37.181611426","long":"127.09213796","imageIndex":17,"items":[{"name":"전자아울렛(Electronics outlet)","tel":"031-000-0000","addr":"경기도 화성시 방교동 779-3번지 프리미엄아울렛 G동 107호,108호","indutype":"전기제품 - 기타전기제품","category":"other"},{"name":"프리미엄 옷수선","tel":"031-372-9890","addr":"경기도 화성시 방교동 779-3번지 G동 202호","indutype":"수리서비스 - 세탁소","category":"other"}]},{"lat":"37.182946169","long":"127.09052915","imageIndex":17,"items":[{"name":"제이하우스","tel":"070-7758-2676","addr":"경기도 화성시 방교동 766-1번지 102호","indutype":"건축자재 - 인테리어전문","category":"other"}]},{"lat":"37.180336277","long":"127.08619066","imageIndex":17,"items":[{"name":"주식회사 가온","tel":"031-273-4523","addr":"경기도 화성시 방교동 875-3번지","indutype":"가구 - 일반가구","category":"other"}]},{"lat":"37.182973855","long":"127.08963954","imageIndex":17,"items":[{"name":"주식회사 동탄하우징","tel":"031-663-0447","addr":"경기도 화성시 방교동 752-5번지 1층","indutype":"건축자재 - 인테리어전문","category":"other"}]},{"lat":"37.182775667","long":"127.089583","imageIndex":17,"items":[{"name":"주식회사 에스제이종합관리 (SJ)","tel":"031-4108-6880","addr":"경기도 화성시 방교동 752-6번지","indutype":"용역 서비스 - 종합용역","category":"other"}]},{"lat":"37.180361099","long":"127.0892762","imageIndex":17,"items":[{"name":"주식회사 에코코리아","tel":"031-372-4904","addr":"경기도 화성시 방교동 759-9번지","indutype":"기타 - 기계공구","category":"other"}]},{"lat":"37.163667266","long":"127.08577832","imageIndex":17,"items":[{"name":"주식회사 트럭커","tel":"031-377-6633","addr":"경기도 화성시 방교동 843-2번지 2층","indutype":"용역 서비스 - 기타용역서비스","category":"other"}]},{"lat":"37.182027091","long":"127.09055061","imageIndex":17,"items":[{"name":"주식회사 푸르름","tel":"031-111-1111","addr":"경기도 화성시 방교동 769-1번지 101호","indutype":"신변잡화 - 신발","category":"other"}]},{"lat":"37.183190393","long":"127.08924564","imageIndex":17,"items":[{"name":"주식회사 희창조명","tel":"031-376-1844","addr":"경기도 화성시 방교동 751-3번지 101호","indutype":"건축자재 - 조명기구","category":"other"}]},{"lat":"37.16975375","long":"127.09207897","imageIndex":17,"items":[{"name":"주식회사영테크","tel":"031-206-0671","addr":"경기도 화성시 방교동 838-8번지","indutype":"기타 - 기계공구","category":"other"}]},{"lat":"37.183106925","long":"127.09244377","imageIndex":17,"items":[{"name":"주식회사창에스앤디동탄점","tel":"031-613-1101","addr":"경기도 화성시 방교동 778-1번지 2층 203호","indutype":"직물 - 카페트,커튼,천막,지물","category":"other"}]},{"lat":"37.180305188","long":"127.09177607","imageIndex":17,"items":[{"name":"침구류동탄프리미엄아울렛","tel":"031-377-5887","addr":"경기도 화성시 방교동 780-3번지 1층","indutype":"직물 - 침구·수예점","category":"other"}]},{"lat":"37.164414935","long":"127.0860606","imageIndex":17,"items":[{"name":"케이티우드","tel":"031-376-8401","addr":"경기도 화성시 방교동 843-1번지 케이트우드","indutype":"건축자재 - 인테리어전문","category":"other"},{"name":"한샘키친하우징","tel":"031-372-8401","addr":"경기도 화성시 방교동 843-1번지 1층","indutype":"가구 - 일반가구","category":"other"}]},{"lat":"37.182028189","long":"127.08905287","imageIndex":17,"items":[{"name":"큐리오소","tel":"","addr":"경기도 화성시 방교동 755-10번지 101호","indutype":"문화.취미 - 문화취미기타","category":"other"}]},{"lat":"37.181585288","long":"127.09094424","imageIndex":17,"items":[{"name":"크라운뮤직","tel":"031-372-1077","addr":"경기도 화성시 방교동 770-3번지 3층 302호","indutype":"레져용품 - 악기점","category":"other"}]},{"lat":"37.180775578","long":"127.08927667","imageIndex":17,"items":[{"name":"페인트세븐","tel":"031-378-7760","addr":"경기도 화성시 방교동 758-4번지 1층","indutype":"건축자재 - 페인트","category":"other"}]},{"lat":"37.182190352","long":"127.08908684","imageIndex":17,"items":[{"name":"헤이(hei)","tel":"031-372-9257","addr":"경기도 화성시 방교동 754-2번지","indutype":"의류 - 정장","category":"other"}]},{"lat":"37.183279044","long":"127.09121648","imageIndex":17,"items":[{"name":"현대로하스","tel":"031-376-5057","addr":"경기도 화성시 방교동 765-5번지","indutype":"전기제품 - 냉열기기","category":"other"}]},{"lat":"37.183026668","long":"127.0913288","imageIndex":17,"items":[{"name":"희망제작소이든기획","tel":"031-375-3150","addr":"경기도 화성시 방교동 766-6번지 1층","indutype":"서적문구 - 출판 및 인쇄물","category":"other"}]},{"lat":"37.172080779","long":"127.08891772","imageIndex":0,"items":[{"name":"(주)알피시스텍","tel":"031-377-5516","addr":"경기도 화성시 방교동 833-1번지 303호","indutype":"자동차정비 유지 - 주차장","category":"car"}]},{"lat":"37.183279412","long":"127.09072098","imageIndex":0,"items":[{"name":"글로벌 자동차유리 동탄점","tel":"031-375-6295","addr":"경기도 화성시 방교동 765-2번지 1층","indutype":"자동차정비 유지 - 자동차부품","category":"car"}]},{"lat":"37.183190269","long":"127.08941456","imageIndex":0,"items":[{"name":"대성특수","tel":"031-282-0907","addr":"경기도 화성시 방교동 751-4번지 104호","indutype":"자동차정비 유지 - 자동차정비","category":"car"}]},{"lat":"37.182947349","long":"127.08891878","imageIndex":0,"items":[{"name":"더케이660","tel":"031-000-0000","addr":"경기도 화성시 방교동 752-1번지 102호","indutype":"자동차정비 유지 - 자동차부품","category":"car"}]},{"lat":"37.172107589","long":"127.08922176","imageIndex":0,"items":[{"name":"동탄모터스","tel":"031-377-9520","addr":"경기도 화성시 방교동 833-2번지 이레타워 1층 6호","indutype":"자동차정비 유지 - 자동차정비","category":"car"}]},{"lat":"37.179836891","long":"127.09144895","imageIndex":0,"items":[{"name":"동탄산단현대카센타","tel":"031-372-1868","addr":"경기도 화성시 방교동 780-5번지","indutype":"자동차정비 유지 - 자동차부품","category":"car"}]},{"lat":"37.180361181","long":"127.08916359","imageIndex":0,"items":[{"name":"디테일러명동탄점","tel":"","addr":"경기도 화성시 방교동 759-10번지 1층","indutype":"자동차정비 유지 - 세차장","category":"car"}]},{"lat":"37.163892116","long":"127.08636401","imageIndex":0,"items":[{"name":"셀세모 동탄","tel":"031-373-9955","addr":"경기도 화성시 방교동 845번지","indutype":"자동차정비 유지 - 세차장","category":"car"}]},{"lat":"37.181612587","long":"127.09058392","imageIndex":0,"items":[{"name":"스페셜샤인","tel":"","addr":"경기도 화성시 방교동 770-1번지 1층","indutype":"자동차정비 유지 - 카인테리어","category":"car"}]},{"lat":"37.182217244","long":"127.08927831","imageIndex":0,"items":[{"name":"워시더카본점","tel":"","addr":"경기도 화성시 방교동 754-3번지 1층","indutype":"자동차정비 유지 - 세차장","category":"car"}]},{"lat":"37.171612114","long":"127.08908608","imageIndex":0,"items":[{"name":"워시랩셀프세차타운","tel":"","addr":"경기도 화성시 방교동 834번지","indutype":"자동차정비 유지 - 세차장","category":"car"}]},{"lat":"37.181441122","long":"127.09094408","imageIndex":0,"items":[{"name":"카스페이스","tel":"","addr":"경기도 화성시 방교동 770-14번지 101호","indutype":"자동차정비 유지 - 자동차부품","category":"car"}]},{"lat":"37.183028304","long":"127.08911031","imageIndex":0,"items":[{"name":"카앤피플 화성지점","tel":"02-1566-7294","addr":"경기도 화성시 방교동 752-2번지 202호","indutype":"자동차정비 유지 - 세차장","category":"car"}]},{"lat":"37.175747478","long":"127.08966506","imageIndex":4,"items":[{"name":"(주)현대그린푸드 비전엑스아시아","tel":"070-7600-6662","addr":"경기도 화성시 방교동 825-3번지","indutype":"일반휴게음식 - 위탁급식업","category":"restaurant"}]},{"lat":"37.172809692","long":"127.09019091","imageIndex":4,"items":[{"name":"BBQ치킨&비어 통탄산업단지점","tel":"031-376-6848","addr":"경기도 화성시 방교동 829-4번지 센터프라자 205호","indutype":"일반휴게음식 - 스넥","category":"restaurant"},{"name":"놀부보쌈&놀부부대화성동탄산업단지점","tel":"031-377-6848","addr":"경기도 화성시 방교동 829-4번지 202호","indutype":"일반휴게음식 - 일반한식","category":"restaurant"},{"name":"서래옥감자탕","tel":"031-378-0958","addr":"경기도 화성시 방교동 829-4번지 203,204호","indutype":"일반휴게음식 - 일반한식","category":"restaurant"},{"name":"중화요리 삼국지","tel":"","addr":"경기도 화성시 방교동 829-4번지 센터프라자 1층 110,111호","indutype":"일반휴게음식 - 중국식","category":"restaurant"},{"name":"한얼","tel":"031-378-9505","addr":"경기도 화성시 방교동 829-4번지 센터프라자 112호","indutype":"일반휴게음식 - 일반한식","category":"restaurant"}]},{"lat":"37.182198138","long":"127.09075351","imageIndex":4,"items":[{"name":"BHC방교점","tel":"031-378-9949","addr":"경기도 화성시 방교동 768-2번지 1층 101,102호","indutype":"일반휴게음식 - 스넥","category":"restaurant"}]},{"lat":"37.183163558","long":"127.08897533","imageIndex":4,"items":[{"name":"coffee수","tel":"031-376-0227","addr":"경기도 화성시 방교동 751-1번지 1층","indutype":"일반휴게음식 - 서양음식","category":"restaurant"}]},{"lat":"37.181999213","long":"127.09168796","imageIndex":4,"items":[{"name":"가진항 물회","tel":"","addr":"경기도 화성시 방교동 777번지 동탄프리미엄아울렛 1층 1동 109호 110호","indutype":"일반휴게음식 - 일식·회집","category":"restaurant"},{"name":"도니와","tel":"031-8003-5181","addr":"경기도 화성시 방교동 777번지 동탄프리미엄아울렛 1동 1층 101,102호","indutype":"일반휴게음식 - 일반한식","category":"restaurant"},{"name":"만족오향족발","tel":"031-372-6011","addr":"경기도 화성시 방교동 777번지 1동 121,122,123호","indutype":"일반휴게음식 - 일반한식","category":"restaurant"},{"name":"신동탄숯불갈비","tel":"031-375-5303","addr":"경기도 화성시 방교동 777번지 동탄프리미엄아울렛 1동 1층 105,106호","indutype":"일반휴게음식 - 일반한식","category":"restaurant"},{"name":"제니스파이","tel":"031-374-3014","addr":"경기도 화성시 방교동 777번지 119,120호","indutype":"일반휴게음식 - 일반한식","category":"restaurant"},{"name":"청실홍실","tel":"031-1899-3272","addr":"경기도 화성시 방교동 777번지 동탄프리미엄아울렛 1동 104호","indutype":"일반휴게음식 - 일반한식","category":"restaurant"},{"name":"청춘연가 동탄프리미엄점","tel":"031-376-7692","addr":"경기도 화성시 방교동 777번지 1동 1층 103호","indutype":"일반휴게음식 - 일반한식","category":"restaurant"}]},{"lat":"37.180053761","long":"127.0906159","imageIndex":4,"items":[{"name":"감자탕전문점 운김","tel":"031-373-7250","addr":"경기도 화성시 방교동 774-9번지 1층","indutype":"일반휴게음식 - 일반한식","category":"restaurant"}]},{"lat":"37.182585544","long":"127.09081027","imageIndex":4,"items":[{"name":"고집스런 주방","tel":"031-372-7739","addr":"경기도 화성시 방교동 767-3번지 1층 일부호","indutype":"일반휴게음식 - 일반한식","category":"restaurant"}]},{"lat":"37.182611895","long":"127.09172246","imageIndex":4,"items":[{"name":"김명자낙지마당(동탄산단점)","tel":"031-376-0909","addr":"경기도 화성시 방교동 776-3번지 101동 103호","indutype":"일반휴게음식 - 일반한식","category":"restaurant"},{"name":"다이고미","tel":"031-373-3949","addr":"경기도 화성시 방교동 776-3번지 1층 108호","indutype":"일반휴게음식 - 일식·회집","category":"restaurant"},{"name":"달려라소돼지정육식당","tel":"","addr":"경기도 화성시 방교동 776-3번지 1층 105,106,108,109호","indutype":"일반휴게음식 - 일반한식","category":"restaurant"},{"name":"먹보포차앤비어","tel":"031-374-3738","addr":"경기도 화성시 방교동 776-3번지 111호","indutype":"일반휴게음식 - 일반한식","category":"restaurant"},{"name":"이화수전통육개장","tel":"031-374-2051","addr":"경기도 화성시 방교동 776-3번지 113,114,115호","indutype":"일반휴게음식 - 일반한식","category":"restaurant"},{"name":"펀비어킹 화성방교아울렛점","tel":"031-373-2051","addr":"경기도 화성시 방교동 776-3번지 1층 104호 ,105,106호","indutype":"일반휴게음식 - 주점","category":"restaurant"}]},{"lat":"37.172810459","long":"127.08914374","imageIndex":4,"items":[{"name":"김밥매니아 산단점","tel":"","addr":"경기도 화성시 방교동 829-1번지 1층 110호","indutype":"일반휴게음식 - 스넥","category":"restaurant"},{"name":"데이데이커피","tel":"070-7806-3279","addr":"경기도 화성시 방교동 829-1번지 산단프라자 107호","indutype":"일반휴게음식 - 서양음식","category":"restaurant"},{"name":"신동탄횟집","tel":"031-297-3401","addr":"경기도 화성시 방교동 829-1번지 111호","indutype":"일반휴게음식 - 일반한식","category":"restaurant"},{"name":"정글주스(Jungle Juice)","tel":"031-377-1066","addr":"경기도 화성시 방교동 829-1번지 산단프라자 104호","indutype":"일반휴게음식 - 서양음식","category":"restaurant"}]},{"lat":"37.182305185","long":"127.09219508","imageIndex":4,"items":[{"name":"김밥천국","tel":"031-374-9555","addr":"경기도 화성시 방교동 779-1번지 109호","indutype":"일반휴게음식 - 일반한식","category":"restaurant"},{"name":"마당화로구이","tel":"031-373-6001","addr":"경기도 화성시 방교동 779-1번지 케이프라자 302동 302호","indutype":"일반휴게음식 - 일반한식","category":"restaurant"},{"name":"시루향기","tel":"031-375-6652","addr":"경기도 화성시 방교동 779-1번지 케이프라자 1층 110,111호","indutype":"일반휴게음식 - 일반한식","category":"restaurant"},{"name":"아침닭","tel":"031-378-1090","addr":"경기도 화성시 방교동 779-1번지 케이프라자 1층 105호","indutype":"일반휴게음식 - 스넥","category":"restaurant"},{"name":"전통맛집 할매순대국","tel":"031-4273-5023","addr":"경기도 화성시 방교동 779-1번지 108호","indutype":"일반휴게음식 - 일반한식","category":"restaurant"}]},{"lat":"37.182026757","long":"127.09100106","imageIndex":4,"items":[{"name":"김씨반상","tel":"031-375-9151","addr":"경기도 화성시 방교동 769-4번지 1층","indutype":"일반휴게음식 - 일반한식","category":"restaurant"}]},{"lat":"37.180801675","long":"127.0905492","imageIndex":4,"items":[{"name":"김인곤보쌈","tel":"031-377-1822","addr":"경기도 화성시 방교동 772-1번지 1층 상가","indutype":"일반휴게음식 - 일반한식","category":"restaurant"}]},{"lat":"37.18255827","long":"127.09113681","imageIndex":4,"items":[{"name":"김칠순생태동태탕","tel":"031-373-4656","addr":"경기도 화성시 방교동 767-5번지","indutype":"일반휴게음식 - 일반한식","category":"restaurant"}]},{"lat":"37.183190146","long":"127.08958348","imageIndex":4,"items":[{"name":"꽃꽃한 당신","tel":"031-377-1211","addr":"경기도 화성시 방교동 751-5번지","indutype":"일반휴게음식 - 서양음식","category":"restaurant"}]},{"lat":"37.182026656","long":"127.0911362","imageIndex":4,"items":[{"name":"남대문 닭곰탕","tel":"031-372-9289","addr":"경기도 화성시 방교동 769-5번지 1층 일부호","indutype":"일반휴게음식 - 일반한식","category":"restaurant"}]},{"lat":"37.173305141","long":"127.09036038","imageIndex":4,"items":[{"name":"다온한식부페","tel":"031-378-4830","addr":"경기도 화성시 방교동 829-6번지 201,202,203,204호","indutype":"일반휴게음식 - 일반한식","category":"restaurant"},{"name":"예스커피","tel":"","addr":"경기도 화성시 방교동 829-6번지 110호","indutype":"일반휴게음식 - 서양음식","category":"restaurant"},{"name":"육봉식당","tel":"031-375-6052","addr":"경기도 화성시 방교동 829-6번지 101,102호","indutype":"일반휴게음식 - 일반한식","category":"restaurant"},{"name":"태성뷔페","tel":"031-369-4155","addr":"경기도 화성시 방교동 829-6번지 보문프라자 201동 204호 1","indutype":"일반휴게음식 - 일반한식","category":"restaurant"}]},{"lat":"37.163747575","long":"127.086893","imageIndex":4,"items":[{"name":"다인푸드","tel":"031-375-9605","addr":"경기도 화성시 방교동 844-4번지","indutype":"일반휴게음식 - 일반한식","category":"restaurant"},{"name":"아베오커피","tel":"031-663-0447","addr":"경기도 화성시 방교동 844-4번지 111호","indutype":"일반휴게음식 - 서양음식","category":"restaurant"},{"name":"진차이나","tel":"031-663-0447","addr":"경기도 화성시 방교동 844-4번지 제이엔에스 101,102,103호","indutype":"일반휴게음식 - 중국식","category":"restaurant"}]},{"lat":"37.181161899","long":"127.09080862","imageIndex":4,"items":[{"name":"대독장 동탄1호","tel":"070-7529-8843","addr":"경기도 화성시 방교동 771-3번지 1층","indutype":"일반휴게음식 - 일반한식","category":"restaurant"}]},{"lat":"37.181774448","long":"127.09102329","imageIndex":4,"items":[{"name":"돈치호태","tel":"031-378-9201","addr":"경기도 화성시 방교동 769-9번지 1층","indutype":"일반휴게음식 - 서양음식","category":"restaurant"}]},{"lat":"37.172080779","long":"127.08891772","imageIndex":4,"items":[{"name":"동문유통(행복뷔페)","tel":"031-377-3396","addr":"경기도 화성시 방교동 833-1번지 청도프라자 2층 201호,202호","indutype":"일반휴게음식 - 일반한식","category":"restaurant"},{"name":"양평해장국(동탄산업단지점)","tel":"031-378-9393","addr":"경기도 화성시 방교동 833-1번지 청도프라자 101호 102 103호","indutype":"일반휴게음식 - 일반한식","category":"restaurant"},{"name":"양평해장국(동탄산업단지점)","tel":"031-378-9393","addr":"경기도 화성시 방교동 833-1번지 101호,102호","indutype":"일반휴게음식 - 일반한식","category":"restaurant"},{"name":"잭스핫커피(Jack's Hot Coffee","tel":"031-373-0577","addr":"경기도 화성시 방교동 833-1번지 1층 106호","indutype":"일반휴게음식 - 서양음식","category":"restaurant"}]},{"lat":"37.180190221","long":"127.08883683","imageIndex":4,"items":[{"name":"동탄 장수촌","tel":"0507-1318-5977","addr":"경기도 화성시 방교동 760-1번지 101호","indutype":"일반휴게음식 - 일반한식","category":"restaurant"}]},{"lat":"37.181612261","long":"127.0910231","imageIndex":4,"items":[{"name":"동탄할망부대찌개","tel":"031-376-7078","addr":"경기도 화성시 방교동 770-4번지 1층 전부호","indutype":"일반휴게음식 - 일반한식","category":"restaurant"}]},{"lat":"37.181197824","long":"127.09096632","imageIndex":4,"items":[{"name":"두거리우신탕","tel":"031-376-1522","addr":"경기도 화성시 방교동 771-4번지","indutype":"일반휴게음식 - 일반한식","category":"restaurant"}]},{"lat":"37.181359591","long":"127.09152956","imageIndex":4,"items":[{"name":"두찌","tel":"031-372-9930","addr":"경기도 화성시 방교동 770-10번지 1층","indutype":"일반휴게음식 - 일반한식","category":"restaurant"}]},{"lat":"37.182027091","long":"127.09055061","imageIndex":4,"items":[{"name":"라라포차","tel":"031-222-0357","addr":"경기도 화성시 방교동 769-1번지 102호","indutype":"일반휴게음식 - 주점","category":"restaurant"}]},{"lat":"37.181413451","long":"127.09179989","imageIndex":4,"items":[{"name":"라이스꼬끼오","tel":"031-8003-9285","addr":"경기도 화성시 방교동 770-9번지 1층","indutype":"일반휴게음식 - 일반한식","category":"restaurant"}]},{"lat":"37.182224784","long":"127.09127156","imageIndex":4,"items":[{"name":"라프랑스 ( LA FRANCE)","tel":"031-374-3369","addr":"경기도 화성시 방교동 768-5번지","indutype":"일반휴게음식 - 서양음식","category":"restaurant"}]},{"lat":"37.182225295","long":"127.09058463","imageIndex":4,"items":[{"name":"로키","tel":"031-376-2017","addr":"경기도 화성시 방교동 768-1번지","indutype":"일반휴게음식 - 일반한식","category":"restaurant"}]},{"lat":"37.164477165","long":"127.08725408","imageIndex":4,"items":[{"name":"맛나푸드","tel":"031-373-7167","addr":"경기도 화성시 방교동 844-2번지 2층 204-205호","indutype":"일반휴게음식 - 일반한식","category":"restaurant"},{"name":"짜장마을","tel":"031-378-0447","addr":"경기도 화성시 방교동 844-2번지 2층","indutype":"일반휴게음식 - 중국식","category":"restaurant"}]},{"lat":"37.182801652","long":"127.09100196","imageIndex":4,"items":[{"name":"멕시카나 방교점","tel":"031-376-7999","addr":"경기도 화성시 방교동 766-9번지 1층 일부호","indutype":"일반휴게음식 - 스넥","category":"restaurant"}]},{"lat":"37.180162582","long":"127.0896701","imageIndex":4,"items":[{"name":"명가냉면","tel":"031-375-6025","addr":"경기도 화성시 방교동 760-6번지","indutype":"일반휴게음식 - 일반한식","category":"restaurant"}]},{"lat":"37.182586892","long":"127.08897468","imageIndex":4,"items":[{"name":"바른생갈비","tel":"","addr":"경기도 화성시 방교동 753-1번지 1층 일부호","indutype":"일반휴게음식 - 일반한식","category":"restaurant"}]},{"lat":"37.171584473","long":"127.08991927","imageIndex":4,"items":[{"name":"바링고빈스(동탄산업단지점)","tel":"031-376-8977","addr":"경기도 화성시 방교동 833-6번지 106호","indutype":"일반휴게음식 - 일반한식","category":"restaurant"},{"name":"영미손김밥","tel":"031-375-7044","addr":"경기도 화성시 방교동 833-6번지 1층 102호","indutype":"일반휴게음식 - 일반한식","category":"restaurant"},{"name":"전주한식부페","tel":"031-375-5590","addr":"경기도 화성시 방교동 833-6번지 202호","indutype":"일반휴게음식 - 일반한식","category":"restaurant"}]},{"lat":"37.182226155","long":"127.08941346","imageIndex":4,"items":[{"name":"방교감자탕","tel":"031-374-3373","addr":"경기도 화성시 방교동 754-4번지","indutype":"일반휴게음식 - 일반한식","category":"restaurant"}]},{"lat":"37.180000395","long":"127.08966992","imageIndex":4,"items":[{"name":"방아다리김치삼겹살","tel":"031-372-0454","addr":"경기도 화성시 방교동 760-7번지 1층","indutype":"일반휴게음식 - 일반한식","category":"restaurant"}]},{"lat":"37.181801847","long":"127.09052783","imageIndex":4,"items":[{"name":"배마루된장찌개","tel":"031-377-2008","addr":"경기도 화성시 방교동 769-12번지 1층 전부호","indutype":"일반휴게음식 - 일반한식","category":"restaurant"}]},{"lat":"37.182584423","long":"127.09230802","imageIndex":4,"items":[{"name":"배부장찌개 방교아울렛점","tel":"031-373-1237","addr":"경기도 화성시 방교동 778-3번지 1층 107호","indutype":"일반휴게음식 - 일반한식","category":"restaurant"},{"name":"이디야커피","tel":"031-378-8386","addr":"경기도 화성시 방교동 778-3번지 1층 (주)프리모코아 104호","indutype":"일반휴게음식 - 서양음식","category":"restaurant"}]},{"lat":"37.180837131","long":"127.09133751","imageIndex":4,"items":[{"name":"불타는 안창살","tel":"031-372-9295","addr":"경기도 화성시 방교동 772-6번지","indutype":"일반휴게음식 - 일반한식","category":"restaurant"}]},{"lat":"37.182495281","long":"127.09102413","imageIndex":4,"items":[{"name":"비어브로(Beer bro)","tel":"031-377-0902","addr":"경기도 화성시 방교동 767-4번지","indutype":"일반휴게음식 - 주점","category":"restaurant"},{"name":"오렌지식당","tel":"031-111-1111","addr":"경기도 화성시 방교동 767-4번지 1층 101호","indutype":"일반휴게음식 - 일반한식","category":"restaurant"}]},{"lat":"37.180611912","long":"127.09128094","imageIndex":4,"items":[{"name":"빈어스커피연구소","tel":"031-378-7712","addr":"경기도 화성시 방교동 773-5번지","indutype":"일반휴게음식 - 서양음식","category":"restaurant"}]},{"lat":"37.182973855","long":"127.08963954","imageIndex":4,"items":[{"name":"사랑으로오렌지식당","tel":"","addr":"경기도 화성시 방교동 752-5번지","indutype":"일반휴게음식 - 일반한식","category":"restaurant"}]},{"lat":"37.180441233","long":"127.09058256","imageIndex":4,"items":[{"name":"사랑채식당","tel":"031-375-9594","addr":"경기도 화성시 방교동 773-12번지 층","indutype":"일반휴게음식 - 일반한식","category":"restaurant"}]},{"lat":"37.182053544","long":"127.09132767","imageIndex":4,"items":[{"name":"상개분식포차","tel":"","addr":"경기도 화성시 방교동 769-6번지 1층 일부호","indutype":"일반휴게음식 - 일반한식","category":"restaurant"}]},{"lat":"37.18058478","long":"127.09141604","imageIndex":4,"items":[{"name":"셀렉토커피","tel":"031-375-0108","addr":"경기도 화성시 방교동 773-6번지 1층","indutype":"일반휴게음식 - 서양음식","category":"restaurant"}]},{"lat":"37.18261219","long":"127.09132832","imageIndex":4,"items":[{"name":"소담메밀냉면 돼지불백","tel":"031-376-3716","addr":"경기도 화성시 방교동 767-6번지 1층 전체호","indutype":"일반휴게음식 - 일반한식","category":"restaurant"}]},{"lat":"37.18222486","long":"127.09117021","imageIndex":4,"items":[{"name":"수육국밥과보쌈","tel":"031-377-0511","addr":"경기도 화성시 방교동 768-4번지","indutype":"일반휴게음식 - 일반한식","category":"restaurant"}]},{"lat":"37.182559516","long":"127.08944762","imageIndex":4,"items":[{"name":"스시탄","tel":"031-377-6104","addr":"경기도 화성시 방교동 753-4번지 1층","indutype":"일반휴게음식 - 일식·회집","category":"restaurant"}]},{"lat":"37.172107589","long":"127.08922176","imageIndex":4,"items":[{"name":"슬로우푸드","tel":"031-372-2242","addr":"경기도 화성시 방교동 833-2번지 2층 전부호","indutype":"일반휴게음식 - 일반한식","category":"restaurant"}]},{"lat":"37.180305188","long":"127.09177607","imageIndex":4,"items":[{"name":"아구야(본점)","tel":"031-373-0111","addr":"경기도 화성시 방교동 780-3번지 동탄프리미엄아울렛 B동 201,202,203호","indutype":"일반휴게음식 - 일반한식","category":"restaurant"}]},{"lat":"37.183279161","long":"127.09105882","imageIndex":4,"items":[{"name":"야차푸드","tel":"","addr":"경기도 화성시 방교동 765-4번지","indutype":"일반휴게음식 - 일반한식","category":"restaurant"}]},{"lat":"37.181557635","long":"127.09177754","imageIndex":4,"items":[{"name":"엉클사이공","tel":"031-374-1108","addr":"경기도 화성시 방교동 770-8번지 103호","indutype":"일반휴게음식 - 일반한식","category":"restaurant"}]},{"lat":"37.180773898","long":"127.0915514","imageIndex":4,"items":[{"name":"에드리프 ADDLEAF","tel":"031-372-0502","addr":"경기도 화성시 방교동 772-7번지 1층 일부호","indutype":"일반휴게음식 - 서양음식","category":"restaurant"}]},{"lat":"37.182523376","long":"127.08958272","imageIndex":4,"items":[{"name":"영진한우곱창","tel":"031-111-1111","addr":"경기도 화성시 방교동 753-5번지 1층","indutype":"일반휴게음식 - 일반한식","category":"restaurant"}]},{"lat":"37.180801173","long":"127.09122486","imageIndex":4,"items":[{"name":"예사부짬뽕","tel":"031-372-9928","addr":"경기도 화성시 방교동 772-5번지","indutype":"일반휴게음식 - 중국식","category":"restaurant"}]},{"lat":"37.180251538","long":"127.09122422","imageIndex":4,"items":[{"name":"옛날아우내순대","tel":"031-373-9996","addr":"경기도 화성시 방교동 774-5번지 1층","indutype":"일반휴게음식 - 일반한식","category":"restaurant"}]},{"lat":"37.180251998","long":"127.09060487","imageIndex":4,"items":[{"name":"우리네흑돼지","tel":"031-376-6767","addr":"경기도 화성시 방교동 774-1번지 1층","indutype":"일반휴게음식 - 일반한식","category":"restaurant"}]},{"lat":"37.181613267","long":"127.0896605","imageIndex":4,"items":[{"name":"우리동네시래기","tel":"070-7658-4646","addr":"경기도 화성시 방교동 756-7번지 1층 전체호","indutype":"일반휴게음식 - 일반한식","category":"restaurant"}]},{"lat":"37.180801299","long":"127.09105594","imageIndex":4,"items":[{"name":"이조(이자까야)","tel":"031-374-0983","addr":"경기도 화성시 방교동 772-4번지","indutype":"일반휴게음식 - 일반한식","category":"restaurant"}]},{"lat":"37.182190352","long":"127.08908684","imageIndex":4,"items":[{"name":"임실N치즈피자(동탄반교점)","tel":"031-377-9901","addr":"경기도 화성시 방교동 754-2번지 1층 101호","indutype":"일반휴게음식 - 서양음식","category":"restaurant"},{"name":"좋은날257","tel":"","addr":"경기도 화성시 방교동 754-2번지 1층 102호","indutype":"일반휴게음식 - 서양음식","category":"restaurant"}]},{"lat":"37.181197429","long":"127.09149559","imageIndex":4,"items":[{"name":"정정아식당","tel":"031-372-1223","addr":"경기도 화성시 방교동 771-7번지 101호","indutype":"일반휴게음식 - 일반한식","category":"restaurant"}]},{"lat":"37.18325176","long":"127.09155429","imageIndex":4,"items":[{"name":"제주올레","tel":"031-374-0133","addr":"경기도 화성시 방교동 765-7번지 1층","indutype":"일반휴게음식 - 일반한식","category":"restaurant"}]},{"lat":"37.181189934","long":"127.08944606","imageIndex":4,"items":[{"name":"존가네 화성동탄점","tel":"031-375-5585","addr":"경기도 화성시 방교동 757-5번지 1층 일부호","indutype":"일반휴게음식 - 일반한식","category":"restaurant"}]},{"lat":"37.180360836","long":"127.08963655","imageIndex":4,"items":[{"name":"최호철칼국수","tel":"031-375-3033","addr":"경기도 화성시 방교동 759-7번지 1층 전체호","indutype":"일반휴게음식 - 일반한식","category":"restaurant"}]},{"lat":"37.181162124","long":"127.09050457","imageIndex":4,"items":[{"name":"치킨뱅이","tel":"031-377-5115","addr":"경기도 화성시 방교동 771-1번지 101호","indutype":"일반휴게음식 - 일반한식","category":"restaurant"}]},{"lat":"37.169281175","long":"127.08519897","imageIndex":4,"items":[{"name":"코리아푸드","tel":"031-111-1111","addr":"경기도 화성시 방교동 797-10번지 2동 1층일부호","indutype":"일반휴게음식 - 위탁급식업","category":"restaurant"}]},{"lat":"37.18218999","long":"127.08958233","imageIndex":4,"items":[{"name":"토굽스커피","tel":"031-373-8577","addr":"경기도 화성시 방교동 754-5번지 1층","indutype":"일반휴게음식 - 서양음식","category":"restaurant"}]},{"lat":"37.181774339","long":"127.09116969","imageIndex":4,"items":[{"name":"포항식당","tel":"031-663-0447","addr":"경기도 화성시 방교동 769-8번지","indutype":"일반휴게음식 - 일반한식","category":"restaurant"}]},{"lat":"37.180559106","long":"127.08958047","imageIndex":4,"items":[{"name":"하이커피","tel":"031-378-0615","addr":"경기도 화성시 방교동 759-6번지","indutype":"일반휴게음식 - 서양음식","category":"restaurant"}]},{"lat":"37.181774239","long":"127.09130482","imageIndex":4,"items":[{"name":"해두리치킨(동탄2지구점)","tel":"031-373-9216","addr":"경기도 화성시 방교동 769-7번지 1층 일부호","indutype":"일반휴게음식 - 스넥","category":"restaurant"}]},{"lat":"37.182613702","long":"127.08927876","imageIndex":4,"items":[{"name":"행복한밥상","tel":"031-373-1365","addr":"경기도 화성시 방교동 753-3번지 1층","indutype":"일반휴게음식 - 일반한식","category":"restaurant"}]},{"lat":"37.180802387","long":"127.08958075","imageIndex":4,"items":[{"name":"호갱양꼬치","tel":"031-354-0619","addr":"경기도 화성시 방교동 758-6번지 1층","indutype":"일반휴게음식 - 일반한식","category":"restaurant"}]},{"lat":"37.181386732","long":"127.0913832","imageIndex":4,"items":[{"name":"홍운성","tel":"031-376-5581","addr":"경기도 화성시 방교동 770-11번지 1층","indutype":"일반휴게음식 - 중국식","category":"restaurant"}]},{"lat":"37.181190155","long":"127.08914201","imageIndex":4,"items":[{"name":"홍춘천치즈닭갈비","tel":"031-375-3949","addr":"경기도 화성시 방교동 757-3번지 1층 101호","indutype":"일반휴게음식 - 일반한식","category":"restaurant"}]},{"lat":"37.172809692","long":"127.09019091","imageIndex":13,"items":[{"name":"JS당구클럽","tel":"031-375-3575","addr":"경기도 화성시 방교동 829-4번지 4층 401,402호","indutype":"레저업소 - 당 구 장","category":"leisure"},{"name":"필노래연습장","tel":"031-372-3202","addr":"경기도 화성시 방교동 829-4번지 4층 404-405호","indutype":"레저업소 - 노 래 방","category":"leisure"},{"name":"허브","tel":"031-255-0850","addr":"경기도 화성시 방교동 829-4번지 403호","indutype":"레저업소 - 헬스클럽","category":"leisure"}]},{"lat":"37.183106925","long":"127.09244377","imageIndex":13,"items":[{"name":"가왕노래연습장","tel":"031-377-4806","addr":"경기도 화성시 방교동 778-1번지 리베라프라자 304,305호","indutype":"레저업소 - 노 래 방","category":"leisure"},{"name":"리베라 당구클럽","tel":"031-374-3972","addr":"경기도 화성시 방교동 778-1번지 301동 303호","indutype":"레저업소 - 당 구 장","category":"leisure"}]},{"lat":"37.181863701","long":"127.09216078","imageIndex":13,"items":[{"name":"골프바디(Golfbody)","tel":"031-373-2438","addr":"경기도 화성시 방교동 779-2번지 동탄프리미엄아울렛 H동 202호","indutype":"레저업소 - 골프연습장","category":"leisure"},{"name":"유튜브노래연습장","tel":"070-4686-9412","addr":"경기도 화성시 방교동 779-2번지 201호","indutype":"레저업소 - 노 래 방","category":"leisure"}]},{"lat":"37.182305185","long":"127.09219508","imageIndex":13,"items":[{"name":"나인스크린골프존","tel":"031-376-9989","addr":"경기도 화성시 방교동 779-1번지 4층 401,402호","indutype":"레저업소 - 스크린골프","category":"leisure"},{"name":"신동탄 노래연습장","tel":"031-374-4401","addr":"경기도 화성시 방교동 779-1번지 케이프라자 403,404호","indutype":"레저업소 - 노 래 방","category":"leisure"}]},{"lat":"37.173305141","long":"127.09036038","imageIndex":13,"items":[{"name":"드림노래연습장","tel":"031-374-9330","addr":"경기도 화성시 방교동 829-6번지","indutype":"레저업소 - 노 래 방","category":"leisure"}]},{"lat":"37.180746529","long":"127.09200181","imageIndex":13,"items":[{"name":"뱅뱅노래연습장","tel":"031-374-5957","addr":"경기도 화성시 방교동 780-1번지 동탄프리미엄아울렛 D동 203호","indutype":"레저업소 - 노 래 방","category":"leisure"}]},{"lat":"37.182584423","long":"127.09230802","imageIndex":13,"items":[{"name":"쏠라노래연습장","tel":"031-375-2070","addr":"경기도 화성시 방교동 778-3번지 203호","indutype":"레저업소 - 노 래 방","category":"leisure"},{"name":"제이엠 퍼스널 트레이닝","tel":"031-378-1636","addr":"경기도 화성시 방교동 778-3번지 201호","indutype":"레저업소 - 헬스클럽","category":"leisure"}]},{"lat":"37.171584473","long":"127.08991927","imageIndex":13,"items":[{"name":"탑노래연습장","tel":"031-375-8885","addr":"경기도 화성시 방교동 833-6번지 301호","indutype":"레저업소 - 노 래 방","category":"leisure"}]},{"lat":"37.17208003","long":"127.08994236","imageIndex":13,"items":[{"name":"팡팡노래연습장","tel":"031-372-9610","addr":"경기도 화성시 방교동 833-4번지 204호","indutype":"레저업소 - 노 래 방","category":"leisure"}]},{"lat":"37.180053334","long":"127.09119021","imageIndex":7,"items":[{"name":"굿할인마트","tel":"031-375-8545","addr":"경기도 화성시 방교동 774-6번지 1층","indutype":"유통업 영리 - 슈퍼마켓","category":"mart"}]},{"lat":"37.172107589","long":"127.08922176","imageIndex":7,"items":[{"name":"산업단지마트","tel":"031-373-4993","addr":"경기도 화성시 방교동 833-2번지 101동 103호","indutype":"유통업 영리 - 슈퍼마켓","category":"mart"}]},{"lat":"37.180026462","long":"127.09097622","imageIndex":7,"items":[{"name":"궁잔기지떡","tel":"031-1644-7042","addr":"경기도 화성시 방교동 774-7번지","indutype":"음료식품 - 제과점","category":"food"}]},{"lat":"37.181251069","long":"127.0920587","imageIndex":7,"items":[{"name":"나해커피","tel":"070-7798-1498","addr":"경기도 화성시 방교동 779-5번지 동탄프리미엄아울렛 E동 204호","indutype":"음료식품 - 기타음료식품","category":"food"}]},{"lat":"37.182584423","long":"127.09230802","imageIndex":7,"items":[{"name":"달소돼정육센타","tel":"02-0000-0000","addr":"경기도 화성시 방교동 778-3번지 1동 105호","indutype":"음료식품 - 정육점","category":"food"}]},{"lat":"37.180801441","long":"127.09086451","imageIndex":7,"items":[{"name":"동탄행복건강원","tel":"031-8058-3221","addr":"경기도 화성시 방교동 772-3번지","indutype":"건강식품 - 기타건강식품","category":"food"}]},{"lat":"37.182305185","long":"127.09219508","imageIndex":7,"items":[{"name":"마당화로구이","tel":"031-373-6001","addr":"경기도 화성시 방교동 779-1번지 3층","indutype":"음료식품 - 정육점","category":"food"}]},{"lat":"37.181829714","long":"127.08939048","imageIndex":7,"items":[{"name":"에이앤에프 수원","tel":"070-8802-0325","addr":"경기도 화성시 방교동 756-2번지 윤뜨레모아 202호","indutype":"음료식품 - 기타음료식품","category":"food"}]},{"lat":"37.183190269","long":"127.08941456","imageIndex":7,"items":[{"name":"제이에스푸드","tel":"02-438-7600","addr":"경기도 화성시 방교동 751-4번지","indutype":"음료식품 - 정육점","category":"food"}]},{"lat":"37.182028189","long":"127.08905287","imageIndex":7,"items":[{"name":"청정원 아이사랑 경기남부지점","tel":"031-000-0000","addr":"경기도 화성시 방교동 755-10번지","indutype":"음료식품 - 기타음료식품","category":"food"}]},{"lat":"37.181197429","long":"127.09149559","imageIndex":9,"items":[{"name":"동원연탄","tel":"","addr":"경기도 화성시 방교동 771-7번지 401호","indutype":"연료판매점 - 기타연료","category":"oil"}]},{"lat":"37.168441844","long":"127.08713464","imageIndex":16,"items":[{"name":"동탄산단해솔어린이집[아이행복]","tel":"031-373-6062","addr":"경기도 화성시 방교동 857번지","indutype":"학원 - 유아원","category":"study"}]},{"lat":"37.172809692","long":"127.09019091","imageIndex":8,"items":[{"name":"동탄휴치과의원","tel":"031-376-7528","addr":"경기도 화성시 방교동 829-4번지 304호","indutype":"의원 - 치과의원","category":"medical"}]},{"lat":"37.18122473","long":"127.09113526","imageIndex":13,"items":[{"name":"라피네헤어","tel":"070-4103-8822","addr":"경기도 화성시 방교동 771-5번지 1층","indutype":"보건위생 - 미용원","category":"beauty"}]},{"lat":"37.182611895","long":"127.09172246","imageIndex":13,"items":[{"name":"루이헤어","tel":"031-377-0706","addr":"경기도 화성시 방교동 776-3번지 107호","indutype":"보건위생 - 미용원","category":"beauty"}]},{"lat":"37.179946939","long":"127.08883655","imageIndex":13,"items":[{"name":"부브띠","tel":"070-5031-0327","addr":"경기도 화성시 방교동 760-12번지 1층 일부호","indutype":"보건위생 - 피부미용실","category":"beauty"}]},{"lat":"37.183197614","long":"127.09166684","imageIndex":13,"items":[{"name":"속눈썹 길어지다","tel":"","addr":"경기도 화성시 방교동 765-8번지 401호","indutype":"보건위생 - 미용재료","category":"beauty"}]},{"lat":"37.181863701","long":"127.09216078","imageIndex":13,"items":[{"name":"올리비아헤어","tel":"","addr":"경기도 화성시 방교동 779-2번지 H동 108호","indutype":"보건위생 - 미용원","category":"beauty"}]},{"lat":"37.172107589","long":"127.08922176","imageIndex":13,"items":[{"name":"장수","tel":"031-373-1688","addr":"경기도 화성시 방교동 833-2번지 301호","indutype":"보건위생 - 화장품","category":"beauty"}]},{"lat":"37.182053544","long":"127.09132767","imageIndex":13,"items":[{"name":"젠틀맨","tel":"031-375-2767","addr":"경기도 화성시 방교동 769-6번지","indutype":"보건위생 - 미용원","category":"beauty"}]}]