[{"lat":"37.645972016","long":"127.36518663","imageIndex":17,"items":[{"name":"(주)더베스트","tel":"031-591-0900","addr":"경기도 남양주시 화도읍 금남리 171-1번지","indutype":"용역 서비스 - 종합용역","category":"other"}]},{"lat":"37.650771242","long":"127.36905134","imageIndex":17,"items":[{"name":"(주)플러스원","tel":"032-661-6554","addr":"경기도 남양주시 화도읍 금남리 137-30번지 리버데일 101동 405호","indutype":"건축자재 - 부동산 분양","category":"other"}]},{"lat":"37.644279914","long":"127.36167726","imageIndex":17,"items":[{"name":"HOYA 호야스토어","tel":"031-595-7258","addr":"경기도 남양주시 화도읍 금남리 355번지","indutype":"레져용품 - 스포츠·레져용품","category":"other"}]},{"lat":"37.632917606","long":"127.3406869","imageIndex":17,"items":[{"name":"SEG","tel":"031-511-9902","addr":"경기도 남양주시 화도읍 금남리 605-6","indutype":"전기제품 - 가전제품","category":"other"}]},{"lat":"37.644534865","long":"127.3607947","imageIndex":17,"items":[{"name":"가람건설","tel":"031-592-6774","addr":"경기도 남양주시 화도읍 금남리 338-2번지 동부금남빌리지 204호","indutype":"건축자재 - 기타건축자재","category":"other"}]},{"lat":"37.613395033","long":"127.34017952","imageIndex":17,"items":[{"name":"갤러리공인중개사사무소","tel":"031-593-6711","addr":"경기도 남양주시 화도읍 금남리 772번지","indutype":"용역 서비스 - 부동산 중개·임대","category":"other"}]},{"lat":"37.63309125","long":"127.33982669","imageIndex":17,"items":[{"name":"고성","tel":"031-673-9113","addr":"경기도 남양주시 화도읍 금남리 605-5번지","indutype":"용역 서비스 - 가례서비스업","category":"other"}]},{"lat":"37.638502784","long":"127.35634718","imageIndex":17,"items":[{"name":"골동품이 돈","tel":"","addr":"경기도 남양주시 화도읍 금남리 445-2번지","indutype":"문화.취미 - 골동품점","category":"other"}]},{"lat":"37.649194822","long":"127.36896428","imageIndex":17,"items":[{"name":"금호 수상레져","tel":"031-592-2878","addr":"경기도 남양주시 화도읍 금남리 138번지 1층","indutype":"레져용품 - 스포츠·레져용품","category":"other"}]},{"lat":"37.65672164","long":"127.358904","imageIndex":17,"items":[{"name":"더 플랏 the flat","tel":"031-493-5910","addr":"경기도 남양주시 화도읍 금남리 46-1","indutype":"유통업 영리 - 기타유통업","category":"other"}]},{"lat":"37.635115072","long":"127.35335155","imageIndex":17,"items":[{"name":"도자기마을","tel":"031-591-1811","addr":"경기도 남양주시 화도읍 금남리 511-108 16/2","indutype":"문화.취미 - 민예·공예품","category":"other"}]},{"lat":"37.644083976","long":"127.3609285","imageIndex":17,"items":[{"name":"미니스톱남양주금남점","tel":"031-1577-9621","addr":"경기도 남양주시 화도읍 금남리 338-3번지 1층","indutype":"유통업 영리 - 편 의 점","category":"other"}]},{"lat":"37.652193342","long":"127.36659932","imageIndex":17,"items":[{"name":"미래레저마린 (Mirae Leisure Marine)","tel":"031-559-3691","addr":"경기도 남양주시 화도읍 금남리 202번지","indutype":"기타 - 기계공구","category":"other"}]},{"lat":"37.619976626","long":"127.34487593","imageIndex":17,"items":[{"name":"세븐일레븐금남리점","tel":"","addr":"경기도 남양주시 화도읍 금남리 662-14","indutype":"유통업 영리 - 편 의 점","category":"other"},{"name":"세븐일레븐남양주금남리점","tel":"","addr":"경기도 남양주시 화도읍 금남리 662-14번지","indutype":"유통업 영리 - 편 의 점","category":"other"}]},{"lat":"37.64098066","long":"127.35927075","imageIndex":17,"items":[{"name":"세븐일레븐남양주금남로점","tel":"031-1577-0711","addr":"경기도 남양주시 화도읍 금남리 412-3번지 1층","indutype":"유통업 영리 - 편 의 점","category":"other"}]},{"lat":"37.646088304","long":"127.36545913","imageIndex":17,"items":[{"name":"세븐일레븐남양주북한강점","tel":"","addr":"경기도 남양주시 화도읍 금남리 171-6번지","indutype":"유통업 영리 - 편 의 점","category":"other"}]},{"lat":"37.652971777","long":"127.36834823","imageIndex":17,"items":[{"name":"세븐일레븐화도북한강점","tel":"031-1577-0711","addr":"경기도 남양주시 화도읍 금남리 104-12번지","indutype":"유통업 영리 - 편 의 점","category":"other"}]},{"lat":"37.644702673","long":"127.36190591","imageIndex":17,"items":[{"name":"싸유편의점","tel":"031-593-5652","addr":"경기도 남양주시 화도읍 금남리 354-6번지","indutype":"유통업 영리 - 편 의 점","category":"other"}]},{"lat":"37.635642353","long":"127.35479285","imageIndex":17,"items":[{"name":"씨유금남리점","tel":"031-591-9971","addr":"경기도 남양주시 화도읍 금남리 511-97번지","indutype":"유통업 영리 - 편 의 점","category":"other"}]},{"lat":"37.643419263","long":"127.36026814","imageIndex":17,"items":[{"name":"아쿠아119","tel":"031-575-1119","addr":"경기도 남양주시 화도읍 금남리 333-1번지 1층일부,2층","indutype":"문화.취미 - 수족관","category":"other"}]},{"lat":"37.631923553","long":"127.35101418","imageIndex":17,"items":[{"name":"에델바이스","tel":"031-594-8837","addr":"경기도 남양주시 화도읍 금남리 572-2번지","indutype":"가구 - 일반가구","category":"other"}]},{"lat":"37.652223285","long":"127.3685712","imageIndex":17,"items":[{"name":"엠제이팩토리(MJ Factory)","tel":"031-595-4016","addr":"경기도 남양주시 화도읍 금남리 198-14번지","indutype":"레져용품 - 스포츠·레져용품","category":"other"}]},{"lat":"37.647110215","long":"127.36126029","imageIndex":17,"items":[{"name":"우리하수도공사","tel":"080-559-8272","addr":"경기도 남양주시 화도읍 금남리 248-2번지","indutype":"용역 서비스 - 기타용역서비스","category":"other"}]},{"lat":"37.652776302","long":"127.36746339","imageIndex":17,"items":[{"name":"은성가구","tel":"031-592-2667","addr":"경기도 남양주시 화도읍 금남리 98-1","indutype":"가구 - 일반가구","category":"other"}]},{"lat":"37.637613551","long":"127.3554366","imageIndex":17,"items":[{"name":"은인무역(WAIWERA)","tel":"031-595-6490","addr":"경기도 남양주시 화도읍 금남리 511-96번지","indutype":"유통업 영리 - 기타유통업","category":"other"}]},{"lat":"37.633172659","long":"127.33971377","imageIndex":17,"items":[{"name":"주식회사 신화펌프","tel":"031-595-2570","addr":"경기도 남양주시 화도읍 금남리 605-4번지","indutype":"기타 - 기계공구","category":"other"}]},{"lat":"37.649950356","long":"127.36646374","imageIndex":17,"items":[{"name":"중앙산업","tel":"031-594-2756","addr":"경기도 남양주시 화도읍 금남리 187-6","indutype":"기타 - 기타 전문점","category":"other"}]},{"lat":"37.654003459","long":"127.36393379","imageIndex":17,"items":[{"name":"칠성웰딩","tel":"031-591-7188","addr":"경기도 남양주시 화도읍 금남리 71-4번지","indutype":"기타 - 기계공구","category":"other"}]},{"lat":"37.654553864","long":"127.36951186","imageIndex":17,"items":[{"name":"케이마루","tel":"","addr":"경기도 남양주시 화도읍 금남리 108-1번지","indutype":"건축자재 - 기타건축자재","category":"other"}]},{"lat":"37.638451032","long":"127.35557651","imageIndex":17,"items":[{"name":"하이디아","tel":"02-1661-4917","addr":"경기도 남양주시 화도읍 금남리 446-7번지","indutype":"문화.취미 - 애완동물","category":"other"}]},{"lat":"37.652755794","long":"127.36826785","imageIndex":17,"items":[{"name":"한국토기","tel":"031-592-8839","addr":"경기도 남양주시 화도읍 금남리 198-4번지","indutype":"문화.취미 - 민예·공예품","category":"other"}]},{"lat":"37.614116124","long":"127.34006951","imageIndex":17,"items":[{"name":"한성엘이디 유한회사","tel":"031-557-7733","addr":"경기도 남양주시 화도읍 금남리 769번지","indutype":"건축자재 - 조명기구","category":"other"}]},{"lat":"37.640419167","long":"127.35724","imageIndex":17,"items":[{"name":"화도로타리클럽","tel":"031-594-1402","addr":"경기도 남양주시 화도읍 금남리 440-5번지","indutype":"기타 - 비영리/비대상","category":"other"}]}]