[{"lat":"37.065823748","long":"127.41907857","imageIndex":4,"items":[{"name":"(주)아워홈 두원공과대학교안성점","tel":"02-6966-9049","addr":"경기도 안성시 죽산면 장원리 871번지 두원공과대학교","indutype":"일반휴게음식 - 위탁급식업","category":"restaurant"},{"name":"그라찌에두원공과대학교승강장점","tel":"","addr":"경기도 안성시 죽산면 장원리 871번지 두원공과대학교 J동","indutype":"일반휴게음식 - 서양음식","category":"restaurant"}]},{"lat":"37.067439287","long":"127.42088647","imageIndex":4,"items":[{"name":"그라찌에(학생관)","tel":"070-7126-9932","addr":"경기도 안성시 죽산면 장원리 678번지 C동 1층","indutype":"일반휴게음식 - 일반한식","category":"restaurant"}]},{"lat":"37.063572218","long":"127.42132624","imageIndex":4,"items":[{"name":"낙 도그","tel":"031-676-5624","addr":"경기도 안성시 죽산면 장원리 870-6번지","indutype":"일반휴게음식 - 서양음식","category":"restaurant"}]},{"lat":"37.070321787","long":"127.43619495","imageIndex":4,"items":[{"name":"남산고을","tel":"031-676-9151","addr":"경기도 안성시 죽산면 장원리 1175","indutype":"일반휴게음식 - 일반한식","category":"restaurant"}]},{"lat":"37.0635199","long":"127.42083123","imageIndex":4,"items":[{"name":"놀이터","tel":"031-675-6024","addr":"경기도 안성시 죽산면 장원리 870-7번지","indutype":"일반휴게음식 - 일반한식","category":"restaurant"},{"name":"놀이터식당","tel":"031-676-8647","addr":"경기도 안성시 죽산면 장원리 870-7번지 1층","indutype":"일반휴게음식 - 일반한식","category":"restaurant"}]},{"lat":"37.068409357","long":"127.42682879","imageIndex":4,"items":[{"name":"더드림한식부폐","tel":"","addr":"경기도 안성시 죽산면 장원리 1395번지 1층","indutype":"일반휴게음식 - 일반한식","category":"restaurant"}]},{"lat":"37.074521504","long":"127.43597145","imageIndex":4,"items":[{"name":"도드람본래순대 죽산점","tel":"031-675-9888","addr":"경기도 안성시 죽산면 장원리 223-4번지 가동 1층","indutype":"일반휴게음식 - 일반한식","category":"restaurant"},{"name":"야래향","tel":"031-677-6050","addr":"경기도 안성시 죽산면 장원리 223-4번지 가동 1층","indutype":"일반휴게음식 - 일반한식","category":"restaurant"},{"name":"이민택커피(Coffee)&티 (Tea)","tel":"","addr":"경기도 안성시 죽산면 장원리 223-4번지 나동 1층","indutype":"일반휴게음식 - 서양음식","category":"restaurant"},{"name":"태령한우소머리국밥","tel":"043-000-0000","addr":"경기도 안성시 죽산면 장원리 223-4번지 가동 1층","indutype":"일반휴게음식 - 일반한식","category":"restaurant"}]},{"lat":"37.065718073","long":"127.42602674","imageIndex":4,"items":[{"name":"맷돌두부집","tel":"070-4763-5091","addr":"경기도 안성시 죽산면 장원리 474번지 1층","indutype":"일반휴게음식 - 일반한식","category":"restaurant"}]},{"lat":"37.063329295","long":"127.42122371","imageIndex":4,"items":[{"name":"세븐일레븐 안성두원공대점 민구총각도시락","tel":"031-676-1648","addr":"경기도 안성시 죽산면 장원리 749-1번지 1층","indutype":"일반휴게음식 - 일반한식","category":"restaurant"},{"name":"피자와치킨의러브레터","tel":"031-676-3599","addr":"경기도 안성시 죽산면 장원리 749-1번지 1층 우측1호","indutype":"일반휴게음식 - 일반한식","category":"restaurant"}]},{"lat":"37.063049578","long":"127.42133461","imageIndex":4,"items":[{"name":"세진푸드","tel":"031-676-7792","addr":"경기도 안성시 죽산면 장원리 751번지","indutype":"일반휴게음식 - 일반한식","category":"restaurant"}]},{"lat":"37.069799761","long":"127.42096689","imageIndex":4,"items":[{"name":"수호프","tel":"031-677-3379","addr":"경기도 안성시 죽산면 장원리 1379-2번지 G.F 아파트 2층 203호","indutype":"일반휴게음식 - 주점","category":"restaurant"}]},{"lat":"37.070406668","long":"127.42261193","imageIndex":4,"items":[{"name":"안성한우정육점식당","tel":"031-675-2688","addr":"경기도 안성시 죽산면 장원리 688-13번지","indutype":"일반휴게음식 - 일반한식","category":"restaurant"}]},{"lat":"37.064218601","long":"127.41944085","imageIndex":4,"items":[{"name":"좋은날","tel":"031-677-8647","addr":"경기도 안성시 죽산면 장원리 870-2번지","indutype":"일반휴게음식 - 일반한식","category":"restaurant"}]},{"lat":"37.062880917","long":"127.4206141","imageIndex":4,"items":[{"name":"카페루체","tel":"031-675-9616","addr":"경기도 안성시 죽산면 장원리 753번지","indutype":"일반휴게음식 - 서양음식","category":"restaurant"},{"name":"프란치스코사회복지회하이디의집","tel":"031-675-9616","addr":"경기도 안성시 죽산면 장원리 753번지","indutype":"일반휴게음식 - 일반한식","category":"restaurant"}]}]