[{"lat":"37.782150162","long":"127.12448075","imageIndex":16,"items":[{"name":"서울산업잠수아카데미","tel":"031-543-2994","addr":"경기도 포천시 소흘읍 이동교리 539-5번지","indutype":"학원 - 기능학원","category":"study"}]},{"lat":"37.818843824","long":"127.1346148","imageIndex":16,"items":[{"name":"에셀어린이집","tel":"031-543-8293","addr":"경기도 포천시 소흘읍 이동교리 146-6번지 외4필지","indutype":"학원 - 유아원","category":"study"}]},{"lat":"37.823752499","long":"127.13591834","imageIndex":16,"items":[{"name":"올리어린이집[아이행복]","tel":"","addr":"경기도 포천시 소흘읍 이동교리 183번지","indutype":"학원 - 유아원","category":"study"}]},{"lat":"37.812205446","long":"127.13319484","imageIndex":16,"items":[{"name":"차오름태권도","tel":"544-3885","addr":"경기도 포천시 소흘읍 이동교리 96-5번지","indutype":"교육서비스 - 학원","category":"study"},{"name":"차오름태권도","tel":"031-544-3880","addr":"경기도 포천시 소흘읍 이동교리 96-5번지","indutype":"학원 - 예·체능계학원","category":"study"}]},{"lat":"37.788152781","long":"127.12223143","imageIndex":16,"items":[{"name":"축석초등학교","tel":"031-542-1341","addr":"경기도 포천시 소흘읍 이동교리 645번지 축석초등학교","indutype":"학원 - 초중고교육기관","category":"study"},{"name":"축석초등학교병설유치원[아이행복]","tel":"031-543-1226","addr":"경기도 포천시 소흘읍 이동교리 645번지 축석초등학교","indutype":"학원 - 유치원","category":"study"}]},{"lat":"37.811952653","long":"127.13367135","imageIndex":16,"items":[{"name":"쾰른음악학원","tel":"544-1149","addr":"경기도 포천시 소흘읍 이동교리 95-1번지 엘프라자 3층","indutype":"교육서비스 - 학원","category":"study"}]},{"lat":"37.821532947","long":"127.13070119","imageIndex":16,"items":[{"name":"푸르미어린이집[아이행복]","tel":"031-541-1010","addr":"경기도 포천시 소흘읍 이동교리 193번지 푸르미아르미소아파트","indutype":"학원 - 유아원","category":"study"}]}]