[{"lat":"37.497264087","long":"126.79229727","imageIndex":7,"items":[{"name":"(주)진성푸드","tel":"032-655-9943","addr":"경기도 부천시 원미동 2-4번지","indutype":"음료식품 - 정육점","category":"food"}]},{"lat":"37.489314256","long":"126.79057829","imageIndex":7,"items":[{"name":"OK할인마트","tel":"032-271-4473","addr":"경기도 부천시 원미동 189-77번지 1층","indutype":"음료식품 - 기타음료식품","category":"food"}]},{"lat":"37.492899356","long":"126.79010452","imageIndex":7,"items":[{"name":"가이오수산","tel":"","addr":"경기도 부천시 원미동 98-8번지","indutype":"음료식품 - 농·축·수산품","category":"food"},{"name":"김가네 중국식품","tel":"","addr":"경기도 부천시 원미동 98-8번지","indutype":"음료식품 - 기타음료식품","category":"food"},{"name":"시장야채","tel":"032-652-4646","addr":"경기도 부천시 원미동 98-8번지","indutype":"음료식품 - 농·축·수산품","category":"food"}]},{"lat":"37.494124851","long":"126.78523865","imageIndex":7,"items":[{"name":"가인코스메틱","tel":"032-665-0070","addr":"경기도 부천시 원미동 111-14번지 원앙빌리지 101호","indutype":"건강식품 - 기타건강식품","category":"food"}]},{"lat":"37.491205294","long":"126.78999626","imageIndex":7,"items":[{"name":"감초고을한민박사","tel":"032-666-0770","addr":"경기도 부천시 원미동 181-2번지","indutype":"건강식품 - 기타건강식품","category":"food"},{"name":"과일촌","tel":"032-672-8974","addr":"경기도 부천시 원미동 181-2번지 씨동내제 1층 제111호","indutype":"음료식품 - 농·축·수산품","category":"food"},{"name":"능성방앗간","tel":"032-664-0124","addr":"경기도 부천시 원미동 181-2번지","indutype":"음료식품 - 제과점","category":"food"},{"name":"맛나 청과","tel":"032-612-8257","addr":"경기도 부천시 원미동 181-2번지 씨동 1층 101,107호","indutype":"음료식품 - 농·축·수산품","category":"food"},{"name":"은혜과일야채","tel":"","addr":"경기도 부천시 원미동 181-2번지 C동 1층 106호","indutype":"음료식품 - 농·축·수산품","category":"food"},{"name":"형제상회","tel":"032-663-8382","addr":"경기도 부천시 원미동 181-2번지 C동 110호","indutype":"음료식품 - 농·축·수산품","category":"food"}]},{"lat":"37.489510518","long":"126.78949224","imageIndex":7,"items":[{"name":"강경토굴젓갈","tel":"070-4141-3387","addr":"경기도 부천시 원미동 192-9번지 1층","indutype":"음료식품 - 농·축·수산품","category":"food"}]},{"lat":"37.490571534","long":"126.78830195","imageIndex":7,"items":[{"name":"강남유통","tel":"","addr":"경기도 부천시 원미동 174-6번지 1층","indutype":"음료식품 - 기타음료식품","category":"food"}]},{"lat":"37.491457774","long":"126.79010861","imageIndex":7,"items":[{"name":"강화도수산","tel":"032-666-8288","addr":"경기도 부천시 원미동 116-5번지","indutype":"음료식품 - 농·축·수산품","category":"food"},{"name":"만나식품","tel":"032-665-3660","addr":"경기도 부천시 원미동 116-5번지 1층","indutype":"음료식품 - 기타음료식품","category":"food"},{"name":"부흥농산","tel":"032-655-9181","addr":"경기도 부천시 원미동 116-5번지","indutype":"음료식품 - 농·축·수산품","category":"food"},{"name":"빛고을떡방","tel":"032-661-7046","addr":"경기도 부천시 원미동 116-5번지","indutype":"음료식품 - 제과점","category":"food"}]},{"lat":"37.491899361","long":"126.7901639","imageIndex":7,"items":[{"name":"경희건강원","tel":"032-654-7961","addr":"경기도 부천시 원미동 116-3번지 부흥연립A-2동1층3호","indutype":"건강식품 - 기타건강식품","category":"food"},{"name":"경희건강원","tel":"032-654-7961","addr":"경기도 부천시 원미동 116-3번지 부흥연립 A-2동 1층 3호","indutype":"건강식품 - 홍삼제품","category":"food"},{"name":"바다그대로","tel":"032-208-6394","addr":"경기도 부천시 원미동 116-3번지 A 2동 7호","indutype":"음료식품 - 농·축·수산품","category":"food"},{"name":"부천고추기름방앗간","tel":"032-666-3629","addr":"경기도 부천시 원미동 116-3번지 부흥연립","indutype":"음료식품 - 기타음료식품","category":"food"},{"name":"시루향","tel":"032-664-3023","addr":"경기도 부천시 원미동 116-3번지 부흥연립","indutype":"음료식품 - 제과점","category":"food"},{"name":"푸른바다","tel":"032-757-4253","addr":"경기도 부천시 원미동 116-3번지 부흥연립 제에이-2동 1층 5호","indutype":"음료식품 - 농·축·수산품","category":"food"},{"name":"화성건어물","tel":"032-655-6451","addr":"경기도 부천시 원미동 116-3부흥연립A2동1층6호","indutype":"음료식품 - 농·축·수산품","category":"food"},{"name":"힐링소","tel":"","addr":"경기도 부천시 원미동 116-3번지 부흥연립 A-2동 1층 1호","indutype":"음료식품 - 정육점","category":"food"}]},{"lat":"37.493539749","long":"126.79048717","imageIndex":7,"items":[{"name":"고기나라","tel":"032-656-4150","addr":"경기도 부천시 원미동 96-11번지","indutype":"음료식품 - 정육점","category":"food"},{"name":"궁전떡집","tel":"032-612-9872","addr":"경기도 부천시 원미동 96-11번지","indutype":"음료식품 - 제과점","category":"food"}]},{"lat":"37.49634399","long":"126.79168921","imageIndex":7,"items":[{"name":"고기에반하다","tel":"032-666-9592","addr":"경기도 부천시 원미동 53-1번지 1층","indutype":"음료식품 - 정육점","category":"food"}]},{"lat":"37.494819274","long":"126.7905514","imageIndex":7,"items":[{"name":"고향토종닭","tel":"032-667-9901","addr":"경기도 부천시 원미동 81-1번지","indutype":"음료식품 - 정육점","category":"food"},{"name":"원미강정","tel":"032-663-9237","addr":"경기도 부천시 원미동 81-1번지","indutype":"음료식품 - 제과점","category":"food"}]},{"lat":"37.493232823","long":"126.79016012","imageIndex":7,"items":[{"name":"공항건어물","tel":"032-654-4799","addr":"경기도 부천시 원미동 98-4번지","indutype":"음료식품 - 농·축·수산품","category":"food"},{"name":"소망수산","tel":"032-652-7426","addr":"경기도 부천시 원미동 98-4번지","indutype":"음료식품 - 농·축·수산품","category":"food"}]},{"lat":"37.492341028","long":"126.79026441","imageIndex":7,"items":[{"name":"과일깡패","tel":"032-861-0290","addr":"경기도 부천시 원미동 116-1번지 부흥연립 에이-1동 1층6호","indutype":"음료식품 - 농·축·수산품","category":"food"},{"name":"바다수산","tel":"070-7079-8484","addr":"경기도 부천시 원미동 116-1번지 부흥연립 제에이 1동 1층 제7호","indutype":"음료식품 - 농·축·수산품","category":"food"},{"name":"전주기름집","tel":"032-662-7288","addr":"경기도 부천시 원미동 116-1번지 부흥연립","indutype":"음료식품 - 기타음료식품","category":"food"}]},{"lat":"37.491817701","long":"126.78984752","imageIndex":7,"items":[{"name":"과일마을","tel":"032-667-3181","addr":"경기도 부천시 원미동 119-6번지 1층","indutype":"음료식품 - 농·축·수산품","category":"food"}]},{"lat":"37.492818755","long":"126.79037614","imageIndex":7,"items":[{"name":"과일촌","tel":"032-654-7050","addr":"경기도 부천시 원미동 96-7번지 1층","indutype":"음료식품 - 농·축·수산품","category":"food"},{"name":"금산인삼직판장","tel":"032-662-6751","addr":"경기도 부천시 원미동 96-7번지","indutype":"건강식품 - 인삼제품","category":"food"}]},{"lat":"37.495041603","long":"126.78893372","imageIndex":7,"items":[{"name":"그가 굽는빵","tel":"","addr":"경기도 부천시 원미동 85-26번지 1층","indutype":"음료식품 - 제과점","category":"food"}]},{"lat":"37.495486796","long":"126.79099052","imageIndex":7,"items":[{"name":"금강쌀상회","tel":"032-657-7722","addr":"경기도 부천시 원미동 54-18번지 1층","indutype":"음료식품 - 미곡상","category":"food"}]},{"lat":"37.494567444","long":"126.79080089","imageIndex":7,"items":[{"name":"넘버원 과일가게","tel":"","addr":"경기도 부천시 원미동 78-2번지 비동호","indutype":"음료식품 - 농·축·수산품","category":"food"},{"name":"대림상회","tel":"032-662-6113","addr":"경기도 부천시 원미동 78-2 1층","indutype":"음료식품 - 농·축·수산품","category":"food"},{"name":"여러분축산","tel":"032-655-3179","addr":"경기도 부천시 원미동 78-2번지 1층 제비동호","indutype":"음료식품 - 정육점","category":"food"},{"name":"한정애야채","tel":"032-652-4494","addr":"경기도 부천시 원미동 78-2번지","indutype":"음료식품 - 농·축·수산품","category":"food"}]},{"lat":"37.492124139","long":"126.78990319","imageIndex":7,"items":[{"name":"능성떡방앗간","tel":"032-664-4607","addr":"경기도 부천시 원미동 118-18번지","indutype":"음료식품 - 제과점","category":"food"}]},{"lat":"37.491733048","long":"126.78788025","imageIndex":7,"items":[{"name":"다솔","tel":"032-688-8153","addr":"경기도 부천시 원미동 126-14번지 2층","indutype":"건강식품 - 기타건강식품","category":"food"},{"name":"다솔","tel":"032-668-8153","addr":"경기도 부천시 원미동 126-14번지 2층","indutype":"건강식품 - 기타건강식품","category":"food"},{"name":"음메꿀꿀푸줏간","tel":"032-666-7652","addr":"경기도 부천시 원미동 126-14번지 1층3칸중2칸","indutype":"음료식품 - 정육점","category":"food"}]},{"lat":"37.495595456","long":"126.78631997","imageIndex":7,"items":[{"name":"다원","tel":"032-652-5245","addr":"경기도 부천시 원미동 88-9번지","indutype":"음료식품 - 정육점","category":"food"}]},{"lat":"37.492708331","long":"126.78909868","imageIndex":7,"items":[{"name":"달콤한마법사","tel":"032-667-7244","addr":"경기도 부천시 원미동 117-16번지 명성연립 1층 105호","indutype":"음료식품 - 제과점","category":"food"}]},{"lat":"37.49351501","long":"126.79176502","imageIndex":7,"items":[{"name":"달콤한쭈니네","tel":"","addr":"경기도 부천시 원미동 176-12번지 1층","indutype":"음료식품 - 기타음료식품","category":"food"}]},{"lat":"37.491484193","long":"126.78976931","imageIndex":7,"items":[{"name":"대광축산","tel":"032-666-1571","addr":"경기도 부천시 원미동 120-12번지 1층","indutype":"음료식품 - 정육점","category":"food"},{"name":"친절한축산","tel":"032-269-7789","addr":"경기도 부천시 원미동 120-12번지 1층","indutype":"음료식품 - 정육점","category":"food"},{"name":"친절한축산(2호점)","tel":"032-269-7789","addr":"경기도 부천시 원미동 120-12번지 1층 일부호","indutype":"음료식품 - 정육점","category":"food"},{"name":"하림유통","tel":"032-666-1571","addr":"경기도 부천시 원미동 120-12번지 1층","indutype":"음료식품 - 정육점","category":"food"}]},{"lat":"37.4993478","long":"126.79365977","imageIndex":7,"items":[{"name":"대박차","tel":"","addr":"경기도 부천시 원미동 11-10번지","indutype":"음료식품 - 농·축·수산품","category":"food"}]},{"lat":"37.493260504","long":"126.79052189","imageIndex":7,"items":[{"name":"대성축산","tel":"032-666-5303","addr":"경기도 부천시 원미동 96-18번지 1층","indutype":"음료식품 - 정육점","category":"food"},{"name":"전라도양곡","tel":"032-611-8248","addr":"경기도 부천시 원미동 96-18번지 일부","indutype":"음료식품 - 미곡상","category":"food"}]},{"lat":"37.491399023","long":"126.78751937","imageIndex":7,"items":[{"name":"댄디","tel":"032-652-8478","addr":"경기도 부천시 원미동 146-3번지 정화연립 A동 101호","indutype":"음료식품 - 농·축·수산품","category":"food"}]},{"lat":"37.496234659","long":"126.78604672","imageIndex":7,"items":[{"name":"동명상회","tel":"032-664-5939","addr":"경기도 부천시 원미동 74-4번지","indutype":"음료식품 - 기타음료식품","category":"food"}]},{"lat":"37.494598492","long":"126.79305108","imageIndex":7,"items":[{"name":"동일축산유통","tel":"032-654-8008","addr":"경기도 부천시 원미동 157-23번지 삼성그린빌 101호일부","indutype":"음료식품 - 정육점","category":"food"},{"name":"안심축산물전문점원미점","tel":"032-654-3480","addr":"경기도 부천시 원미동 157-23번지 삼성그린빌 101호","indutype":"음료식품 - 정육점","category":"food"}]},{"lat":"37.491679606","long":"126.78821963","imageIndex":7,"items":[{"name":"떡시루","tel":"032-324-6251","addr":"경기도 부천시 원미동 126-11번지","indutype":"음료식품 - 제과점","category":"food"}]},{"lat":"37.491925566","long":"126.78477012","imageIndex":7,"items":[{"name":"뚜레쥬르 부천대성","tel":"032-662-0008","addr":"경기도 부천시 원미동 137-2번지 아송빌딩 1층","indutype":"음료식품 - 제과점","category":"food"}]},{"lat":"37.495203842","long":"126.78896718","imageIndex":7,"items":[{"name":"라라당","tel":"031-000-0000","addr":"경기도 부천시 원미동 83-26번지 1층","indutype":"음료식품 - 기타음료식품","category":"food"},{"name":"점순이네 건어물","tel":"","addr":"경기도 부천시 원미동 83-26번지","indutype":"음료식품 - 농·축·수산품","category":"food"}]},{"lat":"37.495153289","long":"126.79091231","imageIndex":7,"items":[{"name":"레드버켓원미시장점","tel":"032-662-5713","addr":"경기도 부천시 원미동 77-3번지","indutype":"음료식품 - 기타음료식품","category":"food"},{"name":"아빠네 정육점","tel":"032-572-8141","addr":"경기도 부천시 원미동 77-3번지 1층","indutype":"음료식품 - 정육점","category":"food"},{"name":"오복청과","tel":"070-7367-2933","addr":"경기도 부천시 원미동 77-3번지","indutype":"음료식품 - 농·축·수산품","category":"food"}]},{"lat":"37.496371485","long":"126.78696229","imageIndex":7,"items":[{"name":"마린씨드(MARINESEED)","tel":"032-661-8898","addr":"경기도 부천시 원미동 71번지 부천동 행정복지센터, 경기도일자리재단 4층 404호","indutype":"음료식품 - 기타음료식품","category":"food"}]},{"lat":"37.495454107","long":"126.78785827","imageIndex":7,"items":[{"name":"마이 퍼스트 케이크","tel":"","addr":"경기도 부천시 원미동 84-5번지 에코빌 101호","indutype":"음료식품 - 제과점","category":"food"}]},{"lat":"37.493593422","long":"126.79027217","imageIndex":7,"items":[{"name":"맛고향장독대원미점","tel":"032-661-2919","addr":"경기도 부천시 원미동 97-11번지","indutype":"음료식품 - 기타음료식품","category":"food"}]},{"lat":"37.492980933","long":"126.79037568","imageIndex":7,"items":[{"name":"맛나빵집","tel":"032-611-4003","addr":"경기도 부천시 원미동 96-17번지 1층 원미종합상가","indutype":"음료식품 - 제과점","category":"food"},{"name":"한양떡집","tel":"032-666-5489","addr":"경기도 부천시 원미동 96-17번지 1층","indutype":"음료식품 - 제과점","category":"food"}]},{"lat":"37.497508049","long":"126.78768276","imageIndex":7,"items":[{"name":"명성식품","tel":"032-664-7104","addr":"경기도 부천시 원미동 67-1번지","indutype":"음료식품 - 기타음료식품","category":"food"}]},{"lat":"37.492203426","long":"126.79393978","imageIndex":7,"items":[{"name":"미림유통","tel":"","addr":"경기도 부천시 원미동 162-96번지 102호","indutype":"음료식품 - 농·축·수산품","category":"food"}]},{"lat":"37.489925177","long":"126.78960413","imageIndex":7,"items":[{"name":"믿음상회","tel":"032-653-4049","addr":"경기도 부천시 원미동 182-33번지 1층","indutype":"음료식품 - 농·축·수산품","category":"food"}]},{"lat":"37.49148147","long":"126.78826542","imageIndex":7,"items":[{"name":"바다수산","tel":"032-611-8784","addr":"경기도 부천시 원미동 141-1번지 1층 일부","indutype":"음료식품 - 농·축·수산품","category":"food"},{"name":"현수네 싱싱 야채 과일","tel":"032-721-4490","addr":"경기도 부천시 원미동 141-1번지 1층","indutype":"음료식품 - 농·축·수산품","category":"food"}]},{"lat":"37.493621752","long":"126.79099579","imageIndex":7,"items":[{"name":"바른시루","tel":"032-663-0700","addr":"경기도 부천시 원미동 95-3번지 1층","indutype":"음료식품 - 제과점","category":"food"}]},{"lat":"37.491925881","long":"126.78988113","imageIndex":7,"items":[{"name":"반찬나라","tel":"032-663-2925","addr":"경기도 부천시 원미동 119-5번지 1층","indutype":"음료식품 - 기타음료식품","category":"food"},{"name":"승미어묵","tel":"","addr":"경기도 부천시 원미동 119-5번지 1층","indutype":"음료식품 - 기타음료식품","category":"food"}]},{"lat":"37.491619952","long":"126.79010815","imageIndex":7,"items":[{"name":"방금만든두부","tel":"032-611-3862","addr":"경기도 부천시 원미동 116-2번지 부흥마트 1층","indutype":"음료식품 - 기타음료식품","category":"food"}]},{"lat":"37.4940991737","long":"126.7909379045","imageIndex":7,"items":[{"name":"백송흑염소","tel":"032-652-4450","addr":"경기도 부천시 원미동 95-1번지 (백송연립 이-5)","indutype":"건강식품 - 기타건강식품","category":"food"}]},{"lat":"37.494289333","long":"126.79146884","imageIndex":7,"items":[{"name":"베스킨라빈스 부천원미점","tel":"031-655-0310","addr":"경기도 부천시 원미동 76-3번지","indutype":"음료식품 - 제과점","category":"food"}]},{"lat":"37.496063631","long":"126.79110198","imageIndex":7,"items":[{"name":"베트남식품","tel":"","addr":"경기도 부천시 원미동 54-3번지","indutype":"음료식품 - 기타음료식품","category":"food"}]},{"lat":"37.491846268","long":"126.7857428","imageIndex":7,"items":[{"name":"별난만두","tel":"","addr":"경기도 부천시 원미동 138-3번지 1층","indutype":"음료식품 - 기타음료식품","category":"food"}]},{"lat":"37.491261788","long":"126.78637771","imageIndex":7,"items":[{"name":"복된방앗간","tel":"032-611-1607","addr":"경기도 부천시 원미동 138-7번지","indutype":"음료식품 - 제과점","category":"food"}]},{"lat":"37.494431747","long":"126.79049596","imageIndex":7,"items":[{"name":"부천농장","tel":"032-661-6804","addr":"경기도 부천시 원미동 82-17번지","indutype":"음료식품 - 정육점","category":"food"},{"name":"예당떡전문점","tel":"032-663-0707","addr":"경기도 부천시 원미동 82-17번지 1층","indutype":"음료식품 - 제과점","category":"food"},{"name":"정연이네시골장과젓갈","tel":"031-111-1111","addr":"경기도 부천시 원미동 82-17번지","indutype":"음료식품 - 기타음료식품","category":"food"}]},{"lat":"37.494792352","long":"126.78565511","imageIndex":7,"items":[{"name":"부천민속과자총판","tel":"032-651-4453","addr":"경기도 부천시 원미동 110-11번지 1층","indutype":"음료식품 - 제과점","category":"food"}]},{"lat":"37.495176847","long":"126.79402196","imageIndex":7,"items":[{"name":"부천상회","tel":"032-661-9303","addr":"경기도 부천시 원미동 151-1번지 두산아파트","indutype":"음료식품 - 농·축·수산품","category":"food"}]},{"lat":"37.494814385","long":"126.7878488","imageIndex":7,"items":[{"name":"부천시니어클럽해담은제과","tel":"032-668-4107","addr":"경기도 부천시 원미동 86-3번지","indutype":"음료식품 - 제과점","category":"food"}]},{"lat":"37.492565827","long":"126.79001501","imageIndex":7,"items":[{"name":"부흥건강원","tel":"032-663-8760","addr":"경기도 부천시 원미동 117-12번지","indutype":"건강식품 - 기타건강식품","category":"food"},{"name":"부흥건어물","tel":"032-656-5263","addr":"경기도 부천시 원미동 117-12번지","indutype":"음료식품 - 농·축·수산품","category":"food"},{"name":"수산마켓어사또","tel":"","addr":"경기도 부천시 원미동 117-12번지 1층","indutype":"음료식품 - 농·축·수산품","category":"food"}]},{"lat":"37.491427781","long":"126.78846911","imageIndex":7,"items":[{"name":"부흥건어물식품","tel":"032-665-3044","addr":"경기도 부천시 원미동 173-7번지 1층","indutype":"음료식품 - 농·축·수산품","category":"food"}]},{"lat":"37.494179206","long":"126.79034967","imageIndex":7,"items":[{"name":"부흥떡방앗간","tel":"032-665-0029","addr":"경기도 부천시 원미동 97-1번지","indutype":"음료식품 - 제과점","category":"food"},{"name":"시장양곡","tel":"032-611-6866","addr":"경기도 부천시 원미동 97-1번지","indutype":"음료식품 - 미곡상","category":"food"},{"name":"우처녀 돈총각","tel":"032-655-5777","addr":"경기도 부천시 원미동 97-1번지 경원빌딩 1층","indutype":"음료식품 - 정육점","category":"food"},{"name":"원미시장내강화인삼","tel":"032-655-0609","addr":"경기도 부천시 원미동 97-1번지","indutype":"건강식품 - 홍삼제품","category":"food"}]},{"lat":"37.49546001","long":"126.7911263","imageIndex":7,"items":[{"name":"불로원흑염소","tel":"032-663-9984","addr":"경기도 부천시 원미동 54-21번지","indutype":"건강식품 - 기타건강식품","category":"food"}]},{"lat":"37.491347737","long":"126.78904602","imageIndex":7,"items":[{"name":"비타민청과","tel":"032-663-8278","addr":"경기도 부천시 원미동 173-2번지","indutype":"음료식품 - 농·축·수산품","category":"food"}]},{"lat":"37.492259348","long":"126.78993673","imageIndex":7,"items":[{"name":"빵이가득한집","tel":"032-663-1201","addr":"경기도 부천시 원미동 118-6번지","indutype":"음료식품 - 제과점","category":"food"}]},{"lat":"37.500203337","long":"126.79343121","imageIndex":7,"items":[{"name":"새마을정육점","tel":"02-1833-6436","addr":"경기도 부천시 원미동 1-1번지","indutype":"음료식품 - 정육점","category":"food"}]},{"lat":"37.495098783","long":"126.79066369","imageIndex":7,"items":[{"name":"세종수산","tel":"032-655-1112","addr":"경기도 부천시 원미동 80-8번지 1층","indutype":"음료식품 - 농·축·수산품","category":"food"}]},{"lat":"37.493313953","long":"126.7901825","imageIndex":7,"items":[{"name":"소담한과 명품도넛","tel":"","addr":"경기도 부천시 원미동 98-3번지","indutype":"음료식품 - 제과점","category":"food"}]},{"lat":"37.491653212","long":"126.78857024","imageIndex":7,"items":[{"name":"소돼지축산","tel":"032-575-4511","addr":"경기도 부천시 원미동 121-4번지","indutype":"음료식품 - 정육점","category":"food"},{"name":"창호과일","tel":"032-361-4644","addr":"경기도 부천시 원미동 121-4번지 1층","indutype":"음료식품 - 농·축·수산품","category":"food"},{"name":"충무상회","tel":"032-663-2273","addr":"경기도 부천시 원미동 121-4번지 1층","indutype":"음료식품 - 농·축·수산품","category":"food"}]},{"lat":"37.491151784","long":"126.79030171","imageIndex":7,"items":[{"name":"수련산(쭌이네)","tel":"","addr":"경기도 부천시 원미동 181-1번지 107호","indutype":"음료식품 - 기타음료식품","category":"food"}]},{"lat":"37.495011944","long":"126.78748638","imageIndex":7,"items":[{"name":"수원상회","tel":"032-653-7764","addr":"경기도 부천시 원미동 86-5번지 1층","indutype":"음료식품 - 농·축·수산품","category":"food"}]},{"lat":"37.496814289","long":"126.78768475","imageIndex":7,"items":[{"name":"슈퍼프레시","tel":"032-0000-0000","addr":"경기도 부천시 원미동 69-18번지","indutype":"음료식품 - 기타음료식품","category":"food"}]},{"lat":"37.493710591","long":"126.79029446","imageIndex":7,"items":[{"name":"시골한우촌","tel":"032-666-9770","addr":"경기도 부천시 원미동 97-9번지","indutype":"음료식품 - 정육점","category":"food"},{"name":"신토불이방아간","tel":"032-652-0297","addr":"경기도 부천시 원미동 97-9번지","indutype":"음료식품 - 제과점","category":"food"}]},{"lat":"37.493873277","long":"126.79057669","imageIndex":7,"items":[{"name":"신선야채","tel":"032-652-6261","addr":"경기도 부천시 원미동 96-2번지","indutype":"음료식품 - 농·축·수산품","category":"food"},{"name":"푸른들(청과)","tel":"032-653-3721","addr":"경기도 부천시 원미동 96-2번지","indutype":"음료식품 - 농·축·수산품","category":"food"}]},{"lat":"37.491320298","long":"126.78881995","imageIndex":7,"items":[{"name":"신세기마트","tel":"032-664-8082","addr":"경기도 부천시 원미동 173-5번지 중일부 1층","indutype":"음료식품 - 농·축·수산품","category":"food"}]},{"lat":"37.493151734","long":"126.79016035","imageIndex":7,"items":[{"name":"신흥종합상회","tel":"","addr":"경기도 부천시 원미동 98-5번지","indutype":"음료식품 - 농·축·수산품","category":"food"}]},{"lat":"37.493730559","long":"126.79137995","imageIndex":7,"items":[{"name":"엉터리축산","tel":"032-612-9985","addr":"경기도 부천시 원미동 94-5번지 원미동명성프라자 1층 101호","indutype":"음료식품 - 정육점","category":"food"}]},{"lat":"37.494071697","long":"126.79068921","imageIndex":7,"items":[{"name":"에덴건강원","tel":"032-611-8873","addr":"경기도 부천시 원미동 96-1번지 외1필지백송연립 B동 101호","indutype":"건강식품 - 기타건강식품","category":"food"},{"name":"완도","tel":"032-673-4805","addr":"경기도 부천시 원미동 96-1번지 백송연립 C동 1층 1호 3번째칸","indutype":"음료식품 - 농·축·수산품","category":"food"}]},{"lat":"37.494791084","long":"126.78990692","imageIndex":7,"items":[{"name":"엘리시온","tel":"032-651-5341","addr":"경기도 부천시 원미동 81-10번지 청담빌라 3동 402호","indutype":"음료식품 - 기타음료식품","category":"food"}]},{"lat":"37.494702531","long":"126.79076658","imageIndex":7,"items":[{"name":"영일수산","tel":"032-654-8704","addr":"경기도 부천시 원미동 78-4번지","indutype":"음료식품 - 농·축·수산품","category":"food"}]},{"lat":"37.489816997","long":"126.78957052","imageIndex":7,"items":[{"name":"예산상회","tel":"032-654-4049","addr":"경기도 부천시 원미동 182-36번지","indutype":"음료식품 - 미곡상","category":"food"}]},{"lat":"37.491649937","long":"126.78677235","imageIndex":7,"items":[{"name":"옛날수제누룽지","tel":"032-652-7893","addr":"경기도 부천시 원미동 147-2번지 1층 일부","indutype":"음료식품 - 기타음료식품","category":"food"}]},{"lat":"37.494731","long":"126.79156937","imageIndex":7,"items":[{"name":"오가네","tel":"032-664-0368","addr":"경기도 부천시 원미동 76-11번지","indutype":"음료식품 - 기타음료식품","category":"food"}]},{"lat":"37.494738124","long":"126.7905177","imageIndex":7,"items":[{"name":"우량수산","tel":"032-655-6267","addr":"경기도 부천시 원미동 81-23번지 1층","indutype":"음료식품 - 농·축·수산품","category":"food"},{"name":"원미도너츠","tel":"032-657-8826","addr":"경기도 부천시 원미동 81-23번지 1층","indutype":"음료식품 - 제과점","category":"food"}]},{"lat":"37.49165538","long":"126.78976883","imageIndex":7,"items":[{"name":"우리 한우 한돈","tel":"032-661-8650","addr":"경기도 부천시 원미동 120-1번지","indutype":"음료식품 - 정육점","category":"food"},{"name":"천안기름","tel":"032-664-3724","addr":"경기도 부천시 원미동 120-1번지","indutype":"음료식품 - 농·축·수산품","category":"food"}]},{"lat":"37.492376518","long":"126.78995901","imageIndex":7,"items":[{"name":"우리축산","tel":"032-656-7771","addr":"경기도 부천시 원미동 117-10번지 1층","indutype":"음료식품 - 정육점","category":"food"}]},{"lat":"37.493705264","long":"126.78735444","imageIndex":7,"items":[{"name":"원미곡물","tel":"032-613-9983","addr":"경기도 부천시 원미동 102-25번지","indutype":"음료식품 - 미곡상","category":"food"}]},{"lat":"37.492150985","long":"126.78980134","imageIndex":7,"items":[{"name":"원미국수","tel":"032-653-6603","addr":"경기도 부천시 원미동 118-7번지","indutype":"음료식품 - 기타음료식품","category":"food"}]},{"lat":"37.491510773","long":"126.78952047","imageIndex":7,"items":[{"name":"원미동생선가게","tel":"032-668-3888","addr":"경기도 부천시 원미동 120-9번지","indutype":"음료식품 - 농·축·수산품","category":"food"}]},{"lat":"37.491544149","long":"126.7880504","imageIndex":7,"items":[{"name":"원미두부마을","tel":"032-655-2509","addr":"경기도 부천시 원미동 141-2번지 1층","indutype":"음료식품 - 기타음료식품","category":"food"}]},{"lat":"37.490068988","long":"126.7894115","imageIndex":7,"items":[{"name":"원미방앗간","tel":"032-665-3660","addr":"경기도 부천시 원미동 174-72번지","indutype":"음료식품 - 제과점","category":"food"}]},{"lat":"37.49165393","long":"126.788966","imageIndex":7,"items":[{"name":"원미유통","tel":"032-664-3327","addr":"경기도 부천시 원미동 121-7번지 반도연립 1동 101호","indutype":"음료식품 - 미곡상","category":"food"},{"name":"이삭역삼","tel":"032-544-3868","addr":"경기도 부천시 원미동 121-7번지 반도연립 1동 201호","indutype":"음료식품 - 미곡상","category":"food"},{"name":"학운축산","tel":"032-612-5233","addr":"경기도 부천시 원미동 121-7번지 반도연립 1동 1층 104호","indutype":"음료식품 - 정육점","category":"food"}]},{"lat":"37.49487382","long":"126.79082264","imageIndex":7,"items":[{"name":"원미흑염소","tel":"032-653-3797","addr":"경기도 부천시 원미동 78-1번지","indutype":"건강식품 - 기타건강식품","category":"food"}]},{"lat":"37.490064942","long":"126.78718398","imageIndex":7,"items":[{"name":"웰빙코리아","tel":"","addr":"경기도 부천시 원미동 168-19번지 대훈탑스빌 2동 304호","indutype":"건강식품 - 기타건강식품","category":"food"}]},{"lat":"37.493789366","long":"126.79404844","imageIndex":7,"items":[{"name":"윤상궁우리식품(김치)","tel":"032-343-7120","addr":"경기도 부천시 원미동 162-41번지 1층","indutype":"음료식품 - 농·축·수산품","category":"food"}]},{"lat":"37.495730164","long":"126.79104638","imageIndex":7,"items":[{"name":"인삼마을","tel":"032-652-2323","addr":"경기도 부천시 원미동 54-13번지","indutype":"건강식품 - 인삼제품","category":"food"}]},{"lat":"37.491427924","long":"126.78854827","imageIndex":7,"items":[{"name":"제이에이치(JH)푸드","tel":"032-612-3151","addr":"경기도 부천시 원미동 173-11번지","indutype":"음료식품 - 기타음료식품","category":"food"}]},{"lat":"37.49639724","long":"126.79123673","imageIndex":7,"items":[{"name":"제일축산","tel":"032-652-2607","addr":"경기도 부천시 원미동 53-4번지","indutype":"음료식품 - 정육점","category":"food"}]},{"lat":"37.492980444","long":"126.79010429","imageIndex":7,"items":[{"name":"제주수산","tel":"02-111-1111","addr":"경기도 부천시 원미동 98-7번지 1층","indutype":"음료식품 - 농·축·수산품","category":"food"}]},{"lat":"37.492063688","long":"126.7863867","imageIndex":7,"items":[{"name":"종명청과","tel":"032-613-4819","addr":"경기도 부천시 원미동 133-1번지 대우연립","indutype":"음료식품 - 농·축·수산품","category":"food"}]},{"lat":"37.498318202","long":"126.7922717","imageIndex":7,"items":[{"name":"중앙미니슈퍼","tel":"032-541-0369","addr":"경기도 부천시 원미동 7-1번지","indutype":"음료식품 - 기타음료식품","category":"food"}]},{"lat":"37.495590714","long":"126.78866076","imageIndex":7,"items":[{"name":"참맛농산","tel":"032-668-9051","addr":"경기도 부천시 원미동 83-1번지 원미 대리프라우드빌 402호","indutype":"음료식품 - 미곡상","category":"food"}]},{"lat":"37.494064026","long":"126.79143555","imageIndex":7,"items":[{"name":"참호도과자","tel":"032-611-5252","addr":"경기도 부천시 원미동 94-1번지 101호","indutype":"음료식품 - 제과점","category":"food"},{"name":"최서방축산안심마켓","tel":"031-677-1090","addr":"경기도 부천시 원미동 94-1번지 1층","indutype":"음료식품 - 정육점","category":"food"}]},{"lat":"37.493542544","long":"126.79204764","imageIndex":7,"items":[{"name":"천운유통","tel":"070-8869-2694","addr":"경기도 부천시 원미동 176-15번지","indutype":"음료식품 - 농·축·수산품","category":"food"}]},{"lat":"37.488230746","long":"126.78929236","imageIndex":7,"items":[{"name":"청정야채","tel":"032-614-1751","addr":"경기도 부천시 원미동 201-23번지","indutype":"음료식품 - 농·축·수산품","category":"food"}]},{"lat":"37.496756879","long":"126.78585297","imageIndex":7,"items":[{"name":"청정한축산물백화점","tel":"032-661-5233","addr":"경기도 부천시 원미동 74-1번지","indutype":"음료식품 - 정육점","category":"food"}]},{"lat":"37.487203476","long":"126.78921613","imageIndex":7,"items":[{"name":"초록별 지구","tel":"070-8869-2694","addr":"경기도 부천시 원미동 204-89번지 1층","indutype":"음료식품 - 기타음료식품","category":"food"}]},{"lat":"37.48945439","long":"126.78835037","imageIndex":7,"items":[{"name":"초록샘","tel":"032-347-3161","addr":"경기도 부천시 원미동 198-17번지 1층","indutype":"음료식품 - 기타음료식품","category":"food"}]},{"lat":"37.494954564","long":"126.79063017","imageIndex":7,"items":[{"name":"충남한우정육점","tel":"032-665-2672","addr":"경기도 부천시 원미동 80-10번지","indutype":"음료식품 - 정육점","category":"food"}]},{"lat":"37.494514682","long":"126.79152474","imageIndex":7,"items":[{"name":"치유와 회복","tel":"","addr":"경기도 부천시 원미동 76-5번지 1층 일부","indutype":"건강식품 - 기타건강식품","category":"food"}]},{"lat":"37.495179486","long":"126.78549568","imageIndex":7,"items":[{"name":"케익하우스이원","tel":"032-654-3231","addr":"경기도 부천시 원미동 92-5번지","indutype":"음료식품 - 제과점","category":"food"}]},{"lat":"37.491480298","long":"126.7876209","imageIndex":7,"items":[{"name":"태양농산","tel":"032-651-8886","addr":"경기도 부천시 원미동 146-3번지 정화연립 B동 101호","indutype":"음료식품 - 농·축·수산품","category":"food"}]},{"lat":"37.494956954","long":"126.79196451","imageIndex":7,"items":[{"name":"태양방앗간","tel":"032-612-2922","addr":"경기도 부천시 원미동 167-5번지 삼성그린빌 101호","indutype":"음료식품 - 제과점","category":"food"}]},{"lat":"37.493286621","long":"126.78507147","imageIndex":7,"items":[{"name":"파란나라","tel":"070-7736-1396","addr":"경기도 부천시 원미동 134-2번지","indutype":"음료식품 - 기타음료식품","category":"food"}]},{"lat":"37.492738174","long":"126.79065906","imageIndex":7,"items":[{"name":"파리바게뜨 원미사거리","tel":"032-664-2863","addr":"경기도 부천시 원미동 95-6번지","indutype":"음료식품 - 제과점","category":"food"}]},{"lat":"37.495181756","long":"126.7917151","imageIndex":7,"items":[{"name":"파리바게트부천원미점","tel":"032-651-3147","addr":"경기도 부천시 원미동 76-1번지","indutype":"음료식품 - 제과점","category":"food"}]},{"lat":"37.494821159","long":"126.79160304","imageIndex":7,"items":[{"name":"픽미픽미 아이스크림 할인점","tel":"","addr":"경기도 부천시 원미동 76-10번지 1층","indutype":"음료식품 - 기타음료식품","category":"food"}]},{"lat":"37.498317759","long":"126.79202291","imageIndex":7,"items":[{"name":"하늘채백암순대","tel":"0000-0000-0000","addr":"경기도 부천시 원미동 8-1번지","indutype":"음료식품 - 기타음료식품","category":"food"}]},{"lat":"37.496622102","long":"126.79102124","imageIndex":7,"items":[{"name":"하림수산","tel":"032-000-0000","addr":"경기도 부천시 원미동 55-9번지","indutype":"음료식품 - 농·축·수산품","category":"food"}]},{"lat":"37.491599809","long":"126.78893223","imageIndex":7,"items":[{"name":"학운축산","tel":"032-665-9289","addr":"경기도 부천시 원미동 121-7번지 반도연립 105호","indutype":"음료식품 - 정육점","category":"food"}]},{"lat":"37.49443258","long":"126.79095958","imageIndex":7,"items":[{"name":"한국축산","tel":"032-612-9952","addr":"경기도 부천시 원미동 78-14번지 백조연립 가동 103호","indutype":"음료식품 - 정육점","category":"food"}]},{"lat":"37.496957994","long":"126.78743555","imageIndex":7,"items":[{"name":"한서마켓","tel":"","addr":"경기도 부천시 원미동 69-12번지 1층","indutype":"음료식품 - 기타음료식품","category":"food"}]},{"lat":"37.492449126","long":"126.7902528","imageIndex":7,"items":[{"name":"한우촌","tel":"032-652-8129","addr":"경기도 부천시 원미동 116-1번지 부흥연립 가동 101호","indutype":"음료식품 - 정육점","category":"food"},{"name":"홍가네","tel":"032-653-5314","addr":"경기도 부천시 원미동 116-1번지 부흥연립 가동 105호","indutype":"음료식품 - 기타음료식품","category":"food"}]},{"lat":"37.490709384","long":"126.78979413","imageIndex":7,"items":[{"name":"해동떡방앗간","tel":"032-654-1515","addr":"경기도 부천시 원미동 181-13번지 1층","indutype":"음료식품 - 기타음료식품","category":"food"}]},{"lat":"37.494099174","long":"126.7909379","imageIndex":7,"items":[{"name":"해진유통","tel":"032-654-2135","addr":"경기도 부천시 원미동 95-1,백송연립A동3호","indutype":"음료식품 - 기타음료식품","category":"food"}]},{"lat":"37.491404163","long":"126.79035753","imageIndex":7,"items":[{"name":"해피월드","tel":"031-796-2554","addr":"경기도 부천시 원미동 115-3번지 부원빌딩 3층 301호","indutype":"건강식품 - 기타건강식품","category":"food"}]},{"lat":"37.490841933","long":"126.78835771","imageIndex":7,"items":[{"name":"허브앤꿈","tel":"032-221-3018","addr":"경기도 부천시 원미동 174-1번지","indutype":"건강식품 - 기타건강식품","category":"food"}]},{"lat":"37.492206388","long":"126.79054749","imageIndex":7,"items":[{"name":"현미와누룽지","tel":"070-7690-8515","addr":"경기도 부천시 원미동 115-1번지 제나동 107호","indutype":"음료식품 - 미곡상","category":"food"}]},{"lat":"37.497121838","long":"126.78835106","imageIndex":7,"items":[{"name":"현서네마테차","tel":"032-653-0305","addr":"경기도 부천시 원미동 62-8번지","indutype":"건강식품 - 기타건강식품","category":"food"}]},{"lat":"37.490069376","long":"126.78962634","imageIndex":7,"items":[{"name":"효자건강원","tel":"032-664-6366","addr":"경기도 부천시 원미동 182-29번지","indutype":"건강식품 - 기타건강식품","category":"food"}]},{"lat":"37.491956521","long":"126.78690716","imageIndex":7,"items":[{"name":"희망건강원","tel":"032-656-3712","addr":"경기도 부천시 원미동 128-3번지 1층","indutype":"건강식품 - 기타건강식품","category":"food"}]}]