[{"lat":"37.344665677","long":"126.82832974","imageIndex":17,"items":[{"name":"(사) 경찰공제회 안산","tel":"031-481-8427","addr":"경기도 안산시 단원구 와동 95-5번지","indutype":"용역 서비스 - 사무서비스","category":"other"},{"name":"도로교통공단 안산운전면허시험장","tel":"031-490-2825","addr":"경기도 안산시 단원구 와동 95-5번지 1층","indutype":"용역 서비스 - 조세서비스","category":"other"},{"name":"도로교통공단 안산운전면허시험장","tel":"031-490-2825","addr":"경기도 안산시 단원구 와동 95-5번지 1층","indutype":"용역 서비스 - 조세서비스","category":"other"}]},{"lat":"37.343281473","long":"126.81866149","imageIndex":17,"items":[{"name":"(신)금강도어","tel":"031-419-4192","addr":"경기도 안산시 단원구 와동 806-17번지 상가 107호","indutype":"건축자재 - 기타건축자재","category":"other"}]},{"lat":"37.341362569","long":"126.82471491","imageIndex":17,"items":[{"name":"(주)경동기연","tel":"031-495-3651","addr":"경기도 안산시 단원구 와동 763-12번지 연번지 101동 102호","indutype":"건축자재 - 보일러·펌프·샷시","category":"other"},{"name":"보일러서비스","tel":"031-495-3651","addr":"경기도 안산시 단원구 와동 763-12번지 1층","indutype":"수리서비스 - 기타수리서비스","category":"other"},{"name":"화이트운동화앤빨래방","tel":"031-484-8280","addr":"경기도 안산시 단원구 와동 763-12번지 102호","indutype":"수리서비스 - 세탁소","category":"other"}]},{"lat":"37.342196518","long":"126.8280759","imageIndex":17,"items":[{"name":"(주)도어캡","tel":"031-505-3240","addr":"경기도 안산시 단원구 와동 97-6번지 영은빌딩 3층","indutype":"기타 - 기타 전문점","category":"other"},{"name":"한가족씽크","tel":"031-480-3063","addr":"경기도 안산시 단원구 와동 97-6번지","indutype":"주방용구 - 주방용구","category":"other"}]},{"lat":"37.343168198","long":"126.8211558","imageIndex":17,"items":[{"name":"(주)엑스리치네트웍스","tel":"031-487-0090","addr":"경기도 안산시 단원구 와동 805-4번지 1층","indutype":"사무통신 - 통신기기","category":"other"},{"name":"맑은잇몸담은수","tel":"031-401-2875","addr":"경기도 안산시 단원구 와동 805-4번지 2층","indutype":"신변잡화 - 기타잡화","category":"other"}]},{"lat":"37.332223488","long":"126.82288599","imageIndex":17,"items":[{"name":"(주)우리정보통/특별할부","tel":"031-480-9011","addr":"경기도 안산시 단원구 와동 851번지 (태산상가102호)","indutype":"사무통신 - 통신기기(무이자할부)","category":"other"},{"name":"우리정보/LG할부","tel":"031-1-1","addr":"경기도 안산시 단원구 와동 851번지 태산상가 102호","indutype":"사무통신 - 통신기기(무이자할부)","category":"other"},{"name":"우리정보통신(주)","tel":"031-480-9011","addr":"경기도 안산시 단원구 와동 851번지 태산상가 102호","indutype":"사무통신 - 통신기기","category":"other"},{"name":"우리정보통신(주)_PS","tel":"0345-80-9011","addr":"경기도 안산시 단원구 와동 851태산상가102호","indutype":"사무통신 - 통신기기","category":"other"}]},{"lat":"37.344061705","long":"126.82213548","imageIndex":17,"items":[{"name":"(주)유한실업","tel":"031-480-0460","addr":"경기도 안산시 단원구 와동 773-3번지","indutype":"서적문구 - 출판 및 인쇄물","category":"other"}]},{"lat":"37.344781201","long":"126.82127606","imageIndex":17,"items":[{"name":"(주)코리아세븐안산와동점/1236호점","tel":"031-439-1938","addr":"경기도 안산시 단원구 와동 799-12번지","indutype":"유통업 영리 - 편 의 점","category":"other"}]},{"lat":"37.340949729","long":"126.82579924","imageIndex":17,"items":[{"name":"(주)티엠에스조경건설","tel":"031-411-1289","addr":"경기도 안산시 단원구 와동 762 유통상가2동204~4호","indutype":"문화.취미 - 화원","category":"other"}]},{"lat":"37.333374338","long":"126.82128095","imageIndex":17,"items":[{"name":"An(안)열쇠","tel":"","addr":"경기도 안산시 단원구 와동 830-2번지 신유빌라7차 101동 305호","indutype":"수리서비스 - 기타수리서비스","category":"other"}]},{"lat":"37.336558365","long":"126.8176849","imageIndex":17,"items":[{"name":"Best style 디자인","tel":"031-111-1111","addr":"경기도 안산시 단원구 와동 822-10번지 그린빌 103호","indutype":"건축자재 - 인테리어전문","category":"other"}]},{"lat":"37.3449215438","long":"126.8188041957","imageIndex":17,"items":[{"name":"CU안산와동국산점","tel":"","addr":"경기도 안산시 단원구 와동 800-17번지","indutype":"도매 및 소매업 - 편의점","category":"other"}]},{"lat":"37.33517128","long":"126.82990891","imageIndex":17,"items":[{"name":"D.C마트","tel":"031-480-3172","addr":"경기도 안산시 단원구 와동 707-15번지","indutype":"신변잡화 - 기타잡화","category":"other"},{"name":"복주머니","tel":"","addr":"경기도 안산시 단원구 와동 707-15번지 101호","indutype":"의류 - 정장","category":"other"}]},{"lat":"37.3392221712","long":"126.8274057143","imageIndex":17,"items":[{"name":"E-쁘니 헤어샵","tel":"031-414-3727","addr":"경기도 안산시 단원구 와동 115번지","indutype":"협회 및 단체, 수리 및 기타 개인서","category":"other"}]},{"lat":"37.347728497","long":"126.82191225","imageIndex":17,"items":[{"name":"GS25안산세원점","tel":"","addr":"경기도 안산시 단원구 와동 786번지 101호","indutype":"유통업 영리 - 편 의 점","category":"other"}]},{"lat":"37.342834789","long":"126.82113404","imageIndex":17,"items":[{"name":"GS25안산와동점","tel":"","addr":"경기도 안산시 단원구 와동 808-7번지","indutype":"유통업 영리 - 편 의 점","category":"other"}]},{"lat":"37.343804148","long":"126.81871664","imageIndex":17,"items":[{"name":"GS25안산화정천점","tel":"","addr":"경기도 안산시 단원구 와동 806번지 경동보일러 103호","indutype":"유통업 영리 - 편 의 점","category":"other"}]},{"lat":"37.339222171","long":"126.82740571","imageIndex":17,"items":[{"name":"GS25와동대로점","tel":"","addr":"경기도 안산시 단원구 와동 115번지 101,102호","indutype":"유통업 영리 - 편 의 점","category":"other"}]},{"lat":"37.333812464","long":"126.82499228","imageIndex":17,"items":[{"name":"GS25와동보배점","tel":"","addr":"경기도 안산시 단원구 와동 728-6번지 1층","indutype":"유통업 영리 - 편 의 점","category":"other"}]},{"lat":"37.340305405","long":"126.82876865","imageIndex":17,"items":[{"name":"GS25와동사랑점","tel":"02-2006-2485","addr":"경기도 안산시 단원구 와동 121-6번지 102호","indutype":"유통업 영리 - 편 의 점","category":"other"}]},{"lat":"37.336585344","long":"126.82954457","imageIndex":17,"items":[{"name":"GS25와동제일점","tel":"02-2006-2485","addr":"경기도 안산시 단원구 와동 705번지","indutype":"유통업 영리 - 편 의 점","category":"other"}]},{"lat":"37.332028324","long":"126.8190162","imageIndex":17,"items":[{"name":"GS25화랑초교점","tel":"02-2006-2485","addr":"경기도 안산시 단원구 와동 839-6번지 101호","indutype":"유통업 영리 - 편 의 점","category":"other"},{"name":"선흥사무기","tel":"031-402-2258","addr":"경기도 안산시 단원구 와동 839-6번지","indutype":"사무통신 - 사무용 OA기기","category":"other"}]},{"lat":"37.33997972","long":"126.82188571","imageIndex":17,"items":[{"name":"JJ스포츠","tel":"031-500-0874","addr":"경기도 안산시 단원구 와동 758-7번지 형제빌딩 103호","indutype":"레져용품 - 스포츠·레져용품","category":"other"},{"name":"대한상사","tel":"031-402-7378","addr":"경기도 안산시 단원구 와동 758-7번지","indutype":"건축자재 - 페인트","category":"other"}]},{"lat":"37.3346385412","long":"126.8291315374","imageIndex":17,"items":[{"name":"JS실용음악학원","tel":"031-401-7113","addr":"경기도 안산시 단원구 와동 716-7번지","indutype":"교육서비스업 - 교습소","category":"other"}]},{"lat":"37.3434751487","long":"126.8215500474","imageIndex":17,"items":[{"name":"K2노래연습장","tel":"","addr":"경기도 안산시 단원구 와동 771-11번지","indutype":"협회 및 단체, 수리 및 기타 개인서","category":"other"}]},{"lat":"37.3448067729","long":"126.8203280145","imageIndex":17,"items":[{"name":"Nail bada","tel":"031-500-8756","addr":"경기도 안산시 단원구 와동 799-18번지","indutype":"협회 및 단체, 수리 및 기타 개인서","category":"other"}]},{"lat":"37.3316983509","long":"126.8271862613","imageIndex":17,"items":[{"name":"S.T 코디","tel":"031-415-8775","addr":"경기도 안산시 단원구 와동 682-13번지","indutype":"도매 및 소매업 - 신발,가방","category":"other"},{"name":"머리짱","tel":"031-402-7713","addr":"경기도 안산시 단원구 와동 682-13번지","indutype":"협회 및 단체, 수리 및 기타 개인서","category":"other"}]},{"lat":"37.344780473","long":"126.82080207","imageIndex":17,"items":[{"name":"SM(에스엠)","tel":"","addr":"경기도 안산시 단원구 와동 799-15번지 103호","indutype":"의류 - 정장","category":"other"}]},{"lat":"37.331698351","long":"126.82718626","imageIndex":17,"items":[{"name":"ST.코디","tel":"031-415-8775","addr":"경기도 안산시 단원구 와동 682-13번지 101호","indutype":"신변잡화 - 신발","category":"other"},{"name":"루체","tel":"031-415-8775","addr":"경기도 안산시 단원구 와동 682-13번지 1층 101호","indutype":"신변잡화 - 신발","category":"other"}]},{"lat":"37.337116569","long":"126.8174127","imageIndex":17,"items":[{"name":"TG패션","tel":"031-482-1122","addr":"경기도 안산시 단원구 와동 821-17번지 1층","indutype":"의류 - 정장","category":"other"}]},{"lat":"37.331784541","long":"126.81868957","imageIndex":17,"items":[{"name":"YS토탈하우징","tel":"","addr":"경기도 안산시 단원구 와동 845-9번지 102호","indutype":"건축자재 - 목재·석재·철물","category":"other"}]},{"lat":"37.3363680076","long":"126.8288003118","imageIndex":17,"items":[{"name":"ok우리집익스프레스","tel":"031-413-9009","addr":"경기도 안산시 단원구 와동 715-1번지","indutype":"운수업 - 개별화물","category":"other"},{"name":"모닝지물문구","tel":"031-402-2567","addr":"경기도 안산시 단원구 와동 715-1번지","indutype":"도매 및 소매업 - 지물,문구","category":"other"},{"name":"지우헤어","tel":"031-405-5285","addr":"경기도 안산시 단원구 와동 715-1번지","indutype":"협회 및 단체, 수리 및 기타 개인서","category":"other"}]},{"lat":"37.34458859","long":"126.81907586","imageIndex":17,"items":[{"name":"wash white","tel":"031-411-8229","addr":"경기도 안산시 단원구 와동 801-2번지","indutype":"수리서비스 - 세탁소","category":"other"}]},{"lat":"37.333699861","long":"126.82203618","imageIndex":17,"items":[{"name":"가구119","tel":"031-486-1190","addr":"경기도 안산시 단원구 와동 736번지 효자연립 108동 302호","indutype":"회원제형태 - 기타4","category":"other"}]},{"lat":"37.3333338635","long":"126.8184149744","imageIndex":17,"items":[{"name":"가람종묘농약사","tel":"031-402-3132","addr":"경기도 안산시 단원구 와동 829-1번지 배원빌라","indutype":"도매 및 소매업 - 종묘,묘목,묘종,","category":"other"},{"name":"성도세탁","tel":"","addr":"경기도 안산시 단원구 와동 829-1번지 배원빌라","indutype":"협회 및 단체, 수리 및 기타 개인서","category":"other"},{"name":"올가뷰티","tel":"","addr":"경기도 안산시 단원구 와동 829-1번지 배원빌라","indutype":"협회 및 단체, 수리 및 기타 개인서","category":"other"},{"name":"포커스문구","tel":"031-487-0249","addr":"경기도 안산시 단원구 와동 829-1번지 배원빌라","indutype":"도매 및 소매업 - 문구","category":"other"}]},{"lat":"37.332202752","long":"126.82707225","imageIndex":17,"items":[{"name":"가방나라","tel":"031-410-0645","addr":"경기도 안산시 단원구 와동 721-5번지","indutype":"신변잡화 - 가방","category":"other"}]},{"lat":"37.335169972","long":"126.81715796","imageIndex":17,"items":[{"name":"가온컴퓨터","tel":"031-413-7982","addr":"경기도 안산시 단원구 와동 827-6번지 103호","indutype":"사무통신 - 컴퓨터","category":"other"}]},{"lat":"37.3328631110","long":"126.8169943813","imageIndex":17,"items":[{"name":"가정건강관리원","tel":"031-413-7588","addr":"경기도 안산시 단원구 와동 844번지 명가","indutype":"제조업 - 과채음료","category":"other"}]},{"lat":"37.3424792934","long":"126.8304338345","imageIndex":17,"items":[{"name":"가정애요양원","tel":"031-417-8417","addr":"경기도 안산시 단원구 와동 129-1번지","indutype":"협회 및 단체, 수리 및 기타 개인서","category":"other"}]},{"lat":"37.342479293","long":"126.83043383","imageIndex":17,"items":[{"name":"가정애요양원","tel":"031-417-8417","addr":"경기도 안산시 단원구 와동 129-1번지","indutype":"기타의료기관 - 기타의료기관 및 기타","category":"other"}]},{"lat":"37.347169179","long":"126.82146216","imageIndex":17,"items":[{"name":"강산종합공사","tel":"031-413-6996","addr":"경기도 안산시 단원구 와동 788-10번지","indutype":"건축자재 - 인테리어전문","category":"other"}]},{"lat":"37.332424349","long":"126.81874442","imageIndex":17,"items":[{"name":"강서세탁소","tel":"031-484-7965","addr":"경기도 안산시 단원구 와동 840-3 1층","indutype":"수리서비스 - 세탁소","category":"other"},{"name":"폰앤독(phone&dog)","tel":"070-4046-9888","addr":"경기도 안산시 단원구 와동 840-3번지 1층 101호","indutype":"사무통신 - 통신기기","category":"other"}]},{"lat":"37.3326135970","long":"126.8187665286","imageIndex":17,"items":[{"name":"강서세탁소","tel":"031-484-7965","addr":"경기도 안산시 단원구 와동 840-2번지","indutype":"협회 및 단체, 수리 및 기타 개인서","category":"other"}]},{"lat":"37.3370899628","long":"126.8176835931","imageIndex":17,"items":[{"name":"강서이발관","tel":"","addr":"경기도 안산시 단원구 와동 821-4번지","indutype":"협회 및 단체, 수리 및 기타 개인서","category":"other"}]},{"lat":"37.3333954","long":"126.81743314","imageIndex":17,"items":[{"name":"강서종합문구","tel":"031-401-3004","addr":"경기도 안산시 단원구 와동 829 무진상가103호","indutype":"서적문구 - 문구용품","category":"other"},{"name":"안산종합교재","tel":"031-403-2847","addr":"경기도 안산시 단원구 와동 829번지 무진빌라상가 지하층","indutype":"서적문구 - 전문서적","category":"other"}]},{"lat":"37.3333953999","long":"126.8174331365","imageIndex":17,"items":[{"name":"강서종합문구","tel":"031-401-3004","addr":"경기도 안산시 단원구 와동 829번지","indutype":"도매 및 소매업 - 문구","category":"other"},{"name":"안산종합교재","tel":"031-402-8906","addr":"경기도 안산시 단원구 와동 829번지","indutype":"도매 및 소매업 - 서적 및 인쇄물","category":"other"}]},{"lat":"37.333333864","long":"126.81841497","imageIndex":17,"items":[{"name":"강서종합인테리어","tel":"031-483-1881","addr":"경기도 안산시 단원구 와동 829-1번지 배원연립 마동 105호","indutype":"건축자재 - 인테리어전문","category":"other"},{"name":"포커스문구","tel":"031-487-0249","addr":"경기도 안산시 단원구 와동 829-1번지 배원상가 마동 103호","indutype":"서적문구 - 문구용품","category":"other"}]},{"lat":"37.3381404932","long":"126.8211340628","imageIndex":17,"items":[{"name":"강원사","tel":"031-402-3705","addr":"경기도 안산시 단원구 와동 750-1번지","indutype":"협회 및 단체, 수리 및 기타 개인서","category":"other"}]},{"lat":"37.340530182","long":"126.82243734","imageIndex":17,"items":[{"name":"강원세탁","tel":"031-402-3705","addr":"경기도 안산시 단원구 와동 757-2번지","indutype":"수리서비스 - 세탁소","category":"other"}]},{"lat":"37.3332260064","long":"126.8244633223","imageIndex":17,"items":[{"name":"걸앤맨","tel":"031-403-2770","addr":"경기도 안산시 단원구 와동 726-5번지","indutype":"협회 및 단체, 수리 및 기타 개인서","category":"other"},{"name":"걸앤맨","tel":"031-403-2770","addr":"경기도 안산시 단원구 와동 726-5번지","indutype":"협회 및 단체, 수리 및 기타 개인서","category":"other"}]},{"lat":"37.342756664","long":"126.82307527","imageIndex":17,"items":[{"name":"경기 그린 유통","tel":"031-506-6055","addr":"경기도 안산시 단원구 와동 769-10번지 B015호","indutype":"유통업 영리 - 기타유통업","category":"other"}]},{"lat":"37.33850496","long":"126.81793966","imageIndex":17,"items":[{"name":"경동냉난방","tel":"031-414-3843","addr":"경기도 안산시 단원구 와동 820-1번지","indutype":"용역 서비스 - 기타용역서비스","category":"other"},{"name":"이마트24 안산와동공원로점","tel":"031-401-6921","addr":"경기도 안산시 단원구 와동 820-1번지 1층 102호","indutype":"유통업 영리 - 편 의 점","category":"other"}]},{"lat":"37.342811217","long":"126.82943998","imageIndex":17,"items":[{"name":"경원창호","tel":"031-482-5635","addr":"경기도 안산시 단원구 와동 96-3번지 1층 102호","indutype":"건축자재 - 기타건축자재","category":"other"}]},{"lat":"37.331031432","long":"126.82707498","imageIndex":17,"items":[{"name":"경인의지","tel":"031-401-3009","addr":"경기도 안산시 단원구 와동 685번지 101호","indutype":"기타의료기관 - 기타의료기관 및 기타","category":"other"}]},{"lat":"37.336755161","long":"126.82860759","imageIndex":17,"items":[{"name":"경제냉난방에어컨설치","tel":"","addr":"경기도 안산시 단원구 와동 713-7번지 성실카서비스 203호","indutype":"용역 서비스 - 기타용역서비스","category":"other"},{"name":"오만가지재활용센타","tel":"031-405-1118","addr":"경기도 안산시 단원구 와동 713-7번지","indutype":"전기제품 - 가전제품","category":"other"}]},{"lat":"37.3330307444","long":"126.8264384334","imageIndex":17,"items":[{"name":"고고헤어","tel":"031-480-1003","addr":"경기도 안산시 단원구 와동 720-9번지","indutype":"협회 및 단체, 수리 및 기타 개인서","category":"other"}]},{"lat":"37.3414760394","long":"126.8222996622","imageIndex":17,"items":[{"name":"고대정형외과 의원","tel":"031-480-7555","addr":"경기도 안산시 단원구 와동 764-18번지","indutype":"보건업 및 사회복지서비스업 - 정형외","category":"other"}]},{"lat":"37.333146628","long":"126.82560317","imageIndex":17,"items":[{"name":"고대화원","tel":"031-413-2456","addr":"경기도 안산시 단원구 와동 725-3번지","indutype":"문화.취미 - 화원","category":"other"}]},{"lat":"37.3331466282","long":"126.8256031665","imageIndex":17,"items":[{"name":"고대화원","tel":"","addr":"경기도 안산시 단원구 와동 725-3번지","indutype":"농업, 임업 및 어업 - 생화","category":"other"}]},{"lat":"37.3391957594","long":"126.8278233071","imageIndex":17,"items":[{"name":"고려상사","tel":"031-401-0274","addr":"경기도 안산시 단원구 와동 118-12번지","indutype":"도매 및 소매업 - 도소매","category":"other"},{"name":"천광문화사","tel":"031-484-9897","addr":"경기도 안산시 단원구 와동 118-12번지","indutype":"제조업 - 인쇄","category":"other"}]},{"lat":"37.341168936","long":"126.82180386","imageIndex":17,"items":[{"name":"고려지물종합장식","tel":"031-480-1734","addr":"경기도 안산시 단원구 와동 759-1번지 원진부동산 103호","indutype":"직물 - 카페트,커튼,천막,지물","category":"other"},{"name":"수보리","tel":"031-000-0000","addr":"경기도 안산시 단원구 와동 759-1번지 원진부동산 103호","indutype":"신변잡화 - 액세서리","category":"other"}]},{"lat":"37.345392048","long":"126.82007832","imageIndex":17,"items":[{"name":"고성산업","tel":"031-410-2400","addr":"경기도 안산시 단원구 와동 798-5번지 힐애비뉴3차 401호","indutype":"전기제품 - 냉열기기","category":"other"}]},{"lat":"37.3315900615","long":"126.8270736785","imageIndex":17,"items":[{"name":"고향축산","tel":"031-482-0171","addr":"경기도 안산시 단원구 와동 682-12번지","indutype":"도매 및 소매업 - 식육","category":"other"},{"name":"긴가영 헤어클럽","tel":"031-485-8944","addr":"경기도 안산시 단원구 와동 682-12번지","indutype":"협회 및 단체, 수리 및 기타 개인서","category":"other"}]},{"lat":"37.338784362","long":"126.8179954","imageIndex":17,"items":[{"name":"공간구석구석","tel":"031-410-1091","addr":"경기도 안산시 단원구 와동 814-5번지 103호","indutype":"용역 서비스 - 종합용역","category":"other"}]},{"lat":"37.3387843621","long":"126.8179954008","imageIndex":17,"items":[{"name":"공임나라 와동점","tel":"031-411-5232","addr":"경기도 안산시 단원구 와동 814-5번지","indutype":"협회 및 단체, 수리 및 기타 개인서","category":"other"}]},{"lat":"37.3420299599","long":"126.8192400857","imageIndex":17,"items":[{"name":"광고세상","tel":"","addr":"경기도 안산시 단원구 와동 810-23번지","indutype":"협회 및 단체, 수리 및 기타 개인서","category":"other"}]},{"lat":"37.3378643571","long":"126.8173770121","imageIndex":17,"items":[{"name":"광선모터스","tel":"031-485-2277","addr":"경기도 안산시 단원구 와동 820-11번지","indutype":"협회 및 단체, 수리 및 기타 개인서","category":"other"}]},{"lat":"37.341173711","long":"126.83104621","imageIndex":17,"items":[{"name":"국제로타리3750지구동안산","tel":"031-410-3750","addr":"경기도 안산시 단원구 와동 산27-1번지","indutype":"기타 - 비영리/대상","category":"other"}]},{"lat":"37.3451692771","long":"126.8216926856","imageIndex":17,"items":[{"name":"굿모닝헬스타운","tel":"031-439-6320","addr":"경기도 안산시 단원구 와동 779번지","indutype":"예술, 스포츠 및 여가관련 서비스업","category":"other"}]},{"lat":"37.334919044","long":"126.82388383","imageIndex":17,"items":[{"name":"그라찌에","tel":"031-411-9146","addr":"경기도 안산시 단원구 와동 731-8번지 1층","indutype":"의류 - 정장","category":"other"}]},{"lat":"37.333144739","long":"126.81847186","imageIndex":17,"items":[{"name":"그랜드컴퓨터","tel":"031-485-1285","addr":"경기도 안산시 단원구 와동 829-1번지 배원연립 라동 301호","indutype":"수리서비스 - 사무·통신기기수리","category":"other"}]},{"lat":"37.343089197","long":"126.8225215","imageIndex":17,"items":[{"name":"그린조경자재","tel":"031-480-7010","addr":"경기도 안산시 단원구 와동 770-7번지 신풍전력 103호","indutype":"농업 - 기타농업관련","category":"other"}]},{"lat":"37.3359177826","long":"126.8289931812","imageIndex":17,"items":[{"name":"극동광고","tel":"031-482-0360","addr":"경기도 안산시 단원구 와동 715-4번지","indutype":"제조업 - 간판,현수막","category":"other"}]},{"lat":"37.335917783","long":"126.82899318","imageIndex":17,"items":[{"name":"극동광고","tel":"031-482-0360","addr":"경기도 안산시 단원구 와동 715-4번지 포트랜드 1층 101호","indutype":"건축자재 - 인테리어전문","category":"other"}]},{"lat":"37.337394465","long":"126.828324","imageIndex":17,"items":[{"name":"금성주방","tel":"031-405-4230","addr":"경기도 안산시 단원구 와동 713-3번지","indutype":"주방용구 - 주방용구","category":"other"},{"name":"엘지설치센터안산점","tel":"031-437-7777","addr":"경기도 안산시 단원구 와동 713-3번지 501호 다세대주택","indutype":"용역 서비스 - 기타용역서비스","category":"other"}]},{"lat":"37.3327854912","long":"126.8192174560","imageIndex":17,"items":[{"name":"금우미트","tel":"031-439-7117","addr":"경기도 안산시 단원구 와동 839-1번지","indutype":"도매 및 소매업 - 식육","category":"other"}]},{"lat":"37.339755338","long":"126.82846524","imageIndex":17,"items":[{"name":"금화산업","tel":"031-406-3738","addr":"경기도 안산시 단원구 와동 122-5번지 1층","indutype":"신변잡화 - 기타잡화","category":"other"}]},{"lat":"37.337223406","long":"126.82841467","imageIndex":17,"items":[{"name":"기획원이","tel":"031-411-3288","addr":"경기도 안산시 단원구 와동 713-4번지","indutype":"서적문구 - 출판 및 인쇄물","category":"other"},{"name":"라임기획","tel":"031-414-0959","addr":"경기도 안산시 단원구 와동 713-4번지 203호","indutype":"용역 서비스 - 사무서비스","category":"other"},{"name":"십이공방","tel":"031-482-1208","addr":"경기도 안산시 단원구 와동 713-4번지 101호","indutype":"건축자재 - 인테리어전문","category":"other"}]},{"lat":"37.3372234058","long":"126.8284146702","imageIndex":17,"items":[{"name":"기획원이","tel":"031-411-3288","addr":"경기도 안산시 단원구 와동 713-4번지","indutype":"제조업 - 기타상업인쇄, 간판, 현수","category":"other"}]},{"lat":"37.347142995","long":"126.82201523","imageIndex":17,"items":[{"name":"김앤조크린코리아","tel":"031-480-4787","addr":"경기도 안산시 단원구 와동 786-12번지 1층","indutype":"수리서비스 - 세탁소","category":"other"}]},{"lat":"37.3420610252","long":"126.8218581442","imageIndex":17,"items":[{"name":"김진희헤어살롱","tel":"031-484-0386","addr":"경기도 안산시 단원구 와동 765번지","indutype":"협회 및 단체, 수리 및 기타 개인서","category":"other"}]},{"lat":"37.3336672481","long":"126.8242930217","imageIndex":17,"items":[{"name":"까꼬보꼬미용실","tel":"","addr":"경기도 안산시 단원구 와동 727-7번지 진양빌라","indutype":"협회 및 단체, 수리 및 기타 개인서","category":"other"}]},{"lat":"37.3408613622","long":"126.8269617901","imageIndex":17,"items":[{"name":"까미통신","tel":"031-8044-6789","addr":"경기도 안산시 단원구 와동 111-7번지","indutype":"도매 및 소매업 - 통신기기","category":"other"}]},{"lat":"37.340861362","long":"126.82696179","imageIndex":17,"items":[{"name":"까미통신","tel":"031-8044-6789","addr":"경기도 안산시 단원구 와동 111-7번지 1층 103호","indutype":"사무통신 - 통신기기","category":"other"},{"name":"임팩트크린","tel":"031-484-3132","addr":"경기도 안산시 단원구 와동 111-7번지 102호","indutype":"수리서비스 - 세탁소","category":"other"}]},{"lat":"37.3367017478","long":"126.8290477953","imageIndex":17,"items":[{"name":"꼬리치는 강아지","tel":"031-402-2227","addr":"경기도 안산시 단원구 와동 709-6번지","indutype":"도매 및 소매업 - 애견용품","category":"other"},{"name":"천사소리음악학원","tel":"031-401-4427","addr":"경기도 안산시 단원구 와동 709-6번지","indutype":"교육서비스업 - 교습","category":"other"}]},{"lat":"37.336701748","long":"126.8290478","imageIndex":17,"items":[{"name":"꼬리치는 강아지","tel":"031-402-2227","addr":"경기도 안산시 단원구 와동 709-6번지","indutype":"문화.취미 - 애완동물","category":"other"}]},{"lat":"37.343528655","long":"126.82118879","imageIndex":17,"items":[{"name":"꽃자리","tel":"031-413-8854","addr":"경기도 안산시 단원구 와동 805-2번지","indutype":"문화.취미 - 화원","category":"other"},{"name":"에덴홈패션","tel":"031-401-8567","addr":"경기도 안산시 단원구 와동 805-2번지","indutype":"직물 - 침구·수예점","category":"other"}]},{"lat":"37.3340885874","long":"126.8228815407","imageIndex":17,"items":[{"name":"나금주 헤어샵","tel":"031-483-5614","addr":"경기도 안산시 단원구 와동 737-7번지","indutype":"협회 및 단체, 수리 및 기타 개인서","category":"other"}]},{"lat":"37.3432777377","long":"126.8220809285","imageIndex":17,"items":[{"name":"나눔가게","tel":"031-413-1291","addr":"경기도 안산시 단원구 와동 771-5번지","indutype":"도매 및 소매업 - 홍삼","category":"other"}]},{"lat":"37.3374761386","long":"126.8287187638","imageIndex":17,"items":[{"name":"나라찬태권도장","tel":"","addr":"경기도 안산시 단원구 와동 712-18번지","indutype":"교육서비스업 - 태권도장","category":"other"},{"name":"프랜즈컴퓨터","tel":"031-411-4117","addr":"경기도 안산시 단원구 와동 712-18번지","indutype":"협회 및 단체, 수리 및 기타 개인서","category":"other"}]},{"lat":"37.347082175","long":"126.82349382","imageIndex":17,"items":[{"name":"나엘컴퍼니","tel":"031-413-7774","addr":"경기도 안산시 단원구 와동 785-9번지 행복한빌 302호","indutype":"주방용구 - 주방용구","category":"other"}]},{"lat":"37.3420604202","long":"126.8214631685","imageIndex":17,"items":[{"name":"낙원떡집","tel":"031-402-0880","addr":"경기도 안산시 단원구 와동 764번지","indutype":"제조업 - 떡방앗간","category":"other"},{"name":"칼라헤어센스","tel":"031-413-5404","addr":"경기도 안산시 단원구 와동 764번지","indutype":"협회 및 단체, 수리 및 기타 개인서","category":"other"}]},{"lat":"37.341999006","long":"126.82254668","imageIndex":17,"items":[{"name":"낙준상회","tel":"031-577-3921","addr":"경기도 안산시 단원구 와동 765-4번지","indutype":"회원제형태 - 기타4","category":"other"}]},{"lat":"37.343390839","long":"126.81946248","imageIndex":17,"items":[{"name":"네버시스템","tel":"","addr":"경기도 안산시 단원구 와동 806-7번지 401호","indutype":"수리서비스 - 가정용품수리","category":"other"},{"name":"에어퍼지","tel":"","addr":"경기도 안산시 단원구 와동 806-7번지","indutype":"용역 서비스 - 기타용역서비스","category":"other"}]},{"lat":"37.3428088141","long":"126.8218224937","imageIndex":17,"items":[{"name":"네일하기좋은날","tel":"","addr":"경기도 안산시 단원구 와동 769-2번지","indutype":"협회 및 단체, 수리 및 기타 개인서","category":"other"}]},{"lat":"37.332311007","long":"126.82716227","imageIndex":17,"items":[{"name":"노다지복권방","tel":"031-487-3244","addr":"경기도 안산시 단원구 와동 721-4번지","indutype":"기타 - 기타 전문점","category":"other"}]},{"lat":"37.3326997142","long":"126.8280189202","imageIndex":17,"items":[{"name":"뉴헤라노래연습장","tel":"031-403-4002","addr":"경기도 안산시 단원구 와동 679-10번지","indutype":"협회 및 단체, 수리 및 기타 개인서","category":"other"}]},{"lat":"37.3423127038","long":"126.8214625616","imageIndex":17,"items":[{"name":"늘푸른농산물","tel":"","addr":"경기도 안산시 단원구 와동 769-25번지","indutype":"도매 및 소매업 - 야채","category":"other"},{"name":"미니스톱 안산와동점","tel":"031-506-7717","addr":"경기도 안산시 단원구 와동 769-25번지","indutype":"도매 및 소매업 - 편의점","category":"other"}]},{"lat":"37.3346392692","long":"126.8296280296","imageIndex":17,"items":[{"name":"늘푸른약국","tel":"031-405-4855","addr":"경기도 안산시 단원구 와동 700번지","indutype":"도매 및 소매업 - 의약품","category":"other"},{"name":"하하텔레콤","tel":"031-414-4019","addr":"경기도 안산시 단원구 와동 700번지","indutype":"도매 및 소매업 - 휴대폰,화장품","category":"other"}]},{"lat":"37.334170279","long":"126.82327628","imageIndex":17,"items":[{"name":"늘푸른요양센터","tel":"","addr":"경기도 안산시 단원구 와동 733-1번지","indutype":"기타의료기관 - 기타의료기관 및 기타","category":"other"}]},{"lat":"37.338420888","long":"126.82782511","imageIndex":17,"items":[{"name":"다모아특판","tel":"031-485-9960","addr":"경기도 안산시 단원구 와동 115-8번지 상가 1층 101호","indutype":"전기제품 - 가전제품","category":"other"},{"name":"위더스소프트","tel":"070-4831-9734","addr":"경기도 안산시 단원구 와동 115-8번지 다세대주택 301호","indutype":"용역 서비스 - 소프트웨어","category":"other"}]},{"lat":"37.3384208875","long":"126.8278251055","imageIndex":17,"items":[{"name":"다모아특판 생활용품","tel":"","addr":"경기도 안산시 단원구 와동 115-8번지","indutype":"도매 및 소매업 - 생활용품","category":"other"}]},{"lat":"37.339423108","long":"126.82924465","imageIndex":17,"items":[{"name":"대광씽크","tel":"031-482-2950","addr":"경기도 안산시 단원구 와동 133-7번지","indutype":"주방용구 - 주방용구","category":"other"}]},{"lat":"37.3418126463","long":"126.8185522285","imageIndex":17,"items":[{"name":"대덕정비","tel":"031-402-4283","addr":"경기도 안산시 단원구 와동 811-20번지","indutype":"협회 및 단체, 수리 및 기타 개인서","category":"other"}]},{"lat":"37.3413890551","long":"126.8243537333","imageIndex":17,"items":[{"name":"대덕철물건재","tel":"031-480-6613","addr":"경기도 안산시 단원구 와동 763-14번지","indutype":"도매 및 소매업 - 건축자재","category":"other"}]},{"lat":"37.341389055","long":"126.82435373","imageIndex":17,"items":[{"name":"대덕철물건재","tel":"031-480-6613","addr":"경기도 안산시 단원구 와동 763-14번지","indutype":"기타 - 기계공구","category":"other"}]},{"lat":"37.33706129","long":"126.82846018","imageIndex":17,"items":[{"name":"대림유리","tel":"031-402-5853","addr":"경기도 안산시 단원구 와동 713-5번지","indutype":"건축자재 - 유리","category":"other"}]},{"lat":"37.341424294","long":"126.82382326","imageIndex":17,"items":[{"name":"대림타일도기상사","tel":"031-410-3279","addr":"경기도 안산시 단원구 와동 763-17번지","indutype":"건축자재 - 건축용 요업제품","category":"other"}]},{"lat":"37.332753848","long":"126.8220723","imageIndex":17,"items":[{"name":"대명전기철물","tel":"031-480-9949","addr":"경기도 안산시 단원구 와동 830-5번지 수도장 1층 102호","indutype":"건축자재 - 목재·석재·철물","category":"other"},{"name":"빛나씽크","tel":"031-485-3386","addr":"경기도 안산시 단원구 와동 830-5번지 수도장 102호","indutype":"주방용구 - 주방용구","category":"other"}]},{"lat":"37.341642752","long":"126.81938773","imageIndex":17,"items":[{"name":"대명철물","tel":"031-483-7889","addr":"경기도 안산시 단원구 와동 811-13번지","indutype":"건축자재 - 목재·석재·철물","category":"other"}]},{"lat":"37.342865062","long":"126.82929315","imageIndex":17,"items":[{"name":"대성냉동부품","tel":"031-405-4536","addr":"경기도 안산시 단원구 와동 96-2번지 1층","indutype":"전기제품 - 기타전기제품","category":"other"}]},{"lat":"37.34138851","long":"126.82399262","imageIndex":17,"items":[{"name":"대성방수설비","tel":"031-410-2070","addr":"경기도 안산시 단원구 와동 763-16번지 1층","indutype":"용역 서비스 - 기타용역서비스","category":"other"}]},{"lat":"37.338224594","long":"126.82913456","imageIndex":17,"items":[{"name":"대성산업","tel":"031-482-4986","addr":"경기도 안산시 단원구 와동 712-5번지","indutype":"기타 - 기타 전문점","category":"other"}]},{"lat":"37.340305936","long":"126.82912977","imageIndex":17,"items":[{"name":"대성시스템","tel":"031-439-1424","addr":"경기도 안산시 단원구 와동 131번지","indutype":"용역 서비스 - 기타용역서비스","category":"other"},{"name":"에스제이플러스시스템","tel":"031-402-2119","addr":"경기도 안산시 단원구 와동 131번지","indutype":"사무통신 - 컴퓨터","category":"other"},{"name":"영인테리어","tel":"070-3690-2885","addr":"경기도 안산시 단원구 와동 131번지 1층 103호","indutype":"건축자재 - 인테리어전문","category":"other"},{"name":"오드리","tel":"031-487-2800","addr":"경기도 안산시 단원구 와동 131번지 102호","indutype":"의류 - 정장","category":"other"}]},{"lat":"37.340340935","long":"126.82241523","imageIndex":17,"items":[{"name":"대성창호","tel":"031-414-5887","addr":"경기도 안산시 단원구 와동 757-3번지 103호","indutype":"용역 서비스 - 기타용역서비스","category":"other"}]},{"lat":"37.3440873179","long":"126.8212100145","imageIndex":17,"items":[{"name":"대성축산","tel":"031-401-3697","addr":"경기도 안산시 단원구 와동 802-9번지","indutype":"제조업 - 식육,즉석판매제조","category":"other"},{"name":"오마이도그","tel":"031-3938-6785","addr":"경기도 안산시 단원구 와동 802-9번지","indutype":"도매 및 소매업 - 애견용품","category":"other"}]},{"lat":"37.343229129","long":"126.81976757","imageIndex":17,"items":[{"name":"대신타일철물","tel":"031-000-0000","addr":"경기도 안산시 단원구 와동 806-10번지 동국건설 104호","indutype":"건축자재 - 건축용 요업제품","category":"other"}]},{"lat":"37.335755484","long":"126.82891457","imageIndex":17,"items":[{"name":"대양ENG","tel":"031-487-7910","addr":"경기도 안산시 단원구 와동 715-6번지 1층 101호","indutype":"전기제품 - 냉열기기","category":"other"}]},{"lat":"37.3415309492","long":"126.8288786753","imageIndex":17,"items":[{"name":"대일세탁소","tel":"031-485-5116","addr":"경기도 안산시 단원구 와동 106-5번지","indutype":"협회 및 단체, 수리 및 기타 개인서","category":"other"}]},{"lat":"37.333584347","long":"126.81726342","imageIndex":17,"items":[{"name":"대장간","tel":"","addr":"경기도 안산시 단원구 와동 829번지 무진빌라4차 103동 203호","indutype":"수리서비스 - 기타수리서비스","category":"other"}]},{"lat":"37.340885049","long":"126.82472733","imageIndex":17,"items":[{"name":"대전스카시","tel":"031-486-8413","addr":"경기도 안산시 단원구 와동 762유통상가6동6116호~6117호","indutype":"용역 서비스 - 종합용역","category":"other"}]},{"lat":"37.3321694627","long":"126.8289341194","imageIndex":17,"items":[{"name":"대풍농산","tel":"031-403-5566","addr":"경기도 안산시 단원구 와동 695-12번지","indutype":"제조업 - 방앗간","category":"other"}]},{"lat":"37.332588033","long":"126.82562705","imageIndex":17,"items":[{"name":"대호타일공사","tel":"031-487-1878","addr":"경기도 안산시 단원구 와동 724-6번지 104호","indutype":"건축자재 - 건축용 요업제품","category":"other"}]},{"lat":"37.337503952","long":"126.8173779","imageIndex":17,"items":[{"name":"대흥지물인테리어","tel":"031-486-6610","addr":"경기도 안산시 단원구 와동 820-9번지","indutype":"건축자재 - 인테리어전문","category":"other"},{"name":"샴푸하는 강아지","tel":"031-483-3509","addr":"경기도 안산시 단원구 와동 820-9번지 1층 105호","indutype":"문화.취미 - 애완동물","category":"other"},{"name":"성지지물포","tel":"031-486-6610","addr":"경기도 안산시 단원구 와동 820-9번지","indutype":"직물 - 카페트,커튼,천막,지물","category":"other"}]},{"lat":"37.338115858","long":"126.82871729","imageIndex":17,"items":[{"name":"대흥천막공업사","tel":"031-411-8334","addr":"경기도 안산시 단원구 와동 712-2번지","indutype":"직물 - 카페트,커튼,천막,지물","category":"other"}]},{"lat":"37.338062668","long":"126.81743295","imageIndex":17,"items":[{"name":"덕인전기조명","tel":"031-414-0022","addr":"경기도 안산시 단원구 와동 820-12번지 1층","indutype":"전기제품 - 기타전기제품","category":"other"},{"name":"주식회사 덕인전기조명","tel":"031-414-0022","addr":"경기도 안산시 단원구 와동 820-12번지 1층","indutype":"전기제품 - 기타전기제품","category":"other"}]},{"lat":"37.344807243","long":"126.82063272","imageIndex":17,"items":[{"name":"도도한","tel":"031-223-5214","addr":"경기도 안산시 단원구 와동 799-16번지 우진전기 101호","indutype":"의류 - 정장","category":"other"},{"name":"루시","tel":"031-503-3310","addr":"경기도 안산시 단원구 와동 799-16번지 우진전기 101호","indutype":"의류 - 정장","category":"other"},{"name":"찡찡이네","tel":"031-0000-0000","addr":"경기도 안산시 단원구 와동 799-16번지 1층","indutype":"의류 - 정장","category":"other"}]},{"lat":"37.3416723089","long":"126.8210239870","imageIndex":17,"items":[{"name":"도도한그녀","tel":"","addr":"경기도 안산시 단원구 와동 812-4번지","indutype":"도매 및 소매업 - 의류","category":"other"}]},{"lat":"37.341672309","long":"126.82102399","imageIndex":17,"items":[{"name":"도도한그녀","tel":"","addr":"경기도 안산시 단원구 와동 812-4번지 대원부동산 102호","indutype":"의류 - 정장","category":"other"}]},{"lat":"37.3413927586","long":"126.8268251311","imageIndex":17,"items":[{"name":"도원카센타","tel":"","addr":"경기도 안산시 단원구 와동 98-7번지","indutype":"협회 및 단체, 수리 및 기타 개인서","category":"other"},{"name":"두리두리사진관","tel":"031-487-7333","addr":"경기도 안산시 단원구 와동 98-7번지","indutype":"협회 및 단체, 수리 및 기타 개인서","category":"other"},{"name":"세덴면허점","tel":"031-403-4492","addr":"경기도 안산시 단원구 와동 98-7번지","indutype":"협회 및 단체, 수리 및 기타 개인서","category":"other"}]},{"lat":"37.3353886597","long":"126.8306870105","imageIndex":17,"items":[{"name":"동그라미","tel":"031-403-1196","addr":"경기도 안산시 단원구 와동 707-10번지","indutype":"도매 및 소매업 - 문구","category":"other"}]},{"lat":"37.33538866","long":"126.83068701","imageIndex":17,"items":[{"name":"동그라미유통","tel":"031-401-2337","addr":"경기도 안산시 단원구 와동 707-10","indutype":"서적문구 - 문구용품","category":"other"}]},{"lat":"37.339253717","long":"126.81852463","imageIndex":17,"items":[{"name":"동방쇼파","tel":"031-407-4851","addr":"경기도 안산시 단원구 와동 814-1번지","indutype":"가구 - 일반가구","category":"other"}]},{"lat":"37.341669134","long":"126.81897012","imageIndex":17,"items":[{"name":"동산상사","tel":"031-487-2519","addr":"경기도 안산시 단원구 와동 811-16번지","indutype":"레져용품 - 스포츠·레져용품","category":"other"},{"name":"이쁜옷방","tel":"031-485-1567","addr":"경기도 안산시 단원구 와동 811-16번지","indutype":"의류 - 정장","category":"other"}]},{"lat":"37.3420829853","long":"126.8185741379","imageIndex":17,"items":[{"name":"동산상사","tel":"","addr":"경기도 안산시 단원구 와동 811-22번지","indutype":"도매 및 소매업 - 자전거","category":"other"}]},{"lat":"37.3415027768","long":"126.8221077536","imageIndex":17,"items":[{"name":"동양철물건재","tel":"031-487-7272","addr":"경기도 안산시 단원구 와동 764-19번지","indutype":"도매 및 소매업 - 철물건재","category":"other"},{"name":"유명약국","tel":"031-505-3718","addr":"경기도 안산시 단원구 와동 764-19번지","indutype":"도매 및 소매업 - 양약","category":"other"}]},{"lat":"37.3444477749","long":"126.8212430024","imageIndex":17,"items":[{"name":"동의당약국","tel":"031-486-1146","addr":"경기도 안산시 단원구 와동 802-7번지","indutype":"도매 및 소매업 - 양약","category":"other"}]},{"lat":"37.3454171357","long":"126.8188255571","imageIndex":17,"items":[{"name":"동일사","tel":"031-411-3233","addr":"경기도 안산시 단원구 와동 800번지","indutype":"도매 및 소매업 - 타이어","category":"other"}]},{"lat":"37.345654472","long":"126.82081124","imageIndex":17,"items":[{"name":"동하비씨","tel":"031-491-3408","addr":"경기도 안산시 단원구 와동 797-12번지 그랜드힐스 B동 301호","indutype":"용역 서비스 - 종합용역","category":"other"}]},{"lat":"37.3414211123","long":"126.8277165772","imageIndex":17,"items":[{"name":"동화마을어린이집","tel":"031-401-7879","addr":"경기도 안산시 단원구 와동 99-3번지","indutype":"교육서비스업 - 어린이집","category":"other"}]},{"lat":"37.341392759","long":"126.82682513","imageIndex":17,"items":[{"name":"두리두리사진관","tel":"031-487-7333","addr":"경기도 안산시 단원구 와동 98-7번지 연번지 103호","indutype":"광학제품 - 사진관","category":"other"}]},{"lat":"37.33175278","long":"126.82743437","imageIndex":17,"items":[{"name":"두리전자담배","tel":"031-362-6002","addr":"경기도 안산시 단원구 와동 682번지 1호","indutype":"기타 - 기타 전문점","category":"other"}]},{"lat":"37.345141641","long":"126.82129776","imageIndex":17,"items":[{"name":"두산기업","tel":"031-405-4548","addr":"경기도 안산시 단원구 와동 799-10번지 102호","indutype":"용역 서비스 - 기타용역서비스","category":"other"}]},{"lat":"37.33900628","long":"126.82166235","imageIndex":17,"items":[{"name":"두원냉기개봉전문점","tel":"02-672-9492","addr":"경기도 안산시 단원구 와동 753-12번지 102호","indutype":"전기제품 - 냉열기기","category":"other"}]},{"lat":"37.333306808","long":"126.82427131","imageIndex":17,"items":[{"name":"드라이119세탁전문점","tel":"031-487-1543","addr":"경기도 안산시 단원구 와동 726-6번지 1층","indutype":"수리서비스 - 세탁소","category":"other"}]},{"lat":"37.3333068083","long":"126.8242713074","imageIndex":17,"items":[{"name":"드라이119세탁전문점","tel":"031-487-1543","addr":"경기도 안산시 단원구 와동 726-6번지","indutype":"협회 및 단체, 수리 및 기타 개인서","category":"other"}]},{"lat":"37.341809115","long":"126.82809937","imageIndex":17,"items":[{"name":"드림시스템공조","tel":"031-480-0303","addr":"경기도 안산시 단원구 와동 100번지","indutype":"전기제품 - 가전제품","category":"other"}]},{"lat":"37.333755182","long":"126.82888533","imageIndex":17,"items":[{"name":"디엠바이크","tel":"031-486-2120","addr":"경기도 안산시 단원구 와동 697-11번지 102호","indutype":"레져용품 - 스포츠·레져용품","category":"other"}]},{"lat":"37.336029837","long":"126.83168984","imageIndex":17,"items":[{"name":"디자인 앤 타일","tel":"031-111-1111","addr":"경기도 안산시 단원구 와동 704-2번지 대림아트빌 A동 302호","indutype":"건축자재 - 인테리어전문","category":"other"}]},{"lat":"37.3426455242","long":"126.8211006362","imageIndex":17,"items":[{"name":"땡큐당구장","tel":"","addr":"경기도 안산시 단원구 와동 808-8번지","indutype":"협회 및 단체, 수리 및 기타 개인서","category":"other"},{"name":"불러죤노래연습장","tel":"","addr":"경기도 안산시 단원구 와동 808-8번지","indutype":"협회 및 단체, 수리 및 기타 개인서","category":"other"}]},{"lat":"37.334503223","long":"126.82901901","imageIndex":17,"items":[{"name":"라라","tel":"","addr":"경기도 안산시 단원구 와동 716-8번지 1층","indutype":"의류 - 정장","category":"other"},{"name":"미용하개","tel":"031-481-8253","addr":"경기도 안산시 단원구 와동 716-8번지","indutype":"문화.취미 - 애완동물","category":"other"}]},{"lat":"37.342526304","long":"126.81974671","imageIndex":17,"items":[{"name":"러브타임","tel":"070-7740-3743","addr":"경기도 안산시 단원구 와동 809-2번지","indutype":"의류 - 정장","category":"other"}]},{"lat":"37.346000103","long":"126.82293211","imageIndex":17,"items":[{"name":"러프카드","tel":"031-405-1240","addr":"경기도 안산시 단원구 와동 776-2번지 덕용맨션 502호","indutype":"사무통신 - 통신기기","category":"other"}]},{"lat":"37.335782713","long":"126.82904991","imageIndex":17,"items":[{"name":"레드통신","tel":"070-4090-5011","addr":"경기도 안산시 단원구 와동 715-5번지 101호","indutype":"사무통신 - 통신기기","category":"other"},{"name":"명품","tel":"031-475-4660","addr":"경기도 안산시 단원구 와동 715-5번지 1층 101,102호","indutype":"의류 - 정장","category":"other"},{"name":"진바이크 (JIN BIKE)","tel":"031-413-8283","addr":"경기도 안산시 단원구 와동 715-5번지 103호","indutype":"수리서비스 - 레져용품수리","category":"other"},{"name":"패션데이","tel":"031-401-1595","addr":"경기도 안산시 단원구 와동 715-5번지 101호","indutype":"의류 - 기타의류","category":"other"}]},{"lat":"37.333557623","long":"126.82330031","imageIndex":17,"items":[{"name":"로얄","tel":"031-502-5978","addr":"경기도 안산시 단원구 와동 734번지","indutype":"농업 - 비료,사료,종자","category":"other"},{"name":"신양공업","tel":"031-405-3456","addr":"경기도 안산시 단원구 와동 734번지","indutype":"기타 - 기타 전문점","category":"other"}]},{"lat":"37.338001607","long":"126.81871952","imageIndex":17,"items":[{"name":"로얄설비인테리어","tel":"031-480-3536","addr":"경기도 안산시 단원구 와동 819-16번지 1층 102호","indutype":"건축자재 - 인테리어전문","category":"other"},{"name":"청풍종합설비","tel":"031-413-3536","addr":"경기도 안산시 단원구 와동 819-16번지","indutype":"건축자재 - 인테리어전문","category":"other"}]},{"lat":"37.332785491","long":"126.81921746","imageIndex":17,"items":[{"name":"루디아지물장식","tel":"031-401-5595","addr":"경기도 안산시 단원구 와동 839-1번지 101호","indutype":"직물 - 카페트,커튼,천막,지물","category":"other"}]},{"lat":"37.3425599071","long":"126.8301063812","imageIndex":17,"items":[{"name":"룰루랄라헤어","tel":"070-8181-2540","addr":"경기도 안산시 단원구 와동 96-8번지","indutype":"협회 및 단체, 수리 및 기타 개인서","category":"other"}]},{"lat":"37.3320330015","long":"126.8220514616","imageIndex":17,"items":[{"name":"르노삼성자동차서비스코너 와동점","tel":"031-486-1771","addr":"경기도 안산시 단원구 와동 848번지","indutype":"협회 및 단체, 수리 및 기타 개인서","category":"other"}]},{"lat":"37.335558188","long":"126.82954693","imageIndex":17,"items":[{"name":"리온통신","tel":"031-481-8037","addr":"경기도 안산시 단원구 와동 707-19번지 1층","indutype":"사무통신 - 통신기기","category":"other"}]},{"lat":"37.341590105","long":"126.82030195","imageIndex":17,"items":[{"name":"린나이코리아(주)안산센터","tel":"031-487-8167","addr":"경기도 안산시 단원구 와동 812-10번지 3층","indutype":"수리서비스 - 가정용품수리","category":"other"}]},{"lat":"37.338115587","long":"126.82252211","imageIndex":17,"items":[{"name":"마스터식기세척기","tel":"031-486-8200","addr":"경기도 안산시 단원구 와동 747-3번지 301호","indutype":"수리서비스 - 기타수리서비스","category":"other"}]},{"lat":"37.3381462780","long":"126.8190464210","imageIndex":17,"items":[{"name":"마스터자동차","tel":"031-414-2681","addr":"경기도 안산시 단원구 와동 819-14번지","indutype":"협회 및 단체, 수리 및 기타 개인서","category":"other"},{"name":"산호건축설비","tel":"031-411-6949","addr":"경기도 안산시 단원구 와동 819-14번지","indutype":"건설업 - 일반건축","category":"other"}]},{"lat":"37.339916119","long":"126.82751695","imageIndex":17,"items":[{"name":"마싯개 멍멍","tel":"","addr":"경기도 안산시 단원구 와동 120번지 1층 8호","indutype":"문화.취미 - 애완동물","category":"other"},{"name":"새움인테리어","tel":"031-401-3688","addr":"경기도 안산시 단원구 와동 120번지 1층 32호","indutype":"건축자재 - 인테리어전문","category":"other"},{"name":"한국예술문화(Korea Art and Culture)","tel":"031-414-4140","addr":"경기도 안산시 단원구 와동 120번지 205호","indutype":"용역 서비스 - 종합용역","category":"other"},{"name":"호천불교사","tel":"031-482-1013","addr":"경기도 안산시 단원구 와동 120번지 38-2호","indutype":"신변잡화 - 기념품점","category":"other"}]},{"lat":"37.3327498007","long":"126.8194432163","imageIndex":17,"items":[{"name":"머리치장","tel":"031-401-8641","addr":"경기도 안산시 단원구 와동 838번지 화랑아트빌","indutype":"협회 및 단체, 수리 및 기타 개인서","category":"other"},{"name":"상하세탁소","tel":"031-411-7401","addr":"경기도 안산시 단원구 와동 838번지 화랑아트빌","indutype":"협회 및 단체, 수리 및 기타 개인서","category":"other"}]},{"lat":"37.341116305","long":"126.82274064","imageIndex":17,"items":[{"name":"멋","tel":"031-485-3263","addr":"경기도 안산시 단원구 와동 760번지 101호","indutype":"가구 - 기타가구","category":"other"}]},{"lat":"37.3411163051","long":"126.8227406354","imageIndex":17,"items":[{"name":"멋","tel":"031-485-3263","addr":"경기도 안산시 단원구 와동 760번지","indutype":"도매 및 소매업 - 인테리어소품","category":"other"},{"name":"하늘도시헤어샵","tel":"031-475-5388","addr":"경기도 안산시 단원구 와동 760번지","indutype":"협회 및 단체, 수리 및 기타 개인서","category":"other"}]},{"lat":"37.3437262362","long":"126.8207707573","imageIndex":17,"items":[{"name":"메종드헤어","tel":"031-410-2566","addr":"경기도 안산시 단원구 와동 804-10번지","indutype":"협회 및 단체, 수리 및 기타 개인서","category":"other"}]},{"lat":"37.332910481","long":"126.82435123","imageIndex":17,"items":[{"name":"면목ENG","tel":"","addr":"경기도 안산시 단원구 와동 723-1번지 보륭2차연립 4동 103호","indutype":"수리서비스 - 가정용품수리","category":"other"}]},{"lat":"37.3445006376","long":"126.8204641807","imageIndex":17,"items":[{"name":"명성세탁소","tel":"031-411-0004","addr":"경기도 안산시 단원구 와동 802-2번지","indutype":"협회 및 단체, 수리 및 기타 개인서","category":"other"},{"name":"명성세탁소","tel":"031-475-9339","addr":"경기도 안산시 단원구 와동 802-2번지","indutype":"협회 및 단체, 수리 및 기타 개인서","category":"other"}]},{"lat":"37.344500638","long":"126.82046418","imageIndex":17,"items":[{"name":"명성세탁소","tel":"031-411-0004","addr":"경기도 안산시 단원구 와동 802-2번지","indutype":"수리서비스 - 세탁소","category":"other"},{"name":"지성산업","tel":"031-414-7704","addr":"경기도 안산시 단원구 와동 802-2번지 1층","indutype":"건축자재 - 페인트","category":"other"}]},{"lat":"37.339195759","long":"126.82782331","imageIndex":17,"items":[{"name":"명조명","tel":"031-403-0113","addr":"경기도 안산시 단원구 와동 118-12번지 1층 일부","indutype":"건축자재 - 조명기구","category":"other"},{"name":"샛별광고","tel":"031-482-5544","addr":"경기도 안산시 단원구 와동 118-12번지","indutype":"용역 서비스 - 종합용역","category":"other"},{"name":"신명엔지니어링","tel":"031-414-4164","addr":"경기도 안산시 단원구 와동 118-12번지","indutype":"건축자재 - 보일러·펌프·샷시","category":"other"},{"name":"제이피테크놀로지스주식회사","tel":"031-484-8980","addr":"경기도 안산시 단원구 와동 118-12번지 2층","indutype":"기타 - 기타 전문점","category":"other"},{"name":"제이피테크놀로지스주식회사/원격지","tel":"031-484-8981","addr":"경기도 안산시 단원구 와동 118-12번지 2층","indutype":"기타 - 기타 전문점","category":"other"}]},{"lat":"37.343784075","long":"126.8232421","imageIndex":17,"items":[{"name":"명품청소","tel":"031-1600-7275","addr":"경기도 안산시 단원구 와동 858-3번지 401호","indutype":"용역 서비스 - 종합용역","category":"other"}]},{"lat":"37.341116563","long":"126.82290991","imageIndex":17,"items":[{"name":"모던","tel":"031-403-1017","addr":"경기도 안산시 단원구 와동 760-1번지 101호","indutype":"기타 - 기타 전문점","category":"other"},{"name":"세이퍼컴퓨터","tel":"031-482-7119","addr":"경기도 안산시 단원구 와동 760-1번지","indutype":"사무통신 - 컴퓨터","category":"other"},{"name":"준모바일","tel":"02-1111-1111","addr":"경기도 안산시 단원구 와동 760-1번지 102호","indutype":"사무통신 - 통신기기","category":"other"},{"name":"코디짱","tel":"031-481-9050","addr":"경기도 안산시 단원구 와동 760-1 1층상가(좌측101호)","indutype":"의류 - 정장","category":"other"}]},{"lat":"37.335702402","long":"126.817687","imageIndex":17,"items":[{"name":"모던","tel":"","addr":"경기도 안산시 단원구 와동 824-3번지 루미앙스 301호","indutype":"신변잡화 - 기타잡화","category":"other"}]},{"lat":"37.3411165627","long":"126.8229099086","imageIndex":17,"items":[{"name":"모던전자담배","tel":"031-403-1017","addr":"경기도 안산시 단원구 와동 760-1번지","indutype":"도매 및 소매업 - 기타","category":"other"},{"name":"준모바일","tel":"","addr":"경기도 안산시 단원구 와동 760-1번지","indutype":"도매 및 소매업 - 통신장비","category":"other"}]},{"lat":"37.332613597","long":"126.81876653","imageIndex":17,"items":[{"name":"모던컴퓨터","tel":"031-413-9114","addr":"경기도 안산시 단원구 와동 840-2번지","indutype":"사무통신 - 컴퓨터","category":"other"}]},{"lat":"37.3365840849","long":"126.8286869707","imageIndex":17,"items":[{"name":"모든카서비스","tel":"031-483-9862","addr":"경기도 안산시 단원구 와동 713-8번지","indutype":"협회 및 단체, 수리 및 기타 개인서","category":"other"}]},{"lat":"37.33200264","long":"126.81988509","imageIndex":17,"items":[{"name":"무지개시스템공조","tel":"031-482-0489","addr":"경기도 안산시 단원구 와동 837-5번지","indutype":"전기제품 - 가전제품","category":"other"}]},{"lat":"37.3469168605","long":"126.8214401991","imageIndex":17,"items":[{"name":"무진장카센타","tel":"031-410-9534","addr":"경기도 안산시 단원구 와동 793-9번지","indutype":"협회 및 단체, 수리 및 기타 개인서","category":"other"}]},{"lat":"37.338726982","long":"126.82765513","imageIndex":17,"items":[{"name":"문구팡","tel":"070-4178-2496","addr":"경기도 안산시 단원구 와동 115-5번지 2층","indutype":"서적문구 - 문구용품","category":"other"},{"name":"아이디 인테리어","tel":"031-402-0730","addr":"경기도 안산시 단원구 와동 115-5번지 동화제일속셈학원 102호","indutype":"건축자재 - 인테리어전문","category":"other"},{"name":"토루랜드","tel":"031-480-2496","addr":"경기도 안산시 단원구 와동 115-5번지","indutype":"서적문구 - 문구용품","category":"other"}]},{"lat":"37.342949308","long":"126.81944098","imageIndex":17,"items":[{"name":"미건엔지니어링","tel":"031-505-3306","addr":"경기도 안산시 단원구 와동 807-5번지 1층","indutype":"용역 서비스 - 기타용역서비스","category":"other"}]},{"lat":"37.331590062","long":"126.82707368","imageIndex":17,"items":[{"name":"미궁365스킨케어","tel":"031-482-5110","addr":"경기도 안산시 단원구 와동 682-12번지 2층 일부","indutype":"회원제형태 - 기타4","category":"other"}]},{"lat":"37.342312704","long":"126.82146256","imageIndex":17,"items":[{"name":"미니스톱 안산와동점","tel":"031-1577-9621","addr":"경기도 안산시 단원구 와동 769-25번지 1층","indutype":"유통업 영리 - 편 의 점","category":"other"}]},{"lat":"37.342200732","long":"126.81896883","imageIndex":17,"items":[{"name":"미니스톱 안산와동타운점","tel":"031-1577-9621","addr":"경기도 안산시 단원구 와동 810번지 통키치킨호프 1층 101호","indutype":"유통업 영리 - 편 의 점","category":"other"}]},{"lat":"37.343117677","long":"126.82951827","imageIndex":17,"items":[{"name":"미니스톱안산IC점","tel":"031-1577-9621","addr":"경기도 안산시 단원구 와동 95-18번지 진아타운 101동 103호","indutype":"유통업 영리 - 편 의 점","category":"other"}]},{"lat":"37.347282757","long":"126.81915958","imageIndex":17,"items":[{"name":"미니스톱안산화정점","tel":"031-1577-9621","addr":"경기도 안산시 단원구 와동 789-15번지 1층","indutype":"유통업 영리 - 편 의 점","category":"other"}]},{"lat":"37.331753899","long":"126.82819037","imageIndex":17,"items":[{"name":"미니스톱안산황금점","tel":"031-1577-9621","addr":"경기도 안산시 단원구 와동 681-4번지 1층","indutype":"유통업 영리 - 편 의 점","category":"other"}]},{"lat":"37.333917531","long":"126.82899779","imageIndex":17,"items":[{"name":"미니스톱와동스타점","tel":"031-1577-9621","addr":"경기도 안산시 단원구 와동 697번지 1층 101호","indutype":"유통업 영리 - 편 의 점","category":"other"}]},{"lat":"37.3414240036","long":"126.8236314128","imageIndex":17,"items":[{"name":"미덕정비","tel":"031-410-1988","addr":"경기도 안산시 단원구 와동 763-18번지","indutype":"협회 및 단체, 수리 및 기타 개인서","category":"other"}]},{"lat":"37.345004141","long":"126.81977455","imageIndex":17,"items":[{"name":"미라클컴퍼니","tel":"","addr":"경기도 안산시 단원구 와동 800-8번지","indutype":"서적문구 - 완구점","category":"other"}]},{"lat":"37.343417134","long":"126.81898843","imageIndex":17,"items":[{"name":"미래","tel":"031-401-0567","addr":"경기도 안산시 단원구 와동 806-4번지 상승빌리지 401호","indutype":"수리서비스 - 기타수리서비스","category":"other"}]},{"lat":"37.337971923","long":"126.82284971","imageIndex":17,"items":[{"name":"미래기획","tel":"031-494-0381","addr":"경기도 안산시 단원구 와동 745-3번지 101호","indutype":"용역 서비스 - 종합용역","category":"other"}]},{"lat":"37.3319246413","long":"126.8278853141","imageIndex":17,"items":[{"name":"미앤사람헤어","tel":"031-402-8020","addr":"경기도 안산시 단원구 와동 681-2번지","indutype":"협회 및 단체, 수리 및 기타 개인서","category":"other"}]},{"lat":"37.3360015136","long":"126.8307984531","imageIndex":17,"items":[{"name":"믿음세탁소","tel":"031-403-7447","addr":"경기도 안산시 단원구 와동 703번지","indutype":"협회 및 단체, 수리 및 기타 개인서","category":"other"},{"name":"바다광고기획","tel":"031-483-8757","addr":"경기도 안산시 단원구 와동 703번지","indutype":"협회 및 단체, 수리 및 기타 개인서","category":"other"}]},{"lat":"37.331950182","long":"126.82688102","imageIndex":17,"items":[{"name":"믿음텔레콤","tel":"031-403-6011","addr":"경기도 안산시 단원구 와동 721-7.101.102호","indutype":"사무통신 - 통신기기","category":"other"}]},{"lat":"37.337278032","long":"126.82879821","imageIndex":17,"items":[{"name":"바둑아놀자","tel":"031-410-9777","addr":"경기도 안산시 단원구 와동 709번지","indutype":"문화.취미 - 애완동물","category":"other"},{"name":"씨유안산와동로점","tel":"031-493-8334","addr":"경기도 안산시 단원구 와동 709번지 와동피아노교습소 101호","indutype":"유통업 영리 - 편 의 점","category":"other"}]},{"lat":"37.338646591","long":"126.82812926","imageIndex":17,"items":[{"name":"바둑아놀자","tel":"031-410-9777","addr":"경기도 안산시 단원구 와동 118-7번지","indutype":"문화.취미 - 애완동물","category":"other"},{"name":"크린앤청","tel":"031-405-1522","addr":"경기도 안산시 단원구 와동 118-7번지 103호","indutype":"용역 서비스 - 종합용역","category":"other"}]},{"lat":"37.33261653","long":"126.82660866","imageIndex":17,"items":[{"name":"바비바스","tel":"031-487-2999","addr":"경기도 안산시 단원구 와동 721-1번지 행복한집 303호","indutype":"용역 서비스 - 기타용역서비스","category":"other"}]},{"lat":"37.3416429619","long":"126.8195231530","imageIndex":17,"items":[{"name":"바이크세상","tel":"031-405-4075","addr":"경기도 안산시 단원구 와동 811-12번지","indutype":"도매 및 소매업 - 오토바이","category":"other"},{"name":"신화태권도체육관","tel":"031-482-5950","addr":"경기도 안산시 단원구 와동 811-12번지","indutype":"예술, 스포츠 및 여가관련 서비스업","category":"other"}]},{"lat":"37.342587605","long":"126.81860676","imageIndex":17,"items":[{"name":"반월기업","tel":"031-402-1439","addr":"경기도 안산시 단원구 와동 807-18번지 메르디앙","indutype":"기타 - 기계공구","category":"other"}]},{"lat":"37.343255425","long":"126.81929353","imageIndex":17,"items":[{"name":"백마건업","tel":"031-402-9106","addr":"경기도 안산시 단원구 와동 806-13번지","indutype":"건축자재 - 건축용 요업제품","category":"other"}]},{"lat":"37.343277738","long":"126.82208093","imageIndex":17,"items":[{"name":"백조세탁소","tel":"031-484-7514","addr":"경기도 안산시 단원구 와동 771-5번지","indutype":"수리서비스 - 세탁소","category":"other"}]},{"lat":"37.34280928","long":"126.82212719","imageIndex":17,"items":[{"name":"베스트OA","tel":"031-413-9653","addr":"경기도 안산시 단원구 와동 769-4번지 고산유터 303호","indutype":"수리서비스 - 사무·통신기기수리","category":"other"}]},{"lat":"37.3383061324","long":"126.8294390554","imageIndex":17,"items":[{"name":"베지밀안산중앙점","tel":"031-484-0366","addr":"경기도 안산시 단원구 와동 712-23번지","indutype":"도매 및 소매업 - 청량음료,화장품","category":"other"}]},{"lat":"37.3311388505","long":"126.8206544597","imageIndex":17,"items":[{"name":"보성자동차정비공업","tel":"031-401-8008","addr":"경기도 안산시 단원구 와동 847-15번지","indutype":"협회 및 단체, 수리 및 기타 개인서","category":"other"}]},{"lat":"37.339339914","long":"126.82183082","imageIndex":17,"items":[{"name":"보일러에어컨","tel":"031-747-3133","addr":"경기도 안산시 단원구 와동 753-14번지 102호","indutype":"수리서비스 - 기타수리서비스","category":"other"}]},{"lat":"37.336811354","long":"126.81813565","imageIndex":17,"items":[{"name":"보타이","tel":"031-405-9873","addr":"경기도 안산시 단원구 와동 823-2번지 마운틴빌 308호","indutype":"의류 - 정장","category":"other"}]},{"lat":"37.340284546","long":"126.82685029","imageIndex":17,"items":[{"name":"복권 사랑","tel":"031-000-0000","addr":"경기도 안산시 단원구 와동 112-8번지 1층 102호","indutype":"신변잡화 - 기타잡화","category":"other"}]},{"lat":"37.347081798","long":"126.82324553","imageIndex":17,"items":[{"name":"뷰티초이스","tel":"031-405-8255","addr":"경기도 안산시 단원구 와동 784-7 다세대주택 301 28/2","indutype":"회원제형태 - 기타1","category":"other"},{"name":"에띠임","tel":"070-4150-5894","addr":"경기도 안산시 단원구 와동 784-7번지 지담하이츠빌 302호","indutype":"의류 - 내의판매","category":"other"}]},{"lat":"37.334252703","long":"126.82415623","imageIndex":17,"items":[{"name":"브리스&시크마","tel":"031-507-2440","addr":"경기도 안산시 단원구 와동 732-6번지 103호","indutype":"의류 - 내의판매","category":"other"}]},{"lat":"37.334980214","long":"126.82263117","imageIndex":17,"items":[{"name":"브리스에이치(브리스H)","tel":"031-483-3060","addr":"경기도 안산시 단원구 와동 739-11번지","indutype":"의류 - 내의판매","category":"other"}]},{"lat":"37.340196135","long":"126.82799026","imageIndex":17,"items":[{"name":"브이테크","tel":"031-8041-4363","addr":"경기도 안산시 단원구 와동 121-1번지 다솜빌 402호","indutype":"수리서비스 - 기타수리서비스","category":"other"}]},{"lat":"37.335396657","long":"126.81807141","imageIndex":17,"items":[{"name":"블랙맨화이트","tel":"","addr":"경기도 안산시 단원구 와동 825-3번지 참조은빌 201호","indutype":"의류 - 정장","category":"other"}]},{"lat":"37.3343956812","long":"126.8294141946","imageIndex":17,"items":[{"name":"블레스PC방","tel":"070-5020-5326","addr":"경기도 안산시 단원구 와동 700-8번지","indutype":"협회 및 단체, 수리 및 기타 개인서","category":"other"}]},{"lat":"37.3416125830","long":"126.8232134198","imageIndex":17,"items":[{"name":"블링네일","tel":"","addr":"경기도 안산시 단원구 와동 764-12번지","indutype":"협회 및 단체, 수리 및 기타 개인서","category":"other"}]},{"lat":"37.331086614","long":"126.82783084","imageIndex":17,"items":[{"name":"블링블링슈","tel":"031-401-1888","addr":"경기도 안산시 단원구 와동 684-3번지","indutype":"신변잡화 - 신발","category":"other"}]},{"lat":"37.3387545964","long":"126.8280500224","imageIndex":17,"items":[{"name":"비치나안경","tel":"031-407-2544","addr":"경기도 안산시 단원구 와동 118-8번지","indutype":"도매 및 소매업 - 안경","category":"other"}]},{"lat":"37.337890306","long":"126.82851469","imageIndex":17,"items":[{"name":"빈티지","tel":"031-495-2337","addr":"경기도 안산시 단원구 와동 712-15번지 천용빌딩","indutype":"의류 - 기타의류","category":"other"},{"name":"피앤제이모바일","tel":"070-8944-9927","addr":"경기도 안산시 단원구 와동 712-15번지","indutype":"사무통신 - 통신기기","category":"other"}]},{"lat":"37.3438041479","long":"126.8187166407","imageIndex":17,"items":[{"name":"빛나리헤어","tel":"031-8283-0594","addr":"경기도 안산시 단원구 와동 806번지","indutype":"협회 및 단체, 수리 및 기타 개인서","category":"other"}]},{"lat":"37.347471707","long":"126.81898983","imageIndex":17,"items":[{"name":"빛바닥","tel":"","addr":"경기도 안산시 단원구 와동 789-17번지","indutype":"건축자재 - 조명기구","category":"other"},{"name":"펫하우스","tel":"02-6013-3366","addr":"경기도 안산시 단원구 와동 789-17번지 103호","indutype":"문화.취미 - 애완동물","category":"other"}]},{"lat":"37.340529793","long":"126.82818133","imageIndex":17,"items":[{"name":"사단법인 대한불교 천무종 태극신당","tel":"","addr":"경기도 안산시 단원구 와동 109-10번지 보라팰리스 402호","indutype":"기타 - 비영리/대상","category":"other"}]},{"lat":"37.3339472430","long":"126.8247437128","imageIndex":17,"items":[{"name":"사와트럭","tel":"031-484-6962","addr":"경기도 안산시 단원구 와동 728-8번지","indutype":"도매 및 소매업 - 푸드트럭","category":"other"}]},{"lat":"37.3426100900","long":"126.8214957017","imageIndex":17,"items":[{"name":"사이버카페 PC방","tel":"","addr":"경기도 안산시 단원구 와동 769-27번지","indutype":"협회 및 단체, 수리 및 기타 개인서","category":"other"}]},{"lat":"37.338146278","long":"126.81904642","imageIndex":17,"items":[{"name":"산호건축설비","tel":"031-413-6949","addr":"경기도 안산시 단원구 와동 819-14번지","indutype":"건축자재 - 보일러·펌프·샷시","category":"other"}]},{"lat":"37.341776852","long":"126.81871031","imageIndex":17,"items":[{"name":"삼광목재","tel":"031-401-0255","addr":"경기도 안산시 단원구 와동 811-18번지","indutype":"건축자재 - 기타건축자재","category":"other"},{"name":"주식회사 삼광목재","tel":"031-401-0255","addr":"경기도 안산시 단원구 와동 811-18번지","indutype":"건축자재 - 기타건축자재","category":"other"}]},{"lat":"37.332226126","long":"126.81874491","imageIndex":17,"items":[{"name":"삼삼종합공사","tel":"031-410-2400","addr":"경기도 안산시 단원구 와동 840-4번지 104호","indutype":"건축자재 - 인테리어전문","category":"other"}]},{"lat":"37.3415025180","long":"126.8219384796","imageIndex":17,"items":[{"name":"삼성 ENG","tel":"","addr":"경기도 안산시 단원구 와동 764-20번지","indutype":"도매 및 소매업 - 통신판매","category":"other"}]},{"lat":"37.345169277","long":"126.82169269","imageIndex":17,"items":[{"name":"삼성LG홈케어","tel":"070-8739-0071","addr":"경기도 안산시 단원구 와동 779번지 3층 302호","indutype":"회원제형태 - 기타4","category":"other"}]},{"lat":"37.33302975","long":"126.8257727","imageIndex":17,"items":[{"name":"삼성에어컨","tel":"070-7522-1753","addr":"경기도 안산시 단원구 와동 725-4번지","indutype":"용역 서비스 - 기타용역서비스","category":"other"}]},{"lat":"37.3349182199","long":"126.8293791411","imageIndex":17,"items":[{"name":"삼성철물건재","tel":"031-403-9533","addr":"경기도 안산시 단원구 와동 716-5번지","indutype":"도매 및 소매업 - 철물","category":"other"}]},{"lat":"37.33491822","long":"126.82937914","imageIndex":17,"items":[{"name":"삼성철물건재","tel":"031-403-9533","addr":"경기도 안산시 단원구 와동 716-5번지 1층","indutype":"건축자재 - 목재·석재·철물","category":"other"}]},{"lat":"37.342276923","long":"126.82163192","imageIndex":17,"items":[{"name":"삼일이엔지","tel":"","addr":"경기도 안산시 단원구 와동 769-24번지 빛나리하이수퍼마켓 302호","indutype":"용역 서비스 - 기타용역서비스","category":"other"}]},{"lat":"37.3326184884","long":"126.8219372218","imageIndex":17,"items":[{"name":"삼화모터스","tel":"031-486-5151","addr":"경기도 안산시 단원구 와동 830-6번지","indutype":"협회 및 단체, 수리 및 기타 개인서","category":"other"}]},{"lat":"37.3453610703","long":"126.8233850579","imageIndex":17,"items":[{"name":"상록엔젤이벤트","tel":"","addr":"경기도 안산시 단원구 와동 856-2번지","indutype":"협회 및 단체, 수리 및 기타 개인서","category":"other"}]},{"lat":"37.343824408","long":"126.82016111","imageIndex":17,"items":[{"name":"상록푸드 인쇄","tel":"031-495-2651","addr":"경기도 안산시 단원구 와동 804-6번지 한솔그린빌 B동 302호","indutype":"서적문구 - 출판 및 인쇄물","category":"other"}]},{"lat":"37.3415898789","long":"126.8201552415","imageIndex":17,"items":[{"name":"상일가구가전","tel":"031-414-8949","addr":"경기도 안산시 단원구 와동 812-11번지","indutype":"도매 및 소매업 - 가구,의류","category":"other"}]},{"lat":"37.341589879","long":"126.82015524","imageIndex":17,"items":[{"name":"상일가구가전","tel":"031-414-8949","addr":"경기도 안산시 단원구 와동 812-11번지 1층상가","indutype":"전기제품 - 가전제품","category":"other"}]},{"lat":"37.344783822","long":"126.82299144","imageIndex":17,"items":[{"name":"상지종합설비","tel":"031-520-1145","addr":"경기도 안산시 단원구 와동 775-2번지 101호","indutype":"용역 서비스 - 기타용역서비스","category":"other"}]},{"lat":"37.332749801","long":"126.81944322","imageIndex":17,"items":[{"name":"상하세탁소","tel":"031-411-7401","addr":"경기도 안산시 단원구 와동 838번지 화랑아트빌 102호","indutype":"수리서비스 - 세탁소","category":"other"}]},{"lat":"37.3449704488","long":"126.8212981709","imageIndex":17,"items":[{"name":"새로나","tel":"031-484-3202","addr":"경기도 안산시 단원구 와동 799-11번지","indutype":"도매 및 소매업 - 메리야스","category":"other"}]},{"lat":"37.344970449","long":"126.82129817","imageIndex":17,"items":[{"name":"새로나","tel":"031-484-3202","addr":"경기도 안산시 단원구 와동 799-11번지 상가 1층","indutype":"의류 - 내의판매","category":"other"}]},{"lat":"37.3391686348","long":"126.8217748092","imageIndex":17,"items":[{"name":"생활속에 사랑받는 명품할인점","tel":"","addr":"경기도 안산시 단원구 와동 753-13번지","indutype":"도매 및 소매업 - 가방,잡화","category":"other"}]},{"lat":"37.342360509","long":"126.82326806","imageIndex":17,"items":[{"name":"서진상사","tel":"031-495-7255","addr":"경기도 안산시 단원구 와동 768-8번지 101호","indutype":"신변잡화 - 기타잡화","category":"other"}]},{"lat":"37.3448328963","long":"126.8197411065","imageIndex":17,"items":[{"name":"서희미용실","tel":"031-410-3797","addr":"경기도 안산시 단원구 와동 800-11번지","indutype":"협회 및 단체, 수리 및 기타 개인서","category":"other"}]},{"lat":"37.341033473","long":"126.82160106","imageIndex":17,"items":[{"name":"선우","tel":"031-401-1195","addr":"경기도 안산시 단원구 와동 759-11번지 1층","indutype":"의류 - 정장","category":"other"}]},{"lat":"37.347282494","long":"126.81899029","imageIndex":17,"items":[{"name":"선호적재함","tel":"031-403-4590","addr":"경기도 안산시 단원구 와동 789-16번지 노블리안10차","indutype":"기타 - 기타 전문점","category":"other"},{"name":"신나천막","tel":"031-411-4400","addr":"경기도 안산시 단원구 와동 789-16번지 노블리안10차","indutype":"직물 - 카페트,커튼,천막,지물","category":"other"}]},{"lat":"37.3403130944","long":"126.8218849091","imageIndex":17,"items":[{"name":"성보자동차정비","tel":"031-485-7377","addr":"경기도 안산시 단원구 와동 758-12번지","indutype":"협회 및 단체, 수리 및 기타 개인서","category":"other"}]},{"lat":"37.341672576","long":"126.82716303","imageIndex":17,"items":[{"name":"성인상사","tel":"031-403-3370","addr":"경기도 안산시 단원구 와동 98-9번지","indutype":"기타 - 기타 전문점","category":"other"}]},{"lat":"37.34144916","long":"126.8284049","imageIndex":17,"items":[{"name":"성주종합공사","tel":"031-413-9134","addr":"경기도 안산시 단원구 와동 100-3번지 상가 1층","indutype":"용역 서비스 - 기타용역서비스","category":"other"}]},{"lat":"37.3440564665","long":"126.8187385952","imageIndex":17,"items":[{"name":"성한카써비스","tel":"031-402-6140","addr":"경기도 안산시 단원구 와동 801-17번지","indutype":"협회 및 단체, 수리 및 기타 개인서","category":"other"}]},{"lat":"37.3336123172","long":"126.8237176781","imageIndex":17,"items":[{"name":"세라미용실","tel":"031-414-5273","addr":"경기도 안산시 단원구 와동 726-9번지","indutype":"협회 및 단체, 수리 및 기타 개인서","category":"other"}]},{"lat":"37.346916601","long":"126.82127091","imageIndex":17,"items":[{"name":"세븐일레븐안산와동공원로점","tel":"","addr":"경기도 안산시 단원구 와동 793-8번지 101호","indutype":"유통업 영리 - 편 의 점","category":"other"}]},{"lat":"37.342060999","long":"126.82782794","imageIndex":17,"items":[{"name":"세븐일레븐안산와동새빛로점","tel":"031-1577-0711","addr":"경기도 안산시 단원구 와동 98번지 1층 세븐일레븐","indutype":"유통업 영리 - 편 의 점","category":"other"}]},{"lat":"37.341336048","long":"126.82505353","imageIndex":17,"items":[{"name":"세븐일레븐안산와동주민센터점","tel":"031-1577-0711","addr":"경기도 안산시 단원구 와동 763-10번지 1층 1호","indutype":"유통업 영리 - 편 의 점","category":"other"}]},{"lat":"37.331723238","long":"126.81982935","imageIndex":17,"items":[{"name":"세븐일레븐안산와동중앙점","tel":"","addr":"경기도 안산시 단원구 와동 836-5번지 101호","indutype":"유통업 영리 - 편 의 점","category":"other"}]},{"lat":"37.336946443","long":"126.83001768","imageIndex":17,"items":[{"name":"세븐일레븐안산와동초교점","tel":"031-1577-0711","addr":"경기도 안산시 단원구 와동 711-8번지 1층","indutype":"유통업 영리 - 편 의 점","category":"other"}]},{"lat":"37.344087318","long":"126.82121001","imageIndex":17,"items":[{"name":"세운유통","tel":"031-414-8837","addr":"경기도 안산시 단원구 와동 802-9번지","indutype":"유통업 영리 - 기타유통업","category":"other"},{"name":"오마이도그","tel":"","addr":"경기도 안산시 단원구 와동 802-9번지 1층 104호","indutype":"문화.취미 - 애완동물","category":"other"},{"name":"제이(JAY)","tel":"031-405-2205","addr":"경기도 안산시 단원구 와동 802-9번지 101호","indutype":"의류 - 정장","category":"other"}]},{"lat":"37.341638514","long":"126.82249112","imageIndex":17,"items":[{"name":"세진상사","tel":"070-8940-5045","addr":"경기도 안산시 단원구 와동 764-8번지 401호","indutype":"회원제형태 - 기타3","category":"other"}]},{"lat":"37.332999456","long":"126.8236063","imageIndex":17,"items":[{"name":"세풍냉동","tel":"","addr":"경기도 안산시 단원구 와동 723번지 토성연립 라동 101호","indutype":"수리서비스 - 기타수리서비스","category":"other"}]},{"lat":"37.341754041","long":"126.82144134","imageIndex":17,"items":[{"name":"소꼽친구","tel":"031-483-0159","addr":"경기도 안산시 단원구 와동 764-24번지","indutype":"의류 - 정장","category":"other"}]},{"lat":"37.3417540412","long":"126.8214413354","imageIndex":17,"items":[{"name":"소꿉친구","tel":"031-483-0159","addr":"경기도 안산시 단원구 와동 764-24번지","indutype":"도매 및 소매업 - 의류","category":"other"}]},{"lat":"37.3323364579","long":"126.8261015490","imageIndex":17,"items":[{"name":"소래수산","tel":"","addr":"경기도 안산시 단원구 와동 722-5번지 부자명가5차","indutype":"도매 및 소매업 - 농수산물","category":"other"}]},{"lat":"37.3413360481","long":"126.8250535259","imageIndex":17,"items":[{"name":"소망꽃식물원","tel":"031-402-5003","addr":"경기도 안산시 단원구 와동 763-10번지","indutype":"농업, 임업 및 어업 - 생화","category":"other"}]},{"lat":"37.341362824","long":"126.82488419","imageIndex":17,"items":[{"name":"소망꽃식물원","tel":"031-402-5003","addr":"경기도 안산시 단원구 와동 763-11번지 상가 3","indutype":"문화.취미 - 화원","category":"other"}]},{"lat":"37.3327503599","long":"126.8198042923","imageIndex":17,"items":[{"name":"소문난 떡 방앗간","tel":"031-485-7200","addr":"경기도 안산시 단원구 와동 837번지","indutype":"제조업 - 떡류","category":"other"}]},{"lat":"37.333504486","long":"126.82390976","imageIndex":17,"items":[{"name":"속옷나라","tel":"031-413-5896","addr":"경기도 안산시 단원구 와동 726-8번지","indutype":"의류 - 내의판매","category":"other"},{"name":"이레철물","tel":"031-410-2102","addr":"경기도 안산시 단원구 와동 726-8번지","indutype":"기타 - 기계공구","category":"other"}]},{"lat":"37.3414742693","long":"126.8271070652","imageIndex":17,"items":[{"name":"손미라미용실","tel":"031-486-4722","addr":"경기도 안산시 단원구 와동 98-6번지","indutype":"협회 및 단체, 수리 및 기타 개인서","category":"other"}]},{"lat":"37.331753307","long":"126.82180389","imageIndex":17,"items":[{"name":"솔이네특종","tel":"031-362-6001","addr":"경기도 안산시 단원구 와동 848-2번지","indutype":"수리서비스 - 기타수리서비스","category":"other"}]},{"lat":"37.3320862894","long":"126.8275238649","imageIndex":17,"items":[{"name":"수미정보통신","tel":"031-410-6068","addr":"경기도 안산시 단원구 와동 681번지","indutype":"도매 및 소매업 - 휴대폰판매","category":"other"}]},{"lat":"37.331921536","long":"126.82579787","imageIndex":17,"items":[{"name":"수미정보통신3호점","tel":"031-439-3995","addr":"경기도 안산시 단원구 와동 723-4번지 창동빌라2차 상가동 103,104호","indutype":"사무통신 - 통신기기","category":"other"},{"name":"예뻐질 개","tel":"031-411-3579","addr":"경기도 안산시 단원구 와동 723-4번지 창동빌라2차 상가동 1층 102호","indutype":"문화.취미 - 애완동물","category":"other"},{"name":"창동자전거","tel":"031-486-1120","addr":"경기도 안산시 단원구 와동 723-4번지 외1필지창동빌라2차상가 101호","indutype":"레져용품 - 스포츠·레져용품","category":"other"}]},{"lat":"37.345555552","long":"126.82093562","imageIndex":17,"items":[{"name":"수아","tel":"","addr":"경기도 안산시 단원구 와동 797-11번지 101호","indutype":"의류 - 정장","category":"other"}]},{"lat":"37.334917574","long":"126.82893907","imageIndex":17,"items":[{"name":"수재샵","tel":"031-483-3060","addr":"경기도 안산시 단원구 와동 717-1번지 303호","indutype":"직물 - 침구·수예점","category":"other"}]},{"lat":"37.3446656768","long":"126.8283297408","imageIndex":17,"items":[{"name":"수지유통","tel":"","addr":"경기도 안산시 단원구 와동 95-5번지","indutype":"도매 및 소매업 - 매점","category":"other"}]},{"lat":"37.3445008463","long":"126.8205996053","imageIndex":17,"items":[{"name":"수현모바일","tel":"","addr":"경기도 안산시 단원구 와동 802-3번지","indutype":"도매 및 소매업 - 휴대폰","category":"other"}]},{"lat":"37.342035284","long":"126.82871952","imageIndex":17,"items":[{"name":"수현테크","tel":"","addr":"경기도 안산시 단원구 와동 102-6번지 정원홈타운 401호","indutype":"사무통신 - 사무용 OA기기","category":"other"}]},{"lat":"37.3396993400","long":"126.8271563405","imageIndex":17,"items":[{"name":"스웨드크린","tel":"","addr":"경기도 안산시 단원구 와동 112-18번지","indutype":"협회 및 단체, 수리 및 기타 개인서","category":"other"}]},{"lat":"37.3414237470","long":"126.8234621389","imageIndex":17,"items":[{"name":"스타노래연습장","tel":"031-475-9688","addr":"경기도 안산시 단원구 와동 763-19번지","indutype":"협회 및 단체, 수리 및 기타 개인서","category":"other"},{"name":"엘림문화센터","tel":"031-403-2273","addr":"경기도 안산시 단원구 와동 763-19번지","indutype":"협회 및 단체, 수리 및 기타 개인서","category":"other"}]},{"lat":"37.3379473177","long":"126.8185729592","imageIndex":17,"items":[{"name":"스피드메이트와동점","tel":"031-485-2804","addr":"경기도 안산시 단원구 와동 819-17번지","indutype":"협회 및 단체, 수리 및 기타 개인서","category":"other"}]},{"lat":"37.340726294","long":"126.82701853","imageIndex":17,"items":[{"name":"승일전기철물","tel":"031-414-9940","addr":"경기도 안산시 단원구 와동 111-6번지","indutype":"건축자재 - 목재·석재·철물","category":"other"}]},{"lat":"37.3407262941","long":"126.8270185295","imageIndex":17,"items":[{"name":"승일철물","tel":"031-414-9940","addr":"경기도 안산시 단원구 와동 111-6번지","indutype":"도매 및 소매업 - 철물","category":"other"}]},{"lat":"37.3455561588","long":"126.8213306173","imageIndex":17,"items":[{"name":"시내산","tel":"031-401-0356","addr":"경기도 안산시 단원구 와동 794-10번지","indutype":"도매 및 소매업 - 휴대폰판매","category":"other"}]},{"lat":"37.345556159","long":"126.82133062","imageIndex":17,"items":[{"name":"시내산","tel":"031-401-0356","addr":"경기도 안산시 단원구 와동 794-10번지 1층","indutype":"사무통신 - 통신기기","category":"other"},{"name":"심도지물","tel":"031-411-0396","addr":"경기도 안산시 단원구 와동 794-10번지","indutype":"직물 - 카페트,커튼,천막,지물","category":"other"}]},{"lat":"37.338171063","long":"126.82949579","imageIndex":17,"items":[{"name":"신광기계건설","tel":"031-413-7243","addr":"경기도 안산시 단원구 와동 712-8번지 101호","indutype":"기타 - 기계공구","category":"other"}]},{"lat":"37.342645524","long":"126.82110064","imageIndex":17,"items":[{"name":"신길정보통신(와동점)","tel":"031-401-8273","addr":"경기도 안산시 단원구 와동 808-8번지 101호","indutype":"사무통신 - 통신기기","category":"other"}]},{"lat":"37.3445271628","long":"126.8201368391","imageIndex":17,"items":[{"name":"신명주헤어","tel":"031-401-9126","addr":"경기도 안산시 단원구 와동 802번지","indutype":"협회 및 단체, 수리 및 기타 개인서","category":"other"},{"name":"청정고기","tel":"031-485-6233","addr":"경기도 안산시 단원구 와동 802번지","indutype":"도매 및 소매업 - 식육","category":"other"}]},{"lat":"37.3390871530","long":"126.8274963053","imageIndex":17,"items":[{"name":"신성이불","tel":"","addr":"경기도 안산시 단원구 와동 115-1번지","indutype":"도매 및 소매업 - 커튼 침구","category":"other"}]},{"lat":"37.339087153","long":"126.82749631","imageIndex":17,"items":[{"name":"신성이불","tel":"031-413-9807","addr":"경기도 안산시 단원구 와동 115-1번지","indutype":"직물 - 침구·수예점","category":"other"}]},{"lat":"37.3398343746","long":"126.8270770328","imageIndex":17,"items":[{"name":"신세기이용원","tel":"","addr":"경기도 안산시 단원구 와동 112-17번지","indutype":"협회 및 단체, 수리 및 기타 개인서","category":"other"}]},{"lat":"37.3319779559","long":"126.8214084310","imageIndex":17,"items":[{"name":"신세일세차장","tel":"031-484-3226","addr":"경기도 안산시 단원구 와동 831-2번지","indutype":"협회 및 단체, 수리 및 기타 개인서","category":"other"}]},{"lat":"37.341590314","long":"126.82043737","imageIndex":17,"items":[{"name":"신영지물인테리어","tel":"031-487-0022","addr":"경기도 안산시 단원구 와동 812-9번지 1층","indutype":"건축자재 - 인테리어전문","category":"other"}]},{"lat":"37.334335188","long":"126.82508131","imageIndex":17,"items":[{"name":"신우ENG","tel":"","addr":"경기도 안산시 단원구 와동 729-8번지 B102호","indutype":"용역 서비스 - 기타용역서비스","category":"other"}]},{"lat":"37.33770061","long":"126.82818788","imageIndex":17,"items":[{"name":"신우전자","tel":"031-410-6755","addr":"경기도 안산시 단원구 와동 713-1번지 3층","indutype":"전기제품 - 가전제품","category":"other"}]},{"lat":"37.3316391641","long":"126.8179113605","imageIndex":17,"items":[{"name":"신현대상사","tel":"031-410-4563","addr":"경기도 안산시 단원구 와동 845-15번지","indutype":"협회 및 단체, 수리 및 기타 개인서","category":"other"}]},{"lat":"37.3317827967","long":"126.8175725027","imageIndex":17,"items":[{"name":"신흥카센터","tel":"031-402-0048","addr":"경기도 안산시 단원구 와동 845-17번지","indutype":"협회 및 단체, 수리 및 기타 개인서","category":"other"}]},{"lat":"37.332447096","long":"126.82779383","imageIndex":17,"items":[{"name":"쎄븐노래뮤비방","tel":"031-401-6638","addr":"경기도 안산시 단원구 와동 679-8번지 지층","indutype":"용역 서비스 - 종합용역","category":"other"}]},{"lat":"37.3315870896","long":"126.8191865229","imageIndex":17,"items":[{"name":"씨에이(C.A)스포츠","tel":"","addr":"경기도 안산시 단원구 와동 836-10번지","indutype":"도매 및 소매업 - 스포츠의류용품","category":"other"},{"name":"채움문구","tel":"031-475-8985","addr":"경기도 안산시 단원구 와동 836-10번지","indutype":"도매 및 소매업 - 문구","category":"other"},{"name":"품태권도","tel":"031-411-9870","addr":"경기도 안산시 단원구 와동 836-10번지","indutype":"교육서비스업 - 태권도","category":"other"}]},{"lat":"37.332700596","long":"126.82260276","imageIndex":17,"items":[{"name":"씨유SK중앙주유소점","tel":"031-486-7547","addr":"경기도 안산시 단원구 와동 852번지","indutype":"유통업 영리 - 편 의 점","category":"other"}]},{"lat":"37.344921544","long":"126.8188042","imageIndex":17,"items":[{"name":"씨유안산와동국산점","tel":"080-080-3663","addr":"경기도 안산시 단원구 와동 800-17번지 1층 101, 102호","indutype":"유통업 영리 - 편 의 점","category":"other"}]},{"lat":"37.345339274","long":"126.82091357","imageIndex":17,"items":[{"name":"씨유안산와동미래점","tel":"031-485-9585","addr":"경기도 안산시 단원구 와동 798-10번지 1층","indutype":"유통업 영리 - 편 의 점","category":"other"}]},{"lat":"37.338979508","long":"126.82183169","imageIndex":17,"items":[{"name":"씨유안산와동이랑점","tel":"031-485-5557","addr":"경기도 안산시 단원구 와동 753-5번지 파란꿈미술학원 102호","indutype":"유통업 영리 - 편 의 점","category":"other"}]},{"lat":"37.332338858","long":"126.8277151","imageIndex":17,"items":[{"name":"씨유안산와동점","tel":"031-475-6967","addr":"경기도 안산시 단원구 와동 679-7번지","indutype":"유통업 영리 - 편 의 점","category":"other"}]},{"lat":"37.332419418","long":"126.8213848","imageIndex":17,"items":[{"name":"씨유안산와동제일점","tel":"031-402-0265","addr":"경기도 안산시 단원구 와동 832-1번지 1층","indutype":"유통업 영리 - 편 의 점","category":"other"}]},{"lat":"37.334864969","long":"126.82993218","imageIndex":17,"items":[{"name":"씨유안산와동중앙점","tel":"031-413-8858","addr":"경기도 안산시 단원구 와동 694-10번지 서원 1층 101호","indutype":"유통업 영리 - 편 의 점","category":"other"}]},{"lat":"37.342923169","long":"126.82001659","imageIndex":17,"items":[{"name":"씨유안산와동타운점","tel":"031-898-6568","addr":"경기도 안산시 단원구 와동 808번지 에덴교회 101호","indutype":"유통업 영리 - 편 의 점","category":"other"}]},{"lat":"37.333971833","long":"126.82313006","imageIndex":17,"items":[{"name":"씨유안산와동효자점","tel":"031-486-6710","addr":"경기도 안산시 단원구 와동 733-2 1층(101호),지하1층","indutype":"유통업 영리 - 편 의 점","category":"other"}]},{"lat":"37.3383362263","long":"126.8195199072","imageIndex":17,"items":[{"name":"씨유안산체육공원점","tel":"","addr":"경기도 안산시 단원구 와동 819-11번지","indutype":"도매 및 소매업 - 안경","category":"other"}]},{"lat":"37.338336226","long":"126.81951991","imageIndex":17,"items":[{"name":"씨유안산체육공원점","tel":"080-080-3663","addr":"경기도 안산시 단원구 와동 819-11번지 1층 102호","indutype":"유통업 영리 - 편 의 점","category":"other"}]},{"lat":"37.338500517","long":"126.82088494","imageIndex":17,"items":[{"name":"아름","tel":"","addr":"경기도 안산시 단원구 와동 752번지","indutype":"용역 서비스 - 기타용역서비스","category":"other"},{"name":"이마트24 R안산와동공원점","tel":"","addr":"경기도 안산시 단원구 와동 752번지 1층","indutype":"유통업 영리 - 편 의 점","category":"other"}]},{"lat":"37.331837387","long":"126.81791087","imageIndex":17,"items":[{"name":"아름창디자인","tel":"070-7383-2627","addr":"경기도 안산시 단원구 와동 845-4번지","indutype":"직물 - 카페트,커튼,천막,지물","category":"other"}]},{"lat":"37.3368104822","long":"126.8294650630","imageIndex":17,"items":[{"name":"아이리스헤어샵","tel":"031-483-7710","addr":"경기도 안산시 단원구 와동 711-11번지 행복하우스","indutype":"협회 및 단체, 수리 및 기타 개인서","category":"other"}]},{"lat":"37.3428083474","long":"126.8215177952","imageIndex":17,"items":[{"name":"아이마트안경원","tel":"031-486-4222","addr":"경기도 안산시 단원구 와동 769번지","indutype":"도매 및 소매업 - 안경","category":"other"}]},{"lat":"37.3319780338","long":"126.8274338481","imageIndex":17,"items":[{"name":"아이미안경","tel":"031-482-2522","addr":"경기도 안산시 단원구 와동 681-13번지","indutype":"도매 및 소매업 - 안경","category":"other"}]},{"lat":"37.332502971","long":"126.81716452","imageIndex":17,"items":[{"name":"아이비컴퓨터","tel":"031-494-8511","addr":"경기도 안산시 단원구 와동 844-6번지 102호 , 상가","indutype":"사무통신 - 컴퓨터","category":"other"}]},{"lat":"37.3325029712","long":"126.8171645231","imageIndex":17,"items":[{"name":"아이비컴퓨터","tel":"031-494-8511","addr":"경기도 안산시 단원구 와동 844-6번지","indutype":"도매 및 소매업 - 컴퓨터및 주변기기","category":"other"}]},{"lat":"37.341169178","long":"126.82196185","imageIndex":17,"items":[{"name":"아이앤아이","tel":"031-405-9117","addr":"경기도 안산시 단원구 와동 759-2번지 오성천막 101호","indutype":"의류 - 정장","category":"other"}]},{"lat":"37.339528281","long":"126.82724702","imageIndex":17,"items":[{"name":"아쿠아정수기","tel":"031-483-1358","addr":"경기도 안산시 단원구 와동 112-22번지 1층","indutype":"주방용구 - 정수기","category":"other"},{"name":"이레열쇠","tel":"031-410-1313","addr":"경기도 안산시 단원구 와동 112-22번지 1층","indutype":"건축자재 - 목재·석재·철물","category":"other"},{"name":"홈스티치","tel":"031-439-5131","addr":"경기도 안산시 단원구 와동 112-22번지 102호","indutype":"직물 - 침구·수예점","category":"other"}]},{"lat":"37.341423747","long":"126.82346214","imageIndex":17,"items":[{"name":"안산 만물사","tel":"031-401-1060","addr":"경기도 안산시 단원구 와동 763-19번지 2층","indutype":"신변잡화 - 기념품점","category":"other"},{"name":"엘림문화센터","tel":"031-403-2273","addr":"경기도 안산시 단원구 와동 763-19번지 104호","indutype":"문화.취미 - 문화취미기타","category":"other"}]},{"lat":"37.346306293","long":"126.82282981","imageIndex":17,"items":[{"name":"안산누수탐지공사","tel":"031-439-3009","addr":"경기도 안산시 단원구 와동 782-6번지 1층 102호","indutype":"건축자재 - 보일러·펌프·샷시","category":"other"}]},{"lat":"37.3463062930","long":"126.8228298088","imageIndex":17,"items":[{"name":"안산누수탐지공사","tel":"031-403-3066","addr":"경기도 안산시 단원구 와동 782-6번지","indutype":"건설업 - 냉난방기","category":"other"},{"name":"지니헤어","tel":"070-8232-3587","addr":"경기도 안산시 단원구 와동 782-6번지","indutype":"협회 및 단체, 수리 및 기타 개인서","category":"other"}]},{"lat":"37.3416425244","long":"126.8192410291","imageIndex":17,"items":[{"name":"안산대리점","tel":"031-402-0855","addr":"경기도 안산시 단원구 와동 811-14번지","indutype":"도매 및 소매업 - 자전거","category":"other"}]},{"lat":"37.341642524","long":"126.81924103","imageIndex":17,"items":[{"name":"안산대리점","tel":"031-402-0855","addr":"경기도 안산시 단원구 와동 811-14번지","indutype":"레져용품 - 스포츠·레져용품","category":"other"}]},{"lat":"37.345831689","long":"126.81888097","imageIndex":17,"items":[{"name":"안산서울벽지","tel":"031-413-6388","addr":"경기도 안산시 단원구 와동 796-18번지","indutype":"직물 - 카페트,커튼,천막,지물","category":"other"}]},{"lat":"37.331643013","long":"126.82632884","imageIndex":17,"items":[{"name":"안산스포츠","tel":"031-413-7618","addr":"경기도 안산시 단원구 와동 723-5번지 창동 상가 108호","indutype":"레져용품 - 스포츠·레져용품","category":"other"}]},{"lat":"37.3316430135","long":"126.8263288439","imageIndex":17,"items":[{"name":"안산스프츠","tel":"031-413-7618","addr":"경기도 안산시 단원구 와동 723-5번지","indutype":"도매 및 소매업 - 스포츠의류","category":"other"}]},{"lat":"37.340501326","long":"126.8272109","imageIndex":17,"items":[{"name":"안산시 와동종합사회복지관","tel":"031-475-4321","addr":"경기도 안산시 단원구 와동 111-4번지","indutype":"문화.취미 - 문화취미기타","category":"other"},{"name":"안산시와동종합사회복지관","tel":"031-475-4321","addr":"경기도 안산시 단원구 와동 111-4번지","indutype":"문화.취미 - 문화취미기타","category":"other"}]},{"lat":"37.3336115834","long":"126.8292693082","imageIndex":17,"items":[{"name":"안산시니어클럽 건강미누룽지","tel":"031-402-4564","addr":"경기도 안산시 단원구 와동 696번지","indutype":"제조업 - 누룽지,식료,잡화외","category":"other"}]},{"lat":"37.335891365","long":"126.82941076","imageIndex":17,"items":[{"name":"안산에어컨","tel":"031-486-6669","addr":"경기도 안산시 단원구 와동 708-6번지 1층","indutype":"전기제품 - 가전제품","category":"other"}]},{"lat":"37.337811655","long":"126.81824604","imageIndex":17,"items":[{"name":"안산유리샷시","tel":"031-494-1779","addr":"경기도 안산시 단원구 와동 819-19번지 1층","indutype":"건축자재 - 유리","category":"other"}]},{"lat":"37.343352089","long":"126.8296193","imageIndex":17,"items":[{"name":"안산자동차키안산차키분실정왕동열쇠대광열","tel":"031-111-1111","addr":"경기도 안산시 단원구 와동 95번지 진아타운 107동 101호","indutype":"건축자재 - 목재·석재·철물","category":"other"},{"name":"에띠임","tel":"070-4150-5894","addr":"경기도 안산시 단원구 와동 95번지 진아타운 107동 802호","indutype":"의류 - 내의판매","category":"other"}]},{"lat":"37.341005407","long":"126.82688246","imageIndex":17,"items":[{"name":"안산재활용","tel":"031-485-3122","addr":"경기도 안산시 단원구 와동 111-8번지","indutype":"전기제품 - 가전제품","category":"other"}]},{"lat":"37.3463068763","long":"126.8232135211","imageIndex":17,"items":[{"name":"안산제경유리","tel":"031-410-6268","addr":"경기도 안산시 단원구 와동 782-4번지","indutype":"제조업 - 유리","category":"other"}]},{"lat":"37.346306876","long":"126.82321352","imageIndex":17,"items":[{"name":"안산제경유리","tel":"031-410-7293","addr":"경기도 안산시 단원구 와동 782-4번지","indutype":"건축자재 - 유리","category":"other"}]},{"lat":"37.3330598030","long":"126.8278036950","imageIndex":17,"items":[{"name":"안산종합상사카써비스","tel":"031-482-4989","addr":"경기도 안산시 단원구 와동 719-3번지","indutype":"협회 및 단체, 수리 및 기타 개인서","category":"other"}]},{"lat":"37.346583434","long":"126.82140714","imageIndex":17,"items":[{"name":"안산철물전기","tel":"031-403-1500","addr":"경기도 안산시 단원구 와동 793-11번지 1층 102호","indutype":"건축자재 - 목재·석재·철물","category":"other"}]},{"lat":"37.3416684842","long":"126.8185525808","imageIndex":17,"items":[{"name":"안산컴","tel":"031-413-0807","addr":"경기도 안산시 단원구 와동 811-19번지","indutype":"협회 및 단체, 수리 및 기타 개인서","category":"other"}]},{"lat":"37.3432769259","long":"126.8215505240","imageIndex":17,"items":[{"name":"앗싸노래연습장","tel":"","addr":"경기도 안산시 단원구 와동 771-10번지","indutype":"협회 및 단체, 수리 및 기타 개인서","category":"other"}]},{"lat":"37.3312010339","long":"126.8200788543","imageIndex":17,"items":[{"name":"애니카랜드와동점","tel":"031-402-2757","addr":"경기도 안산시 단원구 와동 847-12번지","indutype":"협회 및 단체, 수리 및 기타 개인서","category":"other"}]},{"lat":"37.3419516576","long":"126.8210458835","imageIndex":17,"items":[{"name":"애모노래연습장","tel":"031-401-1603","addr":"경기도 안산시 단원구 와동 812-2번지","indutype":"협회 및 단체, 수리 및 기타 개인서","category":"other"}]},{"lat":"37.3316396399","long":"126.8182160139","imageIndex":17,"items":[{"name":"앨리해법영어교습소","tel":"031-414-9510","addr":"경기도 안산시 단원구 와동 845-13번지","indutype":"교육서비스업 - 교습소","category":"other"}]},{"lat":"37.3435286554","long":"126.8211887898","imageIndex":17,"items":[{"name":"에덴홈패션","tel":"031-401-8567","addr":"경기도 안산시 단원구 와동 805-2번지","indutype":"도매 및 소매업 - 커튼 수예","category":"other"}]},{"lat":"37.346030648","long":"126.81935449","imageIndex":17,"items":[{"name":"에띠임","tel":"070-4150-5894","addr":"경기도 안산시 단원구 와동 796-12번지 동신타운 401호","indutype":"의류 - 내의판매","category":"other"}]},{"lat":"37.346140184","long":"126.82026836","imageIndex":17,"items":[{"name":"에띠임","tel":"031-410-1676","addr":"경기도 안산시 단원구 와동 794번지 1층","indutype":"의류 - 내의판매","category":"other"},{"name":"영진세탁소","tel":"031-410-6950","addr":"경기도 안산시 단원구 와동 794번지 103호","indutype":"수리서비스 - 세탁소","category":"other"}]},{"lat":"37.339973454","long":"126.82973991","imageIndex":17,"items":[{"name":"에띠임","tel":"070-4150-5894","addr":"경기도 안산시 단원구 와동 262번지 삼익아트빌3차 102호","indutype":"의류 - 내의판매","category":"other"}]},{"lat":"37.3447804730","long":"126.8208020678","imageIndex":17,"items":[{"name":"에스엠","tel":"","addr":"경기도 안산시 단원구 와동 799-15번지","indutype":"도매 및 소매업 - 의류","category":"other"},{"name":"희야샵","tel":"031-410-1987","addr":"경기도 안산시 단원구 와동 799-15번지","indutype":"협회 및 단체, 수리 및 기타 개인서","category":"other"}]},{"lat":"37.336026979","long":"126.81782161","imageIndex":17,"items":[{"name":"에스엠 ENG","tel":"","addr":"경기도 안산시 단원구 와동 822-6번지","indutype":"전기제품 - 냉열기기","category":"other"},{"name":"한영채널","tel":"031-437-0609","addr":"경기도 안산시 단원구 와동 822-6번지 4층","indutype":"용역 서비스 - 기타용역서비스","category":"other"}]},{"lat":"37.343589796","long":"126.81993598","imageIndex":17,"items":[{"name":"에스피(SP)테크","tel":"031-439-1008","addr":"경기도 안산시 단원구 와동 804-16번지","indutype":"기타 - 기계공구","category":"other"}]},{"lat":"37.346838525","long":"126.82324611","imageIndex":17,"items":[{"name":"에프에이주","tel":"031-484-7055","addr":"경기도 안산시 단원구 와동 783-6번지 1층 상가호","indutype":"사무통신 - 컴퓨터","category":"other"}]},{"lat":"37.341612583","long":"126.82321342","imageIndex":17,"items":[{"name":"엔젤옷장","tel":"031-401-1353","addr":"경기도 안산시 단원구 와동 764-12번지 101호","indutype":"의류 - 정장","category":"other"}]},{"lat":"37.3385005169","long":"126.8208849357","imageIndex":17,"items":[{"name":"엔젤코코","tel":"031-401-3345","addr":"경기도 안산시 단원구 와동 752번지","indutype":"협회 및 단체, 수리 및 기타 개인서","category":"other"}]},{"lat":"37.33183362","long":"126.82726493","imageIndex":17,"items":[{"name":"엔진모바일","tel":"031-410-6069","addr":"경기도 안산시 단원구 와동 682번지 1층","indutype":"사무통신 - 통신기기","category":"other"}]},{"lat":"37.3389737864","long":"126.8181303517","imageIndex":17,"items":[{"name":"엔진소리 선부점","tel":"031-483-8494","addr":"경기도 안산시 단원구 와동 814-6번지","indutype":"협회 및 단체, 수리 및 기타 개인서","category":"other"}]},{"lat":"37.332448163","long":"126.82851598","imageIndex":17,"items":[{"name":"엘에이상사","tel":"031-403-0970","addr":"경기도 안산시 단원구 와동 680-1번지 삼성하이빌 104호","indutype":"의류 - 기타의류","category":"other"}]},{"lat":"37.339168635","long":"126.82177481","imageIndex":17,"items":[{"name":"엠에스네트워크","tel":"031-405-0346","addr":"경기도 안산시 단원구 와동 753-13번지 101호","indutype":"용역 서비스 - 기타용역서비스","category":"other"},{"name":"예은 종합공사","tel":"031-401-2298","addr":"경기도 안산시 단원구 와동 753-13번지 101동","indutype":"건축자재 - 인테리어전문","category":"other"}]},{"lat":"37.341804759","long":"126.81927449","imageIndex":17,"items":[{"name":"영''s창","tel":"","addr":"경기도 안산시 단원구 와동 811-7번지 1층 102호","indutype":"용역 서비스 - 기타용역서비스","category":"other"}]},{"lat":"37.3316179122","long":"126.8276265051","imageIndex":17,"items":[{"name":"영헤어","tel":"","addr":"경기도 안산시 단원구 와동 683번지","indutype":"협회 및 단체, 수리 및 기타 개인서","category":"other"}]},{"lat":"37.343339391","long":"126.82115539","imageIndex":17,"items":[{"name":"예가","tel":"031-401-8977","addr":"경기도 안산시 단원구 와동 805-3번지 104호","indutype":"건축자재 - 인테리어전문","category":"other"}]},{"lat":"37.341585981","long":"126.82349561","imageIndex":17,"items":[{"name":"예뻐질개","tel":"031-000-0000","addr":"경기도 안산시 단원구 와동 763번지","indutype":"문화.취미 - 애완동물","category":"other"},{"name":"이뻐질개","tel":"031-520-5011","addr":"경기도 안산시 단원구 와동 763번지 1층","indutype":"문화.취미 - 애완동물","category":"other"},{"name":"이뻐질개","tel":"031-520-5011","addr":"경기도 안산시 단원구 와동 763번지","indutype":"문화.취미 - 애완동물","category":"other"},{"name":"하나종합인테리어","tel":"031-410-8027","addr":"경기도 안산시 단원구 와동 763번지","indutype":"건축자재 - 인테리어전문","category":"other"}]},{"lat":"37.3328118201","long":"126.8187660449","imageIndex":17,"items":[{"name":"예쁜여자멋진남자","tel":"031-401-1554","addr":"경기도 안산시 단원구 와동 840-1번지","indutype":"협회 및 단체, 수리 및 기타 개인서","category":"other"}]},{"lat":"37.340945628","long":"126.82307959","imageIndex":17,"items":[{"name":"예스앤텍(YES&TECH)","tel":"031-495-9306","addr":"경기도 안산시 단원구 와동 760-11번지 101호","indutype":"용역 서비스 - 사무서비스","category":"other"}]},{"lat":"37.3325870402","long":"126.8190712518","imageIndex":17,"items":[{"name":"예은헤어샵","tel":"031-402-8752","addr":"경기도 안산시 단원구 와동 839-9번지","indutype":"협회 및 단체, 수리 및 기타 개인서","category":"other"}]},{"lat":"37.3335044858","long":"126.8239097584","imageIndex":17,"items":[{"name":"오땡큐천연염색전문점","tel":"031-403-1844","addr":"경기도 안산시 단원구 와동 726-8번지","indutype":"도매 및 소매업 - 화장품","category":"other"}]},{"lat":"37.341115385","long":"126.82813483","imageIndex":17,"items":[{"name":"오뚜기지물장식","tel":"031-904-1396","addr":"경기도 안산시 단원구 와동 107-7번지 302호 다세대주택","indutype":"건축자재 - 인테리어전문","category":"other"}]},{"lat":"37.342443443","long":"126.81860711","imageIndex":17,"items":[{"name":"오성전기전파사","tel":"031-407-8666","addr":"경기도 안산시 단원구 와동 807-17번지 일호빌리지 상가 101호","indutype":"수리서비스 - 가정용품수리","category":"other"}]},{"lat":"37.3319448202","long":"126.8174705528","imageIndex":17,"items":[{"name":"오테이모터무역","tel":"","addr":"경기도 안산시 단원구 와동 845-18번지","indutype":"협회 및 단체, 수리 및 기타 개인서","category":"other"}]},{"lat":"37.342500477","long":"126.82052544","imageIndex":17,"items":[{"name":"옥토","tel":"031-411-3827","addr":"경기도 안산시 단원구 와동 809-7번지 202호","indutype":"회원제형태 - 기타1","category":"other"}]},{"lat":"37.3415847609","long":"126.8287092763","imageIndex":17,"items":[{"name":"온누리익스프레스","tel":"031-405-2477","addr":"경기도 안산시 단원구 와동 106-6번지","indutype":"운수업 - 화물운송","category":"other"}]},{"lat":"37.3307525365","long":"126.8273577143","imageIndex":17,"items":[{"name":"올스타","tel":"031-413-4227","addr":"경기도 안산시 단원구 와동 685-7번지","indutype":"도매 및 소매업 - 낚시용품","category":"other"}]},{"lat":"37.330752537","long":"126.82735771","imageIndex":17,"items":[{"name":"올스타","tel":"031-413-4227","addr":"경기도 안산시 단원구 와동 685-7번지","indutype":"레져용품 - 스포츠·레져용품","category":"other"},{"name":"허킨스","tel":"031-401-9114","addr":"경기도 안산시 단원구 와동 685-7번지","indutype":"수리서비스 - 기타수리서비스","category":"other"}]},{"lat":"37.3329252126","long":"126.8221847274","imageIndex":17,"items":[{"name":"옵티마인성약국","tel":"031-484-3162","addr":"경기도 안산시 단원구 와동 830-4번지","indutype":"도매 및 소매업 - 의약품및의료용품","category":"other"}]},{"lat":"37.332480249","long":"126.82585297","imageIndex":17,"items":[{"name":"옷이날개","tel":"031-402-8922","addr":"경기도 안산시 단원구 와동 724-5 상가1층 3","indutype":"의류 - 정장","category":"other"}]},{"lat":"37.347168537","long":"126.82104459","imageIndex":17,"items":[{"name":"와동라반데리아","tel":"031-485-5278","addr":"경기도 안산시 단원구 와동 790-11번지 1층 2호","indutype":"수리서비스 - 세탁소","category":"other"}]},{"lat":"37.3471685374","long":"126.8210445896","imageIndex":17,"items":[{"name":"와동라반데리아","tel":"031-485-5278","addr":"경기도 안산시 단원구 와동 790-11번지","indutype":"협회 및 단체, 수리 및 기타 개인서","category":"other"}]},{"lat":"37.343167956","long":"126.82099781","imageIndex":17,"items":[{"name":"와동유통","tel":"031-411-9327","addr":"경기도 안산시 단원구 와동 805-5","indutype":"기타 - 기타 전문점","category":"other"}]},{"lat":"37.335557576","long":"126.82912942","imageIndex":17,"items":[{"name":"와동인테리어","tel":"031-414-0128","addr":"경기도 안산시 단원구 와동 716-1번지 1층 12호 110 12-2 27호","indutype":"건축자재 - 인테리어전문","category":"other"},{"name":"해피통신","tel":"070-8757-5987","addr":"경기도 안산시 단원구 와동 716-1번지 102호","indutype":"사무통신 - 통신기기","category":"other"}]},{"lat":"37.3360831623","long":"126.8311819285","imageIndex":17,"items":[{"name":"와동재능태권도체육관","tel":"031-405-6638","addr":"경기도 안산시 단원구 와동 702번지","indutype":"예술, 스포츠 및 여가관련 서비스업","category":"other"}]},{"lat":"37.3434707205","long":"126.8186835991","imageIndex":17,"items":[{"name":"와동점 기아오토큐","tel":"031-486-1288","addr":"경기도 안산시 단원구 와동 806-18번지","indutype":"협회 및 단체, 수리 및 기타 개인서","category":"other"}]},{"lat":"37.336251331","long":"126.81724557","imageIndex":17,"items":[{"name":"와와냉동주방","tel":"031-402-6161","addr":"경기도 안산시 단원구 와동 821-12번지 뉴캐슬","indutype":"전기제품 - 냉열기기","category":"other"}]},{"lat":"37.3326177543","long":"126.8274323604","imageIndex":17,"items":[{"name":"와우노래뮤비방","tel":"031-414-0977","addr":"경기도 안산시 단원구 와동 719-7번지","indutype":"출판, 영상, 방송통신 및 정보서비스","category":"other"}]},{"lat":"37.3415551773","long":"126.8210242694","imageIndex":17,"items":[{"name":"와체노래연습장","tel":"","addr":"경기도 안산시 단원구 와동 812-5번지","indutype":"협회 및 단체, 수리 및 기타 개인서","category":"other"}]},{"lat":"37.3375582778","long":"126.8175470306","imageIndex":17,"items":[{"name":"와카","tel":"031-403-0579","addr":"경기도 안산시 단원구 와동 820-8번지","indutype":"협회 및 단체, 수리 및 기타 개인서","category":"other"}]},{"lat":"37.3324802491","long":"126.8258529722","imageIndex":17,"items":[{"name":"외양간(용현축산)","tel":"031-405-4656","addr":"경기도 안산시 단원구 와동 724-5번지","indutype":"도매 및 소매업 - 식육","category":"other"}]},{"lat":"37.343726236","long":"126.82077076","imageIndex":17,"items":[{"name":"요이똥","tel":"031-505-6033","addr":"경기도 안산시 단원구 와동 804-10번지 초동미용실 104호","indutype":"의류 - 정장","category":"other"}]},{"lat":"37.3319501823","long":"126.8268810190","imageIndex":17,"items":[{"name":"용인대와우태권도","tel":"031-402-1693","addr":"경기도 안산시 단원구 와동 721-7번지","indutype":"교육서비스업 - 태권도장","category":"other"}]},{"lat":"37.3320638905","long":"126.8187114523","imageIndex":17,"items":[{"name":"우리방앗간","tel":"031-482-2341","addr":"경기도 안산시 단원구 와동 840-5번지","indutype":"제조업 - 고추가루","category":"other"}]},{"lat":"37.332890772","long":"126.82927097","imageIndex":17,"items":[{"name":"우리안","tel":"031-415-0102","addr":"경기도 안산시 단원구 와동 695-20번지 SK빌라","indutype":"유통업 영리 - 기타유통업","category":"other"}]},{"lat":"37.330833377","long":"126.82718828","imageIndex":17,"items":[{"name":"우정종합공사","tel":"031-485-8287","addr":"경기도 안산시 단원구 와동 685-8번지 103호","indutype":"건축자재 - 유리","category":"other"},{"name":"제일대리점","tel":"031-439-3806","addr":"경기도 안산시 단원구 와동 685-8번지","indutype":"회원제형태 - 기타4","category":"other"},{"name":"주연테크(와동점)","tel":"031-402-3151","addr":"경기도 안산시 단원구 와동 685-8번지 102호","indutype":"사무통신 - 컴퓨터","category":"other"}]},{"lat":"37.343616564","long":"126.81976663","imageIndex":17,"items":[{"name":"우진공조","tel":"","addr":"경기도 안산시 단원구 와동 804-17번지 301호","indutype":"용역 서비스 - 기타용역서비스","category":"other"}]},{"lat":"37.347726922","long":"126.82088524","imageIndex":17,"items":[{"name":"우진종합설비","tel":"031-486-2946","addr":"경기도 안산시 단원구 와동 788-3번지","indutype":"건축자재 - 보일러·펌프·샷시","category":"other"}]},{"lat":"37.341062057","long":"126.82863149","imageIndex":17,"items":[{"name":"원정농수산","tel":"031-684-7750","addr":"경기도 안산시 단원구 와동 107-3번지","indutype":"회원제형태 - 기타1","category":"other"}]},{"lat":"37.344500846","long":"126.82059961","imageIndex":17,"items":[{"name":"월드컴퓨터","tel":"031-503-3923","addr":"경기도 안산시 단원구 와동 802-3번지 우성강화도어 상가 1층 102호","indutype":"수리서비스 - 사무·통신기기수리","category":"other"}]},{"lat":"37.332695867","long":"126.82543497","imageIndex":17,"items":[{"name":"월드패션","tel":"031-439-5856","addr":"경기도 안산시 단원구 와동 724-7번지 103호","indutype":"의류 - 정장","category":"other"}]},{"lat":"37.3326958672","long":"126.8254349708","imageIndex":17,"items":[{"name":"월드패션","tel":"031-439-5856","addr":"경기도 안산시 단원구 와동 724-7번지","indutype":"도매 및 소매업 - 의류","category":"other"}]},{"lat":"37.341616526","long":"126.81990691","imageIndex":17,"items":[{"name":"위드미안산와동점","tel":"02-6916-1500","addr":"경기도 안산시 단원구 와동 812-13번지 형제카공업사 101호","indutype":"유통업 영리 - 편 의 점","category":"other"}]},{"lat":"37.3445883798","long":"126.8189404342","imageIndex":17,"items":[{"name":"위드카","tel":"031-475-9797","addr":"경기도 안산시 단원구 와동 801-1번지","indutype":"협회 및 단체, 수리 및 기타 개인서","category":"other"}]},{"lat":"37.347090088","long":"126.82277151","imageIndex":17,"items":[{"name":"유림","tel":"","addr":"경기도 안산시 단원구 와동 784-10번지 다세대주택 102호","indutype":"의류 - 정장","category":"other"}]},{"lat":"37.333865352","long":"126.82421357","imageIndex":17,"items":[{"name":"유성정보통신","tel":"031-405-1444","addr":"경기도 안산시 단원구 와동 727-1번지 101호","indutype":"사무통신 - 통신기기","category":"other"}]},{"lat":"37.3416676896","long":"126.8299617202","imageIndex":17,"items":[{"name":"유진상사","tel":"","addr":"경기도 안산시 단원구 와동 129-9번지","indutype":"도매 및 소매업 - 음료 및 잡화","category":"other"}]},{"lat":"37.342808572","long":"126.8216645","imageIndex":17,"items":[{"name":"윤슬중문","tel":"","addr":"경기도 안산시 단원구 와동 769-1번지","indutype":"건축자재 - 기타건축자재","category":"other"}]},{"lat":"37.332086289","long":"126.82752386","imageIndex":17,"items":[{"name":"은성당","tel":"031-410-3980","addr":"경기도 안산시 단원구 와동 681번지 1층","indutype":"신변잡화 - 귀금속","category":"other"},{"name":"주식회사 온유 와동지점","tel":"031-415-2010","addr":"경기도 안산시 단원구 와동 681번지 102,103호","indutype":"사무통신 - 통신기기","category":"other"}]},{"lat":"37.3415905231","long":"126.8205727846","imageIndex":17,"items":[{"name":"이레찬방","tel":"031-414-2666","addr":"경기도 안산시 단원구 와동 812-8번지","indutype":"도매 및 소매업 - 반찬","category":"other"}]},{"lat":"37.342415613","long":"126.83001643","imageIndex":17,"items":[{"name":"이마트24 안산디지털고점","tel":"","addr":"경기도 안산시 단원구 와동 96-9번지 1층","indutype":"유통업 영리 - 편 의 점","category":"other"},{"name":"이마트24 안산디지털고점","tel":"031-000-0000","addr":"경기도 안산시 단원구 와동 96-9번지 1층","indutype":"유통업 영리 - 편 의 점","category":"other"}]},{"lat":"37.335809781","long":"126.8172128","imageIndex":17,"items":[{"name":"이마트24 안산와동개미점","tel":"","addr":"경기도 안산시 단원구 와동 827번지","indutype":"유통업 영리 - 편 의 점","category":"other"}]},{"lat":"37.338586562","long":"126.81826671","imageIndex":17,"items":[{"name":"이마트24 안산와동공원로점","tel":"031-401-6921","addr":"경기도 안산시 단원구 와동 817번지 1층","indutype":"유통업 영리 - 편 의 점","category":"other"}]},{"lat":"37.331925259","long":"126.82229996","imageIndex":17,"items":[{"name":"이마트24 안산화정로점","tel":"031-413-1978","addr":"경기도 안산시 단원구 와동 849번지","indutype":"유통업 영리 - 편 의 점","category":"other"},{"name":"이마트24안산화정로점","tel":"031-111-1111","addr":"경기도 안산시 단원구 와동 849번지","indutype":"유통업 영리 - 편 의 점","category":"other"}]},{"lat":"37.342334043","long":"126.82968935","imageIndex":17,"items":[{"name":"이불박사","tel":"031-402-5719","addr":"경기도 안산시 단원구 와동 105번지","indutype":"직물 - 침구·수예점","category":"other"}]},{"lat":"37.3424743318","long":"126.8211010489","imageIndex":17,"items":[{"name":"이불천지","tel":"031-403-8985","addr":"경기도 안산시 단원구 와동 808-9번지","indutype":"도매 및 소매업 - 침구류","category":"other"}]},{"lat":"37.342474332","long":"126.82110105","imageIndex":17,"items":[{"name":"이불천지","tel":"","addr":"경기도 안산시 단원구 와동 808-9번지 102호","indutype":"직물 - 침구·수예점","category":"other"},{"name":"이불천지","tel":"031-403-8985","addr":"경기도 안산시 단원구 와동 808-9번지 102호","indutype":"직물 - 침구·수예점","category":"other"}]},{"lat":"37.3332295166","long":"126.8208525173","imageIndex":17,"items":[{"name":"이혜정 헤어라인","tel":"031-401-2990","addr":"경기도 안산시 단원구 와동 830-2번지 신유빌라7차","indutype":"협회 및 단체, 수리 및 기타 개인서","category":"other"},{"name":"조은 헤어샵","tel":"031-409-7538","addr":"경기도 안산시 단원구 와동 830-2번지","indutype":"협회 및 단체, 수리 및 기타 개인서","category":"other"}]},{"lat":"37.3448335419","long":"126.8201586676","imageIndex":17,"items":[{"name":"인제할인마트","tel":"031-411-7912","addr":"경기도 안산시 단원구 와동 799-19번지","indutype":"도매 및 소매업 - 식잡,담배","category":"other"}]},{"lat":"37.341837081","long":"126.82271634","imageIndex":17,"items":[{"name":"인테리어탑","tel":"031-487-4061","addr":"경기도 안산시 단원구 와동 765-7번지 진성에버빌","indutype":"용역 서비스 - 사무서비스","category":"other"}]},{"lat":"37.341862275","long":"126.82748985","imageIndex":17,"items":[{"name":"인피니티사운드","tel":"031-403-8079","addr":"경기도 안산시 단원구 와동 98-11번지 지하층","indutype":"전기제품 - 기타전기제품","category":"other"},{"name":"코치아","tel":"031-401-1777","addr":"경기도 안산시 단원구 와동 98-11번지 2층","indutype":"문화.취미 - 화원","category":"other"}]},{"lat":"37.343360051","long":"126.82288198","imageIndex":17,"items":[{"name":"일석공예연구소","tel":"031-410-6688","addr":"경기도 안산시 단원구 와동 770-14번지 지층","indutype":"문화.취미 - 민예·공예품","category":"other"}]},{"lat":"37.338139173","long":"126.82027645","imageIndex":17,"items":[{"name":"일호설비","tel":"031-483-1515","addr":"경기도 안산시 단원구 와동 752-4번지","indutype":"수리서비스 - 기타수리서비스","category":"other"}]},{"lat":"37.3399161190","long":"126.8275169472","imageIndex":17,"items":[{"name":"장성섭한약방","tel":"031-482-3949","addr":"경기도 안산시 단원구 와동 120번지","indutype":"도매 및 소매업 - 한약재료","category":"other"},{"name":"큰바위약국","tel":"031-401-5030","addr":"경기도 안산시 단원구 와동 120번지","indutype":"도매 및 소매업 - 양약","category":"other"}]},{"lat":"37.3421132496","long":"126.8206618015","imageIndex":17,"items":[{"name":"전선영헤어라인","tel":"031-485-0177","addr":"경기도 안산시 단원구 와동 810-12번지","indutype":"협회 및 단체, 수리 및 기타 개인서","category":"other"}]},{"lat":"37.344056467","long":"126.8187386","imageIndex":17,"items":[{"name":"전진건설","tel":"031-403-0407","addr":"경기도 안산시 단원구 와동 801-17번지","indutype":"기타 - 기타 전문점","category":"other"}]},{"lat":"37.336836817","long":"126.82899106","imageIndex":17,"items":[{"name":"정스포츠","tel":"031-482-9787","addr":"경기도 안산시 단원구 와동 709-7번지 103호","indutype":"레져용품 - 스포츠·레져용품","category":"other"}]},{"lat":"37.340394186","long":"126.82188471","imageIndex":17,"items":[{"name":"제이에스테크","tel":"070-8111-8655","addr":"경기도 안산시 단원구 와동 758-9번지 지층","indutype":"건축자재 - 인테리어전문","category":"other"}]},{"lat":"37.342751295","long":"126.81957688","imageIndex":17,"items":[{"name":"제일아이앤에이테크","tel":"031-481-2168","addr":"경기도 안산시 단원구 와동 807-9번지 오성푸르메빌 302호","indutype":"용역 서비스 - 기타용역서비스","category":"other"}]},{"lat":"37.3395018701","long":"126.8276646111","imageIndex":17,"items":[{"name":"제일철물건재","tel":"031-411-7695","addr":"경기도 안산시 단원구 와동 119-1번지","indutype":"협회 및 단체, 수리 및 기타 개인서","category":"other"}]},{"lat":"37.33950187","long":"126.82766461","imageIndex":17,"items":[{"name":"제일철물건재","tel":"031-411-7695","addr":"경기도 안산시 단원구 와동 119-1번지 새서울음악학원 103호","indutype":"건축자재 - 목재·석재·철물","category":"other"}]},{"lat":"37.3403059358","long":"126.8291297671","imageIndex":17,"items":[{"name":"젠틀맨","tel":"031-475-1857","addr":"경기도 안산시 단원구 와동 131번지","indutype":"협회 및 단체, 수리 및 기타 개인서","category":"other"}]},{"lat":"37.3378903059","long":"126.8285146876","imageIndex":17,"items":[{"name":"종로떡방앗간","tel":"031-411-9126","addr":"경기도 안산시 단원구 와동 712-15번지","indutype":"제조업 - 방앗간","category":"other"}]},{"lat":"37.3322585137","long":"126.8222201750","imageIndex":17,"items":[{"name":"종합세차장","tel":"031-401-6866","addr":"경기도 안산시 단원구 와동 852-3번지","indutype":"협회 및 단체, 수리 및 기타 개인서","category":"other"}]},{"lat":"37.337197961","long":"126.81760434","imageIndex":17,"items":[{"name":"종합자전거","tel":"031-401-7738","addr":"경기도 안산시 단원구 와동 821-18번지 101호","indutype":"레져용품 - 스포츠·레져용품","category":"other"}]},{"lat":"37.331796371","long":"126.8264526","imageIndex":17,"items":[{"name":"좋은사람만나요","tel":"031-406-5989","addr":"경기도 안산시 단원구 와동 723-4번지 창동2차빌라 104동 304호","indutype":"신변잡화 - 기타잡화","category":"other"}]},{"lat":"37.3416725761","long":"126.8271630280","imageIndex":17,"items":[{"name":"좋은소리자동차정비","tel":"031-410-3481","addr":"경기도 안산시 단원구 와동 98-9번지","indutype":"협회 및 단체, 수리 및 기타 개인서","category":"other"}]},{"lat":"37.3340909802","long":"126.8244612766","imageIndex":17,"items":[{"name":"주식회사 뜰아래","tel":"031-506-4042","addr":"경기도 안산시 단원구 와동 728-10번지","indutype":"도매 및 소매업 - 김치","category":"other"}]},{"lat":"37.34136228","long":"126.82452307","imageIndex":17,"items":[{"name":"주식회사가온건축자재","tel":"031-475-5446","addr":"경기도 안산시 단원구 와동 763-13번지","indutype":"건축자재 - 기타건축자재","category":"other"}]},{"lat":"37.341555226","long":"126.8270166","imageIndex":17,"items":[{"name":"주식회사꿈이있는일터","tel":"070-4179-8120","addr":"경기도 안산시 단원구 와동 98-8번지 201호","indutype":"신변잡화 - 기타잡화","category":"other"}]},{"lat":"37.3380626684","long":"126.8174329467","imageIndex":17,"items":[{"name":"주식회사덕인전기조명","tel":"031-414-0044","addr":"경기도 안산시 단원구 와동 820-12번지","indutype":"도매 및 소매업 - 전기자재","category":"other"}]},{"lat":"37.3308333766","long":"126.8271882755","imageIndex":17,"items":[{"name":"주연테크 와동점","tel":"031-402-3151","addr":"경기도 안산시 단원구 와동 685-8번지","indutype":"도매 및 소매업 - 컴퓨터","category":"other"}]},{"lat":"37.341668484","long":"126.81855258","imageIndex":17,"items":[{"name":"주연테크 컴퓨터","tel":"031-413-0807","addr":"경기도 안산시 단원구 와동 811-19번지 1층 1호,2호","indutype":"사무통신 - 컴퓨터","category":"other"}]},{"lat":"37.337945925","long":"126.8295753","imageIndex":17,"items":[{"name":"주영상사","tel":"031-438-0247","addr":"경기도 안산시 단원구 와동 711-1번지 신원타운 101호","indutype":"직물 - 카페트,커튼,천막,지물","category":"other"}]},{"lat":"37.338229135","long":"126.82018595","imageIndex":17,"items":[{"name":"중소기업가구","tel":"031-411-2408","addr":"경기도 안산시 단원구 와동 752-7번지","indutype":"가구 - 일반가구","category":"other"}]},{"lat":"37.3311391111","long":"126.8208237105","imageIndex":17,"items":[{"name":"지바트","tel":"031-482-3996","addr":"경기도 안산시 단원구 와동 847-16번지","indutype":"도매 및 소매업 - 카인테리어","category":"other"}]},{"lat":"37.341555177","long":"126.82102427","imageIndex":17,"items":[{"name":"지켜줄개","tel":"","addr":"경기도 안산시 단원구 와동 812-5번지 4층","indutype":"문화.취미 - 애완동물","category":"other"}]},{"lat":"37.3357827134","long":"126.8290499132","imageIndex":17,"items":[{"name":"진 바이크(JIN BIKE)","tel":"031-413-8283","addr":"경기도 안산시 단원구 와동 715-5번지","indutype":"협회 및 단체, 수리 및 기타 개인서","category":"other"}]},{"lat":"37.336917261","long":"126.82855079","imageIndex":17,"items":[{"name":"진미싱","tel":"031-486-1370","addr":"경기도 안산시 단원구 와동 713-6번지 101호","indutype":"기타 - 기계공구","category":"other"}]},{"lat":"37.333559222","long":"126.83043166","imageIndex":17,"items":[{"name":"진성종합설비","tel":"031-475-7793","addr":"경기도 안산시 단원구 와동 699-8번지 1층","indutype":"용역 서비스 - 기타용역서비스","category":"other"}]},{"lat":"37.3335592222","long":"126.8304316591","imageIndex":17,"items":[{"name":"진성종합설비","tel":"031-475-7793","addr":"경기도 안산시 단원구 와동 699-8번지","indutype":"건설업 - 일반건축공사,샷시,유리제작","category":"other"}]},{"lat":"37.3331165029","long":"126.8235495997","imageIndex":17,"items":[{"name":"진헤어","tel":"031-480-5675","addr":"경기도 안산시 단원구 와동 723번지 토성연립","indutype":"협회 및 단체, 수리 및 기타 개인서","category":"other"},{"name":"진헤어","tel":"031-405-7554","addr":"경기도 안산시 단원구 와동 723번지 토성연립","indutype":"협회 및 단체, 수리 및 기타 개인서","category":"other"}]},{"lat":"37.341729835","long":"126.82932962","imageIndex":17,"items":[{"name":"집시","tel":"031-000-0000","addr":"경기도 안산시 단원구 와동 105-14번지 501호","indutype":"의류 - 정장","category":"other"}]},{"lat":"37.3448072427","long":"126.8206327211","imageIndex":17,"items":[{"name":"찡찡이네","tel":"","addr":"경기도 안산시 단원구 와동 799-16번지","indutype":"도매 및 소매업 - 의류","category":"other"}]},{"lat":"37.3423048894","long":"126.8282449242","imageIndex":17,"items":[{"name":"차사랑멀티샵","tel":"031-486-3570","addr":"경기도 안산시 단원구 와동 97-7번지","indutype":"도매 및 소매업 - 차량관련용품","category":"other"}]},{"lat":"37.342929454","long":"126.83019582","imageIndex":17,"items":[{"name":"참존크리닝","tel":"031-482-5354","addr":"경기도 안산시 단원구 와동 95-15번지 진아타운 104동 101호","indutype":"용역 서비스 - 종합용역","category":"other"}]},{"lat":"37.342782508","long":"126.82229653","imageIndex":17,"items":[{"name":"창대지물장식","tel":"031-505-0811","addr":"경기도 안산시 단원구 와동 769-5번지 1층","indutype":"건축자재 - 인테리어전문","category":"other"}]},{"lat":"37.3427825081","long":"126.8222965340","imageIndex":17,"items":[{"name":"창대지물장식","tel":"","addr":"경기도 안산시 단원구 와동 769-5번지","indutype":"건설업 - 인테리어","category":"other"}]},{"lat":"37.3319215356","long":"126.8257978655","imageIndex":17,"items":[{"name":"창동자전거","tel":"031-486-1120","addr":"경기도 안산시 단원구 와동 723-4번지 창동2차빌라","indutype":"도매 및 소매업 - 자전거","category":"other"}]},{"lat":"37.338254873","long":"126.81935084","imageIndex":17,"items":[{"name":"채린종합개발","tel":"031-485-0471","addr":"경기도 안산시 단원구 와동 819-12번지 101호","indutype":"용역 서비스 - 기타용역서비스","category":"other"}]},{"lat":"37.33158709","long":"126.81918652","imageIndex":17,"items":[{"name":"채움문구점","tel":"031-475-8985","addr":"경기도 안산시 단원구 와동 836-10 101","indutype":"서적문구 - 문구용품","category":"other"}]},{"lat":"37.3452549535","long":"126.8188259529","imageIndex":17,"items":[{"name":"책임카정비","tel":"031-413-4972","addr":"경기도 안산시 단원구 와동 800-19번지 덕흥빌라","indutype":"협회 및 단체, 수리 및 기타 개인서","category":"other"}]},{"lat":"37.340958368","long":"126.82555095","imageIndex":17,"items":[{"name":"천광문화사","tel":"031-484-9897","addr":"경기도 안산시 단원구 와동 762 유통상가3동105,106호","indutype":"서적문구 - 출판 및 인쇄물","category":"other"}]},{"lat":"37.338479267","long":"126.81879735","imageIndex":17,"items":[{"name":"천연공방","tel":"031-495-5021","addr":"경기도 안산시 단원구 와동 816-5번지 부자마트 1층 103호","indutype":"문화.취미 - 문화취미기타","category":"other"}]},{"lat":"37.332752253","long":"126.82699198","imageIndex":17,"items":[{"name":"천연비누공방","tel":"","addr":"경기도 안산시 단원구 와동 720-13번지","indutype":"문화.취미 - 문화취미기타","category":"other"}]},{"lat":"37.341812646","long":"126.81855223","imageIndex":17,"items":[{"name":"천지복싱클럽","tel":"031-475-6313","addr":"경기도 안산시 단원구 와동 811-20번지","indutype":"회원제형태 - 레져업소","category":"other"}]},{"lat":"37.3432551795","long":"126.8191355351","imageIndex":17,"items":[{"name":"충남종합설비","tel":"031-486-9917","addr":"경기도 안산시 단원구 와동 806-14번지","indutype":"협회 및 단체, 수리 및 기타 개인서","category":"other"}]},{"lat":"37.3416167001","long":"126.8200197566","imageIndex":17,"items":[{"name":"카플러스","tel":"031-520-0951","addr":"경기도 안산시 단원구 와동 812-12번지","indutype":"도매 및 소매업 - 카인테리어","category":"other"}]},{"lat":"37.3471429949","long":"126.8220152318","imageIndex":17,"items":[{"name":"칼라시대","tel":"031-401-6936","addr":"경기도 안산시 단원구 와동 786-12번지","indutype":"협회 및 단체, 수리 및 기타 개인서","category":"other"}]},{"lat":"37.331534444","long":"126.82010061","imageIndex":17,"items":[{"name":"캐리어에어컨 서안산","tel":"031-486-8778","addr":"경기도 안산시 단원구 와동 835-12번지 1층","indutype":"전기제품 - 냉열기기","category":"other"}]},{"lat":"37.345727126","long":"126.82118349","imageIndex":17,"items":[{"name":"캐리어에어컨강북센터","tel":"031-485-7627","addr":"경기도 안산시 단원구 와동 794-12번지 202호","indutype":"용역 서비스 - 기타용역서비스","category":"other"}]},{"lat":"37.3432814727","long":"126.8186614908","imageIndex":17,"items":[{"name":"컬러누보시스템","tel":"031-487-2887","addr":"경기도 안산시 단원구 와동 806-17번지","indutype":"협회 및 단체, 수리 및 기타 개인서","category":"other"}]},{"lat":"37.341581947","long":"126.82085493","imageIndex":17,"items":[{"name":"컴천사","tel":"031-506-1004","addr":"경기도 안산시 단원구 와동 812-6번지 101호","indutype":"사무통신 - 컴퓨터","category":"other"}]},{"lat":"37.3415819473","long":"126.8208549300","imageIndex":17,"items":[{"name":"컴천사","tel":"031-506-1004","addr":"경기도 안산시 단원구 와동 812-6번지","indutype":"도매 및 소매업 - 컴퓨터","category":"other"}]},{"lat":"37.3325365458","long":"126.8273535638","imageIndex":17,"items":[{"name":"코러스노래연습장","tel":"031-402-8980","addr":"경기도 안산시 단원구 와동 719-8번지","indutype":"협회 및 단체, 수리 및 기타 개인서","category":"other"}]},{"lat":"37.341979657","long":"126.82765885","imageIndex":17,"items":[{"name":"코스모스장갑공장","tel":"031-482-3647","addr":"경기도 안산시 단원구 와동 98-12번지 기아자동차카클리릭 G동 1층","indutype":"기타 - 기계공구","category":"other"}]},{"lat":"37.3463948267","long":"126.8218025979","imageIndex":17,"items":[{"name":"콩깍지노래연습장","tel":"031-401-4006","addr":"경기도 안산시 단원구 와동 781-13번지","indutype":"협회 및 단체, 수리 및 기타 개인서","category":"other"}]},{"lat":"37.34436519","long":"126.82027266","imageIndex":17,"items":[{"name":"큐티플라워","tel":"031-1644-9551","addr":"경기도 안산시 단원구 와동 802-18번지 대경맨션 301호","indutype":"문화.취미 - 화원","category":"other"}]},{"lat":"37.3411689360","long":"126.8218038607","imageIndex":17,"items":[{"name":"큰숲인테리어","tel":"031-480-1734","addr":"경기도 안산시 단원구 와동 759-1번지","indutype":"건설업 - 도배,인테리어","category":"other"}]},{"lat":"37.343673406","long":"126.82157214","imageIndex":17,"items":[{"name":"타바코리아","tel":"031-405-4137","addr":"경기도 안산시 단원구 와동 771번지 다사랑약국 101호","indutype":"전기제품 - 기타전기제품","category":"other"}]},{"lat":"37.3436734061","long":"126.8215721413","imageIndex":17,"items":[{"name":"타바코리아","tel":"031-405-4137","addr":"경기도 안산시 단원구 와동 771번지","indutype":"도매 및 소매업 - 전자기기","category":"other"}]},{"lat":"37.3333131997","long":"126.8225448782","imageIndex":17,"items":[{"name":"타이어프로 와동점","tel":"031-411-6030","addr":"경기도 안산시 단원구 와동 735-3번지","indutype":"협회 및 단체, 수리 및 기타 개인서","category":"other"}]},{"lat":"37.3371979608","long":"126.8176043376","imageIndex":17,"items":[{"name":"태영MTB&벌룬","tel":"031-401-7738","addr":"경기도 안산시 단원구 와동 821-18번지","indutype":"도매 및 소매업 - 자전거","category":"other"}]},{"lat":"37.33328529","long":"126.82796114","imageIndex":17,"items":[{"name":"토냐","tel":"031-487-1729","addr":"경기도 안산시 단원구 와동 719-1번지","indutype":"의류 - 정장","category":"other"}]},{"lat":"37.336001514","long":"126.83079845","imageIndex":17,"items":[{"name":"퍼스트인테리어공사","tel":"031-402-5414","addr":"경기도 안산시 단원구 와동 703번지 1층 103호","indutype":"건축자재 - 인테리어전문","category":"other"}]},{"lat":"37.3415547085","long":"126.8207195760","imageIndex":17,"items":[{"name":"퍼피캣동물병원","tel":"031-418-7582","addr":"경기도 안산시 단원구 와동 812-7번지","indutype":"보건업 및 사회복지서비스업 - 동물병","category":"other"}]},{"lat":"37.332257967","long":"126.82785069","imageIndex":17,"items":[{"name":"포그니 이불","tel":"031-411-5000","addr":"경기도 안산시 단원구 와동 679-6번지 103호","indutype":"직물 - 침구·수예점","category":"other"}]},{"lat":"37.347581978","long":"126.82037773","imageIndex":17,"items":[{"name":"퐁듀오","tel":"","addr":"경기도 안산시 단원구 와동 788-19번지","indutype":"서적문구 - 문구용품","category":"other"}]},{"lat":"37.338082944","long":"126.81887731","imageIndex":17,"items":[{"name":"푸른상사","tel":"031-482-6661","addr":"경기도 안산시 단원구 와동 819-15번지 103호","indutype":"건축자재 - 페인트","category":"other"},{"name":"하나상사","tel":"031-414-0904","addr":"경기도 안산시 단원구 와동 819-15번지","indutype":"신변잡화 - 기타잡화","category":"other"}]},{"lat":"37.337476139","long":"126.82871876","imageIndex":17,"items":[{"name":"프랜즈컴퓨터","tel":"031-439-0912","addr":"경기도 안산시 단원구 와동 712-18번지 사랑의교회 102호","indutype":"수리서비스 - 사무·통신기기수리","category":"other"}]},{"lat":"37.341584761","long":"126.82870928","imageIndex":17,"items":[{"name":"프렌즈 멍 (개쌀롱)","tel":"031-402-5336","addr":"경기도 안산시 단원구 와동 106-6번지 102호","indutype":"문화.취미 - 애완동물","category":"other"}]},{"lat":"37.339142398","long":"126.82229396","imageIndex":17,"items":[{"name":"피엔씨","tel":"070-8275-6462","addr":"경기도 안산시 단원구 와동 754-4번지 204호","indutype":"회원제형태 - 서적","category":"other"}]},{"lat":"37.3416387724","long":"126.8226603925","imageIndex":17,"items":[{"name":"필헤어","tel":"031-401-9867","addr":"경기도 안산시 단원구 와동 764-9번지","indutype":"협회 및 단체, 수리 및 기타 개인서","category":"other"}]},{"lat":"37.3422769227","long":"126.8216319241","imageIndex":17,"items":[{"name":"하나종합인테리어","tel":"031-410-8027","addr":"경기도 안산시 단원구 와동 769-24번지","indutype":"건설업 - 인테리어","category":"other"}]},{"lat":"37.332874951","long":"126.82468983","imageIndex":17,"items":[{"name":"하늘시스템 폴딩도어","tel":"","addr":"경기도 안산시 단원구 와동 723-2번지 보륭연립 5동 201호","indutype":"용역 서비스 - 기타용역서비스","category":"other"}]},{"lat":"37.3439161255","long":"126.8212104269","imageIndex":17,"items":[{"name":"하늘정보통신","tel":"031-413-7977","addr":"경기도 안산시 단원구 와동 802-10번지","indutype":"도매 및 소매업 - 통신기기,휴대폰","category":"other"}]},{"lat":"37.343916126","long":"126.82121043","imageIndex":17,"items":[{"name":"하늘정보통신","tel":"031-413-7977","addr":"경기도 안산시 단원구 와동 802-10번지 상가 SK1층","indutype":"사무통신 - 통신기기","category":"other"}]},{"lat":"37.34286109","long":"126.82065999","imageIndex":17,"items":[{"name":"하얀클린센터","tel":"031-505-8114","addr":"경기도 안산시 단원구 와동 808-4번지 103호","indutype":"수리서비스 - 세탁소","category":"other"},{"name":"하얀클린센터","tel":"031-505-8114","addr":"경기도 안산시 단원구 와동 808-4번지","indutype":"수리서비스 - 세탁소","category":"other"}]},{"lat":"37.33591993","long":"126.83046011","imageIndex":17,"items":[{"name":"하이야","tel":"","addr":"경기도 안산시 단원구 와동 705-9번지 덕용화이트빌라 401호","indutype":"의류 - 정장","category":"other"}]},{"lat":"37.334639269","long":"126.82962803","imageIndex":17,"items":[{"name":"하하텔레콤","tel":"031-414-4019","addr":"경기도 안산시 단원구 와동 700번지 102호","indutype":"사무통신 - 통신기기","category":"other"},{"name":"휘트니스 픽스","tel":"031-403-8047","addr":"경기도 안산시 단원구 와동 700번지 2층 3층","indutype":"회원제형태 - 레져업소","category":"other"}]},{"lat":"37.3410903379","long":"126.8234403622","imageIndex":17,"items":[{"name":"한국체대효자태권도(경희대석사효자태권도)","tel":"031-410-7890","addr":"경기도 안산시 단원구 와동 760-4번지","indutype":"예술, 스포츠 및 여가관련 서비스업","category":"other"}]},{"lat":"37.3382006017","long":"126.8192155558","imageIndex":17,"items":[{"name":"한미 누룽지","tel":"","addr":"경기도 안산시 단원구 와동 819-13번지","indutype":"제조업 - 곡물가공품 제조업","category":"other"}]},{"lat":"37.342277303","long":"126.8218802","imageIndex":17,"items":[{"name":"한별세탁소","tel":"031-410-5676","addr":"경기도 안산시 단원구 와동 768-17번지 1층","indutype":"수리서비스 - 세탁소","category":"other"}]},{"lat":"37.3422773028","long":"126.8218801952","imageIndex":17,"items":[{"name":"한별세탁소","tel":"031-410-5676","addr":"경기도 안산시 단원구 와동 768-17번지","indutype":"협회 및 단체, 수리 및 기타 개인서","category":"other"}]},{"lat":"37.3383376393","long":"126.8204339485","imageIndex":17,"items":[{"name":"한빛헤어샵","tel":"031-402-0888","addr":"경기도 안산시 단원구 와동 752-8번지","indutype":"협회 및 단체, 수리 및 기타 개인서","category":"other"}]},{"lat":"37.331978034","long":"126.82743385","imageIndex":17,"items":[{"name":"한솔전기철물","tel":"031-483-7742","addr":"경기도 안산시 단원구 와동 681-13번지 1층 102호","indutype":"건축자재 - 목재·석재·철물","category":"other"}]},{"lat":"37.334251353","long":"126.82930169","imageIndex":17,"items":[{"name":"한솔종합주방가구인테리어","tel":"031-484-0459","addr":"경기도 안산시 단원구 와동 700-7번지 102동 103호","indutype":"건축자재 - 인테리어전문","category":"other"}]},{"lat":"37.346061521","long":"126.82184854","imageIndex":17,"items":[{"name":"한신콤프렛서에이에스","tel":"031-495-4914","addr":"경기도 안산시 단원구 와동 780번지 유통상가 8동 104호","indutype":"기타 - 기계공구","category":"other"}]},{"lat":"37.330671646","long":"126.8274933","imageIndex":17,"items":[{"name":"한일공구","tel":"031-401-0945","addr":"경기도 안산시 단원구 와동 685-6번지 101호 102","indutype":"기타 - 기계공구","category":"other"}]},{"lat":"37.3316749046","long":"126.8177194533","imageIndex":17,"items":[{"name":"한진밧데리","tel":"031-485-6057","addr":"경기도 안산시 단원구 와동 845-16번지","indutype":"협회 및 단체, 수리 및 기타 개인서","category":"other"}]},{"lat":"37.342144665","long":"126.82957693","imageIndex":17,"items":[{"name":"합명회사 탑주류","tel":"031-483-4915","addr":"경기도 안산시 단원구 와동 105-18번지","indutype":"유통업 영리 - 기타유통업","category":"other"}]},{"lat":"37.341054793","long":"126.82376771","imageIndex":17,"items":[{"name":"해비치 협동조합","tel":"031-411-3510","addr":"경기도 안산시 단원구 와동 760-6번지 3층","indutype":"문화.취미 - 문화취미기타","category":"other"}]},{"lat":"37.331005756","long":"126.827989","imageIndex":17,"items":[{"name":"행운정보통신","tel":"031-405-1316","addr":"경기도 안산시 단원구 와동 684-4번지 103호","indutype":"수리서비스 - 기타수리서비스","category":"other"}]},{"lat":"37.3411424060","long":"126.8221311872","imageIndex":17,"items":[{"name":"허브동물병원","tel":"031-414-9075","addr":"경기도 안산시 단원구 와동 759-3번지","indutype":"보건업 및 사회복지서비스업 - 동물병","category":"other"}]},{"lat":"37.341142406","long":"126.82213119","imageIndex":17,"items":[{"name":"허브애견","tel":"031-414-8885","addr":"경기도 안산시 단원구 와동 759-3번지 103호","indutype":"문화.취미 - 애완동물","category":"other"},{"name":"호남철물","tel":"031-484-5026","addr":"경기도 안산시 단원구 와동 759-3번지","indutype":"건축자재 - 목재·석재·철물","category":"other"}]},{"lat":"37.342224809","long":"126.82290726","imageIndex":17,"items":[{"name":"허브플러스","tel":"031-485-5003","addr":"경기도 안산시 단원구 와동 768-11번지 귀래연빌라 402호","indutype":"문화.취미 - 문화취미기타","category":"other"}]},{"lat":"37.3361704808","long":"126.8292747032","imageIndex":17,"items":[{"name":"허정아 헤어센스","tel":"031-410-1346","addr":"경기도 안산시 단원구 와동 708-8번지","indutype":"협회 및 단체, 수리 및 기타 개인서","category":"other"}]},{"lat":"37.3432286569","long":"126.8194628715","imageIndex":17,"items":[{"name":"헤어갤러리","tel":"031-411-7457","addr":"경기도 안산시 단원구 와동 806-12번지 전원주택","indutype":"협회 및 단체, 수리 및 기타 개인서","category":"other"}]},{"lat":"37.3444753938","long":"126.8216266402","imageIndex":17,"items":[{"name":"헤어마끼","tel":"031-402-3866","addr":"경기도 안산시 단원구 와동 772번지","indutype":"협회 및 단체, 수리 및 기타 개인서","category":"other"}]},{"lat":"37.3317803120","long":"126.8277728136","imageIndex":17,"items":[{"name":"헤어미소","tel":"031-483-5266","addr":"경기도 안산시 단원구 와동 681-11번지","indutype":"협회 및 단체, 수리 및 기타 개인서","category":"other"}]},{"lat":"37.3415859807","long":"126.8234956079","imageIndex":17,"items":[{"name":"헤어바나나","tel":"031-405-2346","addr":"경기도 안산시 단원구 와동 763번지","indutype":"협회 및 단체, 수리 및 기타 개인서","category":"other"}]},{"lat":"37.3351699725","long":"126.8171579574","imageIndex":17,"items":[{"name":"헤어스토리","tel":"031-410-2400","addr":"경기도 안산시 단원구 와동 827-6번지","indutype":"협회 및 단체, 수리 및 기타 개인서","category":"other"}]},{"lat":"37.340278125","long":"126.82859945","imageIndex":17,"items":[{"name":"현대냉난방","tel":"031-403-2559","addr":"경기도 안산시 단원구 와동 121-5번지 라일실크빌 201호","indutype":"용역 서비스 - 기타용역서비스","category":"other"}]},{"lat":"37.344833158","long":"126.81991039","imageIndex":17,"items":[{"name":"현대씽크","tel":"031-405-6328","addr":"경기도 안산시 단원구 와동 800-10번지","indutype":"주방용구 - 주방용구","category":"other"}]},{"lat":"37.333727425","long":"126.82238591","imageIndex":17,"items":[{"name":"현대음향","tel":"031-401-4569","addr":"경기도 안산시 단원구 와동 736-1번지 제상가동 104호","indutype":"전기제품 - 가전제품","category":"other"}]},{"lat":"37.3337274254","long":"126.8223859146","imageIndex":17,"items":[{"name":"현대음향","tel":"031-401-4569","addr":"경기도 안산시 단원구 와동 736-1번지","indutype":"도매 및 소매업 - 음향기기","category":"other"}]},{"lat":"37.344276583","long":"126.82124341","imageIndex":17,"items":[{"name":"현대인테리어","tel":"031-411-5100","addr":"경기도 안산시 단원구 와동 802-8번지 102호","indutype":"건축자재 - 인테리어전문","category":"other"}]},{"lat":"37.3431681983","long":"126.8211558025","imageIndex":17,"items":[{"name":"현대축산","tel":"031-439-4363","addr":"경기도 안산시 단원구 와동 805-4번지","indutype":"도매 및 소매업 - 식육","category":"other"}]},{"lat":"37.336088859","long":"126.8289138","imageIndex":17,"items":[{"name":"현우닥트설비","tel":"031-402-6652","addr":"경기도 안산시 단원구 와동 715-3번지 오터월드 103호","indutype":"용역 서비스 - 기타용역서비스","category":"other"}]},{"lat":"37.345701082","long":"126.82182684","imageIndex":17,"items":[{"name":"혜윰디자인","tel":"","addr":"경기도 안산시 단원구 와동 780-6번지 뉴캐슬 801호","indutype":"건축자재 - 인테리어전문","category":"other"}]},{"lat":"37.3395282814","long":"126.8272470165","imageIndex":17,"items":[{"name":"홈스터치","tel":"031-439-5131","addr":"경기도 안산시 단원구 와동 112-22번지","indutype":"도매 및 소매업 - 커튼 침구","category":"other"}]},{"lat":"37.33178505","long":"126.81901679","imageIndex":17,"items":[{"name":"화랑문구","tel":"031-413-3478","addr":"경기도 안산시 단원구 와동 836번지 103호","indutype":"서적문구 - 문구용품","category":"other"}]},{"lat":"37.3317850499","long":"126.8190167881","imageIndex":17,"items":[{"name":"화랑음악학원","tel":"031-402-0467","addr":"경기도 안산시 단원구 와동 836번지","indutype":"교육서비스업 - 음악","category":"other"}]},{"lat":"37.3413625691","long":"126.8247149146","imageIndex":17,"items":[{"name":"화이트운동화 앤 빨래방","tel":"031-484-8280","addr":"경기도 안산시 단원구 와동 763-12번지","indutype":"협회 및 단체, 수리 및 기타 개인서","category":"other"}]},{"lat":"37.3387269817","long":"126.8276551267","imageIndex":17,"items":[{"name":"황소방앗간","tel":"031-401-8828","addr":"경기도 안산시 단원구 와동 115-5번지","indutype":"제조업 - 방앗간","category":"other"}]},{"lat":"37.34541831","long":"126.81958169","imageIndex":17,"items":[{"name":"효서","tel":"031-000-0000","addr":"경기도 안산시 단원구 와동 798-2번지 303호","indutype":"의류 - 정장","category":"other"}]},{"lat":"37.334088587","long":"126.82288154","imageIndex":17,"items":[{"name":"효자세탁소","tel":"031-482-5995","addr":"경기도 안산시 단원구 와동 737-7번지 1층","indutype":"수리서비스 - 세탁소","category":"other"}]},{"lat":"37.342948835","long":"126.81913628","imageIndex":17,"items":[{"name":"후니 기공(후니 다이브)","tel":"031-401-2066","addr":"경기도 안산시 단원구 와동 807-3번지 우림노블레스 5502호","indutype":"레져용품 - 스포츠·레져용품","category":"other"}]}]