[{"lat":"37.674059531","long":"127.50211489","imageIndex":4,"items":[{"name":"네자매 평강","tel":"031-585-1898","addr":"경기도 가평군 설악면 창의리 447-1번지","indutype":"일반휴게음식 - 일반한식","category":"restaurant"}]},{"lat":"37.670193781","long":"127.50438989","imageIndex":4,"items":[{"name":"동원","tel":"031-584-7400","addr":"경기도 가평군 설악면 창의리 418-9번지","indutype":"일반휴게음식 - 일반한식","category":"restaurant"},{"name":"동원","tel":"031-584-7400","addr":"경기도 가평군 설악면 창의리 418-9번지","indutype":"일반휴게음식 - 일반한식","category":"restaurant"}]},{"lat":"37.671054768","long":"127.50319421","imageIndex":4,"items":[{"name":"들풀","tel":"031-585-4322","addr":"경기도 가평군 설악면 창의리 420-6번지","indutype":"일반휴게음식 - 일반한식","category":"restaurant"}]},{"lat":"37.670972386","long":"127.50349969","imageIndex":4,"items":[{"name":"들풀찻집","tel":"031-584-8960","addr":"경기도 가평군 설악면 창의리 420-25번지","indutype":"일반휴게음식 - 일반한식","category":"restaurant"}]},{"lat":"37.670753419","long":"127.50414429","imageIndex":4,"items":[{"name":"무교동낙지이야기","tel":"070-7796-7036","addr":"경기도 가평군 설악면 창의리 420-7번지","indutype":"일반휴게음식 - 일반한식","category":"restaurant"}]},{"lat":"37.672894497","long":"127.50277584","imageIndex":4,"items":[{"name":"여기가좋겠네","tel":"031-585-5005","addr":"경기도 가평군 설악면 창의리 431-1번지 1동 102호 103호","indutype":"일반휴게음식 - 일반한식","category":"restaurant"},{"name":"장금이순대국 1호점","tel":"031-000-0000","addr":"경기도 가평군 설악면 창의리 431-1번지 1층 7호","indutype":"일반휴게음식 - 일반한식","category":"restaurant"}]},{"lat":"37.669006753","long":"127.50808821","imageIndex":4,"items":[{"name":"옛집","tel":"031-585-7798","addr":"경기도 가평군 설악면 창의리 177-1","indutype":"일반휴게음식 - 일반한식","category":"restaurant"}]},{"lat":"37.673113313","long":"127.50216522","imageIndex":4,"items":[{"name":"춘천우미닭갈비","tel":"031-584-7950","addr":"경기도 가평군 설악면 창의리 429","indutype":"일반휴게음식 - 일반한식","category":"restaurant"},{"name":"춘천우미닭갈비","tel":"031-584-7950","addr":"경기도 가평군 설악면 창의리 429번지","indutype":"일반휴게음식 - 일반한식","category":"restaurant"},{"name":"하겐나","tel":"031-585-9683","addr":"경기도 가평군 설악면 창의리 429번지","indutype":"일반휴게음식 - 일반한식","category":"restaurant"}]}]