[{"lat":"37.25680152","long":"127.38627623","imageIndex":17,"items":[{"name":"(주) 계룡스톤","tel":"032-572-2313","addr":"경기도 이천시 마장면 이치리 300-13번지","indutype":"건축자재 - 목재·석재·철물","category":"other"}]},{"lat":"37.248272139","long":"127.37102842","imageIndex":17,"items":[{"name":"(주)씨에스아이테크","tel":"031-631-1407","addr":"경기도 이천시 마장면 이치리 391-2","indutype":"용역 서비스 - 사무서비스","category":"other"}]},{"lat":"37.248020204","long":"127.36211185","imageIndex":17,"items":[{"name":"고려상사","tel":"031-635-1618","addr":"경기도 이천시 마장면 이치리 364번지","indutype":"건축자재 - 목재·석재·철물","category":"other"},{"name":"넥스트코리아","tel":"070-8673-7075","addr":"경기도 이천시 마장면 이치리 364번지 1층","indutype":"서적문구 - 과학기자재","category":"other"}]},{"lat":"37.246081484","long":"127.36260983","imageIndex":17,"items":[{"name":"마장토이아울렛","tel":"031-633-9188","addr":"경기도 이천시 마장면 이치리 363-30번지","indutype":"서적문구 - 완구점","category":"other"}]},{"lat":"37.2484455","long":"127.37894153","imageIndex":17,"items":[{"name":"목조건축센터","tel":"031-336-4140","addr":"경기도 이천시 마장면 이치리 320-5번지","indutype":"건축자재 - 기타건축자재","category":"other"}]},{"lat":"37.246468819","long":"127.36852881","imageIndex":17,"items":[{"name":"미니스톱 이천마장점","tel":"031-1577-9621","addr":"경기도 이천시 마장면 이치리 385-2번지","indutype":"유통업 영리 - 편 의 점","category":"other"}]},{"lat":"37.246188098","long":"127.36310625","imageIndex":17,"items":[{"name":"삼보건재철물","tel":"031-632-2612","addr":"경기도 이천시 마장면 이치리 363-32번지","indutype":"건축자재 - 목재·석재·철물","category":"other"}]},{"lat":"37.257440543","long":"127.38649364","imageIndex":17,"items":[{"name":"세영씨첸","tel":"031-636-7288","addr":"경기도 이천시 마장면 이치리 300-3번지 1층","indutype":"건축자재 - 기타건축자재","category":"other"}]},{"lat":"37.246914823","long":"127.3728815","imageIndex":17,"items":[{"name":"씨유이천이치리점","tel":"031-631-5559","addr":"경기도 이천시 마장면 이치리 460-10번지 1동 1층","indutype":"유통업 영리 - 편 의 점","category":"other"}]},{"lat":"37.24680061","long":"127.37194547","imageIndex":17,"items":[{"name":"에바노가구","tel":"031-631-7966","addr":"경기도 이천시 마장면 이치리 410번지","indutype":"가구 - 일반가구","category":"other"}]},{"lat":"37.246611301","long":"127.36319843","imageIndex":17,"items":[{"name":"오케이시스템","tel":"031-631-0488","addr":"경기도 이천시 마장면 이치리 362-16","indutype":"건축자재 - 기타건축자재","category":"other"}]},{"lat":"37.254217271","long":"127.37443891","imageIndex":17,"items":[{"name":"이천실내바다낚시터","tel":"031-631-7896","addr":"경기도 이천시 마장면 이치리 247-2번지","indutype":"레져용품 - 스포츠·레져용품","category":"other"}]},{"lat":"37.246750135","long":"127.36494606","imageIndex":17,"items":[{"name":"주식회사 국제토탈하우징","tel":"031-632-4994","addr":"경기도 이천시 마장면 이치리 370-5번지","indutype":"건축자재 - 기타건축자재","category":"other"}]},{"lat":"37.245304982","long":"127.3748009","imageIndex":17,"items":[{"name":"주식회사에듀가든","tel":"031-1599-6433","addr":"경기도 이천시 마장면 이치리 441-5번지 1층","indutype":"건축자재 - 인테리어전문","category":"other"}]},{"lat":"37.248274435","long":"127.36147061","imageIndex":17,"items":[{"name":"하이발리(hi bali)","tel":"031-638-8508","addr":"경기도 이천시 마장면 이치리 363-1번지","indutype":"가구 - 기타가구","category":"other"}]},{"lat":"37.253216736","long":"127.38307943","imageIndex":17,"items":[{"name":"한국김치플랜트산업(주)","tel":"031-637-8824","addr":"경기도 이천시 마장면 이치리 311-7번지","indutype":"주방용구 - 주방용구","category":"other"}]}]