[{"lat":"37.654682534","long":"126.77260011","imageIndex":17,"items":[{"name":"HSYH","tel":"031-818-5776","addr":"경기도 고양시 일산동구 정발산로","indutype":"의류 - 정장","category":"other"},{"name":"SGPMALL","tel":"031-921-8897","addr":"경기도 고양시 일산동구 정발산로","indutype":"신변잡화 - 기타잡화","category":"other"},{"name":"다니엘코리아 일산직영점","tel":"031-931-5050","addr":"경기도 고양시 일산동구 정발산로","indutype":"기타 - 기타 전문점","category":"other"},{"name":"댑웨스턴돔점","tel":"031-907-4327","addr":"경기도 고양시 일산동구 정발산로","indutype":"의류 - 내의판매","category":"other"},{"name":"레드아이","tel":"02-310-9733","addr":"경기도 고양시 일산동구 정발산로","indutype":"신변잡화 - 액세서리","category":"other"},{"name":"로이드웨스턴돔","tel":"031-974-0881","addr":"경기도 고양시 일산동구 정발산로","indutype":"신변잡화 - 시계","category":"other"},{"name":"미녀와 야수","tel":"0000-0000-0000","addr":"경기도 고양시 일산동구 정발산로","indutype":"신변잡화 - 액세서리","category":"other"},{"name":"아이리텍","tel":"070-8810-3100","addr":"경기도 고양시 일산동구 정발산로","indutype":"수리서비스 - 사무·통신기기수리","category":"other"},{"name":"카이바","tel":"031-902-0424","addr":"경기도 고양시 일산동구 정발산로","indutype":"의류 - 정장","category":"other"},{"name":"코너샵","tel":"031-336-3391","addr":"경기도 고양시 일산동구 정발산로","indutype":"의류 - 정장","category":"other"},{"name":"패트리샤","tel":"031-904-5247","addr":"경기도 고양시 일산동구 정발산로","indutype":"의류 - 정장","category":"other"},{"name":"폰케이스샵","tel":"070-7787-9539","addr":"경기도 고양시 일산동구 정발산로","indutype":"신변잡화 - 액세서리","category":"other"}]},{"lat":"37.657269179","long":"126.77304543","imageIndex":17,"items":[{"name":"그린비통신","tel":"0070-7101-0301","addr":"경기도 고양시 일산동구 정발산로","indutype":"별도관리 - 자체물품대금","category":"other"},{"name":"주식회사 그린비통신","tel":"031-907-8867","addr":"경기도 고양시 일산동구 정발산로","indutype":"사무통신 - 통신기기","category":"other"}]},{"lat":"37.657684922","long":"126.77371277","imageIndex":17,"items":[{"name":"리폼사","tel":"031-907-2485","addr":"경기도 고양시 일산동구 정발산로","indutype":"수리서비스 - 세탁소","category":"other"},{"name":"스타일","tel":"031-903-5956","addr":"경기도 고양시 일산동구 정발산로","indutype":"신변잡화 - 신발","category":"other"},{"name":"알파 동구청점","tel":"031-906-0274","addr":"경기도 고양시 일산동구 정발산로","indutype":"서적문구 - 문구용품","category":"other"}]},{"lat":"37.657294904","long":"126.77237673","imageIndex":17,"items":[{"name":"소굿즈","tel":"031-902-7827","addr":"경기도 고양시 일산동구 정발산로","indutype":"주방용구 - 주방용식기","category":"other"},{"name":"온앤오프","tel":"031-901-1277","addr":"경기도 고양시 일산동구 정발산로","indutype":"신변잡화 - 가방","category":"other"}]},{"lat":"37.657521183","long":"126.77290866","imageIndex":17,"items":[{"name":"에이스중기","tel":"031-922-0451","addr":"경기도 고양시 일산동구 정발산로","indutype":"기타 - 기계공구","category":"other"}]},{"lat":"37.658269842","long":"126.77334833","imageIndex":17,"items":[{"name":"위드밴","tel":"0070-7017-4545","addr":"경기도 고양시 일산동구 정발산로","indutype":"별도관리 - 자체물품대금","category":"other"},{"name":"지환유통","tel":"031-902-3556","addr":"경기도 고양시 일산동구 정발산로","indutype":"사무통신 - 기타 사무용품","category":"other"}]},{"lat":"37.656461591","long":"126.77012414","imageIndex":17,"items":[{"name":"잇아이티","tel":"031-907-6222","addr":"경기도 고양시 일산동구 정발산로","indutype":"사무통신 - 컴퓨터","category":"other"}]},{"lat":"37.656660696","long":"126.77057682","imageIndex":17,"items":[{"name":"주식회사스포츠피플","tel":"031-967-2015","addr":"경기도 고양시 일산동구 정발산로","indutype":"서적문구 - 정기간행물","category":"other"},{"name":"피치스포츠","tel":"070-8802-6895","addr":"경기도 고양시 일산동구 정발산로","indutype":"레져용품 - 골프용품 전문점","category":"other"}]}]