[{"lat":"37.3853657143","long":"126.9847251289","imageIndex":0,"items":[{"name":"기회자동차공업사","tel":"031-425-6022","addr":"경기도 의왕시 내손동 703-13번지 지층","indutype":"자동차정비 유지 - 자동차정비","category":"car"}]},{"lat":"37.3746669575","long":"126.9680072809","imageIndex":0,"items":[{"name":"다원테크","tel":"031-456-2220","addr":"경기도 의왕시 내손동 816-1번지","indutype":"자동차판매 - 이륜차판매","category":"car"},{"name":"스윙코리아","tel":"031-456-2220","addr":"경기도 의왕시 내손동 816-1번지 1층 상가","indutype":"자동차판매 - 이륜차판매","category":"car"}]},{"lat":"37.3740000676","long":"126.9675334157","imageIndex":0,"items":[{"name":"다이샵","tel":"031-451-5820","addr":"경기도 의왕시 내손동 816-7번지","indutype":"자동차정비 유지 - 자동차부품","category":"car"}]},{"lat":"37.3907537647","long":"126.9847802908","imageIndex":0,"items":[{"name":"대신카인테리어","tel":"031-421-1359","addr":"경기도 의왕시 내손동 664-16번지","indutype":"자동차정비 유지 - 자동차정비","category":"car"}]},{"lat":"37.3881946339","long":"126.9831435683","imageIndex":0,"items":[{"name":"대원카센타","tel":"031-423-5968","addr":"경기도 의왕시 내손동 667번지 대원카센터","indutype":"자동차정비 유지 - 자동차정비","category":"car"}]},{"lat":"37.3888072543","long":"126.9827481849","imageIndex":0,"items":[{"name":"동우카센타","tel":"031-388-8251","addr":"경기도 의왕시 내손동 651-13번지","indutype":"자동차정비 유지 - 자동차정비","category":"car"}]},{"lat":"37.3868879389","long":"126.9818114797","imageIndex":0,"items":[{"name":"레이노(동안점)","tel":"031-8086-5217","addr":"경기도 의왕시 내손동 669-9번지 301호","indutype":"자동차정비 유지 - 카인테리어","category":"car"}]},{"lat":"37.3832201022","long":"126.9780863971","imageIndex":0,"items":[{"name":"명품세차","tel":"031-422-2235","addr":"경기도 의왕시 내손동 691-19번지 효성다세대 302호","indutype":"자동차정비 유지 - 세차장","category":"car"}]},{"lat":"37.3834996831","long":"126.9793960937","imageIndex":0,"items":[{"name":"민성오토바이","tel":"031-426-4939","addr":"경기도 의왕시 내손동 689-19번지 1층","indutype":"자동차판매 - 이륜차판매","category":"car"}]},{"lat":"37.3886347271","long":"126.9760294599","imageIndex":0,"items":[{"name":"삼성카센타","tel":"031-21-9990","addr":"경기도 의왕시 내손동 631-2번지 건형상가 117호","indutype":"자동차정비 유지 - 자동차정비","category":"car"}]},{"lat":"37.3786423308","long":"126.9752313945","imageIndex":0,"items":[{"name":"이레산업","tel":"070-4254-0160","addr":"경기도 의왕시 내손동 760-1번지","indutype":"자동차정비 유지 - 주차장","category":"car"}]},{"lat":"37.3880407113","long":"126.9790672100","imageIndex":0,"items":[{"name":"인영상사","tel":"","addr":"경기도 의왕시 내손동 846번지 의왕내손이편한세상","indutype":"자동차정비 유지 - 자동차부품","category":"car"}]},{"lat":"37.3842481504","long":"126.9828058614","imageIndex":0,"items":[{"name":"제이게라지","tel":"02-1577-0000","addr":"경기도 의왕시 내손동 677-9번지 1층","indutype":"자동차판매 - 이륜차판매","category":"car"}]},{"lat":"37.3906636516","long":"126.9847012660","imageIndex":0,"items":[{"name":"제일카센타","tel":"031-421-6113","addr":"경기도 의왕시 내손동 664-17번지","indutype":"자동차정비 유지 - 자동차정비","category":"car"}]},{"lat":"37.3801646518","long":"126.9736162536","imageIndex":0,"items":[{"name":"크린테크 의왕점","tel":"031-423-6999","addr":"경기도 의왕시 내손동 743번지 롯데마트 4층 스팀세차코너","indutype":"자동차정비 유지 - 세차장","category":"car"}]},{"lat":"37.3830853113","long":"126.9798704542","imageIndex":0,"items":[{"name":"팡팡모터스","tel":"","addr":"경기도 의왕시 내손동 694-7번지 우성다세대 303호","indutype":"자동차정비 유지 - 자동차정비","category":"car"}]},{"lat":"37.3752532036","long":"126.9700617978","imageIndex":0,"items":[{"name":"평촌자동차공업사","tel":"031-454-5704","addr":"경기도 의왕시 내손동 801-1번지","indutype":"자동차정비 유지 - 자동차부품","category":"car"}]},{"lat":"37.3835001923","long":"126.9821172926","imageIndex":0,"items":[{"name":"프로카센타","tel":"031-24-1178","addr":"경기도 의왕시 내손동 697-2번지","indutype":"자동차정비 유지 - 카인테리어","category":"car"}]},{"lat":"37.3751720906","long":"126.9699828029","imageIndex":0,"items":[{"name":"현대모터스","tel":"031-477-8254","addr":"경기도 의왕시 내손동 801-2번지","indutype":"자동차정비 유지 - 자동차정비","category":"car"}]},{"lat":"37.3831119166","long":"126.9777815696","imageIndex":0,"items":[{"name":"환희카센타","tel":"031-423-3071","addr":"경기도 의왕시 내손동 692번지","indutype":"자동차정비 유지 - 자동차정비","category":"car"}]}]