[{"lat":"37.172438814","long":"126.65790473","imageIndex":4,"items":[{"name":"감뿌리손칼국수","tel":"031-356-9976","addr":"경기도 화성시 서신면 송교리 378-3번지","indutype":"일반휴게음식 - 일반한식","category":"restaurant"}]},{"lat":"37.173578749","long":"126.65640198","imageIndex":4,"items":[{"name":"갯뻘","tel":"031-356-6865","addr":"경기도 화성시 서신면 송교리 377-4번지","indutype":"일반휴게음식 - 일반한식","category":"restaurant"}]},{"lat":"37.158769857","long":"126.65784301","imageIndex":4,"items":[{"name":"글로리아","tel":"031-3062-7741","addr":"경기도 화성시 서신면 송교리 798-6번지","indutype":"일반휴게음식 - 서양음식","category":"restaurant"}]},{"lat":"37.173851753","long":"126.65732405","imageIndex":4,"items":[{"name":"내집처렁청정수산","tel":"031-356-5987","addr":"경기도 화성시 서신면 송교리 377-17번지 130","indutype":"일반휴게음식 - 일반한식","category":"restaurant"},{"name":"또봉이통닭","tel":"031-357-8886","addr":"경기도 화성시 서신면 송교리 377-17번지 1층 145호","indutype":"일반휴게음식 - 스넥","category":"restaurant"},{"name":"만나수산1","tel":"031-356-8805","addr":"경기도 화성시 서신면 송교리 377-17번지 (120,120-1,120-2,121,121-1,121-2호)","indutype":"일반휴게음식 - 일반한식","category":"restaurant"},{"name":"만수네","tel":"031-356-9723","addr":"경기도 화성시 서신면 송교리 377-17번지 122,122-2호","indutype":"일반휴게음식 - 일반한식","category":"restaurant"},{"name":"이탈리코커피","tel":"031-225-7605","addr":"경기도 화성시 서신면 송교리 377-17번지 147","indutype":"일반휴게음식 - 서양음식","category":"restaurant"}]},{"lat":"37.169496217","long":"126.65921293","imageIndex":4,"items":[{"name":"떡우물가든","tel":"031-356-9986","addr":"경기도 화성시 서신면 송교리 409번지","indutype":"일반휴게음식 - 일반한식","category":"restaurant"}]},{"lat":"37.16627513","long":"126.66081501","imageIndex":4,"items":[{"name":"마르다타운","tel":"031-355-4081","addr":"경기도 화성시 서신면 송교리 436번지 1층","indutype":"일반휴게음식 - 일반한식","category":"restaurant"}]},{"lat":"37.164769563","long":"126.67324004","imageIndex":4,"items":[{"name":"물레방아2","tel":"","addr":"경기도 화성시 서신면 송교리 35-1번지","indutype":"일반휴게음식 - 일반한식","category":"restaurant"}]},{"lat":"37.173434816","long":"126.65648146","imageIndex":4,"items":[{"name":"서해회센타","tel":"031-356-8765","addr":"경기도 화성시 서신면 송교리 377-5번지","indutype":"일반휴게음식 - 일식·회집","category":"restaurant"},{"name":"싱싱회집","tel":"031-357-7677","addr":"경기도 화성시 서신면 송교리 377-5번지","indutype":"일반휴게음식 - 일반한식","category":"restaurant"}]},{"lat":"37.171656264","long":"126.65836993","imageIndex":4,"items":[{"name":"성원칼국수","tel":"031-357-4796","addr":"경기도 화성시 서신면 송교리 384번지","indutype":"일반휴게음식 - 일반한식","category":"restaurant"}]},{"lat":"37.164887448","long":"126.67350974","imageIndex":4,"items":[{"name":"소나무집","tel":"0507-1313-5691","addr":"경기도 화성시 서신면 송교리 34-1번지","indutype":"일반휴게음식 - 일반한식","category":"restaurant"}]},{"lat":"37.166157837","long":"126.67348171","imageIndex":4,"items":[{"name":"솔밭농원","tel":"01-3697-7236","addr":"경기도 화성시 서신면 송교리 19번지 1층","indutype":"일반휴게음식 - 일반한식","category":"restaurant"}]},{"lat":"37.174075038","long":"126.65664743","imageIndex":4,"items":[{"name":"송죽회센타","tel":"031-357-4953","addr":"경기도 화성시 서신면 송교리 377-7번지 3,4호","indutype":"일반휴게음식 - 일식·회집","category":"restaurant"}]},{"lat":"37.173020771","long":"126.65662972","imageIndex":4,"items":[{"name":"수다카페","tel":"031-357-9646","addr":"경기도 화성시 서신면 송교리 377-3번지 105호","indutype":"일반휴게음식 - 서양음식","category":"restaurant"},{"name":"완도횟집","tel":"031-356-8254","addr":"경기도 화성시 서신면 송교리 377-3번지","indutype":"일반휴게음식 - 일반한식","category":"restaurant"},{"name":"원조할머니네","tel":"031-356-4605","addr":"경기도 화성시 서신면 송교리 377-3번지","indutype":"일반휴게음식 - 일반한식","category":"restaurant"}]},{"lat":"37.165407772","long":"126.66312695","imageIndex":4,"items":[{"name":"수성2호왕새우","tel":"","addr":"경기도 화성시 서신면 송교리 502번지 1층 일부","indutype":"일반휴게음식 - 일반한식","category":"restaurant"}]},{"lat":"37.173767636","long":"126.65628852","imageIndex":4,"items":[{"name":"어촌마을","tel":"031-357-6111","addr":"경기도 화성시 서신면 송교리 377-2번지","indutype":"일반휴게음식 - 일반한식","category":"restaurant"}]},{"lat":"37.170100134","long":"126.65928901","imageIndex":4,"items":[{"name":"외오동","tel":"031-357-7525","addr":"경기도 화성시 서신면 송교리 402-2","indutype":"일반휴게음식 - 일반한식","category":"restaurant"}]},{"lat":"37.173132933","long":"126.65801417","imageIndex":4,"items":[{"name":"운봉정육식당","tel":"031-8821-6491","addr":"경기도 화성시 서신면 송교리 378-7번지","indutype":"일반휴게음식 - 일반한식","category":"restaurant"}]},{"lat":"37.173130177","long":"126.65706836","imageIndex":4,"items":[{"name":"전라도회집","tel":"031-355-2287","addr":"경기도 화성시 서신면 송교리 377-10번지","indutype":"일반휴게음식 - 일식·회집","category":"restaurant"}]},{"lat":"37.172690544","long":"126.65771217","imageIndex":4,"items":[{"name":"제부도 경하네","tel":"031-356-4953","addr":"경기도 화성시 서신면 송교리 377-13번지","indutype":"일반휴게음식 - 일반한식","category":"restaurant"}]},{"lat":"37.172908397","long":"126.65826291","imageIndex":4,"items":[{"name":"제부도까페","tel":"031-366-8766","addr":"경기도 화성시 서신면 송교리 378-8번지 1층","indutype":"일반휴게음식 - 서양음식","category":"restaurant"}]},{"lat":"37.171742891","long":"126.65717602","imageIndex":4,"items":[{"name":"제부도자갈치","tel":"031-355-3469","addr":"경기도 화성시 서신면 송교리 379-12번지","indutype":"일반휴게음식 - 일반한식","category":"restaurant"}]},{"lat":"37.170883408","long":"126.65907153","imageIndex":4,"items":[{"name":"제부리손칼국수(청우농원)","tel":"031-5133-4245","addr":"경기도 화성시 서신면 송교리 386-2번지","indutype":"일반휴게음식 - 일반한식","category":"restaurant"}]},{"lat":"37.172941454","long":"126.65723812","imageIndex":4,"items":[{"name":"참가마설렁탕","tel":"031-355-1710","addr":"경기도 화성시 서신면 송교리 377-11번지 1층","indutype":"일반휴게음식 - 일반한식","category":"restaurant"}]},{"lat":"37.17357604","long":"126.6585639","imageIndex":4,"items":[{"name":"카페10번가","tel":"031-355-6848","addr":"경기도 화성시 서신면 송교리 378-10번지 2층","indutype":"일반휴게음식 - 서양음식","category":"restaurant"}]},{"lat":"37.165352741","long":"126.66278944","imageIndex":4,"items":[{"name":"카페소나무","tel":"031-355-3027","addr":"경기도 화성시 서신면 송교리 500번지 1,2층","indutype":"일반휴게음식 - 서양음식","category":"restaurant"}]},{"lat":"37.163828907","long":"126.66556585","imageIndex":4,"items":[{"name":"해조식당","tel":"031-57-3639","addr":"경기도 화성시 서신면 송교리 582번지","indutype":"일반휴게음식 - 일반한식","category":"restaurant"},{"name":"해조식당","tel":"031-357-3639","addr":"경기도 화성시 서신면 송교리 582번지","indutype":"일반휴게음식 - 일반한식","category":"restaurant"}]}]