[{"lat":"37.89646698","long":"126.97524343","imageIndex":4,"items":[{"name":"3학년3반","tel":"031-863-8261","addr":"경기도 양주시 남면 신산리 282-1번지 (외3필지(282-3.282-8.282-9))","indutype":"일반휴게음식 - 일반한식","category":"restaurant"}]},{"lat":"37.895691978","long":"126.97440241","imageIndex":4,"items":[{"name":"88양꼬치전문점","tel":"031-863-8232","addr":"경기도 양주시 남면 신산리 285-188번지","indutype":"일반휴게음식 - 주점","category":"restaurant"}]},{"lat":"37.896214472","long":"126.97420893","imageIndex":4,"items":[{"name":"가나설렁탕","tel":"031-867-3447","addr":"경기도 양주시 남면 신산리 285-107번지","indutype":"일반휴게음식 - 일반한식","category":"restaurant"}]},{"lat":"37.895746108","long":"126.97470935","imageIndex":4,"items":[{"name":"감악산생고기","tel":"031-867-8833","addr":"경기도 양주시 남면 신산리 285-195번지 1층","indutype":"일반휴게음식 - 일반한식","category":"restaurant"}]},{"lat":"37.897106934","long":"126.97651655","imageIndex":4,"items":[{"name":"감악정소한마리","tel":"031-868-4755","addr":"경기도 양주시 남면 신산리 292-1번지 1층","indutype":"일반휴게음식 - 일반한식","category":"restaurant"},{"name":"그린카페","tel":"031-857-8258","addr":"경기도 양주시 남면 신산리 292-1번지","indutype":"일반휴게음식 - 서양음식","category":"restaurant"}]},{"lat":"37.894268253","long":"126.97337976","imageIndex":4,"items":[{"name":"고기촌","tel":"031-867-8664","addr":"경기도 양주시 남면 신산리 326-3번지 1층","indutype":"일반휴게음식 - 일반한식","category":"restaurant"}]},{"lat":"37.896628834","long":"126.97393591","imageIndex":4,"items":[{"name":"고깃집","tel":"031-863-8859","addr":"경기도 양주시 남면 신산리 285-95번지 1층","indutype":"일반휴게음식 - 일반한식","category":"restaurant"}]},{"lat":"37.896133725","long":"126.9756301","imageIndex":4,"items":[{"name":"고미삼계탕","tel":"031-866-3338","addr":"경기도 양주시 남면 신산리 289-2번지 1층","indutype":"일반휴게음식 - 일반한식","category":"restaurant"}]},{"lat":"37.894745704","long":"126.97320903","imageIndex":4,"items":[{"name":"기발한치킨","tel":"031-865-5199","addr":"경기도 양주시 남면 신산리 286-9번지 1층","indutype":"일반휴게음식 - 일반한식","category":"restaurant"}]},{"lat":"37.896854716","long":"126.97670991","imageIndex":4,"items":[{"name":"김밥짱만두짱","tel":"031-864-8807","addr":"경기도 양주시 남면 신산리 305-2번지","indutype":"일반휴게음식 - 일반한식","category":"restaurant"}]},{"lat":"37.896412746","long":"126.97449308","imageIndex":4,"items":[{"name":"김밥천국","tel":"031-867-3500","addr":"경기도 양주시 남면 신산리 281-16","indutype":"일반휴게음식 - 스넥","category":"restaurant"},{"name":"여장군막창","tel":"031-857-5456","addr":"경기도 양주시 남면 신산리 281-16번지 1층 일부","indutype":"일반휴게음식 - 일반한식","category":"restaurant"}]},{"lat":"37.895800103","long":"126.97445921","imageIndex":4,"items":[{"name":"꼬레랑 옛날통닭","tel":"031-865-9965","addr":"경기도 양주시 남면 신산리 285-189번지 1층","indutype":"일반휴게음식 - 스넥","category":"restaurant"}]},{"lat":"37.896520674","long":"126.97374267","imageIndex":4,"items":[{"name":"꿀벌","tel":"031-863-5636","addr":"경기도 양주시 남면 신산리 285-112번지","indutype":"일반휴게음식 - 일반한식","category":"restaurant"}]},{"lat":"37.895746338","long":"126.97568709","imageIndex":4,"items":[{"name":"더타임즈","tel":"031-868-2287","addr":"경기도 양주시 남면 신산리 287-7번지 2층","indutype":"일반휴게음식 - 주점","category":"restaurant"}]},{"lat":"37.896628909","long":"126.97424288","imageIndex":4,"items":[{"name":"동글네","tel":"031-865-8805","addr":"경기도 양주시 남면 신산리 280-6번지","indutype":"일반휴게음식 - 일반한식","category":"restaurant"}]},{"lat":"37.895358987","long":"126.97590324","imageIndex":4,"items":[{"name":"동원","tel":"00-0000-0000","addr":"경기도 양주시 남면 신산리 287-24번지 1층","indutype":"일반휴게음식 - 일반한식","category":"restaurant"}]},{"lat":"37.896358534","long":"126.97385643","imageIndex":4,"items":[{"name":"동치미","tel":"031-861-5271","addr":"경기도 양주시 남면 신산리 285-111번지","indutype":"일반휴게음식 - 일반한식","category":"restaurant"}]},{"lat":"37.896268503","long":"126.97410659","imageIndex":4,"items":[{"name":"두꺼비","tel":"031-865-7065","addr":"경기도 양주시 남면 신산리 285-108번지 1층","indutype":"일반휴게음식 - 일반한식","category":"restaurant"},{"name":"맘스터치 양주신산점","tel":"031-857-5578","addr":"경기도 양주시 남면 신산리 285-108번지 1층","indutype":"일반휴게음식 - 서양음식","category":"restaurant"}]},{"lat":"37.891052966","long":"126.97788291","imageIndex":4,"items":[{"name":"드럼통장작구이","tel":"031-866-8592","addr":"경기도 양주시 남면 신산리 76-1번지","indutype":"일반휴게음식 - 일반한식","category":"restaurant"}]},{"lat":"37.89080081","long":"126.9783832","imageIndex":4,"items":[{"name":"로뎀","tel":"031-111-1111","addr":"경기도 양주시 남면 신산리 124번지","indutype":"일반휴게음식 - 서양음식","category":"restaurant"}]},{"lat":"37.896241688","long":"126.97499339","imageIndex":4,"items":[{"name":"메가엠지씨커피양주신산","tel":"","addr":"경기도 양주시 남면 신산리 282-4번지 1층 일부","indutype":"일반휴게음식 - 서양음식","category":"restaurant"}]},{"lat":"37.896718803","long":"126.97343563","imageIndex":4,"items":[{"name":"명동분식","tel":"031-867-7999","addr":"경기도 양주시 남면 신산리 285-91번지","indutype":"일반휴게음식 - 일반한식","category":"restaurant"}]},{"lat":"37.89513388","long":"126.97646041","imageIndex":4,"items":[{"name":"모퉁이 한식부페","tel":"031-000-0000","addr":"경기도 양주시 남면 신산리 287-14번지","indutype":"일반휴게음식 - 일반한식","category":"restaurant"}]},{"lat":"37.895664925","long":"126.97430009","imageIndex":4,"items":[{"name":"봄날에","tel":"031-866-8887","addr":"경기도 양주시 남면 신산리 285-187번지","indutype":"일반휴게음식 - 일반한식","category":"restaurant"}]},{"lat":"37.896106521","long":"126.97487975","imageIndex":4,"items":[{"name":"봉구스밥버거(신산점)","tel":"031-868-5797","addr":"경기도 양주시 남면 신산리 283-3번지","indutype":"일반휴게음식 - 일반한식","category":"restaurant"},{"name":"유자포차","tel":"031-868-5797","addr":"경기도 양주시 남면 신산리 283-3번지 1층","indutype":"일반휴게음식 - 주점","category":"restaurant"}]},{"lat":"37.897133557","long":"126.97476567","imageIndex":4,"items":[{"name":"부여식당","tel":"031-863-5639","addr":"경기도 양주시 남면 신산리 279-1번지","indutype":"일반휴게음식 - 일반한식","category":"restaurant"}]},{"lat":"37.894935059","long":"126.97384562","imageIndex":4,"items":[{"name":"비에치씨(BHC 남면사랑점)","tel":"031-858-0991","addr":"경기도 양주시 남면 신산리 285-180번지 1층 전체","indutype":"일반휴게음식 - 스넥","category":"restaurant"}]},{"lat":"37.893521085","long":"126.97590391","imageIndex":4,"items":[{"name":"산골오리","tel":"031-868-1310","addr":"경기도 양주시 남면 신산리 324-29번지 1층","indutype":"일반휴게음식 - 일반한식","category":"restaurant"},{"name":"세븐쿡","tel":"031-864-4933","addr":"경기도 양주시 남면 신산리 324-29번지 1층","indutype":"일반휴게음식 - 일반한식","category":"restaurant"}]},{"lat":"37.896331545","long":"126.97401561","imageIndex":4,"items":[{"name":"삼겹살이좋아","tel":"031-861-0503","addr":"경기도 양주시 남면 신산리 285-110번지","indutype":"일반휴게음식 - 일반한식","category":"restaurant"}]},{"lat":"37.895241922","long":"126.9761534","imageIndex":4,"items":[{"name":"신산추어탕","tel":"031-863-8959","addr":"경기도 양주시 남면 신산리 287-12번지","indutype":"일반휴게음식 - 일반한식","category":"restaurant"}]},{"lat":"37.895575244","long":"126.97605096","imageIndex":4,"items":[{"name":"신의주찹쌀순대","tel":"031-865-0323","addr":"경기도 양주시 남면 신산리 287-25번지 1층","indutype":"일반휴게음식 - 일반한식","category":"restaurant"},{"name":"야밤에동네에서","tel":"031-865-3335","addr":"경기도 양주시 남면 신산리 287-25번지","indutype":"일반휴게음식 - 일반한식","category":"restaurant"}]},{"lat":"37.89702512","long":"126.9734355","imageIndex":4,"items":[{"name":"싹쓰리(남면점)","tel":"031-868-3364","addr":"경기도 양주시 남면 신산리 285-28번지 1층","indutype":"일반휴게음식 - 일반한식","category":"restaurant"}]},{"lat":"37.894718787","long":"126.97365243","imageIndex":4,"items":[{"name":"아리랑 순대국감자탕","tel":"031-863-5568","addr":"경기도 양주시 남면 신산리 285-178","indutype":"일반휴게음식 - 일반한식","category":"restaurant"}]},{"lat":"37.895880859","long":"126.97312899","imageIndex":4,"items":[{"name":"알콤달콤","tel":"031-861-8832","addr":"경기도 양주시 남면 신산리 285-139번지","indutype":"일반휴게음식 - 서양음식","category":"restaurant"}]},{"lat":"37.895413156","long":"126.97640346","imageIndex":4,"items":[{"name":"엄마손식당","tel":"031-868-1511","addr":"경기도 양주시 남면 신산리 287-20번지 1층","indutype":"일반휴게음식 - 일반한식","category":"restaurant"}]},{"lat":"37.895296171","long":"126.97701743","imageIndex":4,"items":[{"name":"오방색","tel":"031-863-3321","addr":"경기도 양주시 남면 신산리 310-7번지 1층","indutype":"일반휴게음식 - 일반한식","category":"restaurant"}]},{"lat":"37.895188042","long":"126.97693788","imageIndex":4,"items":[{"name":"오손도손","tel":"031-863-3777","addr":"경기도 양주시 남면 신산리 310-6번지","indutype":"일반휴게음식 - 일반한식","category":"restaurant"}]},{"lat":"37.895854074","long":"126.97410675","imageIndex":4,"items":[{"name":"요거프레소","tel":"070-7404-1465","addr":"경기도 양주시 남면 신산리 285-122번지","indutype":"일반휴게음식 - 서양음식","category":"restaurant"}]},{"lat":"37.894880818","long":"126.97310666","imageIndex":4,"items":[{"name":"우거지품은순대국","tel":"031-864-2388","addr":"경기도 양주시 남면 신산리 285-167번지","indutype":"일반휴게음식 - 일반한식","category":"restaurant"}]},{"lat":"37.896548269","long":"126.97613019","imageIndex":4,"items":[{"name":"이모네","tel":"031-866-2900","addr":"경기도 양주시 남면 신산리 279-21번지 1층 일부","indutype":"일반휴게음식 - 일반한식","category":"restaurant"}]},{"lat":"37.895079208","long":"126.97384556","imageIndex":4,"items":[{"name":"인생전집","tel":"031-864-7933","addr":"경기도 양주시 남면 신산리 285-182번지 1층","indutype":"일반휴게음식 - 일반한식","category":"restaurant"}]},{"lat":"37.895385642","long":"126.97432294","imageIndex":4,"items":[{"name":"장수인삼족발보쌈","tel":"031-864-4992","addr":"경기도 양주시 남면 신산리 285-332번지 가동","indutype":"일반휴게음식 - 일반한식","category":"restaurant"}]},{"lat":"37.896692062","long":"126.97460667","imageIndex":4,"items":[{"name":"장터식당","tel":"031-862-9644","addr":"경기도 양주시 남면 신산리 281-20번지","indutype":"일반휴게음식 - 일반한식","category":"restaurant"}]},{"lat":"37.894719407","long":"126.97626728","imageIndex":4,"items":[{"name":"전우네식당","tel":"031-868-2127","addr":"경기도 양주시 남면 신산리 322-3번지 1층 일부","indutype":"일반휴게음식 - 일반한식","category":"restaurant"}]},{"lat":"37.896772935","long":"126.97374257","imageIndex":4,"items":[{"name":"전주 두꺼비","tel":"031-868-4006","addr":"경기도 양주시 남면 신산리 285-24번지","indutype":"일반휴게음식 - 일반한식","category":"restaurant"}]},{"lat":"37.89099874","long":"126.97709851","imageIndex":4,"items":[{"name":"정호횟집","tel":"031-861-6768","addr":"경기도 양주시 남면 신산리 346-13번지","indutype":"일반휴게음식 - 일반한식","category":"restaurant"}]},{"lat":"37.896628743","long":"126.97357209","imageIndex":4,"items":[{"name":"중화객잔","tel":"031-863-5648","addr":"경기도 양주시 남면 신산리 285-94번지","indutype":"일반휴게음식 - 중국식","category":"restaurant"}]},{"lat":"37.896602184","long":"126.97551624","imageIndex":4,"items":[{"name":"중화원","tel":"031-868-8220","addr":"경기도 양주시 남면 신산리 279-4번지","indutype":"일반휴게음식 - 중국식","category":"restaurant"}]},{"lat":"37.896350412","long":"126.97771058","imageIndex":4,"items":[{"name":"짜짜루 중화요리","tel":"031-861-3999","addr":"경기도 양주시 남면 신산리 168-1번지","indutype":"일반휴게음식 - 중국식","category":"restaurant"}]},{"lat":"37.895520583","long":"126.97351569","imageIndex":4,"items":[{"name":"천안문","tel":"031-867-6488","addr":"경기도 양주시 남면 신산리 285-146번지","indutype":"일반휴게음식 - 중국식","category":"restaurant"}]},{"lat":"37.895826817","long":"126.97318586","imageIndex":4,"items":[{"name":"천하장사숯불갈비","tel":"031-867-6432","addr":"경기도 양주시 남면 신산리 285-141번지","indutype":"일반휴게음식 - 일반한식","category":"restaurant"}]},{"lat":"37.897133183","long":"126.97324218","imageIndex":4,"items":[{"name":"초가","tel":"031-863-5630","addr":"경기도 양주시 남면 신산리 285-31번지","indutype":"일반휴게음식 - 주점","category":"restaurant"}]},{"lat":"37.89769233","long":"126.97559542","imageIndex":4,"items":[{"name":"춘천닭갈비","tel":"031-868-3118","addr":"경기도 양주시 남면 신산리 268-30번지","indutype":"일반휴게음식 - 일반한식","category":"restaurant"}]},{"lat":"37.894628688","long":"126.97362973","imageIndex":4,"items":[{"name":"카페이솝","tel":"070-8888-6716","addr":"경기도 양주시 남면 신산리 285-177번지 1층","indutype":"일반휴게음식 - 서양음식","category":"restaurant"}]},{"lat":"37.895800125","long":"126.97455016","imageIndex":4,"items":[{"name":"호동이분식","tel":"031-861-8749","addr":"경기도 양주시 남면 신산리 285-190번지 1층 전체","indutype":"일반휴게음식 - 일반한식","category":"restaurant"}]},{"lat":"37.894961951","long":"126.9732999","imageIndex":4,"items":[{"name":"황금삼계탕","tel":"031-867-0808","addr":"경기도 양주시 남면 신산리 285-169번지","indutype":"일반휴게음식 - 일반한식","category":"restaurant"}]},{"lat":"37.895467035","long":"126.97563035","imageIndex":4,"items":[{"name":"훈이네 식당","tel":"031-862-9987","addr":"경기도 양주시 남면 신산리 287-22번지 1층","indutype":"일반휴게음식 - 일반한식","category":"restaurant"}]}]