[{"lat":"37.683576129","long":"126.85003045","imageIndex":7,"items":[{"name":"(주)모모","tel":"031-938-4355","addr":"경기도 고양시 덕양구 원당동 672-1번지","indutype":"음료식품 - 제과점","category":"food"}]},{"lat":"37.675961863","long":"126.84917325","imageIndex":7,"items":[{"name":"내 마음의 고기","tel":"031-963-0064","addr":"경기도 고양시 덕양구 원당동 395-1번지","indutype":"음료식품 - 정육점","category":"food"}]},{"lat":"37.676154797","long":"126.85206339","imageIndex":7,"items":[{"name":"농업회사법인 유한회사 덕양물산","tel":"031-967-0222","addr":"경기도 고양시 덕양구 원당동 465-2번지","indutype":"음료식품 - 기타음료식품","category":"food"}]},{"lat":"37.659378152","long":"126.87434386","imageIndex":7,"items":[{"name":"농협대학교생활협동조합","tel":"031-960-4222","addr":"경기도 고양시 덕양구 원당동 198-201번지","indutype":"음료식품 - 기타음료식품","category":"food"},{"name":"창농팜 협동조합","tel":"","addr":"경기도 고양시 덕양구 원당동 198-201번지","indutype":"음료식품 - 농·축·수산품","category":"food"}]},{"lat":"37.674962443","long":"126.84967406","imageIndex":7,"items":[{"name":"뻥튀기공작소고양점","tel":"","addr":"경기도 고양시 덕양구 원당동 376-1번지","indutype":"음료식품 - 기타음료식품","category":"food"}]},{"lat":"37.681237122","long":"126.85275595","imageIndex":7,"items":[{"name":"삼일식품","tel":"031-963-7721","addr":"경기도 고양시 덕양구 원당동","indutype":"음료식품 - 농·축·수산품","category":"food"}]},{"lat":"37.660523507","long":"126.85967686","imageIndex":7,"items":[{"name":"서삼능버섯농장","tel":"031-969-4155","addr":"경기도 고양시 덕양구 원당동 198-13번지","indutype":"음료식품 - 농·축·수산품","category":"food"}]},{"lat":"37.665715317","long":"126.85420395","imageIndex":7,"items":[{"name":"시요체험학습농장","tel":"","addr":"경기도 고양시 덕양구 원당동","indutype":"음료식품 - 농·축·수산품","category":"food"}]},{"lat":"37.674820334","long":"126.84440345","imageIndex":7,"items":[{"name":"왕릉골 달팽이","tel":"031-906-0603","addr":"경기도 고양시 덕양구 원당동 912-2번지","indutype":"음료식품 - 농·축·수산품","category":"food"}]},{"lat":"37.68312886","long":"126.84562146","imageIndex":7,"items":[{"name":"청대골","tel":"031-965-6425","addr":"경기도 고양시 덕양구 원당동 841-3번지","indutype":"음료식품 - 기타음료식품","category":"food"}]},{"lat":"37.682655954","long":"126.84911409","imageIndex":7,"items":[{"name":"탁구진의한우","tel":"031-962-2080","addr":"경기도 고양시 덕양구 원당동 636-8번지","indutype":"음료식품 - 정육점","category":"food"}]},{"lat":"37.685429971","long":"126.855423","imageIndex":7,"items":[{"name":"하나농원","tel":"031-962-8156","addr":"경기도 고양시 덕양구 원당동 762번지","indutype":"음료식품 - 농·축·수산품","category":"food"}]},{"lat":"37.681823159","long":"126.84614569","imageIndex":7,"items":[{"name":"황금꽃게","tel":"031-967-8770","addr":"경기도 고양시 덕양구 원당동 881번지","indutype":"음료식품 - 농·축·수산품","category":"food"}]}]