[{"lat":"37.611647084","long":"127.14504188","imageIndex":7,"items":[{"name":"(주) 굿팜","tel":"031-577-0074","addr":"경기도 구리시 인창동 127번지 구리농수산물시장","indutype":"음료식품 - 농·축·수산품","category":"food"},{"name":"(주)경전유통","tel":"031-000-0000","addr":"경기도 구리시 인창동 127번지","indutype":"음료식품 - 농·축·수산품","category":"food"},{"name":"(주)고흥수산","tel":"031-562-6161","addr":"경기도 구리시 인창동 127번지 농수산물도매시장수산 2동 715호","indutype":"음료식품 - 농·축·수산품","category":"food"},{"name":"(주)광덕수산","tel":"","addr":"경기도 구리시 인창동 127번지 수산물동 23호","indutype":"음료식품 - 농·축·수산품","category":"food"},{"name":"(주)대두농수산","tel":"031-551-4585","addr":"경기도 구리시 인창동 127번지 농수산수협 404호","indutype":"음료식품 - 농·축·수산품","category":"food"},{"name":"(주)대연청과","tel":"02-567-1157","addr":"경기도 구리시 인창동 127번지 구리농수산물도매시장 315호","indutype":"음료식품 - 농·축·수산품","category":"food"},{"name":"(주)돌산수산","tel":"031-562-6611","addr":"경기도 구리시 인창동 127번지","indutype":"음료식품 - 농·축·수산품","category":"food"},{"name":"(주)삼보수산","tel":"031-553-4001","addr":"경기도 구리시 인창동 127번지 구리농수산물시장 내수산물동 209호","indutype":"음료식품 - 농·축·수산품","category":"food"},{"name":"(주)상윤","tel":"031-554-9202","addr":"경기도 구리시 인창동 127번지","indutype":"음료식품 - 농·축·수산품","category":"food"},{"name":"(주)성연","tel":"031-554-2466","addr":"경기도 구리시 인창동 127번지 구리농수산물시장 123호","indutype":"음료식품 - 농·축·수산품","category":"food"},{"name":"(주)성훈수산","tel":"031-552-1717","addr":"경기도 구리시 인창동 127번지 수협공판장 310호","indutype":"음료식품 - 농·축·수산품","category":"food"},{"name":"(주)신해유통","tel":"031-565-8265","addr":"경기도 구리시 인창동 127번지 구리농수산물공사 수산-318","indutype":"음료식품 - 농·축·수산품","category":"food"},{"name":"(주)아도씨푸드","tel":"031-569-2347","addr":"경기도 구리시 인창동 127번지","indutype":"음료식품 - 농·축·수산품","category":"food"},{"name":"(주)태정수산","tel":"031-554-0371","addr":"경기도 구리시 인창동 127번지","indutype":"음료식품 - 농·축·수산품","category":"food"},{"name":"(주)풍년수산","tel":"031-566-1888","addr":"경기도 구리시 인창동 127번지","indutype":"음료식품 - 농·축·수산품","category":"food"},{"name":"(주)풍년수산","tel":"031-566-1888","addr":"경기도 구리시 인창동 127번지","indutype":"음료식품 - 농·축·수산품","category":"food"},{"name":"(주)형제상회","tel":"031-553-5030","addr":"경기도 구리시 인창동 127번지 구리농수산물도매시장 430호","indutype":"음료식품 - 농·축·수산품","category":"food"},{"name":"(주)호윤수산","tel":"031-555-8165","addr":"경기도 구리시 인창동 127번지 구리농수산물시장","indutype":"음료식품 - 농·축·수산품","category":"food"},{"name":"경동상사","tel":"031-557-2344","addr":"경기도 구리시 인창동 127번지 농산물도매시장 503호","indutype":"음료식품 - 농·축·수산품","category":"food"},{"name":"광천푸드","tel":"031-565-5503","addr":"경기도 구리시 인창동 127번지 구리농수산물도매시장 수산2동 21048호","indutype":"음료식품 - 농·축·수산품","category":"food"},{"name":"남강수산주식회사","tel":"031-553-9023","addr":"경기도 구리시 인창동 127번지","indutype":"음료식품 - 농·축·수산품","category":"food"},{"name":"남해수산","tel":"031-555-2228","addr":"경기도 구리시 인창동 127번지 구리농수산물시장 1층 2-21204호","indutype":"음료식품 - 농·축·수산품","category":"food"},{"name":"대덕수산","tel":"031-552-4108","addr":"경기도 구리시 인창동 127번지","indutype":"음료식품 - 농·축·수산품","category":"food"},{"name":"대박농산(주)","tel":"031-555-3152","addr":"경기도 구리시 인창동 127번지 (주)인터넷청과채소작업장 3호","indutype":"음료식품 - 농·축·수산품","category":"food"},{"name":"대성물산(주)","tel":"031-553-0204","addr":"경기도 구리시 인창동 127번지 구리농수산물도매시장 203호","indutype":"음료식품 - 농·축·수산품","category":"food"},{"name":"대승수산","tel":"031-554-9017","addr":"경기도 구리시 인창동 127번지 수산물도매시장","indutype":"음료식품 - 농·축·수산품","category":"food"},{"name":"대양수산 주식회사","tel":"02-444-2155","addr":"경기도 구리시 인창동 127번지 2층 구리농수산물도매시장수산동","indutype":"음료식품 - 농·축·수산품","category":"food"},{"name":"대포수산","tel":"031-555-8364","addr":"경기도 구리시 인창동 127번지 구리농수산물도매시장내수산 2동 75","indutype":"음료식품 - 농·축·수산품","category":"food"},{"name":"동림유통 주식회사","tel":"031-557-0058","addr":"경기도 구리시 인창동 127번지","indutype":"음료식품 - 농·축·수산품","category":"food"},{"name":"동명수산","tel":"031-553-0087","addr":"경기도 구리시 인창동 127번지 구리농수산물시장 24호","indutype":"음료식품 - 농·축·수산품","category":"food"},{"name":"동해수산주식회사","tel":"031-563-3900","addr":"경기도 구리시 인창동 127번지 수산 221동 015호","indutype":"음료식품 - 농·축·수산품","category":"food"},{"name":"명길수산(주)","tel":"031-552-7008","addr":"경기도 구리시 인창동 127번지","indutype":"음료식품 - 농·축·수산품","category":"food"},{"name":"목포유통주식회사","tel":"031-565-2555","addr":"경기도 구리시 인창동 127번지 구리유통종합시장수산물동 632호","indutype":"음료식품 - 농·축·수산품","category":"food"},{"name":"믿음수산","tel":"","addr":"경기도 구리시 인창동 127번지","indutype":"음료식품 - 농·축·수산품","category":"food"},{"name":"보양무역","tel":"031-567-8007","addr":"경기도 구리시 인창동 127번지 구리농수산물도매시장 기타동 1층 82007호","indutype":"음료식품 - 농·축·수산품","category":"food"},{"name":"부국유통(주)","tel":"031-552-2140","addr":"경기도 구리시 인창동 127번지 25","indutype":"음료식품 - 농·축·수산품","category":"food"},{"name":"상인회 매점","tel":"031-554-5588","addr":"경기도 구리시 인창동 127번지 구리농수산물도매시장 82012호","indutype":"음료식품 - 기타음료식품","category":"food"},{"name":"상인회 매점","tel":"031-554-5588","addr":"경기도 구리시 인창동 127번지 구리농수산물시장 1층 82012호","indutype":"음료식품 - 기타음료식품","category":"food"},{"name":"새로나팜 주식회사","tel":"031-555-3666","addr":"경기도 구리시 인창동 127번지 287","indutype":"음료식품 - 농·축·수산품","category":"food"},{"name":"새싹농산 (주)","tel":"031-528-8634","addr":"경기도 구리시 인창동 127번지 구리청과 281","indutype":"음료식품 - 농·축·수산품","category":"food"},{"name":"서울수산(주)","tel":"031-562-7185","addr":"경기도 구리시 인창동 127번지 구리농수산물도매시장수산 2동","indutype":"음료식품 - 농·축·수산품","category":"food"},{"name":"선경수산(주)","tel":"031-551-0072","addr":"경기도 구리시 인창동 127번지 구리농산물도매시장구산물동 73호","indutype":"음료식품 - 농·축·수산품","category":"food"},{"name":"선민수산","tel":"031-552-6421","addr":"경기도 구리시 인창동 127번지 구리농수산물시장","indutype":"음료식품 - 농·축·수산품","category":"food"},{"name":"선민수산","tel":"031-556-8880","addr":"경기도 구리시 인창동 127번지","indutype":"음료식품 - 농·축·수산품","category":"food"},{"name":"성동수산(주)","tel":"031-562-5860","addr":"경기도 구리시 인창동 127번지 구리농수산물도매시장수산 2","indutype":"음료식품 - 농·축·수산품","category":"food"},{"name":"성화수산 주식회사","tel":"031-562-7185","addr":"경기도 구리시 인창동 127번지 지하1층 구리농산수산물시장 수산2동 636호","indutype":"음료식품 - 농·축·수산품","category":"food"},{"name":"수산유통","tel":"031-565-8115","addr":"경기도 구리시 인창동 127번지 구리농수산물시장","indutype":"음료식품 - 기타음료식품","category":"food"},{"name":"승주농산(주)","tel":"031-555-2246","addr":"경기도 구리시 인창동 127번지 구리농산물 266","indutype":"음료식품 - 농·축·수산품","category":"food"},{"name":"신용문상회(주)","tel":"031-555-5030","addr":"경기도 구리시 인창동 127번지","indutype":"음료식품 - 농·축·수산품","category":"food"},{"name":"어업회사법인 주식회사 항도유통","tel":"","addr":"경기도 구리시 인창동 127번지","indutype":"음료식품 - 농·축·수산품","category":"food"},{"name":"영광수산(주)","tel":"031-565-0221","addr":"경기도 구리시 인창동 127번지 수산물도매시장수산 2동","indutype":"음료식품 - 농·축·수산품","category":"food"},{"name":"영화수산(주)","tel":"031-554-3002","addr":"경기도 구리시 인창동 127번지 구리농수산물도매시장 2호","indutype":"음료식품 - 농·축·수산품","category":"food"},{"name":"용궁수산(주)","tel":"031-566-0075","addr":"경기도 구리시 인창동 127번지 구리농수산물도매시장수산 2","indutype":"음료식품 - 농·축·수산품","category":"food"},{"name":"용천청과(주)","tel":"031-551-3224","addr":"경기도 구리시 인창동 127번지 구리농수산물도매시장 217호","indutype":"음료식품 - 농·축·수산품","category":"food"},{"name":"이화청과","tel":"031-552-9832","addr":"경기도 구리시 인창동 127번지","indutype":"음료식품 - 농·축·수산품","category":"food"},{"name":"자연애","tel":"02-6283-1848","addr":"경기도 구리시 인창동 127번지 (주)인터넷청과후면작업장 1호","indutype":"음료식품 - 농·축·수산품","category":"food"},{"name":"정일청과 주식회사","tel":"031-566-3557","addr":"경기도 구리시 인창동 127번지 구리농수산물도매시장 124호","indutype":"음료식품 - 농·축·수산품","category":"food"},{"name":"주식회사 고래수산","tel":"031-557-3030","addr":"경기도 구리시 인창동 127번지","indutype":"음료식품 - 농·축·수산품","category":"food"},{"name":"주식회사 골드유통","tel":"031-516-3366","addr":"경기도 구리시 인창동 127번지 구리농수산물도매시장 D동 11460호","indutype":"음료식품 - 농·축·수산품","category":"food"},{"name":"주식회사 광덕수산","tel":"031-552-2672","addr":"경기도 구리시 인창동 127번지 구리농수산물도매시장내 수산물동 23호","indutype":"음료식품 - 농·축·수산품","category":"food"},{"name":"주식회사 다산청과","tel":"","addr":"경기도 구리시 인창동 127번지","indutype":"음료식품 - 농·축·수산품","category":"food"},{"name":"주식회사 대성수산","tel":"031-554-1554","addr":"경기도 구리시 인창동 127번지","indutype":"음료식품 - 농·축·수산품","category":"food"},{"name":"주식회사 독도수산","tel":"","addr":"경기도 구리시 인창동 127번지","indutype":"음료식품 - 농·축·수산품","category":"food"},{"name":"주식회사 맛들식품","tel":"031-569-9919","addr":"경기도 구리시 인창동 127번지 구리농수산물시장 2층 52133호","indutype":"음료식품 - 농·축·수산품","category":"food"},{"name":"주식회사 어촌수산","tel":"031-567-7739","addr":"경기도 구리시 인창동 127번지 구리농수산물시장내수협21070호","indutype":"음료식품 - 농·축·수산품","category":"food"},{"name":"주식회사 여주수산","tel":"031-556-5253","addr":"경기도 구리시 인창동 127번지 구리농수산물도매시장 수산2동 1층 747호","indutype":"음료식품 - 농·축·수산품","category":"food"},{"name":"주식회사 완도수산","tel":"031-555-1815","addr":"경기도 구리시 인창동 127번지","indutype":"음료식품 - 농·축·수산품","category":"food"},{"name":"주식회사 우람수산","tel":"031-565-9210","addr":"경기도 구리시 인창동 127번지 구리농수산물도매시장 수산본동 909호","indutype":"음료식품 - 농·축·수산품","category":"food"},{"name":"주식회사 은성","tel":"031-558-0171","addr":"경기도 구리시 인창동 127번지","indutype":"음료식품 - 농·축·수산품","category":"food"},{"name":"주식회사 은성","tel":"031-111-1111","addr":"경기도 구리시 인창동 127번지","indutype":"음료식품 - 농·축·수산품","category":"food"},{"name":"주식회사 청개수산","tel":"031-552-5200","addr":"경기도 구리시 인창동 127번지 구리농수산물시장","indutype":"음료식품 - 농·축·수산품","category":"food"},{"name":"주식회사 청정수산","tel":"031-554-7015","addr":"경기도 구리시 인창동 127번지 구리농수산물도매시장 수협 15호","indutype":"음료식품 - 농·축·수산품","category":"food"},{"name":"주식회사 해마수산","tel":"031-564-1237","addr":"경기도 구리시 인창동 127번지 수산동 활어","indutype":"음료식품 - 농·축·수산품","category":"food"},{"name":"주식회사 해인수산","tel":"031-553-9001","addr":"경기도 구리시 인창동 127번지 도매시장수산물동 1호","indutype":"음료식품 - 농·축·수산품","category":"food"},{"name":"주식회사서해수산","tel":"031-553-4001","addr":"경기도 구리시 인창동 127수협공판장83","indutype":"음료식품 - 농·축·수산품","category":"food"},{"name":"주식회사이레유통","tel":"050-5958-0926","addr":"경기도 구리시 인창동 127번지","indutype":"음료식품 - 농·축·수산품","category":"food"},{"name":"주식회사행복수산","tel":"070-2342-4358","addr":"경기도 구리시 인창동 127번지 구리농수산물시장수산2동제602호","indutype":"음료식품 - 농·축·수산품","category":"food"},{"name":"주식회사현우수산","tel":"031-567-3348","addr":"경기도 구리시 인창동 127번지","indutype":"음료식품 - 농·축·수산품","category":"food"},{"name":"주식회사환상의섬","tel":"031-563-7223","addr":"경기도 구리시 인창동 127번지 수산2동중도매인점포21057","indutype":"음료식품 - 농·축·수산품","category":"food"},{"name":"청솔유통(주)","tel":"031-552-2140","addr":"경기도 구리시 인창동 127번지 4","indutype":"음료식품 - 농·축·수산품","category":"food"},{"name":"태평양수산(주)","tel":"031-554-9004","addr":"경기도 구리시 인창동 127번지 도매시자우산물동 4호","indutype":"음료식품 - 농·축·수산품","category":"food"},{"name":"푸른농산(주)","tel":"","addr":"경기도 구리시 인창동 127번지 (334)","indutype":"음료식품 - 농·축·수산품","category":"food"},{"name":"풍양수산","tel":"031-565-4024","addr":"경기도 구리시 인창동 127번지 구리농수산물시장 내수산 2동 12호","indutype":"음료식품 - 농·축·수산품","category":"food"},{"name":"항도수산","tel":"031-553-0246","addr":"경기도 구리시 인창동 127번지 구리도매시장강북수산경매장내","indutype":"음료식품 - 농·축·수산품","category":"food"},{"name":"홍주농산","tel":"031-556-2070","addr":"경기도 구리시 인창동 127번지 구리농수산물도매시장 청과동 270호","indutype":"음료식품 - 농·축·수산품","category":"food"}]},{"lat":"37.61269716","long":"127.14087597","imageIndex":7,"items":[{"name":"(주)군산수산유통","tel":"031-567-1128","addr":"경기도 구리시 인창동 430번지 구리농수산물도매시장내 수산물동59호","indutype":"음료식품 - 농·축·수산품","category":"food"},{"name":"(주)사랑수산","tel":"031-566-1162","addr":"경기도 구리시 인창동 430번지 수산동1층77호","indutype":"음료식품 - 농·축·수산품","category":"food"},{"name":"(주)클릭수산","tel":"031-552-2820","addr":"경기도 구리시 인창동 430번지 구리유통종합상가 1층 80호","indutype":"음료식품 - 농·축·수산품","category":"food"},{"name":"구리수산","tel":"031-568-5354","addr":"경기도 구리시 인창동 430번지","indutype":"음료식품 - 농·축·수산품","category":"food"},{"name":"대길상회","tel":"031-569-2464","addr":"경기도 구리시 인창동 430번지","indutype":"음료식품 - 농·축·수산품","category":"food"},{"name":"베스킨라빈스 구리롯데마트점","tel":"031-554-8889","addr":"경기도 구리시 인창동 430번지 1층","indutype":"음료식품 - 제과점","category":"food"},{"name":"베스트푸드","tel":"031-565-9455","addr":"경기도 구리시 인창동 430번지 구리유통종합시장내36호","indutype":"음료식품 - 정육점","category":"food"},{"name":"세현축산","tel":"031-557-1257","addr":"경기도 구리시 인창동 430번지 2층 축산가공식품동","indutype":"음료식품 - 정육점","category":"food"},{"name":"여수수산","tel":"031-569-5550","addr":"경기도 구리시 인창동 430번지","indutype":"음료식품 - 농·축·수산품","category":"food"},{"name":"주식회사동신물산","tel":"031-565-0073","addr":"경기도 구리시 인창동 430번지 1층 구리유통종합시장축산가공식품동","indutype":"음료식품 - 농·축·수산품","category":"food"},{"name":"짱구매점","tel":"031-564-3030","addr":"경기도 구리시 인창동 430번지 축산가공동 1층 10호","indutype":"음료식품 - 기타음료식품","category":"food"},{"name":"청우유통","tel":"031-555-2552","addr":"경기도 구리시 인창동 430번지","indutype":"음료식품 - 정육점","category":"food"},{"name":"해초상회","tel":"031-564-2727","addr":"경기도 구리시 인창동 430번지 가공동 78호","indutype":"음료식품 - 농·축·수산품","category":"food"}]},{"lat":"37.604309146","long":"127.14081518","imageIndex":7,"items":[{"name":"(주)라이스클레이","tel":"031-562-1286","addr":"경기도 구리시 인창동 670-9번지 세신리빙프라자 2층 204호","indutype":"음료식품 - 제과점","category":"food"},{"name":"라솜케이크","tel":"031-1111-1111","addr":"경기도 구리시 인창동 670-9번지 세신리빙프라자 1층 101호","indutype":"음료식품 - 제과점","category":"food"},{"name":"마이케익","tel":"031-554-4588","addr":"경기도 구리시 인창동 670-9번지 세신리빙프라자 209호","indutype":"음료식품 - 제과점","category":"food"},{"name":"지씨앤티주식회사","tel":"031-568-6448","addr":"경기도 구리시 인창동 670-9번지 세신리빙프라자 411동 412호","indutype":"음료식품 - 기타음료식품","category":"food"}]},{"lat":"37.603003317","long":"127.13234215","imageIndex":7,"items":[{"name":"(주)벨레비","tel":"070-5030-1279","addr":"경기도 구리시 인창동 563-69번지 2층","indutype":"건강식품 - 기타건강식품","category":"food"}]},{"lat":"37.607528562","long":"127.13828431","imageIndex":7,"items":[{"name":"with-us(위더스)","tel":"031-556-3800","addr":"경기도 구리시 인창동 383-51번지 살롬빌딩 203호","indutype":"음료식품 - 기타음료식품","category":"food"}]},{"lat":"37.603056516","long":"127.13312362","imageIndex":7,"items":[{"name":"강원수산","tel":"","addr":"경기도 구리시 인창동 563-42번지 203호","indutype":"음료식품 - 농·축·수산품","category":"food"}]},{"lat":"37.601092825","long":"127.14067335","imageIndex":7,"items":[{"name":"건강8","tel":"031-565-1589","addr":"경기도 구리시 인창동 264-4번지 쌍용오피스텔 515호","indutype":"회원제형태 - 건강식품","category":"food"},{"name":"주)대진무역","tel":"031-688-7518","addr":"경기도 구리시 인창동 264-4번지 쌍용오피스텔 120호","indutype":"음료식품 - 농·축·수산품","category":"food"},{"name":"파리바게뜨구리제일점","tel":"031-563-8220","addr":"경기도 구리시 인창동 264-4번지 파리바게뜨 1층","indutype":"음료식품 - 제과점","category":"food"}]},{"lat":"37.609503696","long":"127.13653246","imageIndex":7,"items":[{"name":"건강가득한두부","tel":"031-1111-1111","addr":"경기도 구리시 인창동 498-4번지 1층","indutype":"음료식품 - 기타음료식품","category":"food"}]},{"lat":"37.603533946","long":"127.13320372","imageIndex":7,"items":[{"name":"건국우유인창대리점","tel":"031-551-9674","addr":"경기도 구리시 인창동 563-84번지","indutype":"음료식품 - 기타음료식품","category":"food"}]},{"lat":"37.601897982","long":"127.12970169","imageIndex":7,"items":[{"name":"게박사","tel":"","addr":"경기도 구리시 인창동 714번지 구리더샵그린포레2단지 202동 905호","indutype":"음료식품 - 농·축·수산품","category":"food"}]},{"lat":"37.608282519","long":"127.13281563","imageIndex":7,"items":[{"name":"고기백화점","tel":"031-566-3251","addr":"경기도 구리시 인창동 651-83번지","indutype":"음료식품 - 정육점","category":"food"}]},{"lat":"37.604758824","long":"127.14150681","imageIndex":7,"items":[{"name":"과일향기","tel":"","addr":"경기도 구리시 인창동 672-2번지 세신인창종합상가 1층 112호","indutype":"음료식품 - 농·축·수산품","category":"food"},{"name":"대치떡방","tel":"031-554-1477","addr":"경기도 구리시 인창동 672-2번지 세신인창종합상사 124호","indutype":"음료식품 - 제과점","category":"food"},{"name":"두부장수","tel":"031-564-8882","addr":"경기도 구리시 인창동 672-2번지 세신인창종합상가 1층 123호","indutype":"음료식품 - 기타음료식품","category":"food"},{"name":"림메이드","tel":"031-111-1111","addr":"경기도 구리시 인창동 672-2번지 세신인창종합상가 7층 716호","indutype":"음료식품 - 기타음료식품","category":"food"},{"name":"배스킨라빈스","tel":"031-566-3131","addr":"경기도 구리시 인창동 672-2번지 세신인창 상가 113호","indutype":"음료식품 - 제과점","category":"food"},{"name":"월드씨푸드(주)","tel":"031-562-9828","addr":"경기도 구리시 인창동 672-2번지 세신인창종합상가 902호","indutype":"음료식품 - 농·축·수산품","category":"food"},{"name":"탄이상점","tel":"","addr":"경기도 구리시 인창동 672-2번지 세신인창종합상가 2층 213호","indutype":"음료식품 - 기타음료식품","category":"food"}]},{"lat":"37.603223287","long":"127.1370648","imageIndex":7,"items":[{"name":"구리사랑시민 주식회사","tel":"031-553-8070","addr":"경기도 구리시 인창동 305-3번지 트윈빌 2.3호","indutype":"음료식품 - 기타음료식품","category":"food"}]},{"lat":"37.618394352","long":"127.13825871","imageIndex":7,"items":[{"name":"구리시니어클럽","tel":"031-567-0431","addr":"경기도 구리시 인창동 56-36번지","indutype":"음료식품 - 기타음료식품","category":"food"}]},{"lat":"37.603334858","long":"127.14186655","imageIndex":7,"items":[{"name":"구리시니어클럽","tel":"031-567-0431","addr":"경기도 구리시 인창동 673-5번지 1층","indutype":"음료식품 - 기타음료식품","category":"food"}]},{"lat":"37.602143694","long":"127.14344973","imageIndex":7,"items":[{"name":"구리시외버스매표소","tel":"031-569-4563","addr":"경기도 구리시 인창동 690-3","indutype":"음료식품 - 기타음료식품","category":"food"}]},{"lat":"37.603731407","long":"127.14176537","imageIndex":7,"items":[{"name":"구리시청소년수련관내매점","tel":"031-553-7101","addr":"경기도 구리시 인창동 673-4번지 지하1층","indutype":"음료식품 - 기타음료식품","category":"food"},{"name":"청소년수련관스넥매점","tel":"031-494-0376","addr":"경기도 구리시 인창동 673-4번지","indutype":"음료식품 - 기타음료식품","category":"food"}]},{"lat":"37.607474815","long":"127.13801242","imageIndex":7,"items":[{"name":"국민건강원","tel":"031-569-2050","addr":"경기도 구리시 인창동 383-54번지","indutype":"건강식품 - 기타건강식품","category":"food"}]},{"lat":"37.60084133","long":"127.14000477","imageIndex":7,"items":[{"name":"그녀의빵공장 구리점","tel":"031-567-5177","addr":"경기도 구리시 인창동 280-4번지 명동빌딩 1층","indutype":"음료식품 - 제과점","category":"food"}]},{"lat":"37.603945515","long":"127.13578643","imageIndex":7,"items":[{"name":"그린 식자재","tel":"","addr":"경기도 구리시 인창동 576-52번지 신동흥주택 304호","indutype":"음료식품 - 기타음료식품","category":"food"}]},{"lat":"37.611532354","long":"127.13523364","imageIndex":7,"items":[{"name":"그집반찬","tel":"031-565-5197","addr":"경기도 구리시 인창동 469-1번지 하나문구 102호","indutype":"음료식품 - 기타음료식품","category":"food"}]},{"lat":"37.601278616","long":"127.13579301","imageIndex":7,"items":[{"name":"금강마트","tel":"031-551-8892","addr":"경기도 구리시 인창동 607-11번지","indutype":"음료식품 - 기타음료식품","category":"food"}]},{"lat":"37.611923655","long":"127.13973065","imageIndex":7,"items":[{"name":"꽃아름공방","tel":"070-8945-3313","addr":"경기도 구리시 인창동 701번지 에이동 1층 108 109호","indutype":"음료식품 - 제과점","category":"food"}]},{"lat":"37.611615656","long":"127.12481417","imageIndex":7,"items":[{"name":"낭만농장","tel":"031-563-4684","addr":"경기도 구리시 인창동 657-41","indutype":"음료식품 - 농·축·수산품","category":"food"}]},{"lat":"37.605003609","long":"127.14020493","imageIndex":7,"items":[{"name":"농협안심축산물전문점","tel":"031-554-0030","addr":"경기도 구리시 인창동 670-1번지 태영빌딩 1층 102호","indutype":"음료식품 - 정육점","category":"food"}]},{"lat":"37.602116","long":"127.13625879","imageIndex":7,"items":[{"name":"다산푸드","tel":"070-7555-9478","addr":"경기도 구리시 인창동 603-6번지 101호","indutype":"음료식품 - 농·축·수산품","category":"food"}]},{"lat":"37.604425716","long":"127.14129103","imageIndex":7,"items":[{"name":"다인유통","tel":"070-7560-9164","addr":"경기도 구리시 인창동 672-4번지 세신훼미리타운 601호","indutype":"음료식품 - 기타음료식품","category":"food"}]},{"lat":"37.60955847","long":"127.13589834","imageIndex":7,"items":[{"name":"대가떡방","tel":"031-553-8882","addr":"경기도 구리시 인창동 458-20","indutype":"음료식품 - 기타음료식품","category":"food"}]},{"lat":"37.607839222","long":"127.13445699","imageIndex":7,"items":[{"name":"대광청과(주)","tel":"02-557-0528","addr":"경기도 구리시 인창동 523-19번지 구리농산물 260호","indutype":"음료식품 - 농·축·수산품","category":"food"}]},{"lat":"37.601808628","long":"127.1371755","imageIndex":7,"items":[{"name":"대박 농수산물","tel":"031-567-0664","addr":"경기도 구리시 인창동 297-4번지 충효주택 지하제2호","indutype":"음료식품 - 농·축·수산품","category":"food"}]},{"lat":"37.608723846","long":"127.1329523","imageIndex":7,"items":[{"name":"더 건어물","tel":"031-554-7990","addr":"경기도 구리시 인창동 493-3번지 103호","indutype":"음료식품 - 기타음료식품","category":"food"}]},{"lat":"37.606726721","long":"127.13826021","imageIndex":7,"items":[{"name":"더존공인중개사사무소","tel":"031-563-0504","addr":"경기도 구리시 인창동 383-8번지 공원슈퍼 105호","indutype":"음료식품 - 기타음료식품","category":"food"}]},{"lat":"37.609616607","long":"127.13222903","imageIndex":7,"items":[{"name":"더파이3.14","tel":"031-555-0314","addr":"경기도 구리시 인창동 493-1번지 승호빌딩 106호","indutype":"음료식품 - 제과점","category":"food"}]},{"lat":"37.606615997","long":"127.14051367","imageIndex":7,"items":[{"name":"덕소정육점2호점","tel":"031-555-2376","addr":"경기도 구리시 인창동 665-1번지","indutype":"음료식품 - 정육점","category":"food"}]},{"lat":"37.607032831","long":"127.13845329","imageIndex":7,"items":[{"name":"델리치아 (Delicia)","tel":"031-557-1113","addr":"경기도 구리시 인창동 384-1번지 204호","indutype":"음료식품 - 기타음료식품","category":"food"}]},{"lat":"37.609666995","long":"127.13553612","imageIndex":7,"items":[{"name":"동구떡고추방아간","tel":"031-566-9525","addr":"경기도 구리시 인창동 458-46번지","indutype":"음료식품 - 제과점","category":"food"}]},{"lat":"37.616034813","long":"127.13737098","imageIndex":7,"items":[{"name":"동구릉마트","tel":"031-562-6387","addr":"경기도 구리시 인창동 94-5번지","indutype":"음료식품 - 기타음료식품","category":"food"}]},{"lat":"37.609252509","long":"127.13556936","imageIndex":7,"items":[{"name":"동구정육점","tel":"031-563-4929","addr":"경기도 구리시 인창동 458-3번지","indutype":"음료식품 - 정육점","category":"food"}]},{"lat":"37.606728734","long":"127.14422845","imageIndex":7,"items":[{"name":"두루뭉실","tel":"031-554-5500","addr":"경기도 구리시 인창동 668-2번지 숯불바베큐 101호","indutype":"음료식품 - 기타음료식품","category":"food"}]},{"lat":"37.608227384","long":"127.13378949","imageIndex":7,"items":[{"name":"떡고을","tel":"031-555-4772","addr":"경기도 구리시 인창동 487-28번지 인창빌딩 102호","indutype":"음료식품 - 제과점","category":"food"}]},{"lat":"37.607361744","long":"127.13442218","imageIndex":7,"items":[{"name":"뚜레쥬르카페 인창점","tel":"031-552-0055","addr":"경기도 구리시 인창동 519-20번지","indutype":"음료식품 - 제과점","category":"food"},{"name":"바른자세교정헬스케어","tel":"","addr":"경기도 구리시 인창동 519-20번지 2층","indutype":"건강식품 - 기타건강식품","category":"food"}]},{"lat":"37.609144951","long":"127.13507086","imageIndex":7,"items":[{"name":"모어앤와인","tel":"","addr":"경기도 구리시 인창동 495-22번지","indutype":"음료식품 - 주류 판매점","category":"food"}]},{"lat":"37.617834889","long":"127.13900525","imageIndex":7,"items":[{"name":"미소랑커피시스템","tel":"031-562-2855","addr":"경기도 구리시 인창동 32-8번지 나동 1층","indutype":"음료식품 - 기타음료식품","category":"food"}]},{"lat":"37.604336625","long":"127.1404302","imageIndex":7,"items":[{"name":"배스킨라빈스 등기소점","tel":"031-568-0808","addr":"경기도 구리시 인창동 670-7번지 화성골드프라자 1층 108호","indutype":"음료식품 - 제과점","category":"food"},{"name":"아웃뺑","tel":"","addr":"경기도 구리시 인창동 670-7번지 화성골드프라자 113호","indutype":"음료식품 - 제과점","category":"food"},{"name":"하늘찬방","tel":"031-565-9912","addr":"경기도 구리시 인창동 670-7번지 화성골드프라자 1층 111호","indutype":"음료식품 - 기타음료식품","category":"food"}]},{"lat":"37.608200103","long":"127.13401595","imageIndex":7,"items":[{"name":"배스킨라빈스31구리인창2호점","tel":"031-558-6665","addr":"경기도 구리시 인창동 487-49번지 인창빌딩 1층","indutype":"음료식품 - 제과점","category":"food"}]},{"lat":"37.60350494","long":"127.13498161","imageIndex":7,"items":[{"name":"베이크버터베이커리","tel":"031-551-7690","addr":"경기도 구리시 인창동 568-15번지 테라팰리스 가동 101호","indutype":"음료식품 - 제과점","category":"food"}]},{"lat":"37.604508849","long":"127.13953587","imageIndex":7,"items":[{"name":"본건강식품","tel":"031-551-2700","addr":"경기도 구리시 인창동 323번지 1층","indutype":"회원제형태 - 건강식품","category":"food"}]},{"lat":"37.604534482","long":"127.14073633","imageIndex":7,"items":[{"name":"브레드앤밀","tel":"031-556-8500","addr":"경기도 구리시 인창동 670-8번지 v샤르망 1층 101호","indutype":"음료식품 - 제과점","category":"food"}]},{"lat":"37.60450568","long":"127.1343945","imageIndex":7,"items":[{"name":"성림방앗간","tel":"031-557-7224","addr":"경기도 구리시 인창동 576-10 11번지 109호","indutype":"음료식품 - 기타음료식품","category":"food"}]},{"lat":"37.620228402","long":"127.1416488","imageIndex":7,"items":[{"name":"성신매점","tel":"031-551-7172","addr":"경기도 구리시 인창동 22-11번지","indutype":"음료식품 - 기타음료식품","category":"food"}]},{"lat":"37.608892717","long":"127.13503644","imageIndex":7,"items":[{"name":"신앙촌상회","tel":"031-551-0554","addr":"경기도 구리시 인창동 495-25번지","indutype":"음료식품 - 기타음료식품","category":"food"}]},{"lat":"37.61128518","long":"127.13867619","imageIndex":7,"items":[{"name":"신현제수산","tel":"031-000-0000","addr":"경기도 구리시 인창동 694-3번지 103호","indutype":"음료식품 - 농·축·수산품","category":"food"}]},{"lat":"37.601201654","long":"127.14006205","imageIndex":7,"items":[{"name":"씨앤엠컴퍼니","tel":"02-000-0000","addr":"경기도 구리시 인창동 277-7번지 104호","indutype":"음료식품 - 제과점","category":"food"}]},{"lat":"37.60464389","long":"127.13962671","imageIndex":7,"items":[{"name":"아이스께끼 할인점","tel":"031-572-6789","addr":"경기도 구리시 인창동 346-40번지 용호빌딩 1층","indutype":"음료식품 - 제과점","category":"food"}]},{"lat":"37.609229857","long":"127.13161679","imageIndex":7,"items":[{"name":"알곡마을","tel":"031-563-6685","addr":"경기도 구리시 인창동 651-27","indutype":"음료식품 - 미곡상","category":"food"}]},{"lat":"37.60747945","long":"127.13390143","imageIndex":7,"items":[{"name":"엑기스마트","tel":"031-563-1232","addr":"경기도 구리시 인창동 527-63번지 1층","indutype":"건강식품 - 기타건강식품","category":"food"}]},{"lat":"37.610253537","long":"127.14255895","imageIndex":7,"items":[{"name":"영진유통","tel":"","addr":"경기도 구리시 인창동 664-1번지 인창2단지주공아파트 206동 1604호","indutype":"음료식품 - 농·축·수산품","category":"food"}]},{"lat":"37.608421252","long":"127.13765172","imageIndex":7,"items":[{"name":"오늘반찬","tel":"031-566-1130","addr":"경기도 구리시 인창동 383-19번지 늘사랑교회 104호","indutype":"음료식품 - 기타음료식품","category":"food"}]},{"lat":"37.608891775","long":"127.1358745","imageIndex":7,"items":[{"name":"올바른소","tel":"031-553-6644","addr":"경기도 구리시 인창동 506번지","indutype":"음료식품 - 정육점","category":"food"}]},{"lat":"37.604751244","long":"127.14028374","imageIndex":7,"items":[{"name":"워싱코리아","tel":"031-562-4030","addr":"경기도 구리시 인창동 670-5번지 삼원골드프라자 506호","indutype":"음료식품 - 기타음료식품","category":"food"}]},{"lat":"37.611174745","long":"127.13273005","imageIndex":7,"items":[{"name":"월드유통","tel":"","addr":"경기도 구리시 인창동 491-1번지 아름마을인창래미안 502동 906호","indutype":"음료식품 - 농·축·수산품","category":"food"}]},{"lat":"37.607281975","long":"127.13323291","imageIndex":7,"items":[{"name":"인창낙원떡방","tel":"031-566-7337","addr":"경기도 구리시 인창동 703동원베네스트상가104","indutype":"음료식품 - 기타음료식품","category":"food"},{"name":"지우네정육점","tel":"031-566-2688","addr":"경기도 구리시 인창동 703번지 동원베네스트 103호","indutype":"음료식품 - 정육점","category":"food"}]},{"lat":"37.605362586","long":"127.13351268","imageIndex":7,"items":[{"name":"인창사우나","tel":"031-555-5988","addr":"경기도 구리시 인창동 543번지 제비101호 외 2필지, 제비102호","indutype":"음료식품 - 기타음료식품","category":"food"},{"name":"인창사우나 스낵코너","tel":"031-555-5988","addr":"경기도 구리시 인창동 543번지 지층 01,02호","indutype":"음료식품 - 기타음료식품","category":"food"},{"name":"희락구리점","tel":"031-744-7678","addr":"경기도 구리시 인창동 543번지 인창사우나 내 지하1층 101호,102호","indutype":"음료식품 - 기타음료식품","category":"food"}]},{"lat":"37.607141389","long":"127.13806844","imageIndex":7,"items":[{"name":"장자정육점","tel":"031-551-3830","addr":"경기도 구리시 인창동 384-5번지 1층","indutype":"음료식품 - 정육점","category":"food"}]},{"lat":"37.601778699","long":"127.13970074","imageIndex":7,"items":[{"name":"지민웰니스","tel":"070-4411-9451","addr":"경기도 구리시 인창동 277-26번지","indutype":"회원제형태 - 건강식품","category":"food"}]},{"lat":"37.602533124","long":"127.13387011","imageIndex":7,"items":[{"name":"진생싸이언스구리판매점","tel":"031-572-2056","addr":"경기도 구리시 인창동 610-20번지","indutype":"회원제형태 - 건강식품","category":"food"}]},{"lat":"37.608894781","long":"127.1331791","imageIndex":7,"items":[{"name":"착한한우","tel":"031-555-9282","addr":"경기도 구리시 인창동 487-24번지 태성 상가","indutype":"음료식품 - 정육점","category":"food"}]},{"lat":"37.609305789","long":"127.1362603","imageIndex":7,"items":[{"name":"축산물할인매장","tel":"031-556-6033","addr":"경기도 구리시 인창동 498-5번지","indutype":"음료식품 - 정육점","category":"food"}]},{"lat":"37.604144947","long":"127.14253621","imageIndex":7,"items":[{"name":"커피숲","tel":"070-4127-1039","addr":"경기도 구리시 인창동 674-1번지 세신훼미리타운 19,305호","indutype":"음료식품 - 기타음료식품","category":"food"}]},{"lat":"37.601533255","long":"127.14156877","imageIndex":7,"items":[{"name":"토스피아","tel":"031-554-4455","addr":"경기도 구리시 인창동 676-1번지 리맥스빌딩 1층 105호","indutype":"건강식품 - 홍삼제품","category":"food"},{"name":"폴리한의원","tel":"031-524-9875","addr":"경기도 구리시 인창동 676-1번지 리맥스빌딩 3층","indutype":"건강식품 - 기타건강식품","category":"food"}]},{"lat":"37.605362636","long":"127.14137204","imageIndex":7,"items":[{"name":"파리바게트 인창점","tel":"031-551-3888","addr":"경기도 구리시 인창동 671-2번지 세신인창종합상가 114호 113","indutype":"음료식품 - 제과점","category":"food"}]},{"lat":"37.608979286","long":"127.13815104","imageIndex":7,"items":[{"name":"파리바게트(인창대로점)","tel":"031-555-6972","addr":"경기도 구리시 인창동 412-14 107호~108호","indutype":"음료식품 - 제과점","category":"food"}]},{"lat":"37.608002078","long":"127.13384572","imageIndex":7,"items":[{"name":"파리바게트구리인창2호","tel":"031-555-2928","addr":"경기도 구리시 인창동 524-2번지 1층","indutype":"음료식품 - 제과점","category":"food"}]},{"lat":"37.6180869","long":"127.13923224","imageIndex":7,"items":[{"name":"파티앳홈","tel":"031-564-2607","addr":"경기도 구리시 인창동 34-4번지 2층","indutype":"음료식품 - 기타음료식품","category":"food"}]},{"lat":"37.620833128","long":"127.14073243","imageIndex":7,"items":[{"name":"한강푸드","tel":"","addr":"경기도 구리시 인창동 14-13번지 103호","indutype":"음료식품 - 기타음료식품","category":"food"}]},{"lat":"37.618362695","long":"127.14223432","imageIndex":7,"items":[{"name":"한빛한우정육점","tel":"031-563-4034","addr":"경기도 구리시 인창동 29번지 한진그랑빌 상가 111호","indutype":"음료식품 - 정육점","category":"food"}]},{"lat":"37.613341843","long":"127.13653933","imageIndex":7,"items":[{"name":"한상푸드","tel":"031-766-1375","addr":"경기도 구리시 인창동 480번지 우방아이유쉘 102동 403호","indutype":"음료식품 - 농·축·수산품","category":"food"}]},{"lat":"37.603556693","long":"127.14473205","imageIndex":7,"items":[{"name":"핫브레드(구리역점)","tel":"070-6752-3517","addr":"경기도 구리시 인창동 244-2번지 구리역내","indutype":"음료식품 - 제과점","category":"food"}]},{"lat":"37.608255152","long":"127.13312136","imageIndex":7,"items":[{"name":"현브레드","tel":"031-563-9289","addr":"경기도 구리시 인창동 651-30번지 1층","indutype":"음료식품 - 제과점","category":"food"}]},{"lat":"37.604585118","long":"127.13586684","imageIndex":7,"items":[{"name":"호마노","tel":"070-8275-1478","addr":"경기도 구리시 인창동 582-18번지 좌측 1층","indutype":"음료식품 - 기타음료식품","category":"food"}]}]