[{"lat":"37.4244773","long":"127.2439803","imageIndex":17,"items":[{"name":"(주)ACT21","tel":"02-704-0718","addr":"경기도 광주시 탄벌동 259-7번지 골든힐","indutype":"사무통신 - 컴퓨터","category":"other"}]},{"lat":"37.41713773","long":"127.2509492","imageIndex":17,"items":[{"name":"(주)이에스스포츠","tel":"031-763-2002","addr":"경기도 광주시 탄벌동 35-52번지 1층","indutype":"레져용품 - 스포츠·레져용품","category":"other"}]},{"lat":"37.42377441","long":"127.2440345","imageIndex":17,"items":[{"name":"(주)재성","tel":"031-797-1210","addr":"경기도 광주시 탄벌동 243-2번지","indutype":"건축자재 - 기타건축자재","category":"other"},{"name":"메이트리","tel":"070-8822-5025","addr":"경기도 광주시 탄벌동 243-2번지","indutype":"가구 - 일반가구","category":"other"}]},{"lat":"37.41738965","long":"127.2511194","imageIndex":17,"items":[{"name":"(주)청송나무병원조경방역","tel":"031-765-4849","addr":"경기도 광주시 탄벌동 20-8번지 1층","indutype":"용역 서비스 - 종합용역","category":"other"},{"name":"빈티지오브제","tel":"031-797-4711","addr":"경기도 광주시 탄벌동 20-8번지 1층","indutype":"의류 - 정장","category":"other"}]},{"lat":"37.41758249","long":"127.2536731","imageIndex":17,"items":[{"name":"GS25탄벌낙원점","tel":"","addr":"경기도 광주시 탄벌동 1-3번지 탄벌동파라다이스아파트","indutype":"유통업 영리 - 상품권전문판매","category":"other"},{"name":"GS25탄벌낙원점","tel":"","addr":"경기도 광주시 탄벌동 1-3번지 탄벌동파라다이스아파트","indutype":"유통업 영리 - 편 의 점","category":"other"}]},{"lat":"37.42089274","long":"127.2432797","imageIndex":17,"items":[{"name":"J2. ENG","tel":"031-765-2033","addr":"경기도 광주시 탄벌동 202-4번지","indutype":"전기제품 - 기타전기제품","category":"other"}]},{"lat":"37.41680372","long":"127.2512531","imageIndex":17,"items":[{"name":"K. COM","tel":"031-798-7444","addr":"경기도 광주시 탄벌동 35-36번지","indutype":"사무통신 - 컴퓨터","category":"other"},{"name":"김현수 에스테틱","tel":"031-798-1774","addr":"경기도 광주시 탄벌동 35-36번지","indutype":"회원제형태 - 기타4","category":"other"},{"name":"탄벌자전거","tel":"031-766-8530","addr":"경기도 광주시 탄벌동 35-36번지","indutype":"레져용품 - 스포츠·레져용품","category":"other"}]},{"lat":"37.41905745","long":"127.2419182","imageIndex":17,"items":[{"name":"Korea zest(한국제스트)","tel":"031-763-1401","addr":"경기도 광주시 탄벌동 162-1번지 205호","indutype":"기타 - 기계공구","category":"other"}]},{"lat":"37.42011571","long":"127.2398882","imageIndex":17,"items":[{"name":"MJ 탁구용품점","tel":"031-0000-0000","addr":"경기도 광주시 탄벌동 377-21번지","indutype":"레져용품 - 스포츠·레져용품","category":"other"}]},{"lat":"37.42002996","long":"127.2422037","imageIndex":17,"items":[{"name":"TC","tel":"031-765-7677","addr":"경기도 광주시 탄벌동 167-1번지","indutype":"기타 - 기타 전문점","category":"other"}]},{"lat":"37.42050018","long":"127.2457863","imageIndex":17,"items":[{"name":"YH 커튼","tel":"031-768-5253","addr":"경기도 광주시 탄벌동 185번지","indutype":"직물 - 카페트,커튼,천막,지물","category":"other"}]},{"lat":"37.42314293","long":"127.2444166","imageIndex":17,"items":[{"name":"가람목재","tel":"031-797-4212","addr":"경기도 광주시 탄벌동 242-2번지","indutype":"건축자재 - 기타건축자재","category":"other"}]},{"lat":"37.41533701","long":"127.2503332","imageIndex":17,"items":[{"name":"가스펠기독교서점","tel":"031-0000-0000","addr":"경기도 광주시 탄벌동 44-6번지","indutype":"서적문구 - 전문서적","category":"other"},{"name":"쁘띠리옹","tel":"02-1566-7791","addr":"경기도 광주시 탄벌동 44-6번지 청호빌딩 1층","indutype":"의류 - 정장","category":"other"}]},{"lat":"37.42202453","long":"127.2313988","imageIndex":17,"items":[{"name":"개천요","tel":"031-766-1885","addr":"경기도 광주시 탄벌동 630-57번지","indutype":"회원제형태 - 기타4","category":"other"}]},{"lat":"37.41336438","long":"127.2321745","imageIndex":17,"items":[{"name":"경기건축","tel":"031-761-8641","addr":"경기도 광주시 탄벌동 578-1","indutype":"건축자재 - 인테리어전문","category":"other"}]},{"lat":"37.41522571","long":"127.2475315","imageIndex":17,"items":[{"name":"공인열쇠","tel":"031-766-0213","addr":"경기도 광주시 탄벌동 48-8번지","indutype":"기타 - 기계공구","category":"other"}]},{"lat":"37.42613876","long":"127.2422006","imageIndex":17,"items":[{"name":"광민인쇄","tel":"","addr":"경기도 광주시 탄벌동 274-7번지 1층","indutype":"서적문구 - 출판 및 인쇄물","category":"other"},{"name":"부광인쇄기획","tel":"031-761-0533","addr":"경기도 광주시 탄벌동 274-7번지 101호","indutype":"서적문구 - 출판 및 인쇄물","category":"other"}]},{"lat":"37.40822289","long":"127.23967","imageIndex":17,"items":[{"name":"광주경찰서 복지회","tel":"031-790-7394","addr":"경기도 광주시 탄벌동 541-2번지","indutype":"유통업 비영리 - 구내매점(국가기관","category":"other"}]},{"lat":"37.41911265","long":"127.2457818","imageIndex":17,"items":[{"name":"광주골재,건재","tel":"031-766-1339","addr":"경기도 광주시 탄벌동 140번지","indutype":"건축자재 - 기타건축자재","category":"other"},{"name":"쿠쿠경기광주점","tel":"031-766-9940","addr":"경기도 광주시 탄벌동 140번지","indutype":"수리서비스 - 가정용품수리","category":"other"}]},{"lat":"37.41686532","long":"127.2519536","imageIndex":17,"items":[{"name":"광주정보통신","tel":"031-767-1503","addr":"경기도 광주시 탄벌동 35-30번지 신혜빌딩 101호","indutype":"사무통신 - 통신기기","category":"other"},{"name":"팀치빈","tel":"031-761-3386","addr":"경기도 광주시 탄벌동 35-30번지 2층","indutype":"회원제형태 - 레져업소","category":"other"}]},{"lat":"37.41972385","long":"127.2420898","imageIndex":17,"items":[{"name":"광진화학","tel":"031-765-5163","addr":"경기도 광주시 탄벌동 165-4번지","indutype":"건축자재 - 기타건축자재","category":"other"}]},{"lat":"37.41319225","long":"127.2417527","imageIndex":17,"items":[{"name":"그남자가꽃파는집","tel":"031-765-4500","addr":"경기도 광주시 탄벌동 66-2","indutype":"문화.취미 - 화원","category":"other"}]},{"lat":"37.41669955","long":"127.2493662","imageIndex":17,"items":[{"name":"그루그루밍","tel":"031-798-9870","addr":"경기도 광주시 탄벌동 16-2번지","indutype":"문화.취미 - 애완동물","category":"other"}]},{"lat":"37.42124964","long":"127.2360282","imageIndex":17,"items":[{"name":"그린힐홈케어","tel":"","addr":"경기도 광주시 탄벌동 596번지 이원빌리지 101동 101호","indutype":"기타의료기관 - 기타의료기관 및 기타","category":"other"}]},{"lat":"37.42047225","long":"127.2462268","imageIndex":17,"items":[{"name":"기문중기-(토성건기)","tel":"031-768-2100","addr":"경기도 광주시 탄벌동 717번지","indutype":"기타 - 기계공구","category":"other"},{"name":"장지지게차(토성건기)","tel":"031-766-0047","addr":"경기도 광주시 탄벌동 717번지","indutype":"기타 - 기계공구","category":"other"},{"name":"토성건기(궁평지게차)","tel":"031-763-5999","addr":"경기도 광주시 탄벌동 717번지","indutype":"기타 - 기계공구","category":"other"}]},{"lat":"37.41252597","long":"127.2277328","imageIndex":17,"items":[{"name":"나무와자이목공방","tel":"031-111-1111","addr":"경기도 광주시 탄벌동 683-1번지","indutype":"문화.취미 - 문화취미기타","category":"other"}]},{"lat":"37.41108633","long":"127.2360193","imageIndex":17,"items":[{"name":"내가하는미술","tel":"031-798-8675","addr":"경기도 광주시 탄벌동 765번지 경남아너스빌1단지","indutype":"서적문구 - 출판 및 인쇄물","category":"other"},{"name":"월드플라워","tel":"02-578-8828","addr":"경기도 광주시 탄벌동 765번지 경남아너스빌1단지","indutype":"문화.취미 - 화원","category":"other"}]},{"lat":"37.41505763","long":"127.2503662","imageIndex":17,"items":[{"name":"다울세무회계사무소","tel":"031-762-2278","addr":"경기도 광주시 탄벌동 52-8번지","indutype":"용역 서비스 - 법률회계서비스(개인)","category":"other"}]},{"lat":"37.41966568","long":"127.2441117","imageIndex":17,"items":[{"name":"대광디자인","tel":"031-761-2700","addr":"경기도 광주시 탄벌동 176-3번지 성진빌딩 B동 101호","indutype":"건축자재 - 인테리어전문","category":"other"}]},{"lat":"37.42747377","long":"127.2414479","imageIndex":17,"items":[{"name":"대명철물건재","tel":"031-8028-1255","addr":"경기도 광주시 탄벌동 278-4번지","indutype":"건축자재 - 목재·석재·철물","category":"other"}]},{"lat":"37.41958114","long":"127.2501439","imageIndex":17,"items":[{"name":"대주콘테이너","tel":"031-766-3380","addr":"경기도 광주시 탄벌동 27-126번지","indutype":"건축자재 - 기타건축자재","category":"other"}]},{"lat":"37.41739292","long":"127.2495606","imageIndex":17,"items":[{"name":"동신측량설계공사","tel":"031-764-0022","addr":"경기도 광주시 탄벌동 18-19번지 동신빌딩 2층","indutype":"용역 서비스 - 사무서비스","category":"other"}]},{"lat":"37.41599978","long":"127.247918","imageIndex":17,"items":[{"name":"라이프타임휘트니스클럽","tel":"031-764-2966","addr":"경기도 광주시 탄벌동 41-18번지 미래빌딩 4층","indutype":"회원제형태 - 레져업소","category":"other"}]},{"lat":"37.4107299","long":"127.2385596","imageIndex":17,"items":[{"name":"러닝아트코리아","tel":"070-7715-2020","addr":"경기도 광주시 탄벌동 766번지 경남아너스빌2단지","indutype":"용역 서비스 - 사무서비스","category":"other"}]},{"lat":"37.41810841","long":"127.2520933","imageIndex":17,"items":[{"name":"마루도사","tel":"070-4408-8192","addr":"경기도 광주시 탄벌동 29-2번지","indutype":"건축자재 - 인테리어전문","category":"other"}]},{"lat":"37.4208356","long":"127.2403423","imageIndex":17,"items":[{"name":"마이니노","tel":"","addr":"경기도 광주시 탄벌동 339-1번지 황제쉐르빌","indutype":"서적문구 - 일반서적","category":"other"}]},{"lat":"37.41547708","long":"127.2479728","imageIndex":17,"items":[{"name":"명품옷수선및옷판매","tel":"031-000-0000","addr":"경기도 광주시 탄벌동 48-11번지 1층","indutype":"수리서비스 - 세탁소","category":"other"}]},{"lat":"37.41875002","long":"127.2468651","imageIndex":17,"items":[{"name":"모던센스","tel":"031-761-1638","addr":"경기도 광주시 탄벌동 11번지","indutype":"직물 - 침구·수예점","category":"other"}]},{"lat":"37.42055586","long":"127.2405561","imageIndex":17,"items":[{"name":"미래냉난방","tel":"031-797-1739","addr":"경기도 광주시 탄벌동 386-3번지","indutype":"전기제품 - 기타전기제품","category":"other"}]},{"lat":"37.41947511","long":"127.2447776","imageIndex":17,"items":[{"name":"미진테크","tel":"031-768-9066","addr":"경기도 광주시 탄벌동 141-6번지 103호","indutype":"사무통신 - 기타 사무용품","category":"other"}]},{"lat":"37.41738656","long":"127.252588","imageIndex":17,"items":[{"name":"배틀존","tel":"031-767-0742","addr":"경기도 광주시 탄벌동 32-2번지 해빛나빌딩 2층","indutype":"레져용품 - 골프용품 전문점","category":"other"}]},{"lat":"37.41985884","long":"127.2421693","imageIndex":17,"items":[{"name":"백상기업","tel":"031-763-7575","addr":"경기도 광주시 탄벌동 166-2,3","indutype":"농업 - 농기계","category":"other"}]},{"lat":"37.42102974","long":"127.2423651","imageIndex":17,"items":[{"name":"법무사김옥희사무소","tel":"031-798-9799","addr":"경기도 광주시 탄벌동 204-5번지 효행빌딩 2층","indutype":"용역 서비스 - 법률회계서비스(개인)","category":"other"}]},{"lat":"37.41706001","long":"127.2218722","imageIndex":17,"items":[{"name":"베스트공조","tel":"031-765-7277","addr":"경기도 광주시 탄벌동 657-4번지","indutype":"전기제품 - 냉열기기","category":"other"},{"name":"베스트샵 경기광주점","tel":"031-765-7277","addr":"경기도 광주시 탄벌동 657-4번지","indutype":"전기제품 - 가전제품","category":"other"}]},{"lat":"37.42091598","long":"127.236174","imageIndex":17,"items":[{"name":"뷰티","tel":"02-429-2357","addr":"경기도 광주시 탄벌동 361번지 101동 402호","indutype":"회원제형태 - 기타1","category":"other"}]},{"lat":"37.41299828","long":"127.2396398","imageIndex":17,"items":[{"name":"블랙우드","tel":"031-766-6532","addr":"경기도 광주시 탄벌동 479-6번지","indutype":"건축자재 - 인테리어전문","category":"other"}]},{"lat":"37.41874869","long":"127.247509","imageIndex":17,"items":[{"name":"비젼스크린골프","tel":"031-763-8207","addr":"경기도 광주시 탄벌동 11-6번지","indutype":"회원제형태 - 레져업소","category":"other"}]},{"lat":"37.41710908","long":"127.247402","imageIndex":17,"items":[{"name":"빛든공방","tel":"031-765-7192","addr":"경기도 광주시 탄벌동 40번지 탄벌리현대아파트","indutype":"문화.취미 - 민예·공예품","category":"other"}]},{"lat":"37.41619452","long":"127.2495905","imageIndex":17,"items":[{"name":"산호문구","tel":"031-764-9763","addr":"경기도 광주시 탄벌동 37","indutype":"서적문구 - 문구용품","category":"other"}]},{"lat":"37.419473","long":"127.2458056","imageIndex":17,"items":[{"name":"서운건축사사무소","tel":"031-769-1177","addr":"경기도 광주시 탄벌동 180-5번지 외1필지 계림빌딩 2층","indutype":"용역 서비스 - 사무서비스","category":"other"},{"name":"알파종합설비","tel":"031-763-5610","addr":"경기도 광주시 탄벌동 180-5번지","indutype":"수리서비스 - 기타수리서비스","category":"other"},{"name":"플로마차","tel":"070-7562-2389","addr":"경기도 광주시 탄벌동 180-5번지","indutype":"문화.취미 - 화원","category":"other"}]},{"lat":"37.42494853","long":"127.2426487","imageIndex":17,"items":[{"name":"세계철거","tel":"031-763-2994","addr":"경기도 광주시 탄벌동 256-1번지","indutype":"용역 서비스 - 기타용역서비스","category":"other"}]},{"lat":"37.42078216","long":"127.2400371","imageIndex":17,"items":[{"name":"세븐일레븐경기광주탄벌본점","tel":"","addr":"경기도 광주시 탄벌동 340-1번지","indutype":"유통업 영리 - 편 의 점","category":"other"}]},{"lat":"37.42711269","long":"127.2417857","imageIndex":17,"items":[{"name":"스마트모바일","tel":"031-763-3555","addr":"경기도 광주시 탄벌동 274-2번지","indutype":"사무통신 - 통신기기","category":"other"},{"name":"중앙광고","tel":"031-761-4227","addr":"경기도 광주시 탄벌동 274-2번지","indutype":"용역 서비스 - 종합용역","category":"other"}]},{"lat":"37.41594403","long":"127.2487312","imageIndex":17,"items":[{"name":"스토리","tel":"031-764-6632","addr":"경기도 광주시 탄벌동 37-9번지 연세빌딩 1층","indutype":"의류 - 정장","category":"other"}]},{"lat":"37.41749849","long":"127.2507809","imageIndex":17,"items":[{"name":"스토리아찌","tel":"070-7761-9607","addr":"경기도 광주시 탄벌동 20-18번지","indutype":"건축자재 - 기타건축자재","category":"other"}]},{"lat":"37.42058162","long":"127.2456171","imageIndex":17,"items":[{"name":"시대천막","tel":"031-761-1870","addr":"경기도 광주시 탄벌동 186번지","indutype":"직물 - 카페트,커튼,천막,지물","category":"other"}]},{"lat":"37.42069348","long":"127.2393252","imageIndex":17,"items":[{"name":"신디공방","tel":"","addr":"경기도 광주시 탄벌동 377번지 크로바빌라트","indutype":"문화.취미 - 문화취미기타","category":"other"}]},{"lat":"37.42155574","long":"127.2451119","imageIndex":17,"items":[{"name":"썬샤인 스킨&바디","tel":"031-768-6610","addr":"경기도 광주시 탄벌동 222-11번지 3층","indutype":"회원제형태 - 기타4","category":"other"}]},{"lat":"37.41049934","long":"127.2366952","imageIndex":17,"items":[{"name":"씨유광주탄벌레드점","tel":"080-080-3663","addr":"경기도 광주시 탄벌동 766-1번지 경남아너스빌2단지 상가동 202,203호","indutype":"유통업 영리 - 편 의 점","category":"other"}]},{"lat":"37.42010915","long":"127.2431416","imageIndex":17,"items":[{"name":"씨유광주탄벌점","tel":"031-767-6198","addr":"경기도 광주시 탄벌동 196-1.2","indutype":"유통업 영리 - 편 의 점","category":"other"},{"name":"크린위드탄벌1호점","tel":"031-763-4347","addr":"경기도 광주시 탄벌동 196-1번지 107호","indutype":"수리서비스 - 세탁소","category":"other"}]},{"lat":"37.42655329","long":"127.242168","imageIndex":17,"items":[{"name":"씨유탄벌이배재로점","tel":"031-735-4747","addr":"경기도 광주시 탄벌동 274-1번지","indutype":"유통업 영리 - 편 의 점","category":"other"},{"name":"와우편의점","tel":"031-726-3661","addr":"경기도 광주시 탄벌동 274-1번지","indutype":"유통업 영리 - 편 의 점","category":"other"}]},{"lat":"37.41067321","long":"127.2353403","imageIndex":17,"items":[{"name":"아너스크리닝","tel":"031-798-8884","addr":"경기도 광주시 탄벌동 765번지 경남아너스빌1단지 A동 104호 상가","indutype":"수리서비스 - 세탁소","category":"other"},{"name":"이천차일드","tel":"070-8257-4574","addr":"경기도 광주시 탄벌동 765번지 경남아너스빌1단지","indutype":"의류 - 아동의류","category":"other"}]},{"lat":"37.41013668","long":"127.2378349","imageIndex":17,"items":[{"name":"아름다운당신","tel":"070-7799-1139","addr":"경기도 광주시 탄벌동 766번지 경남아너스빌2단지","indutype":"신변잡화 - 기타잡화","category":"other"}]},{"lat":"37.41853338","long":"127.2470565","imageIndex":17,"items":[{"name":"아이넷문구,완구","tel":"031-766-3733","addr":"경기도 광주시 탄벌동 11-42번지 1층","indutype":"서적문구 - 문구용품","category":"other"}]},{"lat":"37.41849785","long":"127.2468078","imageIndex":17,"items":[{"name":"액정천국","tel":"070-7256-8949","addr":"경기도 광주시 탄벌동 717-10번지","indutype":"사무통신 - 통신기기","category":"other"}]},{"lat":"37.41525892","long":"127.2488984","imageIndex":17,"items":[{"name":"에스더블유(S.W)냉동","tel":"031-764-8032","addr":"경기도 광주시 탄벌동 45번지 동보아파트","indutype":"회원제형태 - 기타1","category":"other"}]},{"lat":"37.41558946","long":"127.250255","imageIndex":17,"items":[{"name":"예쁜여우","tel":"031-767-8787","addr":"경기도 광주시 탄벌동 44-2번지 4층","indutype":"회원제형태 - 기타4","category":"other"}]},{"lat":"37.4212246","long":"127.2395641","imageIndex":17,"items":[{"name":"예성에너테크","tel":"031-764-9630","addr":"경기도 광주시 탄벌동 346-1번지 201호","indutype":"건축자재 - 기타건축자재","category":"other"}]},{"lat":"37.41532034","long":"127.2496893","imageIndex":17,"items":[{"name":"오네스또","tel":"031-797-0305","addr":"경기도 광주시 탄벌동 45번지 동보아파트","indutype":"회원제형태 - 사무서비스","category":"other"},{"name":"현대인테리어","tel":"031-769-0664","addr":"경기도 광주시 탄벌동 45번지 동보아파트","indutype":"회원제형태 - 기타4","category":"other"}]},{"lat":"37.41947601","long":"127.244337","imageIndex":17,"items":[{"name":"오렌지 크린 세탁소","tel":"031-761-7662","addr":"경기도 광주시 탄벌동 176-4번지 A동 104호","indutype":"수리서비스 - 세탁소","category":"other"}]},{"lat":"37.41583556","long":"127.2445287","imageIndex":17,"items":[{"name":"오복가설재","tel":"031-763-3013","addr":"경기도 광주시 탄벌동 91번지","indutype":"건축자재 - 기타건축자재","category":"other"}]},{"lat":"37.41416959","long":"127.2440941","imageIndex":17,"items":[{"name":"와이제이","tel":"","addr":"경기도 광주시 탄벌동 74-1번지","indutype":"사무통신 - 기타 사무용품","category":"other"},{"name":"카마","tel":"","addr":"경기도 광주시 탄벌동 74-1번지 1층 103호","indutype":"문화.취미 - 문화취미기타","category":"other"}]},{"lat":"37.42075206","long":"127.2415621","imageIndex":17,"items":[{"name":"우림세탁소","tel":"031-765-8882","addr":"경기도 광주시 탄벌동 391번지","indutype":"수리서비스 - 세탁소","category":"other"}]},{"lat":"37.4219429","long":"127.240809","imageIndex":17,"items":[{"name":"유앤아이 반품마트/(주)유앤아이글로벌","tel":"02-111-1111","addr":"경기도 광주시 탄벌동 327-2번지","indutype":"신변잡화 - 기타잡화","category":"other"}]},{"lat":"37.42091915","long":"127.2435848","imageIndex":17,"items":[{"name":"은성산업사","tel":"02-2232-4781","addr":"경기도 광주시 탄벌동 194-1번지","indutype":"기타 - 기타 전문점","category":"other"},{"name":"크린키퍼","tel":"031-793-2700","addr":"경기도 광주시 탄벌동 194-1번지","indutype":"의류 - 기타의류","category":"other"}]},{"lat":"37.42094808","long":"127.2426472","imageIndex":17,"items":[{"name":"이마트24 탄벌회관점","tel":"031-1111-1111","addr":"경기도 광주시 탄벌동 204-2번지","indutype":"유통업 영리 - 편 의 점","category":"other"},{"name":"이마트24 탄벌회관점","tel":"","addr":"경기도 광주시 탄벌동 204-2번지","indutype":"유통업 영리 - 편 의 점","category":"other"}]},{"lat":"37.42341355","long":"127.2442593","imageIndex":17,"items":[{"name":"일광종합건재,철물","tel":"031-768-6423","addr":"경기도 광주시 탄벌동 242번지","indutype":"건축자재 - 기타건축자재","category":"other"}]},{"lat":"37.41589044","long":"127.2485051","imageIndex":17,"items":[{"name":"잎새꽃방","tel":"031-762-0483","addr":"경기도 광주시 탄벌동 42-11번지","indutype":"문화.취미 - 화원","category":"other"}]},{"lat":"37.42763629","long":"127.2412789","imageIndex":17,"items":[{"name":"자연미","tel":"031-766-5429","addr":"경기도 광주시 탄벌동 278-2번지","indutype":"회원제형태 - 기타4","category":"other"}]},{"lat":"37.41317265","long":"127.2425321","imageIndex":17,"items":[{"name":"정유통","tel":"031-793-2529","addr":"경기도 광주시 탄벌동 65-1번지","indutype":"의류 - 정장","category":"other"},{"name":"주식회사더테니스","tel":"031-798-8531","addr":"경기도 광주시 탄벌동 65-1번지","indutype":"레져용품 - 스포츠·레져용품","category":"other"}]},{"lat":"37.42110642","long":"127.2400833","imageIndex":17,"items":[{"name":"제이 루멘텍","tel":"","addr":"경기도 광주시 탄벌동 762번지 우림루미아트아파트","indutype":"건축자재 - 조명기구","category":"other"}]},{"lat":"37.40891739","long":"127.2393107","imageIndex":17,"items":[{"name":"제이디자인(Jdesign)","tel":"","addr":"경기도 광주시 탄벌동 547번지","indutype":"직물 - 카페트,커튼,천막,지물","category":"other"}]},{"lat":"37.41683929","long":"127.2514791","imageIndex":17,"items":[{"name":"주식회사 흠창무역","tel":"031-333-1102","addr":"경기도 광주시 탄벌동 35-34번지","indutype":"기타 - 기계공구","category":"other"},{"name":"크린토피아","tel":"031-769-8999","addr":"경기도 광주시 탄벌동 35-34번지 202호","indutype":"수리서비스 - 세탁소","category":"other"}]},{"lat":"37.41811479","long":"127.2402321","imageIndex":17,"items":[{"name":"주호유통","tel":"031-8028-3609","addr":"경기도 광주시 탄벌동 430번지 전원그린빌 103동 402호","indutype":"유통업 영리 - 기타유통업","category":"other"}]},{"lat":"37.41425554","long":"127.2416996","imageIndex":17,"items":[{"name":"중고시스템","tel":"031-9770-2580","addr":"경기도 광주시 탄벌동 81-1번지","indutype":"전기제품 - 냉열기기","category":"other"}]},{"lat":"37.41983761","long":"127.2437508","imageIndex":17,"items":[{"name":"중앙ENG","tel":"031-8028-0985","addr":"경기도 광주시 탄벌동 175-1번지","indutype":"전기제품 - 기타전기제품","category":"other"},{"name":"초은통신","tel":"070-4806-3728","addr":"경기도 광주시 탄벌동 175-1번지 위드 101호","indutype":"사무통신 - 통신기기","category":"other"}]},{"lat":"37.41705852","long":"127.2226743","imageIndex":17,"items":[{"name":"진솔정보시스템","tel":"031-8065-6117","addr":"경기도 광주시 탄벌동 657번지","indutype":"사무통신 - 컴퓨터","category":"other"}]},{"lat":"37.42730228","long":"127.2415942","imageIndex":17,"items":[{"name":"크린위드 회덕점","tel":"031-767-0222","addr":"경기도 광주시 탄벌동 278-3번지 1층","indutype":"수리서비스 - 세탁소","category":"other"}]},{"lat":"37.41119218","long":"127.2371717","imageIndex":17,"items":[{"name":"크린토피아","tel":"031-763-7444","addr":"경기도 광주시 탄벌동 526 경남아너스빌1층107호","indutype":"수리서비스 - 세탁소","category":"other"}]},{"lat":"37.41577544","long":"127.2474768","imageIndex":17,"items":[{"name":"크린토피아탄벌점","tel":"031-763-1112","addr":"경기도 광주시 탄벌동 41-17번지","indutype":"용역 서비스 - 보관및 창고업","category":"other"}]},{"lat":"37.42102683","long":"127.2393375","imageIndex":17,"items":[{"name":"탄벌전자","tel":"031-765-0351","addr":"경기도 광주시 탄벌동 347번지","indutype":"수리서비스 - 기타수리서비스","category":"other"}]},{"lat":"37.41921944","long":"127.2464261","imageIndex":17,"items":[{"name":"토성건기","tel":"031-884-9588","addr":"경기도 광주시 탄벌동 717-5번지","indutype":"기타 - 기계공구","category":"other"},{"name":"토성건기","tel":"031-767-1832","addr":"경기도 광주시 탄벌동 717-5번지","indutype":"기타 - 기계공구","category":"other"}]},{"lat":"37.41519226","long":"127.2506152","imageIndex":17,"items":[{"name":"파란통신","tel":"031-767-7272","addr":"경기도 광주시 탄벌동 53-2번지","indutype":"사무통신 - 통신기기","category":"other"}]},{"lat":"37.41708641","long":"127.2496386","imageIndex":17,"items":[{"name":"한성공예","tel":"031-761-0877","addr":"경기도 광주시 탄벌동 18-14번지","indutype":"문화.취미 - 민예·공예품","category":"other"}]},{"lat":"37.41391664","long":"127.2444209","imageIndex":17,"items":[{"name":"한소울장애인자립생활센터","tel":"031-762-4583","addr":"경기도 광주시 탄벌동 73번지 한울빌딩 3층","indutype":"신변잡화 - 기타잡화","category":"other"}]},{"lat":"37.41755739","long":"127.252758","imageIndex":17,"items":[{"name":"한은이샵","tel":"031-764-0455","addr":"경기도 광주시 탄벌동 33번지 306호","indutype":"회원제형태 - 기타4","category":"other"}]},{"lat":"37.41872694","long":"127.2493051","imageIndex":17,"items":[{"name":"현대공구","tel":"031-798-0373","addr":"경기도 광주시 탄벌동 25번지","indutype":"기타 - 기계공구","category":"other"}]},{"lat":"37.42538869","long":"127.2433054","imageIndex":17,"items":[{"name":"현대종합기계상사","tel":"031-762-4515","addr":"경기도 광주시 탄벌동 269-1번지","indutype":"기타 - 기계공구","category":"other"}]},{"lat":"37.42713994","long":"127.2416728","imageIndex":17,"items":[{"name":"현선아트유리","tel":"031-764-2338","addr":"경기도 광주시 탄벌동 278-7번지 1층","indutype":"용역 서비스 - 기타용역서비스","category":"other"}]},{"lat":"37.42219693","long":"127.244391","imageIndex":17,"items":[{"name":"휴팩토리(hue factory)","tel":"031-765-5574","addr":"경기도 광주시 탄벌동 222-2번지","indutype":"가구 - 일반가구","category":"other"}]},{"lat":"37.41694446","long":"127.2485763","imageIndex":17,"items":[{"name":"희망과일","tel":"031-765-0914","addr":"경기도 광주시 탄벌동 40번지 탄벌리현대아파트","indutype":"회원제형태 - 기타1","category":"other"}]},{"lat":"37.41650436","long":"127.2479084","imageIndex":17,"items":[{"name":"희현 플라워","tel":"","addr":"경기도 광주시 탄벌동 40번지 탄벌리현대아파트","indutype":"문화.취미 - 화원","category":"other"}]},{"lat":"37.4202217","long":"127.2409504","imageIndex":17,"items":[{"name":"히트산업경인지사","tel":"031-765-0100","addr":"경기도 광주시 탄벌동 386-8번지","indutype":"신변잡화 - 기타잡화","category":"other"}]}]