[{"lat":"37.682845063","long":"126.75404597","imageIndex":7,"items":[{"name":"(주)남도에프앤씨","tel":"031-922-2060","addr":"경기도 고양시 일산서구 대화동 2045-6번지","indutype":"음료식품 - 농·축·수산품","category":"food"},{"name":"거금수산","tel":"031-922-2060","addr":"경기도 고양시 일산서구 대화동 2045-6번지","indutype":"음료식품 - 농·축·수산품","category":"food"}]},{"lat":"37.664376117","long":"126.75443631","imageIndex":7,"items":[{"name":"(주)유한","tel":"","addr":"경기도 고양시 일산서구 대화동 2606번지","indutype":"음료식품 - 기타음료식품","category":"food"},{"name":"루시캔디","tel":"031-919-1163","addr":"경기도 고양시 일산서구 대화동 2606번지","indutype":"음료식품 - 기타음료식품","category":"food"},{"name":"블랙라벨","tel":"070-5008-0515","addr":"경기도 고양시 일산서구 대화동 2606번지","indutype":"음료식품 - 기타음료식품","category":"food"},{"name":"슈니발렌 원마운트2호점","tel":"031-961-6652","addr":"경기도 고양시 일산서구 대화동","indutype":"음료식품 - 제과점","category":"food"},{"name":"식빵연구소원마운트","tel":"070-8802-0128","addr":"경기도 고양시 일산서구 대화동 2606번지","indutype":"음료식품 - 제과점","category":"food"},{"name":"안스베이커리","tel":"031-851-0108","addr":"경기도 고양시 일산서구 대화동 2606번지","indutype":"음료식품 - 제과점","category":"food"},{"name":"앤티앤스(원마운트점)","tel":"031-961-6691","addr":"경기도 고양시 일산서구 대화동 2606번지","indutype":"음료식품 - 제과점","category":"food"},{"name":"쿠크봉(킨텍스원마운트점)","tel":"","addr":"경기도 고양시 일산서구 대화동 2606번지","indutype":"음료식품 - 제과점","category":"food"}]},{"lat":"37.676459735","long":"126.75523485","imageIndex":7,"items":[{"name":"(주)푸드락","tel":"000-1600-7459","addr":"경기도 고양시 일산서구 대화동 2148-8번지","indutype":"음료식품 - 기타음료식품","category":"food"}]},{"lat":"37.677763977","long":"126.7542103","imageIndex":7,"items":[{"name":"EDP대화,풍동","tel":"031-912-2685","addr":"경기도 고양시 일산서구 대화동 2153-5번지","indutype":"음료식품 - 기타음료식품","category":"food"}]},{"lat":"37.671822394","long":"126.75221253","imageIndex":7,"items":[{"name":"EDP대화가좌점","tel":"031-917-0868","addr":"경기도 고양시 일산서구 대화동 2260-8번지","indutype":"음료식품 - 기타음료식품","category":"food"}]},{"lat":"37.682540006","long":"126.75896699","imageIndex":7,"items":[{"name":"KING (킹)","tel":"031-915-1096","addr":"경기도 고양시 일산서구 대화동 2025-10번지","indutype":"음료식품 - 제과점","category":"food"}]},{"lat":"37.65524477","long":"126.73190418","imageIndex":7,"items":[{"name":"가야수산","tel":"070-4150-2228","addr":"경기도 고양시 일산서구 대화동 1932-49번지","indutype":"음료식품 - 농·축·수산품","category":"food"},{"name":"옥토유통","tel":"031-923-1346","addr":"경기도 고양시 일산서구 대화동 1932-49번지","indutype":"음료식품 - 농·축·수산품","category":"food"}]},{"lat":"37.669882059","long":"126.73435589","imageIndex":7,"items":[{"name":"가온베이커리","tel":"031-922-7661","addr":"경기도 고양시 일산서구 대화동 863-16번지","indutype":"음료식품 - 제과점","category":"food"},{"name":"농협안심축산전문점","tel":"031-912-3392","addr":"경기도 고양시 일산서구 대화동 863-16번지","indutype":"음료식품 - 정육점","category":"food"},{"name":"베스킨라빈스 일산대화마을점","tel":"031-923-7731","addr":"경기도 고양시 일산서구 대화동 863-16번지","indutype":"음료식품 - 제과점","category":"food"},{"name":"수제식빵 일마레즈","tel":"","addr":"경기도 고양시 일산서구 대화동 863-16번지","indutype":"음료식품 - 제과점","category":"food"},{"name":"신라명과일산대화점","tel":"031-924-8090","addr":"경기도 고양시 일산서구 대화동 863-16번지","indutype":"음료식품 - 제과점","category":"food"}]},{"lat":"37.670537534","long":"126.73337876","imageIndex":7,"items":[{"name":"가온유통","tel":"031-000-0000","addr":"경기도 고양시 일산서구 대화동 2579번지 대화마을7단지아파트","indutype":"음료식품 - 농·축·수산품","category":"food"}]},{"lat":"37.68253933","long":"126.73380014","imageIndex":7,"items":[{"name":"가와지떡방앗간","tel":"031-915-6638","addr":"경기도 고양시 일산서구 대화동 410-2번지","indutype":"음료식품 - 기타음료식품","category":"food"}]},{"lat":"37.669489881","long":"126.73227177","imageIndex":7,"items":[{"name":"건강가득 주식회사","tel":"031-1899-0925","addr":"경기도 고양시 일산서구 대화동 1464-7번지","indutype":"건강식품 - 기타건강식품","category":"food"},{"name":"산에서들에서","tel":"070-8280-1699","addr":"경기도 고양시 일산서구 대화동 1464-7번지","indutype":"음료식품 - 기타음료식품","category":"food"},{"name":"우량떡백화점","tel":"031-925-0588","addr":"경기도 고양시 일산서구 대화동","indutype":"음료식품 - 제과점","category":"food"},{"name":"일산대화나뚜루","tel":"031-911-7206","addr":"경기도 고양시 일산서구 대화동 1464-7번지","indutype":"음료식품 - 제과점","category":"food"}]},{"lat":"37.670601115","long":"126.74988171","imageIndex":7,"items":[{"name":"건강백세건강원","tel":"031-911-0121","addr":"경기도 고양시 일산서구 대화동 2291-7번지","indutype":"건강식품 - 기타건강식품","category":"food"}]},{"lat":"37.67020728","long":"126.7347401","imageIndex":7,"items":[{"name":"건강한 식빵","tel":"031-915-3389","addr":"경기도 고양시 일산서구 대화동 866번지","indutype":"음료식품 - 제과점","category":"food"},{"name":"송림병","tel":"031-922-8188","addr":"경기도 고양시 일산서구 대화동 866번지","indutype":"음료식품 - 제과점","category":"food"},{"name":"양가찬방","tel":"031-913-1284","addr":"경기도 고양시 일산서구 대화동 866번지","indutype":"음료식품 - 기타음료식품","category":"food"}]},{"lat":"37.683182134","long":"126.74735629","imageIndex":7,"items":[{"name":"고양하나로 뚜레쥬르","tel":"031-919-0742","addr":"경기도 고양시 일산서구 대화동 2324번지","indutype":"음료식품 - 제과점","category":"food"},{"name":"던킨도너츠 고양 하나로점","tel":"031-922-8333","addr":"경기도 고양시 일산서구 대화동 2324번지","indutype":"음료식품 - 제과점","category":"food"},{"name":"해마루","tel":"031-756-5119","addr":"경기도 고양시 일산서구 대화동 2324번지","indutype":"음료식품 - 농·축·수산품","category":"food"}]},{"lat":"37.665938914","long":"126.7564032","imageIndex":7,"items":[{"name":"기단디자인","tel":"031-926-3012","addr":"경기도 고양시 일산서구 대화동 1050-185번지","indutype":"음료식품 - 기타음료식품","category":"food"}]},{"lat":"37.684324852","long":"126.75509534","imageIndex":7,"items":[{"name":"꽃담청","tel":"031-925-1225","addr":"경기도 고양시 일산서구 대화동 2063번지","indutype":"음료식품 - 기타음료식품","category":"food"}]},{"lat":"37.657687539","long":"126.73240527","imageIndex":7,"items":[{"name":"꿈(cum)","tel":"070-6701-2011","addr":"경기도 고양시 일산서구 대화동 1926-39번지","indutype":"음료식품 - 기타음료식품","category":"food"}]},{"lat":"37.670720413","long":"126.7345569","imageIndex":7,"items":[{"name":"나연유통","tel":"","addr":"경기도 고양시 일산서구 대화동 2579번지 대화마을7단지아파트","indutype":"음료식품 - 기타음료식품","category":"food"}]},{"lat":"37.682601688","long":"126.75829794","imageIndex":7,"items":[{"name":"남양유업새일산대리점","tel":"031-902-5558","addr":"경기도 고양시 일산서구 대화동 2027-5번지","indutype":"음료식품 - 기타음료식품","category":"food"}]},{"lat":"37.688489408","long":"126.75610184","imageIndex":7,"items":[{"name":"내추럴팩토리","tel":"031-7757-3447","addr":"경기도 고양시 일산서구 대화동 58-2번지","indutype":"음료식품 - 농·축·수산품","category":"food"}]},{"lat":"37.683818117","long":"126.73354611","imageIndex":7,"items":[{"name":"농업회사법인 주식회사 파크농장","tel":"","addr":"경기도 고양시 일산서구 대화동 395-2번지","indutype":"음료식품 - 농·축·수산품","category":"food"}]},{"lat":"37.666326413","long":"126.72790835","imageIndex":7,"items":[{"name":"농업회사법인 한국상황버섯(주)","tel":"070-7556-8565","addr":"경기도 고양시 일산서구 대화동 1974-2번지","indutype":"음료식품 - 농·축·수산품","category":"food"}]},{"lat":"37.676290896","long":"126.74787869","imageIndex":7,"items":[{"name":"농우축산","tel":"031-0000-0000","addr":"경기도 고양시 일산서구 대화동 2203번지","indutype":"음료식품 - 정육점","category":"food"},{"name":"베스킨라빈스대화역점","tel":"031-812-1230","addr":"경기도 고양시 일산서구 대화동 2203번지","indutype":"음료식품 - 제과점","category":"food"}]},{"lat":"37.677348076","long":"126.75352021","imageIndex":7,"items":[{"name":"다우리축산유통","tel":"031-917-3822","addr":"경기도 고양시 일산서구 대화동 2165-5번지","indutype":"음료식품 - 정육점","category":"food"}]},{"lat":"37.683654135","long":"126.75748959","imageIndex":7,"items":[{"name":"대박","tel":"","addr":"경기도 고양시 일산서구 대화동 2019-9번지","indutype":"음료식품 - 농·축·수산품","category":"food"}]},{"lat":"37.67168701","long":"126.75209964","imageIndex":7,"items":[{"name":"대양상사","tel":"","addr":"경기도 고양시 일산서구 대화동 2260-7번지","indutype":"건강식품 - 기타건강식품","category":"food"}]},{"lat":"37.676462323","long":"126.74799146","imageIndex":7,"items":[{"name":"대화농산","tel":"031-815-3029","addr":"경기도 고양시 일산서구 대화동","indutype":"음료식품 - 농·축·수산품","category":"food"}]},{"lat":"37.671490568","long":"126.73646969","imageIndex":7,"items":[{"name":"대화축산생고기백화점","tel":"031-917-0626","addr":"경기도 고양시 일산서구 대화동 779-2번지","indutype":"음료식품 - 정육점","category":"food"}]},{"lat":"37.655766389","long":"126.73149432","imageIndex":7,"items":[{"name":"더 치즈 FS","tel":"","addr":"경기도 고양시 일산서구 대화동 1932-6번지","indutype":"음료식품 - 기타음료식품","category":"food"}]},{"lat":"37.667964507","long":"126.75138678","imageIndex":7,"items":[{"name":"던킨도너츠 일산레이킨스몰점","tel":"031-911-9559","addr":"경기도 고양시 일산서구 대화동 2602번지","indutype":"음료식품 - 제과점","category":"food"},{"name":"배스킨라빈스(일산킨텍스점)","tel":"031-913-3101","addr":"경기도 고양시 일산서구 대화동 2602번지","indutype":"음료식품 - 제과점","category":"food"},{"name":"주식회사 예향자판기","tel":"031-822-2220","addr":"경기도 고양시 일산서구 대화동 2602번지","indutype":"음료식품 - 기타음료식품","category":"food"},{"name":"콜드스톤레이킨스몰점","tel":"031-919-8724","addr":"경기도 고양시 일산서구 대화동 2602번지","indutype":"음료식품 - 제과점","category":"food"},{"name":"플리트비체","tel":"","addr":"경기도 고양시 일산서구 대화동 2602번지","indutype":"음료식품 - 기타음료식품","category":"food"}]},{"lat":"37.676432302","long":"126.75079143","imageIndex":7,"items":[{"name":"도요(DOYO)","tel":"","addr":"경기도 고양시 일산서구 대화동 2189번지","indutype":"음료식품 - 제과점","category":"food"}]},{"lat":"37.679873696","long":"126.75490609","imageIndex":7,"items":[{"name":"된장골","tel":"031-963-7346","addr":"경기도 고양시 일산서구 대화동 2132-8번지","indutype":"음료식품 - 기타음료식품","category":"food"}]},{"lat":"37.676738531","long":"126.75074505","imageIndex":7,"items":[{"name":"떡공방말랑","tel":"031-911-5352","addr":"경기도 고양시 일산서구 대화동 2196-1번지","indutype":"음료식품 - 제과점","category":"food"},{"name":"자이언트바바대화점","tel":"031-123-4667","addr":"경기도 고양시 일산서구 대화동 2196-1번지","indutype":"음료식품 - 기타음료식품","category":"food"}]},{"lat":"37.676651524","long":"126.74799081","imageIndex":7,"items":[{"name":"뚜레쥬르 대화역","tel":"031-919-3006","addr":"경기도 고양시 일산서구 대화동 2208번지","indutype":"음료식품 - 제과점","category":"food"},{"name":"정연축산","tel":"031-922-7555","addr":"경기도 고양시 일산서구 대화동 2208번지","indutype":"음료식품 - 정육점","category":"food"}]},{"lat":"37.682929772","long":"126.75576883","imageIndex":7,"items":[{"name":"뚜레쥬르 일산성저마을","tel":"031-911-3546","addr":"경기도 고양시 일산서구 대화동 2033번지","indutype":"음료식품 - 제과점","category":"food"}]},{"lat":"37.668543699","long":"126.74424422","imageIndex":7,"items":[{"name":"뚜레쥬르킨텍스1전시장점","tel":"031-995-8366","addr":"경기도 고양시 일산서구 대화동 2600번지","indutype":"음료식품 - 제과점","category":"food"},{"name":"아이엠커피컴퍼니","tel":"02-3444-8203","addr":"경기도 고양시 일산서구 대화동 2600번지","indutype":"음료식품 - 기타음료식품","category":"food"},{"name":"와인마케팅경영연구원(주)","tel":"02-569-8700","addr":"경기도 고양시 일산서구 대화동 2600번지","indutype":"음료식품 - 주류 판매점","category":"food"}]},{"lat":"37.673321303","long":"126.74954376","imageIndex":7,"items":[{"name":"롯데칠성음료 장항점","tel":"031-968-3772","addr":"경기도 고양시 일산서구 대화동 2253-7번지","indutype":"음료식품 - 기타음료식품","category":"food"}]},{"lat":"37.674736807","long":"126.75424307","imageIndex":7,"items":[{"name":"루나아우라(LUNA AURA)","tel":"070-4001-1575","addr":"경기도 고양시 일산서구 대화동 2173-7번지","indutype":"음료식품 - 제과점","category":"food"}]},{"lat":"37.675875547","long":"126.7516548","imageIndex":7,"items":[{"name":"마마로사","tel":"070-7931-8800","addr":"경기도 고양시 일산서구 대화동 2183-11번지","indutype":"음료식품 - 제과점","category":"food"}]},{"lat":"37.680320659","long":"126.7532382","imageIndex":7,"items":[{"name":"마켓알리바바(MARKET ALIBABA)","tel":"070-4191-8303","addr":"경기도 고양시 일산서구 대화동 2138-7번지","indutype":"음료식품 - 기타음료식품","category":"food"}]},{"lat":"37.683512488","long":"126.75438383","imageIndex":7,"items":[{"name":"매일우유 일산풍동대리점","tel":"031-975-7326","addr":"경기도 고양시 일산서구 대화동 2051-8번지","indutype":"음료식품 - 기타음료식품","category":"food"}]},{"lat":"37.680435065","long":"126.75195684","imageIndex":7,"items":[{"name":"매점","tel":"","addr":"경기도 고양시 일산서구 대화동 2097번지","indutype":"음료식품 - 기타음료식품","category":"food"},{"name":"일산대진고등학교 매점","tel":"070-4103-0519","addr":"경기도 고양시 일산서구 대화동 2097번지","indutype":"음료식품 - 기타음료식품","category":"food"}]},{"lat":"37.677659756","long":"126.75179615","imageIndex":7,"items":[{"name":"명성종합유통","tel":"031-924-3370","addr":"경기도 고양시 일산서구 대화동 2163-1번지","indutype":"음료식품 - 기타음료식품","category":"food"}]},{"lat":"37.665327614","long":"126.73235488","imageIndex":7,"items":[{"name":"민물유통","tel":"031-922-5739","addr":"경기도 고양시 일산서구 대화동 1396-314번지","indutype":"음료식품 - 농·축·수산품","category":"food"}]},{"lat":"37.675542685","long":"126.74768855","imageIndex":7,"items":[{"name":"민속떡방","tel":"031-921-0055","addr":"경기도 고양시 일산서구 대화동 2222-1번지","indutype":"음료식품 - 제과점","category":"food"}]},{"lat":"37.672130171","long":"126.7364334","imageIndex":7,"items":[{"name":"베이커리카페 모짜르트","tel":"031-911-4286","addr":"경기도 고양시 일산서구 대화동 762-1번지","indutype":"음료식품 - 제과점","category":"food"}]},{"lat":"37.671932166","long":"126.73652479","imageIndex":7,"items":[{"name":"부라더스 만두와 아이스","tel":"031-919-4493","addr":"경기도 고양시 일산서구 대화동 763-1번지","indutype":"음료식품 - 기타음료식품","category":"food"}]},{"lat":"37.670570847","long":"126.7321885","imageIndex":7,"items":[{"name":"불로초 황칠나라","tel":"031-911-4591","addr":"경기도 고양시 일산서구 대화동 1643-1번지","indutype":"건강식품 - 기타건강식품","category":"food"}]},{"lat":"37.671072791","long":"126.73499768","imageIndex":7,"items":[{"name":"비채","tel":"031-912-0067","addr":"경기도 고양시 일산서구 대화동 751-3번지","indutype":"음료식품 - 기타음료식품","category":"food"},{"name":"잔치떡집","tel":"031-919-7722","addr":"경기도 고양시 일산서구 대화동 751-3번지","indutype":"음료식품 - 제과점","category":"food"},{"name":"행복축산","tel":"031-924-7890","addr":"경기도 고양시 일산서구 대화동 751-3번지","indutype":"음료식품 - 정육점","category":"food"}]},{"lat":"37.683825237","long":"126.75315844","imageIndex":7,"items":[{"name":"산마을약초 건강원","tel":"031-912-1314","addr":"경기도 고양시 일산서구 대화동 2054-3번지","indutype":"건강식품 - 기타건강식품","category":"food"}]},{"lat":"37.676015234","long":"126.75379673","imageIndex":7,"items":[{"name":"서울우유치즈일산고객센타","tel":"031-977-8590","addr":"경기도 고양시 일산서구 대화동 2178-5번지","indutype":"음료식품 - 기타음료식품","category":"food"}]},{"lat":"37.668059254","long":"126.73310436","imageIndex":7,"items":[{"name":"성원유통","tel":"","addr":"경기도 고양시 일산서구 대화동 2583번지 대화마을8단지아파트","indutype":"음료식품 - 기타음료식품","category":"food"}]},{"lat":"37.683935386","long":"126.7584296","imageIndex":7,"items":[{"name":"성저방앗간","tel":"031-917-3992","addr":"경기도 고양시 일산서구 대화동 2010번지","indutype":"음료식품 - 제과점","category":"food"}]},{"lat":"37.681989484","long":"126.75851534","imageIndex":7,"items":[{"name":"성저수입육센타","tel":"031-911-4449","addr":"경기도 고양시 일산서구 대화동","indutype":"음료식품 - 정육점","category":"food"}]},{"lat":"37.669548059","long":"126.73407374","imageIndex":7,"items":[{"name":"송림병떡연구소","tel":"031-922-8188","addr":"경기도 고양시 일산서구 대화동 1450-1번지","indutype":"음료식품 - 제과점","category":"food"},{"name":"에덴의 과일","tel":"031-970-9789","addr":"경기도 고양시 일산서구 대화동 1450-1번지","indutype":"음료식품 - 농·축·수산품","category":"food"}]},{"lat":"37.670821559","long":"126.75185319","imageIndex":7,"items":[{"name":"시장보고야채마트","tel":"031-919-7679","addr":"경기도 고양시 일산서구 대화동 2283-1번지","indutype":"음료식품 - 농·축·수산품","category":"food"}]},{"lat":"37.682963667","long":"126.75906763","imageIndex":7,"items":[{"name":"신혼","tel":"031-922-0697","addr":"경기도 고양시 일산서구 대화동 2013-2번지","indutype":"음료식품 - 제과점","category":"food"}]},{"lat":"37.677014473","long":"126.7491798","imageIndex":7,"items":[{"name":"아다모","tel":"031-815-5345","addr":"경기도 고양시 일산서구 대화동 2209번지 성저마을2단지아파트","indutype":"음료식품 - 기타음료식품","category":"food"}]},{"lat":"37.673212215","long":"126.73682626","imageIndex":7,"items":[{"name":"엄지 건어물","tel":"","addr":"경기도 고양시 일산서구 대화동 2570번지 대화마을6단지아파트","indutype":"음료식품 - 농·축·수산품","category":"food"}]},{"lat":"37.676595602","long":"126.7471295","imageIndex":7,"items":[{"name":"에이스","tel":"031-916-1999","addr":"경기도 고양시 일산서구 대화동 2205번지","indutype":"건강식품 - 기타건강식품","category":"food"}]},{"lat":"37.684320523","long":"126.75304341","imageIndex":7,"items":[{"name":"엘림건강원","tel":"031-918-5326","addr":"경기도 고양시 일산서구 대화동 2066번지","indutype":"건강식품 - 기타건강식품","category":"food"}]},{"lat":"37.685019183","long":"126.75537645","imageIndex":7,"items":[{"name":"연세우유 강북특판","tel":"","addr":"경기도 고양시 일산서구 대화동 2072-10번지","indutype":"음료식품 - 기타음료식품","category":"food"}]},{"lat":"37.683375574","long":"126.75354539","imageIndex":7,"items":[{"name":"연세우유일산총판대리점","tel":"031-904-2000","addr":"경기도 고양시 일산서구 대화동 2051-14번지","indutype":"음료식품 - 기타음료식품","category":"food"}]},{"lat":"37.685125558","long":"126.7545485","imageIndex":7,"items":[{"name":"영우상사","tel":"031-922-5710","addr":"경기도 고양시 일산서구 대화동 2076-2번지","indutype":"음료식품 - 기타음료식품","category":"food"}]},{"lat":"37.666097707","long":"126.75054303","imageIndex":7,"items":[{"name":"오레시피 킨텍스꿈에그린점","tel":"031-913-1515","addr":"경기도 고양시 일산서구 대화동 2603번지 킨텍스꿈에그린","indutype":"음료식품 - 기타음료식품","category":"food"}]},{"lat":"37.670045431","long":"126.75124374","imageIndex":7,"items":[{"name":"오형제","tel":"031-917-3140","addr":"경기도 고양시 일산서구 대화동 2286-1번지","indutype":"음료식품 - 정육점","category":"food"}]},{"lat":"37.675959108","long":"126.74860529","imageIndex":7,"items":[{"name":"온도라이프","tel":"","addr":"경기도 고양시 일산서구 대화동 2203-3번지","indutype":"건강식품 - 기타건강식품","category":"food"}]},{"lat":"37.674735758","long":"126.74951628","imageIndex":7,"items":[{"name":"온새미로","tel":"031-921-6770","addr":"경기도 고양시 일산서구 대화동 2239번지","indutype":"건강식품 - 기타건강식품","category":"food"}]},{"lat":"37.669068586","long":"126.73321405","imageIndex":7,"items":[{"name":"와뻑","tel":"","addr":"경기도 고양시 일산서구 대화동 1446-2번지","indutype":"음료식품 - 기타음료식품","category":"food"},{"name":"파리바게뜨 대화마을점","tel":"031-918-1509","addr":"경기도 고양시 일산서구 대화동 1446-2번지","indutype":"음료식품 - 제과점","category":"food"}]},{"lat":"37.678101844","long":"126.74788382","imageIndex":7,"items":[{"name":"욱이축산","tel":"031-918-3062","addr":"경기도 고양시 일산서구 대화동 2215번지","indutype":"음료식품 - 정육점","category":"food"},{"name":"행복한밥상","tel":"031-917-0947","addr":"경기도 고양시 일산서구 대화동","indutype":"음료식품 - 기타음료식품","category":"food"}]},{"lat":"37.684266705","long":"126.75315695","imageIndex":7,"items":[{"name":"이오바","tel":"031-925-2511","addr":"경기도 고양시 일산서구 대화동 2066-1번지","indutype":"음료식품 - 기타음료식품","category":"food"}]},{"lat":"37.686238728","long":"126.74843416","imageIndex":7,"items":[{"name":"일산수협민물장어","tel":"","addr":"경기도 고양시 일산서구 대화동 84-1번지","indutype":"음료식품 - 농·축·수산품","category":"food"}]},{"lat":"37.683016128","long":"126.75829658","imageIndex":7,"items":[{"name":"정식품일산주엽대리점","tel":"","addr":"경기도 고양시 일산서구 대화동 2025-3번지","indutype":"음료식품 - 기타음료식품","category":"food"}]},{"lat":"37.672407656","long":"126.75204054","imageIndex":7,"items":[{"name":"제일홀딩스","tel":"031-922-9123","addr":"경기도 고양시 일산서구 대화동 2259번지","indutype":"음료식품 - 기타음료식품","category":"food"}]},{"lat":"37.675874467","long":"126.74696194","imageIndex":7,"items":[{"name":"주식회사 닥스메디(Dr.s Medi Co.,Ltd.)","tel":"031-922-2240","addr":"경기도 고양시 일산서구 대화동 2220-1번지","indutype":"건강식품 - 기타건강식품","category":"food"}]},{"lat":"37.66584806","long":"126.72754743","imageIndex":7,"items":[{"name":"주식회사도시락미작","tel":"031-917-1374","addr":"경기도 고양시 일산서구 대화동 1419-1번지","indutype":"음료식품 - 기타음료식품","category":"food"}]},{"lat":"37.675710606","long":"126.75460256","imageIndex":7,"items":[{"name":"주엽고등학교 매점","tel":"070-0000-0000","addr":"경기도 고양시 일산서구 대화동 2168번지","indutype":"음료식품 - 기타음료식품","category":"food"},{"name":"주엽고등학교 매점","tel":"070-0000-0000","addr":"경기도 고양시 일산서구 대화동 2168번지","indutype":"음료식품 - 기타음료식품","category":"food"}]},{"lat":"37.671020368","long":"126.74793073","imageIndex":7,"items":[{"name":"지유명차일산차예관","tel":"031-917-3467","addr":"경기도 고양시 일산서구 대화동 2301-7번지","indutype":"음료식품 - 기타음료식품","category":"food"}]},{"lat":"37.681346645","long":"126.75271329","imageIndex":7,"items":[{"name":"진시루 떡 방앗간","tel":"031-976-5902","addr":"경기도 고양시 일산서구 대화동 2088-9번지","indutype":"음료식품 - 제과점","category":"food"}]},{"lat":"37.675629383","long":"126.75029539","imageIndex":7,"items":[{"name":"짝한우/주식회사 더탑","tel":"031-925-1501","addr":"경기도 고양시 일산서구 대화동 2198-1번지","indutype":"음료식품 - 정육점","category":"food"}]},{"lat":"37.676544526","long":"126.72841475","imageIndex":7,"items":[{"name":"착한표고버섯","tel":"031-923-0456","addr":"경기도 고양시 일산서구 대화동 1782-2번지","indutype":"음료식품 - 농·축·수산품","category":"food"}]},{"lat":"37.67684862","long":"126.75593636","imageIndex":7,"items":[{"name":"착한홍삼","tel":"031-919-6363","addr":"경기도 고양시 일산서구 대화동 2147-2번지","indutype":"건강식품 - 홍삼제품","category":"food"}]},{"lat":"37.682738146","long":"126.75893234","imageIndex":7,"items":[{"name":"참살이녹즙","tel":"031-912-9392","addr":"경기도 고양시 일산서구 대화동 2025-8번지","indutype":"건강식품 - 기타건강식품","category":"food"}]},{"lat":"37.670406467","long":"126.75154856","imageIndex":7,"items":[{"name":"창대축산","tel":"031-924-0036","addr":"경기도 고양시 일산서구 대화동 2283-4번지","indutype":"음료식품 - 정육점","category":"food"}]},{"lat":"37.68265551","long":"126.7581844","imageIndex":7,"items":[{"name":"천생인","tel":"031-911-2122","addr":"경기도 고양시 일산서구 대화동 2027-4번지","indutype":"건강식품 - 기타건강식품","category":"food"}]},{"lat":"37.683460247","long":"126.75957616","imageIndex":7,"items":[{"name":"칠복한우축산","tel":"031-922-0865","addr":"경기도 고양시 일산서구 대화동 2012-3번지","indutype":"음료식품 - 정육점","category":"food"}]},{"lat":"37.674125245","long":"126.75051585","imageIndex":7,"items":[{"name":"커피&커피","tel":"031-917-4920","addr":"경기도 고양시 일산서구 대화동 2240번지","indutype":"음료식품 - 기타음료식품","category":"food"}]},{"lat":"37.6714374","long":"126.74913078","imageIndex":7,"items":[{"name":"커피꽃내음","tel":"","addr":"경기도 고양시 일산서구 대화동 2276-9번지","indutype":"음료식품 - 기타음료식품","category":"food"}]},{"lat":"37.658408865","long":"126.74063023","imageIndex":7,"items":[{"name":"토정농원","tel":"031-917-7704","addr":"경기도 고양시 일산서구 대화동 1945-5번지","indutype":"음료식품 - 정육점","category":"food"}]},{"lat":"37.675659269","long":"126.74743877","imageIndex":7,"items":[{"name":"파리바게뜨 대화역점","tel":"031-918-1086","addr":"경기도 고양시 일산서구 대화동 2222번지","indutype":"음료식품 - 제과점","category":"food"}]},{"lat":"37.678737441","long":"126.7544111","imageIndex":7,"items":[{"name":"파리바게뜨대화성저점","tel":"031-922-8302","addr":"경기도 고양시 일산서구 대화동 2127-1번지","indutype":"음료식품 - 제과점","category":"food"}]},{"lat":"37.683817462","long":"126.75804454","imageIndex":7,"items":[{"name":"푸디백 (FOODIEBAG)","tel":"031-1661-9129","addr":"경기도 고양시 일산서구 대화동 2017-4번지","indutype":"음료식품 - 기타음료식품","category":"food"}]},{"lat":"37.67720717","long":"126.74662863","imageIndex":7,"items":[{"name":"해병대전우회나눔마켓(주)","tel":"031-975-9514","addr":"경기도 고양시 일산서구 대화동 2206번지","indutype":"회원제형태 - 건강식품","category":"food"}]},{"lat":"37.670657357","long":"126.75090164","imageIndex":7,"items":[{"name":"홍다인푸드시스템","tel":"070-7797-5151","addr":"경기도 고양시 일산서구 대화동 2284-10번지","indutype":"음료식품 - 기타음료식품","category":"food"}]},{"lat":"37.671684933","long":"126.75112486","imageIndex":7,"items":[{"name":"황금똥빵(주)","tel":"031-923-1040","addr":"경기도 고양시 일산서구 대화동 2263-6번지","indutype":"음료식품 - 제과점","category":"food"}]},{"lat":"37.670992983","long":"126.75196596","imageIndex":7,"items":[{"name":"회싸게파는집활어직판장","tel":"031-918-8818","addr":"경기도 고양시 일산서구 대화동 2283번지","indutype":"음료식품 - 기타음료식품","category":"food"}]}]