[{"lat":"37.707648466","long":"126.8065138","imageIndex":13,"items":[{"name":"horse valley golf club","tel":"031-977-8500","addr":"경기도 고양시 일산동구 성석동 532-1번지","indutype":"레저업소 - 골프연습장","category":"leisure"},{"name":"빅토리아 골프클럽","tel":"031-977-8500","addr":"경기도 고양시 일산동구 성석동 532-1번지","indutype":"레저업소 - 골프연습장","category":"leisure"},{"name":"세기사","tel":"031-977-8500","addr":"경기도 고양시 일산동구 성석동 532-1번지","indutype":"레저업소 - 골프연습장","category":"leisure"},{"name":"파온필드존 골프아카데미","tel":"031-977-5850","addr":"경기도 고양시 일산동구 성석동 532-1번지","indutype":"레저업소 - 골프연습장","category":"leisure"}]},{"lat":"37.702177675","long":"126.81640487","imageIndex":13,"items":[{"name":"고봉골프연습장","tel":"031-977-1641","addr":"경기도 고양시 일산동구 성석동 37-2번지","indutype":"레저업소 - 골프연습장","category":"leisure"}]},{"lat":"37.713628134","long":"126.78940688","imageIndex":13,"items":[{"name":"김호정","tel":"031-455-9797","addr":"경기도 고양시 일산동구 성석동 1224번지 건영리츠빌","indutype":"레저업소 - 골프연습장","category":"leisure"}]},{"lat":"37.710427604","long":"126.78823663","imageIndex":13,"items":[{"name":"오미산 스크린골프","tel":"031-906-0114","addr":"경기도 고양시 일산동구 성석동 1246-65번지","indutype":"레저업소 - 스크린골프","category":"leisure"}]},{"lat":"37.71376231","long":"126.78887346","imageIndex":13,"items":[{"name":"팡팡 노래연습장","tel":"031-975-5757","addr":"경기도 고양시 일산동구 성석동 1220-1번지","indutype":"레저업소 - 노 래 방","category":"leisure"}]},{"lat":"37.714202653","long":"126.79326126","imageIndex":13,"items":[{"name":"팬텀실내풋살","tel":"031-000-0000","addr":"경기도 고양시 일산동구 성석동 1075-125번지","indutype":"레저업소 - 기타레져업소","category":"leisure"}]}]