[{"lat":"37.234519692","long":"127.20323391","imageIndex":4,"items":[{"name":"(주)알씨피인","tel":"031-322-9545","addr":"경기도 용인시 처인구 김량장동 295-1번지 위너스프라자 301호","indutype":"일반휴게음식 - 서양음식","category":"restaurant"},{"name":"레드썬","tel":"031-322-8256","addr":"경기도 용인시 처인구 김량장동 295-1번지 위너스프라자 106호","indutype":"일반휴게음식 - 스넥","category":"restaurant"},{"name":"마이야르 큐브스테이크","tel":"02-1544-1363","addr":"경기도 용인시 처인구 김량장동 295-1번지 위너스프라자 110호","indutype":"일반휴게음식 - 일반한식","category":"restaurant"},{"name":"메가엠지씨커피 용인처인구청점","tel":"02-1111-1111","addr":"경기도 용인시 처인구 김량장동 295-1번지 위너스프라자 1층 102호","indutype":"일반휴게음식 - 서양음식","category":"restaurant"},{"name":"처갓집양념치킨 김량장점","tel":"031-338-8892","addr":"경기도 용인시 처인구 김량장동 295-1번지 위너스프라자 1층 110호","indutype":"일반휴게음식 - 스넥","category":"restaurant"},{"name":"향화루","tel":"031-336-3888","addr":"경기도 용인시 처인구 김량장동 295-1번지 위너스프라자 107호,108호,109호","indutype":"일반휴게음식 - 중국식","category":"restaurant"}]},{"lat":"37.234965562","long":"127.20596221","imageIndex":4,"items":[{"name":"(주)유진텍코퍼레이션1 (용인)","tel":"031-337-3421","addr":"경기도 용인시 처인구 김량장동 301-3번지 300-9 5~8층","indutype":"일반휴게음식 - 서양음식","category":"restaurant"},{"name":"공차코리아 처인구청점","tel":"031-321-8885","addr":"경기도 용인시 처인구 김량장동 301-3번지 1층 104호","indutype":"일반휴게음식 - 서양음식","category":"restaurant"},{"name":"두끼떡볶이김량장점","tel":"031-333-3337","addr":"경기도 용인시 처인구 김량장동 301-3번지 314-1~8호","indutype":"일반휴게음식 - 스넥","category":"restaurant"},{"name":"맘스터치처인구청점","tel":"031-321-0017","addr":"경기도 용인시 처인구 김량장동 301-3번지 103호","indutype":"일반휴게음식 - 서양음식","category":"restaurant"},{"name":"불1199","tel":"031-323-2580","addr":"경기도 용인시 처인구 김량장동 301-3번지 외 1동 시네마일번가 405호","indutype":"일반휴게음식 - 스넥","category":"restaurant"},{"name":"산쪼메용인롯데시네마점","tel":"","addr":"경기도 용인시 처인구 김량장동 301-3번지 1층 116호","indutype":"일반휴게음식 - 일식·회집","category":"restaurant"},{"name":"소년카레1호점","tel":"031-333-3699","addr":"경기도 용인시 처인구 김량장동 301-3번지 203호","indutype":"일반휴게음식 - 일식·회집","category":"restaurant"},{"name":"손가네정육식당","tel":"031-323-2292","addr":"경기도 용인시 처인구 김량장동 301-3번지 일부 201호","indutype":"일반휴게음식 - 일반한식","category":"restaurant"},{"name":"앨빈 (ALVIN)","tel":"031-111-1111","addr":"경기도 용인시 처인구 김량장동 301-3번지 일부 201호 시네마일번가","indutype":"일반휴게음식 - 일식·회집","category":"restaurant"},{"name":"유나인","tel":"031-322-9399","addr":"경기도 용인시 처인구 김량장동 301-3번지 시네마일번가 305동 306호","indutype":"일반휴게음식 - 일반한식","category":"restaurant"},{"name":"카페리아쵸","tel":"031-337-0929","addr":"경기도 용인시 처인구 김량장동 301-3번지 420호","indutype":"일반휴게음식 - 서양음식","category":"restaurant"},{"name":"카페브리오쉬(용인점)/(주)유진텍코퍼레이","tel":"031-337-1098","addr":"경기도 용인시 처인구 김량장동 301-3번지 5층 503호","indutype":"일반휴게음식 - 서양음식","category":"restaurant"},{"name":"코델리아","tel":"031-334-2766","addr":"경기도 용인시 처인구 김량장동 301-3번지 시네마일번가 1203호","indutype":"일반휴게음식 - 일반한식","category":"restaurant"},{"name":"큐티","tel":"031-339-3521","addr":"경기도 용인시 처인구 김량장동 301-3번지","indutype":"일반휴게음식 - 스넥","category":"restaurant"},{"name":"한스델리 용인김량장점","tel":"031-336-9581","addr":"경기도 용인시 처인구 김량장동 301-3번지 시네마일번가 202호","indutype":"일반휴게음식 - 일반한식","category":"restaurant"},{"name":"할리스커피","tel":"031-338-0920","addr":"경기도 용인시 처인구 김량장동 301-3번지 외1필지307,308호","indutype":"일반휴게음식 - 서양음식","category":"restaurant"},{"name":"황기순칼국수용인롯데시네마점","tel":"031-336-2888","addr":"경기도 용인시 처인구 김량장동 301-3번지 115호 외1필지 시네마일번가","indutype":"일반휴게음식 - 일반한식","category":"restaurant"}]},{"lat":"37.233241867","long":"127.20226141","imageIndex":4,"items":[{"name":"1026","tel":"031-332-1026","addr":"경기도 용인시 처인구 김량장동 337-6번지 1층","indutype":"일반휴게음식 - 일반한식","category":"restaurant"},{"name":"세이세이","tel":"031-335-1458","addr":"경기도 용인시 처인구 김량장동 337-6번지","indutype":"일반휴게음식 - 주점","category":"restaurant"}]},{"lat":"37.236443016","long":"127.2061014","imageIndex":4,"items":[{"name":"1984 M coffee (1984엠커피)","tel":"031-335-9640","addr":"경기도 용인시 처인구 김량장동 133-51번지","indutype":"일반휴게음식 - 서양음식","category":"restaurant"},{"name":"민희네밥집","tel":"031-338-7133","addr":"경기도 용인시 처인구 김량장동 133-51번지 1층","indutype":"일반휴게음식 - 일반한식","category":"restaurant"},{"name":"베리블릿(김량장동점)","tel":"031-321-8949","addr":"경기도 용인시 처인구 김량장동 133-51번지 1층","indutype":"일반휴게음식 - 일반한식","category":"restaurant"},{"name":"송죽원","tel":"031-332-0341","addr":"경기도 용인시 처인구 김량장동 133-51번지","indutype":"일반휴게음식 - 중국식","category":"restaurant"},{"name":"오성만두","tel":"031-335-4757","addr":"경기도 용인시 처인구 김량장동 133-51번지","indutype":"일반휴게음식 - 일반한식","category":"restaurant"},{"name":"오성만두2","tel":"031-334-4757","addr":"경기도 용인시 처인구 김량장동 133-51번지 1층","indutype":"일반휴게음식 - 스넥","category":"restaurant"}]},{"lat":"37.234937912","long":"127.20632274","imageIndex":4,"items":[{"name":"1988고기불패","tel":"031-328-8866","addr":"경기도 용인시 처인구 김량장동 87-2번지 2층","indutype":"일반휴게음식 - 일반한식","category":"restaurant"},{"name":"김가네찜닭","tel":"031-334-3377","addr":"경기도 용인시 처인구 김량장동 87-2번지","indutype":"일반휴게음식 - 일반한식","category":"restaurant"},{"name":"보영만두","tel":"031-321-3377","addr":"경기도 용인시 처인구 김량장동 87-2번지 1층","indutype":"일반휴게음식 - 스넥","category":"restaurant"},{"name":"용인롯데시네마점 빽다방","tel":"031-338-9146","addr":"경기도 용인시 처인구 김량장동 87-2번지 1층","indutype":"일반휴게음식 - 서양음식","category":"restaurant"}]},{"lat":"37.234942338","long":"127.19834425","imageIndex":4,"items":[{"name":"2001오딧세이","tel":"031-333-7286","addr":"경기도 용인시 처인구 김량장동 294-28번지 지층","indutype":"일반휴게음식 - 주점","category":"restaurant"}]},{"lat":"37.236241644","long":"127.20792648","imageIndex":4,"items":[{"name":"500원참숯양꼬치","tel":"031-335-3888","addr":"경기도 용인시 처인구 김량장동 131-15번지 1층 일부","indutype":"일반휴게음식 - 일반한식","category":"restaurant"}]},{"lat":"37.235547215","long":"127.19762459","imageIndex":4,"items":[{"name":"7090열린음악회","tel":"031-000-0000","addr":"경기도 용인시 처인구 김량장동 293-11번지 지하1층","indutype":"일반휴게음식 - 주점","category":"restaurant"},{"name":"펀비어킹","tel":"031-338-9734","addr":"경기도 용인시 처인구 김량장동 293-11번지 1층","indutype":"일반휴게음식 - 주점","category":"restaurant"}]},{"lat":"37.235301944","long":"127.20420512","imageIndex":4,"items":[{"name":"911 (구일일) 온반","tel":"070-7526-9210","addr":"경기도 용인시 처인구 김량장동 254-105번지 삼성빌딩 2층","indutype":"일반휴게음식 - 일반한식","category":"restaurant"},{"name":"다정한호프와찻집","tel":"031-333-0666","addr":"경기도 용인시 처인구 김량장동 254-105번지 삼성빌딩 2층","indutype":"일반휴게음식 - 주점","category":"restaurant"},{"name":"돈구이","tel":"031-335-4509","addr":"경기도 용인시 처인구 김량장동 254-105번지 삼성빌딩 1층","indutype":"일반휴게음식 - 일반한식","category":"restaurant"}]},{"lat":"37.234526714","long":"127.20440591","imageIndex":4,"items":[{"name":"Cafe발그레","tel":"070-0000-0000","addr":"경기도 용인시 처인구 김량장동 296-35번지 창성빌리지 1층","indutype":"일반휴게음식 - 서양음식","category":"restaurant"}]},{"lat":"37.2361327","long":"127.20839949","imageIndex":4,"items":[{"name":"Coffee Flanel (커피프라넬)","tel":"031-339-2215","addr":"경기도 용인시 처인구 김량장동 116-10번지","indutype":"일반휴게음식 - 스넥","category":"restaurant"}]},{"lat":"37.236443538","long":"127.20579713","imageIndex":4,"items":[{"name":"Coffee-ae","tel":"031-335-6472","addr":"경기도 용인시 처인구 김량장동 133-169번지 2층","indutype":"일반휴게음식 - 서양음식","category":"restaurant"}]},{"lat":"37.234164783","long":"127.1999537","imageIndex":4,"items":[{"name":"KB 푸드","tel":"031-335-0388","addr":"경기도 용인시 처인구 김량장동 334-9번지","indutype":"일반휴게음식 - 일반한식","category":"restaurant"}]},{"lat":"37.236218281","long":"127.20579653","imageIndex":4,"items":[{"name":"My.b(마이.비)","tel":"031-337-1170","addr":"경기도 용인시 처인구 김량장동 133-154번지 2층","indutype":"일반휴게음식 - 주점","category":"restaurant"},{"name":"옥상달빛","tel":"031-333-9988","addr":"경기도 용인시 처인구 김량장동 133-154번지 3층","indutype":"일반휴게음식 - 주점","category":"restaurant"}]},{"lat":"37.236437915","long":"127.198427","imageIndex":4,"items":[{"name":"e참치세상","tel":"031-336-7933","addr":"경기도 용인시 처인구 김량장동 314-3번지","indutype":"일반휴게음식 - 일식·회집","category":"restaurant"},{"name":"뚱이네밥상","tel":"","addr":"경기도 용인시 처인구 김량장동 314-3번지 인영빌딩 1층","indutype":"일반휴게음식 - 일반한식","category":"restaurant"},{"name":"라미니(Ramini)","tel":"","addr":"경기도 용인시 처인구 김량장동 314-3번지 인영빌딩 2층 일부","indutype":"일반휴게음식 - 서양음식","category":"restaurant"}]},{"lat":"37.233606913","long":"127.19949023","imageIndex":4,"items":[{"name":"가득찬","tel":"031-323-5535","addr":"경기도 용인시 처인구 김량장동 335-1번지 2층","indutype":"일반휴게음식 - 일반한식","category":"restaurant"},{"name":"둔전아구탕","tel":"031-336-3337","addr":"경기도 용인시 처인구 김량장동 335-1번지","indutype":"일반휴게음식 - 일반한식","category":"restaurant"},{"name":"무진장맛집","tel":"031-336-3692","addr":"경기도 용인시 처인구 김량장동 335-1번지 1층 일부","indutype":"일반휴게음식 - 일반한식","category":"restaurant"}]},{"lat":"37.236135343","long":"127.20157034","imageIndex":4,"items":[{"name":"가마솥두부집","tel":"031-333-9529","addr":"경기도 용인시 처인구 김량장동 325번지 1-3호","indutype":"일반휴게음식 - 일반한식","category":"restaurant"},{"name":"제주올레맛집","tel":"031-338-0730","addr":"경기도 용인시 처인구 김량장동 325번지 1층","indutype":"일반휴게음식 - 일반한식","category":"restaurant"}]},{"lat":"37.232825516","long":"127.20862716","imageIndex":4,"items":[{"name":"가마솥밥맛집해장국","tel":"031-328-6613","addr":"경기도 용인시 처인구 김량장동 41-1번지 1층","indutype":"일반휴게음식 - 일반한식","category":"restaurant"},{"name":"둥이네떡.김","tel":"031-339-1595","addr":"경기도 용인시 처인구 김량장동 41-1번지","indutype":"일반휴게음식 - 스넥","category":"restaurant"}]},{"lat":"37.236134737","long":"127.20193095","imageIndex":4,"items":[{"name":"가마솥순대국","tel":"031-339-5771","addr":"경기도 용인시 처인구 김량장동 325-8번지","indutype":"일반휴게음식 - 일반한식","category":"restaurant"}]},{"lat":"37.235018898","long":"127.20107157","imageIndex":4,"items":[{"name":"가마치통닭(김량장점)","tel":"031-323-0251","addr":"경기도 용인시 처인구 김량장동 254-158번지 102호","indutype":"일반휴게음식 - 스넥","category":"restaurant"},{"name":"본죽 처인구청점","tel":"031-334-3737","addr":"경기도 용인시 처인구 김량장동 254-158번지 1층 106호","indutype":"일반휴게음식 - 일반한식","category":"restaurant"},{"name":"역대짬뽕 용인 처인점","tel":"031-338-7422","addr":"경기도 용인시 처인구 김량장동 254-158번지 114호","indutype":"일반휴게음식 - 중국식","category":"restaurant"}]},{"lat":"37.236407941","long":"127.20553784","imageIndex":4,"items":[{"name":"가장맛있는족발","tel":"031-339-5849","addr":"경기도 용인시 처인구 김량장동 133-69번지","indutype":"일반휴게음식 - 일반한식","category":"restaurant"}]},{"lat":"37.23638356","long":"127.20398261","imageIndex":4,"items":[{"name":"감미옥","tel":"031-321-0170","addr":"경기도 용인시 처인구 김량장동 254-370번지","indutype":"일반휴게음식 - 일반한식","category":"restaurant"}]},{"lat":"37.237357378","long":"127.20356823","imageIndex":4,"items":[{"name":"감자바우","tel":"031-338-9293","addr":"경기도 용인시 처인구 김량장동 231-7번지","indutype":"일반휴게음식 - 일반한식","category":"restaurant"}]},{"lat":"37.235692815","long":"127.20746296","imageIndex":4,"items":[{"name":"감탄 중앙점","tel":"031-335-2145","addr":"경기도 용인시 처인구 김량장동 130-6번지","indutype":"일반휴게음식 - 스넥","category":"restaurant"},{"name":"제이콥스","tel":"070-4161-7666","addr":"경기도 용인시 처인구 김량장동 130-6번지 2층","indutype":"일반휴게음식 - 서양음식","category":"restaurant"},{"name":"캔모아","tel":"070-4161-7665","addr":"경기도 용인시 처인구 김량장동 130-6번지 3층","indutype":"일반휴게음식 - 일반한식","category":"restaurant"}]},{"lat":"37.236717494","long":"127.19826995","imageIndex":4,"items":[{"name":"강남이반한닭꼬치","tel":"031-336-0737","addr":"경기도 용인시 처인구 김량장동 314번지 1층 2호","indutype":"일반휴게음식 - 일반한식","category":"restaurant"},{"name":"내사랑만두","tel":"031-282-3354","addr":"경기도 용인시 처인구 김량장동 314번지 1층 2호","indutype":"일반휴게음식 - 스넥","category":"restaurant"}]},{"lat":"37.234047593","long":"127.19998721","imageIndex":4,"items":[{"name":"강릉남매막국수","tel":"031-336-4309","addr":"경기도 용인시 처인구 김량장동 334-20번지","indutype":"일반휴게음식 - 일반한식","category":"restaurant"},{"name":"윤자네국밥처인구점","tel":"031-339-9882","addr":"경기도 용인시 처인구 김량장동 334-20번지 1층 일부","indutype":"일반휴게음식 - 일반한식","category":"restaurant"}]},{"lat":"37.235578609","long":"127.20043069","imageIndex":4,"items":[{"name":"거기곱창","tel":"031-335-9255","addr":"경기도 용인시 처인구 김량장동 321-5번지","indutype":"일반휴게음식 - 일반한식","category":"restaurant"},{"name":"마더스보쌈","tel":"031-336-6872","addr":"경기도 용인시 처인구 김량장동 321-5번지 1층","indutype":"일반휴게음식 - 일반한식","category":"restaurant"},{"name":"명갈치","tel":"031-336-4242","addr":"경기도 용인시 처인구 김량장동 321-5번지 2층","indutype":"일반휴게음식 - 일반한식","category":"restaurant"},{"name":"세븐","tel":"031-333-0713","addr":"경기도 용인시 처인구 김량장동 321-5번지 지하1층","indutype":"일반휴게음식 - 주점","category":"restaurant"}]},{"lat":"37.237082804","long":"127.20606931","imageIndex":4,"items":[{"name":"거기서만나","tel":"031-335-8417","addr":"경기도 용인시 처인구 김량장동 133-193번지 1층","indutype":"일반휴게음식 - 일반한식","category":"restaurant"},{"name":"연변순대","tel":"070-885-9116","addr":"경기도 용인시 처인구 김량장동 133-193번지 1호","indutype":"일반휴게음식 - 일반한식","category":"restaurant"},{"name":"하이로왕식당","tel":"031-338-6888","addr":"경기도 용인시 처인구 김량장동 133-193번지","indutype":"일반휴게음식 - 중국식","category":"restaurant"}]},{"lat":"37.236046718","long":"127.20601018","imageIndex":4,"items":[{"name":"경구락부(용인본점)","tel":"070-8265-4762","addr":"경기도 용인시 처인구 김량장동 133-128번지","indutype":"일반휴게음식 - 주점","category":"restaurant"}]},{"lat":"37.235774099","long":"127.20206523","imageIndex":4,"items":[{"name":"고기고","tel":"070-8186-4473","addr":"경기도 용인시 처인구 김량장동 325-10번지 113,114호","indutype":"일반휴게음식 - 일반한식","category":"restaurant"},{"name":"수민웰빙식당","tel":"031-321-0021","addr":"경기도 용인시 처인구 김량장동 325-10번지","indutype":"일반휴게음식 - 일반한식","category":"restaurant"},{"name":"아스라이","tel":"","addr":"경기도 용인시 처인구 김량장동 325-10번지 1층 일부","indutype":"일반휴게음식 - 주점","category":"restaurant"},{"name":"차이나","tel":"031-335-7892","addr":"경기도 용인시 처인구 김량장동 325-10번지","indutype":"일반휴게음식 - 중국식","category":"restaurant"}]},{"lat":"37.235857058","long":"127.20626887","imageIndex":4,"items":[{"name":"고기창고","tel":"031-322-9288","addr":"경기도 용인시 처인구 김량장동 133-60번지","indutype":"일반휴게음식 - 일반한식","category":"restaurant"},{"name":"엠와이","tel":"031-335-8519","addr":"경기도 용인시 처인구 김량장동 133-60번지 2층","indutype":"일반휴게음식 - 일반한식","category":"restaurant"}]},{"lat":"37.235691098","long":"127.20845464","imageIndex":4,"items":[{"name":"고봉민김밥","tel":"031-332-2003","addr":"경기도 용인시 처인구 김량장동 115-3번지 1층","indutype":"일반휴게음식 - 스넥","category":"restaurant"}]},{"lat":"37.235992612","long":"127.2007135","imageIndex":4,"items":[{"name":"고사리돌판삼겹살","tel":"031-321-4846","addr":"경기도 용인시 처인구 김량장동 324-2번지 1층","indutype":"일반휴게음식 - 일반한식","category":"restaurant"},{"name":"미향","tel":"031-321-9979","addr":"경기도 용인시 처인구 김량장동 324-2번지","indutype":"일반휴게음식 - 일반한식","category":"restaurant"}]},{"lat":"37.229244338","long":"127.21096122","imageIndex":4,"items":[{"name":"고집불통부대찌개","tel":"031-336-0203","addr":"경기도 용인시 처인구 김량장동 9-5번지 보라빌딩 1층","indutype":"일반휴게음식 - 일반한식","category":"restaurant"},{"name":"순천회관","tel":"031-334-4911","addr":"경기도 용인시 처인구 김량장동 9-5번지 보라빌딩 1층","indutype":"일반휴게음식 - 일반한식","category":"restaurant"},{"name":"전주집별미해장국","tel":"","addr":"경기도 용인시 처인구 김량장동 9-5번지","indutype":"일반휴게음식 - 일반한식","category":"restaurant"}]},{"lat":"37.233054976","long":"127.20087486","imageIndex":4,"items":[{"name":"고철상김량장직영점","tel":"031-334-9222","addr":"경기도 용인시 처인구 김량장동 337-16번지 1층","indutype":"일반휴게음식 - 일반한식","category":"restaurant"},{"name":"우리집","tel":"031-334-6639","addr":"경기도 용인시 처인구 김량장동 337-16번지","indutype":"일반휴게음식 - 일반한식","category":"restaurant"}]},{"lat":"37.233912757","long":"127.19979528","imageIndex":4,"items":[{"name":"고추닭발","tel":"031-335-9077","addr":"경기도 용인시 처인구 김량장동 330-12번지","indutype":"일반휴게음식 - 일반한식","category":"restaurant"}]},{"lat":"37.233577535","long":"127.20089876","imageIndex":4,"items":[{"name":"고향분식한식","tel":"031-338-7591","addr":"경기도 용인시 처인구 김량장동 338번지 조양유통상가아파트","indutype":"일반휴게음식 - 일반한식","category":"restaurant"},{"name":"시골집","tel":"031-337-0573","addr":"경기도 용인시 처인구 김량장동 338번지 조양유통상가아파트","indutype":"일반휴게음식 - 일반한식","category":"restaurant"}]},{"lat":"37.237186698","long":"127.20326351","imageIndex":4,"items":[{"name":"고향집청국장","tel":"031-332-4855","addr":"경기도 용인시 처인구 김량장동 229-28번지 1층","indutype":"일반휴게음식 - 일반한식","category":"restaurant"}]},{"lat":"37.233693631","long":"127.20151885","imageIndex":4,"items":[{"name":"골목식당","tel":"031-335-5016","addr":"경기도 용인시 처인구 김량장동 338-1번지","indutype":"일반휴게음식 - 일반한식","category":"restaurant"}]},{"lat":"37.23605233","long":"127.20798231","imageIndex":4,"items":[{"name":"곱창고","tel":"031-334-0319","addr":"경기도 용인시 처인구 김량장동 131-5번지 1층","indutype":"일반휴게음식 - 일반한식","category":"restaurant"},{"name":"이차돌김량장점","tel":"","addr":"경기도 용인시 처인구 김량장동 131-5번지 고웅빌딩 1층","indutype":"일반휴게음식 - 일반한식","category":"restaurant"}]},{"lat":"37.237052998","long":"127.20768075","imageIndex":4,"items":[{"name":"곱창야채볶음","tel":"031-338-6322","addr":"경기도 용인시 처인구 김량장동 136-3번지 1층","indutype":"일반휴게음식 - 일반한식","category":"restaurant"},{"name":"와니닭강정&통닭","tel":"031-333-7881","addr":"경기도 용인시 처인구 김량장동 136-3번지","indutype":"일반휴게음식 - 일반한식","category":"restaurant"}]},{"lat":"37.232471462","long":"127.21014747","imageIndex":4,"items":[{"name":"공릉동원조멸치국수","tel":"","addr":"경기도 용인시 처인구 김량장동 23-1번지 1층","indutype":"일반휴게음식 - 일반한식","category":"restaurant"},{"name":"대성왕만두","tel":"031-322-0465","addr":"경기도 용인시 처인구 김량장동 23-1번지 1층","indutype":"일반휴게음식 - 일반한식","category":"restaurant"},{"name":"롯데리아 용인터미널점","tel":"031-335-2760","addr":"경기도 용인시 처인구 김량장동 23-1번지 용인공용버스터미널 1층 상가","indutype":"일반휴게음식 - 스넥","category":"restaurant"},{"name":"맛깔참죽","tel":"031-335-6233","addr":"경기도 용인시 처인구 김량장동 23-1번지","indutype":"일반휴게음식 - 일반한식","category":"restaurant"},{"name":"못난이꽈배기용인터미널점","tel":"031-321-8870","addr":"경기도 용인시 처인구 김량장동 23-1번지 용인공용버스터미널 가동 1층","indutype":"일반휴게음식 - 스넥","category":"restaurant"},{"name":"육수당 (용인터미널점)","tel":"031-333-8259","addr":"경기도 용인시 처인구 김량장동 23-1번지 1층 상가 1층 일부","indutype":"일반휴게음식 - 일반한식","category":"restaurant"},{"name":"킹콩쥬스엔커피용인터미널점","tel":"031-321-0322","addr":"경기도 용인시 처인구 김량장동 23-1번지 용인고용버스터미널 A동 1층","indutype":"일반휴게음식 - 서양음식","category":"restaurant"},{"name":"터미널스넥","tel":"","addr":"경기도 용인시 처인구 김량장동 23-1번지","indutype":"일반휴게음식 - 스넥","category":"restaurant"}]},{"lat":"37.237359908","long":"127.2020694","imageIndex":4,"items":[{"name":"공원동태섞어탕","tel":"031-336-4336","addr":"경기도 용인시 처인구 김량장동 235-41번지 1층","indutype":"일반휴게음식 - 일반한식","category":"restaurant"}]},{"lat":"37.23424076","long":"127.19759869","imageIndex":4,"items":[{"name":"공원동태탕","tel":"031-336-4338","addr":"경기도 용인시 처인구 김량장동 329번지","indutype":"일반휴게음식 - 일반한식","category":"restaurant"},{"name":"카니발","tel":"031-334-1577","addr":"경기도 용인시 처인구 김량장동 329번지","indutype":"일반휴게음식 - 주점","category":"restaurant"}]},{"lat":"37.236804103","long":"127.20570794","imageIndex":4,"items":[{"name":"광동마라탕","tel":"031-328-8698","addr":"경기도 용인시 처인구 김량장동 133-199번지 1층","indutype":"일반휴게음식 - 일반한식","category":"restaurant"}]},{"lat":"37.236774594","long":"127.20715034","imageIndex":4,"items":[{"name":"광명홍두깨손칼국수","tel":"","addr":"경기도 용인시 처인구 김량장동 133-146번지 1층 2층","indutype":"일반휴게음식 - 일반한식","category":"restaurant"}]},{"lat":"37.236883629","long":"127.20662097","imageIndex":4,"items":[{"name":"광주순대","tel":"031-321-7782","addr":"경기도 용인시 처인구 김량장동 133-37번지 105호","indutype":"일반휴게음식 - 일반한식","category":"restaurant"},{"name":"마산집","tel":"031-335-3050","addr":"경기도 용인시 처인구 김량장동 133-37번지 129호","indutype":"일반휴게음식 - 일반한식","category":"restaurant"},{"name":"본전집","tel":"031-332-2422","addr":"경기도 용인시 처인구 김량장동 133-37번지","indutype":"일반휴게음식 - 칵테일바","category":"restaurant"},{"name":"송엘림치킨","tel":"070-7018-5392","addr":"경기도 용인시 처인구 김량장동 133-37번지 101호","indutype":"일반휴게음식 - 일반한식","category":"restaurant"},{"name":"시장순대사랑채","tel":"031-336-6711","addr":"경기도 용인시 처인구 김량장동 133-37번지 128호","indutype":"일반휴게음식 - 일반한식","category":"restaurant"},{"name":"시장순대삼호점삼순이","tel":"031-333-4214","addr":"경기도 용인시 처인구 김량장동 133-37번지 104호","indutype":"일반휴게음식 - 일반한식","category":"restaurant"},{"name":"용인오복순대","tel":"031-321-6337","addr":"경기도 용인시 처인구 김량장동 133-37번지 102호","indutype":"일반휴게음식 - 일반한식","category":"restaurant"},{"name":"장수왕족발","tel":"031-321-4043","addr":"경기도 용인시 처인구 김량장동 133-37번지 116호","indutype":"일반휴게음식 - 일반한식","category":"restaurant"},{"name":"평원집","tel":"031-332-1014","addr":"경기도 용인시 처인구 김량장동 133-37번지","indutype":"일반휴게음식 - 일반한식","category":"restaurant"},{"name":"향원순대","tel":"031-336-6177","addr":"경기도 용인시 처인구 김량장동 133-37번지","indutype":"일반휴게음식 - 일반한식","category":"restaurant"}]},{"lat":"37.236132533","long":"127.20323818","imageIndex":4,"items":[{"name":"광화문연가","tel":"031-335-8818","addr":"경기도 용인시 처인구 김량장동 254-421번지 대흥쇼핑 106호","indutype":"일반휴게음식 - 일반한식","category":"restaurant"},{"name":"김가네숯불닭갈비","tel":"031-323-0057","addr":"경기도 용인시 처인구 김량장동 254-421번지 1층","indutype":"일반휴게음식 - 일반한식","category":"restaurant"},{"name":"무진장","tel":"031-322-9092","addr":"경기도 용인시 처인구 김량장동 254-421번지 대흥쇼핑 108호","indutype":"일반휴게음식 - 일반한식","category":"restaurant"},{"name":"속푸리","tel":"031-338-4788","addr":"경기도 용인시 처인구 김량장동 254-421번지 1층","indutype":"일반휴게음식 - 일반한식","category":"restaurant"},{"name":"엘리팝","tel":"031-338-7629","addr":"경기도 용인시 처인구 김량장동 254-421번지","indutype":"일반휴게음식 - 주점","category":"restaurant"}]},{"lat":"37.233074238","long":"127.20013117","imageIndex":4,"items":[{"name":"교동짬뽕","tel":"031-335-1244","addr":"경기도 용인시 처인구 김량장동 336-10번지 지하1층","indutype":"일반휴게음식 - 중국식","category":"restaurant"},{"name":"김뒷고기","tel":"031-333-9892","addr":"경기도 용인시 처인구 김량장동 336-10번지 1층 101호","indutype":"일반휴게음식 - 일반한식","category":"restaurant"},{"name":"본가왕뼈감자탕","tel":"031-321-8112","addr":"경기도 용인시 처인구 김량장동 336-10번지 외 1필지 태중빌딩 103호","indutype":"일반휴게음식 - 일반한식","category":"restaurant"}]},{"lat":"37.235019182","long":"127.19543703","imageIndex":4,"items":[{"name":"교촌치킨용인1호점","tel":"031-339-0725","addr":"경기도 용인시 처인구 김량장동 293-24","indutype":"일반휴게음식 - 일반한식","category":"restaurant"},{"name":"밥꽃","tel":"031-332-7792","addr":"경기도 용인시 처인구 김량장동 293-24번지 1층","indutype":"일반휴게음식 - 일반한식","category":"restaurant"}]},{"lat":"37.236160883","long":"127.20773468","imageIndex":4,"items":[{"name":"구노포차","tel":"031-321-1181","addr":"경기도 용인시 처인구 김량장동 131-16번지","indutype":"일반휴게음식 - 일반한식","category":"restaurant"},{"name":"수상한집","tel":"070-7018-5364","addr":"경기도 용인시 처인구 김량장동 131-16번지 1층","indutype":"일반휴게음식 - 주점","category":"restaurant"},{"name":"우와숯불바베큐","tel":"031-332-0867","addr":"경기도 용인시 처인구 김량장동 131-16번지","indutype":"일반휴게음식 - 일반한식","category":"restaurant"},{"name":"초두부","tel":"031-322-8337","addr":"경기도 용인시 처인구 김량장동 131-16번지","indutype":"일반휴게음식 - 일반한식","category":"restaurant"}]},{"lat":"37.234221226","long":"127.20389799","imageIndex":4,"items":[{"name":"구월식탁","tel":"02-1588-6305","addr":"경기도 용인시 처인구 김량장동 340-3번지 1층","indutype":"일반휴게음식 - 일반한식","category":"restaurant"}]},{"lat":"37.23496784","long":"127.19926838","imageIndex":4,"items":[{"name":"국가대표김량장점","tel":"031-339-0119","addr":"경기도 용인시 처인구 김량장동 323-12번지 1층","indutype":"일반휴게음식 - 일반한식","category":"restaurant"}]},{"lat":"37.235385067","long":"127.19760163","imageIndex":4,"items":[{"name":"국빈장","tel":"031-335-5422","addr":"경기도 용인시 처인구 김량장동 293-12번지","indutype":"일반휴게음식 - 중국식","category":"restaurant"},{"name":"처음처럼","tel":"031-339-7878","addr":"경기도 용인시 처인구 김량장동 293-12번지 2층","indutype":"일반휴게음식 - 주점","category":"restaurant"}]},{"lat":"37.235741025","long":"127.20562621","imageIndex":4,"items":[{"name":"국수나무(처인구청점)","tel":"031-328-8506","addr":"경기도 용인시 처인구 김량장동 133-157번지","indutype":"일반휴게음식 - 일반한식","category":"restaurant"},{"name":"촌딱포차","tel":"031-328-8015","addr":"경기도 용인시 처인구 김량장동 133-157번지 2층","indutype":"일반휴게음식 - 주점","category":"restaurant"}]},{"lat":"37.233301161","long":"127.19912883","imageIndex":4,"items":[{"name":"굽네치킨","tel":"031-334-9256","addr":"경기도 용인시 처인구 김량장동 336-15번지 1층 3호","indutype":"일반휴게음식 - 스넥","category":"restaurant"}]},{"lat":"37.23624537","long":"127.20043243","imageIndex":4,"items":[{"name":"그곳에미니바","tel":"031-336-8669","addr":"경기도 용인시 처인구 김량장동 316-5번지","indutype":"일반휴게음식 - 주점","category":"restaurant"}]},{"lat":"37.233052689","long":"127.20223837","imageIndex":4,"items":[{"name":"그집빈대떡","tel":"","addr":"경기도 용인시 처인구 김량장동 337-17번지","indutype":"일반휴게음식 - 일반한식","category":"restaurant"},{"name":"카파커피","tel":"031-321-3833","addr":"경기도 용인시 처인구 김량장동 337-17번지","indutype":"일반휴게음식 - 서양음식","category":"restaurant"}]},{"lat":"37.236353435","long":"127.20579689","imageIndex":4,"items":[{"name":"금다방","tel":"031-335-3492","addr":"경기도 용인시 처인구 김량장동 133-170번지","indutype":"일반휴게음식 - 서양음식","category":"restaurant"},{"name":"치킨클럽","tel":"031-321-0298","addr":"경기도 용인시 처인구 김량장동 133-170번지 1층","indutype":"일반휴게음식 - 스넥","category":"restaurant"}]},{"lat":"37.236462724","long":"127.19976811","imageIndex":4,"items":[{"name":"금학천","tel":"031-321-9800","addr":"경기도 용인시 처인구 김량장동 316-2번지","indutype":"일반휴게음식 - 일반한식","category":"restaurant"},{"name":"빈대떡일번지","tel":"031-336-1669","addr":"경기도 용인시 처인구 김량장동 316-2번지","indutype":"일반휴게음식 - 일반한식","category":"restaurant"}]},{"lat":"37.236581297","long":"127.19890068","imageIndex":4,"items":[{"name":"김대박","tel":"","addr":"경기도 용인시 처인구 김량장동 316-17번지 1층","indutype":"일반휴게음식 - 일반한식","category":"restaurant"},{"name":"돈대박","tel":"031-731-9709","addr":"경기도 용인시 처인구 김량장동 316-17번지 1층","indutype":"일반휴게음식 - 일반한식","category":"restaurant"},{"name":"하늘정원레스토랑","tel":"031-322-1024","addr":"경기도 용인시 처인구 김량장동 316-17번지 5층","indutype":"일반휴게음식 - 일반한식","category":"restaurant"}]},{"lat":"37.237384835","long":"127.20857193","imageIndex":4,"items":[{"name":"김량식당","tel":"031-335-6477","addr":"경기도 용인시 처인구 김량장동 142-4","indutype":"일반휴게음식 - 일반한식","category":"restaurant"}]},{"lat":"37.234970683","long":"127.20295338","imageIndex":4,"items":[{"name":"김밥과친구들","tel":"031-337-2221","addr":"경기도 용인시 처인구 김량장동 254-138번지","indutype":"일반휴게음식 - 일반한식","category":"restaurant"},{"name":"아리랑핫도그","tel":"031-321-5988","addr":"경기도 용인시 처인구 김량장동 254-138번지 1층 1호","indutype":"일반휴게음식 - 일반한식","category":"restaurant"},{"name":"우가우가","tel":"031-000-0000","addr":"경기도 용인시 처인구 김량장동 254-138번지 1층","indutype":"일반휴게음식 - 서양음식","category":"restaurant"}]},{"lat":"37.230054193","long":"127.21157194","imageIndex":4,"items":[{"name":"김밥세상","tel":"031-337-0160","addr":"경기도 용인시 처인구 김량장동 4-2외1필지107","indutype":"일반휴게음식 - 스넥","category":"restaurant"},{"name":"멕시칸치킨","tel":"031-338-9026","addr":"경기도 용인시 처인구 김량장동 4-2","indutype":"일반휴게음식 - 주점","category":"restaurant"}]},{"lat":"37.235303436","long":"127.19792823","imageIndex":4,"items":[{"name":"김밥여행","tel":"031-335-5163","addr":"경기도 용인시 처인구 김량장동 294-25번지","indutype":"일반휴게음식 - 스넥","category":"restaurant"},{"name":"나비","tel":"031-322-7799","addr":"경기도 용인시 처인구 김량장동 294-25번지","indutype":"일반휴게음식 - 일반한식","category":"restaurant"},{"name":"더플래버 (The flavor)","tel":"031-334-6036","addr":"경기도 용인시 처인구 김량장동 294-25번지 1층 일부","indutype":"일반휴게음식 - 서양음식","category":"restaurant"},{"name":"어울림포차","tel":"","addr":"경기도 용인시 처인구 김량장동 294-25번지 2층","indutype":"일반휴게음식 - 주점","category":"restaurant"}]},{"lat":"37.235410966","long":"127.20367576","imageIndex":4,"items":[{"name":"김밥천국","tel":"031-321-9163","addr":"경기도 용인시 처인구 김량장동 254-230번지","indutype":"일반휴게음식 - 스넥","category":"restaurant"},{"name":"명동칼국수","tel":"050-7724-7449","addr":"경기도 용인시 처인구 김량장동 254-230번지","indutype":"일반휴게음식 - 일반한식","category":"restaurant"},{"name":"아지트","tel":"","addr":"경기도 용인시 처인구 김량장동 254-230번지 2층","indutype":"일반휴게음식 - 주점","category":"restaurant"}]},{"lat":"37.235241014","long":"127.2082055","imageIndex":4,"items":[{"name":"김밥천국","tel":"031-338-0896","addr":"경기도 용인시 처인구 김량장동 96번지","indutype":"일반휴게음식 - 일반한식","category":"restaurant"},{"name":"땡초불닭발동대문엽기떡볶기","tel":"031-334-8591","addr":"경기도 용인시 처인구 김량장동 96번지 105호","indutype":"일반휴게음식 - 일반한식","category":"restaurant"},{"name":"카네기","tel":"031-321-6423","addr":"경기도 용인시 처인구 김량장동 96번지 802호","indutype":"일반휴게음식 - 일반한식","category":"restaurant"},{"name":"화이트캐슬","tel":"070-7545-8751","addr":"경기도 용인시 처인구 김량장동 96번지","indutype":"일반휴게음식 - 일반한식","category":"restaurant"}]},{"lat":"37.232716961","long":"127.20887478","imageIndex":4,"items":[{"name":"김밥천국","tel":"031-328-6613","addr":"경기도 용인시 처인구 김량장동 42-9번지","indutype":"일반휴게음식 - 일반한식","category":"restaurant"},{"name":"엄마손맛","tel":"031-339-5487","addr":"경기도 용인시 처인구 김량장동 42-9번지 1층","indutype":"일반휴게음식 - 일반한식","category":"restaurant"},{"name":"이디야커피(터미널점)","tel":"031-336-9010","addr":"경기도 용인시 처인구 김량장동 42-9번지 1층","indutype":"일반휴게음식 - 서양음식","category":"restaurant"}]},{"lat":"37.236545982","long":"127.19846108","imageIndex":4,"items":[{"name":"김밥천국","tel":"031-335-1034","addr":"경기도 용인시 처인구 김량장동 314번지 2호","indutype":"일반휴게음식 - 일반한식","category":"restaurant"}]},{"lat":"37.235303598","long":"127.2084874","imageIndex":4,"items":[{"name":"깨돌이김밥","tel":"031-333-9163","addr":"경기도 용인시 처인구 김량장동 113-3번지 로타리빌딩 101호","indutype":"일반휴게음식 - 일반한식","category":"restaurant"},{"name":"쏭스핫도그마평점","tel":"031-335-3567","addr":"경기도 용인시 처인구 김량장동 113-3번지 1층","indutype":"일반휴게음식 - 스넥","category":"restaurant"}]},{"lat":"37.23540732","long":"127.20048659","imageIndex":4,"items":[{"name":"꼬지사께김량장점","tel":"031-323-0995","addr":"경기도 용인시 처인구 김량장동 321-6번지 1층","indutype":"일반휴게음식 - 주점","category":"restaurant"},{"name":"다현이네식당","tel":"031-336-5542","addr":"경기도 용인시 처인구 김량장동 321-6번지","indutype":"일반휴게음식 - 일반한식","category":"restaurant"},{"name":"비어캐빈","tel":"031-336-3372","addr":"경기도 용인시 처인구 김량장동 321-6번지","indutype":"일반휴게음식 - 주점","category":"restaurant"}]},{"lat":"37.236244693","long":"127.20615721","imageIndex":4,"items":[{"name":"꽃피면달이생각나고","tel":"031-336-6035","addr":"경기도 용인시 처인구 김량장동 133-218번지","indutype":"일반휴게음식 - 일반한식","category":"restaurant"}]},{"lat":"37.235969882","long":"127.19812152","imageIndex":4,"items":[{"name":"나들이스넥","tel":"031-335-1348","addr":"경기도 용인시 처인구 김량장동 314-8번지","indutype":"일반휴게음식 - 스넥","category":"restaurant"},{"name":"막퍼주는 세상","tel":"031-335-5101","addr":"경기도 용인시 처인구 김량장동 314-8번지","indutype":"일반휴게음식 - 일반한식","category":"restaurant"}]},{"lat":"37.235186896","long":"127.19756731","imageIndex":4,"items":[{"name":"너는내카롱","tel":"","addr":"경기도 용인시 처인구 김량장동 293-14번지 1층 일부","indutype":"일반휴게음식 - 일반한식","category":"restaurant"},{"name":"불타는꿀돼지","tel":"031-335-7502","addr":"경기도 용인시 처인구 김량장동 293-14번지","indutype":"일반휴게음식 - 일반한식","category":"restaurant"},{"name":"콘서트7080","tel":"031-323-7086","addr":"경기도 용인시 처인구 김량장동 293-14번지","indutype":"일반휴게음식 - 일반한식","category":"restaurant"},{"name":"큰맘할매순대국","tel":"031-328-1060","addr":"경기도 용인시 처인구 김량장동 293-14번지 1층","indutype":"일반휴게음식 - 일반한식","category":"restaurant"}]},{"lat":"37.232579047","long":"127.1999045","imageIndex":4,"items":[{"name":"네네치킨용인1호점","tel":"031-336-9909","addr":"경기도 용인시 처인구 김량장동 345-9번지 1층","indutype":"일반휴게음식 - 스넥","category":"restaurant"},{"name":"친구야잔비어","tel":"031-334-5552","addr":"경기도 용인시 처인구 김량장동 345-9번지 1층","indutype":"일반휴게음식 - 주점","category":"restaurant"}]},{"lat":"37.237106728","long":"127.20787248","imageIndex":4,"items":[{"name":"노전우식당","tel":"","addr":"경기도 용인시 처인구 김량장동 137-5번지 2층","indutype":"일반휴게음식 - 일반한식","category":"restaurant"},{"name":"부산갈매기","tel":"031-000-0000","addr":"경기도 용인시 처인구 김량장동 137-5번지 1층 3호","indutype":"일반휴게음식 - 일반한식","category":"restaurant"}]},{"lat":"37.236495935","long":"127.20676643","imageIndex":4,"items":[{"name":"누룽지카페","tel":"031-322-2729","addr":"경기도 용인시 처인구 김량장동 133-226번지 1층","indutype":"일반휴게음식 - 서양음식","category":"restaurant"},{"name":"제시키친","tel":"031-322-1969","addr":"경기도 용인시 처인구 김량장동 133-226번지 1층","indutype":"일반휴게음식 - 일반한식","category":"restaurant"}]},{"lat":"37.236715464","long":"127.20485124","imageIndex":4,"items":[{"name":"뉴빈대떡신사","tel":"031-321-9111","addr":"경기도 용인시 처인구 김량장동 254-366번지","indutype":"일반휴게음식 - 일반한식","category":"restaurant"},{"name":"옛날서울불고기","tel":"031-335-2848","addr":"경기도 용인시 처인구 김량장동 254-366번지","indutype":"일반휴게음식 - 일반한식","category":"restaurant"}]},{"lat":"37.235051271","long":"127.20850925","imageIndex":4,"items":[{"name":"단지국수집","tel":"031-335-7488","addr":"경기도 용인시 처인구 김량장동 111-6번지 1층","indutype":"일반휴게음식 - 일반한식","category":"restaurant"},{"name":"허니닭강정(용인점)","tel":"031-332-7017","addr":"경기도 용인시 처인구 김량장동 111-6번지 2호","indutype":"일반휴게음식 - 일반한식","category":"restaurant"}]},{"lat":"37.235609601","long":"127.19804171","imageIndex":4,"items":[{"name":"닭치는대로 발라먹자","tel":"031-333-0053","addr":"경기도 용인시 처인구 김량장동 294번지 1층","indutype":"일반휴게음식 - 일반한식","category":"restaurant"},{"name":"소울메이트","tel":"031-337-4213","addr":"경기도 용인시 처인구 김량장동 294번지 1층","indutype":"일반휴게음식 - 주점","category":"restaurant"},{"name":"오동족발","tel":"031-338-8896","addr":"경기도 용인시 처인구 김량장동 294번지 외1필지","indutype":"일반휴게음식 - 일반한식","category":"restaurant"},{"name":"유미딱강정","tel":"031-321-9288","addr":"경기도 용인시 처인구 김량장동 294번지","indutype":"일반휴게음식 - 일반한식","category":"restaurant"}]},{"lat":"37.234519082","long":"127.20359452","imageIndex":4,"items":[{"name":"담소사골순대처인구청점","tel":"031-333-1821","addr":"경기도 용인시 처인구 김량장동 296-53번지 아이렉스타워 102동 103호","indutype":"일반휴게음식 - 일반한식","category":"restaurant"},{"name":"송버드(Song Bird)","tel":"031-322-9233","addr":"경기도 용인시 처인구 김량장동 296-53번지 아이렉스타워 110호, 111호","indutype":"일반휴게음식 - 일반한식","category":"restaurant"},{"name":"아이그래비티","tel":"031-335-5500","addr":"경기도 용인시 처인구 김량장동 296-53번지 아이렉스타워 1층 106,107,108호","indutype":"일반휴게음식 - 서양음식","category":"restaurant"},{"name":"프리마베라","tel":"031-323-2273","addr":"경기도 용인시 처인구 김량장동 296-53번지 아이렉스타워 1층 112호","indutype":"일반휴게음식 - 서양음식","category":"restaurant"},{"name":"호프&치킨하우스","tel":"031-322-3131","addr":"경기도 용인시 처인구 김량장동 296-53번지 아이렉스타워 113호","indutype":"일반휴게음식 - 주점","category":"restaurant"}]},{"lat":"37.236997823","long":"127.20832296","imageIndex":4,"items":[{"name":"담향각","tel":"031-323-5558","addr":"경기도 용인시 처인구 김량장동 140-24번지 2층","indutype":"일반휴게음식 - 일반한식","category":"restaurant"},{"name":"대왕만두","tel":"031-337-1232","addr":"경기도 용인시 처인구 김량장동 140-24번지","indutype":"일반휴게음식 - 스넥","category":"restaurant"},{"name":"카파커피","tel":"070-7787-6364","addr":"경기도 용인시 처인구 김량장동 140-24번지","indutype":"일반휴게음식 - 서양음식","category":"restaurant"}]},{"lat":"37.236999423","long":"127.20739887","imageIndex":4,"items":[{"name":"대동강식당","tel":"","addr":"경기도 용인시 처인구 김량장동 133-9번지","indutype":"일반휴게음식 - 일반한식","category":"restaurant"},{"name":"한가족운남쌀국수","tel":"","addr":"경기도 용인시 처인구 김량장동 133-9번지 1층","indutype":"일반휴게음식 - 일반한식","category":"restaurant"}]},{"lat":"37.23469084","long":"127.20851954","imageIndex":4,"items":[{"name":"대박곱창","tel":"031-323-0718","addr":"경기도 용인시 처인구 김량장동 105-2번지","indutype":"일반휴게음식 - 일반한식","category":"restaurant"},{"name":"우리집을못찾겠군요","tel":"031-338-1804","addr":"경기도 용인시 처인구 김량장동 105-2번지","indutype":"일반휴게음식 - 일반한식","category":"restaurant"}]},{"lat":"37.235803576","long":"127.20593065","imageIndex":4,"items":[{"name":"대박포차","tel":"031-731-9709","addr":"경기도 용인시 처인구 김량장동 133-58번지 한성빌딩 2층 201호","indutype":"일반휴게음식 - 일반한식","category":"restaurant"},{"name":"일락처인구점","tel":"031-335-7424","addr":"경기도 용인시 처인구 김량장동 133-58번지 한성빌딩 1층","indutype":"일반휴게음식 - 일식·회집","category":"restaurant"},{"name":"포차갓성비","tel":"031-731-9709","addr":"경기도 용인시 처인구 김량장동 133-58번지 한성빌딩 2층","indutype":"일반휴게음식 - 주점","category":"restaurant"}]},{"lat":"37.234937583","long":"127.20651432","imageIndex":4,"items":[{"name":"대성부대고기식당","tel":"031-335-3486","addr":"경기도 용인시 처인구 김량장동 87-5번지","indutype":"일반휴게음식 - 일반한식","category":"restaurant"}]},{"lat":"37.234997466","long":"127.20309995","imageIndex":4,"items":[{"name":"대청마루","tel":"031-336-5969","addr":"경기도 용인시 처인구 김량장동 254-290","indutype":"일반휴게음식 - 일반한식","category":"restaurant"},{"name":"매일다방","tel":"031-337-0337","addr":"경기도 용인시 처인구 김량장동 254-290","indutype":"일반휴게음식 - 서양음식","category":"restaurant"},{"name":"시오","tel":"031-333-5674","addr":"경기도 용인시 처인구 김량장동 254-290번지 2층","indutype":"일반휴게음식 - 일반한식","category":"restaurant"},{"name":"이디야커피 처인구점","tel":"031-339-9671","addr":"경기도 용인시 처인구 김량장동 254-290번지 1층","indutype":"일반휴게음식 - 서양음식","category":"restaurant"}]},{"lat":"37.234019133","long":"127.20084357","imageIndex":4,"items":[{"name":"더드림식당","tel":"","addr":"경기도 용인시 처인구 김량장동 339번지","indutype":"일반휴게음식 - 일반한식","category":"restaurant"},{"name":"시골보리밥집","tel":"031-335-0450","addr":"경기도 용인시 처인구 김량장동 339","indutype":"일반휴게음식 - 일반한식","category":"restaurant"},{"name":"어죽이네철렵국용인점","tel":"031-322-0123","addr":"경기도 용인시 처인구 김량장동 339번지","indutype":"일반휴게음식 - 일반한식","category":"restaurant"},{"name":"처인뼈해장국","tel":"031-332-7879","addr":"경기도 용인시 처인구 김량장동 339번지 1층","indutype":"일반휴게음식 - 일반한식","category":"restaurant"},{"name":"토속식당","tel":"031-333-6093","addr":"경기도 용인시 처인구 김량장동 339 1층","indutype":"일반휴게음식 - 일반한식","category":"restaurant"}]},{"lat":"37.231662853","long":"127.19817803","imageIndex":4,"items":[{"name":"더블루밍랩","tel":"070-8966-9241","addr":"경기도 용인시 처인구 김량장동 505-7번지 1층","indutype":"일반휴게음식 - 서양음식","category":"restaurant"}]},{"lat":"37.232859974","long":"127.19893612","imageIndex":4,"items":[{"name":"더큰낙지","tel":"","addr":"경기도 용인시 처인구 김량장동 345번지","indutype":"일반휴게음식 - 일반한식","category":"restaurant"}]},{"lat":"37.234046804","long":"127.2004605","imageIndex":4,"items":[{"name":"데니스커피 처인구청점","tel":"031-0000-0000","addr":"경기도 용인시 처인구 김량장동 334-13번지 1층","indutype":"일반휴게음식 - 서양음식","category":"restaurant"}]},{"lat":"37.234051415","long":"127.19767708","imageIndex":4,"items":[{"name":"도미노피자 용인점","tel":"031-322-3083","addr":"경기도 용인시 처인구 김량장동 329-10번지 1층","indutype":"일반휴게음식 - 서양음식","category":"restaurant"}]},{"lat":"37.233858001","long":"127.20021209","imageIndex":4,"items":[{"name":"도예살롱모네드","tel":"031-333-2720","addr":"경기도 용인시 처인구 김량장동 334-19번지 1층","indutype":"일반휴게음식 - 서양음식","category":"restaurant"}]},{"lat":"37.236880885","long":"127.20820995","imageIndex":4,"items":[{"name":"독도애참치","tel":"031-322-8237","addr":"경기도 용인시 처인구 김량장동 139-4번지 1층","indutype":"일반휴게음식 - 일식·회집","category":"restaurant"},{"name":"쑈웨이오리목점","tel":"031-332-6992","addr":"경기도 용인시 처인구 김량장동 139-4번지 1층","indutype":"일반휴게음식 - 중국식","category":"restaurant"}]},{"lat":"37.238774522","long":"127.20207313","imageIndex":4,"items":[{"name":"돈스조아 용인점","tel":"","addr":"경기도 용인시 처인구 김량장동 203-4번지 1층","indutype":"일반휴게음식 - 일반한식","category":"restaurant"}]},{"lat":"37.234546517","long":"127.19796008","imageIndex":4,"items":[{"name":"돈카냉면&파스타","tel":"031-339-5253","addr":"경기도 용인시 처인구 김량장동 328-1번지 1층","indutype":"일반휴게음식 - 일반한식","category":"restaurant"},{"name":"청춘식당","tel":"","addr":"경기도 용인시 처인구 김량장동 328-1번지","indutype":"일반휴게음식 - 일반한식","category":"restaurant"}]},{"lat":"37.23669011","long":"127.19848399","imageIndex":4,"items":[{"name":"동인","tel":"031-335-0705","addr":"경기도 용인시 처인구 김량장동 314-1번지 인일빌딩 2층","indutype":"일반휴게음식 - 서양음식","category":"restaurant"},{"name":"미도락횟집","tel":"031-321-2338","addr":"경기도 용인시 처인구 김량장동 314-1번지 1층","indutype":"일반휴게음식 - 일식·회집","category":"restaurant"}]},{"lat":"37.231634176","long":"127.20976205","imageIndex":4,"items":[{"name":"동해횟집","tel":"031-336-6900","addr":"경기도 용인시 처인구 김량장동 24번지","indutype":"일반휴게음식 - 일식·회집","category":"restaurant"}]},{"lat":"37.231911303","long":"127.21101363","imageIndex":4,"items":[{"name":"돼지랑동태","tel":"031-334-3411","addr":"경기도 용인시 처인구 김량장동 18-1번지","indutype":"일반휴게음식 - 일반한식","category":"restaurant"}]},{"lat":"37.234076749","long":"127.20931797","imageIndex":4,"items":[{"name":"두리커피","tel":"","addr":"경기도 용인시 처인구 김량장동 63-9번지 에스원스마트빌3차 102호","indutype":"일반휴게음식 - 서양음식","category":"restaurant"},{"name":"시로이","tel":"031-334-0752","addr":"경기도 용인시 처인구 김량장동 63-9번지 용인에스원스마트빌 115호","indutype":"일반휴게음식 - 일식·회집","category":"restaurant"},{"name":"애플민트(Apple Mint)","tel":"","addr":"경기도 용인시 처인구 김량장동 63-9번지 에스원스마트빌3차 108호","indutype":"일반휴게음식 - 서양음식","category":"restaurant"},{"name":"얼큰이찌개마을김량장점","tel":"031-322-9996","addr":"경기도 용인시 처인구 김량장동 63-9번지 에스원스마트빌3차 1층 8호","indutype":"일반휴게음식 - 일반한식","category":"restaurant"},{"name":"오떡 처인점","tel":"","addr":"경기도 용인시 처인구 김량장동 63-9번지 용인에스원스마트빌 1층 113호","indutype":"일반휴게음식 - 스넥","category":"restaurant"},{"name":"전주명가콩나물국밥","tel":"031-322-0180","addr":"경기도 용인시 처인구 김량장동 63-9번지 용인에스원스마트빌 109,110호","indutype":"일반휴게음식 - 일반한식","category":"restaurant"}]},{"lat":"37.234220978","long":"127.20404449","imageIndex":4,"items":[{"name":"두커피(DOUX COFFE)","tel":"070-5368-5255","addr":"경기도 용인시 처인구 김량장동 340-4번지","indutype":"일반휴게음식 - 서양음식","category":"restaurant"}]},{"lat":"37.235689785","long":"127.20920967","imageIndex":4,"items":[{"name":"둥지화로구이","tel":"031-337-3388","addr":"경기도 용인시 처인구 김량장동 118-5번지","indutype":"일반휴게음식 - 일반한식","category":"restaurant"},{"name":"싸리골묵은지찜.보쌈","tel":"031-334-0206","addr":"경기도 용인시 처인구 김량장동 118-5번지","indutype":"일반휴게음식 - 일반한식","category":"restaurant"}]},{"lat":"37.235216805","long":"127.20657141","imageIndex":4,"items":[{"name":"디저트39 용인김량장점","tel":"031-335-0039","addr":"경기도 용인시 처인구 김량장동 90-5번지 1층","indutype":"일반휴게음식 - 서양음식","category":"restaurant"}]},{"lat":"37.236549764","long":"127.20690181","imageIndex":4,"items":[{"name":"디카페(D kaffee)","tel":"","addr":"경기도 용인시 처인구 김량장동 133-166번지","indutype":"일반휴게음식 - 서양음식","category":"restaurant"}]},{"lat":"37.236162613","long":"127.20673173","imageIndex":4,"items":[{"name":"떼루와 용인시장점","tel":"031-323-1137","addr":"경기도 용인시 처인구 김량장동 133-28번지 제에이동호 내제1층 129호 128호,129호","indutype":"일반휴게음식 - 서양음식","category":"restaurant"},{"name":"임마누엘","tel":"031-332-1716","addr":"경기도 용인시 처인구 김량장동 133-28번지","indutype":"일반휴게음식 - 스넥","category":"restaurant"},{"name":"전주와뽀빠이","tel":"031-336-7632","addr":"경기도 용인시 처인구 김량장동 133-28청한상가8","indutype":"일반휴게음식 - 칵테일바","category":"restaurant"},{"name":"찬미스넥","tel":"031-336-3658","addr":"경기도 용인시 처인구 김량장동 133-28번지","indutype":"일반휴게음식 - 스넥","category":"restaurant"}]},{"lat":"37.234743479","long":"127.20410222","imageIndex":4,"items":[{"name":"또봉이통닭(김량장점)","tel":"031-332-9900","addr":"경기도 용인시 처인구 김량장동 296-28번지 민성빌딩","indutype":"일반휴게음식 - 스넥","category":"restaurant"}]},{"lat":"37.235880647","long":"127.20826358","imageIndex":4,"items":[{"name":"뚝배기육닭개장","tel":"031-333-2979","addr":"경기도 용인시 처인구 김량장동 115-6번지","indutype":"일반휴게음식 - 스넥","category":"restaurant"}]},{"lat":"37.236828033","long":"127.2075111","imageIndex":4,"items":[{"name":"라쿵푸마라탕","tel":"","addr":"경기도 용인시 처인구 김량장동 133-12번지","indutype":"일반휴게음식 - 일반한식","category":"restaurant"},{"name":"수정다방","tel":"031-333-5361","addr":"경기도 용인시 처인구 김량장동 133-12번지 지1층","indutype":"일반휴게음식 - 서양음식","category":"restaurant"},{"name":"오병이어식당","tel":"031-335-6304","addr":"경기도 용인시 처인구 김량장동 133-12번지","indutype":"일반휴게음식 - 일반한식","category":"restaurant"},{"name":"천지양꼬치","tel":"","addr":"경기도 용인시 처인구 김량장동 133-12번지 2층 202호","indutype":"일반휴게음식 - 일반한식","category":"restaurant"},{"name":"풍경스넥","tel":"031-335-1085","addr":"경기도 용인시 처인구 김량장동 133-12번지 1층","indutype":"일반휴게음식 - 스넥","category":"restaurant"},{"name":"허흑오리","tel":"031-321-8882","addr":"경기도 용인시 처인구 김량장동 133-12번지 1층","indutype":"일반휴게음식 - 일반한식","category":"restaurant"}]},{"lat":"37.23590984","long":"127.20701278","imageIndex":4,"items":[{"name":"라향각마라탕","tel":"031-332-0660","addr":"경기도 용인시 처인구 김량장동 133-23번지 2층","indutype":"일반휴게음식 - 일반한식","category":"restaurant"},{"name":"아마스빈용인중앙시장점","tel":"031-336-0017","addr":"경기도 용인시 처인구 김량장동 133-23번지","indutype":"일반휴게음식 - 서양음식","category":"restaurant"}]},{"lat":"37.237242408","long":"127.20756857","imageIndex":4,"items":[{"name":"라호르레스토랑(LAHORE RESTAURANT)","tel":"","addr":"경기도 용인시 처인구 김량장동 133-100번지","indutype":"일반휴게음식 - 서양음식","category":"restaurant"},{"name":"향리반점","tel":"","addr":"경기도 용인시 처인구 김량장동 133-100번지","indutype":"일반휴게음식 - 중국식","category":"restaurant"}]},{"lat":"37.231106086","long":"127.19703847","imageIndex":4,"items":[{"name":"럭키불가마구내식당","tel":"031-332-0077","addr":"경기도 용인시 처인구 김량장동 362-2번지","indutype":"일반휴게음식 - 일반한식","category":"restaurant"}]},{"lat":"37.233555114","long":"127.20876437","imageIndex":4,"items":[{"name":"레인보우","tel":"031-336-5007","addr":"경기도 용인시 처인구 김량장동 70-1번지 로데오빌딩 7층","indutype":"일반휴게음식 - 일반한식","category":"restaurant"}]},{"lat":"37.235130958","long":"127.19870535","imageIndex":4,"items":[{"name":"레인보우7080라이브","tel":"031-333-7899","addr":"경기도 용인시 처인구 김량장동 294-9번지 2층","indutype":"일반휴게음식 - 주점","category":"restaurant"},{"name":"블랙포크","tel":"031-335-9293","addr":"경기도 용인시 처인구 김량장동 294-9번지 1층 일부","indutype":"일반휴게음식 - 일반한식","category":"restaurant"}]},{"lat":"37.235129932","long":"127.19932515","imageIndex":4,"items":[{"name":"레전드오브꽐라(Regend of gguarra)","tel":"031-335-9640","addr":"경기도 용인시 처인구 김량장동 323-1번지","indutype":"일반휴게음식 - 일반한식","category":"restaurant"}]},{"lat":"37.237637212","long":"127.2032647","imageIndex":4,"items":[{"name":"리얼안심탕수육 용인점","tel":"","addr":"경기도 용인시 처인구 김량장동 235-14번지 1층 102호","indutype":"일반휴게음식 - 일반한식","category":"restaurant"}]},{"lat":"37.236188731","long":"127.20726145","imageIndex":4,"items":[{"name":"마들렌키친","tel":"","addr":"경기도 용인시 처인구 김량장동 133-142번지 ,1-2층","indutype":"일반휴게음식 - 일반한식","category":"restaurant"},{"name":"펀비어킹","tel":"031-333-0901","addr":"경기도 용인시 처인구 김량장동 133-142번지 2층","indutype":"일반휴게음식 - 일반한식","category":"restaurant"}]},{"lat":"37.236884713","long":"127.20598989","imageIndex":4,"items":[{"name":"마포순대","tel":"031-333-0465","addr":"경기도 용인시 처인구 김량장동 133-45번지","indutype":"일반휴게음식 - 일반한식","category":"restaurant"},{"name":"서울식당","tel":"031-335-2007","addr":"경기도 용인시 처인구 김량장동 133-45번지","indutype":"일반휴게음식 - 일반한식","category":"restaurant"},{"name":"용미식당","tel":"031-333-0707","addr":"경기도 용인시 처인구 김량장동 133-45번지","indutype":"일반휴게음식 - 일반한식","category":"restaurant"},{"name":"장터순대국","tel":"031-335-2772","addr":"경기도 용인시 처인구 김량장동 133-45번지","indutype":"일반휴게음식 - 일반한식","category":"restaurant"}]},{"lat":"37.233886568","long":"127.19928811","imageIndex":4,"items":[{"name":"만나제육쌈","tel":"031-334-8868","addr":"경기도 용인시 처인구 김량장동 330-17번지 1층","indutype":"일반휴게음식 - 일반한식","category":"restaurant"}]},{"lat":"37.235074127","long":"127.20037303","imageIndex":4,"items":[{"name":"맘스커피","tel":"031-332-0900","addr":"경기도 용인시 처인구 김량장동 323-6번지 1층","indutype":"일반휴게음식 - 서양음식","category":"restaurant"}]},{"lat":"37.234935514","long":"127.19701448","imageIndex":4,"items":[{"name":"맛정성다담아","tel":"031-333-9845","addr":"경기도 용인시 처인구 김량장동 293-18번지","indutype":"일반휴게음식 - 일반한식","category":"restaurant"}]},{"lat":"37.233638358","long":"127.20223992","imageIndex":4,"items":[{"name":"맛진불백","tel":"070-2338-6460","addr":"경기도 용인시 처인구 김량장동 338-4번지 1층","indutype":"일반휴게음식 - 일반한식","category":"restaurant"}]},{"lat":"37.236046989","long":"127.20585241","imageIndex":4,"items":[{"name":"맥주창고","tel":"031-332-3331","addr":"경기도 용인시 처인구 김량장동 133-122번지 2층","indutype":"일반휴게음식 - 주점","category":"restaurant"},{"name":"오화상","tel":"031-335-4747","addr":"경기도 용인시 처인구 김량장동 133-122번지","indutype":"일반휴게음식 - 주점","category":"restaurant"},{"name":"통큰왕만두","tel":"031-322-0666","addr":"경기도 용인시 처인구 김량장동 133-122번지 1층","indutype":"일반휴게음식 - 스넥","category":"restaurant"}]},{"lat":"37.233165409","long":"127.19948908","imageIndex":4,"items":[{"name":"명륜진사갈비 김량장점","tel":"031-339-8250","addr":"경기도 용인시 처인구 김량장동 336-13번지 1층","indutype":"일반휴게음식 - 일반한식","category":"restaurant"}]},{"lat":"37.236582396","long":"127.19823579","imageIndex":4,"items":[{"name":"명품구이","tel":"031-322-9090","addr":"경기도 용인시 처인구 김량장동 314-13번지 1층","indutype":"일반휴게음식 - 일반한식","category":"restaurant"}]},{"lat":"37.236298097","long":"127.20654051","imageIndex":4,"items":[{"name":"목포식당","tel":"031-338-9607","addr":"경기도 용인시 처인구 김량장동 133-137번지","indutype":"일반휴게음식 - 일반한식","category":"restaurant"},{"name":"한산면옥","tel":"031-336-1993","addr":"경기도 용인시 처인구 김량장동 133-137번지 1층","indutype":"일반휴게음식 - 일반한식","category":"restaurant"}]},{"lat":"37.235132241","long":"127.19792778","imageIndex":4,"items":[{"name":"묵은지전문고집","tel":"031-0000-0000","addr":"경기도 용인시 처인구 김량장동 294-21번지 부부한의원 102호","indutype":"일반휴게음식 - 일반한식","category":"restaurant"}]},{"lat":"37.235633309","long":"127.20004768","imageIndex":4,"items":[{"name":"미도락","tel":"031-338-8507","addr":"경기도 용인시 처인구 김량장동 321-13번지","indutype":"일반휴게음식 - 일반한식","category":"restaurant"},{"name":"우리야식","tel":"031-338-9481","addr":"경기도 용인시 처인구 김량장동 321-13번지","indutype":"일반휴게음식 - 일반한식","category":"restaurant"}]},{"lat":"37.235747655","long":"127.20701234","imageIndex":4,"items":[{"name":"미소야","tel":"031-335-9970","addr":"경기도 용인시 처인구 김량장동 131-4번지","indutype":"일반휴게음식 - 일반한식","category":"restaurant"},{"name":"비밀이야기","tel":"","addr":"경기도 용인시 처인구 김량장동 131-4번지 2층","indutype":"일반휴게음식 - 주점","category":"restaurant"}]},{"lat":"37.234914245","long":"127.19898652","imageIndex":4,"items":[{"name":"미스사이공 용인처인구청점(이니스)","tel":"031-339-4204","addr":"경기도 용인시 처인구 김량장동 294-13번지 1층","indutype":"일반휴게음식 - 서양음식","category":"restaurant"}]},{"lat":"37.234991987","long":"127.19553838","imageIndex":4,"items":[{"name":"미스터빅","tel":"031-322-6654","addr":"경기도 용인시 처인구 김량장동 293-23번지","indutype":"일반휴게음식 - 서양음식","category":"restaurant"},{"name":"용인수산","tel":"070-8916-6900","addr":"경기도 용인시 처인구 김량장동 293-23번지 1층","indutype":"일반휴게음식 - 일식·회집","category":"restaurant"},{"name":"청춘도니","tel":"031-335-0592","addr":"경기도 용인시 처인구 김량장동 293-23번지 1층","indutype":"일반휴게음식 - 일반한식","category":"restaurant"}]},{"lat":"37.235189968","long":"127.20645865","imageIndex":4,"items":[{"name":"미스터피자 용인점","tel":"031-335-0808","addr":"경기도 용인시 처인구 김량장동 90-2번지 덕윤빌딩 2층","indutype":"일반휴게음식 - 서양음식","category":"restaurant"},{"name":"쥬씨","tel":"031-337-2590","addr":"경기도 용인시 처인구 김량장동 90-2번지 덕윤빌딩 1층","indutype":"일반휴게음식 - 일반한식","category":"restaurant"},{"name":"착한돼지 용인점","tel":"031-334-9279","addr":"경기도 용인시 처인구 김량장동 90-2번지 2층","indutype":"일반휴게음식 - 일반한식","category":"restaurant"}]},{"lat":"37.235165149","long":"127.19982108","imageIndex":4,"items":[{"name":"미식","tel":"031-323-5161","addr":"경기도 용인시 처인구 김량장동 323-3번지 101호","indutype":"일반휴게음식 - 일반한식","category":"restaurant"},{"name":"수니네식당","tel":"031-338-3088","addr":"경기도 용인시 처인구 김량장동 323-3번지 1층","indutype":"일반휴게음식 - 일반한식","category":"restaurant"},{"name":"지배온삼겹","tel":"031-333-4533","addr":"경기도 용인시 처인구 김량장동 323-3번지 102호","indutype":"일반휴게음식 - 일반한식","category":"restaurant"},{"name":"호미불닭발","tel":"031-333-8580","addr":"경기도 용인시 처인구 김량장동 323-3번지","indutype":"일반휴게음식 - 일반한식","category":"restaurant"}]},{"lat":"37.236718563","long":"127.20828839","imageIndex":4,"items":[{"name":"미인다방","tel":"031-338-6886","addr":"경기도 용인시 처인구 김량장동 139-5번지 2층","indutype":"일반휴게음식 - 서양음식","category":"restaurant"},{"name":"연다방","tel":"031-335-4381","addr":"경기도 용인시 처인구 김량장동 139-5번지","indutype":"일반휴게음식 - 서양음식","category":"restaurant"},{"name":"파라다이스","tel":"031-332-5003","addr":"경기도 용인시 처인구 김량장동 139-5번지 2층","indutype":"일반휴게음식 - 주점","category":"restaurant"}]},{"lat":"37.236408062","long":"127.20012858","imageIndex":4,"items":[{"name":"민들레화로","tel":"031-336-9292","addr":"경기도 용인시 처인구 김량장동 316-3번지 1층","indutype":"일반휴게음식 - 일반한식","category":"restaurant"},{"name":"버드나무소머리국밥","tel":"031-335-4055","addr":"경기도 용인시 처인구 김량장동 316-3번지","indutype":"일반휴게음식 - 일반한식","category":"restaurant"}]},{"lat":"37.236686158","long":"127.20618094","imageIndex":4,"items":[{"name":"민속전집","tel":"031-335-5453","addr":"경기도 용인시 처인구 김량장동 133-151번지 1층","indutype":"일반휴게음식 - 일반한식","category":"restaurant"}]},{"lat":"37.236329142","long":"127.20942553","imageIndex":4,"items":[{"name":"민속촌","tel":"031-336-8051","addr":"경기도 용인시 처인구 김량장동 473-48번지","indutype":"일반휴게음식 - 일반한식","category":"restaurant"}]},{"lat":"37.235438089","long":"127.19823284","imageIndex":4,"items":[{"name":"바베큐치킨족발상회","tel":"031-322-9300","addr":"경기도 용인시 처인구 김량장동 294-2번지","indutype":"일반휴게음식 - 일반한식","category":"restaurant"},{"name":"참맛방","tel":"031-339-9765","addr":"경기도 용인시 처인구 김량장동 294-2번지","indutype":"일반휴게음식 - 일반한식","category":"restaurant"}]},{"lat":"37.234685953","long":"127.20613049","imageIndex":4,"items":[{"name":"박가네부대찌개&김치찌개","tel":"031-323-5466","addr":"경기도 용인시 처인구 김량장동 87-10번지","indutype":"일반휴게음식 - 일반한식","category":"restaurant"}]},{"lat":"37.235436388","long":"127.20462244","imageIndex":4,"items":[{"name":"밤낮(밤은 낮보다 아름답다)","tel":"001-0000-0000","addr":"경기도 용인시 처인구 김량장동 254-72번지 2층","indutype":"일반휴게음식 - 일반한식","category":"restaurant"},{"name":"에이에이바 (AA BAR)","tel":"","addr":"경기도 용인시 처인구 김량장동 254-72번지 2층","indutype":"일반휴게음식 - 주점","category":"restaurant"},{"name":"처인구청점 새마을식당","tel":"031-322-7434","addr":"경기도 용인시 처인구 김량장동 254-72번지","indutype":"일반휴게음식 - 일반한식","category":"restaurant"}]},{"lat":"37.234326029","long":"127.20051757","imageIndex":4,"items":[{"name":"밥도먹고술도먹고","tel":"031-337-2040","addr":"경기도 용인시 처인구 김량장동 334-23번지","indutype":"일반휴게음식 - 일반한식","category":"restaurant"},{"name":"이세상에서가장맛있는떡볶이","tel":"031-333-1125","addr":"경기도 용인시 처인구 김량장동 334-23번지 1층 일부","indutype":"일반휴게음식 - 스넥","category":"restaurant"},{"name":"한우곱창","tel":"","addr":"경기도 용인시 처인구 김량장동 334-23번지","indutype":"일반휴게음식 - 일반한식","category":"restaurant"}]},{"lat":"37.233996848","long":"127.20337902","imageIndex":4,"items":[{"name":"밥이밥이","tel":"031-333-3242","addr":"경기도 용인시 처인구 김량장동 340-10번지 환희빌딩 102호","indutype":"일반휴게음식 - 일반한식","category":"restaurant"},{"name":"아라아구해물찜","tel":"031-321-9989","addr":"경기도 용인시 처인구 김량장동 340-10번지 1층","indutype":"일반휴게음식 - 일반한식","category":"restaurant"},{"name":"아리포차","tel":"","addr":"경기도 용인시 처인구 김량장동 340-10번지 환희빌딩 지하1층","indutype":"일반휴게음식 - 일반한식","category":"restaurant"}]},{"lat":"37.236082276","long":"127.20629201","imageIndex":4,"items":[{"name":"방갈로","tel":"031-328-7588","addr":"경기도 용인시 처인구 김량장동 133-220번지 1층","indutype":"일반휴게음식 - 일반한식","category":"restaurant"}]},{"lat":"37.237053912","long":"127.20715109","imageIndex":4,"items":[{"name":"배터지는집","tel":"031-332-4168","addr":"경기도 용인시 처인구 김량장동 133-10번지 1층","indutype":"일반휴게음식 - 일반한식","category":"restaurant"}]},{"lat":"37.237163084","long":"127.20654284","imageIndex":4,"items":[{"name":"백암토종순대","tel":"031-335-4450","addr":"경기도 용인시 처인구 김량장동 133-129번지","indutype":"일반휴게음식 - 일반한식","category":"restaurant"},{"name":"이천왕족발","tel":"031-335-0012","addr":"경기도 용인시 처인구 김량장동 133-129번지","indutype":"일반휴게음식 - 일반한식","category":"restaurant"}]},{"lat":"37.235435458","long":"127.19982178","imageIndex":4,"items":[{"name":"백천생오리전문점","tel":"031-332-5259","addr":"경기도 용인시 처인구 김량장동 321-9번지 용운빌딩 1층 일부","indutype":"일반휴게음식 - 일반한식","category":"restaurant"}]},{"lat":"37.235157523","long":"127.19898715","imageIndex":4,"items":[{"name":"버디푸드","tel":"070-7018-5392","addr":"경기도 용인시 처인구 김량장동 294-11번지","indutype":"일반휴게음식 - 일반한식","category":"restaurant"},{"name":"오에프족발","tel":"","addr":"경기도 용인시 처인구 김량장동 294-11번지 1층","indutype":"일반휴게음식 - 일반한식","category":"restaurant"}]},{"lat":"37.235857965","long":"127.20040888","imageIndex":4,"items":[{"name":"벚꽃향기","tel":"031-337-2241","addr":"경기도 용인시 처인구 김량장동 320-20번지","indutype":"일반휴게음식 - 주점","category":"restaurant"},{"name":"순이포차","tel":"031-333-6944","addr":"경기도 용인시 처인구 김량장동 320-20번지 1층","indutype":"일반휴게음식 - 일반한식","category":"restaurant"},{"name":"오복식당","tel":"031-335-7610","addr":"경기도 용인시 처인구 김량장동 320-20번지","indutype":"일반휴게음식 - 일반한식","category":"restaurant"},{"name":"용인전집","tel":"031-731-7077","addr":"경기도 용인시 처인구 김량장동 320-20번지 1층","indutype":"일반휴게음식 - 일반한식","category":"restaurant"}]},{"lat":"37.235721342","long":"127.20659531","imageIndex":4,"items":[{"name":"벤또랑처인구점","tel":"031-334-5242","addr":"경기도 용인시 처인구 김량장동 133-212번지 외2필지 1층","indutype":"일반휴게음식 - 일반한식","category":"restaurant"}]},{"lat":"37.236022479","long":"127.20437608","imageIndex":4,"items":[{"name":"벤케이","tel":"031-323-0891","addr":"경기도 용인시 처인구 김량장동 254-67번지","indutype":"일반휴게음식 - 주점","category":"restaurant"},{"name":"애주가","tel":"031-328-2623","addr":"경기도 용인시 처인구 김량장동 254-67번지 청호빌딩 103호","indutype":"일반휴게음식 - 주점","category":"restaurant"}]},{"lat":"37.231357449","long":"127.19760254","imageIndex":4,"items":[{"name":"별미민물매운탕","tel":"031-321-0311","addr":"경기도 용인시 처인구 김량장동 359-5번지 1층","indutype":"일반휴게음식 - 일반한식","category":"restaurant"}]},{"lat":"37.234053139","long":"127.20734584","imageIndex":4,"items":[{"name":"별미촌","tel":"031-322-2959","addr":"경기도 용인시 처인구 김량장동 77-2번지","indutype":"일반휴게음식 - 일반한식","category":"restaurant"}]},{"lat":"37.233276753","long":"127.20821144","imageIndex":4,"items":[{"name":"별미칡냉면","tel":"031-335-5922","addr":"경기도 용인시 처인구 김량장동 39-5번지","indutype":"일반휴게음식 - 일반한식","category":"restaurant"}]},{"lat":"37.235582198","long":"127.19826702","imageIndex":4,"items":[{"name":"별빛지기","tel":"02-1111-1111","addr":"경기도 용인시 처인구 김량장동 294-1번지","indutype":"일반휴게음식 - 주점","category":"restaurant"},{"name":"설화양꼬치","tel":"031-338-9888","addr":"경기도 용인시 처인구 김량장동 294-1번지 1층","indutype":"일반휴게음식 - 일반한식","category":"restaurant"}]},{"lat":"37.236249108","long":"127.19817859","imageIndex":4,"items":[{"name":"보리수","tel":"031-336-9255","addr":"경기도 용인시 처인구 김량장동 314-10번지","indutype":"일반휴게음식 - 주점","category":"restaurant"},{"name":"용인참숯화로구이","tel":"031-335-3226","addr":"경기도 용인시 처인구 김량장동 314-10번지","indutype":"일반휴게음식 - 일반한식","category":"restaurant"}]},{"lat":"37.23516439","long":"127.19479506","imageIndex":4,"items":[{"name":"복고다방 용인중앙점","tel":"031-335-3004","addr":"경기도 용인시 처인구 김량장동 292-5번지 1층 일부","indutype":"일반휴게음식 - 서양음식","category":"restaurant"},{"name":"복고다방용인중앙점","tel":"031-335-3004","addr":"경기도 용인시 처인구 김량장동 292-5번지 1층","indutype":"일반휴게음식 - 서양음식","category":"restaurant"}]},{"lat":"37.237216039","long":"127.20718534","imageIndex":4,"items":[{"name":"복자네보신탕전문","tel":"","addr":"경기도 용인시 처인구 김량장동 133-5번지","indutype":"일반휴게음식 - 일반한식","category":"restaurant"}]},{"lat":"37.236384206","long":"127.19821274","imageIndex":4,"items":[{"name":"봉구스밥버거(김량장역점)","tel":"031-321-5588","addr":"경기도 용인시 처인구 김량장동 314-11번지 1층","indutype":"일반휴게음식 - 일반한식","category":"restaurant"},{"name":"커피마마","tel":"031-321-2878","addr":"경기도 용인시 처인구 김량장동 314-11번지 1층","indutype":"일반휴게음식 - 서양음식","category":"restaurant"}]},{"lat":"37.229911495","long":"127.21073769","imageIndex":4,"items":[{"name":"봉산","tel":"031-322-9929","addr":"경기도 용인시 처인구 김량장동 8-1번지","indutype":"일반휴게음식 - 중국식","category":"restaurant"}]},{"lat":"37.232633989","long":"127.19937502","imageIndex":4,"items":[{"name":"봉평메밀막국수","tel":"031-335-7773","addr":"경기도 용인시 처인구 김량장동 345-3번지","indutype":"일반휴게음식 - 일반한식","category":"restaurant"}]},{"lat":"37.236384009","long":"127.20896364","imageIndex":4,"items":[{"name":"블루문","tel":"031-338-9222","addr":"경기도 용인시 처인구 김량장동 121-1번지 3층","indutype":"일반휴게음식 - 주점","category":"restaurant"}]},{"lat":"37.236328349","long":"127.20465862","imageIndex":4,"items":[{"name":"비누 (bi Noo)","tel":"","addr":"경기도 용인시 처인구 김량장동 254-196번지 2층","indutype":"일반휴게음식 - 주점","category":"restaurant"},{"name":"장원","tel":"031-332-7804","addr":"경기도 용인시 처인구 김량장동 254-196번지","indutype":"일반휴게음식 - 일반한식","category":"restaurant"},{"name":"카페홍","tel":"031-321-8712","addr":"경기도 용인시 처인구 김량장동 254-196번지 3층","indutype":"일반휴게음식 - 서양음식","category":"restaurant"}]},{"lat":"37.236241058","long":"127.20826456","imageIndex":4,"items":[{"name":"빡새볏짚닭발","tel":"031-335-9258","addr":"경기도 용인시 처인구 김량장동 122-7번지","indutype":"일반휴게음식 - 일반한식","category":"restaurant"},{"name":"세느강","tel":"031-321-2002","addr":"경기도 용인시 처인구 김량장동 122-7","indutype":"일반휴게음식 - 일반한식","category":"restaurant"}]},{"lat":"37.234939245","long":"127.20554518","imageIndex":4,"items":[{"name":"빨라죠델쁘레또","tel":"031-339-3188","addr":"경기도 용인시 처인구 김량장동 300-9,용인시네마1번가103","indutype":"일반휴게음식 - 일반한식","category":"restaurant"}]},{"lat":"37.238245577","long":"127.20048273","imageIndex":4,"items":[{"name":"사사구분식","tel":"","addr":"경기도 용인시 처인구 김량장동 449번지 ,1,2층","indutype":"일반휴게음식 - 스넥","category":"restaurant"}]},{"lat":"37.235685376","long":"127.20124235","imageIndex":4,"items":[{"name":"산골정육점식당","tel":"031-335-5977","addr":"경기도 용인시 처인구 김량장동 324-10번지 1층","indutype":"일반휴게음식 - 일반한식","category":"restaurant"}]},{"lat":"37.237161492","long":"127.20218158","imageIndex":4,"items":[{"name":"삼성뷔페","tel":"031-321-0166","addr":"경기도 용인시 처인구 김량장동 235-8번지","indutype":"일반휴게음식 - 일반한식","category":"restaurant"}]},{"lat":"37.235912741","long":"127.2053224","imageIndex":4,"items":[{"name":"새물내감자탕","tel":"031-338-4034","addr":"경기도 용인시 처인구 김량장동 254-23번지 1층","indutype":"일반휴게음식 - 일반한식","category":"restaurant"}]},{"lat":"37.235798724","long":"127.19809854","imageIndex":4,"items":[{"name":"생갈비불족발","tel":"031-335-9290","addr":"경기도 용인시 처인구 김량장동 314-7번지 104호","indutype":"일반휴게음식 - 일반한식","category":"restaurant"},{"name":"황홀한막창쪽갈비","tel":"031-336-0777","addr":"경기도 용인시 처인구 김량장동 314-7번지","indutype":"일반휴게음식 - 일반한식","category":"restaurant"}]},{"lat":"37.232574537","long":"127.20259772","imageIndex":4,"items":[{"name":"서구회관","tel":"031-335-5570","addr":"경기도 용인시 처인구 김량장동 343번지 2층","indutype":"일반휴게음식 - 일반한식","category":"restaurant"}]},{"lat":"37.237243607","long":"127.20157324","imageIndex":4,"items":[{"name":"서림식당","tel":"031-335-4975","addr":"경기도 용인시 처인구 김량장동 217-1번지","indutype":"일반휴게음식 - 일반한식","category":"restaurant"}]},{"lat":"37.236523838","long":"127.20625939","imageIndex":4,"items":[{"name":"서울순대","tel":"031-335-7855","addr":"경기도 용인시 처인구 김량장동 133-50번지","indutype":"일반휴게음식 - 일반한식","category":"restaurant"}]},{"lat":"37.232995874","long":"127.19848572","imageIndex":4,"items":[{"name":"석수사","tel":"031-337-2005","addr":"경기도 용인시 처인구 김량장동 504-1번지","indutype":"일반휴게음식 - 일식·회집","category":"restaurant"}]},{"lat":"37.23505088","long":"127.20348324","imageIndex":4,"items":[{"name":"설빙","tel":"031-336-5758","addr":"경기도 용인시 처인구 김량장동 254-326번지 2층","indutype":"일반휴게음식 - 일반한식","category":"restaurant"}]},{"lat":"37.234498482","long":"127.199763","imageIndex":4,"items":[{"name":"섬마을 해물조개","tel":"031-337-2513","addr":"경기도 용인시 처인구 김량장동 333-12번지 1층 일부","indutype":"일반휴게음식 - 일반한식","category":"restaurant"},{"name":"이리오삼","tel":"","addr":"경기도 용인시 처인구 김량장동 333-12번지 1층","indutype":"일반휴게음식 - 일반한식","category":"restaurant"},{"name":"치킨이땡기는날","tel":"031-323-4224","addr":"경기도 용인시 처인구 김량장동 333-12번지 1층 일부","indutype":"일반휴게음식 - 스넥","category":"restaurant"}]},{"lat":"37.237241492","long":"127.20809823","imageIndex":4,"items":[{"name":"성산분식","tel":"031-335-5543","addr":"경기도 용인시 처인구 김량장동 139-2번지","indutype":"일반휴게음식 - 일반한식","category":"restaurant"}]},{"lat":"37.236713943","long":"127.20574151","imageIndex":4,"items":[{"name":"소다잉(SODAing)","tel":"031-332-8612","addr":"경기도 용인시 처인구 김량장동 133-200번지 1층","indutype":"일반휴게음식 - 일반한식","category":"restaurant"}]},{"lat":"37.236080353","long":"127.20212238","imageIndex":4,"items":[{"name":"소풍","tel":"031-321-7061","addr":"경기도 용인시 처인구 김량장동 325-15번지","indutype":"일반휴게음식 - 스넥","category":"restaurant"},{"name":"키레에나스시","tel":"031-335-9887","addr":"경기도 용인시 처인구 김량장동 325-15번지 1층","indutype":"일반휴게음식 - 일반한식","category":"restaurant"}]},{"lat":"37.235996194","long":"127.2091767","imageIndex":4,"items":[{"name":"송담추어탕","tel":"031-322-7505","addr":"경기도 용인시 처인구 김량장동 473-11번지 1층","indutype":"일반휴게음식 - 일반한식","category":"restaurant"}]},{"lat":"37.233052139","long":"127.20256517","imageIndex":4,"items":[{"name":"수누리뼈다귀","tel":"031-332-3332","addr":"경기도 용인시 처인구 김량장동 341-9번지","indutype":"일반휴게음식 - 일반한식","category":"restaurant"},{"name":"화화양꼬치","tel":"031-334-5562","addr":"경기도 용인시 처인구 김량장동 341-9번지 일삼빌딩","indutype":"일반휴게음식 - 일반한식","category":"restaurant"}]},{"lat":"37.235582104","long":"127.20371003","imageIndex":4,"items":[{"name":"수리야","tel":"031-334-3549","addr":"경기도 용인시 처인구 김량장동 254-113번지","indutype":"일반휴게음식 - 주점","category":"restaurant"}]},{"lat":"37.231050599","long":"127.197906","imageIndex":4,"items":[{"name":"순두부마을","tel":"031-321-7752","addr":"경기도 용인시 처인구 김량장동 357번지","indutype":"일반휴게음식 - 일반한식","category":"restaurant"}]},{"lat":"37.235549118","long":"127.19646387","imageIndex":4,"items":[{"name":"순살나라치킨","tel":"031-321-7663","addr":"경기도 용인시 처인구 김량장동 290-3번지","indutype":"일반휴게음식 - 스넥","category":"restaurant"}]},{"lat":"37.236046525","long":"127.20612287","imageIndex":4,"items":[{"name":"숨집","tel":"","addr":"경기도 용인시 처인구 김량장동 133-56번지 2층","indutype":"일반휴게음식 - 주점","category":"restaurant"}]},{"lat":"37.236188439","long":"127.20743049","imageIndex":4,"items":[{"name":"스타플로라","tel":"031-322-7008","addr":"경기도 용인시 처인구 김량장동 123-1번지 용인빌딩","indutype":"일반휴게음식 - 서양음식","category":"restaurant"}]},{"lat":"37.237081422","long":"127.20157282","imageIndex":4,"items":[{"name":"시골집","tel":"031-333-9676","addr":"경기도 용인시 처인구 김량장동 218-4번지","indutype":"일반휴게음식 - 일반한식","category":"restaurant"}]},{"lat":"37.237215903","long":"127.20726422","imageIndex":4,"items":[{"name":"신가네","tel":"031-321-0249","addr":"경기도 용인시 처인구 김량장동 133-117번지","indutype":"일반휴게음식 - 일반한식","category":"restaurant"}]},{"lat":"37.23446978","long":"127.20076587","imageIndex":4,"items":[{"name":"신디오니스","tel":"031-807-2677","addr":"경기도 용인시 처인구 김량장동 285-8번지 1층","indutype":"일반휴게음식 - 주점","category":"restaurant"}]},{"lat":"37.228441828","long":"127.21129706","imageIndex":4,"items":[{"name":"신쭈구해적단","tel":"031-337-1276","addr":"경기도 용인시 처인구 김량장동 6-5번지","indutype":"일반휴게음식 - 일반한식","category":"restaurant"}]},{"lat":"37.231021083","long":"127.20998575","imageIndex":4,"items":[{"name":"실버브릿지(SILVER BRIDGE)","tel":"031-000-0000","addr":"경기도 용인시 처인구 김량장동 12-2번지 해양씨티빌딩 A동 105호","indutype":"일반휴게음식 - 서양음식","category":"restaurant"}]},{"lat":"37.238023113","long":"127.20940761","imageIndex":4,"items":[{"name":"아구랑코다리찜","tel":"031-335-8882","addr":"경기도 용인시 처인구 김량장동 164-2번지","indutype":"일반휴게음식 - 일반한식","category":"restaurant"},{"name":"유가네칼국수","tel":"031-335-6407","addr":"경기도 용인시 처인구 김량장동 164-2번지","indutype":"일반휴게음식 - 일반한식","category":"restaurant"}]},{"lat":"37.23572109","long":"127.20674181","imageIndex":4,"items":[{"name":"아빠분식","tel":"031-8097-2787","addr":"경기도 용인시 처인구 김량장동 133-111번지 1층","indutype":"일반휴게음식 - 일반한식","category":"restaurant"}]},{"lat":"37.232466603","long":"127.20248474","imageIndex":4,"items":[{"name":"아우내병천순대","tel":"031-332-2501","addr":"경기도 용인시 처인구 김량장동 343-1번지","indutype":"일반휴게음식 - 일반한식","category":"restaurant"}]},{"lat":"37.236990581","long":"127.20201209","imageIndex":4,"items":[{"name":"아이월드키즈카페","tel":"031-322-5251","addr":"경기도 용인시 처인구 김량장동 220번지 2층","indutype":"일반휴게음식 - 일반한식","category":"restaurant"}]},{"lat":"37.23579858","long":"127.20357537","imageIndex":4,"items":[{"name":"아자아자장어구이","tel":"031-338-1230","addr":"경기도 용인시 처인구 김량장동 254-364번지 신라빌딩 1층","indutype":"일반휴게음식 - 일반한식","category":"restaurant"}]},{"lat":"37.241354508","long":"127.21079164","imageIndex":4,"items":[{"name":"양푼이동태탕(햇골)","tel":"031-322-7758","addr":"경기도 용인시 처인구 김량장동 472-2 1층","indutype":"일반휴게음식 - 일반한식","category":"restaurant"}]},{"lat":"37.235963377","long":"127.20731719","imageIndex":4,"items":[{"name":"어글리","tel":"031-3917-6026","addr":"경기도 용인시 처인구 김량장동 133-85번지 지하1층","indutype":"일반휴게음식 - 주점","category":"restaurant"},{"name":"우림다방","tel":"031-335-3710","addr":"경기도 용인시 처인구 김량장동 133-85번지 지하1층","indutype":"일반휴게음식 - 서양음식","category":"restaurant"}]},{"lat":"37.237027039","long":"127.20176426","imageIndex":4,"items":[{"name":"엄마손칼국수","tel":"031-335-7517","addr":"경기도 용인시 처인구 김량장동 219-1번지","indutype":"일반휴게음식 - 일반한식","category":"restaurant"},{"name":"엄마손칼국수","tel":"031-335-7517","addr":"경기도 용인시 처인구 김량장동 219-1번지","indutype":"일반휴게음식 - 일반한식","category":"restaurant"}]},{"lat":"37.234635699","long":"127.20389909","imageIndex":4,"items":[{"name":"엉터리생고기(용인김량장동지점)","tel":"031-323-3700","addr":"경기도 용인시 처인구 김량장동 296-8번지","indutype":"일반휴게음식 - 일반한식","category":"restaurant"}]},{"lat":"37.231605883","long":"127.21048316","imageIndex":4,"items":[{"name":"에그로커피","tel":"031-322-8654","addr":"경기도 용인시 처인구 김량장동 20-1번지 101동 1층 101호","indutype":"일반휴게음식 - 서양음식","category":"restaurant"}]},{"lat":"37.23563188","long":"127.20090413","imageIndex":4,"items":[{"name":"엠알(Mr)온족발","tel":"031-333-1119","addr":"경기도 용인시 처인구 김량장동 324-18번지 1층","indutype":"일반휴게음식 - 일반한식","category":"restaurant"},{"name":"형제보양탕","tel":"031-335-1495","addr":"경기도 용인시 처인구 김량장동 324-18","indutype":"일반휴게음식 - 일반한식","category":"restaurant"}]},{"lat":"37.236330965","long":"127.20837749","imageIndex":4,"items":[{"name":"여우다방","tel":"031-339-8760","addr":"경기도 용인시 처인구 김량장동 122-1번지 2층","indutype":"일반휴게음식 - 서양음식","category":"restaurant"}]},{"lat":"37.235605132","long":"127.20073503","imageIndex":4,"items":[{"name":"연길양꼬치","tel":"070-7018-5365","addr":"경기도 용인시 처인구 김량장동 324-4번지 1층","indutype":"일반휴게음식 - 스넥","category":"restaurant"},{"name":"오봉자싸롱","tel":"031-338-6287","addr":"경기도 용인시 처인구 김량장동 324-4번지 1층","indutype":"일반휴게음식 - 주점","category":"restaurant"},{"name":"용궁해물아구찜","tel":"031-333-2292","addr":"경기도 용인시 처인구 김량장동 324-4번지","indutype":"일반휴게음식 - 일반한식","category":"restaurant"}]},{"lat":"37.234414366","long":"127.20687352","imageIndex":4,"items":[{"name":"연인","tel":"031-335-6939","addr":"경기도 용인시 처인구 김량장동 85-2번지 2층","indutype":"일반휴게음식 - 일반한식","category":"restaurant"}]},{"lat":"37.23718963","long":"127.20682465","imageIndex":4,"items":[{"name":"영광순대","tel":"031-335-4807","addr":"경기도 용인시 처인구 김량장동 133-186번지","indutype":"일반휴게음식 - 일반한식","category":"restaurant"}]},{"lat":"37.235407508","long":"127.2003739","imageIndex":4,"items":[{"name":"영광아구해물찜 봉평메밀막국수","tel":"031-334-4040","addr":"경기도 용인시 처인구 김량장동 321-7번지 1층","indutype":"일반휴게음식 - 스넥","category":"restaurant"}]},{"lat":"37.234880639","long":"127.19751018","imageIndex":4,"items":[{"name":"영구스피자 용인점","tel":"031-334-0908","addr":"경기도 용인시 처인구 김량장동 293-15번지","indutype":"일반휴게음식 - 서양음식","category":"restaurant"},{"name":"커피레드도어(REDDOOR)","tel":"","addr":"경기도 용인시 처인구 김량장동 293-15번지 1층","indutype":"일반휴게음식 - 서양음식","category":"restaurant"},{"name":"타노시미","tel":"031-8097-2868","addr":"경기도 용인시 처인구 김량장동 293-15번지","indutype":"일반휴게음식 - 일식·회집","category":"restaurant"},{"name":"혜화동돈까스","tel":"","addr":"경기도 용인시 처인구 김량장동 293-15번지 1층","indutype":"일반휴게음식 - 일반한식","category":"restaurant"}]},{"lat":"37.236827409","long":"127.20787172","imageIndex":4,"items":[{"name":"영흥면식","tel":"070-7018-5392","addr":"경기도 용인시 처인구 김량장동 137-21번지 1층","indutype":"일반휴게음식 - 일반한식","category":"restaurant"}]},{"lat":"37.236938581","long":"127.20610273","imageIndex":4,"items":[{"name":"옛날경성순대국","tel":"031-333-0474","addr":"경기도 용인시 처인구 김량장동 133-139번지","indutype":"일반휴게음식 - 일반한식","category":"restaurant"}]},{"lat":"37.23621801","long":"127.2059543","imageIndex":4,"items":[{"name":"옛집식당","tel":"031-334-5292","addr":"경기도 용인시 처인구 김량장동 133-53번지","indutype":"일반휴게음식 - 일반한식","category":"restaurant"},{"name":"월하","tel":"031-000-0000","addr":"경기도 용인시 처인구 김량장동 133-53번지","indutype":"일반휴게음식 - 주점","category":"restaurant"}]},{"lat":"37.233463309","long":"127.19915179","imageIndex":4,"items":[{"name":"오늘도이루다","tel":"031-000-0000","addr":"경기도 용인시 처인구 김량장동 336번지 1층","indutype":"일반휴게음식 - 서양음식","category":"restaurant"},{"name":"쭈로chulo","tel":"031-323-4613","addr":"경기도 용인시 처인구 김량장동 336번지 2층 201호","indutype":"일반휴게음식 - 서양음식","category":"restaurant"}]},{"lat":"37.234190199","long":"127.19545746","imageIndex":4,"items":[{"name":"오닭꼬치김량장점","tel":"031-323-5567","addr":"경기도 용인시 처인구 김량장동 408-2번지 한솔빌딩 102호","indutype":"일반휴게음식 - 일반한식","category":"restaurant"},{"name":"죽이야기 김량장점","tel":"031-339-6233","addr":"경기도 용인시 처인구 김량장동 408-2번지 한솔빌딩 106호","indutype":"일반휴게음식 - 일반한식","category":"restaurant"},{"name":"피자스쿨 김량장점","tel":"031-335-1082","addr":"경기도 용인시 처인구 김량장동 408-2번지 한솔빌딩 103호","indutype":"일반휴게음식 - 서양음식","category":"restaurant"}]},{"lat":"37.235551771","long":"127.20564824","imageIndex":4,"items":[{"name":"오와스시(처인구점)","tel":"","addr":"경기도 용인시 처인구 김량장동 133-66번지","indutype":"일반휴게음식 - 일식·회집","category":"restaurant"}]},{"lat":"37.232715492","long":"127.19912731","imageIndex":4,"items":[{"name":"오직평창한우가","tel":"031-338-0844","addr":"경기도 용인시 처인구 김량장동 345-2번지 1층","indutype":"일반휴게음식 - 일반한식","category":"restaurant"}]},{"lat":"37.236049126","long":"127.20460153","imageIndex":4,"items":[{"name":"오직하누2114","tel":"031-332-2114","addr":"경기도 용인시 처인구 김량장동 254-57번지","indutype":"일반휴게음식 - 일반한식","category":"restaurant"}]},{"lat":"37.235630445","long":"127.20176059","imageIndex":4,"items":[{"name":"오징어나라","tel":"031-336-5931","addr":"경기도 용인시 처인구 김량장동 325-19번지","indutype":"일반휴게음식 - 일반한식","category":"restaurant"}]},{"lat":"37.2354094","long":"127.19923572","imageIndex":4,"items":[{"name":"오프더레코드","tel":"","addr":"경기도 용인시 처인구 김량장동 321-11번지 1층 전면좌측1칸","indutype":"일반휴게음식 - 주점","category":"restaurant"},{"name":"유로코피자 용인처인점","tel":"031-321-1270","addr":"경기도 용인시 처인구 김량장동 321-11번지 1층","indutype":"일반휴게음식 - 서양음식","category":"restaurant"},{"name":"플라워카페나무기린","tel":"031-335-4860","addr":"경기도 용인시 처인구 김량장동 321-11번지 1층 일부","indutype":"일반휴게음식 - 스넥","category":"restaurant"}]},{"lat":"37.235130119","long":"127.19921246","imageIndex":4,"items":[{"name":"올레분식","tel":"","addr":"경기도 용인시 처인구 김량장동 323번지","indutype":"일반휴게음식 - 스넥","category":"restaurant"}]},{"lat":"37.23452034","long":"127.20285077","imageIndex":4,"items":[{"name":"올리브힐처인구청점","tel":"031-336-9956","addr":"경기도 용인시 처인구 김량장동 295-10번지 2층","indutype":"일반휴게음식 - 서양음식","category":"restaurant"}]},{"lat":"37.235439961","long":"127.19709466","imageIndex":4,"items":[{"name":"올커니솥뚜껑삼겹살","tel":"031-336-6987","addr":"경기도 용인시 처인구 김량장동 290-6번지 1층","indutype":"일반휴게음식 - 일반한식","category":"restaurant"}]},{"lat":"37.233659362","long":"127.20045949","imageIndex":4,"items":[{"name":"와이디비커피(TDBCOFFEE)","tel":"02-111-1111","addr":"경기도 용인시 처인구 김량장동 335-7번지 1층","indutype":"일반휴게음식 - 서양음식","category":"restaurant"},{"name":"콩나루콩나물국밥","tel":"031-321-1951","addr":"경기도 용인시 처인구 김량장동 335-7번지","indutype":"일반휴게음식 - 일반한식","category":"restaurant"}]},{"lat":"37.23624641","long":"127.20515425","imageIndex":4,"items":[{"name":"왕돌판삼겹살오리","tel":"031-333-5650","addr":"경기도 용인시 처인구 김량장동 254-19번지 1층","indutype":"일반휴게음식 - 일반한식","category":"restaurant"}]},{"lat":"37.231770921","long":"127.19821211","imageIndex":4,"items":[{"name":"왕서방치킨피자, 울트라강정","tel":"031-321-9999","addr":"경기도 용인시 처인구 김량장동 505-6번지","indutype":"일반휴게음식 - 일반한식","category":"restaurant"}]},{"lat":"37.236659707","long":"127.20584279","imageIndex":4,"items":[{"name":"왕십리곱창","tel":"031-333-9298","addr":"경기도 용인시 처인구 김량장동 133-47번지","indutype":"일반휴게음식 - 일반한식","category":"restaurant"},{"name":"천지샤브샤브","tel":"","addr":"경기도 용인시 처인구 김량장동 133-47번지 2층","indutype":"일반휴게음식 - 일반한식","category":"restaurant"},{"name":"훌랄라참숯불바베큐치킨","tel":"031-321-9289","addr":"경기도 용인시 처인구 김량장동 133-47번지","indutype":"일반휴게음식 - 주점","category":"restaurant"}]},{"lat":"37.235879407","long":"127.19834667","imageIndex":4,"items":[{"name":"외대갈매기(김량점)","tel":"031-323-3455","addr":"경기도 용인시 처인구 김량장동 314-6번지 106호","indutype":"일반휴게음식 - 일반한식","category":"restaurant"},{"name":"이가네참숯구이","tel":"031-339-1644","addr":"경기도 용인시 처인구 김량장동 314-6번지 101호","indutype":"일반휴게음식 - 일반한식","category":"restaurant"},{"name":"짝태앤노가리","tel":"031-323-1425","addr":"경기도 용인시 처인구 김량장동 314-6번지","indutype":"일반휴게음식 - 주점","category":"restaurant"},{"name":"참치아울렛","tel":"031-333-6171","addr":"경기도 용인시 처인구 김량장동 314-6번지 103호","indutype":"일반휴게음식 - 일식·회집","category":"restaurant"}]},{"lat":"37.235580073","long":"127.20490455","imageIndex":4,"items":[{"name":"요거프레소","tel":"031-339-3063","addr":"경기도 용인시 처인구 김량장동 254-62번지 1층","indutype":"일반휴게음식 - 서양음식","category":"restaurant"}]},{"lat":"37.234935237","long":"127.19718352","imageIndex":4,"items":[{"name":"용성식당","tel":"031-321-9919","addr":"경기도 용인시 처인구 김량장동 293-17번지","indutype":"일반휴게음식 - 일반한식","category":"restaurant"}]},{"lat":"37.236686448","long":"127.2060119","imageIndex":4,"items":[{"name":"용인선비만두","tel":"031-335-4887","addr":"경기도 용인시 처인구 김량장동 133-48번지","indutype":"일반휴게음식 - 스넥","category":"restaurant"}]},{"lat":"37.234631965","long":"127.20076629","imageIndex":4,"items":[{"name":"용인손칼국수","tel":"031-336-1224","addr":"경기도 용인시 처인구 김량장동 285-1","indutype":"일반휴게음식 - 일반한식","category":"restaurant"},{"name":"페이드인(fadein)","tel":"02-1111-1111","addr":"경기도 용인시 처인구 김량장동 285-1번지 1층","indutype":"일반휴게음식 - 서양음식","category":"restaurant"}]},{"lat":"37.237136285","long":"127.20640753","imageIndex":4,"items":[{"name":"용인순대집","tel":"031-332-9615","addr":"경기도 용인시 처인구 김량장동 133-190번지","indutype":"일반휴게음식 - 일반한식","category":"restaurant"},{"name":"유가네순대","tel":"031-335-0736","addr":"경기도 용인시 처인구 김량장동 133-190번지","indutype":"일반휴게음식 - 일반한식","category":"restaurant"},{"name":"할매순대국감자탕","tel":"031-333-0031","addr":"경기도 용인시 처인구 김량장동 133-190번지 2층","indutype":"일반휴게음식 - 일반한식","category":"restaurant"}]},{"lat":"37.23371871","long":"127.20267961","imageIndex":4,"items":[{"name":"용인식당","tel":"031-334-1233","addr":"경기도 용인시 처인구 김량장동 341-2번지 지하1층","indutype":"일반휴게음식 - 일반한식","category":"restaurant"},{"name":"원삼묵밥","tel":"031-338-1112","addr":"경기도 용인시 처인구 김량장동 341-2번지","indutype":"일반휴게음식 - 일반한식","category":"restaurant"}]},{"lat":"37.237189882","long":"127.20667814","imageIndex":4,"items":[{"name":"용인오복순대2호점","tel":"031-321-6337","addr":"경기도 용인시 처인구 김량장동 133-188번지 1층","indutype":"일반휴게음식 - 일반한식","category":"restaurant"},{"name":"장수순대","tel":"031-332-1447","addr":"경기도 용인시 처인구 김량장동 133-188번지","indutype":"일반휴게음식 - 일반한식","category":"restaurant"}]},{"lat":"37.235747033","long":"127.20737295","imageIndex":4,"items":[{"name":"용인포차로","tel":"031-336-0509","addr":"경기도 용인시 처인구 김량장동 130-5번지 B1층","indutype":"일반휴게음식 - 일반한식","category":"restaurant"},{"name":"타임Food","tel":"031-338-0900","addr":"경기도 용인시 처인구 김량장동 130-5번지 1층","indutype":"일반휴게음식 - 일반한식","category":"restaurant"}]},{"lat":"37.232522199","long":"127.20157212","imageIndex":4,"items":[{"name":"우리집닭강정치킨피자","tel":"031-335-9959","addr":"경기도 용인시 처인구 김량장동 344-5번지","indutype":"일반휴게음식 - 스넥","category":"restaurant"}]},{"lat":"37.23505002","long":"127.20399034","imageIndex":4,"items":[{"name":"우주라이크카페 처인구청점","tel":"031-321-8934","addr":"경기도 용인시 처인구 김량장동 254-119번지 1층","indutype":"일반휴게음식 - 서양음식","category":"restaurant"}]},{"lat":"37.234995561","long":"127.1988515","imageIndex":4,"items":[{"name":"우즈벡킴카페","tel":"031-322-8319","addr":"경기도 용인시 처인구 김량장동 294-14번지 2층 201호","indutype":"일반휴게음식 - 서양음식","category":"restaurant"}]},{"lat":"37.232941589","long":"127.19862081","imageIndex":4,"items":[{"name":"원도야지껍데기","tel":"031-336-7766","addr":"경기도 용인시 처인구 김량장동 504-2번지 성일빌딩","indutype":"일반휴게음식 - 일반한식","category":"restaurant"}]},{"lat":"37.232797778","long":"127.19840633","imageIndex":4,"items":[{"name":"월남쌈월남의하루","tel":"031-321-9912","addr":"경기도 용인시 처인구 김량장동 504-4번지 1층","indutype":"일반휴게음식 - 일반한식","category":"restaurant"},{"name":"월남쌈월남의하루(배달)","tel":"031-321-9912","addr":"경기도 용인시 처인구 김량장동 504-4번지 1층","indutype":"일반휴게음식 - 일반한식","category":"restaurant"}]},{"lat":"37.236522636","long":"127.20695808","imageIndex":4,"items":[{"name":"이모네떡볶이","tel":"031-336-1496","addr":"경기도 용인시 처인구 김량장동 133-167번지","indutype":"일반휴게음식 - 스넥","category":"restaurant"}]},{"lat":"37.236331161","long":"127.2082648","imageIndex":4,"items":[{"name":"이모네불맛곱창","tel":"","addr":"경기도 용인시 처인구 김량장동 122-3번지","indutype":"일반휴게음식 - 일반한식","category":"restaurant"},{"name":"투다리(용인점)","tel":"031-335-5207","addr":"경기도 용인시 처인구 김량장동 122-3번지","indutype":"일반휴게음식 - 주점","category":"restaurant"},{"name":"홍연호프","tel":"","addr":"경기도 용인시 처인구 김량장동 122-3번지 2층","indutype":"일반휴게음식 - 주점","category":"restaurant"}]},{"lat":"37.234943025","long":"127.1979273","imageIndex":4,"items":[{"name":"이삭토스트 용인점","tel":"031-335-1767","addr":"경기도 용인시 처인구 김량장동 294-20번지","indutype":"일반휴게음식 - 스넥","category":"restaurant"},{"name":"이조","tel":"031-335-4333","addr":"경기도 용인시 처인구 김량장동 294-20번지","indutype":"일반휴게음식 - 일반한식","category":"restaurant"}]},{"lat":"37.235164831","long":"127.20001265","imageIndex":4,"items":[{"name":"이서방호프광장","tel":"031-336-6414","addr":"경기도 용인시 처인구 김량장동 323-4번지","indutype":"일반휴게음식 - 주점","category":"restaurant"}]},{"lat":"37.234966642","long":"127.1999896","imageIndex":4,"items":[{"name":"이음빵카페1호점","tel":"031-336-5602","addr":"경기도 용인시 처인구 김량장동 323-9번지","indutype":"일반휴게음식 - 서양음식","category":"restaurant"}]},{"lat":"37.235941903","long":"127.2040716","imageIndex":4,"items":[{"name":"인정국물떡볶이","tel":"031-338-0993","addr":"경기도 용인시 처인구 김량장동 254-294번지 1층 일부","indutype":"일반휴게음식 - 일반한식","category":"restaurant"},{"name":"티톡(tea talk)","tel":"031-335-4907","addr":"경기도 용인시 처인구 김량장동 254-294번지","indutype":"일반휴게음식 - 서양음식","category":"restaurant"},{"name":"펀 비어킹","tel":"031-321-0816","addr":"경기도 용인시 처인구 김량장동 254-294번지 1층","indutype":"일반휴게음식 - 일반한식","category":"restaurant"}]},{"lat":"37.235131312","long":"127.19849124","imageIndex":4,"items":[{"name":"잎새","tel":"031-333-1811","addr":"경기도 용인시 처인구 김량장동 294-7번지","indutype":"일반휴게음식 - 주점","category":"restaurant"}]},{"lat":"37.234411678","long":"127.20842863","imageIndex":4,"items":[{"name":"작은성","tel":"031-338-2066","addr":"경기도 용인시 처인구 김량장동 81-5, 81-8","indutype":"일반휴게음식 - 주점","category":"restaurant"}]},{"lat":"37.238665659","long":"127.20251236","imageIndex":4,"items":[{"name":"재벌집","tel":"031-334-5558","addr":"경기도 용인시 처인구 김량장동 203-2번지","indutype":"일반휴게음식 - 일반한식","category":"restaurant"}]},{"lat":"37.235745434","long":"127.20829702","imageIndex":4,"items":[{"name":"잭아저씨족발보쌈김량장점","tel":"031-322-5382","addr":"경기도 용인시 처인구 김량장동 115-8번지 1층","indutype":"일반휴게음식 - 일반한식","category":"restaurant"}]},{"lat":"37.235498326","long":"127.20528749","imageIndex":4,"items":[{"name":"제이제이까페","tel":"031-328-6555","addr":"경기도 용인시 처인구 김량장동 254-25번지 2층","indutype":"일반휴게음식 - 서양음식","category":"restaurant"}]},{"lat":"37.233052917","long":"127.20210315","imageIndex":4,"items":[{"name":"조마루뼈다귀","tel":"031-339-7997","addr":"경기도 용인시 처인구 김량장동 337-7번지","indutype":"일반휴게음식 - 일반한식","category":"restaurant"}]},{"lat":"37.233327912","long":"127.20987937","imageIndex":4,"items":[{"name":"조은감자탕","tel":"031-322-9222","addr":"경기도 용인시 처인구 김량장동 63-13번지 1층","indutype":"일반휴게음식 - 일반한식","category":"restaurant"}]},{"lat":"37.234635336","long":"127.19873787","imageIndex":4,"items":[{"name":"존가네","tel":"031-000-0000","addr":"경기도 용인시 처인구 김량장동 333-1번지 1층","indutype":"일반휴게음식 - 일반한식","category":"restaurant"},{"name":"허니닭강정","tel":"031-322-1828","addr":"경기도 용인시 처인구 김량장동 333-1번지","indutype":"일반휴게음식 - 스넥","category":"restaurant"}]},{"lat":"37.236048896","long":"127.20473676","imageIndex":4,"items":[{"name":"종로빈대떡","tel":"031-336-0547","addr":"경기도 용인시 처인구 김량장동 254-50번지","indutype":"일반휴게음식 - 일반한식","category":"restaurant"},{"name":"큰손","tel":"031-323-3792","addr":"경기도 용인시 처인구 김량장동 254-50번지","indutype":"일반휴게음식 - 일반한식","category":"restaurant"}]},{"lat":"37.235602146","long":"127.19709508","imageIndex":4,"items":[{"name":"좋은날호프","tel":"","addr":"경기도 용인시 처인구 김량장동 290-5번지","indutype":"일반휴게음식 - 주점","category":"restaurant"},{"name":"판야커피 (PANYA)","tel":"","addr":"경기도 용인시 처인구 김량장동 290-5번지 1층","indutype":"일반휴게음식 - 서양음식","category":"restaurant"},{"name":"황제족보","tel":"031-338-3966","addr":"경기도 용인시 처인구 김량장동 290-5번지 2층","indutype":"일반휴게음식 - 일반한식","category":"restaurant"}]},{"lat":"37.230409052","long":"127.20960095","imageIndex":4,"items":[{"name":"주식회사 나무와아저씨","tel":"031-336-4140","addr":"경기도 용인시 처인구 김량장동 31-7번지","indutype":"일반휴게음식 - 일반한식","category":"restaurant"}]},{"lat":"37.234468535","long":"127.20150962","imageIndex":4,"items":[{"name":"주식회사 연꽃마을카페휴(처인구청점)","tel":"031-324-9305","addr":"경기도 용인시 처인구 김량장동 286번지 처인구청","indutype":"일반휴게음식 - 서양음식","category":"restaurant"}]},{"lat":"37.236496129","long":"127.20665374","imageIndex":4,"items":[{"name":"주식회사 용인중앙시장상인","tel":"031-336-1110","addr":"경기도 용인시 처인구 김량장동 133-88번지","indutype":"일반휴게음식 - 서양음식","category":"restaurant"}]},{"lat":"37.236324449","long":"127.20693501","imageIndex":4,"items":[{"name":"중앙식당","tel":"031-335-8196","addr":"경기도 용인시 처인구 김량장동 133-31번지","indutype":"일반휴게음식 - 일반한식","category":"restaurant"}]},{"lat":"37.235630767","long":"127.20156901","imageIndex":4,"items":[{"name":"중앙왕족발","tel":"031-335-8920","addr":"경기도 용인시 처인구 김량장동 325-18번지 1층","indutype":"일반휴게음식 - 일반한식","category":"restaurant"}]},{"lat":"37.235385765","long":"127.20259386","imageIndex":4,"items":[{"name":"중앙회관","tel":"031-335-2582","addr":"경기도 용인시 처인구 김량장동 254-156번지 외2필지","indutype":"일반휴게음식 - 일반한식","category":"restaurant"}]},{"lat":"37.232521689","long":"127.20187638","imageIndex":4,"items":[{"name":"중화닭날개구이","tel":"031-333-9581","addr":"경기도 용인시 처인구 김량장동 344-6번지 102호","indutype":"일반휴게음식 - 일반한식","category":"restaurant"},{"name":"토박이손칼국수","tel":"031-338-7733","addr":"경기도 용인시 처인구 김량장동 344-6번지 탐능빌딩 105호","indutype":"일반휴게음식 - 일반한식","category":"restaurant"}]},{"lat":"37.236192772","long":"127.20490619","imageIndex":4,"items":[{"name":"줘마양다리구이","tel":"031-338-7599","addr":"경기도 용인시 처인구 김량장동 254-40번지","indutype":"일반휴게음식 - 일반한식","category":"restaurant"},{"name":"학브로(hakbro)","tel":"02-544-1762","addr":"경기도 용인시 처인구 김량장동 254-40번지 1층","indutype":"일반휴게음식 - 일반한식","category":"restaurant"}]},{"lat":"37.234580066","long":"127.204823","imageIndex":4,"items":[{"name":"쭈봉","tel":"031-336-6633","addr":"경기도 용인시 처인구 김량장동 296-15번지","indutype":"일반휴게음식 - 일반한식","category":"restaurant"}]},{"lat":"37.236218667","long":"127.20557114","imageIndex":4,"items":[{"name":"찌찌닭발","tel":"031-321-7798","addr":"경기도 용인시 처인구 김량장동 133-181번지 2층","indutype":"일반휴게음식 - 일반한식","category":"restaurant"}]},{"lat":"37.236857972","long":"127.20582078","imageIndex":4,"items":[{"name":"천리향","tel":"031-336-5188","addr":"경기도 용인시 처인구 김량장동 133-46번지 외1필지 2층","indutype":"일반휴게음식 - 중국식","category":"restaurant"}]},{"lat":"37.233382664","long":"127.19888113","imageIndex":4,"items":[{"name":"청담동말자싸롱김량장점","tel":"031-334-9900","addr":"경기도 용인시 처인구 김량장동 329-6번지","indutype":"일반휴게음식 - 일반한식","category":"restaurant"}]},{"lat":"37.234658525","long":"127.20104809","imageIndex":4,"items":[{"name":"초우다방","tel":"031-322-3885","addr":"경기도 용인시 처인구 김량장동 284-1번지","indutype":"일반휴게음식 - 서양음식","category":"restaurant"}]},{"lat":"37.235741353","long":"127.20543463","imageIndex":4,"items":[{"name":"최고봉갈매기살","tel":"031-335-5428","addr":"경기도 용인시 처인구 김량장동 254-24번지 1층","indutype":"일반휴게음식 - 일반한식","category":"restaurant"}]},{"lat":"37.236052662","long":"127.20779074","imageIndex":4,"items":[{"name":"최박사쪽갈비.갈매기살","tel":"031-332-1121","addr":"경기도 용인시 처인구 김량장동 131-20번지","indutype":"일반휴게음식 - 일반한식","category":"restaurant"}]},{"lat":"37.235129707","long":"127.19946038","imageIndex":4,"items":[{"name":"춘천원조닭갈비","tel":"031-335-9929","addr":"경기도 용인시 처인구 김량장동 323-2번지","indutype":"일반휴게음식 - 일반한식","category":"restaurant"}]},{"lat":"37.233634317","long":"127.19926492","imageIndex":4,"items":[{"name":"춘향골남원추어탕","tel":"031-321-3631","addr":"경기도 용인시 처인구 김량장동 335번지 (1동1호)","indutype":"일반휴게음식 - 일반한식","category":"restaurant"}]},{"lat":"37.236827604","long":"127.20775903","imageIndex":4,"items":[{"name":"충무로포장마차","tel":"031-111-1111","addr":"경기도 용인시 처인구 김량장동 136-5번지","indutype":"일반휴게음식 - 일반한식","category":"restaurant"}]},{"lat":"37.235496705","long":"127.20623409","imageIndex":4,"items":[{"name":"칠성육회","tel":"031-323-0099","addr":"경기도 용인시 처인구 김량장동 133-62번지","indutype":"일반휴게음식 - 일반한식","category":"restaurant"},{"name":"토마토도시락 용인중앙시장점","tel":"031-333-3730","addr":"경기도 용인시 처인구 김량장동 133-62번지 1층","indutype":"일반휴게음식 - 일반한식","category":"restaurant"},{"name":"홍콩반점0410처인구청점","tel":"031-337-0410","addr":"경기도 용인시 처인구 김량장동 133-62번지 2층","indutype":"일반휴게음식 - 중국식","category":"restaurant"}]},{"lat":"37.23535742","long":"127.20337136","imageIndex":4,"items":[{"name":"카파커피","tel":"031-334-0243","addr":"경기도 용인시 처인구 김량장동 254-232번지","indutype":"일반휴게음식 - 스넥","category":"restaurant"},{"name":"토속보양탕","tel":"031-335-8396","addr":"경기도 용인시 처인구 김량장동 254-232번지 1층","indutype":"일반휴게음식 - 일반한식","category":"restaurant"}]},{"lat":"37.231193596","long":"127.20923123","imageIndex":4,"items":[{"name":"카페 휴 삼성디지털프라자 용인점","tel":"031-324-9305","addr":"경기도 용인시 처인구 김량장동 27번지 1층","indutype":"일반휴게음식 - 서양음식","category":"restaurant"}]},{"lat":"37.231550258","long":"127.21137323","imageIndex":4,"items":[{"name":"카페빵이야기","tel":"031-8021-2136","addr":"경기도 용인시 처인구 김량장동 18-4번지 외4필지 다보스병원 1층","indutype":"일반휴게음식 - 서양음식","category":"restaurant"}]},{"lat":"37.231832988","long":"127.19882078","imageIndex":4,"items":[{"name":"카페휴문예회관점","tel":"031-324-9305","addr":"경기도 용인시 처인구 김량장동 346번지 1층","indutype":"일반휴게음식 - 서양음식","category":"restaurant"}]},{"lat":"37.236359361","long":"127.1968829","imageIndex":4,"items":[{"name":"커피나무","tel":"070-8276-5364","addr":"경기도 용인시 처인구 김량장동 526번지 김량장동어울림아파트","indutype":"일반휴게음식 - 서양음식","category":"restaurant"},{"name":"피엠푸드(김량장점)","tel":"031-323-1085","addr":"경기도 용인시 처인구 김량장동 526번지 김량장동어울림아파트","indutype":"일반휴게음식 - 서양음식","category":"restaurant"}]},{"lat":"37.231635237","long":"127.20915355","imageIndex":4,"items":[{"name":"커피네이블","tel":"031-334-8935","addr":"경기도 용인시 처인구 김량장동 26-5번지 1층","indutype":"일반휴게음식 - 서양음식","category":"restaurant"}]},{"lat":"37.235554461","long":"127.20407057","imageIndex":4,"items":[{"name":"커피스미스용인중앙점","tel":"031-323-0668","addr":"경기도 용인시 처인구 김량장동 254-103번지 1층","indutype":"일반휴게음식 - 서양음식","category":"restaurant"}]},{"lat":"37.234824381","long":"127.19331795","imageIndex":4,"items":[{"name":"커피에 반하다","tel":"031-339-5459","addr":"경기도 용인시 처인구 김량장동 508-2번지 청강빌딩 1층","indutype":"일반휴게음식 - 서양음식","category":"restaurant"}]},{"lat":"37.235831186","long":"127.20559264","imageIndex":4,"items":[{"name":"콩초네","tel":"070-7769-0828","addr":"경기도 용인시 처인구 김량장동 133-135번지 3층","indutype":"일반휴게음식 - 일반한식","category":"restaurant"}]},{"lat":"37.23227661","long":"127.19753729","imageIndex":4,"items":[{"name":"큐호프","tel":"031-335-6261","addr":"경기도 용인시 처인구 김량장동 503-3번지 신우상가 102호","indutype":"일반휴게음식 - 주점","category":"restaurant"}]},{"lat":"37.234435805","long":"127.20487896","imageIndex":4,"items":[{"name":"클래식129(Classic129)","tel":"","addr":"경기도 용인시 처인구 김량장동 296-41번지 2층","indutype":"일반휴게음식 - 서양음식","category":"restaurant"}]},{"lat":"37.235082676","long":"127.195178","imageIndex":4,"items":[{"name":"탐앤탐스 용인중앙점","tel":"031-322-7765","addr":"경기도 용인시 처인구 김량장동 292-4번지","indutype":"일반휴게음식 - 서양음식","category":"restaurant"}]},{"lat":"37.232464713","long":"127.20885156","imageIndex":4,"items":[{"name":"토광건강원","tel":"031-336-0365","addr":"경기도 용인시 처인구 김량장동 42-7번지","indutype":"일반휴게음식 - 일반한식","category":"restaurant"}]},{"lat":"37.234909111","long":"127.19663127","imageIndex":4,"items":[{"name":"토마토아저씨","tel":"031-323-4003","addr":"경기도 용인시 처인구 김량장동 293-20번지","indutype":"일반휴게음식 - 일반한식","category":"restaurant"}]},{"lat":"37.237079014","long":"127.20826683","imageIndex":4,"items":[{"name":"통나무집","tel":"031-33-1993","addr":"경기도 용인시 처인구 김량장동 140-23번지","indutype":"일반휴게음식 - 일반한식","category":"restaurant"}]},{"lat":"37.236078775","long":"127.20832046","imageIndex":4,"items":[{"name":"퇴근길","tel":"031-335-4938","addr":"경기도 용인시 처인구 김량장동 115-5번지","indutype":"일반휴게음식 - 일반한식","category":"restaurant"}]},{"lat":"37.232608232","long":"127.20398386","imageIndex":4,"items":[{"name":"티바두마리치킨(중앙점)","tel":"031-322-9293","addr":"경기도 용인시 처인구 김량장동 343-13번지","indutype":"일반휴게음식 - 일반한식","category":"restaurant"}]},{"lat":"37.231132247","long":"127.19756816","imageIndex":4,"items":[{"name":"푸주옥","tel":"031-336-1422","addr":"경기도 용인시 처인구 김량장동 359-2번지 1층","indutype":"일반휴게음식 - 일반한식","category":"restaurant"}]},{"lat":"37.234518854","long":"127.19834316","imageIndex":4,"items":[{"name":"푸짐한손칼국수","tel":"031-338-2333","addr":"경기도 용인시 처인구 김량장동 328-3","indutype":"일반휴게음식 - 일반한식","category":"restaurant"}]},{"lat":"37.231832303","long":"127.20981894","imageIndex":4,"items":[{"name":"피우다","tel":"031-0000-0000","addr":"경기도 용인시 처인구 김량장동 23번지 102호","indutype":"일반휴게음식 - 서양음식","category":"restaurant"}]},{"lat":"37.234968941","long":"127.19860351","imageIndex":4,"items":[{"name":"피자알볼로용인중앙점","tel":"031-335-8495","addr":"경기도 용인시 처인구 김량장동 294-16번지 메디타워 104, 105호","indutype":"일반휴게음식 - 서양음식","category":"restaurant"}]},{"lat":"37.234443165","long":"127.19504115","imageIndex":4,"items":[{"name":"한국피자헛용인시청지점","tel":"031-337-3371","addr":"경기도 용인시 처인구 김량장동 408번지 한명빌딩 1층","indutype":"일반휴게음식 - 서양음식","category":"restaurant"}]},{"lat":"37.235411411","long":"127.19801866","imageIndex":4,"items":[{"name":"한성상회","tel":"031-321-4268","addr":"경기도 용인시 처인구 김량장동 294-26번지","indutype":"일반휴게음식 - 일반한식","category":"restaurant"}]},{"lat":"37.233885408","long":"127.19998678","imageIndex":4,"items":[{"name":"한양집","tel":"031-336-0151","addr":"경기도 용인시 처인구 김량장동 334-22번지","indutype":"일반휴게음식 - 일반한식","category":"restaurant"}]},{"lat":"37.237963425","long":"127.20745782","imageIndex":4,"items":[{"name":"핫오리(용인점)","tel":"031-337-1883","addr":"경기도 용인시 처인구 김량장동 145-3번지 1층","indutype":"일반휴게음식 - 일반한식","category":"restaurant"}]},{"lat":"37.23218545","long":"127.19817937","imageIndex":4,"items":[{"name":"행복한밥상","tel":"031-321-9200","addr":"경기도 용인시 처인구 김량장동 505-12번지 1층","indutype":"일반휴게음식 - 일반한식","category":"restaurant"}]},{"lat":"37.236912265","long":"127.20568569","imageIndex":4,"items":[{"name":"행운커피&호프","tel":"","addr":"경기도 용인시 처인구 김량장동 133-198번지 2층","indutype":"일반휴게음식 - 주점","category":"restaurant"}]},{"lat":"37.236078912","long":"127.20824158","imageIndex":4,"items":[{"name":"향수호프","tel":"031-338-1491","addr":"경기도 용인시 처인구 김량장동 115-15번지 2층","indutype":"일반휴게음식 - 주점","category":"restaurant"}]},{"lat":"37.232633671","long":"127.19956658","imageIndex":4,"items":[{"name":"현태리코치킨","tel":"031-339-9982","addr":"경기도 용인시 처인구 김량장동 345-5번지","indutype":"일반휴게음식 - 일반한식","category":"restaurant"}]},{"lat":"37.236747563","long":"127.20715027","imageIndex":4,"items":[{"name":"호수다방","tel":"031-339-6696","addr":"경기도 용인시 처인구 김량장동 133-147번지 2층","indutype":"일반휴게음식 - 서양음식","category":"restaurant"}]},{"lat":"37.236327176","long":"127.20534605","imageIndex":4,"items":[{"name":"호우양꼬치","tel":"031-338-9792","addr":"경기도 용인시 처인구 김량장동 254-7번지 1층 101호","indutype":"일반휴게음식 - 일반한식","category":"restaurant"}]},{"lat":"37.23019111","long":"127.21056943","imageIndex":4,"items":[{"name":"황토우렁쌈밥","tel":"031-321-5320","addr":"경기도 용인시 처인구 김량장동 12-15번지 1층","indutype":"일반휴게음식 - 일반한식","category":"restaurant"}]}]