[{"lat":"37.344562426","long":"126.8514877","imageIndex":4,"items":[{"name":"가야식당","tel":"031-419-5221","addr":"경기도 안산시 상록구 양상동 226-3번지 1층","indutype":"일반휴게음식 - 일반한식","category":"restaurant"},{"name":"가야정육식당","tel":"031-419-5221","addr":"경기도 안산시 상록구 양상동 226-3번지 1층","indutype":"일반휴게음식 - 일반한식","category":"restaurant"}]},{"lat":"37.343033313","long":"126.85354468","imageIndex":4,"items":[{"name":"갈비Day","tel":"031-411-3202","addr":"경기도 안산시 상록구 양상동 232-5번지","indutype":"일반휴게음식 - 일반한식","category":"restaurant"}]},{"lat":"37.347061262","long":"126.84687807","imageIndex":4,"items":[{"name":"다올닭국수/주식회사 태형푸드","tel":"031-411-6799","addr":"경기도 안산시 상록구 양상동 131-5번지","indutype":"일반휴게음식 - 일반한식","category":"restaurant"}]},{"lat":"37.342337527","long":"126.85196614","imageIndex":4,"items":[{"name":"돈까스하우스","tel":"031-487-5010","addr":"경기도 안산시 상록구 양상동 252-1번지 1층","indutype":"일반휴게음식 - 서양음식","category":"restaurant"}]},{"lat":"37.344645571","long":"126.85310135","imageIndex":4,"items":[{"name":"백년손님","tel":"031-482-1616","addr":"경기도 안산시 상록구 양상동 220-1번지","indutype":"일반휴게음식 - 일반한식","category":"restaurant"},{"name":"옛날집","tel":"031-482-1616","addr":"경기도 안산시 상록구 양상동 220-1번지","indutype":"일반휴게음식 - 일반한식","category":"restaurant"}]},{"lat":"37.344561282","long":"126.85059615","imageIndex":4,"items":[{"name":"장어여","tel":"031-411-8676","addr":"경기도 안산시 상록구 양상동 243-9번지 1층","indutype":"일반휴게음식 - 일반한식","category":"restaurant"},{"name":"한돈화덕구이","tel":"031-411-8676","addr":"경기도 안산시 상록구 양상동 243-9번지","indutype":"일반휴게음식 - 일반한식","category":"restaurant"}]},{"lat":"37.344811208","long":"126.85585468","imageIndex":4,"items":[{"name":"평사리능이버섯","tel":"031-480-1540","addr":"경기도 안산시 상록구 양상동 289-2번지 1층","indutype":"일반휴게음식 - 일반한식","category":"restaurant"}]}]