[{"lat":"37.70363052","long":"127.18208256","imageIndex":17,"items":[{"name":"(주)동일레저","tel":"031-572-0498","addr":"경기도 남양주시 진접읍 연평리 182-1번지","indutype":"레져용품 - 스포츠·레져용품","category":"other"}]},{"lat":"37.703156777","long":"127.17958672","imageIndex":17,"items":[{"name":"(주)성지파워","tel":"031-571-5800","addr":"경기도 남양주시 진접읍 연평리 217-5번지","indutype":"기타 - 기계공구","category":"other"}]},{"lat":"37.700744359","long":"127.17814091","imageIndex":17,"items":[{"name":"(주)엘디에코홀딩스","tel":"070-4849-1213","addr":"경기도 남양주시 진접읍 연평리 291-2번지","indutype":"기타 - 기계공구","category":"other"},{"name":"위너전기조명","tel":"031-607-6636","addr":"경기도 남양주시 진접읍 연평리 291-2번지","indutype":"건축자재 - 조명기구","category":"other"}]},{"lat":"37.680746417","long":"127.16955772","imageIndex":17,"items":[{"name":"(주)와이제이교육(YJ EDUCATION CO.,Ltd)","tel":"031-594-8487","addr":"경기도 남양주시 진접읍 연평리 842-1번지","indutype":"서적문구 - 일반서적","category":"other"},{"name":"드림에듀","tel":"031-594-8487","addr":"경기도 남양주시 진접읍 연평리 842-1번지","indutype":"서적문구 - 일반서적","category":"other"}]},{"lat":"37.705520247","long":"127.18358398","imageIndex":17,"items":[{"name":"(주)케어시스코리아","tel":"031-1600-6553","addr":"경기도 남양주시 진접읍 연평리 175-8","indutype":"직물 - 침구·수예점","category":"other"}]},{"lat":"37.707127627","long":"127.18117243","imageIndex":17,"items":[{"name":"GS25진접연평리점","tel":"","addr":"경기도 남양주시 진접읍 연평리 93-5번지","indutype":"유통업 영리 - 편 의 점","category":"other"}]},{"lat":"37.694159646","long":"127.17725237","imageIndex":17,"items":[{"name":"KH관수지원센터","tel":"070-8715-6375","addr":"경기도 남양주시 진접읍 연평리 324-8번지 2호","indutype":"농업 - 농기계","category":"other"},{"name":"YM korea(와이엠코리아)","tel":"031-514-4100","addr":"경기도 남양주시 진접읍 연평리 324-8번지 2층","indutype":"신변잡화 - 액세서리","category":"other"}]},{"lat":"37.68227762","long":"127.17611359","imageIndex":17,"items":[{"name":"OK메디칼","tel":"031-529-4220","addr":"경기도 남양주시 진접읍 연평리 501-1번지 1동","indutype":"레져용품 - 스포츠·레져용품","category":"other"}]},{"lat":"37.707412933","long":"127.18314631","imageIndex":17,"items":[{"name":"STUCKYINATURE(스투키네이처)","tel":"031-574-8057","addr":"경기도 남양주시 진접읍 연평리 188-1번지","indutype":"의류 - 아동의류","category":"other"}]},{"lat":"37.68197071","long":"127.17650965","imageIndex":17,"items":[{"name":"경기종합설비","tel":"","addr":"경기도 남양주시 진접읍 연평리 500-6번지","indutype":"용역 서비스 - 기타용역서비스","category":"other"}]},{"lat":"37.68569263","long":"127.16961414","imageIndex":17,"items":[{"name":"골프존비전","tel":"031-528-2570","addr":"경기도 남양주시 진접읍 연평리 816-3번지","indutype":"레져용품 - 스포츠·레져용품","category":"other"}]},{"lat":"37.705100422","long":"127.18120159","imageIndex":17,"items":[{"name":"구내매점","tel":"031-529-8572","addr":"경기도 남양주시 진접읍 연평리 195-2번지 서울북부터미널복지동구내매점","indutype":"신변잡화 - 기타잡화","category":"other"}]},{"lat":"37.703436244","long":"127.17947398","imageIndex":17,"items":[{"name":"남도전기","tel":"031-571-0812","addr":"경기도 남양주시 진접읍 연평리 217-2","indutype":"건축자재 - 조명기구","category":"other"}]},{"lat":"37.683305308","long":"127.16945008","imageIndex":17,"items":[{"name":"남양주 냉동특장","tel":"031-1668-1195","addr":"경기도 남양주시 진접읍 연평리 835-11번지 1동","indutype":"수리서비스 - 기타수리서비스","category":"other"}]},{"lat":"37.68338465","long":"127.17689839","imageIndex":17,"items":[{"name":"다주","tel":"","addr":"경기도 남양주시 진접읍 연평리 382번지","indutype":"신변잡화 - 기타잡화","category":"other"}]},{"lat":"37.694521417","long":"127.17631214","imageIndex":17,"items":[{"name":"대궐창호산업","tel":"031-571-1323","addr":"경기도 남양주시 진접읍 연평리 324-9","indutype":"건축자재 - 보일러·펌프·샷시","category":"other"},{"name":"정한실업","tel":"031-551-2795","addr":"경기도 남양주시 진접읍 연평리 324-9번지","indutype":"건축자재 - 보일러·펌프·샷시","category":"other"}]},{"lat":"37.703933657","long":"127.1841698","imageIndex":17,"items":[{"name":"대도 정공사","tel":"031-529-0444","addr":"경기도 남양주시 진접읍 연평리 180-4번지 가동","indutype":"기타 - 기계공구","category":"other"}]},{"lat":"37.680914163","long":"127.17197271","imageIndex":17,"items":[{"name":"대진공조닥트","tel":"031-527-4419","addr":"경기도 남양주시 진접읍 연평리 461-4번지 가동","indutype":"용역 서비스 - 기타용역서비스","category":"other"}]},{"lat":"37.702187287","long":"127.17720313","imageIndex":17,"items":[{"name":"더조은 펫스토리","tel":"031-528-0279","addr":"경기도 남양주시 진접읍 연평리 247-3번지","indutype":"문화.취미 - 애완동물","category":"other"}]},{"lat":"37.682221556","long":"127.17747383","imageIndex":17,"items":[{"name":"더함 렌탈","tel":"031-0000-0000","addr":"경기도 남양주시 진접읍 연평리 392-1번지","indutype":"사무통신 - 사무용 OA기기","category":"other"}]},{"lat":"37.707828359","long":"127.18250092","imageIndex":17,"items":[{"name":"디자인공감","tel":"031-529-4321","addr":"경기도 남양주시 진접읍 연평리 144번지","indutype":"건축자재 - 인테리어전문","category":"other"}]},{"lat":"37.684963428","long":"127.16920438","imageIndex":17,"items":[{"name":"레드 패브릭 아이엔씨","tel":"031-312-9093","addr":"경기도 남양주시 진접읍 연평리 822번지 1층 1호","indutype":"직물 - 침구·수예점","category":"other"}]},{"lat":"37.707716541","long":"127.18491613","imageIndex":17,"items":[{"name":"만물정원","tel":"","addr":"경기도 남양주시 진접읍 연평리 158번지 102동 101호","indutype":"의류 - 정장","category":"other"}]},{"lat":"37.682443775","long":"127.17950357","imageIndex":17,"items":[{"name":"맑은공기","tel":"","addr":"경기도 남양주시 진접읍 연평리 411번지","indutype":"신변잡화 - 기타잡화","category":"other"}]},{"lat":"37.704519575","long":"127.18397845","imageIndex":17,"items":[{"name":"메이플팩토리","tel":"070-4197-0865","addr":"경기도 남양주시 진접읍 연평리 180-3","indutype":"가구 - 일반가구","category":"other"}]},{"lat":"37.708267068","long":"127.18430509","imageIndex":17,"items":[{"name":"명민디자인","tel":"031-565-2242","addr":"경기도 남양주시 진접읍 연평리 135-9번지 대현 3동 4호","indutype":"건축자재 - 인테리어전문","category":"other"},{"name":"킹퐁스포츠","tel":"031-575-0092","addr":"경기도 남양주시 진접읍 연평리 135-9번지 외1필지 3층 사무실","indutype":"레져용품 - 스포츠·레져용품","category":"other"}]},{"lat":"37.705795459","long":"127.18034142","imageIndex":17,"items":[{"name":"미니스톱남양주연평점","tel":"031-1577-9621","addr":"경기도 남양주시 진접읍 연평리 197-1번지","indutype":"유통업 영리 - 편 의 점","category":"other"}]},{"lat":"37.711606117","long":"127.1806955","imageIndex":17,"items":[{"name":"보문컨테이너","tel":"031-571-2090","addr":"경기도 남양주시 진접읍 연평리 82-2번지","indutype":"기타 - 기계공구","category":"other"}]},{"lat":"37.706128898","long":"127.18028551","imageIndex":17,"items":[{"name":"보승침장","tel":"031-574-5679","addr":"경기도 남양주시 진접읍 연평리 198-5번지 나동","indutype":"직물 - 침구·수예점","category":"other"}]},{"lat":"37.706490829","long":"127.17925443","imageIndex":17,"items":[{"name":"사능전기","tel":"031-511-8615","addr":"경기도 남양주시 진접읍 연평리 91-4번지","indutype":"수리서비스 - 기타수리서비스","category":"other"}]},{"lat":"37.708629143","long":"127.18900091","imageIndex":17,"items":[{"name":"산신암","tel":"031-529-3920","addr":"경기도 남양주시 진접읍 연평리 50","indutype":"기타 - 비영리/대상","category":"other"}]},{"lat":"37.694219898","long":"127.17914599","imageIndex":17,"items":[{"name":"수림 퍼니처","tel":"031-528-8712","addr":"경기도 남양주시 진접읍 연평리 335-1번지","indutype":"주방용구 - 주방용구","category":"other"}]},{"lat":"37.705600567","long":"127.18408314","imageIndex":17,"items":[{"name":"신일아이앤티","tel":"031-529-3073","addr":"경기도 남양주시 진접읍 연평리 176번지 (176,176-1,175-13)","indutype":"건축자재 - 건축용 요업제품","category":"other"},{"name":"신일아이앤티","tel":"031-529-3073","addr":"경기도 남양주시 진접읍 연평리 176번지 (연평리 176-1,175-13)","indutype":"전기제품 - 기타전기제품","category":"other"}]},{"lat":"37.700968806","long":"127.17867438","imageIndex":17,"items":[{"name":"아로모아","tel":"031-573-7411","addr":"경기도 남양주시 진접읍 연평리 291-1번지","indutype":"직물 - 침구·수예점","category":"other"}]},{"lat":"37.701545166","long":"127.17269991","imageIndex":17,"items":[{"name":"아성씨엔지","tel":"031-572-2694","addr":"경기도 남양주시 진접읍 연평리 235번지","indutype":"신변잡화 - 기타잡화","category":"other"}]},{"lat":"37.682719905","long":"127.17555913","imageIndex":17,"items":[{"name":"앳홈","tel":"070-8615-3070","addr":"경기도 남양주시 진접읍 연평리 505-5번지 1동","indutype":"가구 - 기타가구","category":"other"},{"name":"진성디자인","tel":"031-571-4433","addr":"경기도 남양주시 진접읍 연평리 505-5번지 나동 1층","indutype":"용역 서비스 - 종합용역","category":"other"}]},{"lat":"37.707657592","long":"127.18222834","imageIndex":17,"items":[{"name":"언니네 가죽공방","tel":"031-575-9619","addr":"경기도 남양주시 진접읍 연평리 96번지 1층","indutype":"문화.취미 - 문화취미기타","category":"other"},{"name":"웨어 그레이스","tel":"031-575-9619","addr":"경기도 남양주시 진접읍 연평리 96번지 1층","indutype":"신변잡화 - 가방","category":"other"},{"name":"지-플러스골프(진접점)","tel":"031-574-6668","addr":"경기도 남양주시 진접읍 연평리 96번지","indutype":"레져용품 - 골프용품 전문점","category":"other"}]},{"lat":"37.707384427","long":"127.18411016","imageIndex":17,"items":[{"name":"에어컨마을","tel":"","addr":"경기도 남양주시 진접읍 연평리 147-17번지 401호","indutype":"용역 서비스 - 기타용역서비스","category":"other"}]},{"lat":"37.706772837","long":"127.18341692","imageIndex":17,"items":[{"name":"영광농원","tel":"031-572-8347","addr":"경기도 남양주시 진접읍 연평리 187-3","indutype":"문화.취미 - 화원","category":"other"}]},{"lat":"37.701518691","long":"127.17231432","imageIndex":17,"items":[{"name":"예닮종탑공사","tel":"070-5293-8197","addr":"경기도 남양주시 진접읍 연평리 236번지","indutype":"용역 서비스 - 기타용역서비스","category":"other"},{"name":"한국교회공사","tel":"070-8419-0040","addr":"경기도 남양주시 진접읍 연평리 236번지","indutype":"건축자재 - 인테리어전문","category":"other"}]},{"lat":"37.693909697","long":"127.17567578","imageIndex":17,"items":[{"name":"오빠낚시","tel":"031-573-1888","addr":"경기도 남양주시 진접읍 연평리 622번지","indutype":"레져용품 - 스포츠·레져용품","category":"other"}]},{"lat":"37.710854431","long":"127.18325671","imageIndex":17,"items":[{"name":"우리들세무법인","tel":"031-574-9995","addr":"경기도 남양주시 진접읍 연평리 61-2번지 2층","indutype":"용역 서비스 - 법률회계서비스(법인)","category":"other"}]},{"lat":"37.709102592","long":"127.1858381","imageIndex":17,"items":[{"name":"우리들세무법인 남양주2호점","tel":"031-574-9995","addr":"경기도 남양주시 진접읍 연평리 111-1번지 402호","indutype":"용역 서비스 - 법률회계서비스(법인)","category":"other"},{"name":"지니유통","tel":"00-1577-3730","addr":"경기도 남양주시 진접읍 연평리 111-1번지","indutype":"전기제품 - 가전제품","category":"other"}]},{"lat":"37.693630848","long":"127.175369","imageIndex":17,"items":[{"name":"우리들세무법인 남양주3호점","tel":"031-574-6881","addr":"경기도 남양주시 진접읍 연평리 621-2번지","indutype":"용역 서비스 - 법률회계서비스(법인)","category":"other"},{"name":"힐링아웃도어","tel":"031-529-2088","addr":"경기도 남양주시 진접읍 연평리 621-2번지 남양주농자재 1층 102호","indutype":"의류 - 정장","category":"other"}]},{"lat":"37.704386427","long":"127.18267405","imageIndex":17,"items":[{"name":"우일상사","tel":"031-1111-1111","addr":"경기도 남양주시 진접읍 연평리 185-18번지","indutype":"신변잡화 - 기타잡화","category":"other"}]},{"lat":"37.681944098","long":"127.17622618","imageIndex":17,"items":[{"name":"우주산업","tel":"02-924-8300","addr":"경기도 남양주시 진접읍 연평리 440-14","indutype":"기타 - 기계공구","category":"other"}]},{"lat":"37.706935772","long":"127.18291835","imageIndex":17,"items":[{"name":"울트라에어컨","tel":"031-1544-7983","addr":"경기도 남양주시 진접읍 연평리 146-2번지","indutype":"용역 서비스 - 기타용역서비스","category":"other"}]},{"lat":"37.706407666","long":"127.18063772","imageIndex":17,"items":[{"name":"월드광고기획","tel":"031-572-8681","addr":"경기도 남양주시 진접읍 연평리 198-18번지 103호","indutype":"건축자재 - 인테리어전문","category":"other"}]},{"lat":"37.695378924","long":"127.17522565","imageIndex":17,"items":[{"name":"월드종합","tel":"031-529-6464","addr":"경기도 남양주시 진접읍 연평리 314-12번지","indutype":"레져용품 - 스포츠·레져용품","category":"other"}]},{"lat":"37.689273621","long":"127.1666404","imageIndex":17,"items":[{"name":"유천환경","tel":"031-527-8598","addr":"경기도 남양주시 진접읍 연평리 710-2번지","indutype":"건축자재 - 기타건축자재","category":"other"}]},{"lat":"37.702604632","long":"127.18128633","imageIndex":17,"items":[{"name":"일성포장산업","tel":"031-571-3241","addr":"경기도 남양주시 진접읍 연평리 218-24","indutype":"직물 - 카페트,커튼,천막,지물","category":"other"}]},{"lat":"37.711771788","long":"127.18431364","imageIndex":17,"items":[{"name":"장현합판목재","tel":"031-528-7337","addr":"경기도 남양주시 진접읍 연평리 76-1","indutype":"건축자재 - 목재·석재·철물","category":"other"}]},{"lat":"37.708077221","long":"127.18472422","imageIndex":17,"items":[{"name":"제이에스해양개발","tel":"031-624-2318","addr":"경기도 남양주시 진접읍 연평리 138-14번지 2층","indutype":"레져용품 - 스포츠·레져용품","category":"other"}]},{"lat":"37.692132165","long":"127.18344945","imageIndex":17,"items":[{"name":"주식회사 비에스스톤","tel":"031-574-6606","addr":"경기도 남양주시 진접읍 연평리 365-5번지","indutype":"건축자재 - 목재·석재·철물","category":"other"}]},{"lat":"37.681830408","long":"127.17997824","imageIndex":17,"items":[{"name":"주식회사 에이오(AO)","tel":"031-573-7730","addr":"경기도 남양주시 진접읍 연평리 417-2번지 5","indutype":"신변잡화 - 기타잡화","category":"other"}]},{"lat":"37.693771327","long":"127.17786372","imageIndex":17,"items":[{"name":"주식회사 이현시스템","tel":"031-575-6222","addr":"경기도 남양주시 진접읍 연평리 326번지","indutype":"건축자재 - 기타건축자재","category":"other"}]},{"lat":"37.706021584","long":"127.17975228","imageIndex":17,"items":[{"name":"주식회사 큰돌","tel":"031-571-9178","addr":"경기도 남양주시 진접읍 연평리 197-5","indutype":"기타 - 기계공구","category":"other"}]},{"lat":"37.708849514","long":"127.18635914","imageIndex":17,"items":[{"name":"주식회사 퍼스트가전","tel":"031-527-7772","addr":"경기도 남양주시 진접읍 연평리 112-19번지 1동","indutype":"전기제품 - 가전제품","category":"other"},{"name":"주식회사 퍼스트가전","tel":"031-527-7772","addr":"경기도 남양주시 진접읍 연평리 112-19번지 1동","indutype":"전기제품 - 가전제품","category":"other"}]},{"lat":"37.701774567","long":"127.17603421","imageIndex":17,"items":[{"name":"주식회사 피엔에이치인터내셔널","tel":"031-527-3790","addr":"경기도 남양주시 진접읍 연평리 245-4번지","indutype":"레져용품 - 스포츠·레져용품","category":"other"}]},{"lat":"37.699522654","long":"127.17570014","imageIndex":17,"items":[{"name":"주식회사리빙앤케어","tel":"070-8670-8300","addr":"경기도 남양주시 진접읍 연평리 287-4번지","indutype":"신변잡화 - 기타잡화","category":"other"}]},{"lat":"37.69393641","long":"127.17589127","imageIndex":17,"items":[{"name":"준엔지니어링","tel":"031-571-9000","addr":"경기도 남양주시 진접읍 연평리 625번지","indutype":"건축자재 - 보일러·펌프·샷시","category":"other"}]},{"lat":"37.702713041","long":"127.17502718","imageIndex":17,"items":[{"name":"지우침장","tel":"031-796-2554","addr":"경기도 남양주시 진접읍 연평리 227번지 1층","indutype":"직물 - 침구·수예점","category":"other"}]},{"lat":"37.706079309","long":"127.18327916","imageIndex":17,"items":[{"name":"진출기업","tel":"031-567-2493","addr":"경기도 남양주시 진접읍 연평리 175-5번지","indutype":"건축자재 - 기타건축자재","category":"other"}]},{"lat":"37.710545981","long":"127.18463953","imageIndex":17,"items":[{"name":"차영환이불입니다","tel":"031-527-8571","addr":"경기도 남양주시 진접읍 연평리 114-1번지 101,102호","indutype":"직물 - 침구·수예점","category":"other"}]},{"lat":"37.708245618","long":"127.18064211","imageIndex":17,"items":[{"name":"펠리즈(feliz)","tel":"031-529-1481","addr":"경기도 남양주시 진접읍 연평리 98-2번지","indutype":"가구 - 일반가구","category":"other"}]},{"lat":"37.707690456","long":"127.18430369","imageIndex":17,"items":[{"name":"풍년토탈씽크","tel":"031-571-5660","addr":"경기도 남양주시 진접읍 연평리 138-4번지","indutype":"주방용구 - 주방용구","category":"other"}]}]