[{"lat":"37.603890311","long":"126.86898099","imageIndex":0,"items":[{"name":"N.B틴팅","tel":"02-3158-3200","addr":"경기도 고양시 덕양구 화전동 558-9번지","indutype":"자동차정비 유지 - 자동차부품","category":"car"}]},{"lat":"37.600309928","long":"126.87392465","imageIndex":0,"items":[{"name":"THE MOST(더 모스트)","tel":"","addr":"경기도 고양시 덕양구 화전동 229-50번지","indutype":"자동차정비 유지 - 자동차부품","category":"car"}]},{"lat":"37.610550933","long":"126.87112089","imageIndex":0,"items":[{"name":"국일상사","tel":"031-3159-1959","addr":"경기도 고양시 덕양구 화전동 369-1번지","indutype":"자동차정비 유지 - 자동차정비","category":"car"},{"name":"대흥상사","tel":"02-384-0012","addr":"경기도 고양시 덕양구 화전동 369-1번지","indutype":"자동차정비 유지 - 자동차시트·타이어","category":"car"}]},{"lat":"37.601857072","long":"126.87162317","imageIndex":0,"items":[{"name":"니아 (NIIA)","tel":"02-3159-8256","addr":"경기도 고양시 덕양구 화전동 203-170번지","indutype":"자동차정비 유지 - 자동차정비","category":"car"}]},{"lat":"37.610334636","long":"126.87106465","imageIndex":0,"items":[{"name":"대일상사","tel":"02-3159-9277","addr":"경기도 고양시 덕양구 화전동 367-1번지","indutype":"자동차정비 유지 - 자동차부품","category":"car"},{"name":"대일자동차","tel":"02-3159-9278","addr":"경기도 고양시 덕양구 화전동 367-1번지","indutype":"자동차정비 유지 - 자동차정비","category":"car"}]},{"lat":"37.599140161","long":"126.87530817","imageIndex":0,"items":[{"name":"덕은카센타","tel":"02-3159-8183","addr":"경기도 고양시 덕양구 화전동 168-2번지","indutype":"자동차정비 유지 - 자동차정비","category":"car"}]},{"lat":"37.605661959","long":"126.86612397","imageIndex":0,"items":[{"name":"수색자동차공업사","tel":"02-304-0624","addr":"경기도 고양시 덕양구 화전동 544-12번지","indutype":"자동차정비 유지 - 자동차정비","category":"car"}]},{"lat":"37.601918799","long":"126.87042269","imageIndex":0,"items":[{"name":"수효자동차","tel":"02-3159-1630","addr":"경기도 고양시 덕양구 화전동","indutype":"자동차정비 유지 - 자동차정비","category":"car"}]},{"lat":"37.599084898","long":"126.87419853","imageIndex":0,"items":[{"name":"영신카센터","tel":"02-372-6244","addr":"경기도 고양시 덕양구 화전동 230-11번지","indutype":"자동차정비 유지 - 자동차정비","category":"car"}]},{"lat":"37.599498045","long":"126.87300882","imageIndex":0,"items":[{"name":"오스카","tel":"070-8813-8714","addr":"경기도 고양시 덕양구 화전동 229-14번지","indutype":"자동차정비 유지 - 자동차부품","category":"car"}]},{"lat":"37.605610542","long":"126.86842299","imageIndex":0,"items":[{"name":"오일나라(OilNara)","tel":"02-3158-5185","addr":"경기도 고양시 덕양구 화전동 562-21번지","indutype":"자동차정비 유지 - 윤활유 전문 판매","category":"car"},{"name":"조은윤활유","tel":"070-4100-7097","addr":"경기도 고양시 덕양구 화전동 562-21번지","indutype":"자동차정비 유지 - 윤활유 전문 판매","category":"car"}]},{"lat":"37.613966367","long":"126.8717831","imageIndex":0,"items":[{"name":"카이젠모터스","tel":"02-3158-3519","addr":"경기도 고양시 덕양구 화전동 423-5번지","indutype":"자동차정비 유지 - 자동차부품","category":"car"}]},{"lat":"37.613805394","long":"126.87287068","imageIndex":0,"items":[{"name":"타이어   마트","tel":"02-3158-1258","addr":"경기도 고양시 덕양구 화전동 431-4번지","indutype":"자동차정비 유지 - 자동차시트·타이어","category":"car"}]},{"lat":"37.609252808","long":"126.87047764","imageIndex":0,"items":[{"name":"화전상사","tel":"031-309-3400","addr":"경기도 고양시 덕양구 화전동 305-3번지","indutype":"자동차정비 유지 - 자동차부품","category":"car"}]},{"lat":"37.60922525","long":"126.86223287","imageIndex":0,"items":[{"name":"흥진공업사","tel":"02-3158-5842","addr":"경기도 고양시 덕양구 화전동 768-12번지","indutype":"자동차정비 유지 - 자동차정비","category":"car"}]}]