[{"lat":"37.131415851","long":"126.90437818","imageIndex":13,"items":[{"name":"THE나은헤어샵","tel":"031-352-4997","addr":"경기도 화성시 향남읍 발안리 122-1번지 104호","indutype":"보건위생 - 미용원","category":"beauty"}]},{"lat":"37.130695543","long":"126.90502057","imageIndex":13,"items":[{"name":"리치헤어","tel":"031-354-2678","addr":"경기도 화성시 향남읍 발안리 409번지 103호","indutype":"보건위생 - 미용원","category":"beauty"}]},{"lat":"37.130280595","long":"126.90445842","imageIndex":13,"items":[{"name":"머리쟁이by영이","tel":"031-353-5596","addr":"경기도 화성시 향남읍 발안리 402번지 102호","indutype":"보건위생 - 미용원","category":"beauty"}]},{"lat":"37.127503217","long":"126.90190756","imageIndex":13,"items":[{"name":"미소아로마 화장품","tel":"031-8059-0752","addr":"경기도 화성시 향남읍 발안리 152-12번지 동양빌딩","indutype":"보건위생 - 화장품","category":"beauty"}]},{"lat":"37.130305574","long":"126.90201637","imageIndex":13,"items":[{"name":"미헤어","tel":"031-8043-2885","addr":"경기도 화성시 향남읍 발안리 297번지 101호","indutype":"보건위생 - 미용원","category":"beauty"}]},{"lat":"37.132114921","long":"126.89996577","imageIndex":13,"items":[{"name":"버르장머리","tel":"031-8059-2162","addr":"경기도 화성시 향남읍 발안리 289번지 장수주택 104호","indutype":"보건위생 - 미용원","category":"beauty"}]},{"lat":"37.130559696","long":"126.90418797","imageIndex":13,"items":[{"name":"썸헤어","tel":"031-8059-6318","addr":"경기도 화성시 향남읍 발안리 400번지 101호","indutype":"보건위생 - 미용원","category":"beauty"}]},{"lat":"37.1314423","long":"126.90368041","imageIndex":13,"items":[{"name":"아지트헤어","tel":"031-354-9953","addr":"경기도 화성시 향남읍 발안리 72-2번지","indutype":"보건위생 - 미용원","category":"beauty"}]},{"lat":"37.129252167","long":"126.90298556","imageIndex":13,"items":[{"name":"앤샵","tel":"031-352-4955","addr":"경기도 화성시 향남읍 발안리 305번지 화성발안우림필유 108호","indutype":"보건위생 - 미용재료","category":"beauty"}]},{"lat":"37.131641987","long":"126.90543574","imageIndex":13,"items":[{"name":"야래향헤어샵","tel":"031-366-0828","addr":"경기도 화성시 향남읍 발안리 84-1","indutype":"보건위생 - 미용원","category":"beauty"}]},{"lat":"37.131414598","long":"126.90288143","imageIndex":13,"items":[{"name":"이니헤어샵","tel":"031-353-0068","addr":"경기도 화성시 향남읍 발안리 39-2번지 1층 103호","indutype":"보건위생 - 미용원","category":"beauty"}]},{"lat":"37.132331436","long":"126.90026933","imageIndex":13,"items":[{"name":"짤라죠미용실","tel":"031-352-4304","addr":"경기도 화성시 향남읍 발안리 45-2번지 월드프라자 104호","indutype":"보건위생 - 미용원","category":"beauty"}]},{"lat":"37.129920567","long":"126.90493154","imageIndex":13,"items":[{"name":"참괜찮은미용실","tel":"031-353-7168","addr":"경기도 화성시 향남읍 발안리 139-5번지 1층 106호(외1필지센트럴월드빌딩)","indutype":"보건위생 - 미용원","category":"beauty"}]},{"lat":"37.12933546","long":"126.90563","imageIndex":13,"items":[{"name":"태후사랑","tel":"031-351-7270","addr":"경기도 화성시 향남읍 발안리 136번지 1층","indutype":"보건위생 - 화장품","category":"beauty"}]},{"lat":"37.129614942","long":"126.90582095","imageIndex":13,"items":[{"name":"향미","tel":"","addr":"경기도 화성시 향남읍 발안리 133-24번지 광장빌딩 2층","indutype":"보건위생 - 화장품","category":"beauty"}]},{"lat":"37.132407247","long":"126.90466949","imageIndex":13,"items":[{"name":"헤어닥터","tel":"031-8047-4919","addr":"경기도 화성시 향남읍 발안리 85-2번지 가림주택 C동 101호","indutype":"보건위생 - 미용원","category":"beauty"}]},{"lat":"37.130998292","long":"126.90074379","imageIndex":13,"items":[{"name":"헤어스타일","tel":"031-8059-6997","addr":"경기도 화성시 향남읍 발안리 295번지 발안마을 상가동 103호","indutype":"보건위생 - 미용원","category":"beauty"}]}]