[{"lat":"37.326848453","long":"127.1740984","imageIndex":13,"items":[{"name":"(주) 건강한사람들","tel":"031-339-2846","addr":"경기도 용인시 처인구 모현읍 능원리 399-2","indutype":"보건위생 - 의료용품","category":"beauty"}]},{"lat":"37.32412284","long":"127.21575803","imageIndex":13,"items":[{"name":"김민경샵","tel":"031-321-1887","addr":"경기도 용인시 처인구 모현읍 매산리 461-34번지","indutype":"보건위생 - 미용재료","category":"beauty"}]},{"lat":"37.341425953","long":"127.17476344","imageIndex":13,"items":[{"name":"꽃네헤어","tel":"031-334-9564","addr":"경기도 용인시 처인구 모현읍 능원리 29-3","indutype":"보건위생 - 미용원","category":"beauty"}]},{"lat":"37.335987133","long":"127.24933926","imageIndex":13,"items":[{"name":"남성헤어컷","tel":"070-7420-5130","addr":"경기도 용인시 처인구 모현읍 왕산리 802-16번지 1층","indutype":"보건위생 - 미용원","category":"beauty"}]},{"lat":"37.335931967","long":"127.24986943","imageIndex":13,"items":[{"name":"네일하는날","tel":"031-334-7738","addr":"경기도 용인시 처인구 모현읍 왕산리 807-5번지 1층","indutype":"보건위생 - 피부미용실","category":"beauty"}]},{"lat":"37.323286929","long":"127.15620794","imageIndex":13,"items":[{"name":"넥스트라이프 주식회사","tel":"031-726-2145","addr":"경기도 용인시 처인구 모현읍 오산리 79-3번지","indutype":"보건위생 - 화장품","category":"beauty"}]},{"lat":"37.334487374","long":"127.25128648","imageIndex":13,"items":[{"name":"다솔헤어","tel":"031-334-8067","addr":"경기도 용인시 처인구 모현읍 왕산리 479-22번지 101호","indutype":"보건위생 - 미용원","category":"beauty"}]},{"lat":"37.332896809","long":"127.24926146","imageIndex":13,"items":[{"name":"닥터큐 네츄럴","tel":"031-334-7765","addr":"경기도 용인시 처인구 모현읍 왕산리 468-5번지 1층 101호","indutype":"보건위생 - 피부미용실","category":"beauty"}]},{"lat":"37.336509836","long":"127.24928455","imageIndex":13,"items":[{"name":"더맨(남성헤어컷전문점)","tel":"031-333-2358","addr":"경기도 용인시 처인구 모현읍 왕산리 801-23번지 누리소아과 102호","indutype":"보건위생 - 미용원","category":"beauty"}]},{"lat":"37.342955321","long":"127.17638071","imageIndex":13,"items":[{"name":"데이데이","tel":"02-803-9569","addr":"경기도 용인시 처인구 모현읍 능원리 15-35번지 국제쉐르빌","indutype":"보건위생 - 미용원","category":"beauty"}]},{"lat":"37.343453217","long":"127.18087339","imageIndex":13,"items":[{"name":"도갸세상","tel":"031-281-5340","addr":"경기도 용인시 처인구 모현읍 동림리 47-11번지 대청연립 403호","indutype":"보건위생 - 미용재료","category":"beauty"},{"name":"샤론헤어","tel":"031-334-9155","addr":"경기도 용인시 처인구 모현읍 동림리 47-11번지 대청연립 1층 104호","indutype":"보건위생 - 미용원","category":"beauty"}]},{"lat":"37.343256483","long":"127.17987983","imageIndex":13,"items":[{"name":"떼루아헤어","tel":"031-333-8254","addr":"경기도 용인시 처인구 모현읍 동림리 48-1번지 1층","indutype":"보건위생 - 미용원","category":"beauty"}]},{"lat":"37.332653489","long":"127.24928323","imageIndex":13,"items":[{"name":"르꼬헤어","tel":"031-338-7748","addr":"경기도 용인시 처인구 모현읍 왕산리 468-8번지 BK Building 102호","indutype":"보건위생 - 미용원","category":"beauty"}]},{"lat":"37.343872561","long":"127.17760163","imageIndex":13,"items":[{"name":"마더 처인구지사","tel":"","addr":"경기도 용인시 처인구 모현읍 능원리 2번지 1층 102호","indutype":"보건위생 - 화장품","category":"beauty"}]},{"lat":"37.33240184","long":"127.24897776","imageIndex":13,"items":[{"name":"머리앤헤어","tel":"031-336-3751","addr":"경기도 용인시 처인구 모현읍 왕산리 465-1번지 1층","indutype":"보건위생 - 미용원","category":"beauty"}]},{"lat":"37.337068533","long":"127.24925252","imageIndex":13,"items":[{"name":"모현안경볼래","tel":"031-339-7727","addr":"경기도 용인시 처인구 모현읍 왕산리 799-7번지 1층","indutype":"보건위생 - 안경","category":"beauty"}]},{"lat":"37.336454859","long":"127.24972445","imageIndex":13,"items":[{"name":"미림미용실","tel":"031-334-6933","addr":"경기도 용인시 처인구 모현읍 왕산리801-1","indutype":"보건위생 - 미용원","category":"beauty"}]},{"lat":"37.336932205","long":"127.24981629","imageIndex":13,"items":[{"name":"미소안경","tel":"031-336-3090","addr":"경기도 용인시 처인구 모현읍 왕산리 799-2번지 2층","indutype":"보건위생 - 안경","category":"beauty"},{"name":"민지헤어","tel":"","addr":"경기도 용인시 처인구 모현읍 왕산리 799-2번지 1층 일부","indutype":"보건위생 - 미용원","category":"beauty"}]},{"lat":"37.331427997","long":"127.24933565","imageIndex":13,"items":[{"name":"미소헤어샵","tel":"031-322-2055","addr":"경기도 용인시 처인구 모현읍 왕산리 461번지 1층","indutype":"보건위생 - 미용원","category":"beauty"}]},{"lat":"37.336041593","long":"127.24914761","imageIndex":13,"items":[{"name":"미용재료소매","tel":"070-7728-2270","addr":"경기도 용인시 처인구 모현읍 왕산리 802-13번지","indutype":"보건위생 - 미용재료","category":"beauty"}]},{"lat":"37.331988009","long":"127.24867175","imageIndex":13,"items":[{"name":"박서진헤어(Hair)","tel":"070-7767-1799","addr":"경기도 용인시 처인구 모현읍 왕산리 463번지 1층 일부","indutype":"보건위생 - 미용원","category":"beauty"}]},{"lat":"37.331283624","long":"127.24943673","imageIndex":13,"items":[{"name":"베스트맘","tel":"031-602-3710","addr":"경기도 용인시 처인구 모현읍 왕산리 461-2번지 성심빌라 B동 B02호","indutype":"보건위생 - 기타대인서비스","category":"beauty"}]},{"lat":"37.334091704","long":"127.2551781","imageIndex":13,"items":[{"name":"뷰티걸짱","tel":"031-321-5672","addr":"경기도 용인시 처인구 모현읍 왕산리 246번지","indutype":"보건위생 - 기타대인서비스","category":"beauty"},{"name":"헤어파티","tel":"031-338-5314","addr":"경기도 용인시 처인구 모현읍 왕산리 246번지 1층","indutype":"보건위생 - 미용원","category":"beauty"}]},{"lat":"37.33426498","long":"127.2499204","imageIndex":13,"items":[{"name":"블랙앤화이트","tel":"031-321-8504","addr":"경기도 용인시 처인구 모현읍 왕산리 811-2번지 102호","indutype":"보건위생 - 미용원","category":"beauty"}]},{"lat":"37.333705694","long":"127.25023451","imageIndex":13,"items":[{"name":"서영(태연심)미용실","tel":"031-7539-0017","addr":"경기도 용인시 처인구 모현읍 왕산리 476-1번지 (동양초록빌라상가N03호)","indutype":"보건위생 - 미용원","category":"beauty"}]},{"lat":"37.334012697","long":"127.24991957","imageIndex":13,"items":[{"name":"슈슈헤어","tel":"031-333-2626","addr":"경기도 용인시 처인구 모현읍 왕산리 431번지 1층 101호","indutype":"보건위생 - 미용원","category":"beauty"}]},{"lat":"37.343229841","long":"127.1796202","imageIndex":13,"items":[{"name":"써지웰코리아","tel":"070-4320-5040","addr":"경기도 용인시 처인구 모현읍 동림리 48-3번지 2층","indutype":"보건위생 - 의료용품","category":"beauty"}]},{"lat":"37.338840928","long":"127.23722896","imageIndex":13,"items":[{"name":"엔젤헤나","tel":"031-000-0000","addr":"경기도 용인시 처인구 모현읍 일산리 239-13번지","indutype":"보건위생 - 화장품","category":"beauty"}]},{"lat":"37.334925542","long":"127.25286768","imageIndex":13,"items":[{"name":"엠제이헤어샵(MJ)","tel":"031-322-1199","addr":"경기도 용인시 처인구 모현읍 왕산리 480-5번지","indutype":"보건위생 - 미용원","category":"beauty"}]},{"lat":"37.339151404","long":"127.26530604","imageIndex":13,"items":[{"name":"외대안경","tel":"031-334-9795","addr":"경기도 용인시 처인구 모현읍 왕산리 산55-4번지 (후생관3층)","indutype":"보건위생 - 안경","category":"beauty"}]},{"lat":"37.343367993","long":"127.17760047","imageIndex":13,"items":[{"name":"요술가위헤어라인","tel":"031-339-7346","addr":"경기도 용인시 처인구 모현읍 능원리16-7","indutype":"보건위생 - 미용원","category":"beauty"}]},{"lat":"37.335680863","long":"127.25359236","imageIndex":13,"items":[{"name":"쟁이헤어모드","tel":"031-336-4658","addr":"경기도 용인시 처인구 모현읍 왕산리 496-1번지","indutype":"보건위생 - 미용원","category":"beauty"}]},{"lat":"37.332870765","long":"127.24878746","imageIndex":13,"items":[{"name":"제이제이(J.J)헤어컷전문","tel":"031-338-0124","addr":"경기도 용인시 처인구 모현읍 왕산리 431-2번지 창진빌딩","indutype":"보건위생 - 미용원","category":"beauty"}]},{"lat":"37.33961848","long":"127.17228797","imageIndex":13,"items":[{"name":"주식회사 명품상사","tel":"031-335-7079","addr":"경기도 용인시 처인구 모현읍 능원리 150-1번지 모덕빌딩 1층 101호","indutype":"보건위생 - 기타대인서비스","category":"beauty"}]},{"lat":"37.33662466","long":"127.25039078","imageIndex":13,"items":[{"name":"주희미용실","tel":"031-334-7258","addr":"경기도 용인시 처인구 모현읍 왕산리 794-48번지","indutype":"보건위생 - 미용원","category":"beauty"}]},{"lat":"37.341704496","long":"127.17529447","imageIndex":13,"items":[{"name":"참네일","tel":"02-000-0000","addr":"경기도 용인시 처인구 모현읍 능원리 30-1번지 1층 일부","indutype":"보건위생 - 피부미용실","category":"beauty"}]},{"lat":"37.336564367","long":"127.24905904","imageIndex":13,"items":[{"name":"참누리화장품","tel":"031-322-5597","addr":"경기도 용인시 처인구 모현읍 왕산리 801-10번지","indutype":"보건위생 - 화장품","category":"beauty"}]},{"lat":"37.324567147","long":"127.17528916","imageIndex":13,"items":[{"name":"토마스클린","tel":"031-334-0780","addr":"경기도 용인시 처인구 모현읍 능원리 산 5-12","indutype":"보건위생 - 기타대인서비스","category":"beauty"}]},{"lat":"37.335126807","long":"127.25142399","imageIndex":13,"items":[{"name":"파파헤어","tel":"031-332-4999","addr":"경기도 용인시 처인구 모현읍 왕산리 500-3번지 영어교습소 101호","indutype":"보건위생 - 미용원","category":"beauty"}]},{"lat":"37.337118471","long":"127.24689426","imageIndex":13,"items":[{"name":"퍼플헤어","tel":"031-334-9093","addr":"경기도 용인시 처인구 모현읍 일산리112-67,1층4호","indutype":"보건위생 - 미용원","category":"beauty"}]},{"lat":"37.324262529","long":"127.24170792","imageIndex":13,"items":[{"name":"해솔","tel":"031-339-3892","addr":"경기도 용인시 처인구 모현읍 갈담리 347-2번지","indutype":"보건위생 - 기타대인서비스","category":"beauty"}]},{"lat":"37.330931314","long":"127.15328979","imageIndex":13,"items":[{"name":"행복한재단(준비위)","tel":"","addr":"경기도 용인시 처인구 모현읍 오산리 197-7번지","indutype":"보건위생 - 기타대인서비스","category":"beauty"}]},{"lat":"37.337985656","long":"127.25016955","imageIndex":13,"items":[{"name":"헤라","tel":"070-4640-1297","addr":"경기도 용인시 처인구 모현읍 왕산리 945-23번지 3층","indutype":"보건위생 - 기타대인서비스","category":"beauty"}]},{"lat":"37.333787539","long":"127.2498737","imageIndex":13,"items":[{"name":"헤어클럽","tel":"031-332-6427","addr":"경기도 용인시 처인구 모현읍 왕산리 431-1번지 1층(일부)","indutype":"보건위생 - 미용원","category":"beauty"}]},{"lat":"37.345118711","long":"127.24286865","imageIndex":13,"items":[{"name":"헬스원","tel":"070-7584-0349","addr":"경기도 용인시 처인구 모현읍 일산리 63-32번지","indutype":"보건위생 - 의료용품","category":"beauty"}]},{"lat":"37.336705042","long":"127.25072957","imageIndex":13,"items":[{"name":"현자현학","tel":"070-7617-4029","addr":"경기도 용인시 처인구 모현읍 왕산리 793-3번지 2층","indutype":"보건위생 - 기타대인서비스","category":"beauty"}]},{"lat":"37.343061082","long":"127.17798345","imageIndex":13,"items":[{"name":"황실","tel":"031-333-4839","addr":"경기도 용인시 처인구 모현읍 능원리 15-7번지 대우빌딩 2층 우측","indutype":"보건위생 - 기타대인서비스","category":"beauty"}]},{"lat":"37.339034832","long":"127.17087609","imageIndex":13,"items":[{"name":"효주헤어","tel":"031-335-1377","addr":"경기도 용인시 처인구 모현읍 능원리 129-1번지","indutype":"보건위생 - 미용원","category":"beauty"}]},{"lat":"37.332813519","long":"127.25458708","imageIndex":13,"items":[{"name":"훠에버영힐링플레이스 (For EVer Young","tel":"070-7018-5392","addr":"경기도 용인시 처인구 모현읍 왕산리 241-1번지 1동 B101호","indutype":"보건위생 - 기타대인서비스","category":"beauty"}]}]