[{"lat":"37.198051608","long":"127.09705697","imageIndex":16,"items":[{"name":"(주)클래식스타","tel":"031-375-0015","addr":"경기도 화성시 오산동 968-2번지 동탄역퍼스트프라자 1동 902호","indutype":"학원 - 기타 교육기관","category":"study"},{"name":"창의융합맞춤학원","tel":"031-375-3877","addr":"경기도 화성시 오산동 968-2번지 1동 501호","indutype":"학원 - 보습학원","category":"study"}]},{"lat":"37.181861408","long":"127.10607961","imageIndex":16,"items":[{"name":"강주연 개인과외","tel":"","addr":"경기도 화성시 오산동 1044번지 반도유보라아이비파크3 1810동 701호","indutype":"학원 - 기타 교육기관","category":"study"},{"name":"동탄 수달 수학교실","tel":"","addr":"경기도 화성시 오산동 1044번지 반도유보라아이비파크3 1808동 205호","indutype":"학원 - 기타 교육기관","category":"study"},{"name":"반도숲어린이집[아이행복]","tel":"031-378-0804","addr":"경기도 화성시 오산동 1044번지 반도유보라아이비파크3 1813동 104호","indutype":"학원 - 유아원","category":"study"},{"name":"반도한울어린이집[아이행복]","tel":"031-373-1186","addr":"경기도 화성시 오산동 1044번지 반도유보라아이비파크3 관리동","indutype":"학원 - 유아원","category":"study"},{"name":"에뜨왈어린이집[아이행복]","tel":"031-374-3121","addr":"경기도 화성시 오산동 1044번지 반도유보라아이비파크3 1802동 101호","indutype":"학원 - 유아원","category":"study"},{"name":"엘리트영어과외방","tel":"032-000-0000","addr":"경기도 화성시 오산동 1044번지 반도유보라아이비파크3 1806동 203호","indutype":"학원 - 기타 교육기관","category":"study"},{"name":"청담클루빌","tel":"031-373-3010","addr":"경기도 화성시 오산동 1044번지 반도유보라아이비파크3 1804동 102호","indutype":"학원 - 기타 교육기관","category":"study"},{"name":"청솔어린이집[아이행복]","tel":"031-8043-0332","addr":"경기도 화성시 오산동 1044번지 반도유보라3차 1804동 101호","indutype":"학원 - 유아원","category":"study"},{"name":"킹잉글리쉬","tel":"","addr":"경기도 화성시 오산동 1044번지 반도유보라아이비파크3 1803동 803호","indutype":"학원 - 기타 교육기관","category":"study"}]},{"lat":"37.188469779","long":"127.09022019","imageIndex":16,"items":[{"name":"개인과외","tel":"031-8043-3626","addr":"경기도 화성시 오산동 1001번지 동탄역더샵센트럴시티2차 1611동 903호","indutype":"학원 - 기타 교육기관","category":"study"},{"name":"능률영어포스코교실","tel":"031-1577-0551","addr":"경기도 화성시 오산동 1001번지 동탄역더샵센트럴시티2차 1617동 302호","indutype":"학원 - 기타 교육기관","category":"study"},{"name":"더샵꿈모아어린이집[아이행복]","tel":"031-372-2883","addr":"경기도 화성시 오산동 1001번지 동탄역더샵센트럴시티2차 1612동 103호","indutype":"학원 - 유아원","category":"study"},{"name":"비상잉글리시아이","tel":"","addr":"경기도 화성시 오산동 1001번지 동탄역더샵센트럴시티2차 1620동 403호","indutype":"학원 - 기타 교육기관","category":"study"},{"name":"시립더사랑어린이집[아이행복]","tel":"031-8077-9675","addr":"경기도 화성시 오산동 1001번지 동탄역더샵센트럴시티2차","indutype":"학원 - 유아원","category":"study"},{"name":"아소비 동탄포스코2차점","tel":"","addr":"경기도 화성시 오산동 1001번지 동탄역더샵센트럴시티2차 1620동 1402호","indutype":"학원 - 기타 교육기관","category":"study"},{"name":"헤럴드영어교실더샵2차점","tel":"","addr":"경기도 화성시 오산동 1001번지 동탄역더샵센트럴시티2차 1614동 2003호","indutype":"학원 - 기타 교육기관","category":"study"}]},{"lat":"37.187580335","long":"127.08663784","imageIndex":16,"items":[{"name":"경희대 LION STAR 태권도장","tel":"031-000-0000","addr":"경기도 화성시 오산동 997-3번지 동탄안강프라이빗에듀 404,405호","indutype":"학원 - 예·체능계학원","category":"study"},{"name":"루나피아노교습소","tel":"","addr":"경기도 화성시 오산동 997-3번지 동탄안강 프라이빗 에듀 403호 일부","indutype":"학원 - 예·체능계학원","category":"study"},{"name":"유니팝미술교습소","tel":"070-8737-7725","addr":"경기도 화성시 오산동 997-3번지 501호","indutype":"학원 - 예·체능계학원","category":"study"},{"name":"이산수학학원","tel":"","addr":"경기도 화성시 오산동 997-3번지 안강프라이빗에듀 701호,702호","indutype":"학원 - 보습학원","category":"study"}]},{"lat":"37.20211084","long":"127.09113704","imageIndex":16,"items":[{"name":"경희대 슈퍼키즈 태권도장","tel":"031-373-9075","addr":"경기도 화성시 오산동 973번지 동탄역반도유보라아이비파크8.0 207동 e110,e111호","indutype":"학원 - 예·체능계학원","category":"study"},{"name":"놀작마이아트혜윰아트센터미술교습소","tel":"","addr":"경기도 화성시 오산동 973번지 C-8블럭 카림에비뉴 207동 E114호","indutype":"학원 - 예·체능계학원","category":"study"},{"name":"동탄역반도어린이집[아이행복]","tel":"031-376-8879","addr":"경기도 화성시 오산동 973번지 동탄역반도유보라아이비파크8.0 관리동 어린이집","indutype":"학원 - 유아원","category":"study"},{"name":"리드인 논술 교습소","tel":"","addr":"경기도 화성시 오산동 973번지 동탄역 반도유보라 아이비파크 8.0 207동 215호","indutype":"학원 - 예·체능계학원","category":"study"},{"name":"모차르트음악학원","tel":"031-372-6175","addr":"경기도 화성시 오산동 973번지 동탄역반도유보라아이비파크8.0 ,E115,E116","indutype":"학원 - 예·체능계학원","category":"study"},{"name":"오감랭귀지어학원","tel":"031-375-0586","addr":"경기도 화성시 오산동 973번지 동탄역반도유보라아이비파크8.0 1층 E128~130호","indutype":"학원 - 외국어학원","category":"study"}]},{"lat":"37.180273814","long":"127.1080819","imageIndex":16,"items":[{"name":"금강꼬마별어린이집[아이행복]","tel":"031-8058-1335","addr":"경기도 화성시 오산동 1047번지 동탄2신도시금강펜테리움센트럴파크I 1822동 101호","indutype":"학원 - 유아원","category":"study"},{"name":"금강라온어린이집[아이행복]","tel":"031-378-0312","addr":"경기도 화성시 오산동 1047번지 금강펜테리움 센트럴파크 1차 관리동","indutype":"학원 - 유아원","category":"study"},{"name":"금강열매어린이집[아이행복]","tel":"","addr":"경기도 화성시 오산동 1047번지 동탄2신도시 금강펜테리움 센트럴파크1 1827동 104호","indutype":"학원 - 유아원","category":"study"},{"name":"비엔나피아노.수학","tel":"","addr":"경기도 화성시 오산동 1047번지 동탄2신도시금강펜테리움센트럴파크 1826동 302호","indutype":"학원 - 기타 교육기관","category":"study"},{"name":"아소비 금강1차점","tel":"","addr":"경기도 화성시 오산동 1047번지 동탄2신도시금강펜테리움센트럴파크I 1832동 502호","indutype":"학원 - 기타 교육기관","category":"study"},{"name":"애플트리 에듀홈","tel":"070-8841-0610","addr":"경기도 화성시 오산동 1047번지 동탄2신도시 금강펜테리움 센트럴파크I 1824동 102호","indutype":"학원 - 기타 교육기관","category":"study"},{"name":"이지연개인과외교습","tel":"031-378-5185","addr":"경기도 화성시 오산동 1047번지 금강펜테리움센트럴파크동탄 1833동 502호","indutype":"학원 - 기타 교육기관","category":"study"},{"name":"카이로스교실","tel":"","addr":"경기도 화성시 오산동 1047번지 동탄2신도시금강펜테리움센트럴파크I 1830동 202호","indutype":"학원 - 기타 교육기관","category":"study"}]},{"lat":"37.195055953","long":"127.0908022","imageIndex":16,"items":[{"name":"꿈나래어린이집[아이행복]","tel":"031-373-2589","addr":"경기도 화성시 오산동 988번지 동탄역반도유보라아이비파크5.0","indutype":"학원 - 유아원","category":"study"}]},{"lat":"37.197275787","long":"127.09821615","imageIndex":16,"items":[{"name":"노이음악학원","tel":"031-374-5279","addr":"경기도 화성시 오산동 969-3번지 우성KTX타워 605호","indutype":"학원 - 예·체능계학원","category":"study"},{"name":"다다름작업실미술학원","tel":"","addr":"경기도 화성시 오산동 969-3번지 우성KTX타워 804호","indutype":"학원 - 예·체능계학원","category":"study"},{"name":"더블유(W)학원","tel":"031-0000-0000","addr":"경기도 화성시 오산동 969-3번지 우성KTX타워 3층 301호","indutype":"학원 - 보습학원","category":"study"},{"name":"디이 (DE)어학원","tel":"02-372-4388","addr":"경기도 화성시 오산동 969-3번지 602호","indutype":"학원 - 외국어학원","category":"study"},{"name":"메가스터디엠베스트SE동탄역점학원","tel":"031-372-4913","addr":"경기도 화성시 오산동 969-3번지 우성KTX타워 706호 707호","indutype":"학원 - 보습학원","category":"study"},{"name":"바퀴달린그림책미술학원 동탄센터학원","tel":"031-8058-3479","addr":"경기도 화성시 오산동 969-3번지 우성KTX타워 507호","indutype":"학원 - 예·체능계학원","category":"study"},{"name":"아티아티미술학원","tel":"031-372-1489","addr":"경기도 화성시 오산동 969-3번지 우성KTX타워 902호","indutype":"학원 - 예·체능계학원","category":"study"},{"name":"와이키즈동탄2학원","tel":"031-831-8050","addr":"경기도 화성시 오산동 969-3번지 1101호","indutype":"학원 - 보습학원","category":"study"},{"name":"지엘스어학원","tel":"031-377-6007","addr":"경기도 화성시 오산동 969-3번지 우성케이티엑스타워 802호","indutype":"학원 - 외국어학원","category":"study"},{"name":"허쌤수학학원","tel":"031-372-6997","addr":"경기도 화성시 오산동 969-3번지 우성KTX타워 603호","indutype":"학원 - 보습학원","category":"study"},{"name":"홍익뷰미술학원","tel":"031-377-5426","addr":"경기도 화성시 오산동 969-3번지 우성KTX타워 905호","indutype":"학원 - 예·체능계학원","category":"study"}]},{"lat":"37.203608195","long":"127.08891969","imageIndex":16,"items":[{"name":"늘솜 피아노","tel":"","addr":"경기도 화성시 오산동 971번지 동탄역 반도유보라 아이비파크 7.0 102동 301호","indutype":"학원 - 기타 교육기관","category":"study"},{"name":"반도7차라온어린이집[아이행복]","tel":"031-8050-5235","addr":"경기도 화성시 오산동 971번지 동탄역반도유보라아이비파크7.0","indutype":"학원 - 유아원","category":"study"},{"name":"베이직 아동 발달센터","tel":"031-000-0000","addr":"경기도 화성시 오산동 971번지 동탄역반도유보라아이비파크7.0 105동 501호","indutype":"학원 - 기타 교육기관","category":"study"},{"name":"사비오(SABIO)펜싱클럽","tel":"031-378-5009","addr":"경기도 화성시 오산동 971번지 동탄역반도유보라아이비파크7.0 106동3층 315~317호","indutype":"학원 - 예·체능계학원","category":"study"},{"name":"수어울림사고력수학교습소","tel":"031-3308-2568","addr":"경기도 화성시 오산동 971번지 동탄역반도유보라아이비파크7.0 판매시설동 2층 W239호","indutype":"학원 - 보습학원","category":"study"}]},{"lat":"37.20186281","long":"127.09729825","imageIndex":16,"items":[{"name":"더영진아이티학원","tel":"031-8055-8883","addr":"경기도 화성시 오산동 1019번지 동탄라스플로레스 441호","indutype":"학원 - 컴퓨터학원","category":"study"},{"name":"아이러브밀가루","tel":"031-8043-7033","addr":"경기도 화성시 오산동 1019번지 라스플로레스 308호 307호,308호","indutype":"학원 - 기타 교육기관","category":"study"}]},{"lat":"37.195582412","long":"127.09749317","imageIndex":16,"items":[{"name":"더재즈스튜디오 피아노교습소","tel":"","addr":"경기도 화성시 오산동 1020번지 동탄역린스트라우스 상가동 3026호","indutype":"학원 - 예·체능계학원","category":"study"},{"name":"앨리스(Alice)영어교습소","tel":"031-8058-6775","addr":"경기도 화성시 오산동 1020번지 동탄역린스트라우스 2008호","indutype":"학원 - 외국어학원","category":"study"},{"name":"우미린어린이집[아이행복]","tel":"070-7625-7625","addr":"경기도 화성시 오산동 1020번지 동탄역린스트라우스 관리동","indutype":"학원 - 유아원","category":"study"}]},{"lat":"37.186137016","long":"127.08894492","imageIndex":16,"items":[{"name":"도유어린이집[아이행복]","tel":"031-373-7581","addr":"경기도 화성시 오산동 1018번지 남해오네뜨더테라스 1711동 101호","indutype":"학원 - 유아원","category":"study"}]},{"lat":"37.18355311","long":"127.10863826","imageIndex":16,"items":[{"name":"동탄주니어풋볼클럽","tel":"031-373-7013","addr":"경기도 화성시 오산동 1040-4번지 리더스뷰프라자 5층 506,507호","indutype":"학원 - 예·체능계학원","category":"study"},{"name":"뤼미에르발레스쿨학원","tel":"031-375-4770","addr":"경기도 화성시 오산동 1040-4번지 401호","indutype":"학원 - 예·체능계학원","category":"study"},{"name":"비욘드잉글리쉬어학원","tel":"031-372-0579","addr":"경기도 화성시 오산동 1040-4번지 406호","indutype":"학원 - 외국어학원","category":"study"},{"name":"아이스타줄넘기클럽","tel":"","addr":"경기도 화성시 오산동 1040-4번지 제2층 206,207호","indutype":"학원 - 예·체능계학원","category":"study"},{"name":"아이원언어발달센터 (동탄2신도시점)","tel":"031-377-3538","addr":"경기도 화성시 오산동 1040-4번지 409, 410호","indutype":"학원 - 기타 교육기관","category":"study"},{"name":"영재들의미술상자","tel":"070-8031-4038","addr":"경기도 화성시 오산동 1040-4번지 503호","indutype":"학원 - 예·체능계학원","category":"study"},{"name":"줄리어드음악학원","tel":"031-374-2468","addr":"경기도 화성시 오산동 1040-4번지 501호","indutype":"학원 - 예·체능계학원","category":"study"},{"name":"클래스미술학원","tel":"031-377-8177","addr":"경기도 화성시 오산동 1040-4번지 리더스뷰프라자 403호","indutype":"학원 - 예·체능계학원","category":"study"}]},{"lat":"37.188775574","long":"127.09097511","imageIndex":16,"items":[{"name":"동탄초병설유치원[아이행복]","tel":"031-378-4763","addr":"경기도 화성시 오산동 1005번지 동탄초등학교","indutype":"학원 - 유치원","category":"study"}]},{"lat":"37.197104987","long":"127.09772034","imageIndex":16,"items":[{"name":"동탄최강학원","tel":"031-372-7077","addr":"경기도 화성시 오산동 969-4번지 신유메디프라자 510호","indutype":"학원 - 외국어학원","category":"study"},{"name":"유씨(UC)어학원","tel":"","addr":"경기도 화성시 오산동 969-4번지 603,604호","indutype":"학원 - 외국어학원","category":"study"},{"name":"최용훈국어전문학원","tel":"031-377-3731","addr":"경기도 화성시 오산동 969-4번지 508호","indutype":"학원 - 보습학원","category":"study"},{"name":"크리에듀학원","tel":"031-375-7913","addr":"경기도 화성시 오산동 969-4번지 신유메디프라자 605호","indutype":"학원 - 보습학원","category":"study"}]},{"lat":"37.190442212","long":"127.09135997","imageIndex":16,"items":[{"name":"따스한햇살어린이집[아이행복]","tel":"031-375-7952","addr":"경기도 화성시 오산동 964 풍성신미주@ 관리동 1층","indutype":"학원 - 유아원","category":"study"}]},{"lat":"37.197493384","long":"127.09652689","imageIndex":16,"items":[{"name":"맹드라이브동탄실내운전연습장","tel":"031-373-2860","addr":"경기도 화성시 오산동 968-6번지 동탄역윤장프라자 1동 5층 506호","indutype":"학원 - 기능학원","category":"study"}]},{"lat":"37.203804648","long":"127.09133051","imageIndex":16,"items":[{"name":"반도다누리어린이집[아이행복]","tel":"031-376-0828","addr":"경기도 화성시 오산동 972번지 동탄역반도유보라 아이비파크6.0관리동","indutype":"학원 - 유아원","category":"study"},{"name":"앨리스 펀 몬테소리","tel":"","addr":"경기도 화성시 오산동 972번지 동탄역반도유보라아이비파크6.0 806동 2층 4호","indutype":"학원 - 기타 교육기관","category":"study"}]},{"lat":"37.189445408","long":"127.08675252","imageIndex":16,"items":[{"name":"새론어린이집[아이행복]","tel":"031-377-9788","addr":"경기도 화성시 오산동 993번지 동탄2신도시에일린의뜰 1605동 102호","indutype":"학원 - 유아원","category":"study"},{"name":"에일린빅스맘어린이집[아이행복]","tel":"031-373-7275","addr":"경기도 화성시 오산동 993번지 동탄2신도시에일린의뜰","indutype":"학원 - 유아원","category":"study"}]},{"lat":"37.188301848","long":"127.08567009","imageIndex":16,"items":[{"name":"슈퍼키즈 발레 학원","tel":"","addr":"경기도 화성시 오산동 995-1번지 지스타프라자2 604,605호","indutype":"학원 - 예·체능계학원","category":"study"},{"name":"슈퍼키즈(super kids)","tel":"031-377-9917","addr":"경기도 화성시 오산동 995-1번지 지스타프라자ll 6,7층 전체호","indutype":"학원 - 기타 교육기관","category":"study"}]},{"lat":"37.186468357","long":"127.09171572","imageIndex":16,"items":[{"name":"시립동탄행복어린이집[아이행복]","tel":"031-377-8501","addr":"경기도 화성시 오산동 1017번지 LH행복주택","indutype":"학원 - 유아원","category":"study"}]},{"lat":"37.197717694","long":"127.09772111","imageIndex":16,"items":[{"name":"아가솜 모유 육아상담실","tel":"031-372-2103","addr":"경기도 화성시 오산동 969-6번지 GTX광장프라자2 1308호","indutype":"학원 - 기타 교육기관","category":"study"}]},{"lat":"37.183418993","long":"127.10746689","imageIndex":16,"items":[{"name":"아름다운아이들학원","tel":"031-663-0447","addr":"경기도 화성시 오산동 1040-1번지 5층 504호","indutype":"학원 - 보습학원","category":"study"}]},{"lat":"37.185162167","long":"127.10263803","imageIndex":16,"items":[{"name":"왕배태권도장","tel":"031-373-9075","addr":"경기도 화성시 오산동 1031-3번지 1층 101호","indutype":"학원 - 예·체능계학원","category":"study"}]},{"lat":"37.197772706","long":"127.09652724","imageIndex":16,"items":[{"name":"주식회사 헬로스마일 동탄점","tel":"031-375-5412","addr":"경기도 화성시 오산동 968-7번지 301호","indutype":"학원 - 기타 교육기관","category":"study"}]},{"lat":"37.185967057","long":"127.08722167","imageIndex":16,"items":[{"name":"중흥미소어린이집[아이행복]","tel":"031-8043-1355","addr":"경기도 화성시 오산동 1011번지 중흥S-클래스 1701동 101호","indutype":"학원 - 유아원","category":"study"}]},{"lat":"37.180501773","long":"127.10499671","imageIndex":16,"items":[{"name":"토브예술문화원","tel":"031-374-3144","addr":"경기도 화성시 오산동 1048번지 3층","indutype":"학원 - 예·체능계학원","category":"study"}]}]