[{"lat":"37.34462171","long":"127.1767118","imageIndex":13,"items":[{"name":"(몽뜨레솔)Montresor","tel":"070-7794-7981","addr":"경기도 광주시 오포읍 능평리 168-8번지 2층 205호","indutype":"보건위생 - 화장품","category":"beauty"}]},{"lat":"37.34581876","long":"127.1775949","imageIndex":13,"items":[{"name":"Hair House","tel":"031-731-1712","addr":"경기도 광주시 오포읍 능평리 141-2번지","indutype":"보건위생 - 미용원","category":"beauty"}]},{"lat":"37.34573042","long":"127.1763984","imageIndex":13,"items":[{"name":"K-HAIR","tel":"031-765-1300","addr":"경기도 광주시 오포읍 능평리 174-33","indutype":"보건위생 - 미용원","category":"beauty"}]},{"lat":"37.35364264","long":"127.1626806","imageIndex":13,"items":[{"name":"가래가미","tel":"031-726-1755","addr":"경기도 광주시 오포읍 능평리 463-1번지 오포현대아파트 1층 101호","indutype":"보건위생 - 미용원","category":"beauty"}]},{"lat":"37.34546726","long":"127.1650106","imageIndex":13,"items":[{"name":"꼴로랑뜨 메이크업(colorant makeup)","tel":"02-955-3355","addr":"경기도 광주시 오포읍 능평리 294-3번지 더스토리 4동 301호","indutype":"보건위생 - 미용원","category":"beauty"}]},{"lat":"37.35095361","long":"127.1656206","imageIndex":13,"items":[{"name":"끌림헤어","tel":"031-712-3746","addr":"경기도 광주시 오포읍 능평리 335-1번지 103호","indutype":"보건위생 - 미용원","category":"beauty"},{"name":"도미토리","tel":"070-7078-4488","addr":"경기도 광주시 오포읍 능평리 335-1번지","indutype":"보건위생 - 피부미용실","category":"beauty"}]},{"lat":"37.35009425","long":"127.1680679","imageIndex":13,"items":[{"name":"네일드로잉","tel":"031-733-6486","addr":"경기도 광주시 오포읍 능평리 268-7번지 1층","indutype":"보건위생 - 피부미용실","category":"beauty"}]},{"lat":"37.35456013","long":"127.1638225","imageIndex":13,"items":[{"name":"네일샵(NAIL#)","tel":"031-604-4256","addr":"경기도 광주시 오포읍 능평리 458-4번지 1층 104호","indutype":"보건위생 - 피부미용실","category":"beauty"},{"name":"빽싸롱","tel":"031-715-1720","addr":"경기도 광주시 오포읍 능평리 458-4번지 1층 107호","indutype":"보건위생 - 미용원","category":"beauty"}]},{"lat":"37.34376314","long":"127.1784816","imageIndex":13,"items":[{"name":"능평헤어이용타운","tel":"031-765-1749","addr":"경기도 광주시 오포읍 능평리 152-23번지 1층","indutype":"보건위생 - 이용원","category":"beauty"}]},{"lat":"37.35790224","long":"127.1707714","imageIndex":13,"items":[{"name":"더 바른","tel":"","addr":"경기도 광주시 오포읍 능평리 372-4번지 부강타운 A동 202호","indutype":"보건위생 - 화장품","category":"beauty"}]},{"lat":"37.34512301","long":"127.1789249","imageIndex":13,"items":[{"name":"도담도담산후도우미 광주점","tel":"031-701-7237","addr":"경기도 광주시 오포읍 능평리 155-1번지 1동 103호","indutype":"보건위생 - 기타대인서비스","category":"beauty"}]},{"lat":"37.35123337","long":"127.1652939","imageIndex":13,"items":[{"name":"도안헤어샵","tel":"031-749-7772","addr":"경기도 광주시 오포읍 능평리 336-3번지 101호","indutype":"보건위생 - 미용원","category":"beauty"}]},{"lat":"37.34987144","long":"127.172706","imageIndex":13,"items":[{"name":"두피카페(분당점)","tel":"031-715-6390","addr":"경기도 광주시 오포읍 능평리 202-4번지 창뜰빌 101호","indutype":"보건위생 - 미용원","category":"beauty"}]},{"lat":"37.35244986","long":"127.1652062","imageIndex":13,"items":[{"name":"라라네일(LALA NAIL)","tel":"","addr":"경기도 광주시 오포읍 능평리 340-24번지 더베일리하우스 302동 B103호","indutype":"보건위생 - 피부미용실","category":"beauty"},{"name":"헤어룸 프린지","tel":"031-714-5717","addr":"경기도 광주시 오포읍 능평리 340-24번지 더베일리하우스 302동 B102호","indutype":"보건위생 - 미용원","category":"beauty"}]},{"lat":"37.34831828","long":"127.1811557","imageIndex":13,"items":[{"name":"릿따 스타일","tel":"031-767-8137","addr":"경기도 광주시 오포읍 능평리 123-10번지 1층","indutype":"보건위생 - 미용원","category":"beauty"},{"name":"피부점검#","tel":"031-1111-1111","addr":"경기도 광주시 오포읍 능평리 123-10번지 2층","indutype":"보건위생 - 피부미용실","category":"beauty"}]},{"lat":"37.3572542","long":"127.1637944","imageIndex":13,"items":[{"name":"마당발365","tel":"070-4110-7219","addr":"경기도 광주시 오포읍 능평리 435-4번지 지층","indutype":"보건위생 - 피부미용실","category":"beauty"}]},{"lat":"37.35050314","long":"127.172019","imageIndex":13,"items":[{"name":"마미핸디(MOMMY-HANDY)","tel":"070-8954-1751","addr":"경기도 광주시 오포읍 능평리 259번지 베아누빌 A동 401호","indutype":"보건위생 - 화장품","category":"beauty"}]},{"lat":"37.34361822","long":"127.1789891","imageIndex":13,"items":[{"name":"마음수련","tel":"070-9144-2497","addr":"경기도 광주시 오포읍 능평리 152-5번지 한산빌딩 4층","indutype":"보건위생 - 기타대인서비스","category":"beauty"},{"name":"윤헤어","tel":"031-781-8884","addr":"경기도 광주시 오포읍 능평리 152-5번지","indutype":"보건위생 - 미용원","category":"beauty"}]},{"lat":"37.34517961","long":"127.1772097","imageIndex":13,"items":[{"name":"멋진남자","tel":"070-4417-7890","addr":"경기도 광주시 오포읍 능평리 166-10번지","indutype":"보건위생 - 이용원","category":"beauty"},{"name":"옥토의료기","tel":"031-716-5133","addr":"경기도 광주시 오포읍 능평리 166-10번지 B동 101호","indutype":"보건위생 - 의료용품","category":"beauty"}]},{"lat":"37.3568959","long":"127.1687939","imageIndex":13,"items":[{"name":"목욕탕내남자세신(중앙스파월드)","tel":"031-726-7116","addr":"경기도 광주시 오포읍 능평리 366-1번지","indutype":"보건위생 - 기타대인서비스","category":"beauty"},{"name":"중앙 스파월드 사우나 이용원","tel":"02-111-1111","addr":"경기도 광주시 오포읍 능평리 366-1번지","indutype":"보건위생 - 이용원","category":"beauty"},{"name":"중앙세신","tel":"031-726-7116","addr":"경기도 광주시 오포읍 능평리 366-1번지 2층 여탕 세신실","indutype":"보건위생 - 기타대인서비스","category":"beauty"}]},{"lat":"37.3575057","long":"127.1643706","imageIndex":13,"items":[{"name":"박찬웅 헤어러빙","tel":"031-714-0956","addr":"경기도 광주시 오포읍 능평리 427-10번지 어반하우스 A동 101호","indutype":"보건위생 - 미용원","category":"beauty"}]},{"lat":"37.35250562","long":"127.1639648","imageIndex":13,"items":[{"name":"벨루스네일","tel":"031-726-3118","addr":"경기도 광주시 오포읍 능평리 338-5번지 지1층","indutype":"보건위생 - 피부미용실","category":"beauty"}]},{"lat":"37.34583952","long":"127.1757328","imageIndex":13,"items":[{"name":"보라안경(능평점)","tel":"031-766-1100","addr":"경기도 광주시 오포읍 능평리 174-4번지","indutype":"보건위생 - 안경","category":"beauty"}]},{"lat":"37.34923274","long":"127.1588791","imageIndex":13,"items":[{"name":"볼륨헤어샵","tel":"031-706-8872","addr":"경기도 광주시 오포읍 능평리 564-1번지 (외2필지복정힐하우스A동지하1호)","indutype":"보건위생 - 미용원","category":"beauty"}]},{"lat":"37.34970016","long":"127.1527629","imageIndex":13,"items":[{"name":"셀루스건강생활(주)","tel":"031-783-7778","addr":"경기도 광주시 오포읍 능평리 612번지 힐하우스 가동 3층","indutype":"보건위생 - 화장품","category":"beauty"}]},{"lat":"37.35453265","long":"127.1641497","imageIndex":13,"items":[{"name":"아리헤어","tel":"031-726-3419","addr":"경기도 광주시 오포읍 능평리 457번지","indutype":"보건위생 - 미용원","category":"beauty"}]},{"lat":"37.35709137","long":"127.1642681","imageIndex":13,"items":[{"name":"연하","tel":"031-726-2476","addr":"경기도 광주시 오포읍 능평리 420-4번지","indutype":"보건위생 - 화장품","category":"beauty"}]},{"lat":"37.35179047","long":"127.1597534","imageIndex":13,"items":[{"name":"연하콜대리운전","tel":"031-321-5088","addr":"경기도 광주시 오포읍 능평리 511-10번지 롯데파크힐 101동 101호","indutype":"보건위생 - 기타대인서비스","category":"beauty"}]},{"lat":"37.34473089","long":"127.1759898","imageIndex":13,"items":[{"name":"오포그랜드사우나","tel":"031-765-4567","addr":"경기도 광주시 오포읍 능평리 169-1번지","indutype":"보건위생 - 사우나","category":"beauty"}]},{"lat":"37.34444991","long":"127.177129","imageIndex":13,"items":[{"name":"원하는 헤어","tel":"031-768-0544","addr":"경기도 광주시 오포읍 능평리 168-6번지 1층 101호","indutype":"보건위생 - 미용원","category":"beauty"}]},{"lat":"37.35134108","long":"127.1655989","imageIndex":13,"items":[{"name":"은혜로헤어","tel":"031-726-0436","addr":"경기도 광주시 오포읍 능평리 336-8번지 소망지산빌리지","indutype":"보건위생 - 미용원","category":"beauty"}]},{"lat":"37.35092422","long":"127.1673248","imageIndex":13,"items":[{"name":"젤자레헤어샵","tel":"031-712-2931","addr":"경기도 광주시 오포읍 능평리 242-1번지 지1층","indutype":"보건위생 - 미용원","category":"beauty"}]},{"lat":"37.34745239","long":"127.1560765","imageIndex":13,"items":[{"name":"주식회사한의사랑","tel":"0000-1644-1240","addr":"경기도 광주시 오포읍 능평리 549번지","indutype":"보건위생 - 의료용품","category":"beauty"}]},{"lat":"37.35434336","long":"127.1642058","imageIndex":13,"items":[{"name":"쭈헤어샵","tel":"","addr":"경기도 광주시 오포읍 능평리 452-1번지 1층","indutype":"보건위생 - 미용원","category":"beauty"}]},{"lat":"37.34601132","long":"127.1753156","imageIndex":13,"items":[{"name":"챠밍헤어","tel":"031-1111-1111","addr":"경기도 광주시 오포읍 능평리 174-5번지 5호","indutype":"보건위생 - 미용원","category":"beauty"}]},{"lat":"37.34389762","long":"127.1789334","imageIndex":13,"items":[{"name":"컬러헤어","tel":"031-767-9340","addr":"경기도 광주시 오포읍 능평리 152-20번지","indutype":"보건위생 - 미용원","category":"beauty"}]},{"lat":"37.35636574","long":"127.1677656","imageIndex":13,"items":[{"name":"케어셀라오포점","tel":"031-716-3927","addr":"경기도 광주시 오포읍 능평리 359-3번지 G동 1층 1호","indutype":"보건위생 - 화장품","category":"beauty"}]},{"lat":"37.34912093","long":"127.1616552","imageIndex":13,"items":[{"name":"크렘(creme)","tel":"000-000-0000","addr":"경기도 광주시 오포읍 능평리 326-8번지 한국텐즈힐 106동 2층 02호","indutype":"보건위생 - 화장품","category":"beauty"}]},{"lat":"37.3569521","long":"127.1672589","imageIndex":13,"items":[{"name":"클라우썸헤어","tel":"","addr":"경기도 광주시 오포읍 능평리 354번지 1층 102호","indutype":"보건위생 - 미용원","category":"beauty"}]},{"lat":"37.3482298","long":"127.1676011","imageIndex":13,"items":[{"name":"핀란디아","tel":"031-715-1144","addr":"경기도 광주시 오포읍 능평리 315","indutype":"보건위생 - 사우나","category":"beauty"}]},{"lat":"37.34400525","long":"127.1792609","imageIndex":13,"items":[{"name":"화장품BYC전문점","tel":"031-766-4905","addr":"경기도 광주시 오포읍 능평리 152-1번지","indutype":"보건위생 - 화장품","category":"beauty"}]}]