[{"lat":"37.743675459","long":"126.80514793","imageIndex":16,"items":[{"name":"Grace J Piano학원","tel":"070-8745-4410","addr":"경기도 파주시 조리읍 봉일천리 163번지","indutype":"학원 - 예·체능계학원","category":"study"},{"name":"예원아이 어린이집[아이행복]","tel":"031-948-9048","addr":"경기도 파주시 조리읍 봉일천리 163번지","indutype":"학원 - 유아원","category":"study"}]},{"lat":"37.745430326","long":"126.80937533","imageIndex":16,"items":[{"name":"KELS ENGLISH학원","tel":"031-947-0554","addr":"경기도 파주시 조리읍 봉일천리 237-2번지 미림아파트","indutype":"학원 - 보습학원","category":"study"}]},{"lat":"37.743455863","long":"126.80854089","imageIndex":16,"items":[{"name":"강일학원","tel":"031-948-0849","addr":"경기도 파주시 조리읍 봉일천리 210-20번지","indutype":"학원 - 보습학원","category":"study"}]},{"lat":"37.746810692","long":"126.8105404","imageIndex":16,"items":[{"name":"경희대석사태권도","tel":"031-942-9430","addr":"경기도 파주시 조리읍 봉일천리 262-23번지 태형미림아파트","indutype":"학원 - 예·체능계학원","category":"study"}]},{"lat":"37.742344233","long":"126.80645621","imageIndex":16,"items":[{"name":"관인소리샘음악학원","tel":"031-942-5586","addr":"경기도 파주시 조리읍 봉일천리 156-1번지 성원상가 2층","indutype":"학원 - 예·체능계학원","category":"study"}]},{"lat":"37.747555897","long":"126.80896133","imageIndex":16,"items":[{"name":"그라시아무용전문학원","tel":"","addr":"경기도 파주시 조리읍 봉일천리 269번지 파주푸르지오아파트","indutype":"학원 - 예·체능계학원","category":"study"},{"name":"알투오학원","tel":"031-947-4778","addr":"경기도 파주시 조리읍 봉일천리 269번지 파주푸르지오아파트","indutype":"학원 - 보습학원","category":"study"},{"name":"용인대 한울태권도장","tel":"031-941-9666","addr":"경기도 파주시 조리읍 봉일천리 269번지 파주푸르지오아파트","indutype":"학원 - 예·체능계학원","category":"study"},{"name":"피아노랑 음악학원","tel":"031-0000-0000","addr":"경기도 파주시 조리읍 봉일천리 269번지 파주푸르지오아파트","indutype":"학원 - 예·체능계학원","category":"study"},{"name":"하늘채밤비니[아이행복]","tel":"031-942-1663","addr":"경기도 파주시 조리읍 봉일천리 269번지 파주푸르지오아파트","indutype":"학원 - 유아원","category":"study"}]},{"lat":"37.74749726","long":"126.81167326","imageIndex":16,"items":[{"name":"꼬꼬마별어린이집[아이행복]","tel":"031-946-5950","addr":"경기도 파주시 조리읍 봉일천리 262번지 태형내산마을아파트","indutype":"학원 - 유아원","category":"study"}]},{"lat":"37.743262204","long":"126.81132109","imageIndex":16,"items":[{"name":"꼬마궁전 어린이집[아이행복]","tel":"031-948-6748","addr":"경기도 파주시 조리읍 봉일천리 125-22번지 성호아파트","indutype":"학원 - 유아원","category":"study"}]},{"lat":"37.746035375","long":"126.81023606","imageIndex":16,"items":[{"name":"꿈샘음악학원","tel":"031-945-5548","addr":"경기도 파주시 조리읍 봉일천리 237-5번지","indutype":"학원 - 예·체능계학원","category":"study"},{"name":"창의버스미술놀이터교습소","tel":"031-947-1038","addr":"경기도 파주시 조리읍 봉일천리 237-5번지","indutype":"학원 - 예·체능계학원","category":"study"}]},{"lat":"37.744400718","long":"126.80784632","imageIndex":16,"items":[{"name":"네오아이포시즌학원","tel":"031-941-6049","addr":"경기도 파주시 조리읍 봉일천리 207번지","indutype":"학원 - 기타 교육기관","category":"study"},{"name":"봉일천GnB영어학원","tel":"031-949-7905","addr":"경기도 파주시 조리읍 봉일천리 207번지","indutype":"학원 - 컴퓨터학원","category":"study"},{"name":"아트&하트미술학원","tel":"070-4102-2058","addr":"경기도 파주시 조리읍 봉일천리 207번지","indutype":"학원 - 예·체능계학원","category":"study"},{"name":"정훈 태권도 체육관","tel":"031-941-7395","addr":"경기도 파주시 조리읍 봉일천리 207번지","indutype":"학원 - 예·체능계학원","category":"study"}]},{"lat":"37.74370708","long":"126.80790487","imageIndex":16,"items":[{"name":"대성연세학원","tel":"031-942-0065","addr":"경기도 파주시 조리읍 봉일천리 205-5번지","indutype":"학원 - 보습학원","category":"study"}]},{"lat":"37.743202172","long":"126.80767928","imageIndex":16,"items":[{"name":"대치이룸학원","tel":"031-945-4329","addr":"경기도 파주시 조리읍 봉일천리 208-10번지","indutype":"학원 - 보습학원","category":"study"}]},{"lat":"37.744478103","long":"126.80562233","imageIndex":16,"items":[{"name":"라파 영어 공부방","tel":"02-000-0000","addr":"경기도 파주시 조리읍 봉일천리 189-8번지","indutype":"학원 - 기타 교육기관","category":"study"}]},{"lat":"37.743093964","long":"126.80762284","imageIndex":16,"items":[{"name":"루트엠수학교습소","tel":"070-4229-1663","addr":"경기도 파주시 조리읍 봉일천리 154-1번지","indutype":"회원제형태 - 학원","category":"study"}]},{"lat":"37.743338619","long":"126.81400982","imageIndex":16,"items":[{"name":"리틀바움어린이집[아이행복]","tel":"070-7576-0581","addr":"경기도 파주시 조리읍 봉일천리 301번지 효성해링턴플레이스","indutype":"학원 - 유아원","category":"study"}]},{"lat":"37.744313222","long":"126.80942362","imageIndex":16,"items":[{"name":"마이샘독서실","tel":"031-948-6255","addr":"경기도 파주시 조리읍 봉일천리 210-56번지","indutype":"학원 - 독서실","category":"study"}]},{"lat":"37.744090409","long":"126.80545317","imageIndex":16,"items":[{"name":"맑은가람창의사고력학원","tel":"070-7803-4990","addr":"경기도 파주시 조리읍 봉일천리 203-21번지","indutype":"학원 - 보습학원","category":"study"}]},{"lat":"37.746590177","long":"126.80793135","imageIndex":16,"items":[{"name":"뮤엠영어교습소","tel":"031-947-5725","addr":"경기도 파주시 조리읍 봉일천리 183-22번지","indutype":"학원 - 보습학원","category":"study"}]},{"lat":"37.744651592","long":"126.80700607","imageIndex":16,"items":[{"name":"봉일천초등학교병설유치원[아이행복]","tel":"031-941-4015","addr":"경기도 파주시 조리읍 봉일천리 191-6번지","indutype":"학원 - 유치원","category":"study"}]},{"lat":"37.744038682","long":"126.80684884","imageIndex":16,"items":[{"name":"봉일천하합기도","tel":"031-946-6315","addr":"경기도 파주시 조리읍 봉일천리 203-11번지","indutype":"학원 - 예·체능계학원","category":"study"},{"name":"사랑음악학원","tel":"031-941-5131","addr":"경기도 파주시 조리읍 봉일천리 203-11번지","indutype":"학원 - 예·체능계학원","category":"study"},{"name":"탑에듀학원","tel":"031-942-2123","addr":"경기도 파주시 조리읍 봉일천리 203-11번지","indutype":"학원 - 기타 교육기관","category":"study"}]},{"lat":"37.742101071","long":"126.80651358","imageIndex":16,"items":[{"name":"세움어린이집[아이행복]","tel":"070-4150-8872","addr":"경기도 파주시 조리읍 봉일천리 156-1번지 성원아파트","indutype":"학원 - 유아원","category":"study"},{"name":"케이씨제이 스포츠","tel":"","addr":"경기도 파주시 조리읍 봉일천리 156-1번지 성원아파트","indutype":"학원 - 기타 교육기관","category":"study"}]},{"lat":"37.743787602","long":"126.80756429","imageIndex":16,"items":[{"name":"수학세상수학교습소","tel":"031-939-8959","addr":"경기도 파주시 조리읍 봉일천리 205-15번지","indutype":"회원제형태 - 학원","category":"study"},{"name":"율몽음악교습소","tel":"031-974-0697","addr":"경기도 파주시 조리읍 봉일천리 205-15번지","indutype":"학원 - 예·체능계학원","category":"study"}]},{"lat":"37.742342831","long":"126.80561665","imageIndex":16,"items":[{"name":"슈만앤클라라","tel":"031-948-0055","addr":"경기도 파주시 조리읍 봉일천리 157-14번지","indutype":"학원 - 예·체능계학원","category":"study"}]},{"lat":"37.743262692","long":"126.80614745","imageIndex":16,"items":[{"name":"신동음악학원","tel":"031-941-9405","addr":"경기도 파주시 조리읍 봉일천리 165-7번지","indutype":"학원 - 예·체능계학원","category":"study"},{"name":"학교교과교습학원","tel":"031-941-1366","addr":"경기도 파주시 조리읍 봉일천리 165-7번지","indutype":"학원 - 예·체능계학원","category":"study"}]},{"lat":"37.746522814","long":"126.81080211","imageIndex":16,"items":[{"name":"아소비봉일천점","tel":"070-7562-5370","addr":"경기도 파주시 조리읍 봉일천리 237-3번지 윤창아파트","indutype":"학원 - 기타 교육기관","category":"study"}]},{"lat":"37.74747721","long":"126.81042521","imageIndex":16,"items":[{"name":"아이조은 어린이집[아이행복]","tel":"031-948-1007","addr":"경기도 파주시 조리읍 봉일천리 258-17번지","indutype":"학원 - 유아원","category":"study"}]},{"lat":"37.735581463","long":"126.82565767","imageIndex":16,"items":[{"name":"아이키즈","tel":"","addr":"경기도 파주시 조리읍 봉일천리 13-15번지 송촌토파즈아파트","indutype":"학원 - 기타 교육기관","category":"study"}]},{"lat":"37.735760937","long":"126.82518077","imageIndex":16,"items":[{"name":"아해뜰어린이집[아이행복]","tel":"031-0000-0000","addr":"경기도 파주시 조리읍 봉일천리 13-15번지 송촌토파즈아파트","indutype":"학원 - 유아원","category":"study"}]},{"lat":"37.747133457","long":"126.80957513","imageIndex":16,"items":[{"name":"완(WAN) 수학","tel":"","addr":"경기도 파주시 조리읍 봉일천리 269번지 파주푸르지오아파트","indutype":"학원 - 기타 교육기관","category":"study"}]},{"lat":"37.746591862","long":"126.8089525","imageIndex":16,"items":[{"name":"유림방과후어린이집[아이행복]","tel":"031-941-9444","addr":"경기도 파주시 조리읍 봉일천리 266-18번지","indutype":"학원 - 유아원","category":"study"},{"name":"유림어린이집[아이행복]","tel":"031-941-9444","addr":"경기도 파주시 조리읍 봉일천리 266-18번지","indutype":"학원 - 유아원","category":"study"}]},{"lat":"37.743733093","long":"126.80729213","imageIndex":16,"items":[{"name":"윤선생 우리집앞 영어교실 상명학원","tel":"031-941-8191","addr":"경기도 파주시 조리읍 봉일천리 160-36번지","indutype":"학원 - 기타 교육기관","category":"study"}]},{"lat":"37.74511622","long":"126.81012498","imageIndex":16,"items":[{"name":"정성학원","tel":"031-957-5542","addr":"경기도 파주시 조리읍 봉일천리 221-9번지","indutype":"학원 - 보습학원","category":"study"}]},{"lat":"37.744041518","long":"126.80856205","imageIndex":16,"items":[{"name":"정철어학원주니어봉일천캠퍼스학원","tel":"031-948-1913","addr":"경기도 파주시 조리읍 봉일천리 210-18번지","indutype":"회원제형태 - 학원","category":"study"},{"name":"합기도검무관","tel":"031-946-1414","addr":"경기도 파주시 조리읍 봉일천리 210-18번지","indutype":"학원 - 예·체능계학원","category":"study"}]},{"lat":"37.74386865","long":"126.80754138","imageIndex":16,"items":[{"name":"제이브이학원","tel":"031-946-1617","addr":"경기도 파주시 조리읍 봉일천리 205-14번지","indutype":"학원 - 보습학원","category":"study"}]},{"lat":"37.743564295","long":"126.80873348","imageIndex":16,"items":[{"name":"제이지 댄스 스튜디오(Jz Dance studio)","tel":"031-941-8284","addr":"경기도 파주시 조리읍 봉일천리 210-16번지","indutype":"학원 - 예·체능계학원","category":"study"}]},{"lat":"37.747347425","long":"126.80820167","imageIndex":16,"items":[{"name":"참소망어린이집[아이행복]","tel":"031-946-5146","addr":"경기도 파주시 조리읍 봉일천리 269번지 파주푸르지오아파트","indutype":"학원 - 유아원","category":"study"}]},{"lat":"37.742482275","long":"126.80820307","imageIndex":16,"items":[{"name":"초코렛어린이집[아이행복]","tel":"031-949-7171","addr":"경기도 파주시 조리읍 봉일천리 142-29번지","indutype":"학원 - 유아원","category":"study"}]},{"lat":"37.742650708","long":"126.80654617","imageIndex":16,"items":[{"name":"키움어린이집[아이행복]","tel":"031-944-8872","addr":"경기도 파주시 조리읍 봉일천리 156-1번지 성원아파트","indutype":"학원 - 유아원","category":"study"}]},{"lat":"37.74401299","long":"126.80765446","imageIndex":16,"items":[{"name":"파머스영어학원","tel":"031-944-0542","addr":"경기도 파주시 조리읍 봉일천리 205-17번지 외2필지 3층","indutype":"학원 - 외국어학원","category":"study"}]},{"lat":"37.744395311","long":"126.81003609","imageIndex":16,"items":[{"name":"하늘채skykids어린이집[아이행복]","tel":"031-942-5064","addr":"경기도 파주시 조리읍 봉일천리 221-3번지","indutype":"학원 - 유아원","category":"study"}]}]