[{"lat":"36.994046768","long":"127.08048267","imageIndex":17,"items":[{"name":"(주)경도건설","tel":"031-656-2228","addr":"경기도 평택시 통복동 149-3번지","indutype":"기타 - 기타 전문점","category":"other"}]},{"lat":"36.992328152","long":"127.07667287","imageIndex":17,"items":[{"name":"(주)동남전기통신","tel":"031-652-2000","addr":"경기도 평택시 통복동 367-37번지 B동 201호","indutype":"용역 서비스 - 기타용역서비스","category":"other"},{"name":"골프광 스크린 골프","tel":"031-658-8367","addr":"경기도 평택시 통복동 367-37번지 B동","indutype":"레져용품 - 골프용품 전문점","category":"other"},{"name":"공기수비대 (평택점)","tel":"031-1577-5727","addr":"경기도 평택시 통복동 367-37번지 B동 102호","indutype":"용역 서비스 - 종합용역","category":"other"},{"name":"아이비렌트카(주)","tel":"031-618-3382","addr":"경기도 평택시 통복동 367-37번지 B동 101호","indutype":"여행 - 렌터카","category":"other"},{"name":"아이비렌트카(주)","tel":"031-618-3382","addr":"경기도 평택시 통복동 367-37번지 B동 101호","indutype":"여행 - 렌터카","category":"other"},{"name":"해드림종합환경","tel":"031-1577-5727","addr":"경기도 평택시 통복동 367-37번지 B동 102호","indutype":"용역 서비스 - 종합용역","category":"other"}]},{"lat":"36.993276383","long":"127.07320269","imageIndex":17,"items":[{"name":"(주)명보케이블","tel":"031-692-2048","addr":"경기도 평택시 통복동 241-13번지","indutype":"전기제품 - 기타전기제품","category":"other"},{"name":"㈜명보케이블","tel":"","addr":"경기도 평택시 통복동 241-13번지","indutype":"소매업 - 전기자재","category":"other"},{"name":"중앙기계","tel":"031-656-0865","addr":"경기도 평택시 통복동 241-13번지","indutype":"서비스업 - 철물기계 수리 용접","category":"other"}]},{"lat":"36.990608415","long":"127.07453695","imageIndex":17,"items":[{"name":"(주)아주전기","tel":"031-656-6730","addr":"경기도 평택시 통복동 344-11번지","indutype":"용역 서비스 - 기타용역서비스","category":"other"},{"name":"멀티이벤트","tel":"031-611-3327","addr":"경기도 평택시 통복동 344-11번지 3층","indutype":"용역 서비스 - 사무서비스","category":"other"}]},{"lat":"36.993328909","long":"127.07575271","imageIndex":17,"items":[{"name":"(주)업종합건축사사무소","tel":"031-654-6655","addr":"경기도 평택시 통복동 338-7번지 2층","indutype":"용역 서비스 - 사무서비스","category":"other"},{"name":"에코텍건축사사무소","tel":"031-654-6659","addr":"경기도 평택시 통복동 338-7번지 1층","indutype":"용역 서비스 - 사무서비스","category":"other"}]},{"lat":"36.995242933","long":"127.08386521","imageIndex":17,"items":[{"name":"(주)중앙프라자","tel":"031-654-6309","addr":"경기도 평택시 통복동 111-12번지","indutype":"전기제품 - 가전제품","category":"other"},{"name":"대성지업사","tel":"031-652-8502","addr":"경기도 평택시 통복동 111-12번지","indutype":"직물 - 카페트,커튼,천막,지물","category":"other"}]},{"lat":"36.999385712","long":"127.08694778","imageIndex":17,"items":[{"name":"(주)크린존","tel":"031-665-4677","addr":"경기도 평택시 통복동 51-17번지 101호","indutype":"용역 서비스 - 종합용역","category":"other"},{"name":"대한종합환경","tel":"031-657-9333","addr":"경기도 평택시 통복동 51-17번지 102호","indutype":"용역 서비스 - 기타용역서비스","category":"other"}]},{"lat":"36.993942827","long":"127.07378744","imageIndex":17,"items":[{"name":"(주)태성전기","tel":"031-618-4695","addr":"경기도 평택시 통복동 293-14번지","indutype":"전기제품 - 기타전기제품","category":"other"},{"name":"㈜태성전기","tel":"","addr":"경기도 평택시 통복동 293-14번지","indutype":"소매업 - 전기자재","category":"other"}]},{"lat":"36.99901744","long":"127.08528472","imageIndex":17,"items":[{"name":"(주)평택한냉","tel":"","addr":"경기도 평택시 통복동 72-3번지","indutype":"도소매업 - 정육","category":"other"}]},{"lat":"36.997852965","long":"127.08824924","imageIndex":17,"items":[{"name":"ALL 바른 통신","tel":"031-651-9887","addr":"경기도 평택시 통복동 80-9번지 1층","indutype":"사무통신 - 통신기기","category":"other"},{"name":"법무사노동재사무소","tel":"031-618-5577","addr":"경기도 평택시 통복동 80-9번지","indutype":"용역 서비스 - 법률회계서비스(개인)","category":"other"}]},{"lat":"36.997997152","long":"127.08822693","imageIndex":17,"items":[{"name":"ALL바른통신","tel":"","addr":"경기도 평택시 통복동 80-10번지","indutype":"도소매업 - 핸드폰","category":"other"},{"name":"수정앵글샷시","tel":"031-654-0413","addr":"경기도 평택시 통복동 80-10,/1","indutype":"건축자재 - 보일러·펌프·샷시","category":"other"}]},{"lat":"36.997386019","long":"127.08597946","imageIndex":17,"items":[{"name":"BK솔루션웍스","tel":"031-656-6401","addr":"경기도 평택시 통복동 92-12번지","indutype":"임대업 - 컴퓨터, 복합기","category":"other"},{"name":"BK솔루션웍스","tel":"031-691-3662","addr":"경기도 평택시 통복동 92-12번지","indutype":"사무통신 - 사무용 OA기기","category":"other"}]},{"lat":"36.995935899","long":"127.08511289","imageIndex":17,"items":[{"name":"BYC","tel":"031-652-5190","addr":"경기도 평택시 통복동 87-20번지","indutype":"의류 - 내의판매","category":"other"},{"name":"기원BYC","tel":"","addr":"경기도 평택시 통복동 87-20번지","indutype":"소매업 - 의류","category":"other"}]},{"lat":"36.995574006","long":"127.08720196","imageIndex":17,"items":[{"name":"GS25평택두드림점","tel":"","addr":"경기도 평택시 통복동 83-2번지","indutype":"유통업 영리 - 편 의 점","category":"other"},{"name":"전현규세무회계사무소","tel":"031-654-4013","addr":"경기도 평택시 통복동 83-2번지","indutype":"용역 서비스 - 법률회계서비스(개인)","category":"other"}]},{"lat":"36.996359457","long":"127.0850347","imageIndex":17,"items":[{"name":"M.M.C","tel":"031-651-3589","addr":"경기도 평택시 통복동 95-44번지","indutype":"직물 - 침구·수예점","category":"other"},{"name":"패션모아","tel":"031-658-6665","addr":"경기도 평택시 통복동 95-44번지","indutype":"의류 - 정장","category":"other"},{"name":"패션보아","tel":"031-651-0602","addr":"경기도 평택시 통복동 95-44번지","indutype":"소매업 - 의류","category":"other"}]},{"lat":"36.996269388","long":"127.08497844","imageIndex":17,"items":[{"name":"MMC수공예","tel":"031-655-0672","addr":"경기도 평택시 통복동 95-112번지","indutype":"소매업 - 털실","category":"other"}]},{"lat":"36.998080654","long":"127.08481187","imageIndex":17,"items":[{"name":"PC119","tel":"031-656-7119","addr":"경기도 평택시 통복동 70-13번지","indutype":"사무통신 - 컴퓨터","category":"other"},{"name":"썬전기조명공사","tel":"031-657-9500","addr":"경기도 평택시 통복동 70-13번지","indutype":"건축자재 - 조명기구","category":"other"}]},{"lat":"36.997719806","long":"127.08541812","imageIndex":17,"items":[{"name":"SK매직 경기남부총판","tel":"031-655-4204","addr":"경기도 평택시 통복동 70-20번지 2층","indutype":"주방용구 - 주방용구","category":"other"},{"name":"남평택로타리클럽","tel":"031-656-3750","addr":"경기도 평택시 통복동 70-20번지","indutype":"기타 - 비영리/대상","category":"other"}]},{"lat":"36.995854819","long":"127.08509033","imageIndex":17,"items":[{"name":"U.S Junk","tel":"031-692-3825","addr":"경기도 평택시 통복동 87-21번지","indutype":"신변잡화 - 기타잡화","category":"other"}]},{"lat":"36.995827942","long":"127.08486563","imageIndex":17,"items":[{"name":"YS패션","tel":"031-691-1316","addr":"경기도 평택시 통복동 97-35번지","indutype":"의류 - 정장","category":"other"}]},{"lat":"36.999629453","long":"127.08630769","imageIndex":17,"items":[{"name":"fishing service","tel":"031-657-0992","addr":"경기도 평택시 통복동 53-1번지","indutype":"레져용품 - 스포츠·레져용품","category":"other"}]},{"lat":"36.993410123","long":"127.07556182","imageIndex":17,"items":[{"name":"㈜뉴영진","tel":"031-657-4335","addr":"경기도 평택시 통복동 338-6번지","indutype":"제조업 - 도료, 페인트제조","category":"other"}]},{"lat":"36.992157324","long":"127.07606612","imageIndex":17,"items":[{"name":"㈜대진이엔지","tel":"031-655-2797","addr":"경기도 평택시 통복동 367-17번지","indutype":"서비스업 - 전기공사","category":"other"},{"name":"우드혁(WOOD혁)","tel":"031-653-0992","addr":"경기도 평택시 통복동 367-17번지 1층","indutype":"가구 - 일반가구","category":"other"}]},{"lat":"36.993520148","long":"127.07239411","imageIndex":17,"items":[{"name":"㈜조은렌트카","tel":"031-657-1600","addr":"경기도 평택시 통복동 241-3번지","indutype":"서비스업 - 렌트카","category":"other"},{"name":"삼일공구","tel":"031-655-5050","addr":"경기도 평택시 통복동 241-3번지","indutype":"소매업 - 공구","category":"other"},{"name":"삼일공구","tel":"031-651-0982","addr":"경기도 평택시 통복동 241-3번지","indutype":"기타 - 기계공구","category":"other"},{"name":"현대베아링","tel":"031-653-4879","addr":"경기도 평택시 통복동 241-3번지","indutype":"제조업 - 기계","category":"other"}]},{"lat":"36.995828797","long":"127.08361869","imageIndex":17,"items":[{"name":"㈜클랙잭","tel":"031-654-3600","addr":"경기도 평택시 통복동 98-3번지","indutype":"소매업 - 의류","category":"other"},{"name":"코스메틱스","tel":"031-656-7579","addr":"경기도 평택시 통복동 98-3번지 1층","indutype":"소매업 - 화장품","category":"other"},{"name":"클랙잭","tel":"031-656-7670","addr":"경기도 평택시 통복동 98-3번지 1층","indutype":"의류 - 정장","category":"other"}]},{"lat":"37.000439548","long":"127.08753313","imageIndex":17,"items":[{"name":"㈜한성이엔지","tel":"031-655-6040","addr":"경기도 평택시 통복동 542번지","indutype":"서비스업 - 측량","category":"other"}]},{"lat":"36.99315736","long":"127.07631421","imageIndex":17,"items":[{"name":"㈜흥농원예자재","tel":"031-692-7440","addr":"경기도 평택시 통복동 368-16번지","indutype":"소매업 - 농자재","category":"other"}]},{"lat":"36.996160604","long":"127.08592196","imageIndex":17,"items":[{"name":"가가인쇄","tel":"031-654-6016","addr":"경기도 평택시 통복동 94-2번지","indutype":"서적문구 - 출판 및 인쇄물","category":"other"},{"name":"공인회계사조광묵사무소","tel":"031-654-0367","addr":"경기도 평택시 통복동 94-2","indutype":"용역 서비스 - 법률회계서비스(개인)","category":"other"},{"name":"김정식세무회계사무소","tel":"031-691-5471","addr":"경기도 평택시 통복동 94-2","indutype":"용역 서비스 - 법률회계서비스(개인)","category":"other"},{"name":"정두상사","tel":"","addr":"경기도 평택시 통복동 94-2번지 B동","indutype":"도소매업 - 신발","category":"other"},{"name":"정두상사","tel":"031-536-4321","addr":"경기도 평택시 통복동 94-2번지 B동","indutype":"신변잡화 - 신발","category":"other"},{"name":"플리트","tel":"031-53-0533","addr":"경기도 평택시 통복동 94-2번지","indutype":"가구 - 일반가구","category":"other"},{"name":"한빛세무회계사무소","tel":"031-656-0065","addr":"경기도 평택시 통복동 94-2한빛세무회계사무소","indutype":"용역 서비스 - 법률회계서비스(개인)","category":"other"}]},{"lat":"36.996358784","long":"127.08600081","imageIndex":17,"items":[{"name":"가가인쇄","tel":"","addr":"경기도 평택시 통복동 94-1번지","indutype":"제조업 - 인쇄","category":"other"},{"name":"백주하이벤트","tel":"031-655-1644","addr":"경기도 평택시 통복동 94-1번지","indutype":"서비스업 - 이벤트","category":"other"},{"name":"이마트24 평택통복점","tel":"","addr":"경기도 평택시 통복동 94-1번지","indutype":"유통업 영리 - 편 의 점","category":"other"}]},{"lat":"36.988995485","long":"127.07455791","imageIndex":17,"items":[{"name":"가나척막사","tel":"031-653-3596","addr":"경기도 평택시 통복동 352-27번지","indutype":"직물 - 카페트,커튼,천막,지물","category":"other"}]},{"lat":"37.000303451","long":"127.08883616","imageIndex":17,"items":[{"name":"가온 디자인","tel":"031-656-8946","addr":"경기도 평택시 통복동 30-1번지","indutype":"용역 서비스 - 사무서비스","category":"other"},{"name":"대한종합철물","tel":"031-653-3355","addr":"경기도 평택시 통복동 30-1번지","indutype":"건축자재 - 목재·석재·철물","category":"other"},{"name":"대한종합철물","tel":"031-658-3519","addr":"경기도 평택시 통복동 30-1번지","indutype":"소매업 - 철물","category":"other"},{"name":"동남사료","tel":"031-618-4542","addr":"경기도 평택시 통복동 30-1번지","indutype":"문화.취미 - 애완동물","category":"other"}]},{"lat":"36.998496038","long":"127.08350916","imageIndex":17,"items":[{"name":"가을마루쌀(나라유통)","tel":"031-658-1684","addr":"경기도 평택시 통복동 66-1번지 103호","indutype":"소매업 - 식료품","category":"other"},{"name":"강원상회","tel":"031-654-1431","addr":"경기도 평택시 통복동 66-1번지","indutype":"소매업 - 식료품","category":"other"},{"name":"신용상회","tel":"031-655-8133","addr":"경기도 평택시 통복동 66-1번지","indutype":"소매업 - 야채","category":"other"}]},{"lat":"36.996162368","long":"127.08336066","imageIndex":17,"items":[{"name":"강경혜정젓갈판매장","tel":"031-655-4009","addr":"경기도 평택시 통복동 98-25번지","indutype":"도소매업 - 젓갈류","category":"other"}]},{"lat":"36.996243745","long":"127.0829451","imageIndex":17,"items":[{"name":"개성상회","tel":"031-655-1025","addr":"경기도 평택시 통복동 100-1번지","indutype":"소매업 - 농수산물","category":"other"},{"name":"경기축산","tel":"031-692-2133","addr":"경기도 평택시 통복동 100-1번지","indutype":"소매업 - 정육","category":"other"},{"name":"광일상회","tel":"031-655-0337","addr":"경기도 평택시 통복동 100-1번지 B동","indutype":"제조업 - 방앗간","category":"other"},{"name":"동원수산","tel":"031-658-6766","addr":"경기도 평택시 통복동 100-1번지","indutype":"도소매업 - 수산물","category":"other"},{"name":"만득이네축산","tel":"031-618-1982","addr":"경기도 평택시 통복동 100-1번지","indutype":"소매업 - 정육","category":"other"},{"name":"서울농약사","tel":"031-655-6117","addr":"경기도 평택시 통복동 100-1번지","indutype":"소매업 - 농업용품","category":"other"},{"name":"서울농약사","tel":"031-655-7177","addr":"경기도 평택시 통복동 100-1","indutype":"농업 - 비료,사료,종자","category":"other"},{"name":"성광상사","tel":"031-654-3468","addr":"경기도 평택시 통복동 100-1","indutype":"농업 - 농기계","category":"other"},{"name":"일등식자재","tel":"031-658-6790","addr":"경기도 평택시 통복동 100-1번지","indutype":"소매업 - 식자재","category":"other"},{"name":"천일식품","tel":"1661-4289","addr":"경기도 평택시 통복동 100-1번지","indutype":"도소매업 - 농산물","category":"other"},{"name":"평택비니루","tel":"031-658-6766","addr":"경기도 평택시 통복동 100-1","indutype":"기타 - 기타 전문점","category":"other"},{"name":"평택비닐","tel":"031-652-9919","addr":"경기도 평택시 통복동 100-1번지","indutype":"제조업 - 합성수지","category":"other"},{"name":"평택종합주방가구","tel":"031-618-2166","addr":"경기도 평택시 통복동 100-1번지","indutype":"주방용구 - 주방용구","category":"other"},{"name":"평택종합주방기구","tel":"031-668-9220","addr":"경기도 평택시 통복동 100-1번지","indutype":"도소매업 - 주방용품","category":"other"},{"name":"혜주정육","tel":"031-653-1025","addr":"경기도 평택시 통복동 100-1번지","indutype":"소매업 - 정육","category":"other"}]},{"lat":"36.996414039","long":"127.0842821","imageIndex":17,"items":[{"name":"개성시대","tel":"031-651-0101","addr":"경기도 평택시 통복동 95-60번지","indutype":"소매업 - 의류","category":"other"},{"name":"개성시대","tel":"031-656-5097","addr":"경기도 평택시 통복동 95-60번지","indutype":"의류 - 정장","category":"other"}]},{"lat":"37.002024329","long":"127.08906279","imageIndex":17,"items":[{"name":"경기가구","tel":"031-653-9930","addr":"경기도 평택시 통복동 539번지 신명보람아파트","indutype":"가구 - 일반가구","category":"other"}]},{"lat":"36.994855412","long":"127.08395466","imageIndex":17,"items":[{"name":"경기모터펌프","tel":"031-652-5299","addr":"경기도 평택시 통복동 111-9번지","indutype":"건축자재 - 보일러·펌프·샷시","category":"other"},{"name":"대성공구","tel":"031-653-0989","addr":"경기도 평택시 통복동 111-9번지","indutype":"기타 - 기계공구","category":"other"},{"name":"미래광고열쇠도장","tel":"031-658-0909","addr":"경기도 평택시 통복동 111-9번지","indutype":"기타 - 기계공구","category":"other"},{"name":"평택여성인력","tel":"031-652-7133","addr":"경기도 평택시 통복동 111-9번지 2층","indutype":"회원제형태 - 기타4","category":"other"}]},{"lat":"36.995106116","long":"127.08625782","imageIndex":17,"items":[{"name":"경기사무기.문구","tel":"031-618-4561","addr":"경기도 평택시 통복동 84-4번지","indutype":"서적문구 - 문구용품","category":"other"},{"name":"대동인쇄.복사","tel":"031-654-2237","addr":"경기도 평택시 통복동 84-4번지","indutype":"서적문구 - 출판 및 인쇄물","category":"other"},{"name":"비전금거래소","tel":"031-655-7867","addr":"경기도 평택시 통복동 84-4번지","indutype":"소매업 - 귀금속","category":"other"},{"name":"비전금거래소","tel":"031-657-6678","addr":"경기도 평택시 통복동 84-4번지 1층","indutype":"신변잡화 - 귀금속","category":"other"}]},{"lat":"36.995658269","long":"127.08261871","imageIndex":17,"items":[{"name":"경기천막사","tel":"031-655-5373","addr":"경기도 평택시 통복동 109-3번지 1층","indutype":"직물 - 카페트,커튼,천막,지물","category":"other"},{"name":"금송전기","tel":"031-658-3170","addr":"경기도 평택시 통복동 109-3번지","indutype":"건축자재 - 조명기구","category":"other"},{"name":"남양공조닥트","tel":"031-655-2207","addr":"경기도 평택시 통복동 109-3번지","indutype":"전기제품 - 냉열기기","category":"other"},{"name":"일광보일러","tel":"031-655-5013","addr":"경기도 평택시 통복동 109-3번지","indutype":"전기제품 - 냉열기기","category":"other"}]},{"lat":"36.998053202","long":"127.08541848","imageIndex":17,"items":[{"name":"경남방앗간","tel":"031-691-3412","addr":"경기도 평택시 통복동 70-21번지","indutype":"소매업 - 농산물","category":"other"}]},{"lat":"36.997018384","long":"127.08336156","imageIndex":17,"items":[{"name":"경성상회","tel":"031-655-5289","addr":"경기도 평택시 통복동 99-40번지","indutype":"소매업 - 건어물","category":"other"}]},{"lat":"36.994414178","long":"127.08352732","imageIndex":17,"items":[{"name":"경원냉열","tel":"031-618-8904","addr":"경기도 평택시 통복동 112-13번지 1층","indutype":"수리서비스 - 가정용품수리","category":"other"}]},{"lat":"36.998603429","long":"127.08458775","imageIndex":17,"items":[{"name":"고려불교사","tel":"031-652-1978","addr":"경기도 평택시 통복동 71-5번지","indutype":"신변잡화 - 기념품점","category":"other"},{"name":"벧엘떡집","tel":"031-652-6661","addr":"경기도 평택시 통복동 71-5번지","indutype":"제조업 - 떡","category":"other"}]},{"lat":"36.989604419","long":"127.08059049","imageIndex":17,"items":[{"name":"고려인터내셔널 주식회사","tel":"031-691-9587","addr":"경기도 평택시 통복동 172-15번지","indutype":"서적문구 - 과학기자재","category":"other"},{"name":"메카헬스클럽","tel":"","addr":"경기도 평택시 통복동 172-15번지 4층","indutype":"서비스업 - 헬스","category":"other"},{"name":"메카헬스클럽","tel":"031-651-8296","addr":"경기도 평택시 통복동 172-15번지 4층","indutype":"회원제형태 - 레져업소","category":"other"}]},{"lat":"36.995990767","long":"127.08394464","imageIndex":17,"items":[{"name":"고씨네즉석두부","tel":"031-657-8386","addr":"경기도 평택시 통복동 97-16번지","indutype":"제조업 - 두부","category":"other"}]},{"lat":"36.996465648","long":"127.0877871","imageIndex":17,"items":[{"name":"고이피부","tel":"031-656-2165","addr":"경기도 평택시 통복동 82-1 2층","indutype":"회원제형태 - 기타4","category":"other"},{"name":"꽃길화원","tel":"031-618-8287","addr":"경기도 평택시 통복동 82-10번지","indutype":"문화.취미 - 화원","category":"other"}]},{"lat":"36.997438626","long":"127.08803533","imageIndex":17,"items":[{"name":"공인회계사김용원세무회계사무","tel":"031-651-4607","addr":"경기도 평택시 통복동 81-1번지","indutype":"용역 서비스 - 사무서비스","category":"other"},{"name":"동서열쇠","tel":"031-658-7024","addr":"경기도 평택시 통복동 81-1번지","indutype":"소매업 - 열쇠,도장","category":"other"},{"name":"두산배합사료대리점","tel":"031-657-9121","addr":"경기도 평택시 통복동 81-1번지 1층 3호","indutype":"농업 - 비료,사료,종자","category":"other"}]},{"lat":"36.997855789","long":"127.08422747","imageIndex":17,"items":[{"name":"과일나라","tel":"031-655-9527","addr":"경기도 평택시 통복동 67-16번지","indutype":"도소매업 - 과일","category":"other"}]},{"lat":"36.998243171","long":"127.08434022","imageIndex":17,"items":[{"name":"과일촌","tel":"031-652-2185","addr":"경기도 평택시 통복동 67-1번지","indutype":"도소매업 - 과일","category":"other"}]},{"lat":"36.997747181","long":"127.08492386","imageIndex":17,"items":[{"name":"관음불교사","tel":"031-658-6665","addr":"경기도 평택시 통복동 70-28번지 1층","indutype":"소매업 - 불교용품","category":"other"}]},{"lat":"36.997637343","long":"127.08736151","imageIndex":17,"items":[{"name":"관음불교사","tel":"031-658-7885","addr":"경기도 평택시 통복동 77-1번지 외2필지","indutype":"문화.취미 - 문화취미기타","category":"other"}]},{"lat":"37.000295887","long":"127.08681397","imageIndex":17,"items":[{"name":"광성전기조명","tel":"031-655-5118","addr":"경기도 평택시 통복동 49-3번지","indutype":"건축자재 - 조명기구","category":"other"}]},{"lat":"36.997188097","long":"127.08552989","imageIndex":17,"items":[{"name":"광신방앗간","tel":"031-656-9409","addr":"경기도 평택시 통복동 92-11번지","indutype":"제조업 - 떡","category":"other"}]},{"lat":"36.99729566","long":"127.08633885","imageIndex":17,"items":[{"name":"광천상회","tel":"031-655-7393","addr":"경기도 평택시 통복동 92-1번지","indutype":"소매업 - 수산물","category":"other"},{"name":"복음떡집","tel":"031-657-9927","addr":"경기도 평택시 통복동 92-1번지","indutype":"제조업 - 떡","category":"other"},{"name":"진미떡집","tel":"031-655-1467","addr":"경기도 평택시 통복동 92-1번지","indutype":"제조업 - 떡","category":"other"}]},{"lat":"36.99624289","long":"127.08420328","imageIndex":17,"items":[{"name":"구제 멋쟁이","tel":"031-653-9785","addr":"경기도 평택시 통복동 97-40번지","indutype":"의류 - 기타의류","category":"other"}]},{"lat":"36.994440981","long":"127.08386436","imageIndex":17,"items":[{"name":"국제세탁소","tel":"031-656-9933","addr":"경기도 평택시 통복동 112-15번지","indutype":"수리서비스 - 세탁소","category":"other"},{"name":"평택농공사","tel":"031-651-2430","addr":"경기도 평택시 통복동 112-15번지","indutype":"농업 - 농기계","category":"other"}]},{"lat":"36.994853375","long":"127.07300194","imageIndex":17,"items":[{"name":"귀뚜라미건설","tel":"031-676-9002","addr":"경기도 평택시 통복동 235-9번지","indutype":"용역 서비스 - 기타용역서비스","category":"other"}]},{"lat":"36.992469623","long":"127.0808967","imageIndex":17,"items":[{"name":"그린개발","tel":"031-618-5657","addr":"경기도 평택시 통복동 160-5번지","indutype":"용역 서비스 - 종합용역","category":"other"}]},{"lat":"36.99699161","long":"127.08297958","imageIndex":17,"items":[{"name":"그린종합유통","tel":"031-652-8636","addr":"경기도 평택시 통복동 99-18번지","indutype":"소매업 - 농수산물","category":"other"}]},{"lat":"36.995909247","long":"127.0845624","imageIndex":17,"items":[{"name":"금성정육점","tel":"","addr":"경기도 평택시 통복동 97-5번지","indutype":"소매업 - 정육","category":"other"},{"name":"이불아르페지오","tel":"031-691-3064","addr":"경기도 평택시 통복동 97-5번지","indutype":"직물 - 침구·수예점","category":"other"},{"name":"이불아르페지오","tel":"031-653-0206","addr":"경기도 평택시 통복동 97-5번지","indutype":"소매업 - 침구류","category":"other"},{"name":"이조떡집","tel":"031-651-9997","addr":"경기도 평택시 통복동 97-5번지","indutype":"제조업 - 떡","category":"other"},{"name":"장수한과","tel":"031-651-0028","addr":"경기도 평택시 통복동 97-5번지","indutype":"제조업 - 한과","category":"other"}]},{"lat":"36.99544056","long":"127.08475287","imageIndex":17,"items":[{"name":"금정상사","tel":"031-655-5165","addr":"경기도 평택시 통복동 86-2번지","indutype":"유통업 영리 - 기타유통업","category":"other"},{"name":"나우전기통신","tel":"031-618-8011","addr":"경기도 평택시 통복동 86-2번지","indutype":"사무통신 - 통신기기","category":"other"},{"name":"평택글로벌여행사","tel":"031-658-8506","addr":"경기도 평택시 통복동 86-2번지","indutype":"여행 - 관광여행","category":"other"}]},{"lat":"36.996241314","long":"127.0864725","imageIndex":17,"items":[{"name":"김상현세무회계사무소","tel":"031-618-8383","addr":"경기도 평택시 통복동 89-6번지","indutype":"용역 서비스 - 법률회계서비스(개인)","category":"other"},{"name":"김일철세무회계사무소","tel":"031-651-9300","addr":"경기도 평택시 통복동 89-6번지","indutype":"용역 서비스 - 법률회계서비스(개인)","category":"other"},{"name":"이진영세무회계사무소","tel":"031-618-6226","addr":"경기도 평택시 통복동 89-6번지","indutype":"용역 서비스 - 법률회계서비스(개인)","category":"other"}]},{"lat":"36.995935391","long":"127.08584308","imageIndex":17,"items":[{"name":"김영진세무회계사무소","tel":"031-655-7776","addr":"경기도 평택시 통복동 87-1번지","indutype":"용역 서비스 - 법률회계서비스(개인)","category":"other"},{"name":"박테일러양복점","tel":"031-655-1226","addr":"경기도 평택시 통복동 87-1번지","indutype":"의류 - 정장","category":"other"},{"name":"세무사전갑린사무소","tel":"031-655-3940","addr":"경기도 평택시 통복동 87-1번지","indutype":"용역 서비스 - 법률회계서비스(개인)","category":"other"},{"name":"토토생활가구","tel":"031-656-1757","addr":"경기도 평택시 통복동 87-1번지","indutype":"가구 - 일반가구","category":"other"}]},{"lat":"36.996720171","long":"127.08461944","imageIndex":17,"items":[{"name":"꼬망세 302","tel":"","addr":"경기도 평택시 통복동 95-35번지 1호","indutype":"의류 - 아동의류","category":"other"},{"name":"꼬망세302","tel":"031-655-9062","addr":"경기도 평택시 통복동 95-35번지","indutype":"소매업 - 아동복","category":"other"},{"name":"딱이야","tel":"031-651-4041","addr":"경기도 평택시 통복동 95-35번지","indutype":"의류 - 정장","category":"other"}]},{"lat":"36.995521017","long":"127.08567412","imageIndex":17,"items":[{"name":"꽃네방네","tel":"031-652-0060","addr":"경기도 평택시 통복동 85-1번지","indutype":"소매업 - 농산물","category":"other"},{"name":"사단법인 현대불교조계종 묘법사","tel":"041-111-1111","addr":"경기도 평택시 통복동 85-1번지","indutype":"기타 - 비영리/대상","category":"other"},{"name":"선물하우스","tel":"031-651-0622","addr":"경기도 평택시 통복동 85-1번지","indutype":"의류 - 정장","category":"other"},{"name":"스타패션","tel":"031-651-0602","addr":"경기도 평택시 통복동 85-1번지","indutype":"의류 - 내의판매","category":"other"},{"name":"스타패션","tel":"031-655-8270","addr":"경기도 평택시 통복동 85-1번지","indutype":"소매업 - 의류","category":"other"},{"name":"코디코디","tel":"031-654-3301","addr":"경기도 평택시 통복동 85-1번지","indutype":"의류 - 기타의류","category":"other"},{"name":"피터팬","tel":"031-656-8848","addr":"경기도 평택시 통복동 85-1번지","indutype":"소매업 - 잡화","category":"other"},{"name":"피터팬","tel":"031-651-4456","addr":"경기도 평택시 통복동 85-1번지","indutype":"신변잡화 - 신발","category":"other"}]},{"lat":"36.996440615","long":"127.08494492","imageIndex":17,"items":[{"name":"나우전기통신","tel":"031-618-0080","addr":"경기도 평택시 통복동 95-87번지","indutype":"서비스업 - 통신기기","category":"other"}]},{"lat":"36.997495645","long":"127.08381143","imageIndex":17,"items":[{"name":"낙원떡고을","tel":"","addr":"경기도 평택시 통복동 67-33번지","indutype":"제조업 - 떡","category":"other"},{"name":"연흥식품","tel":"031-655-4691","addr":"경기도 평택시 통복동 67-33번지","indutype":"유통업 영리 - 기타유통업","category":"other"},{"name":"은혜축산물유통","tel":"031-657-8314","addr":"경기도 평택시 통복동 67-33번지","indutype":"도소매업 - 축산물","category":"other"},{"name":"풍년상회","tel":"031-652-5307","addr":"경기도 평택시 통복동 67-33번지","indutype":"소매업 - 농산물","category":"other"}]},{"lat":"36.997017925","long":"127.0840356","imageIndex":17,"items":[{"name":"낙원상회","tel":"031-656-2252","addr":"경기도 평택시 통복동 95-116번지","indutype":"소매업 - 김","category":"other"},{"name":"옛날강정","tel":"","addr":"경기도 평택시 통복동 95-116번지","indutype":"소매업 - 닭강정","category":"other"}]},{"lat":"36.998216293","long":"127.08411551","imageIndex":17,"items":[{"name":"남해물산","tel":"031-652-7182","addr":"경기도 평택시 통복동 67-37번지","indutype":"소매업 - 수산물","category":"other"},{"name":"남해수산","tel":"031-653-8295","addr":"경기도 평택시 통복동 67-37번지","indutype":"도소매업 - 수산물","category":"other"}]},{"lat":"36.996521843","long":"127.08475403","imageIndex":17,"items":[{"name":"낭만현상소","tel":"","addr":"경기도 평택시 통복동 95-82번지","indutype":"서비스업 - 사진관","category":"other"}]},{"lat":"36.993995921","long":"127.07539387","imageIndex":17,"items":[{"name":"뉴고덕건축","tel":"031-652-0911","addr":"경기도 평택시 통복동 257-4번지","indutype":"용역 서비스 - 기타용역서비스","category":"other"},{"name":"유진상회","tel":"031-658-6009","addr":"경기도 평택시 통복동 257-4번지","indutype":"소매업 - 의류, 잡화","category":"other"},{"name":"유진상회","tel":"031-658-9581","addr":"경기도 평택시 통복동 257-4번지","indutype":"의류 - 정장","category":"other"}]},{"lat":"36.995692797","long":"127.08484301","imageIndex":17,"items":[{"name":"다람쥐슈즈","tel":"031-651-2158","addr":"경기도 평택시 통복동 86-1번지","indutype":"신변잡화 - 신발","category":"other"},{"name":"모두미패션","tel":"031-653-3368","addr":"경기도 평택시 통복동 86-1번지","indutype":"소매업 - 의류","category":"other"},{"name":"우먼로드","tel":"031-653-2573","addr":"경기도 평택시 통복동 86-1번지 1층","indutype":"도소매업 - 침구","category":"other"},{"name":"우먼로드","tel":"031-653-4834","addr":"경기도 평택시 통복동 86-1번지","indutype":"직물 - 침구·수예점","category":"other"}]},{"lat":"36.996025983","long":"127.08514668","imageIndex":17,"items":[{"name":"다모아 생활용품 쇼핑몰","tel":"031-657-9880","addr":"경기도 평택시 통복동 87-19번지","indutype":"신변잡화 - 기타잡화","category":"other"}]},{"lat":"36.996548627","long":"127.08511354","imageIndex":17,"items":[{"name":"다모아구제","tel":"","addr":"경기도 평택시 통복동 95-51번지","indutype":"소매업 - 의류","category":"other"}]},{"lat":"36.998414889","long":"127.08358772","imageIndex":17,"items":[{"name":"다미유통","tel":"031-657-8757","addr":"경기도 평택시 통복동 66-62번지","indutype":"도소매업 - 야채 및 공산품","category":"other"}]},{"lat":"36.995603399","long":"127.08380942","imageIndex":17,"items":[{"name":"대단한청과","tel":"031-652-3307","addr":"경기도 평택시 통복동 86-12번지","indutype":"소매업 - 과일","category":"other"},{"name":"동북건두부","tel":"","addr":"경기도 평택시 통복동 86-12번지 1층","indutype":"제조업 - 두부","category":"other"},{"name":"청북상회","tel":"031-652-5257","addr":"경기도 평택시 통복동 86-12번지","indutype":"소매업 - 건어물","category":"other"},{"name":"형제축산","tel":"031-654-2464","addr":"경기도 평택시 통복동 86-12번지","indutype":"소매업 - 육류","category":"other"}]},{"lat":"37.001159888","long":"127.08825293","imageIndex":17,"items":[{"name":"대덕포장중기","tel":"031-662-8666","addr":"경기도 평택시 통복동 539-2번지 동아국화 상가","indutype":"기타 - 기계공구","category":"other"},{"name":"대한지게차","tel":"031-691-3009","addr":"경기도 평택시 통복동 539-2번지 동아국화 상가","indutype":"기타 - 기계공구","category":"other"},{"name":"성민건기","tel":"031-652-9779","addr":"경기도 평택시 통복동 539-2번지 동아국화아파트","indutype":"서비스업 - 건설","category":"other"}]},{"lat":"36.993768533","long":"127.07878614","imageIndex":17,"items":[{"name":"대동정밀","tel":"031-618-1708","addr":"경기도 평택시 통복동 286-7번지","indutype":"기타 - 기계공구","category":"other"},{"name":"이가네과일","tel":"031-692-6676","addr":"경기도 평택시 통복동 286-7번지","indutype":"소매업 - 과일","category":"other"},{"name":"정일펌프","tel":"031-658-3578","addr":"경기도 평택시 통복동 286-7","indutype":"수리서비스 - 기타수리서비스","category":"other"}]},{"lat":"36.99674506","long":"127.08767507","imageIndex":17,"items":[{"name":"대림종합공사","tel":"031-658-6884","addr":"경기도 평택시 통복동 81-4번지","indutype":"건축자재 - 인테리어전문","category":"other"},{"name":"비전상사","tel":"031-655-7703","addr":"경기도 평택시 통복동 81-4번지","indutype":"건축자재 - 페인트","category":"other"},{"name":"비전상사","tel":"031-654-0552","addr":"경기도 평택시 통복동 81-4번지","indutype":"소매업 - 철물","category":"other"}]},{"lat":"36.995108185","long":"127.08325845","imageIndex":17,"items":[{"name":"대명신발","tel":"031-657-2480","addr":"경기도 평택시 통복동 112-2번지 1호","indutype":"신변잡화 - 신발","category":"other"}]},{"lat":"36.997574124","long":"127.08756365","imageIndex":17,"items":[{"name":"대박중고가전","tel":"","addr":"경기도 평택시 통복동 77-46번지","indutype":"전기제품 - 가전제품","category":"other"}]},{"lat":"36.996106288","long":"127.08628138","imageIndex":17,"items":[{"name":"대성가구","tel":"","addr":"경기도 평택시 통복동 89-12번지","indutype":"소매업 - 가구","category":"other"},{"name":"대성가구","tel":"031-652-7314","addr":"경기도 평택시 통복동 89-12번지","indutype":"가구 - 일반가구","category":"other"}]},{"lat":"36.99665765","long":"127.08381054","imageIndex":17,"items":[{"name":"대성상회","tel":"","addr":"경기도 평택시 통복동 95-11번지","indutype":"소매업 - 건어물","category":"other"}]},{"lat":"36.997297463","long":"127.08373258","imageIndex":17,"items":[{"name":"대성야채","tel":"031-655-6835","addr":"경기도 평택시 통복동 95번지","indutype":"소매업 - 농산물","category":"other"},{"name":"백신상회","tel":"","addr":"경기도 평택시 통복동 95번지","indutype":"소매업 - 건어물","category":"other"},{"name":"영신수입상품","tel":"031-656-9409","addr":"경기도 평택시 통복동 95번지","indutype":"신변잡화 - 기타잡화","category":"other"},{"name":"우리상회","tel":"031-658-7854","addr":"경기도 평택시 통복동 95번지","indutype":"소매업 - 의류","category":"other"},{"name":"우리상회","tel":"031-655-7149","addr":"경기도 평택시 통복동 95번지","indutype":"의류 - 정장","category":"other"},{"name":"화성상회","tel":"031-655-4749","addr":"경기도 평택시 통복동 95번지","indutype":"소매업 - 농산물","category":"other"}]},{"lat":"36.993966466","long":"127.07925815","imageIndex":17,"items":[{"name":"대신오토바이상사","tel":"031-655-2085","addr":"경기도 평택시 통복동 287-4번지","indutype":"수리서비스 - 레져용품수리","category":"other"}]},{"lat":"36.992635271","long":"127.07544875","imageIndex":17,"items":[{"name":"대신정기화물택배","tel":"031-655-1296","addr":"경기도 평택시 통복동 339-18번지","indutype":"용역 서비스 - 보관및 창고업","category":"other"}]},{"lat":"36.995439654","long":"127.08605598","imageIndex":17,"items":[{"name":"대영마트","tel":"031-653-4860","addr":"경기도 평택시 통복동 84-8번지","indutype":"의류 - 내의판매","category":"other"}]},{"lat":"36.996800731","long":"127.08539466","imageIndex":17,"items":[{"name":"대영상사","tel":"031-653-4860","addr":"경기도 평택시 통복동 93-25번지","indutype":"의류 - 내의판매","category":"other"}]},{"lat":"36.996630165","long":"127.0844733","imageIndex":17,"items":[{"name":"대영상회","tel":"031-655-2331","addr":"경기도 평택시 통복동 95-36","indutype":"주방용구 - 주방용구","category":"other"},{"name":"라라아비스","tel":"031-655-7867","addr":"경기도 평택시 통복동 95-36번지","indutype":"직물 - 옷감·직물","category":"other"}]},{"lat":"36.994408156","long":"127.07900022","imageIndex":17,"items":[{"name":"대우냉열기","tel":"031-652-3230","addr":"경기도 평택시 통복동 126-3번지","indutype":"전기제품 - 냉열기기","category":"other"}]},{"lat":"36.998492643","long":"127.08836229","imageIndex":17,"items":[{"name":"대웅전기,전자","tel":"031-654-4749","addr":"경기도 평택시 통복동 80-2번지","indutype":"전기제품 - 기타전기제품","category":"other"}]},{"lat":"36.995133227","long":"127.08614551","imageIndex":17,"items":[{"name":"대원전기","tel":"031-655-3398","addr":"경기도 평택시 통복동 84-10번지","indutype":"전기제품 - 기타전기제품","category":"other"},{"name":"보성당","tel":"031-655-2466","addr":"경기도 평택시 통복동 84-10번지","indutype":"신변잡화 - 귀금속","category":"other"},{"name":"우진광고사","tel":"031-653-1009","addr":"경기도 평택시 통복동 84-10번지","indutype":"용역 서비스 - 종합용역","category":"other"}]},{"lat":"36.995134366","long":"127.08450541","imageIndex":17,"items":[{"name":"대일건재","tel":"031-655-2223","addr":"경기도 평택시 통복동 111-20번지","indutype":"건축자재 - 기타건축자재","category":"other"}]},{"lat":"36.998297864","long":"127.08341908","imageIndex":17,"items":[{"name":"대지식품","tel":"031-657-5740","addr":"경기도 평택시 통복동 66-3번지","indutype":"소매업 - 농산물","category":"other"}]},{"lat":"36.997018627","long":"127.08300208","imageIndex":17,"items":[{"name":"대진유통","tel":"031-651-3873","addr":"경기도 평택시 통복동 99-15번지","indutype":"도소매업 - 야채","category":"other"}]},{"lat":"36.996215781","long":"127.08431559","imageIndex":17,"items":[{"name":"대창이불","tel":"031-658-8857","addr":"경기도 평택시 통복동 97-4번지","indutype":"소매업 - 침구류","category":"other"},{"name":"대창이불","tel":"031-655-5512","addr":"경기도 평택시 통복동 97-4번지","indutype":"직물 - 침구·수예점","category":"other"},{"name":"쟈이안트","tel":"031-655-1025","addr":"경기도 평택시 통복동 97-4번지","indutype":"의류 - 정장","category":"other"}]},{"lat":"36.997415021","long":"127.08311484","imageIndex":17,"items":[{"name":"대평기름","tel":"031-656-7210","addr":"경기도 평택시 통복동 99-4번지","indutype":"제조업 - 기름","category":"other"}]},{"lat":"36.996964144","long":"127.08361989","imageIndex":17,"items":[{"name":"대풍쌀상회","tel":"031-652-5791","addr":"경기도 평택시 통복동 95-7번지","indutype":"소매업 - 곡류","category":"other"}]},{"lat":"36.995746675","long":"127.08511268","imageIndex":17,"items":[{"name":"대한상사","tel":"","addr":"경기도 평택시 통복동 87-24번지","indutype":"소매업 - 의류","category":"other"},{"name":"센스제이","tel":"","addr":"경기도 평택시 통복동 87-24번지","indutype":"의류 - 정장","category":"other"},{"name":"코스모스두올커텐","tel":"031-656-7670","addr":"경기도 평택시 통복동 87-24번지","indutype":"소매업 - 커튼","category":"other"},{"name":"코스모스두올커텐","tel":"031-653-0612","addr":"경기도 평택시 통복동 87-24번지","indutype":"직물 - 카페트,커튼,천막,지물","category":"other"}]},{"lat":"36.995412967","long":"127.08556167","imageIndex":17,"items":[{"name":"대한상사","tel":"031-656-8848","addr":"경기도 평택시 통복동 85-8번지 지하1층","indutype":"의류 - 정장","category":"other"},{"name":"시즌 (SEASON)","tel":"031-653-7525","addr":"경기도 평택시 통복동 85-8번지 2층 502호","indutype":"의류 - 정장","category":"other"},{"name":"팝쥬얼리","tel":"031-618-8033","addr":"경기도 평택시 통복동 85-8번지 1층","indutype":"신변잡화 - 액세서리","category":"other"},{"name":"패션104","tel":"031-618-8848","addr":"경기도 평택시 통복동 85-8번지","indutype":"신변잡화 - 신발","category":"other"},{"name":"패션마트","tel":"031-618-8845","addr":"경기도 평택시 통복동 85-8번지 2층","indutype":"의류 - 정장","category":"other"}]},{"lat":"36.995801558","long":"127.08392197","imageIndex":17,"items":[{"name":"대한상회","tel":"031-691-4911","addr":"경기도 평택시 통복동 86-9번지","indutype":"소매업 - 잡화","category":"other"},{"name":"신영청바지","tel":"031-656-2595","addr":"경기도 평택시 통복동 86-9번지","indutype":"소매업 - 의류","category":"other"},{"name":"신영청바지","tel":"031-655-0369","addr":"경기도 평택시 통복동 86-9","indutype":"의류 - 정장","category":"other"},{"name":"투세븐","tel":"031-651-3882","addr":"경기도 평택시 통복동 86-9번지","indutype":"소매업 - 의류","category":"other"},{"name":"투세븐","tel":"031-652-3358","addr":"경기도 평택시 통복동 86-9번지","indutype":"의류 - 정장","category":"other"},{"name":"트래디","tel":"031-655-0369","addr":"경기도 평택시 통복동 86-9번지","indutype":"신변잡화 - 가방","category":"other"},{"name":"트레디","tel":"","addr":"경기도 평택시 통복동 86-9번지","indutype":"소매업 - 의류, 잡화","category":"other"}]},{"lat":"36.996548681","long":"127.08503491","imageIndex":17,"items":[{"name":"더봄공방","tel":"031-651-9708","addr":"경기도 평택시 통복동 95-30번지","indutype":"서비스업 - 공방","category":"other"}]},{"lat":"36.994607291","long":"127.07758499","imageIndex":17,"items":[{"name":"동부환경","tel":"031-655-4499","addr":"경기도 평택시 통복동 370-7번지","indutype":"용역 서비스 - 종합용역","category":"other"},{"name":"동부환경","tel":"031-618-5245","addr":"경기도 평택시 통복동 370-7번지","indutype":"소매업 - 에어펌프","category":"other"}]},{"lat":"36.995134743","long":"127.08395496","imageIndex":17,"items":[{"name":"동산의료기","tel":"031-651-0309","addr":"경기도 평택시 통복동 111-29번지","indutype":"기타의료기관 - 기타의료기관 및 기타","category":"other"}]},{"lat":"36.995826759","long":"127.08656192","imageIndex":17,"items":[{"name":"동신기름집","tel":"031-692-3031","addr":"경기도 평택시 통복동 88-1번지","indutype":"제조업 - 기름","category":"other"}]},{"lat":"36.993799202","long":"127.07286617","imageIndex":17,"items":[{"name":"동일코리아","tel":"031-652-4268","addr":"경기도 평택시 통복동 241-17번지","indutype":"기타 - 기계공구","category":"other"},{"name":"동일코리아","tel":"031-655-2400","addr":"경기도 평택시 통복동 241-17번지","indutype":"소매업 - 건축자재","category":"other"}]},{"lat":"36.996602033","long":"127.08605724","imageIndex":17,"items":[{"name":"동호목욕탕","tel":"031-653-9887","addr":"경기도 평택시 통복동 93-3번지","indutype":"서비스업 - 목욕탕","category":"other"}]},{"lat":"36.992103059","long":"127.07639183","imageIndex":17,"items":[{"name":"두리우사,두리천막기업","tel":"031-692-3698","addr":"경기도 평택시 통복동 367-27번지","indutype":"직물 - 카페트,커튼,천막,지물","category":"other"}]},{"lat":"36.994248337","long":"127.07520314","imageIndex":17,"items":[{"name":"디비노","tel":"070-7768-7324","addr":"경기도 평택시 통복동 322-4번지","indutype":"의류 - 정장","category":"other"}]},{"lat":"36.992108944","long":"127.08127826","imageIndex":17,"items":[{"name":"디자인 다인인테리어","tel":"031-691-9006","addr":"경기도 평택시 통복동 159-55번지","indutype":"건축자재 - 인테리어전문","category":"other"}]},{"lat":"36.997026287","long":"127.08497925","imageIndex":17,"items":[{"name":"라라아비스","tel":"031-655-5512","addr":"경기도 평택시 통복동 95-26번지","indutype":"소매업 - 양복","category":"other"}]},{"lat":"36.996295528","long":"127.08625912","imageIndex":17,"items":[{"name":"라라전자랜드","tel":"031-653-4889","addr":"경기도 평택시 통복동 89-7번지","indutype":"전기제품 - 가전제품","category":"other"},{"name":"라라전자랜드","tel":"031-656-6555","addr":"경기도 평택시 통복동 89-7번지","indutype":"도소매업 - 전자제품","category":"other"},{"name":"싱크대 인테리어악사","tel":"031-654-6833","addr":"경기도 평택시 통복동 89-7번지","indutype":"도소매업 - 주방용품","category":"other"},{"name":"싱크대인테리어","tel":"031-657-4289","addr":"경기도 평택시 통복동 89-7번지","indutype":"주방용구 - 주방용구","category":"other"}]},{"lat":"36.995297204","long":"127.08356196","imageIndex":17,"items":[{"name":"라온통신","tel":"031-656-3959","addr":"경기도 평택시 통복동 111-15번지","indutype":"도소매업 - 휴대폰","category":"other"},{"name":"라온통신","tel":"070-4176-8288","addr":"경기도 평택시 통복동 111-15번지","indutype":"사무통신 - 통신기기","category":"other"}]},{"lat":"36.995629091","long":"127.08575287","imageIndex":17,"items":[{"name":"레이디","tel":"031-655-0800","addr":"경기도 평택시 통복동 87-11번지","indutype":"소매업 - 의류","category":"other"},{"name":"레이디양행","tel":"031-666-7230","addr":"경기도 평택시 통복동 87-11번지","indutype":"의류 - 정장","category":"other"}]},{"lat":"36.995080817","long":"127.0837527","imageIndex":17,"items":[{"name":"르네상스산업","tel":"031-654-6335","addr":"경기도 평택시 통복동 111-11번지","indutype":"소매업 - 이불","category":"other"}]},{"lat":"36.995359463","long":"127.08475279","imageIndex":17,"items":[{"name":"마당발","tel":"031-655-3255","addr":"경기도 평택시 통복동 86-30번지","indutype":"소매업 - 잡화","category":"other"},{"name":"마당발","tel":"031-656-2886","addr":"경기도 평택시 통복동 86-30번지","indutype":"신변잡화 - 신발","category":"other"}]},{"lat":"36.995295498","long":"127.08603335","imageIndex":17,"items":[{"name":"마리아요양원","tel":"031-652-3524","addr":"경기도 평택시 통복동 84-9번지","indutype":"기타의료기관 - 기타의료기관 및 기타","category":"other"}]},{"lat":"36.996775391","long":"127.08292319","imageIndex":17,"items":[{"name":"마포상회","tel":"031-691-1182","addr":"경기도 평택시 통복동 99-24번지","indutype":"소매업 - 농산물","category":"other"}]},{"lat":"36.998108242","long":"127.08400305","imageIndex":17,"items":[{"name":"만성상회","tel":"031-651-0831","addr":"경기도 평택시 통복동 67-2번지","indutype":"소매업 - 농산물","category":"other"},{"name":"만성유통","tel":"031-652-6687","addr":"경기도 평택시 통복동 67-2번지","indutype":"소매업 - 농산물","category":"other"}]},{"lat":"36.996910271","long":"127.08333898","imageIndex":17,"items":[{"name":"매일상회,건업","tel":"031-654-1234","addr":"경기도 평택시 통복동 99-43번지","indutype":"유통업 영리 - 기타유통업","category":"other"},{"name":"매일상회/OK시스템","tel":"031-655-3527","addr":"경기도 평택시 통복동 99-43번지","indutype":"유통업 영리 - 기타유통업","category":"other"}]},{"lat":"36.99837896","long":"127.08341917","imageIndex":17,"items":[{"name":"멋지개","tel":"031-618-0006","addr":"경기도 평택시 통복동 66-36번지 1층","indutype":"문화.취미 - 애완동물","category":"other"},{"name":"멋지개","tel":"031-658-9997","addr":"경기도 평택시 통복동 66-36번지 1층","indutype":"소매업 - 애견용품","category":"other"}]},{"lat":"36.996054087","long":"127.08358522","imageIndex":17,"items":[{"name":"명동의류 타운","tel":"","addr":"경기도 평택시 통복동 98-16번지 1층","indutype":"의류 - 정장","category":"other"}]},{"lat":"36.996774452","long":"127.08430495","imageIndex":17,"items":[{"name":"명산한복","tel":"031-655-3121","addr":"경기도 평택시 통복동 95-17번지","indutype":"수리서비스 - 세탁소","category":"other"}]},{"lat":"36.993379527","long":"127.08116723","imageIndex":17,"items":[{"name":"명신당","tel":"031-618-6206","addr":"경기도 평택시 통복동 151-9번지","indutype":"회원제형태 - 기타4","category":"other"}]},{"lat":"36.993771307","long":"127.07431525","imageIndex":17,"items":[{"name":"명진상사","tel":"031-652-9114","addr":"경기도 평택시 통복동 293-16번지","indutype":"건축자재 - 기타건축자재","category":"other"}]},{"lat":"36.993852572","long":"127.07403449","imageIndex":17,"items":[{"name":"모가건철","tel":"031-654-8904","addr":"경기도 평택시 통복동 293-3","indutype":"건축자재 - 목재·석재·철물","category":"other"}]},{"lat":"36.995189342","long":"127.08316867","imageIndex":17,"items":[{"name":"모두방","tel":"031-651-2169","addr":"경기도 평택시 통복동 112-1번지","indutype":"신변잡화 - 시계","category":"other"}]},{"lat":"36.999907418","long":"127.08822906","imageIndex":17,"items":[{"name":"목화수선방","tel":"","addr":"경기도 평택시 통복동 36-6번지 1층","indutype":"수리서비스 - 세탁소","category":"other"}]},{"lat":"36.999800458","long":"127.08658874","imageIndex":17,"items":[{"name":"몽실화원","tel":"031-654-2575","addr":"경기도 평택시 통복동 50-5","indutype":"문화.취미 - 화원","category":"other"},{"name":"몽실화원","tel":"031-618-8255","addr":"경기도 평택시 통복동 50-5번지","indutype":"소매업 - 화훼","category":"other"}]},{"lat":"36.996017584","long":"127.08425921","imageIndex":17,"items":[{"name":"무드오프더데이(mood of day)","tel":"070-8966-6992","addr":"경기도 평택시 통복동 97-9번지","indutype":"의류 - 정장","category":"other"}]},{"lat":"36.996548821","long":"127.0848327","imageIndex":17,"items":[{"name":"무명","tel":"031-656-3040","addr":"경기도 평택시 통복동 95-80번지 1층","indutype":"문화.취미 - 민예·공예품","category":"other"},{"name":"초록초록","tel":"031-657-1476","addr":"경기도 평택시 통복동 95-80번지","indutype":"소매업 - 꽃집","category":"other"},{"name":"초록초록","tel":"031-000-0000","addr":"경기도 평택시 통복동 95-80번지","indutype":"문화.취미 - 화원","category":"other"}]},{"lat":"36.998663781","long":"127.08845236","imageIndex":17,"items":[{"name":"무지개화원","tel":"031-655-7177","addr":"경기도 평택시 통복동 32-19번지","indutype":"소매업 - 화훼","category":"other"},{"name":"무지개화원","tel":"031-652-3467","addr":"경기도 평택시 통복동 32-19번지","indutype":"문화.취미 - 화원","category":"other"},{"name":"점프셈교실평택본부","tel":"031-653-0502","addr":"경기도 평택시 통복동 32-19번지 2층","indutype":"회원제형태 - 서적","category":"other"}]},{"lat":"36.992994509","long":"127.07736998","imageIndex":17,"items":[{"name":"문화철물건재","tel":"031-651-6362","addr":"경기도 평택시 통복동 268-3번지","indutype":"소매업 - 철물, 공구","category":"other"},{"name":"문화철물건재","tel":"031-654-5661","addr":"경기도 평택시 통복동 268-3번지","indutype":"건축자재 - 목재·석재·철물","category":"other"},{"name":"종합사료할인매장","tel":"031-658-4484","addr":"경기도 평택시 통복동 268-3번지","indutype":"문화.취미 - 애완동물","category":"other"},{"name":"한일자동펌프","tel":"031-655-2474","addr":"경기도 평택시 통복동 268-3번지","indutype":"건축자재 - 보일러·펌프·샷시","category":"other"},{"name":"현대종합기계상사","tel":"031-618-0072","addr":"경기도 평택시 통복동 268-3번지","indutype":"농업 - 농기계","category":"other"}]},{"lat":"36.995990119","long":"127.08488827","imageIndex":17,"items":[{"name":"미씨방","tel":"031-691-4102","addr":"경기도 평택시 통복동 97-31번지","indutype":"소매업 - 의류","category":"other"},{"name":"미씨방","tel":"031-654-1809","addr":"경기도 평택시 통복동 97-31번지","indutype":"의류 - 정장","category":"other"}]},{"lat":"36.997053852","long":"127.08420414","imageIndex":17,"items":[{"name":"민속떡집","tel":"031-653-5686","addr":"경기도 평택시 통복동 95-19번지","indutype":"제조업 - 떡","category":"other"}]},{"lat":"37.000160885","long":"127.08658913","imageIndex":17,"items":[{"name":"민컴퓨터","tel":"031-652-0119","addr":"경기도 평택시 통복동 49-6번지 1층","indutype":"사무통신 - 컴퓨터","category":"other"},{"name":"일호종합건축설비","tel":"031-654-4725","addr":"경기도 평택시 통복동 49-6번지","indutype":"용역 서비스 - 기타용역서비스","category":"other"}]},{"lat":"36.998188914","long":"127.08462101","imageIndex":17,"items":[{"name":"바로열쇠","tel":"031-653-1304","addr":"경기도 평택시 통복동 70-4번지","indutype":"건축자재 - 목재·석재·철물","category":"other"},{"name":"신흥지물","tel":"031-653-7071","addr":"경기도 평택시 통복동 70-4번지","indutype":"직물 - 카페트,커튼,천막,지물","category":"other"}]},{"lat":"36.998495532","long":"127.08425061","imageIndex":17,"items":[{"name":"박카수통신","tel":"031-671-1237","addr":"경기도 평택시 통복동 71-2번지","indutype":"소매업 - 휴대폰","category":"other"},{"name":"박카수통신","tel":"031-616-7784","addr":"경기도 평택시 통복동 71-2번지","indutype":"사무통신 - 통신기기","category":"other"}]},{"lat":"36.996630771","long":"127.08358583","imageIndex":17,"items":[{"name":"백산건어물","tel":"031-655-4630","addr":"경기도 평택시 통복동 95-12번지","indutype":"소매업 - 건어물","category":"other"},{"name":"삼원식품","tel":"031-656-9291","addr":"경기도 평택시 통복동 95-12번지","indutype":"소매업 - 반찬","category":"other"}]},{"lat":"36.996414591","long":"127.08347327","imageIndex":17,"items":[{"name":"백산상회","tel":"031-655-8347","addr":"경기도 평택시 통복동 98-11번지","indutype":"소매업 - 수산물","category":"other"},{"name":"신영축산","tel":"031-655-6003","addr":"경기도 평택시 통복동 98-11번지","indutype":"소매업 - 정육","category":"other"}]},{"lat":"36.993163136","long":"127.08136921","imageIndex":17,"items":[{"name":"베스트테크","tel":"031-8094-3173","addr":"경기도 평택시 통복동 151-6번지 2층","indutype":"전기제품 - 기타전기제품","category":"other"}]},{"lat":"36.995521633","long":"127.08478666","imageIndex":17,"items":[{"name":"보떼 통복점","tel":"031-653-6800","addr":"경기도 평택시 통복동 86-28번지","indutype":"소매업 - 화장품","category":"other"}]},{"lat":"36.996549576","long":"127.08373179","imageIndex":17,"items":[{"name":"보성닭(하림닭직판장)","tel":"031-654-4451","addr":"경기도 평택시 통복동 95-14번지","indutype":"소매업 - 닭","category":"other"},{"name":"풍년떡집","tel":"031-655-2066","addr":"경기도 평택시 통복동 95-14번지","indutype":"제조업 - 떡","category":"other"}]},{"lat":"36.995026222","long":"127.08452776","imageIndex":17,"items":[{"name":"보화당","tel":"031-655-3487","addr":"경기도 평택시 통복동 111-1번지","indutype":"신변잡화 - 시계","category":"other"},{"name":"보화당","tel":"031-655-3725","addr":"경기도 평택시 통복동 111-1번지","indutype":"도소매업 - 귀금속","category":"other"}]},{"lat":"36.998720452","long":"127.08475639","imageIndex":17,"items":[{"name":"복기농예사","tel":"031-652-6661","addr":"경기도 평택시 통복동 71-7번지","indutype":"농업 - 비료,사료,종자","category":"other"},{"name":"복기농예사","tel":"031-657-2552","addr":"경기도 평택시 통복동 71-7번지","indutype":"소매업 - 농자재","category":"other"}]},{"lat":"36.996080889","long":"127.08392226","imageIndex":17,"items":[{"name":"복떡집","tel":"031-658-2373","addr":"경기도 평택시 통복동 97-13번지","indutype":"제조업 - 떡","category":"other"},{"name":"유명견과류마트","tel":"031-658-3579","addr":"경기도 평택시 통복동 97-13번지","indutype":"소매업 - 견과류","category":"other"}]},{"lat":"36.998441198","long":"127.08464375","imageIndex":17,"items":[{"name":"본향장의토탈서비스","tel":"031-652-8552","addr":"경기도 평택시 통복동 71(1층)","indutype":"용역 서비스 - 가례서비스업","category":"other"},{"name":"신흥철물","tel":"031-655-4733","addr":"경기도 평택시 통복동 71","indutype":"건축자재 - 목재·석재·철물","category":"other"},{"name":"신흥철물","tel":"031-655-4733","addr":"경기도 평택시 통복동 71번지","indutype":"건축자재 - 목재·석재·철물","category":"other"}]},{"lat":"36.991884185","long":"127.08050294","imageIndex":17,"items":[{"name":"봄봄펫","tel":"031-651-2555","addr":"경기도 평택시 통복동 144-16번지 1층","indutype":"문화.취미 - 애완동물","category":"other"}]},{"lat":"36.996413653","long":"127.08484379","imageIndex":17,"items":[{"name":"분홍룸","tel":"031-407-5290","addr":"경기도 평택시 통복동 95-85번지 1층","indutype":"의류 - 정장","category":"other"},{"name":"지인","tel":"031-654-2927","addr":"경기도 평택시 통복동 95-85번지","indutype":"소매업 - 공예품","category":"other"}]},{"lat":"36.997854928","long":"127.08547444","imageIndex":17,"items":[{"name":"블랙포터","tel":"070-8113-3377","addr":"경기도 평택시 통복동 70-1번지","indutype":"레져용품 - 스포츠·레져용품","category":"other"}]},{"lat":"37.000744852","long":"127.08900518","imageIndex":17,"items":[{"name":"비전꽃식물원","tel":"031-658-6682","addr":"경기도 평택시 통복동 26-6번지","indutype":"문화.취미 - 화원","category":"other"},{"name":"비전꽃식물원","tel":"031-658-6682","addr":"경기도 평택시 통복동 26-6번지","indutype":"문화.취미 - 화원","category":"other"},{"name":"비전꽃식물원","tel":"031-653-3355","addr":"경기도 평택시 통복동 26-6번지","indutype":"소매업 - 꽃집","category":"other"}]},{"lat":"36.988325206","long":"127.08011742","imageIndex":17,"items":[{"name":"비젼자동문","tel":"031-656-9987","addr":"경기도 평택시 통복동 175-6번지","indutype":"용역 서비스 - 기타용역서비스","category":"other"},{"name":"평택센추리","tel":"031-656-9991","addr":"경기도 평택시 통복동 175-6번지","indutype":"전기제품 - 냉열기기","category":"other"}]},{"lat":"36.999520849","long":"127.08698163","imageIndex":17,"items":[{"name":"비트","tel":"","addr":"경기도 평택시 통복동 51-6번지","indutype":"수리서비스 - 사무·통신기기수리","category":"other"}]},{"lat":"36.996053171","long":"127.08492204","imageIndex":17,"items":[{"name":"빈제이구제","tel":"031-656-3141","addr":"경기도 평택시 통복동 97-30번지","indutype":"의류 - 정장","category":"other"},{"name":"패션클럽","tel":"031-651-4456","addr":"경기도 평택시 통복동 97-30번지","indutype":"소매업 - 의류","category":"other"}]},{"lat":"36.993907529","long":"127.07252926","imageIndex":17,"items":[{"name":"사단법인평택애향회","tel":"031-652-2856","addr":"경기도 평택시 통복동 241-1번지 2층","indutype":"기타 - 비영리/비대상","category":"other"},{"name":"선공구","tel":"","addr":"경기도 평택시 통복동 241-1번지","indutype":"도소매업 - 공구, 철물","category":"other"},{"name":"선공구","tel":"031-657-4117","addr":"경기도 평택시 통복동 241-1번지","indutype":"기타 - 기계공구","category":"other"}]},{"lat":"36.991632513","long":"127.07953664","imageIndex":17,"items":[{"name":"삼성공인중개사사무소","tel":"031-618-6183","addr":"경기도 평택시 통복동 477번지 삼성아파트 상가동 103호","indutype":"서비스업 - 부동산","category":"other"}]},{"lat":"36.99138114","long":"127.07808732","imageIndex":17,"items":[{"name":"삼성공조","tel":"031-682-1532","addr":"경기도 평택시 통복동 386-9번지 플레그종합인테리어 나동 7호","indutype":"전기제품 - 가전제품","category":"other"},{"name":"삼우전장","tel":"031-652-7794","addr":"경기도 평택시 통복동 386-9,10","indutype":"수리서비스 - 기타수리서비스","category":"other"},{"name":"태풍전자","tel":"031-654-2056","addr":"경기도 평택시 통복동 386-9번지 A동2,3호","indutype":"전기제품 - 기타전기제품","category":"other"},{"name":"평택가구","tel":"031-655-9483","addr":"경기도 평택시 통복동 386-9번지","indutype":"가구 - 기타가구","category":"other"},{"name":"평택종합비철금속","tel":"031-657-2128","addr":"경기도 평택시 통복동 386-9번지","indutype":"기타 - 기계공구","category":"other"},{"name":"한국종합건축자재","tel":"031-657-2127","addr":"경기도 평택시 통복동 386-9번지 A동 11,12호","indutype":"건축자재 - 기타건축자재","category":"other"}]},{"lat":"36.997134493","long":"127.08486703","imageIndex":17,"items":[{"name":"삼성정육점","tel":"031-655-4441","addr":"경기도 평택시 통복동 95-25번지","indutype":"소매업 - 정육","category":"other"}]},{"lat":"36.993885464","long":"127.07911203","imageIndex":17,"items":[{"name":"삼양떡방앗간","tel":"","addr":"경기도 평택시 통복동 287-5번지","indutype":"제조업 - 떡","category":"other"}]},{"lat":"36.996161415","long":"127.08475365","imageIndex":17,"items":[{"name":"삼양떡집","tel":"031-655-7464","addr":"경기도 평택시 통복동 97-3번지","indutype":"제조업 - 떡","category":"other"},{"name":"선경(제일)직물","tel":"031-653-0206","addr":"경기도 평택시 통복동 97-3번지","indutype":"직물 - 옷감·직물","category":"other"},{"name":"선경제일직물","tel":"031-652-6322","addr":"경기도 평택시 통복동 97-3번지","indutype":"소매업 - 의류","category":"other"}]},{"lat":"36.996990073","long":"127.08522636","imageIndex":17,"items":[{"name":"삼영농산","tel":"031-658-1244","addr":"경기도 평택시 통복동 95-28번지","indutype":"도소매업 - 농산물","category":"other"}]},{"lat":"36.994775206","long":"127.08264025","imageIndex":17,"items":[{"name":"삼일프라자","tel":"031-618-2393","addr":"경기도 평택시 통복동 110-5번지","indutype":"기타 - 기타 전문점","category":"other"}]},{"lat":"36.995386262","long":"127.08508983","imageIndex":17,"items":[{"name":"삼흥상사","tel":"031-655-2395","addr":"경기도 평택시 통복동 85-6번지","indutype":"건축자재 - 페인트","category":"other"},{"name":"정금당","tel":"031-651-3284","addr":"경기도 평택시 통복동 85-6번지","indutype":"신변잡화 - 시계","category":"other"}]},{"lat":"36.997324671","long":"127.08347423","imageIndex":17,"items":[{"name":"상주청과","tel":"031-651-0101","addr":"경기도 평택시 통복동 99-29번지","indutype":"소매업 - 과일","category":"other"}]},{"lat":"36.996439351","long":"127.08675356","imageIndex":17,"items":[{"name":"새무사김인걸사무소","tel":"031-655-7002","addr":"경기도 평택시 통복동 90-5","indutype":"용역 서비스 - 법률회계서비스(개인)","category":"other"}]},{"lat":"36.995936963","long":"127.08356263","imageIndex":17,"items":[{"name":"생활용품DC마트","tel":"031-658-9800","addr":"경기도 평택시 통복동 98-17번지","indutype":"신변잡화 - 기타잡화","category":"other"},{"name":"생활용품DC마트(리빙마트)","tel":"031-655-4546","addr":"경기도 평택시 통복동 98-17번지","indutype":"소매업 - 생활용품","category":"other"}]},{"lat":"36.995188999","long":"127.08367418","imageIndex":17,"items":[{"name":"생활용품할인백화점","tel":"031-652-8656","addr":"경기도 평택시 통복동 111-13번지","indutype":"신변잡화 - 기타잡화","category":"other"},{"name":"생활용품할인백화점","tel":"","addr":"경기도 평택시 통복동 111-13번지","indutype":"도소매업 - 생활용품","category":"other"}]},{"lat":"36.997134879","long":"127.08430533","imageIndex":17,"items":[{"name":"서산상회","tel":"031-652-7427","addr":"경기도 평택시 통복동 95-20번지","indutype":"소매업 - 농산물","category":"other"},{"name":"화장품나라","tel":"031-655-2202","addr":"경기도 평택시 통복동 95-20번지","indutype":"소매업 - 화장품","category":"other"}]},{"lat":"36.995854106","long":"127.0861126","imageIndex":17,"items":[{"name":"서연이네","tel":"031-618-1489","addr":"경기도 평택시 통복동 88-9번지 1층","indutype":"주방용구 - 주방용구","category":"other"},{"name":"에이스부엌가구","tel":"031-656-0739","addr":"경기도 평택시 통복동 88-9번지","indutype":"주방용구 - 주방용구","category":"other"},{"name":"홍대디자인가구","tel":"031-618-1488","addr":"경기도 평택시 통복동 88-9번지","indutype":"가구 - 일반가구","category":"other"}]},{"lat":"36.996297069","long":"127.08403483","imageIndex":17,"items":[{"name":"서울가방","tel":"031-655-9736","addr":"경기도 평택시 통복동 97-37번지","indutype":"신변잡화 - 가방","category":"other"},{"name":"중앙수산","tel":"031-655-4537","addr":"경기도 평택시 통복동 97-37번지","indutype":"소매업 - 수산물","category":"other"},{"name":"평택김","tel":"031-651-9995","addr":"경기도 평택시 통복동 97-37번지","indutype":"소매업 - 건어물","category":"other"}]},{"lat":"36.99791029","long":"127.08358718","imageIndex":17,"items":[{"name":"서울상회","tel":"031-655-1339","addr":"경기도 평택시 통복동 66-55번지","indutype":"소매업 - 잡곡","category":"other"},{"name":"푸른제과","tel":"031-657-2955","addr":"경기도 평택시 통복동 66-55번지","indutype":"소매업 - 제과","category":"other"}]},{"lat":"36.996107196","long":"127.08497826","imageIndex":17,"items":[{"name":"서울상회직물","tel":"","addr":"경기도 평택시 통복동 97-28번지","indutype":"소매업 -  양복양장 부자재, 미싱,","category":"other"}]},{"lat":"36.997026193","long":"127.08511406","imageIndex":17,"items":[{"name":"서울인테리어","tel":"031-652-7575","addr":"경기도 평택시 통복동 95-27번지","indutype":"건축자재 - 인테리어전문","category":"other"},{"name":"신엘림청과","tel":"031-655-7272","addr":"경기도 평택시 통복동 95-27번지","indutype":"소매업 - 과일","category":"other"}]},{"lat":"36.999961845","long":"127.08772358","imageIndex":17,"items":[{"name":"서원토탈하우징","tel":"031-654-7704","addr":"경기도 평택시 통복동 36-4번지","indutype":"건축자재 - 인테리어전문","category":"other"}]},{"lat":"36.996576385","long":"127.0840576","imageIndex":17,"items":[{"name":"선일상회","tel":"031-651-2454","addr":"경기도 평택시 통복동 95-90번지","indutype":"도소매업 - 건어물","category":"other"}]},{"lat":"36.997215952","long":"127.08433912","imageIndex":17,"items":[{"name":"성광축산사조산업경기총판","tel":"031-653-1020","addr":"경기도 평택시 통복동 95-21번지","indutype":"도소매업 - 축산물","category":"other"},{"name":"평전농산","tel":"031-655-4691","addr":"경기도 평택시 통복동 95-21번지","indutype":"소매업 - 농산물","category":"other"}]},{"lat":"36.998162536","long":"127.08366609","imageIndex":17,"items":[{"name":"성환유통","tel":"","addr":"경기도 평택시 통복동 66-41번지","indutype":"소매업 - 두부, 농수산물","category":"other"},{"name":"에스에이치유통","tel":"031-655-2083","addr":"경기도 평택시 통복동 66-41번지","indutype":"소매업 - 과일","category":"other"},{"name":"우리축산","tel":"031-691-9857","addr":"경기도 평택시 통복동 66-41번지","indutype":"소매업 - 식육판매","category":"other"}]},{"lat":"36.996964388","long":"127.0832604","imageIndex":17,"items":[{"name":"세계상회","tel":"031-658-2444","addr":"경기도 평택시 통복동 99-41번지","indutype":"소매업 - 건어물","category":"other"}]},{"lat":"36.994136934","long":"127.0803929","imageIndex":17,"items":[{"name":"세기냉동","tel":"031-000-0000","addr":"경기도 평택시 통복동 149-1번지 1층","indutype":"전기제품 - 냉열기기","category":"other"}]},{"lat":"36.99588102","long":"127.08628113","imageIndex":17,"items":[{"name":"세무사성재명사무소","tel":"031-652-5389","addr":"경기도 평택시 통복동 88-10번지","indutype":"용역 서비스 - 법률회계서비스(개인)","category":"other"}]},{"lat":"36.99577256","long":"127.08675283","imageIndex":17,"items":[{"name":"세무사정동철사무소","tel":"031-658-3073","addr":"경기도 평택시 통복동 88-6번지","indutype":"용역 서비스 - 법률회계서비스(개인)","category":"other"},{"name":"우종무세무회계사사무소","tel":"031-618-7733","addr":"경기도 평택시 통복동 88-6번지","indutype":"용역 서비스 - 법률회계서비스(개인)","category":"other"}]},{"lat":"36.995465646","long":"127.08752761","imageIndex":17,"items":[{"name":"세무사허용래사무소","tel":"031-657-9440","addr":"경기도 평택시 통복동 83-6번지 2층","indutype":"용역 서비스 - 법률회계서비스(개인)","category":"other"}]},{"lat":"36.998657855","long":"127.08405981","imageIndex":17,"items":[{"name":"세븐일레븐평택통복중앙점","tel":"","addr":"경기도 평택시 통복동 61-19번지","indutype":"유통업 영리 - 편 의 점","category":"other"}]},{"lat":"36.998827714","long":"127.0860035","imageIndex":17,"items":[{"name":"세탁풍경","tel":"031-692-3212","addr":"경기도 평택시 통복동 74-14번지","indutype":"수리서비스 - 세탁소","category":"other"},{"name":"세탁풍경","tel":"","addr":"경기도 평택시 통복동 74-14번지","indutype":"서비스업 - 세탁소","category":"other"}]},{"lat":"36.99638693","long":"127.08439441","imageIndex":17,"items":[{"name":"센트럴천양백화점","tel":"031-652-3811","addr":"경기도 평택시 통복동 95-78번지","indutype":"소매업 - 생활용품","category":"other"},{"name":"센트럴천양백화점","tel":"031-652-2242","addr":"경기도 평택시 통복동 95-78번지","indutype":"신변잡화 - 기타잡화","category":"other"}]},{"lat":"36.995467568","long":"127.0847866","imageIndex":17,"items":[{"name":"소라신발","tel":"031-655-0180","addr":"경기도 평택시 통복동 86-29번지","indutype":"신변잡화 - 신발","category":"other"},{"name":"소라신발","tel":"031-654-5555","addr":"경기도 평택시 통복동 86-29번지","indutype":"소매업 - 신발","category":"other"}]},{"lat":"36.994963617","long":"127.08384244","imageIndex":17,"items":[{"name":"소망재가센터","tel":"070-7113-1743","addr":"경기도 평택시 통복동 111-10번지","indutype":"기타의료기관 - 기타의료기관 및 기타","category":"other"},{"name":"소망케어","tel":"031-691-1288","addr":"경기도 평택시 통복동 111-10번지","indutype":"기타의료기관 - 기타의료기관 및 기타","category":"other"},{"name":"소망케어","tel":"","addr":"경기도 평택시 통복동 111-10번지","indutype":"소매업 - 의료기","category":"other"}]},{"lat":"36.996296382","long":"127.08503464","imageIndex":17,"items":[{"name":"송월타올 명도사","tel":"031-654-5505","addr":"경기도 평택시 통복동 95-111번지","indutype":"직물 - 옷감·직물","category":"other"},{"name":"송월타올명도사","tel":"031-652-3438","addr":"경기도 평택시 통복동 95-111번지","indutype":"소매업 - 수건","category":"other"}]},{"lat":"36.995800925","long":"127.08484313","imageIndex":17,"items":[{"name":"송월타올 명성상회","tel":"031-654-1809","addr":"경기도 평택시 통복동 97-36번지","indutype":"소매업 - 타올","category":"other"}]},{"lat":"36.995107411","long":"127.08439304","imageIndex":17,"items":[{"name":"송월타월 평택중앙대리점","tel":"031-654-6868","addr":"경기도 평택시 통복동 111-7번지","indutype":"직물 - 옷감·직물","category":"other"}]},{"lat":"36.991940901","long":"127.0763355","imageIndex":17,"items":[{"name":"수씽크","tel":"","addr":"경기도 평택시 통복동 367-28번지","indutype":"주방용구 - 주방용구","category":"other"}]},{"lat":"36.996882803","long":"127.08397928","imageIndex":17,"items":[{"name":"숙미네풍화상회","tel":"031-651-1879","addr":"경기도 평택시 통복동 95-10번지","indutype":"소매업 - 건어물","category":"other"}]},{"lat":"36.999800283","long":"127.08683589","imageIndex":17,"items":[{"name":"숲 토탈 공방","tel":"031-658-3111","addr":"경기도 평택시 통복동 50-8번지","indutype":"문화.취미 - 문화취미기타","category":"other"}]},{"lat":"36.995745392","long":"127.08694377","imageIndex":17,"items":[{"name":"슈발제화","tel":"031-652-9973","addr":"경기도 평택시 통복동 88-7번지","indutype":"신변잡화 - 제화","category":"other"}]},{"lat":"36.99010873","long":"127.08102908","imageIndex":17,"items":[{"name":"스포맥스","tel":"031-691-1142","addr":"경기도 평택시 통복동 167-14번지","indutype":"소매업 - 의류","category":"other"}]},{"lat":"36.995882099","long":"127.08473088","imageIndex":17,"items":[{"name":"승진네모자","tel":"031-655-2573","addr":"경기도 평택시 통복동 97-33번지","indutype":"신변잡화 - 가방","category":"other"},{"name":"승진네모자","tel":"031-655-4860","addr":"경기도 평택시 통복동 97-33번지","indutype":"소매업 - 잡화","category":"other"}]},{"lat":"36.997414095","long":"127.08447414","imageIndex":17,"items":[{"name":"시장건강원","tel":"031-618-8004","addr":"경기도 평택시 통복동 69-33번지","indutype":"소매업 - 농산물","category":"other"}]},{"lat":"36.997135743","long":"127.08303591","imageIndex":17,"items":[{"name":"식품 선코리아","tel":"","addr":"경기도 평택시 통복동 99-12번지 1층","indutype":"도소매업 - 농산물","category":"other"},{"name":"식품선코리아","tel":"031-655-5089","addr":"경기도 평택시 통복동 99-12번지","indutype":"도소매업 - 농산물","category":"other"}]},{"lat":"36.997745925","long":"127.08672129","imageIndex":17,"items":[{"name":"신나는 노래연습장","tel":"","addr":"경기도 평택시 통복동 77-7번지","indutype":"서비스업 - 노래연습장","category":"other"}]},{"lat":"36.996467818","long":"127.08469781","imageIndex":17,"items":[{"name":"신라주단","tel":"031-655-5650","addr":"경기도 평택시 통복동 95-40번지","indutype":"의류 - 맞춤복점","category":"other"}]},{"lat":"36.99926991","long":"127.08503783","imageIndex":17,"items":[{"name":"신바람세탁소","tel":"031-655-0246","addr":"경기도 평택시 통복동 60-11번지","indutype":"수리서비스 - 세탁소","category":"other"}]},{"lat":"36.99574619","long":"127.08580917","imageIndex":17,"items":[{"name":"신사임당","tel":"031-651-3141","addr":"경기도 평택시 통복동 87-12번지","indutype":"의류 - 정장","category":"other"},{"name":"여우야화장품","tel":"031-652-3627","addr":"경기도 평택시 통복동 87-12번지","indutype":"소매업 - 화장품","category":"other"},{"name":"인사동집","tel":"031-652-8248","addr":"경기도 평택시 통복동 87-12번지","indutype":"의류 - 맞춤복점","category":"other"}]},{"lat":"36.998745104","long":"127.08813789","imageIndex":17,"items":[{"name":"신성그래픽스","tel":"031-655-4009","addr":"경기도 평택시 통복동 32-9번지 1층","indutype":"유통업 영리 - 기타유통업","category":"other"}]},{"lat":"36.998771975","long":"127.08836261","imageIndex":17,"items":[{"name":"신성그래픽스","tel":"031-652-6667","addr":"경기도 평택시 통복동 32-17번지","indutype":"제조업 - 인쇄","category":"other"},{"name":"아침향기","tel":"031-000-0000","addr":"경기도 평택시 통복동 32-17번지","indutype":"문화.취미 - 화원","category":"other"},{"name":"평택전자담배마트","tel":"031-658-4856","addr":"경기도 평택시 통복동 32-17번지","indutype":"기타 - 기타 전문점","category":"other"}]},{"lat":"36.99771965","long":"127.0856428","imageIndex":17,"items":[{"name":"신성유통정육백화점","tel":"031-655-8947","addr":"경기도 평택시 통복동 76-13번지","indutype":"도소매업 - 정육","category":"other"}]},{"lat":"36.99626996","long":"127.08414714","imageIndex":17,"items":[{"name":"신세계 전화","tel":"031-657-5889","addr":"경기도 평택시 통복동 97-39번지","indutype":"사무통신 - 통신기기","category":"other"}]},{"lat":"36.995909456","long":"127.08425909","imageIndex":17,"items":[{"name":"신세대","tel":"031-651-0303","addr":"경기도 평택시 통복동 97-8번지","indutype":"소매업 - 의류","category":"other"},{"name":"신세대","tel":"031-655-4761","addr":"경기도 평택시 통복동 97-8번지","indutype":"의류 - 정장","category":"other"},{"name":"평택상사","tel":"031-655-4860","addr":"경기도 평택시 통복동 97-8번지","indutype":"의류 - 내의판매","category":"other"},{"name":"평택상사","tel":"031-652-3358","addr":"경기도 평택시 통복동 97-8번지","indutype":"소매업 - 잡화","category":"other"}]},{"lat":"36.991216951","long":"127.08117624","imageIndex":17,"items":[{"name":"신우정보통신","tel":"031-653-2533","addr":"경기도 평택시 통복동 167-2번지","indutype":"사무통신 - 통신기기","category":"other"},{"name":"여자이야기","tel":"031-652-1191","addr":"경기도 평택시 통복동 167-2번지","indutype":"도소매업 - 화장품","category":"other"},{"name":"유명공사","tel":"031-652-4268","addr":"경기도 평택시 통복동 167-2번지","indutype":"서비스업 - 샷시","category":"other"}]},{"lat":"36.999386534","long":"127.08577942","imageIndex":17,"items":[{"name":"신일서비스 평택PN풍년","tel":"031-651-7894","addr":"경기도 평택시 통복동 53-4번지","indutype":"수리서비스 - 가정용품수리","category":"other"}]},{"lat":"36.995576275","long":"127.0839442","imageIndex":17,"items":[{"name":"신일센타","tel":"031-652-4949","addr":"경기도 평택시 통복동 86-15번지","indutype":"소매업 - 생활용품","category":"other"},{"name":"신일센터","tel":"031-655-0361","addr":"경기도 평택시 통복동 86-15번지","indutype":"전기제품 - 기타전기제품","category":"other"},{"name":"평택전기상사","tel":"031-655-3161","addr":"경기도 평택시 통복동 86-15번지","indutype":"소매업 - 전기재료 및 소형가전","category":"other"}]},{"lat":"36.997856416","long":"127.08330628","imageIndex":17,"items":[{"name":"싹싹한 모종가게","tel":"031-656-0430","addr":"경기도 평택시 통복동 66-15번지","indutype":"소매업 - 모종, 씨앗, 비료","category":"other"},{"name":"싹싹한모종가게","tel":"031-651-0101","addr":"경기도 평택시 통복동 66-15번지","indutype":"문화.취미 - 화원","category":"other"},{"name":"자연스런가게","tel":"031-651-0101","addr":"경기도 평택시 통복동 66-15번지","indutype":"소매업 - 과일, 채소","category":"other"}]},{"lat":"36.996747665","long":"127.08394544","imageIndex":17,"items":[{"name":"쌍둥이네","tel":"031-655-7100","addr":"경기도 평택시 통복동 95-71번지","indutype":"소매업 - 반찬","category":"other"},{"name":"아줌마반찬","tel":"","addr":"경기도 평택시 통복동 95-71번지","indutype":"소매업 - 반찬","category":"other"}]},{"lat":"36.992993949","long":"127.07825741","imageIndex":17,"items":[{"name":"썬25시","tel":"031-656-2675","addr":"경기도 평택시 통복동 280-5번지","indutype":"유통업 영리 - 편 의 점","category":"other"}]},{"lat":"36.992803078","long":"127.08080717","imageIndex":17,"items":[{"name":"씨유평택통복삼성점","tel":"031-657-4724","addr":"경기도 평택시 통복동 161-20번지","indutype":"유통업 영리 - 편 의 점","category":"other"}]},{"lat":"37.000106528","long":"127.08700474","imageIndex":17,"items":[{"name":"씨유평택통복우정점","tel":"031-898-6695","addr":"경기도 평택시 통복동 50-1번지 1층","indutype":"유통업 영리 - 편 의 점","category":"other"}]},{"lat":"36.997657384","long":"127.0844744","imageIndex":17,"items":[{"name":"아늑한공간만들기","tel":"031-657-3122","addr":"경기도 평택시 통복동 69-3번지 4호","indutype":"문화.취미 - 민예·공예품","category":"other"}]},{"lat":"36.995603192","long":"127.08411273","imageIndex":17,"items":[{"name":"아라모드","tel":"031-653-9777","addr":"경기도 평택시 통복동 86-7번지","indutype":"소매업 - 의류","category":"other"}]},{"lat":"36.996323623","long":"127.08473135","imageIndex":17,"items":[{"name":"아리랑주단","tel":"031-655-3820","addr":"경기도 평택시 통복동 95-42번지","indutype":"소매업 - 한복, 이불","category":"other"},{"name":"하얀집","tel":"031-652-2484","addr":"경기도 평택시 통복동 95-42번지","indutype":"수리서비스 - 세탁소","category":"other"}]},{"lat":"36.996684414","long":"127.08420375","imageIndex":17,"items":[{"name":"아리랑주단","tel":"031-655-8270","addr":"경기도 평택시 통복동 95-89번지 1층","indutype":"직물 - 옷감·직물","category":"other"}]},{"lat":"36.996711906","long":"127.08352975","imageIndex":17,"items":[{"name":"아산상회","tel":"031-665-4469","addr":"경기도 평택시 통복동 95-13번지","indutype":"소매업 - 건어물","category":"other"}]},{"lat":"36.994522169","long":"127.08372964","imageIndex":17,"items":[{"name":"아성인인쇄소","tel":"031-655-6910","addr":"경기도 평택시 통복동 112-14번지","indutype":"서적문구 - 출판 및 인쇄물","category":"other"}]},{"lat":"36.993491438","long":"127.07520243","imageIndex":17,"items":[{"name":"아트빌 인테리어","tel":"031-652-9388","addr":"경기도 평택시 통복동 338-4번지 1층","indutype":"건축자재 - 인테리어전문","category":"other"}]},{"lat":"36.9966643","long":"127.08720316","imageIndex":17,"items":[{"name":"안성종합공구철물","tel":"031-655-3488","addr":"경기도 평택시 통복동 90-1번지","indutype":"기타 - 기계공구","category":"other"},{"name":"중앙유리","tel":"031-657-5623","addr":"경기도 평택시 통복동 90-1번지","indutype":"건축자재 - 유리","category":"other"}]},{"lat":"36.997990756","long":"127.08450846","imageIndex":17,"items":[{"name":"안심열쇠","tel":"031-652-1382","addr":"경기도 평택시 통복동 70-8번지","indutype":"건축자재 - 목재·석재·철물","category":"other"}]},{"lat":"36.996495443","long":"127.08383283","imageIndex":17,"items":[{"name":"안중상회","tel":"031-692-5011","addr":"경기도 평택시 통복동 95-46번지","indutype":"소매업 - 수산물","category":"other"},{"name":"충남상회","tel":"031-652-5511","addr":"경기도 평택시 통복동 95-46번지","indutype":"도소매업 - 건어물","category":"other"},{"name":"한일정육","tel":"031-655-2682","addr":"경기도 평택시 통복동 95-46번지","indutype":"소매업 - 정육","category":"other"},{"name":"할렐루야BYC","tel":"031-657-3454","addr":"경기도 평택시 통복동 95-46번지","indutype":"소매업 - 의류","category":"other"}]},{"lat":"36.997577153","long":"127.08320488","imageIndex":17,"items":[{"name":"야채나라","tel":"031-654-5745","addr":"경기도 평택시 통복동 66-12번지","indutype":"소매업 - 농산물","category":"other"}]},{"lat":"37.00018821","long":"127.08617349","imageIndex":17,"items":[{"name":"에뜨리안","tel":"031-651-0602","addr":"경기도 평택시 통복동 49-16번지 에뜨리안 801호","indutype":"의류 - 정장","category":"other"}]},{"lat":"36.995656894","long":"127.08464077","imageIndex":17,"items":[{"name":"에벤에셀","tel":"031-658-0789","addr":"경기도 평택시 통복동 86-23번지","indutype":"문화.취미 - 화원","category":"other"},{"name":"평택패션타운","tel":"031-654-3772","addr":"경기도 평택시 통복동 86-23번지 1층 의류매장","indutype":"의류 - 와이셔츠·타이","category":"other"}]},{"lat":"36.988550598","long":"127.07992669","imageIndex":17,"items":[{"name":"에스엠 바스 타일(SM BATH TILE)","tel":"031-654-1976","addr":"경기도 평택시 통복동 420-5번지 2층 3층","indutype":"건축자재 - 기타건축자재","category":"other"}]},{"lat":"36.997519924","long":"127.08775457","imageIndex":17,"items":[{"name":"엔디커텐&이불","tel":"031-658-1551","addr":"경기도 평택시 통복동 81-6번지","indutype":"직물 - 카페트,커튼,천막,지물","category":"other"},{"name":"엔디커텐,이불","tel":"031-658-1405","addr":"경기도 평택시 통복동 81-6번지","indutype":"소매업 - 침구, 커튼","category":"other"}]},{"lat":"36.996080203","long":"127.08492207","imageIndex":17,"items":[{"name":"엠디패션","tel":"031-658-3058","addr":"경기도 평택시 통복동 97-29번지","indutype":"의류 - 정장","category":"other"}]},{"lat":"36.997469215","long":"127.08292392","imageIndex":17,"items":[{"name":"연합유통","tel":"031-652-1511","addr":"경기도 평택시 통복동 65-1","indutype":"소매업 - 야채, 식자재","category":"other"}]},{"lat":"36.997495553","long":"127.08394623","imageIndex":17,"items":[{"name":"영광약초","tel":"031-652-1602","addr":"경기도 평택시 통복동 67-7번지","indutype":"제조업 - 한약","category":"other"}]},{"lat":"36.998017292","long":"127.08522747","imageIndex":17,"items":[{"name":"영동그릇주방","tel":"031-657-6323","addr":"경기도 평택시 통복동 70-3번지","indutype":"주방용구 - 주방용구","category":"other"},{"name":"영동그릇주방설비","tel":"031-655-6117","addr":"경기도 평택시 통복동 70-3번지","indutype":"도소매업 - 주방기기","category":"other"}]},{"lat":"36.997964545","long":"127.08330639","imageIndex":17,"items":[{"name":"영신농산","tel":"031-655-4750","addr":"경기도 평택시 통복동 66-14번지","indutype":"소매업 - 농산물","category":"other"}]},{"lat":"36.998494726","long":"127.08541896","imageIndex":17,"items":[{"name":"예스우드","tel":"031-652-2478","addr":"경기도 평택시 통복동 73번지","indutype":"가구 - 일반가구","category":"other"}]},{"lat":"36.996079334","long":"127.08616901","imageIndex":17,"items":[{"name":"예스우드","tel":"031-657-4289","addr":"경기도 평택시 통복동 89-8번지","indutype":"도소매업 - 가구","category":"other"}]},{"lat":"36.991775947","long":"127.08067133","imageIndex":17,"items":[{"name":"예스퀵물류","tel":"031-1600-0681","addr":"경기도 평택시 통복동 161-4번지 가영빌리지 302호","indutype":"용역 서비스 - 사무서비스","category":"other"}]},{"lat":"36.991943439","long":"127.07211185","imageIndex":17,"items":[{"name":"예일유치원","tel":"031-657-7472","addr":"경기도 평택시 통복동 379번지","indutype":"기타 - 비영리/비대상","category":"other"}]},{"lat":"36.996856206","long":"127.08333893","imageIndex":17,"items":[{"name":"오가네명가두부","tel":"031-618-3526","addr":"경기도 평택시 통복동 99-46번지","indutype":"제조업 - 두부","category":"other"}]},{"lat":"36.997546875","long":"127.08786694","imageIndex":17,"items":[{"name":"오렌지맘옷수선","tel":"031-653-7220","addr":"경기도 평택시 통복동 81-2번지","indutype":"서비스업 - 옷수선","category":"other"}]},{"lat":"36.997744974","long":"127.08805814","imageIndex":17,"items":[{"name":"오부자인테리어","tel":"031-652-4925","addr":"경기도 평택시 통복동 80-7번지","indutype":"서비스업 - 인테리어","category":"other"},{"name":"오부자종합장식","tel":"031-657-3328","addr":"경기도 평택시 통복동 80-7번지","indutype":"직물 - 카페트,커튼,천막,지물","category":"other"}]},{"lat":"36.993246042","long":"127.07858343","imageIndex":17,"items":[{"name":"오케이(OK)상사","tel":"0507-1326-6778","addr":"경기도 평택시 통복동 280-15번지 1층","indutype":"신변잡화 - 기타잡화","category":"other"}]},{"lat":"36.996521959","long":"127.08458553","imageIndex":17,"items":[{"name":"올망졸망","tel":"","addr":"경기도 평택시 통복동 95-39번지","indutype":"도소매업 - 잡화","category":"other"},{"name":"평화상회","tel":"031-655-4231","addr":"경기도 평택시 통복동 95-39번지","indutype":"의류 - 정장","category":"other"},{"name":"평화상회","tel":"031-653-3677","addr":"경기도 평택시 통복동 95-39번지","indutype":"소매업 - 의류","category":"other"}]},{"lat":"37.000079884","long":"127.08645423","imageIndex":17,"items":[{"name":"우리냉동에어컨","tel":"031-655-3367","addr":"경기도 평택시 통복동 49-8번지","indutype":"용역 서비스 - 기타용역서비스","category":"other"}]},{"lat":"36.995719464","long":"127.08537103","imageIndex":17,"items":[{"name":"우리돼지","tel":"031-651-4268","addr":"경기도 평택시 통복동 87-6번지","indutype":"도소매업 - 정육","category":"other"},{"name":"한독패션","tel":"031-1111-111","addr":"경기도 평택시 통복동 87-6번지","indutype":"의류 - 정장","category":"other"},{"name":"한독패션 통복","tel":"031-691-4392","addr":"경기도 평택시 통복동 87-6번지","indutype":"소매업 - 의류","category":"other"},{"name":"한마음커텐전문점","tel":"031-658-5755","addr":"경기도 평택시 통복동 87-6번지 지층","indutype":"직물 - 카페트,커튼,천막,지물","category":"other"}]},{"lat":"36.997441412","long":"127.08405851","imageIndex":17,"items":[{"name":"우리상회 통복","tel":"031-656-8653","addr":"경기도 평택시 통복동 67-6번지","indutype":"도소매업 - 과일","category":"other"},{"name":"우리청과","tel":"031-655-6160","addr":"경기도 평택시 통복동 67-6번지","indutype":"소매업 - 과일","category":"other"}]},{"lat":"36.994105354","long":"127.07322592","imageIndex":17,"items":[{"name":"우성","tel":"031-657-1002","addr":"경기도 평택시 통복동 236-9번지 나동","indutype":"건축자재 - 인테리어전문","category":"other"}]},{"lat":"36.995159872","long":"127.08669599","imageIndex":17,"items":[{"name":"우성타이루상사","tel":"031-655-9957","addr":"경기도 평택시 통복동 84-1번지","indutype":"건축자재 - 건축용 요업제품","category":"other"}]},{"lat":"36.992162911","long":"127.08142434","imageIndex":17,"items":[{"name":"우연종합인테리어","tel":"031-656-9244","addr":"경기도 평택시 통복동 159-4","indutype":"건축자재 - 인테리어전문","category":"other"}]},{"lat":"36.997243254","long":"127.08394597","imageIndex":17,"items":[{"name":"유성상회","tel":"031-651-3086","addr":"경기도 평택시 통복동 95-3번지","indutype":"소매업 - 농산물","category":"other"}]},{"lat":"36.998268426","long":"127.08689038","imageIndex":17,"items":[{"name":"유진주택공사","tel":"031-653-7569","addr":"경기도 평택시 통복동 78-3번지","indutype":"건축자재 - 보일러·펌프·샷시","category":"other"}]},{"lat":"36.991415135","long":"127.08125508","imageIndex":17,"items":[{"name":"이레시스템에어컨","tel":"031-618-4743","addr":"경기도 평택시 통복동 159-18번지","indutype":"전기제품 - 냉열기기","category":"other"},{"name":"이룸교육","tel":"","addr":"경기도 평택시 통복동 159-18번지","indutype":"서적문구 - 일반서적","category":"other"},{"name":"한주창호","tel":"031-656-3304","addr":"경기도 평택시 통복동 159-18번지","indutype":"건축자재 - 인테리어전문","category":"other"}]},{"lat":"36.989553808","long":"127.07512007","imageIndex":17,"items":[{"name":"이레타일","tel":"031-655-1990","addr":"경기도 평택시 통복동 352-5번지","indutype":"건축자재 - 건축용 요업제품","category":"other"}]},{"lat":"36.997522883","long":"127.08350814","imageIndex":17,"items":[{"name":"이불공장","tel":"031-653-6544","addr":"경기도 평택시 통복동 66-48번지","indutype":"직물 - 침구·수예점","category":"other"},{"name":"이불공장2호점","tel":"031-655-3893","addr":"경기도 평택시 통복동 66-48번지","indutype":"소매업 - 침구류","category":"other"}]},{"lat":"36.99935151","long":"127.0843077","imageIndex":17,"items":[{"name":"이지상사","tel":"031-658-2197","addr":"경기도 평택시 통복동 62-1번지","indutype":"신변잡화 - 기타잡화","category":"other"}]},{"lat":"36.99960173","long":"127.08728504","imageIndex":17,"items":[{"name":"인쇄랜드(광고나라)","tel":"031-611-6090","addr":"경기도 평택시 통복동 35-25번지 득진투룸 1층 상가","indutype":"서적문구 - 출판 및 인쇄물","category":"other"}]},{"lat":"36.993438887","long":"127.07267487","imageIndex":17,"items":[{"name":"일광볼트","tel":"031-653-4974","addr":"경기도 평택시 통복동 241-11번지","indutype":"소매업 - 공구","category":"other"}]},{"lat":"36.99805349","long":"127.08500282","imageIndex":17,"items":[{"name":"일성지업사","tel":"031-655-4287","addr":"경기도 평택시 통복동 70-14번지","indutype":"직물 - 카페트,커튼,천막,지물","category":"other"}]},{"lat":"36.995521501","long":"127.08497763","imageIndex":17,"items":[{"name":"자미온","tel":"031-655-4500","addr":"경기도 평택시 통복동 85-20번지","indutype":"소매업 - 침구류","category":"other"},{"name":"자미온 하우스","tel":"031-652-2449","addr":"경기도 평택시 통복동 85-20번지","indutype":"직물 - 침구·수예점","category":"other"}]},{"lat":"36.993577888","long":"127.08097646","imageIndex":17,"items":[{"name":"자연교육사","tel":"031-655-7587","addr":"경기도 평택시 통복동 150-8번지","indutype":"서적문구 - 과학기자재","category":"other"}]},{"lat":"36.995467684","long":"127.0846181","imageIndex":17,"items":[{"name":"장안팜미트","tel":"031-652-5670","addr":"경기도 평택시 통복동 86-26번지","indutype":"소매업 - 정육","category":"other"}]},{"lat":"36.996161832","long":"127.08414702","imageIndex":17,"items":[{"name":"장터마트 정육코너","tel":"031-658-8953","addr":"경기도 평택시 통복동 97-10번지","indutype":"도소매업 - 정육","category":"other"}]},{"lat":"36.989470871","long":"127.07808544","imageIndex":17,"items":[{"name":"전국익스프레스","tel":"031-651-8555","addr":"경기도 평택시 통복동 410-25번지","indutype":"서비스업 - 이사","category":"other"}]},{"lat":"36.996324293","long":"127.08375402","imageIndex":17,"items":[{"name":"전주반찬","tel":"031-655-1415","addr":"경기도 평택시 통복동 98-1번지","indutype":"소매업 - 반찬","category":"other"}]},{"lat":"36.99596411","long":"127.08339415","imageIndex":17,"items":[{"name":"정덕상회","tel":"031-651-1805","addr":"경기도 평택시 통복동 98-23번지","indutype":"소매업 - 과일","category":"other"},{"name":"태창상회","tel":"031-658-4912","addr":"경기도 평택시 통복동 98-23번지","indutype":"소매업 - 과일","category":"other"}]},{"lat":"36.9996573","long":"127.08513936","imageIndex":17,"items":[{"name":"정보종합광고사","tel":"031-658-2250","addr":"경기도 평택시 통복동 48","indutype":"용역 서비스 - 종합용역","category":"other"}]},{"lat":"36.996601049","long":"127.08745024","imageIndex":17,"items":[{"name":"정심종합상사","tel":"031-651-0989","addr":"경기도 평택시 통복동 82-2번지","indutype":"건축자재 - 목재·석재·철물","category":"other"}]},{"lat":"36.997657799","long":"127.08386777","imageIndex":17,"items":[{"name":"정우상회","tel":"031-652-6687","addr":"경기도 평택시 통복동 67-21번지","indutype":"소매업 - 고추","category":"other"}]},{"lat":"37.000051192","long":"127.08877971","imageIndex":17,"items":[{"name":"정우지업사","tel":"031-657-8683","addr":"경기도 평택시 통복동 30-2번지 1층","indutype":"건축자재 - 인테리어전문","category":"other"}]},{"lat":"36.996054232","long":"127.08337178","imageIndex":17,"items":[{"name":"정현청과","tel":"031-618-1039","addr":"경기도 평택시 통복동 98-8번지","indutype":"소매업 - 과일","category":"other"}]},{"lat":"36.995214692","long":"127.08561762","imageIndex":17,"items":[{"name":"제일금방","tel":"031-655-5770","addr":"경기도 평택시 통복동 85-26번지","indutype":"신변잡화 - 시계","category":"other"}]},{"lat":"36.997270812","long":"127.08317085","imageIndex":17,"items":[{"name":"제일기름","tel":"031-654-4507","addr":"경기도 평택시 통복동 99-7번지","indutype":"제조업 - 유제품제조","category":"other"}]},{"lat":"36.992605568","long":"127.07969488","imageIndex":17,"items":[{"name":"제일낚시","tel":"031-655-8698","addr":"경기도 평택시 통복동 139-3번지","indutype":"레져용품 - 스포츠·레져용품","category":"other"}]},{"lat":"36.996216203","long":"127.08369773","imageIndex":17,"items":[{"name":"제일손두부","tel":"031-656-4397","addr":"경기도 평택시 통복동 98-13번지","indutype":"소매업 - 두부","category":"other"},{"name":"황소꼴정육점","tel":"031-655-6160","addr":"경기도 평택시 통복동 98-13번지 1층","indutype":"도소매업 - 정육","category":"other"}]},{"lat":"36.996386333","long":"127.08525941","imageIndex":17,"items":[{"name":"제일수예점","tel":"031-655-3046","addr":"경기도 평택시 통복동 94-40번지","indutype":"직물 - 침구·수예점","category":"other"}]},{"lat":"36.995216669","long":"127.08273058","imageIndex":17,"items":[{"name":"제일천막사","tel":"031-655-2620","addr":"경기도 평택시 통복동 110-1번지","indutype":"직물 - 카페트,커튼,천막,지물","category":"other"},{"name":"한농종묘사","tel":"031-651-1565","addr":"경기도 평택시 통복동 110-1번지","indutype":"소매업 - 농약, 꽃집, 씨앗","category":"other"},{"name":"한농종묘사","tel":"031-655-6951","addr":"경기도 평택시 통복동 110-1번지","indutype":"농업 - 비료,사료,종자","category":"other"}]},{"lat":"36.996133027","long":"127.08669706","imageIndex":17,"items":[{"name":"조광상회","tel":"031-655-0180","addr":"경기도 평택시 통복동 89-1번지","indutype":"소매업 - 의류","category":"other"}]},{"lat":"36.997216581","long":"127.08341794","imageIndex":17,"items":[{"name":"조은상회","tel":"031-691-3676","addr":"경기도 평택시 통복동 99-33번지","indutype":"소매업 - 잡화","category":"other"},{"name":"조은상회","tel":"031-618-1039","addr":"경기도 평택시 통복동 99-33번지","indutype":"유통업 영리 - 기타유통업","category":"other"},{"name":"조은종합인테리어","tel":"031-618-2496","addr":"경기도 평택시 통복동 99-33번지 1층","indutype":"건축자재 - 인테리어전문","category":"other"}]},{"lat":"36.993299998","long":"127.07875198","imageIndex":17,"items":[{"name":"종합농기계부속상사","tel":"031-664-2551","addr":"경기도 평택시 통복동 280-6번지","indutype":"농업 - 농기계","category":"other"}]},{"lat":"36.996160407","long":"127.0862028","imageIndex":17,"items":[{"name":"종합씽크","tel":"031-656-1401","addr":"경기도 평택시 통복동 89-10번지","indutype":"가구 - 일반가구","category":"other"}]},{"lat":"36.9900749","long":"127.07759179","imageIndex":17,"items":[{"name":"주식회사대성타일","tel":"031-618-5292","addr":"경기도 평택시 통복동 386-20번지","indutype":"건축자재 - 건축용 요업제품","category":"other"}]},{"lat":"36.997685038","long":"127.08356448","imageIndex":17,"items":[{"name":"중앙계란","tel":"031-658-2313","addr":"경기도 평택시 통복동 66-61번지","indutype":"소매업 - 계란,소금","category":"other"}]},{"lat":"36.99680237","long":"127.08300185","imageIndex":17,"items":[{"name":"중앙고추방앗간","tel":"031-655-9793","addr":"경기도 평택시 통복동 99-22번지","indutype":"소매업 - 농산물","category":"other"}]},{"lat":"36.995161629","long":"127.08416843","imageIndex":17,"items":[{"name":"중앙여행행정사무소","tel":"031-618-8809","addr":"경기도 평택시 통복동 111-31번지","indutype":"용역 서비스 - 법률회계서비스(개인)","category":"other"}]},{"lat":"36.99682944","long":"127.08294571","imageIndex":17,"items":[{"name":"중앙전기용품","tel":"031-655-0337","addr":"경기도 평택시 통복동 99-21번지","indutype":"전기제품 - 기타전기제품","category":"other"}]},{"lat":"36.993021717","long":"127.07708917","imageIndex":17,"items":[{"name":"중앙천막기업","tel":"031-618-0406","addr":"경기도 평택시 통복동 368-12번지","indutype":"직물 - 카페트,커튼,천막,지물","category":"other"}]},{"lat":"36.995575549","long":"127.08500016","imageIndex":17,"items":[{"name":"진선미화점","tel":"031-655-3255","addr":"경기도 평택시 통복동 85-19번지","indutype":"신변잡화 - 제화","category":"other"},{"name":"진선미화점","tel":"031-652-5190","addr":"경기도 평택시 통복동 85-19번지","indutype":"소매업 - 잡화","category":"other"}]},{"lat":"36.996323515","long":"127.08488863","imageIndex":17,"items":[{"name":"진영주단혼수백화점","tel":"031-652-4924","addr":"경기도 평택시 통복동 95-43번지","indutype":"직물 - 혼수전문점","category":"other"}]},{"lat":"36.996576193","long":"127.08433844","imageIndex":17,"items":[{"name":"진웅상회","tel":"031-656-0777","addr":"경기도 평택시 통복동 95-92번지","indutype":"소매업 - 의류","category":"other"},{"name":"진웅상회","tel":"031-656-2252","addr":"경기도 평택시 통복동 95-92번지","indutype":"의류 - 정장","category":"other"}]},{"lat":"36.996108113","long":"127.08364145","imageIndex":17,"items":[{"name":"진이네반찬","tel":"031-656-5798","addr":"경기도 평택시 통복동 98-14번지","indutype":"제조업 - 반찬","category":"other"}]},{"lat":"36.997712184","long":"127.083396","imageIndex":17,"items":[{"name":"진형유통","tel":"031-651-0098","addr":"경기도 평택시 통복동 66-43번지","indutype":"소매업 - 계란,소금","category":"other"},{"name":"해미식품","tel":"031-691-3579","addr":"경기도 평택시 통복동 66-43번지","indutype":"소매업 - 젓갈, 반찬","category":"other"}]},{"lat":"36.99324764","long":"127.07603346","imageIndex":17,"items":[{"name":"창신종합배관","tel":"031-655-2687","addr":"경기도 평택시 통복동 368-1번지","indutype":"소매업 - 배관자재","category":"other"}]},{"lat":"36.999350913","long":"127.08517273","imageIndex":17,"items":[{"name":"창의력공방","tel":"041-565-5256","addr":"경기도 평택시 통복동 60-7번지","indutype":"서적문구 - 기타서적문구","category":"other"}]},{"lat":"36.997161734","long":"127.08456374","imageIndex":17,"items":[{"name":"창창야채","tel":"031-656-1999","addr":"경기도 평택시 통복동 95-22번지","indutype":"소매업 - 과일","category":"other"}]},{"lat":"36.996295976","long":"127.08561879","imageIndex":17,"items":[{"name":"천냥시대","tel":"031-652-8158","addr":"경기도 평택시 통복동 94-47외4필지1층,2층","indutype":"신변잡화 - 기타잡화","category":"other"}]},{"lat":"36.996630825","long":"127.0835072","imageIndex":17,"items":[{"name":"천냥에서 만냥까지","tel":"031-655-5289","addr":"경기도 평택시 통복동 95-120번지","indutype":"신변잡화 - 기타잡화","category":"other"},{"name":"천냥에서만냥까지","tel":"","addr":"경기도 평택시 통복동 95-120번지","indutype":"소매업 - 생활용품","category":"other"},{"name":"천일인삼","tel":"031-691-1288","addr":"경기도 평택시 통복동 95-120번지","indutype":"소매업 - 야채","category":"other"}]},{"lat":"36.998856527","long":"127.08341967","imageIndex":17,"items":[{"name":"천사 화원","tel":"031-611-0055","addr":"경기도 평택시 통복동 62-5번지","indutype":"문화.취미 - 화원","category":"other"}]},{"lat":"36.995575448","long":"127.0851462","imageIndex":17,"items":[{"name":"초콜렛","tel":"031-653-7709","addr":"경기도 평택시 통복동 85-17번지 1층","indutype":"신변잡화 - 액세서리","category":"other"}]},{"lat":"36.996468142","long":"127.08422599","imageIndex":17,"items":[{"name":"캡틴모자","tel":"031-618-2969","addr":"경기도 평택시 통복동 95-59번지","indutype":"신변잡화 - 액세서리","category":"other"}]},{"lat":"36.997351962","long":"127.0830923","imageIndex":17,"items":[{"name":"코나다수산","tel":"031-8029-6120","addr":"경기도 평택시 통복동 99-5번지","indutype":"도소매업 - 수산물","category":"other"},{"name":"태양농산","tel":"031-656-4252","addr":"경기도 평택시 통복동 99-5번지","indutype":"도매업 - 고추","category":"other"}]},{"lat":"36.999575522","long":"127.08611665","imageIndex":17,"items":[{"name":"태원상사","tel":"031-658-3971","addr":"경기도 평택시 통복동 53-2번지 1층","indutype":"기타 - 기타 전문점","category":"other"}]},{"lat":"36.996269999","long":"127.08409097","imageIndex":17,"items":[{"name":"태창한복","tel":"031-655-5514","addr":"경기도 평택시 통복동 97-38번지","indutype":"의류 - 맞춤복점","category":"other"},{"name":"태창한복","tel":"","addr":"경기도 평택시 통복동 97-38번지","indutype":"소매업 - 한복","category":"other"}]},{"lat":"36.998270304","long":"127.0841942","imageIndex":17,"items":[{"name":"통복상회","tel":"031-656-4397","addr":"경기도 평택시 통복동 67-40번지","indutype":"소매업 - 과일","category":"other"}]},{"lat":"36.992109578","long":"127.08031221","imageIndex":17,"items":[{"name":"통큰딱다구리","tel":"031-658-7893","addr":"경기도 평택시 통복동 162-3번지","indutype":"서적문구 - 문구용품","category":"other"},{"name":"통큰딱따구리 문구점","tel":"031-616-8048","addr":"경기도 평택시 통복동 162-3번지","indutype":"소매업 - 문구","category":"other"}]},{"lat":"36.995854741","long":"127.08520267","imageIndex":17,"items":[{"name":"패션클럽","tel":"031-651-0624","addr":"경기도 평택시 통복동 87-22번지","indutype":"의류 - 정장","category":"other"}]},{"lat":"36.994101518","long":"127.07942678","imageIndex":17,"items":[{"name":"평광기계","tel":"031-655-0343","addr":"경기도 평택시 통복동 128-3번지","indutype":"수리서비스 - 기타수리서비스","category":"other"}]},{"lat":"36.99319002","long":"127.0815939","imageIndex":17,"items":[{"name":"평우건축설비","tel":"031-655-6310","addr":"경기도 평택시 통복동 153-51번지 다동 1층","indutype":"용역 서비스 - 기타용역서비스","category":"other"}]},{"lat":"36.99593607","long":"127.08486574","imageIndex":17,"items":[{"name":"평일가방","tel":"031-651-0624","addr":"경기도 평택시 통복동 97-32번지","indutype":"소매업 - 잡화","category":"other"},{"name":"평일가방","tel":"031-655-7497","addr":"경기도 평택시 통복동 97-32번지","indutype":"신변잡화 - 가방","category":"other"}]},{"lat":"36.99538459","long":"127.08747136","imageIndex":17,"items":[{"name":"평택H2국제행정사사무소","tel":"070-4406-2005","addr":"경기도 평택시 통복동 83-8번지","indutype":"용역 서비스 - 법률회계서비스(개인)","category":"other"},{"name":"하나텔레콤","tel":"031-658-8579","addr":"경기도 평택시 통복동 83-8번지 1층","indutype":"사무통신 - 컴퓨터","category":"other"}]},{"lat":"36.99590854","long":"127.08558467","imageIndex":17,"items":[{"name":"평택MF라이온스클럽","tel":"031-652-4039","addr":"경기도 평택시 통복동 87-15번지 3층","indutype":"기타 - 비영리/비대상","category":"other"}]},{"lat":"36.99599874","long":"127.08544996","imageIndex":17,"items":[{"name":"평택가구랑","tel":"031-658-8585","addr":"경기도 평택시 통복동 87-14번지 1층","indutype":"가구 - 일반가구","category":"other"}]},{"lat":"36.999771942","long":"127.08866705","imageIndex":17,"items":[{"name":"평택간판","tel":"031-653-0477","addr":"경기도 평택시 통복동 30-6번지","indutype":"용역 서비스 - 종합용역","category":"other"}]},{"lat":"36.990964762","long":"127.08100749","imageIndex":17,"items":[{"name":"평택고향쌀","tel":"031-657-3131","addr":"경기도 평택시 통복동 167-16번지","indutype":"소매업 - 쌀","category":"other"}]},{"lat":"36.996387498","long":"127.08356311","imageIndex":17,"items":[{"name":"평택떡집","tel":"031-655-8071","addr":"경기도 평택시 통복동 98-10번지","indutype":"제조업 - 떡","category":"other"}]},{"lat":"36.995054219","long":"127.08311236","imageIndex":17,"items":[{"name":"평택부라더미싱","tel":"031-652-2707","addr":"경기도 평택시 통복동 112-3번지","indutype":"전기제품 - 가전제품","category":"other"}]},{"lat":"36.998549171","long":"127.08486855","imageIndex":17,"items":[{"name":"평택브라더미싱","tel":"031-655-4459","addr":"경기도 평택시 통복동 71-12번지","indutype":"소매업 - 미싱","category":"other"}]},{"lat":"36.998828905","long":"127.08428467","imageIndex":17,"items":[{"name":"평택안경","tel":"031-656-9231","addr":"경기도 평택시 통복동 61-17번지","indutype":"소매업 - 안경","category":"other"}]},{"lat":"36.992969274","long":"127.0744493","imageIndex":17,"items":[{"name":"평택액자","tel":"031-691-9295","addr":"경기도 평택시 통복동 339-2번지","indutype":"소매업 - 액자","category":"other"},{"name":"평택액자","tel":"031-653-1118","addr":"경기도 평택시 통복동 339-2번지","indutype":"문화.취미 - 화방·표구점","category":"other"}]},{"lat":"36.996495058","long":"127.08439452","imageIndex":17,"items":[{"name":"평택예인인테리어","tel":"031-655-3762","addr":"경기도 평택시 통복동 95-37번지","indutype":"건축자재 - 인테리어전문","category":"other"}]},{"lat":"37.000161547","long":"127.08564545","imageIndex":17,"items":[{"name":"평택오성쌀","tel":"","addr":"경기도 평택시 통복동 58-2번지","indutype":"소매업 - 양곡","category":"other"}]},{"lat":"36.996024954","long":"127.0866183","imageIndex":17,"items":[{"name":"평택온돌침대","tel":"031-618-6653","addr":"경기도 평택시 통복동 89-2번지","indutype":"가구 - 일반가구","category":"other"},{"name":"평택온돌침대","tel":"031-652-7314","addr":"경기도 평택시 통복동 89-2번지","indutype":"소매업 - 가구","category":"other"},{"name":"한솔방가구","tel":"031-655-4503","addr":"경기도 평택시 통복동 89-2번지","indutype":"가구 - 일반가구","category":"other"}]},{"lat":"36.998243647","long":"127.08364371","imageIndex":17,"items":[{"name":"평택종합수산","tel":"","addr":"경기도 평택시 통복동 66-68번지","indutype":"도소매업 - 수산물","category":"other"}]},{"lat":"36.9965492","long":"127.08428224","imageIndex":17,"items":[{"name":"평택지물인테리어","tel":"031-654-5505","addr":"경기도 평택시 통복동 95-91번지","indutype":"서비스업 - 인테리어","category":"other"},{"name":"평택지물인테리어","tel":"031-656-1660","addr":"경기도 평택시 통복동 95-91번지 1층","indutype":"직물 - 카페트,커튼,천막,지물","category":"other"}]},{"lat":"36.993634135","long":"127.07758404","imageIndex":17,"items":[{"name":"평택철물건재공구","tel":"031-658-6933","addr":"경기도 평택시 통복동 376-15번지","indutype":"기타 - 기계공구","category":"other"}]},{"lat":"36.993804454","long":"127.07897715","imageIndex":17,"items":[{"name":"평택톱집공구","tel":"031-653-6690","addr":"경기도 평택시 통복동 286-2번지 1층","indutype":"기타 - 기계공구","category":"other"}]},{"lat":"36.996017699","long":"127.0840907","imageIndex":17,"items":[{"name":"평택현대정육점","tel":"031-658-6088","addr":"경기도 평택시 통복동 97-14번지","indutype":"소매업 - 정육","category":"other"},{"name":"현대건어물","tel":"031-654-4741","addr":"경기도 평택시 통복동 97-14번지","indutype":"소매업 - 건어물","category":"other"}]},{"lat":"36.997440318","long":"127.0856425","imageIndex":17,"items":[{"name":"폰다방","tel":"031-616-7076","addr":"경기도 평택시 통복동 92-27번지 1층","indutype":"사무통신 - 통신기기","category":"other"},{"name":"폰다방","tel":"031-654-2575","addr":"경기도 평택시 통복동 92-27번지","indutype":"소매업 - 전자기기","category":"other"}]},{"lat":"36.993464303","long":"127.0753709","imageIndex":17,"items":[{"name":"폰사랑김도령","tel":"","addr":"경기도 평택시 통복동 338-5번지","indutype":"소매업 - 전자기기","category":"other"}]},{"lat":"36.998081646","long":"127.08336268","imageIndex":17,"items":[{"name":"풀그린","tel":"031-655-6216","addr":"경기도 평택시 통복동 66-17번지","indutype":"소매업 - 축산물","category":"other"}]},{"lat":"36.995693184","long":"127.08428133","imageIndex":17,"items":[{"name":"핑크화장품","tel":"031-652-2707","addr":"경기도 평택시 통복동 86-4번지","indutype":"소매업 - 화장품","category":"other"}]},{"lat":"37.001132271","long":"127.08906179","imageIndex":17,"items":[{"name":"하나디자인","tel":"031-658-7337","addr":"경기도 평택시 통복동 24-1번지","indutype":"문화.취미 - 민예·공예품","category":"other"}]},{"lat":"37.000629243","long":"127.08687051","imageIndex":17,"items":[{"name":"한국인테리어","tel":"031-656-5572","addr":"경기도 평택시 통복동 39-4번지","indutype":"직물 - 카페트,커튼,천막,지물","category":"other"}]},{"lat":"36.993853366","long":"127.07269772","imageIndex":17,"items":[{"name":"한상 I&S 평택지점","tel":"031-618-9525","addr":"경기도 평택시 통복동 241-16번지","indutype":"건축자재 - 목재·석재·철물","category":"other"}]},{"lat":"36.990717753","long":"127.07250389","imageIndex":17,"items":[{"name":"한성셔터","tel":"031-618-3363","addr":"경기도 평택시 통복동 414-1번지","indutype":"서비스업 - 건축자재","category":"other"}]},{"lat":"36.995801879","long":"127.08345015","imageIndex":17,"items":[{"name":"한우마을축산물","tel":"031-652-6112","addr":"경기도 평택시 통복동 98-5번지","indutype":"소매업 - 정육","category":"other"}]},{"lat":"36.999079856","long":"127.08622845","imageIndex":17,"items":[{"name":"한일낙촌정육점","tel":"031-657-0033","addr":"경기도 평택시 통복동 51-11번지","indutype":"소매업 - 정육","category":"other"}]},{"lat":"36.99599137","long":"127.08305717","imageIndex":17,"items":[{"name":"할렐루야비와이씨","tel":"031-651-1879","addr":"경기도 평택시 통복동 100-4번지","indutype":"회원제형태 - 기타1","category":"other"}]},{"lat":"36.998909506","long":"127.08500374","imageIndex":17,"items":[{"name":"합덕농산","tel":"031-658-6682","addr":"경기도 평택시 통복동 72-15번지","indutype":"소매업 - 쌀, 잡곡","category":"other"}]},{"lat":"36.998774462","long":"127.08483509","imageIndex":17,"items":[{"name":"해동불교사","tel":"031-654-0108","addr":"경기도 평택시 통복동 71-8번지","indutype":"신변잡화 - 기념품점","category":"other"}]},{"lat":"36.998189736","long":"127.08341897","imageIndex":17,"items":[{"name":"해동청과","tel":"031-656-9897","addr":"경기도 평택시 통복동 66-4번지","indutype":"소매업 - 과일","category":"other"}]},{"lat":"36.994909045","long":"127.0845838","imageIndex":17,"items":[{"name":"해피패션","tel":"031-651-2428","addr":"경기도 평택시 통복동 111-3번지","indutype":"의류 - 정장","category":"other"}]},{"lat":"36.993581682","long":"127.07497784","imageIndex":17,"items":[{"name":"현대수도","tel":"031-655-4594","addr":"경기도 평택시 통복동 338-2번지","indutype":"소매업 - 배관자재","category":"other"}]},{"lat":"36.994963085","long":"127.08461756","imageIndex":17,"items":[{"name":"현대수족관","tel":"031-652-0859","addr":"경기도 평택시 통복동 111-2번지","indutype":"문화.취미 - 수족관","category":"other"}]},{"lat":"36.99696329","long":"127.08486685","imageIndex":17,"items":[{"name":"현대지물포","tel":"031-651-2765","addr":"경기도 평택시 통복동 95-34번지","indutype":"직물 - 카페트,커튼,천막,지물","category":"other"}]},{"lat":"36.998442035","long":"127.08341923","imageIndex":17,"items":[{"name":"현대포장","tel":"031-655-0361","addr":"경기도 평택시 통복동 66-2번지","indutype":"소매업 - 비닐포장 및 잡화","category":"other"}]},{"lat":"36.99888166","long":"127.08617207","imageIndex":17,"items":[{"name":"현호상사","tel":"031-655-5638","addr":"경기도 평택시 통복동 74-13번지","indutype":"전기제품 - 가전제품","category":"other"}]},{"lat":"36.997189807","long":"127.08303596","imageIndex":17,"items":[{"name":"협동상회","tel":"031-652-3882","addr":"경기도 평택시 통복동 99-9번지","indutype":"소매업 - 농산물","category":"other"}]},{"lat":"36.99538655","long":"127.08467418","imageIndex":17,"items":[{"name":"형제금방","tel":"031-655-9497","addr":"경기도 평택시 통복동 86-32번지","indutype":"소매업 - 귀금속","category":"other"},{"name":"형제금방","tel":"031-651-4949","addr":"경기도 평택시 통복동 86-32번지","indutype":"신변잡화 - 귀금속","category":"other"}]},{"lat":"36.995359479","long":"127.08473032","imageIndex":17,"items":[{"name":"형제당","tel":"031-655-4949","addr":"경기도 평택시 통복동 86-31번지","indutype":"신변잡화 - 시계","category":"other"}]},{"lat":"36.988995587","long":"127.07438941","imageIndex":17,"items":[{"name":"형제천막앵글","tel":"031-657-8217","addr":"경기도 평택시 통복동 352-26번지","indutype":"직물 - 카페트,커튼,천막,지물","category":"other"}]},{"lat":"36.996189377","long":"127.08339439","imageIndex":17,"items":[{"name":"호남정육","tel":"031-657-0247","addr":"경기도 평택시 통복동 98-28번지","indutype":"소매업 - 정육","category":"other"}]},{"lat":"36.994497435","long":"127.08028093","imageIndex":17,"items":[{"name":"홍전사","tel":"031-655-1230","addr":"경기도 평택시 통복동 124-3번지","indutype":"수리서비스 - 기타수리서비스","category":"other"}]},{"lat":"36.995575487","long":"127.08509003","imageIndex":17,"items":[{"name":"화장품나라","tel":"031-656-2886","addr":"경기도 평택시 통복동 85-18번지","indutype":"소매업 - 화장품","category":"other"}]},{"lat":"36.994630603","long":"127.08328041","imageIndex":17,"items":[{"name":"흥아농공사","tel":"031-652-9719","addr":"경기도 평택시 통복동 112-11번지","indutype":"농업 - 농기계","category":"other"}]}]