[{"lat":"37.705573975","long":"127.05748383","imageIndex":0,"items":[{"name":"김여사드라이브","tel":"031-879-9966","addr":"경기도 의정부시 장암동 117-1번지 B동","indutype":"자동차정비 유지 - 자동차부품","category":"car"}]},{"lat":"37.699376647","long":"127.05462186","imageIndex":0,"items":[{"name":"내비앤블랙","tel":"02-3492-8400","addr":"경기도 의정부시 장암동 214-14번지 102호","indutype":"자동차정비 유지 - 자동차부품","category":"car"}]},{"lat":"37.726212004","long":"127.06354485","imageIndex":0,"items":[{"name":"대광카에어콘","tel":"031-874-2041","addr":"경기도 의정부시 장암동 14-78번지","indutype":"자동차정비 유지 - 자동차부품","category":"car"},{"name":"데굴데굴타이어","tel":"031-877-2234","addr":"경기도 의정부시 장암동 14-78번지","indutype":"자동차정비 유지 - 자동차시트·타이어","category":"car"}]},{"lat":"37.690826159","long":"127.05540956","imageIndex":0,"items":[{"name":"레인보우 카시트","tel":"031-874-0606","addr":"경기도 의정부시 장암동 380-3번지 지하1층","indutype":"자동차정비 유지 - 자동차시트·타이어","category":"car"}]},{"lat":"37.699827371","long":"127.05406655","imageIndex":0,"items":[{"name":"씨앤에스테크(주)","tel":"031-221-2005","addr":"경기도 의정부시 장암동 160-9번지 마니와빌딩 12호","indutype":"자동차정비 유지 - 자동차부품","category":"car"}]},{"lat":"37.701737033","long":"127.05492966","imageIndex":0,"items":[{"name":"장암복지카센타","tel":"031-879-6604","addr":"경기도 의정부시 장암동 175-3번지","indutype":"자동차정비 유지 - 자동차정비","category":"car"}]},{"lat":"37.704042659","long":"127.05679099","imageIndex":0,"items":[{"name":"장암중기","tel":"031-872-2952","addr":"경기도 의정부시 장암동 129-5번지","indutype":"자동차정비 유지 - 자동차정비","category":"car"}]},{"lat":"37.700043139","long":"127.05512124","imageIndex":0,"items":[{"name":"차사랑카케어","tel":"","addr":"경기도 의정부시 장암동 162-4번지","indutype":"자동차정비 유지 - 카인테리어","category":"car"}]},{"lat":"37.704852761","long":"127.05843585","imageIndex":0,"items":[{"name":"커스텀","tel":"070-8292-7998","addr":"경기도 의정부시 장암동 108-2번지","indutype":"자동차정비 유지 - 자동차부품","category":"car"}]},{"lat":"37.723658122","long":"127.05326627","imageIndex":0,"items":[{"name":"클린조이주식회사장암점","tel":"031-877-3341","addr":"경기도 의정부시 장암동 38-10번지 1층 스팀세차코너","indutype":"자동차정비 유지 - 세차장","category":"car"}]}]