[{"lat":"37.297352627","long":"127.63502122","imageIndex":8,"items":[{"name":"기분좋은치과","tel":"031-886-2879","addr":"경기도 여주시 창동 68번지 중앙프라자 304호","indutype":"의원 - 치과의원","category":"medical"},{"name":"중앙한의원","tel":"031-886-8275","addr":"경기도 여주시 창동 68번지 중앙프라자 B동 205호","indutype":"의원 - 한의원","category":"medical"}]},{"lat":"37.2972456548","long":"127.6348060364","imageIndex":8,"items":[{"name":"길치과의원","tel":"031-885-2875","addr":"경기도 여주시 창동 66-3번지","indutype":"의원 - 치과의원","category":"medical"}]},{"lat":"37.297023758","long":"127.63586433","imageIndex":8,"items":[{"name":"김의원","tel":"031-885-9391","addr":"경기도 여주시 창동 50-4번지","indutype":"의원 - 의원","category":"medical"},{"name":"정승관 산부인과의원","tel":"031-883-8575","addr":"경기도 여주시 창동 50-4번지 동방빌딩 2층","indutype":"의원 - 의원","category":"medical"},{"name":"함안과의원","tel":"031-884-7577","addr":"경기도 여주시 창동 50-4번지 7층","indutype":"의원 - 의원","category":"medical"}]},{"lat":"37.294995638","long":"127.6343361","imageIndex":8,"items":[{"name":"김치환내과의원","tel":"031-883-1008","addr":"경기도 여주시 창동 149-1번지","indutype":"의원 - 의원","category":"medical"}]},{"lat":"37.297077997","long":"127.63583095","imageIndex":8,"items":[{"name":"동방치과","tel":"031-885-0275","addr":"경기도 여주시 창동 50-4번지 동방빌딩 4층","indutype":"의원 - 치과의원","category":"medical"},{"name":"삼성신경정신과","tel":"031-885-8857","addr":"경기도 여주시 창동 50-4번지","indutype":"의원 - 의원","category":"medical"},{"name":"서울이비인후과","tel":"031-885-7600","addr":"경기도 여주시 창동 50-4번지","indutype":"의원 - 의원","category":"medical"},{"name":"세계로약국","tel":"031-886-6007","addr":"경기도 여주시 창동 50-4번지","indutype":"약국 - 약국","category":"medical"},{"name":"우리들의원","tel":"031-886-0230","addr":"경기도 여주시 창동 50-4번지","indutype":"의원 - 의원","category":"medical"}]},{"lat":"37.296610036","long":"127.63572552","imageIndex":8,"items":[{"name":"맑은숲한의원","tel":"031-883-3775","addr":"경기도 여주시 창동 51-3번지","indutype":"의원 - 한의원","category":"medical"},{"name":"연세바로본치과의원","tel":"031-886-2804","addr":"경기도 여주시 창동 51-3번지 2층","indutype":"의원 - 치과의원","category":"medical"}]},{"lat":"37.295465947","long":"127.63400169","imageIndex":8,"items":[{"name":"선경약국","tel":"031-883-7556","addr":"경기도 여주시 창동 133-3번지","indutype":"약국 - 약국","category":"medical"}]},{"lat":"37.296718453","long":"127.63567004","imageIndex":8,"items":[{"name":"연세미소치과의원","tel":"031-885-2804","addr":"경기도 여주시 창동 51-2번지 2층","indutype":"의원 - 치과의원","category":"medical"},{"name":"연세미소치과의원","tel":"031-885-2804","addr":"경기도 여주시 창동 51-2번지 2층","indutype":"의원 - 치과의원","category":"medical"}]},{"lat":"37.2897777618","long":"127.6328377515","imageIndex":8,"items":[{"name":"연세새로운병원","tel":"031-885-7582","addr":"경기도 여주시 창동 180-1번지 여주새로운병원","indutype":"병원 - 병원","category":"medical"}]},{"lat":"37.290050753","long":"127.63233256","imageIndex":8,"items":[{"name":"한글약국","tel":"031-883-4569","addr":"경기도 여주시 창동 179-9번지","indutype":"약국 - 약국","category":"medical"}]},{"lat":"37.295385341","long":"127.6339108","imageIndex":8,"items":[{"name":"현대정형외과의원","tel":"031-884-3354","addr":"경기도 여주시 창동 135번지","indutype":"병원 - 병원","category":"medical"}]}]