[{"lat":"37.65386107","long":"127.30566373","imageIndex":13,"items":[{"name":"031노래방","tel":"031-595-4733","addr":"경기도 남양주시 화도읍 마석우리 295-17번지 지층","indutype":"레저업소 - 노 래 방","category":"leisure"}]},{"lat":"37.657218915","long":"127.3032182","imageIndex":13,"items":[{"name":"DS당구클럽","tel":"031-595-2459","addr":"경기도 남양주시 화도읍 마석우리 383-6번지 중흥프라자 701호","indutype":"레저업소 - 당 구 장","category":"leisure"},{"name":"꿀잼PC방","tel":"","addr":"경기도 남양주시 화도읍 마석우리 383-6번지 중흥프라자 303호,304호","indutype":"레저업소 - 기타레져업소","category":"leisure"},{"name":"더씨엘요가(thecielyoga)","tel":"","addr":"경기도 남양주시 화도읍 마석우리 383-6번지 중흥프라자 801호","indutype":"레저업소 - 헬스클럽","category":"leisure"},{"name":"캔디캔디노래연습장","tel":"031-559-7989","addr":"경기도 남양주시 화도읍 마석우리 383-6번지 중흥프라자 203호","indutype":"레저업소 - 노 래 방","category":"leisure"}]},{"lat":"37.65675036","long":"127.30323898","imageIndex":13,"items":[{"name":"LK당구클럽","tel":"031-592-3385","addr":"경기도 남양주시 화도읍 마석우리 383-9번지 별나라프라자 4층 401-403호","indutype":"레저업소 - 당 구 장","category":"leisure"},{"name":"별나라노래연습장","tel":"031-594-1443","addr":"경기도 남양주시 화도읍 마석우리 383-9번지 별나라프라자 2층 204호","indutype":"레저업소 - 노 래 방","category":"leisure"},{"name":"샹떼PC방","tel":"070-8816-1183","addr":"경기도 남양주시 화도읍 마석우리 383-9번지 별나라프라자 502호 502~503호","indutype":"레저업소 - 기타레져업소","category":"leisure"},{"name":"세븐스타코인노래연습장 마석우리점","tel":"","addr":"경기도 남양주시 화도읍 마석우리 383-9번지 별나라프라자 2층 202호","indutype":"레저업소 - 노 래 방","category":"leisure"}]},{"lat":"37.654445062","long":"127.3063007","imageIndex":13,"items":[{"name":"MS당구장","tel":"031-593-3949","addr":"경기도 남양주시 화도읍 마석우리 297-4번지 2층","indutype":"레저업소 - 당 구 장","category":"leisure"}]},{"lat":"37.655137044","long":"127.29991213","imageIndex":13,"items":[{"name":"근린당구장","tel":"031-594-0023","addr":"경기도 남양주시 화도읍 마석우리 521-6번지 3층","indutype":"레저업소 - 당 구 장","category":"leisure"}]},{"lat":"37.654221191","long":"127.30576718","imageIndex":13,"items":[{"name":"달노래연습장","tel":"031-594-3887","addr":"경기도 남양주시 화도읍 마석우리 295-15번지 성지빌딩 지하1층","indutype":"레저업소 - 노 래 방","category":"leisure"},{"name":"필노래연습장","tel":"031-594-3887","addr":"경기도 남양주시 화도읍 마석우리 295-15 성지빌딩지하1층","indutype":"레저업소 - 노 래 방","category":"leisure"}]},{"lat":"37.66166935","long":"127.30334946","imageIndex":13,"items":[{"name":"드래곤점핑","tel":"031-559-0379","addr":"경기도 남양주시 화도읍 마석우리 466-1번지","indutype":"레저업소 - 기타레져업소","category":"leisure"}]},{"lat":"37.651331057","long":"127.30849771","imageIndex":13,"items":[{"name":"떳다노래연습장","tel":"031-593-0153","addr":"경기도 남양주시 화도읍 마석우리 263-8번지","indutype":"레저업소 - 노 래 방","category":"leisure"}]},{"lat":"37.657419114","long":"127.30243706","imageIndex":13,"items":[{"name":"라이또PC 마석본점","tel":"070-2886-3233","addr":"경기도 남양주시 화도읍 마석우리 383-4번지 캠퍼스프라자 4층 402,403호","indutype":"레저업소 - 기타레져업소","category":"leisure"},{"name":"캠퍼스국제식대대클럽","tel":"031-593-9100","addr":"경기도 남양주시 화도읍 마석우리 383-4번지 캠퍼스프라자 401호","indutype":"레저업소 - 당 구 장","category":"leisure"},{"name":"호노래연습장","tel":"031-591-7006","addr":"경기도 남양주시 화도읍 마석우리 383-4번지 캠퍼스프라자 205호","indutype":"레저업소 - 노 래 방","category":"leisure"}]},{"lat":"37.657141082","long":"127.30193731","imageIndex":13,"items":[{"name":"라인핫요가","tel":"031-591-5936","addr":"경기도 남양주시 화도읍 마석우리 383-1번지 정길프라자 505호","indutype":"레저업소 - 헬스클럽","category":"leisure"},{"name":"렙업PC방(중흥점)","tel":"070-7997-4032","addr":"경기도 남양주시 화도읍 마석우리 383-1번지 정길프라자 8층 803,804,805호","indutype":"레저업소 - 기타레져업소","category":"leisure"},{"name":"스크린야구 (다함께 야구왕)","tel":"031-593-7277","addr":"경기도 남양주시 화도읍 마석우리 383-1번지 정길프라자 3층 전체","indutype":"레저업소 - 기타레져업소","category":"leisure"},{"name":"피트니스 화도","tel":"","addr":"경기도 남양주시 화도읍 마석우리 383-1번지 성훈프라자 701 ,702,703호","indutype":"레저업소 - 헬스클럽","category":"leisure"}]},{"lat":"37.652505553","long":"127.30724469","imageIndex":13,"items":[{"name":"로그인PC방","tel":"","addr":"경기도 남양주시 화도읍 마석우리 292-25","indutype":"레저업소 - 기타레져업소","category":"leisure"}]},{"lat":"37.652081465","long":"127.31095978","imageIndex":13,"items":[{"name":"마석노래연습실","tel":"031-593-2505","addr":"경기도 남양주시 화도읍 마석우리 282번지 지층","indutype":"레저업소 - 노 래 방","category":"leisure"}]},{"lat":"37.655446347","long":"127.30582882","imageIndex":13,"items":[{"name":"머스트윈","tel":"031-594-3248","addr":"경기도 남양주시 화도읍 마석우리 298-12번지 5층","indutype":"레저업소 - 헬스클럽","category":"leisure"}]},{"lat":"37.65696898","long":"127.30229926","imageIndex":13,"items":[{"name":"바디 밸런스","tel":"031-511-0877","addr":"경기도 남양주시 화도읍 마석우리 392-5번지 신명프라자 202호","indutype":"레저업소 - 헬스클럽","category":"leisure"}]},{"lat":"37.658252727","long":"127.30057051","imageIndex":13,"items":[{"name":"브레이브힐 기구필라테스 화도점","tel":"031-572-6252","addr":"경기도 남양주시 화도읍 마석우리 541-1번지 3층","indutype":"레저업소 - 헬스클럽","category":"leisure"},{"name":"에스바디핏마석지점","tel":"031-572-6252","addr":"경기도 남양주시 화도읍 마석우리 541-1번지 3층 301호","indutype":"레저업소 - 헬스클럽","category":"leisure"}]},{"lat":"37.650283713","long":"127.30935461","imageIndex":13,"items":[{"name":"브레이브힐기구 기구필라테스 마석점","tel":"031-595-0535","addr":"경기도 남양주시 화도읍 마석우리 255-24번지 109호 108호, 109호","indutype":"레저업소 - 헬스클럽","category":"leisure"}]},{"lat":"37.654753173","long":"127.30207505","imageIndex":13,"items":[{"name":"살빠짐","tel":"","addr":"경기도 남양주시 화도읍 마석우리 588번지 유일프라자 202호","indutype":"레저업소 - 헬스클럽","category":"leisure"}]},{"lat":"37.652194624","long":"127.30902251","imageIndex":13,"items":[{"name":"신바람노래연습장","tel":"031-559-3367","addr":"경기도 남양주시 화도읍 마석우리 290-8번지 지하","indutype":"레저업소 - 노 래 방","category":"leisure"}]},{"lat":"37.65483644","long":"127.30121414","imageIndex":13,"items":[{"name":"씨크릿수상레저","tel":"031-559-1145","addr":"경기도 남양주시 화도읍 마석우리 585번지","indutype":"레저업소 - 기타레져업소","category":"leisure"}]},{"lat":"37.657691182","long":"127.30527131","imageIndex":13,"items":[{"name":"아지트 당구클럽","tel":"031-512-6944","addr":"경기도 남양주시 화도읍 마석우리 363-4번지 대영빌딩 5층","indutype":"레저업소 - 당 구 장","category":"leisure"}]},{"lat":"37.652224236","long":"127.30802543","imageIndex":13,"items":[{"name":"앗싸노래연습장","tel":"031-593-7806","addr":"경기도 남양주시 화도읍 마석우리 292-17번지 SL프라자 502호","indutype":"레저업소 - 노 래 방","category":"leisure"},{"name":"피넛PC방","tel":"","addr":"경기도 남양주시 화도읍 마석우리 292-17번지 SL프라자 3층 302,303호","indutype":"레저업소 - 기타레져업소","category":"leisure"}]},{"lat":"37.657309933","long":"127.30285593","imageIndex":13,"items":[{"name":"엔젤 필라테스","tel":"","addr":"경기도 남양주시 화도읍 마석우리 383-5번지 메디칼프라자 304호","indutype":"레저업소 - 헬스클럽","category":"leisure"}]},{"lat":"37.65744712","long":"127.30205186","imageIndex":13,"items":[{"name":"엠에스노래연습장","tel":"031-511-7555","addr":"경기도 남양주시 화도읍 마석우리 383-2번지 중앙프라자 302동 303호","indutype":"레저업소 - 노 래 방","category":"leisure"},{"name":"위너PC방중흥점","tel":"070-7617-3474","addr":"경기도 남양주시 화도읍 마석우리 383-2번지 중앙프라자 601동 604호","indutype":"레저업소 - 기타레져업소","category":"leisure"}]},{"lat":"37.651726068","long":"127.30904325","imageIndex":13,"items":[{"name":"역전노래연습장","tel":"031-553-0074","addr":"경기도 남양주시 화도읍 마석우리 275-2번지 지하1층","indutype":"레저업소 - 노 래 방","category":"leisure"}]},{"lat":"37.656948484","long":"127.30327377","imageIndex":13,"items":[{"name":"올래노래연습장","tel":"","addr":"경기도 남양주시 화도읍 마석우리 383-8번지 별나라타워 303.304호","indutype":"레저업소 - 노 래 방","category":"leisure"},{"name":"황궁A노래연습장","tel":"031-511-0321","addr":"경기도 남양주시 화도읍 마석우리 383-8번지 별나라타워 8층","indutype":"레저업소 - 노 래 방","category":"leisure"},{"name":"황궁B노래연습장","tel":"031-511-0321","addr":"경기도 남양주시 화도읍 마석우리 383-8번지 별나라타워 8층","indutype":"레저업소 - 노 래 방","category":"leisure"}]},{"lat":"37.65536137","long":"127.30027566","imageIndex":13,"items":[{"name":"요가로엔","tel":"031-511-0828","addr":"경기도 남양주시 화도읍 마석우리 570-2번지 코오롱빌딩 5층","indutype":"레저업소 - 헬스클럽","category":"leisure"}]},{"lat":"37.655806962","long":"127.30573963","imageIndex":13,"items":[{"name":"운동건강관리요법","tel":"031-593-5335","addr":"경기도 남양주시 화도읍 마석우리 300번지 3층","indutype":"레저업소 - 헬스클럽","category":"leisure"}]},{"lat":"37.658752","long":"127.31988358","imageIndex":13,"items":[{"name":"월드골프연습장","tel":"031-511-6666","addr":"경기도 남양주시 화도읍 마석우리 18-14번지","indutype":"레저업소 - 골프연습장","category":"leisure"}]},{"lat":"37.65711299","long":"127.3023565","imageIndex":13,"items":[{"name":"이레당구클럽","tel":"031-593-1503","addr":"경기도 남양주시 화도읍 마석우리 392-1번지 별나라타운 402호 402호~403호","indutype":"레저업소 - 당 구 장","category":"leisure"}]},{"lat":"37.652111241","long":"127.30990605","imageIndex":13,"items":[{"name":"잭슨노래연습장","tel":"031-595-2515","addr":"경기도 남양주시 화도읍 마석우리 288-6번지 지하1층","indutype":"레저업소 - 노 래 방","category":"leisure"}]},{"lat":"37.661058517","long":"127.30263301","imageIndex":13,"items":[{"name":"콘서트노래연습장","tel":"031-559-4128","addr":"경기도 남양주시 화도읍 마석우리 474번지 경춘빌라","indutype":"레저업소 - 노 래 방","category":"leisure"}]},{"lat":"37.654583289","long":"127.30510006","imageIndex":13,"items":[{"name":"토마토노래연습장","tel":"031-559-7752","addr":"경기도 남양주시 화도읍 마석우리 305-10번지 지하1층","indutype":"레저업소 - 노 래 방","category":"leisure"}]},{"lat":"37.652057596","long":"127.30974718","imageIndex":13,"items":[{"name":"토마토노래연습장","tel":"031-528-6263","addr":"경기도 남양주시 화도읍 마석우리 288-7번지 201호","indutype":"레저업소 - 노 래 방","category":"leisure"}]},{"lat":"37.65691429","long":"127.30254836","imageIndex":13,"items":[{"name":"토토당","tel":"","addr":"경기도 남양주시 화도읍 마석우리 392-4번지 4층 마석주립빌딩","indutype":"레저업소 - 당 구 장","category":"leisure"}]},{"lat":"37.659865647","long":"127.30404484","imageIndex":13,"items":[{"name":"프로당구장","tel":"031-595-0170","addr":"경기도 남양주시 화도읍 마석우리 385번지 2층","indutype":"레저업소 - 당 구 장","category":"leisure"}]},{"lat":"37.661833713","long":"127.3024888","imageIndex":13,"items":[{"name":"플레타짐","tel":"031-511-2050","addr":"경기도 남양주시 화도읍 마석우리 472-4번지 지호프라자 401호 402호","indutype":"레저업소 - 헬스클럽","category":"leisure"}]},{"lat":"37.655027673","long":"127.30041032","imageIndex":13,"items":[{"name":"피트니스 독스 (fitness dogs)","tel":"031-593-9682","addr":"경기도 남양주시 화도읍 마석우리 575-4번지","indutype":"레저업소 - 헬스클럽","category":"leisure"}]},{"lat":"37.657726145","long":"127.30569076","imageIndex":13,"items":[{"name":"핫바디짐","tel":"","addr":"경기도 남양주시 화도읍 마석우리 404-10번지 301호","indutype":"레저업소 - 헬스클럽","category":"leisure"}]},{"lat":"37.654222819","long":"127.30513259","imageIndex":13,"items":[{"name":"행운노래연습장","tel":"031-594-5852","addr":"경기도 남양주시 화도읍 마석우리 305-14번지 지층","indutype":"레저업소 - 노 래 방","category":"leisure"}]}]