[{"lat":"37.005605541","long":"127.2687054","imageIndex":8,"items":[{"name":"경희한의원","tel":"031-675-2041","addr":"경기도 안성시 인지동 6번지","indutype":"의원 - 한의원","category":"medical"}]},{"lat":"37.005409844","long":"127.26756998","imageIndex":8,"items":[{"name":"광명약국","tel":"031-675-4460","addr":"경기도 안성시 인지동 409-4번지","indutype":"약국 - 약국","category":"medical"},{"name":"황인선소아과","tel":"031-671-1771","addr":"경기도 안성시 인지동 409-4번지","indutype":"의원 - 의원","category":"medical"}]},{"lat":"37.005243101","long":"127.26960294","imageIndex":8,"items":[{"name":"남양동물병원","tel":"031-676-4465","addr":"경기도 안성시 인지동 390번지","indutype":"기타의료기관 - 동물병원","category":"medical"}]},{"lat":"37.004832414","long":"127.26790502","imageIndex":8,"items":[{"name":"농민약국","tel":"031-673-9760","addr":"경기도 안성시 인지동 414-5번지","indutype":"약국 - 약국","category":"medical"},{"name":"안성의료소비자생활협동조합","tel":"031-675-0227","addr":"경기도 안성시 인지동 414-5번지","indutype":"의원 - 의원","category":"medical"}]},{"lat":"37.005356081","long":"127.26743497","imageIndex":8,"items":[{"name":"동인약국","tel":"031-676-5301","addr":"경기도 안성시 인지동 410-10번지","indutype":"약국 - 약국","category":"medical"}]},{"lat":"37.004549033","long":"127.26971287","imageIndex":8,"items":[{"name":"발효명가 도원한의원","tel":"031-677-8760","addr":"경기도 안성시 인지동 384-2번지","indutype":"의원 - 한의원","category":"medical"}]},{"lat":"37.005607074","long":"127.26802006","imageIndex":8,"items":[{"name":"성가의원","tel":"031-676-4057","addr":"경기도 안성시 인지동 355-1번지","indutype":"의원 - 의원","category":"medical"}]},{"lat":"37.006022389","long":"127.26765075","imageIndex":8,"items":[{"name":"안성시장약국","tel":"031-676-5808","addr":"경기도 안성시 인지동 8-1번지","indutype":"약국 - 약국","category":"medical"},{"name":"용한의원","tel":"031-676-7525","addr":"경기도 안성시 인지동 8-1번지","indutype":"의원 - 한의원","category":"medical"}]},{"lat":"37.004498018","long":"127.26835326","imageIndex":8,"items":[{"name":"우리동물병원","tel":"031-675-0722","addr":"경기도 안성시 인지동 419-2번지","indutype":"기타의료기관 - 동물병원","category":"medical"}]},{"lat":"37.005635359","long":"127.26745841","imageIndex":8,"items":[{"name":"우리의원","tel":"031-671-7511","addr":"경기도 안성시 인지동 352-12번지","indutype":"의원 - 의원","category":"medical"},{"name":"참사랑약국","tel":"031-671-3885","addr":"경기도 안성시 인지동 352-12번지 1층 B호","indutype":"약국 - 약국","category":"medical"},{"name":"참사랑약국","tel":"031-671-3885","addr":"경기도 안성시 인지동 352-12번지 1층 B호","indutype":"약국 - 약국","category":"medical"}]},{"lat":"37.005216448","long":"127.26943432","imageIndex":8,"items":[{"name":"우석동물병원","tel":"031-676-3010","addr":"경기도 안성시 인지동 388-1번지","indutype":"기타의료기관 - 동물병원","category":"medical"}]},{"lat":"37.004853587","long":"127.26648949","imageIndex":8,"items":[{"name":"의료법인안민의료재단","tel":"031-677-0521","addr":"경기도 안성시 인지동 411번지","indutype":"의원 - 의원","category":"medical"}]},{"lat":"37.005222098","long":"127.26690646","imageIndex":8,"items":[{"name":"의료법인안민의료재단","tel":"031-677-0300","addr":"경기도 안성시 인지동 413번지","indutype":"병원 - 병원","category":"medical"}]},{"lat":"37.004830001","long":"127.26898358","imageIndex":8,"items":[{"name":"인지약국","tel":"031-674-2004","addr":"경기도 안성시 인지동 385-43번지","indutype":"약국 - 약국","category":"medical"}]},{"lat":"37.004548604","long":"127.26990386","imageIndex":8,"items":[{"name":"좋은치과의원","tel":"031-673-7522","addr":"경기도 안성시 인지동 384-12번지","indutype":"의원 - 치과의원","category":"medical"}]}]