[{"lat":"37.35962268","long":"127.3730503","imageIndex":4,"items":[{"name":"가족회관 안방찻집","tel":"031-766-7786","addr":"경기도 광주시 곤지암읍 오향리 339-6번지","indutype":"일반휴게음식 - 일반한식","category":"restaurant"}]},{"lat":"37.35995659","long":"127.3757497","imageIndex":4,"items":[{"name":"경성불고기","tel":"031-764-8111","addr":"경기도 광주시 곤지암읍 오향리 371-2번지","indutype":"일반휴게음식 - 일반한식","category":"restaurant"},{"name":"샛강회매운탕","tel":"031-764-7994","addr":"경기도 광주시 곤지암읍 오향리 371-2번지","indutype":"일반휴게음식 - 일반한식","category":"restaurant"}]},{"lat":"37.35881644","long":"127.3744347","imageIndex":4,"items":[{"name":"곤지암돌짜장","tel":"031-762-7447","addr":"경기도 광주시 곤지암읍 오향리 368-16번지","indutype":"일반휴게음식 - 중국식","category":"restaurant"}]},{"lat":"37.35845594","long":"127.3744668","imageIndex":4,"items":[{"name":"나그네여쉬어가시게나","tel":"031-763-5886","addr":"경기도 광주시 곤지암읍 오향리 415-3번지","indutype":"일반휴게음식 - 일반한식","category":"restaurant"}]},{"lat":"37.35962436","long":"127.3753868","imageIndex":4,"items":[{"name":"메밀골막국수","tel":"031-762-9292","addr":"경기도 광주시 곤지암읍 오향리 368-26번지","indutype":"일반휴게음식 - 일반한식","category":"restaurant"}]},{"lat":"37.3604245","long":"127.3759439","imageIndex":4,"items":[{"name":"시골맛밥상","tel":"031-762-6652","addr":"경기도 광주시 곤지암읍 오향리 372-3번지 1층","indutype":"일반휴게음식 - 일반한식","category":"restaurant"}]},{"lat":"37.35867934","long":"127.3750548","imageIndex":4,"items":[{"name":"양평해장국","tel":"031-765-1562","addr":"경기도 광주시 곤지암읍 오향리 412-1번지","indutype":"일반휴게음식 - 일반한식","category":"restaurant"}]},{"lat":"37.36370437","long":"127.3758811","imageIndex":4,"items":[{"name":"오향식당","tel":"031-762-6769","addr":"경기도 광주시 곤지암읍 오향리 274-5번지","indutype":"일반휴게음식 - 일반한식","category":"restaurant"}]},{"lat":"37.3617022","long":"127.376492","imageIndex":4,"items":[{"name":"외할머니집","tel":"031-769-6222","addr":"경기도 광주시 곤지암읍 오향리 394-1번지","indutype":"일반휴게음식 - 일반한식","category":"restaurant"}]},{"lat":"37.3783393","long":"127.3721938","imageIndex":4,"items":[{"name":"클럽하우스","tel":"02-3397-6176","addr":"경기도 광주시 곤지암읍 오향리 156-1번지","indutype":"일반휴게음식 - 일반한식","category":"restaurant"}]},{"lat":"37.35965252","long":"127.3750258","imageIndex":4,"items":[{"name":"토바기","tel":"031-762-7710","addr":"경기도 광주시 곤지암읍 오향리 368-7","indutype":"일반휴게음식 - 일반한식","category":"restaurant"}]},{"lat":"37.35862581","long":"127.3748852","imageIndex":4,"items":[{"name":"팔당칼국수와수제비","tel":"031-761-0119","addr":"경기도 광주시 곤지암읍 오향리 412-8번지 1층","indutype":"일반휴게음식 - 일반한식","category":"restaurant"}]},{"lat":"37.35903896","long":"127.3753049","imageIndex":4,"items":[{"name":"황제코다리냉면","tel":"031-1800-5318","addr":"경기도 광주시 곤지암읍 오향리 482-5번지","indutype":"일반휴게음식 - 일반한식","category":"restaurant"}]}]