[{"lat":"37.334116069","long":"126.82921173","imageIndex":13,"items":[{"name":"3박자노래연습장","tel":"031-402-7270","addr":"경기도 안산시 단원구 와동 700-6번지","indutype":"레저업소 - 노 래 방","category":"leisure"},{"name":"K2당구장","tel":"031-410-9908","addr":"경기도 안산시 단원구 와동 700-6번지 3층","indutype":"레저업소 - 당 구 장","category":"leisure"}]},{"lat":"37.343475149","long":"126.82155005","imageIndex":13,"items":[{"name":"K2노래연습장","tel":"031-401-6860","addr":"경기도 안산시 단원구 와동 771-11번지 3층","indutype":"레저업소 - 노 래 방","category":"leisure"},{"name":"레드PC방(와동점)","tel":"031-000-0000","addr":"경기도 안산시 단원구 와동 771-11번지 2층","indutype":"레저업소 - 기타레져업소","category":"leisure"},{"name":"우리당구장","tel":"031-223-5214","addr":"경기도 안산시 단원구 와동 771-11번지 4층 1호","indutype":"레저업소 - 당 구 장","category":"leisure"}]},{"lat":"37.343673406","long":"126.82157214","imageIndex":13,"items":[{"name":"LUX노래연습장","tel":"031-410-1248","addr":"경기도 안산시 단원구 와동 771번지 지하1층","indutype":"레저업소 - 노 래 방","category":"leisure"}]},{"lat":"37.333755298","long":"126.82293876","imageIndex":13,"items":[{"name":"Mr.강 당구클럽","tel":"031-485-0003","addr":"경기도 안산시 단원구 와동 735번지 3층","indutype":"레저업소 - 당 구 장","category":"leisure"}]},{"lat":"37.3314195","long":"126.82152261","imageIndex":13,"items":[{"name":"가자노래연습장","tel":"031-403-8551","addr":"경기도 안산시 단원구 와동 847번지 지하층","indutype":"레저업소 - 노 래 방","category":"leisure"}]},{"lat":"37.331111953","long":"126.82669116","imageIndex":13,"items":[{"name":"개폼노래연습장","tel":"031-486-5782","addr":"경기도 안산시 단원구 와동 682-8번지 3층","indutype":"레저업소 - 노 래 방","category":"leisure"}]},{"lat":"37.345169277","long":"126.82169269","imageIndex":13,"items":[{"name":"굿모닝헬스타운","tel":"031-439-6320","addr":"경기도 안산시 단원구 와동 779번지 성보빌딩 4층","indutype":"레저업소 - 헬스클럽","category":"leisure"},{"name":"노다지노래연습장","tel":"031-475-0933","addr":"경기도 안산시 단원구 와동 779번지 201호","indutype":"레저업소 - 노 래 방","category":"leisure"},{"name":"피씨온 (PCON)","tel":"02-1111-1111","addr":"경기도 안산시 단원구 와동 779번지 3층","indutype":"레저업소 - 기타레져업소","category":"leisure"}]},{"lat":"37.342808347","long":"126.8215178","imageIndex":13,"items":[{"name":"나이스당구장","tel":"031-503-8018","addr":"경기도 안산시 단원구 와동 769번지 4층","indutype":"레저업소 - 당 구 장","category":"leisure"},{"name":"나이스당구장","tel":"031-111-1111","addr":"경기도 안산시 단원구 와동 769번지 4층","indutype":"레저업소 - 당 구 장","category":"leisure"}]},{"lat":"37.339834375","long":"126.82707703","imageIndex":13,"items":[{"name":"뉴월드노래연습장","tel":"031-484-1214","addr":"경기도 안산시 단원구 와동 112-17번지 지하층 101호","indutype":"레저업소 - 노 래 방","category":"leisure"}]},{"lat":"37.341392759","long":"126.82682513","imageIndex":13,"items":[{"name":"뉴캐슬PC죤","tel":"","addr":"경기도 안산시 단원구 와동 98-7번지 2층 203,204호","indutype":"레저업소 - 기타레져업소","category":"leisure"}]},{"lat":"37.332699714","long":"126.82801892","imageIndex":13,"items":[{"name":"뉴헤라노래연습장","tel":"031-403-4002","addr":"경기도 안산시 단원구 와동 679-10번지 2층","indutype":"레저업소 - 노 래 방","category":"leisure"}]},{"lat":"37.334395681","long":"126.82941419","imageIndex":13,"items":[{"name":"다모아당구장","tel":"","addr":"경기도 안산시 단원구 와동 700-8번지 4층","indutype":"레저업소 - 당 구 장","category":"leisure"},{"name":"블레스 PC방","tel":"070-7997-5020","addr":"경기도 안산시 단원구 와동 700-8번지 3층","indutype":"레저업소 - 기타레져업소","category":"leisure"},{"name":"황제노래연습장","tel":"031-484-5786","addr":"경기도 안산시 단원구 와동 700-8번지 201호","indutype":"레저업소 - 노 래 방","category":"leisure"}]},{"lat":"37.341754041","long":"126.82144134","imageIndex":13,"items":[{"name":"대한민국노래연습장","tel":"031-487-3928","addr":"경기도 안산시 단원구 와동 764-24번지 3층","indutype":"레저업소 - 노 래 방","category":"leisure"}]},{"lat":"37.341672309","long":"126.82102399","imageIndex":13,"items":[{"name":"도레미노래연습장","tel":"031-487-3546","addr":"경기도 안산시 단원구 와동 812-4번지 B1층","indutype":"레저업소 - 노 래 방","category":"leisure"}]},{"lat":"37.331698351","long":"126.82718626","imageIndex":13,"items":[{"name":"동네노래연습장","tel":"031-411-9399","addr":"경기도 안산시 단원구 와동 682-13번지","indutype":"레저업소 - 노 래 방","category":"leisure"},{"name":"에이스당구장","tel":"031-480-3060","addr":"경기도 안산시 단원구 와동 682-13번지 ,2,3층","indutype":"레저업소 - 당 구 장","category":"leisure"}]},{"lat":"37.337197961","long":"126.81760434","imageIndex":13,"items":[{"name":"두꺼비노래연습장","tel":"031-410-0829","addr":"경기도 안산시 단원구 와동 821-18번지 일부 지층","indutype":"레저업소 - 노 래 방","category":"leisure"}]},{"lat":"37.333945522","long":"126.82360405","imageIndex":13,"items":[{"name":"둘리노래연습장","tel":"031-483-3433","addr":"경기도 안산시 단원구 와동 733-4번지 지층","indutype":"레저업소 - 노 래 방","category":"leisure"}]},{"lat":"37.342645524","long":"126.82110064","imageIndex":13,"items":[{"name":"땡큐당구장","tel":"02-000-0000","addr":"경기도 안산시 단원구 와동 808-8번지 2층","indutype":"레저업소 - 당 구 장","category":"leisure"},{"name":"불러죤노래연습장","tel":"031-403-4821","addr":"경기도 안산시 단원구 와동 808-8번지 401호","indutype":"레저업소 - 노 래 방","category":"leisure"},{"name":"썬당구장","tel":"","addr":"경기도 안산시 단원구 와동 808-8번지 2층","indutype":"레저업소 - 당 구 장","category":"leisure"}]},{"lat":"37.333783134","long":"126.82346903","imageIndex":13,"items":[{"name":"레포츠당구클럽","tel":"031-403-9271","addr":"경기도 안산시 단원구 와동 733-5번지 2층","indutype":"레저업소 - 당 구 장","category":"leisure"}]},{"lat":"37.332005482","long":"126.82771587","imageIndex":13,"items":[{"name":"마돈나노래연습장","tel":"031-401-2680","addr":"경기도 안산시 단원구 와동 681-1번지 3층","indutype":"레저업소 - 노 래 방","category":"leisure"},{"name":"현대당구장","tel":"070-8992-2997","addr":"경기도 안산시 단원구 와동 681-1번지 4층","indutype":"레저업소 - 당 구 장","category":"leisure"}]},{"lat":"37.340554615","long":"126.82669167","imageIndex":13,"items":[{"name":"맹드라이브안산실내운전연습장","tel":"031-439-9007","addr":"경기도 안산시 단원구 와동 112-3번지 장현빌딩 2층","indutype":"레저업소 - 기타레져업소","category":"leisure"}]},{"lat":"37.339393196","long":"126.82729247","imageIndex":13,"items":[{"name":"모아당구장","tel":"031-414-3525","addr":"경기도 안산시 단원구 와동 112-23번지 3층","indutype":"레저업소 - 당 구 장","category":"leisure"}]},{"lat":"37.34116859","long":"126.82157816","imageIndex":13,"items":[{"name":"미르당구클럽","tel":"031-483-1413","addr":"경기도 안산시 단원구 와동 759번지 2층","indutype":"레저업소 - 당 구 장","category":"leisure"},{"name":"짐에스 (GYMS)","tel":"031-403-5999","addr":"경기도 안산시 단원구 와동 759번지 3층","indutype":"레저업소 - 헬스클럽","category":"leisure"}]},{"lat":"37.345254954","long":"126.81882595","imageIndex":13,"items":[{"name":"반딧불노래연습장","tel":"031-403-8079","addr":"경기도 안산시 단원구 와동 800-19번지 덕흥빌라 지층","indutype":"레저업소 - 노 래 방","category":"leisure"}]},{"lat":"37.341116305","long":"126.82274064","imageIndex":13,"items":[{"name":"발리노래연습장","tel":"031-484-4909","addr":"경기도 안산시 단원구 와동 760번지 지층","indutype":"레저업소 - 노 래 방","category":"leisure"},{"name":"발리노래연습장","tel":"070-8968-8071","addr":"경기도 안산시 단원구 와동 760번지 지층","indutype":"레저업소 - 노 래 방","category":"leisure"}]},{"lat":"37.33950187","long":"126.82766461","imageIndex":13,"items":[{"name":"별천지노래연습장","tel":"031-401-7511","addr":"경기도 안산시 단원구 와동 119-1번지 새서울음악학원 지하 1호","indutype":"레저업소 - 노 래 방","category":"leisure"},{"name":"별천지노래연습장","tel":"031-401-1221","addr":"경기도 안산시 단원구 와동 119-1번지 지층","indutype":"레저업소 - 노 래 방","category":"leisure"}]},{"lat":"37.341142406","long":"126.82213119","imageIndex":13,"items":[{"name":"브레인(Brain)보드게임카페","tel":"031-8044-2277","addr":"경기도 안산시 단원구 와동 759-3번지 2층","indutype":"레저업소 - 기타레져업소","category":"leisure"}]},{"lat":"37.344727729","long":"126.82165989","imageIndex":13,"items":[{"name":"비비노래연습장","tel":"031-411-1777","addr":"경기도 안산시 단원구 와동 779-5번지 3층","indutype":"레저업소 - 노 래 방","category":"leisure"},{"name":"한큐당구장","tel":"031-501-0991","addr":"경기도 안산시 단원구 와동 779-5번지 4층","indutype":"레저업소 - 당 구 장","category":"leisure"}]},{"lat":"37.332925213","long":"126.82218473","imageIndex":13,"items":[{"name":"비트휘트니스","tel":"031-482-1999","addr":"경기도 안산시 단원구 와동 830-4번지 4층","indutype":"레저업소 - 헬스클럽","category":"leisure"},{"name":"옥타브노래연습장","tel":"031-484-0824","addr":"경기도 안산시 단원구 와동 830-4번지 지층","indutype":"레저업소 - 노 래 방","category":"leisure"}]},{"lat":"37.332447096","long":"126.82779383","imageIndex":13,"items":[{"name":"빅토리복싱다이어트클럽","tel":"031-509-6788","addr":"경기도 안산시 단원구 와동 679-8번지 3층","indutype":"레저업소 - 헬스클럽","category":"leisure"},{"name":"쎄븐노래연습장","tel":"031-401-6638","addr":"경기도 안산시 단원구 와동 679-8번지 지층","indutype":"레저업소 - 노 래 방","category":"leisure"},{"name":"쎄븐노래연습장","tel":"031-401-6638","addr":"경기도 안산시 단원구 와동 679-8번지","indutype":"레저업소 - 노 래 방","category":"leisure"}]},{"lat":"37.34261009","long":"126.8214957","imageIndex":13,"items":[{"name":"사이버카페PC방 (와동점)","tel":"031-486-7997","addr":"경기도 안산시 단원구 와동 769-27번지 3층","indutype":"레저업소 - 기타레져업소","category":"leisure"},{"name":"테크노노래연습장","tel":"031-402-4241","addr":"경기도 안산시 단원구 와동 769-27번지 2층","indutype":"레저업소 - 노 래 방","category":"leisure"},{"name":"테크노노래연습장","tel":"031-402-4241","addr":"경기도 안산시 단원구 와동 769-27번지 2층","indutype":"레저업소 - 노 래 방","category":"leisure"}]},{"lat":"37.346140184","long":"126.82026836","imageIndex":13,"items":[{"name":"삼순이노래연습장","tel":"031-402-1937","addr":"경기도 안산시 단원구 와동 794번지","indutype":"레저업소 - 노 래 방","category":"leisure"}]},{"lat":"37.331561056","long":"126.81982975","imageIndex":13,"items":[{"name":"새미당구교실","tel":"031-411-1915","addr":"경기도 안산시 단원구 와동 836-6번지 3층","indutype":"레저업소 - 당 구 장","category":"leisure"}]},{"lat":"37.333448575","long":"126.82269124","imageIndex":13,"items":[{"name":"새미당구교실","tel":"031-411-1915","addr":"경기도 안산시 단원구 와동 735-2번지 401호","indutype":"레저업소 - 당 구 장","category":"leisure"}]},{"lat":"37.333226006","long":"126.82446332","imageIndex":13,"items":[{"name":"수정노래연습장","tel":"031-506-7131","addr":"경기도 안산시 단원구 와동 726-5번지 지하1층","indutype":"레저업소 - 노 래 방","category":"leisure"},{"name":"수정노래연습장","tel":"031-414-7131","addr":"경기도 안산시 단원구 와동 726-5번지 훼미리탕수육 지하층 101호","indutype":"레저업소 - 노 래 방","category":"leisure"}]},{"lat":"37.341423747","long":"126.82346214","imageIndex":13,"items":[{"name":"스타노래연습장","tel":"031-475-9688","addr":"경기도 안산시 단원구 와동 763-19번지 지하노래방전체","indutype":"레저업소 - 노 래 방","category":"leisure"}]},{"lat":"37.332085452","long":"126.82695969","imageIndex":13,"items":[{"name":"스토리PC","tel":"070-4795-7020","addr":"경기도 안산시 단원구 와동 721-6번지 2층","indutype":"레저업소 - 기타레져업소","category":"leisure"},{"name":"카페당구클럽","tel":"070-8288-8575","addr":"경기도 안산시 단원구 와동 721-6번지 3층","indutype":"레저업소 - 당 구 장","category":"leisure"},{"name":"카페당구클럽","tel":"070-8288-8575","addr":"경기도 안산시 단원구 와동 721-6번지 3층","indutype":"레저업소 - 당 구 장","category":"leisure"},{"name":"쿵쿵따노래연습장","tel":"","addr":"경기도 안산시 단원구 와동 721-6번지 4층","indutype":"레저업소 - 노 래 방","category":"leisure"},{"name":"쿵쿵따노래연습장","tel":"031-413-2646","addr":"경기도 안산시 단원구 와동 721-6번지 4층","indutype":"레저업소 - 노 래 방","category":"leisure"}]},{"lat":"37.342312115","long":"126.82107887","imageIndex":13,"items":[{"name":"스토리PC방","tel":"070-7620-0219","addr":"경기도 안산시 단원구 와동 808-10번지 3층","indutype":"레저업소 - 기타레져업소","category":"leisure"},{"name":"쓰리고노래연습장","tel":"031-403-3171","addr":"경기도 안산시 단원구 와동 808-10번지 201호","indutype":"레저업소 - 노 래 방","category":"leisure"},{"name":"폼롤러센터","tel":"","addr":"경기도 안산시 단원구 와동 808-10번지 4층 401호","indutype":"레저업소 - 헬스클럽","category":"leisure"}]},{"lat":"37.34147659","long":"126.82266078","imageIndex":13,"items":[{"name":"스토리PC방","tel":"031-401-0219","addr":"경기도 안산시 단원구 와동 764-16번지 2층","indutype":"레저업소 - 기타레져업소","category":"leisure"}]},{"lat":"37.345889568","long":"126.82135239","imageIndex":13,"items":[{"name":"스토리피씨방(스토리PC방)","tel":"","addr":"경기도 안산시 단원구 와동 794-8번지 2층","indutype":"레저업소 - 기타레져업소","category":"leisure"},{"name":"중앙당구클럽","tel":"","addr":"경기도 안산시 단원구 와동 794-8번지 4층","indutype":"레저업소 - 당 구 장","category":"leisure"},{"name":"테마노래연습장","tel":"031-402-3309","addr":"경기도 안산시 단원구 와동 794-8번지 3층","indutype":"레저업소 - 노 래 방","category":"leisure"}]},{"lat":"37.345890329","long":"126.82184895","imageIndex":13,"items":[{"name":"아이센스리그PC방안산와동점","tel":"","addr":"경기도 안산시 단원구 와동 780-7번지 3층","indutype":"레저업소 - 기타레져업소","category":"leisure"},{"name":"훼밀리당구장","tel":"031-405-4404","addr":"경기도 안산시 단원구 와동 780-7번지 4층","indutype":"레저업소 - 당 구 장","category":"leisure"}]},{"lat":"37.33272601","long":"126.82752238","imageIndex":13,"items":[{"name":"아이센스피씨(PC)","tel":"070-8816-1183","addr":"경기도 안산시 단원구 와동 719-6번지 2층","indutype":"레저업소 - 기타레져업소","category":"leisure"},{"name":"아이센스피씨(PC)","tel":"","addr":"경기도 안산시 단원구 와동 719-6번지 2층","indutype":"레저업소 - 기타레져업소","category":"leisure"}]},{"lat":"37.343276926","long":"126.82155052","imageIndex":13,"items":[{"name":"앗싸노래연습장","tel":"031-475-6167","addr":"경기도 안산시 단원구 와동 771-10번지 2층","indutype":"레저업소 - 노 래 방","category":"leisure"},{"name":"환희노래연습장","tel":"031-475-6167","addr":"경기도 안산시 단원구 와동 771-10번지","indutype":"레저업소 - 노 래 방","category":"leisure"}]},{"lat":"37.341951658","long":"126.82104588","imageIndex":13,"items":[{"name":"애모노래연습장","tel":"031-405-5388","addr":"경기도 안산시 단원구 와동 812-2번지 지층","indutype":"레저업소 - 노 래 방","category":"leisure"},{"name":"애모노래연습장","tel":"031-401-1603","addr":"경기도 안산시 단원구 와동 812-2번지 지층","indutype":"레저업소 - 노 래 방","category":"leisure"}]},{"lat":"37.342834789","long":"126.82113404","imageIndex":13,"items":[{"name":"애인노래연습장","tel":"031-412-3189","addr":"경기도 안산시 단원구 와동 808-7번지 지하층","indutype":"레저업소 - 노 래 방","category":"leisure"},{"name":"애인노래연습장","tel":"031-494-2383","addr":"경기도 안산시 단원구 와동 808-7번지","indutype":"레저업소 - 노 래 방","category":"leisure"}]},{"lat":"37.33306057","long":"126.82832274","imageIndex":13,"items":[{"name":"앤 노래연습장","tel":"031-411-0544","addr":"경기도 안산시 단원구 와동 679번지 3층","indutype":"레저업소 - 노 래 방","category":"leisure"}]},{"lat":"37.342086862","long":"126.82107941","imageIndex":13,"items":[{"name":"앵콜노래연습장","tel":"031-484-3926","addr":"경기도 안산시 단원구 와동 812-1번지","indutype":"레저업소 - 노 래 방","category":"leisure"}]},{"lat":"37.338500517","long":"126.82088494","imageIndex":13,"items":[{"name":"엔젤코코","tel":"031-401-3345","addr":"경기도 안산시 단원구 와동 752번지 2층","indutype":"레저업소 - 기타레져업소","category":"leisure"},{"name":"와또와노래연습장","tel":"031-410-1170","addr":"경기도 안산시 단원구 와동 752번지 3층","indutype":"레저업소 - 노 래 방","category":"leisure"}]},{"lat":"37.344474597","long":"126.82110751","imageIndex":13,"items":[{"name":"열창노래연습장","tel":"031-485-3938","addr":"경기도 안산시 단원구 와동 802-6번지 2층","indutype":"레저업소 - 노 래 방","category":"leisure"}]},{"lat":"37.331978034","long":"126.82743385","imageIndex":13,"items":[{"name":"오마이PC방와동점","tel":"031-483-5554","addr":"경기도 안산시 단원구 와동 681-13번지 지층 전체","indutype":"레저업소 - 기타레져업소","category":"leisure"}]},{"lat":"37.333917531","long":"126.82899779","imageIndex":13,"items":[{"name":"올레실내낚시터","tel":"031-505-3393","addr":"경기도 안산시 단원구 와동 697번지 지층","indutype":"레저업소 - 기타레져업소","category":"leisure"}]},{"lat":"37.332617754","long":"126.82743236","imageIndex":13,"items":[{"name":"와우노래연습장","tel":"031-414-0977","addr":"경기도 안산시 단원구 와동 719-7번지 2층","indutype":"레저업소 - 노 래 방","category":"leisure"}]},{"lat":"37.341555177","long":"126.82102427","imageIndex":13,"items":[{"name":"와체노래연습장","tel":"031-411-5742","addr":"경기도 안산시 단원구 와동 812-5번지 2층","indutype":"레저업소 - 노 래 방","category":"leisure"}]},{"lat":"37.332753848","long":"126.8220723","imageIndex":13,"items":[{"name":"월드","tel":"031-411-4469","addr":"경기도 안산시 단원구 와동 830-5번지 2층","indutype":"레저업소 - 헬스클럽","category":"leisure"}]},{"lat":"37.334396491","long":"126.8299671","imageIndex":13,"items":[{"name":"이스테이션PC방","tel":"070-4248-4062","addr":"경기도 안산시 단원구 와동 699번지 2층","indutype":"레저업소 - 기타레져업소","category":"leisure"}]},{"lat":"37.341424294","long":"126.82382326","imageIndex":13,"items":[{"name":"정노래연습장","tel":"","addr":"경기도 안산시 단원구 와동 763-17번지","indutype":"레저업소 - 노 래 방","category":"leisure"}]},{"lat":"37.334639269","long":"126.82962803","imageIndex":13,"items":[{"name":"정필라테스","tel":"031-403-2767","addr":"경기도 안산시 단원구 와동 700번지 4층","indutype":"레저업소 - 헬스클럽","category":"leisure"}]},{"lat":"37.331921536","long":"126.82579787","imageIndex":13,"items":[{"name":"제니엘 스포츠","tel":"031-413-0063","addr":"경기도 안산시 단원구 와동 723-4번지 창동 상가 2층 203,204호","indutype":"레저업소 - 헬스클럽","category":"leisure"}]},{"lat":"37.332785281","long":"126.81908205","imageIndex":13,"items":[{"name":"제이노래연습장","tel":"031-401-0971","addr":"경기도 안산시 단원구 와동 839번지 지층","indutype":"레저업소 - 노 래 방","category":"leisure"}]},{"lat":"37.343141774","long":"126.82155085","imageIndex":13,"items":[{"name":"차차차노래연습장","tel":"","addr":"경기도 안산시 단원구 와동 771-9번지 지층","indutype":"레저업소 - 노 래 방","category":"leisure"}]},{"lat":"37.33491822","long":"126.82937914","imageIndex":13,"items":[{"name":"찬찬찬노래연습장","tel":"031-401-2721","addr":"경기도 안산시 단원구 와동 716-5번지 지층","indutype":"레저업소 - 노 래 방","category":"leisure"}]},{"lat":"37.341116854","long":"126.82310175","imageIndex":13,"items":[{"name":"카니발노래방","tel":"031-480-2948","addr":"경기도 안산시 단원구 와동 760-2번지 지층","indutype":"레저업소 - 노 래 방","category":"leisure"},{"name":"카니발노래연습장","tel":"031-480-2948","addr":"경기도 안산시 단원구 와동 760-2번지 지하층","indutype":"레저업소 - 노 래 방","category":"leisure"}]},{"lat":"37.332536546","long":"126.82735356","imageIndex":13,"items":[{"name":"코러스노래방","tel":"031-412-9876","addr":"경기도 안산시 단원구 와동 719-8번지 지층","indutype":"레저업소 - 노 래 방","category":"leisure"},{"name":"코러스노래연습장","tel":"031-411-1545","addr":"경기도 안산시 단원구 와동 719-8번지 지층","indutype":"레저업소 - 노 래 방","category":"leisure"}]},{"lat":"37.346394827","long":"126.8218026","imageIndex":13,"items":[{"name":"콩깍지노래연습장","tel":"031-401-4006","addr":"경기도 안산시 단원구 와동 781-13번지 301호","indutype":"레저업소 - 노 래 방","category":"leisure"}]},{"lat":"37.333115578","long":"126.82294028","imageIndex":13,"items":[{"name":"클라우스 멀티짐","tel":"031-485-3367","addr":"경기도 안산시 단원구 와동 734-3번지 3층","indutype":"레저업소 - 헬스클럽","category":"leisure"}]},{"lat":"37.335917783","long":"126.82899318","imageIndex":13,"items":[{"name":"타임노래연습장","tel":"031-410-6665","addr":"경기도 안산시 단원구 와동 715-4번지","indutype":"레저업소 - 노 래 방","category":"leisure"}]},{"lat":"37.346754678","long":"126.82144059","imageIndex":13,"items":[{"name":"탑노래연습장","tel":"031-482-2863","addr":"경기도 안산시 단원구 와동 793-10번지 3층","indutype":"레저업소 - 노 래 방","category":"leisure"}]},{"lat":"37.33770061","long":"126.82818788","imageIndex":13,"items":[{"name":"테마노래연습장","tel":"031-475-6603","addr":"경기도 안산시 단원구 와동 713-1번지 201호","indutype":"레저업소 - 노 래 방","category":"leisure"},{"name":"테마노래연습장","tel":"031-475-6603","addr":"경기도 안산시 단원구 와동 713-1번지 201호","indutype":"레저업소 - 노 래 방","category":"leisure"},{"name":"테마노래연습장","tel":"031-475-6603","addr":"경기도 안산시 단원구 와동 713-1번지 201호","indutype":"레저업소 - 노 래 방","category":"leisure"}]},{"lat":"37.334340875","long":"126.82890654","imageIndex":13,"items":[{"name":"테소로PC방","tel":"070-5020-5326","addr":"경기도 안산시 단원구 와동 716-9번지 2층, 3층","indutype":"레저업소 - 기타레져업소","category":"leisure"}]},{"lat":"37.331673007","long":"126.82832595","imageIndex":13,"items":[{"name":"티앤피씨카페(T&PC cafe)","tel":"070-3529-5003","addr":"경기도 안산시 단원구 와동 681-5번지 101호","indutype":"레저업소 - 기타레져업소","category":"leisure"}]},{"lat":"37.338254873","long":"126.81935084","imageIndex":13,"items":[{"name":"파랑새노랭연습장","tel":"031-405-0288","addr":"경기도 안산시 단원구 와동 819-12번지 201호","indutype":"레저업소 - 노 래 방","category":"leisure"}]},{"lat":"37.333612317","long":"126.82371768","imageIndex":13,"items":[{"name":"팡팡노래연습장","tel":"031-000-0000","addr":"경기도 안산시 단원구 와동 726-9번지 은혜교회 105호","indutype":"레저업소 - 노 래 방","category":"leisure"}]},{"lat":"37.33183362","long":"126.82726493","imageIndex":13,"items":[{"name":"팡팡노래연습장","tel":"031-413-2579","addr":"경기도 안산시 단원구 와동 682번지 지하층","indutype":"레저업소 - 노 래 방","category":"leisure"}]},{"lat":"37.332419418","long":"126.8213848","imageIndex":13,"items":[{"name":"플존PC방","tel":"070-9116-5924","addr":"경기도 안산시 단원구 와동 832-1번지","indutype":"레저업소 - 기타레져업소","category":"leisure"}]},{"lat":"37.337529534","long":"126.82826727","imageIndex":13,"items":[{"name":"필당구클럽","tel":"","addr":"경기도 안산시 단원구 와동 713-2번지 2층","indutype":"레저업소 - 당 구 장","category":"leisure"},{"name":"필당구클럽","tel":"031-501-4114","addr":"경기도 안산시 단원구 와동 713-2번지 2층","indutype":"레저업소 - 당 구 장","category":"leisure"}]},{"lat":"37.341054793","long":"126.82376771","imageIndex":13,"items":[{"name":"하니노래연습장","tel":"031-410-1732","addr":"경기도 안산시 단원구 와동 760-6번지 선부로 지하 260","indutype":"레저업소 - 노 래 방","category":"leisure"}]},{"lat":"37.333973184","long":"126.82402149","imageIndex":13,"items":[{"name":"행운노래연습장","tel":"031-402-3393","addr":"경기도 안산시 단원구 와동 727번지 지층","indutype":"레저업소 - 노 래 방","category":"leisure"}]},{"lat":"37.331472812","long":"126.82699497","imageIndex":13,"items":[{"name":"환상노래연습장","tel":"031-475-6603","addr":"경기도 안산시 단원구 와동 682-11번지","indutype":"레저업소 - 노 래 방","category":"leisure"},{"name":"환상노래연습장","tel":"031-475-6603","addr":"경기도 안산시 단원구 와동 682-11번지 지하층","indutype":"레저업소 - 노 래 방","category":"leisure"},{"name":"환상노래연습장","tel":"031-000-0000","addr":"경기도 안산시 단원구 와동 682-11번지","indutype":"레저업소 - 노 래 방","category":"leisure"}]},{"lat":"37.346583434","long":"126.82140714","imageIndex":13,"items":[{"name":"황진이노래연습장","tel":"031-403-5100","addr":"경기도 안산시 단원구 와동 793-11번지 지하1층","indutype":"레저업소 - 노 래 방","category":"leisure"}]}]