[{"lat":"37.732005749","long":"126.75185098","imageIndex":13,"items":[{"name":"가람노래연습장","tel":"031-943-3397","addr":"경기도 파주시 와동동 1302-3번지","indutype":"레저업소 - 노 래 방","category":"leisure"},{"name":"한국파워점핑줄넘기클럽","tel":"031-747-8874","addr":"경기도 파주시 와동동 1302-3번지","indutype":"레저업소 - 기타레져업소","category":"leisure"}]},{"lat":"37.734700389","long":"126.75649308","imageIndex":13,"items":[{"name":"가람탑노래연습장","tel":"031-945-7571","addr":"경기도 파주시 와동동 1553-1번지","indutype":"레저업소 - 노 래 방","category":"leisure"}]},{"lat":"37.719597856","long":"126.7510422","imageIndex":13,"items":[{"name":"가온노래연습장","tel":"031-948-2626","addr":"경기도 파주시 와동동 1399번지","indutype":"레저업소 - 노 래 방","category":"leisure"},{"name":"케이탑PC방","tel":"070-2425-5642","addr":"경기도 파주시 와동동 1399번지","indutype":"레저업소 - 기타레져업소","category":"leisure"}]},{"lat":"37.721454613","long":"126.75141021","imageIndex":13,"items":[{"name":"더필라테스 운정점","tel":"031-947-8899","addr":"경기도 파주시 와동동 1404번지 해솔마을7단지롯데캐슬","indutype":"레저업소 - 헬스클럽","category":"leisure"}]},{"lat":"37.72822965","long":"126.75992887","imageIndex":13,"items":[{"name":"마리필라테스","tel":"","addr":"경기도 파주시 와동동 1384번지","indutype":"레저업소 - 헬스클럽","category":"leisure"}]},{"lat":"37.734927354","long":"126.75732046","imageIndex":13,"items":[{"name":"명품노래연습장","tel":"031-941-4646","addr":"경기도 파주시 와동동 1551-3번지","indutype":"레저업소 - 노 래 방","category":"leisure"}]},{"lat":"37.732955812","long":"126.75376493","imageIndex":13,"items":[{"name":"벽산한라휘트니스","tel":"","addr":"경기도 파주시 와동동 1308번지 가람마을1단지벽산한라아파트","indutype":"레저업소 - 헬스클럽","category":"leisure"}]},{"lat":"37.735008959","long":"126.75756977","imageIndex":13,"items":[{"name":"별노래연습장","tel":"031-944-8048","addr":"경기도 파주시 와동동 1551-2번지","indutype":"레저업소 - 노 래 방","category":"leisure"}]},{"lat":"37.731645369","long":"126.7518522","imageIndex":13,"items":[{"name":"샴푸노래연습장","tel":"031-957-1892","addr":"경기도 파주시 와동동 1302-5번지","indutype":"레저업소 - 노 래 방","category":"leisure"}]},{"lat":"37.73228439","long":"126.75154375","imageIndex":13,"items":[{"name":"시네마PC방","tel":"031-943-2867","addr":"경기도 파주시 와동동 1302-2번지","indutype":"레저업소 - 기타레져업소","category":"leisure"},{"name":"애플노래연습장","tel":"","addr":"경기도 파주시 와동동 1302-2번지","indutype":"레저업소 - 노 래 방","category":"leisure"}]},{"lat":"37.731203373","long":"126.75160412","imageIndex":13,"items":[{"name":"쓰리팝 (3pop pc cape)","tel":"","addr":"경기도 파주시 와동동 1303-3번지","indutype":"레저업소 - 기타레져업소","category":"leisure"}]},{"lat":"37.731843409","long":"126.75177212","imageIndex":13,"items":[{"name":"엑스바디클럽 운정점","tel":"031-957-9229","addr":"경기도 파주시 와동동 1302-4번지","indutype":"레저업소 - 헬스클럽","category":"leisure"},{"name":"피네테스 운정점","tel":"031-942-1357","addr":"경기도 파주시 와동동 1302-4번지","indutype":"레저업소 - 헬스클럽","category":"leisure"}]},{"lat":"37.724423329","long":"126.76223255","imageIndex":13,"items":[{"name":"운정노래연습장","tel":"031-948-0331","addr":"경기도 파주시 와동동 1426-1번지","indutype":"레저업소 - 노 래 방","category":"leisure"}]},{"lat":"37.731869349","long":"126.75126155","imageIndex":13,"items":[{"name":"운정당구장","tel":"031-942-7577","addr":"경기도 파주시 와동동 1303번지 미봉프라자 701동 703호","indutype":"레저업소 - 당 구 장","category":"leisure"}]},{"lat":"37.736008226","long":"126.75290386","imageIndex":13,"items":[{"name":"원 요가 스튜디오(one yoga studio)","tel":"070-4116-2159","addr":"경기도 파주시 와동동 1662-4번지","indutype":"레저업소 - 헬스클럽","category":"leisure"}]},{"lat":"37.734706068","long":"126.75490484","imageIndex":13,"items":[{"name":"제우스당구클럽","tel":"070-4153-5903","addr":"경기도 파주시 와동동 1560번지","indutype":"레저업소 - 당 구 장","category":"leisure"}]},{"lat":"37.734872777","long":"126.75707107","imageIndex":13,"items":[{"name":"챔피언노래연습장","tel":"031-943-8822","addr":"경기도 파주시 와동동 1551-4번지","indutype":"레저업소 - 노 래 방","category":"leisure"}]},{"lat":"37.734788084","long":"126.755347","imageIndex":13,"items":[{"name":"챔피온 당구장","tel":"070-7784-4107","addr":"경기도 파주시 와동동 1562번지","indutype":"레저업소 - 당 구 장","category":"leisure"}]},{"lat":"37.732625273","long":"126.75085061","imageIndex":13,"items":[{"name":"커브스 와동클럽","tel":"031-946-6330","addr":"경기도 파주시 와동동 1301-3번지","indutype":"레저업소 - 헬스클럽","category":"leisure"}]},{"lat":"37.734763977","long":"126.75674244","imageIndex":13,"items":[{"name":"클릭노래연습장","tel":"031-943-2336","addr":"경기도 파주시 와동동 1553번지","indutype":"레저업소 - 노 래 방","category":"leisure"}]},{"lat":"37.732319315","long":"126.75102181","imageIndex":13,"items":[{"name":"탑 바디","tel":"031-948-7372","addr":"경기도 파주시 와동동 1301-4번지","indutype":"레저업소 - 헬스클럽","category":"leisure"},{"name":"해솔노래연습장","tel":"031-948-1313","addr":"경기도 파주시 와동동 1301-4번지","indutype":"레저업소 - 노 래 방","category":"leisure"}]},{"lat":"37.734428109","long":"126.75554105","imageIndex":13,"items":[{"name":"티알 멀티짐(TR 멀티짐)","tel":"031-941-0106","addr":"경기도 파주시 와동동 1557번지","indutype":"레저업소 - 헬스클럽","category":"leisure"}]},{"lat":"37.7342907","long":"126.7544638","imageIndex":13,"items":[{"name":"포유짐","tel":"031-947-4291","addr":"경기도 파주시 와동동 1557-4번지","indutype":"레저업소 - 헬스클럽","category":"leisure"}]},{"lat":"37.735145139","long":"126.75806848","imageIndex":13,"items":[{"name":"한솔당구클럽","tel":"","addr":"경기도 파주시 와동동 1551번지","indutype":"레저업소 - 당 구 장","category":"leisure"}]},{"lat":"37.73487011","long":"126.76454704","imageIndex":13,"items":[{"name":"헬로방방","tel":"031-947-0685","addr":"경기도 파주시 와동동 1488-2번지","indutype":"레저업소 - 기타레져업소","category":"leisure"}]}]