[{"lat":"37.116100622","long":"127.63033843","imageIndex":4,"items":[{"name":"검정드럼통","tel":"031-642-3992","addr":"경기도 이천시 장호원읍 오남리 11-14","indutype":"일반휴게음식 - 일반한식","category":"restaurant"}]},{"lat":"37.116404936","long":"127.63072348","imageIndex":4,"items":[{"name":"꿀먹은왕족발","tel":"031-641-7178","addr":"경기도 이천시 장호원읍 오남리 10-14번지 1층","indutype":"일반휴게음식 - 일반한식","category":"restaurant"}]},{"lat":"37.114795901","long":"127.63000138","imageIndex":4,"items":[{"name":"더블랙","tel":"","addr":"경기도 이천시 장호원읍 오남리 14-10번지","indutype":"일반휴게음식 - 서양음식","category":"restaurant"}]},{"lat":"37.114263955","long":"127.6300645","imageIndex":4,"items":[{"name":"도드람돼지갈비","tel":"031-641-7600","addr":"경기도 이천시 장호원읍 오남리 28-7번지 1층","indutype":"일반휴게음식 - 일반한식","category":"restaurant"}]},{"lat":"37.113764","long":"127.63089295","imageIndex":4,"items":[{"name":"맛드림포크","tel":"031-641-6000","addr":"경기도 이천시 장호원읍 오남리 3-57","indutype":"일반휴게음식 - 일반한식","category":"restaurant"}]},{"lat":"37.115130282","long":"127.62981287","imageIndex":4,"items":[{"name":"미식가","tel":"031-641-0747","addr":"경기도 이천시 장호원읍 오남리 14-2번지","indutype":"일반휴게음식 - 일반한식","category":"restaurant"},{"name":"방파제횟집","tel":"031-642-7000","addr":"경기도 이천시 장호원읍 오남리 14-2번지 1층","indutype":"일반휴게음식 - 일식·회집","category":"restaurant"}]},{"lat":"37.115042455","long":"127.62767443","imageIndex":4,"items":[{"name":"빠사시떡볶이앤드닭강정","tel":"031-644-8842","addr":"경기도 이천시 장호원읍 오남리 22-4번지 1동","indutype":"일반휴게음식 - 일반한식","category":"restaurant"},{"name":"카페 뉴욕","tel":"031-641-0613","addr":"경기도 이천시 장호원읍 오남리 22-4번지 2층","indutype":"일반휴게음식 - 서양음식","category":"restaurant"}]},{"lat":"37.115658954","long":"127.63036854","imageIndex":4,"items":[{"name":"송가네닭갈비","tel":"031-641-3454","addr":"경기도 이천시 장호원읍 오남리 7-9번지","indutype":"일반휴게음식 - 일반한식","category":"restaurant"}]},{"lat":"37.116047158","long":"127.63022547","imageIndex":4,"items":[{"name":"아름이네","tel":"","addr":"경기도 이천시 장호원읍 오남리 11-15번지 2층","indutype":"일반휴게음식 - 일반한식","category":"restaurant"}]},{"lat":"37.114938156","long":"127.63036259","imageIndex":4,"items":[{"name":"여울목","tel":"031-642-3457","addr":"경기도 이천시 장호원읍 오남리 2-11번지","indutype":"일반휴게음식 - 일반한식","category":"restaurant"}]},{"lat":"37.115715217","long":"127.62995271","imageIndex":4,"items":[{"name":"옛날손칼국수","tel":"031-642-7780","addr":"경기도 이천시 장호원읍 오남리 12-3번지 2층","indutype":"일반휴게음식 - 일반한식","category":"restaurant"},{"name":"홍시네","tel":"031-642-4382","addr":"경기도 이천시 장호원읍 오남리 12-3번지","indutype":"일반휴게음식 - 일반한식","category":"restaurant"}]},{"lat":"37.115655559","long":"127.63100983","imageIndex":4,"items":[{"name":"와룡순댓국","tel":"031-641-5512","addr":"경기도 이천시 장호원읍 오남리 1-8번지","indutype":"일반휴게음식 - 일반한식","category":"restaurant"},{"name":"전집","tel":"031-641-3308","addr":"경기도 이천시 장호원읍 오남리 1-8번지","indutype":"일반휴게음식 - 일반한식","category":"restaurant"}]},{"lat":"37.116070793","long":"127.63086699","imageIndex":4,"items":[{"name":"통통돼지","tel":"031-642-3382","addr":"경기도 이천시 장호원읍 오남리 1-13번지","indutype":"일반휴게음식 - 일반한식","category":"restaurant"}]},{"lat":"37.115433884","long":"127.63033293","imageIndex":4,"items":[{"name":"풍천숯불민물장어","tel":"031-642-7916","addr":"경기도 이천시 장호원읍 오남리 7-17번지","indutype":"일반휴게음식 - 일반한식","category":"restaurant"},{"name":"풍천숯불민물장어","tel":"031-642-7916","addr":"경기도 이천시 장호원읍 오남리 7-17번지","indutype":"일반휴게음식 - 일반한식","category":"restaurant"}]},{"lat":"37.114518513","long":"127.63133797","imageIndex":4,"items":[{"name":"화덕돌판오리구이","tel":"031-641-6877","addr":"경기도 이천시 장호원읍 오남리 3-23번지 1층","indutype":"일반휴게음식 - 일반한식","category":"restaurant"}]}]