[{"lat":"37.681291062","long":"126.77415031","imageIndex":17,"items":[{"name":"고운맘요양원","tel":"031-975-0075","addr":"경기도 고양시 일산서구 일중로","indutype":"기타의료기관 - 기타의료기관 및 기타","category":"other"}]},{"lat":"37.685988032","long":"126.77567771","imageIndex":17,"items":[{"name":"디자인섹터","tel":"070-4793-8169","addr":"경기도 고양시 일산서구 일중로","indutype":"용역 서비스 - 사무서비스","category":"other"}]},{"lat":"37.682554531","long":"126.77524606","imageIndex":17,"items":[{"name":"라헬","tel":"031-945-9036","addr":"경기도 고양시 일산서구 일중로","indutype":"회원제형태 - 기타1","category":"other"}]},{"lat":"37.688346636","long":"126.77468417","imageIndex":17,"items":[{"name":"우현건축공사","tel":"031-976-5806","addr":"경기도 고양시 일산서구 일중로","indutype":"건축자재 - 목재·석재·철물","category":"other"}]},{"lat":"37.688067493","long":"126.77476438","imageIndex":4,"items":[{"name":"동해바다장어아나고대가리","tel":"031-976-6555","addr":"경기도 고양시 일산서구 일중로","indutype":"일반휴게음식 - 일반한식","category":"restaurant"}]},{"lat":"37.684401319","long":"126.77514972","imageIndex":4,"items":[{"name":"명진양꼬치구이전문점","tel":"031-975-1288","addr":"경기도 고양시 일산서구 일중로","indutype":"일반휴게음식 - 일반한식","category":"restaurant"}]},{"lat":"37.683545847","long":"126.77537907","imageIndex":4,"items":[{"name":"써브웨이 일산산들점","tel":"031-976-2533","addr":"경기도 고양시 일산서구 일중로","indutype":"일반휴게음식 - 스넥","category":"restaurant"}]},{"lat":"37.683625751","long":"126.77476665","imageIndex":8,"items":[{"name":"백세약국","tel":"031-975-9002","addr":"경기도 고양시 일산서구 일중로","indutype":"약국 - 약국","category":"medical"}]},{"lat":"37.683545847","long":"126.77537907","imageIndex":13,"items":[{"name":"아이플러스안경원","tel":"031-976-5988","addr":"경기도 고양시 일산서구 일중로","indutype":"보건위생 - 안경","category":"beauty"},{"name":"커트클럽","tel":"031-975-6962","addr":"경기도 고양시 일산서구 일중로","indutype":"보건위생 - 미용원","category":"beauty"}]},{"lat":"37.681958386","long":"126.77446567","imageIndex":7,"items":[{"name":"유웨이마켓","tel":"031-975-0012","addr":"경기도 고양시 일산서구 일중로","indutype":"유통업 영리 - 슈퍼마켓","category":"mart"}]},{"lat":"37.683545847","long":"126.77537907","imageIndex":7,"items":[{"name":"코사24(나들가게)산들점","tel":"031-975-5993","addr":"경기도 고양시 일산서구 일중로","indutype":"유통업 영리 - 슈퍼마켓","category":"mart"}]},{"lat":"37.683545847","long":"126.77537907","imageIndex":7,"items":[{"name":"종로떡방","tel":"031-812-0420","addr":"경기도 고양시 일산서구 일중로","indutype":"음료식품 - 제과점","category":"food"}]},{"lat":"37.686653735","long":"126.77515417","imageIndex":7,"items":[{"name":"카페메종","tel":"070-4085-1516","addr":"경기도 고양시 일산서구 일중로","indutype":"음료식품 - 기타음료식품","category":"food"}]}]