[{"lat":"37.658808904","long":"127.24666255","imageIndex":13,"items":[{"name":"3포인트짐","tel":"031-563-9688","addr":"경기도 남양주시 호평동 175-15번지 2층","indutype":"레저업소 - 헬스클럽","category":"leisure"}]},{"lat":"37.659636005","long":"127.24752655","imageIndex":13,"items":[{"name":"500당구클럽","tel":"031-595-0949","addr":"경기도 남양주시 호평동 617-3번지 테마프라자 303호","indutype":"레저업소 - 당 구 장","category":"leisure"},{"name":"샹떼PC방","tel":"031-0000-0000","addr":"경기도 남양주시 호평동 617-3번지 테마프라자 3층","indutype":"레저업소 - 기타레져업소","category":"leisure"}]},{"lat":"37.654029231","long":"127.24449382","imageIndex":13,"items":[{"name":"7천노래연습장","tel":"031-595-5065","addr":"경기도 남양주시 호평동 641-1번지 샤르망메디칼프라자 404호","indutype":"레저업소 - 노 래 방","category":"leisure"},{"name":"궁노래연습장","tel":"031-511-7836","addr":"경기도 남양주시 호평동 641-1번지 샤르망메디칼프라자 306호","indutype":"레저업소 - 노 래 방","category":"leisure"},{"name":"짱당구장","tel":"031-595-1929","addr":"경기도 남양주시 호평동 641-1번지 샤르망메디칼프라자 4층 408,409호","indutype":"레저업소 - 당 구 장","category":"leisure"},{"name":"커브스 호평클럽","tel":"031-593-3055","addr":"경기도 남양주시 호평동 641-1번지 샤르망메디칼프라자 501,502호","indutype":"레저업소 - 헬스클럽","category":"leisure"}]},{"lat":"37.655579905","long":"127.24400023","imageIndex":13,"items":[{"name":"K-팝 노래연습장","tel":"031-559-9800","addr":"경기도 남양주시 호평동 639번지 호평프라자 304호,305호","indutype":"레저업소 - 노 래 방","category":"leisure"},{"name":"씨엘 필라테스","tel":"031-559-6372","addr":"경기도 남양주시 호평동 639번지 호평프라자","indutype":"레저업소 - 헬스클럽","category":"leisure"},{"name":"웰리스휘트니스","tel":"031-559-5992","addr":"경기도 남양주시 호평동 639번지 호평프라자 7층 701-705호","indutype":"레저업소 - 헬스클럽","category":"leisure"},{"name":"코엑스짐 호평점","tel":"031-559-5992","addr":"경기도 남양주시 호평동 639번지 호평프라자 7층","indutype":"레저업소 - 헬스클럽","category":"leisure"},{"name":"피씨토랑 호평점","tel":"070-2224-0286","addr":"경기도 남양주시 호평동 639번지 호평프라자 6층","indutype":"레저업소 - 기타레져업소","category":"leisure"}]},{"lat":"37.654030135","long":"127.24405187","imageIndex":13,"items":[{"name":"K2노래연습장","tel":"031-511-5992","addr":"경기도 남양주시 호평동 641번지 에이스프라자 502호","indutype":"레저업소 - 노 래 방","category":"leisure"},{"name":"볼모아당구장","tel":"070-8816-1183","addr":"경기도 남양주시 호평동 641번지 에이스프라자 7층","indutype":"레저업소 - 당 구 장","category":"leisure"},{"name":"히든핏","tel":"031-511-7734","addr":"경기도 남양주시 호평동 641번지 에이스프라자 7층 703호","indutype":"레저업소 - 헬스클럽","category":"leisure"}]},{"lat":"37.655164373","long":"127.2445315","imageIndex":13,"items":[{"name":"Mode escape (모드 이스케이프)","tel":"070-4102-7853","addr":"경기도 남양주시 호평동 642-1번지 홍조프라자 306호","indutype":"레저업소 - 기타레져업소","category":"leisure"},{"name":"양지당구장","tel":"031-511-7527","addr":"경기도 남양주시 호평동 642-1번지 홍조프라자 5층 505호~506호","indutype":"레저업소 - 당 구 장","category":"leisure"}]},{"lat":"37.658328799","long":"127.23907937","imageIndex":13,"items":[{"name":"골프존파크","tel":"031-559-3930","addr":"경기도 남양주시 호평동 477-2번지 3층","indutype":"레저업소 - 스크린골프","category":"leisure"},{"name":"준골프클럽","tel":"031-592-9496","addr":"경기도 남양주시 호평동 477-2번지","indutype":"레저업소 - 골프연습장","category":"leisure"}]},{"lat":"37.660249354","long":"127.24280269","imageIndex":13,"items":[{"name":"꼼지락","tel":"","addr":"경기도 남양주시 호평동 715-1번지","indutype":"레저업소 - 기타레져업소","category":"leisure"}]},{"lat":"37.660166937","long":"127.24783429","imageIndex":13,"items":[{"name":"꿈트리팡팡 호평점","tel":"031-511-8879","addr":"경기도 남양주시 호평동 617-1번지 금강프라자 407호,408,409호","indutype":"레저업소 - 기타레져업소","category":"leisure"},{"name":"스타웹스 PC방","tel":"031-591-3193","addr":"경기도 남양주시 호평동 617-1번지 금강프라자 401,402호","indutype":"레저업소 - 기타레져업소","category":"leisure"},{"name":"썬노래연습장","tel":"031-511-6843","addr":"경기도 남양주시 호평동 617-1번지 금강프라자 208호,209호","indutype":"레저업소 - 노 래 방","category":"leisure"}]},{"lat":"37.654004679","long":"127.24328121","imageIndex":13,"items":[{"name":"낚시에 반하다(실내낚시카페)","tel":"031-592-0650","addr":"경기도 남양주시 호평동 638-1번지 늘봄타워 6층 606호, 607호, 608호","indutype":"레저업소 - 기타레져업소","category":"leisure"},{"name":"오도독 슬라임","tel":"031-593-8748","addr":"경기도 남양주시 호평동 638-1번지 늘봄타워 503호","indutype":"레저업소 - 기타레져업소","category":"leisure"},{"name":"주식회사 호평락볼링장","tel":"031-595-1110","addr":"경기도 남양주시 호평동 638-1번지 늘봄타워 11층","indutype":"레저업소 - 볼 링 장","category":"leisure"},{"name":"포인트 필라테스(point pilates)","tel":"031-595-9688","addr":"경기도 남양주시 호평동 638-1번지 늘봄타워 406,407호","indutype":"레저업소 - 헬스클럽","category":"leisure"},{"name":"필라테스포인트스튜디오","tel":"031-593-9688","addr":"경기도 남양주시 호평동 638-1번지 늘봄타워 6층","indutype":"레저업소 - 헬스클럽","category":"leisure"},{"name":"헬로방방 호평 평내점","tel":"031-559-5001","addr":"경기도 남양주시 호평동 638-1번지 늘봄타워 1001호","indutype":"레저업소 - 기타레져업소","category":"leisure"}]},{"lat":"37.653889651","long":"127.24224962","imageIndex":13,"items":[{"name":"남양주 주짓수","tel":"031-592-1180","addr":"경기도 남양주시 호평동 632-10번지 2층","indutype":"레저업소 - 헬스클럽","category":"leisure"}]},{"lat":"37.654443557","long":"127.24455183","imageIndex":13,"items":[{"name":"라이또PC호평점","tel":"070-9918-8523","addr":"경기도 남양주시 호평동 642-3번지 제뉴빌딩 301,302,303,303-1호","indutype":"레저업소 - 기타레져업소","category":"leisure"},{"name":"수노래연습장","tel":"031-511-6686","addr":"경기도 남양주시 호평동 642-3번지 ZENEW빌딩 제뉴빌딩 308호 ,309,310호","indutype":"레저업소 - 노 래 방","category":"leisure"},{"name":"준 당구클럽","tel":"031-594-4939","addr":"경기도 남양주시 호평동 642-3번지 305~306호","indutype":"레저업소 - 당 구 장","category":"leisure"},{"name":"테진아노래연습장","tel":"031-511-7445","addr":"경기도 남양주시 호평동 642-3번지 제뉴빌딩 207호","indutype":"레저업소 - 노 래 방","category":"leisure"}]},{"lat":"37.667194823","long":"127.2476647","imageIndex":13,"items":[{"name":"리얼피티 (REAL PT)","tel":"031-593-5386","addr":"경기도 남양주시 호평동 373-1번지 명화프라자 3층 301호","indutype":"레저업소 - 헬스클럽","category":"leisure"}]},{"lat":"37.657773993","long":"127.2460812","imageIndex":13,"items":[{"name":"봉피씨(BongPC)","tel":"070-7796-1911","addr":"경기도 남양주시 호평동 173-1번지 ,2,3층","indutype":"레저업소 - 기타레져업소","category":"leisure"},{"name":"툴라요가","tel":"031-111-1111","addr":"경기도 남양주시 호평동 173-1번지 4층","indutype":"레저업소 - 헬스클럽","category":"leisure"}]},{"lat":"37.654417595","long":"127.24403046","imageIndex":13,"items":[{"name":"부킹노래연습장","tel":"031-511-3302","addr":"경기도 남양주시 호평동 640-2번지 CH리베로1 208","indutype":"레저업소 - 노 래 방","category":"leisure"},{"name":"스쿼트PC방","tel":"070-7232-0284","addr":"경기도 남양주시 호평동 640-2번지 CH리베로원빌딩 202호 201호, 202호","indutype":"레저업소 - 기타레져업소","category":"leisure"},{"name":"필노래연습장","tel":"031-595-2200","addr":"경기도 남양주시 호평동 640-2번지 CH리베로빌딩 206,211호","indutype":"레저업소 - 노 래 방","category":"leisure"}]},{"lat":"37.657247282","long":"127.25660745","imageIndex":13,"items":[{"name":"비춤탁구클럽","tel":"031-591-0071","addr":"경기도 남양주시 호평동 680번지 호평마을중흥에스-클래스로하스 상가동 B101호","indutype":"레저업소 - 기타레져업소","category":"leisure"}]},{"lat":"37.654803988","long":"127.24453033","imageIndex":13,"items":[{"name":"수노래연습장","tel":"031-511-6686","addr":"경기도 남양주시 호평동 642-2외1필지제뉴상가308.309.310","indutype":"레저업소 - 노 래 방","category":"leisure"}]},{"lat":"37.655003243","long":"127.24402103","imageIndex":13,"items":[{"name":"슈슈앙 밀가루&드로잉 카페","tel":"031-595-6003","addr":"경기도 남양주시 호평동 640번지 메인시네마타워 5층 510호","indutype":"레저업소 - 기타레져업소","category":"leisure"},{"name":"아이센스PC방 호평동","tel":"","addr":"경기도 남양주시 호평동 640번지 호평메인씨네마타워 501호","indutype":"레저업소 - 기타레져업소","category":"leisure"},{"name":"아이칸PC방","tel":"031-592-7719","addr":"경기도 남양주시 호평동 640번지 호평메인씨네마타워 208호","indutype":"레저업소 - 기타레져업소","category":"leisure"},{"name":"트리플휘트니스","tel":"031-593-0004","addr":"경기도 남양주시 호평동 640번지 호평메인씨네마타워 7층 703-1호","indutype":"레저업소 - 헬스클럽","category":"leisure"},{"name":"티스크린골프","tel":"031-593-2072","addr":"경기도 남양주시 호평동 640번지 호평메인씨네마타워 307호","indutype":"레저업소 - 스크린골프","category":"leisure"},{"name":"하시요가","tel":"031-591-5547","addr":"경기도 남양주시 호평동 640번지 메인시네마타워 4층 411호","indutype":"레저업소 - 헬스클럽","category":"leisure"},{"name":"해피소울 노래연습장","tel":"031-595-3974","addr":"경기도 남양주시 호평동 640번지 메인시네마타워 209호","indutype":"레저업소 - 노 래 방","category":"leisure"},{"name":"호평카카오골프","tel":"02-000-0000","addr":"경기도 남양주시 호평동 640번지 메인시네마타워 7층 702,702-1호","indutype":"레저업소 - 스크린골프","category":"leisure"}]},{"lat":"37.655835909","long":"127.25514077","imageIndex":13,"items":[{"name":"아쉬탕가제니요가2호점","tel":"","addr":"경기도 남양주시 호평동 674-5번지 우성빌딩 2층","indutype":"레저업소 - 헬스클럽","category":"leisure"},{"name":"킬러바디짐","tel":"031-595-2232","addr":"경기도 남양주시 호평동 674-5번지 3층 301호","indutype":"레저업소 - 헬스클럽","category":"leisure"},{"name":"하이팡팡","tel":"031-511-0253","addr":"경기도 남양주시 호평동 674-5번지 4층 401호","indutype":"레저업소 - 기타레져업소","category":"leisure"}]},{"lat":"37.656636933","long":"127.24697275","imageIndex":13,"items":[{"name":"종점당구장","tel":"031-559-8970","addr":"경기도 남양주시 호평동 188-9번지 정윤빌딩 3층","indutype":"레저업소 - 당 구 장","category":"leisure"}]},{"lat":"37.665142446","long":"127.25110343","imageIndex":13,"items":[{"name":"중랑에프씨운영위원회","tel":"02-434-5679","addr":"경기도 남양주시 호평동 723번지 임광그대가 101동 1404호","indutype":"레저업소 - 기타레져업소","category":"leisure"}]},{"lat":"37.656472575","long":"127.24802614","imageIndex":13,"items":[{"name":"진구스짐","tel":"031-000-0000","addr":"경기도 남양주시 호평동 194-28번지 송림빌딩 201호","indutype":"레저업소 - 헬스클럽","category":"leisure"}]},{"lat":"37.656196493","long":"127.24647269","imageIndex":13,"items":[{"name":"큐(Q)당구클럽","tel":"","addr":"경기도 남양주시 호평동 166번지 외1필지 2층 201호","indutype":"레저업소 - 당 구 장","category":"leisure"}]},{"lat":"37.657529868","long":"127.24649971","imageIndex":13,"items":[{"name":"킹당구장","tel":"031-511-4360","addr":"경기도 남양주시 호평동 181-23번지 예원빌딩 2층","indutype":"레저업소 - 당 구 장","category":"leisure"}]},{"lat":"37.659472677","long":"127.25660368","imageIndex":13,"items":[{"name":"플레이타임남양주점","tel":"031-511-9957","addr":"경기도 남양주시 호평동 51 이마트3F","indutype":"레저업소 - 기타레져업소","category":"leisure"}]},{"lat":"37.659750821","long":"127.24427437","imageIndex":13,"items":[{"name":"필라테스 앤 치유요가","tel":"031-594-8862","addr":"경기도 남양주시 호평동 615-14번지 상가 1층 2호","indutype":"레저업소 - 헬스클럽","category":"leisure"}]},{"lat":"37.670336127","long":"127.24913718","imageIndex":13,"items":[{"name":"호평파라곤아파트입주자대표회의","tel":"070-4100-1030","addr":"경기도 남양주시 호평동 724번지 호평파라곤","indutype":"레저업소 - 헬스클럽","category":"leisure"}]}]