[{"lat":"37.3844727524","long":"126.9792828759","imageIndex":4,"items":[{"name":"(주)차림","tel":"02-1111-1111","addr":"경기도 의왕시 내손동 684-3번지 1층","indutype":"일반휴게음식 - 일반한식","category":"restaurant"}]},{"lat":"37.3888072543","long":"126.9827481849","imageIndex":4,"items":[{"name":"5겹생고기","tel":"031-422-0172","addr":"경기도 의왕시 내손동 651-13번지","indutype":"일반휴게음식 - 일반한식","category":"restaurant"}]},{"lat":"37.3871398597","long":"126.9798692148","imageIndex":4,"items":[{"name":"60계치킨 의왕(내손점)","tel":"031-421-2260","addr":"경기도 의왕시 내손동 643-6번지 내손신성프라자 1층 103호","indutype":"일반휴게음식 - 스넥","category":"restaurant"},{"name":"덕원교자","tel":"031-421-0012","addr":"경기도 의왕시 내손동 643-6번지 신성프라자 201호","indutype":"일반휴게음식 - 일반한식","category":"restaurant"},{"name":"루리네(RURINE)","tel":"031-395-3383","addr":"경기도 의왕시 내손동 643-6번지 내손신성프라자 301호","indutype":"일반휴게음식 - 서양음식","category":"restaurant"},{"name":"이가 석갈비","tel":"031-421-5592","addr":"경기도 의왕시 내손동 643-6번지 내손신성프라자 201호","indutype":"일반휴게음식 - 일반한식","category":"restaurant"},{"name":"테라커피","tel":"02-111-1111","addr":"경기도 의왕시 내손동 643-6번지 내손신성프라자 102호","indutype":"일반휴게음식 - 서양음식","category":"restaurant"}]},{"lat":"37.3790831589","long":"126.9725101931","imageIndex":4,"items":[{"name":"BHC치킨내손갈뫼점","tel":"031-426-9911","addr":"경기도 의왕시 내손동 751번지 메트로주차빌딩 103호","indutype":"일반휴게음식 - 스넥","category":"restaurant"},{"name":"요리하고술파는남자","tel":"031-000-0000","addr":"경기도 의왕시 내손동 751번지 메트로프라자 1층 101호","indutype":"일반휴게음식 - 주점","category":"restaurant"},{"name":"용구비어 계원예대점","tel":"031-426-1174","addr":"경기도 의왕시 내손동 751번지 메트로주차빌딩 105호","indutype":"일반휴게음식 - 주점","category":"restaurant"},{"name":"자연담은치킨","tel":"031-424-9277","addr":"경기도 의왕시 내손동 751번지 (204,109)","indutype":"일반휴게음식 - 스넥","category":"restaurant"}]},{"lat":"37.3913034692","long":"126.9853673661","imageIndex":4,"items":[{"name":"가마솥순대국","tel":"031-421-4495","addr":"경기도 의왕시 내손동 664-10번지","indutype":"일반휴게음식 - 일반한식","category":"restaurant"}]},{"lat":"37.3710586082","long":"126.9927779337","imageIndex":4,"items":[{"name":"가야금","tel":"031-426-3513","addr":"경기도 의왕시 내손동 140번지","indutype":"일반휴게음식 - 일반한식","category":"restaurant"}]},{"lat":"37.3792542136","long":"126.9719794638","imageIndex":4,"items":[{"name":"갈뫼골","tel":"031-422-9252","addr":"경기도 의왕시 내손동 751-2번지 정도프라자 105호","indutype":"일반휴게음식 - 일반한식","category":"restaurant"},{"name":"둘둘치킨","tel":"031-422-2291","addr":"경기도 의왕시 내손동 751-2번지 정도프라자 106호","indutype":"일반휴게음식 - 스넥","category":"restaurant"},{"name":"장수곱창","tel":"031-426-0443","addr":"경기도 의왕시 내손동 751-2번지 정도프라자 104호","indutype":"일반휴게음식 - 일반한식","category":"restaurant"},{"name":"제이제이","tel":"031-426-2678","addr":"경기도 의왕시 내손동 751-2번지 정도프라자 204호","indutype":"일반휴게음식 - 서양음식","category":"restaurant"}]},{"lat":"37.3736447610","long":"126.9962548466","imageIndex":4,"items":[{"name":"감나무골","tel":"031-426-1245","addr":"경기도 의왕시 내손동 58-1번지","indutype":"일반휴게음식 - 일반한식","category":"restaurant"}]},{"lat":"37.3796685899","long":"126.9716405725","imageIndex":4,"items":[{"name":"강남꼬치일번가","tel":"031-426-5979","addr":"경기도 의왕시 내손동 746번지 롯데프라자 107호","indutype":"일반휴게음식 - 일반한식","category":"restaurant"}]},{"lat":"37.3790026692","long":"126.9749489969","imageIndex":4,"items":[{"name":"경성양꼬치(의왕점)","tel":"031-425-9444","addr":"경기도 의왕시 내손동 757번지 신우프라자 102호","indutype":"일반휴게음식 - 일반한식","category":"restaurant"},{"name":"국수사랑","tel":"031-421-9433","addr":"경기도 의왕시 내손동 757번지 신우프라자 106호","indutype":"일반휴게음식 - 스넥","category":"restaurant"},{"name":"금강다슬기해장국","tel":"031-426-5255","addr":"경기도 의왕시 내손동 757번지 신우프라자 1층","indutype":"일반휴게음식 - 일반한식","category":"restaurant"},{"name":"내손김밥","tel":"031-423-3778","addr":"경기도 의왕시 내손동 757번지 신우프라자 103호","indutype":"일반휴게음식 - 스넥","category":"restaurant"},{"name":"띵크어바웃커피","tel":"070-4216-1474","addr":"경기도 의왕시 내손동 757번지","indutype":"일반휴게음식 - 서양음식","category":"restaurant"},{"name":"문어친구 골뱅이","tel":"031-422-1222","addr":"경기도 의왕시 내손동 757번지 신우프라자 112호","indutype":"일반휴게음식 - 일반한식","category":"restaurant"},{"name":"셰프의돈까스","tel":"031-424-3009","addr":"경기도 의왕시 내손동 757번지 신우프라자 111호","indutype":"일반휴게음식 - 서양음식","category":"restaurant"},{"name":"스칼렛","tel":"031-421-4388","addr":"경기도 의왕시 내손동 757번지 신우프라자 203호","indutype":"일반휴게음식 - 서양음식","category":"restaurant"},{"name":"양계장집아들 (내손점)","tel":"031-425-9730","addr":"경기도 의왕시 내손동 757번지 신우프라자 109호","indutype":"일반휴게음식 - 스넥","category":"restaurant"},{"name":"에스티757","tel":"031-426-0757","addr":"경기도 의왕시 내손동 757번지 신우프라자 105호","indutype":"일반휴게음식 - 서양음식","category":"restaurant"},{"name":"이삭토스트계원예대점","tel":"031-451-2911","addr":"경기도 의왕시 내손동 757번지 신우프라자 107호","indutype":"일반휴게음식 - 스넥","category":"restaurant"}]},{"lat":"37.3875007272","long":"126.9823871942","imageIndex":4,"items":[{"name":"경아두마리치킨(경기서부지사)","tel":"02-507-9999","addr":"경기도 의왕시 내손동 667-11번지 지하1층","indutype":"일반휴게음식 - 일반한식","category":"restaurant"},{"name":"먹깨비분식","tel":"070-8286-3233","addr":"경기도 의왕시 내손동 667-11번지","indutype":"일반휴게음식 - 스넥","category":"restaurant"},{"name":"블루몽드 (Bluemond)","tel":"031-425-7874","addr":"경기도 의왕시 내손동 667-11번지 지층 2호","indutype":"일반휴게음식 - 서양음식","category":"restaurant"}]},{"lat":"37.3790565515","long":"126.9742037963","imageIndex":4,"items":[{"name":"계원포차","tel":"","addr":"경기도 의왕시 내손동 755-3번지 주영프라자 201호","indutype":"일반휴게음식 - 일반한식","category":"restaurant"},{"name":"더하우스","tel":"070-8633-7698","addr":"경기도 의왕시 내손동 755-3번지 주영프라자 103호","indutype":"일반휴게음식 - 주점","category":"restaurant"},{"name":"송이족발","tel":"031-426-0901","addr":"경기도 의왕시 내손동 755-3번지 주영프라자 107호","indutype":"일반휴게음식 - 일반한식","category":"restaurant"},{"name":"토브돈까츠","tel":"031-421-6333","addr":"경기도 의왕시 내손동 755-3번지 주영프라자 104호","indutype":"일반휴게음식 - 서양음식","category":"restaurant"}]},{"lat":"37.3900315952","long":"126.9773953253","imageIndex":4,"items":[{"name":"고봉민김밥(의왕내손점)","tel":"031-426-2289","addr":"경기도 의왕시 내손동 414-3번지 대림프라자","indutype":"일반휴게음식 - 스넥","category":"restaurant"},{"name":"도르리영양돌솥밥","tel":"031-423-5677","addr":"경기도 의왕시 내손동 414-3번지 대림프라자 203호","indutype":"일반휴게음식 - 일반한식","category":"restaurant"},{"name":"스마일명품찹쌀꽈배기 의왕점","tel":"031-111-1111","addr":"경기도 의왕시 내손동 414-3번지 대림프라자 1층 118호","indutype":"일반휴게음식 - 일반한식","category":"restaurant"},{"name":"스시미우","tel":"031-421-7855","addr":"경기도 의왕시 내손동 414-3번지 대림프라자 102호","indutype":"일반휴게음식 - 일식·회집","category":"restaurant"},{"name":"이디야커피 의왕내손점","tel":"031-426-0222","addr":"경기도 의왕시 내손동 414-3번지 대림프라자 117호","indutype":"일반휴게음식 - 서양음식","category":"restaurant"},{"name":"장충로하스족발","tel":"031-423-5777","addr":"경기도 의왕시 내손동 414-3번지 대림프라자 103호","indutype":"일반휴게음식 - 일반한식","category":"restaurant"},{"name":"하루엔소쿠 의왕내손점","tel":"031-421-7088","addr":"경기도 의왕시 내손동 414-3번지 대림프라자 113호","indutype":"일반휴게음식 - 일반한식","category":"restaurant"}]},{"lat":"37.3846987856","long":"126.9835848521","imageIndex":4,"items":[{"name":"고양이가 물고간 피자","tel":"031-425-6760","addr":"경기도 의왕시 내손동 676-6번지 1층","indutype":"일반휴게음식 - 서양음식","category":"restaurant"}]},{"lat":"37.3713920452","long":"126.9935342833","imageIndex":4,"items":[{"name":"고운님 전통차","tel":"031-422-6674","addr":"경기도 의왕시 내손동 85번지","indutype":"일반휴게음식 - 서양음식","category":"restaurant"}]},{"lat":"37.3841122593","long":"126.9788426253","imageIndex":4,"items":[{"name":"고인돌","tel":"031-425-0282","addr":"경기도 의왕시 내손동 689번지","indutype":"일반휴게음식 - 일반한식","category":"restaurant"},{"name":"카메박","tel":"031-425-7142","addr":"경기도 의왕시 내손동 689번지 104호","indutype":"일반휴게음식 - 일식·회집","category":"restaurant"}]},{"lat":"37.3856715645","long":"126.9817553622","imageIndex":4,"items":[{"name":"고향집","tel":"070-8252-5092","addr":"경기도 의왕시 내손동 671번지 104호","indutype":"일반휴게음식 - 일반한식","category":"restaurant"},{"name":"내손 한우 소머리국밥","tel":"031-421-1566","addr":"경기도 의왕시 내손동 671번지","indutype":"일반휴게음식 - 일반한식","category":"restaurant"},{"name":"욜로와","tel":"031-421-2188","addr":"경기도 의왕시 내손동 671번지 지층1층","indutype":"일반휴게음식 - 일반한식","category":"restaurant"},{"name":"투다리","tel":"031-422-9361","addr":"경기도 의왕시 내손동 671번지","indutype":"일반휴게음식 - 일반한식","category":"restaurant"}]},{"lat":"37.3848061913","long":"126.9796102242","imageIndex":4,"items":[{"name":"고향한방족발","tel":"031-441-5471","addr":"경기도 의왕시 내손동 684-7번지","indutype":"일반휴게음식 - 일반한식","category":"restaurant"}]},{"lat":"37.3843916456","long":"126.9792038614","imageIndex":4,"items":[{"name":"공원포차","tel":"031-426-8820","addr":"경기도 의왕시 내손동 684-2번지","indutype":"일반휴게음식 - 일반한식","category":"restaurant"}]},{"lat":"37.3798045105","long":"126.9747003035","imageIndex":4,"items":[{"name":"광수네감자탕순대국","tel":"031-425-7913","addr":"경기도 의왕시 내손동 741번지 성삼아이비즈2차 104호","indutype":"일반휴게음식 - 일반한식","category":"restaurant"},{"name":"부엌","tel":"031-422-8527","addr":"경기도 의왕시 내손동 741번지 성삼이이비즈2차 102호","indutype":"일반휴게음식 - 일반한식","category":"restaurant"},{"name":"예담","tel":"031-455-0426","addr":"경기도 의왕시 내손동 741번지 아이비즈2차 1층 102호","indutype":"일반휴게음식 - 일반한식","category":"restaurant"}]},{"lat":"37.3790295675","long":"126.9743957470","imageIndex":4,"items":[{"name":"교촌치킨 내손갈뫼점","tel":"031-426-0394","addr":"경기도 의왕시 내손동 755-4번지 명성프라자 107호","indutype":"일반휴게음식 - 스넥","category":"restaurant"},{"name":"뚱이네고깃간","tel":"031-425-9290","addr":"경기도 의왕시 내손동 755-4번지 명성프라자 101호","indutype":"일반휴게음식 - 일반한식","category":"restaurant"},{"name":"명성칼국수","tel":"031-425-5355","addr":"경기도 의왕시 내손동 755-4번지 명성프라자 104호","indutype":"일반휴게음식 - 일반한식","category":"restaurant"},{"name":"봉구비어","tel":"031-429-8953","addr":"경기도 의왕시 내손동 755-4번지 명성프라자 113호","indutype":"일반휴게음식 - 주점","category":"restaurant"},{"name":"슬라임 에이블 카페","tel":"031-424-7902","addr":"경기도 의왕시 내손동 755-4번지 명성프라자 2층 203호","indutype":"일반휴게음식 - 서양음식","category":"restaurant"},{"name":"알앤비바","tel":"031-424-4920","addr":"경기도 의왕시 내손동 755-4번지 명성프라자 302호","indutype":"일반휴게음식 - 일반한식","category":"restaurant"},{"name":"엣지","tel":"070-8268-1727","addr":"경기도 의왕시 내손동 755-4번지 명성프라자 201-1호","indutype":"일반휴게음식 - 서양음식","category":"restaurant"},{"name":"예당","tel":"031-426-0806","addr":"경기도 의왕시 내손동 755-4번지","indutype":"일반휴게음식 - 일반한식","category":"restaurant"},{"name":"웰빙촌메밀막국수","tel":"031-423-9005","addr":"경기도 의왕시 내손동 755-4번지 명성프라자 1층 106호","indutype":"일반휴게음식 - 일반한식","category":"restaurant"},{"name":"윤쓰포차","tel":"070-7452-4956","addr":"경기도 의왕시 내손동 755-4번지 명성프라자 1층 111호","indutype":"일반휴게음식 - 주점","category":"restaurant"},{"name":"전원주의 손큰 할매순대국","tel":"031-426-2677","addr":"경기도 의왕시 내손동 755-4번지 명성프라자 103호","indutype":"일반휴게음식 - 일반한식","category":"restaurant"},{"name":"조개세상","tel":"031-426-0292","addr":"경기도 의왕시 내손동 755-4번지 명성프라자 110호","indutype":"일반휴게음식 - 일반한식","category":"restaurant"},{"name":"지리산토속촌","tel":"031-423-3005","addr":"경기도 의왕시 내손동 755-4번지 명성프라자 105호","indutype":"일반휴게음식 - 일반한식","category":"restaurant"},{"name":"촌놈족발","tel":"031-425-1616","addr":"경기도 의왕시 내손동 755-4번지 명성프라자 102호","indutype":"일반휴게음식 - 일반한식","category":"restaurant"},{"name":"키멘라멘","tel":"","addr":"경기도 의왕시 내손동 755-4번지 명성프라자 1층 112호","indutype":"일반휴게음식 - 일식·회집","category":"restaurant"},{"name":"토니버거(TONY BURGER) 계원예대점","tel":"031-422-2677","addr":"경기도 의왕시 내손동 755-4번지 명성프라자 104호","indutype":"일반휴게음식 - 일반한식","category":"restaurant"}]},{"lat":"37.3898342121","long":"126.9816412714","imageIndex":4,"items":[{"name":"교촌치킨포일내손점","tel":"031-462-1991","addr":"경기도 의왕시 내손동 652-21번지 102호","indutype":"일반휴게음식 - 스넥","category":"restaurant"},{"name":"토로","tel":"031-346-0877","addr":"경기도 의왕시 내손동 652-21번지 1층","indutype":"일반휴게음식 - 서양음식","category":"restaurant"}]},{"lat":"37.3793625361","long":"126.9727584750","imageIndex":4,"items":[{"name":"구울래찔래","tel":"031-426-2894","addr":"경기도 의왕시 내손동 748-2번지 계원프라자 103호","indutype":"일반휴게음식 - 일반한식","category":"restaurant"},{"name":"모리모 구움과자점","tel":"","addr":"경기도 의왕시 내손동 748-2번지 계원프라자 1층 105호","indutype":"일반휴게음식 - 서양음식","category":"restaurant"},{"name":"본죽","tel":"031-421-6225","addr":"경기도 의왕시 내손동 748-2번지 계원프라자 101호","indutype":"일반휴게음식 - 일반한식","category":"restaurant"},{"name":"찌개통","tel":"031-000-0000","addr":"경기도 의왕시 내손동 748-2번지 계원프라자 1층 104호","indutype":"일반휴게음식 - 일반한식","category":"restaurant"}]},{"lat":"37.3794705649","long":"126.9723971301","imageIndex":4,"items":[{"name":"국대포차 의왕내손점","tel":"031-427-4777","addr":"경기도 의왕시 내손동 748번지 대림프라자 103호","indutype":"일반휴게음식 - 주점","category":"restaurant"},{"name":"바보스 의왕내손점","tel":"031-424-0925","addr":"경기도 의왕시 내손동 748번지 대림프라자 101호","indutype":"일반휴게음식 - 주점","category":"restaurant"},{"name":"설빙계원예대점","tel":"031-424-2300","addr":"경기도 의왕시 내손동 748번지 대림프라자 203호","indutype":"일반휴게음식 - 스넥","category":"restaurant"},{"name":"신장곱창","tel":"031-426-4477","addr":"경기도 의왕시 내손동 748번지 대림프라자 108호","indutype":"일반휴게음식 - 일반한식","category":"restaurant"},{"name":"아미(ami)","tel":"031-426-3370","addr":"경기도 의왕시 내손동 748번지 대림프라자 501호","indutype":"일반휴게음식 - 일반한식","category":"restaurant"},{"name":"우리동네","tel":"031-426-8026","addr":"경기도 의왕시 내손동 748번지 대림프라자 201호","indutype":"일반휴게음식 - 주점","category":"restaurant"},{"name":"진사골","tel":"031-424-7999","addr":"경기도 의왕시 내손동 748번지 대림프라자 104호","indutype":"일반휴게음식 - 일반한식","category":"restaurant"},{"name":"짝태&노가리","tel":"070-7759-9401","addr":"경기도 의왕시 내손동 748번지 대림프라자 106호","indutype":"일반휴게음식 - 주점","category":"restaurant"}]},{"lat":"37.3790021716","long":"126.9729166877","imageIndex":4,"items":[{"name":"국수나무계원예대점","tel":"031-423-0549","addr":"경기도 의왕시 내손동 750번지 미광프라자 103호","indutype":"일반휴게음식 - 일반한식","category":"restaurant"},{"name":"모로미쿠시 김둘이점","tel":"031-422-9834","addr":"경기도 의왕시 내손동 750번지 미광프라자 101호","indutype":"일반휴게음식 - 일반한식","category":"restaurant"},{"name":"청년어부","tel":"","addr":"경기도 의왕시 내손동 750번지 107,108호","indutype":"일반휴게음식 - 일식·회집","category":"restaurant"},{"name":"카페 (CAFE)&민들레","tel":"031-746-0691","addr":"경기도 의왕시 내손동 750번지 미광프라자 201호","indutype":"일반휴게음식 - 서양음식","category":"restaurant"},{"name":"황제짬뽕","tel":"031-423-2886","addr":"경기도 의왕시 내손동 750번지 미광프라자 104호","indutype":"일반휴게음식 - 중국식","category":"restaurant"}]},{"lat":"37.3750549338","long":"126.9698925340","imageIndex":4,"items":[{"name":"규리와 꾸루기","tel":"031-252-3474","addr":"경기도 의왕시 내손동 801-3번지 1층","indutype":"일반휴게음식 - 일반한식","category":"restaurant"}]},{"lat":"37.3880311646","long":"126.9765378135","imageIndex":4,"items":[{"name":"그릴에 꼬치다","tel":"031-421-8293","addr":"경기도 의왕시 내손동 842번지 래미안에버하임아파트 상가, 농협은행 A동 1층 102호","indutype":"일반휴게음식 - 일반한식","category":"restaurant"}]},{"lat":"37.3905010931","long":"126.9823976695","imageIndex":4,"items":[{"name":"김가네손칼국수","tel":"031-421-5733","addr":"경기도 의왕시 내손동 658번지 1층","indutype":"일반휴게음식 - 일반한식","category":"restaurant"}]},{"lat":"37.3831935433","long":"126.9804462742","imageIndex":4,"items":[{"name":"김밥이맛있는집","tel":"031-426-3336","addr":"경기도 의왕시 내손동 696번지","indutype":"일반휴게음식 - 스넥","category":"restaurant"}]},{"lat":"37.3796146094","long":"126.9719454438","imageIndex":4,"items":[{"name":"김밥천국","tel":"031-424-9002","addr":"경기도 의왕시 내손동 746-2번지 내손LG프라자 1층 101호","indutype":"일반휴게음식 - 스넥","category":"restaurant"},{"name":"심야식당","tel":"031-421-6679","addr":"경기도 의왕시 내손동 746-2번지 LG프라자 202호","indutype":"일반휴게음식 - 일반한식","category":"restaurant"},{"name":"아리신닭발","tel":"031-426-8755","addr":"경기도 의왕시 내손동 746-2번지 엘지프라자 202호","indutype":"일반휴게음식 - 일반한식","category":"restaurant"}]},{"lat":"37.3809759296","long":"126.9751402103","imageIndex":4,"items":[{"name":"김제한우","tel":"031-423-1945","addr":"경기도 의왕시 내손동 731-1번지 ,1,2층","indutype":"일반휴게음식 - 일반한식","category":"restaurant"}]},{"lat":"37.3738919123","long":"126.9674205681","imageIndex":4,"items":[{"name":"까페나무","tel":"031-451-4427","addr":"경기도 의왕시 내손동 816-8번지 갑을주택 101호","indutype":"일반휴게음식 - 서양음식","category":"restaurant"}]},{"lat":"37.3897531314","long":"126.9816977554","imageIndex":4,"items":[{"name":"까페이솝","tel":"070-7533-2495","addr":"경기도 의왕시 내손동 652-20번지 103호","indutype":"일반휴게음식 - 서양음식","category":"restaurant"}]},{"lat":"37.3863099672","long":"126.9753640787","imageIndex":4,"items":[{"name":"나무정원","tel":"02-1234-1234","addr":"경기도 의왕시 내손동 622-3번지 201호","indutype":"일반휴게음식 - 서양음식","category":"restaurant"},{"name":"미소야 내손점","tel":"031-421-1789","addr":"경기도 의왕시 내손동 622-3번지 1층","indutype":"일반휴게음식 - 일식·회집","category":"restaurant"}]},{"lat":"37.3786961850","long":"126.9743620014","imageIndex":4,"items":[{"name":"남경고기마트","tel":"031-426-3675","addr":"경기도 의왕시 내손동 762-1번지 리치21빌딩 102동 103호","indutype":"일반휴게음식 - 일반한식","category":"restaurant"},{"name":"동보성","tel":"031-423-8080","addr":"경기도 의왕시 내손동 762-1번지 리치 21동 202호","indutype":"일반휴게음식 - 중국식","category":"restaurant"},{"name":"미가네","tel":"031-111-1111","addr":"경기도 의왕시 내손동 762-1번지 리치아카데미 1층 102호","indutype":"일반휴게음식 - 일반한식","category":"restaurant"},{"name":"보네르(bonheur)","tel":"031-422-1514","addr":"경기도 의왕시 내손동 762-1번지 리치아카데미 101호","indutype":"일반휴게음식 - 서양음식","category":"restaurant"},{"name":"커피케어","tel":"070-3618-7800","addr":"경기도 의왕시 내손동 762-1번지 리치아카데미 2층 201호","indutype":"일반휴게음식 - 서양음식","category":"restaurant"}]},{"lat":"37.3797505751","long":"126.9752309875","imageIndex":4,"items":[{"name":"남매카페","tel":"031-424-8004","addr":"경기도 의왕시 내손동 739-4번지 성삼아이비즈 101호","indutype":"일반휴게음식 - 서양음식","category":"restaurant"}]},{"lat":"37.3837518984","long":"126.9790572754","imageIndex":4,"items":[{"name":"남산","tel":"031-423-1133","addr":"경기도 의왕시 내손동 689-22번지","indutype":"일반휴게음식 - 중국식","category":"restaurant"}]},{"lat":"37.3891406852","long":"126.9830868596","imageIndex":4,"items":[{"name":"남원추어탕","tel":"031-421-0977","addr":"경기도 의왕시 내손동 651-9번지 나동 1층","indutype":"일반휴게음식 - 일반한식","category":"restaurant"}]},{"lat":"37.3860588927","long":"126.9811680868","imageIndex":4,"items":[{"name":"내손꼬마마약김밥","tel":"031-422-3977","addr":"경기도 의왕시 내손동 669-21번지 1층 103호","indutype":"일반휴게음식 - 스넥","category":"restaurant"},{"name":"철이네","tel":"031-421-7279","addr":"경기도 의왕시 내손동 669-21번지 2호","indutype":"일반휴게음식 - 일반한식","category":"restaurant"}]},{"lat":"37.3867523364","long":"126.9794176624","imageIndex":4,"items":[{"name":"내손벅스","tel":"031-424-1321","addr":"경기도 의왕시 내손동 637번지 보우상가 7호 8호","indutype":"일반휴게음식 - 서양음식","category":"restaurant"}]},{"lat":"37.3851666728","long":"126.9800053164","imageIndex":4,"items":[{"name":"네네치킨내손점","tel":"031-426-9282","addr":"경기도 의왕시 내손동 683번지","indutype":"일반휴게음식 - 스넥","category":"restaurant"},{"name":"뚱땡이 삼겹살","tel":"070-8844-3899","addr":"경기도 의왕시 내손동 683번지 1층 2호","indutype":"일반휴게음식 - 일반한식","category":"restaurant"},{"name":"숙이네순대국","tel":"031-346-7677","addr":"경기도 의왕시 내손동 683번지","indutype":"일반휴게음식 - 일반한식","category":"restaurant"}]},{"lat":"37.3914476056","long":"126.9851979455","imageIndex":4,"items":[{"name":"늘푸른","tel":"031-424-2419","addr":"경기도 의왕시 내손동 664-9번지","indutype":"일반휴게음식 - 일반한식","category":"restaurant"}]},{"lat":"37.3789487951","long":"126.9757506495","imageIndex":4,"items":[{"name":"다(  )자연산1번지쎄꼬시","tel":"031-424-1237","addr":"경기도 의왕시 내손동 757-4번지 반도프라자 103호","indutype":"일반휴게음식 - 일반한식","category":"restaurant"},{"name":"반도포차","tel":"031-423-5734","addr":"경기도 의왕시 내손동 757-4번지 반도프라자 108호","indutype":"일반휴게음식 - 일반한식","category":"restaurant"},{"name":"빽다방 의왕계원예대점","tel":"031-421-0447","addr":"경기도 의왕시 내손동 757-4번지 반도프라자 102호","indutype":"일반휴게음식 - 서양음식","category":"restaurant"},{"name":"씨에로이든","tel":"031-425-9797","addr":"경기도 의왕시 내손동 757-4번지 반도프라자 104호","indutype":"일반휴게음식 - 서양음식","category":"restaurant"},{"name":"요거프레소계원대점","tel":"031-422-6626","addr":"경기도 의왕시 내손동 757-4번지 반도프라자 107호","indutype":"일반휴게음식 - 서양음식","category":"restaurant"},{"name":"웅이치킨+서프독","tel":"070-4649-1001","addr":"경기도 의왕시 내손동 757-4번지 반도프라자 106호","indutype":"일반휴게음식 - 스넥","category":"restaurant"},{"name":"이디야커피 (계원예대점)","tel":"031-426-5888","addr":"경기도 의왕시 내손동 757-4번지 반도프라자 101호","indutype":"일반휴게음식 - 서양음식","category":"restaurant"},{"name":"청년피자","tel":"070-4922-1261","addr":"경기도 의왕시 내손동 757-4번지 반도프라자 1층 105호","indutype":"일반휴게음식 - 서양음식","category":"restaurant"}]},{"lat":"37.3754423942","long":"126.9699826849","imageIndex":4,"items":[{"name":"다연지","tel":"031-464-3545","addr":"경기도 의왕시 내손동 801-9번지","indutype":"일반휴게음식 - 서양음식","category":"restaurant"}]},{"lat":"37.3740275211","long":"126.9689785052","imageIndex":4,"items":[{"name":"다온","tel":"031-429-1317","addr":"경기도 의왕시 내손동 825번지 2층 205호","indutype":"일반휴게음식 - 서양음식","category":"restaurant"}]},{"lat":"37.3791105240","long":"126.9738424758","imageIndex":4,"items":[{"name":"다온식당","tel":"031-422-0123","addr":"경기도 의왕시 내손동 755-1번지 오남프라자 106호,107호","indutype":"일반휴게음식 - 일반한식","category":"restaurant"},{"name":"더덴라운지","tel":"031-388-3993","addr":"경기도 의왕시 내손동 755-1번지 오남프라자 105호","indutype":"일반휴게음식 - 서양음식","category":"restaurant"},{"name":"보드람치킨","tel":"031-422-6262","addr":"경기도 의왕시 내손동 755-1번지 오남프라자 101호","indutype":"일반휴게음식 - 주점","category":"restaurant"},{"name":"쪽갈비명가","tel":"031-424-3320","addr":"경기도 의왕시 내손동 755-1번지 오남프라자 103,104호","indutype":"일반휴게음식 - 일반한식","category":"restaurant"}]},{"lat":"37.3856980199","long":"126.9787517860","imageIndex":4,"items":[{"name":"달고나 내손정","tel":"031-424-8835","addr":"경기도 의왕시 내손동 846번지 4단지상가동 101호","indutype":"일반휴게음식 - 서양음식","category":"restaurant"},{"name":"미나티 앤 루비제이","tel":"","addr":"경기도 의왕시 내손동 846번지 의왕내손이편한세상 상가동 104호","indutype":"일반휴게음식 - 서양음식","category":"restaurant"}]},{"lat":"37.3847240045","long":"126.9745855473","imageIndex":4,"items":[{"name":"달고나 포일자이점","tel":"02-1111-1111","addr":"경기도 의왕시 내손동 844번지","indutype":"일반휴게음식 - 서양음식","category":"restaurant"},{"name":"비에이치씨 내손점","tel":"031-422-1379","addr":"경기도 의왕시 내손동 844번지","indutype":"일반휴게음식 - 스넥","category":"restaurant"}]},{"lat":"37.3798314542","long":"126.9743389899","imageIndex":4,"items":[{"name":"닭갈비 한마당","tel":"070-8942-7026","addr":"경기도 의왕시 내손동 741-1번지 팬텀프라자 111호","indutype":"일반휴게음식 - 일반한식","category":"restaurant"},{"name":"대왕숯불화로구이","tel":"031-422-0989","addr":"경기도 의왕시 내손동 741-1팬텀프라자102호~104호","indutype":"일반휴게음식 - 일반한식","category":"restaurant"},{"name":"발리","tel":"031-423-2354","addr":"경기도 의왕시 내손동 741-1번지 펜텀프라자 109호","indutype":"일반휴게음식 - 일반한식","category":"restaurant"},{"name":"술이들어간다","tel":"031-426-4082","addr":"경기도 의왕시 내손동 741-1번지 팬텀프라자 1층 112호","indutype":"일반휴게음식 - 일반한식","category":"restaurant"},{"name":"신전떡볶이 내손점","tel":"031-422-0901","addr":"경기도 의왕시 내손동 741-1번지 팬텀프라자 113호","indutype":"일반휴게음식 - 일반한식","category":"restaurant"},{"name":"처갓집양념치킨 내손갈뫼점","tel":"031-424-8281","addr":"경기도 의왕시 내손동 741-1번지 팬텀프라자 1층 107호","indutype":"일반휴게음식 - 스넥","category":"restaurant"}]},{"lat":"37.3913573374","long":"126.9841138905","imageIndex":4,"items":[{"name":"대왕족발","tel":"031-423-2588","addr":"경기도 의왕시 내손동 662-9번지","indutype":"일반휴게음식 - 일반한식","category":"restaurant"}]},{"lat":"37.3792815137","long":"126.9730294830","imageIndex":4,"items":[{"name":"더고깃집","tel":"031-421-6893","addr":"경기도 의왕시 내손동 748-3번지 제일프라자 1층 101,102호","indutype":"일반휴게음식 - 일반한식","category":"restaurant"},{"name":"루트7(ROUTE7)","tel":"031-424-1257","addr":"경기도 의왕시 내손동 748-3번지 제일프라자 305호","indutype":"일반휴게음식 - 주점","category":"restaurant"},{"name":"수내닭꼬치","tel":"","addr":"경기도 의왕시 내손동 748-3번지 제일프라자 106호","indutype":"일반휴게음식 - 일반한식","category":"restaurant"},{"name":"식빵공방 의왕점","tel":"031-426-3335","addr":"경기도 의왕시 내손동 748-3번지 제일프라자 105호","indutype":"일반휴게음식 - 서양음식","category":"restaurant"},{"name":"치르치르 내손","tel":"031-426-7295","addr":"경기도 의왕시 내손동 748-3번지 제일프라자 111호","indutype":"일반휴게음식 - 주점","category":"restaurant"},{"name":"하륜일만족발","tel":"031-423-8844","addr":"경기도 의왕시 내손동 748-3번지 제일프라자 104호","indutype":"일반휴게음식 - 일반한식","category":"restaurant"},{"name":"한솥의왕계원예대점","tel":"031-421-1211","addr":"경기도 의왕시 내손동 748-3번지 제일프라자 107호","indutype":"일반휴게음식 - 일반한식","category":"restaurant"},{"name":"황금족발","tel":"031-424-9335","addr":"경기도 의왕시 내손동 748-3번지 제일프라자 108호","indutype":"일반휴게음식 - 일반한식","category":"restaurant"}]},{"lat":"37.3834183317","long":"126.9781202056","imageIndex":4,"items":[{"name":"도미노피자내손점","tel":"031-423-3082","addr":"경기도 의왕시 내손동 691번지 103호,104호","indutype":"일반휴게음식 - 서양음식","category":"restaurant"}]},{"lat":"37.3850585252","long":"126.9798698511","imageIndex":4,"items":[{"name":"독도막회","tel":"031-422-5417","addr":"경기도 의왕시 내손동 684-10번지 105호","indutype":"일반휴게음식 - 일반한식","category":"restaurant"}]},{"lat":"37.3794165593","long":"126.9726116747","imageIndex":4,"items":[{"name":"돈갈비","tel":"031-423-5005","addr":"경기도 의왕시 내손동 748-1번지 성호빌딩 104호","indutype":"일반휴게음식 - 일반한식","category":"restaurant"},{"name":"명인만두","tel":"031-424-0701","addr":"경기도 의왕시 내손동 748-1번지 롯데프라자 103호","indutype":"일반휴게음식 - 일반한식","category":"restaurant"},{"name":"엄마손식당","tel":"031-425-8519","addr":"경기도 의왕시 내손동 748-1번지 롯데프라자 105호","indutype":"일반휴게음식 - 일반한식","category":"restaurant"},{"name":"행복한오타쿠 내손점","tel":"031-424-9300","addr":"경기도 의왕시 내손동 748-1번지 성호빌딩 101호","indutype":"일반휴게음식 - 일반한식","category":"restaurant"}]},{"lat":"37.3712209483","long":"126.9948325904","imageIndex":4,"items":[{"name":"돈독","tel":"","addr":"경기도 의왕시 내손동 91번지","indutype":"일반휴게음식 - 일반한식","category":"restaurant"}]},{"lat":"37.3885261954","long":"126.9742792331","imageIndex":4,"items":[{"name":"돌깨마을맷돌순두부의왕내손점","tel":"031-425-3837","addr":"경기도 의왕시 내손동 405-1번지 1층","indutype":"일반휴게음식 - 일반한식","category":"restaurant"},{"name":"발리철판구이","tel":"031-422-7892","addr":"경기도 의왕시 내손동 405-1번지","indutype":"일반휴게음식 - 일반한식","category":"restaurant"},{"name":"어머니의 정","tel":"031-423-0601","addr":"경기도 의왕시 내손동 405-1번지 외2필지 진우빌딩","indutype":"일반휴게음식 - 일반한식","category":"restaurant"},{"name":"프라이드살롱","tel":"031-425-4828","addr":"경기도 의왕시 내손동 405-1번지 외2필지 진우빌딩 1층","indutype":"일반휴게음식 - 주점","category":"restaurant"}]},{"lat":"37.3902491167","long":"126.9842496744","imageIndex":4,"items":[{"name":"동부곰탕","tel":"031-245-0113","addr":"경기도 의왕시 내손동 656-12번지 1층","indutype":"일반휴게음식 - 일반한식","category":"restaurant"}]},{"lat":"37.3792271330","long":"126.9717875340","imageIndex":4,"items":[{"name":"동성왕족발","tel":"031-426-5777","addr":"경기도 의왕시 내손동 751-3번지 내손빌딩 2동 201호","indutype":"일반휴게음식 - 일반한식","category":"restaurant"}]},{"lat":"37.3761406615","long":"126.9982755689","imageIndex":4,"items":[{"name":"들꽃/주식회사 유웅지","tel":"031-426-5779","addr":"경기도 의왕시 내손동 42번지","indutype":"일반휴게음식 - 일반한식","category":"restaurant"}]},{"lat":"37.3749193700","long":"126.9684474739","imageIndex":4,"items":[{"name":"딜리","tel":"070-8960-3350","addr":"경기도 의왕시 내손동 812번지 1층","indutype":"일반휴게음식 - 서양음식","category":"restaurant"}]},{"lat":"37.3789757289","long":"126.9753328875","imageIndex":4,"items":[{"name":"땡초꼼장어 닭발","tel":"031-421-2505","addr":"경기도 의왕시 내손동 757-2번지 미원파크빌 101,102,103호","indutype":"일반휴게음식 - 일반한식","category":"restaurant"}]},{"lat":"37.3852481236","long":"126.9819474373","imageIndex":4,"items":[{"name":"또래오래치킨 내손점","tel":"031-425-9992","addr":"경기도 의왕시 내손동 680-10번지 1층","indutype":"일반휴게음식 - 스넥","category":"restaurant"},{"name":"일미생고기","tel":"031-421-6614","addr":"경기도 의왕시 내손동 680-10번지","indutype":"일반휴게음식 - 일반한식","category":"restaurant"}]},{"lat":"37.3903026822","long":"126.9813362470","imageIndex":4,"items":[{"name":"로뎀김밥분식","tel":"031-421-5144","addr":"경기도 의왕시 내손동 653-13번지","indutype":"일반휴게음식 - 스넥","category":"restaurant"}]},{"lat":"37.3791409609","long":"126.9967285689","imageIndex":4,"items":[{"name":"마루소","tel":"031-421-3360","addr":"경기도 의왕시 내손동 14-1번지","indutype":"일반휴게음식 - 일반한식","category":"restaurant"}]},{"lat":"37.3909964742","long":"126.9814150953","imageIndex":4,"items":[{"name":"마포최대포","tel":"031-451-0148","addr":"경기도 의왕시 내손동 653-3번지 103호","indutype":"일반휴게음식 - 일반한식","category":"restaurant"},{"name":"후야돈","tel":"031-340-4482","addr":"경기도 의왕시 내손동 653-3번지 1층","indutype":"일반휴게음식 - 일반한식","category":"restaurant"}]},{"lat":"37.3865529224","long":"126.9740315646","imageIndex":4,"items":[{"name":"만두빚는집","tel":"031-424-1294","addr":"경기도 의왕시 내손동 621-11번지","indutype":"일반휴게음식 - 일반한식","category":"restaurant"}]},{"lat":"37.3837524154","long":"126.9817784835","imageIndex":4,"items":[{"name":"모락모락","tel":"031-421-5354","addr":"경기도 의왕시 내손동 677-21번지 101호","indutype":"일반휴게음식 - 스넥","category":"restaurant"}]},{"lat":"37.3856354528","long":"126.9813601662","imageIndex":4,"items":[{"name":"모락산김밥","tel":"031-421-5282","addr":"경기도 의왕시 내손동 682-11번지","indutype":"일반휴게음식 - 일반한식","category":"restaurant"}]},{"lat":"37.3787231689","long":"126.9741700516","imageIndex":4,"items":[{"name":"모락산손두부","tel":"031-422-5258","addr":"경기도 의왕시 내손동 762-2번지 그린파라자제1층 101호","indutype":"일반휴게음식 - 일반한식","category":"restaurant"}]},{"lat":"37.3713104293","long":"126.9883411439","imageIndex":4,"items":[{"name":"모락산안골","tel":"031-426-9766","addr":"경기도 의왕시 내손동 157번지","indutype":"일반휴게음식 - 일반한식","category":"restaurant"},{"name":"카페 세린디피티","tel":"031-111-1111","addr":"경기도 의왕시 내손동 157번지 1층","indutype":"일반휴게음식 - 서양음식","category":"restaurant"}]},{"lat":"37.3714731532","long":"126.9937487734","imageIndex":4,"items":[{"name":"모산","tel":"031-426-2989","addr":"경기도 의왕시 내손동 83번지","indutype":"일반휴게음식 - 일반한식","category":"restaurant"}]},{"lat":"37.3851673841","long":"126.9840363933","imageIndex":4,"items":[{"name":"모해나","tel":"02-2183-0930","addr":"경기도 의왕시 내손동 674-12번지 102호","indutype":"일반휴게음식 - 서양음식","category":"restaurant"}]},{"lat":"37.3863021718","long":"126.9812018918","imageIndex":4,"items":[{"name":"무교동낙지","tel":"031-422-0252","addr":"경기도 의왕시 내손동 669-2번지 지하1층","indutype":"일반휴게음식 - 일반한식","category":"restaurant"},{"name":"옛날통닭","tel":"031-425-1235","addr":"경기도 의왕시 내손동 669-2번지 지층 102호","indutype":"일반휴게음식 - 일반한식","category":"restaurant"}]},{"lat":"37.3908342116","long":"126.9809747386","imageIndex":4,"items":[{"name":"묵호항횟집","tel":"031-423-5982","addr":"경기도 의왕시 내손동 653번지","indutype":"일반휴게음식 - 일반한식","category":"restaurant"},{"name":"바로국물떡볶이","tel":"070-4155-7345","addr":"경기도 의왕시 내손동 653번지","indutype":"일반휴게음식 - 스넥","category":"restaurant"},{"name":"찌개전문","tel":"031-424-3974","addr":"경기도 의왕시 내손동 653번지 1층","indutype":"일반휴게음식 - 일반한식","category":"restaurant"}]},{"lat":"37.3746669575","long":"126.9680072809","imageIndex":4,"items":[{"name":"문출래감자탕 코다리찜","tel":"031-477-4595","addr":"경기도 의왕시 내손동 816-1번지 지층 1호","indutype":"일반휴게음식 - 일반한식","category":"restaurant"}]},{"lat":"37.3872468071","long":"126.9744716806","imageIndex":4,"items":[{"name":"미랑미랑","tel":"031-111-1111","addr":"경기도 의왕시 내손동 619-13번지 1층","indutype":"일반휴게음식 - 일반한식","category":"restaurant"}]},{"lat":"37.3793082091","long":"126.9717310473","imageIndex":4,"items":[{"name":"미소스시","tel":"031-423-5141","addr":"경기도 의왕시 내손동 751-3번지 내손빌딩 105호","indutype":"일반휴게음식 - 일반한식","category":"restaurant"},{"name":"바락세꼬시","tel":"031-422-1484","addr":"경기도 의왕시 내손동 751-3번지 내손빌딩 104호","indutype":"일반휴게음식 - 일반한식","category":"restaurant"},{"name":"소래버섯나라","tel":"031-425-0116","addr":"경기도 의왕시 내손동 751-3번지 내손빌딩 202호","indutype":"일반휴게음식 - 일반한식","category":"restaurant"},{"name":"한서방 두루치기","tel":"031-426-7992","addr":"경기도 의왕시 내손동 751-3번지 내손빌딩 103호","indutype":"일반휴게음식 - 일반한식","category":"restaurant"}]},{"lat":"37.3756683787","long":"126.9727260824","imageIndex":4,"items":[{"name":"밀맥","tel":"031-458-8164","addr":"경기도 의왕시 내손동 774번지 반도보라빌리지2단지 103호","indutype":"일반휴게음식 - 스넥","category":"restaurant"}]},{"lat":"37.3837247436","long":"126.9784475530","imageIndex":4,"items":[{"name":"바다회집","tel":"031-422-9782","addr":"경기도 의왕시 내손동 690번지","indutype":"일반휴게음식 - 일반한식","category":"restaurant"}]},{"lat":"37.3850049200","long":"126.9823427077","imageIndex":4,"items":[{"name":"반다이크","tel":"","addr":"경기도 의왕시 내손동 679-6번지 1층","indutype":"일반휴게음식 - 서양음식","category":"restaurant"}]},{"lat":"37.3738069258","long":"126.9959500070","imageIndex":4,"items":[{"name":"백운호수 능안계곡","tel":"031-426-2525","addr":"경기도 의왕시 내손동 59번지","indutype":"일반휴게음식 - 일반한식","category":"restaurant"}]},{"lat":"37.3797236651","long":"126.9757503703","imageIndex":4,"items":[{"name":"벽돌집","tel":"031-425-0501","addr":"경기도 의왕시 내손동 739-1번지 101호","indutype":"일반휴게음식 - 일반한식","category":"restaurant"},{"name":"벽돌집","tel":"031-425-0501","addr":"경기도 의왕시 내손동 739-1번지 대진오피스텔 1층 상가","indutype":"일반휴게음식 - 일반한식","category":"restaurant"}]},{"lat":"37.3781937764","long":"126.9854720308","imageIndex":4,"items":[{"name":"별당식당","tel":"031-423-2240","addr":"경기도 의왕시 내손동 224-1번지","indutype":"일반휴게음식 - 일반한식","category":"restaurant"}]},{"lat":"37.3886347271","long":"126.9760294599","imageIndex":4,"items":[{"name":"별미실","tel":"031-385-7773","addr":"경기도 의왕시 내손동 631-2번지 건형상가 3층 302,303호","indutype":"일반휴게음식 - 일반한식","category":"restaurant"},{"name":"작은카페","tel":"031-423-7414","addr":"경기도 의왕시 내손동 631-2번지 건형상가 104호","indutype":"일반휴게음식 - 서양음식","category":"restaurant"},{"name":"할매사철탕","tel":"031-25-3291","addr":"경기도 의왕시 내손동 631-2번지","indutype":"일반휴게음식 - 일반한식","category":"restaurant"}]},{"lat":"37.3855003421","long":"126.9815860365","imageIndex":4,"items":[{"name":"별법동태탕찜왕해물찜","tel":"031-425-4311","addr":"경기도 의왕시 내손동 681-10번지","indutype":"일반휴게음식 - 일반한식","category":"restaurant"}]},{"lat":"37.3852477790","long":"126.9800843326","imageIndex":4,"items":[{"name":"보용만두","tel":"031-421-7540","addr":"경기도 의왕시 내손동 683-1번지 101호","indutype":"일반휴게음식 - 일반한식","category":"restaurant"}]},{"lat":"37.3759196306","long":"126.9689212027","imageIndex":4,"items":[{"name":"본가태능숯불갈비","tel":"031-477-1825","addr":"경기도 의왕시 내손동 810번지","indutype":"일반휴게음식 - 일반한식","category":"restaurant"}]},{"lat":"37.3794703105","long":"126.9714261319","imageIndex":4,"items":[{"name":"부자순대국","tel":"031-444-1102","addr":"경기도 의왕시 내손동 752번지 캠퍼스프라자 107호","indutype":"일반휴게음식 - 일반한식","category":"restaurant"},{"name":"커피베이 계원예대점","tel":"031-425-7522","addr":"경기도 의왕시 내손동 752번지 캠퍼스프라자114~115호 114호","indutype":"일반휴게음식 - 서양음식","category":"restaurant"},{"name":"피자스쿨갈뫼점","tel":"031-422-0044","addr":"경기도 의왕시 내손동 752번지 캠퍼스프라자 113호","indutype":"일반휴게음식 - 서양음식","category":"restaurant"}]},{"lat":"37.3791641683","long":"126.9721940228","imageIndex":4,"items":[{"name":"블랙콩 계원예대점","tel":"070-9554-6868","addr":"경기도 의왕시 내손동 751-1번지 주노프라자 1층 106호","indutype":"일반휴게음식 - 서양음식","category":"restaurant"},{"name":"스시상","tel":"031-423-0975","addr":"경기도 의왕시 내손동 751-1번지 주노프라자 103호","indutype":"일반휴게음식 - 일식·회집","category":"restaurant"},{"name":"어장관리","tel":"031-454-9292","addr":"경기도 의왕시 내손동 751-1번지 주노프라자 101호","indutype":"일반휴게음식 - 일반한식","category":"restaurant"},{"name":"종로빈대떡","tel":"031-424-4060","addr":"경기도 의왕시 내손동 751-1번지 주노프라자 104호","indutype":"일반휴게음식 - 일반한식","category":"restaurant"},{"name":"혼마참치","tel":"031-442-3337","addr":"경기도 의왕시 내손동 751-1번지 주노프라자 105호","indutype":"일반휴게음식 - 일식·회집","category":"restaurant"}]},{"lat":"37.3748653421","long":"126.9685603985","imageIndex":4,"items":[{"name":"비비큐내손1동점(갈뫼)","tel":"031-459-8592","addr":"경기도 의왕시 내손동 812-1번지 1층","indutype":"일반휴게음식 - 스넥","category":"restaurant"}]},{"lat":"37.3892756642","long":"126.9820818229","imageIndex":4,"items":[{"name":"비비큐치킨내손점","tel":"031-423-9285","addr":"경기도 의왕시 내손동 652-15번지","indutype":"일반휴게음식 - 스넥","category":"restaurant"},{"name":"처가집양념통닭","tel":"031-425-1145","addr":"경기도 의왕시 내손동 652-15번지 제1층 103호","indutype":"일반휴게음식 - 스넥","category":"restaurant"}]},{"lat":"37.3885536567","long":"126.9761198252","imageIndex":4,"items":[{"name":"비엘 (631BL)","tel":"031-422-6800","addr":"경기도 의왕시 내손동 631-2번지 별동 1층 건형 상가","indutype":"일반휴게음식 - 일반한식","category":"restaurant"}]},{"lat":"37.3863922873","long":"126.9812809078","imageIndex":4,"items":[{"name":"비올렛","tel":"031-422-3155","addr":"경기도 의왕시 내손동 669-3번지 G동 1층","indutype":"일반휴게음식 - 서양음식","category":"restaurant"}]},{"lat":"37.3853922451","long":"126.9817215659","imageIndex":4,"items":[{"name":"빈대떡신사","tel":"031-424-0277","addr":"경기도 의왕시 내손동 681-11번지 104호","indutype":"일반휴게음식 - 주점","category":"restaurant"}]},{"lat":"37.3711931845","long":"126.9874493010","imageIndex":4,"items":[{"name":"산나래한정식","tel":"031-423-3788","addr":"경기도 의왕시 내손동 173-1번지","indutype":"일반휴게음식 - 일반한식","category":"restaurant"},{"name":"주식회사건강힐링캠프","tel":"070-4469-6958","addr":"경기도 의왕시 내손동 173-1번지","indutype":"일반휴게음식 - 일반한식","category":"restaurant"}]},{"lat":"37.3756943288","long":"126.9687519526","imageIndex":4,"items":[{"name":"산채촌","tel":"031-427-0797","addr":"경기도 의왕시 내손동 810-2번지 1층","indutype":"일반휴게음식 - 일반한식","category":"restaurant"}]},{"lat":"37.3791375042","long":"126.9736392340","imageIndex":4,"items":[{"name":"생태랑","tel":"031-425-1312","addr":"경기도 의왕시 내손동 755번지 우성메디칼 104호","indutype":"일반휴게음식 - 일반한식","category":"restaurant"},{"name":"옥천냉면생바지락칼국수","tel":"031-423-5871","addr":"경기도 의왕시 내손동 755번지 우성메디컬센타 202호","indutype":"일반휴게음식 - 일반한식","category":"restaurant"},{"name":"카페 인(cafe, in)","tel":"031-422-6164","addr":"경기도 의왕시 내손동 755번지 우성메디컬센타 105호","indutype":"일반휴게음식 - 서양음식","category":"restaurant"},{"name":"피자준","tel":"031-424-2665","addr":"경기도 의왕시 내손동 755번지 우성메디칼빌딩 102호","indutype":"일반휴게음식 - 서양음식","category":"restaurant"}]},{"lat":"37.3918618045","long":"126.9835039677","imageIndex":4,"items":[{"name":"서울포차","tel":"031-421-5839","addr":"경기도 의왕시 내손동 660-12번지","indutype":"일반휴게음식 - 일반한식","category":"restaurant"},{"name":"전세상","tel":"031-425-0280","addr":"경기도 의왕시 내손동 660-12번지","indutype":"일반휴게음식 - 일반한식","category":"restaurant"},{"name":"코리안숯불닭바베큐","tel":"031-425-4113","addr":"경기도 의왕시 내손동 660-12번지 102호","indutype":"일반휴게음식 - 스넥","category":"restaurant"},{"name":"호세야오리바베큐","tel":"031-424-5293","addr":"경기도 의왕시 내손동 660-12번지 1호","indutype":"일반휴게음식 - 일반한식","category":"restaurant"}]},{"lat":"37.3916906256","long":"126.9835830593","imageIndex":4,"items":[{"name":"선일바지락칼국수","tel":"031-424-6565","addr":"경기도 의왕시 내손동 660-13번지","indutype":"일반휴게음식 - 일반한식","category":"restaurant"}]},{"lat":"37.3836708256","long":"126.9791476316","imageIndex":4,"items":[{"name":"설랭이 설랭이","tel":"031-423-0558","addr":"경기도 의왕시 내손동 689-21번지 상가 101호","indutype":"일반휴게음식 - 일반한식","category":"restaurant"}]},{"lat":"37.3747751023","long":"126.9680862607","imageIndex":4,"items":[{"name":"소중한 사람 (some one)","tel":"031-454-5600","addr":"경기도 의왕시 내손동 816번지 1층","indutype":"일반휴게음식 - 서양음식","category":"restaurant"}]},{"lat":"37.3785271358","long":"126.9853703389","imageIndex":4,"items":[{"name":"송골전통집","tel":"031-423-3940","addr":"경기도 의왕시 내손동 226번지","indutype":"일반휴게음식 - 일반한식","category":"restaurant"},{"name":"옛날보리밥","tel":"031-424-2515","addr":"경기도 의왕시 내손동 226번지","indutype":"일반휴게음식 - 일반한식","category":"restaurant"},{"name":"일출식당","tel":"031-421-1142","addr":"경기도 의왕시 내손동 226번지","indutype":"일반휴게음식 - 일반한식","category":"restaurant"}]},{"lat":"37.3784730363","long":"126.9851106693","imageIndex":4,"items":[{"name":"송골전통집","tel":"031-423-3940","addr":"경기도 의왕시 내손동 226-1번지 송골전통집 (1층)","indutype":"일반휴게음식 - 일반한식","category":"restaurant"}]},{"lat":"37.3748115751","long":"126.9695878111","imageIndex":4,"items":[{"name":"수라청","tel":"031-459-7100","addr":"경기도 의왕시 내손동 802번지","indutype":"일반휴게음식 - 일반한식","category":"restaurant"}]},{"lat":"37.3782758584","long":"126.9945834448","imageIndex":4,"items":[{"name":"수예몽","tel":"031-426-1656","addr":"경기도 의왕시 내손동 26-1번지 1층","indutype":"일반휴게음식 - 서양음식","category":"restaurant"}]},{"lat":"37.3796968311","long":"126.9766197648","imageIndex":4,"items":[{"name":"숯겹살집 의왕내손점","tel":"031-422-3008","addr":"경기도 의왕시 내손동 738번지 계원마당 201호","indutype":"일반휴게음식 - 일반한식","category":"restaurant"},{"name":"풍년담긴항아리","tel":"031-422-8484","addr":"경기도 의왕시 내손동 738번지 계원마당빌딩 103호","indutype":"일반휴게음식 - 일반한식","category":"restaurant"}]},{"lat":"37.3842474430","long":"126.9790006616","imageIndex":4,"items":[{"name":"시골밥상","tel":"031-424-9951","addr":"경기도 의왕시 내손동 684번지","indutype":"일반휴게음식 - 일반한식","category":"restaurant"}]},{"lat":"37.3788581374","long":"126.9734248214","imageIndex":4,"items":[{"name":"신림동명물순대","tel":"070-4240-8931","addr":"경기도 의왕시 내손동 763번지 대명스위트빌 1층","indutype":"일반휴게음식 - 일반한식","category":"restaurant"},{"name":"쌀국수 반가","tel":"031-341-8777","addr":"경기도 의왕시 내손동 763번지 대명스위트빌 102호","indutype":"일반휴게음식 - 서양음식","category":"restaurant"}]},{"lat":"37.3881946339","long":"126.9831435683","imageIndex":4,"items":[{"name":"신부영식당","tel":"031-425-8233","addr":"경기도 의왕시 내손동 667번지","indutype":"일반휴게음식 - 일반한식","category":"restaurant"}]},{"lat":"37.3843105365","long":"126.9791135557","imageIndex":4,"items":[{"name":"신안수산2호점","tel":"031-423-2327","addr":"경기도 의왕시 내손동 684-1번지","indutype":"일반휴게음식 - 일식·회집","category":"restaurant"}]},{"lat":"37.3889153426","long":"126.9825561904","imageIndex":4,"items":[{"name":"실로암","tel":"031-424-1185","addr":"경기도 의왕시 내손동 651번지 103호","indutype":"일반휴게음식 - 일반한식","category":"restaurant"}]},{"lat":"37.3909423848","long":"126.9812570171","imageIndex":4,"items":[{"name":"아지트","tel":"031-423-4888","addr":"경기도 의왕시 내손동 653-2번지","indutype":"일반휴게음식 - 스넥","category":"restaurant"},{"name":"용마루뼈다귀감자탕","tel":"031-425-0954","addr":"경기도 의왕시 내손동 653-2번지","indutype":"일반휴게음식 - 일반한식","category":"restaurant"}]},{"lat":"37.3858876694","long":"126.9809987616","imageIndex":4,"items":[{"name":"안양열무냉면","tel":"031-344-2121","addr":"경기도 의왕시 내손동 683-11번지 1층","indutype":"일반휴게음식 - 일반한식","category":"restaurant"}]},{"lat":"37.3858335477","long":"126.9806713200","imageIndex":4,"items":[{"name":"알볼로피자 내손점","tel":"031-421-8495","addr":"경기도 의왕시 내손동 683-8번지 1층","indutype":"일반휴게음식 - 서양음식","category":"restaurant"}]},{"lat":"37.3908882972","long":"126.9811102316","imageIndex":4,"items":[{"name":"알프스생맥주","tel":"031-425-2135","addr":"경기도 의왕시 내손동 653-1번지","indutype":"일반휴게음식 - 주점","category":"restaurant"},{"name":"착한대구막창","tel":"031-422-3691","addr":"경기도 의왕시 내손동 653-1번지 103호","indutype":"일반휴게음식 - 일반한식","category":"restaurant"}]},{"lat":"37.3786692089","long":"126.9745878228","imageIndex":4,"items":[{"name":"야돌프네","tel":"031-421-3655","addr":"경기도 의왕시 내손동 762번지 해피플러스 1층 104호","indutype":"일반휴게음식 - 일반한식","category":"restaurant"}]},{"lat":"37.3862756913","long":"126.9844426169","imageIndex":4,"items":[{"name":"언덕집","tel":"031-423-9955","addr":"경기도 의왕시 내손동 674번지","indutype":"일반휴게음식 - 일반한식","category":"restaurant"}]},{"lat":"37.3859687352","long":"126.9808632382","imageIndex":4,"items":[{"name":"엄마손집밥","tel":"031-421-1535","addr":"경기도 의왕시 내손동 683-10번지","indutype":"일반휴게음식 - 일반한식","category":"restaurant"}]},{"lat":"37.3746132276","long":"126.9691475908","imageIndex":4,"items":[{"name":"에스씨커피","tel":"031-424-2442","addr":"경기도 의왕시 내손동 812-5번지 101호","indutype":"일반휴게음식 - 서양음식","category":"restaurant"}]},{"lat":"37.3745588094","long":"126.9679170115","imageIndex":4,"items":[{"name":"에스제이푸드","tel":"070-8241-8457","addr":"경기도 의왕시 내손동 816-2번지 1층","indutype":"일반휴게음식 - 일반한식","category":"restaurant"}]},{"lat":"37.3868065815","long":"126.9803661549","imageIndex":4,"items":[{"name":"엘로이즈호프","tel":"031-422-7712","addr":"경기도 의왕시 내손동 643-4번지 1층 1.2호","indutype":"일반휴게음식 - 주점","category":"restaurant"}]},{"lat":"37.3787793479","long":"126.9848960761","imageIndex":4,"items":[{"name":"연푸름","tel":"031-425-3344","addr":"경기도 의왕시 내손동 226-3번지","indutype":"일반휴게음식 - 일반한식","category":"restaurant"},{"name":"연푸름 아뜰리에원","tel":"031-425-3344","addr":"경기도 의왕시 내손동 226-3번지 2층","indutype":"일반휴게음식 - 일반한식","category":"restaurant"}]},{"lat":"37.3791556298","long":"126.9740682710","imageIndex":4,"items":[{"name":"예술","tel":"070-4401-5651","addr":"경기도 의왕시 내손동 755-2번지 미원파크빌 201동 101호","indutype":"일반휴게음식 - 일반한식","category":"restaurant"}]},{"lat":"37.3715002554","long":"126.9947309552","imageIndex":4,"items":[{"name":"옛골가든","tel":"031-426-1472","addr":"경기도 의왕시 내손동 79번지","indutype":"일반휴게음식 - 일반한식","category":"restaurant"}]},{"lat":"37.3845540976","long":"126.9805926575","imageIndex":4,"items":[{"name":"옛날순대집","tel":"031-425-0660","addr":"경기도 의왕시 내손동 686-9번지","indutype":"일반휴게음식 - 일반한식","category":"restaurant"}]},{"lat":"37.3735276099","long":"126.9959161633","imageIndex":4,"items":[{"name":"오리불놀이","tel":"031-423-5295","addr":"경기도 의왕시 내손동 63번지","indutype":"일반휴게음식 - 일반한식","category":"restaurant"}]},{"lat":"37.3763118791","long":"126.9989755511","imageIndex":4,"items":[{"name":"온누리장작&진흙구이","tel":"031-000-0000","addr":"경기도 의왕시 내손동 44-5번지","indutype":"일반휴게음식 - 일반한식","category":"restaurant"},{"name":"주식회사 온누리백운","tel":"031-000-0000","addr":"경기도 의왕시 내손동 44-5번지","indutype":"일반휴게음식 - 일반한식","category":"restaurant"}]},{"lat":"37.3761406763","long":"126.9986707252","imageIndex":4,"items":[{"name":"온누리쭈꾸미","tel":"031-383-6692","addr":"경기도 의왕시 내손동 44-12번지","indutype":"일반휴게음식 - 일반한식","category":"restaurant"},{"name":"주식회사 온누리백운 지점","tel":"031-000-0000","addr":"경기도 의왕시 내손동 44-12번지","indutype":"일반휴게음식 - 일반한식","category":"restaurant"}]},{"lat":"37.3855812178","long":"126.9804229794","imageIndex":4,"items":[{"name":"우리우리집","tel":"031-346-1555","addr":"경기도 의왕시 내손동 683-5번지 1층","indutype":"일반휴게음식 - 일반한식","category":"restaurant"}]},{"lat":"37.3755594533","long":"126.9697229616","imageIndex":4,"items":[{"name":"우정생삼겹살&오리","tel":"031-455-1446","addr":"경기도 의왕시 내손동 803번지 1층","indutype":"일반휴게음식 - 일반한식","category":"restaurant"}]},{"lat":"37.3845004104","long":"126.9826702969","imageIndex":4,"items":[{"name":"원차이나","tel":"031-425-4743","addr":"경기도 의왕시 내손동 678-13번지 1층","indutype":"일반휴게음식 - 중국식","category":"restaurant"}]},{"lat":"37.3861399587","long":"126.9810325633","imageIndex":4,"items":[{"name":"유가네집","tel":"031-425-4433","addr":"경기도 의왕시 내손동 669번지","indutype":"일반휴게음식 - 일반한식","category":"restaurant"}]},{"lat":"37.3859147722","long":"126.9813939613","imageIndex":4,"items":[{"name":"유가네집","tel":"031-421-7478","addr":"경기도 의왕시 내손동 670번지","indutype":"일반휴게음식 - 일반한식","category":"restaurant"},{"name":"피자코소","tel":"031-422-8831","addr":"경기도 의왕시 내손동 670번지","indutype":"일반휴게음식 - 서양음식","category":"restaurant"}]},{"lat":"37.3787805532","long":"126.9966721455","imageIndex":4,"items":[{"name":"유리정원","tel":"031-422-1217","addr":"경기도 의왕시 내손동 14-11번지 1층","indutype":"일반휴게음식 - 서양음식","category":"restaurant"}]},{"lat":"37.3857524419","long":"126.9805923026","imageIndex":4,"items":[{"name":"육부자식당","tel":"031-422-9279","addr":"경기도 의왕시 내손동 683-7번지","indutype":"일반휴게음식 - 일반한식","category":"restaurant"}]},{"lat":"37.3821926801","long":"126.9768334249","imageIndex":4,"items":[{"name":"의왕시니어클럽","tel":"031-426-7988","addr":"경기도 의왕시 내손동 724번지 1층","indutype":"일반휴게음식 - 서양음식","category":"restaurant"}]},{"lat":"37.3912761795","long":"126.9836960901","imageIndex":4,"items":[{"name":"이찌방","tel":"031-421-8295","addr":"경기도 의왕시 내손동 659-9번지","indutype":"일반휴게음식 - 주점","category":"restaurant"}]},{"lat":"37.3860594576","long":"126.9844991282","imageIndex":4,"items":[{"name":"이퀘이터커피","tel":"","addr":"경기도 의왕시 내손동 674-2번지 1층","indutype":"일반휴게음식 - 서양음식","category":"restaurant"}]},{"lat":"37.3869690439","long":"126.9818904997","imageIndex":4,"items":[{"name":"일랑","tel":"031-422-2600","addr":"경기도 의왕시 내손동 669-10번지 1호","indutype":"일반휴게음식 - 중국식","category":"restaurant"}]},{"lat":"37.3880595199","long":"126.9833694431","imageIndex":4,"items":[{"name":"일레븐 식스티","tel":"070-8260-3322","addr":"경기도 의왕시 내손동 667-2번지 G동 1층","indutype":"일반휴게음식 - 서양음식","category":"restaurant"}]},{"lat":"37.3797237116","long":"126.9759536032","imageIndex":4,"items":[{"name":"일찌오 페페(ll zio pepe)","tel":"031-423-7747","addr":"경기도 의왕시 내손동 739번지 (101호102호)","indutype":"일반휴게음식 - 서양음식","category":"restaurant"}]},{"lat":"37.3913302620","long":"126.9838315858","imageIndex":4,"items":[{"name":"자매보쌈","tel":"031-425-0807","addr":"경기도 의왕시 내손동 659-8번지","indutype":"일반휴게음식 - 일반한식","category":"restaurant"}]},{"lat":"37.3776091638","long":"126.9953964271","imageIndex":4,"items":[{"name":"자연콩","tel":"031-422-0059","addr":"경기도 의왕시 내손동 28-12번지 1층","indutype":"일반휴게음식 - 일반한식","category":"restaurant"}]},{"lat":"37.3749738206","long":"126.9698135395","imageIndex":4,"items":[{"name":"장미떡볶이","tel":"031-427-0456","addr":"경기도 의왕시 내손동 801-4번지 1층","indutype":"일반휴게음식 - 스넥","category":"restaurant"}]},{"lat":"37.3912762680","long":"126.9842494201","imageIndex":4,"items":[{"name":"정가네식당","tel":"031-421-3309","addr":"경기도 의왕시 내손동 662-8번지 1층","indutype":"일반휴게음식 - 일반한식","category":"restaurant"}]},{"lat":"37.3710311551","long":"126.9886685909","imageIndex":4,"items":[{"name":"정원칼국수","tel":"031-423-1116","addr":"경기도 의왕시 내손동 155-2번지 1층","indutype":"일반휴게음식 - 일반한식","category":"restaurant"}]},{"lat":"37.3795605929","long":"126.9721148264","imageIndex":4,"items":[{"name":"좋은날&","tel":"02-111-1111","addr":"경기도 의왕시 내손동 746-3번지 스카이프라자 106호","indutype":"일반휴게음식 - 서양음식","category":"restaurant"}]},{"lat":"37.3781917852","long":"126.9750622026","imageIndex":4,"items":[{"name":"주식회사제이제이","tel":"031-425-2223","addr":"경기도 의왕시 내손동 788번지","indutype":"일반휴게음식 - 일반한식","category":"restaurant"}]},{"lat":"37.3861675754","long":"126.9844765184","imageIndex":4,"items":[{"name":"주진성손짜장","tel":"031-422-7040","addr":"경기도 의왕시 내손동 674-1번지","indutype":"일반휴게음식 - 중국식","category":"restaurant"}]},{"lat":"37.3844460060","long":"126.9807507694","imageIndex":4,"items":[{"name":"준카페(JUN CAFE)","tel":"031-422-1511","addr":"경기도 의왕시 내손동 686-10번지 104호","indutype":"일반휴게음식 - 서양음식","category":"restaurant"}]},{"lat":"37.3851404232","long":"126.9844767696","imageIndex":4,"items":[{"name":"지나는길","tel":"070-4496-2721","addr":"경기도 의왕시 내손동 703-10번지","indutype":"일반휴게음식 - 서양음식","category":"restaurant"}]},{"lat":"37.3745051767","long":"126.9693960177","imageIndex":4,"items":[{"name":"지베르니","tel":"031-456-8083","addr":"경기도 의왕시 내손동 812-7번지 1층","indutype":"일반휴게음식 - 서양음식","category":"restaurant"}]},{"lat":"37.3843653238","long":"126.9830542412","imageIndex":4,"items":[{"name":"청사초롱포장마차","tel":"031-426-4746","addr":"경기도 의왕시 내손동 677-10.104","indutype":"일반휴게음식 - 주점","category":"restaurant"}]},{"lat":"37.3783660259","long":"126.9955882905","imageIndex":4,"items":[{"name":"청운누룽지백숙2호점","tel":"031-426-1001","addr":"경기도 의왕시 내손동 15-11번지 1층,2층","indutype":"일반휴게음식 - 일반한식","category":"restaurant"}]},{"lat":"37.3831933101","long":"126.9792494032","imageIndex":4,"items":[{"name":"치킨더부네마늘치킨","tel":"031-422-8824","addr":"경기도 의왕시 내손동 694-1번지","indutype":"일반휴게음식 - 스넥","category":"restaurant"}]},{"lat":"37.3900864603","long":"126.9814492316","imageIndex":4,"items":[{"name":"칠번가 피자 내손점","tel":"031-424-7277","addr":"경기도 의왕시 내손동 652번지 104,105","indutype":"일반휴게음식 - 서양음식","category":"restaurant"}]},{"lat":"37.3881135618","long":"126.9832565093","imageIndex":4,"items":[{"name":"카페 휘","tel":"031-382-4466","addr":"경기도 의왕시 내손동 667-1번지 세종빌딩 지하1층 B02호","indutype":"일반휴게음식 - 서양음식","category":"restaurant"}]},{"lat":"37.3868879389","long":"126.9818114797","imageIndex":4,"items":[{"name":"카페다올","tel":"031-424-6063","addr":"경기도 의왕시 내손동 669-9번지 1층 101호 다올하우스 카페다올","indutype":"일반휴게음식 - 서양음식","category":"restaurant"}]},{"lat":"37.3769786576","long":"127.0000029342","imageIndex":4,"items":[{"name":"카페모퉁이","tel":"031-425-0779","addr":"경기도 의왕시 내손동 3-4번지 2층","indutype":"일반휴게음식 - 서양음식","category":"restaurant"}]},{"lat":"37.3750274420","long":"126.9682780743","imageIndex":4,"items":[{"name":"카페몬순","tel":"031-427-3611","addr":"경기도 의왕시 내손동 810-8번지 1층 101호","indutype":"일반휴게음식 - 서양음식","category":"restaurant"}]},{"lat":"37.3753928173","long":"126.9981740041","imageIndex":4,"items":[{"name":"캠핑아웃도어쿠킹","tel":"031-421-6111","addr":"경기도 의왕시 내손동 46-2번지","indutype":"일반휴게음식 - 일반한식","category":"restaurant"}]},{"lat":"37.3858595012","long":"126.9755336179","imageIndex":4,"items":[{"name":"커피볶는고양이","tel":"070-8202-8005","addr":"경기도 의왕시 내손동 622-14번지","indutype":"일반휴게음식 - 서양음식","category":"restaurant"}]},{"lat":"37.3858882743","long":"126.9845556282","imageIndex":4,"items":[{"name":"커피우(  )","tel":"070-8632-6552","addr":"경기도 의왕시 내손동 674-4번지 102호","indutype":"일반휴게음식 - 서양음식","category":"restaurant"}]},{"lat":"37.3892216234","long":"126.9821947592","imageIndex":4,"items":[{"name":"커피캣츠웰 의왕내손점","tel":"031-341-8683","addr":"경기도 의왕시 내손동 652-14번지","indutype":"일반휴게음식 - 서양음식","category":"restaurant"}]},{"lat":"37.3895279031","long":"126.9818333250","imageIndex":4,"items":[{"name":"커피하우스","tel":"031-456-8803","addr":"경기도 의왕시 내손동 652-18번지","indutype":"일반휴게음식 - 서양음식","category":"restaurant"}]},{"lat":"37.3861928489","long":"126.9754205800","imageIndex":4,"items":[{"name":"케이 콜라보김밥","tel":"031-000-0000","addr":"경기도 의왕시 내손동 622-11번지 1층","indutype":"일반휴게음식 - 스넥","category":"restaurant"}]},{"lat":"37.3870861952","long":"126.9820033852","imageIndex":4,"items":[{"name":"코코-엘","tel":"031-425-5557","addr":"경기도 의왕시 내손동 668-16번지 1층 102호","indutype":"일반휴게음식 - 서양음식","category":"restaurant"}]},{"lat":"37.3845538591","long":"126.9793618905","imageIndex":4,"items":[{"name":"토담민속주점","tel":"031-405-4404","addr":"경기도 의왕시 내손동 684-4번지 102호","indutype":"일반휴게음식 - 주점","category":"restaurant"}]},{"lat":"37.3786442285","long":"126.9851106289","imageIndex":4,"items":[{"name":"토예랑","tel":"031-425-4244","addr":"경기도 의왕시 내손동 226-2번지","indutype":"일반휴게음식 - 일반한식","category":"restaurant"}]},{"lat":"37.3797779646","long":"126.9768116788","imageIndex":4,"items":[{"name":"투썸플레이스 계원예술대점","tel":"031-425-1870","addr":"경기도 의왕시 내손동 738번지 계원마당 101,102호","indutype":"일반휴게음식 - 서양음식","category":"restaurant"}]},{"lat":"37.3849689687","long":"126.9828621266","imageIndex":4,"items":[{"name":"팀스치킨","tel":"031-425-3208","addr":"경기도 의왕시 내손동 676-13번지","indutype":"일반휴게음식 - 주점","category":"restaurant"}]},{"lat":"37.3794974868","long":"126.9719793640","imageIndex":4,"items":[{"name":"펀비어킹","tel":"031-425-9945","addr":"경기도 의왕시 내손동 746-2번지 내손동LG프라자 103호","indutype":"일반휴게음식 - 일반한식","category":"restaurant"}]},{"lat":"37.3862210642","long":"126.9811115816","imageIndex":4,"items":[{"name":"펀비어킹","tel":"031-000-0000","addr":"경기도 의왕시 내손동 669-1번지 1층","indutype":"일반휴게음식 - 주점","category":"restaurant"}]},{"lat":"37.3842212406","long":"126.9835285176","imageIndex":4,"items":[{"name":"포일커피집","tel":"031-424-3243","addr":"경기도 의왕시 내손동 697-16번지","indutype":"일반휴게음식 - 스넥","category":"restaurant"}]},{"lat":"37.3915827282","long":"126.9850059413","imageIndex":4,"items":[{"name":"포천칼국수","tel":"031-425-9223","addr":"경기도 의왕시 내손동 661-9번지","indutype":"일반휴게음식 - 일반한식","category":"restaurant"}]},{"lat":"37.3796416042","long":"126.9718099443","imageIndex":4,"items":[{"name":"피쉬앤그릴","tel":"031-424-8873","addr":"경기도 의왕시 내손동 746-1번지 코코프라자 101호","indutype":"일반휴게음식 - 주점","category":"restaurant"}]},{"lat":"37.3705897626","long":"126.9895605326","imageIndex":4,"items":[{"name":"피아노","tel":"031-426-5688","addr":"경기도 의왕시 내손동 121번지","indutype":"일반휴게음식 - 일식·회집","category":"restaurant"}]},{"lat":"37.3841564829","long":"126.9750712900","imageIndex":4,"items":[{"name":"피엠푸드 의왕내손점","tel":"031-422-1082","addr":"경기도 의왕시 내손동 845번지","indutype":"일반휴게음식 - 서양음식","category":"restaurant"}]},{"lat":"37.3869416484","long":"126.9799257344","imageIndex":4,"items":[{"name":"피자스쿨의왕내손점","tel":"031-422-6662","addr":"경기도 의왕시 내손동 643-21번지 102호","indutype":"일반휴게음식 - 서양음식","category":"restaurant"}]},{"lat":"37.3912218178","long":"126.9819231908","imageIndex":4,"items":[{"name":"한가득정육식당","tel":"031-461-6977","addr":"경기도 의왕시 내손동 660번지","indutype":"일반휴게음식 - 일반한식","category":"restaurant"}]},{"lat":"37.3889158209","long":"126.9855598874","imageIndex":4,"items":[{"name":"한전구내식당","tel":"031-111-1111","addr":"경기도 의왕시 내손동 665번지","indutype":"일반휴게음식 - 일반한식","category":"restaurant"}]},{"lat":"37.3789757682","long":"126.9755022465","imageIndex":4,"items":[{"name":"할리스커피","tel":"031-422-8076","addr":"경기도 의왕시 내손동 757-3번지 보은하우징알파 102호","indutype":"일반휴게음식 - 서양음식","category":"restaurant"}]},{"lat":"37.3906900647","long":"126.9810538271","imageIndex":4,"items":[{"name":"할매냉면","tel":"031-426-2477","addr":"경기도 의왕시 내손동 653-17번지 3호(1층)","indutype":"일반휴게음식 - 일반한식","category":"restaurant"},{"name":"행자갈비","tel":"031-421-3974","addr":"경기도 의왕시 내손동 653-17번지 우진빌딩 1층 1,2호","indutype":"일반휴게음식 - 일반한식","category":"restaurant"}]},{"lat":"37.3709234958","long":"126.9932521066","imageIndex":4,"items":[{"name":"해미별궁","tel":"031-476-5292","addr":"경기도 의왕시 내손동 135번지","indutype":"일반휴게음식 - 일반한식","category":"restaurant"}]},{"lat":"37.3798406419","long":"126.9750841749","imageIndex":4,"items":[{"name":"호식이두마리치킨","tel":"031-422-9994","addr":"경기도 의왕시 내손동 739-5번지 미원파크빌 301동 102호","indutype":"일반휴게음식 - 스넥","category":"restaurant"}]},{"lat":"37.3891671482","long":"126.9799476399","imageIndex":4,"items":[{"name":"호호 과자점","tel":"031-393-4114","addr":"경기도 의왕시 내손동 848-1번지 내동초등학교 상가 나동 114호","indutype":"일반휴게음식 - 서양음식","category":"restaurant"}]},{"lat":"37.3879693434","long":"126.9829177884","imageIndex":4,"items":[{"name":"홍대박아구찜","tel":"031-423-9313","addr":"경기도 의왕시 내손동 667-15번지 1층","indutype":"일반휴게음식 - 일반한식","category":"restaurant"}]},{"lat":"37.3919970147","long":"126.9838652947","imageIndex":4,"items":[{"name":"홍천전통화로숯불구이","tel":"031-424-9282","addr":"경기도 의왕시 내손동 661-1번지","indutype":"일반휴게음식 - 일반한식","category":"restaurant"}]},{"lat":"37.3859146598","long":"126.9807842125","imageIndex":4,"items":[{"name":"화다닭","tel":"031-425-8244","addr":"경기도 의왕시 내손동 683-9번지","indutype":"일반휴게음식 - 일반한식","category":"restaurant"}]},{"lat":"37.3912223616","long":"126.9852544606","imageIndex":4,"items":[{"name":"황구보신탕","tel":"031-422-5909","addr":"경기도 의왕시 내손동 664-11번지","indutype":"일반휴게음식 - 일반한식","category":"restaurant"}]},{"lat":"37.3776363591","long":"126.9987496742","imageIndex":4,"items":[{"name":"효천황토장어숯불구이","tel":"031-425-0345","addr":"경기도 의왕시 내손동 10-4번지","indutype":"일반휴게음식 - 일반한식","category":"restaurant"}]},{"lat":"37.3839770777","long":"126.9786958809","imageIndex":4,"items":[{"name":"휘카페-수","tel":"","addr":"경기도 의왕시 내손동 689-25번지 1층","indutype":"일반휴게음식 - 서양음식","category":"restaurant"}]}]