[{"lat":"37.737102881","long":"127.42003943","imageIndex":13,"items":[{"name":"O2 (오투헤어)","tel":"031-585-9485","addr":"경기도 가평군 청평면 청평리 416","indutype":"보건위생 - 미용원","category":"beauty"}]},{"lat":"37.737718403","long":"127.41922605","imageIndex":13,"items":[{"name":"가이스토리","tel":"031-585-5476","addr":"경기도 가평군 청평면 청평리 465-12번지","indutype":"보건위생 - 미용원","category":"beauty"},{"name":"뷰티케어","tel":"031-111-1111","addr":"경기도 가평군 청평면 청평리 465-12번지 엄지빌딩 2층","indutype":"보건위생 - 화장품","category":"beauty"}]},{"lat":"37.736800063","long":"127.42159194","imageIndex":13,"items":[{"name":"굿대리","tel":"02-1688-8849","addr":"경기도 가평군 청평면 청평리 406-9번지","indutype":"보건위생 - 기타대인서비스","category":"beauty"}]},{"lat":"37.736774243","long":"127.42125146","imageIndex":13,"items":[{"name":"굿청평카드대리운전","tel":"","addr":"경기도 가평군 청평면 청평리 403-4번지","indutype":"보건위생 - 기타대인서비스","category":"beauty"}]},{"lat":"37.736803052","long":"127.41819991","imageIndex":13,"items":[{"name":"김연숙헤어","tel":"","addr":"경기도 가평군 청평면 청평리 434-58번지 미싱상회 102호","indutype":"보건위생 - 미용원","category":"beauty"}]},{"lat":"37.738605309","long":"127.42064914","imageIndex":13,"items":[{"name":"네이처컬렉션 청평점","tel":"031-585-6752","addr":"경기도 가평군 청평면 청평리 465-17번지","indutype":"보건위생 - 화장품","category":"beauty"},{"name":"더페이스샵 청평점","tel":"031-585-6751","addr":"경기도 가평군 청평면 청평리 465-17번지","indutype":"보건위생 - 화장품","category":"beauty"},{"name":"더페이스샵청평점","tel":"031-585-6751","addr":"경기도 가평군 청평면 청평리 465-17번지 1층","indutype":"보건위생 - 화장품","category":"beauty"}]},{"lat":"37.732914505","long":"127.41461616","imageIndex":13,"items":[{"name":"리즈헤어라인","tel":"031-585-8234","addr":"경기도 가평군 청평면 청평리 625-8번지 한청주택","indutype":"보건위생 - 미용원","category":"beauty"}]},{"lat":"37.73785254","long":"127.41951043","imageIndex":13,"items":[{"name":"마임청평지사","tel":"031-585-8512","addr":"경기도 가평군 청평면 청평리 465-11","indutype":"보건위생 - 화장품","category":"beauty"},{"name":"여신피부","tel":"031-584-9391","addr":"경기도 가평군 청평면 청평리 465-11번지","indutype":"보건위생 - 화장품","category":"beauty"}]},{"lat":"37.739044915","long":"127.42117348","imageIndex":13,"items":[{"name":"민들레","tel":"031-584-9630","addr":"경기도 가평군 청평면 청평리 465-30번지 2층","indutype":"보건위생 - 화장품","category":"beauty"}]},{"lat":"37.737913559","long":"127.42008935","imageIndex":13,"items":[{"name":"밝은세상안경원","tel":"031-585-2522","addr":"경기도 가평군 청평면 청평리 465-12번지","indutype":"보건위생-안경","category":"beauty"},{"name":"백합헤어샵","tel":"","addr":"경기도 가평군 청평면 청평리 452-5번지","indutype":"미용업","category":"beauty"},{"name":"보라미용실","tel":"031-584-9703","addr":"경기도 가평군 청평면 청평리 432-29","indutype":"보건위생 - 미용원","category":"beauty"}]},{"lat":"37.734048273","long":"127.41759462","imageIndex":13,"items":[{"name":"백세플러스 의료기","tel":"031-585-2080","addr":"경기도 가평군 청평면 청평리 79-5번지 빅스포츠타운 B동 2호","indutype":"보건위생 - 의료용품","category":"beauty"}]},{"lat":"37.731187848","long":"127.40850364","imageIndex":13,"items":[{"name":"백암천","tel":"031-585-4411","addr":"경기도 가평군 청평면 청평리 650-5번지","indutype":"보건위생 - 사우나","category":"beauty"}]},{"lat":"37.737275141","long":"127.41973408","imageIndex":13,"items":[{"name":"사랑방 미용실","tel":"","addr":"경기도 가평군 청평면 청평리 432-81번지 1층","indutype":"보건위생 - 미용원","category":"beauty"}]},{"lat":"37.737798588","long":"127.41692351","imageIndex":13,"items":[{"name":"세잎클로버","tel":"031-585-3846","addr":"경기도 가평군 청평면 청평리 445-3","indutype":"보건위생 - 미용원","category":"beauty"},{"name":"에스엠(SM)헤어","tel":"070-8843-1918","addr":"경기도 가평군 청평면 청평리 445-3번지 스페이스헬스클럽 가동","indutype":"보건위생 - 미용원","category":"beauty"}]},{"lat":"37.735108858","long":"127.41831524","imageIndex":13,"items":[{"name":"스마일대리운전","tel":"031-584-3324","addr":"경기도 가평군 청평면 청평리 79-46번지","indutype":"보건위생 - 기타대인서비스","category":"beauty"}]},{"lat":"37.736077487","long":"127.41700468","imageIndex":13,"items":[{"name":"신안미용실","tel":"031-585-4436","addr":"경기도 가평군 청평면 청평리 434-66","indutype":"보건위생 - 미용원","category":"beauty"}]},{"lat":"37.738907519","long":"127.42180802","imageIndex":13,"items":[{"name":"신청평대리운전","tel":"031-559-3053","addr":"경기도 가평군 청평면 청평리 315-5번지","indutype":"보건위생 - 기타대인서비스","category":"beauty"}]},{"lat":"37.730993373","long":"127.41003399","imageIndex":13,"items":[{"name":"아모레카운셀러","tel":"031-593-3292","addr":"경기도 가평군 청평면 청평리 681번지","indutype":"보건위생 - 화장품","category":"beauty"}]},{"lat":"37.73172646","long":"127.41426926","imageIndex":13,"items":[{"name":"아모레카운셀러","tel":"031-593-3292","addr":"경기도 가평군 청평면 청평리 688-2번지 현대하이츠빌라 마동 302호","indutype":"보건위생 - 화장품","category":"beauty"}]},{"lat":"37.735296462","long":"127.41620622","imageIndex":13,"items":[{"name":"영헤어 플러스","tel":"031-584-8527","addr":"경기도 가평군 청평면 청평리 78-3번지","indutype":"보건위생 - 미용원","category":"beauty"}]},{"lat":"37.734606913","long":"127.41501124","imageIndex":13,"items":[{"name":"예스맨대리운전","tel":"031-585-5570","addr":"경기도 가평군 청평면 청평리 620-1","indutype":"보건위생 - 기타대인서비스","category":"beauty"}]},{"lat":"37.741354826","long":"127.42272944","imageIndex":13,"items":[{"name":"옥황바이오주식회사","tel":"02-597-9971","addr":"경기도 가평군 청평면 청평리 301-4번지 네오스페이스오피스텔 401호","indutype":"보건위생 - 의료용품","category":"beauty"}]},{"lat":"37.740274475","long":"127.42250778","imageIndex":13,"items":[{"name":"올레헤어","tel":"031-585-3340","addr":"경기도 가평군 청평면 청평리 318-1번지 엘지자동차용품백화점","indutype":"보건위생 - 미용원","category":"beauty"}]},{"lat":"37.737769009","long":"127.42020199","imageIndex":13,"items":[{"name":"올리브","tel":"031-585-9855","addr":"경기도 가평군 청평면 청평리 432-10","indutype":"보건위생 - 미용원","category":"beauty"},{"name":"진아염색방","tel":"031-000-0000","addr":"경기도 가평군 청평면 청평리 432-10번지 청평프라자 106동 1층","indutype":"보건위생 - 미용원","category":"beauty"}]},{"lat":"37.738885625","long":"127.42289701","imageIndex":13,"items":[{"name":"유하준프로헤어","tel":"070-8955-5445","addr":"경기도 가평군 청평면 청평리 319-71번지","indutype":"보건위생 - 미용원","category":"beauty"}]},{"lat":"37.736740941","long":"127.42047984","imageIndex":13,"items":[{"name":"이선미헤어컷트","tel":"031-584-1664","addr":"경기도 가평군 청평면 청평리 413-12번지","indutype":"보건위생 - 미용원","category":"beauty"}]},{"lat":"37.737551639","long":"127.42305965","imageIndex":13,"items":[{"name":"자연미인","tel":"031-584-5660","addr":"경기도 가평군 청평면 청평리 357-18번지 2층 1호","indutype":"보건위생 - 피부미용실","category":"beauty"}]},{"lat":"37.738247337","long":"127.42250768","imageIndex":13,"items":[{"name":"청평대리운전","tel":"031-585-7889","addr":"경기도 가평군 청평면 청평리 319-55번지","indutype":"보건위생 - 기타대인서비스","category":"beauty"}]},{"lat":"37.737605153","long":"127.42067755","imageIndex":13,"items":[{"name":"청평대리운전","tel":"031-585-7889","addr":"경기도 가평군 청평면 청평리 400-7번지","indutype":"보건위생 - 기타대인서비스","category":"beauty"}]},{"lat":"37.737100832","long":"127.42061799","imageIndex":13,"items":[{"name":"청평목욕탕","tel":"031-584-0606","addr":"경기도 가평군 청평면 청평리 397-6번지","indutype":"보건위생 - 사우나","category":"beauty"}]},{"lat":"37.736491811","long":"127.41959356","imageIndex":13,"items":[{"name":"청평백암천","tel":"031-582-0000","addr":"경기도 가평군 청평면 청평리 1번지","indutype":"보건위생- 사우나","category":"beauty"}]},{"lat":"37.738464413","long":"127.41972941","imageIndex":13,"items":[{"name":"청평언어치료센터","tel":"","addr":"경기도 가평군 청평면 청평리 467번지 1층","indutype":"보건위생 - 기타대인서비스","category":"beauty"}]},{"lat":"37.736714998","long":"127.42017339","imageIndex":13,"items":[{"name":"친환경엘샤론코리아","tel":"031-585-1254","addr":"경기도 가평군 청평면 청평리 413-5번지","indutype":"보건위생 - 화장품","category":"beauty"}]},{"lat":"37.730248376","long":"127.40922451","imageIndex":13,"items":[{"name":"코코헤어","tel":"031-584-8678","addr":"경기도 가평군 청평면 청평리 79-28번지","indutype":"미용실","category":"beauty"}]},{"lat":"37.735241331","long":"127.41651222","imageIndex":13,"items":[{"name":"코코헤어","tel":"031-584-8678","addr":"경기도 가평군 청평면 청평리 79-28번지","indutype":"보건위생 - 미용원","category":"beauty"}]},{"lat":"37.737327578","long":"127.42272939","imageIndex":13,"items":[{"name":"클래식헤어","tel":"031-584-2145","addr":"경기도 가평군 청평면 청평리 388-17번지 1층","indutype":"보건위생 - 미용원","category":"beauty"}]},{"lat":"37.737524005","long":"127.42322966","imageIndex":13,"items":[{"name":"헤어그리다","tel":"031-585-4735","addr":"경기도 가평군 청평면 청평리 357-19번지","indutype":"보건위생 - 미용원","category":"beauty"}]},{"lat":"37.738022635","long":"127.41981769","imageIndex":13,"items":[{"name":"헤어체크","tel":"031-584-7660","addr":"경기도 가평군 청평면 청평리 466-2","indutype":"보건위생 - 미용원","category":"beauty"}]}]