[{"lat":"37.275000022","long":"127.55742084","imageIndex":4,"items":[{"name":"들길따라","tel":"031-882-4982","addr":"경기도 여주시 능서면 매류리 605-30번지","indutype":"일반휴게음식 - 서양음식","category":"restaurant"}]},{"lat":"37.278381221","long":"127.5664547","imageIndex":4,"items":[{"name":"매류치킨","tel":"031-884-6847","addr":"경기도 여주시 능서면 매류리 245-4번지","indutype":"일반휴게음식 - 스넥","category":"restaurant"}]},{"lat":"37.283827879","long":"127.56550301","imageIndex":4,"items":[{"name":"목화가든","tel":"031-883-6686","addr":"경기도 여주시 능서면 매류리 147-4번지","indutype":"일반휴게음식 - 일반한식","category":"restaurant"}]},{"lat":"37.274910557","long":"127.55728489","imageIndex":7,"items":[{"name":"매류떡방앗간","tel":"031-882-2029","addr":"경기도 여주시 능서면 매류리 605-30번지","indutype":"음료식품 - 제과점","category":"food"}]},{"lat":"37.272862005","long":"127.56939005","imageIndex":7,"items":[{"name":"해피스토어(Happy store)","tel":"031-883-0676","addr":"경기도 여주시 능서면 매류리 315-8번지 1층","indutype":"음료식품 - 기타음료식품","category":"food"}]},{"lat":"37.274970244","long":"127.55800692","imageIndex":7,"items":[{"name":"홍일식품여주이천총판","tel":"031-883-6905","addr":"경기도 여주시 능서면 매류리 605-26번지","indutype":"음료식품 - 기타음료식품","category":"food"}]},{"lat":"37.279577167","long":"127.56506545","imageIndex":7,"items":[{"name":"매류할인마트","tel":"031-881-5929","addr":"경기도 여주시 능서면 매류리 223-2번지","indutype":"유통업 영리 - 슈퍼마켓","category":"mart"}]},{"lat":"37.275831063","long":"127.55889269","imageIndex":7,"items":[{"name":"역전슈퍼","tel":"031-882-4525","addr":"경기도 여주시 능서면 매류리 325-13번지","indutype":"유통업 영리 - 슈퍼마켓","category":"mart"}]},{"lat":"37.275717061","long":"127.56014338","imageIndex":7,"items":[{"name":"은아슈퍼","tel":"031-883-4705","addr":"경기도 여주시 능서면 매류리 325-21번지","indutype":"유통업 영리 - 슈퍼마켓","category":"mart"}]},{"lat":"37.280132597","long":"127.56384053","imageIndex":16,"items":[{"name":"세정중학교","tel":"031-883-9336","addr":"경기도 여주시 능서면 매류리 376-6번지 세정중학교","indutype":"학원 - 초중고교육기관","category":"study"}]},{"lat":"37.272862005","long":"127.56939005","imageIndex":17,"items":[{"name":"여주유한상사","tel":"031-882-1202","addr":"경기도 여주시 능서면 매류리 315-8번지","indutype":"기타 - 기계공구","category":"other"}]},{"lat":"37.275553995","long":"127.5641448","imageIndex":0,"items":[{"name":"주)능서자동차일급정비종합검사","tel":"031-884-6300","addr":"경기도 여주시 능서면 매류리 336-4번지","indutype":"자동차정비 유지 - 자동차정비","category":"car"}]}]