[{"lat":"37.057340717","long":"126.90510361","imageIndex":17,"items":[{"name":"(주)케이에스티산업","tel":"031-681-3920","addr":"경기도 평택시 청북읍 고잔리 363-1번지","indutype":"기타 - 기계공구","category":"other"},{"name":"케이에스티테크","tel":"031-8059-8191","addr":"경기도 평택시 청북읍 고잔리 363-1번지","indutype":"기타 - 기계공구","category":"other"}]},{"lat":"37.057984556","long":"126.89930147","imageIndex":17,"items":[{"name":"거창농장","tel":"","addr":"경기도 평택시 청북읍 고잔리 135-1번지","indutype":"소매업 - 계란","category":"other"}]},{"lat":"37.055121508","long":"126.89190783","imageIndex":17,"items":[{"name":"경기 지게차","tel":"031-653-5876","addr":"경기도 평택시 청북읍 고잔리 114번지","indutype":"기타 - 기계공구","category":"other"}]},{"lat":"37.047119067","long":"126.89082908","imageIndex":17,"items":[{"name":"고잔하우징","tel":"031-683-7153","addr":"경기도 평택시 청북읍 고잔리 833-1번지","indutype":"용역 서비스 - 기타용역서비스","category":"other"}]},{"lat":"37.059097878","long":"126.89482523","imageIndex":17,"items":[{"name":"나라정공","tel":"031-647-3001","addr":"경기도 평택시 청북읍 고잔리 1-806","indutype":"기타 - 기계공구","category":"other"}]},{"lat":"37.055287075","long":"126.90605061","imageIndex":17,"items":[{"name":"동명상사","tel":"031-653-9490","addr":"경기도 평택시 청북읍 고잔리 384","indutype":"건축자재 - 목재·석재·철물","category":"other"}]},{"lat":"37.064785566","long":"126.89704345","imageIndex":17,"items":[{"name":"성재농장","tel":"","addr":"경기도 평택시 청북읍 고잔리 1661-4번지","indutype":"소매업 - 계란","category":"other"}]},{"lat":"37.065425438","long":"126.90782552","imageIndex":17,"items":[{"name":"세븐일레븐평택고잔점","tel":"","addr":"경기도 평택시 청북읍 고잔리 2-4번지","indutype":"유통업 영리 - 편 의 점","category":"other"}]},{"lat":"37.058845612","long":"126.89485932","imageIndex":17,"items":[{"name":"스카이E.N.G","tel":"031-647-3004","addr":"경기도 평택시 청북읍 고잔리 1-807","indutype":"기타 - 기계공구","category":"other"}]},{"lat":"37.05382034","long":"126.90852577","imageIndex":17,"items":[{"name":"이노 프린팅","tel":"031-686-6953","addr":"경기도 평택시 청북읍 고잔리 444번지","indutype":"사무통신 - 사무용 OA기기","category":"other"}]},{"lat":"37.049235878","long":"126.90002158","imageIndex":17,"items":[{"name":"주영 주식회사","tel":"031-684-8277","addr":"경기도 평택시 청북읍 고잔리 584-2번지 1층","indutype":"가구 - 일반가구","category":"other"}]},{"lat":"37.041736076","long":"126.89665955","imageIndex":17,"items":[{"name":"한길복지선교회","tel":"031-612-9390","addr":"경기도 평택시 청북읍 고잔리 952-2번지 나동 1층","indutype":"기타 - 비영리/대상","category":"other"},{"name":"한길요양원","tel":"031-684-8291","addr":"경기도 평택시 청북읍 고잔리 952-2번지","indutype":"기타의료기관 - 기타의료기관 및 기타","category":"other"}]},{"lat":"37.062784839","long":"126.90721042","imageIndex":0,"items":[{"name":"고잔공업사","tel":"031-684-6117","addr":"경기도 평택시 청북읍 고잔리 8-6번지","indutype":"자동차정비 유지 - 자동차정비","category":"car"}]},{"lat":"37.063146099","long":"126.88785968","imageIndex":0,"items":[{"name":"주식회사 진원종합폐차장","tel":"031-683-1704","addr":"경기도 평택시 청북읍 고잔리 1269-6번지","indutype":"자동차정비 유지 - 가타자동차서비스","category":"car"}]},{"lat":"37.065425438","long":"126.90782552","imageIndex":7,"items":[{"name":"고잔아시아마트","tel":"","addr":"경기도 평택시 청북읍 고잔리 2-4번지","indutype":"유통업 영리 - 슈퍼마켓","category":"mart"}]},{"lat":"37.063929287","long":"126.88710517","imageIndex":7,"items":[{"name":"고잔양어장","tel":"031-6181-3140","addr":"경기도 평택시 청북읍 고잔리 1258번지","indutype":"음료식품 - 농·축·수산품","category":"food"}]},{"lat":"37.048293676","long":"126.89430096","imageIndex":13,"items":[{"name":"바디야건강","tel":"031-611-8419","addr":"경기도 평택시 청북읍 고잔리 631-1번지","indutype":"보건위생 - 화장품","category":"beauty"}]},{"lat":"37.054313109","long":"126.90505128","imageIndex":13,"items":[{"name":"정화메디칼","tel":"","addr":"경기도 평택시 청북읍 고잔리 395-1번지","indutype":"보건위생 - 의료용품","category":"beauty"}]},{"lat":"37.065704964","long":"126.90807254","imageIndex":4,"items":[{"name":"시골집영양탕토종닭","tel":"031-683-3353","addr":"경기도 평택시 청북읍 고잔리 2-6번지","indutype":"일반휴게음식 - 일반한식","category":"restaurant"}]},{"lat":"37.064289725","long":"126.90735469","imageIndex":4,"items":[{"name":"주식회사 뉴그린한식부페","tel":"031-682-7555","addr":"경기도 평택시 청북읍 고잔리 8-29번지","indutype":"일반휴게음식 - 일반한식","category":"restaurant"}]},{"lat":"37.064927142","long":"126.90449795","imageIndex":4,"items":[{"name":"카페 서대울","tel":"031-111-1111","addr":"경기도 평택시 청북읍 고잔리 11-38번지","indutype":"일반휴게음식 - 서양음식","category":"restaurant"}]}]