[{"lat":"37.245909218","long":"127.04300575","imageIndex":16,"items":[{"name":"123어린이집[아이행복]","tel":"031-202-1224","addr":"경기도 수원시 영통구 신동 939번지 래미안영통마크원1단지 관리동","indutype":"학원 - 유아원","category":"study"}]},{"lat":"37.247188456","long":"127.04367141","imageIndex":16,"items":[{"name":"가온프리미엄독서실","tel":"031-203-2338","addr":"경기도 수원시 영통구 신동 933-8번지 3층","indutype":"학원 - 독서실","category":"study"}]},{"lat":"37.246520858","long":"127.04602665","imageIndex":16,"items":[{"name":"김현주영어교습소","tel":"031-273-1220","addr":"경기도 수원시 영통구 신동 940번지 래미안영통마크원2단지 215동 106호","indutype":"회원제형태 - 학원","category":"study"},{"name":"다온피아노음악교습소","tel":"031-202-4739","addr":"경기도 수원시 영통구 신동 940번지 래미안영통마크원2단지 215동 102호","indutype":"학원 - 예·체능계학원","category":"study"},{"name":"래미안빅스맘어린이집[아이행복]","tel":"031-206-7004","addr":"경기도 수원시 영통구 신동 940번지 관리동래미안영통마크원2단지","indutype":"학원 - 유아원","category":"study"},{"name":"뮤엠영어마크원교습소","tel":"031-203-0507","addr":"경기도 수원시 영통구 신동 940번지 래미안영통마크원2단지 상가 115호","indutype":"회원제형태 - 학원","category":"study"},{"name":"보네아트숲미술교습소","tel":"031-203-8032","addr":"경기도 수원시 영통구 신동 940번지 래미안영통마크원2단지 상가동 104호","indutype":"학원 - 예·체능계학원","category":"study"}]},{"lat":"37.249048011","long":"127.05752471","imageIndex":16,"items":[{"name":"드림스테이션독서실","tel":"031-206-8065","addr":"경기도 수원시 영통구 신동 340-15번지 5,6층","indutype":"학원 - 독서실","category":"study"}]},{"lat":"37.247188273","long":"127.04420115","imageIndex":16,"items":[{"name":"백년대계혜윰수학과학학원","tel":"031-214-7705","addr":"경기도 수원시 영통구 신동 935-4번지 401호","indutype":"학원 - 보습학원","category":"study"},{"name":"풂수학학원","tel":"031-203-7964","addr":"경기도 수원시 영통구 신동 935-4번지 202호","indutype":"학원 - 보습학원","category":"study"},{"name":"혜윰영어국어학원","tel":"031-203-3258","addr":"경기도 수원시 영통구 신동 935-4번지 2층","indutype":"학원 - 보습학원","category":"study"}]},{"lat":"37.2464043","long":"127.04441486","imageIndex":16,"items":[{"name":"빛나키즈태권도","tel":"031-202-4004","addr":"경기도 수원시 영통구 신동 938번지 401호","indutype":"학원 - 예·체능계학원","category":"study"},{"name":"예종음악학원","tel":"031-203-4575","addr":"경기도 수원시 영통구 신동 938번지 402호","indutype":"학원 - 예·체능계학원","category":"study"},{"name":"원스카이학원","tel":"031-203-3141","addr":"경기도 수원시 영통구 신동 938번지 성원빌딩 2층 202호","indutype":"학원 - 보습학원","category":"study"}]},{"lat":"37.246737662","long":"127.0444714","imageIndex":16,"items":[{"name":"수리음악학원","tel":"031-206-5897","addr":"경기도 수원시 영통구 신동 937-4번지 305호","indutype":"학원 - 예·체능계학원","category":"study"},{"name":"챠콜미술학원","tel":"031-204-2231","addr":"경기도 수원시 영통구 신동 937-4번지 드림타워 301호","indutype":"학원 - 예·체능계학원","category":"study"}]},{"lat":"37.246924842","long":"127.04991533","imageIndex":16,"items":[{"name":"수호천사공동직장어린이집[아이행복]","tel":"031-695-7004","addr":"경기도 수원시 영통구 신동 486번지 디지털엠파이어2 104동 3층 307호","indutype":"학원 - 유아원","category":"study"}]},{"lat":"37.249354221","long":"127.05782925","imageIndex":16,"items":[{"name":"시티엔리빙텔","tel":"031-890-9807","addr":"경기도 수원시 영통구 신동 342-5번지 3,4층","indutype":"학원 - 독서실","category":"study"}]},{"lat":"37.247237529","long":"127.05622724","imageIndex":16,"items":[{"name":"영동중학교","tel":"031-203-2585","addr":"경기도 수원시 영통구 신동 330-1번지 영동중학교","indutype":"학원 - 초중고교육기관","category":"study"}]},{"lat":"37.246323294","long":"127.04416686","imageIndex":16,"items":[{"name":"용인대백호태권도장","tel":"031-206-2229","addr":"경기도 수원시 영통구 신동 938-1번지 401호","indutype":"학원 - 예·체능계학원","category":"study"}]},{"lat":"37.251821968","long":"127.06010791","imageIndex":16,"items":[{"name":"이야기나무유치원[아이행복]","tel":"031-203-3211","addr":"경기도 수원시 영통구 신동 278번지","indutype":"학원 - 유치원","category":"study"}]},{"lat":"37.247710469","long":"127.0453398","imageIndex":16,"items":[{"name":"이해법수학중국어학원","tel":"031-205-0113","addr":"경기도 수원시 영통구 신동 936-6번지 302호","indutype":"학원 - 보습학원","category":"study"}]},{"lat":"37.249210129","long":"127.05767135","imageIndex":16,"items":[{"name":"테라비트 솔루션즈","tel":"070-7633-0905","addr":"경기도 수원시 영통구 신동 341번지 스타빌딩 703호","indutype":"학원 - 기능학원","category":"study"}]}]