[{"lat":"37.515701141","long":"126.79902086","imageIndex":0,"items":[{"name":"가온벼리","tel":"032-204-6068","addr":"경기도 부천시 여월동 296번지 여월휴먼시아1단지","indutype":"자동차정비 유지 - 자동차부품","category":"car"},{"name":"뿜뿜세차","tel":"","addr":"경기도 부천시 여월동 296번지 여월휴먼시아1단지","indutype":"자동차정비 유지 - 세차장","category":"car"}]},{"lat":"37.509258156","long":"126.79849549","imageIndex":0,"items":[{"name":"개미카센타","tel":"032-613-0449","addr":"경기도 부천시 여월동 312번지","indutype":"자동차정비 유지 - 자동차정비","category":"car"},{"name":"매직인텍","tel":"032-673-9366","addr":"경기도 부천시 여월동 312번지 여월주유소","indutype":"자동차정비 유지 - 자동차정비","category":"car"}]},{"lat":"37.519533494","long":"126.80085424","imageIndex":0,"items":[{"name":"그린모터스","tel":"032-677-6773","addr":"경기도 부천시 여월동 7-32번지 1층","indutype":"자동차정비 유지 - 자동차정비","category":"car"}]},{"lat":"37.516624472","long":"126.80154076","imageIndex":0,"items":[{"name":"매직카자동차용품","tel":"","addr":"경기도 부천시 여월동 10-7번지 1층","indutype":"자동차정비 유지 - 자동차부품","category":"car"},{"name":"현대오토바이","tel":"032-205-5479","addr":"경기도 부천시 여월동 10-7번지 1층","indutype":"자동차판매 - 이륜차판매","category":"car"}]},{"lat":"37.519122395","long":"126.79757497","imageIndex":0,"items":[{"name":"성일상사","tel":"032-681-5458","addr":"경기도 부천시 여월동 5-20번지","indutype":"자동차정비 유지 - 자동차시트·타이어","category":"car"}]},{"lat":"37.507397199","long":"126.80621392","imageIndex":0,"items":[{"name":"세일차바닥","tel":"032-676-4433","addr":"경기도 부천시 여월동 344번지 101호","indutype":"자동차정비 유지 - 자동차부품","category":"car"},{"name":"아지트","tel":"032-611-7727","addr":"경기도 부천시 여월동 344번지","indutype":"자동차정비 유지 - 자동차정비","category":"car"}]},{"lat":"37.507089977","long":"126.80568316","imageIndex":0,"items":[{"name":"스키비자동차공업사","tel":"032-672-5212","addr":"경기도 부천시 여월동 342번지 은행나무주유소영업동","indutype":"자동차정비 유지 - 자동차정비","category":"car"}]},{"lat":"37.517262277","long":"126.80043053","imageIndex":0,"items":[{"name":"스피드모터스","tel":"032-682-3874","addr":"경기도 부천시 여월동 9-30번지","indutype":"자동차정비 유지 - 자동차부품","category":"car"}]},{"lat":"37.515122516","long":"126.80312835","imageIndex":0,"items":[{"name":"여월중앙자동차정비공","tel":"032-674-1472","addr":"경기도 부천시 여월동 48-17번지","indutype":"자동차정비 유지 - 자동차정비","category":"car"}]},{"lat":"37.516535144","long":"126.80199345","imageIndex":0,"items":[{"name":"정비와세차마을","tel":"032-682-1756","addr":"경기도 부천시 여월동 10-12번지","indutype":"자동차정비 유지 - 자동차정비","category":"car"}]},{"lat":"37.51931862","long":"126.79643195","imageIndex":0,"items":[{"name":"제이엠불스","tel":"","addr":"경기도 부천시 여월동 52-2번지 1층","indutype":"자동차정비 유지 - 자동차부품","category":"car"}]},{"lat":"37.516705137","long":"126.8012917","imageIndex":0,"items":[{"name":"제일모터스 (자동차전문정비업)","tel":"032-678-3988","addr":"경기도 부천시 여월동 10-5번지 1층","indutype":"자동차정비 유지 - 자동차정비","category":"car"}]}]