[{"lat":"37.945013218","long":"126.83755639","imageIndex":4,"items":[{"name":"강변식당","tel":"031-958-2932","addr":"경기도 파주시 파평면 장파리 370-19번지","indutype":"일반휴게음식 - 일반한식","category":"restaurant"},{"name":"진미식당","tel":"031-958-3321","addr":"경기도 파주시 파평면 장파리 370-19번지","indutype":"일반휴게음식 - 일반한식","category":"restaurant"}]},{"lat":"37.947544549","long":"126.83736869","imageIndex":4,"items":[{"name":"까페마루","tel":"070-4567-4444","addr":"경기도 파주시 파평면 장파리 400-27번지","indutype":"일반휴게음식 - 서양음식","category":"restaurant"}]},{"lat":"37.942093673","long":"126.83716476","imageIndex":4,"items":[{"name":"꼬꼬피치","tel":"031-958-3758","addr":"경기도 파주시 파평면 장파리 348-13번지","indutype":"일반휴게음식 - 스넥","category":"restaurant"}]},{"lat":"37.942453576","long":"126.83683404","imageIndex":4,"items":[{"name":"믿음식당","tel":"031-958-4695","addr":"경기도 파주시 파평면 장파리 370-44번지","indutype":"일반휴게음식 - 일반한식","category":"restaurant"}]},{"lat":"37.942597836","long":"126.83691335","imageIndex":4,"items":[{"name":"요리왕","tel":"031-958-8284","addr":"경기도 파주시 파평면 장파리 370-42번지","indutype":"일반휴게음식 - 중국식","category":"restaurant"}]},{"lat":"37.950654481","long":"126.84520082","imageIndex":4,"items":[{"name":"자유로식당","tel":"031-958-5221","addr":"경기도 파주시 파평면 장파리 230-3","indutype":"일반휴게음식 - 일반한식","category":"restaurant"}]},{"lat":"37.939515511","long":"126.83608985","imageIndex":4,"items":[{"name":"장단콩두부집","tel":"031-958-6057","addr":"경기도 파주시 파평면 장파리 437-97번지","indutype":"일반휴게음식 - 일반한식","category":"restaurant"}]},{"lat":"37.944067634","long":"126.83783154","imageIndex":4,"items":[{"name":"짬뽕수산","tel":"031-958-0026","addr":"경기도 파주시 파평면 장파리 370-83번지","indutype":"일반휴게음식 - 중국식","category":"restaurant"}]},{"lat":"37.945293126","long":"126.83799945","imageIndex":4,"items":[{"name":"충남식당","tel":"031-958-3154","addr":"경기도 파주시 파평면 장파리 377-12번지 충남식당","indutype":"일반휴게음식 - 일반한식","category":"restaurant"}]},{"lat":"37.944400591","long":"126.83755776","imageIndex":4,"items":[{"name":"호남집","tel":"031-958-3338","addr":"경기도 파주시 파평면 장파리 370-53번지","indutype":"일반휴게음식 - 일반한식","category":"restaurant"}]}]