[{"lat":"37.003799568","long":"127.28595584","imageIndex":17,"items":[{"name":"(주)선인특수여객","tel":"031-676-0022","addr":"경기도 안성시 가현동 123-3번지","indutype":"용역 서비스 - 가례서비스업","category":"other"},{"name":"대아수석농원","tel":"031-674-0670","addr":"경기도 안성시 가현동 123-3번지","indutype":"문화.취미 - 화원","category":"other"},{"name":"에드코리아","tel":"031-676-1453","addr":"경기도 안성시 가현동 123-3번지","indutype":"용역 서비스 - 종합용역","category":"other"}]},{"lat":"37.004186954","long":"127.28218235","imageIndex":17,"items":[{"name":"(주)세훈SOS","tel":"031-671-2305","addr":"경기도 안성시 가현동 161-2번지","indutype":"건축자재 - 보일러·펌프·샷시","category":"other"}]},{"lat":"37.004356276","long":"127.28298065","imageIndex":17,"items":[{"name":"MITENG","tel":"031-676-9603","addr":"경기도 안성시 가현동 188-5번지","indutype":"전기제품 - 냉열기기","category":"other"},{"name":"민턴플러스","tel":"031-674-0336","addr":"경기도 안성시 가현동 188-5번지","indutype":"레져용품 - 스포츠·레져용품","category":"other"},{"name":"삼익공인중개사","tel":"031-672-9094","addr":"경기도 안성시 가현동 188-5번지","indutype":"용역 서비스 - 부동산 중개·임대","category":"other"}]},{"lat":"37.003635005","long":"127.28315776","imageIndex":17,"items":[{"name":"경기PVC상사","tel":"031-671-9505","addr":"경기도 안성시 가현동 147번지","indutype":"건축자재 - 기타건축자재","category":"other"}]},{"lat":"37.003857095","long":"127.28067567","imageIndex":17,"items":[{"name":"광고기획샘터","tel":"031-675-8288","addr":"경기도 안성시 가현동 157-9번지","indutype":"용역 서비스 - 종합용역","category":"other"}]},{"lat":"37.007001035","long":"127.28859678","imageIndex":17,"items":[{"name":"그린창호공사","tel":"031-677-1320","addr":"경기도 안성시 가현동 48-1번지","indutype":"건축자재 - 보일러·펌프·샷시","category":"other"}]},{"lat":"37.004215043","long":"127.28173306","imageIndex":17,"items":[{"name":"디에이치종합상사","tel":"031-000-0000","addr":"경기도 안성시 가현동 160-2번지","indutype":"기타 - 기계공구","category":"other"},{"name":"리움기획","tel":"031-677-9011","addr":"경기도 안성시 가현동 160-2번지","indutype":"용역 서비스 - 종합용역","category":"other"}]},{"lat":"37.003469876","long":"127.28057315","imageIndex":17,"items":[{"name":"신현대상사","tel":"031-677-4667","addr":"경기도 안성시 가현동 157-4","indutype":"건축자재 - 기타건축자재","category":"other"}]},{"lat":"37.003495812","long":"127.2886286","imageIndex":17,"items":[{"name":"장보는강아지와고양이 안성맞춤점","tel":"031-673-4286","addr":"경기도 안성시 가현동 108-14번지 상가 1층","indutype":"문화.취미 - 애완동물","category":"other"}]},{"lat":"37.003750861","long":"127.2874836","imageIndex":17,"items":[{"name":"제네시스 미술관","tel":"031-674-9370","addr":"경기도 안성시 가현동 128-1번지","indutype":"문화.취미 - 화랑","category":"other"}]},{"lat":"37.003883259","long":"127.28104652","imageIndex":17,"items":[{"name":"카카오VX안성점","tel":"031-677-2204","addr":"경기도 안성시 가현동 158번지 2층","indutype":"레져용품 - 골프용품 전문점","category":"other"}]},{"lat":"37.003053001","long":"127.28540257","imageIndex":17,"items":[{"name":"태조건설 주식회사","tel":"031-671-7320","addr":"경기도 안성시 가현동 137-23번지","indutype":"용역 서비스 - 기타용역서비스","category":"other"}]},{"lat":"37.003468508","long":"127.28115735","imageIndex":17,"items":[{"name":"하나상사","tel":"031-676-9647","addr":"경기도 안성시 가현동 157-25번지","indutype":"주방용구 - 주방용구","category":"other"}]}]