[{"lat":"37.25774434","long":"127.14334839","imageIndex":13,"items":[{"name":"(사)해피패밀리가족상담센터","tel":"02-1600-7591","addr":"경기도 용인시 기흥구 상하동 256-8번지","indutype":"보건위생 - 기타대인서비스","category":"beauty"}]},{"lat":"37.272681597","long":"127.13712994","imageIndex":13,"items":[{"name":"도도헤어","tel":"031-281-6111","addr":"경기도 용인시 기흥구 상하동 635-1번지","indutype":"보건위생 - 미용원","category":"beauty"}]},{"lat":"37.259353743","long":"127.13857174","imageIndex":13,"items":[{"name":"루벤스헤어","tel":"031-285-7760","addr":"경기도 용인시 기흥구 상하동 660번지 지석마을진흥더루벤스단지내상가1층103호","indutype":"보건위생 - 미용원","category":"beauty"}]},{"lat":"37.255773755","long":"127.14107902","imageIndex":13,"items":[{"name":"리훈헤어","tel":"031-338-3594","addr":"경기도 용인시 기흥구 상하동 652번지 수원동마을쌍용스윗닷홈 상가동 109호","indutype":"보건위생 - 미용원","category":"beauty"},{"name":"아띠헤어","tel":"031-275-3030","addr":"경기도 용인시 기흥구 상하동 652번지 쌍용스윗닷홈제 상가동 105호","indutype":"보건위생 - 미용원","category":"beauty"}]},{"lat":"37.256573844","long":"127.14263606","imageIndex":13,"items":[{"name":"무궁화케어","tel":"02-1599-6878","addr":"경기도 용인시 기흥구 상하동 147-5번지","indutype":"보건위생 - 의료용품","category":"beauty"}]},{"lat":"37.257765106","long":"127.14101502","imageIndex":13,"items":[{"name":"스타일포유","tel":"031-285-7908","addr":"경기도 용인시 기흥구 상하동 164-1번지 외3필지 상하쟈일드아카데미 204호","indutype":"보건위생 - 미용원","category":"beauty"}]},{"lat":"37.257880415","long":"127.14257084","imageIndex":13,"items":[{"name":"아이러브안경콘택트","tel":"031-282-3377","addr":"경기도 용인시 기흥구 상하동 163-9번지 신풍빌딩 101호","indutype":"보건위생 - 안경","category":"beauty"},{"name":"클라라헤어","tel":"031-287-2205","addr":"경기도 용인시 기흥구 상하동 163-9번지 신풍빌딩 104호","indutype":"보건위생 - 미용원","category":"beauty"}]},{"lat":"37.258376405","long":"127.14221103","imageIndex":13,"items":[{"name":"안경창고 싸군","tel":"031-284-9020","addr":"경기도 용인시 기흥구 상하동 240-4번지 2호","indutype":"보건위생 - 안경","category":"beauty"}]},{"lat":"37.273464823","long":"127.13771763","imageIndex":13,"items":[{"name":"알바이오랩 (R-BIOLAB)","tel":"02-1111-1111","addr":"경기도 용인시 기흥구 상하동 632-4번지 101호","indutype":"보건위생 - 의료용품","category":"beauty"}]},{"lat":"37.26190738","long":"127.14310811","imageIndex":13,"items":[{"name":"에코헤어샵","tel":"031-283-1379","addr":"경기도 용인시 기흥구 상하동 299-1번지 에코타운 204동 지하1층 상가일부","indutype":"보건위생 - 미용원","category":"beauty"}]},{"lat":"37.272546123","long":"127.13741157","imageIndex":13,"items":[{"name":"엔엘(N.L)헤어","tel":"031-285-8748","addr":"경기도 용인시 기흥구 상하동 635-3번지","indutype":"보건위생 - 미용원","category":"beauty"}]},{"lat":"37.271124412","long":"127.13571787","imageIndex":13,"items":[{"name":"오늘은머리하는날","tel":"031-000-0000","addr":"경기도 용인시 기흥구 상하동 636번지 강남마을주공8단지아파트 1층 101호","indutype":"보건위생 - 미용원","category":"beauty"}]},{"lat":"37.261771772","long":"127.14349114","imageIndex":13,"items":[{"name":"주식회사 드림디셀로","tel":"02-1111-1111","addr":"경기도 용인시 기흥구 상하동 299-5번지 에코타운2차 201동 402호","indutype":"보건위생 - 화장품","category":"beauty"}]},{"lat":"37.270042242","long":"127.13655027","imageIndex":13,"items":[{"name":"주식회사 아너스카","tel":"031-284-8100","addr":"경기도 용인시 기흥구 상하동 641번지 104호","indutype":"보건위생 - 기타대인서비스","category":"beauty"}]},{"lat":"37.261407282","long":"127.13927435","imageIndex":13,"items":[{"name":"진영헤어","tel":"031-285-2265","addr":"경기도 용인시 기흥구 상하동 212-5번지 105호","indutype":"보건위생 - 미용원","category":"beauty"}]},{"lat":"37.261154448","long":"127.13974736","imageIndex":13,"items":[{"name":"태후","tel":"031-283-2395","addr":"경기도 용인시 기흥구 상하동 213-11번지 외3필지","indutype":"보건위생 - 화장품","category":"beauty"}]},{"lat":"37.273517271","long":"127.13912707","imageIndex":13,"items":[{"name":"태후사항(상하점)","tel":"031-282-1181","addr":"경기도 용인시 기흥구 상하동 451-1번지 2층","indutype":"보건위생 - 미용원","category":"beauty"}]},{"lat":"37.265853053","long":"127.13602428","imageIndex":13,"items":[{"name":"하나로안경콘택트","tel":"031-286-5777","addr":"경기도 용인시 기흥구 상하동 351번지 기흥하나로클럽","indutype":"보건위생 - 안경","category":"beauty"}]},{"lat":"37.275158917","long":"127.13757407","imageIndex":13,"items":[{"name":"한나미용실","tel":"031-274-7248","addr":"경기도 용인시 기흥구 상하동 630강남마을한라비발디상가204","indutype":"보건위생 - 미용원","category":"beauty"}]},{"lat":"37.273015665","long":"127.1365217","imageIndex":13,"items":[{"name":"헤어짱","tel":"031-287-9740","addr":"경기도 용인시 기흥구 상하동 631-2번지 1층일부","indutype":"보건위생 - 미용원","category":"beauty"}]},{"lat":"37.258070347","long":"127.14196247","imageIndex":13,"items":[{"name":"힐코스메틱용인점","tel":"031-281-9248","addr":"경기도 용인시 기흥구 상하동 163-4번지 경원빌딩 102호","indutype":"보건위생 - 화장품","category":"beauty"}]},{"lat":"37.249961394","long":"127.15629595","imageIndex":8,"items":[{"name":"(의)용인병원유지재단","tel":"031-288-0132","addr":"경기도 용인시 기흥구 상하동 2번지","indutype":"병원 - 종합병원","category":"medical"},{"name":"(의)용인병원의료재단","tel":"031-288-0114","addr":"경기도 용인시 기흥구 상하동 2번지 용인정신병원","indutype":"병원 - 병원","category":"medical"},{"name":"경기도노인전문 용인병원","tel":"031-288-0400","addr":"경기도 용인시 기흥구 상하동 2번지","indutype":"병원 - 병원","category":"medical"},{"name":"서울특별시용인정신병원","tel":"031-284-4013","addr":"경기도 용인시 기흥구 상하동 2번지 용인정신병원","indutype":"병원 - 병원","category":"medical"}]},{"lat":"37.273042096","long":"127.13705166","imageIndex":8,"items":[{"name":"갈보리 치과의원","tel":"031-281-2275","addr":"경기도 용인시 기흥구 상하동 633-4번지","indutype":"의원 - 치과의원","category":"medical"}]},{"lat":"37.261659089","long":"127.13969191","imageIndex":8,"items":[{"name":"국민의료소비자생활협동조합(기흥지점)","tel":"031-283-7588","addr":"경기도 용인시 기흥구 상하동 213-13번지 루벤스빌딩 204호","indutype":"의원 - 의원","category":"medical"}]},{"lat":"37.257073845","long":"127.13882692","imageIndex":8,"items":[{"name":"린우약국","tel":"031-287-2871","addr":"경기도 용인시 기흥구 상하동 621번지 쌍용아파트 상가 107호","indutype":"약국 - 약국","category":"medical"}]},{"lat":"37.257880415","long":"127.14257084","imageIndex":8,"items":[{"name":"사랑나무치과의원","tel":"031-282-8533","addr":"경기도 용인시 기흥구 상하동 163-9번지 신풍빌딩 203호","indutype":"의원 - 치과의원","category":"medical"},{"name":"서울의원","tel":"031-251-8276","addr":"경기도 용인시 기흥구 상하동 163-9번지 신풍빌딩 201호","indutype":"의원 - 의원","category":"medical"},{"name":"인제한의원","tel":"031-282-8575","addr":"경기도 용인시 기흥구 상하동 163-9번지 신풍빌딩 202호","indutype":"의원 - 한의원","category":"medical"},{"name":"햇살약국","tel":"031-282-9541","addr":"경기도 용인시 기흥구 상하동 163-9번지","indutype":"약국 - 약국","category":"medical"}]},{"lat":"37.272681597","long":"127.13712994","imageIndex":8,"items":[{"name":"상하우리약국","tel":"031-275-7582","addr":"경기도 용인시 기흥구 상하동 635-1번지","indutype":"약국 - 약국","category":"medical"},{"name":"최소아과","tel":"031-275-4963","addr":"경기도 용인시 기흥구 상하동 635-1번지","indutype":"의원 - 의원","category":"medical"}]},{"lat":"37.265853053","long":"127.13602428","imageIndex":8,"items":[{"name":"용인하나로약국","tel":"070-8899-1366","addr":"경기도 용인시 기흥구 상하동 351번지 약국코너","indutype":"약국 - 약국","category":"medical"},{"name":"용인하나로약국","tel":"070-8899-1366","addr":"경기도 용인시 기흥구 상하동 351번지 1층","indutype":"약국 - 약국","category":"medical"}]},{"lat":"37.250102261","long":"127.15182152","imageIndex":8,"items":[{"name":"의료법인효녀의료재단","tel":"031-288-0500","addr":"경기도 용인시 기흥구 상하동 32번지 용인효자병원","indutype":"병원 - 병원","category":"medical"}]},{"lat":"37.266326108","long":"127.13995965","imageIndex":17,"items":[{"name":"(주)다나플레이","tel":"031-274-8859","addr":"경기도 용인시 기흥구 상하동 288-4번지 2층","indutype":"의류 - 아동의류","category":"other"},{"name":"다나플레이","tel":"031-274-8859","addr":"경기도 용인시 기흥구 상하동 288-4번지 2층","indutype":"서적문구 - 기타서적문구","category":"other"}]},{"lat":"37.261659089","long":"127.13969191","imageIndex":17,"items":[{"name":"(주)미라셀코리아","tel":"031-907-7808","addr":"경기도 용인시 기흥구 상하동 213-13번지 루벤스빌딩 204호","indutype":"레져용품 - 스포츠·레져용품","category":"other"},{"name":"강아지목욕탕","tel":"031-281-5003","addr":"경기도 용인시 기흥구 상하동 213-13번지 루벤스빌딩 1층 112호","indutype":"문화.취미 - 애완동물","category":"other"},{"name":"루벤스프라자","tel":"031-8005-5505","addr":"경기도 용인시 기흥구 상하동 213-13 외213-14필지","indutype":"건축자재 - 부동산 분양","category":"other"},{"name":"몽키즈","tel":"031-701-8400","addr":"경기도 용인시 기흥구 상하동 213-13번지 루벤스빌딩 105호","indutype":"의류 - 정장","category":"other"}]},{"lat":"37.273930845","long":"127.13990579","imageIndex":17,"items":[{"name":"(주)이브랜드","tel":"070-4144-3738","addr":"경기도 용인시 기흥구 상하동 462-5번지","indutype":"직물 - 침구·수예점","category":"other"},{"name":"신강남전기","tel":"031-284-2122","addr":"경기도 용인시 기흥구 상하동 462-5번지 진미식당","indutype":"전기제품 - 기타전기제품","category":"other"}]},{"lat":"37.253384763","long":"127.14215675","imageIndex":17,"items":[{"name":"(주)창명인터내셔날","tel":"031-275-9800","addr":"경기도 용인시 기흥구 상하동 124-1,124-2","indutype":"가구 - 일반가구","category":"other"}]},{"lat":"37.274381488","long":"127.13979385","imageIndex":17,"items":[{"name":"(주)케이씨씨나라","tel":"031-284-7727","addr":"경기도 용인시 기흥구 상하동 464-7번지 1층","indutype":"건축자재 - 페인트","category":"other"}]},{"lat":"37.260576246","long":"127.14107652","imageIndex":17,"items":[{"name":"BYC상하점","tel":"031-286-2005","addr":"경기도 용인시 기흥구 상하동 222-14","indutype":"의류 - 내의판매","category":"other"}]},{"lat":"37.257073845","long":"127.13882692","imageIndex":17,"items":[{"name":"GS25기흥상하점","tel":"","addr":"경기도 용인시 기흥구 상하동 621번지 쌍용단지내 주상가 101~103,B01호","indutype":"유통업 영리 - 편 의 점","category":"other"},{"name":"마리앤숍","tel":"070-8226-4290","addr":"경기도 용인시 기흥구 상하동 621번지 수원동마을쌍용아파트","indutype":"문화.취미 - 문화취미기타","category":"other"}]},{"lat":"37.275818163","long":"127.14402464","imageIndex":17,"items":[{"name":"GS25용인어정역점","tel":"","addr":"경기도 용인시 기흥구 상하동 483-1번지 어정프라자 118호","indutype":"유통업 영리 - 편 의 점","category":"other"},{"name":"대성가구","tel":"031-281-4988","addr":"경기도 용인시 기흥구 상하동 483-1번지 어정프라자 112호","indutype":"가구 - 일반가구","category":"other"},{"name":"맥인테리어","tel":"031-285-3111","addr":"경기도 용인시 기흥구 상하동 483-1번지 어정프라자 108호","indutype":"건축자재 - 인테리어전문","category":"other"}]},{"lat":"37.272546123","long":"127.13741157","imageIndex":17,"items":[{"name":"O.K인테리어","tel":"031-8005-7734","addr":"경기도 용인시 기흥구 상하동 635-3번지 1층 101호","indutype":"직물 - 카페트,커튼,천막,지물","category":"other"},{"name":"다리미","tel":"031-286-5531","addr":"경기도 용인시 기흥구 상하동 635-3번지 103호","indutype":"수리서비스 - 세탁소","category":"other"}]},{"lat":"37.258668923","long":"127.13860433","imageIndex":17,"items":[{"name":"P&V SYSTEM","tel":"070-7715-9935","addr":"경기도 용인시 기흥구 상하동 660번지 지석마을진흥더루벤스","indutype":"회원제형태 - 기타3","category":"other"}]},{"lat":"37.260495022","long":"127.1411891","imageIndex":17,"items":[{"name":"SM.BYC","tel":"031-286-2005","addr":"경기도 용인시 기흥구 상하동 222-12,222-14번지","indutype":"의류 - 내의판매","category":"other"}]},{"lat":"37.272686619","long":"127.14060256","imageIndex":17,"items":[{"name":"Sol Company","tel":"","addr":"경기도 용인시 기흥구 상하동 447번지 풍림아파트","indutype":"신변잡화 - 기타잡화","category":"other"}]},{"lat":"37.275651476","long":"127.14019078","imageIndex":17,"items":[{"name":"e-파람써비스","tel":"031-293-6459","addr":"경기도 용인시 기흥구 상하동 472-7번지","indutype":"수리서비스 - 가정용품수리","category":"other"},{"name":"대명파랑","tel":"031-000-0000","addr":"경기도 용인시 기흥구 상하동 472-7번지 1층","indutype":"전기제품 - 냉열기기","category":"other"}]},{"lat":"37.256597139","long":"127.13809336","imageIndex":17,"items":[{"name":"soft 914","tel":"031-785-0800","addr":"경기도 용인시 기흥구 상하동 621번지 수원동마을쌍용아파트","indutype":"회원제형태 - 기타4","category":"other"}]},{"lat":"37.283490245","long":"127.14032906","imageIndex":17,"items":[{"name":"가나상사","tel":"031-281-1250","addr":"경기도 용인시 기흥구 상하동 511-4번지 2층","indutype":"신변잡화 - 기타잡화","category":"other"},{"name":"라자가구","tel":"031-284-3375","addr":"경기도 용인시 기흥구 상하동 511-4번지","indutype":"가구 - 일반가구","category":"other"}]},{"lat":"37.255727157","long":"127.14239778","imageIndex":17,"items":[{"name":"가디안 옵틱","tel":"031-282-3377","addr":"경기도 용인시 기흥구 상하동 137번지 인정프린스아파트","indutype":"회원제형태 - 기타4","category":"other"}]},{"lat":"37.256573844","long":"127.14263606","imageIndex":17,"items":[{"name":"갈렙코리아","tel":"031-285-5467","addr":"경기도 용인시 기흥구 상하동 147-5번지","indutype":"유통업 영리 - 기타유통업","category":"other"}]},{"lat":"37.266907824","long":"127.13551881","imageIndex":17,"items":[{"name":"강남상사","tel":"031-282-1777","addr":"경기도 용인시 기흥구 상하동 354-4번지 1층","indutype":"회원제형태 - 기타4","category":"other"}]},{"lat":"37.257534632","long":"127.13772305","imageIndex":17,"items":[{"name":"강원기획(축제플러스)","tel":"","addr":"경기도 용인시 기흥구 상하동 621번지 수원동마을쌍용아파트","indutype":"신변잡화 - 기타잡화","category":"other"}]},{"lat":"37.260266622","long":"127.13607081","imageIndex":17,"items":[{"name":"경기사이언스 주식회사","tel":"031-284-8846","addr":"경기도 용인시 기흥구 상하동 202번지 1층","indutype":"문화.취미 - 애완동물","category":"other"}]},{"lat":"37.250216189","long":"127.14713286","imageIndex":17,"items":[{"name":"경기산들요양센터","tel":"031-282-5252","addr":"경기도 용인시 기흥구 상하동 54번지","indutype":"기타의료기관 - 기타의료기관 및 기타","category":"other"}]},{"lat":"37.259800809","long":"127.14154856","imageIndex":17,"items":[{"name":"경신앵글","tel":"031-284-2118","addr":"경기도 용인시 기흥구 상하동 247-2번지","indutype":"기타 - 기계공구","category":"other"}]},{"lat":"37.275793468","long":"127.14205144","imageIndex":17,"items":[{"name":"골프&피팅","tel":"031-282-9467","addr":"경기도 용인시 기흥구 상하동 478-2번지 상가 다동 4층 3호","indutype":"레져용품 - 골프용품 전문점","category":"other"},{"name":"드림기획","tel":"031-285-3257","addr":"경기도 용인시 기흥구 상하동 478-2번지","indutype":"용역 서비스 - 사무서비스","category":"other"}]},{"lat":"37.279656398","long":"127.13637558","imageIndex":17,"items":[{"name":"그린상사","tel":"031-282-7979","addr":"경기도 용인시 기흥구 상하동 515-10번지 401호","indutype":"신변잡화 - 신발","category":"other"}]},{"lat":"37.274299257","long":"127.14077462","imageIndex":17,"items":[{"name":"김종명세무회계사무소","tel":"031-281-0076","addr":"경기도 용인시 기흥구 상하동 461번지 조영프라자 405호","indutype":"용역 서비스 - 법률회계서비스(개인)","category":"other"},{"name":"더(The)이쁘개","tel":"031-282-9999","addr":"경기도 용인시 기흥구 상하동 461번지 조영프라자 108호","indutype":"문화.취미 - 애완동물","category":"other"},{"name":"덴우드","tel":"031-282-0086","addr":"경기도 용인시 기흥구 상하동 461번지 조영프라자 지하층 01호","indutype":"가구 - 일반가구","category":"other"},{"name":"레더골무","tel":"031-275-5462","addr":"경기도 용인시 기흥구 상하동 461번지 조영프라자 1층 106호","indutype":"신변잡화 - 가방","category":"other"},{"name":"스피드","tel":"031-283-1310","addr":"경기도 용인시 기흥구 상하동 461번지 조영프라자 420호","indutype":"건축자재 - 목재·석재·철물","category":"other"},{"name":"오피스주노","tel":"031-897-3243","addr":"경기도 용인시 기흥구 상하동 461번지 조영프라자","indutype":"서적문구 - 문구용품","category":"other"},{"name":"용인금속장식철물","tel":"031-274-0445","addr":"경기도 용인시 기흥구 상하동 461번지 조영프라자 113호","indutype":"건축자재 - 기타건축자재","category":"other"},{"name":"용인프리데일리","tel":"031-274-1660","addr":"경기도 용인시 기흥구 상하동 461번지 지하1층","indutype":"용역 서비스 - 종합용역","category":"other"},{"name":"주식회사 월드여행사","tel":"031-293-0035","addr":"경기도 용인시 기흥구 상하동 461번지 조영프라자 2층 204호","indutype":"여행 - 관광여행","category":"other"},{"name":"주식회사 월드트레블","tel":"","addr":"경기도 용인시 기흥구 상하동 461번지 조영프라자 204호","indutype":"용역 서비스 - 사무서비스","category":"other"}]},{"lat":"37.25968606","long":"127.13949671","imageIndex":17,"items":[{"name":"낭띠","tel":"031-285-1187","addr":"경기도 용인시 기흥구 상하동 660번지 지석마을진흥더루벤스","indutype":"회원제형태 - 기타1","category":"other"}]},{"lat":"37.25641134","long":"127.14290629","imageIndex":17,"items":[{"name":"내집","tel":"031-223-5214","addr":"경기도 용인시 기흥구 상하동 147-1번지","indutype":"건축자재 - 인테리어전문","category":"other"},{"name":"사운드스태프코리아","tel":"070-7502-2012","addr":"경기도 용인시 기흥구 상하동 147-1번지","indutype":"전기제품 - 가전제품","category":"other"}]},{"lat":"37.255213797","long":"127.14220521","imageIndex":17,"items":[{"name":"다이브365","tel":"","addr":"경기도 용인시 기흥구 상하동 137번지 인정프린스아파트","indutype":"레져용품 - 스포츠·레져용품","category":"other"},{"name":"우리용역","tel":"031-227-2923","addr":"경기도 용인시 기흥구 상하동 137","indutype":"회원제형태 - 기타4","category":"other"}]},{"lat":"37.261545589","long":"127.14426856","imageIndex":17,"items":[{"name":"다현","tel":"","addr":"경기도 용인시 기흥구 상하동 272-5번지 101동 101호","indutype":"의류 - 내의판매","category":"other"},{"name":"케이지골프매니지먼트","tel":"032-434-0113","addr":"경기도 용인시 기흥구 상하동 272-5번지 와이앤캐슬 101동 302호","indutype":"레져용품 - 골프용품 전문점","category":"other"}]},{"lat":"37.27643149","long":"127.14349585","imageIndex":17,"items":[{"name":"다화목","tel":"02-831-9671","addr":"경기도 용인시 기흥구 상하동 482-1번지 나동","indutype":"문화.취미 - 화원","category":"other"}]},{"lat":"37.256511569","long":"127.14195961","imageIndex":17,"items":[{"name":"대림토탈인테리어","tel":"031-275-8101","addr":"경기도 용인시 기흥구 상하동 652번지 수원동마을쌍용스윗닷홈 201동 1103호","indutype":"건축자재 - 인테리어전문","category":"other"}]},{"lat":"37.255783382","long":"127.14054925","imageIndex":17,"items":[{"name":"대성","tel":"031-111-1111","addr":"경기도 용인시 기흥구 상하동 652번지 수원동마을쌍용스윗닷홈 203동 503호","indutype":"회원제형태 - 기타1","category":"other"},{"name":"주식회사 행복만들기","tel":"070-4001-7814","addr":"경기도 용인시 기흥구 상하동 652번지 수원동마을쌍용스윗닷홈 203동 901호","indutype":"용역 서비스 - 사무서비스","category":"other"}]},{"lat":"37.276438834","long":"127.13717044","imageIndex":17,"items":[{"name":"동네열쇠 (설비)","tel":"031-266-0086","addr":"경기도 용인시 기흥구 상하동 630번지 강남마을한라비발디","indutype":"건축자재 - 목재·석재·철물","category":"other"}]},{"lat":"37.273822943","long":"127.13971392","imageIndex":17,"items":[{"name":"동명상사","tel":"031-283-0505","addr":"경기도 용인시 기흥구 상하동 462-4번지","indutype":"기타 - 기계공구","category":"other"}]},{"lat":"37.275015227","long":"127.13715664","imageIndex":17,"items":[{"name":"동백로봇과학","tel":"031-309-6909","addr":"경기도 용인시 기흥구 상하동 630번지 강남마을한라비발디 904동 405호","indutype":"회원제형태 - 기타4","category":"other"},{"name":"성은테크","tel":"031-274-9567","addr":"경기도 용인시 기흥구 상하동 630번지 강남마을한라비발디 904동 2302호","indutype":"회원제형태 - 기타4","category":"other"}]},{"lat":"37.273014784","long":"127.13729966","imageIndex":17,"items":[{"name":"동백어정라이온스클럽","tel":"031-275-0417","addr":"경기도 용인시 기흥구 상하동 633-3번지 그린타워 205호","indutype":"기타 - 비영리/비대상","category":"other"}]},{"lat":"37.274236579","long":"127.14043626","imageIndex":17,"items":[{"name":"동백종합공구","tel":"031-282-0900","addr":"경기도 용인시 기흥구 상하동 463외3필지","indutype":"기타 - 기계공구","category":"other"}]},{"lat":"37.27443538","long":"127.13994052","imageIndex":17,"items":[{"name":"동백플라워","tel":"031-283-0596","addr":"경기도 용인시 기흥구 상하동 465-7번지","indutype":"문화.취미 - 화원","category":"other"}]},{"lat":"37.274101556","long":"127.14032327","imageIndex":17,"items":[{"name":"동인유리","tel":"031-281-4033","addr":"경기도 용인시 기흥구 상하동 462-7번지 1층","indutype":"건축자재 - 유리","category":"other"},{"name":"씽크사랑(기흥점)","tel":"031-281-6691","addr":"경기도 용인시 기흥구 상하동 462-7번지","indutype":"주방용구 - 주방용구","category":"other"},{"name":"인테리어세상","tel":"031-8005-8858","addr":"경기도 용인시 기흥구 상하동 462-7번지","indutype":"직물 - 카페트,커튼,천막,지물","category":"other"},{"name":"토브인테리어디자인","tel":"031-282-7006","addr":"경기도 용인시 기흥구 상하동 462-7번지 105호","indutype":"가구 - 기타가구","category":"other"},{"name":"한창","tel":"031-693-8114","addr":"경기도 용인시 기흥구 상하동 462-7번지 1층 3호","indutype":"직물 - 카페트,커튼,천막,지물","category":"other"}]},{"lat":"37.275710965","long":"127.14324646","imageIndex":17,"items":[{"name":"드림디포용인동백점","tel":"031-281-1574","addr":"경기도 용인시 기흥구 상하동 482-13번지 세종프라자 1층","indutype":"서적문구 - 문구용품","category":"other"}]},{"lat":"37.276874711","long":"127.14204216","imageIndex":17,"items":[{"name":"디브이에스코리아(주)","tel":"031-546-3114","addr":"경기도 용인시 기흥구 상하동 497-3번지","indutype":"전기제품 - 가전제품","category":"other"}]},{"lat":"37.258214153","long":"127.1422671","imageIndex":17,"items":[{"name":"디자인에이원플러스 (Design A1+)","tel":"070-4645-3265","addr":"경기도 용인시 기흥구 상하동 241-3번지 상하빌딩 105호","indutype":"건축자재 - 인테리어전문","category":"other"},{"name":"상하빌딩","tel":"031-282-1833","addr":"경기도 용인시 기흥구 상하동 241-3번지","indutype":"용역 서비스 - 부동산 중개·임대","category":"other"}]},{"lat":"37.273715041","long":"127.13952205","imageIndex":17,"items":[{"name":"뜨개랑십자수랑","tel":"031-693-5652","addr":"경기도 용인시 기흥구 상하동 462-3번지 6호","indutype":"문화.취미 - 문화취미기타","category":"other"},{"name":"신세계샷시유리","tel":"031-274-8289","addr":"경기도 용인시 기흥구 상하동 462-3번지 좌3","indutype":"건축자재 - 유리","category":"other"}]},{"lat":"37.279514355","long":"127.14235146","imageIndex":17,"items":[{"name":"류명수가구","tel":"031-281-2112","addr":"경기도 용인시 기흥구 상하동 504-4번지","indutype":"가구 - 일반가구","category":"other"},{"name":"에바다한샘인테리어","tel":"031-285-3068","addr":"경기도 용인시 기흥구 상하동 504-4번지","indutype":"가구 - 일반가구","category":"other"}]},{"lat":"37.258010707","long":"127.13900896","imageIndex":17,"items":[{"name":"리니어오디오","tel":"070-8735-6490","addr":"경기도 용인시 기흥구 상하동 621번지 수원동마을쌍용아파트","indutype":"전기제품 - 가전제품","category":"other"}]},{"lat":"37.271436575","long":"127.13853705","imageIndex":17,"items":[{"name":"리치속옷","tel":"070-8877-0469","addr":"경기도 용인시 기흥구 상하동 656번지 갈천마을신일유토빌아파트","indutype":"의류 - 내의판매","category":"other"}]},{"lat":"37.258938701","long":"127.139067","imageIndex":17,"items":[{"name":"마샬아츠 혼","tel":"064-799-0884","addr":"경기도 용인시 기흥구 상하동 660번지 지석마을진흥더루벤스","indutype":"문화.취미 - 티켓","category":"other"}]},{"lat":"37.254328667","long":"127.14399582","imageIndex":17,"items":[{"name":"마이건축자재주식회사","tel":"031-283-6062","addr":"경기도 용인시 기흥구 상하동 119-1번지","indutype":"건축자재 - 기타건축자재","category":"other"}]},{"lat":"37.256244433","long":"127.13923123","imageIndex":17,"items":[{"name":"마이쁘띠리본","tel":"","addr":"경기도 용인시 기흥구 상하동 621번지 수원동마을쌍용아파트","indutype":"신변잡화 - 액세서리","category":"other"}]},{"lat":"37.268375496","long":"127.13641203","imageIndex":17,"items":[{"name":"메이커스","tel":"070-4384-8595","addr":"경기도 용인시 기흥구 상하동 675번지 지석마을 크레던스 105동 1201호 그대가","indutype":"여행 - 관광여행","category":"other"}]},{"lat":"37.276819239","long":"127.14323724","imageIndex":17,"items":[{"name":"미니","tel":"031-000-0000","addr":"경기도 용인시 기흥구 상하동 491번지 A-가동 102동 1호","indutype":"의류 - 정장","category":"other"},{"name":"하우캅시스템","tel":"031-731-9709","addr":"경기도 용인시 기흥구 상하동 491번지 A나동 501호","indutype":"전기제품 - 기타전기제품","category":"other"},{"name":"헬로우, 버디(Hellow buddy)","tel":"","addr":"경기도 용인시 기흥구 상하동 491번지 A동 1층 102호","indutype":"문화.취미 - 애완동물","category":"other"}]},{"lat":"37.259353743","long":"127.13857174","imageIndex":17,"items":[{"name":"미니스톱 용인진흥점","tel":"031-1577-9621","addr":"경기도 용인시 기흥구 상하동 660번지 지석마을진흥더루벤스 상가동 107호","indutype":"유통업 영리 - 편 의 점","category":"other"},{"name":"컨츄리소품앳홈","tel":"031-502-9830","addr":"경기도 용인시 기흥구 상하동 660번지 지석마을진흥더루벤스","indutype":"회원제형태 - 기타4","category":"other"}]},{"lat":"37.261853786","long":"127.14271345","imageIndex":17,"items":[{"name":"미니스톱용인상하점","tel":"031-1577-9621","addr":"경기도 용인시 기흥구 상하동 579-1번지","indutype":"유통업 영리 - 편 의 점","category":"other"}]},{"lat":"37.272840434","long":"127.14005038","imageIndex":17,"items":[{"name":"미래정보오에이","tel":"031-282-7978","addr":"경기도 용인시 기흥구 상하동 447번지 풍림아파트","indutype":"사무통신 - 사무용 OA기기","category":"other"}]},{"lat":"37.266989634","long":"127.13487634","imageIndex":17,"items":[{"name":"민제생태체험관","tel":"031-693-5530","addr":"경기도 용인시 기흥구 상하동 354-8번지 지하1층","indutype":"문화.취미 - 티켓","category":"other"}]},{"lat":"37.270747203","long":"127.13462359","imageIndex":17,"items":[{"name":"믿음자동차관리","tel":"070-8688-3977","addr":"경기도 용인시 기흥구 상하동 636번지 강남마을주공8단지아파트","indutype":"회원제형태 - 기타3","category":"other"}]},{"lat":"37.270209439","long":"127.14004561","imageIndex":17,"items":[{"name":"베라","tel":"070-7548-7986","addr":"경기도 용인시 기흥구 상하동 656번지 갈천마을신일유토빌아파트","indutype":"회원제형태 - 기타1","category":"other"}]},{"lat":"37.266430548","long":"127.14310522","imageIndex":17,"items":[{"name":"보바컬쳐","tel":"02-6677-6361","addr":"경기도 용인시 기흥구 상하동 281-44번지 1층 일부","indutype":"용역 서비스 - 종합용역","category":"other"}]},{"lat":"37.275908829","long":"127.14355126","imageIndex":17,"items":[{"name":"브라보퍼블릭","tel":"031-286-9200","addr":"경기도 용인시 기흥구 상하동 482-10번지 가동 2층","indutype":"레져용품 - 골프용품 전문점","category":"other"}]},{"lat":"37.265465297","long":"127.14407296","imageIndex":17,"items":[{"name":"블루밍제인","tel":"031-286-0505","addr":"경기도 용인시 기흥구 상하동 276-48번지","indutype":"문화.취미 - 화원","category":"other"}]},{"lat":"37.267438212","long":"127.13660204","imageIndex":17,"items":[{"name":"비엘유통(BL유통)","tel":"031-285-1226","addr":"경기도 용인시 기흥구 상하동 387-6번지","indutype":"유통업 영리 - 기타유통업","category":"other"}]},{"lat":"37.270381234","long":"127.1395273","imageIndex":17,"items":[{"name":"비젼교육","tel":"","addr":"경기도 용인시 기흥구 상하동 656번지 갈천마을신일유토빌아파트","indutype":"서적문구 - 기타서적문구","category":"other"}]},{"lat":"37.273571137","long":"127.13929629","imageIndex":17,"items":[{"name":"삼진인테리어","tel":"031-285-6664","addr":"경기도 용인시 기흥구 상하동 462-1번지 104호","indutype":"건축자재 - 인테리어전문","category":"other"}]},{"lat":"37.274049005","long":"127.13901528","imageIndex":17,"items":[{"name":"삼천리 자전거(대리점)","tel":"031-283-6202","addr":"경기도 용인시 기흥구 상하동 466-3 ,468-3,466-5(6호전체)","indutype":"레져용품 - 스포츠·레져용품","category":"other"}]},{"lat":"37.273375002","long":"127.13746942","imageIndex":17,"items":[{"name":"상상도작공","tel":"02-900-1544","addr":"경기도 용인시 기흥구 상하동 632-6번지 1층 101호","indutype":"문화.취미 - 문화취미기타","category":"other"}]},{"lat":"37.258070347","long":"127.14196247","imageIndex":17,"items":[{"name":"상하동크린토피아","tel":"031-283-3992","addr":"경기도 용인시 기흥구 상하동 163-4번지 경원빌딩 101호","indutype":"수리서비스 - 세탁소","category":"other"}]},{"lat":"37.254129079","long":"127.14513391","imageIndex":17,"items":[{"name":"상하자동차서비스","tel":"031-282-9909","addr":"경기도 용인시 기흥구 상하동 72-3","indutype":"용역 서비스 - 보관및 창고업","category":"other"}]},{"lat":"37.266320801","long":"127.14446914","imageIndex":17,"items":[{"name":"상하종합골재","tel":"031-285-6699","addr":"경기도 용인시 기흥구 상하동 280번지","indutype":"건축자재 - 기타건축자재","category":"other"}]},{"lat":"37.271178625","long":"127.13558267","imageIndex":17,"items":[{"name":"생활용품 백화점","tel":"","addr":"경기도 용인시 기흥구 상하동 636번지 강남마을주공8단지아파트","indutype":"신변잡화 - 기타잡화","category":"other"},{"name":"자연과사람","tel":"031-275-1257","addr":"경기도 용인시 기흥구 상하동 636번지 강남마을주공8단지아파트","indutype":"회원제형태 - 기타4","category":"other"}]},{"lat":"37.266681006","long":"127.13690509","imageIndex":17,"items":[{"name":"세븐일레븐기흥상하대로점","tel":"031-1577-0711","addr":"경기도 용인시 기흥구 상하동 371-2번지 101호 102호","indutype":"유통업 영리 - 편 의 점","category":"other"}]},{"lat":"37.264519","long":"127.13649541","imageIndex":17,"items":[{"name":"시큐라플러스","tel":"070-4120-6038","addr":"경기도 용인시 기흥구 상하동 326-1번지 1층","indutype":"전기제품 - 기타전기제품","category":"other"}]},{"lat":"37.254662115","long":"127.14394008","imageIndex":17,"items":[{"name":"신갈아주특수캐딜락","tel":"031-285-4444","addr":"경기도 용인시 기흥구 상하동 135-3번지","indutype":"용역 서비스 - 가례서비스업","category":"other"}]},{"lat":"37.258384524","long":"127.14296631","imageIndex":17,"items":[{"name":"신우전산","tel":"031-272-8890","addr":"경기도 용인시 기흥구 상하동 241-1번지 102호","indutype":"사무통신 - 기타 사무용품","category":"other"},{"name":"쌍용인테리어","tel":"031-284-1155","addr":"경기도 용인시 기흥구 상하동 241-1번지 103호","indutype":"직물 - 카페트,커튼,천막,지물","category":"other"},{"name":"전문옷수선","tel":"031-386-3383","addr":"경기도 용인시 기흥구 상하동 241-1번지 1층 101호","indutype":"수리서비스 - 세탁소","category":"other"}]},{"lat":"37.284571774","long":"127.14007167","imageIndex":17,"items":[{"name":"씨유기흥언동로점","tel":"031-282-2742","addr":"경기도 용인시 기흥구 상하동 512-12번지 1층","indutype":"유통업 영리 - 편 의 점","category":"other"},{"name":"씨유기흥언동로점","tel":"031-238-9960","addr":"경기도 용인시 기흥구 상하동 512-12번지 1층","indutype":"유통업 영리 - 편 의 점","category":"other"}]},{"lat":"37.272934445","long":"127.1366343","imageIndex":17,"items":[{"name":"씨유용인비발디점","tel":"031-285-2769","addr":"경기도 용인시 기흥구 상하동 631-3번지 101호","indutype":"유통업 영리 - 편 의 점","category":"other"}]},{"lat":"37.276656921","long":"127.14334969","imageIndex":17,"items":[{"name":"씨유용인상하점","tel":"031-898-6568","addr":"경기도 용인시 기흥구 상하동 492번지 가동 101호","indutype":"유통업 영리 - 편 의 점","category":"other"}]},{"lat":"37.267267551","long":"127.13612823","imageIndex":17,"items":[{"name":"애플편의점(Apple편의점)","tel":"031-285-5914","addr":"경기도 용인시 기흥구 상하동 388-6번지","indutype":"유통업 영리 - 편 의 점","category":"other"},{"name":"장수국악사","tel":"031-211-0464","addr":"경기도 용인시 기흥구 상하동 388-6번지","indutype":"레져용품 - 악기점","category":"other"}]},{"lat":"37.256070211","long":"127.1418348","imageIndex":17,"items":[{"name":"야루상회","tel":"070-7018-5267","addr":"경기도 용인시 기흥구 상하동 652번지 수원동마을쌍용스윗닷홈 204동 602호","indutype":"의류 - 정장","category":"other"}]},{"lat":"37.261160261","long":"127.14248671","imageIndex":17,"items":[{"name":"에바모아 (Evamore)","tel":"070-8887-0120","addr":"경기도 용인시 기흥구 상하동 217-13번지 104동 402호","indutype":"의류 - 정장","category":"other"}]},{"lat":"37.255773755","long":"127.14107902","imageIndex":17,"items":[{"name":"에이랩 주식회사","tel":"","addr":"경기도 용인시 기흥구 상하동 652번지 수원동마을쌍용스윗닷홈 상가동 102호","indutype":"신변잡화 - 기타잡화","category":"other"}]},{"lat":"37.255251251","long":"127.14099916","imageIndex":17,"items":[{"name":"엘락코리아","tel":"031-111-1111","addr":"경기도 용인시 기흥구 상하동 652번지 수원동마을쌍용스윗닷홈 205동 304호","indutype":"주방용구 - 주방용구","category":"other"}]},{"lat":"37.263458423","long":"127.14202875","imageIndex":17,"items":[{"name":"엠(M)토피아","tel":"031-283-9228","addr":"경기도 용인시 기흥구 상하동 296번지 대우아파트","indutype":"의류 - 아동의류","category":"other"}]},{"lat":"37.255960332","long":"127.14332253","imageIndex":17,"items":[{"name":"여름와써또와써","tel":"031-285-1701","addr":"경기도 용인시 기흥구 상하동 148-2번지 104호","indutype":"용역 서비스 - 기타용역서비스","category":"other"},{"name":"유호케미칼","tel":"031-285-3246","addr":"경기도 용인시 기흥구 상하동 148-2번지","indutype":"건축자재 - 페인트","category":"other"}]},{"lat":"37.254660523","long":"127.14527018","imageIndex":17,"items":[{"name":"연안상사","tel":"031-281-2416","addr":"경기도 용인시 기흥구 상하동 116번지","indutype":"레져용품 - 스포츠·레져용품","category":"other"}]},{"lat":"37.255988057","long":"127.14273643","imageIndex":17,"items":[{"name":"영식품","tel":"070-8600-5377","addr":"경기도 용인시 기흥구 상하동 137번지 인정프린스아파트","indutype":"회원제형태 - 기타4","category":"other"}]},{"lat":"37.274910304","long":"127.14218512","imageIndex":17,"items":[{"name":"영주상사","tel":"031-262-2693","addr":"경기도 용인시 기흥구 상하동 455번지","indutype":"건축자재 - 페인트","category":"other"}]},{"lat":"37.259880762","long":"127.14251817","imageIndex":17,"items":[{"name":"영천지하수개발","tel":"031-287-9388","addr":"경기도 용인시 기흥구 상하동 248-3번지","indutype":"용역 서비스 - 기타용역서비스","category":"other"}]},{"lat":"37.256142966","long":"127.14126005","imageIndex":17,"items":[{"name":"올레콜밴","tel":"","addr":"경기도 용인시 기흥구 상하동 652번지 수원동마을쌍용스윗닷홈 202동 504호","indutype":"여행 - 기타교통수단","category":"other"}]},{"lat":"37.257880415","long":"127.14257084","imageIndex":17,"items":[{"name":"용인시한의사회","tel":"031-282-8575","addr":"경기도 용인시 기흥구 상하동 163-9번지 신풍빌딩 202호","indutype":"기타 - 비영리/대상","category":"other"}]},{"lat":"37.254965334","long":"127.14654449","imageIndex":17,"items":[{"name":"우리테크","tel":"031-286-8981","addr":"경기도 용인시 기흥구 상하동 100-23","indutype":"전기제품 - 기타전기제품","category":"other"}]},{"lat":"37.266800104","long":"127.13515786","imageIndex":17,"items":[{"name":"우신건업","tel":"031-282-4605","addr":"경기도 용인시 기흥구 상하동 354번지","indutype":"건축자재 - 목재·석재·철물","category":"other"},{"name":"우신건재상사","tel":"031-281-4279","addr":"경기도 용인시 기흥구 상하동 354번지","indutype":"건축자재 - 기타건축자재","category":"other"},{"name":"조흥콘테이너","tel":"031-282-4701","addr":"경기도 용인시 기흥구 상하동 354번지","indutype":"기타 - 기타 전문점","category":"other"},{"name":"주식회사민제생태환경과학관","tel":"031-693-5530","addr":"경기도 용인시 기흥구 상하동 354번지","indutype":"문화.취미 - 티켓","category":"other"}]},{"lat":"37.266736755","long":"127.13540577","imageIndex":17,"items":[{"name":"우신목재합판상사","tel":"031-283-4329","addr":"경기도 용인시 기흥구 상하동 354-5번지","indutype":"건축자재 - 목재·석재·철물","category":"other"}]},{"lat":"37.267267144","long":"127.13648899","imageIndex":17,"items":[{"name":"원하우스","tel":"031-767-2023","addr":"경기도 용인시 기흥구 상하동 387-5,387-6","indutype":"건축자재 - 기타건축자재","category":"other"}]},{"lat":"37.251962589","long":"127.14091426","imageIndex":17,"items":[{"name":"이앤와이","tel":"031-1111-1111","addr":"경기도 용인시 기흥구 상하동 126-3번지 2층","indutype":"주방용구 - 주방용구","category":"other"},{"name":"주식회사 엘티","tel":"031-283-1655","addr":"경기도 용인시 기흥구 상하동 126-3번지","indutype":"신변잡화 - 기타잡화","category":"other"}]},{"lat":"37.257745619","long":"127.14226623","imageIndex":17,"items":[{"name":"이지골프스쿨","tel":"031-283-2928","addr":"경기도 용인시 기흥구 상하동 163-11번지 지하1층","indutype":"회원제형태 - 레져업소","category":"other"},{"name":"이지골프스쿨","tel":"031-283-2928","addr":"경기도 용인시 기흥구 상하동 163-11번지","indutype":"회원제형태 - 레져업소","category":"other"}]},{"lat":"37.279153546","long":"127.14268907","imageIndex":17,"items":[{"name":"인까소","tel":"031-3859-2335","addr":"경기도 용인시 기흥구 상하동 504-2번지","indutype":"가구 - 일반가구","category":"other"}]},{"lat":"37.271790143","long":"127.13663228","imageIndex":17,"items":[{"name":"제일","tel":"031-282-9545","addr":"경기도 용인시 기흥구 상하동 636번지 강남마을주공8단지아파트","indutype":"회원제형태 - 기타1","category":"other"}]},{"lat":"37.273267353","long":"127.13705206","imageIndex":17,"items":[{"name":"주식회사 유진교육사","tel":"070-4156-8812","addr":"경기도 용인시 기흥구 상하동 633-1번지","indutype":"서적문구 - 완구점","category":"other"}]},{"lat":"37.277269885","long":"127.1353002","imageIndex":17,"items":[{"name":"주식회사메손","tel":"031-286-0768","addr":"경기도 용인시 기흥구 상하동 520번지","indutype":"사무통신 - 사무용 OA기기","category":"other"}]},{"lat":"37.248269927","long":"127.15437645","imageIndex":17,"items":[{"name":"주식회사주석","tel":"031-283-1601","addr":"경기도 용인시 기흥구 상하동 24-3번지","indutype":"회원제형태 - 레져업소","category":"other"}]},{"lat":"37.261022454","long":"127.13698525","imageIndex":17,"items":[{"name":"준보석악세사리","tel":"031-433-0343","addr":"경기도 용인시 기흥구 상하동 659번지 지석마을진흥더루벤스","indutype":"회원제형태 - 기타4","category":"other"}]},{"lat":"37.271143051","long":"127.13516545","imageIndex":17,"items":[{"name":"지구열쇠","tel":"031-263-1831","addr":"경기도 용인시 기흥구 상하동 636번지 강남마을주공8단지아파트","indutype":"기타 - 기계공구","category":"other"}]},{"lat":"37.266906797","long":"127.13643199","imageIndex":17,"items":[{"name":"청솔유통","tel":"031-275-9974","addr":"경기도 용인시 기흥구 상하동 388-3번지","indutype":"신변잡화 - 액세서리","category":"other"}]},{"lat":"37.262809896","long":"127.14184718","imageIndex":17,"items":[{"name":"케이티상사","tel":"033-735-1557","addr":"경기도 용인시 기흥구 상하동 296번지 대우아파트","indutype":"회원제형태 - 기타4","category":"other"},{"name":"현대열쇠","tel":"031-275-6119","addr":"경기도 용인시 기흥구 상하동 296번지 대우아파트","indutype":"회원제형태 - 기타4","category":"other"}]},{"lat":"37.267042193","long":"127.13621802","imageIndex":17,"items":[{"name":"클린에코존","tel":"031-274-5510","addr":"경기도 용인시 기흥구 상하동 388-7번지 1층 일부","indutype":"용역 서비스 - 종합용역","category":"other"}]},{"lat":"37.259930581","long":"127.13841496","imageIndex":17,"items":[{"name":"클린하수구.누수.수도설비","tel":"031-287-0111","addr":"경기도 용인시 기흥구 상하동 660번지 지석마을진흥더루벤스 202동 103호","indutype":"용역 서비스 - 기타용역서비스","category":"other"}]},{"lat":"37.258050877","long":"127.14319114","imageIndex":17,"items":[{"name":"타이마이더스","tel":"031-282-7511","addr":"경기도 용인시 기흥구 상하동 256-6번지 2층 202호","indutype":"신변잡화 - 기타잡화","category":"other"}]},{"lat":"37.274318572","long":"127.13965844","imageIndex":17,"items":[{"name":"타일스토어","tel":"031-206-4561","addr":"경기도 용인시 기흥구 상하동 465-5번지","indutype":"건축자재 - 건축용 요업제품","category":"other"}]},{"lat":"37.270089102","long":"127.13493812","imageIndex":17,"items":[{"name":"탱탱","tel":"031-284-4319","addr":"경기도 용인시 기흥구 상하동 636번지 강남마을주공8단지아파트","indutype":"회원제형태 - 기타1","category":"other"}]},{"lat":"37.272337083","long":"127.13898965","imageIndex":17,"items":[{"name":"토미독코리아","tel":"050-6800-8669","addr":"경기도 용인시 기흥구 상하동 656번지 갈천마을신일유토빌아파트","indutype":"문화.취미 - 애완동물","category":"other"}]},{"lat":"37.269813053","long":"127.13998852","imageIndex":17,"items":[{"name":"티타노코리아","tel":"","addr":"경기도 용인시 기흥구 상하동 656번지 갈천마을신일유토빌 111동 802호","indutype":"문화.취미 - 애완동물","category":"other"}]},{"lat":"37.272627382","long":"127.13726514","imageIndex":17,"items":[{"name":"퍼피몽","tel":"031-274-4730","addr":"경기도 용인시 기흥구 상하동 635-2번지 1층","indutype":"문화.취미 - 애완동물","category":"other"}]},{"lat":"37.271076281","long":"127.13843493","imageIndex":17,"items":[{"name":"프리저브드 플라워 와이 엠","tel":"","addr":"경기도 용인시 기흥구 상하동 656번지 갈천마을신일유토빌아파트","indutype":"문화.취미 - 화원","category":"other"}]},{"lat":"37.259015709","long":"127.14257293","imageIndex":17,"items":[{"name":"하나누수설비공사","tel":"031-283-0110","addr":"경기도 용인시 기흥구 상하동 244-8번지","indutype":"용역 서비스 - 기타용역서비스","category":"other"}]},{"lat":"37.275158917","long":"127.13757407","imageIndex":17,"items":[{"name":"한라세탁소","tel":"031-285-4576","addr":"경기도 용인시 기흥구 상하동 630번지 강남마을한라비발디아파트 상가 105호","indutype":"수리서비스 - 세탁소","category":"other"}]},{"lat":"37.275044473","long":"127.14301972","imageIndex":17,"items":[{"name":"현대사무용가구","tel":"031-281-7241","addr":"경기도 용인시 기흥구 상하동 485-5 . 456-1외2외 2필지 가동 4,5호","indutype":"가구 - 철제가구","category":"other"}]},{"lat":"37.262211081","long":"127.13762992","imageIndex":0,"items":[{"name":"(주)명차공업사","tel":"031-281-0110","addr":"경기도 용인시 기흥구 상하동 311번지","indutype":"자동차정비 유지 - 자동차정비","category":"car"}]},{"lat":"37.259962186","long":"127.1422365","imageIndex":0,"items":[{"name":"FITIN","tel":"031-281-1999","addr":"경기도 용인시 기흥구 상하동 248-1번지","indutype":"자동차정비 유지 - 자동차정비","category":"car"}]},{"lat":"37.255968189","long":"127.14429196","imageIndex":0,"items":[{"name":"Tint-a-CAR/제이케이(JK)","tel":"","addr":"경기도 용인시 기흥구 상하동 108-1번지","indutype":"자동차정비 유지 - 카인테리어","category":"car"}]},{"lat":"37.284571774","long":"127.14007167","imageIndex":0,"items":[{"name":"경동설비","tel":"031-282-8066","addr":"경기도 용인시 기흥구 상하동 512-12번지","indutype":"자동차정비 유지 - 자동차부품","category":"car"}]},{"lat":"37.279656398","long":"127.13637558","imageIndex":0,"items":[{"name":"그린상사","tel":"02-1111-1111","addr":"경기도 용인시 기흥구 상하동 515-10번지 401호","indutype":"자동차정비 유지 - 주차장","category":"car"}]},{"lat":"37.253352726","long":"127.14634981","imageIndex":0,"items":[{"name":"기흥적재함","tel":"031-274-8811","addr":"경기도 용인시 기흥구 상하동 66-8번지","indutype":"자동차정비 유지 - 자동차부품","category":"car"}]},{"lat":"37.253384763","long":"127.14215675","imageIndex":0,"items":[{"name":"놀부자동차 상하점","tel":"031-285-5530","addr":"경기도 용인시 기흥구 상하동 124-1번지","indutype":"자동차정비 유지 - 자동차정비","category":"car"}]},{"lat":"37.273573228","long":"127.13746977","imageIndex":0,"items":[{"name":"동양이에치디","tel":"031-286-8998","addr":"경기도 용인시 기흥구 상하동 632-2번지 지하1층","indutype":"자동차정비 유지 - 자동차부품","category":"car"},{"name":"한라서비스","tel":"031-285-1016","addr":"경기도 용인시 기흥구 상하동 632-2번지","indutype":"자동차정비 유지 - 자동차정비","category":"car"}]},{"lat":"37.274299257","long":"127.14077462","imageIndex":0,"items":[{"name":"로제타","tel":"031-281-7282","addr":"경기도 용인시 기흥구 상하동 461번지 조영프라자 103,104호","indutype":"자동차정비 유지 - 카인테리어","category":"car"},{"name":"자동차복원달인","tel":"031-281-7282","addr":"경기도 용인시 기흥구 상하동 461번지 조영프라자 1층 103호","indutype":"자동차정비 유지 - 자동차정비","category":"car"}]},{"lat":"37.258961355","long":"127.14282083","imageIndex":0,"items":[{"name":"르노삼성자동차 서비스코너 상하점","tel":"031-282-5001","addr":"경기도 용인시 기흥구 상하동 251번지","indutype":"자동차정비 유지 - 자동차정비","category":"car"}]},{"lat":"37.271185638","long":"127.13735278","imageIndex":0,"items":[{"name":"명품손세차","tel":"02-111-1111","addr":"경기도 용인시 기흥구 상하동 639-1번지","indutype":"자동차정비 유지 - 세차장","category":"car"},{"name":"쇼카","tel":"","addr":"경기도 용인시 기흥구 상하동 639-1번지","indutype":"자동차정비 유지 - 세차장","category":"car"},{"name":"스피드메이트 동백점","tel":"031-287-8613","addr":"경기도 용인시 기흥구 상하동 639-1번지","indutype":"자동차정비 유지 - 자동차정비","category":"car"}]},{"lat":"37.255662202","long":"127.14398704","imageIndex":0,"items":[{"name":"모모자동차프라자","tel":"031-321-0277","addr":"경기도 용인시 기흥구 상하동 151-3번지","indutype":"자동차정비 유지 - 자동차부품","category":"car"},{"name":"카시스템","tel":"031-285-0151","addr":"경기도 용인시 기흥구 상하동 151-3번지","indutype":"자동차정비 유지 - 카인테리어","category":"car"}]},{"lat":"37.256573844","long":"127.14263606","imageIndex":0,"items":[{"name":"무궁화오토","tel":"031-284-1871","addr":"경기도 용인시 기흥구 상하동 147-5번지","indutype":"자동차정비 유지 - 자동차부품","category":"car"}]},{"lat":"37.267737449","long":"127.13491147","imageIndex":0,"items":[{"name":"부원상사","tel":"031-282-6460","addr":"경기도 용인시 기흥구 상하동 359-1번지","indutype":"자동차정비 유지 - 자동차부품","category":"car"},{"name":"새차만들기","tel":"031-281-9262","addr":"경기도 용인시 기흥구 상하동 359-1번지","indutype":"자동차정비 유지 - 카인테리어","category":"car"}]},{"lat":"37.255103954","long":"127.1436591","imageIndex":0,"items":[{"name":"상하점 기아오토큐","tel":"031-282-8588","addr":"경기도 용인시 기흥구 상하동 135-2번지","indutype":"자동차정비 유지 - 자동차정비","category":"car"}]},{"lat":"37.256798582","long":"127.1430761","imageIndex":0,"items":[{"name":"상하점현대자동차","tel":"031-281-0018","addr":"경기도 용인시 기흥구 상하동 156-5번지","indutype":"자동차정비 유지 - 자동차부품","category":"car"}]},{"lat":"37.274049005","long":"127.13901528","imageIndex":0,"items":[{"name":"세기모터스","tel":"031-284-8200","addr":"경기도 용인시 기흥구 상하동 466-3번지","indutype":"자동차정비 유지 - 자동차정비","category":"car"},{"name":"카클리어","tel":"031-224-9871","addr":"경기도 용인시 기흥구 상하동 466-3번지","indutype":"자동차정비 유지 - 카인테리어","category":"car"}]},{"lat":"37.267656104","long":"127.13513681","imageIndex":0,"items":[{"name":"스카이손세차","tel":"031-281-6049","addr":"경기도 용인시 기흥구 상하동 360-1번지","indutype":"자동차정비 유지 - 세차장","category":"car"},{"name":"프로미카월드기흥점","tel":"031-266-2090","addr":"경기도 용인시 기흥구 상하동 360-1번지","indutype":"자동차정비 유지 - 자동차정비","category":"car"}]},{"lat":"37.274318572","long":"127.13965844","imageIndex":0,"items":[{"name":"썬팅의제왕","tel":"031-281-4411","addr":"경기도 용인시 기흥구 상하동 465-5번지","indutype":"자동차정비 유지 - 카인테리어","category":"car"}]},{"lat":"37.270042242","long":"127.13655027","imageIndex":0,"items":[{"name":"엠케이(MK)토탈카케어","tel":"031-283-8370","addr":"경기도 용인시 기흥구 상하동 641번지 오토갤러리 104호","indutype":"자동차정비 유지 - 자동차부품","category":"car"},{"name":"이에스모터스 주식회사","tel":"02-2230-2328","addr":"경기도 용인시 기흥구 상하동 641번지","indutype":"자동차판매 - 중고자동차판매","category":"car"}]},{"lat":"37.256131032","long":"127.14373992","imageIndex":0,"items":[{"name":"용인밧데리","tel":"031-285-4889","addr":"경기도 용인시 기흥구 상하동 151-6번지","indutype":"자동차정비 유지 - 자동차부품","category":"car"}]},{"lat":"37.273715041","long":"127.13952205","imageIndex":0,"items":[{"name":"용인밧데리할인점","tel":"031-283-8208","addr":"경기도 용인시 기흥구 상하동 462-3번지 좌에서1호점","indutype":"자동차정비 유지 - 자동차부품","category":"car"}]},{"lat":"37.266800104","long":"127.13515786","imageIndex":0,"items":[{"name":"우리산업","tel":"031-286-1122","addr":"경기도 용인시 기흥구 상하동 354번지","indutype":"자동차정비 유지 - 자동차부품","category":"car"}]},{"lat":"37.271508049","long":"127.13906708","imageIndex":0,"items":[{"name":"우리특수레이카","tel":"031-258-2588","addr":"경기도 용인시 기흥구 상하동 656번지 갈천마을신일유토빌아파트","indutype":"자동차정비 유지 - 견인서비스","category":"car"}]},{"lat":"37.273571137","long":"127.13929629","imageIndex":0,"items":[{"name":"이레카센터","tel":"031-286-4107","addr":"경기도 용인시 기흥구 상하동 462-1번지","indutype":"자동차정비 유지 - 자동차정비","category":"car"}]},{"lat":"37.2622641","long":"127.13854314","imageIndex":0,"items":[{"name":"주식회사 정성이엔티","tel":"031-281-1791","addr":"경기도 용인시 기흥구 상하동 308-1번지","indutype":"자동차정비 유지 - 자동차정비","category":"car"}]},{"lat":"37.25718613","long":"127.14298663","imageIndex":0,"items":[{"name":"중앙공업사","tel":"031-282-5456","addr":"경기도 용인시 기흥구 상하동 157-2번지","indutype":"자동차정비 유지 - 자동차시트·타이어","category":"car"}]},{"lat":"37.25641134","long":"127.14290629","imageIndex":0,"items":[{"name":"쿨셀프손세차장","tel":"070-8268-3707","addr":"경기도 용인시 기흥구 상하동 147-1외1필지147-5","indutype":"자동차정비 유지 - 세차장","category":"car"}]},{"lat":"37.262828458","long":"127.14138501","imageIndex":0,"items":[{"name":"탑정보통신","tel":"031-211-8213","addr":"경기도 용인시 기흥구 상하동 296번지","indutype":"자동차정비 유지 - 자동차부품","category":"car"}]},{"lat":"37.255960332","long":"127.14332253","imageIndex":0,"items":[{"name":"태현전자","tel":"031-274-3571","addr":"경기도 용인시 기흥구 상하동 148-2번지 107호","indutype":"자동차정비 유지 - 자동차부품","category":"car"}]},{"lat":"37.253488344","long":"127.14596683","imageIndex":0,"items":[{"name":"테크라인카써비스","tel":"031-274-1350","addr":"경기도 용인시 기흥구 상하동 66-7번지","indutype":"자동차정비 유지 - 자동차정비","category":"car"}]},{"lat":"37.258745135","long":"127.14279789","imageIndex":0,"items":[{"name":"티스테이션 용인상하점","tel":"031-285-8777","addr":"경기도 용인시 기흥구 상하동 244-1번지","indutype":"자동차정비 유지 - 자동차시트·타이어","category":"car"}]},{"lat":"37.260014575","long":"127.13585618","imageIndex":0,"items":[{"name":"폼포나치 남서울센터 제이이에스컴퍼니(주)","tel":"031-233-7750","addr":"경기도 용인시 기흥구 상하동 202-97번지","indutype":"자동차정비 유지 - 카인테리어","category":"car"}]},{"lat":"37.252578101","long":"127.14613418","imageIndex":0,"items":[{"name":"한진자동차공업사","tel":"031-281-1935","addr":"경기도 용인시 기흥구 상하동 64-17번지","indutype":"자동차정비 유지 - 자동차부품","category":"car"},{"name":"한진카세차장","tel":"031-281-1935","addr":"경기도 용인시 기흥구 상하동 64-17번지","indutype":"자동차정비 유지 - 세차장","category":"car"}]},{"lat":"37.278547564","long":"127.13688102","imageIndex":4,"items":[{"name":"1250˚C","tel":"031-284-8755","addr":"경기도 용인시 기흥구 상하동 515-8번지","indutype":"일반휴게음식 - 서양음식","category":"restaurant"}]},{"lat":"37.258214153","long":"127.1422671","imageIndex":4,"items":[{"name":"BHC Beer Zone","tel":"031-283-7504","addr":"경기도 용인시 기흥구 상하동 241-3번지 상하빌딩 106,107호","indutype":"일반휴게음식 - 주점","category":"restaurant"},{"name":"용포차","tel":"031-281-1114","addr":"경기도 용인시 기흥구 상하동 241-3번지 1층 103,104호","indutype":"일반휴게음식 - 주점","category":"restaurant"},{"name":"피자스쿨(상하점)","tel":"031-281-9090","addr":"경기도 용인시 기흥구 상하동 241-3번지 상하빌딩 1층 109호","indutype":"일반휴게음식 - 서양음식","category":"restaurant"}]},{"lat":"37.275908829","long":"127.14355126","imageIndex":4,"items":[{"name":"가람양꼬치 양갈비","tel":"070-7543-1887","addr":"경기도 용인시 기흥구 상하동 482-10번지 나동 2층 일부호","indutype":"일반휴게음식 - 일반한식","category":"restaurant"},{"name":"브라보퍼블릭","tel":"031-286-9200","addr":"경기도 용인시 기흥구 상하동 482-10번지 가동 2층","indutype":"일반휴게음식 - 일반한식","category":"restaurant"},{"name":"송담추어탕.매코미코다리 동백점","tel":"","addr":"경기도 용인시 기흥구 상하동 482-10번지 1층","indutype":"일반휴게음식 - 일반한식","category":"restaurant"},{"name":"올리앤 용인동백점","tel":"031-282-9250","addr":"경기도 용인시 기흥구 상하동 482-10번지 나동좌측 1층","indutype":"일반휴게음식 - 서양음식","category":"restaurant"},{"name":"참치랑연어랑","tel":"031-285-9997","addr":"경기도 용인시 기흥구 상하동 482-10번지 나동 1층 일부호","indutype":"일반휴게음식 - 일식·회집","category":"restaurant"}]},{"lat":"37.257765106","long":"127.14101502","imageIndex":4,"items":[{"name":"가마치통닭(상하점)","tel":"031-285-9993","addr":"경기도 용인시 기흥구 상하동 164-1번지 상하쟈일드아카데미 2층 203호","indutype":"일반휴게음식 - 스넥","category":"restaurant"},{"name":"사이소정육점식당","tel":"070-8838-4343","addr":"경기도 용인시 기흥구 상하동 164-1번지","indutype":"일반휴게음식 - 일반한식","category":"restaurant"},{"name":"요거프레소 용인상하점","tel":"","addr":"경기도 용인시 기흥구 상하동 164-1번지 상하쟈일드아카데미 202호","indutype":"일반휴게음식 - 서양음식","category":"restaurant"},{"name":"행복한떡볶이","tel":"031-277-8767","addr":"경기도 용인시 기흥구 상하동 164-1번지 상하쟈일드아카데미 2층 6호","indutype":"일반휴게음식 - 스넥","category":"restaurant"}]},{"lat":"37.257745619","long":"127.14226623","imageIndex":4,"items":[{"name":"가치김밥","tel":"031-891-3787","addr":"경기도 용인시 기흥구 상하동 163-11번지","indutype":"일반휴게음식 - 스넥","category":"restaurant"},{"name":"정가네왕불족발","tel":"031-284-0308","addr":"경기도 용인시 기흥구 상하동 163-11번지 103호","indutype":"일반휴게음식 - 일반한식","category":"restaurant"},{"name":"치킨마루 용인상하점","tel":"031-282-1666","addr":"경기도 용인시 기흥구 상하동 163-11번지 유원빌딩 101호","indutype":"일반휴게음식 - 주점","category":"restaurant"}]},{"lat":"37.27643149","long":"127.14349585","imageIndex":4,"items":[{"name":"감골오리(어정직영점)","tel":"031-284-1413","addr":"경기도 용인시 기흥구 상하동 482-1번지","indutype":"일반휴게음식 - 일반한식","category":"restaurant"}]},{"lat":"37.259880762","long":"127.14251817","imageIndex":4,"items":[{"name":"강원도 감자옹심이칼국수","tel":"031-284-6660","addr":"경기도 용인시 기흥구 상하동 248-3번지 1층","indutype":"일반휴게음식 - 일반한식","category":"restaurant"}]},{"lat":"37.267267551","long":"127.13612823","imageIndex":4,"items":[{"name":"고인돌보쌈","tel":"031-287-4939","addr":"경기도 용인시 기흥구 상하동 388-6번지","indutype":"일반휴게음식 - 일반한식","category":"restaurant"}]},{"lat":"37.274291932","long":"127.13932014","imageIndex":4,"items":[{"name":"고철상","tel":"031-284-9203","addr":"경기도 용인시 기흥구 상하동 465-13번지 1층","indutype":"일반휴게음식 - 일반한식","category":"restaurant"},{"name":"방자네바지락칼국수","tel":"031-286-8228","addr":"경기도 용인시 기흥구 상하동 465-13번지 외3필지","indutype":"일반휴게음식 - 일반한식","category":"restaurant"}]},{"lat":"37.275793468","long":"127.14205144","imageIndex":4,"items":[{"name":"곽두리쪽갈비","tel":"031-274-6853","addr":"경기도 용인시 기흥구 상하동 478-2번지 바동 외6필지","indutype":"일반휴게음식 - 일반한식","category":"restaurant"},{"name":"곽두리폭립","tel":"031-274-6853","addr":"경기도 용인시 기흥구 상하동 478-2번지 바동","indutype":"일반휴게음식 - 일반한식","category":"restaurant"},{"name":"친구야","tel":"031-274-1660","addr":"경기도 용인시 기흥구 상하동 478-2번지 302호","indutype":"일반휴게음식 - 일반한식","category":"restaurant"},{"name":"황고집","tel":"031-285-9256","addr":"경기도 용인시 기흥구 상하동 478-2번지 바동 1층","indutype":"일반휴게음식 - 일반한식","category":"restaurant"}]},{"lat":"37.253606021","long":"127.14551617","imageIndex":4,"items":[{"name":"교동짬뽕","tel":"031-281-5582","addr":"경기도 용인시 기흥구 상하동 66-5번지 1층","indutype":"일반휴게음식 - 중국식","category":"restaurant"}]},{"lat":"37.272762817","long":"127.13701734","imageIndex":4,"items":[{"name":"국수랑상하점","tel":"031-111-1111","addr":"경기도 용인시 기흥구 상하동 635번지 1층 일부","indutype":"일반휴게음식 - 일반한식","category":"restaurant"},{"name":"포스트피자","tel":"031-275-1544","addr":"경기도 용인시 기흥구 상하동 635번지","indutype":"일반휴게음식 - 서양음식","category":"restaurant"}]},{"lat":"37.273014784","long":"127.13729966","imageIndex":4,"items":[{"name":"기찬수제족발","tel":"031-281-1163","addr":"경기도 용인시 기흥구 상하동 633-3번지 그린타워 109호","indutype":"일반휴게음식 - 일반한식","category":"restaurant"},{"name":"네네치킨강남대점","tel":"031-274-1166","addr":"경기도 용인시 기흥구 상하동 633-3번지 그린타워 108호","indutype":"일반휴게음식 - 스넥","category":"restaurant"},{"name":"메리제이파티","tel":"031-284-4439","addr":"경기도 용인시 기흥구 상하동 633-3번지 그린타워 104호","indutype":"일반휴게음식 - 일반한식","category":"restaurant"},{"name":"자연푸드","tel":"031-274-2766","addr":"경기도 용인시 기흥구 상하동 633-3번지 그린타워 111호","indutype":"일반휴게음식 - 일반한식","category":"restaurant"},{"name":"집밥 나미네","tel":"","addr":"경기도 용인시 기흥구 상하동 633-3번지 그린타워 1층 107호","indutype":"일반휴게음식 - 일반한식","category":"restaurant"},{"name":"차칸곱창","tel":"031-284-5581","addr":"경기도 용인시 기흥구 상하동 633-3번지 그린타워 106호","indutype":"일반휴게음식 - 일반한식","category":"restaurant"},{"name":"치킨플러스 상하점","tel":"031-286-7759","addr":"경기도 용인시 기흥구 상하동 633-3번지 그린타워 1층 110호","indutype":"일반휴게음식 - 일반한식","category":"restaurant"},{"name":"페리카나(강남대점)","tel":"031-284-9292","addr":"경기도 용인시 기흥구 상하동 633-3번지 그린타워 102호","indutype":"일반휴게음식 - 스넥","category":"restaurant"}]},{"lat":"37.275737634","long":"127.14355094","imageIndex":4,"items":[{"name":"남도주먹고기","tel":"070-4214-4525","addr":"경기도 용인시 기흥구 상하동 482-19번지 그린프라자 103호","indutype":"일반휴게음식 - 일반한식","category":"restaurant"},{"name":"물고기자리","tel":"031-382-3941","addr":"경기도 용인시 기흥구 상하동 482-19번지 104호","indutype":"일반휴게음식 - 일식·회집","category":"restaurant"},{"name":"송도","tel":"031-284-4191","addr":"경기도 용인시 기흥구 상하동 482-19번지 1층","indutype":"일반휴게음식 - 일반한식","category":"restaurant"}]},{"lat":"37.255773755","long":"127.14107902","imageIndex":4,"items":[{"name":"달달하당","tel":"031-281-1253","addr":"경기도 용인시 기흥구 상하동 652번지 수원동마을쌍용스윗닷홈 상가동 1층 108호","indutype":"일반휴게음식 - 서양음식","category":"restaurant"},{"name":"런치n","tel":"031-1111-1111","addr":"경기도 용인시 기흥구 상하동 652번지 수원동마을쌍용스윗닷홈 상가동 106호","indutype":"일반휴게음식 - 일반한식","category":"restaurant"}]},{"lat":"37.275818163","long":"127.14402464","imageIndex":4,"items":[{"name":"또바기","tel":"031-286-9272","addr":"경기도 용인시 기흥구 상하동 483-1번지 어정프라자 107호","indutype":"일반휴게음식 - 일반한식","category":"restaurant"},{"name":"또봉이통닭 어정역점","tel":"031-283-8157","addr":"경기도 용인시 기흥구 상하동 483-1번지 어정프라자 상가동 1층 111호","indutype":"일반휴게음식 - 일반한식","category":"restaurant"},{"name":"뚱보막창","tel":"031-8005-7761","addr":"경기도 용인시 기흥구 상하동 483-1번지 어정프라자 113,114호","indutype":"일반휴게음식 - 일반한식","category":"restaurant"},{"name":"마당시즌2","tel":"031-286-0051","addr":"경기도 용인시 기흥구 상하동 483-1번지 어정프라자 303호","indutype":"일반휴게음식 - 일반한식","category":"restaurant"},{"name":"미소설렁탕","tel":"031-285-1662","addr":"경기도 용인시 기흥구 상하동 483-1번지 어정프라자 102호","indutype":"일반휴게음식 - 주점","category":"restaurant"},{"name":"미쓰꼬치","tel":"031-281-2889","addr":"경기도 용인시 기흥구 상하동 483-1번지 어정프라자 1층 102호","indutype":"일반휴게음식 - 일반한식","category":"restaurant"},{"name":"보드람치킨 어정역점","tel":"031-693-9282","addr":"경기도 용인시 기흥구 상하동 483-1번지 어정프라자 104호","indutype":"일반휴게음식 - 스넥","category":"restaurant"},{"name":"월선네","tel":"031-282-0003","addr":"경기도 용인시 기흥구 상하동 483-1번지 어정프라자 1층 112,116호","indutype":"일반휴게음식 - 일반한식","category":"restaurant"},{"name":"조영원족막골","tel":"031-275-3878","addr":"경기도 용인시 기흥구 상하동 483-1번지 어정프라자 109호 110호","indutype":"일반휴게음식 - 일반한식","category":"restaurant"},{"name":"진족발보쌈","tel":"031-333-9973","addr":"경기도 용인시 기흥구 상하동 483-1번지 어정프라자 1층 109,110호","indutype":"일반휴게음식 - 일반한식","category":"restaurant"}]},{"lat":"37.261407282","long":"127.13927435","imageIndex":4,"items":[{"name":"또봉이통닭","tel":"031-284-8333","addr":"경기도 용인시 기흥구 상하동 212-5번지 대림상가 101,102호","indutype":"일반휴게음식 - 스넥","category":"restaurant"},{"name":"카파커피","tel":"031-322-0447","addr":"경기도 용인시 기흥구 상하동 212-5번지 1층 107호","indutype":"일반휴게음식 - 서양음식","category":"restaurant"}]},{"lat":"37.258050877","long":"127.14319114","imageIndex":4,"items":[{"name":"마눌림숯불갈비,통닭","tel":"0000-0000-0000","addr":"경기도 용인시 기흥구 상하동 256-6번지 103호","indutype":"일반휴게음식 - 일반한식","category":"restaurant"},{"name":"바다이야기","tel":"031-275-8848","addr":"경기도 용인시 기흥구 상하동 256-6번지","indutype":"일반휴게음식 - 일식·회집","category":"restaurant"},{"name":"영빈관","tel":"031-282-3176","addr":"경기도 용인시 기흥구 상하동 256-6번지","indutype":"일반휴게음식 - 중국식","category":"restaurant"}]},{"lat":"37.274238532","long":"127.13874502","imageIndex":4,"items":[{"name":"망향비빔국수","tel":"031-287-1522","addr":"경기도 용인시 기흥구 상하동 465-3번지 갈곡프라자 101호","indutype":"일반휴게음식 - 일반한식","category":"restaurant"},{"name":"홍오빠대게","tel":"","addr":"경기도 용인시 기흥구 상하동 465-3번지","indutype":"일반휴게음식 - 일반한식","category":"restaurant"}]},{"lat":"37.273763108","long":"127.13688382","imageIndex":4,"items":[{"name":"모해커피031","tel":"031-281-1210","addr":"경기도 용인시 기흥구 상하동 631-1번지","indutype":"일반휴게음식 - 서양음식","category":"restaurant"}]},{"lat":"37.274020725","long":"127.14009762","imageIndex":4,"items":[{"name":"반달커피","tel":"","addr":"경기도 용인시 기흥구 상하동 462-6번지 1층","indutype":"일반휴게음식 - 서양음식","category":"restaurant"},{"name":"아우라지사또식당","tel":"031-281-2434","addr":"경기도 용인시 기흥구 상하동 462-6번지","indutype":"일반휴게음식 - 일반한식","category":"restaurant"}]},{"lat":"37.275044473","long":"127.14301972","imageIndex":4,"items":[{"name":"본가왕뼈감자탕 (어정역점)","tel":"031-284-7676","addr":"경기도 용인시 기흥구 상하동 485-5번지 1층","indutype":"일반휴게음식 - 일반한식","category":"restaurant"},{"name":"이철의생태랑동태랑","tel":"031-8005-6266","addr":"경기도 용인시 기흥구 상하동 485-5번지 1동 1층","indutype":"일반휴게음식 - 일반한식","category":"restaurant"},{"name":"풍천장어직판장","tel":"031-8005-8111","addr":"경기도 용인시 기흥구 상하동 485-5번지 2동 1층","indutype":"일반휴게음식 - 일반한식","category":"restaurant"}]},{"lat":"37.276630384","long":"127.14293246","imageIndex":4,"items":[{"name":"봉이네곱창","tel":"031-281-8878","addr":"경기도 용인시 기흥구 상하동 493번지","indutype":"일반휴게음식 - 일반한식","category":"restaurant"}]},{"lat":"37.258070347","long":"127.14196247","imageIndex":4,"items":[{"name":"블링블링","tel":"031-284-5677","addr":"경기도 용인시 기흥구 상하동 163-4번지 경원빌딩 지하1층","indutype":"일반휴게음식 - 일반한식","category":"restaurant"}]},{"lat":"37.259267797","long":"127.14274249","imageIndex":4,"items":[{"name":"서민정육점설렁탕","tel":"031-281-1335","addr":"경기도 용인시 기흥구 상하동 250-8번지 1층","indutype":"일반휴게음식 - 일반한식","category":"restaurant"}]},{"lat":"37.265853053","long":"127.13602428","imageIndex":4,"items":[{"name":"성동관","tel":"031-274-2399","addr":"경기도 용인시 기흥구 상하동 351번지 다동 1층","indutype":"일반휴게음식 - 중국식","category":"restaurant"},{"name":"쓰리플러스","tel":"","addr":"경기도 용인시 기흥구 상하동 351번지 가동 1층일부","indutype":"일반휴게음식 - 서양음식","category":"restaurant"}]},{"lat":"37.255960332","long":"127.14332253","imageIndex":4,"items":[{"name":"소래포구직판","tel":"031-281-7458","addr":"경기도 용인시 기흥구 상하동 148-2번지 101,102호 일부","indutype":"일반휴게음식 - 일식·회집","category":"restaurant"}]},{"lat":"37.266989634","long":"127.13487634","imageIndex":4,"items":[{"name":"소문난청담뼈해장국","tel":"031-223-5214","addr":"경기도 용인시 기흥구 상하동 354-8번지 1층","indutype":"일반휴게음식 - 일반한식","category":"restaurant"},{"name":"이구아나/(주)민제생태환경과학관","tel":"031-693-5530","addr":"경기도 용인시 기흥구 상하동 354-8번지","indutype":"일반휴게음식 - 일반한식","category":"restaurant"}]},{"lat":"37.253467215","long":"127.1409959","imageIndex":4,"items":[{"name":"속초코다리막국수","tel":"031-275-1515","addr":"경기도 용인시 기흥구 상하동 129번지 1층","indutype":"일반휴게음식 - 일반한식","category":"restaurant"}]},{"lat":"37.258600744","long":"127.14298925","imageIndex":4,"items":[{"name":"송탄이정부대찌개","tel":"031-281-3102","addr":"경기도 용인시 기흥구 상하동 242-1번지 1층 일부","indutype":"일반휴게음식 - 일반한식","category":"restaurant"},{"name":"오니버스(BUS)","tel":"","addr":"경기도 용인시 기흥구 상하동 242-1번지","indutype":"일반휴게음식 - 일반한식","category":"restaurant"},{"name":"회롱회롱(용인점)","tel":"070-8822-0702","addr":"경기도 용인시 기흥구 상하동 242-1번지 2층","indutype":"일반휴게음식 - 일반한식","category":"restaurant"}]},{"lat":"37.250216189","long":"127.14713286","imageIndex":4,"items":[{"name":"숲속도야지","tel":"031-281-5252","addr":"경기도 용인시 기흥구 상하동 54번지","indutype":"일반휴게음식 - 일반한식","category":"restaurant"}]},{"lat":"37.258384524","long":"127.14296631","imageIndex":4,"items":[{"name":"실로암죽김밥사랑","tel":"","addr":"경기도 용인시 기흥구 상하동 241-1번지 102호","indutype":"일반휴게음식 - 일반한식","category":"restaurant"}]},{"lat":"37.259800809","long":"127.14154856","imageIndex":4,"items":[{"name":"쌍령해장국(용인점)","tel":"031-281-8348","addr":"경기도 용인시 기흥구 상하동 247-2번지","indutype":"일반휴게음식 - 일반한식","category":"restaurant"}]},{"lat":"37.254904801","long":"127.14443651","imageIndex":4,"items":[{"name":"어수정평양냉면","tel":"031-282-1177","addr":"경기도 용인시 기흥구 상하동 117번지 1층","indutype":"일반휴게음식 - 일반한식","category":"restaurant"},{"name":"추계탕","tel":"031-281-2535","addr":"경기도 용인시 기흥구 상하동 117번지","indutype":"일반휴게음식 - 일반한식","category":"restaurant"}]},{"lat":"37.275710965","long":"127.14324646","imageIndex":4,"items":[{"name":"어정샤브샤브칼국수","tel":"031-284-0100","addr":"경기도 용인시 기흥구 상하동 482-13번지 1층","indutype":"일반휴게음식 - 일반한식","category":"restaurant"}]},{"lat":"37.252882294","long":"127.14035235","imageIndex":4,"items":[{"name":"온누리장작구이주식회사","tel":"031-693-9298","addr":"경기도 용인시 기흥구 상하동 129-2번지","indutype":"일반휴게음식 - 일반한식","category":"restaurant"}]},{"lat":"37.281236713","long":"127.14115939","imageIndex":4,"items":[{"name":"올커피앤티","tel":"031-717-9476","addr":"경기도 용인시 기흥구 상하동 506번지","indutype":"일반휴게음식 - 서양음식","category":"restaurant"}]},{"lat":"37.259070395","long":"127.14204322","imageIndex":4,"items":[{"name":"왕코네화로구이","tel":"031-283-0506","addr":"경기도 용인시 기흥구 상하동 244-5번지","indutype":"일반휴게음식 - 일반한식","category":"restaurant"}]},{"lat":"37.25579866","long":"127.13504845","imageIndex":4,"items":[{"name":"운봉소갈비살전문점/대가 유한회사","tel":"031-281-4533","addr":"경기도 용인시 기흥구 상하동 182번지","indutype":"일반휴게음식 - 일반한식","category":"restaurant"}]},{"lat":"37.261853786","long":"127.14271345","imageIndex":4,"items":[{"name":"육가네식당","tel":"031-282-8762","addr":"경기도 용인시 기흥구 상하동 579-1번지","indutype":"일반휴게음식 - 일반한식","category":"restaurant"}]},{"lat":"37.267042193","long":"127.13621802","imageIndex":4,"items":[{"name":"일곱빛깔 무지개백반","tel":"031-282-1160","addr":"경기도 용인시 기흥구 상하동 388-7번지 1층","indutype":"일반휴게음식 - 일반한식","category":"restaurant"}]},{"lat":"37.257437817","long":"127.14349436","imageIndex":4,"items":[{"name":"장어세상","tel":"031-282-9293","addr":"경기도 용인시 기흥구 상하동 157-1번지 1층","indutype":"일반휴게음식 - 일반한식","category":"restaurant"}]},{"lat":"37.262019539","long":"127.13965874","imageIndex":4,"items":[{"name":"천서리막국수","tel":"031-287-8686","addr":"경기도 용인시 기흥구 상하동 307-3번지 1층,지하1층일부","indutype":"일반휴게음식 - 일반한식","category":"restaurant"}]},{"lat":"37.261154448","long":"127.13974736","imageIndex":4,"items":[{"name":"청국장과보리밥","tel":"031-287-3323","addr":"경기도 용인시 기흥구 상하동 213-11번지 1층","indutype":"일반휴게음식 - 일반한식","category":"restaurant"},{"name":"청국장과보리밥","tel":"031-287-3323","addr":"경기도 용인시 기흥구 상하동 213-11번지 1층 외3필지","indutype":"일반휴게음식 - 일반한식","category":"restaurant"}]},{"lat":"37.261488128","long":"127.13948869","imageIndex":4,"items":[{"name":"카페 유익한공간","tel":"070-7848-9306","addr":"경기도 용인시 기흥구 상하동 213-2번지 외 1필지","indutype":"일반휴게음식 - 서양음식","category":"restaurant"}]},{"lat":"37.276819239","long":"127.14323724","imageIndex":4,"items":[{"name":"파찌네만두 어정점","tel":"031-275-2220","addr":"경기도 용인시 기흥구 상하동 491번지 가동 1층 101호","indutype":"일반휴게음식 - 일반한식","category":"restaurant"}]},{"lat":"37.273822943","long":"127.13971392","imageIndex":4,"items":[{"name":"피자어셈블(PIZZA ASSEMBLE)","tel":"","addr":"경기도 용인시 기흥구 상하동 462-4번지 1층","indutype":"일반휴게음식 - 서양음식","category":"restaurant"}]},{"lat":"37.274049005","long":"127.13901528","imageIndex":4,"items":[{"name":"하루비어 상하점","tel":"","addr":"경기도 용인시 기흥구 상하동 466-3번지 1층","indutype":"일반휴게음식 - 주점","category":"restaurant"}]},{"lat":"37.274299257","long":"127.14077462","imageIndex":4,"items":[{"name":"한국피자헛용인동백점","tel":"031-282-3058","addr":"경기도 용인시 기흥구 상하동 461번지 조영프라자 101,102호","indutype":"일반휴게음식 - 서양음식","category":"restaurant"}]},{"lat":"37.273492392","long":"127.13724413","imageIndex":4,"items":[{"name":"해마루","tel":"031-287-9792","addr":"경기도 용인시 기흥구 상하동 632-8번지","indutype":"일반휴게음식 - 일반한식","category":"restaurant"}]},{"lat":"37.259321406","long":"127.14312586","imageIndex":4,"items":[{"name":"호박집","tel":"031-283-0708","addr":"경기도 용인시 기흥구 상하동 250-4번지","indutype":"일반휴게음식 - 일반한식","category":"restaurant"}]},{"lat":"37.272880231","long":"127.13676951","imageIndex":4,"items":[{"name":"황후태후","tel":"031-281-0633","addr":"경기도 용인시 기흥구 상하동 631-4번지 1층","indutype":"일반휴게음식 - 일반한식","category":"restaurant"}]},{"lat":"37.261745169","long":"127.14313035","imageIndex":4,"items":[{"name":"훌랄라 바베큐치킨 상하점","tel":"031-693-8292","addr":"경기도 용인시 기흥구 상하동 299-3번지 205동 B01호","indutype":"일반휴게음식 - 일반한식","category":"restaurant"}]},{"lat":"37.257765106","long":"127.14101502","imageIndex":16,"items":[{"name":"KNU소명태권도장","tel":"031-286-5885","addr":"경기도 용인시 기흥구 상하동 164-1번지 1층","indutype":"학원 - 예·체능계학원","category":"study"},{"name":"리즈피아노스튜디오학원","tel":"031-281-7550","addr":"경기도 용인시 기흥구 상하동 164-1번지 외3필지 3층 일부","indutype":"학원 - 예·체능계학원","category":"study"},{"name":"베스트학원","tel":"031-274-3169","addr":"경기도 용인시 기흥구 상하동 164-1번지 상하쟈일드아카데미 303호","indutype":"학원 - 보습학원","category":"study"},{"name":"수학의달인뮤엠영어영수전문학원","tel":"031-277-8885","addr":"경기도 용인시 기흥구 상하동 164-1번지 상하쟈일드아카데미 301호","indutype":"학원 - 보습학원","category":"study"}]},{"lat":"37.273763108","long":"127.13688382","imageIndex":16,"items":[{"name":"강남 경희대태권도","tel":"031-275-1009","addr":"경기도 용인시 기흥구 상하동 631-1번지 강남유치원 401호","indutype":"학원 - 예·체능계학원","category":"study"},{"name":"바로크음악학원","tel":"031-284-5853","addr":"경기도 용인시 기흥구 상하동 631-1번지 강남유치원 303호","indutype":"학원 - 예·체능계학원","category":"study"}]},{"lat":"37.255773755","long":"127.14107902","imageIndex":16,"items":[{"name":"경희대국가대표태권도장","tel":"031-285-7942","addr":"경기도 용인시 기흥구 상하동 652번지 수원동마을쌍용스윗닷홈301,302호","indutype":"학원 - 예·체능계학원","category":"study"},{"name":"맑음음악학원","tel":"031-286-7900","addr":"경기도 용인시 기흥구 상하동 652번지 수원동마을쌍용스윗닷홈 상가동 201호","indutype":"학원 - 예·체능계학원","category":"study"},{"name":"삼성영어진수학학원","tel":"031-274-0977","addr":"경기도 용인시 기흥구 상하동 652번지 수원동마을쌍용스윗닷홈 상가동 303호","indutype":"학원 - 보습학원","category":"study"},{"name":"조이음악교습소","tel":"031-282-5158","addr":"경기도 용인시 기흥구 상하동 652번지 수원동마을쌍용스윗닷홈아파트 상가동 103호","indutype":"학원 - 예·체능계학원","category":"study"},{"name":"중앙학원","tel":"031-275-0864","addr":"경기도 용인시 기흥구 상하동 652번지 수원동마을쌍용스윗닷홈 상가동 203호,303호","indutype":"학원 - 보습학원","category":"study"},{"name":"탑(Top Math)수학교습소","tel":"","addr":"경기도 용인시 기흥구 상하동 652번지 수원동마을쌍용스윗닷홈 상가동 1층 104호","indutype":"학원 - 보습학원","category":"study"}]},{"lat":"37.270850131","long":"127.13921246","imageIndex":16,"items":[{"name":"꿈꾸는피아노교습소","tel":"031-287-2426","addr":"경기도 용인시 기흥구 상하동 656번지 갈천마을신일유토빌아파트 상가동 203,204호","indutype":"학원 - 예·체능계학원","category":"study"}]},{"lat":"37.25893363","long":"127.14340696","imageIndex":16,"items":[{"name":"노래주머니","tel":"031-890-5356","addr":"경기도 용인시 기흥구 상하동 252-15번지","indutype":"학원 - 기타 교육기관","category":"study"}]},{"lat":"37.275737634","long":"127.14355094","imageIndex":16,"items":[{"name":"노블레지던스","tel":"","addr":"경기도 용인시 기흥구 상하동 482-19번지 2층","indutype":"학원 - 독서실","category":"study"},{"name":"우장현","tel":"031-274-6629","addr":"경기도 용인시 기흥구 상하동 482-19번지","indutype":"학원 - 독서실","category":"study"}]},{"lat":"37.2531545","long":"127.14634944","imageIndex":16,"items":[{"name":"다나SI어학원","tel":"031-282-3380","addr":"경기도 용인시 기흥구 상하동 64-1번지","indutype":"학원 - 외국어학원","category":"study"}]},{"lat":"37.260994707","long":"127.13761649","imageIndex":16,"items":[{"name":"다흰어린이집[어린이집]","tel":"031-302-1884","addr":"경기도 용인시 기흥구 상하동 659번지 지석마을진흥더루 102동 101호","indutype":"학원 - 유아원","category":"study"}]},{"lat":"37.257745619","long":"127.14226623","imageIndex":16,"items":[{"name":"단풍미술학원","tel":"031-285-0101","addr":"경기도 용인시 기흥구 상하동 163-11번지 202호","indutype":"학원 - 예·체능계학원","category":"study"},{"name":"상하그리고미술학원","tel":"031-285-0101","addr":"경기도 용인시 기흥구 상하동 163-11번지 202호","indutype":"학원 - 예·체능계학원","category":"study"},{"name":"한솔플러스영어 상하점학원","tel":"031-285-8325","addr":"경기도 용인시 기흥구 상하동 163-11번지 2층 201호","indutype":"학원 - 외국어학원","category":"study"}]},{"lat":"37.261659089","long":"127.13969191","imageIndex":16,"items":[{"name":"디에스씨(DSC)드론스쿨","tel":"070-8872-1350","addr":"경기도 용인시 기흥구 상하동 213-13번지 루벤스빌딩 1층 111호","indutype":"학원 - 기타 교육기관","category":"study"}]},{"lat":"37.267737449","long":"127.13491147","imageIndex":16,"items":[{"name":"뮤직카카토토","tel":"","addr":"경기도 용인시 기흥구 상하동 359-1번지 동양빌딩 201호","indutype":"학원 - 기타 교육기관","category":"study"},{"name":"웨일실용음악학원","tel":"","addr":"경기도 용인시 기흥구 상하동 359-1번지 동양빌딩 2층 202호","indutype":"학원 - 예·체능계학원","category":"study"}]},{"lat":"37.2722272","long":"127.14051153","imageIndex":16,"items":[{"name":"뮤직카토","tel":"031-286-8585","addr":"경기도 용인시 기흥구 상하동 447번지 풍림아파트","indutype":"회원제형태 - 학원","category":"study"}]},{"lat":"37.273014784","long":"127.13729966","imageIndex":16,"items":[{"name":"부스터9","tel":"031-282-9955","addr":"경기도 용인시 기흥구 상하동 633-3번지 그린타워 204호","indutype":"학원 - 예·체능계학원","category":"study"},{"name":"블랙벨트센터 태권도장","tel":"031-283-8888","addr":"경기도 용인시 기흥구 상하동 633-3번지 그린타워","indutype":"학원 - 예·체능계학원","category":"study"}]},{"lat":"37.25774434","long":"127.14334839","imageIndex":16,"items":[{"name":"사단법인 해피패밀리","tel":"02-1600-7591","addr":"경기도 용인시 기흥구 상하동 256-8번지 2층","indutype":"학원 - 기타 교육기관","category":"study"},{"name":"사단법인 해피패밀리","tel":"031-1600-7591","addr":"경기도 용인시 기흥구 상하동 256-8번지 2층","indutype":"학원 - 기타 교육기관","category":"study"}]},{"lat":"37.259353743","long":"127.13857174","imageIndex":16,"items":[{"name":"솔피아노교습소","tel":"031-274-8342","addr":"경기도 용인시 기흥구 상하동 660번지 지석마을진흥더루벤스2단지 제상가동 201호","indutype":"학원 - 예·체능계학원","category":"study"}]},{"lat":"37.263458423","long":"127.14202875","imageIndex":16,"items":[{"name":"아이두프라미스(IDO-Promise)","tel":"070-8172-3767","addr":"경기도 용인시 기흥구 상하동 296번지 대우아파트","indutype":"회원제형태 - 학원","category":"study"}]},{"lat":"37.25676673","long":"127.13949144","imageIndex":16,"items":[{"name":"아이플레이쿡","tel":"070-8285-6805","addr":"경기도 용인시 기흥구 상하동 621번지 수원동마을쌍용아파트","indutype":"학원 - 기능학원","category":"study"}]},{"lat":"37.257685075","long":"127.14010181","imageIndex":16,"items":[{"name":"위드(WITH)","tel":"","addr":"경기도 용인시 기흥구 상하동 621번지 수원동마을쌍용아파트","indutype":"학원 - 기타 교육기관","category":"study"}]},{"lat":"37.258070347","long":"127.14196247","imageIndex":16,"items":[{"name":"윤선생영어교실용인상하센터","tel":"031-287-0593","addr":"경기도 용인시 기흥구 상하동 163-4번지 경원빌딩 201호","indutype":"학원 - 학습지 교육","category":"study"},{"name":"윤선생영어숲상하어학원","tel":"031-287-0593","addr":"경기도 용인시 기흥구 상하동 163-4번지 경원빌딩 2층","indutype":"학원 - 학습지 교육","category":"study"}]},{"lat":"37.270381234","long":"127.1395273","imageIndex":16,"items":[{"name":"윤선생우리집앞영어교실 용인신일공부방","tel":"031-308-6700","addr":"경기도 용인시 기흥구 상하동 656번지 갈천마을신일유토빌아파트","indutype":"학원 - 외국어학원","category":"study"}]},{"lat":"37.257073845","long":"127.13882692","imageIndex":16,"items":[{"name":"이엠와이즈영어전문학원","tel":"070-7592-0582","addr":"경기도 용인시 기흥구 상하동 621번지 수원동마을쌍용스윗닷홈 상가","indutype":"학원 - 보습학원","category":"study"},{"name":"톡미술교습소","tel":"031-285-3303","addr":"경기도 용인시 기흥구 상하동 621번지 주상가동304호일부,305호","indutype":"학원 - 예·체능계학원","category":"study"}]},{"lat":"37.274299257","long":"127.14077462","imageIndex":16,"items":[{"name":"이화보습학원","tel":"031-281-3827","addr":"경기도 용인시 기흥구 상하동 461번지 조영프라자 307호","indutype":"학원 - 기타 교육기관","category":"study"}]},{"lat":"37.273321542","long":"127.13693941","imageIndex":16,"items":[{"name":"재잘재잘미술교습소","tel":"031-000-0000","addr":"경기도 용인시 기흥구 상하동 633번지 1층","indutype":"학원 - 예·체능계학원","category":"study"}]},{"lat":"37.275158917","long":"127.13757407","imageIndex":16,"items":[{"name":"지식의샘영수학원","tel":"031-8806-3633","addr":"경기도 용인시 기흥구 상하동 630번지 상가동 201호 강남마을한라비발디 ,202,203,303호","indutype":"회원제형태 - 학원","category":"study"},{"name":"한라E해법수학교습소","tel":"031-275-4156","addr":"경기도 용인시 기흥구 상하동 630번지 강남마을한라비발디 상가동 208호","indutype":"회원제형태 - 학원","category":"study"}]},{"lat":"37.25968606","long":"127.13949671","imageIndex":16,"items":[{"name":"진흥한솔플러스","tel":"031-274-5370","addr":"경기도 용인시 기흥구 상하동 660번지 진흥더루벤스 211동 902호","indutype":"회원제형태 - 학원","category":"study"}]},{"lat":"37.260813097","long":"127.13884491","imageIndex":16,"items":[{"name":"퀸즈영어","tel":"031-8002-6802","addr":"경기도 용인시 기흥구 상하동 660번지 지석마을진흥더루벤스","indutype":"회원제형태 - 학원","category":"study"}]},{"lat":"37.266681006","long":"127.13690509","imageIndex":16,"items":[{"name":"크레던스음악학원","tel":"031-274-4036","addr":"경기도 용인시 기흥구 상하동 371-2번지 삼신빌딩 2층","indutype":"학원 - 예·체능계학원","category":"study"}]},{"lat":"37.258372922","long":"127.13743145","imageIndex":16,"items":[{"name":"탑클래스(Top Class) 수학교실","tel":"070-7608-0971","addr":"경기도 용인시 기흥구 상하동 660번지 지석마을진흥더루 206동 502호","indutype":"회원제형태 - 학원","category":"study"}]},{"lat":"37.256146109","long":"127.13854345","imageIndex":16,"items":[{"name":"한국부동산권리분석연구소","tel":"031-239-2004","addr":"경기도 용인시 기흥구 상하동 621번지 수원동마을쌍용아파트","indutype":"학원 - 기타 교육기관","category":"study"}]},{"lat":"37.258054182","long":"127.14037302","imageIndex":16,"items":[{"name":"해법공부방","tel":"070-7560-7566","addr":"경기도 용인시 기흥구 상하동 621번지 수원동마을쌍용아파트","indutype":"회원제형태 - 학원","category":"study"}]},{"lat":"37.275015227","long":"127.13715664","imageIndex":16,"items":[{"name":"해피브레인공부방","tel":"070-4407-4405","addr":"경기도 용인시 기흥구 상하동 630번지 강남마을한라비발디 904동 2503호","indutype":"회원제형태 - 학원","category":"study"}]},{"lat":"37.261154448","long":"127.13974736","imageIndex":7,"items":[{"name":"가락농산","tel":"070-7018-5366","addr":"경기도 용인시 기흥구 상하동 213-11번지","indutype":"음료식품 - 농·축·수산품","category":"food"}]},{"lat":"37.272627382","long":"127.13726514","imageIndex":7,"items":[{"name":"강남꿀떡집","tel":"031-284-4266","addr":"경기도 용인시 기흥구 상하동 635-2번지 1층 102호","indutype":"음료식품 - 제과점","category":"food"}]},{"lat":"37.250102261","long":"127.15182152","imageIndex":7,"items":[{"name":"구내매점","tel":"031-288-0546","addr":"경기도 용인시 기흥구 상하동 32번지 효자병원","indutype":"음료식품 - 기타음료식품","category":"food"}]},{"lat":"37.26171665","long":"127.14438161","imageIndex":7,"items":[{"name":"금산건어물","tel":"","addr":"경기도 용인시 기흥구 상하동 272-7번지 아이앤캐슬 102동 201호","indutype":"음료식품 - 농·축·수산품","category":"food"}]},{"lat":"37.274020725","long":"127.14009762","imageIndex":7,"items":[{"name":"네이처시가","tel":"02-1111-1111","addr":"경기도 용인시 기흥구 상하동 462-6번지","indutype":"음료식품 - 기타음료식품","category":"food"},{"name":"풍성수산","tel":"031-309-6484","addr":"경기도 용인시 기흥구 상하동 462-6번지","indutype":"음료식품 - 농·축·수산품","category":"food"}]},{"lat":"37.265853053","long":"127.13602428","imageIndex":7,"items":[{"name":"더필레츠","tel":"031-000-0000","addr":"경기도 용인시 기흥구 상하동 351번지","indutype":"음료식품 - 기타음료식품","category":"food"}]},{"lat":"37.272681597","long":"127.13712994","imageIndex":7,"items":[{"name":"두리번","tel":"","addr":"경기도 용인시 기흥구 상하동 635-1번지 1층","indutype":"음료식품 - 기타음료식품","category":"food"}]},{"lat":"37.275818163","long":"127.14402464","imageIndex":7,"items":[{"name":"땅콩볶는집","tel":"","addr":"경기도 용인시 기흥구 상하동 483-1번지 어정프라자 115호","indutype":"음료식품 - 농·축·수산품","category":"food"}]},{"lat":"37.257765106","long":"127.14101502","imageIndex":7,"items":[{"name":"명진 찬","tel":"031-285-4652","addr":"경기도 용인시 기흥구 상하동 164-1번지","indutype":"음료식품 - 기타음료식품","category":"food"},{"name":"여의도떡","tel":"031-283-3153","addr":"경기도 용인시 기흥구 상하동 164-1번지 상하쟈일드아카데미 205호","indutype":"음료식품 - 제과점","category":"food"}]},{"lat":"37.276438834","long":"127.13717044","imageIndex":7,"items":[{"name":"백살공주","tel":"","addr":"경기도 용인시 기흥구 상하동 630번지 강남마을한라비발디","indutype":"음료식품 - 기타음료식품","category":"food"}]},{"lat":"37.257880415","long":"127.14257084","imageIndex":7,"items":[{"name":"빅마미식빵","tel":"031-284-8972","addr":"경기도 용인시 기흥구 상하동 163-9번지 신풍빌딩 105호","indutype":"음료식품 - 기타음료식품","category":"food"}]},{"lat":"37.255960332","long":"127.14332253","imageIndex":7,"items":[{"name":"소래포구직판포장","tel":"031-281-7458","addr":"경기도 용인시 기흥구 상하동 148-2번지 1층 101호 일부","indutype":"음료식품 - 기타음료식품","category":"food"}]},{"lat":"37.24991025","long":"127.14679414","imageIndex":7,"items":[{"name":"숲속숯가마매점","tel":"031-281-5252","addr":"경기도 용인시 기흥구 상하동 54-4번지","indutype":"음료식품 - 기타음료식품","category":"food"}]},{"lat":"37.273546619","long":"127.13709766","imageIndex":7,"items":[{"name":"아이사랑 아토","tel":"031-333-2136","addr":"경기도 용인시 기흥구 상하동 632-9번지 101호","indutype":"음료식품 - 기타음료식품","category":"food"}]},{"lat":"37.255773755","long":"127.14107902","imageIndex":7,"items":[{"name":"아이스토어(I-STORE)","tel":"","addr":"경기도 용인시 기흥구 상하동 652번지 수원동마을쌍용스윗닷홈 상가동 101호","indutype":"음료식품 - 기타음료식품","category":"food"}]},{"lat":"37.274820401","long":"127.14201583","imageIndex":7,"items":[{"name":"어수산","tel":"031-282-8887","addr":"경기도 용인시 기흥구 상하동 455-1번지 가동 일부 1층","indutype":"음료식품 - 농·축·수산품","category":"food"},{"name":"어수산","tel":"031-282-8887","addr":"경기도 용인시 기흥구 상하동 455-1번지 1층","indutype":"음료식품 - 기타음료식품","category":"food"}]},{"lat":"37.273267353","long":"127.13705206","imageIndex":7,"items":[{"name":"어정떡방앗간","tel":"031-275-0905","addr":"경기도 용인시 기흥구 상하동 633-1번지 가동","indutype":"음료식품 - 제과점","category":"food"}]},{"lat":"37.273015665","long":"127.1365217","imageIndex":7,"items":[{"name":"엄마손맛","tel":"031-286-2809","addr":"경기도 용인시 기흥구 상하동 631-2번지 101호","indutype":"음료식품 - 기타음료식품","category":"food"}]},{"lat":"37.266906797","long":"127.13643199","imageIndex":7,"items":[{"name":"용기천농산","tel":"031-287-5425","addr":"경기도 용인시 기흥구 상하동 388-3번지 1층","indutype":"음료식품 - 정육점","category":"food"}]},{"lat":"37.272934445","long":"127.1366343","imageIndex":7,"items":[{"name":"우리동네SELF정육코너","tel":"070-4112-1217","addr":"경기도 용인시 기흥구 상하동 631-3번지","indutype":"음료식품 - 정육점","category":"food"}]},{"lat":"37.273715041","long":"127.13952205","imageIndex":7,"items":[{"name":"위드아이스","tel":"031-676-1676","addr":"경기도 용인시 기흥구 상하동 462-3번지 전면좌 5호","indutype":"음료식품 - 기타음료식품","category":"food"}]},{"lat":"37.256573844","long":"127.14263606","imageIndex":7,"items":[{"name":"일등유통","tel":"031-282-0862","addr":"경기도 용인시 기흥구 상하동 147-5번지","indutype":"음료식품 - 미곡상","category":"food"},{"name":"일등유통종합식자재","tel":"031-282-0862","addr":"경기도 용인시 기흥구 상하동 147-5번지 가동","indutype":"음료식품 - 미곡상","category":"food"}]},{"lat":"37.273571137","long":"127.13929629","imageIndex":7,"items":[{"name":"조은유통","tel":"031-282-5385","addr":"경기도 용인시 기흥구 상하동 462-1번지 109호","indutype":"음료식품 - 농·축·수산품","category":"food"}]},{"lat":"37.257412332","long":"127.14218671","imageIndex":7,"items":[{"name":"주식회사 제이케이푸드","tel":"031-286-8864","addr":"경기도 용인시 기흥구 상하동 162번지","indutype":"음료식품 - 기타음료식품","category":"food"}]},{"lat":"37.258214153","long":"127.1422671","imageIndex":7,"items":[{"name":"파리바게뜨","tel":"031-284-0452","addr":"경기도 용인시 기흥구 상하동 241-3번지","indutype":"음료식품 - 제과점","category":"food"}]},{"lat":"37.272762817","long":"127.13701734","imageIndex":7,"items":[{"name":"파리바게트 지석초교점","tel":"031-275-2403","addr":"경기도 용인시 기흥구 상하동 635번지","indutype":"음료식품 - 제과점","category":"food"}]},{"lat":"37.273014784","long":"127.13729966","imageIndex":7,"items":[{"name":"파스퇴르우유기흥대리점","tel":"031-281-9400","addr":"경기도 용인시 기흥구 상하동 633-3번지 그린타워 103호","indutype":"음료식품 - 기타음료식품","category":"food"}]},{"lat":"37.261659089","long":"127.13969191","imageIndex":7,"items":[{"name":"파워점핑다이어트","tel":"070-4233-7719","addr":"경기도 용인시 기흥구 상하동 213-13번지 루벤스빌딩 2층 203호","indutype":"건강식품 - 기타건강식품","category":"food"}]},{"lat":"37.265986123","long":"127.14555079","imageIndex":13,"items":[{"name":"경희테니스아카데미","tel":"","addr":"경기도 용인시 기흥구 상하동 276-1번지 1층","indutype":"레저업소 - 테니스장","category":"leisure"}]},{"lat":"37.261659089","long":"127.13969191","imageIndex":13,"items":[{"name":"동백노래연습장","tel":"031-000-0000","addr":"경기도 용인시 기흥구 상하동 213-13번지 루벤스빌딩 302호","indutype":"레저업소 - 노 래 방","category":"leisure"}]},{"lat":"37.274299257","long":"127.14077462","imageIndex":13,"items":[{"name":"메인유소년축구클럽","tel":"031-693-7977","addr":"경기도 용인시 기흥구 상하동 461번지 조영프라자 201,202,203호","indutype":"레저업소 - 기타레져업소","category":"leisure"}]},{"lat":"37.275603509","long":"127.1426825","imageIndex":13,"items":[{"name":"벤츠노래연습장","tel":"","addr":"경기도 용인시 기흥구 상하동 481-5번지 세종프라자 바동 2층","indutype":"레저업소 - 노 래 방","category":"leisure"}]},{"lat":"37.275793468","long":"127.14205144","imageIndex":13,"items":[{"name":"샵노래연습장","tel":"031-287-9777","addr":"경기도 용인시 기흥구 상하동 478-2번지 동서식품용인물류센터 다동 2층","indutype":"레저업소 - 노 래 방","category":"leisure"}]},{"lat":"37.275818163","long":"127.14402464","imageIndex":13,"items":[{"name":"어정노래연습장","tel":"031-274-2212","addr":"경기도 용인시 기흥구 상하동 483-1번지 어정프라자 202호","indutype":"레저업소 - 노 래 방","category":"leisure"},{"name":"힐링스크린골프존","tel":"031-285-6001","addr":"경기도 용인시 기흥구 상하동 483-1번지 어정프라자 상가동203호,205호,206호","indutype":"레저업소 - 스크린골프","category":"leisure"}]},{"lat":"37.260626232","long":"127.13678163","imageIndex":13,"items":[{"name":"에프쥐에프엘 골프 아카데미","tel":"","addr":"경기도 용인시 기흥구 상하동 659번지 지석마을진흥더루벤스 101동 504호","indutype":"레저업소 - 골프연습장","category":"leisure"}]},{"lat":"37.279514355","long":"127.14235146","imageIndex":13,"items":[{"name":"유소년스포츠(SSA)","tel":"070-4407-3118","addr":"경기도 용인시 기흥구 상하동 504-4번지 3층","indutype":"레저업소 - 기타레져업소","category":"leisure"}]},{"lat":"37.270768701","long":"127.13950545","imageIndex":13,"items":[{"name":"짱노래방","tel":"031-273-2265","addr":"경기도 용인시 기흥구 상하동 656번지 갈천마을신일유토빌아파트","indutype":"레저업소 - 노 래 방","category":"leisure"}]},{"lat":"37.258214153","long":"127.1422671","imageIndex":13,"items":[{"name":"큐당구장","tel":"031-274-9090","addr":"경기도 용인시 기흥구 상하동 241-3번지 지하1층 우측","indutype":"레저업소 - 당 구 장","category":"leisure"}]},{"lat":"37.274991131","long":"127.14241077","imageIndex":13,"items":[{"name":"탑노래연습장","tel":"031-285-7747","addr":"경기도 용인시 기흥구 상하동 456-2번지 2층","indutype":"레저업소 - 노 래 방","category":"leisure"}]},{"lat":"37.275908829","long":"127.14355126","imageIndex":13,"items":[{"name":"황제당구장","tel":"","addr":"경기도 용인시 기흥구 상하동 482-10번지 3층","indutype":"레저업소 - 당 구 장","category":"leisure"}]},{"lat":"37.274101556","long":"127.14032327","imageIndex":7,"items":[{"name":"큰길마트","tel":"031-275-8188","addr":"경기도 용인시 기흥구 상하동 462-7번지 1층 104호","indutype":"유통업 영리 - 슈퍼마켓","category":"mart"}]},{"lat":"37.273715041","long":"127.13952205","imageIndex":7,"items":[{"name":"태풍마트","tel":"070-4210-8001","addr":"경기도 용인시 기흥구 상하동 462-3번지","indutype":"유통업 영리 - 슈퍼마켓","category":"mart"}]},{"lat":"37.272570192","long":"127.13999352","imageIndex":7,"items":[{"name":"풍림슈퍼마켓","tel":"031-282-9029","addr":"경기도 용인시 기흥구 상하동 447번지 풍림아파트 상가 101호","indutype":"유통업 영리 - 슈퍼마켓","category":"mart"}]},{"lat":"37.275818163","long":"127.14402464","imageIndex":7,"items":[{"name":"황금슈퍼","tel":"031-287-1818","addr":"경기도 용인시 기흥구 상하동 483-1번지 어정프라자 103호","indutype":"유통업 영리 - 슈퍼마켓","category":"mart"}]}]