[{"lat":"37.339476934","long":"127.08507964","imageIndex":13,"items":[{"name":"(주)엘림코리아웰니스레어","tel":"031-265-2020","addr":"경기도 용인시 수지구 동천동 483-5번지","indutype":"보건위생 - 미용재료","category":"beauty"}]},{"lat":"37.336518037","long":"127.09005276","imageIndex":13,"items":[{"name":"salon.수","tel":"031-757-7383","addr":"경기도 용인시 수지구 동천동 938번지 한빛마을래미안이스트팰리스2단지 상가동 2블럭12호","indutype":"보건위생 - 미용원","category":"beauty"},{"name":"아이벨르팜므 동천래미안점","tel":"031-266-9009","addr":"경기도 용인시 수지구 동천동 938번지 한빛마을래미안이스트팰리스2단지 15,16호","indutype":"보건위생 - 미용원","category":"beauty"}]},{"lat":"37.335650605","long":"127.09332415","imageIndex":13,"items":[{"name":"가위소리","tel":"031-896-7531","addr":"경기도 용인시 수지구 동천동 873-4번지 에덴파크 105호","indutype":"보건위생 - 미용원","category":"beauty"},{"name":"자이미용실","tel":"031-262-1550","addr":"경기도 용인시 수지구 동천동 873-4번지 에덴파크 상가동 202호","indutype":"보건위생 - 미용원","category":"beauty"}]},{"lat":"37.333953517","long":"127.09738431","imageIndex":13,"items":[{"name":"그라지아 에스테틱(grazia)","tel":"070-4843-4348","addr":"경기도 용인시 수지구 동천동 886-2번지 IVY타워 301호","indutype":"보건위생 - 피부미용실","category":"beauty"}]},{"lat":"37.335866892","long":"127.09326799","imageIndex":13,"items":[{"name":"글라스스토리(동천점)","tel":"031-262-8221","addr":"경기도 용인시 수지구 동천동 873-3번지 동천타워1차 110호","indutype":"보건위생 - 안경","category":"beauty"},{"name":"머리못하는집","tel":"031-262-5834","addr":"경기도 용인시 수지구 동천동 873-3번지 동천타워 101호","indutype":"보건위생 - 미용원","category":"beauty"},{"name":"보노헤어","tel":"031-261-8446","addr":"경기도 용인시 수지구 동천동 873-3번지 동천타워 2층 206호","indutype":"보건위생 - 미용원","category":"beauty"},{"name":"뷰티콜라겐","tel":"031-333-8132","addr":"경기도 용인시 수지구 동천동 873-3번지 동천타워 205호","indutype":"보건위생 - 화장품","category":"beauty"}]},{"lat":"37.333914873","long":"127.08898907","imageIndex":13,"items":[{"name":"김하경헤어살롱","tel":"031-272-9948","addr":"경기도 용인시 수지구 동천동 932번지 한빛마을래미안이스트팰리스3단지 상가동 지하2층 1호","indutype":"보건위생 - 미용원","category":"beauty"},{"name":"네일파크","tel":"031-896-4179","addr":"경기도 용인시 수지구 동천동 932번지 한빛마을래미안이스트팰리스3단지 상가동 10호","indutype":"보건위생 - 피부미용실","category":"beauty"},{"name":"라운지","tel":"031-272-7203","addr":"경기도 용인시 수지구 동천동 932번지 한빛마을래미안이스트팰리스3단지 상가동 3블럭3호","indutype":"보건위생 - 화장품","category":"beauty"},{"name":"와이(Y)에스테틱","tel":"031-719-5145","addr":"경기도 용인시 수지구 동천동 932번지 한빛마을래미안이스트팰리스3단지 제지2층 3블럭 6호","indutype":"보건위생 - 피부미용실","category":"beauty"}]},{"lat":"37.340450344","long":"127.09677178","imageIndex":13,"items":[{"name":"나무네일샵","tel":"031-896-6625","addr":"경기도 용인시 수지구 동천동 174-14번지 빌프라자 107호","indutype":"보건위생 - 피부미용실","category":"beauty"}]},{"lat":"37.341177153","long":"127.10049672","imageIndex":13,"items":[{"name":"나이스헤어샵","tel":"031-263-6621","addr":"경기도 용인시 수지구 동천동 180-12번지 생명수교회 105호","indutype":"보건위생 - 미용원","category":"beauty"}]},{"lat":"37.34070007","long":"127.09994314","imageIndex":13,"items":[{"name":"남성클럽","tel":"031-276-5006","addr":"경기도 용인시 수지구 동천동 196번지","indutype":"보건위생 - 미용원","category":"beauty"},{"name":"하나안경콘텍트","tel":"031-719-3320","addr":"경기도 용인시 수지구 동천동 196번지 수지빌딩 1층 5","indutype":"보건위생 - 안경","category":"beauty"}]},{"lat":"37.342648626","long":"127.09702279","imageIndex":13,"items":[{"name":"남영스파랜드스포츠마사지실","tel":"031-276-9600","addr":"경기도 용인시 수지구 동천동 171-1남영스파랜드(내)","indutype":"보건위생 - 피부미용실","category":"beauty"}]},{"lat":"37.334866693","long":"127.09335707","imageIndex":13,"items":[{"name":"더헤어 디자인살롱","tel":"031-000-0000","addr":"경기도 용인시 수지구 동천동 878번지","indutype":"보건위생 - 미용원","category":"beauty"}]},{"lat":"37.338148792","long":"127.10163253","imageIndex":13,"items":[{"name":"더헤어샵","tel":"","addr":"경기도 용인시 수지구 동천동 899번지 분당수지U-TOWER A동 135호","indutype":"보건위생 - 미용원","category":"beauty"},{"name":"레드헤어","tel":"031-229-1688","addr":"경기도 용인시 수지구 동천동 899번지 분당수지유타워 A동 1층 115호","indutype":"보건위생 - 미용원","category":"beauty"},{"name":"마드레심리상담연구소","tel":"031-229-1503","addr":"경기도 용인시 수지구 동천동 899번지 분당수지U-TOWER B동 28층 41호","indutype":"보건위생 - 기타대인서비스","category":"beauty"},{"name":"비롬헤어2호점","tel":"031-229-1500","addr":"경기도 용인시 수지구 동천동 899번지 B동 1층 124,124-1호","indutype":"보건위생 - 미용원","category":"beauty"},{"name":"아이원안경원","tel":"031-525-3332","addr":"경기도 용인시 수지구 동천동 899번지 분당수지 U-TOWER B동 101,102호","indutype":"보건위생 - 안경","category":"beauty"},{"name":"앙포레모리노헤어","tel":"031-299-1919","addr":"경기도 용인시 수지구 동천동 899번지 분당수지U-TOWER B동 212호","indutype":"보건위생 - 미용원","category":"beauty"},{"name":"오푸스","tel":"031-229-1595","addr":"경기도 용인시 수지구 동천동 899번지 분당수지 U-TOWER 2층 237호","indutype":"보건위생 - 의료용품","category":"beauty"},{"name":"우진","tel":"070-4032-2037","addr":"경기도 용인시 수지구 동천동 899번지 분당수지 U-TOWER 5층 33호","indutype":"보건위생 - 기타대인서비스","category":"beauty"},{"name":"이든부띠끄","tel":"031-895-5899","addr":"경기도 용인시 수지구 동천동 899번지 분당수지U-TOWER A동 1층 119호","indutype":"보건위생 - 피부미용실","category":"beauty"},{"name":"이지원헤어","tel":"031-525-3737","addr":"경기도 용인시 수지구 동천동 899번지 분당수지U-TOWER A동 237-1호","indutype":"보건위생 - 미용원","category":"beauty"},{"name":"피스메이커 상담센터","tel":"031-218-4778","addr":"경기도 용인시 수지구 동천동 899번지 분당수지유타워 529호","indutype":"보건위생 - 기타대인서비스","category":"beauty"},{"name":"한올심리상담센터","tel":"02-6340-0002","addr":"경기도 용인시 수지구 동천동 899번지 분당수지유타워 A동 1813호","indutype":"보건위생 - 기타대인서비스","category":"beauty"}]},{"lat":"37.340646874","long":"127.09888229","imageIndex":13,"items":[{"name":"동네미용실","tel":"031-266-8770","addr":"경기도 용인시 수지구 동천동 174-26번지 영재빌딩 103호","indutype":"보건위생 - 미용원","category":"beauty"},{"name":"휴크리닉헤어","tel":"031-263-3346","addr":"경기도 용인시 수지구 동천동 174-26번지 외2필지영재빌딩 201호","indutype":"보건위생 - 미용원","category":"beauty"}]},{"lat":"37.335895076","long":"127.09174467","imageIndex":13,"items":[{"name":"동천하우스","tel":"031-262-2599","addr":"경기도 용인시 수지구 동천동 948번지 307호","indutype":"보건위생 - 화장품","category":"beauty"},{"name":"아뜰리에","tel":"031-896-7822","addr":"경기도 용인시 수지구 동천동 948번지 1층 112호","indutype":"보건위생 - 피부미용실","category":"beauty"},{"name":"아뜰리에","tel":"031-896-7822","addr":"경기도 용인시 수지구 동천동 948번지 112호","indutype":"보건위생 - 화장품","category":"beauty"}]},{"lat":"37.344782511","long":"127.05604787","imageIndex":13,"items":[{"name":"디.디.에프","tel":"031-264-9662","addr":"경기도 용인시 수지구 동천동 703-2 SM루빌 B-5호","indutype":"보건위생 - 화장품","category":"beauty"}]},{"lat":"37.341394314","long":"127.09937978","imageIndex":13,"items":[{"name":"라쁠뤼벨 본점","tel":"031-276-8836","addr":"경기도 용인시 수지구 동천동 969번지 동천파크뷰 107호","indutype":"보건위생 - 미용원","category":"beauty"}]},{"lat":"37.334371134","long":"127.09335647","imageIndex":13,"items":[{"name":"레오","tel":"031-263-7310","addr":"경기도 용인시 수지구 동천동 878-3번지 1층","indutype":"보건위생 - 미용원","category":"beauty"},{"name":"엘샤론","tel":"031-272-7216","addr":"경기도 용인시 수지구 동천동 878-3번지 103호","indutype":"보건위생 - 화장품","category":"beauty"}]},{"lat":"37.340288669","long":"127.09612835","imageIndex":13,"items":[{"name":"루카스안경","tel":"031-308-8234","addr":"경기도 용인시 수지구 동천동 174-9번지 센트럴 상가 106호","indutype":"보건위생 - 안경","category":"beauty"},{"name":"뷰티호텔","tel":"","addr":"경기도 용인시 수지구 동천동 174-9번지 센트럴 상가 204호","indutype":"보건위생 - 화장품","category":"beauty"},{"name":"이윤정헤어샵","tel":"031-263-8286","addr":"경기도 용인시 수지구 동천동 174-9번지 센트럴상가 102호","indutype":"보건위생 - 미용원","category":"beauty"},{"name":"조윤정헤어갤러리","tel":"031-261-5218","addr":"경기도 용인시 수지구 동천동 174-9번지 센트럴 201호","indutype":"보건위생 - 미용원","category":"beauty"}]},{"lat":"37.336318656","long":"127.09160975","imageIndex":13,"items":[{"name":"리안헤어","tel":"031-272-2209","addr":"경기도 용인시 수지구 동천동 944번지 206호","indutype":"보건위생 - 미용원","category":"beauty"},{"name":"보다안경","tel":"031-896-3456","addr":"경기도 용인시 수지구 동천동 944번지 동천훼미리프라자 115호","indutype":"보건위생 - 안경","category":"beauty"},{"name":"이안아동발달연구소","tel":"031-898-3366","addr":"경기도 용인시 수지구 동천동 944번지 훼미리프라자","indutype":"보건위생 - 기타대인서비스","category":"beauty"}]},{"lat":"37.337176777","long":"127.08868812","imageIndex":13,"items":[{"name":"린네일","tel":"031-261-2241","addr":"경기도 용인시 수지구 동천동 937번지 동천프라자 2층 206호","indutype":"보건위생 - 피부미용실","category":"beauty"},{"name":"지앤비에헤어포인트","tel":"031-263-5477","addr":"경기도 용인시 수지구 동천동 937번지 204호","indutype":"보건위생 - 미용원","category":"beauty"},{"name":"퀸즈헤나","tel":"031-263-0334","addr":"경기도 용인시 수지구 동천동 937번지 105호","indutype":"보건위생 - 미용원","category":"beauty"}]},{"lat":"37.33597504","long":"127.09323427","imageIndex":13,"items":[{"name":"모유육아상담실","tel":"031-266-5553","addr":"경기도 용인시 수지구 동천동 873-3번지 동천타워1동 204호","indutype":"보건위생 - 기타대인서비스","category":"beauty"}]},{"lat":"37.336447483","long":"127.08795381","imageIndex":13,"items":[{"name":"바나헤어","tel":"031-265-7704","addr":"경기도 용인시 수지구 동천동 935번지 래미안이스트팰리스상가1동1블럭9호","indutype":"보건위생 - 미용원","category":"beauty"},{"name":"안시윤헤어","tel":"031-261-3860","addr":"경기도 용인시 수지구 동천동 935번지 한빛마을래미안이스트팰리스1단지 상가동 11호","indutype":"보건위생 - 미용원","category":"beauty"},{"name":"퀸헤어","tel":"031-263-5917","addr":"경기도 용인시 수지구 동천동 935번지 한빛마을래미안이스트팰리스1단지 상가동 1층 1블럭-3호","indutype":"보건위생 - 미용원","category":"beauty"}]},{"lat":"37.340259684","long":"127.09857711","imageIndex":13,"items":[{"name":"바디힐링","tel":"031-896-2289","addr":"경기도 용인시 수지구 동천동 371-5번지 동천코아프라자 404호","indutype":"보건위생 - 피부미용실","category":"beauty"},{"name":"주메디얼테라피","tel":"031-896-8231","addr":"경기도 용인시 수지구 동천동 371-5번지 동천코아프라자 402호","indutype":"보건위생 - 화장품","category":"beauty"}]},{"lat":"37.333287802","long":"127.09607456","imageIndex":13,"items":[{"name":"베스트헤어","tel":"031-261-0434","addr":"경기도 용인시 수지구 동천동 884-4번지 104호","indutype":"보건위생 - 미용원","category":"beauty"}]},{"lat":"37.33470451","long":"127.09335687","imageIndex":13,"items":[{"name":"부에나헤어솝","tel":"031-265-8705","addr":"경기도 용인시 수지구 동천동 878-1번지 영광빌 101호","indutype":"보건위생 - 미용원","category":"beauty"}]},{"lat":"37.333172996","long":"127.09307294","imageIndex":13,"items":[{"name":"살롱드 제이 헤어","tel":"031-9833-3635","addr":"경기도 용인시 수지구 동천동 282번지 309호","indutype":"보건위생 - 미용원","category":"beauty"}]},{"lat":"37.33784048","long":"127.09279641","imageIndex":13,"items":[{"name":"수아르헤어","tel":"031-262-0020","addr":"경기도 용인시 수지구 동천동 344-2번지 동천동제일프라자 108호","indutype":"보건위생 - 미용원","category":"beauty"}]},{"lat":"37.333512064","long":"127.09732734","imageIndex":13,"items":[{"name":"수지가온 ABA 연구소","tel":"070-4686-9412","addr":"경기도 용인시 수지구 동천동 887번지 수지하우비 414호","indutype":"보건위생 - 기타대인서비스","category":"beauty"},{"name":"아쿠아스킨","tel":"031-898-1075","addr":"경기도 용인시 수지구 동천동 887번지 수지하우비 408호","indutype":"보건위생 - 화장품","category":"beauty"},{"name":"안경사랑","tel":"031-263-1555","addr":"경기도 용인시 수지구 동천동 887번지 수지하우비 1층 103호","indutype":"보건위생 - 안경","category":"beauty"},{"name":"헤어카페","tel":"031-898-1292","addr":"경기도 용인시 수지구 동천동 887번지 외2필지 수지하우비 110호","indutype":"보건위생 - 미용원","category":"beauty"}]},{"lat":"37.337731781","long":"127.09355234","imageIndex":13,"items":[{"name":"수헤어클래식","tel":"032-266-8786","addr":"경기도 용인시 수지구 동천동 336-3번지 외1필지 106","indutype":"보건위생 - 미용원","category":"beauty"}]},{"lat":"37.340261372","long":"127.09646686","imageIndex":13,"items":[{"name":"스타뷰티팜","tel":"","addr":"경기도 용인시 수지구 동천동 174-15번지 2층","indutype":"보건위생 - 피부미용실","category":"beauty"}]},{"lat":"37.340538053","long":"127.0997398","imageIndex":13,"items":[{"name":"아띠스킨케어","tel":"031-264-0131","addr":"경기도 용인시 수지구 동천동 201-1번지 5층","indutype":"보건위생 - 화장품","category":"beauty"}]},{"lat":"37.33328806","long":"127.09574733","imageIndex":13,"items":[{"name":"아름다울미","tel":"031-896-0053","addr":"경기도 용인시 수지구 동천동 884-2번지 1층","indutype":"보건위생 - 미용원","category":"beauty"}]},{"lat":"37.345537528","long":"127.08963433","imageIndex":13,"items":[{"name":"아이포인트","tel":"031-276-1588","addr":"경기도 용인시 수지구 동천동 105-3번지 동천자이아파트","indutype":"보건위생 - 안경","category":"beauty"}]},{"lat":"37.332064675","long":"127.09316188","imageIndex":13,"items":[{"name":"에스네일(SNAIL)","tel":"031-263-4779","addr":"경기도 용인시 수지구 동천동 282-8번지 다온빌 A동 102호","indutype":"보건위생 - 화장품","category":"beauty"}]},{"lat":"37.333287927","long":"127.09591659","imageIndex":13,"items":[{"name":"예쁘다헤어(동천점)","tel":"","addr":"경기도 용인시 수지구 동천동 884-3번지 1층 101호","indutype":"보건위생 - 미용원","category":"beauty"}]},{"lat":"37.335650983","long":"127.09282765","imageIndex":13,"items":[{"name":"제이봄헤어","tel":"031-261-1811","addr":"경기도 용인시 수지구 동천동 874-2번지 두부하우스 1층 102호","indutype":"보건위생 - 미용원","category":"beauty"}]},{"lat":"37.341486252","long":"127.09710033","imageIndex":13,"items":[{"name":"조은미용실","tel":"031-261-3939","addr":"경기도 용인시 수지구 동천동 914 동문굿모닝힐5차상가-207","indutype":"보건위생 - 미용원","category":"beauty"}]},{"lat":"37.349396022","long":"127.08665922","imageIndex":13,"items":[{"name":"주식회사 헤이젠","tel":"070-7123-3333","addr":"경기도 용인시 수지구 동천동 74-9번지","indutype":"보건위생 - 화장품","category":"beauty"}]},{"lat":"37.334512418","long":"127.09704649","imageIndex":13,"items":[{"name":"지니미장원","tel":"070-8868-1389","addr":"경기도 용인시 수지구 동천동 885번지 청해참치 1층 103호","indutype":"보건위생 - 미용원","category":"beauty"}]},{"lat":"37.336920779","long":"127.0936642","imageIndex":13,"items":[{"name":"지앤비헤어포인트","tel":"031-263-5477","addr":"경기도 용인시 수지구 동천동 864 써니밸리상가 202","indutype":"보건위생 - 미용원","category":"beauty"}]},{"lat":"37.332812692","long":"127.09293711","imageIndex":13,"items":[{"name":"태후사랑","tel":"031-261-7120","addr":"경기도 용인시 수지구 동천동 282-4번지","indutype":"보건위생 - 미용재료","category":"beauty"}]},{"lat":"37.33581481","long":"127.09063873","imageIndex":13,"items":[{"name":"해리헤어","tel":"031-896-0096","addr":"경기도 용인시 수지구 동천동 946-4번지 대영프라자 104호","indutype":"보건위생 - 미용원","category":"beauty"}]},{"lat":"37.341590543","long":"127.10179503","imageIndex":13,"items":[{"name":"헤어가넷","tel":"031-265-2070","addr":"경기도 용인시 수지구 동천동 185-2번지 1층 일부호","indutype":"보건위생 - 미용원","category":"beauty"}]},{"lat":"37.340952585","long":"127.09966134","imageIndex":13,"items":[{"name":"헤어진","tel":"031-261-9988","addr":"경기도 용인시 수지구 동천동 199-2번지 2층","indutype":"보건위생 - 미용원","category":"beauty"}]}]