[{"lat":"37.650271035","long":"126.88455795","imageIndex":16,"items":[{"name":"153가우스수학학원","tel":"02-381-1530","addr":"경기도 고양시 덕양구 삼송동 327-3번지","indutype":"회원제형태 - 학원","category":"study"},{"name":"라벨비음악학원","tel":"02-381-6008","addr":"경기도 고양시 덕양구 삼송동 327-3번지","indutype":"학원 - 예·체능계학원","category":"study"},{"name":"본 수학교습소","tel":"031-907-1064","addr":"경기도 고양시 덕양구 삼송동 327-3번지","indutype":"학원 - 보습학원","category":"study"},{"name":"씨엘어학원","tel":"070-4173-4123","addr":"경기도 고양시 덕양구 삼송동 327-3번지","indutype":"학원 - 보습학원","category":"study"},{"name":"와이비엠잉글루 삼송학원","tel":"031-000-0000","addr":"경기도 고양시 덕양구 삼송동 327-3번지","indutype":"학원 - 외국어학원","category":"study"},{"name":"용인대MTA태권도","tel":"02-389-9997","addr":"경기도 고양시 덕양구 삼송동","indutype":"학원 - 예·체능계학원","category":"study"},{"name":"필음악학원","tel":"02-371-0402","addr":"경기도 고양시 덕양구 삼송동 327-3번지","indutype":"학원 - 예·체능계학원","category":"study"}]},{"lat":"37.648328859","long":"126.87958661","imageIndex":16,"items":[{"name":"153유학","tel":"070-7651-5181","addr":"경기도 고양시 덕양구 삼송동 332번지 삼송마을18단지","indutype":"학원 - 외국어학원","category":"study"},{"name":"고양시립큰솔어린이집[아이행복]","tel":"02-371-3113","addr":"경기도 고양시 덕양구 삼송동 332번지 삼송마을18단지","indutype":"학원 - 유아원","category":"study"}]},{"lat":"37.650748298","long":"126.88430789","imageIndex":16,"items":[{"name":"2관 아트피플 미술학원","tel":"031-352-7889","addr":"경기도 고양시 덕양구 삼송동","indutype":"학원 - 예·체능계학원","category":"study"},{"name":"더함수학","tel":"","addr":"경기도 고양시 덕양구 삼송동 326-2번지","indutype":"학원 - 보습학원","category":"study"}]},{"lat":"37.650469145","long":"126.88445565","imageIndex":16,"items":[{"name":"ArtStudioJ","tel":"","addr":"경기도 고양시 덕양구 삼송동 327-2번지","indutype":"학원 - 예·체능계학원","category":"study"},{"name":"알맞춤수학교습소","tel":"031-381-9875","addr":"경기도 고양시 덕양구 삼송동 327-2번지","indutype":"학원 - 보습학원","category":"study"},{"name":"예인아뜰리에미술학원","tel":"02-371-0670","addr":"경기도 고양시 덕양구 삼송동 327-2번지","indutype":"학원 - 예·체능계학원","category":"study"},{"name":"이그잼영어교습소","tel":"02-371-0582","addr":"경기도 고양시 덕양구 삼송동 327-2번지","indutype":"학원 - 외국어학원","category":"study"},{"name":"조이 리듬 스쿨","tel":"02-111-1111","addr":"경기도 고양시 덕양구 삼송동 327-2번지","indutype":"학원 - 예·체능계학원","category":"study"}]},{"lat":"37.654855142","long":"126.89195062","imageIndex":16,"items":[{"name":"고양고등학교","tel":"02-350-5700","addr":"경기도 고양시 덕양구 삼송동 45-2번지","indutype":"학원 - 초중고교육기관","category":"study"},{"name":"고양고등학교_수업료","tel":"02-350-5700","addr":"경기도 고양시 덕양구 삼송동 45-2번지","indutype":"학원 - 초중고교육기관","category":"study"}]},{"lat":"37.650691351","long":"126.89056303","imageIndex":16,"items":[{"name":"고양동산초등학교병설유치원[아이행복]","tel":"02-381-2250","addr":"경기도 고양시 덕양구 삼송동 128-167번지","indutype":"학원 - 유치원","category":"study"}]},{"lat":"37.649578014","long":"126.88528426","imageIndex":16,"items":[{"name":"고양시립 삼송 어린이집[아이행복]","tel":"02-357-3200","addr":"경기도 고양시 덕양구 삼송동 321번지","indutype":"학원 - 유아원","category":"study"}]},{"lat":"37.649496293","long":"126.88464983","imageIndex":16,"items":[{"name":"고양중학교","tel":"02-350-1115","addr":"경기도 고양시 덕양구 삼송동 322번지","indutype":"학원 - 초중고교육기관","category":"study"}]},{"lat":"37.651608664","long":"126.88881656","imageIndex":16,"items":[{"name":"고양커피본바리스타학원","tel":"032-000-0000","addr":"경기도 고양시 덕양구 삼송동 314-15번지","indutype":"학원 - 기능학원","category":"study"}]},{"lat":"37.650354685","long":"126.88714141","imageIndex":16,"items":[{"name":"그림그림미술교습소","tel":"031-000-0000","addr":"경기도 고양시 덕양구 삼송동 311번지 삼송2차아이파크","indutype":"학원 - 예·체능계학원","category":"study"},{"name":"뉴런수학교습소","tel":"02-381-9091","addr":"경기도 고양시 덕양구 삼송동 311번지 삼송2차아이파크","indutype":"학원 - 보습학원","category":"study"},{"name":"아이다움어린이집[아이행복]","tel":"02-381-1124","addr":"경기도 고양시 덕양구 삼송동 311번지 삼송2차아이파크","indutype":"학원 - 유아원","category":"study"},{"name":"좋은나무 어린이집[아이행복]","tel":"02-6409-5959","addr":"경기도 고양시 덕양구 삼송동 311번지 삼송2차아이파크","indutype":"학원 - 유아원","category":"study"},{"name":"펀펀뮤직 피아노 교습소","tel":"031-000-0000","addr":"경기도 고양시 덕양구 삼송동 311번지 삼송2차아이파크","indutype":"학원 - 예·체능계학원","category":"study"}]},{"lat":"37.650351564","long":"126.88400257","imageIndex":16,"items":[{"name":"나래태권도장","tel":"","addr":"경기도 고양시 덕양구 삼송동 327번지","indutype":"학원 - 예·체능계학원","category":"study"}]},{"lat":"37.652939402","long":"126.88606086","imageIndex":16,"items":[{"name":"동원예가 어린이집[아이행복]","tel":"02-381-2656","addr":"경기도 고양시 덕양구 삼송동 306번지 삼송마을동원로얄듀크","indutype":"학원 - 유아원","category":"study"}]},{"lat":"37.654605585","long":"126.88544631","imageIndex":16,"items":[{"name":"로움아카데미","tel":"02-381-1551","addr":"경기도 고양시 덕양구 삼송동 297-3번지","indutype":"학원 - 기능학원","category":"study"}]},{"lat":"37.644714223","long":"126.87792697","imageIndex":16,"items":[{"name":"바다나무잉글리시어학원","tel":"02-381-0579","addr":"경기도 고양시 덕양구 삼송동 348-1번지","indutype":"학원 - 외국어학원","category":"study"}]},{"lat":"37.648053614","long":"126.88353032","imageIndex":16,"items":[{"name":"본영재교육학원","tel":"02-371-1535","addr":"경기도 고양시 덕양구 삼송동 337번지","indutype":"학원 - 보습학원","category":"study"},{"name":"삼송석사덕양체육관","tel":"031-381-6056","addr":"경기도 고양시 덕양구 삼송동 337번지","indutype":"학원 - 예·체능계학원","category":"study"},{"name":"아트랩미술학원","tel":"02-381-6163","addr":"경기도 고양시 덕양구 삼송동 337번지","indutype":"학원 - 예·체능계학원","category":"study"},{"name":"칸타빌레음악학원","tel":"02-371-2722","addr":"경기도 고양시 덕양구 삼송동 337번지","indutype":"학원 - 예·체능계학원","category":"study"}]},{"lat":"37.654605979","long":"126.88584294","imageIndex":16,"items":[{"name":"북유럽감성놀이터 학원","tel":"02-381-8260","addr":"경기도 고양시 덕양구 삼송동 298-1번지","indutype":"학원 - 예·체능계학원","category":"study"},{"name":"프렌즈에듀(friendsedu)","tel":"02-381-8260","addr":"경기도 고양시 덕양구 삼송동 298-1번지","indutype":"학원 - 기타 교육기관","category":"study"}]},{"lat":"37.649106618","long":"126.88241817","imageIndex":16,"items":[{"name":"뿌리깊은 수학","tel":"02-381-3897","addr":"경기도 고양시 덕양구 삼송동 331번지 삼송스타클래스","indutype":"회원제형태 - 학원","category":"study"},{"name":"삼송꼬마별공동육아어린이집[아이행복]","tel":"02-371-3303","addr":"경기도 고양시 덕양구 삼송동 331번지 삼송스타클래스","indutype":"학원 - 유아원","category":"study"},{"name":"파고다차이랑중국어심송점","tel":"","addr":"경기도 고양시 덕양구 삼송동 331번지 삼송스타클래스","indutype":"학원 - 기타 교육기관","category":"study"}]},{"lat":"37.652413594","long":"126.89203358","imageIndex":16,"items":[{"name":"삼송산새 어린이집[아이행복]","tel":"02-381-6512","addr":"경기도 고양시 덕양구 삼송동 135-63번지","indutype":"학원 - 유아원","category":"study"}]},{"lat":"37.655102997","long":"126.89694779","imageIndex":16,"items":[{"name":"삼송어린이집[아이행복]","tel":"02-381-0104","addr":"경기도 고양시 덕양구 삼송동 61-61번지","indutype":"학원 - 유아원","category":"study"},{"name":"시립삼송어린이집[아이행복]","tel":"02-381-0104","addr":"경기도 고양시 덕양구 삼송동 61-61번지","indutype":"학원 - 유아원","category":"study"}]},{"lat":"37.64785571","long":"126.88383658","imageIndex":16,"items":[{"name":"삼송어반트리독서실","tel":"02-371-3772","addr":"경기도 고양시 덕양구 삼송동 338-1번지","indutype":"학원 - 독서실","category":"study"}]},{"lat":"37.653886868","long":"126.88753255","imageIndex":16,"items":[{"name":"삼송이화어린이집[아이행복]","tel":"02-371-1236","addr":"경기도 고양시 덕양구 삼송동 91-10번지","indutype":"학원 - 유아원","category":"study"}]},{"lat":"37.653131781","long":"126.88931284","imageIndex":16,"items":[{"name":"삼송한울어린이집[아이행복]","tel":"02-381-0020","addr":"경기도 고양시 덕양구 삼송동 78-36번지","indutype":"학원 - 유아원","category":"study"}]},{"lat":"37.65260898","long":"126.88906433","imageIndex":16,"items":[{"name":"수학마루학원","tel":"02-382-5377","addr":"경기도 고양시 덕양구 삼송동 78-32번지","indutype":"학원 - 보습학원","category":"study"}]},{"lat":"37.650078368","long":"126.89022401","imageIndex":16,"items":[{"name":"아테네 스포츠","tel":"02-382-4447","addr":"경기도 고양시 덕양구 삼송동 128-50번지","indutype":"회원제형태 - 학원","category":"study"}]},{"lat":"37.653302911","long":"126.88925592","imageIndex":16,"items":[{"name":"영재 어린이집[아이행복]","tel":"02-381-6772","addr":"경기도 고양시 덕양구 삼송동 78-35번지","indutype":"학원 - 유아원","category":"study"}]},{"lat":"37.650270111","long":"126.88364009","imageIndex":16,"items":[{"name":"용인대한결태권도장","tel":"02-358-9911","addr":"경기도 고양시 덕양구 삼송동 324번지","indutype":"학원 - 예·체능계학원","category":"study"}]},{"lat":"37.650996345","long":"126.88916878","imageIndex":16,"items":[{"name":"원어민중국어과외","tel":"","addr":"경기도 고양시 덕양구 삼송동 314-10번지","indutype":"학원 - 기타 교육기관","category":"study"}]},{"lat":"37.653389324","long":"126.88549356","imageIndex":16,"items":[{"name":"이솝어린이집[아이행복]","tel":"02-6405-1441","addr":"경기도 고양시 덕양구 삼송동 306번지 삼송마을동원로얄듀크","indutype":"학원 - 유아원","category":"study"}]},{"lat":"37.648081454","long":"126.8843348","imageIndex":16,"items":[{"name":"주식회사에스씨교육미디어","tel":"02-371-1800","addr":"경기도 고양시 덕양구 삼송동 337-3번지","indutype":"학원 - 보습학원","category":"study"}]},{"lat":"37.654938192","long":"126.8940583","imageIndex":16,"items":[{"name":"짐에스엘(유아체육연구소)","tel":"02-1111-1111","addr":"경기도 고양시 덕양구 삼송동 42-17번지","indutype":"학원 - 기타 교육기관","category":"study"}]},{"lat":"37.653705359","long":"126.88619565","imageIndex":16,"items":[{"name":"쿰바야어린이집[아이행복]","tel":"","addr":"경기도 고양시 덕양구 삼송동 306번지 삼송마을동원로얄듀크","indutype":"학원 - 유아원","category":"study"}]},{"lat":"37.651940122","long":"126.88686698","imageIndex":16,"items":[{"name":"키즈빌리지어린이집[아이행복]","tel":"02-6339-7998","addr":"경기도 고양시 덕양구 삼송동","indutype":"학원 - 유아원","category":"study"}]},{"lat":"37.653830544","long":"126.89464918","imageIndex":16,"items":[{"name":"포인트영어학원","tel":"","addr":"경기도 고양시 덕양구 삼송동 27-1번지","indutype":"학원 - 외국어학원","category":"study"}]},{"lat":"37.651545837","long":"126.88906595","imageIndex":16,"items":[{"name":"한양대하율태권도","tel":"02-381-8074","addr":"경기도 고양시 덕양구 삼송동","indutype":"학원 - 예·체능계학원","category":"study"}]},{"lat":"37.651857549","long":"126.89478803","imageIndex":16,"items":[{"name":"해나래어린이집[아이행복]","tel":"031-881-0618","addr":"경기도 고양시 덕양구 삼송동 128-29번지","indutype":"학원 - 유아원","category":"study"}]},{"lat":"37.645664591","long":"126.89125045","imageIndex":16,"items":[{"name":"호반송담성균관어린이집[아이행복]","tel":"02-353-1233","addr":"경기도 고양시 덕양구 삼송동","indutype":"학원 - 유아원","category":"study"}]}]