[{"lat":"37.416522222","long":"126.98250354","imageIndex":17,"items":[{"name":"(주) 솔루션312 법원경매","tel":"02-1661-5605","addr":"경기도 과천시 갈현동 357-7번지 101호","indutype":"용역 서비스 - 사무서비스","category":"other"}]},{"lat":"37.41654967","long":"126.98509038","imageIndex":17,"items":[{"name":"(주)삼아소이전자 과천지점","tel":"02-6262-2050","addr":"경기도 과천시 갈현동 15-1번지 2층","indutype":"전기제품 - 기타전기제품","category":"other"}]},{"lat":"37.412053898","long":"126.98683096","imageIndex":17,"items":[{"name":"(주)삼우건설","tel":"02-503-2426","addr":"경기도 과천시 갈현동 50-2번지 301호","indutype":"용역 서비스 - 기타용역서비스","category":"other"},{"name":"주식회사보브에셋","tel":"02-502-2004","addr":"경기도 과천시 갈현동 50-2번지","indutype":"회원제형태 - 기타4","category":"other"}]},{"lat":"37.428191537","long":"126.99247651","imageIndex":17,"items":[{"name":"(주)케이씨에너지","tel":"02-507-4022","addr":"경기도 과천시 갈현동 302-1번지","indutype":"소매업 - 가스충전소","category":"other"}]},{"lat":"37.416359665","long":"126.98042509","imageIndex":17,"items":[{"name":"APS-Biotech(에이피에스바이오텍)/원격지","tel":"02-324-7360","addr":"경기도 과천시 갈현동 384-2번지 1층","indutype":"기타 - 기타 전문점","category":"other"},{"name":"인더라인","tel":"031-000-0000","addr":"경기도 과천시 갈현동 384-2번지 1층 101호","indutype":"유통업 영리 - 편 의 점","category":"other"}]},{"lat":"37.416603984","long":"126.98686388","imageIndex":17,"items":[{"name":"가나안농원","tel":"02-503-1013","addr":"경기도 과천시 갈현동 17-4","indutype":"문화.취미 - 화원","category":"other"}]},{"lat":"37.428714046","long":"126.99166297","imageIndex":17,"items":[{"name":"갈현공인중개사사무소","tel":"02-507-8817~8","addr":"경기도 과천시 갈현동 384-2번지 1층","indutype":"부동산업 - 부동산중개업","category":"other"}]},{"lat":"37.417359491","long":"126.97894496","imageIndex":17,"items":[{"name":"갈현꽃농원","tel":"031-504-1789","addr":"경기도 과천시 갈현동 421","indutype":"문화.취미 - 화원","category":"other"}]},{"lat":"37.415494692","long":"126.98039146","imageIndex":17,"items":[{"name":"감꽃화원","tel":"02-401-1570","addr":"경기도 과천시 갈현동 340-3","indutype":"문화.취미 - 화원","category":"other"},{"name":"안개꽃화원","tel":"02-404-7397","addr":"경기도 과천시 갈현동 340-3","indutype":"문화.취미 - 화원","category":"other"}]},{"lat":"37.415944539","long":"126.97717192","imageIndex":17,"items":[{"name":"경기화원","tel":"02-504-4159","addr":"경기도 과천시 갈현동 449번지","indutype":"문화.취미 - 화원","category":"other"},{"name":"늘푸른화원","tel":"02-507-7336","addr":"경기도 과천시 갈현동 449번지","indutype":"문화.취미 - 화원","category":"other"},{"name":"미래화원","tel":"02-502-5868","addr":"경기도 과천시 갈현동 449번지","indutype":"문화.취미 - 화원","category":"other"}]},{"lat":"37.411279052","long":"126.98697796","imageIndex":17,"items":[{"name":"경민화원","tel":"02-502-1530","addr":"경기도 과천시 갈현동 139-7","indutype":"문화.취미 - 화원","category":"other"},{"name":"푸른화원","tel":"02-504-4144","addr":"경기도 과천시 갈현동 139-7","indutype":"문화.취미 - 화원","category":"other"},{"name":"향기화원","tel":"02-503-4241","addr":"경기도 과천시 갈현동 139-7","indutype":"문화.취미 - 화원","category":"other"}]},{"lat":"37.407439887","long":"126.98144429","imageIndex":17,"items":[{"name":"경진농원","tel":"02-503-8777","addr":"경기도 과천시 갈현동 610-11 2호","indutype":"문화.취미 - 화원","category":"other"},{"name":"남천농원","tel":"02-503-8777","addr":"경기도 과천시 갈현동 610-11","indutype":"문화.취미 - 화원","category":"other"},{"name":"동건농원","tel":"02-507-1548","addr":"경기도 과천시 갈현동 610-11","indutype":"문화.취미 - 화원","category":"other"},{"name":"우리농장","tel":"02-503-8777","addr":"경기도 과천시 갈현동 610-11","indutype":"문화.취미 - 화원","category":"other"}]},{"lat":"37.414108467","long":"126.98899933","imageIndex":17,"items":[{"name":"곤지네화원","tel":"031-417-3066","addr":"경기도 과천시 갈현동 44-15번지","indutype":"문화.취미 - 화원","category":"other"}]},{"lat":"37.42136146","long":"126.98813942","imageIndex":17,"items":[{"name":"과천광고","tel":"02-503-6878","addr":"경기도 과천시 갈현동 640-3번지 1층 102호","indutype":"용역 서비스 - 종합용역","category":"other"}]},{"lat":"37.419691992","long":"126.97400756","imageIndex":17,"items":[{"name":"국군지휘통신사령부","tel":"02-6176-7940","addr":"경기도 과천시 갈현동 507번지","indutype":"유통업 비영리 - 구내매점(국가기관","category":"other"}]},{"lat":"37.412827217","long":"126.9779185","imageIndex":17,"items":[{"name":"그린화훼조경","tel":"02-502-1452","addr":"경기도 과천시 갈현동 558-1번지 103호","indutype":"문화.취미 - 화원","category":"other"},{"name":"아름다운화원","tel":"031-507-0708","addr":"경기도 과천시 갈현동 558-1번지","indutype":"문화.취미 - 화원","category":"other"}]},{"lat":"37.41600021","long":"126.98614105","imageIndex":17,"items":[{"name":"기향란원","tel":"02-502-2234","addr":"경기도 과천시 갈현동 19번지","indutype":"문화.취미 - 화원","category":"other"},{"name":"수란정(농원)","tel":"02-503-4289","addr":"경기도 과천시 갈현동 19번지","indutype":"문화.취미 - 화원","category":"other"}]},{"lat":"37.40971923","long":"126.98033671","imageIndex":17,"items":[{"name":"김포화원","tel":"02-504-4048","addr":"경기도 과천시 갈현동 75","indutype":"문화.취미 - 화원","category":"other"}]},{"lat":"37.416133683","long":"126.97686686","imageIndex":17,"items":[{"name":"다람농원","tel":"031-252-4439","addr":"경기도 과천시 갈현동 454-2번지","indutype":"문화.취미 - 화원","category":"other"},{"name":"설악농원","tel":"02-502-2290","addr":"경기도 과천시 갈현동 454-2번지","indutype":"문화.취미 - 화원","category":"other"}]},{"lat":"37.404051929","long":"126.98053041","imageIndex":17,"items":[{"name":"대영농원","tel":"02-504-6534","addr":"경기도 과천시 갈현동 294-5번지","indutype":"문화.취미 - 화원","category":"other"}]},{"lat":"37.411196174","long":"126.97689116","imageIndex":17,"items":[{"name":"동방","tel":"02-507-3588","addr":"경기도 과천시 갈현동 566","indutype":"문화.취미 - 화원","category":"other"},{"name":"동양화원","tel":"02-502-5559","addr":"경기도 과천시 갈현동 566","indutype":"문화.취미 - 화원","category":"other"}]},{"lat":"37.411890274","long":"126.97841581","imageIndex":17,"items":[{"name":"동백농원","tel":"02-502-7419","addr":"경기도 과천시 갈현동 567번지","indutype":"문화.취미 - 화원","category":"other"},{"name":"푸른농원","tel":"02-502-3892","addr":"경기도 과천시 갈현동 567번지","indutype":"문화.취미 - 화원","category":"other"},{"name":"한마음농원","tel":"02-507-7166","addr":"경기도 과천시 갈현동 567번지","indutype":"문화.취미 - 화원","category":"other"}]},{"lat":"37.415801667","long":"126.98400613","imageIndex":17,"items":[{"name":"동양세라믹","tel":"02-504-4241","addr":"경기도 과천시 갈현동 14-4번지","indutype":"건축자재 - 기타건축자재","category":"other"}]},{"lat":"37.41518849","long":"126.98113709","imageIndex":17,"items":[{"name":"동인화원","tel":"02-6081-8550","addr":"경기도 과천시 갈현동 352","indutype":"문화.취미 - 화원","category":"other"}]},{"lat":"37.40971872","long":"126.97780658","imageIndex":17,"items":[{"name":"동편농원","tel":"02-507-1045","addr":"경기도 과천시 갈현동 581-4","indutype":"문화.취미 - 화원","category":"other"}]},{"lat":"37.416522075","long":"126.98166762","imageIndex":17,"items":[{"name":"로이의정원","tel":"02-504-3458","addr":"경기도 과천시 갈현동 339-1","indutype":"문화.취미 - 화원","category":"other"}]},{"lat":"37.402890058","long":"126.98292512","imageIndex":17,"items":[{"name":"목하원예조경","tel":"02-3418-7215","addr":"경기도 과천시 갈현동 288-4번지","indutype":"문화.취미 - 화원","category":"other"}]},{"lat":"37.41618901","long":"126.98345251","imageIndex":17,"items":[{"name":"문화발전소","tel":"070-7688-7605","addr":"경기도 과천시 갈현동 13-13번지","indutype":"용역 서비스 - 종합용역","category":"other"}]},{"lat":"37.417026225","long":"126.979476","imageIndex":17,"items":[{"name":"물건연구소","tel":"070-4134-5381","addr":"경기도 과천시 갈현동 395-1번지 B동 2층","indutype":"주방용구 - 주방용식기","category":"other"}]},{"lat":"37.412051943","long":"126.97605499","imageIndex":17,"items":[{"name":"미소화원","tel":"031-3418-5223","addr":"경기도 과천시 갈현동 563","indutype":"문화.취미 - 화원","category":"other"}]},{"lat":"37.416691402","long":"126.97303723","imageIndex":17,"items":[{"name":"보리화원","tel":"02-3679-3633","addr":"경기도 과천시 갈현동 527-8번지","indutype":"문화.취미 - 화원","category":"other"}]},{"lat":"37.41594441","long":"126.97658452","imageIndex":17,"items":[{"name":"보아농원","tel":"02-502-0993","addr":"경기도 과천시 갈현동 454-9번지","indutype":"문화.취미 - 화원","category":"other"}]},{"lat":"37.412216102","long":"126.98700036","imageIndex":17,"items":[{"name":"성력화원","tel":"02-504-7001","addr":"경기도 과천시 갈현동 48-10번지","indutype":"문화.취미 - 화원","category":"other"}]},{"lat":"37.415134216","long":"126.9800075","imageIndex":17,"items":[{"name":"슬기농원","tel":"02-507-5743","addr":"경기도 과천시 갈현동 334-1","indutype":"문화.취미 - 화원","category":"other"},{"name":"예손농원","tel":"031-507-1730","addr":"경기도 과천시 갈현동 334-1번지","indutype":"문화.취미 - 화원","category":"other"},{"name":"자연농원","tel":"02-503-3869","addr":"경기도 과천시 갈현동 334-1","indutype":"문화.취미 - 화원","category":"other"},{"name":"초록미인","tel":"080-501-1001","addr":"경기도 과천시 갈현동 334-1","indutype":"문화.취미 - 화원","category":"other"}]},{"lat":"37.415828231","long":"126.98128375","imageIndex":17,"items":[{"name":"아이리스화원","tel":"02-442-2332","addr":"경기도 과천시 갈현동 339-4","indutype":"문화.취미 - 화원","category":"other"}]},{"lat":"37.407529447","long":"126.97864313","imageIndex":17,"items":[{"name":"에어컨","tel":"031-383-3031","addr":"경기도 과천시 갈현동 597-11번지","indutype":"회원제형태 - 기타4","category":"other"}]},{"lat":"37.413441088","long":"126.98436818","imageIndex":17,"items":[{"name":"영진사","tel":"02-502-4432","addr":"경기도 과천시 갈현동 23번지","indutype":"서적문구 - 출판 및 인쇄물","category":"other"}]},{"lat":"37.412827104","long":"126.9773876","imageIndex":17,"items":[{"name":"우리농원","tel":"02-507-5690","addr":"경기도 과천시 갈현동 559-1","indutype":"문화.취미 - 화원","category":"other"}]},{"lat":"37.41021605","long":"126.98842399","imageIndex":17,"items":[{"name":"은혜농원","tel":"02-507-0826","addr":"경기도 과천시 갈현동 126-2번지","indutype":"문화.취미 - 화원","category":"other"},{"name":"행복플라워","tel":"02-502-1680","addr":"경기도 과천시 갈현동 126-2번지","indutype":"문화.취미 - 화원","category":"other"}]},{"lat":"37.414944622","long":"126.97810983","imageIndex":17,"items":[{"name":"자연속으로","tel":"02-3418-2046","addr":"경기도 과천시 갈현동 440-1","indutype":"문화.취미 - 화원","category":"other"}]},{"lat":"37.409774642","long":"126.98914697","imageIndex":17,"items":[{"name":"정화원","tel":"02-507-9190","addr":"경기도 과천시 갈현동 133-2","indutype":"문화.취미 - 화원","category":"other"}]},{"lat":"37.415693514","long":"126.98380282","imageIndex":17,"items":[{"name":"주식회사 가제트","tel":"031-503-8426","addr":"경기도 과천시 갈현동 14-6번지","indutype":"가구 - 일반가구","category":"other"}]},{"lat":"37.447941888","long":"126.99833897","imageIndex":17,"items":[{"name":"찬우물공인중개사사무소","tel":"02-503-0088","addr":"경기도 과천시 갈현동 13-42번지 1층 1호","indutype":"부동산업 - 부동산중개업","category":"other"}]},{"lat":"37.413747536","long":"126.98505715","imageIndex":17,"items":[{"name":"초영제","tel":"02-502-3337","addr":"경기도 과천시 갈현동 29번지","indutype":"문화.취미 - 화원","category":"other"}]},{"lat":"37.416360074","long":"126.98269562","imageIndex":17,"items":[{"name":"콜벤","tel":"02-521-0165","addr":"경기도 과천시 갈현동 357-8번지 1층","indutype":"여행 - 기타교통수단","category":"other"}]},{"lat":"37.40199779","long":"126.98138937","imageIndex":17,"items":[{"name":"키움원예조경","tel":"031-911-6728","addr":"경기도 과천시 갈현동 284-3번지","indutype":"농업 - 비료,사료,종자","category":"other"}]},{"lat":"37.434273668","long":"126.99794433","imageIndex":17,"items":[{"name":"토박이2공인중개사사무소","tel":"02-504-4982","addr":"경기도 과천시 갈현동 381번지 원 하우스 103호","indutype":"부동산업 - 부동산중개업","category":"other"}]},{"lat":"37.41005244","long":"126.97950076","imageIndex":17,"items":[{"name":"팝플라워서경점","tel":"02-3678-8001","addr":"경기도 과천시 갈현동 311-2번지","indutype":"문화.취미 - 화원","category":"other"}]},{"lat":"37.416522912","long":"126.98699945","imageIndex":17,"items":[{"name":"하나로꽃화원","tel":"02-3679-2110","addr":"경기도 과천시 갈현동 17-5","indutype":"문화.취미 - 화원","category":"other"}]},{"lat":"37.411828443","long":"126.98539647","imageIndex":17,"items":[{"name":"한큐에어컨","tel":"031-915-7555","addr":"경기도 과천시 갈현동 56-1번지","indutype":"용역 서비스 - 기타용역서비스","category":"other"}]},{"lat":"37.413278044","long":"126.97949975","imageIndex":17,"items":[{"name":"혜정화원","tel":"070-8886-1011","addr":"경기도 과천시 갈현동 431-1번지","indutype":"문화.취미 - 화원","category":"other"}]},{"lat":"37.435463037","long":"126.99916456","imageIndex":17,"items":[{"name":"호반공인중개사사무소","tel":"02-504-4700","addr":"경기도 과천시 갈현동 13-42번지 2호","indutype":"부동산업 - 부동산중개업","category":"other"}]},{"lat":"37.411971261","long":"126.97791878","imageIndex":17,"items":[{"name":"훈이네화원","tel":"02-504-4776","addr":"경기도 과천시 갈현동 565-1","indutype":"문화.취미 - 화원","category":"other"}]}]