[{"lat":"37.696265823","long":"126.89441745","imageIndex":7,"items":[{"name":"고향천연꿀","tel":"","addr":"경기도 고양시 덕양구 대자동","indutype":"건강식품 - 기타건강식품","category":"food"}]},{"lat":"37.684128644","long":"126.89312007","imageIndex":7,"items":[{"name":"높빛농원","tel":"031-963-9218","addr":"경기도 고양시 덕양구 대자동 134-5번지","indutype":"음료식품 - 농·축·수산품","category":"food"}]},{"lat":"37.680848661","long":"126.89261477","imageIndex":7,"items":[{"name":"대성상회","tel":"031-963-9231","addr":"경기도 고양시 덕양구 대자동 294-5번지","indutype":"음료식품 - 기타음료식품","category":"food"}]},{"lat":"37.69929374","long":"126.87697366","imageIndex":7,"items":[{"name":"동학식품 서북지사","tel":"031-979-9979","addr":"경기도 고양시 덕양구 대자동 1006-6번지","indutype":"음료식품 - 기타음료식품","category":"food"}]},{"lat":"37.711485782","long":"126.88778355","imageIndex":7,"items":[{"name":"묘한커피","tel":"031-964-9806","addr":"경기도 고양시 덕양구 대자동 620번지","indutype":"음료식품 - 제과점","category":"food"},{"name":"묘한커피","tel":"02-1111-1111","addr":"경기도 고양시 덕양구 대자동 620번지","indutype":"음료식품 - 제과점","category":"food"}]},{"lat":"37.688902524","long":"126.87408885","imageIndex":7,"items":[{"name":"벽제농원정육점","tel":"031-963-3339","addr":"경기도 고양시 덕양구 대자동 1150-14번지","indutype":"음료식품 - 정육점","category":"food"}]},{"lat":"37.672268438","long":"126.8894197","imageIndex":7,"items":[{"name":"삼송소매점","tel":"","addr":"경기도 고양시 덕양구 대자동 207번지","indutype":"음료식품 - 기타음료식품","category":"food"}]},{"lat":"37.695323427","long":"126.89842127","imageIndex":7,"items":[{"name":"선미 건어물","tel":"","addr":"경기도 고양시 덕양구 대자동 486-28번지 대창홈타운","indutype":"음료식품 - 농·축·수산품","category":"food"}]},{"lat":"37.677825808","long":"126.88777889","imageIndex":7,"items":[{"name":"예원꽃집","tel":"000-1544-4054","addr":"경기도 고양시 덕양구 대자동 273-4번지","indutype":"음료식품 - 기타음료식품","category":"food"}]},{"lat":"37.671044556","long":"126.89091774","imageIndex":7,"items":[{"name":"주식회사 씨에이치","tel":"031-906-0519","addr":"경기도 고양시 덕양구 대자동 233-10번지","indutype":"음료식품 - 기타음료식품","category":"food"}]},{"lat":"37.70762558","long":"126.87506574","imageIndex":7,"items":[{"name":"주식회사 피플월드(People World)","tel":"031-962-0746","addr":"경기도 고양시 덕양구 대자동 824-32번지","indutype":"음료식품 - 농·축·수산품","category":"food"}]},{"lat":"37.677323176","long":"126.88975207","imageIndex":7,"items":[{"name":"천상","tel":"031-1111-1111","addr":"경기도 고양시 덕양구 대자동 277-1번지","indutype":"음료식품 - 기타음료식품","category":"food"}]},{"lat":"37.712685454","long":"126.889222","imageIndex":7,"items":[{"name":"커피킹","tel":"032-962-9486","addr":"경기도 고양시 덕양구 대자동 613-1번지","indutype":"음료식품 - 기타음료식품","category":"food"}]},{"lat":"37.7079077","long":"126.87769621","imageIndex":7,"items":[{"name":"한씨네","tel":"","addr":"경기도 고양시 덕양구 대자동 825-3번지","indutype":"음료식품 - 농·축·수산품","category":"food"}]},{"lat":"37.684965756","long":"126.89227991","imageIndex":7,"items":[{"name":"희진상회","tel":"031-963-9530","addr":"경기도 고양시 덕양구 대자동 390-4번지","indutype":"음료식품 - 기타음료식품","category":"food"}]}]