[{"lat":"37.247302662","long":"127.05143714","imageIndex":17,"items":[{"name":"(주)네스코","tel":"031-695-6999","addr":"경기도 수원시 영통구 신동 486 디지털엠파이어2 102-비01호","indutype":"전기제품 - 기타전기제품","category":"other"},{"name":"(주)암택","tel":"031-695-5520","addr":"경기도 수원시 영통구 신동 486 디지털엠파이어2 102-603","indutype":"전기제품 - 기타전기제품","category":"other"},{"name":"(주)정화나노엔지니어링","tel":"031-695-7501","addr":"경기도 수원시 영통구 신동 486번지 디지털엠파이어2 102동 1001호","indutype":"전기제품 - 기타전기제품","category":"other"},{"name":"(주)정화나노엔지니어링/원격지","tel":"031-695-7503","addr":"경기도 수원시 영통구 신동 486번지 디지털엠파이어2 102동 1001호","indutype":"기타 - 기타 전문점","category":"other"},{"name":"(주)지엘","tel":"031-695-7755","addr":"경기도 수원시 영통구 신동 486번지 디지털엠파이어II 102동 515호","indutype":"건축자재 - 조명기구","category":"other"},{"name":"(주)태림테크놀로지","tel":"031-695-5730","addr":"경기도 수원시 영통구 신동 486번지 디지털엠파이어II 102동 813호","indutype":"전기제품 - 기타전기제품","category":"other"},{"name":"다빛솔루션/원격지","tel":"031-695-7695","addr":"경기도 수원시 영통구 신동 486번지 디지털엠파이어II 102동 413호","indutype":"기타 - 기타 전문점","category":"other"},{"name":"시원주식회사","tel":"031-695-5502","addr":"경기도 수원시 영통구 신동 486번지 디지털엠파이어2 102동 914호","indutype":"건축자재 - 조명기구","category":"other"},{"name":"엠에스텍","tel":"031-695-5785","addr":"경기도 수원시 영통구 신동 486번지 디지털엠파이어2 102동 102호","indutype":"기타 - 기타 전문점","category":"other"},{"name":"주식회사 피앤디시스템","tel":"","addr":"경기도 수원시 영통구 신동 486번지 디지털엠파이어2 102동 810호","indutype":"주방용구 - 주방용구","category":"other"},{"name":"주식회사그리나","tel":"","addr":"경기도 수원시 영통구 신동 486번지 디지털엠파이어2 102동 910호","indutype":"전기제품 - 기타전기제품","category":"other"},{"name":"주식회사그리나/원격지","tel":"070-8225-3141","addr":"경기도 수원시 영통구 신동 486번지 디지털엠파이어2 102동 910호","indutype":"기타 - 기타 전문점","category":"other"},{"name":"케이엠코리아 주식회사","tel":"031-695-7805","addr":"경기도 수원시 영통구 신동 486번지 디지털엠파이어2 102동 807호","indutype":"유통업 영리 - 기타유통업","category":"other"}]},{"lat":"37.247474314","long":"127.05031016","imageIndex":17,"items":[{"name":"(주)비엔에프","tel":"031-695-6430","addr":"경기도 수원시 영통구 신동 486번지 디지털엠파이어2 101동 409호","indutype":"기타 - 기타 전문점","category":"other"},{"name":"(주)옵티웨어","tel":"031-695-7664","addr":"경기도 수원시 영통구 신동 486번지 디지털엠파이어2 101동 801호","indutype":"용역 서비스 - 소프트웨어","category":"other"},{"name":"(주)옵티웨어/원격지","tel":"031-695-7664","addr":"경기도 수원시 영통구 신동 486번지 디지털엠파이어2 101동 801호","indutype":"기타 - 기타 전문점","category":"other"},{"name":"(주)효석라이팅","tel":"031-695-6521","addr":"경기도 수원시 영통구 신동 486번지 디지털엠파이어2 101동 1202호","indutype":"건축자재 - 조명기구","category":"other"},{"name":"나노포르테","tel":"031-695-6931","addr":"경기도 수원시 영통구 신동 486번지 디지털엠파이어2 101동 311호","indutype":"용역 서비스 - 기타용역서비스","category":"other"},{"name":"성인기획칼라컴","tel":"031-695-6350","addr":"경기도 수원시 영통구 신동 486번지 디지털 엠파이어 2 101동1002호","indutype":"용역 서비스 - 종합용역","category":"other"},{"name":"우리전산데이터서비스","tel":"031-203-0245","addr":"경기도 수원시 영통구 신동 486번지 디지털엠파이어2 101동 401호","indutype":"용역 서비스 - 사무서비스","category":"other"},{"name":"인싱크이레이터총판","tel":"","addr":"경기도 수원시 영통구 신동 486번지 디지털엠파이어2 101동 311호","indutype":"주방용구 - 주방용구","category":"other"},{"name":"잉크포유(ink4u)","tel":"031-695-5825","addr":"경기도 수원시 영통구 신동 486번지 디지털엠파이어2 101동 207호","indutype":"사무통신 - 기타 사무용품","category":"other"},{"name":"제이와이티","tel":"031-111-1111","addr":"경기도 수원시 영통구 신동 486번지 디지털엠파이어2 101동 709호","indutype":"전기제품 - 기타전기제품","category":"other"},{"name":"주식회사 루츠","tel":"031-695-6222","addr":"경기도 수원시 영통구 신동 486번지 디지털엠파이어II 101동 1309호","indutype":"전기제품 - 기타전기제품","category":"other"},{"name":"주식회사 에이치엠모바일","tel":"031-462-5010","addr":"경기도 수원시 영통구 신동 486번지 디지털엠파이어2 101동 106호","indutype":"사무통신 - 통신기기","category":"other"},{"name":"테트라테크/원격지","tel":"031-695-6222","addr":"경기도 수원시 영통구 신동 486번지 디지털엠파이어2 101동 1309호","indutype":"기타 - 기타 전문점","category":"other"},{"name":"피앤피에드텍","tel":"031-695-6868","addr":"경기도 수원시 영통구 신동 486번지 디지털엠파이어II 101동 911호","indutype":"농업 - 비료,사료,종자","category":"other"}]},{"lat":"37.248348949","long":"127.04869894","imageIndex":17,"items":[{"name":"(주)씨에스테크놀로지","tel":"031-205-3994","addr":"경기도 수원시 영통구 신동 480-5번지","indutype":"기타 - 기타 전문점","category":"other"}]},{"lat":"37.246990487","long":"127.04291616","imageIndex":17,"items":[{"name":"(주)아이플러스커뮤니케이션","tel":"031-225-0139","addr":"경기도 수원시 영통구 신동 933-13번지 4층","indutype":"문화.취미 - 티켓","category":"other"},{"name":"에코스피씨(에코스PC)","tel":"070-7136-5734","addr":"경기도 수원시 영통구 신동 933-13번지 3층 전체","indutype":"수리서비스 - 사무·통신기기수리","category":"other"}]},{"lat":"37.247384125","long":"127.05052425","imageIndex":17,"items":[{"name":"(주)에이아이티","tel":"031-695-7166","addr":"경기도 수원시 영통구 신동 486번지 디키털엠파이어 2103동 407호","indutype":"전기제품 - 기타전기제품","category":"other"},{"name":"(주)에이아이티/원격지","tel":"031-695-7166","addr":"경기도 수원시 영통구 신동 486번지 디지컬엠파이어 2103동 407호","indutype":"기타 - 기타 전문점","category":"other"},{"name":"(주)에이치에스엠엔조이워터","tel":"053-811-3101","addr":"경기도 수원시 영통구 신동 486번지 디지털엠파이어2 103동지하1층비03호","indutype":"레져용품 - 스포츠·레져용품","category":"other"},{"name":"디지털엠파이어II공인중개사사무소","tel":"031-204-3000","addr":"경기도 수원시 영통구 신동 486번지 디지털엠파이어 2101동 101-1호","indutype":"용역 서비스 - 부동산 중개·임대","category":"other"},{"name":"마렉스","tel":"031-695-6305","addr":"경기도 수원시 영통구 신동 486번지 디지털엠파이어2 103동 지하1층 110호 디지털엠파이어2 제비","indutype":"레져용품 - 스포츠·레져용품","category":"other"},{"name":"수디자인커뮤니케이션","tel":"031-255-0224","addr":"경기도 수원시 영통구 신동 486번지 외1필지 디지털엠파이어2 103동 705호","indutype":"서적문구 - 출판 및 인쇄물","category":"other"},{"name":"씨엠와이코리아/원격지","tel":"","addr":"경기도 수원시 영통구 신동 486번지 외1필지디지털엠파이어II 101동 206호","indutype":"기타 - 기타 전문점","category":"other"},{"name":"엘림보호작업장","tel":"031-695-6530","addr":"경기도 수원시 영통구 신동 486번지 디지털엠파이어2 101동 706 ,711,712호","indutype":"서적문구 - 출판 및 인쇄물","category":"other"},{"name":"예방치과의 수호천사 엔젤","tel":"031-695-7842","addr":"경기도 수원시 영통구 신동 486번지","indutype":"신변잡화 - 기타잡화","category":"other"},{"name":"위더스세무회계","tel":"031-695-6500","addr":"경기도 수원시 영통구 신동 486번지 디지털엠파이어 2104동 205호","indutype":"용역 서비스 - 법률회계서비스(개인)","category":"other"},{"name":"주식회사리콘","tel":"031-695-6136","addr":"경기도 수원시 영통구 신동 486번지 디지털엠파이어 2103동 1414호","indutype":"전기제품 - 기타전기제품","category":"other"},{"name":"행복을만드는집","tel":"031-695-7616","addr":"경기도 수원시 영통구 신동 486번지 디지털엠파이어2 103동402~404호","indutype":"회원제형태 - 사무서비스","category":"other"}]},{"lat":"37.251633152","long":"127.05927367","imageIndex":17,"items":[{"name":"(주)조은샘교육","tel":"031-695-5355","addr":"경기도 수원시 영통구 신동 361-2번지","indutype":"사무통신 - 기타 사무용품","category":"other"}]},{"lat":"37.246852512","long":"127.05053519","imageIndex":17,"items":[{"name":"(주)하나로티알","tel":"031-695-6565","addr":"경기도 수원시 영통구 신동 486번지 디지털엠파이어2 103동 1510호","indutype":"서적문구 - 과학기자재","category":"other"},{"name":"건축사사무소 청송","tel":"031-695-7891","addr":"경기도 수원시 영통구 신동 486번지 디지털엠파이어II 103동 1310호","indutype":"용역 서비스 - 사무서비스","category":"other"},{"name":"건축사사무소토방","tel":"031-695-6646","addr":"경기도 수원시 영통구 신동 486번지 디지털엠파이어2 103동 502호","indutype":"용역 서비스 - 사무서비스","category":"other"},{"name":"나노파이오니아(Nano Pioneer)","tel":"","addr":"경기도 수원시 영통구 신동 486번지 디지털엠파이어2 103동 1009호","indutype":"전기제품 - 기타전기제품","category":"other"},{"name":"넷플러스","tel":"031-695-6142","addr":"경기도 수원시 영통구 신동 486번지 디지털엠파이어2 103동 808호","indutype":"용역 서비스 - 소프트웨어","category":"other"},{"name":"뉴젠텍","tel":"031-8031-5058","addr":"경기도 수원시 영통구 신동 486번지 디지털엠파이어2 103동 601호","indutype":"전기제품 - 가전제품","category":"other"},{"name":"대일상사","tel":"031-695-5990","addr":"경기도 수원시 영통구 신동 486번지 디지털엠파이어2 103동 1110호","indutype":"서적문구 - 과학기자재","category":"other"},{"name":"동일사","tel":"031-200-8484","addr":"경기도 수원시 영통구 신동 486번지 디지털엠파이어2 103동 110호","indutype":"서적문구 - 출판 및 인쇄물","category":"other"},{"name":"드림오피스수원신동점","tel":"031-695-8250","addr":"경기도 수원시 영통구 신동 486번지 디지털엠파이어2 103동 B06호","indutype":"사무통신 - 기타 사무용품","category":"other"},{"name":"디자인시티","tel":"031-695-5670","addr":"경기도 수원시 영통구 신동 486번지 디지털엠파이어2 103동 1410호","indutype":"용역 서비스 - 종합용역","category":"other"},{"name":"마음한송이","tel":"02-1234-1234","addr":"경기도 수원시 영통구 신동 486번지 디지털엠파이어2 103동 10층 3호","indutype":"문화.취미 - 화원","category":"other"},{"name":"미르테크(주)/원격지","tel":"031-695-6130","addr":"경기도 수원시 영통구 신동 486번지 디지털엠파이어2 103동 1010호","indutype":"기타 - 기타 전문점","category":"other"},{"name":"비티시스템(BTSYSTEM)","tel":"031-695-7595","addr":"경기도 수원시 영통구 신동 486번지 디지털엠파이어Ⅱ 103동 1111호","indutype":"전기제품 - 기타전기제품","category":"other"},{"name":"세미피온","tel":"031-202-8353","addr":"경기도 수원시 영통구 신동 486번지 디지털엠파이어2 103동 504호","indutype":"전기제품 - 기타전기제품","category":"other"},{"name":"세미피온/원격지","tel":"031-695-8450","addr":"경기도 수원시 영통구 신동 486번지 디지털엠파이어2 103동 504호","indutype":"기타 - 기타 전문점","category":"other"},{"name":"싸이스트 주식회사","tel":"031-546-8799","addr":"경기도 수원시 영통구 신동 486번지 디지털엠파이어2 103동 5층 13호","indutype":"서적문구 - 과학기자재","category":"other"},{"name":"에이치에스글로벌(주)","tel":"031-695-6627","addr":"경기도 수원시 영통구 신동 486번지 디지털엠파이어2 103동 308호","indutype":"회원제형태 - 기타4","category":"other"},{"name":"엔엠퍼니처(N/M FURNITURE)","tel":"031-695-6829","addr":"경기도 수원시 영통구 신동 486번지 디지털엠파이어2 103동 204호","indutype":"가구 - 기타가구","category":"other"},{"name":"엠디자인","tel":"031-695-5737","addr":"경기도 수원시 영통구 신동 486번지 디지털엠파이어II 103동 602호","indutype":"용역 서비스 - 종합용역","category":"other"},{"name":"오엔유통","tel":"02-482-4999","addr":"경기도 수원시 영통구 신동 486번지 디지털엠파이어2 103동 503호","indutype":"신변잡화 - 기타잡화","category":"other"},{"name":"주식회사 아이씨에이","tel":"","addr":"경기도 수원시 영통구 신동 486번지 디지털엠파이어2 103동 811호","indutype":"용역 서비스 - 사무서비스","category":"other"},{"name":"주식회사 아이젠소프트","tel":"031-695-8199","addr":"경기도 수원시 영통구 신동 486번지 디지털엠파이어2 103동 914호","indutype":"용역 서비스 - 소프트웨어","category":"other"},{"name":"주식회사 에이치플러스","tel":"031-695-5533","addr":"경기도 수원시 영통구 신동 486번지 디지털엠파이어2 103동 805호","indutype":"전기제품 - 냉열기기","category":"other"},{"name":"주식회사대일","tel":"031-695-5990","addr":"경기도 수원시 영통구 신동 486번지 디지털엠파이어2 103동 1110호","indutype":"서적문구 - 과학기자재","category":"other"},{"name":"주식회사태림이엔지","tel":"","addr":"경기도 수원시 영통구 신동 486번지 디지털엠파이어2 103동 1403호","indutype":"용역 서비스 - 종합용역","category":"other"},{"name":"태영산업","tel":"02-6679-7374","addr":"경기도 수원시 영통구 신동 486번지 디지털엠파이어2 103동 1409호","indutype":"기타 - 기계공구","category":"other"},{"name":"풍경좋다","tel":"031-221-8801","addr":"경기도 수원시 영통구 신동 486번지 디지털엠파이어2 103동 201호","indutype":"서적문구 - 출판 및 인쇄물","category":"other"},{"name":"플러스테크","tel":"031-695-5828","addr":"경기도 수원시 영통구 신동 486번지 디지털엠파이어2 103동 310호","indutype":"사무통신 - 컴퓨터","category":"other"},{"name":"필트라/원격지","tel":"031-695-6544","addr":"경기도 수원시 영통구 신동 486번지 디지털엠파이어2 103동 1314호","indutype":"기타 - 기타 전문점","category":"other"},{"name":"하나로티알/원격지","tel":"031-695-6565","addr":"경기도 수원시 영통구 신동 486번지 디지털엠파이어II 103동 1510호","indutype":"기타 - 기타 전문점","category":"other"}]},{"lat":"37.251660428","long":"127.05875519","imageIndex":17,"items":[{"name":"GS25삼성애니콜점","tel":"02-2006-2485","addr":"경기도 수원시 영통구 신동 384-33번지","indutype":"유통업 영리 - 편 의 점","category":"other"}]},{"lat":"37.248042642","long":"127.04858605","imageIndex":17,"items":[{"name":"GS25수원삼성로점","tel":"","addr":"경기도 수원시 영통구 신동 498-6번지","indutype":"유통업 영리 - 편 의 점","category":"other"}]},{"lat":"37.249156301","long":"127.05716411","imageIndex":17,"items":[{"name":"GS25수원신동점","tel":"02-2006-2118","addr":"경기도 수원시 영통구 신동 340-13번지 101호","indutype":"유통업 영리 - 편 의 점","category":"other"}]},{"lat":"37.248688477","long":"127.05558581","imageIndex":17,"items":[{"name":"GS25신동삼성점","tel":"02-2006-2485","addr":"경기도 수원시 영통구 신동 334-18번지","indutype":"유통업 영리 - 편 의 점","category":"other"}]},{"lat":"37.249210129","long":"127.05767135","imageIndex":17,"items":[{"name":"㈜트래블어드바이저","tel":"070-4007-0127","addr":"경기도 수원시 영통구 신동 341번지 스타빌딩 403호","indutype":"여행 - 관광여행","category":"other"},{"name":"다담공인번역행정사사무소","tel":"031-203-3338","addr":"경기도 수원시 영통구 신동 341번지 스타빌딩 4층 602호","indutype":"용역 서비스 - 법률회계서비스(개인)","category":"other"},{"name":"엠피테크주식회사","tel":"031-548-1253","addr":"경기도 수원시 영통구 신동 341번지 205호","indutype":"서적문구 - 과학기자재","category":"other"}]},{"lat":"37.24973801","long":"127.04472102","imageIndex":17,"items":[{"name":"갤럭시티프라자","tel":"031-225-5757","addr":"경기도 수원시 영통구 신동 534번지","indutype":"용역 서비스 - 부동산 중개·임대","category":"other"},{"name":"아추어","tel":"031-111-1111","addr":"경기도 수원시 영통구 신동 534번지 돼지네","indutype":"용역 서비스 - 기타용역서비스","category":"other"},{"name":"윈도우갤러리(Window Gallery)","tel":"031-205-2056","addr":"경기도 수원시 영통구 신동 534번지 2층","indutype":"건축자재 - 기타건축자재","category":"other"}]},{"lat":"37.247907154","long":"127.04944256","imageIndex":17,"items":[{"name":"경기계량증명업소","tel":"031-202-6057","addr":"경기도 수원시 영통구 신동 503-18번지","indutype":"유통업 영리 - 편 의 점","category":"other"},{"name":"경기계량증명업소","tel":"031-202-6057","addr":"경기도 수원시 영통구 신동 503-18번지","indutype":"용역 서비스 - 사무서비스","category":"other"},{"name":"삼성에어컨","tel":"","addr":"경기도 수원시 영통구 신동 503-18번지","indutype":"용역 서비스 - 기타용역서비스","category":"other"}]},{"lat":"37.247603066","long":"127.04327715","imageIndex":17,"items":[{"name":"고고 일러스트","tel":"","addr":"경기도 수원시 영통구 신동 934-9번지 101호","indutype":"용역 서비스 - 사무서비스","category":"other"}]},{"lat":"37.247909321","long":"127.04355909","imageIndex":17,"items":[{"name":"나도꽃 스튜디오 (Nadokkot Studio)","tel":"031-000-0000","addr":"경기도 수원시 영통구 신동 934-11번지","indutype":"문화.취미 - 화원","category":"other"}]},{"lat":"37.245909218","long":"127.04300575","imageIndex":17,"items":[{"name":"뉴니카","tel":"","addr":"경기도 수원시 영통구 신동 939번지 래미안영통마크원1단지 103동 204호","indutype":"신변잡화 - 액세서리","category":"other"},{"name":"대한민국세탁1번가","tel":"031-205-3582","addr":"경기도 수원시 영통구 신동 939번지 래미안영통마크원1단지 102호","indutype":"수리서비스 - 세탁소","category":"other"}]},{"lat":"37.249936089","long":"127.04513816","imageIndex":17,"items":[{"name":"다복전기조명","tel":"031-204-5600","addr":"경기도 수원시 영통구 신동 556-6번지 1층","indutype":"전기제품 - 기타전기제품","category":"other"}]},{"lat":"37.248764057","long":"127.04703106","imageIndex":17,"items":[{"name":"대흥천막","tel":"031-206-3485","addr":"경기도 수원시 영통구 신동 479-9번지","indutype":"직물 - 카페트,커튼,천막,지물","category":"other"},{"name":"보드리아","tel":"031-202-1896","addr":"경기도 수원시 영통구 신동 479-9번지 일진기계","indutype":"직물 - 침구·수예점","category":"other"},{"name":"보드리아","tel":"031-202-1896","addr":"경기도 수원시 영통구 신동 479-9번지 일진기계","indutype":"직물 - 침구·수예점","category":"other"}]},{"lat":"37.246520858","long":"127.04602665","imageIndex":17,"items":[{"name":"더램블(the ramble)","tel":"","addr":"경기도 수원시 영통구 신동 940번지 래미안영통마크원2단지 109동 701호","indutype":"신변잡화 - 가방","category":"other"},{"name":"베리캐스트(Varycast)","tel":"","addr":"경기도 수원시 영통구 신동 940번지 래미안영통마크원2단지 201동 303호","indutype":"용역 서비스 - 종합용역","category":"other"},{"name":"삼성세탁소","tel":"031-202-0880","addr":"경기도 수원시 영통구 신동 940번지 래미안영통마크원단지내상가일부 105호","indutype":"수리서비스 - 세탁소","category":"other"},{"name":"스칼렛헤어살롱","tel":"031-203-8641","addr":"경기도 수원시 영통구 신동 940번지 레미안영통마크원2단지 215동 1층 107호","indutype":"회원제형태 - 기타4","category":"other"},{"name":"신동래미안공인중개사사무소","tel":"031-252-1000","addr":"경기도 수원시 영통구 신동 940번지 래미안영통마크원2단지 216동 112호","indutype":"용역 서비스 - 부동산 중개·임대","category":"other"},{"name":"쏜공방","tel":"","addr":"경기도 수원시 영통구 신동 940번지 래미안영통마크원2단지 205동 902호","indutype":"신변잡화 - 액세서리","category":"other"},{"name":"아내의 정원","tel":"","addr":"경기도 수원시 영통구 신동 940번지 래미안영통마크원2단지 215동 101호","indutype":"문화.취미 - 화원","category":"other"}]},{"lat":"37.246323294","long":"127.04416686","imageIndex":17,"items":[{"name":"디아쥬","tel":"031-111-1111","addr":"경기도 수원시 영통구 신동 938-1번지","indutype":"신변잡화 - 기타잡화","category":"other"},{"name":"르스와송","tel":"","addr":"경기도 수원시 영통구 신동 938-1번지 1층","indutype":"신변잡화 - 기타잡화","category":"other"},{"name":"베일리수 동탄점","tel":"031-204-1156","addr":"경기도 수원시 영통구 신동 938-1번지 신동빌딩 2층","indutype":"광학제품 - 사진관","category":"other"},{"name":"별별공방","tel":"070-4845-4545","addr":"경기도 수원시 영통구 신동 938-1번지","indutype":"문화.취미 - 문화취미기타","category":"other"},{"name":"브리앙띠","tel":"070-4545-4242","addr":"경기도 수원시 영통구 신동 938-1번지 1층","indutype":"의류 - 정장","category":"other"},{"name":"수원리븐패밀리","tel":"031-000-0000","addr":"경기도 수원시 영통구 신동 938-1번지 2층","indutype":"광학제품 - 사진관","category":"other"},{"name":"슬로우.니트","tel":"070-7645-1616","addr":"경기도 수원시 영통구 신동 938-1번지 1층","indutype":"문화.취미 - 문화취미기타","category":"other"},{"name":"어떤순간","tel":"","addr":"경기도 수원시 영통구 신동 938-1번지","indutype":"문화.취미 - 문화취미기타","category":"other"},{"name":"오월의 작약","tel":"031-111-1111","addr":"경기도 수원시 영통구 신동 938-1번지 1층","indutype":"문화.취미 - 화원","category":"other"},{"name":"우드살롱","tel":"070-6524-6857","addr":"경기도 수원시 영통구 신동 938-1번지 1층","indutype":"문화.취미 - 문화취미기타","category":"other"}]},{"lat":"37.249597729","long":"127.05733349","imageIndex":17,"items":[{"name":"디자인잇다","tel":"","addr":"경기도 수원시 영통구 신동 340-22번지","indutype":"건축자재 - 인테리어전문","category":"other"}]},{"lat":"37.248990154","long":"127.0447206","imageIndex":17,"items":[{"name":"딥비아트스튜디오 (deep-b art studio)","tel":"070-4922-1261","addr":"경기도 수원시 영통구 신동 930번지","indutype":"문화.취미 - 화랑","category":"other"}]},{"lat":"37.248125607","long":"127.0434465","imageIndex":17,"items":[{"name":"마욜0503","tel":"070-8816-8255","addr":"경기도 수원시 영통구 신동 925-3번지 101호","indutype":"문화.취미 - 문화취미기타","category":"other"}]},{"lat":"37.248598474","long":"127.05536033","imageIndex":17,"items":[{"name":"마이다스컴","tel":"031-215-6600","addr":"경기도 수원시 영통구 신동 334-16번지 406호","indutype":"사무통신 - 컴퓨터","category":"other"}]},{"lat":"37.246924842","long":"127.04991533","imageIndex":17,"items":[{"name":"메리트사무용가구","tel":"031-236-2324","addr":"경기도 수원시 영통구 신동 486번지 디지털엠파이어2 104동 112호","indutype":"가구 - 기타가구","category":"other"},{"name":"유미스킨앤바디","tel":"031-695-7850","addr":"경기도 수원시 영통구 신동 486번지 디지털엠파이어2 104동 303호","indutype":"회원제형태 - 기타4","category":"other"}]},{"lat":"37.247936274","long":"127.04378453","imageIndex":17,"items":[{"name":"모이(신동)","tel":"02-000-0000","addr":"경기도 수원시 영통구 신동 934번지 101호","indutype":"의류 - 정장","category":"other"}]},{"lat":"37.247710469","long":"127.0453398","imageIndex":17,"items":[{"name":"모코코","tel":"","addr":"경기도 수원시 영통구 신동 936-6번지 105호","indutype":"의류 - 정장","category":"other"}]},{"lat":"37.247242596","long":"127.04344602","imageIndex":17,"items":[{"name":"문플러스","tel":"031-203-0704","addr":"경기도 수원시 영통구 신동 934-6번지 상가 1층 101호","indutype":"건축자재 - 인테리어전문","category":"other"}]},{"lat":"37.247905772","long":"127.05283514","imageIndex":17,"items":[{"name":"미니스톱신동센터점","tel":"031-1577-9621","addr":"경기도 수원시 영통구 신동 398-19번지 104~107호","indutype":"유통업 영리 - 편 의 점","category":"other"},{"name":"신동우편취급소","tel":"031-203-0213","addr":"경기도 수원시 영통구 신동 398-19번지","indutype":"용역 서비스 - 공공요금대행서비스/소","category":"other"}]},{"lat":"37.248459309","long":"127.0424999","imageIndex":17,"items":[{"name":"미딕스","tel":"","addr":"경기도 수원시 영통구 신동 924-1번지 401호","indutype":"용역 서비스 - 기타용역서비스","category":"other"},{"name":"살로토(salotto) 수원","tel":"031-393-8788","addr":"경기도 수원시 영통구 신동 924-1번지 1층","indutype":"의류 - 정장","category":"other"}]},{"lat":"37.24954378","long":"127.05708549","imageIndex":17,"items":[{"name":"믿음세탁소","tel":"031-203-5256","addr":"경기도 수원시 영통구 신동 340-5번지 1동 101호","indutype":"수리서비스 - 세탁소","category":"other"}]},{"lat":"37.249543359","long":"127.05799846","imageIndex":17,"items":[{"name":"벤틱","tel":"031-8077-2099","addr":"경기도 수원시 영통구 신동 343-3번지 아람빌딩 704호","indutype":"레져용품 - 스포츠·레져용품","category":"other"}]},{"lat":"37.247799451","long":"127.04836048","imageIndex":17,"items":[{"name":"삼성로 너싱케어","tel":"031-213-6690","addr":"경기도 수원시 영통구 신동 503-59번지","indutype":"기타의료기관 - 기타의료기관 및 기타","category":"other"}]},{"lat":"37.247716659","long":"127.05258705","imageIndex":17,"items":[{"name":"서경산업","tel":"031-206-2485","addr":"경기도 수원시 영통구 신동 398-21번지","indutype":"신변잡화 - 기타잡화","category":"other"}]},{"lat":"37.247161793","long":"127.04258939","imageIndex":17,"items":[{"name":"소담꽃,향","tel":"031-308-2791","addr":"경기도 수원시 영통구 신동 929-5번지 101호","indutype":"문화.취미 - 화원","category":"other"},{"name":"에스엠 블루밍","tel":"031-203-8985","addr":"경기도 수원시 영통구 신동 929-5번지 102호","indutype":"주방용구 - 주방용구","category":"other"}]},{"lat":"37.248042772","long":"127.04824791","imageIndex":17,"items":[{"name":"수일공업","tel":"031-204-8989","addr":"경기도 수원시 영통구 신동 498-5번지 1층","indutype":"기타 - 기계공구","category":"other"}]},{"lat":"37.248656221","long":"127.04625329","imageIndex":17,"items":[{"name":"신동목재","tel":"031-282-0025","addr":"경기도 수원시 영통구 신동 532-19번지","indutype":"건축자재 - 기타건축자재","category":"other"}]},{"lat":"37.24829592","long":"127.04594877","imageIndex":17,"items":[{"name":"썬하우징","tel":"031-233-7669","addr":"경기도 수원시 영통구 신동 936번지 2층 상가전체","indutype":"건축자재 - 인테리어전문","category":"other"}]},{"lat":"37.247377119","long":"127.04524945","imageIndex":17,"items":[{"name":"씨유신동래미안점","tel":"070-8870-2082","addr":"경기도 수원시 영통구 신동 937번지 상가 1층 104호","indutype":"유통업 영리 - 편 의 점","category":"other"}]},{"lat":"37.249575437","long":"127.04580297","imageIndex":17,"items":[{"name":"씨유신동벌터점","tel":"070-8870-2223","addr":"경기도 수원시 영통구 신동 531-8번지 1층 102호","indutype":"유통업 영리 - 편 의 점","category":"other"}]},{"lat":"37.249243244","long":"127.0423876","imageIndex":17,"items":[{"name":"씨유신동빌리지점","tel":"031-203-9888","addr":"경기도 수원시 영통구 신동 921-1번지 101호","indutype":"유통업 영리 - 편 의 점","category":"other"}]},{"lat":"37.248850798","long":"127.0552816","imageIndex":17,"items":[{"name":"씨유신동삼성점","tel":"031-273-4448","addr":"경기도 수원시 영통구 신동 396-20번지","indutype":"유통업 영리 - 편 의 점","category":"other"}]},{"lat":"37.249241883","long":"127.04627617","imageIndex":17,"items":[{"name":"아셀코리아","tel":"","addr":"경기도 수원시 영통구 신동 531-21번지 3층","indutype":"서적문구 - 출판 및 인쇄물","category":"other"}]},{"lat":"37.248187837","long":"127.04583599","imageIndex":17,"items":[{"name":"알엑스컴퍼니(RX company)","tel":"031-000-0000","addr":"경기도 수원시 영통구 신동 936-1번지 101호","indutype":"레져용품 - 스포츠·레져용품","category":"other"}]},{"lat":"37.248293077","long":"127.05316225","imageIndex":17,"items":[{"name":"에스씨테크","tel":"031-206-1471","addr":"경기도 수원시 영통구 신동 398-4번지 301호","indutype":"기타 - 기타 전문점","category":"other"}]},{"lat":"37.2464043","long":"127.04441486","imageIndex":17,"items":[{"name":"영통미래부동산","tel":"031-203-2211","addr":"경기도 수원시 영통구 신동 938번지 102호","indutype":"용역 서비스 - 부동산 중개·임대","category":"other"}]},{"lat":"37.249297362","long":"127.04221856","imageIndex":17,"items":[{"name":"오롯이 스튜디오","tel":"","addr":"경기도 수원시 영통구 신동 921번지 101호","indutype":"문화.취미 - 문화취미기타","category":"other"}]},{"lat":"37.247188273","long":"127.04420115","imageIndex":17,"items":[{"name":"웍스위즈 중부지사","tel":"031-203-3577","addr":"경기도 수원시 영통구 신동 935-4번지 302호","indutype":"용역 서비스 - 종합용역","category":"other"},{"name":"이노션시스템 (주)","tel":"031-322-9886","addr":"경기도 수원시 영통구 신동 935-4번지 302호","indutype":"전기제품 - 냉열기기","category":"other"}]},{"lat":"37.247990242","long":"127.04405506","imageIndex":17,"items":[{"name":"이마트24 수원신동타운점","tel":"","addr":"경기도 수원시 영통구 신동 933-1번지 1층","indutype":"유통업 영리 - 편 의 점","category":"other"}]},{"lat":"37.247296914","long":"127.0426909","imageIndex":17,"items":[{"name":"제이베이지(J beige)","tel":"02-1577-0000","addr":"경기도 수원시 영통구 신동 928-4번지 1층 101호","indutype":"의류 - 정장","category":"other"}]},{"lat":"37.247576241","long":"127.0426685","imageIndex":17,"items":[{"name":"주식회사 에스엔컴퍼니그룹","tel":"031-204-0819","addr":"경기도 수원시 영통구 신동 928-2번지 101호","indutype":"용역 서비스 - 사무서비스","category":"other"}]},{"lat":"37.249883003","long":"127.04230904","imageIndex":17,"items":[{"name":"주식회사비비엠패밀리","tel":"031-253-5124","addr":"경기도 수원시 영통구 신동 918-4번지 엠하우스1 1층","indutype":"용역 서비스 - 사무서비스","category":"other"}]},{"lat":"37.247017346","long":"127.04342336","imageIndex":17,"items":[{"name":"지에스렌트카주식회사 수원지점","tel":"031-204-3939","addr":"경기도 수원시 영통구 신동 933-10번지 102호","indutype":"여행 - 렌터카","category":"other"}]},{"lat":"37.248044823","long":"127.0425335","imageIndex":17,"items":[{"name":"카카오트리","tel":"02-2051-3996","addr":"경기도 수원시 영통구 신동 927번지 101호","indutype":"기타 - 기타 전문점","category":"other"}]},{"lat":"37.247882656","long":"127.04247706","imageIndex":17,"items":[{"name":"탑솔루션","tel":"031-278-2235","addr":"경기도 수원시 영통구 신동 927-1번지","indutype":"사무통신 - 사무용 OA기기","category":"other"}]},{"lat":"37.248044656","long":"127.04302942","imageIndex":17,"items":[{"name":"토끼네 잡화상점","tel":"","addr":"경기도 수원시 영통구 신동 925-5번지","indutype":"신변잡화 - 기타잡화","category":"other"}]},{"lat":"37.247495084","long":"127.04286007","imageIndex":17,"items":[{"name":"풍경","tel":"031-274-9356","addr":"경기도 수원시 영통구 신동 928-3번지 102호","indutype":"신변잡화 - 기타잡화","category":"other"}]},{"lat":"37.248157517","long":"127.05410893","imageIndex":17,"items":[{"name":"풍경창","tel":"031-223-8039","addr":"경기도 수원시 영통구 신동 334-3번지 A동 702호","indutype":"직물 - 카페트,커튼,천막,지물","category":"other"}]},{"lat":"37.247657398","long":"127.04247694","imageIndex":17,"items":[{"name":"하루의 숲","tel":"031-203-0701","addr":"경기도 수원시 영통구 신동 928-1번지 1층","indutype":"문화.취미 - 민예·공예품","category":"other"}]},{"lat":"37.248602877","long":"127.044247","imageIndex":17,"items":[{"name":"하이바이오","tel":"","addr":"경기도 수원시 영통구 신동 931번지 201호","indutype":"서적문구 - 과학기자재","category":"other"}]},{"lat":"37.246737662","long":"127.0444714","imageIndex":17,"items":[{"name":"한울통신","tel":"","addr":"경기도 수원시 영통구 신동 937-4번지 1층 103호","indutype":"사무통신 - 통신기기","category":"other"}]},{"lat":"37.248576257","long":"127.04305225","imageIndex":17,"items":[{"name":"허니 플라밍고","tel":"","addr":"경기도 수원시 영통구 신동 923-2번지 1층","indutype":"신변잡화 - 기타잡화","category":"other"}]},{"lat":"37.24885494","long":"127.0448896","imageIndex":17,"items":[{"name":"헤이데이플라워","tel":"","addr":"경기도 수원시 영통구 신동 930-2번지","indutype":"문화.취미 - 화원","category":"other"}]},{"lat":"37.251876585","long":"127.05894697","imageIndex":17,"items":[{"name":"호야뮤직","tel":"031-718-9189","addr":"경기도 수원시 영통구 신동 384-8번지 지하1층","indutype":"용역 서비스 - 사무서비스","category":"other"}]},{"lat":"37.247474314","long":"127.05031016","imageIndex":13,"items":[{"name":"(주)메디언스","tel":"031-292-4399","addr":"경기도 수원시 영통구 신동 486번지 디지털엠파이어2 101동 710호","indutype":"보건위생 - 화장품","category":"beauty"},{"name":"YE코스메틱","tel":"031-635-6266","addr":"경기도 수원시 영통구 신동 486번지 디지털엠파이어2 101동 1411호","indutype":"보건위생 - 화장품","category":"beauty"},{"name":"주식회사 수호천사엔젤","tel":"031-695-7843","addr":"경기도 수원시 영통구 신동 486번지 디지털엠파이어2 101동 1406호","indutype":"보건위생 - 의료용품","category":"beauty"}]},{"lat":"37.247792225","long":"127.04344632","imageIndex":13,"items":[{"name":"그리다","tel":"031-203-1225","addr":"경기도 수원시 영통구 신동 934-12번지 1층 101호","indutype":"보건위생 - 피부미용실","category":"beauty"}]},{"lat":"37.248044656","long":"127.04302942","imageIndex":13,"items":[{"name":"네일,브로우","tel":"031-111-1111","addr":"경기도 수원시 영통구 신동 925-5번지 1층 101호","indutype":"보건위생 - 피부미용실","category":"beauty"},{"name":"인아웃 (INOUT)","tel":"031-226-5788","addr":"경기도 수원시 영통구 신동 925-5번지 골드캐슬 1층","indutype":"보건위생 - 피부미용실","category":"beauty"}]},{"lat":"37.249964058","long":"127.04242179","imageIndex":13,"items":[{"name":"네일캐쳐","tel":"031-202-2885","addr":"경기도 수원시 영통구 신동 918-3번지 101호","indutype":"보건위생 - 피부미용실","category":"beauty"}]},{"lat":"37.246990487","long":"127.04291616","imageIndex":13,"items":[{"name":"네일텐","tel":"031-204-0606","addr":"경기도 수원시 영통구 신동 933-13번지 1층","indutype":"보건위생 - 피부미용실","category":"beauty"}]},{"lat":"37.247710469","long":"127.0453398","imageIndex":13,"items":[{"name":"네일톡톡","tel":"","addr":"경기도 수원시 영통구 신동 936-6번지 로얄프라자 103호","indutype":"보건위생 - 피부미용실","category":"beauty"},{"name":"네일톡톡","tel":"041-668-5875","addr":"경기도 수원시 영통구 신동 936-6번지 로얄프라자 1층 103호","indutype":"보건위생 - 피부미용실","category":"beauty"}]},{"lat":"37.249210129","long":"127.05767135","imageIndex":13,"items":[{"name":"더블제이","tel":"070-4065-8505","addr":"경기도 수원시 영통구 신동 341번지 스타빌딩 202호","indutype":"보건위생 - 의료용품","category":"beauty"}]},{"lat":"37.247495084","long":"127.04286007","imageIndex":13,"items":[{"name":"두손애네일","tel":"031-216-8000","addr":"경기도 수원시 영통구 신동 928-3번지 101호","indutype":"보건위생 - 피부미용실","category":"beauty"},{"name":"세움심리상담센타","tel":"031-202-3812","addr":"경기도 수원시 영통구 신동 928-3번지 3층 301호","indutype":"보건위생 - 기타대인서비스","category":"beauty"}]},{"lat":"37.247188273","long":"127.04420115","imageIndex":13,"items":[{"name":"두손애뷰티","tel":"031-221-7000","addr":"경기도 수원시 영통구 신동 935-4번지 301호","indutype":"보건위생 - 피부미용실","category":"beauty"}]},{"lat":"37.248076767","long":"127.05330863","imageIndex":13,"items":[{"name":"박행님헤어샵","tel":"031-257-5944","addr":"경기도 수원시 영통구 신동 398-39번지 해오름빌 A동 1층 104호","indutype":"보건위생 - 미용원","category":"beauty"}]},{"lat":"37.24868451","long":"127.04266909","imageIndex":13,"items":[{"name":"박현헤어살롱","tel":"031-202-7700","addr":"경기도 수원시 영통구 신동 924번지 1층","indutype":"보건위생 - 미용원","category":"beauty"}]},{"lat":"37.250045124","long":"127.04250073","imageIndex":13,"items":[{"name":"뷰티살롱 후(진)","tel":"031-204-3833","addr":"경기도 수원시 영통구 신동 918-2번지 1층","indutype":"보건위생 - 피부미용실","category":"beauty"}]},{"lat":"37.249792573","long":"127.04327832","imageIndex":13,"items":[{"name":"살롱드비비","tel":"031-362-6000","addr":"경기도 수원시 영통구 신동 920번지 1층","indutype":"보건위생 - 미용원","category":"beauty"}]},{"lat":"37.246924842","long":"127.04991533","imageIndex":13,"items":[{"name":"서울치과기공소","tel":"031-268-9531","addr":"경기도 수원시 영통구 신동 486번지 디지털엠파이어2 104동 206호","indutype":"보건위생 - 의료용품","category":"beauty"},{"name":"오휘","tel":"031-695-7951","addr":"경기도 수원시 영통구 신동 486번지 디지털엠파이어2 104동 301호","indutype":"보건위생 - 화장품","category":"beauty"},{"name":"오휘 카운셀러(차영주)","tel":"031-202-0150","addr":"경기도 수원시 영통구 신동 486번지 디지털엠파이어2 104동 301호","indutype":"보건위생 - 화장품","category":"beauty"},{"name":"오휘김용희","tel":"031-695-7952","addr":"경기도 수원시 영통구 신동 486번지 디지털엠파이어2 104동 301호","indutype":"보건위생 - 화장품","category":"beauty"},{"name":"오휘수원지사","tel":"031-695-7952","addr":"경기도 수원시 영통구 신동 486번지 디지털엠파이어2 104-301","indutype":"보건위생 - 화장품","category":"beauty"},{"name":"오휘수원지사(박순이)","tel":"031-273-7112","addr":"경기도 수원시 영통구 신동 486번지 디지털엠파이어II 104동 301호","indutype":"보건위생 - 화장품","category":"beauty"},{"name":"오휘수원지사(유재분)","tel":"031-273-7112","addr":"경기도 수원시 영통구 신동 486번지 디지털엔파이어2 104동 301호","indutype":"보건위생 - 화장품","category":"beauty"},{"name":"오휘수원지사(유혜정)","tel":"031-695-7952","addr":"경기도 수원시 영통구 신동 486번지 디지털엠파이어2빌딩 104동 301호","indutype":"보건위생 - 화장품","category":"beauty"},{"name":"오휘수원지사(임미령)","tel":"031-695-7951","addr":"경기도 수원시 영통구 신동 486번지 디지털엠파이어2 104동 301호","indutype":"보건위생 - 화장품","category":"beauty"},{"name":"오휘수원지사(임성미)","tel":"031-273-7112","addr":"경기도 수원시 영통구 신동 486번지 디지털엠파이어Ⅱ 104동 301호 오휘수원지사(임성미)","indutype":"보건위생 - 화장품","category":"beauty"},{"name":"오휘카운셀러 김조월","tel":"031-968-7952","addr":"경기도 수원시 영통구 신동 486번지 디지털엠파이어2 104동 301호","indutype":"보건위생 - 화장품","category":"beauty"},{"name":"오휘카운셀러 윤은경","tel":"","addr":"경기도 수원시 영통구 신동 486번지 디지털엠파이어2 104동 301호","indutype":"보건위생 - 화장품","category":"beauty"},{"name":"오휘카운셀러(김은주)","tel":"031-000-0000","addr":"경기도 수원시 영통구 신동 486번지 디지털엠파이어빌딩 104동 301호","indutype":"보건위생 - 화장품","category":"beauty"},{"name":"오휘카운셀러(김정애)","tel":"","addr":"경기도 수원시 영통구 신동 486번지 디지털엠파이어2 104동 301호","indutype":"보건위생 - 화장품","category":"beauty"},{"name":"오휘카운셀러(심은아)","tel":"","addr":"경기도 수원시 영통구 신동 486번지 디지털엠파이어2 104동 301호","indutype":"보건위생 - 화장품","category":"beauty"},{"name":"오휘카운셀러(이순례)","tel":"031-695-7950","addr":"경기도 수원시 영통구 신동 486번지 디지털엠파이어2 104동 301호","indutype":"보건위생 - 화장품","category":"beauty"},{"name":"오휘화장품(박채린)","tel":"031-695-7952","addr":"경기도 수원시 영통구 신동 486번지 디지털엠파이어2 104동 301호","indutype":"보건위생 - 화장품","category":"beauty"},{"name":"오휘화장품이해연","tel":"031-695-7951","addr":"경기도 수원시 영통구 신동 486번지 디지털엠파이어2 104동 301호","indutype":"보건위생 - 화장품","category":"beauty"}]},{"lat":"37.246737662","long":"127.0444714","imageIndex":13,"items":[{"name":"스파데이","tel":"","addr":"경기도 수원시 영통구 신동 937-4번지 드림타워 2층 201호","indutype":"보건위생 - 화장품","category":"beauty"}]},{"lat":"37.249243244","long":"127.0423876","imageIndex":13,"items":[{"name":"언제나 카라네일","tel":"031-267-0950","addr":"경기도 수원시 영통구 신동 921-1번지 1층","indutype":"보건위생 - 기타대인서비스","category":"beauty"}]},{"lat":"37.24693616","long":"127.04369382","imageIndex":13,"items":[{"name":"얼반헤어 로맨틱가든","tel":"031-301-3807","addr":"경기도 수원시 영통구 신동 933-9번지 202호","indutype":"보건위생 - 미용원","category":"beauty"}]},{"lat":"37.247855775","long":"127.0420262","imageIndex":13,"items":[{"name":"오르제이헤어","tel":"031-204-8448","addr":"경기도 수원시 영통구 신동 926-3번지","indutype":"보건위생 - 미용원","category":"beauty"}]},{"lat":"37.246852512","long":"127.05053519","imageIndex":13,"items":[{"name":"트러스트리(Trustry)","tel":"031-8001-6830","addr":"경기도 수원시 영통구 신동 486번지 디지털엠파이어2 103동 10층 1002호","indutype":"보건위생 - 화장품","category":"beauty"},{"name":"피에스아이플러스 주식회사","tel":"031-695-6915","addr":"경기도 수원시 영통구 신동 486번지 디지털엠파이어2 103동 201호","indutype":"보건위생 - 의료용품","category":"beauty"}]},{"lat":"37.246520858","long":"127.04602665","imageIndex":13,"items":[{"name":"헤어데뷰","tel":"031-203-7565","addr":"경기도 수원시 영통구 신동 940번지 래미안영통마크원2단지 상가 2015동 103호","indutype":"보건위생 - 미용원","category":"beauty"}]},{"lat":"37.2464043","long":"127.04441486","imageIndex":13,"items":[{"name":"헤어타운블루","tel":"031-224-4289","addr":"경기도 수원시 영통구 신동 938번지 1층","indutype":"보건위생 - 미용원","category":"beauty"}]},{"lat":"37.247474314","long":"127.05031016","imageIndex":8,"items":[{"name":"(주)우성제약","tel":"031-206-6617","addr":"경기도 수원시 영통구 신동 486번지 디지털엠파이어2 101동 610호","indutype":"약국 - 제약회사","category":"medical"}]},{"lat":"37.247377119","long":"127.04524945","imageIndex":8,"items":[{"name":"래미안솔약국","tel":"031-203-7975","addr":"경기도 수원시 영통구 신동 937번지 1층 103호","indutype":"약국 - 약국","category":"medical"},{"name":"카이스트치과의원","tel":"031-205-0028","addr":"경기도 수원시 영통구 신동 937번지 청마빌딩 401호","indutype":"의원 - 치과의원","category":"medical"},{"name":"큰나무가정의학과의원","tel":"031-291-7644","addr":"경기도 수원시 영통구 신동 937번지 3층","indutype":"의원 - 의원","category":"medical"},{"name":"큰나무가정의학과의원","tel":"031-204-9785","addr":"경기도 수원시 영통구 신동 937번지 3층","indutype":"의원 - 의원","category":"medical"}]},{"lat":"37.251327243","long":"127.0583379","imageIndex":8,"items":[{"name":"재단법인 덕산 (참초원 한의원)","tel":"031-205-4300","addr":"경기도 수원시 영통구 신동 384-14번지 1층","indutype":"의원 - 한의원","category":"medical"}]},{"lat":"37.24943112","long":"127.04621992","imageIndex":0,"items":[{"name":"(주)지에스이앤알 Gself세차장","tel":"02-2005-2073","addr":"경기도 수원시 영통구 신동 531-1번지","indutype":"자동차정비 유지 - 세차장","category":"car"}]},{"lat":"37.249876625","long":"127.05824667","imageIndex":0,"items":[{"name":"B2B  MOTORS","tel":"031-206-5158","addr":"경기도 수원시 영통구 신동 346-4번지 1층","indutype":"자동차판매 - 이륜차판매","category":"car"}]},{"lat":"37.249070737","long":"127.04614082","imageIndex":0,"items":[{"name":"Drean1 영통세차장","tel":"031-203-3789","addr":"경기도 수원시 영통구 신동 532-15번지","indutype":"자동차정비 유지 - 세차장","category":"car"}]},{"lat":"37.252020075","long":"127.06035603","imageIndex":0,"items":[{"name":"JOY(조이)덴트","tel":"031-203-6792","addr":"경기도 수원시 영통구 신동 275-1번지 C동","indutype":"자동차정비 유지 - 자동차정비","category":"car"}]},{"lat":"37.248930976","long":"127.05731047","imageIndex":0,"items":[{"name":"YT카정비센타","tel":"031-206-8833","addr":"경기도 수원시 영통구 신동 338-5번지","indutype":"자동차정비 유지 - 자동차정비","category":"car"}]},{"lat":"37.249210129","long":"127.05767135","imageIndex":0,"items":[{"name":"글라스틴트수원점","tel":"031-203-4642","addr":"경기도 수원시 영통구 신동 341번지 102호","indutype":"자동차정비 유지 - 카인테리어","category":"car"}]},{"lat":"37.248295534","long":"127.04699698","imageIndex":0,"items":[{"name":"뉴현대공업사","tel":"031-212-5001","addr":"경기도 수원시 영통구 신동 498-1번지","indutype":"자동차정비 유지 - 자동차정비","category":"car"}]},{"lat":"37.24829594","long":"127.04589241","imageIndex":0,"items":[{"name":"동수원센타","tel":"031-235-7681","addr":"경기도 수원시 영통구 신동 529-10번지","indutype":"자동차정비 유지 - 자동차부품","category":"car"}]},{"lat":"37.247384125","long":"127.05052425","imageIndex":0,"items":[{"name":"디지털엠파이어II협의회","tel":"031-695-6003","addr":"경기도 수원시 영통구 신동 486번지 운영지원센터","indutype":"자동차정비 유지 - 주차장","category":"car"},{"name":"디지털엠파이어Ⅱ 협의회","tel":"031-695-6001","addr":"경기도 수원시 영통구 신동 486번지 운영지원센터","indutype":"자동차정비 유지 - 주차장","category":"car"}]},{"lat":"37.2485757","long":"127.04466402","imageIndex":0,"items":[{"name":"럭셔리출장케어","tel":"","addr":"경기도 수원시 영통구 신동 930-7번지 202호","indutype":"자동차정비 유지 - 세차장","category":"car"}]},{"lat":"37.248097754","long":"127.04577959","imageIndex":0,"items":[{"name":"루마썬팅 신동점","tel":"031-1666-2827","addr":"경기도 수원시 영통구 신동 936-2번지","indutype":"자동차정비 유지 - 자동차부품","category":"car"}]},{"lat":"37.248656221","long":"127.04625329","imageIndex":0,"items":[{"name":"백운상사","tel":"031-236-5555","addr":"경기도 수원시 영통구 신동 532-19","indutype":"자동차정비 유지 - 자동차시트·타이어","category":"car"}]},{"lat":"37.251488814","long":"127.05963425","imageIndex":0,"items":[{"name":"블루라인(BLUELINE)","tel":"031-213-0000","addr":"경기도 수원시 영통구 신동 362번지","indutype":"자동차정비 유지 - 세차장","category":"car"}]},{"lat":"37.249687894","long":"127.0571983","imageIndex":0,"items":[{"name":"사이버카","tel":"031-273-6469","addr":"경기도 수원시 영통구 신동 340-25번지 1층 101호","indutype":"자동차정비 유지 - 카인테리어","category":"car"}]},{"lat":"37.247907154","long":"127.04944256","imageIndex":0,"items":[{"name":"삼성오토프라자","tel":"031-203-6057","addr":"경기도 수원시 영통구 신동 503-18번지","indutype":"자동차정비 유지 - 자동차정비","category":"car"}]},{"lat":"37.252129239","long":"127.05816941","imageIndex":0,"items":[{"name":"소이모터스","tel":"031-273-9929","addr":"경기도 수원시 영통구 신동 384-5번지","indutype":"자동차정비 유지 - 자동차정비","category":"car"}]},{"lat":"37.246990487","long":"127.04291616","imageIndex":0,"items":[{"name":"스팀보이게러지 수원영통점","tel":"031-111-1111","addr":"경기도 수원시 영통구 신동 933-13번지 104호","indutype":"자동차정비 유지 - 세차장","category":"car"}]},{"lat":"37.248187837","long":"127.04583599","imageIndex":0,"items":[{"name":"애니카랜드 신동점","tel":"031-205-5114","addr":"경기도 수원시 영통구 신동 936-1번지","indutype":"자동차정비 유지 - 자동차정비","category":"car"}]},{"lat":"37.248070022","long":"127.04767311","imageIndex":0,"items":[{"name":"에이스오토1급정비","tel":"031-204-8728","addr":"경기도 수원시 영통구 신동 498-3번지","indutype":"자동차정비 유지 - 자동차정비","category":"car"}]},{"lat":"37.25190338","long":"127.05944294","imageIndex":0,"items":[{"name":"영빈카프라자","tel":"031-205-8860","addr":"경기도 수원시 영통구 신동 365-1번지 203호","indutype":"자동차정비 유지 - 자동차정비","category":"car"}]},{"lat":"37.249882123","long":"127.04486762","imageIndex":0,"items":[{"name":"영통셀프세차장","tel":"031-202-7766","addr":"경기도 수원시 영통구 신동 537-1번지","indutype":"자동차정비 유지 - 세차장","category":"car"}]},{"lat":"37.249543359","long":"127.05799846","imageIndex":0,"items":[{"name":"오토프리즘(Auto Prism)","tel":"031-203-2236","addr":"경기도 수원시 영통구 신동 343-3번지 지하2층","indutype":"자동차정비 유지 - 자동차부품","category":"car"}]},{"lat":"37.249883178","long":"127.04177928","imageIndex":0,"items":[{"name":"월드카","tel":"031-204-3318","addr":"경기도 수원시 영통구 신동 600-4번지","indutype":"자동차정비 유지 - 자동차정비","category":"car"}]},{"lat":"37.248076767","long":"127.05330863","imageIndex":0,"items":[{"name":"주식회사갤럭시빌딩마스타","tel":"031-234-5700","addr":"경기도 수원시 영통구 신동 398-39번지 A동 104호","indutype":"자동차정비 유지 - 주차장","category":"car"}]},{"lat":"37.248097614","long":"127.0461628","imageIndex":0,"items":[{"name":"화계자동차유리","tel":"031-212-1206","addr":"경기도 수원시 영통구 신동 514-7","indutype":"자동차정비 유지 - 자동차부품","category":"car"}]},{"lat":"37.245909218","long":"127.04300575","imageIndex":16,"items":[{"name":"123어린이집[아이행복]","tel":"031-202-1224","addr":"경기도 수원시 영통구 신동 939번지 래미안영통마크원1단지 관리동","indutype":"학원 - 유아원","category":"study"}]},{"lat":"37.247188456","long":"127.04367141","imageIndex":16,"items":[{"name":"가온프리미엄독서실","tel":"031-203-2338","addr":"경기도 수원시 영통구 신동 933-8번지 3층","indutype":"학원 - 독서실","category":"study"}]},{"lat":"37.246520858","long":"127.04602665","imageIndex":16,"items":[{"name":"김현주영어교습소","tel":"031-273-1220","addr":"경기도 수원시 영통구 신동 940번지 래미안영통마크원2단지 215동 106호","indutype":"회원제형태 - 학원","category":"study"},{"name":"다온피아노음악교습소","tel":"031-202-4739","addr":"경기도 수원시 영통구 신동 940번지 래미안영통마크원2단지 215동 102호","indutype":"학원 - 예·체능계학원","category":"study"},{"name":"래미안빅스맘어린이집[아이행복]","tel":"031-206-7004","addr":"경기도 수원시 영통구 신동 940번지 관리동래미안영통마크원2단지","indutype":"학원 - 유아원","category":"study"},{"name":"뮤엠영어마크원교습소","tel":"031-203-0507","addr":"경기도 수원시 영통구 신동 940번지 래미안영통마크원2단지 상가 115호","indutype":"회원제형태 - 학원","category":"study"},{"name":"보네아트숲미술교습소","tel":"031-203-8032","addr":"경기도 수원시 영통구 신동 940번지 래미안영통마크원2단지 상가동 104호","indutype":"학원 - 예·체능계학원","category":"study"}]},{"lat":"37.249048011","long":"127.05752471","imageIndex":16,"items":[{"name":"드림스테이션독서실","tel":"031-206-8065","addr":"경기도 수원시 영통구 신동 340-15번지 5,6층","indutype":"학원 - 독서실","category":"study"}]},{"lat":"37.247188273","long":"127.04420115","imageIndex":16,"items":[{"name":"백년대계혜윰수학과학학원","tel":"031-214-7705","addr":"경기도 수원시 영통구 신동 935-4번지 401호","indutype":"학원 - 보습학원","category":"study"},{"name":"풂수학학원","tel":"031-203-7964","addr":"경기도 수원시 영통구 신동 935-4번지 202호","indutype":"학원 - 보습학원","category":"study"},{"name":"혜윰영어국어학원","tel":"031-203-3258","addr":"경기도 수원시 영통구 신동 935-4번지 2층","indutype":"학원 - 보습학원","category":"study"}]},{"lat":"37.2464043","long":"127.04441486","imageIndex":16,"items":[{"name":"빛나키즈태권도","tel":"031-202-4004","addr":"경기도 수원시 영통구 신동 938번지 401호","indutype":"학원 - 예·체능계학원","category":"study"},{"name":"예종음악학원","tel":"031-203-4575","addr":"경기도 수원시 영통구 신동 938번지 402호","indutype":"학원 - 예·체능계학원","category":"study"},{"name":"원스카이학원","tel":"031-203-3141","addr":"경기도 수원시 영통구 신동 938번지 성원빌딩 2층 202호","indutype":"학원 - 보습학원","category":"study"}]},{"lat":"37.246737662","long":"127.0444714","imageIndex":16,"items":[{"name":"수리음악학원","tel":"031-206-5897","addr":"경기도 수원시 영통구 신동 937-4번지 305호","indutype":"학원 - 예·체능계학원","category":"study"},{"name":"챠콜미술학원","tel":"031-204-2231","addr":"경기도 수원시 영통구 신동 937-4번지 드림타워 301호","indutype":"학원 - 예·체능계학원","category":"study"}]},{"lat":"37.246924842","long":"127.04991533","imageIndex":16,"items":[{"name":"수호천사공동직장어린이집[아이행복]","tel":"031-695-7004","addr":"경기도 수원시 영통구 신동 486번지 디지털엠파이어2 104동 3층 307호","indutype":"학원 - 유아원","category":"study"}]},{"lat":"37.249354221","long":"127.05782925","imageIndex":16,"items":[{"name":"시티엔리빙텔","tel":"031-890-9807","addr":"경기도 수원시 영통구 신동 342-5번지 3,4층","indutype":"학원 - 독서실","category":"study"}]},{"lat":"37.247237529","long":"127.05622724","imageIndex":16,"items":[{"name":"영동중학교","tel":"031-203-2585","addr":"경기도 수원시 영통구 신동 330-1번지 영동중학교","indutype":"학원 - 초중고교육기관","category":"study"}]},{"lat":"37.246323294","long":"127.04416686","imageIndex":16,"items":[{"name":"용인대백호태권도장","tel":"031-206-2229","addr":"경기도 수원시 영통구 신동 938-1번지 401호","indutype":"학원 - 예·체능계학원","category":"study"}]},{"lat":"37.251821968","long":"127.06010791","imageIndex":16,"items":[{"name":"이야기나무유치원[아이행복]","tel":"031-203-3211","addr":"경기도 수원시 영통구 신동 278번지","indutype":"학원 - 유치원","category":"study"}]},{"lat":"37.247710469","long":"127.0453398","imageIndex":16,"items":[{"name":"이해법수학중국어학원","tel":"031-205-0113","addr":"경기도 수원시 영통구 신동 936-6번지 302호","indutype":"학원 - 보습학원","category":"study"}]},{"lat":"37.249210129","long":"127.05767135","imageIndex":16,"items":[{"name":"테라비트 솔루션즈","tel":"070-7633-0905","addr":"경기도 수원시 영통구 신동 341번지 스타빌딩 703호","indutype":"학원 - 기능학원","category":"study"}]},{"lat":"37.247384125","long":"127.05052425","imageIndex":4,"items":[{"name":"88라면 카페","tel":"031-695-8216","addr":"경기도 수원시 영통구 신동 486번지 디지털엠파이어2 103동 지하1층 비05호","indutype":"일반휴게음식 - 서양음식","category":"restaurant"},{"name":"돈가네옛날돼지찌게","tel":"031-695-7242","addr":"경기도 수원시 영통구 신동 486번지 외1필지디지털엠파이어2 104동 207호","indutype":"일반휴게음식 - 일반한식","category":"restaurant"},{"name":"맛내음한식부페","tel":"031-695-6652","addr":"경기도 수원시 영통구 신동 486번지 디지털엠파이어2 B7호","indutype":"일반휴게음식 - 일반한식","category":"restaurant"},{"name":"아르떼","tel":"031-695-5695","addr":"경기도 수원시 영통구 신동 486번지 디지털엠파이어2 101층 108호","indutype":"일반휴게음식 - 서양음식","category":"restaurant"},{"name":"조이푸드","tel":"031-695-6755","addr":"경기도 수원시 영통구 신동 486번지 디지털엠파이어2 1층 102,103,104호","indutype":"일반휴게음식 - 일반한식","category":"restaurant"},{"name":"친구뷔페식당","tel":"031-695-8588","addr":"경기도 수원시 영통구 신동 486번지 디지털엠파이어2 101동 120호, 121호","indutype":"일반휴게음식 - 일반한식","category":"restaurant"},{"name":"카페모던타임즈","tel":"031-695-8215","addr":"경기도 수원시 영통구 신동 486번지 디지털엠파이어 2103동 115-3호","indutype":"일반휴게음식 - 서양음식","category":"restaurant"}]},{"lat":"37.248459309","long":"127.0424999","imageIndex":4,"items":[{"name":"Dorothy(도로시)","tel":"031-203-7228","addr":"경기도 수원시 영통구 신동 924-1번지 1층 101호","indutype":"일반휴게음식 - 서양음식","category":"restaurant"}]},{"lat":"37.247800685","long":"127.04502426","imageIndex":4,"items":[{"name":"가장맛있는족발 신동점","tel":"031-206-5849","addr":"경기도 수원시 영통구 신동 932-4번지 1층 103,104호","indutype":"일반휴게음식 - 일반한식","category":"restaurant"},{"name":"램스토리","tel":"031-253-1000","addr":"경기도 수원시 영통구 신동 932-4번지 1층 101.102호","indutype":"일반휴게음식 - 일반한식","category":"restaurant"},{"name":"투다리(신동점)","tel":"031-238-9229","addr":"경기도 수원시 영통구 신동 932-4번지","indutype":"일반휴게음식 - 주점","category":"restaurant"}]},{"lat":"37.24693616","long":"127.04369382","imageIndex":4,"items":[{"name":"고니네제주오겹살","tel":"031-203-0292","addr":"경기도 수원시 영통구 신동 933-9번지 1층 102호","indutype":"일반휴게음식 - 일반한식","category":"restaurant"},{"name":"다밤","tel":"031-203-0072","addr":"경기도 수원시 영통구 신동 933-9번지 202호","indutype":"일반휴게음식 - 주점","category":"restaurant"},{"name":"부산회센터","tel":"031-204-8533","addr":"경기도 수원시 영통구 신동 933-9번지 1층 101호","indutype":"일반휴게음식 - 일식·회집","category":"restaurant"}]},{"lat":"37.247188273","long":"127.04420115","imageIndex":4,"items":[{"name":"곱깨비 신동점","tel":"","addr":"경기도 수원시 영통구 신동 935-4번지 1층 103호","indutype":"일반휴게음식 - 일반한식","category":"restaurant"},{"name":"청기와감자탕","tel":"031-204-3112","addr":"경기도 수원시 영통구 신동 935-4번지 101,02호","indutype":"일반휴게음식 - 일반한식","category":"restaurant"}]},{"lat":"37.248044823","long":"127.0425335","imageIndex":4,"items":[{"name":"공원","tel":"031-000-0000","addr":"경기도 수원시 영통구 신동 927번지 1층","indutype":"일반휴게음식 - 서양음식","category":"restaurant"}]},{"lat":"37.249489449","long":"127.05767155","imageIndex":4,"items":[{"name":"궁돈보쌈","tel":"031-203-9399","addr":"경기도 수원시 영통구 신동 342-4번지 민교빌딩 지하1,2층","indutype":"일반휴게음식 - 일반한식","category":"restaurant"}]},{"lat":"37.248042642","long":"127.04858605","imageIndex":4,"items":[{"name":"그린푸드","tel":"031-203-0890","addr":"경기도 수원시 영통구 신동 498-6번지 2층","indutype":"일반휴게음식 - 일반한식","category":"restaurant"},{"name":"코너498-6","tel":"031-206-6111","addr":"경기도 수원시 영통구 신동 498-6번지","indutype":"일반휴게음식 - 스넥","category":"restaurant"}]},{"lat":"37.247909051","long":"127.04433679","imageIndex":4,"items":[{"name":"꼬미곶닭발","tel":"031-204-0085","addr":"경기도 수원시 영통구 신동 933-2번지","indutype":"일반휴게음식 - 일반한식","category":"restaurant"}]},{"lat":"37.246924842","long":"127.04991533","imageIndex":4,"items":[{"name":"끼끼식당","tel":"031-695-6069","addr":"경기도 수원시 영통구 신동 486번지 디지털엠파이어2 104동 102호","indutype":"일반휴게음식 - 스넥","category":"restaurant"},{"name":"대성한식뷔페","tel":"031-111-1111","addr":"경기도 수원시 영통구 신동 486번지 디지털엠파이어2 104동 309호","indutype":"일반휴게음식 - 일반한식","category":"restaurant"},{"name":"미스터쌀국수","tel":"","addr":"경기도 수원시 영통구 신동 486번지 디지털엠파이어2 104동 111호","indutype":"일반휴게음식 - 서양음식","category":"restaurant"},{"name":"부자한식뷔페","tel":"031-695-6626","addr":"경기도 수원시 영통구 신동 486번지 디지털엠파이어2 104동 2층 208호","indutype":"일반휴게음식 - 일반한식","category":"restaurant"},{"name":"완산골명가","tel":"031-695-6438","addr":"경기도 수원시 영통구 신동 486번지 디지털엠파이어2 104동 203호","indutype":"일반휴게음식 - 일반한식","category":"restaurant"},{"name":"죽이야기","tel":"031-695-6310","addr":"경기도 수원시 영통구 신동 486번지 디지털엠파이어투 104동 110호","indutype":"일반휴게음식 - 일반한식","category":"restaurant"}]},{"lat":"37.246936368","long":"127.04308519","imageIndex":4,"items":[{"name":"노가리앤비어 영통점","tel":"02-1577-0000","addr":"경기도 수원시 영통구 신동 933-12번지 101,102호","indutype":"일반휴게음식 - 주점","category":"restaurant"},{"name":"반월","tel":"031-0000-0000","addr":"경기도 수원시 영통구 신동 933-12번지 103호","indutype":"일반휴게음식 - 일식·회집","category":"restaurant"}]},{"lat":"37.247710469","long":"127.0453398","imageIndex":4,"items":[{"name":"달다랑","tel":"","addr":"경기도 수원시 영통구 신동 936-6번지 로얄프라자 1층 104호","indutype":"일반휴게음식 - 일반한식","category":"restaurant"}]},{"lat":"37.2497656","long":"127.04310924","imageIndex":4,"items":[{"name":"달임","tel":"","addr":"경기도 수원시 영통구 신동 920-1번지 103호","indutype":"일반휴게음식 - 일반한식","category":"restaurant"},{"name":"카페우리","tel":"031-203-7806","addr":"경기도 수원시 영통구 신동 920-1번지 103호","indutype":"일반휴게음식 - 서양음식","category":"restaurant"}]},{"lat":"37.250155828","long":"127.05849484","imageIndex":4,"items":[{"name":"대원","tel":"031-205-2703","addr":"경기도 수원시 영통구 신동 352-1번지 수서빌 1층","indutype":"일반휴게음식 - 일반한식","category":"restaurant"}]},{"lat":"37.247474314","long":"127.05031016","imageIndex":4,"items":[{"name":"띠아모","tel":"031-695-7979","addr":"경기도 수원시 영통구 신동 486번지 디지털엠파이어II 101동 119호","indutype":"일반휴게음식 - 서양음식","category":"restaurant"},{"name":"모자맛집","tel":"031-695-8218","addr":"경기도 수원시 영통구 신동 486번지 디지털엠파이어2 101동 122호","indutype":"일반휴게음식 - 스넥","category":"restaurant"},{"name":"셰프의돈까스(수원영통점)","tel":"031-695-7878","addr":"경기도 수원시 영통구 신동 486번지 디지털엠파이어2 101동 103호","indutype":"일반휴게음식 - 일반한식","category":"restaurant"},{"name":"엔제리너스 디지털엠파이어2","tel":"","addr":"경기도 수원시 영통구 신동 486번지 디지털엠파이어2 101동 104호","indutype":"일반휴게음식 - 서양음식","category":"restaurant"},{"name":"이디야 수원디지털엠파이어2점","tel":"031-695-8217","addr":"경기도 수원시 영통구 신동 486번지 디지털엠파이어2 101동 104호","indutype":"일반휴게음식 - 서양음식","category":"restaurant"},{"name":"카페루하(ruha)","tel":"031-695-5664","addr":"경기도 수원시 영통구 신동 486번지 디지털엠파이어2 101동 111호","indutype":"일반휴게음식 - 서양음식","category":"restaurant"},{"name":"햇살한식뷔페","tel":"031-695-5569","addr":"경기도 수원시 영통구 신동 486번지 디지털엠파이어2 101동 115호","indutype":"일반휴게음식 - 일반한식","category":"restaurant"}]},{"lat":"37.247404426","long":"127.04447177","imageIndex":4,"items":[{"name":"레시피 랩","tel":"","addr":"경기도 수원시 영통구 신동 935-2번지 상가동 104호","indutype":"일반휴게음식 - 서양음식","category":"restaurant"},{"name":"썬비어호프","tel":"","addr":"경기도 수원시 영통구 신동 935-2번지","indutype":"일반휴게음식 - 주점","category":"restaurant"},{"name":"엄가네황소곱창","tel":"031-206-9393","addr":"경기도 수원시 영통구 신동 935-2번지 103호","indutype":"일반휴게음식 - 일반한식","category":"restaurant"},{"name":"정봉기의착한초밥참치","tel":"031-222-2298","addr":"경기도 수원시 영통구 신동 935-2번지","indutype":"일반휴게음식 - 일반한식","category":"restaurant"}]},{"lat":"37.251903261","long":"127.05969092","imageIndex":4,"items":[{"name":"루트101","tel":"031-273-7153","addr":"경기도 수원시 영통구 신동 365-4번지 2층","indutype":"일반휴게음식 - 일반한식","category":"restaurant"},{"name":"주식회사 참나무숲","tel":"031-273-7153","addr":"경기도 수원시 영통구 신동 365-4번지","indutype":"일반휴게음식 - 일반한식","category":"restaurant"}]},{"lat":"37.248436497","long":"127.05488683","imageIndex":4,"items":[{"name":"마마푸드","tel":"031-202-9933","addr":"경기도 수원시 영통구 신동 334-32번지 1층","indutype":"일반휴게음식 - 일반한식","category":"restaurant"}]},{"lat":"37.248044363","long":"127.04388602","imageIndex":4,"items":[{"name":"마미아뜰리에","tel":"070-4790-9486","addr":"경기도 수원시 영통구 신동 933번지 1층","indutype":"일반휴게음식 - 일반한식","category":"restaurant"}]},{"lat":"37.2464043","long":"127.04441486","imageIndex":4,"items":[{"name":"마미컵밥","tel":"031-000-0000","addr":"경기도 수원시 영통구 신동 938번지 101호","indutype":"일반휴게음식 - 스넥","category":"restaurant"},{"name":"비스트로 피자","tel":"031-203-8008","addr":"경기도 수원시 영통구 신동 938번지 1층 106호","indutype":"일반휴게음식 - 서양음식","category":"restaurant"},{"name":"비에이치씨(BHC)신동점","tel":"031-273-6777","addr":"경기도 수원시 영통구 신동 938번지 105호","indutype":"일반휴게음식 - 스넥","category":"restaurant"},{"name":"성원각","tel":"031-204-2001","addr":"경기도 수원시 영통구 신동 938번지 2층 201호","indutype":"일반휴게음식 - 중국식","category":"restaurant"}]},{"lat":"37.24973801","long":"127.04472102","imageIndex":4,"items":[{"name":"맛있는돼지네","tel":"031-206-2006","addr":"경기도 수원시 영통구 신동 534번지","indutype":"일반휴게음식 - 중국식","category":"restaurant"},{"name":"영통숯불장어촌","tel":"031-273-1592","addr":"경기도 수원시 영통구 신동 534번지 2층","indutype":"일반휴게음식 - 일반한식","category":"restaurant"}]},{"lat":"37.247522446","long":"127.04186824","imageIndex":4,"items":[{"name":"멜트어웨이","tel":"","addr":"경기도 수원시 영통구 신동 926-5번지 1층 101호","indutype":"일반휴게음식 - 서양음식","category":"restaurant"}]},{"lat":"37.250153222","long":"127.04257969","imageIndex":4,"items":[{"name":"몽글커피","tel":"031-302-8846","addr":"경기도 수원시 영통구 신동 918-1번지 1층 101호","indutype":"일반휴게음식 - 서양음식","category":"restaurant"}]},{"lat":"37.246737662","long":"127.0444714","imageIndex":4,"items":[{"name":"백년갈비 수원영통점","tel":"031-206-2382","addr":"경기도 수원시 영통구 신동 937-4번지 드림타워 1층 108-110호","indutype":"일반휴게음식 - 일반한식","category":"restaurant"},{"name":"스시라쿠","tel":"","addr":"경기도 수원시 영통구 신동 937-4번지 드림타워 107호","indutype":"일반휴게음식 - 일식·회집","category":"restaurant"}]},{"lat":"37.248742489","long":"127.05569856","imageIndex":4,"items":[{"name":"백스페이스","tel":"000-000-0000","addr":"경기도 수원시 영통구 신동 334-19번지 101호","indutype":"일반휴게음식 - 서양음식","category":"restaurant"}]},{"lat":"37.246520858","long":"127.04602665","imageIndex":4,"items":[{"name":"본죽수원신동점","tel":"031-273-6288","addr":"경기도 수원시 영통구 신동 940번지 래미안영통마크원2단지 215동 1층 108호","indutype":"일반휴게음식 - 일반한식","category":"restaurant"}]},{"lat":"37.247017346","long":"127.04342336","imageIndex":4,"items":[{"name":"불맛명가","tel":"031-273-9555","addr":"경기도 수원시 영통구 신동 933-10번지","indutype":"일반휴게음식 - 일반한식","category":"restaurant"},{"name":"팡팡몬","tel":"","addr":"경기도 수원시 영통구 신동 933-10번지 201호","indutype":"일반휴게음식 - 서양음식","category":"restaurant"}]},{"lat":"37.248544522","long":"127.05511232","imageIndex":4,"items":[{"name":"비밀기지","tel":"031-203-5547","addr":"경기도 수원시 영통구 신동 334-34번지 브레인하우스 B동 1층 101호","indutype":"일반휴게음식 - 서양음식","category":"restaurant"},{"name":"커피맨의커피박스 신동삼성점","tel":"031-205-1642","addr":"경기도 수원시 영통구 신동 334-34번지 1층 101호","indutype":"일반휴게음식 - 서양음식","category":"restaurant"}]},{"lat":"37.248431443","long":"127.04492317","imageIndex":4,"items":[{"name":"비프론트커피","tel":"","addr":"경기도 수원시 영통구 신동 930-5번지 1층","indutype":"일반휴게음식 - 서양음식","category":"restaurant"}]},{"lat":"37.247188456","long":"127.04367141","imageIndex":4,"items":[{"name":"빚은만두","tel":"031-223-5214","addr":"경기도 수원시 영통구 신동 933-8번지 103호","indutype":"일반휴게음식 - 일반한식","category":"restaurant"},{"name":"스시노백쉐프 수원신동점","tel":"031-205-5801","addr":"경기도 수원시 영통구 신동 933-8번지 1층 102호","indutype":"일반휴게음식 - 일식·회집","category":"restaurant"},{"name":"파이브","tel":"031-273-5013","addr":"경기도 수원시 영통구 신동 933-8번지","indutype":"일반휴게음식 - 서양음식","category":"restaurant"}]},{"lat":"37.249126061","long":"127.04253407","imageIndex":4,"items":[{"name":"살루브레","tel":"031-205-5055","addr":"경기도 수원시 영통구 신동 921-2번지 1층","indutype":"일반휴게음식 - 서양음식","category":"restaurant"}]},{"lat":"37.247711636","long":"127.04194723","imageIndex":4,"items":[{"name":"삼십칠점오(37.5)","tel":"","addr":"경기도 수원시 영통구 신동 926-4번지 1층","indutype":"일반휴게음식 - 서양음식","category":"restaurant"}]},{"lat":"37.246852512","long":"127.05053519","imageIndex":4,"items":[{"name":"셀렉토 커피","tel":"031-695-7447","addr":"경기도 수원시 영통구 신동 486번지 디지털엠파이어2 103동 101호","indutype":"일반휴게음식 - 서양음식","category":"restaurant"},{"name":"쥬스팩토리","tel":"031-695-7152","addr":"경기도 수원시 영통구 신동 486번지 디지털엠파이어2 103동 101호","indutype":"일반휴게음식 - 서양음식","category":"restaurant"}]},{"lat":"37.252020075","long":"127.06035603","imageIndex":4,"items":[{"name":"소금빛풍천장어","tel":"031-203-8120","addr":"경기도 수원시 영통구 신동 275-1번지 외2필지 A동","indutype":"일반휴게음식 - 일반한식","category":"restaurant"},{"name":"신동순대국","tel":"031-206-1236","addr":"경기도 수원시 영통구 신동 275-1번지","indutype":"일반휴게음식 - 일반한식","category":"restaurant"}]},{"lat":"37.247431389","long":"127.04466339","imageIndex":4,"items":[{"name":"소문난한식뷔페","tel":"031-461-9721","addr":"경기도 수원시 영통구 신동 935-1. 103호","indutype":"일반휴게음식 - 일반한식","category":"restaurant"},{"name":"장한추어탕 통닭","tel":"031-202-9259","addr":"경기도 수원시 영통구 신동 935-1번지 102호","indutype":"일반휴게음식 - 일반한식","category":"restaurant"}]},{"lat":"37.246016963","long":"127.04411034","imageIndex":4,"items":[{"name":"스쿠버포차","tel":"031-231-9200","addr":"경기도 수원시 영통구 신동 938-3번지 2층","indutype":"일반휴게음식 - 일반한식","category":"restaurant"},{"name":"싱싱회수산","tel":"031-203-4865","addr":"경기도 수원시 영통구 신동 938-3번지 1층","indutype":"일반휴게음식 - 일반한식","category":"restaurant"}]},{"lat":"37.247716659","long":"127.05258705","imageIndex":4,"items":[{"name":"신교동짬뽕","tel":"031-203-7778","addr":"경기도 수원시 영통구 신동 398-21번지 1층","indutype":"일반휴게음식 - 중국식","category":"restaurant"},{"name":"홍대","tel":"031-273-4333","addr":"경기도 수원시 영통구 신동 398-21번지 1층","indutype":"일반휴게음식 - 일반한식","category":"restaurant"}]},{"lat":"37.245909218","long":"127.04300575","imageIndex":4,"items":[{"name":"신동김밥","tel":"031-206-3343","addr":"경기도 수원시 영통구 신동 939번지 래미안영통마크원1단지 1층 103호","indutype":"일반휴게음식 - 일반한식","category":"restaurant"}]},{"lat":"37.24721568","long":"127.04310788","imageIndex":4,"items":[{"name":"신동카츠","tel":"070-7529-0334","addr":"경기도 수원시 영통구 신동 934-13번지 102호","indutype":"일반휴게음식 - 서양음식","category":"restaurant"}]},{"lat":"37.248076767","long":"127.05330863","imageIndex":4,"items":[{"name":"신통치킨","tel":"031-205-9588","addr":"경기도 수원시 영통구 신동 398-39번지 A동 106호","indutype":"일반휴게음식 - 일반한식","category":"restaurant"},{"name":"원더풀머그","tel":"031-3252-5241","addr":"경기도 수원시 영통구 신동 398-39번지 1층 103호","indutype":"일반휴게음식 - 서양음식","category":"restaurant"}]},{"lat":"37.248850798","long":"127.0552816","imageIndex":4,"items":[{"name":"씨유신동삼성점","tel":"031-273-4478","addr":"경기도 수원시 영통구 신동 396-20번지","indutype":"일반휴게음식 - 스넥","category":"restaurant"}]},{"lat":"37.24879648","long":"127.05585639","imageIndex":4,"items":[{"name":"아르떼","tel":"031-203-2388","addr":"경기도 수원시 영통구 신동 334-20번지 102호","indutype":"일반휴게음식 - 스넥","category":"restaurant"}]},{"lat":"37.248152985","long":"127.04242084","imageIndex":4,"items":[{"name":"어라운드커피","tel":"031-204-2600","addr":"경기도 수원시 영통구 신동 926번지","indutype":"일반휴게음식 - 서양음식","category":"restaurant"}]},{"lat":"37.24829592","long":"127.04594877","imageIndex":4,"items":[{"name":"에코독","tel":"031-206-7070","addr":"경기도 수원시 영통구 신동 936번지 401호","indutype":"일반휴게음식 - 서양음식","category":"restaurant"}]},{"lat":"37.247189056","long":"127.04189061","imageIndex":4,"items":[{"name":"엘린디저트카페","tel":"070-9316-2833","addr":"경기도 수원시 영통구 신동 929-1번지 1층 102호","indutype":"일반휴게음식 - 서양음식","category":"restaurant"},{"name":"홀디","tel":"031-111-1111","addr":"경기도 수원시 영통구 신동 929-1번지 1층 101호","indutype":"일반휴게음식 - 일반한식","category":"restaurant"}]},{"lat":"37.247736632","long":"127.04769545","imageIndex":4,"items":[{"name":"연평도원조꽃게","tel":"031-205-1233","addr":"경기도 수원시 영통구 신동 503-7번지","indutype":"일반휴게음식 - 일반한식","category":"restaurant"}]},{"lat":"37.251876585","long":"127.05894697","imageIndex":4,"items":[{"name":"영통맛집","tel":"031-204-7825","addr":"경기도 수원시 영통구 신동 384-8번지 1층","indutype":"일반휴게음식 - 일반한식","category":"restaurant"}]},{"lat":"37.249936089","long":"127.04513816","imageIndex":4,"items":[{"name":"오복식당","tel":"031-205-2123","addr":"경기도 수원시 영통구 신동 556-6번지 1층","indutype":"일반휴게음식 - 일반한식","category":"restaurant"}]},{"lat":"37.246323294","long":"127.04416686","imageIndex":4,"items":[{"name":"오음","tel":"070-525-2424","addr":"경기도 수원시 영통구 신동 938-1번지 1층","indutype":"일반휴게음식 - 서양음식","category":"restaurant"},{"name":"케이사이공","tel":"","addr":"경기도 수원시 영통구 신동 938-1번지 1층","indutype":"일반휴게음식 - 서양음식","category":"restaurant"}]},{"lat":"37.247242596","long":"127.04344602","imageIndex":4,"items":[{"name":"오트밀","tel":"","addr":"경기도 수원시 영통구 신동 934-6번지 1층 102호","indutype":"일반휴게음식 - 서양음식","category":"restaurant"}]},{"lat":"37.249048011","long":"127.05752471","imageIndex":4,"items":[{"name":"옥황한돈","tel":"031-202-0437","addr":"경기도 수원시 영통구 신동 340-15번지","indutype":"일반휴게음식 - 일반한식","category":"restaurant"}]},{"lat":"37.248930976","long":"127.05731047","imageIndex":4,"items":[{"name":"욕쟁이 할매","tel":"031-204-9285","addr":"경기도 수원시 영통구 신동 338-5번지 1층","indutype":"일반휴게음식 - 일반한식","category":"restaurant"}]},{"lat":"37.247296914","long":"127.0426909","imageIndex":4,"items":[{"name":"유마카롱","tel":"070-5118-2236","addr":"경기도 수원시 영통구 신동 928-4번지 1층 102호","indutype":"일반휴게음식 - 서양음식","category":"restaurant"}]},{"lat":"37.248493903","long":"127.04661387","imageIndex":4,"items":[{"name":"이화수 전통육개장","tel":"031-202-2887","addr":"경기도 수원시 영통구 신동 529-7번지 1층","indutype":"일반휴게음식 - 일반한식","category":"restaurant"}]},{"lat":"37.247905772","long":"127.05283514","imageIndex":4,"items":[{"name":"장수회관","tel":"031-203-6109","addr":"경기도 수원시 영통구 신동 398-19번지","indutype":"일반휴게음식 - 일반한식","category":"restaurant"}]},{"lat":"37.248043721","long":"127.04570066","imageIndex":4,"items":[{"name":"지구대표족발보쌈","tel":"031-205-2059","addr":"경기도 수원시 영통구 신동 936-3번지","indutype":"일반휴게음식 - 일반한식","category":"restaurant"}]},{"lat":"37.249241883","long":"127.04627617","imageIndex":4,"items":[{"name":"짬뽕나라","tel":"031-204-4044","addr":"경기도 수원시 영통구 신동 531-21번지","indutype":"일반휴게음식 - 중국식","category":"restaurant"}]},{"lat":"37.247377119","long":"127.04524945","imageIndex":4,"items":[{"name":"찜선생등갈비","tel":"031-206-6692","addr":"경기도 수원시 영통구 신동 937번지 101호","indutype":"일반휴게음식 - 일반한식","category":"restaurant"}]},{"lat":"37.246990487","long":"127.04291616","imageIndex":4,"items":[{"name":"청담동말자싸롱 신동점","tel":"031-202-4600","addr":"경기도 수원시 영통구 신동 933-13번지 1층 101-102호","indutype":"일반휴게음식 - 일반한식","category":"restaurant"}]},{"lat":"37.25190338","long":"127.05944294","imageIndex":4,"items":[{"name":"초원돌솥추어탕","tel":"031-203-5640","addr":"경기도 수원시 영통구 신동 365-1번지 1층","indutype":"일반휴게음식 - 일반한식","category":"restaurant"}]},{"lat":"37.247548484","long":"127.04477616","imageIndex":4,"items":[{"name":"충만치킨영통점","tel":"031-273-8292","addr":"경기도 수원시 영통구 신동 935번지 101호","indutype":"일반휴게음식 - 스넥","category":"restaurant"}]},{"lat":"37.249630491","long":"127.04297391","imageIndex":4,"items":[{"name":"카페드마치","tel":"031-111-1111","addr":"경기도 수원시 영통구 신동 920-2번지","indutype":"일반휴게음식 - 서양음식","category":"restaurant"}]},{"lat":"37.251462307","long":"127.05852962","imageIndex":4,"items":[{"name":"카페오드리","tel":"070-4760-7071","addr":"경기도 수원시 영통구 신동 384-12번지 101호","indutype":"일반휴게음식 - 서양음식","category":"restaurant"}]},{"lat":"37.247302662","long":"127.05143714","imageIndex":4,"items":[{"name":"카페허그","tel":"031-695-7979","addr":"경기도 수원시 영통구 신동 486번지 디지털엠파이어2 102동 119호","indutype":"일반휴게음식 - 서양음식","category":"restaurant"}]},{"lat":"37.250236852","long":"127.05864143","imageIndex":4,"items":[{"name":"토담명가","tel":"031-217-7722","addr":"경기도 수원시 영통구 신동 355번지 1층","indutype":"일반휴게음식 - 일반한식","category":"restaurant"}]},{"lat":"37.24829704","long":"127.04274778","imageIndex":4,"items":[{"name":"프로마쥬블랑","tel":"031-204-9935","addr":"경기도 수원시 영통구 신동 925-7번지 1층","indutype":"일반휴게음식 - 일반한식","category":"restaurant"}]},{"lat":"37.249210129","long":"127.05767135","imageIndex":4,"items":[{"name":"한솥도시락태장고점","tel":"031-202-8128","addr":"경기도 수원시 영통구 신동 341번지 스타빌딩 B2호","indutype":"일반휴게음식 - 일반한식","category":"restaurant"}]},{"lat":"37.247603412","long":"127.04225149","imageIndex":4,"items":[{"name":"호노호노","tel":"","addr":"경기도 수원시 영통구 신동 928-8번지 1층","indutype":"일반휴게음식 - 서양음식","category":"restaurant"}]},{"lat":"37.247963448","long":"127.04336751","imageIndex":4,"items":[{"name":"홍만두","tel":"","addr":"경기도 수원시 영통구 신동 925-4번지 1층","indutype":"일반휴게음식 - 스넥","category":"restaurant"}]},{"lat":"37.249876625","long":"127.05824667","imageIndex":4,"items":[{"name":"화성옥 망포점","tel":"031-242-3865","addr":"경기도 수원시 영통구 신동 346-4번지 101호","indutype":"일반휴게음식 - 일반한식","category":"restaurant"}]},{"lat":"37.245909218","long":"127.04300575","imageIndex":13,"items":[{"name":"Ye''s 필라테스","tel":"","addr":"경기도 수원시 영통구 신동 939번지 래미안영통마크원1단지 103동 1601호","indutype":"레저업소 - 헬스클럽","category":"leisure"},{"name":"율리너K","tel":"","addr":"경기도 수원시 영통구 신동 939번지 래미안영통마크원1단지 105동 1102호","indutype":"레저업소 - 헬스클럽","category":"leisure"}]},{"lat":"37.247404426","long":"127.04447177","imageIndex":13,"items":[{"name":"궁 노래연습장","tel":"031-258-6027","addr":"경기도 수원시 영통구 신동 935-2번지","indutype":"레저업소 - 노 래 방","category":"leisure"}]},{"lat":"37.249048011","long":"127.05752471","imageIndex":13,"items":[{"name":"김성범유도멀티짐","tel":"031-202-8265","addr":"경기도 수원시 영통구 신동 340-15번지","indutype":"레저업소 - 헬스클럽","category":"leisure"}]},{"lat":"37.251876585","long":"127.05894697","imageIndex":13,"items":[{"name":"당구사랑","tel":"031-202-1888","addr":"경기도 수원시 영통구 신동 384-8번지 2층 전체","indutype":"레저업소 - 당 구 장","category":"leisure"}]},{"lat":"37.246737662","long":"127.0444714","imageIndex":13,"items":[{"name":"더뷰스튜디오","tel":"031-204-0002","addr":"경기도 수원시 영통구 신동 937-4번지 드림타워 305,306호","indutype":"레저업소 - 헬스클럽","category":"leisure"},{"name":"디아망 수원신동점","tel":"031-714-3313","addr":"경기도 수원시 영통구 신동 937-4번지 드림타워 2층","indutype":"레저업소 - 기타레져업소","category":"leisure"},{"name":"주식회사 에스디","tel":"031-207-6777","addr":"경기도 수원시 영통구 신동 937-4번지 드림타워 지하1층 비101호","indutype":"레저업소 - 수 영 장","category":"leisure"}]},{"lat":"37.2485757","long":"127.04466402","imageIndex":13,"items":[{"name":"리버팰리스 수상레져","tel":"031-4404-3188","addr":"경기도 수원시 영통구 신동 930-7번지 302호","indutype":"레저업소 - 기타레져업소","category":"leisure"}]},{"lat":"37.2464043","long":"127.04441486","imageIndex":13,"items":[{"name":"머슬코어","tel":"031-8009-0012","addr":"경기도 수원시 영통구 신동 938번지 301호","indutype":"레저업소 - 헬스클럽","category":"leisure"}]},{"lat":"37.246016963","long":"127.04411034","imageIndex":13,"items":[{"name":"스쿠버당구장","tel":"031-203-4532","addr":"경기도 수원시 영통구 신동 938-3번지 온누리빌딩 201호","indutype":"레저업소 - 당 구 장","category":"leisure"}]},{"lat":"37.247710469","long":"127.0453398","imageIndex":13,"items":[{"name":"스타덤 PC","tel":"070-9375-8348","addr":"경기도 수원시 영통구 신동 936-6번지 2층","indutype":"레저업소 - 기타레져업소","category":"leisure"}]},{"lat":"37.247548484","long":"127.04477616","imageIndex":13,"items":[{"name":"에이치골프","tel":"","addr":"경기도 수원시 영통구 신동 935번지 301호","indutype":"레저업소 - 골프연습장","category":"leisure"}]},{"lat":"37.247017346","long":"127.04342336","imageIndex":13,"items":[{"name":"엔젤노래연습장","tel":"031-206-0727","addr":"경기도 수원시 영통구 신동 933-10번지 301호","indutype":"레저업소 - 노 래 방","category":"leisure"},{"name":"히트짐","tel":"031-205-1277","addr":"경기도 수원시 영통구 신동 933-10번지 401호","indutype":"레저업소 - 헬스클럽","category":"leisure"}]},{"lat":"37.246323294","long":"127.04416686","imageIndex":13,"items":[{"name":"와이에스짐(YS GYM)","tel":"031-205-9224","addr":"경기도 수원시 영통구 신동 938-1번지","indutype":"레저업소 - 헬스클럽","category":"leisure"}]},{"lat":"37.247716659","long":"127.05258705","imageIndex":13,"items":[{"name":"커플노래연습장","tel":"031-206-1940","addr":"경기도 수원시 영통구 신동 398-21번지 지층","indutype":"레저업소 - 노 래 방","category":"leisure"}]},{"lat":"37.24973801","long":"127.04472102","imageIndex":13,"items":[{"name":"티업갤럭시티","tel":"031-225-5757","addr":"경기도 수원시 영통구 신동 534번지","indutype":"레저업소 - 골프연습장","category":"leisure"}]},{"lat":"37.246990487","long":"127.04291616","imageIndex":13,"items":[{"name":"품안 필라테스","tel":"","addr":"경기도 수원시 영통구 신동 933-13번지 201호","indutype":"레저업소 - 헬스클럽","category":"leisure"}]},{"lat":"37.247800685","long":"127.04502426","imageIndex":13,"items":[{"name":"허니노래연습장","tel":"031-272-9172","addr":"경기도 수원시 영통구 신동 932-4번지 3층","indutype":"레저업소 - 노 래 방","category":"leisure"}]},{"lat":"37.245909218","long":"127.04300575","imageIndex":7,"items":[{"name":"구움과자점 이현","tel":"","addr":"경기도 수원시 영통구 신동 939번지 래미안영통마크원1단지 110동 104호","indutype":"음료식품 - 제과점","category":"food"}]},{"lat":"37.248044363","long":"127.04388602","imageIndex":7,"items":[{"name":"데귀스따시옹","tel":"02-1600-5845","addr":"경기도 수원시 영통구 신동 933번지 102호","indutype":"음료식품 - 제과점","category":"food"}]},{"lat":"37.246737662","long":"127.0444714","imageIndex":7,"items":[{"name":"드림파워점프 점핑다이어트","tel":"031-206-8244","addr":"경기도 수원시 영통구 신동 937-4번지 3층 303호","indutype":"건강식품 - 기타건강식품","category":"food"}]},{"lat":"37.249210129","long":"127.05767135","imageIndex":7,"items":[{"name":"비케이 인터내셔널","tel":"031-000-0000","addr":"경기도 수원시 영통구 신동 341번지 스타빌딩 4층 601호","indutype":"건강식품 - 기타건강식품","category":"food"}]},{"lat":"37.251813614","long":"127.05873276","imageIndex":7,"items":[{"name":"싱싱농원","tel":"070-1111-1111","addr":"경기도 수원시 영통구 신동 384-44번지 109동 303호","indutype":"음료식품 - 농·축·수산품","category":"food"}]},{"lat":"37.247242596","long":"127.04344602","imageIndex":7,"items":[{"name":"아장아장(아빠가만든전복장)","tel":"031-205-1154","addr":"경기도 수원시 영통구 신동 934-6번지 1층 104호","indutype":"음료식품 - 기타음료식품","category":"food"}]},{"lat":"37.249549425","long":"127.04289497","imageIndex":7,"items":[{"name":"오사랑케이크","tel":"","addr":"경기도 수원시 영통구 신동 920-5번지 1층 101호","indutype":"음료식품 - 제과점","category":"food"}]},{"lat":"37.247792534","long":"127.04253337","imageIndex":7,"items":[{"name":"일레븐팩토리(11factory)","tel":"","addr":"경기도 수원시 영통구 신동 927-3번지","indutype":"음료식품 - 기타음료식품","category":"food"}]},{"lat":"37.246323294","long":"127.04416686","imageIndex":7,"items":[{"name":"차름차름","tel":"070-8845-1745","addr":"경기도 수원시 영통구 신동 938-1번지 1층","indutype":"음료식품 - 기타음료식품","category":"food"}]},{"lat":"37.247474314","long":"127.05031016","imageIndex":7,"items":[{"name":"파리바게트수원엠파이어점","tel":"031-695-8220","addr":"경기도 수원시 영통구 신동 486번지 디지털엠파이어2 101동 105호","indutype":"음료식품 - 제과점","category":"food"}]},{"lat":"37.24716185","long":"127.04242033","imageIndex":7,"items":[{"name":"파파노아이","tel":"031-206-8204","addr":"경기도 수원시 영통구 신동 929-4번지 102호","indutype":"음료식품 - 제과점","category":"food"}]},{"lat":"37.250048156","long":"127.05752543","imageIndex":7,"items":[{"name":"헬로유통","tel":"","addr":"경기도 수원시 영통구 신동 349-1번지 702호","indutype":"음료식품 - 농·축·수산품","category":"food"}]},{"lat":"37.252129239","long":"127.05816941","imageIndex":9,"items":[{"name":"신한종합가스","tel":"031-206-2777","addr":"경기도 수원시 영통구 신동 384-5번지","indutype":"연료판매점 - 기타연료","category":"oil"},{"name":"신한종합가스","tel":"031-236-7951","addr":"경기도 수원시 영통구 신동 384-5번지","indutype":"연료판매점 - LPG 취급점","category":"oil"},{"name":"신한종합가스","tel":"031-206-2777","addr":"경기도 수원시 영통구 신동 384-5번지","indutype":"연료판매점 - 기타연료","category":"oil"}]},{"lat":"37.250048156","long":"127.05752543","imageIndex":5,"items":[{"name":"에스비하우스(SB house)","tel":"031-206-1155","addr":"경기도 수원시 영통구 신동 349-1번지","indutype":"숙박업 - 여관/기타숙박업","category":"hotel"}]},{"lat":"37.247689732","long":"127.05233907","imageIndex":7,"items":[{"name":"태양전기전자","tel":"031-203-5365","addr":"경기도 수원시 영통구 신동 398-8번지","indutype":"유통업 영리 - 슈퍼마켓","category":"mart"}]}]