[{"lat":"37.74048865","long":"127.05173471","imageIndex":8,"items":[{"name":"감초한의원","tel":"031-845-3222","addr":"경기도 의정부시 의정부동 34-17번지","indutype":"의원 - 한의원","category":"medical"},{"name":"훈치과의원","tel":"031-847-2275","addr":"경기도 의정부시 의정부동 34-17번지 2-3층","indutype":"의원 - 치과의원","category":"medical"}]},{"lat":"37.739958643","long":"127.04782027","imageIndex":8,"items":[{"name":"강앤강내과의원","tel":"031-894-7585","addr":"경기도 의정부시 의정부동 196-12번지 외1필지 퍼시픽타워 4층","indutype":"의원 - 의원","category":"medical"},{"name":"공원메디칼약국","tel":"031-841-0100","addr":"경기도 의정부시 의정부동 196-12번지 태평양타워 1층 103호","indutype":"약국 - 약국","category":"medical"},{"name":"수안과의원","tel":"031-846-3003","addr":"경기도 의정부시 의정부동 196-12번지 3층","indutype":"의원 - 의원","category":"medical"}]},{"lat":"37.740597719","long":"127.04937496","imageIndex":8,"items":[{"name":"강이비인후과의원","tel":"031-846-3462","addr":"경기도 의정부시 의정부동 180-9번지 2층","indutype":"의원 - 의원","category":"medical"},{"name":"김재성치과의원","tel":"031-841-2822","addr":"경기도 의정부시 의정부동 180-9번지 중앙로","indutype":"의원 - 치과의원","category":"medical"}]},{"lat":"37.738372456","long":"127.04912398","imageIndex":8,"items":[{"name":"강희문성형외과","tel":"031-842-3878","addr":"경기도 의정부시 의정부동 173-10번지 경선빌딩 4층","indutype":"의원 - 의원","category":"medical"}]},{"lat":"37.743318933","long":"127.04853708","imageIndex":8,"items":[{"name":"개나리치과의원","tel":"031-847-8803","addr":"경기도 의정부시 의정부동 187-18번지 3층","indutype":"의원 - 치과의원","category":"medical"}]},{"lat":"37.740677837","long":"127.05176887","imageIndex":8,"items":[{"name":"건영마취과의원","tel":"031-843-0445","addr":"경기도 의정부시 의정부동 34-12번지","indutype":"의원 - 의원","category":"medical"},{"name":"불로한의원","tel":"031-842-1900","addr":"경기도 의정부시 의정부동 34-12번지","indutype":"의원 - 한의원","category":"medical"}]},{"lat":"37.739268161","long":"127.03826728","imageIndex":8,"items":[{"name":"경진한의원","tel":"031-872-7425","addr":"경기도 의정부시 의정부동 482-7번지","indutype":"의원 - 한의원","category":"medical"}]},{"lat":"37.740488824","long":"127.05131494","imageIndex":8,"items":[{"name":"경희오종한한의원","tel":"031-821-5501","addr":"경기도 의정부시 의정부동 150-9번지","indutype":"의원 - 한의원","category":"medical"}]},{"lat":"37.748599693","long":"127.04543138","imageIndex":8,"items":[{"name":"경희필한의원","tel":"031-843-2500","addr":"경기도 의정부시 의정부동 234-17번지","indutype":"의원 - 한의원","category":"medical"},{"name":"바로정형외과","tel":"031-821-4500","addr":"경기도 의정부시 의정부동 234-17번지 대호빌딩 2층","indutype":"의원 - 의원","category":"medical"}]},{"lat":"37.741398592","long":"127.05179204","imageIndex":8,"items":[{"name":"경희한사랑한의원","tel":"031-842-1775","addr":"경기도 의정부시 의정부동 26-8번지","indutype":"의원 - 한의원","category":"medical"},{"name":"김의원","tel":"031-567-7975","addr":"경기도 의정부시 의정부동 26-8번지 3층","indutype":"의원 - 의원","category":"medical"},{"name":"코앤유의원","tel":"031-821-7506","addr":"경기도 의정부시 의정부동 26-8번지 리더스빌딩 3층","indutype":"의원 - 의원","category":"medical"},{"name":"허브치과의원","tel":"031-821-2825","addr":"경기도 의정부시 의정부동 26-8번지 리더스빌딩 5층","indutype":"의원 - 치과의원","category":"medical"}]},{"lat":"37.737515377","long":"127.05201638","imageIndex":8,"items":[{"name":"경희한의원","tel":"031-842-7844","addr":"경기도 의정부시 의정부동 145-15번지","indutype":"의원 - 한의원","category":"medical"}]},{"lat":"37.739930208","long":"127.0513713","imageIndex":8,"items":[{"name":"고운우리치과의원","tel":"031-827-2275","addr":"경기도 의정부시 의정부동 149-13번지 4층","indutype":"의원 - 치과의원","category":"medical"},{"name":"대일약국","tel":"031-846-2458","addr":"경기도 의정부시 의정부동 149-13번지 1층","indutype":"약국 - 약국","category":"medical"}]},{"lat":"37.742263543","long":"127.05171319","imageIndex":8,"items":[{"name":"광동한의원","tel":"031-821-7545","addr":"경기도 의정부시 의정부동 25-6번지","indutype":"의원 - 한의원","category":"medical"},{"name":"김욱치과의원","tel":"031-841-2875","addr":"경기도 의정부시 의정부동 25-6번지","indutype":"의원 - 치과의원","category":"medical"},{"name":"헬스팜약국","tel":"031-844-5950","addr":"경기도 의정부시 의정부동 25-6번지 1층 일부","indutype":"약국 - 약국","category":"medical"},{"name":"현대이비인후과","tel":"031-840-0990","addr":"경기도 의정부시 의정부동 25-6번지 현대이비인후과 2층","indutype":"의원 - 의원","category":"medical"}]},{"lat":"37.740904173","long":"127.04904614","imageIndex":8,"items":[{"name":"구영권마취과의원","tel":"031-821-0862","addr":"경기도 의정부시 의정부동 181-13번지 중앙빌딩 2층","indutype":"의원 - 의원","category":"medical"}]},{"lat":"37.741986068","long":"127.04709538","imageIndex":8,"items":[{"name":"국제약국","tel":"031-846-2280","addr":"경기도 의정부시 의정부동 200-3번지","indutype":"약국 - 약국","category":"medical"}]},{"lat":"37.746572606","long":"127.04526002","imageIndex":8,"items":[{"name":"굿모닝약국","tel":"031-842-1043","addr":"경기도 의정부시 의정부동 237-3번지 용호빌딩 1층","indutype":"약국 - 약국","category":"medical"},{"name":"문화의원","tel":"031-848-7322","addr":"경기도 의정부시 의정부동 237-3번지","indutype":"의원 - 의원","category":"medical"}]},{"lat":"37.735429677","long":"127.03960411","imageIndex":8,"items":[{"name":"금화약국","tel":"031-874-9701","addr":"경기도 의정부시 의정부동 551-1번지 1층 1호","indutype":"약국 - 약국","category":"medical"}]},{"lat":"37.740569666","long":"127.05190495","imageIndex":8,"items":[{"name":"김대성비뇨기과의원","tel":"031-843-1300","addr":"경기도 의정부시 의정부동 34-13번지","indutype":"의원 - 의원","category":"medical"}]},{"lat":"37.741345535","long":"127.0493187","imageIndex":8,"items":[{"name":"김비뇨기과의원","tel":"031-848-4791","addr":"경기도 의정부시 의정부동 182-14번지","indutype":"의원 - 의원","category":"medical"},{"name":"의정부중앙방사선과의","tel":"031-842-4977","addr":"경기도 의정부시 의정부동 182-14번지","indutype":"의원 - 의원","category":"medical"},{"name":"한내과의원","tel":"031-846-2166","addr":"경기도 의정부시 의정부동 182-14번지","indutype":"의원 - 의원","category":"medical"}]},{"lat":"37.741903137","long":"127.05176968","imageIndex":8,"items":[{"name":"김산부인과","tel":"031-846-3123","addr":"경기도 의정부시 의정부동 26-2번지","indutype":"의원 - 의원","category":"medical"}]},{"lat":"37.734930744","long":"127.04926932","imageIndex":8,"items":[{"name":"김성동의원","tel":"031-877-7763","addr":"경기도 의정부시 의정부동 127-7번지","indutype":"의원 - 의원","category":"medical"},{"name":"이화온누리약국","tel":"031-837-6954","addr":"경기도 의정부시 의정부동 127-7번지","indutype":"약국 - 약국","category":"medical"},{"name":"현대가정의학과의원","tel":"031-873-6633","addr":"경기도 의정부시 의정부동 127-7번지 더베이글빌딩 1층","indutype":"의원 - 의원","category":"medical"}]},{"lat":"37.740427235","long":"127.04757096","imageIndex":8,"items":[{"name":"김재하내과의원","tel":"031-844-5577","addr":"경기도 의정부시 의정부동 197-13","indutype":"의원 - 의원","category":"medical"},{"name":"애플조은치과의원","tel":"031-843-5555","addr":"경기도 의정부시 의정부동 197-13번지 2층","indutype":"의원 - 치과의원","category":"medical"}]},{"lat":"37.739543894","long":"127.04862552","imageIndex":8,"items":[{"name":"김치과의원","tel":"031-846-2828","addr":"경기도 의정부시 의정부동 176-1번지","indutype":"의원 - 치과의원","category":"medical"}]},{"lat":"37.738457166","long":"127.03870935","imageIndex":8,"items":[{"name":"나음내과","tel":"031-928-5628","addr":"경기도 의정부시 의정부동 486-11번지 네오타워빌딩 2층 201호","indutype":"의원 - 의원","category":"medical"},{"name":"푸른샘약국","tel":"031-872-3595","addr":"경기도 의정부시 의정부동 486-11번지 네오타워빌딩 제1층 제102호 일부","indutype":"약국 - 약국","category":"medical"}]},{"lat":"37.74012846","long":"127.05126932","imageIndex":8,"items":[{"name":"늘바른마취통증의학과의원","tel":"031-864-8275","addr":"경기도 의정부시 의정부동 149-7번지 ,3-4층","indutype":"의원 - 의원","category":"medical"},{"name":"우리이비인후과","tel":"031-841-5101","addr":"경기도 의정부시 의정부동 149-7번지 2층","indutype":"의원 - 의원","category":"medical"},{"name":"참조은약국","tel":"031-841-4717","addr":"경기도 의정부시 의정부동 149-7번지 1층","indutype":"약국 - 약국","category":"medical"},{"name":"청담주니스의원","tel":"031-843-8437","addr":"경기도 의정부시 의정부동 149-7번지 2층","indutype":"의원 - 의원","category":"medical"}]},{"lat":"37.738822008","long":"127.0514273","imageIndex":8,"items":[{"name":"다나손한의원","tel":"031-841-0308","addr":"경기도 의정부시 의정부동 147-26번지 2층","indutype":"의원 - 한의원","category":"medical"}]},{"lat":"37.74804104","long":"127.04560125","imageIndex":8,"items":[{"name":"다온치과","tel":"031-821-2822","addr":"경기도 의정부시 의정부동 228-26번지 플러스빌딩 5층 501호","indutype":"의원 - 치과의원","category":"medical"},{"name":"민들레한의원","tel":"031-856-1075","addr":"경기도 의정부시 의정부동 228-26번지 플러스빌딩 304호","indutype":"의원 - 한의원","category":"medical"}]},{"lat":"37.731293086","long":"127.04326614","imageIndex":8,"items":[{"name":"대덕한의원","tel":"031-855-1075","addr":"경기도 의정부시 의정부동 594-2번지 소아빌딩 3층","indutype":"의원 - 한의원","category":"medical"},{"name":"로얄펫동물병원","tel":"031-879-4478","addr":"경기도 의정부시 의정부동 594-2번지 소아빌딩 1층","indutype":"기타의료기관 - 동물병원","category":"medical"}]},{"lat":"37.74054462","long":"127.04687896","imageIndex":8,"items":[{"name":"대성한약방","tel":"031-843-1052","addr":"경기도 의정부시 의정부동 213-9번지","indutype":"약국 - 한약방","category":"medical"}]},{"lat":"37.74093092","long":"127.04976091","imageIndex":8,"items":[{"name":"대영약국","tel":"031-845-5569","addr":"경기도 의정부시 의정부동 159-12번지","indutype":"약국 - 약국","category":"medical"},{"name":"박비뇨기과의원","tel":"031-844-0123","addr":"경기도 의정부시 의정부동 159-12번지","indutype":"의원 - 의원","category":"medical"},{"name":"혜민의원","tel":"031-858-0061","addr":"경기도 의정부시 의정부동 159-12번지","indutype":"의원 - 의원","category":"medical"}]},{"lat":"37.740183999","long":"127.04751408","imageIndex":8,"items":[{"name":"동서치과의원","tel":"031-840-2804","addr":"경기도 의정부시 의정부동 196-18번지 지상3층","indutype":"의원 - 치과의원","category":"medical"},{"name":"성모바른의원","tel":"031-842-3391","addr":"경기도 의정부시 의정부동 196-18번지 2층","indutype":"의원 - 의원","category":"medical"}]},{"lat":"37.740930119","long":"127.051735","imageIndex":8,"items":[{"name":"동양한의원","tel":"031-841-8275","addr":"경기도 의정부시 의정부동 34-9번지 소림빌딩 3층","indutype":"의원 - 한의원","category":"medical"}]},{"lat":"37.738625046","long":"127.04829595","imageIndex":8,"items":[{"name":"드림약국","tel":"031-847-2474","addr":"경기도 의정부시 의정부동 175-10번지 나이키빌딩","indutype":"약국 - 약국","category":"medical"},{"name":"미소담한의원","tel":"031-856-7511","addr":"경기도 의정부시 의정부동 175-10번지 나이키빌딩 8층","indutype":"의원 - 한의원","category":"medical"},{"name":"신세계 성형외과 의원","tel":"031-848-4448","addr":"경기도 의정부시 의정부동 175-10번지 나이키빌딩 7층","indutype":"의원 - 의원","category":"medical"},{"name":"이기룡성형외과의원","tel":"031-841-3411","addr":"경기도 의정부시 의정부동 175-10번지 나이키빌딩 12층","indutype":"의원 - 의원","category":"medical"}]},{"lat":"37.736602191","long":"127.03527101","imageIndex":8,"items":[{"name":"뜨는소아청소년과의원","tel":"031-837-7530","addr":"경기도 의정부시 의정부동 526번지 석천빌딩 3층","indutype":"의원 - 의원","category":"medical"},{"name":"해맑은약국","tel":"031-837-6164","addr":"경기도 의정부시 의정부동 526번지 석천빌딩 1층","indutype":"약국 - 약국","category":"medical"}]},{"lat":"37.741876665","long":"127.0504082","imageIndex":8,"items":[{"name":"메디칼 약국","tel":"031-821-1415","addr":"경기도 의정부시 의정부동 155-12번지 1층","indutype":"약국 - 약국","category":"medical"}]},{"lat":"37.738039155","long":"127.04898764","imageIndex":8,"items":[{"name":"명보치과","tel":"031-877-2346","addr":"경기도 의정부시 의정부동 132-31번지","indutype":"의원 - 치과의원","category":"medical"}]},{"lat":"37.747815813","long":"127.04556709","imageIndex":8,"items":[{"name":"명신한의원","tel":"031-844-1075","addr":"경기도 의정부시 의정부동 228-28번지 태화빌딩 302호","indutype":"의원 - 한의원","category":"medical"}]},{"lat":"37.738210619","long":"127.04826167","imageIndex":8,"items":[{"name":"문성실정신건강의학과의원","tel":"031-876-4567","addr":"경기도 의정부시 의정부동 141-1번지 은덕빌딩 3층","indutype":"의원 - 의원","category":"medical"},{"name":"성모본치과","tel":"031-878-2804","addr":"경기도 의정부시 의정부동 141-1번지 온덕빌딩 7층","indutype":"의원 - 치과의원","category":"medical"},{"name":"센스성형외과의원","tel":"031-877-2323","addr":"경기도 의정부시 의정부동 141-1번지 은덕빌딩 다동 6층","indutype":"의원 - 의원","category":"medical"},{"name":"아름다운피부과의원","tel":"031-879-0075","addr":"경기도 의정부시 의정부동 141-1번지","indutype":"의원 - 의원","category":"medical"},{"name":"유한약국","tel":"031-837-1761","addr":"경기도 의정부시 의정부동 141-1번지 은덕빌딩 다동 1층","indutype":"약국 - 약국","category":"medical"},{"name":"타브로항외과의원","tel":"031-836-7582","addr":"경기도 의정부시 의정부동 141-1번지 유로빌딩 4층","indutype":"의원 - 의원","category":"medical"}]},{"lat":"37.749536994","long":"127.04456957","imageIndex":8,"items":[{"name":"미건메디컬약국","tel":"031-846-9001","addr":"경기도 의정부시 의정부동 235-19번지 미건메디컬프라자 107호,108호","indutype":"약국 - 약국","category":"medical"},{"name":"삼성열린치과의원","tel":"031-846-2882","addr":"경기도 의정부시 의정부동 235-19번지 미건메디컬프라자 203호","indutype":"의원 - 치과의원","category":"medical"},{"name":"청우병원","tel":"031-840-6500","addr":"경기도 의정부시 의정부동 235-19번지 미건메디컬프라자 지하1층 ,4,5층","indutype":"병원 - 병원","category":"medical"}]},{"lat":"37.738707546","long":"127.04446139","imageIndex":8,"items":[{"name":"미소로한의원","tel":"070-4587-4587","addr":"경기도 의정부시 의정부동 442-12번지 광장타워 8층 802호","indutype":"의원 - 한의원","category":"medical"},{"name":"미즈산부인과의원","tel":"031-855-9648","addr":"경기도 의정부시 의정부동 442-12번지 광장타워 505호","indutype":"의원 - 의원","category":"medical"},{"name":"블리비의원","tel":"","addr":"경기도 의정부시 의정부동 442-12번지 광장타워 제602호, 제603호","indutype":"의원 - 의원","category":"medical"},{"name":"서울에스(S)치과교정과 치과의원","tel":"031-840-2080","addr":"경기도 의정부시 의정부동 442-12번지 광장타워 3층","indutype":"의원 - 치과의원","category":"medical"},{"name":"신명기정신과의원","tel":"031-843-8643","addr":"경기도 의정부시 의정부동 442-12번지 광장타워 404호","indutype":"의원 - 의원","category":"medical"},{"name":"철인약국","tel":"070-8884-2980","addr":"경기도 의정부시 의정부동 442-12번지 광장타워 103호","indutype":"약국 - 약국","category":"medical"}]},{"lat":"37.737960073","long":"127.04354204","imageIndex":8,"items":[{"name":"미올한의원","tel":"031-855-1600","addr":"경기도 의정부시 의정부동 494번지 센트럴타워 4층 401-가,나.다호","indutype":"의원 - 한의원","category":"medical"},{"name":"서울엔(N)비뇨의학과의원","tel":"031-879-9111","addr":"경기도 의정부시 의정부동 494번지 센트럴타워 외6필지 5층 501,502호","indutype":"의원 - 의원","category":"medical"},{"name":"센트럴약국","tel":"031-870-1999","addr":"경기도 의정부시 의정부동 494번지 센트럴파크 A동 117호","indutype":"약국 - 약국","category":"medical"},{"name":"엔터약국","tel":"031-870-2255","addr":"경기도 의정부시 의정부동 494번지 센트럴파크 612호","indutype":"약국 - 약국","category":"medical"},{"name":"연세신경정신과의원","tel":"031-873-9545","addr":"경기도 의정부시 의정부동 494번지 외 6필지 센트럴타워 4층 407호","indutype":"의원 - 의원","category":"medical"}]},{"lat":"37.740705803","long":"127.04945445","imageIndex":8,"items":[{"name":"바다약국","tel":"031-846-2628","addr":"경기도 의정부시 의정부동 180-2번지","indutype":"약국 - 약국","category":"medical"}]},{"lat":"37.737345827","long":"127.04793214","imageIndex":8,"items":[{"name":"바라다동물병원","tel":"031-876-7582","addr":"경기도 의정부시 의정부동 140-15번지","indutype":"기타의료기관 - 동물병원","category":"medical"}]},{"lat":"37.74187814","long":"127.04659612","imageIndex":8,"items":[{"name":"바른동물병원","tel":"031-842-7582","addr":"경기도 의정부시 의정부동 210-1번지 명빌딩 101호","indutype":"기타의료기관 - 동물병원","category":"medical"}]},{"lat":"37.743876676","long":"127.05068178","imageIndex":8,"items":[{"name":"바른손한의원","tel":"031-894-8185","addr":"경기도 의정부시 의정부동 214-84번지 남평프라자 A동 1층 대로변 우측2칸","indutype":"의원 - 한의원","category":"medical"},{"name":"진심약국","tel":"031-841-5690","addr":"경기도 의정부시 의정부동 214-84번지 남평프라자 1층","indutype":"약국 - 약국","category":"medical"}]},{"lat":"37.738182339","long":"127.05140419","imageIndex":8,"items":[{"name":"박치과의원","tel":"031-847-2800","addr":"경기도 의정부시 의정부동 147-21번지","indutype":"의원 - 치과의원","category":"medical"}]},{"lat":"37.735653803","long":"127.04301893","imageIndex":8,"items":[{"name":"박희철내과의원","tel":"031-874-5075","addr":"경기도 의정부시 의정부동 566번지 준프라자 3층","indutype":"의원 - 의원","category":"medical"},{"name":"연세본정형외과의원","tel":"031-837-0885","addr":"경기도 의정부시 의정부동 566번지 준프라자 4층","indutype":"의원 - 의원","category":"medical"}]},{"lat":"37.740237853","long":"127.04804734","imageIndex":8,"items":[{"name":"반종호내과의원","tel":"031-846-2418","addr":"경기도 의정부시 의정부동 196-3번지","indutype":"의원 - 의원","category":"medical"}]},{"lat":"37.737871044","long":"127.04032004","imageIndex":8,"items":[{"name":"밝은서울안과의원","tel":"031-874-4105","addr":"경기도 의정부시 의정부동 492-2번지 5층","indutype":"의원 - 의원","category":"medical"},{"name":"연세이비인후과의원","tel":"031-878-4748","addr":"경기도 의정부시 의정부동 492-2번지 아이월드빌딩 2층 102호","indutype":"의원 - 의원","category":"medical"},{"name":"이희대정형외과의원","tel":"031-871-0902","addr":"경기도 의정부시 의정부동 492-2번지 아이월드빌딩 4층","indutype":"의원 - 의원","category":"medical"}]},{"lat":"37.738929949","long":"127.05184714","imageIndex":8,"items":[{"name":"백세치과","tel":"031-827-7575","addr":"경기도 의정부시 의정부동 126-4번지","indutype":"의원 - 치과의원","category":"medical"},{"name":"신일한의원","tel":"031-847-1050","addr":"경기도 의정부시 의정부동 126-4번지","indutype":"의원 - 한의원","category":"medical"},{"name":"이석재치과","tel":"031-855-2804","addr":"경기도 의정부시 의정부동 126-4번지","indutype":"의원 - 치과의원","category":"medical"}]},{"lat":"37.738509904","long":"127.04281626","imageIndex":8,"items":[{"name":"베스트의원","tel":"031-871-8076","addr":"경기도 의정부시 의정부동 431-24번지 구성타워 6층","indutype":"의원 - 의원","category":"medical"},{"name":"연세W치과의원","tel":"031-837-9775","addr":"경기도 의정부시 의정부동 431-24번지 구성타워 5층","indutype":"의원 - 치과의원","category":"medical"},{"name":"오고싶은한의원","tel":"031-829-5966","addr":"경기도 의정부시 의정부동 431-24번지 구성타워 7층","indutype":"의원 - 한의원","category":"medical"}]},{"lat":"37.741156159","long":"127.04976105","imageIndex":8,"items":[{"name":"보건치과","tel":"031-843-5528","addr":"경기도 의정부시 의정부동 159-8번지","indutype":"의원 - 치과의원","category":"medical"}]},{"lat":"37.743795746","long":"127.05029597","imageIndex":8,"items":[{"name":"불로초한의원","tel":"031-846-3479","addr":"경기도 의정부시 의정부동 214-96번지","indutype":"의원 - 한의원","category":"medical"}]},{"lat":"37.747067918","long":"127.04585031","imageIndex":8,"items":[{"name":"사거리약국","tel":"031-847-9031","addr":"경기도 의정부시 의정부동 228-11번지 1층","indutype":"약국 - 약국","category":"medical"}]},{"lat":"37.738767984","long":"127.05134785","imageIndex":8,"items":[{"name":"사랑마취통증의학과의원","tel":"031-821-8875","addr":"경기도 의정부시 의정부동 147-27번지 301,302호","indutype":"의원 - 의원","category":"medical"}]},{"lat":"37.7390125","long":"127.04818274","imageIndex":8,"items":[{"name":"서울다나을치과의원","tel":"031-840-1300","addr":"경기도 의정부시 의정부동 176-10번지 진성빌딩 3층","indutype":"의원 - 치과의원","category":"medical"}]},{"lat":"37.738570905","long":"127.04851148","imageIndex":8,"items":[{"name":"서울성모정신건강의학과의원","tel":"031-1544-3087","addr":"경기도 의정부시 의정부동 175-14번지 2층","indutype":"의원 - 의원","category":"medical"},{"name":"성미에스(S)성형외과의원","tel":"031-843-0572","addr":"경기도 의정부시 의정부동 175-14번지 3층 4층","indutype":"의원 - 의원","category":"medical"}]},{"lat":"37.7379579715","long":"127.0492371729","imageIndex":8,"items":[{"name":"서울한의원","tel":"031-877-2155","addr":"경기도 의정부시 의정부동 132-45번지","indutype":"의원 - 한의원","category":"medical"},{"name":"시민약국","tel":"031-877-5861","addr":"경기도 의정부시 의정부동 132-45번지 1층","indutype":"약국 - 약국","category":"medical"}]},{"lat":"37.741345468","long":"127.04948888","imageIndex":8,"items":[{"name":"성모맑은숨이비인후과의원","tel":"031-846-6112","addr":"경기도 의정부시 의정부동 182-13번지 2층","indutype":"의원 - 의원","category":"medical"}]},{"lat":"37.747176065","long":"127.04575961","imageIndex":8,"items":[{"name":"성베드로치과의원","tel":"031-856-2887","addr":"경기도 의정부시 의정부동 228-9번지 대흥빌딩 3층","indutype":"의원 - 치과의원","category":"medical"}]},{"lat":"37.743265425","long":"127.04709614","imageIndex":8,"items":[{"name":"성심정형외과","tel":"031-846-2954","addr":"경기도 의정부시 의정부동 205-33번지","indutype":"의원 - 의원","category":"medical"}]},{"lat":"37.742318009","long":"127.05071481","imageIndex":8,"items":[{"name":"세브란스치과의원","tel":"031-844-2875","addr":"경기도 의정부시 의정부동 154-4번지 중앙로빌딩 4층","indutype":"의원 - 치과의원","category":"medical"}]},{"lat":"37.73753829","long":"127.03837991","imageIndex":8,"items":[{"name":"세중정신과","tel":"031-871-6258","addr":"경기도 의정부시 의정부동 491-9번지","indutype":"의원 - 의원","category":"medical"}]},{"lat":"37.740426582","long":"127.0492614","imageIndex":8,"items":[{"name":"소망약국","tel":"031-821-8002","addr":"경기도 의정부시 의정부동 180-4번지","indutype":"약국 - 약국","category":"medical"}]},{"lat":"37.740681531","long":"127.04185307","imageIndex":8,"items":[{"name":"소망주차장 약국","tel":"031-837-0303","addr":"경기도 의정부시 의정부동 427-34번지 101호","indutype":"약국 - 약국","category":"medical"}]},{"lat":"37.741426576","long":"127.04943221","imageIndex":8,"items":[{"name":"송약국","tel":"031-846-2526","addr":"경기도 의정부시 의정부동 182-12번지 1층","indutype":"약국 - 약국","category":"medical"},{"name":"이철희성형외과","tel":"031-841-0248","addr":"경기도 의정부시 의정부동 182-12번지","indutype":"의원 - 의원","category":"medical"}]},{"lat":"37.742065529","long":"127.05123655","imageIndex":8,"items":[{"name":"송원한약","tel":"031-846-2958","addr":"경기도 의정부시 의정부동 152-15번지","indutype":"약국 - 한약방","category":"medical"}]},{"lat":"37.749176263","long":"127.04554517","imageIndex":8,"items":[{"name":"수온누리약국","tel":"031-841-0087","addr":"경기도 의정부시 의정부동 234-29번지 한진그랑빌 106동 1층 101호","indutype":"약국 - 약국","category":"medical"}]},{"lat":"37.737768506","long":"127.0499064","imageIndex":8,"items":[{"name":"수정약국","tel":"031-843-0123","addr":"경기도 의정부시 의정부동 131-1번지","indutype":"약국 - 한약방","category":"medical"}]},{"lat":"37.73801096","long":"127.05188057","imageIndex":8,"items":[{"name":"슈퍼약국","tel":"031-846-3475","addr":"경기도 의정부시 의정부동 145-1번지","indutype":"약국 - 약국","category":"medical"},{"name":"제일마취통증의학과의원","tel":"031-840-2407","addr":"경기도 의정부시 의정부동 145-1번지 2층","indutype":"의원 - 의원","category":"medical"}]},{"lat":"37.744128511","long":"127.0517371","imageIndex":8,"items":[{"name":"스타약국","tel":"031-845-0333","addr":"경기도 의정부시 의정부동 9-24번지 원승빌딩 1층 2호","indutype":"약국 - 약국","category":"medical"},{"name":"차정형외과","tel":"031-847-8171","addr":"경기도 의정부시 의정부동 9-24번지 외4필지 승원빌딩 2층","indutype":"의원 - 의원","category":"medical"}]},{"lat":"37.736902901","long":"127.05159622","imageIndex":8,"items":[{"name":"신농씨한의원","tel":"031-873-5700","addr":"경기도 의정부시 의정부동 94-6번지 황궁빌딩 5층","indutype":"의원 - 한의원","category":"medical"}]},{"lat":"37.738677682","long":"127.05184697","imageIndex":8,"items":[{"name":"신소연산부인과","tel":"031-848-3001","addr":"경기도 의정부시 의정부동 126-7번지","indutype":"의원 - 의원","category":"medical"}]},{"lat":"37.740794961","long":"127.05176895","imageIndex":8,"items":[{"name":"신원약국","tel":"031-841-0076","addr":"경기도 의정부시 의정부동 34-22번지 1층","indutype":"약국 - 약국","category":"medical"}]},{"lat":"37.744625004","long":"127.04934344","imageIndex":8,"items":[{"name":"신진약국","tel":"031-846-3453","addr":"경기도 의정부시 의정부동 220-51번지","indutype":"약국 - 약국","category":"medical"}]},{"lat":"37.74968092","long":"127.04520506","imageIndex":8,"items":[{"name":"안암한의원","tel":"031-843-2119","addr":"경기도 의정부시 의정부동 234-2번지","indutype":"의원 - 한의원","category":"medical"}]},{"lat":"37.741345301","long":"127.04990866","imageIndex":8,"items":[{"name":"양태유 피부비뇨기과","tel":"031-856-1100","addr":"경기도 의정부시 의정부동 155-24번지","indutype":"의원 - 의원","category":"medical"}]},{"lat":"37.741515726","long":"127.05176942","imageIndex":8,"items":[{"name":"에이스동물메디컬센터","tel":"031-875-8090","addr":"경기도 의정부시 의정부동 26-6번지 2층","indutype":"기타의료기관 - 동물병원","category":"medical"}]},{"lat":"37.741129306","long":"127.04931857","imageIndex":8,"items":[{"name":"엔젤팜약국","tel":"031-856-4900","addr":"경기도 의정부시 의정부동 181-1번지","indutype":"약국 - 약국","category":"medical"}]},{"lat":"37.742128399","long":"127.0517131","imageIndex":8,"items":[{"name":"연세약국","tel":"031-842-1700","addr":"경기도 의정부시 의정부동 25-16번지 대양빌딩","indutype":"약국 - 약국","category":"medical"}]},{"lat":"37.741122534","long":"127.04323744","imageIndex":8,"items":[{"name":"연수온누리약국","tel":"031-855-8208","addr":"경기도 의정부시 의정부동 434번지 유림빌딩 1층","indutype":"약국 - 약국","category":"medical"}]},{"lat":"37.744904846","long":"127.04793672","imageIndex":8,"items":[{"name":"연화복지의원","tel":"031-844-1080","addr":"경기도 의정부시 의정부동 221-9번지","indutype":"의원 - 의원","category":"medical"}]},{"lat":"37.737822775","long":"127.04937323","imageIndex":8,"items":[{"name":"염정형외과의원","tel":"031-875-2521","addr":"경기도 의정부시 의정부동 132-40번지","indutype":"의원 - 의원","category":"medical"}]},{"lat":"37.740706332","long":"127.04809301","imageIndex":8,"items":[{"name":"예일항외과의원","tel":"031-840-8275","addr":"경기도 의정부시 의정부동 198-8번지","indutype":"의원 - 의원","category":"medical"}]},{"lat":"37.737768103","long":"127.05090475","imageIndex":8,"items":[{"name":"오혜숙산부인과","tel":"031-843-3003","addr":"경기도 의정부시 의정부동 172-32번지","indutype":"의원 - 의원","category":"medical"}]},{"lat":"37.738483972","long":"127.03943544","imageIndex":8,"items":[{"name":"요한비뇨기과","tel":"031-855-8822","addr":"경기도 의정부시 의정부동 486-7번지 의정부대정프라자 3층 3호","indutype":"의원 - 의원","category":"medical"},{"name":"행복한치과의원","tel":"031-826-3363","addr":"경기도 의정부시 의정부동 486-7번지 대정프라자 4층 404호","indutype":"의원 - 치과의원","category":"medical"}]},{"lat":"37.741681483","long":"127.04218261","imageIndex":8,"items":[{"name":"용약국","tel":"031-872-2566","addr":"경기도 의정부시 의정부동 250-4번지","indutype":"약국 - 약국","category":"medical"}]},{"lat":"37.738599539","long":"127.04415502","imageIndex":8,"items":[{"name":"유원의원","tel":"031-894-7061","addr":"경기도 의정부시 의정부동 442-11번지 서부타워 501~502호","indutype":"의원 - 의원","category":"medical"}]},{"lat":"37.743236928","long":"127.05085155","imageIndex":8,"items":[{"name":"의정부 한의원","tel":"031-843-6055","addr":"경기도 의정부시 의정부동 185-9번지","indutype":"의원 - 한의원","category":"medical"}]},{"lat":"37.744344144","long":"127.05315548","imageIndex":8,"items":[{"name":"의정부연세요양병원","tel":"031-821-6500","addr":"경기도 의정부시 의정부동 15-2번지","indutype":"병원 - 병원","category":"medical"}]},{"lat":"37.743426143","long":"127.05081764","imageIndex":8,"items":[{"name":"의정부웰빙의원","tel":"031-856-0718","addr":"경기도 의정부시 의정부동 185-2번지","indutype":"의원 - 의원","category":"medical"}]},{"lat":"37.737154962","long":"127.05209556","imageIndex":8,"items":[{"name":"의정부종합동물병원","tel":"031-846-9600","addr":"경기도 의정부시 의정부동 94-2번지","indutype":"기타의료기관 - 동물병원","category":"medical"}]},{"lat":"37.732653739","long":"127.0426543","imageIndex":8,"items":[{"name":"의정부파티마의원","tel":"031-878-9009","addr":"경기도 의정부시 의정부동 592-2번지 대성빌딩 2층","indutype":"의원 - 의원","category":"medical"}]},{"lat":"37.738515496","long":"127.0518809","imageIndex":8,"items":[{"name":"이경모치과의원","tel":"031-856-0591","addr":"경기도 의정부시 의정부동 126-9번지","indutype":"의원 - 치과의원","category":"medical"}]},{"lat":"37.739984274","long":"127.05134864","imageIndex":8,"items":[{"name":"이라인치과의원","tel":"031-856-2818","addr":"경기도 의정부시 의정부동 149-12번지 2층","indutype":"의원 - 치과의원","category":"medical"}]},{"lat":"37.748347426","long":"127.04543123","imageIndex":8,"items":[{"name":"이사랑치과","tel":"031-856-8446","addr":"경기도 의정부시 의정부동 228-1번지 2층","indutype":"의원 - 치과의원","category":"medical"}]},{"lat":"37.739266023","long":"127.04479071","imageIndex":8,"items":[{"name":"이은재의원","tel":"031-876-4364","addr":"경기도 의정부시 의정부동 439-23번지 의정부해태프라자 403호","indutype":"의원 - 의원","category":"medical"},{"name":"이준식치과","tel":"031-829-2882","addr":"경기도 의정부시 의정부동 439-23번지 의정부해태프라자 304호","indutype":"의원 - 치과의원","category":"medical"}]},{"lat":"37.732680672","long":"127.04293791","imageIndex":8,"items":[{"name":"이재호치과의원","tel":"031-872-9333","addr":"경기도 의정부시 의정부동 592-4번지 길빌딩 3층","indutype":"의원 - 치과의원","category":"medical"},{"name":"제일한의원","tel":"031-876-6942","addr":"경기도 의정부시 의정부동 592-4번지","indutype":"의원 - 한의원","category":"medical"}]},{"lat":"37.732907973","long":"127.03632441","imageIndex":8,"items":[{"name":"자연담은","tel":"031-874-4577","addr":"경기도 의정부시 의정부동 534-5번지 2층","indutype":"약국 - 한약방","category":"medical"}]},{"lat":"37.738930249","long":"127.05112106","imageIndex":8,"items":[{"name":"장수한의원","tel":"031-846-1191","addr":"경기도 의정부시 의정부동 147-1번지 2층","indutype":"의원 - 한의원","category":"medical"}]},{"lat":"37.742795083","long":"127.05177027","imageIndex":8,"items":[{"name":"제일동물병원","tel":"031-848-8603","addr":"경기도 의정부시 의정부동 25-2번지","indutype":"기타의료기관 - 동물병원","category":"medical"}]},{"lat":"37.741510396","long":"127.04189889","imageIndex":8,"items":[{"name":"제일약국","tel":"031-836-3297","addr":"경기도 의정부시 의정부동 427-22번지","indutype":"약국 - 약국","category":"medical"}]},{"lat":"37.738407381","long":"127.05188083","imageIndex":8,"items":[{"name":"제일팜약국","tel":"031-842-7371","addr":"경기도 의정부시 의정부동 126-10번지","indutype":"약국 - 약국","category":"medical"}]},{"lat":"37.739821905","long":"127.05182504","imageIndex":8,"items":[{"name":"제중치과의원","tel":"031-842-2875","addr":"경기도 의정부시 의정부동 121-17번지","indutype":"의원 - 치과의원","category":"medical"}]},{"lat":"37.739903005","long":"127.05179105","imageIndex":8,"items":[{"name":"제통한의원","tel":"031-848-1932","addr":"경기도 의정부시 의정부동 121-12번지 1층","indutype":"의원 - 한의원","category":"medical"}]},{"lat":"37.737732558","long":"127.04967948","imageIndex":8,"items":[{"name":"중앙한의원","tel":"031-877-2341","addr":"경기도 의정부시 의정부동 132-25번지 1,2층","indutype":"의원 - 한의원","category":"medical"}]},{"lat":"37.741705575","long":"127.05018118","imageIndex":8,"items":[{"name":"진이비인후과","tel":"031-842-3757","addr":"경기도 의정부시 의정부동 155-21번지","indutype":"의원 - 의원","category":"medical"}]},{"lat":"37.748599941","long":"127.04473924","imageIndex":8,"items":[{"name":"참고은의원","tel":"031-847-5882","addr":"경기도 의정부시 의정부동 235-17번지 미림프라자 302호","indutype":"의원 - 의원","category":"medical"},{"name":"한성치과","tel":"031-842-1113","addr":"경기도 의정부시 의정부동 235-17번지 미림프라자 303호","indutype":"의원 - 치과의원","category":"medical"}]},{"lat":"37.747509468","long":"127.04562364","imageIndex":8,"items":[{"name":"참약국","tel":"031-821-1917","addr":"경기도 의정부시 의정부동 228-21번지","indutype":"약국 - 약국","category":"medical"}]},{"lat":"37.73962515","long":"127.04818311","imageIndex":8,"items":[{"name":"최주현피부과의원","tel":"031-842-1756","addr":"경기도 의정부시 의정부동 195-1번지 3층","indutype":"의원 - 의원","category":"medical"}]},{"lat":"37.747870071","long":"127.04501114","imageIndex":8,"items":[{"name":"최치과의원","tel":"031-848-6023","addr":"경기도 의정부시 의정부동 236-15번지","indutype":"의원 - 치과의원","category":"medical"}]},{"lat":"37.740236565","long":"127.05129208","imageIndex":8,"items":[{"name":"탑라인의원","tel":"031-856-8568","addr":"경기도 의정부시 의정부동 149-21번지 (22,23(2층))","indutype":"의원 - 의원","category":"medical"}]},{"lat":"37.731510661","long":"127.03912573","imageIndex":8,"items":[{"name":"팜플러스원주식회사","tel":"031-837-4450","addr":"경기도 의정부시 의정부동 605-2번지 ,2,3층","indutype":"약국 - 제약회사","category":"medical"}]},{"lat":"37.741489634","long":"127.04945494","imageIndex":8,"items":[{"name":"펫인쥬 동물병원","tel":"031-928-5068","addr":"경기도 의정부시 의정부동 182-8번지 2층","indutype":"기타의료기관 - 동물병원","category":"medical"}]},{"lat":"37.74342605","long":"127.05104455","imageIndex":8,"items":[{"name":"프렌즈동물병원","tel":"031-845-2500","addr":"경기도 의정부시 의정부동 185-1번지","indutype":"기타의료기관 - 동물병원","category":"medical"}]},{"lat":"37.738849352","long":"127.05065586","imageIndex":8,"items":[{"name":"해담 한의원","tel":"031-821-7510","addr":"경기도 의정부시 의정부동 170-5번지 2층","indutype":"의원 - 한의원","category":"medical"}]},{"lat":"37.738930123","long":"127.05142737","imageIndex":8,"items":[{"name":"행복드림치과","tel":"031-844-2870","addr":"경기도 의정부시 의정부동 147-25번지","indutype":"의원 - 치과의원","category":"medical"}]},{"lat":"37.743317571","long":"127.05192945","imageIndex":8,"items":[{"name":"혜수애견종합병원","tel":"031-848-2430","addr":"경기도 의정부시 의정부동 17-5번지","indutype":"기타의료기관 - 동물병원","category":"medical"}]},{"lat":"37.741984761","long":"127.05045365","imageIndex":8,"items":[{"name":"황부근안과","tel":"031-846-9595","addr":"경기도 의정부시 의정부동 155-8번지 3층 2호","indutype":"의원 - 의원","category":"medical"}]},{"lat":"37.741182569","long":"127.0512927","imageIndex":8,"items":[{"name":"효치과의원","tel":"031-842-2804","addr":"경기도 의정부시 의정부동 150-1번지 3층","indutype":"의원 - 치과의원","category":"medical"}]}]