[{"lat":"37.713581899","long":"127.30718811","imageIndex":5,"items":[{"name":"그리심","tel":"031-592-6050","addr":"경기도 남양주시 수동면 지둔리 48-3","indutype":"숙박업 - 여관/기타숙박업","category":"hotel"}]},{"lat":"37.714212423","long":"127.30018181","imageIndex":5,"items":[{"name":"남양주휴림펜션","tel":"070-5570-4940","addr":"경기도 남양주시 수동면 지둔리 370번지","indutype":"숙박업 - 여관/기타숙박업","category":"hotel"}]},{"lat":"37.726546139","long":"127.29673742","imageIndex":5,"items":[{"name":"스카이글램핑","tel":"031-512-5678","addr":"경기도 남양주시 수동면 지둔리 246번지","indutype":"숙박업 - 여관/기타숙박업","category":"hotel"}]},{"lat":"37.713076138","long":"127.30766237","imageIndex":5,"items":[{"name":"안다미로","tel":"031-559-0956","addr":"경기도 남양주시 수동면 지둔리 48-1번지 외1필지","indutype":"숙박업 - 여관/기타숙박업","category":"hotel"}]},{"lat":"37.727857641","long":"127.29101422","imageIndex":5,"items":[{"name":"자작나무관광농원","tel":"031-595-0987","addr":"경기도 남양주시 수동면 지둔리 262-1번지 외8필지","indutype":"숙박업 - 여관/기타숙박업","category":"hotel"}]},{"lat":"37.726381956","long":"127.30112655","imageIndex":5,"items":[{"name":"파인빌(Pine Vill)","tel":"","addr":"경기도 남양주시 수동면 지둔리 227-1번지","indutype":"숙박업 - 여관/기타숙박업","category":"hotel"}]},{"lat":"37.704103873","long":"127.30365674","imageIndex":5,"items":[{"name":"포시즌펜션","tel":"070-4325-8005","addr":"경기도 남양주시 수동면 지둔리 76번지","indutype":"숙박업 - 여관/기타숙박업","category":"hotel"}]},{"lat":"37.711219247","long":"127.30801767","imageIndex":5,"items":[{"name":"해드림펜션","tel":"031-591-1677","addr":"경기도 남양주시 수동면 지둔리 56-2번지","indutype":"숙박업 - 여관/기타숙박업","category":"hotel"}]},{"lat":"37.713302751","long":"127.30713027","imageIndex":5,"items":[{"name":"힐링펜션","tel":"031-511-7071","addr":"경기도 남양주시 수동면 지둔리 48-15번지","indutype":"숙박업 - 여관/기타숙박업","category":"hotel"},{"name":"힐링펜션","tel":"031-511-7071","addr":"경기도 남양주시 수동면 지둔리 48-15번지","indutype":"숙박업 - 여관/기타숙박업","category":"hotel"}]}]