[{"lat":"37.348748718","long":"126.95374239","imageIndex":7,"items":[{"name":"(Re)생 당정지사","tel":"","addr":"경기도 군포시 당정동 522번지 SK벤티움 101동 705호","indutype":"건강식품 - 기타건강식품","category":"food"},{"name":"왕송농원","tel":"031-427-0300","addr":"경기도 군포시 당정동 522번지 SK벤티움 101동 403호","indutype":"음료식품 - 농·축·수산품","category":"food"},{"name":"주식회사케익드라마","tel":"031-456-0520","addr":"경기도 군포시 당정동 522 에스케이벤티움101동601~603호","indutype":"음료식품 - 제과점","category":"food"}]},{"lat":"37.351974703","long":"126.95458678","imageIndex":7,"items":[{"name":"(주)대흥 에프엔비","tel":"031-457-0111","addr":"경기도 군포시 당정동 473-5번지 4층","indutype":"음료식품 - 기타음료식품","category":"food"}]},{"lat":"37.353175121","long":"126.95994721","imageIndex":7,"items":[{"name":"(주)두비산업","tel":"070-4620-1103","addr":"경기도 군포시 당정동 372-6번지","indutype":"음료식품 - 기타음료식품","category":"food"}]},{"lat":"37.349063493","long":"126.95236528","imageIndex":7,"items":[{"name":"(주)아라인터코아","tel":"031-436-0500","addr":"경기도 군포시 당정동 522번지 에스케이벤티움 103동 305호","indutype":"건강식품 - 기타건강식품","category":"food"},{"name":"아이비티 주식회사","tel":"031-456-0150","addr":"경기도 군포시 당정동 522번지 에스케이벤티움 103동 910호","indutype":"음료식품 - 기타음료식품","category":"food"},{"name":"주식회사 산쪼메","tel":"031-477-6669","addr":"경기도 군포시 당정동 522번지 SK벤티움 103동 501호","indutype":"음료식품 - 기타음료식품","category":"food"},{"name":"주식회사 팀케이","tel":"031-000-0000","addr":"경기도 군포시 당정동 522번지 SK벤티움 103동 908호","indutype":"음료식품 - 기타음료식품","category":"food"},{"name":"주식회사 하늘","tel":"031-451-8333","addr":"경기도 군포시 당정동 522번지 SK벤티움 103동 1006호","indutype":"음료식품 - 기타음료식품","category":"food"}]},{"lat":"37.365589761","long":"126.95639552","imageIndex":7,"items":[{"name":"(주)이에스식품원료","tel":"02-1599-3150","addr":"경기도 군포시 당정동 2-3번지 신일IT유토지식산업센터 104호","indutype":"음료식품 - 기타음료식품","category":"food"},{"name":"우일효소","tel":"031-689-5677","addr":"경기도 군포시 당정동 2-3번지 신일IT유토지식산업센터 409호","indutype":"회원제형태 - 건강식품","category":"food"}]},{"lat":"37.356056495","long":"126.95505822","imageIndex":7,"items":[{"name":"(주)진우식품","tel":"031-457-2393","addr":"경기도 군포시 당정동 337-6번지","indutype":"음료식품 - 기타음료식품","category":"food"}]},{"lat":"37.363500343","long":"126.95883507","imageIndex":7,"items":[{"name":"(주)클린푸드팩토리","tel":"031-451-3651","addr":"경기도 군포시 당정동 16-1번지 한솔테크노타운 5층 508호","indutype":"음료식품 - 기타음료식품","category":"food"},{"name":"블루키친","tel":"070-4649-1102","addr":"경기도 군포시 당정동 16-1번지 한솔테크노타운 1층 107호","indutype":"음료식품 - 기타음료식품","category":"food"},{"name":"오베리굿 주식회사","tel":"031-1670-8797","addr":"경기도 군포시 당정동 16-1번지 한솔테크노타운 705호","indutype":"음료식품 - 기타음료식품","category":"food"}]},{"lat":"37.358227808","long":"126.95472951","imageIndex":7,"items":[{"name":"(주)토토미트원","tel":"031-451-0522","addr":"경기도 군포시 당정동 181-32번지","indutype":"음료식품 - 정육점","category":"food"}]},{"lat":"37.355000948","long":"126.95180823","imageIndex":7,"items":[{"name":"(주)하나에프에스","tel":"031-451-9296","addr":"경기도 군포시 당정동 294-11번지 2층","indutype":"음료식품 - 기타음료식품","category":"food"},{"name":"주식회사 하나에프에스","tel":"031-481-9297","addr":"경기도 군포시 당정동 294-11번지 2층","indutype":"음료식품 - 기타음료식품","category":"food"}]},{"lat":"37.342396565","long":"126.95378038","imageIndex":7,"items":[{"name":"(주)한세대마리아마인드","tel":"031-429-2205","addr":"경기도 군포시 당정동 604-5 한세대학교내","indutype":"음료식품 - 기타음료식품","category":"food"}]},{"lat":"37.346975135","long":"126.95728729","imageIndex":7,"items":[{"name":"JB인터내셔널","tel":"070-7630-2222","addr":"경기도 군포시 당정동 982-4번지 뷰티하우스 A동 303호","indutype":"건강식품 - 기타건강식품","category":"food"}]},{"lat":"37.343422381","long":"126.95064241","imageIndex":7,"items":[{"name":"계수나무떡집","tel":"031-427-0670","addr":"경기도 군포시 당정동 1011-3번지 대우프라자 1층 108호","indutype":"음료식품 - 제과점","category":"food"},{"name":"주식회사 핵산바이오","tel":"031-456-7090","addr":"경기도 군포시 당정동 1011-3번지 대우프라자1 2층 203호","indutype":"건강식품 - 기타건강식품","category":"food"}]},{"lat":"37.343449004","long":"126.94972828","imageIndex":7,"items":[{"name":"고기백화점","tel":"031-455-9953","addr":"경기도 군포시 당정동 1013-7번지 동호프라자 110호","indutype":"음료식품 - 정육점","category":"food"},{"name":"주식회사 제이원","tel":"031-459-3800","addr":"경기도 군포시 당정동 1013-7번지 동호프라자 306호,119호","indutype":"음료식품 - 정육점","category":"food"}]},{"lat":"37.365002628","long":"126.95278356","imageIndex":7,"items":[{"name":"군포주류(유)","tel":"31-457-9383","addr":"경기도 군포시 당정동 236-8번지","indutype":"음료식품 - 기타음료식품","category":"food"}]},{"lat":"37.35686723","long":"126.9546175","imageIndex":7,"items":[{"name":"그레이스코리아","tel":"070-7781-4243","addr":"경기도 군포시 당정동 181-42번지 9층 916호","indutype":"건강식품 - 기타건강식품","category":"food"}]},{"lat":"37.356896457","long":"126.96034014","imageIndex":7,"items":[{"name":"금봉매점","tel":"031-457-5400","addr":"경기도 군포시 당정동 93-5번지 금봉테크노벨리 103호","indutype":"음료식품 - 기타음료식품","category":"food"}]},{"lat":"37.355253461","long":"126.95233855","imageIndex":7,"items":[{"name":"농업회사법인 (주)지노팜","tel":"031-689-3999","addr":"경기도 군포시 당정동 313번지 2층","indutype":"음료식품 - 농·축·수산품","category":"food"}]},{"lat":"37.353255194","long":"126.95722706","imageIndex":7,"items":[{"name":"농업회사법인 맛깔식품(주)","tel":"031-456-6868","addr":"경기도 군포시 당정동 360-2번지 지층","indutype":"음료식품 - 정육점","category":"food"}]},{"lat":"37.353695758","long":"126.95486785","imageIndex":7,"items":[{"name":"농업회사법인자연애(주)","tel":"031-459-7571","addr":"경기도 군포시 당정동 345-1번지 3층","indutype":"음료식품 - 농·축·수산품","category":"food"},{"name":"유림건강사업부","tel":"031-459-7571","addr":"경기도 군포시 당정동 345-1번지 2층","indutype":"건강식품 - 기타건강식품","category":"food"}]},{"lat":"37.347812193","long":"126.95504088","imageIndex":7,"items":[{"name":"당정점핑허브다이어트","tel":"031-427-9710","addr":"경기도 군포시 당정동 970-9번지 당정메디컬빌딩 3층 301호","indutype":"건강식품 - 기타건강식품","category":"food"}]},{"lat":"37.353281414","long":"126.95517285","imageIndex":7,"items":[{"name":"대영유통","tel":"031-394-9292","addr":"경기도 군포시 당정동 345-2번지","indutype":"음료식품 - 정육점","category":"food"}]},{"lat":"37.349147174","long":"126.95884346","imageIndex":7,"items":[{"name":"대인상사(유)","tel":"031-456-9477","addr":"경기도 군포시 당정동 405-3번지","indutype":"음료식품 - 기타음료식품","category":"food"}]},{"lat":"37.346137063","long":"126.95696051","imageIndex":7,"items":[{"name":"딥마레(deep mare)","tel":"","addr":"경기도 군포시 당정동 988-4번지 디에이원파크 A동 1층 101호","indutype":"음료식품 - 기타음료식품","category":"food"}]},{"lat":"37.354002002","long":"126.95461934","imageIndex":7,"items":[{"name":"라온푸드","tel":"031-453-1930","addr":"경기도 군포시 당정동 325-30번지 1층","indutype":"음료식품 - 정육점","category":"food"}]},{"lat":"37.34364709","long":"126.94942344","imageIndex":7,"items":[{"name":"멜카롱","tel":"02-1111-1111","addr":"경기도 군포시 당정동 1013-6번지 유영타운 1층 112호","indutype":"음료식품 - 제과점","category":"food"},{"name":"명환유통","tel":"031-455-1267","addr":"경기도 군포시 당정동 1013-6번지 유영타운 102호","indutype":"음료식품 - 농·축·수산품","category":"food"}]},{"lat":"37.348001347","long":"126.95489404","imageIndex":7,"items":[{"name":"베스킨라빈스 군포당정점","tel":"031-427-3101","addr":"경기도 군포시 당정동 970-8번지 R&K프라자 1층","indutype":"음료식품 - 제과점","category":"food"}]},{"lat":"37.338952182","long":"126.94809518","imageIndex":7,"items":[{"name":"베이커리카페가루밀","tel":"031-335-7793","addr":"경기도 군포시 당정동 938번지 당정역사 2층 일부호","indutype":"음료식품 - 제과점","category":"food"},{"name":"코레일네트웍스(주)당정역","tel":"031-457-0998","addr":"경기도 군포시 당정동 938번지 당정역 2층 맞이밤","indutype":"음료식품 - 제과점","category":"food"}]},{"lat":"37.343088909","long":"126.95042822","imageIndex":7,"items":[{"name":"브레드104","tel":"070-5099-0847","addr":"경기도 군포시 당정동 1012-4번지 대우프라자 104호","indutype":"음료식품 - 제과점","category":"food"}]},{"lat":"37.352199697","long":"126.95395458","imageIndex":7,"items":[{"name":"삼부자식품","tel":"031-477-4358","addr":"경기도 군포시 당정동 478-1번지 신우테크 2층","indutype":"음료식품 - 기타음료식품","category":"food"}]},{"lat":"37.34967675","long":"126.95370793","imageIndex":7,"items":[{"name":"생생식품","tel":"031-361-6266","addr":"경기도 군포시 당정동 1045번지 군포IT밸리 A동 31층 3103호","indutype":"음료식품 - 정육점","category":"food"},{"name":"아미트레이딩","tel":"031-391-7758","addr":"경기도 군포시 당정동 1045번지 군포IT밸리 A동 3202-1호","indutype":"음료식품 - 기타음료식품","category":"food"},{"name":"알로라(ALLORA)","tel":"","addr":"경기도 군포시 당정동 1045번지 군포IT밸리 상가동 125호","indutype":"음료식품 - 기타음료식품","category":"food"},{"name":"주식회사 에디션스토리","tel":"031-1522-5072","addr":"경기도 군포시 당정동 1045번지 3102-1호","indutype":"음료식품 - 기타음료식품","category":"food"},{"name":"주식회사엘에스물산","tel":"031-342-5577","addr":"경기도 군포시 당정동 1045번지 군포IT밸리 A동 2208호","indutype":"건강식품 - 기타건강식품","category":"food"},{"name":"크레푸드","tel":"031-395-4464","addr":"경기도 군포시 당정동 1045번지 군포아이티밸리 201호","indutype":"음료식품 - 기타음료식품","category":"food"}]},{"lat":"37.346758258","long":"126.95567355","imageIndex":7,"items":[{"name":"설아 아이스크림 할인점","tel":"031-427-5987","addr":"경기도 군포시 당정동 971-8번지 1층","indutype":"음료식품 - 기타음료식품","category":"food"}]},{"lat":"37.347144881","long":"126.95367572","imageIndex":7,"items":[{"name":"신선닭유통","tel":"031-529-2291","addr":"경기도 군포시 당정동 966-2번지","indutype":"음료식품 - 정육점","category":"food"}]},{"lat":"37.344340771","long":"126.94919724","imageIndex":7,"items":[{"name":"아이스크림 할인점 (군포당정점)","tel":"070-997-9970","addr":"경기도 군포시 당정동 1010-5번지 에코빌딩 101호","indutype":"음료식품 - 기타음료식품","category":"food"}]},{"lat":"37.343863978","long":"126.95086781","imageIndex":7,"items":[{"name":"알찬반찬","tel":"031-429-8254","addr":"경기도 군포시 당정동 1004-2번지 성원프라자 1층 104호","indutype":"음료식품 - 기타음료식품","category":"food"},{"name":"천하명당","tel":"070-4254-0160","addr":"경기도 군포시 당정동 1004-2번지 성원프라자 1층 105호","indutype":"음료식품 - 기타음료식품","category":"food"},{"name":"토마토푸줏간","tel":"031-477-6632","addr":"경기도 군포시 당정동 1004-2번지 성원프라자 1층 115호","indutype":"음료식품 - 정육점","category":"food"},{"name":"파리바게뜨","tel":"031-427-4826","addr":"경기도 군포시 당정동 1004-2번지 성원프라자 111동 112호","indutype":"음료식품 - 제과점","category":"food"}]},{"lat":"37.347810271","long":"126.95050394","imageIndex":7,"items":[{"name":"에스빔(S:bm)","tel":"031-427-1531","addr":"경기도 군포시 당정동 630-4번지 1층","indutype":"음료식품 - 제과점","category":"food"}]},{"lat":"37.346893365","long":"126.95556061","imageIndex":7,"items":[{"name":"엘림통상","tel":"031-423-1445","addr":"경기도 군포시 당정동 971-7번지 LG2차빌딩 202호","indutype":"음료식품 - 농·축·수산품","category":"food"}]},{"lat":"37.354028186","long":"126.95258769","imageIndex":7,"items":[{"name":"온동네식품","tel":"031-458-4140","addr":"경기도 군포시 당정동 321-2번지 B동 2층","indutype":"음료식품 - 기타음료식품","category":"food"}]},{"lat":"37.34728068","long":"126.95525565","imageIndex":7,"items":[{"name":"우리동네빵굼터","tel":"031-456-6975","addr":"경기도 군포시 당정동 970-7번지 비젼프라자 1층 104호","indutype":"음료식품 - 제과점","category":"food"}]},{"lat":"37.346172785","long":"126.95614792","imageIndex":7,"items":[{"name":"우리축산물도매센타","tel":"031-457-4572","addr":"경기도 군포시 당정동 988-1번지 LG프라자 1층 106호","indutype":"음료식품 - 정육점","category":"food"}]},{"lat":"37.362001522","long":"126.95109234","imageIndex":7,"items":[{"name":"유한회사대연주류","tel":"031-429-3949","addr":"경기도 군포시 당정동 258-5번지","indutype":"음료식품 - 기타음료식품","category":"food"}]},{"lat":"37.34367446","long":"126.95017954","imageIndex":7,"items":[{"name":"이모네반찬","tel":"031-427-0165","addr":"경기도 군포시 당정동 1011-1번지 대우프라자2 109호","indutype":"음료식품 - 기타음료식품","category":"food"}]},{"lat":"37.348361868","long":"126.95517597","imageIndex":7,"items":[{"name":"정관장당정동점","tel":"031-457-2304","addr":"경기도 군포시 당정동 974-1번지 SK프라자 1층 102호","indutype":"건강식품 - 홍삼제품","category":"food"},{"name":"정관장서경기당정동점","tel":"031-457-2304","addr":"경기도 군포시 당정동 974-1번지 SK프라자 1층 102호","indutype":"건강식품 - 홍삼제품","category":"food"}]},{"lat":"37.357840005","long":"126.95383805","imageIndex":7,"items":[{"name":"주식회사 빌리엔젤","tel":"02-512-6257","addr":"경기도 군포시 당정동 181-36번지 두림빌딩 4층","indutype":"음료식품 - 기타음료식품","category":"food"}]},{"lat":"37.355252824","long":"126.95087124","imageIndex":7,"items":[{"name":"주식회사 세광미디어","tel":"031-458-8088","addr":"경기도 군포시 당정동 1128번지 신라테크노빌 가동 9층 902호","indutype":"음료식품 - 기타음료식품","category":"food"}]},{"lat":"37.349703191","long":"126.95230842","imageIndex":7,"items":[{"name":"주식회사 와이에스","tel":"031-346-1157","addr":"경기도 군포시 당정동 522번지 SK벤티움 104동 1109호","indutype":"음료식품 - 농·축·수산품","category":"food"}]},{"lat":"37.360721613","long":"126.95003216","imageIndex":7,"items":[{"name":"주식회사 장원식품","tel":"031-446-9307","addr":"경기도 군포시 당정동 265번지 지하1층","indutype":"음료식품 - 정육점","category":"food"}]},{"lat":"37.348423839","long":"126.95252371","imageIndex":7,"items":[{"name":"주식회사삼정에프엔비","tel":"02-511-8355","addr":"경기도 군포시 당정동 522번지 SK벤티움 102동 1201호","indutype":"음료식품 - 기타음료식품","category":"food"}]},{"lat":"37.362389568","long":"126.95250309","imageIndex":7,"items":[{"name":"청아","tel":"031-214-7750","addr":"경기도 군포시 당정동 247번지","indutype":"회원제형태 - 건강식품","category":"food"}]},{"lat":"37.343836202","long":"126.9491976","imageIndex":7,"items":[{"name":"태영","tel":"031-477-6581","addr":"경기도 군포시 당정동 1013-5번지 덕수빌딩 4층","indutype":"음료식품 - 기타음료식품","category":"food"}]},{"lat":"37.354281418","long":"126.95486747","imageIndex":7,"items":[{"name":"토농이","tel":"031-427-7434","addr":"경기도 군포시 당정동 343-13번지 2층","indutype":"음료식품 - 기타음료식품","category":"food"}]},{"lat":"37.35353482","long":"126.95803954","imageIndex":7,"items":[{"name":"티앤씨일렉트로닉스주식회사","tel":"031-427-1975","addr":"경기도 군포시 당정동 364-8번지 (1층일부,2층,3층,4층)","indutype":"음료식품 - 기타음료식품","category":"food"}]},{"lat":"37.347091746","long":"126.95595549","imageIndex":7,"items":[{"name":"파리바게뜨군포당정점","tel":"031-427-8246","addr":"경기도 군포시 당정동 980-2번지 1층","indutype":"음료식품 - 제과점","category":"food"}]},{"lat":"37.363283544","long":"126.95736773","imageIndex":7,"items":[{"name":"프라임","tel":"031-349-6978","addr":"경기도 군포시 당정동 18-2","indutype":"음료식품 - 농·축·수산품","category":"food"}]},{"lat":"37.343953639","long":"126.94987464","imageIndex":7,"items":[{"name":"행복축산유통","tel":"031-429-1104","addr":"경기도 군포시 당정동 1010-10번지 선경프라자 1층 103호","indutype":"음료식품 - 정육점","category":"food"}]}]