[{"lat":"37.678635632","long":"127.21086081","imageIndex":4,"items":[{"name":"87구공탄","tel":"070-8869-2694","addr":"경기도 남양주시 오남읍 오남리 414번지 1층","indutype":"일반휴게음식 - 일반한식","category":"restaurant"},{"name":"돌쇠마님곱창 남대감댁물회","tel":"031-512-9786","addr":"경기도 남양주시 오남읍 오남리 414번지","indutype":"일반휴게음식 - 일반한식","category":"restaurant"}]},{"lat":"37.678832802","long":"127.21145083","imageIndex":4,"items":[{"name":"NAAMU(나무)","tel":"031-595-4600","addr":"경기도 남양주시 오남읍 오남리 415-1번지 109호","indutype":"일반휴게음식 - 서양음식","category":"restaurant"},{"name":"비에이치씨오남점","tel":"031-571-9982","addr":"경기도 남양주시 오남읍 오남리 415-1번지 105","indutype":"일반휴게음식 - 스넥","category":"restaurant"}]},{"lat":"37.694052793","long":"127.21497427","imageIndex":4,"items":[{"name":"Puppy yard(강아지마당)","tel":"031-574-9621","addr":"경기도 남양주시 오남읍 오남리 135-23번지","indutype":"일반휴게음식 - 일반한식","category":"restaurant"}]},{"lat":"37.693574592","long":"127.21535841","imageIndex":4,"items":[{"name":"가마로509","tel":"031-528-9394","addr":"경기도 남양주시 오남읍 오남리 129-7번지 101호","indutype":"일반휴게음식 - 일반한식","category":"restaurant"}]},{"lat":"37.685158493","long":"127.20575478","imageIndex":4,"items":[{"name":"가족나들이","tel":"031-529-6389","addr":"경기도 남양주시 오남읍 오남리 572-1번지 나동 1층","indutype":"일반휴게음식 - 일반한식","category":"restaurant"},{"name":"낙지한마리 수제비","tel":"031-527-7181","addr":"경기도 남양주시 오남읍 오남리 572-1번지 나동 1층","indutype":"일반휴게음식 - 일반한식","category":"restaurant"},{"name":"사계절반점","tel":"031-528-7840","addr":"경기도 남양주시 오남읍 오남리 572-1번지 나동 2층","indutype":"일반휴게음식 - 중국식","category":"restaurant"},{"name":"오마이 쭈꾸미","tel":"031-529-3719","addr":"경기도 남양주시 오남읍 오남리 572-1번지 가동 101호","indutype":"일반휴게음식 - 일반한식","category":"restaurant"}]},{"lat":"37.686356992","long":"127.21080301","imageIndex":4,"items":[{"name":"간판없는 삼겹살","tel":"031-528-6263","addr":"경기도 남양주시 오남읍 오남리 261번지 105호","indutype":"일반휴게음식 - 일반한식","category":"restaurant"},{"name":"눈맞은 짝태 앤 노가리","tel":"031-572-7492","addr":"경기도 남양주시 오남읍 오남리 261번지 1층 106호","indutype":"일반휴게음식 - 주점","category":"restaurant"}]},{"lat":"37.695184868","long":"127.20653042","imageIndex":4,"items":[{"name":"강천냉면푸드","tel":"031-528-7321","addr":"경기도 남양주시 오남읍 오남리 741번지","indutype":"일반휴게음식 - 일반한식","category":"restaurant"},{"name":"개미식당","tel":"031-696-5047","addr":"경기도 남양주시 오남읍 오남리 741번지","indutype":"일반휴게음식 - 일반한식","category":"restaurant"},{"name":"더 한끼","tel":"031-575-9455","addr":"경기도 남양주시 오남읍 오남리 741번지","indutype":"일반휴게음식 - 일반한식","category":"restaurant"},{"name":"친구네","tel":"031-528-0042","addr":"경기도 남양주시 오남읍 오남리 741번지 1층","indutype":"일반휴게음식 - 일반한식","category":"restaurant"}]},{"lat":"37.689299349","long":"127.21294267","imageIndex":4,"items":[{"name":"거시기포차","tel":"031-528-4331","addr":"경기도 남양주시 오남읍 오남리 201번지 상가 B동 105호","indutype":"일반휴게음식 - 일반한식","category":"restaurant"},{"name":"불고기와 지짐이","tel":"070-4127-1206","addr":"경기도 남양주시 오남읍 오남리 201번지 A동 104호","indutype":"일반휴게음식 - 일반한식","category":"restaurant"},{"name":"쭈노치킨가게 오남점","tel":"031-572-2073","addr":"경기도 남양주시 오남읍 오남리 201번지","indutype":"일반휴게음식 - 스넥","category":"restaurant"},{"name":"테이크텐","tel":"031-527-9788","addr":"경기도 남양주시 오남읍 오남리 201번지","indutype":"일반휴게음식 - 서양음식","category":"restaurant"}]},{"lat":"37.692297269","long":"127.21422097","imageIndex":4,"items":[{"name":"경춘짜장","tel":"031-575-7330","addr":"경기도 남양주시 오남읍 오남리 216-3번지 101,102호","indutype":"일반휴게음식 - 중국식","category":"restaurant"}]},{"lat":"37.694721126","long":"127.20897822","imageIndex":4,"items":[{"name":"고기마루정육식당","tel":"031-574-5690","addr":"경기도 남양주시 오남읍 오남리 749-14번지","indutype":"일반휴게음식 - 일반한식","category":"restaurant"},{"name":"김서방닭갈비해물떡찜","tel":"031-529-0013","addr":"경기도 남양주시 오남읍 오남리 749-14","indutype":"일반휴게음식 - 일반한식","category":"restaurant"},{"name":"하가네포장마차","tel":"031-528-9668","addr":"경기도 남양주시 오남읍 오남리 749-14번지 2호","indutype":"일반휴게음식 - 일반한식","category":"restaurant"}]},{"lat":"37.678492994","long":"127.20999889","imageIndex":4,"items":[{"name":"고량진미","tel":"031-574-7464","addr":"경기도 남양주시 오남읍 오남리 454-10","indutype":"일반휴게음식 - 일반한식","category":"restaurant"},{"name":"망우리오징어집","tel":"031-516-3636","addr":"경기도 남양주시 오남읍 오남리 454-10번지 107호","indutype":"일반휴게음식 - 일반한식","category":"restaurant"},{"name":"빨간모자얼큰이불닭발","tel":"031-527-9285","addr":"경기도 남양주시 오남읍 오남리 454-10번지 103호","indutype":"일반휴게음식 - 일반한식","category":"restaurant"}]},{"lat":"37.688908503","long":"127.2045859","imageIndex":4,"items":[{"name":"고향간장게장,메기시레기찜","tel":"031-572-3742","addr":"경기도 남양주시 오남읍 오남리 583-4번지","indutype":"일반휴게음식 - 일반한식","category":"restaurant"}]},{"lat":"37.696301403","long":"127.20163523","imageIndex":4,"items":[{"name":"골뱅이컴","tel":"031-514-7474","addr":"경기도 남양주시 오남읍 오남리 761-9번지 1층 일부","indutype":"일반휴게음식 - 주점","category":"restaurant"},{"name":"누벨바그","tel":"070-8824-0698","addr":"경기도 남양주시 오남읍 오남리 761-9번지 101","indutype":"일반휴게음식 - 일반한식","category":"restaurant"},{"name":"멕시카나 양지점","tel":"031-572-9288","addr":"경기도 남양주시 오남읍 오남리 761-9번지 1층","indutype":"일반휴게음식 - 스넥","category":"restaurant"}]},{"lat":"37.68046707","long":"127.20944891","imageIndex":4,"items":[{"name":"곱사빠","tel":"031-574-7968","addr":"경기도 남양주시 오남읍 오남리 494-1번지","indutype":"일반휴게음식 - 일반한식","category":"restaurant"},{"name":"천안문손짜장","tel":"031-529-1881","addr":"경기도 남양주시 오남읍 오남리 494-1번지","indutype":"일반휴게음식 - 중국식","category":"restaurant"}]},{"lat":"37.682104685","long":"127.21066644","imageIndex":4,"items":[{"name":"공드리","tel":"070-4007-5736","addr":"경기도 남양주시 오남읍 오남리 346-3번지","indutype":"일반휴게음식 - 서양음식","category":"restaurant"},{"name":"오남커피","tel":"070-4151-0004","addr":"경기도 남양주시 오남읍 오남리 346-3번지","indutype":"일반휴게음식 - 서양음식","category":"restaurant"},{"name":"코스트빈","tel":"070-4151-0004","addr":"경기도 남양주시 오남읍 오남리 346-3번지","indutype":"일반휴게음식 - 서양음식","category":"restaurant"}]},{"lat":"37.684076886","long":"127.2111821","imageIndex":4,"items":[{"name":"곽만근갈비탕 오남점","tel":"031-575-6898","addr":"경기도 남양주시 오남읍 오남리 318-2번지 1동 105호","indutype":"일반휴게음식 - 일반한식","category":"restaurant"},{"name":"원조옛날통닭","tel":"031-527-7710","addr":"경기도 남양주시 오남읍 오남리 318-2번지 1동 104호","indutype":"일반휴게음식 - 스넥","category":"restaurant"}]},{"lat":"37.690857177","long":"127.21341191","imageIndex":4,"items":[{"name":"교촌치킨(오남점)","tel":"031-574-9981","addr":"경기도 남양주시 오남읍 오남리 205-19번지 102호","indutype":"일반휴게음식 - 일반한식","category":"restaurant"},{"name":"옛포야","tel":"031-575-1842","addr":"경기도 남양주시 오남읍 오남리 205-19번지","indutype":"일반휴게음식 - 일반한식","category":"restaurant"},{"name":"정읍식당","tel":"031-571-7109","addr":"경기도 남양주시 오남읍 오남리 205-19번지 1층","indutype":"일반휴게음식 - 일반한식","category":"restaurant"}]},{"lat":"37.694162109","long":"127.21430563","imageIndex":4,"items":[{"name":"국민밥차","tel":"070-4325-8006","addr":"경기도 남양주시 오남읍 오남리 135-8번지","indutype":"일반휴게음식 - 일반한식","category":"restaurant"}]},{"lat":"37.68130355","long":"127.21025611","imageIndex":4,"items":[{"name":"군산식당","tel":"031-528-0729","addr":"경기도 남양주시 오남읍 오남리 396-7번지","indutype":"일반휴게음식 - 일반한식","category":"restaurant"},{"name":"어내미포차","tel":"031-574-0043","addr":"경기도 남양주시 오남읍 오남리 396-7번지 1층","indutype":"일반휴게음식 - 일반한식","category":"restaurant"},{"name":"우리수산푸드마켓 주식회사","tel":"031-528-1226","addr":"경기도 남양주시 오남읍 오남리 396-7번지 536호","indutype":"일반휴게음식 - 일식·회집","category":"restaurant"},{"name":"전이야기","tel":"031-573-8880","addr":"경기도 남양주시 오남읍 오남리 396-7번지 1층","indutype":"일반휴게음식 - 일반한식","category":"restaurant"},{"name":"청담동 말자 싸롱","tel":"031-527-1233","addr":"경기도 남양주시 오남읍 오남리 396-7번지","indutype":"일반휴게음식 - 일반한식","category":"restaurant"},{"name":"초박집","tel":"031-528-9982","addr":"경기도 남양주시 오남읍 오남리 396-7번지 주 2동 1층","indutype":"일반휴게음식 - 일반한식","category":"restaurant"}]},{"lat":"37.693720192","long":"127.21455382","imageIndex":4,"items":[{"name":"군산아구촌","tel":"031-575-5228","addr":"경기도 남양주시 오남읍 오남리 131-12번지","indutype":"일반휴게음식 - 일반한식","category":"restaurant"},{"name":"헬로우돈","tel":"031-526-6992","addr":"경기도 남양주시 오남읍 오남리 131-12번지 1층","indutype":"일반휴게음식 - 일반한식","category":"restaurant"}]},{"lat":"37.693881856","long":"127.21483773","imageIndex":4,"items":[{"name":"굽네치킨오남점","tel":"031-527-9492","addr":"경기도 남양주시 오남읍 오남리 130번지 102호","indutype":"일반휴게음식 - 스넥","category":"restaurant"},{"name":"화끈한친구들","tel":"","addr":"경기도 남양주시 오남읍 오남리 130번지 101호","indutype":"일반휴게음식 - 일반한식","category":"restaurant"}]},{"lat":"37.678382963","long":"127.21108683","imageIndex":4,"items":[{"name":"궁전돈우돌판구이","tel":"031-527-9484","addr":"경기도 남양주시 오남읍 오남리 414-3번지","indutype":"일반휴게음식 - 일반한식","category":"restaurant"}]},{"lat":"37.691108837","long":"127.21375275","imageIndex":4,"items":[{"name":"그램그램(오남점)","tel":"031-528-0999","addr":"경기도 남양주시 오남읍 오남리 205-42번지 1층","indutype":"일반휴게음식 - 일반한식","category":"restaurant"}]},{"lat":"37.689220377","long":"127.21175201","imageIndex":4,"items":[{"name":"그리그리식당","tel":"031-527-6570","addr":"경기도 남양주시 오남읍 오남리 683-7번지 진주상가 지하 7호","indutype":"일반휴게음식 - 일반한식","category":"restaurant"},{"name":"그린호프","tel":"031-574-5589","addr":"경기도 남양주시 오남읍 오남리 683-7번지 진주상가 217호","indutype":"일반휴게음식 - 주점","category":"restaurant"},{"name":"김밥나라","tel":"031-575-2599","addr":"경기도 남양주시 오남읍 오남리 683-7번지 진주상가 110호","indutype":"일반휴게음식 - 스넥","category":"restaurant"},{"name":"명가","tel":"031-574-2627","addr":"경기도 남양주시 오남읍 오남리 683-7번지 진주상가 지층 37호","indutype":"일반휴게음식 - 일반한식","category":"restaurant"},{"name":"물놀이집","tel":"031-575-3692","addr":"경기도 남양주시 오남읍 오남리 683-7","indutype":"일반휴게음식 - 일반한식","category":"restaurant"},{"name":"우리명품죽","tel":"031-572-3433","addr":"경기도 남양주시 오남읍 오남리 683-7번지 진주상가 지층 8호","indutype":"일반휴게음식 - 일반한식","category":"restaurant"},{"name":"주문진식당","tel":"031-575-1077","addr":"경기도 남양주시 오남읍 오남리 683-7번지 진주상가 지하 20호","indutype":"일반휴게음식 - 일반한식","category":"restaurant"}]},{"lat":"37.688055723","long":"127.21310922","imageIndex":4,"items":[{"name":"금채","tel":"031-527-7785","addr":"경기도 남양주시 오남읍 오남리 235-1번지 동남상가 1층 일부","indutype":"일반휴게음식 - 일반한식","category":"restaurant"}]},{"lat":"37.682079112","long":"127.20983882","imageIndex":4,"items":[{"name":"김밥공간","tel":"031-572-0090","addr":"경기도 남양주시 오남읍 오남리 525번지 1동 102호","indutype":"일반휴게음식 - 스넥","category":"restaurant"},{"name":"커피니 오남점","tel":"031-000-0000","addr":"경기도 남양주시 오남읍 오남리 525번지 1층","indutype":"일반휴게음식 - 서양음식","category":"restaurant"}]},{"lat":"37.68682539","long":"127.21086101","imageIndex":4,"items":[{"name":"김밥천국","tel":"031-528-1170","addr":"경기도 남양주시 오남읍 오남리 259번지 103호","indutype":"일반휴게음식 - 스넥","category":"restaurant"}]},{"lat":"37.687797504","long":"127.21138523","imageIndex":4,"items":[{"name":"꼴끼네식당","tel":"031-575-5771","addr":"경기도 남양주시 오남읍 오남리 245-1번지","indutype":"일반휴게음식 - 일반한식","category":"restaurant"},{"name":"백옥양꼬치","tel":"031-528-5586","addr":"경기도 남양주시 오남읍 오남리 245-1번지 2층","indutype":"일반휴게음식 - 일반한식","category":"restaurant"},{"name":"활어회포장전문 (활어장군)","tel":"031-512-6092","addr":"경기도 남양주시 오남읍 오남리 245-1번지","indutype":"일반휴게음식 - 일식·회집","category":"restaurant"}]},{"lat":"37.692160782","long":"127.21496889","imageIndex":4,"items":[{"name":"남대감댁물회","tel":"031-527-8418","addr":"경기도 남양주시 오남읍 오남리 191번지 105호","indutype":"일반휴게음식 - 일반한식","category":"restaurant"},{"name":"시크릿퓨전호프","tel":"070-7527-7981","addr":"경기도 남양주시 오남읍 오남리 191번지","indutype":"일반휴게음식 - 주점","category":"restaurant"}]},{"lat":"37.685690722","long":"127.21055174","imageIndex":4,"items":[{"name":"남북통일","tel":"031-553-5900","addr":"경기도 남양주시 오남읍 오남리 602-10번지 1층 일부","indutype":"일반휴게음식 - 일반한식","category":"restaurant"},{"name":"남북통일","tel":"","addr":"경기도 남양주시 오남읍 오남리 602-10번지 1층","indutype":"일반휴게음식 - 일반한식","category":"restaurant"},{"name":"멕시카나","tel":"031-527-6448","addr":"경기도 남양주시 오남읍 오남리 602-10번지 1층","indutype":"일반휴게음식 - 스넥","category":"restaurant"},{"name":"장안뼈해장국수제왕돈가스","tel":"031-528-9758","addr":"경기도 남양주시 오남읍 오남리 602-10번지 1층 일부","indutype":"일반휴게음식 - 일반한식","category":"restaurant"}]},{"lat":"37.694442096","long":"127.21392093","imageIndex":4,"items":[{"name":"남양빈대떡","tel":"031-528-9285","addr":"경기도 남양주시 오남읍 오남리 134-10번지 오남프라자","indutype":"일반휴게음식 - 일반한식","category":"restaurant"},{"name":"두리두리김밥천국","tel":"031-592-2771","addr":"경기도 남양주시 오남읍 오남리 134-10번지 오남프라자 1층 102호","indutype":"일반휴게음식 - 스넥","category":"restaurant"},{"name":"뺑코  닭발","tel":"031-527-9269","addr":"경기도 남양주시 오남읍 오남리 134-10번지 오남프라자 1층 110,111호","indutype":"일반휴게음식 - 일반한식","category":"restaurant"},{"name":"소영이네식당","tel":"031-528-4254","addr":"경기도 남양주시 오남읍 오남리 134-10번지 오남프라자 1층 101호","indutype":"일반휴게음식 - 일반한식","category":"restaurant"},{"name":"소영이네식당","tel":"031-528-9337","addr":"경기도 남양주시 오남읍 오남리 134-10번지 오남프라자 1층 101호","indutype":"일반휴게음식 - 일반한식","category":"restaurant"},{"name":"오남장작불한증막사우나","tel":"031-575-1009","addr":"경기도 남양주시 오남읍 오남리 134-10번지 오남프라자","indutype":"일반휴게음식 - 일반한식","category":"restaurant"},{"name":"지도리치킨","tel":"031-527-6815","addr":"경기도 남양주시 오남읍 오남리 134-10번지 오남프라자 1층 107호","indutype":"일반휴게음식 - 스넥","category":"restaurant"}]},{"lat":"37.697102708","long":"127.22227371","imageIndex":4,"items":[{"name":"다송","tel":"031-528-1212","addr":"경기도 남양주시 오남읍 오남리 2-2","indutype":"일반휴게음식 - 일반한식","category":"restaurant"}]},{"lat":"37.687166733","long":"127.21144015","imageIndex":4,"items":[{"name":"달려라 맹","tel":"","addr":"경기도 남양주시 오남읍 오남리 247-4번지 1층","indutype":"일반휴게음식 - 주점","category":"restaurant"},{"name":"양푼이찌개전문","tel":"031-559-7018","addr":"경기도 남양주시 오남읍 오남리 247-4번지 1층","indutype":"일반휴게음식 - 일반한식","category":"restaurant"},{"name":"제주뒷고기","tel":"031-527-6692","addr":"경기도 남양주시 오남읍 오남리 247-4번지 1층","indutype":"일반휴게음식 - 일반한식","category":"restaurant"}]},{"lat":"37.687356956","long":"127.21086249","imageIndex":4,"items":[{"name":"닭이봉닭갈비","tel":"031-528-5707","addr":"경기도 남양주시 오남읍 오남리 243번지","indutype":"일반휴게음식 - 일반한식","category":"restaurant"},{"name":"땡2전","tel":"031-529-0289","addr":"경기도 남양주시 오남읍 오남리 243번지 1동 103호","indutype":"일반휴게음식 - 일반한식","category":"restaurant"}]},{"lat":"37.689803198","long":"127.21332957","imageIndex":4,"items":[{"name":"대박부대찌개","tel":"031-573-5702","addr":"경기도 남양주시 오남읍 오남리 202-3번지 홍인빌딩 105호","indutype":"일반휴게음식 - 일반한식","category":"restaurant"},{"name":"오페라","tel":"031-575-6230","addr":"경기도 남양주시 오남읍 오남리 202-3번지","indutype":"일반휴게음식 - 일반한식","category":"restaurant"},{"name":"즉석서울김밥","tel":"031-572-2799","addr":"경기도 남양주시 오남읍 오남리 202-3번지 1층 11호","indutype":"일반휴게음식 - 일반한식","category":"restaurant"},{"name":"토암골옛날막창","tel":"031-527-3043","addr":"경기도 남양주시 오남읍 오남리 202-3번지 101호 102","indutype":"일반휴게음식 - 일반한식","category":"restaurant"},{"name":"화통퓨전호프","tel":"031-571-1415","addr":"경기도 남양주시 오남읍 오남리 202-3번지 1층 9,10호","indutype":"일반휴게음식 - 일반한식","category":"restaurant"}]},{"lat":"37.685636059","long":"127.20572207","imageIndex":4,"items":[{"name":"더달달","tel":"031-572-7782","addr":"경기도 남양주시 오남읍 오남리 591-5번지 나동 1층","indutype":"일반휴게음식 - 일반한식","category":"restaurant"},{"name":"말랑키즈 슬라임 앤 폰데코","tel":"031-877-4600","addr":"경기도 남양주시 오남읍 오남리 591-5번지 가동 2층 일부호","indutype":"일반휴게음식 - 일반한식","category":"restaurant"}]},{"lat":"37.693827105","long":"127.21522307","imageIndex":4,"items":[{"name":"더브릭","tel":"031-573-7771","addr":"경기도 남양주시 오남읍 오남리 129-2번지 1층 102호","indutype":"일반휴게음식 - 스넥","category":"restaurant"},{"name":"두모리해장국","tel":"031-575-0153","addr":"경기도 남양주시 오남읍 오남리 129-2번지","indutype":"일반휴게음식 - 일반한식","category":"restaurant"},{"name":"호식이두마리치킨(오남점)","tel":"031-572-0622","addr":"경기도 남양주시 오남읍 오남리 129-2번지 101호","indutype":"일반휴게음식 - 스넥","category":"restaurant"}]},{"lat":"37.691161616","long":"127.21446718","imageIndex":4,"items":[{"name":"더빠","tel":"031-574-9993","addr":"경기도 남양주시 오남읍 오남리 203-2번지 2층","indutype":"일반휴게음식 - 일반한식","category":"restaurant"}]},{"lat":"37.697273426","long":"127.22252367","imageIndex":4,"items":[{"name":"동다송","tel":"031-528-1212","addr":"경기도 남양주시 오남읍 오남리 2-1","indutype":"일반휴게음식 - 일반한식","category":"restaurant"}]},{"lat":"37.69008209","long":"127.21355711","imageIndex":4,"items":[{"name":"두레밥상","tel":"031-572-0675","addr":"경기도 남양주시 오남읍 오남리 202-8번지 101호","indutype":"일반휴게음식 - 일반한식","category":"restaurant"}]},{"lat":"37.694053546","long":"127.21455476","imageIndex":4,"items":[{"name":"두레촌","tel":"031-527-5192","addr":"경기도 남양주시 오남읍 오남리 135-10번지 1층","indutype":"일반휴게음식 - 일반한식","category":"restaurant"},{"name":"뚱이네꼬기","tel":"031-571-0060","addr":"경기도 남양주시 오남읍 오남리 135-10번지","indutype":"일반휴게음식 - 일반한식","category":"restaurant"},{"name":"빵구비어","tel":"070-7486-7863","addr":"경기도 남양주시 오남읍 오남리 135-10번지","indutype":"일반휴게음식 - 주점","category":"restaurant"},{"name":"홍이네 찬세상","tel":"","addr":"경기도 남양주시 오남읍 오남리 135-10번지","indutype":"일반휴게음식 - 일반한식","category":"restaurant"}]},{"lat":"37.696442542","long":"127.20341576","imageIndex":4,"items":[{"name":"드루와(De Ruwa)","tel":"031-528-6263","addr":"경기도 남양주시 오남읍 오남리 757번지 1층","indutype":"일반휴게음식 - 주점","category":"restaurant"},{"name":"행복을주는한식뷔페","tel":"031-529-9998","addr":"경기도 남양주시 오남읍 오남리 757번지 2층","indutype":"일반휴게음식 - 일반한식","category":"restaurant"}]},{"lat":"37.696548291","long":"127.19947022","imageIndex":4,"items":[{"name":"디디치킨오남점","tel":"031-574-4593","addr":"경기도 남양주시 오남읍 오남리 891번지 오남아이파크 상가동 202호","indutype":"일반휴게음식 - 스넥","category":"restaurant"}]},{"lat":"37.690416193","long":"127.21313856","imageIndex":4,"items":[{"name":"딜리스윗도넛","tel":"031-528-0221","addr":"경기도 남양주시 오남읍 오남리 205-18번지 101호","indutype":"일반휴게음식 - 서양음식","category":"restaurant"}]},{"lat":"37.679025733","long":"127.20933156","imageIndex":4,"items":[{"name":"또봉이통닭 오남점","tel":"031-571-5953","addr":"경기도 남양주시 오남읍 오남리 476-10번지 1층 일부","indutype":"일반휴게음식 - 스넥","category":"restaurant"},{"name":"백남옥달인손만두","tel":"070-0000-0000","addr":"경기도 남양주시 오남읍 오남리 476-10번지 107호","indutype":"일반휴게음식 - 일반한식","category":"restaurant"},{"name":"유명한튀김집","tel":"031-246-4664","addr":"경기도 남양주시 오남읍 오남리 476-10번지 동명프라자 111호","indutype":"일반휴게음식 - 스넥","category":"restaurant"},{"name":"피자마루 오남점","tel":"031-571-1082","addr":"경기도 남양주시 오남읍 오남리 476-10번지 102호","indutype":"일반휴게음식 - 서양음식","category":"restaurant"}]},{"lat":"37.685413653","long":"127.20928124","imageIndex":4,"items":[{"name":"라퐁텐&더베이크","tel":"031-512-5838","addr":"경기도 남양주시 오남읍 오남리 540-1번지 1층 일부","indutype":"일반휴게음식 - 서양음식","category":"restaurant"}]},{"lat":"37.690359743","long":"127.21447624","imageIndex":4,"items":[{"name":"럭키펍","tel":"031-573-0039","addr":"경기도 남양주시 오남읍 오남리 203-18번지 2층 한샘마트","indutype":"일반휴게음식 - 서양음식","category":"restaurant"}]},{"lat":"37.691297694","long":"127.21394603","imageIndex":4,"items":[{"name":"레갈로카페앤비어","tel":"031-527-1118","addr":"경기도 남양주시 오남읍 오남리 205-6번지 1층 일부","indutype":"일반휴게음식 - 서양음식","category":"restaurant"},{"name":"양계장집아들","tel":"031-529-7796","addr":"경기도 남양주시 오남읍 오남리 205-6번지 106호","indutype":"일반휴게음식 - 스넥","category":"restaurant"},{"name":"옥화식당","tel":"031-529-9296","addr":"경기도 남양주시 오남읍 오남리 205-6번지","indutype":"일반휴게음식 - 일반한식","category":"restaurant"},{"name":"참치대장","tel":"031-527-0892","addr":"경기도 남양주시 오남읍 오남리 205-6번지 107동 108호","indutype":"일반휴게음식 - 일식·회집","category":"restaurant"},{"name":"표향원","tel":"031-574-9955","addr":"경기도 남양주시 오남읍 오남리 205-6번지 109호","indutype":"일반휴게음식 - 중국식","category":"restaurant"}]},{"lat":"37.679611654","long":"127.20916314","imageIndex":4,"items":[{"name":"롯데리아 오남어람점","tel":"","addr":"경기도 남양주시 오남읍 오남리 496-1번지 105호","indutype":"일반휴게음식 - 서양음식","category":"restaurant"},{"name":"본죽 오남점","tel":"031-528-6287","addr":"경기도 남양주시 오남읍 오남리 496-1번지 강남상가 107호","indutype":"일반휴게음식 - 일반한식","category":"restaurant"},{"name":"신통치킨","tel":"031-572-5582","addr":"경기도 남양주시 오남읍 오남리 496-1번지 101호","indutype":"일반휴게음식 - 스넥","category":"restaurant"},{"name":"오대오포차(오남점)","tel":"031-575-7953","addr":"경기도 남양주시 오남읍 오남리 496-1번지 1층","indutype":"일반휴게음식 - 일반한식","category":"restaurant"},{"name":"푸라닭 오남점","tel":"031-529-9658","addr":"경기도 남양주시 오남읍 오남리 496-1번지 외1필지","indutype":"일반휴게음식 - 일반한식","category":"restaurant"},{"name":"홍고막소고깃집","tel":"031-574-9589","addr":"경기도 남양주시 오남읍 오남리 496-1번지 1층 111호","indutype":"일반휴게음식 - 일반한식","category":"restaurant"}]},{"lat":"37.682853459","long":"127.21011305","imageIndex":4,"items":[{"name":"만이갈비","tel":"031-572-8744","addr":"경기도 남양주시 오남읍 오남리 530-2번지 나동 1층","indutype":"일반휴게음식 - 일반한식","category":"restaurant"},{"name":"맘스터치 오남점","tel":"031-527-7502","addr":"경기도 남양주시 오남읍 오남리 530-2번지 가동","indutype":"일반휴게음식 - 서양음식","category":"restaurant"}]},{"lat":"37.693855722","long":"127.21433878","imageIndex":4,"items":[{"name":"맛깔집","tel":"031-529-0312","addr":"경기도 남양주시 오남읍 오남리 131-4번지","indutype":"일반휴게음식 - 일반한식","category":"restaurant"}]},{"lat":"37.682439495","long":"127.20983982","imageIndex":4,"items":[{"name":"맛자랑떡볶이","tel":"031-574-3414","addr":"경기도 남양주시 오남읍 오남리 529-9번지 104호","indutype":"일반휴게음식 - 스넥","category":"restaurant"},{"name":"회사랑","tel":"031-529-7704","addr":"경기도 남양주시 오남읍 오남리 529-9번지 102호","indutype":"일반휴게음식 - 일반한식","category":"restaurant"}]},{"lat":"37.694355862","long":"127.21677792","imageIndex":4,"items":[{"name":"메신져","tel":"031-528-5371","addr":"경기도 남양주시 오남읍 오남리 50-2번지 지하1층","indutype":"일반휴게음식 - 주점","category":"restaurant"}]},{"lat":"37.683105588","long":"127.2101931","imageIndex":4,"items":[{"name":"명품짬뽕","tel":"031-527-7882","addr":"경기도 남양주시 오남읍 오남리 531번지","indutype":"일반휴게음식 - 중국식","category":"restaurant"},{"name":"미트스토리","tel":"031-571-3592","addr":"경기도 남양주시 오남읍 오남리 531번지","indutype":"일반휴게음식 - 일반한식","category":"restaurant"},{"name":"바우네나주곰탕","tel":"031-575-4792","addr":"경기도 남양주시 오남읍 오남리 531번지","indutype":"일반휴게음식 - 일반한식","category":"restaurant"},{"name":"욕쟁이할매순대국","tel":"031-573-5288","addr":"경기도 남양주시 오남읍 오남리 531번지","indutype":"일반휴게음식 - 일반한식","category":"restaurant"},{"name":"훈이네식당","tel":"02-575-1919","addr":"경기도 남양주시 오남읍 오남리 531번지 외1필지","indutype":"일반휴게음식 - 일반한식","category":"restaurant"}]},{"lat":"37.695633661","long":"127.20224572","imageIndex":4,"items":[{"name":"미가밥상","tel":"031-575-0255","addr":"경기도 남양주시 오남읍 오남리 765-3번지 104호,106호","indutype":"일반휴게음식 - 일반한식","category":"restaurant"}]},{"lat":"37.696327915","long":"127.20194144","imageIndex":4,"items":[{"name":"미나미김밥","tel":"031-575-0112","addr":"경기도 남양주시 오남읍 오남리 784-25번지 101호","indutype":"일반휴게음식 - 일반한식","category":"restaurant"}]},{"lat":"37.686356011","long":"127.21135852","imageIndex":4,"items":[{"name":"미정한방족발","tel":"031-528-0890","addr":"경기도 남양주시 오남읍 오남리 264-1번지 103호","indutype":"일반휴게음식 - 일반한식","category":"restaurant"}]},{"lat":"37.682411151","long":"127.21058794","imageIndex":4,"items":[{"name":"바글바글","tel":"031-529-8937","addr":"경기도 남양주시 오남읍 오남리 345-1번지 나동","indutype":"일반휴게음식 - 스넥","category":"restaurant"},{"name":"스시설화","tel":"031-572-6560","addr":"경기도 남양주시 오남읍 오남리 345-1번지 나동 2호","indutype":"일반휴게음식 - 일식·회집","category":"restaurant"}]},{"lat":"37.679887486","long":"127.21113637","imageIndex":4,"items":[{"name":"바운스(bounce)","tel":"031-529-9809","addr":"경기도 남양주시 오남읍 오남리 399-3번지 지하1층 101호,102호,103호","indutype":"일반휴게음식 - 서양음식","category":"restaurant"}]},{"lat":"37.693052461","long":"127.19952902","imageIndex":4,"items":[{"name":"배가네닭갈비","tel":"031-575-9553","addr":"경기도 남양주시 오남읍 오남리 775-1번지 경복프라자 101동 102-1호","indutype":"일반휴게음식 - 일반한식","category":"restaurant"},{"name":"세자매식당","tel":"031-575-6992","addr":"경기도 남양주시 오남읍 오남리 775-1번지 103호","indutype":"일반휴게음식 - 일반한식","category":"restaurant"},{"name":"한울정육식당","tel":"031-529-7447","addr":"경기도 남양주시 오남읍 오남리 775-1번지","indutype":"일반휴게음식 - 일반한식","category":"restaurant"}]},{"lat":"37.687832399","long":"127.21203155","imageIndex":4,"items":[{"name":"벌통포차","tel":"031-527-4252","addr":"경기도 남양주시 오남읍 오남리 246-5번지 1층 1호 좌측","indutype":"일반휴게음식 - 일반한식","category":"restaurant"},{"name":"칠공팔공","tel":"031-528-0580","addr":"경기도 남양주시 오남읍 오남리 246-5번지 지층","indutype":"일반휴게음식 - 주점","category":"restaurant"}]},{"lat":"37.678465368","long":"127.21033889","imageIndex":4,"items":[{"name":"본도넛","tel":"","addr":"경기도 남양주시 오남읍 오남리 454-12번지 106호","indutype":"일반휴게음식 - 서양음식","category":"restaurant"}]},{"lat":"37.687634389","long":"127.21191762","imageIndex":4,"items":[{"name":"봉평메밀막국수","tel":"031-574-2221","addr":"경기도 남양주시 오남읍 오남리 246-6번지","indutype":"일반휴게음식 - 일반한식","category":"restaurant"}]},{"lat":"37.685969219","long":"127.20583634","imageIndex":4,"items":[{"name":"불꽃숯불갈비 막국수","tel":"031-571-3944","addr":"경기도 남양주시 오남읍 오남리 591-10번지 1층","indutype":"일반휴게음식 - 일반한식","category":"restaurant"},{"name":"불꽃숯불갈비 막국수","tel":"031-571-3944","addr":"경기도 남양주시 오남읍 오남리 591-10번지 1층","indutype":"일반휴게음식 - 일반한식","category":"restaurant"}]},{"lat":"37.694860426","long":"127.20658623","imageIndex":4,"items":[{"name":"불타는연탄구이","tel":"031-574-7992","addr":"경기도 남양주시 오남읍 오남리 732-1번지","indutype":"일반휴게음식 - 일반한식","category":"restaurant"},{"name":"비에이치씨(bhc) 양지점","tel":"031-571-9907","addr":"경기도 남양주시 오남읍 오남리 732-1번지","indutype":"일반휴게음식 - 스넥","category":"restaurant"},{"name":"오남식당","tel":"031-1111-1111","addr":"경기도 남양주시 오남읍 오남리 732-1번지 1층","indutype":"일반휴게음식 - 일반한식","category":"restaurant"}]},{"lat":"37.681694713","long":"127.21322731","imageIndex":4,"items":[{"name":"브릿지(Bridge)","tel":"031-575-0291","addr":"경기도 남양주시 오남읍 오남리 386-5번지","indutype":"일반휴게음식 - 서양음식","category":"restaurant"}]},{"lat":"37.694551507","long":"127.21319559","imageIndex":4,"items":[{"name":"비비큐오남점","tel":"031-529-0222","addr":"경기도 남양주시 오남읍 오남리 133-1번지 105호","indutype":"일반휴게음식 - 스넥","category":"restaurant"}]},{"lat":"37.685221084","long":"127.21119663","imageIndex":4,"items":[{"name":"비에프펍","tel":"031-512-5370","addr":"경기도 남양주시 오남읍 오남리 265-5번지","indutype":"일반휴게음식 - 주점","category":"restaurant"}]},{"lat":"37.688885392","long":"127.2126694","imageIndex":4,"items":[{"name":"산벌떡낙지","tel":"031-575-9768","addr":"경기도 남양주시 오남읍 오남리 201-2번지 1층","indutype":"일반휴게음식 - 일반한식","category":"restaurant"},{"name":"페리카나치킨 오남점","tel":"031-575-9292","addr":"경기도 남양주시 오남읍 오남리 201-2번지 5호","indutype":"일반휴게음식 - 스넥","category":"restaurant"}]},{"lat":"37.681133839","long":"127.20941675","imageIndex":4,"items":[{"name":"삼대째손두부","tel":"031-573-0573","addr":"경기도 남양주시 오남읍 오남리 490-6번지","indutype":"일반휴게음식 - 일반한식","category":"restaurant"}]},{"lat":"37.690936823","long":"127.21421711","imageIndex":4,"items":[{"name":"색소폰라이브","tel":"031-573-1357","addr":"경기도 남양주시 오남읍 오남리 203-16번지 2층","indutype":"일반휴게음식 - 주점","category":"restaurant"}]},{"lat":"37.693302892","long":"127.21613996","imageIndex":4,"items":[{"name":"소머리국밥에반하다","tel":"031-000-0000","addr":"경기도 남양주시 오남읍 오남리 44-7번지 1층 일부호","indutype":"일반휴게음식 - 일반한식","category":"restaurant"}]},{"lat":"37.698271","long":"127.21402249","imageIndex":4,"items":[{"name":"수사골송어","tel":"031-575-6888","addr":"경기도 남양주시 오남읍 오남리 101-3번지 수사골송어 2동","indutype":"일반휴게음식 - 일반한식","category":"restaurant"}]},{"lat":"37.696768709","long":"127.1969423","imageIndex":4,"items":[{"name":"숯불구이막창앤곱창","tel":"031-528-6263","addr":"경기도 남양주시 오남읍 오남리 883-1번지 104호","indutype":"일반휴게음식 - 일반한식","category":"restaurant"},{"name":"파라솔(PARASOL)","tel":"031-527-4493","addr":"경기도 남양주시 오남읍 오남리 883-1번지 2층","indutype":"일반휴게음식 - 일반한식","category":"restaurant"}]},{"lat":"37.688634794","long":"127.2117277","imageIndex":4,"items":[{"name":"시골본가집","tel":"031-575-2626","addr":"경기도 남양주시 오남읍 오남리 683-5번지","indutype":"일반휴게음식 - 일반한식","category":"restaurant"}]},{"lat":"37.68485291","long":"127.21050406","imageIndex":4,"items":[{"name":"신전떡볶이오남점","tel":"031-529-7770","addr":"경기도 남양주시 오남읍 오남리 325번지","indutype":"일반휴게음식 - 스넥","category":"restaurant"}]},{"lat":"37.67886175","long":"127.21036267","imageIndex":4,"items":[{"name":"아노히","tel":"070-8790-6754","addr":"경기도 남양주시 오남읍 오남리 413-18번지 가동 1층 3호","indutype":"일반휴게음식 - 일식·회집","category":"restaurant"},{"name":"오가피시골영양탕","tel":"031-575-0479","addr":"경기도 남양주시 오남읍 오남리 413-18번지 1층 2호","indutype":"일반휴게음식 - 일반한식","category":"restaurant"},{"name":"티디퓨전즉석떡볶이","tel":"031-527-0027","addr":"경기도 남양주시 오남읍 오남리 413-18번지","indutype":"일반휴게음식 - 일반한식","category":"restaurant"}]},{"lat":"37.680943525","long":"127.21005105","imageIndex":4,"items":[{"name":"양평88민물","tel":"070-8846-5288","addr":"경기도 남양주시 오남읍 오남리 493-1번지","indutype":"일반휴게음식 - 일반한식","category":"restaurant"}]},{"lat":"37.68310437","long":"127.21088463","imageIndex":4,"items":[{"name":"양평으뜸해장국","tel":"031-575-5202","addr":"경기도 남양주시 오남읍 오남리 341-5번지","indutype":"일반휴게음식 - 일반한식","category":"restaurant"},{"name":"이공비빔국수왕돈까스","tel":"031-571-1157","addr":"경기도 남양주시 오남읍 오남리 341-5번지 외1필지","indutype":"일반휴게음식 - 일반한식","category":"restaurant"}]},{"lat":"37.690164127","long":"127.21302447","imageIndex":4,"items":[{"name":"엄마손만두","tel":"031-572-9987","addr":"경기도 남양주시 오남읍 오남리 205-28번지 1층","indutype":"일반휴게음식 - 스넥","category":"restaurant"}]},{"lat":"37.696300503","long":"127.20216814","imageIndex":4,"items":[{"name":"에스메랄다","tel":"031-529-0466","addr":"경기도 남양주시 오남읍 오남리 784-26번지 상가 102호","indutype":"일반휴게음식 - 서양음식","category":"restaurant"}]},{"lat":"37.696553186","long":"127.2071918","imageIndex":4,"items":[{"name":"예담손칼국수","tel":"031-527-1033","addr":"경기도 남양주시 오남읍 오남리 754-1번지 주2동 1층 일부(5호)","indutype":"일반휴게음식 - 일반한식","category":"restaurant"}]},{"lat":"37.679578026","long":"127.20778006","imageIndex":4,"items":[{"name":"예랑버섯샤브칼국수","tel":"031-523-2708","addr":"경기도 남양주시 오남읍 오남리 500번지 1층","indutype":"일반휴게음식 - 일반한식","category":"restaurant"}]},{"lat":"37.693243681","long":"127.2139969","imageIndex":4,"items":[{"name":"예화담 감자탕","tel":"031-528-2666","addr":"경기도 남양주시 오남읍 오남리 183번지 2층","indutype":"일반휴게음식 - 일반한식","category":"restaurant"}]},{"lat":"37.685186464","long":"127.21039162","imageIndex":4,"items":[{"name":"오구포차","tel":"031-527-5909","addr":"경기도 남양주시 오남읍 오남리 537-2번지 1동 1층","indutype":"일반휴게음식 - 일반한식","category":"restaurant"}]},{"lat":"37.680492846","long":"127.21016316","imageIndex":4,"items":[{"name":"오꾸꼬치킨","tel":"031-527-9266","addr":"경기도 남양주시 오남읍 오남리 479-2번지 1층","indutype":"일반휴게음식 - 스넥","category":"restaurant"}]},{"lat":"37.680528585","long":"127.2103333","imageIndex":4,"items":[{"name":"오남곱창나라","tel":"031-0315-2980","addr":"경기도 남양주시 오남읍 오남리 480번지 다동(주3)1층","indutype":"일반휴게음식 - 일반한식","category":"restaurant"}]},{"lat":"37.68107841","long":"127.2101988","imageIndex":4,"items":[{"name":"오남떡볶이","tel":"070-7739-3799","addr":"경기도 남양주시 오남읍 오남리 484번지","indutype":"일반휴게음식 - 스넥","category":"restaurant"},{"name":"큰나무오리집","tel":"031-573-8852","addr":"경기도 남양주시 오남읍 오남리 484번지","indutype":"일반휴게음식 - 일반한식","category":"restaurant"}]},{"lat":"37.678276026","long":"127.21041772","imageIndex":4,"items":[{"name":"오남리 돼지명가 두루치기","tel":"031-574-7376","addr":"경기도 남양주시 오남읍 오남리 454-1번지 105호 104호,105호","indutype":"일반휴게음식 - 일반한식","category":"restaurant"},{"name":"중화포차","tel":"031-528-6263","addr":"경기도 남양주시 오남읍 오남리 454-1번지 1층","indutype":"일반휴게음식 - 중국식","category":"restaurant"}]},{"lat":"37.690108571","long":"127.2138633","imageIndex":4,"items":[{"name":"오동도","tel":"031-529-5536","addr":"경기도 남양주시 오남읍 오남리 200번지","indutype":"일반휴게음식 - 일반한식","category":"restaurant"}]},{"lat":"37.690388213","long":"127.21367135","imageIndex":4,"items":[{"name":"오동도 바지락칼국수","tel":"031-529-3611","addr":"경기도 남양주시 오남읍 오남리 202","indutype":"일반휴게음식 - 일반한식","category":"restaurant"}]},{"lat":"37.684665222","long":"127.20964194","imageIndex":4,"items":[{"name":"오아시스","tel":"","addr":"경기도 남양주시 오남읍 오남리 538-1번지 오남체육문화센터 2층 일부","indutype":"일반휴게음식 - 일반한식","category":"restaurant"}]},{"lat":"37.691881628","long":"127.21488873","imageIndex":4,"items":[{"name":"왕가","tel":"031-573-4345","addr":"경기도 남양주시 오남읍 오남리 191-7번지","indutype":"일반휴게음식 - 일반한식","category":"restaurant"}]},{"lat":"37.694546452","long":"127.2209396","imageIndex":4,"items":[{"name":"우리마을 정육식당","tel":"","addr":"경기도 남양주시 오남읍 오남리 30-3번지 1층","indutype":"일반휴게음식 - 일반한식","category":"restaurant"}]},{"lat":"37.678798144","long":"127.21066856","imageIndex":4,"items":[{"name":"원도넛츠","tel":"031-567-2391","addr":"경기도 남양주시 오남읍 오남리 413-3번지","indutype":"일반휴게음식 - 서양음식","category":"restaurant"}]},{"lat":"37.679576863","long":"127.20844888","imageIndex":4,"items":[{"name":"원조뼈다귀감자탕해장국","tel":"031-574-1467","addr":"경기도 남양주시 오남읍 오남리 499번지 금명빌딩 1층","indutype":"일반휴게음식 - 일반한식","category":"restaurant"},{"name":"자연밥상","tel":"031-571-7785","addr":"경기도 남양주시 오남읍 오남리 499번지 금명빌딩 1층 104호","indutype":"일반휴게음식 - 일반한식","category":"restaurant"},{"name":"제이제이","tel":"031-572-0790","addr":"경기도 남양주시 오남읍 오남리 499번지 금명빌딩 2층","indutype":"일반휴게음식 - 주점","category":"restaurant"}]},{"lat":"37.6833013","long":"127.21161072","imageIndex":4,"items":[{"name":"육공판정육식당(오남점)","tel":"031-574-9233","addr":"경기도 남양주시 오남읍 오남리 336-1번지 336-2 지층","indutype":"일반휴게음식 - 일반한식","category":"restaurant"}]},{"lat":"37.682276067","long":"127.21055356","imageIndex":4,"items":[{"name":"육미가 오남점","tel":"","addr":"경기도 남양주시 오남읍 오남리 346-4번지","indutype":"일반휴게음식 - 일반한식","category":"restaurant"}]},{"lat":"37.68138587","long":"127.20955349","imageIndex":4,"items":[{"name":"육쌈냉면","tel":"","addr":"경기도 남양주시 오남읍 오남리 490-15번지","indutype":"일반휴게음식 - 일반한식","category":"restaurant"}]},{"lat":"37.680719338","long":"127.20944961","imageIndex":4,"items":[{"name":"윤가네불타는닭갈비","tel":"031-527-5254","addr":"경기도 남양주시 오남읍 오남리 494-12번지","indutype":"일반휴게음식 - 일반한식","category":"restaurant"}]},{"lat":"37.680330613","long":"127.21019672","imageIndex":4,"items":[{"name":"이디야커피","tel":"031-585-9975","addr":"경기도 남양주시 오남읍 오남리 404-2번지","indutype":"일반휴게음식 - 서양음식","category":"restaurant"}]},{"lat":"37.696580547","long":"127.20172668","imageIndex":4,"items":[{"name":"자담치킨","tel":"031-527-9785","addr":"경기도 남양주시 오남읍 오남리 761-52번지 103호, 102호일부","indutype":"일반휴게음식 - 스넥","category":"restaurant"}]},{"lat":"37.694524028","long":"127.22330923","imageIndex":4,"items":[{"name":"자스민","tel":"031-527-2772","addr":"경기도 남양주시 오남읍 오남리 23-7번지","indutype":"일반휴게음식 - 일반한식","category":"restaurant"}]},{"lat":"37.696769287","long":"127.1965908","imageIndex":4,"items":[{"name":"장수메밀막국수칼국수","tel":"031-573-5363","addr":"경기도 남양주시 오남읍 오남리 883번지 234-6","indutype":"일반휴게음식 - 일반한식","category":"restaurant"}]},{"lat":"37.679998372","long":"127.20956097","imageIndex":4,"items":[{"name":"장원곱창","tel":"031-527-4448","addr":"경기도 남양주시 오남읍 오남리 495-8번지","indutype":"일반휴게음식 - 일반한식","category":"restaurant"},{"name":"회 사가기 조은날","tel":"031-575-8100","addr":"경기도 남양주시 오남읍 오남리 495-8번지 1층 일부","indutype":"일반휴게음식 - 일식·회집","category":"restaurant"}]},{"lat":"37.693104682","long":"127.21613939","imageIndex":4,"items":[{"name":"전의전쟁","tel":"031-527-3059","addr":"경기도 남양주시 오남읍 오남리 44-5번지 1층","indutype":"일반휴게음식 - 주점","category":"restaurant"}]},{"lat":"37.684219187","long":"127.20708995","imageIndex":4,"items":[{"name":"주문진생선구이찌개","tel":"031-528-9250","addr":"경기도 남양주시 오남읍 오남리 559","indutype":"일반휴게음식 - 일반한식","category":"restaurant"}]},{"lat":"37.686852899","long":"127.21058899","imageIndex":4,"items":[{"name":"주선생","tel":"031-575-6239","addr":"경기도 남양주시 오남읍 오남리 259-3번지 1층 좌측 2호","indutype":"일반휴게음식 - 주점","category":"restaurant"}]},{"lat":"37.678664952","long":"127.20955727","imageIndex":4,"items":[{"name":"중국성","tel":"031-527-6625","addr":"경기도 남양주시 오남읍 오남리 476-2번지 1층 202호","indutype":"일반휴게음식 - 중국식","category":"restaurant"},{"name":"코만도바베큐","tel":"031-527-1592","addr":"경기도 남양주시 오남읍 오남리 476-2번지 101호","indutype":"일반휴게음식 - 스넥","category":"restaurant"},{"name":"횡성생고기","tel":"031-528-4492","addr":"경기도 남양주시 오남읍 오남리 476-2번지 외1필지","indutype":"일반휴게음식 - 일반한식","category":"restaurant"}]},{"lat":"37.681664829","long":"127.20974698","imageIndex":4,"items":[{"name":"진미명태가","tel":"02-111-1111","addr":"경기도 남양주시 오남읍 오남리 490-1번지 1층 3,4호","indutype":"일반휴게음식 - 일반한식","category":"restaurant"}]},{"lat":"37.679077002","long":"127.21091873","imageIndex":4,"items":[{"name":"진우네옛날통닭오남점","tel":"031-111-1111","addr":"경기도 남양주시 오남읍 오남리 413-2번지","indutype":"일반휴게음식 - 스넥","category":"restaurant"}]},{"lat":"37.682915309","long":"127.21080474","imageIndex":4,"items":[{"name":"진짜맛잇는갈비집","tel":"031-527-3778","addr":"경기도 남양주시 오남읍 오남리 342-1번지 1층","indutype":"일반휴게음식 - 일반한식","category":"restaurant"}]},{"lat":"37.684662189","long":"127.21136512","imageIndex":4,"items":[{"name":"차오웍","tel":"031-571-8122","addr":"경기도 남양주시 오남읍 오남리 331번지 1층","indutype":"일반휴게음식 - 중국식","category":"restaurant"},{"name":"황금코다리 오남점","tel":"031-0000-0000","addr":"경기도 남양주시 오남읍 오남리 331번지 2동 1층 나호","indutype":"일반휴게음식 - 일반한식","category":"restaurant"}]},{"lat":"37.696580833","long":"127.20155661","imageIndex":4,"items":[{"name":"착한꿀돼지","tel":"031-574-3465","addr":"경기도 남양주시 오남읍 오남리 761-10번지","indutype":"일반휴게음식 - 일반한식","category":"restaurant"}]},{"lat":"37.694717068","long":"127.22124624","imageIndex":4,"items":[{"name":"착한낙지오남점","tel":"031-574-5537","addr":"경기도 남양주시 오남읍 오남리 30-1번지","indutype":"일반휴게음식 - 일반한식","category":"restaurant"}]},{"lat":"37.687995114","long":"127.2117259","imageIndex":4,"items":[{"name":"착한주막골","tel":"031-573-3899","addr":"경기도 남양주시 오남읍 오남리 246번지","indutype":"일반휴게음식 - 일반한식","category":"restaurant"}]},{"lat":"37.687355333","long":"127.2117808","imageIndex":4,"items":[{"name":"참숯화로구이","tel":"031-575-2896","addr":"경기도 남양주시 오남읍 오남리 247번지","indutype":"일반휴게음식 - 일반한식","category":"restaurant"}]},{"lat":"37.682132492","long":"127.2102244","imageIndex":4,"items":[{"name":"천마산산사람포차","tel":"031-571-2284","addr":"경기도 남양주시 오남읍 오남리 525-2번지 나-4","indutype":"일반휴게음식 - 일반한식","category":"restaurant"}]},{"lat":"37.68627574","long":"127.20572381","imageIndex":4,"items":[{"name":"초원삼겹살","tel":"031-574-4233","addr":"경기도 남양주시 오남읍 오남리 591번지","indutype":"일반휴게음식 - 일반한식","category":"restaurant"}]},{"lat":"37.687131616","long":"127.21091855","imageIndex":4,"items":[{"name":"최강달인왕만두","tel":"","addr":"경기도 남양주시 오남읍 오남리 258번지 1층 일부","indutype":"일반휴게음식 - 스넥","category":"restaurant"}]},{"lat":"37.679054642","long":"127.20825473","imageIndex":4,"items":[{"name":"취락","tel":"031-529-5289","addr":"경기도 남양주시 오남읍 오남리 475-4번지","indutype":"일반휴게음식 - 일반한식","category":"restaurant"}]},{"lat":"37.681915684","long":"127.21055255","imageIndex":4,"items":[{"name":"치어스","tel":"031-575-8391","addr":"경기도 남양주시 오남읍 오남리 489-2","indutype":"일반휴게음식 - 주점","category":"restaurant"}]},{"lat":"37.69216017","long":"127.21530902","imageIndex":4,"items":[{"name":"칠공팔공","tel":"031-528-7084","addr":"경기도 남양주시 오남읍 오남리 190-2번지","indutype":"일반휴게음식 - 주점","category":"restaurant"}]},{"lat":"37.678328164","long":"127.2115061","imageIndex":4,"items":[{"name":"카페 블레싱","tel":"031-555-5555","addr":"경기도 남양주시 오남읍 오남리 418-1번지","indutype":"일반휴게음식 - 서양음식","category":"restaurant"}]},{"lat":"37.684138609","long":"127.21194183","imageIndex":4,"items":[{"name":"카페블라썸","tel":"031-573-3788","addr":"경기도 남양주시 오남읍 오남리 318-2번지","indutype":"일반휴게음식 - 스넥","category":"restaurant"}]},{"lat":"37.685331932","long":"127.20964379","imageIndex":4,"items":[{"name":"카페잉거13(오남점)","tel":"031-575-1533","addr":"경기도 남양주시 오남읍 오남리 600번지","indutype":"일반휴게음식 - 서양음식","category":"restaurant"}]},{"lat":"37.679409977","long":"127.21113504","imageIndex":4,"items":[{"name":"캠핑와","tel":"070-4120-2930","addr":"경기도 남양주시 오남읍 오남리 412-2번지","indutype":"일반휴게음식 - 일반한식","category":"restaurant"}]},{"lat":"37.686158961","long":"127.21070043","imageIndex":4,"items":[{"name":"커피앙세","tel":"","addr":"경기도 남양주시 오남읍 오남리 263-1번지 나영빌딩 지하1층","indutype":"일반휴게음식 - 서양음식","category":"restaurant"}]},{"lat":"37.683411316","long":"127.21053405","imageIndex":4,"items":[{"name":"타이난","tel":"031-573-1392","addr":"경기도 남양주시 오남읍 오남리 333-1번지 1층","indutype":"일반휴게음식 - 서양음식","category":"restaurant"}]},{"lat":"37.680133278","long":"127.20969738","imageIndex":4,"items":[{"name":"토방닭발","tel":"031-528-9909","addr":"경기도 남양주시 오남읍 오남리 495-1번지 외1필지","indutype":"일반휴게음식 - 일반한식","category":"restaurant"},{"name":"피자스쿨","tel":"031-573-7729","addr":"경기도 남양주시 오남읍 오남리 495-1","indutype":"일반휴게음식 - 서양음식","category":"restaurant"}]},{"lat":"37.689192161","long":"127.21242084","imageIndex":4,"items":[{"name":"피자플러스","tel":"031-528-8284","addr":"경기도 남양주시 오남읍 오남리 683-27 대웅프라자2층201,207호","indutype":"일반휴게음식 - 서양음식","category":"restaurant"}]},{"lat":"37.687582295","long":"127.21080643","imageIndex":4,"items":[{"name":"하츠","tel":"031-529-8237","addr":"경기도 남양주시 오남읍 오남리 243번지 1호","indutype":"일반휴게음식 - 일반한식","category":"restaurant"},{"name":"한잔에추억","tel":"031-573-6295","addr":"경기도 남양주시 오남읍 오남리 243번지 1호","indutype":"일반휴게음식 - 주점","category":"restaurant"}]},{"lat":"37.679167597","long":"127.21063558","imageIndex":4,"items":[{"name":"한방전주콩나물국밥","tel":"031-575-4194","addr":"경기도 남양주시 오남읍 오남리 413-4번지 부일빌딩 1층6,7호","indutype":"일반휴게음식 - 일반한식","category":"restaurant"}]},{"lat":"37.691664705","long":"127.21527359","imageIndex":4,"items":[{"name":"황금조개","tel":"031-573-9297","addr":"경기도 남양주시 오남읍 오남리 194번지","indutype":"일반휴게음식 - 일반한식","category":"restaurant"}]},{"lat":"37.694024664","long":"127.21052963","imageIndex":4,"items":[{"name":"후다닭비어","tel":"031-528-0901","addr":"경기도 남양주시 오남읍 오남리 720-40번지 영동빌딩 104호","indutype":"일반휴게음식 - 주점","category":"restaurant"}]},{"lat":"37.677577166","long":"127.20819398","imageIndex":4,"items":[{"name":"히어롯(HEROT)","tel":"031-529-5040","addr":"경기도 남양주시 오남읍 오남리 464번지 남양주오남리금호어울림 상가동 3층 306호","indutype":"일반휴게음식 - 서양음식","category":"restaurant"}]}]