[{"lat":"37.808006877","long":"126.99693158","imageIndex":4,"items":[{"name":"가보자손칼국수","tel":"031-862-8971","addr":"경기도 양주시 백석읍 방성리 8-1번지","indutype":"일반휴게음식 - 일반한식","category":"restaurant"}]},{"lat":"37.795618856","long":"127.00891073","imageIndex":4,"items":[{"name":"돈까스일번지","tel":"031-877-9952","addr":"경기도 양주시 백석읍 방성리 489-1번지 외1필지","indutype":"일반휴게음식 - 일반한식","category":"restaurant"}]},{"lat":"37.80534015","long":"126.998601","imageIndex":4,"items":[{"name":"따복이포차","tel":"031-111-1111","addr":"경기도 양주시 백석읍 방성리 77-7번지 1층 101호","indutype":"일반휴게음식 - 일반한식","category":"restaurant"}]},{"lat":"37.800141731","long":"127.00004331","imageIndex":4,"items":[{"name":"마마스","tel":"","addr":"경기도 양주시 백석읍 방성리 238-1번지 1층 103호","indutype":"일반휴게음식 - 주점","category":"restaurant"}]},{"lat":"37.79215015","long":"127.00993224","imageIndex":4,"items":[{"name":"만남의광장","tel":"031-879-9252","addr":"경기도 양주시 백석읍 방성리 526-25번지","indutype":"일반휴게음식 - 일반한식","category":"restaurant"},{"name":"행복한정육식당","tel":"031-877-3363","addr":"경기도 양주시 백석읍 방성리 526-25번지","indutype":"일반휴게음식 - 일반한식","category":"restaurant"}]},{"lat":"37.785537395","long":"127.00223484","imageIndex":4,"items":[{"name":"만복도가니탕","tel":"031-855-3828","addr":"경기도 양주시 백석읍 방성리 827번지","indutype":"일반휴게음식 - 일반한식","category":"restaurant"},{"name":"한울타리","tel":"031-878-6011","addr":"경기도 양주시 백석읍 방성리 827번지 주건축물 1동 1층 8호","indutype":"일반휴게음식 - 일반한식","category":"restaurant"}]},{"lat":"37.803475269","long":"127.00282514","imageIndex":4,"items":[{"name":"먹기좋은날","tel":"031-826-3900","addr":"경기도 양주시 백석읍 방성리 105-1번지","indutype":"일반휴게음식 - 일반한식","category":"restaurant"},{"name":"아사도","tel":"031-858-7070","addr":"경기도 양주시 백석읍 방성리 105-1번지","indutype":"일반휴게음식 - 일반한식","category":"restaurant"}]},{"lat":"37.806502397","long":"126.99940717","imageIndex":4,"items":[{"name":"명품해물모듬짱뽕&수제돈까스","tel":"031-836-4800","addr":"경기도 양주시 백석읍 방성리 50-22번지","indutype":"일반휴게음식 - 중국식","category":"restaurant"}]},{"lat":"37.809114969","long":"126.99565964","imageIndex":4,"items":[{"name":"모닝토스트커피","tel":"031-873-8253","addr":"경기도 양주시 백석읍 방성리 6-3번지","indutype":"일반휴게음식 - 서양음식","category":"restaurant"},{"name":"행복한식당","tel":"031-855-7760","addr":"경기도 양주시 백석읍 방성리 6-3번지","indutype":"일반휴게음식 - 일반한식","category":"restaurant"}]},{"lat":"37.792870872","long":"127.01052268","imageIndex":4,"items":[{"name":"민물털랭이매운탕","tel":"031-836-0606","addr":"경기도 양주시 백석읍 방성리 538-3번지 1동 1층","indutype":"일반휴게음식 - 일반한식","category":"restaurant"}]},{"lat":"37.792005915","long":"127.01121513","imageIndex":4,"items":[{"name":"밥이랑 반찬이랑","tel":"031-829-5989","addr":"경기도 양주시 백석읍 방성리 546-2번지 1층","indutype":"일반휴게음식 - 일반한식","category":"restaurant"},{"name":"삼거리치킨","tel":"031-878-7567","addr":"경기도 양주시 백석읍 방성리 546-2","indutype":"일반휴게음식 - 일반한식","category":"restaurant"}]},{"lat":"37.808619532","long":"126.99715864","imageIndex":4,"items":[{"name":"백운칡냉면","tel":"","addr":"경기도 양주시 백석읍 방성리 5-23번지 가동 1층","indutype":"일반휴게음식 - 일반한식","category":"restaurant"},{"name":"커피이야기","tel":"031-836-1003","addr":"경기도 양주시 백석읍 방성리 5-23번지 1층","indutype":"일반휴게음식 - 서양음식","category":"restaurant"}]},{"lat":"37.78572659","long":"127.00171264","imageIndex":4,"items":[{"name":"베이징","tel":"031-855-7666","addr":"경기도 양주시 백석읍 방성리 863-1번지","indutype":"일반휴게음식 - 중국식","category":"restaurant"}]},{"lat":"37.793204244","long":"127.01018211","imageIndex":4,"items":[{"name":"불곡산보신탕능이오리","tel":"031-855-0102","addr":"경기도 양주시 백석읍 방성리 537-3","indutype":"일반휴게음식 - 일반한식","category":"restaurant"}]},{"lat":"37.793645736","long":"127.00971667","imageIndex":4,"items":[{"name":"불쌈곱닭","tel":"031-855-1205","addr":"경기도 양주시 백석읍 방성리 537-4번지","indutype":"일반휴게음식 - 일반한식","category":"restaurant"},{"name":"장터원조국수집","tel":"031-875-6791","addr":"경기도 양주시 백석읍 방성리 537-4번지 나동","indutype":"일반휴게음식 - 일반한식","category":"restaurant"}]},{"lat":"37.806169033","long":"126.99898704","imageIndex":4,"items":[{"name":"빠삭한옛날통닭","tel":"031-875-6402","addr":"경기도 양주시 백석읍 방성리 79-4번지","indutype":"일반휴게음식 - 일반한식","category":"restaurant"},{"name":"천복도가니탕","tel":"031-837-1030","addr":"경기도 양주시 백석읍 방성리 79-4번지 1층","indutype":"일반휴게음식 - 일반한식","category":"restaurant"}]},{"lat":"37.792285226","long":"127.01096539","imageIndex":4,"items":[{"name":"삼거리식당","tel":"031-878-7175","addr":"경기도 양주시 백석읍 방성리 544-3번지 나동 1층","indutype":"일반휴게음식 - 일반한식","category":"restaurant"}]},{"lat":"37.801700344","long":"127.00665166","imageIndex":4,"items":[{"name":"소공화 카페/제8기계화보병사단","tel":"031-1111-1111","addr":"경기도 양주시 백석읍 방성리 93번지","indutype":"일반휴게음식 - 서양음식","category":"restaurant"},{"name":"제8기계화보병사단","tel":"070-4176-9931","addr":"경기도 양주시 백석읍 방성리 93번지","indutype":"일반휴게음식 - 일반한식","category":"restaurant"},{"name":"제8기계화보병사단","tel":"070-4176-9931","addr":"경기도 양주시 백석읍 방성리 93번지","indutype":"일반휴게음식 - 일반한식","category":"restaurant"},{"name":"카페(공감)/7856부대","tel":"031-866-4593","addr":"경기도 양주시 백석읍 방성리 93번지","indutype":"일반휴게음식 - 서양음식","category":"restaurant"}]},{"lat":"37.807060957","long":"126.99860091","imageIndex":4,"items":[{"name":"수미밥집","tel":"031-829-2348","addr":"경기도 양주시 백석읍 방성리 51-36번지 1층 일부","indutype":"일반휴게음식 - 일반한식","category":"restaurant"}]},{"lat":"37.795726993","long":"127.00843389","imageIndex":4,"items":[{"name":"실내포장마차","tel":"031-878-3275","addr":"경기도 양주시 백석읍 방성리 509-1","indutype":"일반휴게음식 - 주점","category":"restaurant"}]},{"lat":"37.801862463","long":"126.99777232","imageIndex":4,"items":[{"name":"양주큰손식당","tel":"031-877-5907","addr":"경기도 양주시 백석읍 방성리 176번지 1층","indutype":"일반휴게음식 - 일반한식","category":"restaurant"}]},{"lat":"37.783122818","long":"127.00574257","imageIndex":4,"items":[{"name":"어둔골 손두부","tel":"","addr":"경기도 양주시 백석읍 방성리 841-2번지","indutype":"일반휴게음식 - 일반한식","category":"restaurant"}]},{"lat":"37.791114226","long":"126.99965766","imageIndex":4,"items":[{"name":"어르신밥상/(주)아들과딸","tel":"031-836-7088","addr":"경기도 양주시 백석읍 방성리 647번지 1층","indutype":"일반휴게음식 - 일반한식","category":"restaurant"}]},{"lat":"37.79347475","long":"127.00393778","imageIndex":4,"items":[{"name":"에클레시아","tel":"031-829-1639","addr":"경기도 양주시 백석읍 방성리 575-9번지 일부 1층","indutype":"일반휴게음식 - 일반한식","category":"restaurant"}]},{"lat":"37.801619213","long":"126.99790859","imageIndex":4,"items":[{"name":"옛날보신탕","tel":"031-829-1677","addr":"경기도 양주시 백석읍 방성리 175-2번지","indutype":"일반휴게음식 - 일반한식","category":"restaurant"}]},{"lat":"37.804619459","long":"127.00121272","imageIndex":4,"items":[{"name":"우리집밥상","tel":"031-836-0023","addr":"경기도 양주시 백석읍 방성리 85-34번지","indutype":"일반휴게음식 - 일반한식","category":"restaurant"},{"name":"이모네포차","tel":"031-836-0023","addr":"경기도 양주시 백석읍 방성리 85-34번지 1층 일부","indutype":"일반휴게음식 - 일반한식","category":"restaurant"}]},{"lat":"37.804394206","long":"127.00032703","imageIndex":4,"items":[{"name":"원조왕족발보쌈","tel":"031-879-7077","addr":"경기도 양주시 백석읍 방성리 83-14번지","indutype":"일반휴게음식 - 일반한식","category":"restaurant"}]},{"lat":"37.804952815","long":"127.00171234","imageIndex":4,"items":[{"name":"유정식당","tel":"031-855-5163","addr":"경기도 양주시 백석읍 방성리 85-14번지","indutype":"일반휴게음식 - 일반한식","category":"restaurant"}]},{"lat":"37.802727479","long":"127.00390385","imageIndex":4,"items":[{"name":"이공 비빔국수 왕돈까스","tel":"070-4194-6596","addr":"경기도 양주시 백석읍 방성리 109-49번지 1층","indutype":"일반휴게음식 - 일반한식","category":"restaurant"},{"name":"짜장군 짬뽕걸","tel":"070-8821-8787","addr":"경기도 양주시 백석읍 방성리 109-49번지","indutype":"일반휴게음식 - 중국식","category":"restaurant"},{"name":"짜장군짬뽕걸","tel":"070-8821-8787","addr":"경기도 양주시 백석읍 방성리 109-49번지 1층","indutype":"일반휴게음식 - 중국식","category":"restaurant"}]},{"lat":"37.796114386","long":"127.00874047","imageIndex":4,"items":[{"name":"장작구이한마당","tel":"031-829-9279","addr":"경기도 양주시 백석읍 방성리 490-4","indutype":"일반휴게음식 - 일반한식","category":"restaurant"}]},{"lat":"37.794537714","long":"127.00901283","imageIndex":4,"items":[{"name":"준식당","tel":"031-877-3170","addr":"경기도 양주시 백석읍 방성리 511-16번지 1층","indutype":"일반휴게음식 - 일반한식","category":"restaurant"}]},{"lat":"37.804114893","long":"126.99954354","imageIndex":4,"items":[{"name":"쿠치나펠리체","tel":"","addr":"경기도 양주시 백석읍 방성리 122-3번지 1층","indutype":"일반휴게음식 - 서양음식","category":"restaurant"}]},{"lat":"37.808502354","long":"126.99612528","imageIndex":4,"items":[{"name":"토종병천순대","tel":"031-864-4375","addr":"경기도 양주시 백석읍 방성리 7-8번지 1층2층","indutype":"일반휴게음식 - 일반한식","category":"restaurant"}]},{"lat":"37.800421034","long":"127.00042935","imageIndex":4,"items":[{"name":"티바두마리치킨 백석점","tel":"031-826-9966","addr":"경기도 양주시 백석읍 방성리 238-9번지","indutype":"일반휴게음식 - 스넥","category":"restaurant"}]},{"lat":"37.786870799","long":"127.00213266","imageIndex":4,"items":[{"name":"파티&파티(자담)","tel":"031-829-9877","addr":"경기도 양주시 백석읍 방성리 697-3번지","indutype":"일반휴게음식 - 일반한식","category":"restaurant"}]},{"lat":"37.804448289","long":"127.00229145","imageIndex":4,"items":[{"name":"피자에땅(광백점)","tel":"031-879-0852","addr":"경기도 양주시 백석읍 방성리 119-1번지","indutype":"일반휴게음식 - 서양음식","category":"restaurant"}]}]