[{"lat":"37.332600746","long":"127.69448689","imageIndex":17,"items":[{"name":"계림인테리어","tel":"031-881-2003","addr":"경기도 여주시 북내면 신접리 180-1번지","indutype":"건축자재 - 인테리어전문","category":"other"}]},{"lat":"37.328406343","long":"127.68599762","imageIndex":17,"items":[{"name":"로라스포츠","tel":"031-111-1111","addr":"경기도 여주시 북내면 신접리 234-2번지 106호","indutype":"레져용품 - 스포츠·레져용품","category":"other"}]},{"lat":"37.332022746","long":"127.69008109","imageIndex":4,"items":[{"name":"두부고을해마루","tel":"031-884-1137","addr":"경기도 여주시 북내면 신접리 189-7번지","indutype":"일반휴게음식 - 일반한식","category":"restaurant"}]},{"lat":"37.327690092","long":"127.68676964","imageIndex":4,"items":[{"name":"토담골","tel":"031-885-7852","addr":"경기도 여주시 북내면 신접리 245-1번지","indutype":"일반휴게음식 - 일반한식","category":"restaurant"}]},{"lat":"37.327572296","long":"127.68532439","imageIndex":4,"items":[{"name":"푸른들","tel":"031-881-1101","addr":"경기도 여주시 북내면 신접리 232-1번지","indutype":"일반휴게음식 - 일반한식","category":"restaurant"}]},{"lat":"37.329384803","long":"127.68818409","imageIndex":4,"items":[{"name":"홀인원가든","tel":"031-881-2243","addr":"경기도 여주시 북내면 신접리 251번지","indutype":"일반휴게음식 - 일반한식","category":"restaurant"}]},{"lat":"37.330157479","long":"127.68388097","imageIndex":16,"items":[{"name":"여강고등학교","tel":"031-882-0109","addr":"경기도 여주시 북내면 신접리 200번지 여강고등학교","indutype":"학원 - 초중고교육기관","category":"study"},{"name":"여강중학교","tel":"031-882-0109","addr":"경기도 여주시 북내면 신접리 200번지","indutype":"학원 - 초중고교육기관","category":"study"}]},{"lat":"37.330157479","long":"127.68388097","imageIndex":7,"items":[{"name":"여주 여강중고 매점","tel":"","addr":"경기도 여주시 북내면 신접리 200번지 여강고등학교","indutype":"음료식품 - 기타음료식품","category":"food"}]},{"lat":"37.329384803","long":"127.68818409","imageIndex":7,"items":[{"name":"홀인원","tel":"031-881-2244","addr":"경기도 여주시 북내면 신접리 251번지","indutype":"음료식품 - 농·축·수산품","category":"food"}]}]