[{"lat":"37.048986398","long":"127.13878095","imageIndex":17,"items":[{"name":"(주) 삼일정공","tel":"031-664-5571","addr":"경기도 안성시 원곡면 지문리 65-8","indutype":"주방용구 - 주방용구","category":"other"}]},{"lat":"37.068704856","long":"127.15110629","imageIndex":17,"items":[{"name":"(주)나루예","tel":"032-652-2730","addr":"경기도 안성시 원곡면 지문리 307-7번지","indutype":"레져용품 - 스포츠·레져용품","category":"other"}]},{"lat":"37.055685436","long":"127.13510535","imageIndex":17,"items":[{"name":"(주)키친탑","tel":"031-653-5800","addr":"경기도 안성시 원곡면 지문리 438-1번지 외1필지","indutype":"주방용구 - 주방용구","category":"other"},{"name":"키친탑","tel":"031-655-3680","addr":"경기도 안성시 원곡면 지문리 438-1","indutype":"주방용구 - 주방용구","category":"other"}]},{"lat":"37.064235498","long":"127.1359972","imageIndex":17,"items":[{"name":"두루기계주식회사","tel":"031-656-8421","addr":"경기도 안성시 원곡면 지문리 402번지","indutype":"농업 - 농기계","category":"other"}]},{"lat":"37.061101477","long":"127.14238918","imageIndex":17,"items":[{"name":"디에스엠 주식회사","tel":"031-656-0163","addr":"경기도 안성시 원곡면 지문리 329-4번지","indutype":"기타 - 기타 전문점","category":"other"},{"name":"디에스엠 주식회사","tel":"032-815-0163","addr":"경기도 안성시 원곡면 지문리 329-4번지","indutype":"기타 - 기타 전문점","category":"other"}]},{"lat":"37.062769252","long":"127.14169513","imageIndex":17,"items":[{"name":"서안성Par3골프클럽","tel":"031-658-0759","addr":"경기도 안성시 원곡면 지문리 산 39-1 외10필지","indutype":"회원제형태 - 레져업소","category":"other"}]},{"lat":"37.0524296","long":"127.13777531","imageIndex":17,"items":[{"name":"세븐일레븐안성지문산단점","tel":"031-1577-0711","addr":"경기도 안성시 원곡면 지문리 467-1번지","indutype":"유통업 영리 - 편 의 점","category":"other"}]},{"lat":"37.062212981","long":"127.13158622","imageIndex":17,"items":[{"name":"영진냉동(주)","tel":"031-618-1270","addr":"경기도 안성시 원곡면 지문리 413-5번지 1층","indutype":"전기제품 - 냉열기기","category":"other"}]},{"lat":"37.06831743","long":"127.15108305","imageIndex":17,"items":[{"name":"우진ACT","tel":"070-4048-7903","addr":"경기도 안성시 원곡면 지문리 307-25번지","indutype":"기타 - 기타 전문점","category":"other"}]},{"lat":"37.042353323","long":"127.13183371","imageIndex":17,"items":[{"name":"원곡농기계","tel":"031-652-6254","addr":"경기도 안성시 원곡면 지문리 594-6번지","indutype":"수리서비스 - 기타수리서비스","category":"other"}]},{"lat":"37.058181619","long":"127.13488482","imageIndex":17,"items":[{"name":"원일상사","tel":"070-8825-8068","addr":"경기도 안성시 원곡면 지문리 379번지","indutype":"신변잡화 - 기타잡화","category":"other"}]},{"lat":"37.050096328","long":"127.13735524","imageIndex":17,"items":[{"name":"한솔코리아","tel":"031-657-0011","addr":"경기도 안성시 원곡면 지문리 477-5번지","indutype":"농업 - 농기계","category":"other"}]},{"lat":"37.050017195","long":"127.13561264","imageIndex":7,"items":[{"name":"농사단원천영농조합법인","tel":"031-655-6355","addr":"경기도 안성시 원곡면 지문리 488","indutype":"음료식품 - 농·축·수산품","category":"food"}]},{"lat":"37.068709105","long":"127.1476655","imageIndex":7,"items":[{"name":"농업회사법인(주)새벽뜰","tel":"070-4238-4990","addr":"경기도 안성시 원곡면 지문리 309번지","indutype":"음료식품 - 농·축·수산품","category":"food"}]},{"lat":"37.049765258","long":"127.14313286","imageIndex":7,"items":[{"name":"신동광제과주식회사","tel":"031-654-6570","addr":"경기도 안성시 원곡면 지문리 69-20번지","indutype":"음료식품 - 기타음료식품","category":"food"}]},{"lat":"37.061650247","long":"127.14313224","imageIndex":7,"items":[{"name":"지니","tel":"","addr":"경기도 안성시 원곡면 지문리 산38-5번지","indutype":"음료식품 - 기타음료식품","category":"food"}]},{"lat":"37.0430199","long":"127.13202593","imageIndex":7,"items":[{"name":"농업회사법인 주식회사 천지식자재","tel":"031-000-0000","addr":"경기도 안성시 원곡면 지문리 591번지","indutype":"유통업 영리 - 슈퍼마켓","category":"mart"}]},{"lat":"37.0524296","long":"127.13777531","imageIndex":7,"items":[{"name":"이가네 마트","tel":"031-357-6070","addr":"경기도 안성시 원곡면 지문리 467-1번지","indutype":"유통업 영리 - 슈퍼마켓","category":"mart"}]},{"lat":"37.067399249","long":"127.15036163","imageIndex":5,"items":[{"name":"드라이브무인텔 야자수","tel":"031-656-2088","addr":"경기도 안성시 원곡면 지문리 306번지","indutype":"숙박업 - 여관/기타숙박업","category":"hotel"}]},{"lat":"37.068071171","long":"127.14616879","imageIndex":4,"items":[{"name":"로마의휴일","tel":"031-618-5544","addr":"경기도 안성시 원곡면 지문리 산32번지","indutype":"일반휴게음식 - 서양음식","category":"restaurant"}]},{"lat":"37.063126366","long":"127.14449544","imageIndex":4,"items":[{"name":"상지낚시랜드","tel":"031-456-4610","addr":"경기도 안성시 원곡면 지문리 317-10","indutype":"일반휴게음식 - 일반한식","category":"restaurant"}]},{"lat":"37.062102692","long":"127.14150277","imageIndex":4,"items":[{"name":"서안성골프클럽쉼터","tel":"031-611-8381","addr":"경기도 안성시 원곡면 지문리 769번지","indutype":"일반휴게음식 - 스넥","category":"restaurant"}]},{"lat":"37.065016859","long":"127.14593817","imageIndex":4,"items":[{"name":"지문리한솔가든","tel":"031-692-1003","addr":"경기도 안성시 원곡면 지문리 310","indutype":"일반휴게음식 - 일반한식","category":"restaurant"}]},{"lat":"37.064652304","long":"127.14183348","imageIndex":4,"items":[{"name":"참나무 한우 정육 식당","tel":"031-618-5454","addr":"경기도 안성시 원곡면 지문리 324-2번지","indutype":"일반휴게음식 - 일반한식","category":"restaurant"}]},{"lat":"37.060461329","long":"127.1427253","imageIndex":4,"items":[{"name":"칠갑산옻닭","tel":"031-654-0569","addr":"경기도 안성시 원곡면 지문리 329-1번지 1층","indutype":"일반휴게음식 - 일반한식","category":"restaurant"}]},{"lat":"37.067850335","long":"127.14991273","imageIndex":13,"items":[{"name":"주식회사네오메디컬","tel":"031-421-2917","addr":"경기도 안성시 원곡면 지문리 307-17번지","indutype":"보건위생 - 화장품","category":"beauty"}]}]