[{"lat":"37.057340717","long":"126.90510361","imageIndex":17,"items":[{"name":"(주)케이에스티산업","tel":"031-681-3920","addr":"경기도 평택시 청북읍 고잔리 363-1번지","indutype":"기타 - 기계공구","category":"other"},{"name":"케이에스티테크","tel":"031-8059-8191","addr":"경기도 평택시 청북읍 고잔리 363-1번지","indutype":"기타 - 기계공구","category":"other"}]},{"lat":"37.057984556","long":"126.89930147","imageIndex":17,"items":[{"name":"거창농장","tel":"","addr":"경기도 평택시 청북읍 고잔리 135-1번지","indutype":"소매업 - 계란","category":"other"}]},{"lat":"37.055121508","long":"126.89190783","imageIndex":17,"items":[{"name":"경기 지게차","tel":"031-653-5876","addr":"경기도 평택시 청북읍 고잔리 114번지","indutype":"기타 - 기계공구","category":"other"}]},{"lat":"37.047119067","long":"126.89082908","imageIndex":17,"items":[{"name":"고잔하우징","tel":"031-683-7153","addr":"경기도 평택시 청북읍 고잔리 833-1번지","indutype":"용역 서비스 - 기타용역서비스","category":"other"}]},{"lat":"37.059097878","long":"126.89482523","imageIndex":17,"items":[{"name":"나라정공","tel":"031-647-3001","addr":"경기도 평택시 청북읍 고잔리 1-806","indutype":"기타 - 기계공구","category":"other"}]},{"lat":"37.055287075","long":"126.90605061","imageIndex":17,"items":[{"name":"동명상사","tel":"031-653-9490","addr":"경기도 평택시 청북읍 고잔리 384","indutype":"건축자재 - 목재·석재·철물","category":"other"}]},{"lat":"37.064785566","long":"126.89704345","imageIndex":17,"items":[{"name":"성재농장","tel":"","addr":"경기도 평택시 청북읍 고잔리 1661-4번지","indutype":"소매업 - 계란","category":"other"}]},{"lat":"37.065425438","long":"126.90782552","imageIndex":17,"items":[{"name":"세븐일레븐평택고잔점","tel":"","addr":"경기도 평택시 청북읍 고잔리 2-4번지","indutype":"유통업 영리 - 편 의 점","category":"other"}]},{"lat":"37.058845612","long":"126.89485932","imageIndex":17,"items":[{"name":"스카이E.N.G","tel":"031-647-3004","addr":"경기도 평택시 청북읍 고잔리 1-807","indutype":"기타 - 기계공구","category":"other"}]},{"lat":"37.05382034","long":"126.90852577","imageIndex":17,"items":[{"name":"이노 프린팅","tel":"031-686-6953","addr":"경기도 평택시 청북읍 고잔리 444번지","indutype":"사무통신 - 사무용 OA기기","category":"other"}]},{"lat":"37.049235878","long":"126.90002158","imageIndex":17,"items":[{"name":"주영 주식회사","tel":"031-684-8277","addr":"경기도 평택시 청북읍 고잔리 584-2번지 1층","indutype":"가구 - 일반가구","category":"other"}]},{"lat":"37.041736076","long":"126.89665955","imageIndex":17,"items":[{"name":"한길복지선교회","tel":"031-612-9390","addr":"경기도 평택시 청북읍 고잔리 952-2번지 나동 1층","indutype":"기타 - 비영리/대상","category":"other"},{"name":"한길요양원","tel":"031-684-8291","addr":"경기도 평택시 청북읍 고잔리 952-2번지","indutype":"기타의료기관 - 기타의료기관 및 기타","category":"other"}]}]