[{"lat":"37.017050765","long":"127.19826799","imageIndex":4,"items":[{"name":"couch onion(카우치어니언)","tel":"031-618-2013","addr":"경기도 안성시 공도읍 마정리 200-514번지 상가동 102호","indutype":"일반휴게음식 - 서양음식","category":"restaurant"}]},{"lat":"37.007384844","long":"127.19113124","imageIndex":4,"items":[{"name":"갈비&갈비","tel":"031-656-8808","addr":"경기도 안성시 공도읍 마정리 513-2","indutype":"일반휴게음식 - 일반한식","category":"restaurant"},{"name":"청담","tel":"031-656-8808","addr":"경기도 안성시 공도읍 마정리 513-2번지","indutype":"일반휴게음식 - 일반한식","category":"restaurant"}]},{"lat":"37.013768027","long":"127.20534971","imageIndex":4,"items":[{"name":"군삼겹대림동산점","tel":"031-618-9296","addr":"경기도 안성시 공도읍 마정리 100-6","indutype":"일반휴게음식 - 일반한식","category":"restaurant"},{"name":"김밥천국","tel":"031-656-1577","addr":"경기도 안성시 공도읍 마정리 100-6번지 1층 좌 1층","indutype":"일반휴게음식 - 일반한식","category":"restaurant"},{"name":"대림동산생고기","tel":"031-618-9296","addr":"경기도 안성시 공도읍 마정리 100-6번지 가동","indutype":"일반휴게음식 - 일반한식","category":"restaurant"},{"name":"도깨비호프","tel":"","addr":"경기도 안성시 공도읍 마정리 100-6번지 나동 1층","indutype":"일반휴게음식 - 주점","category":"restaurant"}]},{"lat":"37.011103783","long":"127.20363478","imageIndex":4,"items":[{"name":"김가네맛있는감자탕","tel":"031-657-2007","addr":"경기도 안성시 공도읍 마정리 100-55번지","indutype":"일반휴게음식 - 일반한식","category":"restaurant"},{"name":"카페수기네","tel":"031-657-1037","addr":"경기도 안성시 공도읍 마정리 100-55번지 104호","indutype":"일반휴게음식 - 서양음식","category":"restaurant"}]},{"lat":"37.015328221","long":"127.20979229","imageIndex":4,"items":[{"name":"김정랑백반","tel":"031-652-1963","addr":"경기도 안성시 공도읍 마정리 45-28","indutype":"일반휴게음식 - 일반한식","category":"restaurant"}]},{"lat":"37.012852471","long":"127.20326859","imageIndex":4,"items":[{"name":"꼬르떼","tel":"02-000-0000","addr":"경기도 안성시 공도읍 마정리 100-60번지","indutype":"일반휴게음식 - 서양음식","category":"restaurant"}]},{"lat":"37.011609422","long":"127.20301813","imageIndex":4,"items":[{"name":"꼭지네","tel":"031-675-5659","addr":"경기도 안성시 공도읍 마정리 100-67번지","indutype":"일반휴게음식 - 일반한식","category":"restaurant"},{"name":"대림정","tel":"031-651-4159","addr":"경기도 안성시 공도읍 마정리 100-67번지","indutype":"일반휴게음식 - 일반한식","category":"restaurant"},{"name":"대림정","tel":"031-651-4159","addr":"경기도 안성시 공도읍 마정리 100-67번지 1층","indutype":"일반휴게음식 - 일반한식","category":"restaurant"}]},{"lat":"37.01121286","long":"127.20307327","imageIndex":4,"items":[{"name":"나드리김밥","tel":"031-653-7726","addr":"경기도 안성시 공도읍 마정리 98-3번지 B동 1층","indutype":"일반휴게음식 - 일반한식","category":"restaurant"},{"name":"사시미포장마차","tel":"031-658-0222","addr":"경기도 안성시 공도읍 마정리 98-3번지 B동","indutype":"일반휴게음식 - 일반한식","category":"restaurant"},{"name":"서울포차","tel":"031-653-7778","addr":"경기도 안성시 공도읍 마정리 98-3번지","indutype":"일반휴게음식 - 일반한식","category":"restaurant"},{"name":"왕실족발","tel":"031-692-2122","addr":"경기도 안성시 공도읍 마정리 98-3번지 외1필지 C동","indutype":"일반휴게음식 - 일반한식","category":"restaurant"}]},{"lat":"37.015047872","long":"127.21037583","imageIndex":4,"items":[{"name":"나무와새","tel":"031-618-9229","addr":"경기도 안성시 공도읍 마정리 527-2","indutype":"일반휴게음식 - 서양음식","category":"restaurant"}]},{"lat":"37.013247475","long":"127.20413481","imageIndex":4,"items":[{"name":"나이스치킨(마정,신두,내리점)","tel":"031-618-9279","addr":"경기도 안성시 공도읍 마정리 100-11번지","indutype":"일반휴게음식 - 스넥","category":"restaurant"}]},{"lat":"37.008664377","long":"127.19671848","imageIndex":4,"items":[{"name":"남포동직화쭈꾸미","tel":"031-656-0005","addr":"경기도 안성시 공도읍 마정리 144-13번지 1층 우측호","indutype":"일반휴게음식 - 일반한식","category":"restaurant"}]},{"lat":"37.012276625","long":"127.20277269","imageIndex":4,"items":[{"name":"내츄럴비프홍성정육식당","tel":"031-652-3195","addr":"경기도 안성시 공도읍 마정리 100-66번지","indutype":"일반휴게음식 - 일반한식","category":"restaurant"}]},{"lat":"37.014054112","long":"127.20135032","imageIndex":4,"items":[{"name":"다루(대림점)","tel":"031-651-7054","addr":"경기도 안성시 공도읍 마정리 112-64번지 1층","indutype":"일반휴게음식 - 일반한식","category":"restaurant"},{"name":"대림동산마루","tel":"031-651-7054","addr":"경기도 안성시 공도읍 마정리 112-64번지 1층","indutype":"일반휴게음식 - 일반한식","category":"restaurant"}]},{"lat":"37.008720653","long":"127.19535912","imageIndex":4,"items":[{"name":"달무리","tel":"031-111-1111","addr":"경기도 안성시 공도읍 마정리 144-16번지 문기프라자 2층","indutype":"일반휴게음식 - 일반한식","category":"restaurant"}]},{"lat":"37.009719512","long":"127.20163118","imageIndex":4,"items":[{"name":"대가외식","tel":"031-618-1901","addr":"경기도 안성시 공도읍 마정리 147-20번지 2층","indutype":"일반휴게음식 - 일반한식","category":"restaurant"}]},{"lat":"37.014906608","long":"127.20344253","imageIndex":4,"items":[{"name":"대림쌈밥","tel":"031-651-3199","addr":"경기도 안성시 공도읍 마정리 112-108번지","indutype":"일반휴게음식 - 일반한식","category":"restaurant"}]},{"lat":"37.010969668","long":"127.20301645","imageIndex":4,"items":[{"name":"대림포차","tel":"031-0000-0000","addr":"경기도 안성시 공도읍 마정리 125-5번지","indutype":"일반휴게음식 - 일반한식","category":"restaurant"},{"name":"장터옛골","tel":"031-618-5326","addr":"경기도 안성시 공도읍 마정리 125-5번지","indutype":"일반휴게음식 - 일반한식","category":"restaurant"}]},{"lat":"37.013796665","long":"127.20440593","imageIndex":4,"items":[{"name":"대박연탄구이","tel":"031-657-3093","addr":"경기도 안성시 공도읍 마정리 112-47번지","indutype":"일반휴게음식 - 일반한식","category":"restaurant"},{"name":"바글바글","tel":"031-651-0907","addr":"경기도 안성시 공도읍 마정리 112-47번지 X7-X8호","indutype":"일반휴게음식 - 일반한식","category":"restaurant"},{"name":"바글바글","tel":"031-651-0907","addr":"경기도 안성시 공도읍 마정리 112-47","indutype":"일반휴게음식 - 주점","category":"restaurant"},{"name":"카페준(cafe준)","tel":"031-674-0789","addr":"경기도 안성시 공도읍 마정리 112-47번지 1층 102호","indutype":"일반휴게음식 - 서양음식","category":"restaurant"},{"name":"행복한밥상","tel":"031-618-6654","addr":"경기도 안성시 공도읍 마정리 112-47번지 102호","indutype":"일반휴게음식 - 일반한식","category":"restaurant"}]},{"lat":"37.00962997","long":"127.20129388","imageIndex":4,"items":[{"name":"돈까스클럽","tel":"031-654-1471","addr":"경기도 안성시 공도읍 마정리 147-1","indutype":"일반휴게음식 - 서양음식","category":"restaurant"}]},{"lat":"37.017576291","long":"127.1964939","imageIndex":4,"items":[{"name":"들꽃마루","tel":"031-654-5517","addr":"경기도 안성시 공도읍 마정리 200-304번지","indutype":"일반휴게음식 - 서양음식","category":"restaurant"}]},{"lat":"37.014607606","long":"127.2096555","imageIndex":4,"items":[{"name":"뜨락애","tel":"031-676-0907","addr":"경기도 안성시 공도읍 마정리 45-38번지","indutype":"일반휴게음식 - 일반한식","category":"restaurant"}]},{"lat":"37.017187198","long":"127.197493","imageIndex":4,"items":[{"name":"라르고","tel":"031-657-6589","addr":"경기도 안성시 공도읍 마정리 200-279","indutype":"일반휴게음식 - 일반한식","category":"restaurant"}]},{"lat":"37.011494483","long":"127.20701784","imageIndex":4,"items":[{"name":"맛고을","tel":"","addr":"경기도 안성시 공도읍 마정리 90-10번지 1층","indutype":"일반휴게음식 - 일반한식","category":"restaurant"}]},{"lat":"37.008629288","long":"127.19613414","imageIndex":4,"items":[{"name":"명륜진사갈비 안성공도점","tel":"031-691-0092","addr":"경기도 안성시 공도읍 마정리 144-26번지 1층","indutype":"일반휴게음식 - 일반한식","category":"restaurant"}]},{"lat":"37.011219204","long":"127.19927553","imageIndex":4,"items":[{"name":"명품송어&어죽","tel":"031-618-3359","addr":"경기도 안성시 공도읍 마정리 156-5번지","indutype":"일반휴게음식 - 일반한식","category":"restaurant"}]},{"lat":"37.012874881","long":"127.20598781","imageIndex":4,"items":[{"name":"모바일&카페","tel":"","addr":"경기도 안성시 공도읍 마정리 100-92번지 한스빌 A동 1층 103호","indutype":"일반휴게음식 - 서양음식","category":"restaurant"}]},{"lat":"37.01293809","long":"127.20590932","imageIndex":4,"items":[{"name":"미성","tel":"031-658-5187","addr":"경기도 안성시 공도읍 마정리 100-44번지","indutype":"일반휴게음식 - 일반한식","category":"restaurant"}]},{"lat":"37.010465243","long":"127.20291401","imageIndex":4,"items":[{"name":"바나바왕족발보쌈","tel":"031-658-0365","addr":"경기도 안성시 공도읍 마정리 131-2번지","indutype":"일반휴게음식 - 일반한식","category":"restaurant"},{"name":"바다향기","tel":"031-658-5416","addr":"경기도 안성시 공도읍 마정리 131-2번지 2~3호","indutype":"일반휴게음식 - 일식·회집","category":"restaurant"}]},{"lat":"37.0150462","long":"127.20080231","imageIndex":4,"items":[{"name":"바다양푼이동태탕 안성공도점","tel":"031-656-9995","addr":"경기도 안성시 공도읍 마정리 195-4번지","indutype":"일반휴게음식 - 일반한식","category":"restaurant"}]},{"lat":"37.01424363","long":"127.20649709","imageIndex":4,"items":[{"name":"박군치킨대림동산점","tel":"031-618-9979","addr":"경기도 안성시 공도읍 마정리 51-2번지 1층","indutype":"일반휴게음식 - 스넥","category":"restaurant"}]},{"lat":"37.014128739","long":"127.20518212","imageIndex":4,"items":[{"name":"백암전통순대","tel":"031-656-4182","addr":"경기도 안성시 공도읍 마정리 100-83","indutype":"일반휴게음식 - 일반한식","category":"restaurant"},{"name":"한잔비어","tel":"031-656-9952","addr":"경기도 안성시 공도읍 마정리 100-83번지","indutype":"일반휴게음식 - 일반한식","category":"restaurant"}]},{"lat":"37.02007957","long":"127.19752285","imageIndex":4,"items":[{"name":"빈센트반커피","tel":"031-618-5991","addr":"경기도 안성시 공도읍 마정리 200-200번지","indutype":"일반휴게음식 - 서양음식","category":"restaurant"}]},{"lat":"37.008629872","long":"127.19577461","imageIndex":4,"items":[{"name":"상완수산","tel":"031-657-5377","addr":"경기도 안성시 공도읍 마정리 144-2번지 1층","indutype":"일반휴게음식 - 일식·회집","category":"restaurant"}]},{"lat":"37.01007833","long":"127.19716027","imageIndex":4,"items":[{"name":"송탄부댓집","tel":"031-651-7756","addr":"경기도 안성시 공도읍 마정리 146-7번지 1동 1층","indutype":"일반휴게음식 - 일반한식","category":"restaurant"}]},{"lat":"37.009799717","long":"127.19672137","imageIndex":4,"items":[{"name":"신(  )창이네 코다리","tel":"031-654-8549","addr":"경기도 안성시 공도읍 마정리 144-86번지","indutype":"일반휴게음식 - 일반한식","category":"restaurant"}]},{"lat":"37.014657128","long":"127.20176764","imageIndex":4,"items":[{"name":"쏘맥","tel":"031-618-5659","addr":"경기도 안성시 공도읍 마정리 112-59번지","indutype":"일반휴게음식 - 주점","category":"restaurant"},{"name":"쏘맥/특전환경(주)","tel":"031-618-5659","addr":"경기도 안성시 공도읍 마정리 112-59번지","indutype":"일반휴게음식 - 주점","category":"restaurant"},{"name":"포에버7080","tel":"031-692-2211","addr":"경기도 안성시 공도읍 마정리 112-59번지","indutype":"일반휴게음식 - 일반한식","category":"restaurant"}]},{"lat":"37.014047912","long":"127.2050246","imageIndex":4,"items":[{"name":"아가네정육점식당","tel":"031-618-4414","addr":"경기도 안성시 공도읍 마정리 100-73번지","indutype":"일반휴게음식 - 일반한식","category":"restaurant"},{"name":"한턱김밥","tel":"031-691-0986","addr":"경기도 안성시 공도읍 마정리 100-73번지 B동 4호","indutype":"일반휴게음식 - 스넥","category":"restaurant"}]},{"lat":"37.013023161","long":"127.20357241","imageIndex":4,"items":[{"name":"아가미","tel":"031-651-9707","addr":"경기도 안성시 공도읍 마정리 100-13번지 1층","indutype":"일반휴게음식 - 일반한식","category":"restaurant"}]},{"lat":"37.008990809","long":"127.19546092","imageIndex":4,"items":[{"name":"아고라루프탑","tel":"031-655-0455","addr":"경기도 안성시 공도읍 마정리 144-67번지 4층","indutype":"일반휴게음식 - 서양음식","category":"restaurant"}]},{"lat":"37.014882206","long":"127.20718422","imageIndex":4,"items":[{"name":"아방궁불가마사우나","tel":"031-656-0760","addr":"경기도 안성시 공도읍 마정리 223-138번지","indutype":"일반휴게음식 - 일반한식","category":"restaurant"}]},{"lat":"37.01007995","long":"127.20693541","imageIndex":4,"items":[{"name":"안성국수전문점","tel":"","addr":"경기도 안성시 공도읍 마정리 82-6번지","indutype":"일반휴게음식 - 일반한식","category":"restaurant"}]},{"lat":"37.010772965","long":"127.20210583","imageIndex":4,"items":[{"name":"안성궁","tel":"031-655-8591","addr":"경기도 안성시 공도읍 마정리 131-6번지","indutype":"일반휴게음식 - 일반한식","category":"restaurant"}]},{"lat":"37.009827038","long":"127.201991","imageIndex":4,"items":[{"name":"안성도담순대국","tel":"031-657-6577","addr":"경기도 안성시 공도읍 마정리 131-10번지","indutype":"일반휴게음식 - 일반한식","category":"restaurant"}]},{"lat":"37.008886916","long":"127.19838192","imageIndex":4,"items":[{"name":"안성마춤갤러리(안성로컬푸드유통센터)","tel":"031-656-0746","addr":"경기도 안성시 공도읍 마정리 150-1번지 2층","indutype":"일반휴게음식 - 일반한식","category":"restaurant"}]},{"lat":"37.015803148","long":"127.20077056","imageIndex":4,"items":[{"name":"안성보신골","tel":"031-618-5456","addr":"경기도 안성시 공도읍 마정리 194번지","indutype":"일반휴게음식 - 일반한식","category":"restaurant"}]},{"lat":"37.009637452","long":"127.1967659","imageIndex":4,"items":[{"name":"야호만두","tel":"031-654-1611","addr":"경기도 안성시 공도읍 마정리 144-10번지 가동 1층","indutype":"일반휴게음식 - 일반한식","category":"restaurant"}]},{"lat":"37.00779654","long":"127.19288499","imageIndex":4,"items":[{"name":"양재기찜갈비","tel":"031-655-5080","addr":"경기도 안성시 공도읍 마정리 503-5번지","indutype":"일반휴게음식 - 일반한식","category":"restaurant"}]},{"lat":"37.014218501","long":"127.20538462","imageIndex":4,"items":[{"name":"엔젤리안","tel":"031-618-7932","addr":"경기도 안성시 공도읍 마정리 100-4번지","indutype":"일반휴게음식 - 서양음식","category":"restaurant"}]},{"lat":"37.012802873","long":"127.20594267","imageIndex":4,"items":[{"name":"엠앤씨(M&C)","tel":"02-0000-0000","addr":"경기도 안성시 공도읍 마정리 100-92번지 한스빌 상가동 103호","indutype":"일반휴게음식 - 서양음식","category":"restaurant"}]},{"lat":"37.014553557","long":"127.20440793","imageIndex":4,"items":[{"name":"예다원","tel":"031-692-9394","addr":"경기도 안성시 공도읍 마정리 111-29번지","indutype":"일반휴게음식 - 스넥","category":"restaurant"}]},{"lat":"37.015632452","long":"127.20046673","imageIndex":4,"items":[{"name":"우리집밥","tel":"031-658-9588","addr":"경기도 안성시 공도읍 마정리 200-38번지 가동 102호","indutype":"일반휴게음식 - 일반한식","category":"restaurant"}]},{"lat":"37.007912796","long":"127.19343582","imageIndex":4,"items":[{"name":"원조양평해장국","tel":"031-618-3373","addr":"경기도 안성시 공도읍 마정리 503-6번지 1층","indutype":"일반휴게음식 - 일반한식","category":"restaurant"}]},{"lat":"37.014437124","long":"127.20399188","imageIndex":4,"items":[{"name":"자금성","tel":"031-651-2553","addr":"경기도 안성시 공도읍 마정리 112-44번지","indutype":"일반휴게음식 - 중국식","category":"restaurant"},{"name":"중심","tel":"","addr":"경기도 안성시 공도읍 마정리 112-44번지 1층","indutype":"일반휴게음식 - 서양음식","category":"restaurant"}]},{"lat":"37.010798409","long":"127.20304971","imageIndex":4,"items":[{"name":"장원치킨과호프","tel":"031-618-1833","addr":"경기도 안성시 공도읍 마정리 125-8번지","indutype":"일반휴게음식 - 일반한식","category":"restaurant"}]},{"lat":"37.014414214","long":"127.20685711","imageIndex":4,"items":[{"name":"주신정","tel":"031-656-5190","addr":"경기도 안성시 공도읍 마정리 51-24번지","indutype":"일반휴게음식 - 일반한식","category":"restaurant"}]},{"lat":"37.010077021","long":"127.20863201","imageIndex":4,"items":[{"name":"중앙가든","tel":"031-618-9144","addr":"경기도 안성시 공도읍 마정리 81-1번지","indutype":"일반휴게음식 - 일반한식","category":"restaurant"},{"name":"호담","tel":"031-675-7775","addr":"경기도 안성시 공도읍 마정리 81-1번지 1층 중앙호","indutype":"일반휴게음식 - 일반한식","category":"restaurant"}]},{"lat":"37.012358609","long":"127.2022448","imageIndex":4,"items":[{"name":"진주네집","tel":"031-652-2348","addr":"경기도 안성시 공도읍 마정리 122-14번지","indutype":"일반휴게음식 - 일반한식","category":"restaurant"}]},{"lat":"37.014378683","long":"127.2012388","imageIndex":4,"items":[{"name":"처갓집양념치킨 대림동산점","tel":"031-618-9977","addr":"경기도 안성시 공도읍 마정리 112-163번지","indutype":"일반휴게음식 - 스넥","category":"restaurant"}]},{"lat":"37.010242703","long":"127.19582363","imageIndex":4,"items":[{"name":"커피사탕","tel":"031-691-3232","addr":"경기도 안성시 공도읍 마정리 451-14번지 1층 우측호","indutype":"일반휴게음식 - 서양음식","category":"restaurant"}]},{"lat":"37.010186354","long":"127.20793568","imageIndex":4,"items":[{"name":"커피콩","tel":"041-567-8508","addr":"경기도 안성시 공도읍 마정리 90-23번지","indutype":"일반휴게음식 - 서양음식","category":"restaurant"}]},{"lat":"37.009684634","long":"127.20093447","imageIndex":4,"items":[{"name":"팔당냉면","tel":"031-618-3038","addr":"경기도 안성시 공도읍 마정리 147-3번지 가동","indutype":"일반휴게음식 - 일반한식","category":"restaurant"}]},{"lat":"37.017078702","long":"127.19771746","imageIndex":4,"items":[{"name":"피자나라치킨공주","tel":"031-692-3144","addr":"경기도 안성시 공도읍 마정리 200-278번지 1동 102호","indutype":"일반휴게음식 - 서양음식","category":"restaurant"}]},{"lat":"37.013270386","long":"127.20655067","imageIndex":4,"items":[{"name":"헐렁이왕족발 공도점","tel":"031-657-6100","addr":"경기도 안성시 공도읍 마정리 100-138번지","indutype":"일반휴게음식 - 일반한식","category":"restaurant"}]},{"lat":"37.014664517","long":"127.20801513","imageIndex":4,"items":[{"name":"헬로(Hello)","tel":"031-691-1971","addr":"경기도 안성시 공도읍 마정리 45-67번지","indutype":"일반휴게음식 - 주점","category":"restaurant"}]}]