[{"lat":"37.131753028","long":"126.90904805","imageIndex":13,"items":[{"name":"다정노래연습장","tel":"031-352-1252","addr":"경기도 화성시 향남읍 평리 80-8번지","indutype":"레저업소 - 노 래 방","category":"leisure"},{"name":"베이징","tel":"070-8621-6886","addr":"경기도 화성시 향남읍 평리 80-8번지","indutype":"레저업소 - 헬스클럽","category":"leisure"}]},{"lat":"37.130670611","long":"126.90759767","imageIndex":13,"items":[{"name":"딸기노래연습장","tel":"070-8947-4490","addr":"경기도 화성시 향남읍 평리 121-5번지 라임테라스 2층 202호","indutype":"레저업소 - 노 래 방","category":"leisure"},{"name":"에스비에스(SBS)당구클럽","tel":"031-354-3550","addr":"경기도 화성시 향남읍 평리 121-5번지 3층","indutype":"레저업소 - 당 구 장","category":"leisure"}]},{"lat":"37.132193726","long":"126.90802341","imageIndex":13,"items":[{"name":"랄리구라스 스포츠 하우스","tel":"031-999-8888","addr":"경기도 화성시 향남읍 평리 109-11번지 2층","indutype":"레저업소 - 당 구 장","category":"leisure"}]},{"lat":"37.131609233","long":"126.90952089","imageIndex":13,"items":[{"name":"뮤직뱅크","tel":"031-352-6446","addr":"경기도 화성시 향남읍 평리 81-57번지","indutype":"레저업소 - 노 래 방","category":"leisure"},{"name":"뮤직뱅크노래연습장","tel":"031-359-9370","addr":"경기도 화성시 향남읍 평리 81-57번지 4층","indutype":"레저업소 - 노 래 방","category":"leisure"}]},{"lat":"37.133141148","long":"126.90968781","imageIndex":13,"items":[{"name":"발안락볼링장","tel":"031-111-1111","addr":"경기도 화성시 향남읍 평리 35-4번지","indutype":"레저업소 - 볼 링 장","category":"leisure"}]},{"lat":"37.131310852","long":"126.90821582","imageIndex":13,"items":[{"name":"발안점PC존","tel":"","addr":"경기도 화성시 향남읍 평리 118-10번지 2층","indutype":"레저업소 - 기타레져업소","category":"leisure"},{"name":"신세계당구광장","tel":"031-352-1673","addr":"경기도 화성시 향남읍 평리 118-10번지 5층 501호","indutype":"레저업소 - 당 구 장","category":"leisure"}]},{"lat":"37.131032757","long":"126.90976918","imageIndex":13,"items":[{"name":"산까치노래연습장","tel":"031-353-7297","addr":"경기도 화성시 향남읍 평리 81-25번지","indutype":"레저업소 - 노 래 방","category":"leisure"}]},{"lat":"37.131671316","long":"126.90827164","imageIndex":13,"items":[{"name":"세븐당구클럽","tel":"031-354-8689","addr":"경기도 화성시 향남읍 평리 112-3번지","indutype":"레저업소 - 당 구 장","category":"leisure"}]},{"lat":"37.13219332","long":"126.90751699","imageIndex":13,"items":[{"name":"스타노래방","tel":"031-353-5432","addr":"경기도 화성시 향남읍 평리 101-9번지","indutype":"레저업소 - 노 래 방","category":"leisure"}]},{"lat":"37.133582838","long":"126.90991235","imageIndex":13,"items":[{"name":"애플노래연습장","tel":"031-352-7560","addr":"경기도 화성시 향남읍 평리 30-4번지 2층","indutype":"레저업소 - 노 래 방","category":"leisure"}]},{"lat":"37.130472335","long":"126.90754165","imageIndex":13,"items":[{"name":"오페라노래연습장","tel":"031-354-3771","addr":"경기도 화성시 향남읍 평리 122-1번지 라벤다테라스빌딩 301호","indutype":"레저업소 - 노 래 방","category":"leisure"}]},{"lat":"37.133194571","long":"126.90887746","imageIndex":13,"items":[{"name":"채플린II노래연습장","tel":"031-366-4541","addr":"경기도 화성시 향남읍 평리 88-3번지 향남빌딩 302호","indutype":"레저업소 - 노 래 방","category":"leisure"},{"name":"채플린노래연습장","tel":"031-354-4541","addr":"경기도 화성시 향남읍 평리 88-3번지 향남빌딩 301호","indutype":"레저업소 - 노 래 방","category":"leisure"},{"name":"채플린당구장","tel":"031-354-4543","addr":"경기도 화성시 향남읍 평리 88-3번지 향남빌딩 2층","indutype":"레저업소 - 당 구 장","category":"leisure"}]},{"lat":"37.131581408","long":"126.90851934","imageIndex":13,"items":[{"name":"투투노래연습장","tel":"031-352-2955","addr":"경기도 화성시 향남읍 평리 80-36번지 아시아나빌딩 202호","indutype":"레저업소 - 노 래 방","category":"leisure"}]},{"lat":"37.129698921","long":"126.9094107","imageIndex":13,"items":[{"name":"팡팡노래연습장","tel":"031-352-0377","addr":"경기도 화성시 향남읍 평리 137-9번지 지층 1-1호","indutype":"레저업소 - 노 래 방","category":"leisure"}]},{"lat":"37.13364554","long":"126.90943961","imageIndex":13,"items":[{"name":"향남노래연습장","tel":"070-8947-4490","addr":"경기도 화성시 향남읍 평리 33-3번지","indutype":"레저업소 - 노 래 방","category":"leisure"}]}]