[{"lat":"36.954895437","long":"127.25954694","imageIndex":17,"items":[{"name":"(주)데코코안성지점","tel":"031-674-8594","addr":"경기도 안성시 서운면 양촌리 267-1","indutype":"가구 - 일반가구","category":"other"}]},{"lat":"36.951422315","long":"127.25721127","imageIndex":17,"items":[{"name":"(주)트윈세이버","tel":"031-678-6600","addr":"경기도 안성시 서운면 양촌리 283-2","indutype":"직물 - 침구·수예점","category":"other"}]},{"lat":"36.952616512","long":"127.25918002","imageIndex":17,"items":[{"name":"두산지게차A/S","tel":"031-675-0241","addr":"경기도 안성시 서운면 양촌리 278-4번지","indutype":"수리서비스 - 기타수리서비스","category":"other"}]},{"lat":"36.949280852","long":"127.2721583","imageIndex":17,"items":[{"name":"민영농기계","tel":"031-672-2043","addr":"경기도 안성시 서운면 양촌리 204-3번지","indutype":"농업 - 농기계","category":"other"}]},{"lat":"36.951085035","long":"127.25901771","imageIndex":17,"items":[{"name":"스카이서비스","tel":"031-671-5676","addr":"경기도 안성시 서운면 양촌리 280-5번지","indutype":"기타 - 기계공구","category":"other"}]},{"lat":"36.94725178","long":"127.2768214","imageIndex":4,"items":[{"name":"대화토종닭","tel":"031-672-9414","addr":"경기도 안성시 서운면 양촌리 89-1번지","indutype":"일반휴게음식 - 일반한식","category":"restaurant"}]},{"lat":"36.950779688","long":"127.25854515","imageIndex":4,"items":[{"name":"밥먹고가유","tel":"031-677-3385","addr":"경기도 안성시 서운면 양촌리 280-8번지","indutype":"일반휴게음식 - 일반한식","category":"restaurant"}]},{"lat":"36.951337818","long":"127.25879401","imageIndex":4,"items":[{"name":"일품짜장","tel":"031-671-8259","addr":"경기도 안성시 서운면 양촌리 280-7번지","indutype":"일반휴게음식 - 중국식","category":"restaurant"}]},{"lat":"36.952248912","long":"127.25832551","imageIndex":4,"items":[{"name":"한그석","tel":"031-677-8116","addr":"경기도 안성시 서운면 양촌리 283-5번지","indutype":"일반휴게음식 - 일반한식","category":"restaurant"}]}]