[{"lat":"37.47409402","long":"126.8468179","imageIndex":0,"items":[{"name":"G2모터스","tel":"02-2688-4700","addr":"경기도 광명시 광명동 243번지","indutype":"자동차정비 유지 - 자동차정비","category":"car"},{"name":"G2모터스","tel":"02-2688-4700","addr":"경기도 광명시 광명동 243번지","indutype":"자동차정비 유지 - 자동차부품","category":"car"},{"name":"한국 자동차 드론 산업 연구소","tel":"","addr":"경기도 광명시 광명동 243번지","indutype":"자동차정비 유지 - 자동차부품","category":"car"}]},{"lat":"37.48326052","long":"126.8564883","imageIndex":0,"items":[{"name":"GM대우광명바로정비","tel":"02-2686-8255","addr":"경기도 광명시 광명동 92-3번지","indutype":"자동차정비 유지 - 자동차정비","category":"car"}]},{"lat":"37.47165661","long":"126.8501013","imageIndex":0,"items":[{"name":"광덕오토바이","tel":"02-2685-5491","addr":"경기도 광명시 광명동 374-180번지","indutype":"자동차판매 - 이륜차판매","category":"car"}]},{"lat":"37.47704709","long":"126.8592929","imageIndex":0,"items":[{"name":"광명4동 단체협의회","tel":"","addr":"경기도 광명시 광명동 158-279번지","indutype":"자동차정비 유지 - 주차장","category":"car"},{"name":"패션문화의거리공영B주차장","tel":"031-3765-7750","addr":"경기도 광명시 광명동 158-279번지","indutype":"자동차정비 유지 - 주차장","category":"car"}]},{"lat":"37.47923581","long":"126.8515104","imageIndex":0,"items":[{"name":"광명4동 새마을지도자협의회","tel":"","addr":"경기도 광명시 광명동 158-900번지","indutype":"자동차정비 유지 - 주차장","category":"car"}]},{"lat":"37.47459752","long":"126.8460142","imageIndex":0,"items":[{"name":"광명세진세차장","tel":"02-2688-2860","addr":"경기도 광명시 광명동 236번지","indutype":"자동차정비 유지 - 세차장","category":"car"},{"name":"카샵","tel":"02-2625-3167","addr":"경기도 광명시 광명동 236번지 1층","indutype":"자동차정비 유지 - 자동차부품","category":"car"}]},{"lat":"37.48026904","long":"126.8563472","imageIndex":0,"items":[{"name":"광명시장상점가진흥사업협동조합","tel":"02-2614-0006","addr":"경기도 광명시 광명동 158-26번지","indutype":"자동차정비 유지 - 주차장","category":"car"}]},{"lat":"37.47762621","long":"126.8613493","imageIndex":0,"items":[{"name":"광명오토바이","tel":"02-2612-2842","addr":"경기도 광명시 광명동 33-78번지 1층 6호","indutype":"자동차판매 - 이륜차판매","category":"car"}]},{"lat":"37.47768","long":"126.8611231","imageIndex":0,"items":[{"name":"광명오토바이","tel":"02-2612-2842","addr":"경기도 광명시 광명동 33-51번지","indutype":"자동차정비 유지 - 자동차정비","category":"car"}]},{"lat":"37.48487367","long":"126.8567904","imageIndex":0,"items":[{"name":"광명인자동차병원","tel":"02-2618-6622","addr":"경기도 광명시 광명동 50-18번지","indutype":"자동차정비 유지 - 자동차시트·타이어","category":"car"}]},{"lat":"37.48073691","long":"126.84876","imageIndex":0,"items":[{"name":"광명자동차유리","tel":"02-2687-6555","addr":"경기도 광명시 광명동 163-2번지 대령오피스텔 1층 상가 101호","indutype":"자동차정비 유지 - 자동차부품","category":"car"}]},{"lat":"37.47287531","long":"126.8519302","imageIndex":0,"items":[{"name":"광명주차장,광명세차장","tel":"02-2687-9360","addr":"경기도 광명시 광명동 342-19번지","indutype":"자동차정비 유지 - 세차장","category":"car"}]},{"lat":"37.47337473","long":"126.8479612","imageIndex":0,"items":[{"name":"광은카센타","tel":"02-2687-1152","addr":"경기도 광명시 광명동 353-3번지","indutype":"자동차정비 유지 - 자동차정비","category":"car"}]},{"lat":"37.46843215","long":"126.8509557","imageIndex":0,"items":[{"name":"기아자동차카클리닉광명점","tel":"02-2684-8285","addr":"경기도 광명시 광명동 739-19번지","indutype":"자동차정비 유지 - 자동차정비","category":"car"}]},{"lat":"37.48106847","long":"126.84738","imageIndex":0,"items":[{"name":"기호자동차정비공업사","tel":"02-2615-5152","addr":"경기도 광명시 광명동 159-110","indutype":"자동차정비 유지 - 자동차정비","category":"car"},{"name":"위한씨엠 주식회사","tel":"02-832-9677","addr":"경기도 광명시 광명동 159-110번지 크리스탈빌딩 203호","indutype":"자동차정비 유지 - 주차장","category":"car"}]},{"lat":"37.48109869","long":"126.849822","imageIndex":0,"items":[{"name":"남경현대자동차","tel":"02-2060-4447","addr":"경기도 광명시 광명동 159-1번지 남경현대자동차","indutype":"자동차정비 유지 - 자동차정비","category":"car"}]},{"lat":"37.47770659","long":"126.8607613","imageIndex":0,"items":[{"name":"남성카센타","tel":"02-685-6050","addr":"경기도 광명시 광명동 33-48번지","indutype":"자동차정비 유지 - 자동차정비","category":"car"}]},{"lat":"37.4809304","long":"126.8520722","imageIndex":0,"items":[{"name":"대성자동차정비공업사","tel":"02-2688-4230","addr":"경기도 광명시 광명동 158-214번지","indutype":"자동차정비 유지 - 자동차정비","category":"car"}]},{"lat":"37.49040449","long":"126.8631796","imageIndex":0,"items":[{"name":"대영밧대리","tel":"02-2618-9707","addr":"경기도 광명시 광명동 6-62번지 1층","indutype":"자동차정비 유지 - 자동차부품","category":"car"}]},{"lat":"37.48015574","long":"126.8522321","imageIndex":0,"items":[{"name":"대우상사","tel":"02-2616-6344","addr":"경기도 광명시 광명동 158-208번지","indutype":"자동차정비 유지 - 자동차부품","category":"car"}]},{"lat":"37.48804188","long":"126.861488","imageIndex":0,"items":[{"name":"더카원","tel":"032-866-3110","addr":"경기도 광명시 광명동 10-8번지 광성그린빌 102호","indutype":"자동차정비 유지 - 세차장","category":"car"}]},{"lat":"37.46772535","long":"126.8548908","imageIndex":0,"items":[{"name":"드림팩토리","tel":"031-502-9430","addr":"경기도 광명시 광명동 732번지 중앙하이츠아파트","indutype":"자동차정비 유지 - 자동차부품","category":"car"}]},{"lat":"37.48309747","long":"126.8557876","imageIndex":0,"items":[{"name":"루마썬팅&쉴드런광명점","tel":"02-877-8790","addr":"경기도 광명시 광명동 93-5번지 1층","indutype":"자동차정비 유지 - 카인테리어","category":"car"}]},{"lat":"37.47546162","long":"126.8522867","imageIndex":0,"items":[{"name":"리바이크","tel":"02-2687-8289","addr":"경기도 광명시 광명동 294-7번지 1층","indutype":"자동차판매 - 이륜차판매","category":"car"}]},{"lat":"37.48079072","long":"126.8485677","imageIndex":0,"items":[{"name":"명문카센타","tel":"02-2689-5844","addr":"경기도 광명시 광명동 163-1번지","indutype":"자동차정비 유지 - 자동차정비","category":"car"}]},{"lat":"37.48384574","long":"126.856148","imageIndex":0,"items":[{"name":"명성오토바이","tel":"02-2611-8118","addr":"경기도 광명시 광명동 56-4번지","indutype":"자동차판매 - 이륜차판매","category":"car"}]},{"lat":"37.48187622","long":"126.8591253","imageIndex":0,"items":[{"name":"몬스터샵","tel":"02-2685-8025","addr":"경기도 광명시 광명동 84-8번지 1층","indutype":"자동차판매 - 이륜차판매","category":"car"}]},{"lat":"37.48154402","long":"126.8528172","imageIndex":0,"items":[{"name":"믿음카센타","tel":"02-2617-6731","addr":"경기도 광명시 광명동 148-1번지","indutype":"자동차정비 유지 - 자동차정비","category":"car"}]},{"lat":"37.4755123","long":"126.8567634","imageIndex":0,"items":[{"name":"바이크혁명","tel":"031-000-0000","addr":"경기도 광명시 광명동 42-2번지 석성연립 102,103호","indutype":"자동차판매 - 이륜차판매","category":"car"}]},{"lat":"37.46849176","long":"126.8482878","imageIndex":0,"items":[{"name":"병아리모터스","tel":"02-2618-3156","addr":"경기도 광명시 광명동 753-1번지","indutype":"자동차판매 - 이륜차판매","category":"car"}]},{"lat":"37.47062862","long":"126.8494364","imageIndex":0,"items":[{"name":"블랙박스","tel":"02-6397-5499","addr":"경기도 광명시 광명동 374-1번지","indutype":"자동차정비 유지 - 자동차부품","category":"car"}]},{"lat":"37.47387924","long":"126.8479262","imageIndex":0,"items":[{"name":"삼성상사","tel":"02-2616-8826","addr":"경기도 광명시 광명동 247-35번지","indutype":"자동차정비 유지 - 자동차부품","category":"car"}]},{"lat":"37.46832057","long":"126.8482881","imageIndex":0,"items":[{"name":"삼성카독크","tel":"02-684-3600","addr":"경기도 광명시 광명동 753-3번지","indutype":"자동차정비 유지 - 자동차정비","category":"car"}]},{"lat":"37.47115255","long":"126.8504867","imageIndex":0,"items":[{"name":"삼진기업","tel":"031-703-4690","addr":"경기도 광명시 광명동 374-51번지","indutype":"자동차정비 유지 - 자동차부품","category":"car"}]},{"lat":"37.48096315","long":"126.849517","imageIndex":0,"items":[{"name":"서광자동차정비공업사","tel":"02-2625-3287","addr":"경기도 광명시 광명동 159-20번지 1층","indutype":"자동차정비 유지 - 자동차정비","category":"car"}]},{"lat":"37.48126814","long":"126.8484876","imageIndex":0,"items":[{"name":"서진상사","tel":"02-2613-9665","addr":"경기도 광명시 광명동 159-50번지","indutype":"자동차정비 유지 - 자동차부품","category":"car"}]},{"lat":"37.47923431","long":"126.8574911","imageIndex":0,"items":[{"name":"성일주차장","tel":"02-2685-9979","addr":"경기도 광명시 광명동 156-9번지","indutype":"자동차정비 유지 - 주차장","category":"car"}]},{"lat":"37.48093438","long":"126.848183","imageIndex":0,"items":[{"name":"세덴(광명점)","tel":"02-2682-6706","addr":"경기도 광명시 광명동 163-8","indutype":"자동차정비 유지 - 카인테리어","category":"car"}]},{"lat":"37.46988013","long":"126.8489293","imageIndex":0,"items":[{"name":"세덴경륜점","tel":"02-2613-6331","addr":"경기도 광명시 광명동 752번지","indutype":"자동차정비 유지 - 카인테리어","category":"car"}]},{"lat":"37.46860002","long":"126.8484006","imageIndex":0,"items":[{"name":"소울라인","tel":"070-8713-5087","addr":"경기도 광명시 광명동 753번지","indutype":"자동차정비 유지 - 자동차부품","category":"car"}]},{"lat":"37.48143","long":"126.8482385","imageIndex":0,"items":[{"name":"스피드메이트 광명점","tel":"031-000-0000","addr":"경기도 광명시 광명동 159-61번지 1층","indutype":"자동차정비 유지 - 자동차정비","category":"car"}]},{"lat":"37.46921302","long":"126.848648","imageIndex":0,"items":[{"name":"신광명오토서비스","tel":"02-2625-1552","addr":"경기도 광명시 광명동 752-3번지","indutype":"자동차정비 유지 - 자동차정비","category":"car"},{"name":"영찬카쎈타","tel":"02-2682-7432","addr":"경기도 광명시 광명동 752-3번지","indutype":"자동차정비 유지 - 자동차정비","category":"car"}]},{"lat":"37.48084666","long":"126.8500147","imageIndex":0,"items":[{"name":"신성헤드","tel":"02-883-9879","addr":"경기도 광명시 광명동 158-1405번지","indutype":"자동차정비 유지 - 자동차부품","category":"car"}]},{"lat":"37.46895995","long":"126.8480381","imageIndex":0,"items":[{"name":"쌍용리페어","tel":"02-2686-7545","addr":"경기도 광명시 광명동 754-1번지","indutype":"자동차정비 유지 - 자동차정비","category":"car"}]},{"lat":"37.47782144","long":"126.8588731","imageIndex":0,"items":[{"name":"애니카랜드광명점","tel":"02-2684-3850","addr":"경기도 광명시 광명동 158-304번지","indutype":"자동차정비 유지 - 자동차정비","category":"car"}]},{"lat":"37.4810147","long":"126.8475949","imageIndex":0,"items":[{"name":"에이스자동차정비","tel":"02-2687-5537","addr":"경기도 광명시 광명동 159-106번지","indutype":"자동차정비 유지 - 자동차정비","category":"car"}]},{"lat":"37.4682966","long":"126.8506507","imageIndex":0,"items":[{"name":"엔진마을(광명점)","tel":"02-2613-2085","addr":"경기도 광명시 광명동 742-6번지","indutype":"자동차정비 유지 - 자동차정비","category":"car"}]},{"lat":"37.47084739","long":"126.8514029","imageIndex":0,"items":[{"name":"오달진오토워시앤케어","tel":"070-7478-7710","addr":"경기도 광명시 광명동 374-141번지 중앙하이츠3차 301동 401호","indutype":"자동차정비 유지 - 세차장","category":"car"}]},{"lat":"37.47026733","long":"126.8558241","imageIndex":0,"items":[{"name":"오렌지모터스","tel":"02-2060-4052","addr":"경기도 광명시 광명동 717-4번지","indutype":"자동차정비 유지 - 자동차정비","category":"car"}]},{"lat":"37.47502786","long":"126.8512815","imageIndex":0,"items":[{"name":"오리렉카","tel":"02-2611-8249","addr":"경기도 광명시 광명동 289-15번지 삼하빌라 B동 102호","indutype":"자동차정비 유지 - 견인서비스","category":"car"}]},{"lat":"37.47951779","long":"126.8609275","imageIndex":0,"items":[{"name":"오반장 출장세차","tel":"","addr":"경기도 광명시 광명동 32-169번지 우성타운 지층 B02호","indutype":"자동차정비 유지 - 세차장","category":"car"}]},{"lat":"37.48520708","long":"126.8568237","imageIndex":0,"items":[{"name":"울트라손세차장","tel":"02-2614-3301","addr":"경기도 광명시 광명동 50-1번지","indutype":"자동차정비 유지 - 세차장","category":"car"}]},{"lat":"37.48254487","long":"126.8607069","imageIndex":0,"items":[{"name":"원탑카케어","tel":"02-2684-7555","addr":"경기도 광명시 광명동 70-9번지 에덴빌라 201호","indutype":"자동차정비 유지 - 세차장","category":"car"}]},{"lat":"37.48031733","long":"126.8517682","imageIndex":0,"items":[{"name":"월드자동차용품점","tel":"02-2060-7099","addr":"경기도 광명시 광명동 158-219번지","indutype":"자동차정비 유지 - 자동차부품","category":"car"}]},{"lat":"37.47357222","long":"126.8474068","imageIndex":0,"items":[{"name":"일광부분정비쎈타","tel":"02-2614-1203","addr":"경기도 광명시 광명동 242-7번지","indutype":"자동차정비 유지 - 자동차정비","category":"car"}]},{"lat":"37.48098978","long":"126.8492117","imageIndex":0,"items":[{"name":"좋은합성오일자동차공업사","tel":"02-2688-6451","addr":"경기도 광명시 광명동 159-25번지","indutype":"자동차정비 유지 - 자동차정비","category":"car"}]},{"lat":"37.47985201","long":"126.8542903","imageIndex":0,"items":[{"name":"주식회사 광명비엠","tel":"02-2683-6380","addr":"경기도 광명시 광명동 158-86번지 광명빌딩","indutype":"자동차정비 유지 - 주차장","category":"car"}]},{"lat":"37.48729458","long":"126.8619304","imageIndex":0,"items":[{"name":"짱이카","tel":"070-8632-1062","addr":"경기도 광명시 광명동 10-76번지 1층","indutype":"자동차정비 유지 - 자동차부품","category":"car"}]},{"lat":"37.48317939","long":"126.8564546","imageIndex":0,"items":[{"name":"차크린부분정비공업사","tel":"02-2612-1084","addr":"경기도 광명시 광명동 92-4번지","indutype":"자동차정비 유지 - 자동차정비","category":"car"}]},{"lat":"37.48129495","long":"126.8483179","imageIndex":0,"items":[{"name":"창성카센타","tel":"02-2613-5624","addr":"경기도 광명시 광명동 159-57번지","indutype":"자동차정비 유지 - 카인테리어","category":"car"}]},{"lat":"37.47626464","long":"126.8531782","imageIndex":0,"items":[{"name":"충남카","tel":"02-685-2576","addr":"경기도 광명시 광명동 196-12번지","indutype":"자동차정비 유지 - 자동차정비","category":"car"}]},{"lat":"37.47937608","long":"126.8555688","imageIndex":0,"items":[{"name":"카키랜드","tel":"02-1577-3969","addr":"경기도 광명시 광명동 150-19번지 크로앙스 3층 3092호","indutype":"자동차정비 유지 - 자동차부품","category":"car"}]},{"lat":"37.4662375","long":"126.853933","imageIndex":0,"items":[{"name":"클린에이스","tel":"","addr":"경기도 광명시 광명동 733-8번지 우성그린빌라 4층 401호","indutype":"자동차정비 유지 - 세차장","category":"car"}]},{"lat":"37.46256946","long":"126.8462089","imageIndex":0,"items":[{"name":"타이어짱광명점","tel":"02-2066-8860","addr":"경기도 광명시 광명동 511-1번지","indutype":"자동차정비 유지 - 자동차시트·타이어","category":"car"}]},{"lat":"37.48068307","long":"126.8489297","imageIndex":0,"items":[{"name":"티스테이션(T.STATION)광명점","tel":"02-6933-3325","addr":"경기도 광명시 광명동 164-12번지","indutype":"자동차정비 유지 - 자동차시트·타이어","category":"car"}]},{"lat":"37.47754328","long":"126.8598233","imageIndex":0,"items":[{"name":"하나모터스","tel":"02-2616-5282","addr":"경기도 광명시 광명동 158-238번지","indutype":"자동차판매 - 이륜차판매","category":"car"}]},{"lat":"37.48054148","long":"126.8509085","imageIndex":0,"items":[{"name":"한국자동차정비공업사","tel":"02-2688-3440","addr":"경기도 광명시 광명동 158-1101번지","indutype":"자동차정비 유지 - 자동차정비","category":"car"}]},{"lat":"37.46815366","long":"126.8516005","imageIndex":0,"items":[{"name":"한순주차장","tel":"02-2682-2667","addr":"경기도 광명시 광명동 738-3번지","indutype":"자동차정비 유지 - 주차장","category":"car"}]},{"lat":"37.47084513","long":"126.8496508","imageIndex":0,"items":[{"name":"한진자동차전문정비서비스","tel":"02-2619-1526","addr":"경기도 광명시 광명동 375-2번지","indutype":"자동차정비 유지 - 자동차정비","category":"car"}]},{"lat":"37.47878905","long":"126.854462","imageIndex":0,"items":[{"name":"해솔개발","tel":"02-890-4202","addr":"경기도 광명시 광명동 158-514번지 지층 201호","indutype":"자동차정비 유지 - 주차장","category":"car"}]},{"lat":"37.48126707","long":"126.8546832","imageIndex":0,"items":[{"name":"현대주차장","tel":"02-683-0532","addr":"경기도 광명시 광명동 143-4번지","indutype":"자동차정비 유지 - 주차장","category":"car"}]},{"lat":"37.48120985","long":"126.8521847","imageIndex":0,"items":[{"name":"현대카공업사","tel":"02-2685-7784","addr":"경기도 광명시 광명동 158-212번지","indutype":"자동차정비 유지 - 자동차정비","category":"car"}]}]