[{"lat":"37.6413729","long":"127.60443313","imageIndex":5,"items":[{"name":"고모네민박","tel":"","addr":"경기도 양평군 단월면 석산리 214-5번지 1층","indutype":"숙박업 - 여관/기타숙박업","category":"hotel"}]},{"lat":"37.643006007","long":"127.60749414","imageIndex":5,"items":[{"name":"석산펜션","tel":"031-774-6645","addr":"경기도 양평군 단월면 석산리 97","indutype":"숙박업 - 여관/기타숙박업","category":"hotel"}]},{"lat":"37.628011079","long":"127.61157535","imageIndex":5,"items":[{"name":"소리산소금강","tel":"031-771-0482","addr":"경기도 양평군 단월면 석산리 647-1번지","indutype":"숙박업 - 여관/기타숙박업","category":"hotel"}]},{"lat":"37.646312987","long":"127.61613234","imageIndex":5,"items":[{"name":"스마일민박","tel":"031-775-1900","addr":"경기도 양평군 단월면 석산리 147-1번지","indutype":"숙박업 - 여관/기타숙박업","category":"hotel"}]},{"lat":"37.646425276","long":"127.61532877","imageIndex":5,"items":[{"name":"퀸스타운펜션","tel":"031-3273-0101","addr":"경기도 양평군 단월면 석산리 150-4","indutype":"숙박업 - 여관/기타숙박업","category":"hotel"}]},{"lat":"37.64350918","long":"127.60951502","imageIndex":5,"items":[{"name":"팬션화수목","tel":"031-1544-6511","addr":"경기도 양평군 단월면 석산리 88, 89","indutype":"숙박업 - 여관/기타숙박업","category":"hotel"}]},{"lat":"37.628569242","long":"127.6116592","imageIndex":5,"items":[{"name":"펜션무릉도원","tel":"031-774-7303","addr":"경기도 양평군 단월면 석산리 648-2","indutype":"숙박업 - 여관/기타숙박업","category":"hotel"}]},{"lat":"37.645705187","long":"127.61693182","imageIndex":5,"items":[{"name":"플라워","tel":"031-773-4447","addr":"경기도 양평군 단월면 석산리 145번지","indutype":"숙박업 - 여관/기타숙박업","category":"hotel"}]},{"lat":"37.624924121","long":"127.60565986","imageIndex":5,"items":[{"name":"핀란드하우스양평","tel":"031-771-8760","addr":"경기도 양평군 단월면 석산리 708-1번지","indutype":"숙박업 - 여관/기타숙박업","category":"hotel"}]}]