[{"lat":"37.277242743","long":"127.45362583","imageIndex":4,"items":[{"name":"2도비어","tel":"031-638-7307","addr":"경기도 이천시 안흥동 307-7번지 브라운스톤이천 상가동 104호","indutype":"일반휴게음식 - 주점","category":"restaurant"},{"name":"금강한식부페","tel":"031-635-2248","addr":"경기도 이천시 안흥동 307-7번지 브라운스톤이천 1층 116호,117호","indutype":"일반휴게음식 - 일반한식","category":"restaurant"},{"name":"돌판에앉은","tel":"031-632-2744","addr":"경기도 이천시 안흥동 307-7번지 브라운스톤 상가동 1층 113호","indutype":"일반휴게음식 - 일반한식","category":"restaurant"},{"name":"마약생고기","tel":"031-694-0665","addr":"경기도 이천시 안흥동 307-7번지 브라운스톤 상가동 107,108호","indutype":"일반휴게음식 - 일반한식","category":"restaurant"},{"name":"테이블제이돈가스","tel":"070-4177-0206","addr":"경기도 이천시 안흥동 307-7번지 브라운스톤이천 114호","indutype":"일반휴게음식 - 서양음식","category":"restaurant"}]},{"lat":"37.274581012","long":"127.45460215","imageIndex":4,"items":[{"name":"가마솥국밥 보쌈","tel":"","addr":"경기도 이천시 안흥동 474번지 롯데캐슬골드스카이","indutype":"일반휴게음식 - 일반한식","category":"restaurant"},{"name":"가츠린 야끼텐 이천점","tel":"02-6242-3341","addr":"경기도 이천시 안흥동 474번지 롯데캐슬골드스카이 1층","indutype":"일반휴게음식 - 일반한식","category":"restaurant"},{"name":"도쿄이찌바 이천점","tel":"031-632-5311","addr":"경기도 이천시 안흥동 474번지 롯데캐슬골드스카이","indutype":"일반휴게음식 - 일식·회집","category":"restaurant"},{"name":"디지털 노리파크 안흥점","tel":"031-638-4944","addr":"경기도 이천시 안흥동 474번지 롯데캐슬골드스카이 1층","indutype":"일반휴게음식 - 서양음식","category":"restaurant"},{"name":"맘스터치 이천롯데마트점","tel":"031-638-6600","addr":"경기도 이천시 안흥동 474번지 롯데캐슬골드스카이 1층","indutype":"일반휴게음식 - 서양음식","category":"restaurant"},{"name":"미미짬뽕","tel":"","addr":"경기도 이천시 안흥동 474번지 롯데캐슬골드스카이","indutype":"일반휴게음식 - 중국식","category":"restaurant"},{"name":"북촌손만두 롯데마트이천점","tel":"031-000-0000","addr":"경기도 이천시 안흥동 474번지 롯데캐슬골드스카이","indutype":"일반휴게음식 - 일반한식","category":"restaurant"},{"name":"신짜오","tel":"031-000-0000","addr":"경기도 이천시 안흥동 474번지 롯데캐슬골드스카이 1층","indutype":"일반휴게음식 - 일반한식","category":"restaurant"},{"name":"아메리칸에그샌드","tel":"","addr":"경기도 이천시 안흥동 474번지 롯데캐슬골드스카이 1층","indutype":"일반휴게음식 - 서양음식","category":"restaurant"},{"name":"이디야커피","tel":"031-1111-1111","addr":"경기도 이천시 안흥동 474번지 롯데캐슬골드스카이 1층","indutype":"일반휴게음식 - 서양음식","category":"restaurant"}]},{"lat":"37.276082517","long":"127.45779071","imageIndex":4,"items":[{"name":"구만리숯불고기마을","tel":"031-633-0673","addr":"경기도 이천시 안흥동 210-1번지","indutype":"일반휴게음식 - 일반한식","category":"restaurant"}]},{"lat":"37.278301589","long":"127.46179557","imageIndex":4,"items":[{"name":"로뎅","tel":"031-631-8098","addr":"경기도 이천시 안흥동 470-2번지 안흥주공프라자 2층 204호","indutype":"일반휴게음식 - 주점","category":"restaurant"},{"name":"멕시카나(이천중앙점)","tel":"031-631-9945","addr":"경기도 이천시 안흥동 470-2번지","indutype":"일반휴게음식 - 스넥","category":"restaurant"},{"name":"주공뚝배기감자탕","tel":"031-634-4788","addr":"경기도 이천시 안흥동 470-2번지 안흥주공프라자","indutype":"일반휴게음식 - 일반한식","category":"restaurant"}]},{"lat":"37.276691576","long":"127.45166065","imageIndex":4,"items":[{"name":"설봉식당 (담소반)","tel":"031-631-0554","addr":"경기도 이천시 안흥동 317-2번지","indutype":"일반휴게음식 - 일반한식","category":"restaurant"},{"name":"포지타노","tel":"031-631-0554","addr":"경기도 이천시 안흥동 317-2번지","indutype":"일반휴게음식 - 일반한식","category":"restaurant"}]},{"lat":"37.281130588","long":"127.4548217","imageIndex":4,"items":[{"name":"에이봄","tel":"","addr":"경기도 이천시 안흥동 353-12번지","indutype":"일반휴게음식 - 서양음식","category":"restaurant"}]},{"lat":"37.277464383","long":"127.45457428","imageIndex":4,"items":[{"name":"온정손만두","tel":"031-638-2282","addr":"경기도 이천시 안흥동 305-2번지 온정빌딩","indutype":"일반휴게음식 - 일반한식","category":"restaurant"},{"name":"헬로요미키즈카페","tel":"031-633-5211","addr":"경기도 이천시 안흥동 305-2번지","indutype":"일반휴게음식 - 서양음식","category":"restaurant"}]},{"lat":"37.278882559","long":"127.46531707","imageIndex":4,"items":[{"name":"으랏차풍천장어","tel":"031-631-9289","addr":"경기도 이천시 안흥동 97-2번지","indutype":"일반휴게음식 - 일반한식","category":"restaurant"}]},{"lat":"37.281105021","long":"127.45443817","imageIndex":4,"items":[{"name":"이천닭갈비","tel":"031-634-5333","addr":"경기도 이천시 안흥동 355-1번지","indutype":"일반휴게음식 - 일반한식","category":"restaurant"}]},{"lat":"37.276887775","long":"127.45926133","imageIndex":4,"items":[{"name":"장지리가마솥해장국","tel":"031-635-1545","addr":"경기도 이천시 안흥동 173번지 1층","indutype":"일반휴게음식 - 일반한식","category":"restaurant"}]},{"lat":"37.278248272","long":"127.46160357","imageIndex":4,"items":[{"name":"주공정육솥뚜껑삼겹살","tel":"031-632-2422","addr":"경기도 이천시 안흥동 470-3번지 안흥주공에이상가 104동 105호","indutype":"일반휴게음식 - 일반한식","category":"restaurant"}]},{"lat":"37.275360287","long":"127.45815844","imageIndex":4,"items":[{"name":"카페인아","tel":"031-0000-0000","addr":"경기도 이천시 안흥동 211번지","indutype":"일반휴게음식 - 서양음식","category":"restaurant"}]},{"lat":"37.280519372","long":"127.45443467","imageIndex":4,"items":[{"name":"커피비너리","tel":"031-635-7210","addr":"경기도 이천시 안흥동 354-2번지 101호","indutype":"일반휴게음식 - 서양음식","category":"restaurant"}]},{"lat":"37.275801892","long":"127.45104652","imageIndex":4,"items":[{"name":"커피프레도","tel":"00-0000-0000","addr":"경기도 이천시 안흥동 408-1번지 A동 1층","indutype":"일반휴게음식 - 서양음식","category":"restaurant"}]},{"lat":"37.279550476","long":"127.4627052","imageIndex":4,"items":[{"name":"해밀칼국수","tel":"031-637-3780","addr":"경기도 이천시 안흥동 132-1번지 1층","indutype":"일반휴게음식 - 일반한식","category":"restaurant"}]}]