[{"lat":"37.336920779","long":"127.0936642","imageIndex":13,"items":[{"name":"Y.M파워댄스","tel":"070-4649-1101","addr":"경기도 용인시 수지구 동천동 864번지","indutype":"레저업소 - 헬스클럽","category":"leisure"}]},{"lat":"37.344839799","long":"127.09485871","imageIndex":13,"items":[{"name":"k-스크린 골프 클럽","tel":"031-276-0070","addr":"경기도 용인시 수지구 동천동 148번지 외3필지","indutype":"레저업소 - 스크린골프","category":"leisure"}]},{"lat":"37.337176777","long":"127.08868812","imageIndex":13,"items":[{"name":"나비필라테스","tel":"031-261-2337","addr":"경기도 용인시 수지구 동천동 937번지 202호","indutype":"레저업소 - 헬스클럽","category":"leisure"}]},{"lat":"37.339435443","long":"127.0925839","imageIndex":13,"items":[{"name":"노건골프스쿨","tel":"","addr":"경기도 용인시 수지구 동천동 400-1번지 동문그린아파트","indutype":"레저업소 - 골프연습장","category":"leisure"}]},{"lat":"37.335373462","long":"127.0904351","imageIndex":13,"items":[{"name":"더리얼피티 (THE REAL PT)","tel":"031-893-2525","addr":"경기도 용인시 수지구 동천동 946-8번지 2층","indutype":"레저업소 - 헬스클럽","category":"leisure"}]},{"lat":"37.340925416","long":"127.09983058","imageIndex":13,"items":[{"name":"동천당구장","tel":"031-265-9990","addr":"경기도 용인시 수지구 동천동 180-14번지 중앙빌딩 3층","indutype":"레저업소 - 당 구 장","category":"leisure"}]},{"lat":"37.340450344","long":"127.09677178","imageIndex":13,"items":[{"name":"동천허리우드 당구클럽","tel":"031-264-7766","addr":"경기도 용인시 수지구 동천동 174-14번지 빌프라자 3층 301호","indutype":"레저업소 - 당 구 장","category":"leisure"},{"name":"퍼플팝 PC방","tel":"070-5221-0906","addr":"경기도 용인시 수지구 동천동 174-14번지 빌프라자 201,202호","indutype":"레저업소 - 기타레져업소","category":"leisure"}]},{"lat":"37.339010478","long":"127.09452435","imageIndex":13,"items":[{"name":"마리나키즈","tel":"031-276-5533","addr":"경기도 용인시 수지구 동천동 351번지 윤창빌딩 지하1층","indutype":"레저업소 - 수 영 장","category":"leisure"}]},{"lat":"37.341095651","long":"127.10099315","imageIndex":13,"items":[{"name":"바른 필라테스","tel":"031-897-7585","addr":"경기도 용인시 수지구 동천동 181-2번지 신영프라자 204호","indutype":"레저업소 - 헬스클럽","category":"leisure"},{"name":"청안명상센타","tel":"031-266-2503","addr":"경기도 용인시 수지구 동천동 181-2번지 신영프라자 503호","indutype":"레저업소 - 헬스클럽","category":"leisure"}]},{"lat":"37.337816403","long":"127.07536192","imageIndex":13,"items":[{"name":"송종국에프시 (FC)","tel":"031-265-0770","addr":"경기도 용인시 수지구 동천동 536-5번지 외1필지","indutype":"레저업소 - 기타레져업소","category":"leisure"},{"name":"주식회사송종국축구교실","tel":"031-265-0770","addr":"경기도 용인시 수지구 동천동 536-5번지","indutype":"레저업소 - 기타레져업소","category":"leisure"}]},{"lat":"37.337507565","long":"127.09218666","imageIndex":13,"items":[{"name":"수성당구클럽","tel":"031-805-4959","addr":"경기도 용인시 수지구 동천동 942-1번지 대성프라자 201동 202호","indutype":"레저업소 - 당 구 장","category":"leisure"}]},{"lat":"37.337758578","long":"127.09385705","imageIndex":13,"items":[{"name":"수지레크리에이션스포츠센터","tel":"031-276-7772","addr":"경기도 용인시 수지구 동천동 336-2번지","indutype":"레저업소 - 기타레져업소","category":"leisure"}]},{"lat":"37.33109315","long":"127.09107329","imageIndex":13,"items":[{"name":"수지스포츠프라자","tel":"031-261-7722","addr":"경기도 용인시 수지구 동천동 462-4번지","indutype":"레저업소 - 헬스클럽","category":"leisure"},{"name":"에스제이아쿠아주식회사","tel":"031-261-7722","addr":"경기도 용인시 수지구 동천동 462-4번지 수지스포츠프라자 1층","indutype":"레저업소 - 수 영 장","category":"leisure"}]},{"lat":"37.333953517","long":"127.09738431","imageIndex":13,"items":[{"name":"스틸시리즈PC","tel":"070-4646-5685","addr":"경기도 용인시 수지구 동천동 886-2번지 IVY타워 401호","indutype":"레저업소 - 기타레져업소","category":"leisure"}]},{"lat":"37.335895076","long":"127.09174467","imageIndex":13,"items":[{"name":"식스팩 휘트니스","tel":"031-261-9679","addr":"경기도 용인시 수지구 동천동 948번지 B01호,B02호","indutype":"레저업소 - 헬스클럽","category":"leisure"}]},{"lat":"37.337318437","long":"127.09207359","imageIndex":13,"items":[{"name":"싱싱노래연습장","tel":"031-272-1137","addr":"경기도 용인시 수지구 동천동 942-5번지 401호 , 402호 403호","indutype":"레저업소 - 노 래 방","category":"leisure"}]},{"lat":"37.342730094","long":"127.09654892","imageIndex":13,"items":[{"name":"씨앤케이주식회사","tel":"031-272-0925","addr":"경기도 용인시 수지구 동천동 171-2번지 3층","indutype":"레저업소 - 볼 링 장","category":"leisure"}]},{"lat":"37.340259684","long":"127.09857711","imageIndex":13,"items":[{"name":"아이비스PC방","tel":"","addr":"경기도 용인시 수지구 동천동 371-5번지 동천코아프라자 비01호,비02호","indutype":"레저업소 - 기타레져업소","category":"leisure"},{"name":"코아당구장","tel":"031-896-0049","addr":"경기도 용인시 수지구 동천동 371-5번지 동천코아프라자 403호","indutype":"레저업소 - 당 구 장","category":"leisure"}]},{"lat":"37.333512064","long":"127.09732734","imageIndex":13,"items":[{"name":"앨바트로 휘트니스","tel":"031-897-4774","addr":"경기도 용인시 수지구 동천동 887번지 수지하우비 3층 301,302호","indutype":"레저업소 - 헬스클럽","category":"leisure"},{"name":"앨바트로복싱","tel":"031-897-4774","addr":"경기도 용인시 수지구 동천동 887번지 202호","indutype":"레저업소 - 헬스클럽","category":"leisure"},{"name":"힐링당구클럽","tel":"031-898-3949","addr":"경기도 용인시 수지구 동천동 887번지 3층 313~314호","indutype":"레저업소 - 당 구 장","category":"leisure"}]},{"lat":"37.333172996","long":"127.09307294","imageIndex":13,"items":[{"name":"요가온스토리","tel":"","addr":"경기도 용인시 수지구 동천동 282번지 클래스업 107동 304호","indutype":"레저업소 - 헬스클럽","category":"leisure"}]},{"lat":"37.338145196","long":"127.08249404","imageIndex":13,"items":[{"name":"위(WE)스포츠클럽","tel":"031-261-6111","addr":"경기도 용인시 수지구 동천동 487번지","indutype":"레저업소 - 기타레져업소","category":"leisure"}]},{"lat":"37.338148792","long":"127.10163253","imageIndex":13,"items":[{"name":"유승","tel":"031-111-1111","addr":"경기도 용인시 수지구 동천동 899번지 분당수지유타워 B동 2316호","indutype":"레저업소 - 골프연습장","category":"leisure"},{"name":"유타워피트니스","tel":"031-708-0127","addr":"경기도 용인시 수지구 동천동 899번지 분당수지U-TOWER 211호","indutype":"레저업소 - 헬스클럽","category":"leisure"}]},{"lat":"37.340288669","long":"127.09612835","imageIndex":13,"items":[{"name":"윤짐","tel":"031-263-0851","addr":"경기도 용인시 수지구 동천동 174-9번지 센트럴 202호","indutype":"레저업소 - 헬스클럽","category":"leisure"}]},{"lat":"37.340538053","long":"127.0997398","imageIndex":13,"items":[{"name":"잇츠코인노래연습장","tel":"","addr":"경기도 용인시 수지구 동천동 201-1번지 4층","indutype":"레저업소 - 노 래 방","category":"leisure"}]},{"lat":"37.338732243","long":"127.08040701","imageIndex":13,"items":[{"name":"주식회사 아이스온","tel":"031-276-6364","addr":"경기도 용인시 수지구 동천동 497-1번지","indutype":"레저업소 - 기타레져업소","category":"leisure"}]},{"lat":"37.34070007","long":"127.09994314","imageIndex":13,"items":[{"name":"즐거운노래연습장","tel":"031-265-2309","addr":"경기도 용인시 수지구 동천동 196번지","indutype":"레저업소 - 노 래 방","category":"leisure"}]},{"lat":"37.341590957","long":"127.10129849","imageIndex":13,"items":[{"name":"채플린노래연습장","tel":"031-261-4542","addr":"경기도 용인시 수지구 동천동 180-5번지 하나프라자 305호","indutype":"레저업소 - 노 래 방","category":"leisure"}]},{"lat":"37.337950346","long":"127.09047194","imageIndex":13,"items":[{"name":"크로스핏메이트","tel":"031-263-3563","addr":"경기도 용인시 수지구 동천동 411번지 지층 B02호","indutype":"레저업소 - 헬스클럽","category":"leisure"}]},{"lat":"37.337120213","long":"127.09207335","imageIndex":13,"items":[{"name":"키즈팡팡(용인동천점)","tel":"031-265-6711","addr":"경기도 용인시 수지구 동천동 942-4번지","indutype":"레저업소 - 기타레져업소","category":"leisure"}]},{"lat":"37.339148808","long":"127.10176925","imageIndex":13,"items":[{"name":"트리필라테스 동천점","tel":"","addr":"경기도 용인시 수지구 동천동 325-2번지 주건축물 제1동 2층 3층","indutype":"레저업소 - 헬스클럽","category":"leisure"}]},{"lat":"37.339424252","long":"127.09541634","imageIndex":13,"items":[{"name":"프라임스크린골프","tel":"031-265-0795","addr":"경기도 용인시 수지구 동천동 387-6번지","indutype":"레저업소 - 스크린골프","category":"leisure"}]},{"lat":"37.33581481","long":"127.09063873","imageIndex":13,"items":[{"name":"플랜비","tel":"070-8888-1240","addr":"경기도 용인시 수지구 동천동 946-4번지 대영프라자 302호","indutype":"레저업소 - 헬스클럽","category":"leisure"}]},{"lat":"37.335562734","long":"127.09035633","imageIndex":13,"items":[{"name":"필라테스엠플러스","tel":"031-264-6888","addr":"경기도 용인시 수지구 동천동 946-6번지 5층","indutype":"레저업소 - 헬스클럽","category":"leisure"}]},{"lat":"37.335650605","long":"127.09332415","imageIndex":13,"items":[{"name":"하움 필라테스","tel":"","addr":"경기도 용인시 수지구 동천동 873-4번지 에덴파크1 4층 403호","indutype":"레저업소 - 헬스클럽","category":"leisure"}]},{"lat":"37.348233295","long":"127.0872448","imageIndex":13,"items":[{"name":"한국키즈골프 주식회사","tel":"031-276-9433","addr":"경기도 용인시 수지구 동천동 79번지","indutype":"레저업소 - 스크린골프","category":"leisure"}]},{"lat":"37.340484352","long":"127.09929963","imageIndex":13,"items":[{"name":"휠노래연습장","tel":"031-263-8952","addr":"경기도 용인시 수지구 동천동 768-3번지","indutype":"레저업소 - 노 래 방","category":"leisure"}]}]