[{"lat":"37.291238677","long":"127.14065892","imageIndex":17,"items":[{"name":"(주)가온케이엘 (GaonKL.Ltd)","tel":"031-283-5170","addr":"경기도 용인시 기흥구 청덕동 526-5번지 101호","indutype":"용역 서비스 - 사무서비스","category":"other"}]},{"lat":"37.291320021","long":"127.14798944","imageIndex":17,"items":[{"name":"(주)본우드","tel":"031-111-1111","addr":"경기도 용인시 기흥구 청덕동 556번지 3층 D305호","indutype":"건축자재 - 건축용 요업제품","category":"other"},{"name":"(주)에이치제이테크윈","tel":"031-229-3159","addr":"경기도 용인시 기흥구 청덕동 556번지 용인테크노밸리 A동 805호","indutype":"신변잡화 - 기타잡화","category":"other"},{"name":"(주)케이씨유","tel":"031-229-3536","addr":"경기도 용인시 기흥구 청덕동 556번지 용인테크노밸리 B동 313호","indutype":"사무통신 - 컴퓨터","category":"other"},{"name":"GS25청덕테크노점","tel":"","addr":"경기도 용인시 기흥구 청덕동 556번지 용인테크노밸리 A동 113호","indutype":"유통업 영리 - 편 의 점","category":"other"},{"name":"다온 3D스캔","tel":"031-229-3013","addr":"경기도 용인시 기흥구 청덕동 556번지 용인테크노밸리 B동 10층 5호","indutype":"용역 서비스 - 소프트웨어","category":"other"},{"name":"다원상사","tel":"031-283-6055","addr":"경기도 용인시 기흥구 청덕동 556번지 용인테크노벨리지식산업센터 2층 C205호","indutype":"사무통신 - 사무용 OA기기","category":"other"},{"name":"디자인 오디(Design ODI)","tel":"031-229-3007","addr":"경기도 용인시 기흥구 청덕동 556번지 용인테크노밸리 C동 2층 C201호","indutype":"용역 서비스 - 사무서비스","category":"other"},{"name":"메가박스중앙(주)용인테크노밸리","tel":"031-229-3566","addr":"경기도 용인시 기흥구 청덕동 556번지 용인테크노밸리 지하1층","indutype":"문화.취미 - 영화관","category":"other"},{"name":"아르벨","tel":"031-299-2870","addr":"경기도 용인시 기흥구 청덕동 556번지 용인테크노밸리 B동 1008호","indutype":"가구 - 일반가구","category":"other"},{"name":"에이치피아이(HPI)","tel":"031-478-3111","addr":"경기도 용인시 기흥구 청덕동 556번지 용인테크노밸리 B동 10층 1011호","indutype":"건축자재 - 보일러·펌프·샷시","category":"other"},{"name":"엘바이오시스템","tel":"031-275-4477","addr":"경기도 용인시 기흥구 청덕동 556번지 9층 A910호","indutype":"서적문구 - 과학기자재","category":"other"},{"name":"오호디자인랩","tel":"","addr":"경기도 용인시 기흥구 청덕동 556번지 용인테크노밸리 D동 5층 9호","indutype":"서적문구 - 기타서적문구","category":"other"},{"name":"인테그랄 컴","tel":"031-299-2797","addr":"경기도 용인시 기흥구 청덕동 556번지 용인테크노밸리 C동 지층 204호","indutype":"전기제품 - 기타전기제품","category":"other"},{"name":"주식회사 감성","tel":"031-299-2646","addr":"경기도 용인시 기흥구 청덕동 556번지 용인테크노밸리 D동 302호","indutype":"용역 서비스 - 사무서비스","category":"other"},{"name":"주식회사 라스칼라코리아","tel":"031-229-3310","addr":"경기도 용인시 기흥구 청덕동 556번지 용인테크노밸리 C동 1006호","indutype":"서적문구 - 과학기자재","category":"other"},{"name":"주식회사 메디스코리아(MEDISE KOREA. LTD)","tel":"070-5220-2120","addr":"경기도 용인시 기흥구 청덕동 556번지 용인테크노밸리 B동 414호","indutype":"전기제품 - 기타전기제품","category":"other"},{"name":"주식회사 블루티움","tel":"031-229-3579","addr":"경기도 용인시 기흥구 청덕동 556번지 용인테크노밸리 D동 313호","indutype":"전기제품 - 기타전기제품","category":"other"},{"name":"주식회사 에이치엘","tel":"070-8862-6635","addr":"경기도 용인시 기흥구 청덕동 556번지 용인테크노벨리 D동 6층 601호","indutype":"전기제품 - 기타전기제품","category":"other"},{"name":"주식회사 하진코퍼레이션","tel":"031-321-8102","addr":"경기도 용인시 기흥구 청덕동 556번지 용인테크노밸리 C동 201호","indutype":"건축자재 - 페인트","category":"other"},{"name":"주식회사엠알오서비스","tel":"031-299-2770","addr":"경기도 용인시 기흥구 청덕동 556번지 용인테크노밸리 1층 비101호","indutype":"사무통신 - 기타 사무용품","category":"other"},{"name":"지오메딕스","tel":"031-000-0000","addr":"경기도 용인시 기흥구 청덕동 556번지 용인테크노밸리 D동 지층 205호","indutype":"전기제품 - 기타전기제품","category":"other"},{"name":"창공아이디 (ID)","tel":"031-281-6701","addr":"경기도 용인시 기흥구 청덕동 556번지 용인테크노밸리 B동 7층 714호","indutype":"직물 - 카페트,커튼,천막,지물","category":"other"},{"name":"필라스","tel":"031-273-0405","addr":"경기도 용인시 기흥구 청덕동 556번지 용인테크노밸리 D동 301호","indutype":"사무통신 - 통신기기","category":"other"}]},{"lat":"37.292711985","long":"127.15171375","imageIndex":17,"items":[{"name":"GS25용인청덕점","tel":"02-2006-2485","addr":"경기도 용인시 기흥구 청덕동 565번지 휴먼시아물푸레 상가 101호","indutype":"유통업 영리 - 편 의 점","category":"other"}]},{"lat":"37.291288981","long":"127.14385054","imageIndex":17,"items":[{"name":"GS25청덕빌리지점","tel":"","addr":"경기도 용인시 기흥구 청덕동 537-1번지 1층","indutype":"유통업 영리 - 편 의 점","category":"other"}]},{"lat":"37.291789875","long":"127.14690769","imageIndex":17,"items":[{"name":"GS25청덕타운점","tel":"","addr":"경기도 용인시 기흥구 청덕동 551-9번지","indutype":"유통업 영리 - 편 의 점","category":"other"}]},{"lat":"37.290768722","long":"127.14187602","imageIndex":17,"items":[{"name":"YK 세웅 엘이디조명","tel":"031-281-1767","addr":"경기도 용인시 기흥구 청덕동 534-6번지 1층","indutype":"건축자재 - 조명기구","category":"other"}]},{"lat":"37.290741201","long":"127.14229324","imageIndex":17,"items":[{"name":"가가스포츠","tel":"031-322-5669","addr":"경기도 용인시 기흥구 청덕동 535-2번지 101호","indutype":"레져용품 - 스포츠·레져용품","category":"other"},{"name":"홍반장커피","tel":"070-6253-3253","addr":"경기도 용인시 기흥구 청덕동 535-2번지 1층","indutype":"주방용구 - 주방용구","category":"other"}]},{"lat":"37.293350972","long":"127.15230145","imageIndex":17,"items":[{"name":"가온교육정보","tel":"","addr":"경기도 용인시 기흥구 청덕동 565번지 휴먼시아물푸레마을7단지아파트","indutype":"용역 서비스 - 소프트웨어","category":"other"},{"name":"오물조물 신나는 아동요리","tel":"","addr":"경기도 용인시 기흥구 청덕동 565번지 휴먼시아물푸레마을7단지아파트","indutype":"문화.취미 - 문화취미기타","category":"other"},{"name":"티제이공조","tel":"","addr":"경기도 용인시 기흥구 청덕동 565번지 휴먼시아물푸레마을7단지아파트","indutype":"용역 서비스 - 기타용역서비스","category":"other"}]},{"lat":"37.292205426","long":"127.14601755","imageIndex":17,"items":[{"name":"구성노인전문요양원","tel":"031-287-6699","addr":"경기도 용인시 기흥구 청덕동 546-5번지","indutype":"기타의료기관 - 기타의료기관 및 기타","category":"other"}]},{"lat":"37.28976773","long":"127.13474696","imageIndex":17,"items":[{"name":"그린광고","tel":"031-285-1814","addr":"경기도 용인시 기흥구 청덕동 385-1번지 103호","indutype":"건축자재 - 인테리어전문","category":"other"},{"name":"극동건재","tel":"031-256-4191","addr":"경기도 용인시 기흥구 청덕동 385-1번지","indutype":"건축자재 - 기타건축자재","category":"other"}]},{"lat":"37.297088581","long":"127.15359457","imageIndex":17,"items":[{"name":"꽃이야나무야 용인수원","tel":"031-000-0000","addr":"경기도 용인시 기흥구 청덕동 497번지 물푸레마을4단지경남아너스빌","indutype":"문화.취미 - 화원","category":"other"}]},{"lat":"37.28815361","long":"127.14368681","imageIndex":17,"items":[{"name":"꽃향기요양원","tel":"031-283-4321","addr":"경기도 용인시 기흥구 청덕동 203-13번지","indutype":"기타의료기관 - 기타의료기관 및 기타","category":"other"}]},{"lat":"37.290907954","long":"127.14601509","imageIndex":17,"items":[{"name":"네시사십사분","tel":"070-8870-8063","addr":"경기도 용인시 기흥구 청덕동 552-1번지 지하","indutype":"문화.취미 - 민예·공예품","category":"other"}]},{"lat":"37.294761649","long":"127.15538313","imageIndex":17,"items":[{"name":"누들로드(주)","tel":"02-1111-1111","addr":"경기도 용인시 기흥구 청덕동 298-21번지","indutype":"의류 - 정장","category":"other"}]},{"lat":"37.291123789","long":"127.14635383","imageIndex":17,"items":[{"name":"늘찬교육","tel":"031-000-0000","addr":"경기도 용인시 기흥구 청덕동 553-1번지 101호","indutype":"서적문구 - 일반서적","category":"other"}]},{"lat":"37.288207215","long":"127.14407033","imageIndex":17,"items":[{"name":"다잡아누수전문설비","tel":"031-282-1538","addr":"경기도 용인시 기흥구 청덕동 203-10번지 가동","indutype":"용역 서비스 - 종합용역","category":"other"}]},{"lat":"37.287268324","long":"127.1379114","imageIndex":17,"items":[{"name":"대성철물골재","tel":"031-283-2142","addr":"경기도 용인시 기흥구 청덕동 392-13번지 아름다운가구","indutype":"건축자재 - 기타건축자재","category":"other"},{"name":"무이프랑주식회사","tel":"031-284-3368","addr":"경기도 용인시 기흥구 청덕동 392-13번지","indutype":"가구 - 일반가구","category":"other"}]},{"lat":"37.293566032","long":"127.15323793","imageIndex":17,"items":[{"name":"디바잉","tel":"031-000-0000","addr":"경기도 용인시 기흥구 청덕동 567번지 물푸레마을8단지호반베르디움","indutype":"용역 서비스 - 사무서비스","category":"other"}]},{"lat":"37.295445718","long":"127.1487981","imageIndex":17,"items":[{"name":"라인디자인","tel":"031-8005-7694","addr":"경기도 용인시 기흥구 청덕동 506번지 휴먼시아물푸레마을2단지아파트","indutype":"건축자재 - 인테리어전문","category":"other"}]},{"lat":"37.291873467","long":"127.1521632","imageIndex":17,"items":[{"name":"리본트리","tel":"070-8739-4554","addr":"경기도 용인시 기흥구 청덕동 569번지 휴먼시아물푸레마을9단지아파트","indutype":"회원제형태 - 기타4","category":"other"}]},{"lat":"37.295240363","long":"127.14726389","imageIndex":17,"items":[{"name":"리본플라워","tel":"031-252-3474","addr":"경기도 용인시 기흥구 청덕동 513번지 휴먼시아물푸레마을1단지아파트","indutype":"문화.취미 - 화원","category":"other"}]},{"lat":"37.300175648","long":"127.14915688","imageIndex":17,"items":[{"name":"릴리앤메이","tel":"","addr":"경기도 용인시 기흥구 청덕동 488번지 휴먼시아물푸레마을3단지아파트","indutype":"문화.취미 - 화원","category":"other"}]},{"lat":"37.287539851","long":"127.14457655","imageIndex":17,"items":[{"name":"마가의 다락방","tel":"","addr":"경기도 용인시 기흥구 청덕동 482-1번지 청덕마을광도와이드빌 102동 1301호","indutype":"의류 - 정장","category":"other"},{"name":"스파크분당중앙대리점","tel":"031-266-0635","addr":"경기도 용인시 기흥구 청덕동 482-1번지 청덕마을광도와이드빌 105동 1404호","indutype":"유통업 영리 - 기타유통업","category":"other"},{"name":"아이러브진","tel":"070-4248-6298","addr":"경기도 용인시 기흥구 청덕동 482-1번지 청덕마을광도와이드빌 106동 103호","indutype":"회원제형태 - 기타1","category":"other"},{"name":"용인하수구막힘변기뚫음누수탐지/혁신설비","tel":"","addr":"경기도 용인시 기흥구 청덕동 482-1번지 청덕마을광도와이드빌 103동 504호","indutype":"수리서비스 - 기타수리서비스","category":"other"},{"name":"큐싸인광고기획","tel":"031-321-7444","addr":"경기도 용인시 기흥구 청덕동 482-1번지 청덕마을광도와이드빌아파트 상가 207호","indutype":"용역 서비스 - 사무서비스","category":"other"}]},{"lat":"37.2907964","long":"127.14132348","imageIndex":17,"items":[{"name":"멍스라이프","tel":"031-281-5004","addr":"경기도 용인시 기흥구 청덕동 534-2번지 1층","indutype":"문화.취미 - 애완동물","category":"other"}]},{"lat":"37.290795977","long":"127.14168436","imageIndex":17,"items":[{"name":"몽쁘띠베베","tel":"031-285-9313","addr":"경기도 용인시 기흥구 청덕동 534-4번지 101,102호","indutype":"용역 서비스 - 사무서비스","category":"other"}]},{"lat":"37.297149588","long":"127.1552075","imageIndex":17,"items":[{"name":"무극사","tel":"031-275-3417","addr":"경기도 용인시 기흥구 청덕동 309번지","indutype":"기타 - 비영리/대상","category":"other"},{"name":"미미","tel":"","addr":"경기도 용인시 기흥구 청덕동 309번지","indutype":"신변잡화 - 기타잡화","category":"other"}]},{"lat":"37.293727599","long":"127.1537232","imageIndex":17,"items":[{"name":"무직타이거","tel":"070-7788-9849","addr":"경기도 용인시 기흥구 청덕동 567번지 물푸레마을8단지호반베르디움","indutype":"서적문구 - 출판 및 인쇄물","category":"other"},{"name":"아띠랑스 플로스(Attirance flos)","tel":"","addr":"경기도 용인시 기흥구 청덕동 567번지 물푸레마을8단지호반베르디움","indutype":"문화.취미 - 화원","category":"other"}]},{"lat":"37.295497316","long":"127.15078315","imageIndex":17,"items":[{"name":"미디어 임팩트","tel":"031-255-5215","addr":"경기도 용인시 기흥구 청덕동 503번지 휴먼시아물푸레마을5단지아파트","indutype":"회원제형태 - 기타4","category":"other"},{"name":"주식회사카야","tel":"031-693-8197","addr":"경기도 용인시 기흥구 청덕동 503번지 휴먼시아물푸레마을5단지아파트 505동 1605호","indutype":"회원제형태 - 기타1","category":"other"}]},{"lat":"37.294928087","long":"127.15204517","imageIndex":17,"items":[{"name":"미미플라워&가드닝","tel":"031-287-8082","addr":"경기도 용인시 기흥구 청덕동 502-7번지 우성프라자 103호","indutype":"문화.취미 - 화원","category":"other"},{"name":"블럭하임","tel":"031-281-7595","addr":"경기도 용인시 기흥구 청덕동 502-7번지 우성프라자 201호","indutype":"서적문구 - 완구점","category":"other"}]},{"lat":"37.290235401","long":"127.14332982","imageIndex":17,"items":[{"name":"민스포츠","tel":"031-287-8950","addr":"경기도 용인시 기흥구 청덕동 406-5번지","indutype":"레져용품 - 스포츠·레져용품","category":"other"}]},{"lat":"37.291291182","long":"127.14198976","imageIndex":17,"items":[{"name":"민트보빈","tel":"031-306-3479","addr":"경기도 용인시 기흥구 청덕동 528-7번지 1층 102호","indutype":"의류 - 정장","category":"other"}]},{"lat":"37.294628738","long":"127.14638304","imageIndex":17,"items":[{"name":"바디스펙","tel":"031-215-5751","addr":"경기도 용인시 기흥구 청덕동 513번지 휴먼시아물푸레마을1단지아파트","indutype":"회원제형태 - 레져업소","category":"other"}]},{"lat":"37.290876911","long":"127.14181984","imageIndex":17,"items":[{"name":"배리굿","tel":"070-8822-8129","addr":"경기도 용인시 기흥구 청덕동 534-5번지 101호","indutype":"의류 - 기타의류","category":"other"}]},{"lat":"37.300010896","long":"127.15122058","imageIndex":17,"items":[{"name":"보들 천연비누","tel":"","addr":"경기도 용인시 기흥구 청덕동 488번지 휴먼시아물푸레마을3단지아파트","indutype":"신변잡화 - 기타잡화","category":"other"}]},{"lat":"37.298046571","long":"127.15129567","imageIndex":17,"items":[{"name":"보물섬","tel":"070-8232-8851","addr":"경기도 용인시 기흥구 청덕동 488번지 휴먼시아물푸레마을3단지아파트","indutype":"서적문구 - 완구점","category":"other"}]},{"lat":"37.291629967","long":"127.14502404","imageIndex":17,"items":[{"name":"사랑나무데이케어센터","tel":"031-287-0027","addr":"경기도 용인시 기흥구 청덕동 546-1번지 주공프라자 2층","indutype":"기타의료기관 - 기타의료기관 및 기타","category":"other"},{"name":"사랑나무요양원","tel":"031-287-0075","addr":"경기도 용인시 기흥구 청덕동 546-1번지 주공프라자 3,4,5층","indutype":"기타의료기관 - 기타의료기관 및 기타","category":"other"},{"name":"하이컴정보통신","tel":"031-281-0256","addr":"경기도 용인시 기흥구 청덕동 546-1번지 주공프라자 104호","indutype":"사무통신 - 사무용 OA기기","category":"other"},{"name":"하이컴정보통신","tel":"031-281-0256","addr":"경기도 용인시 기흥구 청덕동 546-1번지 주공프라자 104호","indutype":"사무통신 - 사무용 OA기기","category":"other"}]},{"lat":"37.290875755","long":"127.14280097","imageIndex":17,"items":[{"name":"샘솔에듀","tel":"031-284-5059","addr":"경기도 용인시 기흥구 청덕동 531-7번지 1층 102호","indutype":"서적문구 - 기타서적문구","category":"other"}]},{"lat":"37.288602761","long":"127.14482664","imageIndex":17,"items":[{"name":"선미음향","tel":"031-283-2888","addr":"경기도 용인시 기흥구 청덕동 202-2","indutype":"용역 서비스 - 사무서비스","category":"other"}]},{"lat":"37.291818816","long":"127.14532889","imageIndex":17,"items":[{"name":"세진환경","tel":"031-281-6312","addr":"경기도 용인시 기흥구 청덕동 구성택지개발지구 1-2 브럭 대림프라자 103","indutype":"용역 서비스 - 기타용역서비스","category":"other"}]},{"lat":"37.291373634","long":"127.14082833","imageIndex":17,"items":[{"name":"소닷(SODOT)","tel":"031-284-0321","addr":"경기도 용인시 기흥구 청덕동 526-3번지 1층 101호 SODOT","indutype":"신변잡화 - 기타잡화","category":"other"}]},{"lat":"37.295093357","long":"127.14957561","imageIndex":17,"items":[{"name":"소품샵","tel":"031-892-5322","addr":"경기도 용인시 기흥구 청덕동 506번지 휴먼시아물푸레마을2단지아파트","indutype":"가구 - 기타가구","category":"other"}]},{"lat":"37.295700419","long":"127.15405421","imageIndex":17,"items":[{"name":"스마트러닝교재","tel":"031-8005-7990","addr":"경기도 용인시 기흥구 청덕동 499번지 휴먼시아물푸레마을6단지아파트","indutype":"서적문구 - 기타서적문구","category":"other"}]},{"lat":"37.29551368","long":"127.15210272","imageIndex":17,"items":[{"name":"스튜디오키쉬","tel":"070-7563-0625","addr":"경기도 용인시 기흥구 청덕동 502-4번지 가나프라자1차","indutype":"광학제품 - 사진관","category":"other"},{"name":"알파 청덕점","tel":"070-4210-7110","addr":"경기도 용인시 기흥구 청덕동 502-4번지 가나프라자1차 203호","indutype":"서적문구 - 문구용품","category":"other"}]},{"lat":"37.291290917","long":"127.14221531","imageIndex":17,"items":[{"name":"슬로우 제인","tel":"031-282-5289","addr":"경기도 용인시 기흥구 청덕동 528-9번지 1층","indutype":"의류 - 정장","category":"other"}]},{"lat":"37.291238454","long":"127.14085064","imageIndex":17,"items":[{"name":"써틴","tel":"031-000-0000","addr":"경기도 용인시 기흥구 청덕동 526-4번지 1층","indutype":"문화.취미 - 문화취미기타","category":"other"}]},{"lat":"37.299822836","long":"127.15029535","imageIndex":17,"items":[{"name":"씨유용인휴먼시아스카이점","tel":"031-274-7588","addr":"경기도 용인시 기흥구 청덕동 488번지 휴먼시아3단지 가상가동 106호","indutype":"유통업 영리 - 편 의 점","category":"other"}]},{"lat":"37.291128215","long":"127.14265483","imageIndex":17,"items":[{"name":"어크로스 더 테이블","tel":"031-000-0000","addr":"경기도 용인시 기흥구 청덕동 531-9번지 상가 1층 101호","indutype":"문화.취미 - 문화취미기타","category":"other"}]},{"lat":"37.289149976","long":"127.13921164","imageIndex":17,"items":[{"name":"에스워터(주)","tel":"031-296-4759","addr":"경기도 용인시 기흥구 청덕동 421-2번지","indutype":"기타 - 기계공구","category":"other"}]},{"lat":"37.29509098","long":"127.15148159","imageIndex":17,"items":[{"name":"에어컨청소유지관리 동백그린케어서비스","tel":"031-285-7168","addr":"경기도 용인시 기흥구 청덕동 503번지 휴먼시아물푸레마을5단지아파트","indutype":"용역 서비스 - 기타용역서비스","category":"other"}]},{"lat":"37.300461448","long":"127.15118763","imageIndex":17,"items":[{"name":"에코미스트","tel":"070-4090-9007","addr":"경기도 용인시 기흥구 청덕동 488번지 휴먼시아물푸레마을3단지아파트","indutype":"회원제형태 - 기타4","category":"other"}]},{"lat":"37.295525904","long":"127.14953134","imageIndex":17,"items":[{"name":"에코케어","tel":"031-337-2242","addr":"경기도 용인시 기흥구 청덕동 506번지 휴먼시아물푸레마을 204동 503호","indutype":"회원제형태 - 기타1","category":"other"},{"name":"요니센트","tel":"","addr":"경기도 용인시 기흥구 청덕동 506번지 휴먼시아물푸레마을2단지아파트","indutype":"문화.취미 - 문화취미기타","category":"other"}]},{"lat":"37.28844144","long":"127.1441046","imageIndex":17,"items":[{"name":"연원코킹","tel":"031-284-0203","addr":"경기도 용인시 기흥구 청덕동 203-10번지 가동 1층","indutype":"건축자재 - 인테리어전문","category":"other"}]},{"lat":"37.290317906","long":"127.14213457","imageIndex":17,"items":[{"name":"영광스포츠","tel":"","addr":"경기도 용인시 기흥구 청덕동 542-4번지 206호","indutype":"레져용품 - 스포츠·레져용품","category":"other"},{"name":"주식회사 와이앤씨개발","tel":"031-285-3232","addr":"경기도 용인시 기흥구 청덕동 542-4번지 104호","indutype":"기타 - 기계공구","category":"other"}]},{"lat":"37.298531017","long":"127.15296585","imageIndex":17,"items":[{"name":"예쁜비누세상","tel":"031-715-9666","addr":"경기도 용인시 기흥구 청덕동 497번지 물푸레마을4단지경남아너스빌","indutype":"신변잡화 - 기타잡화","category":"other"}]},{"lat":"37.29435227","long":"127.15137864","imageIndex":17,"items":[{"name":"워시테리아 용인청덕점","tel":"","addr":"경기도 용인시 기흥구 청덕동 502-10번지 1층 103호","indutype":"수리서비스 - 세탁소","category":"other"}]},{"lat":"37.291126931","long":"127.14373746","imageIndex":17,"items":[{"name":"원앤탑","tel":"031-274-0218","addr":"경기도 용인시 기흥구 청덕동 537-2번지 1층","indutype":"서적문구 - 과학기자재","category":"other"}]},{"lat":"37.295151618","long":"127.14614719","imageIndex":17,"items":[{"name":"원플라워","tel":"031-264-5564","addr":"경기도 용인시 기흥구 청덕동 513번지 휴먼시아물푸레마을1단지아파트","indutype":"문화.취미 - 화원","category":"other"}]},{"lat":"37.295818514","long":"127.15329881","imageIndex":17,"items":[{"name":"월드세탁","tel":"031-274-0046","addr":"경기도 용인시 기흥구 청덕동 499 휴먼시아물푸레마을 상가-101","indutype":"수리서비스 - 세탁소","category":"other"}]},{"lat":"37.294699365","long":"127.14757864","imageIndex":17,"items":[{"name":"웰빙코리아","tel":"","addr":"경기도 용인시 기흥구 청덕동 513번지 휴먼시아물푸레마을1단지아파트","indutype":"직물 - 침구·수예점","category":"other"},{"name":"주현스포츠","tel":"","addr":"경기도 용인시 기흥구 청덕동 513번지","indutype":"의류 - 스포츠의류","category":"other"}]},{"lat":"37.296288558","long":"127.15210425","imageIndex":17,"items":[{"name":"위블럭(WE block)","tel":"031-274-0244","addr":"경기도 용인시 기흥구 청덕동 502-1번지","indutype":"서적문구 - 완구점","category":"other"}]},{"lat":"37.291038631","long":"127.14221484","imageIndex":17,"items":[{"name":"유림음악사","tel":"031-286-3598","addr":"경기도 용인시 기흥구 청덕동 532-2번지 102호","indutype":"회원제형태 - 서적","category":"other"}]},{"lat":"37.292680652","long":"127.15509699","imageIndex":17,"items":[{"name":"윤향","tel":"031-275-4724","addr":"경기도 용인시 기흥구 청덕동 569번지 휴먼시아물푸레마을9단지아파트","indutype":"문화.취미 - 문화취미기타","category":"other"}]},{"lat":"37.293294806","long":"127.15395917","imageIndex":17,"items":[{"name":"율의모리노리","tel":"070-4215-2463","addr":"경기도 용인시 기흥구 청덕동 567번지 용인구성호반베르디움물푸레마을 816동 103호","indutype":"의류 - 정장","category":"other"}]},{"lat":"37.294565064","long":"127.14687915","imageIndex":17,"items":[{"name":"은디자인","tel":"031-265-4112","addr":"경기도 용인시 기흥구 청덕동 513번지 휴먼시아물푸레마을1단지아파트","indutype":"건축자재 - 인테리어전문","category":"other"}]},{"lat":"37.295593323","long":"127.14597886","imageIndex":17,"items":[{"name":"저작거리","tel":"031-339-4614","addr":"경기도 용인시 기흥구 청덕동 513번지 휴먼시아물푸레마을1단지아파트","indutype":"회원제형태 - 기타1","category":"other"}]},{"lat":"37.298975525","long":"127.15057567","imageIndex":17,"items":[{"name":"제이 앤 제이 러브","tel":"","addr":"경기도 용인시 기흥구 청덕동 488번지 휴먼시아물푸레마을3단지아파트","indutype":"신변잡화 - 액세서리","category":"other"}]},{"lat":"37.291236431","long":"127.14257609","imageIndex":17,"items":[{"name":"제이스토리","tel":"070-8831-8617","addr":"경기도 용인시 기흥구 청덕동 531-1번지 202호","indutype":"사무통신 - 컴퓨터","category":"other"}]},{"lat":"37.292294196","long":"127.15432933","imageIndex":17,"items":[{"name":"주사위","tel":"031-1544-7354","addr":"경기도 용인시 기흥구 청덕동 569번지 휴먼시아물푸레마을9단지아파트","indutype":"회원제형태 - 기타4","category":"other"}]},{"lat":"37.289871941","long":"127.14587781","imageIndex":17,"items":[{"name":"주식회사 에스알티(SRT Co.Ltd.)","tel":"031-216-8974","addr":"경기도 용인시 기흥구 청덕동 214-2번지 가동 105호","indutype":"건축자재 - 페인트","category":"other"}]},{"lat":"37.302207219","long":"127.16654192","imageIndex":17,"items":[{"name":"주식회사 펜타앤 88골프장점","tel":"031-261-6243","addr":"경기도 용인시 기흥구 청덕동 80-2번지 2층","indutype":"레져용품 - 골프용품 전문점","category":"other"},{"name":"필디셔닝(Filedtioning)","tel":"070-8158-6057","addr":"경기도 용인시 기흥구 청덕동 80-2번지 88호 컨트리클럽","indutype":"회원제형태 - 레져업소","category":"other"}]},{"lat":"37.29124069","long":"127.14654577","imageIndex":17,"items":[{"name":"주식회사파워디거","tel":"031-693-7222","addr":"경기도 용인시 기흥구 청덕동 553-3번지","indutype":"기타 - 기계공구","category":"other"}]},{"lat":"37.289880242","long":"127.14646424","imageIndex":17,"items":[{"name":"지인방(소품이예쁜집)","tel":"031-283-0306","addr":"경기도 용인시 기흥구 청덕동 209-5번지 1층","indutype":"가구 - 기타가구","category":"other"}]},{"lat":"37.300926542","long":"127.15390676","imageIndex":17,"items":[{"name":"초의통상","tel":"031-693-6101","addr":"경기도 용인시 기흥구 청덕동 29번지","indutype":"주방용구 - 주방용구","category":"other"}]},{"lat":"37.290817045","long":"127.14668029","imageIndex":17,"items":[{"name":"캐릭터","tel":"","addr":"경기도 용인시 기흥구 청덕동 552-7번지","indutype":"문화.취미 - 화랑","category":"other"}]},{"lat":"37.289623353","long":"127.13493842","imageIndex":17,"items":[{"name":"크리에이티브 윤디자인","tel":"070-4147-2329","addr":"경기도 용인시 기흥구 청덕동 383-1번지","indutype":"용역 서비스 - 사무서비스","category":"other"}]},{"lat":"37.297566782","long":"127.15307672","imageIndex":17,"items":[{"name":"크린토피아","tel":"031-282-8500","addr":"경기도 용인시 기흥구 청덕동 497번지 물푸레마을경남아너스빌 104호","indutype":"수리서비스 - 세탁소","category":"other"}]},{"lat":"37.291182103","long":"127.14280154","imageIndex":17,"items":[{"name":"탑스킨솔루션","tel":"031-281-0085","addr":"경기도 용인시 기흥구 청덕동 531-3번지 201호","indutype":"회원제형태 - 기타1","category":"other"}]},{"lat":"37.292468893","long":"127.15156666","imageIndex":17,"items":[{"name":"파시다로","tel":"031-308-2673","addr":"경기도 용인시 기흥구 청덕동 565번지 휴먼시아물푸레마을7단지아파트","indutype":"문화.취미 - 문화취미기타","category":"other"}]},{"lat":"37.30012952","long":"127.15002526","imageIndex":17,"items":[{"name":"패러리걸즈","tel":"031-281-0907","addr":"경기도 용인시 기흥구 청덕동 488번지 휴먼시아물푸레마을3단지아파트","indutype":"용역 서비스 - 사무서비스","category":"other"}]},{"lat":"37.290762195","long":"127.13974458","imageIndex":17,"items":[{"name":"펫더제인","tel":"031-711-3303","addr":"경기도 용인시 기흥구 청덕동 533-1번지 1층","indutype":"광학제품 - 사진관","category":"other"}]},{"lat":"37.291243659","long":"127.15144019","imageIndex":17,"items":[{"name":"피시컴119(Pccom119)","tel":"080-803-0119","addr":"경기도 용인시 기흥구 청덕동 569번지 휴먼시아물푸레마을9단지아파트","indutype":"회원제형태 - 기타4","category":"other"}]},{"lat":"37.290295671","long":"127.13799575","imageIndex":17,"items":[{"name":"하이컴정보통신","tel":"070-7579-2659","addr":"경기도 용인시 기흥구 청덕동 540-1 구성택지개발지구근린상가 7","indutype":"사무통신 - 컴퓨터","category":"other"}]},{"lat":"37.295781196","long":"127.14708447","imageIndex":17,"items":[{"name":"학림원","tel":"","addr":"경기도 용인시 기흥구 청덕동 513번지 휴먼시아물푸레마을1단지아파트","indutype":"용역 서비스 - 사무서비스","category":"other"}]},{"lat":"37.296027305","long":"127.1520699","imageIndex":17,"items":[{"name":"한국OA경기영업소","tel":"02-523-0140","addr":"경기도 용인시 기흥구 청덕동 502-2번지 구성프라자 107호","indutype":"가구 - 기타가구","category":"other"}]},{"lat":"37.295153271","long":"127.15210201","imageIndex":17,"items":[{"name":"한스어패럴","tel":"031-897-0874","addr":"경기도 용인시 기흥구 청덕동 502-6번지 101호-1","indutype":"의류 - 정장","category":"other"}]},{"lat":"37.290741426","long":"127.14210152","imageIndex":17,"items":[{"name":"헬프랩 (HELPLAB)","tel":"070-8637-7946","addr":"경기도 용인시 기흥구 청덕동 535-1번지 1층","indutype":"의류 - 정장","category":"other"}]},{"lat":"37.289432302","long":"127.13657328","imageIndex":17,"items":[{"name":"현우드","tel":"031-693-6161","addr":"경기도 용인시 기흥구 청덕동 389-1번지","indutype":"건축자재 - 목재·석재·철물","category":"other"}]}]