[{"lat":"37.433606937","long":"126.99822685","imageIndex":17,"items":[{"name":"(주)글로링크에듀케이션","tel":"02-502-8898","addr":"경기도 과천시 부림동 47-1번지 3층","indutype":"서적문구 - 출판 및 인쇄물","category":"other"},{"name":"(주)글로링크에듀케이션","tel":"061-726-0554","addr":"경기도 과천시 부림동 47-1번지 농협빌딩 3층","indutype":"서적문구 - 출판 및 인쇄물","category":"other"},{"name":"과천농업협동조합","tel":"02-500-3329","addr":"경기도 과천시 부림동 47-1번지","indutype":"유통업 영리 - 상품권","category":"other"},{"name":"과천농업협동조합","tel":"02-500-3329","addr":"경기도 과천시 부림동 47-1번지","indutype":"유통업 비영리 - 농,축협 직영매장","category":"other"},{"name":"과천농업협동조합","tel":"02-502-4496","addr":"경기도 과천시 부림동 47-1번지","indutype":"유통업 비영리 - 농,축협 직영매장","category":"other"}]},{"lat":"37.439247055","long":"126.99516429","imageIndex":17,"items":[{"name":"(주)해달별","tel":"02-507-2277","addr":"경기도 과천시 부림동 11-2번지","indutype":"사무통신 - 통신기기","category":"other"},{"name":"bellis","tel":"","addr":"경기도 과천시 부림동 11-2번지","indutype":"직물 - 침구·수예점","category":"other"}]},{"lat":"37.429299707","long":"126.99175327","imageIndex":17,"items":[{"name":"BBQ(과천부림점)","tel":"02-502-3346","addr":"경기도 과천시 부림동 20-1번지 일반상가 6호","indutype":"소매업 - 치킨","category":"other"}]},{"lat":"37.4392470550","long":"126.9951642924","imageIndex":17,"items":[{"name":"bellis","tel":"","addr":"경기도 과천시 부림동 11-2번지","indutype":"소매업 - 전자상거래","category":"other"}]},{"lat":"37.4292732","long":"127.00350335","imageIndex":17,"items":[{"name":"가족노래방","tel":"02-502-9925","addr":"경기도 과천시 부림동 46번지 시대빌딩 지하층","indutype":"서비스 - 노래방","category":"other"}]},{"lat":"37.428218636","long":"126.99327866","imageIndex":17,"items":[{"name":"건우공인중개사사무소","tel":"02-504-7700","addr":"경기도 과천시 부림동 46번지 시대빌딩 104호","indutype":"서비스 - 부동산","category":"other"}]},{"lat":"37.434021393","long":"126.99807994","imageIndex":17,"items":[{"name":"건우공인중개사사무소","tel":"02-502-4882","addr":"경기도 과천시 부림동 46번지 시대빌딩 104호","indutype":"용역 서비스 - 부동산 중개·임대","category":"other"},{"name":"주식회사 에이피부동산중개법인","tel":"02-504-3500","addr":"경기도 과천시 부림동 46번지 과천시대빌딩 105호","indutype":"용역 서비스 - 부동산 중개·임대","category":"other"}]},{"lat":"37.463633229","long":"127.03427127","imageIndex":17,"items":[{"name":"경희대체육관","tel":"02-503-3953","addr":"경기도 과천시 부림동 46번지","indutype":"서비스 - 태권도장","category":"other"}]},{"lat":"37.45530127","long":"127.02397161","imageIndex":17,"items":[{"name":"과천농업협동조합(하나로마트포함)","tel":"02-500-3300","addr":"경기도 과천시 부림동 47-1번지","indutype":"도소매 -","category":"other"}]},{"lat":"37.438102953","long":"126.99849776","imageIndex":17,"items":[{"name":"과천종합상사","tel":"02-502-4442","addr":"경기도 과천시 부림동 36-1번지","indutype":"신변잡화 - 기타잡화","category":"other"},{"name":"마리앤샐리","tel":"","addr":"경기도 과천시 부림동 36-1번지 1층","indutype":"주방용구 - 주방용식기","category":"other"},{"name":"바로광고","tel":"","addr":"경기도 과천시 부림동 36-1번지 지층 3호","indutype":"서적문구 - 출판 및 인쇄물","category":"other"},{"name":"젬마스토리 Gemma story","tel":"","addr":"경기도 과천시 부림동 36-1번지 81호","indutype":"의류 - 정장","category":"other"}]},{"lat":"37.427686932","long":"126.99200206","imageIndex":17,"items":[{"name":"관악종합보수","tel":"02-507-0331","addr":"경기도 과천시 부림동 41, 9단지마상가 115","indutype":"서비스 - 수리보수","category":"other"}]},{"lat":"37.435463037","long":"126.99916456","imageIndex":17,"items":[{"name":"그린세탁소","tel":"02-504-1606","addr":"경기도 과천시 부림동 41번지 복합상가 마동 109호","indutype":"수리서비스 - 세탁소","category":"other"},{"name":"동은디자인아트","tel":"","addr":"경기도 과천시 부림동 41번지 남서울상가 지층 22호","indutype":"문화.취미 - 문화취미기타","category":"other"},{"name":"상명부동산","tel":"02-502-0038","addr":"경기도 과천시 부림동 41번지 마상가 107호","indutype":"용역 서비스 - 부동산 중개·임대","category":"other"},{"name":"이내과의원","tel":"02-502-7178","addr":"경기도 과천시 부림동 46번지 시대빌딩 203호","indutype":"보건업 - 내과, 소아과","category":"other"}]},{"lat":"37.427939294","long":"126.99291716","imageIndex":17,"items":[{"name":"나무미술교습소","tel":"","addr":"경기도 과천시 부림동 46번지 과천시대빌딩 305호","indutype":"교육서비스업 - 미술","category":"other"},{"name":"한음음악학원","tel":"02-504-5135","addr":"경기도 과천시 부림동 46번지 시대빌딩 3층","indutype":"교육서비스업 - 음악","category":"other"}]},{"lat":"37.438859731","long":"126.99702877","imageIndex":17,"items":[{"name":"대신종합공사","tel":"02-504-7997","addr":"경기도 과천시 부림동 20-1번지","indutype":"용역 서비스 - 기타용역서비스","category":"other"}]},{"lat":"37.434165539","long":"126.99775226","imageIndex":17,"items":[{"name":"도서출판더블유엘아이코리아","tel":"02-504-0993","addr":"경기도 과천시 부림동 43번지","indutype":"서적문구 - 출판 및 인쇄물","category":"other"}]},{"lat":"37.460246123","long":"127.03171542","imageIndex":17,"items":[{"name":"동은디자인아트","tel":"","addr":"경기도 과천시 부림동 41번지 남서울상가 지층 22호","indutype":"도소매 - 가죽","category":"other"}]},{"lat":"37.437769622","long":"126.99977461","imageIndex":17,"items":[{"name":"루디아","tel":"070-2699-0807","addr":"경기도 과천시 부림동 40-6번지 B101호","indutype":"의류 - 내의판매","category":"other"}]},{"lat":"37.434273668","long":"126.99794433","imageIndex":17,"items":[{"name":"링코 과천점","tel":"02-502-7771","addr":"경기도 과천시 부림동 42번지 8단지유치원상가 103호","indutype":"서적문구 - 문구용품","category":"other"},{"name":"씨유과천주공8단지점","tel":"070-7759-3330","addr":"경기도 과천시 부림동 42번지 8단지유치원상가","indutype":"유통업 영리 - 편 의 점","category":"other"}]},{"lat":"37.420578027","long":"126.99225162","imageIndex":17,"items":[{"name":"링코 과천점","tel":"02-502-7771","addr":"경기도 과천시 부림동 42번지 2층","indutype":"도소매 - 문구사무용","category":"other"},{"name":"중앙부동산","tel":"02-503-8924","addr":"경기도 과천시 부림동 42번지 1층","indutype":"부동산업 - 부동산중개업","category":"other"},{"name":"천사약국","tel":"02-3679-1179","addr":"경기도 과천시 부림동 46번지 시대빌딩 206호","indutype":"소매업 - 의약품","category":"other"}]},{"lat":"37.438823597","long":"126.99536773","imageIndex":17,"items":[{"name":"마르페","tel":"070-4079-2668","addr":"경기도 과천시 부림동 13-2번지 201호","indutype":"회원제형태 - 기타4","category":"other"}]},{"lat":"37.447797006","long":"127.0167256","imageIndex":17,"items":[{"name":"몽블랑공인중개사사무소","tel":"02-502-3488","addr":"경기도 과천시 부림동 41번지 복합상가제마동 1층 101호 101호","indutype":"부동산업 - 부동산중개업","category":"other"}]},{"lat":"37.424218245","long":"126.99417167","imageIndex":17,"items":[{"name":"비타민천국","tel":"02-502-9445","addr":"경기도 과천시 부림동 46번지 시대빌딩103호,109호","indutype":"소매업 - 과일","category":"other"}]},{"lat":"37.438328172","long":"126.99771808","imageIndex":17,"items":[{"name":"삼성유리","tel":"02-504-5552","addr":"경기도 과천시 부림동 31-7번지","indutype":"건축자재 - 유리","category":"other"}]},{"lat":"37.426749933","long":"126.9924993","imageIndex":17,"items":[{"name":"서울온누리약국","tel":"02-502-9799","addr":"경기도 과천시 부림동 46번지 시대빌딩 102호","indutype":"소매업 - 의약품","category":"other"},{"name":"에이피부동산","tel":"02-504-3500","addr":"경기도 과천시 부림동 46번지 과천시대빌딩 105호","indutype":"부동산업 - 부동산중개업","category":"other"}]},{"lat":"37.437886751","long":"126.99971811","imageIndex":17,"items":[{"name":"썸니즈(Sumneeds)","tel":"","addr":"경기도 과천시 부림동 40-5번지","indutype":"신변잡화 - 기타잡화","category":"other"}]},{"lat":"37.437967788","long":"126.99813618","imageIndex":17,"items":[{"name":"씨유과천부림점","tel":"031-707-1401","addr":"경기도 과천시 부림동 36-3번지","indutype":"유통업 영리 - 편 의 점","category":"other"}]},{"lat":"37.437634433","long":"126.99855428","imageIndex":17,"items":[{"name":"아이작","tel":"02-504-0670","addr":"경기도 과천시 부림동 37-3번지 지층방1 지하1층","indutype":"건축자재 - 인테리어전문","category":"other"}]},{"lat":"37.43832821","long":"126.99868984","imageIndex":17,"items":[{"name":"아트인헤븐(Art In Heaven)","tel":"070-4038-1961","addr":"경기도 과천시 부림동 35-1번지 202호","indutype":"서적문구 - 문구용품","category":"other"}]},{"lat":"37.453465105","long":"127.00180828","imageIndex":17,"items":[{"name":"안성마춤한우정육점","tel":"02-502-4170","addr":"경기도 과천시 부림동 41번지 8단지남서울상가 지층 12호","indutype":"소매업 - 식육","category":"other"}]},{"lat":"37.442328641","long":"127.0076054","imageIndex":17,"items":[{"name":"운주검도관","tel":"02-502-0599","addr":"경기도 과천시 부림동 42번지 지층","indutype":"서비스 - 검도","category":"other"}]},{"lat":"37.438553478","long":"126.9991983","imageIndex":17,"items":[{"name":"원정보통신","tel":"","addr":"경기도 과천시 부림동 35-4번지 202호","indutype":"사무통신 - 통신기기","category":"other"}]},{"lat":"37.4381029526","long":"126.9984977568","imageIndex":17,"items":[{"name":"젬마스토리(Gemma Story)","tel":"070-4076-0611","addr":"경기도 과천시 부림동 36-1번지 B1호","indutype":"소매업 - 의류","category":"other"}]},{"lat":"37.456516379","long":"127.03005256","imageIndex":17,"items":[{"name":"종로공인중개사사무소","tel":"02-502-2800","addr":"경기도 과천시 부림동 41번지 복합상가 마동 복합상가 마동 108호","indutype":"서비스 - 공인중개사","category":"other"}]},{"lat":"37.42891224","long":"126.99139179","imageIndex":17,"items":[{"name":"참조은고깃간","tel":"02-502-9966","addr":"경기도 과천시 부림동 46번지","indutype":"도소매 - 정육","category":"other"}]},{"lat":"37.437823532","long":"126.99617009","imageIndex":17,"items":[{"name":"천일기계","tel":"02-502-1524","addr":"경기도 과천시 부림동 24-5번지","indutype":"기타 - 기계공구","category":"other"}]},{"lat":"37.429876627","long":"126.99525564","imageIndex":17,"items":[{"name":"청계공인중개사사무소","tel":"02-504-2131","addr":"경기도 과천시 부림동 41번지 복합상가 라동 2층 211호","indutype":"부동산업 - 부동산중개업","category":"other"}]},{"lat":"37.42919211","long":"127.00327739","imageIndex":17,"items":[{"name":"충남 방아간","tel":"02-503-8164","addr":"경기도 과천시 부림동 41번지 9단지복합상가 마동 117호","indutype":"도소매 - 방앗간","category":"other"}]},{"lat":"37.438192999","long":"126.99722091","imageIndex":17,"items":[{"name":"텐클라우드","tel":"02-837-1626","addr":"경기도 과천시 부림동 30-1번지","indutype":"기타 - 기타 전문점","category":"other"}]},{"lat":"37.43774258","long":"126.99933394","imageIndex":17,"items":[{"name":"파란나무교육","tel":"031-445-7769","addr":"경기도 과천시 부림동 39-11번지 201호","indutype":"서적문구 - 기타서적문구","category":"other"}]},{"lat":"37.427245524","long":"126.99295115","imageIndex":17,"items":[{"name":"한치과의원","tel":"02-504-2835","addr":"경기도 과천시 부림동 47-1번지 과천농협청사 2층","indutype":"보건업 - 치과","category":"other"}]}]