[{"lat":"37.688513521","long":"126.86472487","imageIndex":4,"items":[{"name":"(신)남경","tel":"031-969-2325","addr":"경기도 고양시 덕양구 관산동 228-3번지","indutype":"일반휴게음식 - 일반한식","category":"restaurant"},{"name":"먹거리마실거리","tel":"031-963-5950","addr":"경기도 고양시 덕양구 관산동 228-3번지","indutype":"일반휴게음식 - 일반한식","category":"restaurant"}]},{"lat":"37.712932666","long":"126.85975751","imageIndex":4,"items":[{"name":"(주)브루원","tel":"031-967-7138","addr":"경기도 고양시 덕양구 관산동 574-13번지","indutype":"일반휴게음식 - 일반한식","category":"restaurant"}]},{"lat":"37.688657675","long":"126.8647246","imageIndex":4,"items":[{"name":"69대통령","tel":"031-964-6992","addr":"경기도 고양시 덕양구 관산동 228-1번지","indutype":"일반휴게음식 - 일반한식","category":"restaurant"}]},{"lat":"37.6889644","long":"126.86506415","imageIndex":4,"items":[{"name":"Adamo Coffee","tel":"031-964-1134","addr":"경기도 고양시 덕양구 관산동 112-41번지","indutype":"일반휴게음식 - 서양음식","category":"restaurant"},{"name":"소나무칼국수","tel":"031-969-4119","addr":"경기도 고양시 덕양구 관산동 112-41번지","indutype":"일반휴게음식 - 일반한식","category":"restaurant"},{"name":"준","tel":"031-964-0827","addr":"경기도 고양시 덕양구 관산동 112-41번지","indutype":"일반휴게음식 - 일반한식","category":"restaurant"},{"name":"치맥데이","tel":"031-964-9915","addr":"경기도 고양시 덕양구 관산동 112-41번지","indutype":"일반휴게음식 - 주점","category":"restaurant"},{"name":"치먹데이","tel":"031-964-9915","addr":"경기도 고양시 덕양구 관산동 112-41번지","indutype":"일반휴게음식 - 주점","category":"restaurant"}]},{"lat":"37.705127733","long":"126.85761795","imageIndex":4,"items":[{"name":"가좌치킨2호점","tel":"031-963-7070","addr":"경기도 고양시 덕양구 관산동 687-48번지","indutype":"일반휴게음식 - 스넥","category":"restaurant"},{"name":"가좌치킨2호점","tel":"031-963-7070","addr":"경기도 고양시 덕양구 관산동 687-48번지","indutype":"일반휴게음식 - 스넥","category":"restaurant"},{"name":"장금이네찌게찌게","tel":"031-962-6935","addr":"경기도 고양시 덕양구 관산동 687-48번지","indutype":"일반휴게음식 - 일반한식","category":"restaurant"},{"name":"주태배기","tel":"031-969-0784","addr":"경기도 고양시 덕양구 관산동 687-48번지","indutype":"일반휴게음식 - 일반한식","category":"restaurant"}]},{"lat":"37.688963909","long":"126.86464467","imageIndex":4,"items":[{"name":"갈비&등갈비","tel":"031-964-1411","addr":"경기도 고양시 덕양구 관산동 910-31번지","indutype":"일반휴게음식 - 일반한식","category":"restaurant"}]},{"lat":"37.688630938","long":"126.86497407","imageIndex":4,"items":[{"name":"갈비데이","tel":"031-966-8745","addr":"경기도 고양시 덕양구 관산동 181-1번지","indutype":"일반휴게음식 - 일반한식","category":"restaurant"},{"name":"성준식당","tel":"031-969-4113","addr":"경기도 고양시 덕양구 관산동 181-1번지","indutype":"일반휴게음식 - 일반한식","category":"restaurant"},{"name":"셀라 포차","tel":"","addr":"경기도 고양시 덕양구 관산동 181-1번지","indutype":"일반휴게음식 - 주점","category":"restaurant"},{"name":"참참치킨","tel":"031-963-1469","addr":"경기도 고양시 덕양구 관산동 181-1번지","indutype":"일반휴게음식 - 스넥","category":"restaurant"}]},{"lat":"37.688351348","long":"126.86472517","imageIndex":4,"items":[{"name":"개성순대국전문점","tel":"031-964-6370","addr":"경기도 고양시 덕양구 관산동 228-2번지","indutype":"일반휴게음식 - 일반한식","category":"restaurant"},{"name":"성사마을분식","tel":"031-964-6936","addr":"경기도 고양시 덕양구 관산동 228-2번지","indutype":"일반휴게음식 - 스넥","category":"restaurant"}]},{"lat":"37.70926149","long":"126.85628304","imageIndex":4,"items":[{"name":"고골돼지부속구이","tel":"031-965-8933","addr":"경기도 고양시 덕양구 관산동 685-106번지","indutype":"일반휴게음식 - 일반한식","category":"restaurant"},{"name":"명가묵은지감자탕","tel":"031-964-9183","addr":"경기도 고양시 덕양구 관산동 685-106번지","indutype":"일반휴게음식 - 일반한식","category":"restaurant"}]},{"lat":"37.711877053","long":"126.85853473","imageIndex":4,"items":[{"name":"고골마당","tel":"031-969-9949","addr":"경기도 고양시 덕양구 관산동 660-8번지","indutype":"일반휴게음식 - 일반한식","category":"restaurant"}]},{"lat":"37.712572751","long":"126.8601438","imageIndex":4,"items":[{"name":"고골식당","tel":"031-969-8999","addr":"경기도 고양시 덕양구 관산동 574-11번지","indutype":"일반휴게음식 - 일반한식","category":"restaurant"}]},{"lat":"37.708899578","long":"126.85505898","imageIndex":4,"items":[{"name":"고골애","tel":"031-968-1277","addr":"경기도 고양시 덕양구 관산동 672-34번지","indutype":"일반휴게음식 - 주점","category":"restaurant"},{"name":"렛츠곱창","tel":"031-964-3609","addr":"경기도 고양시 덕양구 관산동 672-34번지","indutype":"일반휴게음식 - 일반한식","category":"restaurant"}]},{"lat":"37.68896355","long":"126.86433856","imageIndex":4,"items":[{"name":"고기마니아","tel":"031-964-5244","addr":"경기도 고양시 덕양구 관산동 230-2번지","indutype":"일반휴게음식 - 일반한식","category":"restaurant"},{"name":"스마일찹쌀꽈배기","tel":"031-965-4393","addr":"경기도 고양시 덕양구 관산동 230-2번지","indutype":"일반휴게음식 - 일반한식","category":"restaurant"}]},{"lat":"37.709792816","long":"126.8560892","imageIndex":4,"items":[{"name":"고기마루","tel":"031-969-2994","addr":"경기도 고양시 덕양구 관산동 672-32번지","indutype":"일반휴게음식 - 일반한식","category":"restaurant"}]},{"lat":"37.709153206","long":"126.85614717","imageIndex":4,"items":[{"name":"고양족발","tel":"031-963-5525","addr":"경기도 고양시 덕양구 관산동 685-107번지","indutype":"일반휴게음식 - 일반한식","category":"restaurant"},{"name":"달수네","tel":"031-966-5677","addr":"경기도 고양시 덕양구 관산동 685-107번지","indutype":"일반휴게음식 - 일반한식","category":"restaurant"},{"name":"맛있다취한다","tel":"","addr":"경기도 고양시 덕양구 관산동 685-107번지","indutype":"일반휴게음식 - 일반한식","category":"restaurant"}]},{"lat":"37.68801734","long":"126.86417026","imageIndex":4,"items":[{"name":"곰미커피 관산점","tel":"031-1111-1111","addr":"경기도 고양시 덕양구 관산동 231-14번지","indutype":"일반휴게음식 - 서양음식","category":"restaurant"},{"name":"또래오래치킨","tel":"031-962-4861","addr":"경기도 고양시 덕양구 관산동 231-14번지","indutype":"일반휴게음식 - 주점","category":"restaurant"},{"name":"엉뚱한 상상","tel":"031-963-1624","addr":"경기도 고양시 덕양구 관산동 231-14번지","indutype":"일반휴게음식 - 주점","category":"restaurant"},{"name":"향다방","tel":"031-962-3982","addr":"경기도 고양시 덕양구 관산동 231-14번지","indutype":"일반휴게음식 - 일반한식","category":"restaurant"}]},{"lat":"37.688934888","long":"126.86295545","imageIndex":4,"items":[{"name":"관산동양푼이김치찌개동태탕","tel":"031-962-3392","addr":"경기도 고양시 덕양구 관산동 231-31번지","indutype":"일반휴게음식 - 일반한식","category":"restaurant"}]},{"lat":"37.688126148","long":"126.8647596","imageIndex":4,"items":[{"name":"관산술고래","tel":"031-966-3681","addr":"경기도 고양시 덕양구 관산동 227-1번지","indutype":"일반휴게음식 - 주점","category":"restaurant"},{"name":"마을웰빙센타","tel":"031-962-6338","addr":"경기도 고양시 덕양구 관산동 227-1번지","indutype":"일반휴게음식 - 일반한식","category":"restaurant"},{"name":"미오기삼계탕","tel":"031-963-4985","addr":"경기도 고양시 덕양구 관산동 227-1번지","indutype":"일반휴게음식 - 일반한식","category":"restaurant"},{"name":"큰손집","tel":"031-921-1438","addr":"경기도 고양시 덕양구 관산동 227-1번지","indutype":"일반휴게음식 - 일반한식","category":"restaurant"}]},{"lat":"37.688326679","long":"126.86675459","imageIndex":4,"items":[{"name":"광장치킨","tel":"031-969-9199","addr":"경기도 고양시 덕양구 관산동 180-32번지","indutype":"일반휴게음식 - 스넥","category":"restaurant"}]},{"lat":"37.689153337","long":"126.86483705","imageIndex":4,"items":[{"name":"국수랑전이랑","tel":"","addr":"경기도 고양시 덕양구 관산동 112-24번지","indutype":"일반휴게음식 - 일반한식","category":"restaurant"}]},{"lat":"37.688432275","long":"126.86458897","imageIndex":4,"items":[{"name":"굿맘할매순대국","tel":"031-964-5557","addr":"경기도 고양시 덕양구 관산동 228-6번지","indutype":"일반휴게음식 - 일반한식","category":"restaurant"},{"name":"마산 아구구","tel":"031-966-9730","addr":"경기도 고양시 덕양구 관산동 228-6번지","indutype":"일반휴게음식 - 일반한식","category":"restaurant"},{"name":"연포차","tel":"031-964-4585","addr":"경기도 고양시 덕양구 관산동 228-6번지","indutype":"일반휴게음식 - 주점","category":"restaurant"}]},{"lat":"37.686767688","long":"126.86647402","imageIndex":4,"items":[{"name":"귀족","tel":"031-964-3003","addr":"경기도 고양시 덕양구 관산동 186번지","indutype":"일반휴게음식 - 일반한식","category":"restaurant"},{"name":"전주식당","tel":"031-962-2076","addr":"경기도 고양시 덕양구 관산동","indutype":"일반휴게음식 - 일반한식","category":"restaurant"}]},{"lat":"37.688433546","long":"126.86567735","imageIndex":4,"items":[{"name":"그라티아 커피","tel":"031-969-2104","addr":"경기도 고양시 덕양구 관산동 180-1번지","indutype":"일반휴게음식 - 서양음식","category":"restaurant"}]},{"lat":"37.686513771","long":"126.86505735","imageIndex":4,"items":[{"name":"금마루식당","tel":"031-962-7894","addr":"경기도 고양시 덕양구 관산동 196-2번지","indutype":"일반휴게음식 - 일반한식","category":"restaurant"}]},{"lat":"37.687378601","long":"126.86497639","imageIndex":4,"items":[{"name":"길","tel":"031-964-8085","addr":"경기도 고양시 덕양구 관산동 188-22번지","indutype":"일반휴게음식 - 서양음식","category":"restaurant"},{"name":"착한김밥","tel":"031-964-3822","addr":"경기도 고양시 덕양구 관산동 188-22번지","indutype":"일반휴게음식 - 일반한식","category":"restaurant"},{"name":"프루트랜드","tel":"031-962-0942","addr":"경기도 고양시 덕양구 관산동 188-22번지","indutype":"일반휴게음식 - 스넥","category":"restaurant"}]},{"lat":"37.705901155","long":"126.85648244","imageIndex":4,"items":[{"name":"꼬끼오 삼계탕","tel":"031-963-9009","addr":"경기도 고양시 덕양구 관산동 692-8번지","indutype":"일반휴게음식 - 일반한식","category":"restaurant"},{"name":"백가네","tel":"031-966-8808","addr":"경기도 고양시 덕양구 관산동 692-8번지","indutype":"일반휴게음식 - 일반한식","category":"restaurant"}]},{"lat":"37.687099952","long":"126.86553243","imageIndex":4,"items":[{"name":"꽈배기박사","tel":"031-966-1020","addr":"경기도 고양시 덕양구 관산동 188-1번지","indutype":"일반휴게음식 - 일반한식","category":"restaurant"},{"name":"백송왕만두","tel":"031-962-2020","addr":"경기도 고양시 덕양구 관산동 188-1번지","indutype":"일반휴게음식 - 일반한식","category":"restaurant"},{"name":"본죽관산점","tel":"031-962-6279","addr":"경기도 고양시 덕양구 관산동 188-1번지","indutype":"일반휴게음식 - 일반한식","category":"restaurant"},{"name":"비어타운","tel":"031-964-1641","addr":"경기도 고양시 덕양구 관산동 188-1번지","indutype":"일반휴게음식 - 주점","category":"restaurant"},{"name":"사계절","tel":"031-962-8946","addr":"경기도 고양시 덕양구 관산동 188-1번지","indutype":"일반휴게음식 - 일반한식","category":"restaurant"}]},{"lat":"37.686684409","long":"126.86459221","imageIndex":4,"items":[{"name":"남도아구찜백반","tel":"031-963-8082","addr":"경기도 고양시 덕양구 관산동 224-2번지","indutype":"일반휴게음식 - 일반한식","category":"restaurant"}]},{"lat":"37.688630061","long":"126.86422581","imageIndex":4,"items":[{"name":"네네치킨","tel":"031-969-2225","addr":"경기도 고양시 덕양구 관산동 231-4번지","indutype":"일반휴게음식 - 스넥","category":"restaurant"},{"name":"비에이치씨치킨 신관산점","tel":"031-814-9922","addr":"경기도 고양시 덕양구 관산동 231-4번지","indutype":"일반휴게음식 - 스넥","category":"restaurant"},{"name":"행복한 먹거리","tel":"031-966-9799","addr":"경기도 고양시 덕양구 관산동 231-4번지","indutype":"일반휴게음식 - 일반한식","category":"restaurant"}]},{"lat":"37.689937928","long":"126.86548184","imageIndex":4,"items":[{"name":"대원돈장군","tel":"031-969-1300","addr":"경기도 고양시 덕양구 관산동 112-22번지","indutype":"일반휴게음식 - 일반한식","category":"restaurant"}]},{"lat":"37.68699319","long":"126.86670035","imageIndex":4,"items":[{"name":"더바삭","tel":"031-962-7917","addr":"경기도 고양시 덕양구 관산동 185번지","indutype":"일반휴게음식 - 스넥","category":"restaurant"}]},{"lat":"37.70179602","long":"126.85912125","imageIndex":4,"items":[{"name":"덕수당153","tel":"031-967-2474","addr":"경기도 고양시 덕양구 관산동 487-1번지","indutype":"일반휴게음식 - 서양음식","category":"restaurant"}]},{"lat":"37.708234186","long":"126.85611496","imageIndex":4,"items":[{"name":"도깨비장작구이","tel":"031-969-8295","addr":"경기도 고양시 덕양구 관산동 685-79번지","indutype":"일반휴게음식 - 일반한식","category":"restaurant"}]},{"lat":"37.687767243","long":"126.86603003","imageIndex":4,"items":[{"name":"도도텐","tel":"","addr":"경기도 고양시 덕양구 관산동 1015번지 더퍼스트프라임","indutype":"일반휴게음식 - 일반한식","category":"restaurant"},{"name":"맘스터치관산점","tel":"031-963-9005","addr":"경기도 고양시 덕양구 관산동 1015번지 더퍼스트프라임","indutype":"일반휴게음식 - 서양음식","category":"restaurant"},{"name":"불떡볶이 (관산점)","tel":"031-966-2253","addr":"경기도 고양시 덕양구 관산동 1015번지 더퍼스트프라임","indutype":"일반휴게음식 - 일반한식","category":"restaurant"},{"name":"빅브레드(Big Bread)","tel":"","addr":"경기도 고양시 덕양구 관산동 1015번지 더퍼스트프라임","indutype":"일반휴게음식 - 서양음식","category":"restaurant"},{"name":"엄마네밥상","tel":"031-963-9293","addr":"경기도 고양시 덕양구 관산동 1015번지 더퍼스트프라임","indutype":"일반휴게음식 - 일반한식","category":"restaurant"},{"name":"장호덕손만두","tel":"031-963-0707","addr":"경기도 고양시 덕양구 관산동 1015번지 더퍼스트프라임","indutype":"일반휴게음식 - 스넥","category":"restaurant"},{"name":"지리산흑돼지","tel":"031-816-1588","addr":"경기도 고양시 덕양구 관산동 1015번지 더퍼스트프라임","indutype":"일반휴게음식 - 일반한식","category":"restaurant"},{"name":"청담샤브칼국수","tel":"031-967-9293","addr":"경기도 고양시 덕양구 관산동 1015번지 더퍼스트프라임","indutype":"일반휴게음식 - 일반한식","category":"restaurant"},{"name":"카페에슬로우","tel":"031-943-1047","addr":"경기도 고양시 덕양구 관산동 1015번지 더퍼스트프라임","indutype":"일반휴게음식 - 서양음식","category":"restaurant"},{"name":"카페에이프릴","tel":"070-4121-2459","addr":"경기도 고양시 덕양구 관산동 1015번지 더퍼스트프라임","indutype":"일반휴게음식 - 서양음식","category":"restaurant"},{"name":"칸과함께","tel":"031-966-4711","addr":"경기도 고양시 덕양구 관산동 1015번지 더퍼스트프라임","indutype":"일반휴게음식 - 서양음식","category":"restaurant"},{"name":"키즈빌리지큐브","tel":"031-965-2233","addr":"경기도 고양시 덕양구 관산동 1015번지 더퍼스트프라임","indutype":"일반휴게음식 - 서양음식","category":"restaurant"},{"name":"하루","tel":"070-7543-4099","addr":"경기도 고양시 덕양구 관산동 1015번지 더퍼스트프라임","indutype":"일반휴게음식 - 주점","category":"restaurant"}]},{"lat":"37.71054028","long":"126.86323237","imageIndex":4,"items":[{"name":"도시바다","tel":"031-962-8853","addr":"경기도 고양시 덕양구 관산동 559-13번지","indutype":"일반휴게음식 - 일식·회집","category":"restaurant"}]},{"lat":"37.708737064","long":"126.85478713","imageIndex":4,"items":[{"name":"땡초식당","tel":"031-963-2746","addr":"경기도 고양시 덕양구 관산동 674-6번지","indutype":"일반휴게음식 - 스넥","category":"restaurant"}]},{"lat":"37.708017999","long":"126.8561494","imageIndex":4,"items":[{"name":"또봉이통닭고양관산점","tel":"031-965-0929","addr":"경기도 고양시 덕양구 관산동 679-6번지","indutype":"일반휴게음식 - 일반한식","category":"restaurant"}]},{"lat":"37.709071073","long":"126.85530813","imageIndex":4,"items":[{"name":"라쿠","tel":"031-966-7613","addr":"경기도 고양시 덕양구 관산동 672-4번지","indutype":"일반휴게음식 - 일식·회집","category":"restaurant"}]},{"lat":"37.688655482","long":"126.86286527","imageIndex":4,"items":[{"name":"롯데리아 고양관산점","tel":"031-964-9339","addr":"경기도 고양시 덕양구 관산동 231-29번지","indutype":"일반휴게음식 - 서양음식","category":"restaurant"}]},{"lat":"37.687710332","long":"126.86359263","imageIndex":4,"items":[{"name":"마실","tel":"031-963-2280","addr":"경기도 고양시 덕양구 관산동 235-3번지","indutype":"일반휴게음식 - 주점","category":"restaurant"}]},{"lat":"37.688406834","long":"126.8659495","imageIndex":4,"items":[{"name":"맛있는파닭","tel":"031-963-1884","addr":"경기도 고양시 덕양구 관산동 179-2번지","indutype":"일반휴게음식 - 일반한식","category":"restaurant"},{"name":"초원식당","tel":"031-963-4232","addr":"경기도 고양시 덕양구 관산동 179-2번지","indutype":"일반휴게음식 - 일반한식","category":"restaurant"}]},{"lat":"37.687793216","long":"126.86512301","imageIndex":4,"items":[{"name":"먹보왕만두","tel":"031-962-8035","addr":"경기도 고양시 덕양구 관산동 910-1번지","indutype":"일반휴게음식 - 일반한식","category":"restaurant"}]},{"lat":"37.68871076","long":"126.86389687","imageIndex":4,"items":[{"name":"메가엠지씨커피고양관산점","tel":"","addr":"경기도 고양시 덕양구 관산동 231-49번지","indutype":"일반휴게음식 - 서양음식","category":"restaurant"}]},{"lat":"37.68662891","long":"126.86336791","imageIndex":4,"items":[{"name":"메리베리","tel":"02-2671-8080","addr":"경기도 고양시 덕양구 관산동 220-1번지","indutype":"일반휴게음식 - 서양음식","category":"restaurant"}]},{"lat":"37.688271492","long":"126.86577969","imageIndex":4,"items":[{"name":"명동감자탕","tel":"031-962-8069","addr":"경기도 고양시 덕양구 관산동 179-6번지","indutype":"일반휴게음식 - 일반한식","category":"restaurant"},{"name":"이모네포장마차","tel":"031-968-6664","addr":"경기도 고양시 덕양구 관산동 179-6번지","indutype":"일반휴게음식 - 일반한식","category":"restaurant"},{"name":"일단한끼때워","tel":"031-847-5258","addr":"경기도 고양시 덕양구 관산동 179-6번지","indutype":"일반휴게음식 - 일반한식","category":"restaurant"},{"name":"장사부오떡순","tel":"070-4308-9095","addr":"경기도 고양시 덕양구 관산동 179-6번지","indutype":"일반휴게음식 - 일반한식","category":"restaurant"}]},{"lat":"37.69027082","long":"126.86508441","imageIndex":4,"items":[{"name":"모꼬지","tel":"031-962-4725","addr":"경기도 고양시 덕양구 관산동 113-2번지","indutype":"일반휴게음식 - 주점","category":"restaurant"},{"name":"파파레오","tel":"","addr":"경기도 고양시 덕양구 관산동 113-2번지","indutype":"일반휴게음식 - 서양음식","category":"restaurant"},{"name":"황태마을","tel":"031-963-2943","addr":"경기도 고양시 덕양구 관산동","indutype":"일반휴게음식 - 일반한식","category":"restaurant"}]},{"lat":"37.688460047","long":"126.86522381","imageIndex":4,"items":[{"name":"바다로가자","tel":"031-963-0844","addr":"경기도 고양시 덕양구 관산동 181-19번지","indutype":"일반휴게음식 - 일반한식","category":"restaurant"},{"name":"복순대국","tel":"031-962-3442","addr":"경기도 고양시 덕양구 관산동 181-19번지","indutype":"일반휴게음식 - 일반한식","category":"restaurant"}]},{"lat":"37.704931661","long":"126.85936467","imageIndex":4,"items":[{"name":"바람개비","tel":"031-963-2793","addr":"경기도 고양시 덕양구 관산동 539-1번지","indutype":"일반휴게음식 - 서양음식","category":"restaurant"}]},{"lat":"37.70887178","long":"126.85444665","imageIndex":4,"items":[{"name":"베로스트커피 (VEROAST COFFEE)","tel":"031-963-4340","addr":"경기도 고양시 덕양구 관산동 672-47번지","indutype":"일반휴게음식 - 서양음식","category":"restaurant"},{"name":"진칼국수","tel":"031-967-5533","addr":"경기도 고양시 덕양구 관산동 672-47번지","indutype":"일반휴게음식 - 일반한식","category":"restaurant"}]},{"lat":"37.688271241","long":"126.86556428","imageIndex":4,"items":[{"name":"봉구스밥버거관산점","tel":"031-818-1345","addr":"경기도 고양시 덕양구 관산동 179-7번지","indutype":"일반휴게음식 - 일반한식","category":"restaurant"},{"name":"삼촌부대찌개","tel":"031-963-1504","addr":"경기도 고양시 덕양구 관산동 179-7번지","indutype":"일반휴게음식 - 일반한식","category":"restaurant"},{"name":"옛날정","tel":"031-63-0744","addr":"경기도 고양시 덕양구 관산동 179-7번지","indutype":"일반휴게음식 - 일반한식","category":"restaurant"}]},{"lat":"37.688790922","long":"126.86311444","imageIndex":4,"items":[{"name":"비 612","tel":"031-962-4404","addr":"경기도 고양시 덕양구 관산동 231-11번지","indutype":"일반휴게음식 - 서양음식","category":"restaurant"}]},{"lat":"37.688604306","long":"126.86531424","imageIndex":4,"items":[{"name":"비비큐관산동점","tel":"031-964-9295","addr":"경기도 고양시 덕양구 관산동 181-2번지","indutype":"일반휴게음식 - 스넥","category":"restaurant"},{"name":"투다리","tel":"","addr":"경기도 고양시 덕양구 관산동 181-2번지","indutype":"일반휴게음식 - 일반한식","category":"restaurant"},{"name":"피자","tel":"031-964-3445","addr":"경기도 고양시 덕양구 관산동 181-2번지","indutype":"일반휴게음식 - 서양음식","category":"restaurant"}]},{"lat":"37.68835164","long":"126.86497459","imageIndex":4,"items":[{"name":"산야초서서갈비","tel":"031-111-1111","addr":"경기도 고양시 덕양구 관산동 181-20번지","indutype":"일반휴게음식 - 일반한식","category":"restaurant"},{"name":"신쫄매쭈꾸미","tel":"031-963-5254","addr":"경기도 고양시 덕양구 관산동 181-20번지","indutype":"일반휴게음식 - 일반한식","category":"restaurant"}]},{"lat":"37.687907953","long":"126.86309342","imageIndex":4,"items":[{"name":"산촌식당","tel":"031-962-9580","addr":"경기도 고양시 덕양구 관산동 236-1번지","indutype":"일반휴게음식 - 일반한식","category":"restaurant"},{"name":"소문난집밥","tel":"031-962-7207","addr":"경기도 고양시 덕양구 관산동 236-1번지","indutype":"일반휴게음식 - 일반한식","category":"restaurant"}]},{"lat":"37.68890165","long":"126.86533637","imageIndex":4,"items":[{"name":"산카이덕양관산점","tel":"031-811-1182","addr":"경기도 고양시 덕양구 관산동 181-51번지","indutype":"일반휴게음식 - 주점","category":"restaurant"},{"name":"제주생고기","tel":"","addr":"경기도 고양시 덕양구 관산동 181-51번지","indutype":"일반휴게음식 - 일반한식","category":"restaurant"}]},{"lat":"37.711345112","long":"126.85822956","imageIndex":4,"items":[{"name":"스마트치킨참숯바베큐","tel":"031-964-2772","addr":"경기도 고양시 덕양구 관산동 659-3번지","indutype":"일반휴게음식 - 일반한식","category":"restaurant"}]},{"lat":"37.690269984","long":"126.86437014","imageIndex":4,"items":[{"name":"스윙스커피로스터스","tel":"031-963-0531","addr":"경기도 고양시 덕양구 관산동 1005번지","indutype":"일반휴게음식 - 서양음식","category":"restaurant"}]},{"lat":"37.689213398","long":"126.854928","imageIndex":4,"items":[{"name":"스투디아일산","tel":"02-2156-3040","addr":"경기도 고양시 덕양구 관산동 290번지","indutype":"일반휴게음식 - 서양음식","category":"restaurant"}]},{"lat":"37.704983915","long":"126.85789038","imageIndex":4,"items":[{"name":"시골식당","tel":"031-962-9951","addr":"경기도 고양시 덕양구 관산동 687-56번지","indutype":"일반휴게음식 - 일반한식","category":"restaurant"}]},{"lat":"37.712707826","long":"126.86008684","imageIndex":4,"items":[{"name":"아더르키친","tel":"070-4187-5579","addr":"경기도 고양시 덕양구 관산동 574-9번지","indutype":"일반휴게음식 - 일반한식","category":"restaurant"}]},{"lat":"37.69040558","long":"126.86475537","imageIndex":4,"items":[{"name":"아맵다떡볶이","tel":"031-000-0000","addr":"경기도 고양시 덕양구 관산동 338-1번지","indutype":"일반휴게음식 - 스넥","category":"restaurant"},{"name":"엣더테이블","tel":"","addr":"경기도 고양시 덕양구 관산동 338-1번지","indutype":"일반휴게음식 - 서양음식","category":"restaurant"},{"name":"치킨플러스 관산점","tel":"031-2734-8887","addr":"경기도 고양시 덕양구 관산동 338-1번지","indutype":"일반휴게음식 - 스넥","category":"restaurant"},{"name":"한우야돼지야","tel":"031-969-9293","addr":"경기도 고양시 덕양구 관산동 338-1번지","indutype":"일반휴게음식 - 일반한식","category":"restaurant"}]},{"lat":"37.688153362","long":"126.86491827","imageIndex":4,"items":[{"name":"아이비","tel":"031-962-9366","addr":"경기도 고양시 덕양구 관산동 182-6번지","indutype":"일반휴게음식 - 서양음식","category":"restaurant"}]},{"lat":"37.688459755","long":"126.86497439","imageIndex":4,"items":[{"name":"알콜충전소","tel":"031-966-9759","addr":"경기도 고양시 덕양구 관산동 181번지","indutype":"일반휴게음식 - 주점","category":"restaurant"}]},{"lat":"37.688152524","long":"126.86420402","imageIndex":4,"items":[{"name":"애주가개근상","tel":"031-966-1445","addr":"경기도 고양시 덕양구 관산동 231-1번지","indutype":"일반휴게음식 - 일반한식","category":"restaurant"},{"name":"커피에반하다 고양관산점","tel":"031-968-1517","addr":"경기도 고양시 덕양구 관산동 231-1번지","indutype":"일반휴게음식 - 서양음식","category":"restaurant"}]},{"lat":"37.687296771","long":"126.86434166","imageIndex":4,"items":[{"name":"에쿠스호프","tel":"031-969-6780","addr":"경기도 고양시 덕양구 관산동 226-1번지","indutype":"일반휴게음식 - 주점","category":"restaurant"},{"name":"우정파전","tel":"031-926-3471","addr":"경기도 고양시 덕양구 관산동 226-1번지","indutype":"일반휴게음식 - 일반한식","category":"restaurant"},{"name":"진순대국","tel":"031-962-6976","addr":"경기도 고양시 덕양구 관산동 226-1번지","indutype":"일반휴게음식 - 일반한식","category":"restaurant"}]},{"lat":"37.687597096","long":"126.86692599","imageIndex":4,"items":[{"name":"엘리트피자","tel":"031-964-3260","addr":"경기도 고양시 덕양구 관산동","indutype":"일반휴게음식 - 서양음식","category":"restaurant"}]},{"lat":"37.688215951","long":"126.86451001","imageIndex":4,"items":[{"name":"오륙도회센타","tel":"031-964-0056","addr":"경기도 고양시 덕양구 관산동 228-9번지","indutype":"일반휴게음식 - 일식·회집","category":"restaurant"},{"name":"황토해물갈비찜","tel":"031-964-9242","addr":"경기도 고양시 덕양구 관산동 228-9번지","indutype":"일반휴게음식 - 일반한식","category":"restaurant"}]},{"lat":"37.707406164","long":"126.85680834","imageIndex":4,"items":[{"name":"오복정","tel":"031-963-8858","addr":"경기도 고양시 덕양구 관산동 685-58번지","indutype":"일반휴게음식 - 중국식","category":"restaurant"}]},{"lat":"37.688576176","long":"126.86437329","imageIndex":4,"items":[{"name":"오봉자싸롱관산점","tel":"031-966-9300","addr":"경기도 고양시 덕양구 관산동 229-2번지","indutype":"일반휴게음식 - 주점","category":"restaurant"}]},{"lat":"37.709321944","long":"126.85419626","imageIndex":4,"items":[{"name":"요거프레소 고양 내유점","tel":"","addr":"경기도 고양시 덕양구 관산동 672-66번지","indutype":"일반휴게음식 - 서양음식","category":"restaurant"}]},{"lat":"37.704849758","long":"126.85869577","imageIndex":4,"items":[{"name":"용화루","tel":"031-962-4433","addr":"경기도 고양시 덕양구 관산동 540-6번지","indutype":"일반휴게음식 - 중국식","category":"restaurant"}]},{"lat":"37.686576227","long":"126.86453573","imageIndex":4,"items":[{"name":"우렁이쌈밥","tel":"031-963-8963","addr":"경기도 고양시 덕양구 관산동 222-1번지","indutype":"일반휴게음식 - 일반한식","category":"restaurant"}]},{"lat":"37.686938174","long":"126.86587284","imageIndex":4,"items":[{"name":"우리동네","tel":"031-962-4807","addr":"경기도 고양시 덕양구 관산동 188-11번지","indutype":"일반휴게음식 - 일반한식","category":"restaurant"}]},{"lat":"37.713542989","long":"126.86537022","imageIndex":4,"items":[{"name":"우리동네","tel":"031-962-0402","addr":"경기도 고양시 덕양구 관산동 626-1번지","indutype":"일반휴게음식 - 일반한식","category":"restaurant"}]},{"lat":"37.704957165","long":"126.85811723","imageIndex":4,"items":[{"name":"우연히","tel":"00-000-0000","addr":"경기도 고양시 덕양구 관산동 540-87번지","indutype":"일반휴게음식 - 일반한식","category":"restaurant"}]},{"lat":"37.708927797","long":"126.85601152","imageIndex":4,"items":[{"name":"응답하라 고골","tel":"031-966-2016","addr":"경기도 고양시 덕양구 관산동 685-72번지","indutype":"일반휴게음식 - 일반한식","category":"restaurant"},{"name":"카페다르","tel":"","addr":"경기도 고양시 덕양구 관산동 685-72번지","indutype":"일반휴게음식 - 서양음식","category":"restaurant"}]},{"lat":"37.68801774","long":"126.86451038","imageIndex":4,"items":[{"name":"이디야 고양관산점","tel":"031-969-8284","addr":"경기도 고양시 덕양구 관산동 227-6번지","indutype":"일반휴게음식 - 서양음식","category":"restaurant"}]},{"lat":"37.704982992","long":"126.85714195","imageIndex":4,"items":[{"name":"이병장푸드","tel":"031-966-7479","addr":"경기도 고양시 덕양구 관산동 690-10번지","indutype":"일반휴게음식 - 일반한식","category":"restaurant"},{"name":"화덕에구운족발","tel":"031-963-8866","addr":"경기도 고양시 덕양구 관산동 690-10번지","indutype":"일반휴게음식 - 일반한식","category":"restaurant"}]},{"lat":"37.712210954","long":"126.86656348","imageIndex":4,"items":[{"name":"자매식당","tel":"031-962-8251","addr":"경기도 고양시 덕양구 관산동 605-6번지","indutype":"일반휴게음식 - 일반한식","category":"restaurant"}]},{"lat":"37.705816427","long":"126.86087118","imageIndex":4,"items":[{"name":"자유시간치킨호프","tel":"031-962-7762","addr":"경기도 고양시 덕양구 관산동 538-3번지","indutype":"일반휴게음식 - 스넥","category":"restaurant"}]},{"lat":"37.688099437","long":"126.86503174","imageIndex":4,"items":[{"name":"잔비어스","tel":"031-111-1111","addr":"경기도 고양시 덕양구 관산동 181-12번지","indutype":"일반휴게음식 - 스넥","category":"restaurant"}]},{"lat":"37.687046408","long":"126.86597467","imageIndex":4,"items":[{"name":"장군족발보쌈","tel":"031-969-1364","addr":"경기도 고양시 덕양구 관산동 188-9번지","indutype":"일반휴게음식 - 일반한식","category":"restaurant"},{"name":"피쉬앤그릴","tel":"031-964-4529","addr":"경기도 고양시 덕양구 관산동","indutype":"일반휴게음식 - 주점","category":"restaurant"}]},{"lat":"37.705180768","long":"126.85679003","imageIndex":4,"items":[{"name":"장길수피자","tel":"031-964-0042","addr":"경기도 고양시 덕양구 관산동 690-12번지","indutype":"일반휴게음식 - 서양음식","category":"restaurant"}]},{"lat":"37.712988204","long":"126.86098224","imageIndex":4,"items":[{"name":"장수순대국","tel":"031-969-7799","addr":"경기도 고양시 덕양구 관산동 579-8번지","indutype":"일반휴게음식 - 일반한식","category":"restaurant"}]},{"lat":"37.688767836","long":"126.86648169","imageIndex":4,"items":[{"name":"정가네식당","tel":"031-963-4043","addr":"경기도 고양시 덕양구 관산동 180-5번지","indutype":"일반휴게음식 - 일반한식","category":"restaurant"}]},{"lat":"37.688908316","long":"126.86334097","imageIndex":4,"items":[{"name":"짬뽕애","tel":"031-965-8883","addr":"경기도 고양시 덕양구 관산동 231-12번지","indutype":"일반휴게음식 - 중국식","category":"restaurant"}]},{"lat":"37.709432785","long":"126.85637342","imageIndex":4,"items":[{"name":"차이나 하오치","tel":"031-963-3061","addr":"경기도 고양시 덕양구 관산동 685-105번지","indutype":"일반휴게음식 - 중국식","category":"restaurant"},{"name":"참나무 닭굼터","tel":"031-968-9282","addr":"경기도 고양시 덕양구 관산동 685-105번지","indutype":"일반휴게음식 - 스넥","category":"restaurant"}]},{"lat":"37.689180591","long":"126.86502974","imageIndex":4,"items":[{"name":"친구네","tel":"031-969-3983","addr":"경기도 고양시 덕양구 관산동 114-1번지","indutype":"일반휴게음식 - 일반한식","category":"restaurant"},{"name":"행복한 분식","tel":"","addr":"경기도 고양시 덕양구 관산동 114-1번지","indutype":"일반휴게음식 - 일반한식","category":"restaurant"}]},{"lat":"37.688324903","long":"126.86522406","imageIndex":4,"items":[{"name":"카페게이트 고양관산점","tel":"","addr":"경기도 고양시 덕양구 관산동 181-15번지","indutype":"일반휴게음식 - 서양음식","category":"restaurant"}]},{"lat":"37.686656755","long":"126.86405942","imageIndex":4,"items":[{"name":"컨테이너","tel":"031-963-0034","addr":"경기도 고양시 덕양구 관산동 222-2번지","indutype":"일반휴게음식 - 주점","category":"restaurant"}]},{"lat":"37.687021055","long":"126.86742587","imageIndex":4,"items":[{"name":"코다리포차","tel":"070-4922-1261","addr":"경기도 고양시 덕양구 관산동 992-1번지","indutype":"일반휴게음식 - 주점","category":"restaurant"}]},{"lat":"37.688933862","long":"126.86209381","imageIndex":4,"items":[{"name":"토스트굽는사람들(벽제점)","tel":"031-963-2300","addr":"경기도 고양시 덕양구 관산동 231-55번지","indutype":"일반휴게음식 - 스넥","category":"restaurant"}]},{"lat":"37.688212599","long":"126.86941907","imageIndex":4,"items":[{"name":"통일로장어촌","tel":"031-964-5009","addr":"경기도 고양시 덕양구 관산동 164-1번지","indutype":"일반휴게음식 - 일반한식","category":"restaurant"}]},{"lat":"37.687270685","long":"126.86514665","imageIndex":4,"items":[{"name":"통큰고기무한리필","tel":"031-962-9780","addr":"경기도 고양시 덕양구 관산동 188-2번지","indutype":"일반휴게음식 - 일반한식","category":"restaurant"}]},{"lat":"37.690901983","long":"126.86550274","imageIndex":4,"items":[{"name":"페리카나치킨 관산점","tel":"031-963-2740","addr":"경기도 고양시 덕양구 관산동 1009번지","indutype":"일반휴게음식 - 서양음식","category":"restaurant"}]},{"lat":"37.706289494","long":"126.85723012","imageIndex":4,"items":[{"name":"피자나라치킨공주 관산점","tel":"031-965-9284","addr":"경기도 고양시 덕양구 관산동 688-3번지","indutype":"일반휴게음식 - 서양음식","category":"restaurant"}]},{"lat":"37.688072633","long":"126.86522453","imageIndex":4,"items":[{"name":"피자스쿨","tel":"031-964-8181","addr":"경기도 고양시 덕양구 관산동 180-30번지","indutype":"일반휴게음식 - 서양음식","category":"restaurant"}]},{"lat":"37.688269716","long":"126.86426049","imageIndex":4,"items":[{"name":"하나로부속구이","tel":"031-963-2236","addr":"경기도 고양시 덕양구 관산동 229-7번지","indutype":"일반휴게음식 - 일반한식","category":"restaurant"}]},{"lat":"37.686792125","long":"126.8642519","imageIndex":4,"items":[{"name":"한양전통육개장돼지부속","tel":"031-962-4081","addr":"경기도 고양시 덕양구 관산동 224-3번지","indutype":"일반휴게음식 - 일반한식","category":"restaurant"}]},{"lat":"37.704074698","long":"126.8585045","imageIndex":4,"items":[{"name":"한우천국","tel":"031-1666-1592","addr":"경기도 고양시 덕양구 관산동 493-17번지","indutype":"일반휴게음식 - 일반한식","category":"restaurant"}]},{"lat":"37.69676199","long":"126.85375647","imageIndex":4,"items":[{"name":"핸디로밸리","tel":"031-964-2415","addr":"경기도 고양시 덕양구 관산동 847-129번지","indutype":"일반휴게음식 - 일반한식","category":"restaurant"}]},{"lat":"37.694568766","long":"126.85786531","imageIndex":4,"items":[{"name":"화덕구이하나","tel":"031-962-8010","addr":"경기도 고양시 덕양구 관산동 360-10번지","indutype":"일반휴게음식 - 일반한식","category":"restaurant"}]},{"lat":"37.708044712","long":"126.87114126","imageIndex":4,"items":[{"name":"희망식당","tel":"031-969-2787","addr":"경기도 고양시 덕양구 관산동 17-4번지","indutype":"일반휴게음식 - 일반한식","category":"restaurant"}]}]