[{"lat":"37.497932359","long":"127.16706984","imageIndex":4,"items":[{"name":"(주) 아워홈 캐슬렉스GC하남점","tel":"070-7545-6752","addr":"경기도 하남시 감이동 260-1번지 S동 지하1층","indutype":"일반휴게음식 - 위탁급식업","category":"restaurant"}]},{"lat":"37.498269451","long":"127.16436784","imageIndex":4,"items":[{"name":"(주)꽃님아이앤씨","tel":"02-1666-2533","addr":"경기도 하남시 감이동 311-2 1층","indutype":"일반휴게음식 - 일반한식","category":"restaurant"}]},{"lat":"37.492406401","long":"127.16259122","imageIndex":4,"items":[{"name":"구이오이","tel":"02-407-7974","addr":"경기도 하남시 감이동 355","indutype":"일반휴게음식 - 일반한식","category":"restaurant"}]},{"lat":"37.487765531","long":"127.16314669","imageIndex":4,"items":[{"name":"나주개미집","tel":"031-400-8709","addr":"경기도 하남시 감이동 373-22번지 1층","indutype":"일반휴게음식 - 일반한식","category":"restaurant"}]},{"lat":"37.505130992","long":"127.16067308","imageIndex":4,"items":[{"name":"동서울가든","tel":"02-472-6467","addr":"경기도 하남시 감이동 243","indutype":"일반휴게음식 - 일반한식","category":"restaurant"}]},{"lat":"37.487848605","long":"127.16167696","imageIndex":4,"items":[{"name":"맷돌순두부","tel":"02-974-4900","addr":"경기도 하남시 감이동 374-3번지 1층","indutype":"일반휴게음식 - 일반한식","category":"restaurant"}]},{"lat":"37.488183607","long":"127.16045652","imageIndex":4,"items":[{"name":"산성가든","tel":"02-403-4213","addr":"경기도 하남시 감이동 372-4번지 1층","indutype":"일반휴게음식 - 일반한식","category":"restaurant"},{"name":"산성가든","tel":"02-403-4213","addr":"경기도 하남시 감이동 372-4번지 1층","indutype":"일반휴게음식 - 일반한식","category":"restaurant"},{"name":"큰마당","tel":"02-443-7857","addr":"경기도 하남시 감이동 372-4번지","indutype":"일반휴게음식 - 일반한식","category":"restaurant"}]},{"lat":"37.496905711","long":"127.16009035","imageIndex":4,"items":[{"name":"산성가든","tel":"02-403-0799","addr":"경기도 하남시 감이동 339-1번지 1층","indutype":"일반휴게음식 - 일반한식","category":"restaurant"}]},{"lat":"37.487794059","long":"127.16203867","imageIndex":4,"items":[{"name":"샘터가든","tel":"02-408-6364","addr":"경기도 하남시 감이동 374-20번지","indutype":"일반휴게음식 - 일반한식","category":"restaurant"}]},{"lat":"37.489795611","long":"127.16103657","imageIndex":4,"items":[{"name":"쌍바위가든","tel":"02-448-5085","addr":"경기도 하남시 감이동 369-1번지","indutype":"일반휴게음식 - 일반한식","category":"restaurant"}]},{"lat":"37.507596765","long":"127.15606381","imageIndex":4,"items":[{"name":"써니네집","tel":"031-503-7071","addr":"경기도 하남시 감이동 194-28번지 감일택지개발지구 B4블럭","indutype":"일반휴게음식 - 일반한식","category":"restaurant"}]},{"lat":"37.487043183","long":"127.16428714","imageIndex":4,"items":[{"name":"푸른산장","tel":"02-403-3305","addr":"경기도 하남시 감이동 374-13번지","indutype":"일반휴게음식 - 일반한식","category":"restaurant"}]},{"lat":"37.487686198","long":"127.16184622","imageIndex":4,"items":[{"name":"학암로50커피","tel":"02-443-5065","addr":"경기도 하남시 감이동 374-1번지 1층","indutype":"일반휴게음식 - 서양음식","category":"restaurant"}]}]