[{"lat":"37.482306722","long":"127.48447652","imageIndex":4,"items":[{"name":"7080라이브ok","tel":"031-774-3088","addr":"경기도 양평군 강상면 교평리 468-4번지 2층","indutype":"일반휴게음식 - 일반한식","category":"restaurant"},{"name":"옹기꽃게장","tel":"031-773-5488","addr":"경기도 양평군 강상면 교평리 468-4번지","indutype":"일반휴게음식 - 일반한식","category":"restaurant"}]},{"lat":"37.474855976","long":"127.48437219","imageIndex":4,"items":[{"name":"Drip85'c","tel":"02-1577-0000","addr":"경기도 양평군 강상면 교평리 641-1번지 1층","indutype":"일반휴게음식 - 서양음식","category":"restaurant"}]},{"lat":"37.482612589","long":"127.48459155","imageIndex":4,"items":[{"name":"강남까페","tel":"031-774-9992","addr":"경기도 양평군 강상면 교평리 449-8번지","indutype":"일반휴게음식 - 서양음식","category":"restaurant"}]},{"lat":"37.478553729","long":"127.48567343","imageIndex":4,"items":[{"name":"강남주꾸미보리밥","tel":"031-772-4771","addr":"경기도 양평군 강상면 교평리 477-5번지","indutype":"일반휴게음식 - 일반한식","category":"restaurant"},{"name":"계절밥상","tel":"031-772-3118","addr":"경기도 양평군 강상면 교평리 477-5번지","indutype":"일반휴게음식 - 일반한식","category":"restaurant"},{"name":"계절밥상","tel":"031-772-3118","addr":"경기도 양평군 강상면 교평리 477-5번지","indutype":"일반휴게음식 - 일반한식","category":"restaurant"},{"name":"늘봄식당","tel":"031-771-5360","addr":"경기도 양평군 강상면 교평리 477-5번지 1층","indutype":"일반휴게음식 - 일반한식","category":"restaurant"},{"name":"다영이네냉면집","tel":"031-3202-8724","addr":"경기도 양평군 강상면 교평리 477-5번지 다영이네냉면집","indutype":"일반휴게음식 - 일반한식","category":"restaurant"}]},{"lat":"37.482774302","long":"127.48470565","imageIndex":4,"items":[{"name":"강변식당","tel":"031-772-1469","addr":"경기도 양평군 강상면 교평리 449-3번지","indutype":"일반휴게음식 - 일반한식","category":"restaurant"}]},{"lat":"37.479086083","long":"127.48548466","imageIndex":4,"items":[{"name":"강상반점","tel":"031-775-8090","addr":"경기도 양평군 강상면 교평리 477-6번지","indutype":"일반휴게음식 - 중국식","category":"restaurant"},{"name":"강상밥집","tel":"031-775-6113","addr":"경기도 양평군 강상면 교평리 477-6번지 1층","indutype":"일반휴게음식 - 일반한식","category":"restaurant"}]},{"lat":"37.483358591","long":"127.48503728","imageIndex":4,"items":[{"name":"공원숯불구이","tel":"031-771-9392","addr":"경기도 양평군 강상면 교평리 465-3번지","indutype":"일반휴게음식 - 일반한식","category":"restaurant"},{"name":"공원숯불구이","tel":"031-771-9392","addr":"경기도 양평군 강상면 교평리 465-3번지","indutype":"일반휴게음식 - 일반한식","category":"restaurant"},{"name":"어도","tel":"031-774-8012","addr":"경기도 양평군 강상면 교평리 465-3번지","indutype":"일반휴게음식 - 일반한식","category":"restaurant"}]},{"lat":"37.485995379","long":"127.48136828","imageIndex":4,"items":[{"name":"너울목","tel":"031-775-4010","addr":"경기도 양평군 강상면 교평리 404-4번지","indutype":"일반휴게음식 - 일반한식","category":"restaurant"}]},{"lat":"37.47693948","long":"127.49042254","imageIndex":4,"items":[{"name":"다원","tel":"031-0000-0000","addr":"경기도 양평군 강상면 교평리 278-2번지","indutype":"일반휴게음식 - 일반한식","category":"restaurant"}]},{"lat":"37.4830792","long":"127.48505809","imageIndex":4,"items":[{"name":"대박감자탕","tel":"031-772-2333","addr":"경기도 양평군 강상면 교평리 465-4번지","indutype":"일반휴게음식 - 일반한식","category":"restaurant"},{"name":"왕창순대국 뼈해장국","tel":"031-772-2333","addr":"경기도 양평군 강상면 교평리 465-4번지 1층","indutype":"일반휴게음식 - 일반한식","category":"restaurant"}]},{"lat":"37.482944701","long":"127.48489894","imageIndex":4,"items":[{"name":"대원정육점식당","tel":"031-771-5589","addr":"경기도 양평군 강상면 교평리 453-4번지","indutype":"일반휴게음식 - 일반한식","category":"restaurant"},{"name":"천서리마을막국수","tel":"031-771-9998","addr":"경기도 양평군 강상면 교평리 453-4번지","indutype":"일반휴게음식 - 일반한식","category":"restaurant"}]},{"lat":"37.482331584","long":"127.48500807","imageIndex":4,"items":[{"name":"마니커","tel":"031-775-9282","addr":"경기도 양평군 강상면 교평리 449-6번지","indutype":"일반휴게음식 - 일반한식","category":"restaurant"}]},{"lat":"37.473471132","long":"127.48592335","imageIndex":4,"items":[{"name":"모들","tel":"031-772-4040","addr":"경기도 양평군 강상면 교평리 669-6번지 가동 1층","indutype":"일반휴게음식 - 서양음식","category":"restaurant"}]},{"lat":"37.478308065","long":"127.48625973","imageIndex":4,"items":[{"name":"바다목장","tel":"031-771-7225","addr":"경기도 양평군 강상면 교평리 562-1번지","indutype":"일반휴게음식 - 일반한식","category":"restaurant"}]},{"lat":"37.477696519","long":"127.48598446","imageIndex":4,"items":[{"name":"선희칼국수","tel":"031-771-3209","addr":"경기도 양평군 강상면 교평리 563-2번지","indutype":"일반휴게음식 - 일반한식","category":"restaurant"},{"name":"옛날추어탕","tel":"031-775-8785","addr":"경기도 양평군 강상면 교평리 563-2번지","indutype":"일반휴게음식 - 일반한식","category":"restaurant"},{"name":"커피가든뜰","tel":"031-774-6565","addr":"경기도 양평군 강상면 교평리 563-2번지 1층","indutype":"일반휴게음식 - 서양음식","category":"restaurant"}]},{"lat":"37.477747987","long":"127.48661789","imageIndex":4,"items":[{"name":"안동본가국밥양평강상점","tel":"031-773-6696","addr":"경기도 양평군 강상면 교평리 295-7번지 1층","indutype":"일반휴게음식 - 일반한식","category":"restaurant"}]},{"lat":"37.48035898","long":"127.48487103","imageIndex":4,"items":[{"name":"양평등갈비","tel":"031-771-1333","addr":"경기도 양평군 강상면 교평리 480-2번지","indutype":"일반휴게음식 - 일반한식","category":"restaurant"}]},{"lat":"37.485805718","long":"127.48148013","imageIndex":4,"items":[{"name":"와우쌈밥사랑곱도리","tel":"031-772-8949","addr":"경기도 양평군 강상면 교평리 404-7번지 1층","indutype":"일반휴게음식 - 일반한식","category":"restaurant"}]},{"lat":"37.476500591","long":"127.4854002","imageIndex":4,"items":[{"name":"장수민물장어","tel":"031-774-9888","addr":"경기도 양평군 강상면 교평리 580-2번지","indutype":"일반휴게음식 - 일반한식","category":"restaurant"}]},{"lat":"37.4816919","long":"127.48500396","imageIndex":4,"items":[{"name":"제이하우스커피","tel":"031-772-6844","addr":"경기도 양평군 강상면 교평리 469-1번지 1층","indutype":"일반휴게음식 - 서양음식","category":"restaurant"}]},{"lat":"37.482663233","long":"127.48542852","imageIndex":4,"items":[{"name":"한강식당","tel":"031-771-2396","addr":"경기도 양평군 강상면 교평리 465-19번지","indutype":"일반휴게음식 - 일반한식","category":"restaurant"}]}]