[{"lat":"37.530781959","long":"126.78299395","imageIndex":16,"items":[{"name":"Joy(조이)음악교습소","tel":"032-672-0047","addr":"경기도 부천시 오정동 717번지 오정생활휴먼시아1단지 상가동 205호","indutype":"학원 - 예·체능계학원","category":"study"}]},{"lat":"37.529787247","long":"126.78590438","imageIndex":16,"items":[{"name":"YBM(와이비엠)시사영어수학보습학원","tel":"032-678-9106","addr":"경기도 부천시 오정동 725번지 오정프라자 302호","indutype":"회원제형태 - 학원","category":"study"},{"name":"아이엘무용학원","tel":"031-676-1611","addr":"경기도 부천시 오정동 725번지 오정프라자 4층 404호","indutype":"학원 - 예·체능계학원","category":"study"},{"name":"이해법수학영어보습학원","tel":"032-673-5255","addr":"경기도 부천시 오정동 725번지 오정프라자 3층 301호","indutype":"학원 - 보습학원","category":"study"}]},{"lat":"37.527671453","long":"126.78673635","imageIndex":16,"items":[{"name":"가람보습학원","tel":"032-675-7775","addr":"경기도 부천시 오정동 558-5번지","indutype":"학원 - 보습학원","category":"study"},{"name":"드림음악학원","tel":"032-675-7770","addr":"경기도 부천시 오정동 558-5번지 2층","indutype":"학원 - 예·체능계학원","category":"study"}]},{"lat":"37.523814583","long":"126.78638549","imageIndex":16,"items":[{"name":"경희TEMPLE어학원","tel":"032-674-0012","addr":"경기도 부천시 오정동 612번지 3층","indutype":"회원제형태 - 학원","category":"study"}]},{"lat":"37.529506819","long":"126.78529428","imageIndex":16,"items":[{"name":"경희대석사 샛별태권도","tel":"032-678-2234","addr":"경기도 부천시 오정동 216-1번지 썬프라자 302호","indutype":"학원 - 예·체능계학원","category":"study"},{"name":"오정능력보습학원","tel":"032-684-3473","addr":"경기도 부천시 오정동 216-1번지 썬프라자 401,402호","indutype":"학원 - 보습학원","category":"study"}]},{"lat":"37.529482034","long":"126.78651618","imageIndex":16,"items":[{"name":"경희대정훈태권도","tel":"032-677-1484","addr":"경기도 부천시 오정동 543번지 신오빌딩 1동 401호","indutype":"학원 - 예·체능계학원","category":"study"},{"name":"에스제이(SJ)음악학원","tel":"032-672-7767","addr":"경기도 부천시 오정동 543번지 신오빌딩 2층 204호","indutype":"회원제형태 - 학원","category":"study"}]},{"lat":"37.531005212","long":"126.78679462","imageIndex":16,"items":[{"name":"꿈꾸는다빈치미술교습소","tel":"032-620-0195","addr":"경기도 부천시 오정동 726 휴먼시아상가2층 203","indutype":"학원 - 예·체능계학원","category":"study"}]},{"lat":"37.527588538","long":"126.78574105","imageIndex":16,"items":[{"name":"꿈의공작소미술교습소","tel":"032-289-2892","addr":"경기도 부천시 오정동 574-8번지 1층","indutype":"학원 - 예·체능계학원","category":"study"}]},{"lat":"37.530593503","long":"126.78830048","imageIndex":16,"items":[{"name":"더중앙미술어학원","tel":"032-672-6656","addr":"경기도 부천시 오정동 112-4번지 3층","indutype":"학원 - 예·체능계학원","category":"study"}]},{"lat":"37.527090205","long":"126.79935188","imageIndex":16,"items":[{"name":"도연해법영어보습학원","tel":"032-673-6516","addr":"경기도 부천시 오정동 137-5번지 3층","indutype":"학원 - 보습학원","category":"study"},{"name":"일출피아노학원","tel":"032-681-0868","addr":"경기도 부천시 오정동 137-5번지 2층","indutype":"학원 - 예·체능계학원","category":"study"}]},{"lat":"37.527838205","long":"126.78432621","imageIndex":16,"items":[{"name":"두드림독서실","tel":"032-674-7880","addr":"경기도 부천시 오정동 576-4번지 3층","indutype":"학원 - 독서실","category":"study"}]},{"lat":"37.525255035","long":"126.78577044","imageIndex":16,"items":[{"name":"라임음악학원","tel":"032-671-0760","addr":"경기도 부천시 오정동 583-11번지 2층","indutype":"학원 - 예·체능계학원","category":"study"}]},{"lat":"37.529897417","long":"126.78702408","imageIndex":16,"items":[{"name":"부천숭무관","tel":"032-677-5753","addr":"경기도 부천시 오정동 177-9번지 세종프라자 301동 302호","indutype":"학원 - 예·체능계학원","category":"study"},{"name":"오정비타민독서실","tel":"032-677-0661","addr":"경기도 부천시 오정동 177-9번지 3층 301호, 302호","indutype":"학원 - 독서실","category":"study"}]},{"lat":"37.529008267","long":"126.78857654","imageIndex":16,"items":[{"name":"삼성태권도장","tel":"032-677-9320","addr":"경기도 부천시 오정동 546-5번지 세종빌딩 2층","indutype":"학원 - 예·체능계학원","category":"study"}]},{"lat":"37.529062121","long":"126.78846326","imageIndex":16,"items":[{"name":"샤인음악학원","tel":"032-676-2046","addr":"경기도 부천시 오정동 546-7번지 2층","indutype":"학원 - 예·체능계학원","category":"study"},{"name":"애플음악학원","tel":"032-683-1539","addr":"경기도 부천시 오정동 546-7번지","indutype":"학원 - 예·체능계학원","category":"study"},{"name":"오성보습학원","tel":"070-4119-5315","addr":"경기도 부천시 오정동 546-7번지 세일빌딩 3층 4층 ,","indutype":"학원 - 보습학원","category":"study"}]},{"lat":"37.528588056","long":"126.79037653","imageIndex":16,"items":[{"name":"아름소리음악학원","tel":"032-682-1824","addr":"경기도 부천시 오정동 114-54번지 덕산빌딩 3층","indutype":"학원 - 예·체능계학원","category":"study"}]},{"lat":"37.5292864","long":"126.78793089","imageIndex":16,"items":[{"name":"야호블럭","tel":"032-672-2674","addr":"경기도 부천시 오정동 545-3번지 1동 2층","indutype":"학원 - 기타 교육기관","category":"study"}]},{"lat":"37.535558302","long":"126.77879369","imageIndex":16,"items":[{"name":"여월비젼보습학원","tel":"032-681-1605","addr":"경기도 부천시 오정동 334-1여월프라자602","indutype":"학원 - 보습학원","category":"study"}]},{"lat":"37.526956267","long":"126.78488311","imageIndex":16,"items":[{"name":"열린음악학원","tel":"032-681-9478","addr":"경기도 부천시 오정동 579-11번지 3층","indutype":"학원 - 예·체능계학원","category":"study"}]},{"lat":"37.527646014","long":"126.78760753","imageIndex":16,"items":[{"name":"이엠러닝센타보습학원","tel":"032-671-7148","addr":"경기도 부천시 오정동 559-10번지 맨스타빌딩 2층","indutype":"학원 - 보습학원","category":"study"}]},{"lat":"37.525588191","long":"126.78565635","imageIndex":16,"items":[{"name":"인하코리아 태권도","tel":"","addr":"경기도 부천시 오정동 582-3번지 2층","indutype":"학원 - 예·체능계학원","category":"study"},{"name":"충호태권도체육관","tel":"032-677-7145","addr":"경기도 부천시 오정동 582-3번지","indutype":"회원제형태 - 학원","category":"study"}]},{"lat":"37.529591228","long":"126.78710415","imageIndex":16,"items":[{"name":"정우보습학원","tel":"032-672-4525","addr":"경기도 부천시 오정동 192-7,10,13(2,3층)","indutype":"학원 - 보습학원","category":"study"}]},{"lat":"37.530313025","long":"126.78765643","imageIndex":16,"items":[{"name":"최선생고등영어교습소","tel":"032-678-0085","addr":"경기도 부천시 오정동 181-8번지 오정동우체국 201호","indutype":"학원 - 외국어학원","category":"study"},{"name":"톱독서실","tel":"032-676-1042","addr":"경기도 부천시 오정동 181-8,9","indutype":"학원 - 독서실","category":"study"},{"name":"패턴스터디오정캠퍼스보습학원","tel":"032-679-2222","addr":"경기도 부천시 오정동 181-8번지 오정우체국빌딩 5층","indutype":"학원 - 보습학원","category":"study"}]},{"lat":"37.52456669","long":"126.77901888","imageIndex":16,"items":[{"name":"하이피","tel":"02-111-1111","addr":"경기도 부천시 오정동 599-7번지 3층","indutype":"학원 - 예·체능계학원","category":"study"}]},{"lat":"37.526007091","long":"126.78318897","imageIndex":16,"items":[{"name":"한국서비스인재양성연구소","tel":"050-4401-8947","addr":"경기도 부천시 오정동 590-32번지 오정의아침 101동 501호","indutype":"학원 - 기타 교육기관","category":"study"}]},{"lat":"37.535425379","long":"126.76163056","imageIndex":16,"items":[{"name":"합기도국술관대전본관","tel":"042-635-3759","addr":"경기도 부천시 오정동 489-3","indutype":"학원 - 예·체능계학원","category":"study"}]}]