[{"lat":"37.47160753","long":"127.336964","imageIndex":4,"items":[{"name":"Angel-in-us Coffee/동서울골프클럽커피숍","tel":"070-4922-3281","addr":"경기도 광주시 퇴촌면 도수리 179-11번지","indutype":"일반휴게음식 - 서양음식","category":"restaurant"}]},{"lat":"37.4720476","long":"127.3143908","imageIndex":4,"items":[{"name":"Tea Break(티브레이크)","tel":"","addr":"경기도 광주시 퇴촌면 도수리 618-2번지 1층","indutype":"일반휴게음식 - 서양음식","category":"restaurant"},{"name":"오백국수 퇴촌점","tel":"031-769-7080","addr":"경기도 광주시 퇴촌면 도수리 618-2번지 104호","indutype":"일반휴게음식 - 스넥","category":"restaurant"}]},{"lat":"37.47238816","long":"127.3150818","imageIndex":4,"items":[{"name":"구띠에커피 퇴촌점","tel":"031-765-7072","addr":"경기도 광주시 퇴촌면 도수리 618-17","indutype":"일반휴게음식 - 서양음식","category":"restaurant"},{"name":"스시사랑","tel":"031-765-7177","addr":"경기도 광주시 퇴촌면 도수리 618-17번지","indutype":"일반휴게음식 - 일식·회집","category":"restaurant"},{"name":"족세상","tel":"","addr":"경기도 광주시 퇴촌면 도수리 618-17번지 1층","indutype":"일반휴게음식 - 일반한식","category":"restaurant"}]},{"lat":"37.47157587","long":"127.3156097","imageIndex":4,"items":[{"name":"꿉자","tel":"031-766-2820","addr":"경기도 광주시 퇴촌면 도수리 611-6번지","indutype":"일반휴게음식 - 서양음식","category":"restaurant"},{"name":"오다가다","tel":"031-797-0711","addr":"경기도 광주시 퇴촌면 도수리 611-6번지 1층 108호","indutype":"일반휴게음식 - 일반한식","category":"restaurant"}]},{"lat":"37.47038738","long":"127.3152995","imageIndex":4,"items":[{"name":"다이꼬지","tel":"","addr":"경기도 광주시 퇴촌면 도수리 345-13번지 1층","indutype":"일반휴게음식 - 일식·회집","category":"restaurant"},{"name":"알리바바커피(퇴촌점)","tel":"031-111-1111","addr":"경기도 광주시 퇴촌면 도수리 345-13번지","indutype":"일반휴게음식 - 서양음식","category":"restaurant"}]},{"lat":"37.47485676","long":"127.3444397","imageIndex":4,"items":[{"name":"도둑냉면","tel":"031-111-1111","addr":"경기도 광주시 퇴촌면 도수리 122-3번지 B동 1층","indutype":"일반휴게음식 - 일반한식","category":"restaurant"}]},{"lat":"37.47302598","long":"127.3089121","imageIndex":4,"items":[{"name":"디디파크카페","tel":"031-000-0000","addr":"경기도 광주시 퇴촌면 도수리 674-1번지","indutype":"일반휴게음식 - 서양음식","category":"restaurant"}]},{"lat":"37.47201992","long":"127.3146394","imageIndex":4,"items":[{"name":"떡뽀이비어 퇴촌점","tel":"031-761-1597","addr":"경기도 광주시 퇴촌면 도수리 618-23번지 1층","indutype":"일반휴게음식 - 일반한식","category":"restaurant"}]},{"lat":"37.47227219","long":"127.3146404","imageIndex":4,"items":[{"name":"라체나","tel":"031-798-7981","addr":"경기도 광주시 퇴촌면 도수리 618-22번지 1층 102호 (만사르다)","indutype":"일반휴게음식 - 서양음식","category":"restaurant"}]},{"lat":"37.47011132","long":"127.3174688","imageIndex":4,"items":[{"name":"마이키친","tel":"031-765-9950","addr":"경기도 광주시 퇴촌면 도수리 350번지 1층","indutype":"일반휴게음식 - 서양음식","category":"restaurant"}]},{"lat":"37.469298","long":"127.318381","imageIndex":4,"items":[{"name":"마카마카마카롱","tel":"02-511-8398","addr":"경기도 광주시 퇴촌면 도수리 382-9번지","indutype":"일반휴게음식 - 서양음식","category":"restaurant"}]},{"lat":"37.46752118","long":"127.3190744","imageIndex":4,"items":[{"name":"버거마마","tel":"031-765-1562","addr":"경기도 광주시 퇴촌면 도수리 331-1번지 1층","indutype":"일반휴게음식 - 일반한식","category":"restaurant"}]},{"lat":"37.47166048","long":"127.3142761","imageIndex":4,"items":[{"name":"별미","tel":"031-769-6565","addr":"경기도 광주시 퇴촌면 도수리 615-6번지","indutype":"일반휴게음식 - 일반한식","category":"restaurant"}]},{"lat":"37.47216291","long":"127.3150808","imageIndex":4,"items":[{"name":"복돼지네생삼겹","tel":"031-767-0125","addr":"경기도 광주시 퇴촌면 도수리 618-8번지 1층","indutype":"일반휴게음식 - 일반한식","category":"restaurant"},{"name":"왕돈까스&잔치국수","tel":"031-769-8843","addr":"경기도 광주시 퇴촌면 도수리 618-8번지 1층","indutype":"일반휴게음식 - 일반한식","category":"restaurant"},{"name":"치킨더홈","tel":"031-764-9978","addr":"경기도 광주시 퇴촌면 도수리 618-8번지 1층 104호","indutype":"일반휴게음식 - 스넥","category":"restaurant"}]},{"lat":"37.47780175","long":"127.3510442","imageIndex":4,"items":[{"name":"쇠뫼기","tel":"031-765-6569","addr":"경기도 광주시 퇴촌면 도수리 93번지","indutype":"일반휴게음식 - 일반한식","category":"restaurant"}]},{"lat":"37.47116097","long":"127.3157775","imageIndex":4,"items":[{"name":"일라이(ELY)","tel":"031-768-1111","addr":"경기도 광주시 퇴촌면 도수리 354-1번지 2층","indutype":"일반휴게음식 - 서양음식","category":"restaurant"}]},{"lat":"37.47282955","long":"127.3082217","imageIndex":4,"items":[{"name":"장어천국","tel":"031-797-0722","addr":"경기도 광주시 퇴촌면 도수리 676-6번지 1층","indutype":"일반휴게음식 - 일반한식","category":"restaurant"}]},{"lat":"37.46647098","long":"127.3275817","imageIndex":4,"items":[{"name":"전주곰탕","tel":"031-765-3936","addr":"경기도 광주시 퇴촌면 도수리 281-2번지","indutype":"일반휴게음식 - 일반한식","category":"restaurant"}]},{"lat":"37.46988133","long":"127.3158626","imageIndex":4,"items":[{"name":"조개칼국수","tel":"031-765-7446","addr":"경기도 광주시 퇴촌면 도수리 345번지","indutype":"일반휴게음식 - 일반한식","category":"restaurant"}]},{"lat":"37.47004917","long":"127.3336336","imageIndex":4,"items":[{"name":"짝고기촌","tel":"031-768-6161","addr":"경기도 광주시 퇴촌면 도수리 275-5","indutype":"일반휴게음식 - 일반한식","category":"restaurant"},{"name":"카페마노 (MANO)","tel":"031-8028-1411","addr":"경기도 광주시 퇴촌면 도수리 275-5번지 1층","indutype":"일반휴게음식 - 서양음식","category":"restaurant"},{"name":"허브애향기","tel":"031-764-1598","addr":"경기도 광주시 퇴촌면 도수리 275-5번지","indutype":"일반휴게음식 - 서양음식","category":"restaurant"}]},{"lat":"37.46905185","long":"127.3326345","imageIndex":4,"items":[{"name":"카페바안","tel":"070-4118-6546","addr":"경기도 광주시 퇴촌면 도수리 275-20번지","indutype":"일반휴게음식 - 서양음식","category":"restaurant"}]},{"lat":"37.47752414","long":"127.3504663","imageIndex":4,"items":[{"name":"퇴촌갈비밥","tel":"031-797-2036","addr":"경기도 광주시 퇴촌면 도수리 90-1번지","indutype":"일반휴게음식 - 일반한식","category":"restaurant"}]},{"lat":"37.47088136","long":"127.3158894","imageIndex":4,"items":[{"name":"퇴촌부뚜막","tel":"031-767-0669","addr":"경기도 광주시 퇴촌면 도수리 354-3번지","indutype":"일반휴게음식 - 일반한식","category":"restaurant"}]},{"lat":"37.46780106","long":"127.3188608","imageIndex":4,"items":[{"name":"퇴촌전통순대국","tel":"031-767-7070","addr":"경기도 광주시 퇴촌면 도수리 331-2번지","indutype":"일반휴게음식 - 일반한식","category":"restaurant"}]},{"lat":"37.47008023","long":"127.3156035","imageIndex":4,"items":[{"name":"퇴촌짬뽕집","tel":"031-765-5554","addr":"경기도 광주시 퇴촌면 도수리 345-2번지","indutype":"일반휴게음식 - 중국식","category":"restaurant"}]},{"lat":"37.47243838","long":"127.3096671","imageIndex":4,"items":[{"name":"퇴촌푸른집","tel":"031-767-2068","addr":"경기도 광주시 퇴촌면 도수리 643번지","indutype":"일반휴게음식 - 일반한식","category":"restaurant"}]},{"lat":"37.47260451","long":"127.3081416","imageIndex":4,"items":[{"name":"퇴촌하누가","tel":"031-111-1111","addr":"경기도 광주시 퇴촌면 도수리 678번지","indutype":"일반휴게음식 - 일반한식","category":"restaurant"}]},{"lat":"37.47041624","long":"127.3180014","imageIndex":4,"items":[{"name":"퇴촌흑염소해장국","tel":"031-768-9090","addr":"경기도 광주시 퇴촌면 도수리 358-4번지","indutype":"일반휴게음식 - 일반한식","category":"restaurant"}]},{"lat":"37.47632737","long":"127.3499407","imageIndex":4,"items":[{"name":"포레861","tel":"031-798-0735","addr":"경기도 광주시 퇴촌면 도수리 86-1번지","indutype":"일반휴게음식 - 서양음식","category":"restaurant"}]},{"lat":"37.47035385","long":"127.3342228","imageIndex":4,"items":[{"name":"항아리동치미국수","tel":"031-768-6868","addr":"경기도 광주시 퇴촌면 도수리 275-30번지","indutype":"일반휴게음식 - 일반한식","category":"restaurant"},{"name":"항아리동치미국수","tel":"031-768-6868","addr":"경기도 광주시 퇴촌면 도수리 275-30번지","indutype":"일반휴게음식 - 일반한식","category":"restaurant"}]},{"lat":"37.47021574","long":"127.3154684","imageIndex":4,"items":[{"name":"홍성애진막국수","tel":"031-766-2186","addr":"경기도 광주시 퇴촌면 도수리 345-3번지","indutype":"일반휴게음식 - 일반한식","category":"restaurant"}]},{"lat":"37.47419515","long":"127.3426618","imageIndex":4,"items":[{"name":"홍천숯불구이","tel":"031-765-0083","addr":"경기도 광주시 퇴촌면 도수리 168번지","indutype":"일반휴게음식 - 일반한식","category":"restaurant"}]},{"lat":"37.47541601","long":"127.3473251","imageIndex":4,"items":[{"name":"화로장작구이","tel":"031-767-1710","addr":"경기도 광주시 퇴촌면 도수리 122-2번지","indutype":"일반휴게음식 - 일반한식","category":"restaurant"}]}]