[{"lat":"37.087566876","long":"127.17560572","imageIndex":7,"items":[{"name":"(주)케이엔푸드","tel":"031-336-6533","addr":"경기도 용인시 처인구 남사면 원암리21-2","indutype":"음료식품 - 농·축·수산품","category":"food"}]},{"lat":"37.147808676","long":"127.18912616","imageIndex":7,"items":[{"name":"TS푸드","tel":"031-321-5574","addr":"경기도 용인시 처인구 남사면 창리 276-1","indutype":"음료식품 - 농·축·수산품","category":"food"}]},{"lat":"37.152836392","long":"127.17112748","imageIndex":7,"items":[{"name":"꽃미남푸줏간","tel":"031-333-2639","addr":"경기도 용인시 처인구 남사면 아곡리 701번지 103호","indutype":"음료식품 - 정육점","category":"food"},{"name":"순수떡","tel":"031-323-0665","addr":"경기도 용인시 처인구 남사면 아곡리 701번지 아곡프라자 1층 103호","indutype":"음료식품 - 제과점","category":"food"},{"name":"파리바게트한숲시티점/(주) 삼주산업","tel":"031-338-0445","addr":"경기도 용인시 처인구 남사면 아곡리 701번지","indutype":"음료식품 - 제과점","category":"food"}]},{"lat":"37.138676885","long":"127.16760714","imageIndex":7,"items":[{"name":"남곡건강원","tel":"031-332-3904","addr":"경기도 용인시 처인구 남사면 아곡리 538-3번지","indutype":"건강식품 - 기타건강식품","category":"food"}]},{"lat":"37.139010271","long":"127.16760786","imageIndex":7,"items":[{"name":"남곡떡,고추방앗간","tel":"031-332-6139","addr":"경기도 용인시 처인구 남사면 아곡리 549-10","indutype":"음료식품 - 제과점","category":"food"}]},{"lat":"37.139424752","long":"127.16760876","imageIndex":7,"items":[{"name":"남곡정육점","tel":"031-334-6729","addr":"경기도 용인시 처인구 남사면 아곡리 513-1번지","indutype":"음료식품 - 정육점","category":"food"}]},{"lat":"37.102479566","long":"127.14104758","imageIndex":7,"items":[{"name":"남사방앗간","tel":"031-332-7666","addr":"경기도 용인시 처인구 남사면 진목리 21-1번지","indutype":"음료식품 - 제과점","category":"food"}]},{"lat":"37.141280528","long":"127.16788291","imageIndex":7,"items":[{"name":"남사수산","tel":"031-321-9295","addr":"경기도 용인시 처인구 남사면 아곡리 462-2번지 1층","indutype":"음료식품 - 농·축·수산품","category":"food"}]},{"lat":"37.1527567","long":"127.1701367","imageIndex":7,"items":[{"name":"남사수산","tel":"031-322-0181","addr":"경기도 용인시 처인구 남사면 아곡리 694번지 141-2호(한숲스퀘어엘로우)","indutype":"음료식품 - 농·축·수산품","category":"food"},{"name":"블럭제빵소용인한숲시티점","tel":"031-336-3340","addr":"경기도 용인시 처인구 남사면 아곡리 694번지 134호 한숲스퀘어옐로우","indutype":"음료식품 - 제과점","category":"food"},{"name":"오얏골농원","tel":"","addr":"경기도 용인시 처인구 남사면 아곡리 694번지 한숲스퀘어(옐로우) 1층 118호","indutype":"음료식품 - 농·축·수산품","category":"food"},{"name":"정성가득찬","tel":"031-339-8799","addr":"경기도 용인시 처인구 남사면 아곡리 694번지 4층 421호(한숲스퀘이옐로우)","indutype":"음료식품 - 기타음료식품","category":"food"},{"name":"픽미픽미아이스용인한숲시티점","tel":"","addr":"경기도 용인시 처인구 남사면 아곡리 694번지 141호","indutype":"음료식품 - 기타음료식품","category":"food"}]},{"lat":"37.112588414","long":"127.14935787","imageIndex":7,"items":[{"name":"남사한우도매집","tel":"031-339-6319","addr":"경기도 용인시 처인구 남사면 봉무리 661-27번지","indutype":"음료식품 - 정육점","category":"food"}]},{"lat":"37.171777602","long":"127.18254174","imageIndex":7,"items":[{"name":"농업회사법인(주)남사농원","tel":"031-332-6833","addr":"경기도 용인시 처인구 남사면 완장리 177번지","indutype":"음료식품 - 농·축·수산품","category":"food"}]},{"lat":"37.129006918","long":"127.13272328","imageIndex":7,"items":[{"name":"농업회사법인그린투모로우(주)","tel":"031-370-5271","addr":"경기도 용인시 처인구 남사면 통삼리 492","indutype":"음료식품 - 농·축·수산품","category":"food"}]},{"lat":"37.153196089","long":"127.17163484","imageIndex":7,"items":[{"name":"더 달달","tel":"","addr":"경기도 용인시 처인구 남사면 아곡리 698번지 213-1호","indutype":"음료식품 - 제과점","category":"food"}]},{"lat":"37.15453595","long":"127.17351775","imageIndex":7,"items":[{"name":"던킨도넛츠 용인한숲시티점","tel":"031-321-4662","addr":"경기도 용인시 처인구 남사면 완장리 954번지 e편한세상용인한숲시티 6단지 1층 120호,121호","indutype":"음료식품 - 제과점","category":"food"},{"name":"던킨도넛츠(용인한숲시티점)","tel":"031-321-4662","addr":"경기도 용인시 처인구 남사면 완장리 954번지 e편한세상용인한숲시티 120,121호","indutype":"음료식품 - 제과점","category":"food"},{"name":"베스킨라빈스 용인한숲시티점","tel":"02-0000-0000","addr":"경기도 용인시 처인구 남사면 완장리 954번지 e편한세상 용인 한숲시티 105호 104호,105호","indutype":"음료식품 - 제과점","category":"food"}]},{"lat":"37.102033394","long":"127.12028044","imageIndex":7,"items":[{"name":"동이","tel":"070-4333-4287","addr":"경기도 용인시 처인구 남사면 진목리 949-22","indutype":"음료식품 - 농·축·수산품","category":"food"}]},{"lat":"37.117120563","long":"127.1761904","imageIndex":7,"items":[{"name":"딸기랑소풍가기좋은날","tel":"071-4105-5024","addr":"경기도 용인시 처인구 남사면 방아리 330-5번지","indutype":"음료식품 - 농·축·수산품","category":"food"}]},{"lat":"37.123868746","long":"127.11735471","imageIndex":7,"items":[{"name":"로뎀","tel":"031-329-0120","addr":"경기도 용인시 처인구 남사면 봉명리 646-2번지","indutype":"음료식품 - 기타음료식품","category":"food"}]},{"lat":"37.136257886","long":"127.13496405","imageIndex":7,"items":[{"name":"물쑤시개","tel":"031-216-1023","addr":"경기도 용인시 처인구 남사면 통삼리 567-1번지","indutype":"음료식품 - 기타음료식품","category":"food"}]},{"lat":"37.151616435","long":"127.13877301","imageIndex":7,"items":[{"name":"미담푸드","tel":"031-332-3592","addr":"경기도 용인시 처인구 남사면 북리749-1","indutype":"음료식품 - 제과점","category":"food"}]},{"lat":"37.140010055","long":"127.16788015","imageIndex":7,"items":[{"name":"쁘띠아이스크림","tel":"02-1111-1111","addr":"경기도 용인시 처인구 남사면 아곡리 513-8번지 104호","indutype":"음료식품 - 기타음료식품","category":"food"},{"name":"쁘띠프루츠 한숲시티점","tel":"02-1111-1111","addr":"경기도 용인시 처인구 남사면 아곡리 513-8번지 104호","indutype":"음료식품 - 농·축·수산품","category":"food"}]},{"lat":"37.14653529","long":"127.13811107","imageIndex":7,"items":[{"name":"쉐프파트너 주식회사","tel":"031-323-5785","addr":"경기도 용인시 처인구 남사면 북리 685번지 1층","indutype":"음료식품 - 정육점","category":"food"}]},{"lat":"37.154780522","long":"127.19615647","imageIndex":7,"items":[{"name":"신제일농장","tel":"031-373-9491","addr":"경기도 용인시 처인구 남사면 창리 20번지","indutype":"음료식품 - 농·축·수산품","category":"food"}]},{"lat":"37.114566917","long":"127.15241076","imageIndex":7,"items":[{"name":"엠마뉴엘떡집","tel":"031-332-6418","addr":"경기도 용인시 처인구 남사면 봉무리 449-1","indutype":"음료식품 - 제과점","category":"food"}]},{"lat":"37.139587908","long":"127.16691131","imageIndex":7,"items":[{"name":"영농조합법인함봉산양삼","tel":"031-334-3545","addr":"경기도 용인시 처인구 남사면 아곡리 441-11","indutype":"건강식품 - 인삼제품","category":"food"}]},{"lat":"37.113340779","long":"127.1529709","imageIndex":7,"items":[{"name":"예찬축산도소매센터","tel":"031-323-1265","addr":"경기도 용인시 처인구 남사면 봉무리 631-8번지","indutype":"음료식품 - 정육점","category":"food"}]},{"lat":"37.116763065","long":"127.16121379","imageIndex":7,"items":[{"name":"용인솥짓말식품영농조합법인","tel":"031-332-7693","addr":"경기도 용인시 처인구 남사면 방아리500","indutype":"음료식품 - 기타음료식품","category":"food"}]},{"lat":"37.163528378","long":"127.17966257","imageIndex":7,"items":[{"name":"용인자라농장","tel":"031-334-7998","addr":"경기도 용인시 처인구 남사면 완장리 526-2번지","indutype":"건강식품 - 기타건강식품","category":"food"}]},{"lat":"37.139924003","long":"127.16494241","imageIndex":7,"items":[{"name":"우리식품","tel":"031-000-0000","addr":"경기도 용인시 처인구 남사면 아곡리 439-31번지","indutype":"음료식품 - 기타음료식품","category":"food"}]},{"lat":"37.156198348","long":"127.17038068","imageIndex":7,"items":[{"name":"윤가우돈","tel":"031-333-5226","addr":"경기도 용인시 처인구 남사면 아곡리 681번지 e편한세상용인한숲시티 119호","indutype":"음료식품 - 정육점","category":"food"},{"name":"파리바게트용인한숲스트릿점","tel":"02-0000-0000","addr":"경기도 용인시 처인구 남사면 아곡리 681번지 e편한세상용인한숲시티 1층","indutype":"음료식품 - 제과점","category":"food"}]},{"lat":"37.114674944","long":"127.15248973","imageIndex":7,"items":[{"name":"임마뉴엘제분소","tel":"031-332-6844","addr":"경기도 용인시 처인구 남사면 봉무리 449-8번지","indutype":"음료식품 - 기타음료식품","category":"food"}]},{"lat":"37.117647185","long":"127.13040854","imageIndex":7,"items":[{"name":"임팩트커피","tel":"0507-1349-2310","addr":"경기도 용인시 처인구 남사면 봉명리 249-3번지 1층 5호","indutype":"음료식품 - 기타음료식품","category":"food"}]},{"lat":"37.148561873","long":"127.13068555","imageIndex":7,"items":[{"name":"전통호두과자천안당","tel":"031-322-7080","addr":"경기도 용인시 처인구 남사면 통삼리 634-7","indutype":"음료식품 - 제과점","category":"food"},{"name":"전통호두과자천안당","tel":"031-322-7080","addr":"경기도 용인시 처인구 남사면 통삼리 634-7번지 1층","indutype":"음료식품 - 제과점","category":"food"}]},{"lat":"37.144863504","long":"127.1568601","imageIndex":7,"items":[{"name":"정아네","tel":"031-339-3372","addr":"경기도 용인시 처인구 남사면 북리 31-6번지 SCD내","indutype":"음료식품 - 기타음료식품","category":"food"}]},{"lat":"37.173527218","long":"127.18148745","imageIndex":7,"items":[{"name":"정운캐터링(주)","tel":"031-321-9060","addr":"경기도 용인시 처인구 남사면 완장리 159-17번지","indutype":"음료식품 - 기타음료식품","category":"food"}]},{"lat":"37.136782297","long":"127.14879675","imageIndex":7,"items":[{"name":"정원","tel":"031-334-3615","addr":"경기도 용인시 처인구 남사면 봉무리 64-13번지","indutype":"음료식품 - 기타음료식품","category":"food"}]},{"lat":"37.138175764","long":"127.17776905","imageIndex":7,"items":[{"name":"주주푸드","tel":"031-337-0976","addr":"경기도 용인시 처인구 남사면 창리 617-1번지 나동","indutype":"음료식품 - 기타음료식품","category":"food"}]},{"lat":"37.108674131","long":"127.13727871","imageIndex":7,"items":[{"name":"지장농산","tel":"","addr":"경기도 용인시 처인구 남사면 봉명리 54-1번지","indutype":"음료식품 - 기타음료식품","category":"food"}]},{"lat":"37.10250581","long":"127.14172259","imageIndex":7,"items":[{"name":"진목정육점","tel":"031-332-6411","addr":"경기도 용인시 처인구 남사면 진목리 17-8","indutype":"음료식품 - 정육점","category":"food"}]},{"lat":"37.097925478","long":"127.12821573","imageIndex":7,"items":[{"name":"참어진농장","tel":"031-0000-0000","addr":"경기도 용인시 처인구 남사면 진목리 665번지","indutype":"음료식품 - 농·축·수산품","category":"food"}]},{"lat":"37.090508766","long":"127.15941577","imageIndex":7,"items":[{"name":"텃밭한아름 영농조합법인","tel":"031-339-7791","addr":"경기도 용인시 처인구 남사면 원암리137-5","indutype":"음료식품 - 기타음료식품","category":"food"}]},{"lat":"37.09128911","long":"127.14805712","imageIndex":7,"items":[{"name":"표준마트(간이휴게소)","tel":"031-322-5895","addr":"경기도 용인시 처인구 남사면 원암리 195-1","indutype":"음료식품 - 기타음료식품","category":"food"}]},{"lat":"37.099069839","long":"127.12819511","imageIndex":7,"items":[{"name":"해풍농원","tel":"","addr":"경기도 용인시 처인구 남사면 진목리 670번지","indutype":"음료식품 - 농·축·수산품","category":"food"}]},{"lat":"37.114089361","long":"127.15240982","imageIndex":7,"items":[{"name":"행복유통","tel":"031-333-3482","addr":"경기도 용인시 처인구 남사면 봉무리 448-4번지","indutype":"음료식품 - 기타음료식품","category":"food"}]},{"lat":"37.140786886","long":"127.15982318","imageIndex":7,"items":[{"name":"현대 리바트매점","tel":"","addr":"경기도 용인시 처인구 남사면 북리 54-10번지 (주)현대리바트용인본사2창고4층","indutype":"음료식품 - 기타음료식품","category":"food"}]}]