[{"lat":"36.914359873","long":"126.90657693","imageIndex":7,"items":[{"name":"광장마트","tel":"031-662-1633","addr":"경기도 평택시 현덕면 권관리 564-22번지 1층","indutype":"유통업 영리 - 슈퍼마켓","category":"mart"}]},{"lat":"36.919468786","long":"126.91810724","imageIndex":7,"items":[{"name":"그린편의점","tel":"031-682-1978","addr":"경기도 평택시 현덕면 권관리 400번지","indutype":"유통업 영리 - 슈퍼마켓","category":"mart"}]},{"lat":"36.917333378","long":"126.90649464","imageIndex":7,"items":[{"name":"까치네","tel":"031-683-2989","addr":"경기도 평택시 현덕면 권관리 산113-5번지","indutype":"유통업 영리 - 슈퍼마켓","category":"mart"}]},{"lat":"36.918136191","long":"126.90754853","imageIndex":7,"items":[{"name":"믿음슈퍼","tel":"031-682-3608","addr":"경기도 평택시 현덕면 권관리 581번지","indutype":"유통업 영리 - 슈퍼마켓","category":"mart"},{"name":"믿음슈퍼","tel":"034-686-6545","addr":"경기도 평택시 현덕면 권관리 581번지","indutype":"소매업 - 슈퍼","category":"mart"}]},{"lat":"36.920531813","long":"126.90599682","imageIndex":7,"items":[{"name":"이모네","tel":"031-684-5262","addr":"경기도 평택시 현덕면 권관리 633-10번지 1층","indutype":"유통업 영리 - 슈퍼마켓","category":"mart"}]},{"lat":"36.916810504","long":"126.9061923","imageIndex":7,"items":[{"name":"평택편의점낚시","tel":"070-4239-6987","addr":"경기도 평택시 현덕면 권관리 570-9번지","indutype":"유통업 영리 - 슈퍼마켓","category":"mart"}]},{"lat":"36.919920209","long":"126.91935244","imageIndex":7,"items":[{"name":"호반미니마트","tel":"031-681-4974","addr":"경기도 평택시 현덕면 권관리 328-15","indutype":"유통업 영리 - 슈퍼마켓","category":"mart"}]}]