[{"lat":"37.35586751","long":"127.3262468","imageIndex":13,"items":[{"name":"1001안경원","tel":"031-764-7216","addr":"경기도 광주시 곤지암읍 삼리 106-21번지","indutype":"보건위생 - 안경","category":"beauty"}]},{"lat":"37.35601016","long":"127.3268005","imageIndex":13,"items":[{"name":"Lee#Hair","tel":"031-699-2828","addr":"경기도 광주시 곤지암읍 삼리 106-14번지 대영빌딩 102호","indutype":"보건위생 - 미용원","category":"beauty"}]},{"lat":"37.35656248","long":"127.3258096","imageIndex":13,"items":[{"name":"강담헤어아티션","tel":"031-765-6399","addr":"경기도 광주시 곤지암읍 삼리 132-7","indutype":"보건위생 - 미용원","category":"beauty"}]},{"lat":"37.35653871","long":"127.3246131","imageIndex":13,"items":[{"name":"김가을메이크업","tel":"070-7568-1921","addr":"경기도 광주시 곤지암읍 삼리 138-2번지 동우빌딩 301호","indutype":"보건위생 - 미용원","category":"beauty"}]},{"lat":"37.35513615","long":"127.323501","imageIndex":13,"items":[{"name":"리치베베","tel":"031-764-5331","addr":"경기도 광주시 곤지암읍 삼리 391-4번지 굿모닝하우스 102동 1층 102호","indutype":"보건위생 - 기타대인서비스","category":"beauty"}]},{"lat":"37.35489766","long":"127.3250576","imageIndex":13,"items":[{"name":"머리하고싶을때","tel":"031-762-4434","addr":"경기도 광주시 곤지암읍 삼리 405-9번지","indutype":"보건위생 - 미용원","category":"beauty"}]},{"lat":"37.35739921","long":"127.3262534","imageIndex":13,"items":[{"name":"미스터커트클럽","tel":"031-797-7233","addr":"경기도 광주시 곤지암읍 삼리 125-1 킴스빌리지단지내상가 111","indutype":"보건위생 - 이용원","category":"beauty"}]},{"lat":"37.35788529","long":"127.3264248","imageIndex":13,"items":[{"name":"보아스상사","tel":"031-761-6972","addr":"경기도 광주시 곤지암읍 삼리 125-1번지 킴스빌리지아파트","indutype":"보건위생 - 화장품","category":"beauty"}]},{"lat":"37.35434134","long":"127.3175043","imageIndex":13,"items":[{"name":"삼한메디","tel":"031-765-2140","addr":"경기도 광주시 곤지암읍 삼리 333번지 1층","indutype":"보건위생 - 의료용품","category":"beauty"}]},{"lat":"37.35670166","long":"127.3243316","imageIndex":13,"items":[{"name":"수태국마사지","tel":"031-767-6659","addr":"경기도 광주시 곤지암읍 삼리 138-5번지 금진빌딩 2층","indutype":"보건위생 - 피부미용실","category":"beauty"}]},{"lat":"37.35687042","long":"127.325224","imageIndex":13,"items":[{"name":"슈슈헤어","tel":"031-797-2123","addr":"경기도 광주시 곤지암읍 삼리 132-5번지","indutype":"보건위생 - 미용원","category":"beauty"}]},{"lat":"37.35545129","long":"127.3268884","imageIndex":13,"items":[{"name":"슈잔","tel":"070-8107-7008","addr":"경기도 광주시 곤지암읍 삼리 106-27번지 현진빌딩 3층","indutype":"보건위생 - 화장품","category":"beauty"}]},{"lat":"37.35676178","long":"127.3254154","imageIndex":13,"items":[{"name":"올가뷰티","tel":"031-634-3722","addr":"경기도 광주시 곤지암읍 삼리 134-1번지","indutype":"보건위생 - 화장품","category":"beauty"},{"name":"태후사랑","tel":"031-797-3944","addr":"경기도 광주시 곤지암읍 삼리 134-1번지","indutype":"보건위생 - 화장품","category":"beauty"}]},{"lat":"37.35626386","long":"127.3262824","imageIndex":13,"items":[{"name":"올리뷰티라인","tel":"031-769-3066","addr":"경기도 광주시 곤지암읍 삼리 106-30번지 101호","indutype":"보건위생 - 미용원","category":"beauty"},{"name":"탑뷰티","tel":"031-797-0711","addr":"경기도 광주시 곤지암읍 삼리 106-30번지 104호","indutype":"보건위생 - 피부미용실","category":"beauty"}]},{"lat":"37.35614879","long":"127.3255257","imageIndex":13,"items":[{"name":"주헤어","tel":"031-798-5723","addr":"경기도 광주시 곤지암읍 삼리 139-1번지 101호","indutype":"보건위생 - 미용원","category":"beauty"}]},{"lat":"37.35373519","long":"127.3316666","imageIndex":13,"items":[{"name":"지아뷰티","tel":"","addr":"경기도 광주시 곤지암읍 삼리 98-8번지 101호","indutype":"보건위생 - 미용재료","category":"beauty"}]},{"lat":"37.35989535","long":"127.3160826","imageIndex":13,"items":[{"name":"진아헤어","tel":"031-764-5440","addr":"경기도 광주시 곤지암읍 삼리 179-7번지","indutype":"보건위생 - 미용원","category":"beauty"}]},{"lat":"37.35633997","long":"127.3248041","imageIndex":13,"items":[{"name":"태양","tel":"031-798-0980","addr":"경기도 광주시 곤지암읍 삼리 140-5번지 다모아빌딩 지하","indutype":"보건위생 - 기타대인서비스","category":"beauty"}]},{"lat":"37.35792953","long":"127.3267185","imageIndex":13,"items":[{"name":"해독365","tel":"","addr":"경기도 광주시 곤지암읍 삼리 127-2번지 2층","indutype":"보건위생 - 의료용품","category":"beauty"}]},{"lat":"37.3561462","long":"127.3264738","imageIndex":13,"items":[{"name":"헤어살롱 끌림","tel":"031-769-9880","addr":"경기도 광주시 곤지암읍 삼리 106-36번지 1층","indutype":"보건위생 - 미용원","category":"beauty"}]},{"lat":"37.35942688","long":"127.3160581","imageIndex":13,"items":[{"name":"희경헤어라인","tel":"031-764-2379","addr":"경기도 광주시 곤지암읍 삼리 179-2번지 101(외1필지1층)","indutype":"보건위생 - 미용원","category":"beauty"}]}]