[{"lat":"37.682929772","long":"126.75576883","imageIndex":16,"items":[{"name":"(사)감돌역사문화연구회","tel":"070-7509-6435","addr":"경기도 고양시 일산서구 대화동 2033번지","indutype":"학원 - 기타 교육기관","category":"study"},{"name":"문쌤수학이쌤영어학원","tel":"031-914-3055","addr":"경기도 고양시 일산서구 대화동 2033번지","indutype":"학원 - 보습학원","category":"study"},{"name":"성저태권도","tel":"031-925-0078","addr":"경기도 고양시 일산서구 대화동 2033번지","indutype":"학원 - 예·체능계학원","category":"study"},{"name":"오마주투매쓰수학교습소","tel":"031-923-2033","addr":"경기도 고양시 일산서구 대화동 2033번지","indutype":"학원 - 보습학원","category":"study"},{"name":"컨센터블24시성저마을4호점독서실","tel":"031-913-9078","addr":"경기도 고양시 일산서구 대화동 2033번지","indutype":"학원 - 독서실","category":"study"}]},{"lat":"37.682572279","long":"126.75715306","imageIndex":16,"items":[{"name":"(주)더넥스트에듀 더레전드대화학원","tel":"031-917-7744","addr":"경기도 고양시 일산서구 대화동 2030-5번지","indutype":"학원 - 보습학원","category":"study"}]},{"lat":"37.676488027","long":"126.74737925","imageIndex":16,"items":[{"name":"(주)일산실용음악학원","tel":"031-916-0074","addr":"경기도 고양시 일산서구 대화동 2205-1번지","indutype":"학원 - 예·체능계학원","category":"study"},{"name":"늘푸른고시원","tel":"031-918-1110","addr":"경기도 고양시 일산서구 대화동 2205-1번지","indutype":"학원 - 독서실","category":"study"},{"name":"도도무용학원","tel":"","addr":"경기도 고양시 일산서구 대화동 2205-1번지","indutype":"학원 - 예·체능계학원","category":"study"}]},{"lat":"37.674929058","long":"126.75143129","imageIndex":16,"items":[{"name":"KT일산어린이집[아이행복]","tel":"031-925-0052","addr":"경기도 고양시 일산서구 대화동 2200번지","indutype":"학원 - 유아원","category":"study"}]},{"lat":"37.677873897","long":"126.7305523","imageIndex":16,"items":[{"name":"King's International Christian School","tel":"031-915-0591","addr":"경기도 고양시 일산서구 대화동 1736-1번지","indutype":"학원 - 기타 교육기관","category":"study"}]},{"lat":"37.675542685","long":"126.74768855","imageIndex":16,"items":[{"name":"MONKEY LAND(몽키랜드)","tel":"031-911-9165","addr":"경기도 고양시 일산서구 대화동 2222-1번지","indutype":"학원 - 독서실","category":"study"},{"name":"에프비아이제과제빵커피학원","tel":"031-918-6008","addr":"경기도 고양시 일산서구 대화동 2222-1번지","indutype":"회원제형태 - 학원","category":"study"},{"name":"에프비아이제과제빵학원","tel":"031-918-6008","addr":"경기도 고양시 일산서구 대화동 2222-1번지","indutype":"회원제형태 - 학원","category":"study"},{"name":"이페아트컴퓨터그래픽학원","tel":"031-924-5519","addr":"경기도 고양시 일산서구 대화동 2222-1번지","indutype":"학원 - 기타 교육기관","category":"study"}]},{"lat":"37.685073764","long":"126.75562567","imageIndex":16,"items":[{"name":"TOP(탑)잉글리쉬학원","tel":"031-811-0500","addr":"경기도 고양시 일산서구 대화동 2072-8번지","indutype":"회원제형태 - 학원","category":"study"}]},{"lat":"37.672068","long":"126.73683034","imageIndex":16,"items":[{"name":"개인과외교습","tel":"070-8851-3418","addr":"경기도 고양시 일산서구 대화동 761-4번지","indutype":"회원제형태 - 학원","category":"study"}]},{"lat":"37.674462247","long":"126.74802097","imageIndex":16,"items":[{"name":"고양시립 대화소망 어린이집[아이행복]","tel":"031-911-7100","addr":"경기도 고양시 일산서구 대화동 2237번지","indutype":"학원 - 유아원","category":"study"}]},{"lat":"37.666097707","long":"126.75054303","imageIndex":16,"items":[{"name":"고양시립꿈모아어린이집[아이행복]","tel":"031-911-0501","addr":"경기도 고양시 일산서구 대화동 2603번지 킨텍스꿈에그린","indutype":"학원 - 유아원","category":"study"},{"name":"생각하는 공부방","tel":"","addr":"경기도 고양시 일산서구 대화동 2603번지 킨텍스꿈에그린","indutype":"학원 - 기타 교육기관","category":"study"}]},{"lat":"37.668434529","long":"126.73568722","imageIndex":16,"items":[{"name":"고양한내초등학교","tel":"031-924-5093","addr":"경기도 고양시 일산서구 대화동 882번지","indutype":"학원 - 초중고교육기관","category":"study"},{"name":"한내유치원[아이행복]","tel":"031-924-2713","addr":"경기도 고양시 일산서구 대화동 882번지","indutype":"학원 - 유치원","category":"study"}]},{"lat":"37.67707274","long":"126.74695783","imageIndex":16,"items":[{"name":"극진공수도 일산도장","tel":"070-8285-8518","addr":"경기도 고양시 일산서구 대화동 2206-1번지","indutype":"학원 - 예·체능계학원","category":"study"}]},{"lat":"37.677821155","long":"126.75143286","imageIndex":16,"items":[{"name":"기타치는고양이음악학원","tel":"031-914-4150","addr":"경기도 고양시 일산서구 대화동 2161-2번지","indutype":"학원 - 예·체능계학원","category":"study"},{"name":"늘품태권도전문도장","tel":"031-924-7111","addr":"경기도 고양시 일산서구 대화동 2161-2번지","indutype":"학원 - 예·체능계학원","category":"study"},{"name":"윤선생우리집앞영어교실 장성영어학원","tel":"031-916-2999","addr":"경기도 고양시 일산서구 대화동 2161-2번지","indutype":"학원 - 보습학원","category":"study"},{"name":"토즈스터디센터 대화 독서실","tel":"031-921-4147","addr":"경기도 고양시 일산서구 대화동 2161-2번지","indutype":"학원 - 독서실","category":"study"},{"name":"한솔플러스수학직영학원","tel":"031-922-0943","addr":"경기도 고양시 일산서구 대화동 2161-2번지","indutype":"학원 - 보습학원","category":"study"}]},{"lat":"37.672290292","long":"126.73552604","imageIndex":16,"items":[{"name":"기탄사고력교실 대화마을5단지교실","tel":"","addr":"경기도 고양시 일산서구 대화동 2571번지 대화마을5단지아파트","indutype":"학원 - 기타 교육기관","category":"study"}]},{"lat":"37.674491793","long":"126.74918839","imageIndex":16,"items":[{"name":"김세형실전연기학원","tel":"031-919-8562","addr":"경기도 고양시 일산서구 대화동 2239-1번지","indutype":"회원제형태 - 학원","category":"study"},{"name":"스텝업잉글리쉬어학원","tel":"031-913-0585","addr":"경기도 고양시 일산서구 대화동 2239-1번지","indutype":"회원제형태 - 학원","category":"study"}]},{"lat":"37.67020728","long":"126.7347401","imageIndex":16,"items":[{"name":"김수연음악학원","tel":"031-916-0068","addr":"경기도 고양시 일산서구 대화동 866번지","indutype":"학원 - 예·체능계학원","category":"study"},{"name":"대화시스템학원","tel":"031-923-1655","addr":"경기도 고양시 일산서구 대화동 866번지","indutype":"학원 - 기타 교육기관","category":"study"},{"name":"윤선생우리집앞대화영어교습소","tel":"031-917-7905","addr":"경기도 고양시 일산서구 대화동 866번지","indutype":"학원 - 보습학원","category":"study"}]},{"lat":"37.674735758","long":"126.74951628","imageIndex":16,"items":[{"name":"김재훈태권도장","tel":"031-915-8558","addr":"경기도 고양시 일산서구 대화동 2239번지","indutype":"학원 - 예·체능계학원","category":"study"},{"name":"알엑스영수학원","tel":"031-929-3005","addr":"경기도 고양시 일산서구 대화동 2239번지","indutype":"학원 - 보습학원","category":"study"}]},{"lat":"37.679136021","long":"126.75117903","imageIndex":16,"items":[{"name":"꼬맹이 어린이집[아이행복]","tel":"031-915-2062","addr":"경기도 고양시 일산서구 대화동 2212번지 성저마을1단지아파트","indutype":"학원 - 유아원","category":"study"},{"name":"성지꼬맹이 어린이집[아이행복]","tel":"031-915-2062","addr":"경기도 고양시 일산서구 대화동 2212번지","indutype":"학원 - 유아원","category":"study"}]},{"lat":"37.671127644","long":"126.75173881","imageIndex":16,"items":[{"name":"꿈동산 어린이집[아이행복]","tel":"031-506-6866","addr":"경기도 고양시 일산서구 대화동 2282-5번지","indutype":"학원 - 유아원","category":"study"},{"name":"대화예일어린이집[아이행복]","tel":"031-724-7777","addr":"경기도 고양시 일산서구 대화동 2282-5번지","indutype":"학원 - 유아원","category":"study"}]},{"lat":"37.682769568","long":"126.75671029","imageIndex":16,"items":[{"name":"꿈이룸스터디센터","tel":"031-917-2935","addr":"경기도 고양시 일산서구 대화동 2030-2번지","indutype":"학원 - 보습학원","category":"study"},{"name":"위드린학원","tel":"031-911-8505","addr":"경기도 고양시 일산서구 대화동 2030-2번지","indutype":"학원 - 보습학원","category":"study"}]},{"lat":"37.675576437","long":"126.74663424","imageIndex":16,"items":[{"name":"꿈트라키즈교육","tel":"070-8031-4038","addr":"경기도 고양시 일산서구 대화동 2226번지","indutype":"학원 - 기타 교육기관","category":"study"},{"name":"미동태권도장","tel":"031-915-7778","addr":"경기도 고양시 일산서구 대화동 2226번지","indutype":"학원 - 예·체능계학원","category":"study"}]},{"lat":"37.672183583","long":"126.74838014","imageIndex":16,"items":[{"name":"노란정원","tel":"","addr":"경기도 고양시 일산서구 대화동 2273-5번지","indutype":"학원 - 기타 교육기관","category":"study"}]},{"lat":"37.678402963","long":"126.75387943","imageIndex":16,"items":[{"name":"노벨프라자","tel":"031-922-1221","addr":"경기도 고양시 일산서구 대화동 2142번지","indutype":"학원 - 독서실","category":"study"}]},{"lat":"37.674328019","long":"126.73621018","imageIndex":16,"items":[{"name":"노블 수능영어","tel":"031-816-0504","addr":"경기도 고양시 일산서구 대화동 2570번지 대화마을6단지아파트","indutype":"학원 - 보습학원","category":"study"}]},{"lat":"37.669489881","long":"126.73227177","imageIndex":16,"items":[{"name":"뉴웨이브영어학원","tel":"031-925-9220","addr":"경기도 고양시 일산서구 대화동 1464-7번지","indutype":"학원 - 외국어학원","category":"study"},{"name":"대화독서실","tel":"031-916-1013","addr":"경기도 고양시 일산서구 대화동 1464-7번지","indutype":"학원 - 독서실","category":"study"},{"name":"새본위슬런수학교습소","tel":"031-915-0063","addr":"경기도 고양시 일산서구 대화동 1464-7번지","indutype":"학원 - 보습학원","category":"study"},{"name":"허윤희 수학학원","tel":"031-911-6542","addr":"경기도 고양시 일산서구 대화동 1464-7번지","indutype":"회원제형태 - 학원","category":"study"}]},{"lat":"37.669937508","long":"126.73496776","imageIndex":16,"items":[{"name":"달독서실","tel":"031-911-2999","addr":"경기도 고양시 일산서구 대화동 868-2번지","indutype":"학원 - 독서실","category":"study"}]},{"lat":"37.670631542","long":"126.73115683","imageIndex":16,"items":[{"name":"대송중학교","tel":"","addr":"경기도 고양시 일산서구 대화동 1492-1번지","indutype":"학원 - 초중고교육기관","category":"study"}]},{"lat":"37.675959108","long":"126.74860529","imageIndex":16,"items":[{"name":"대한예수교장로회총회신학일산분원","tel":"031-918-7600","addr":"경기도 고양시 일산서구 대화동 2203-3번지","indutype":"학원 - 기타 교육기관","category":"study"}]},{"lat":"37.668354155","long":"126.73204921","imageIndex":16,"items":[{"name":"대화고등학교","tel":"031-911-1964","addr":"경기도 고양시 일산서구 대화동 1978번지","indutype":"학원 - 초중고교육기관","category":"study"},{"name":"대화고등학교_수업료","tel":"031-911-1964","addr":"경기도 고양시 일산서구 대화동 1978번지","indutype":"학원 - 초중고교육기관","category":"study"}]},{"lat":"37.684595567","long":"126.7552985","imageIndex":16,"items":[{"name":"대화꼬마별어린이집[아이행복]","tel":"031-916-5160","addr":"경기도 고양시 일산서구 대화동 2071-2번지","indutype":"학원 - 유아원","category":"study"}]},{"lat":"37.670345972","long":"126.732348","imageIndex":16,"items":[{"name":"대화뮤엠영어학원","tel":"031-911-3992","addr":"경기도 고양시 일산서구 대화동 1459-9번지","indutype":"학원 - 보습학원","category":"study"},{"name":"대화키즈태권도","tel":"031-913-8482","addr":"경기도 고양시 일산서구 대화동 1459-9번지","indutype":"회원제형태 - 학원","category":"study"}]},{"lat":"37.678151914","long":"126.75445839","imageIndex":16,"items":[{"name":"대화비타민보습학원","tel":"031-918-8825","addr":"경기도 고양시 일산서구 대화동 2143번지","indutype":"학원 - 보습학원","category":"study"},{"name":"세림독서실","tel":"031-919-5511","addr":"경기도 고양시 일산서구 대화동 2143번지","indutype":"학원 - 독서실","category":"study"}]},{"lat":"37.670102454","long":"126.73619129","imageIndex":16,"items":[{"name":"대화아람 어린이집[아이행복]","tel":"031-915-0502","addr":"경기도 고양시 일산서구 대화동 841-8번지","indutype":"학원 - 유아원","category":"study"}]},{"lat":"37.673769375","long":"126.7361895","imageIndex":16,"items":[{"name":"대화예솔어린이집[아이행복]","tel":"031-924-1887","addr":"경기도 고양시 일산서구 대화동 2570번지","indutype":"학원 - 유아원","category":"study"},{"name":"맑은피아노소리음악교습소","tel":"031-913-8559","addr":"경기도 고양시 일산서구 대화동 2570번지","indutype":"학원 - 예·체능계학원","category":"study"}]},{"lat":"37.669882059","long":"126.73435589","imageIndex":16,"items":[{"name":"대화예원음악학원","tel":"031-916-9990","addr":"경기도 고양시 일산서구 대화동 863-16번지","indutype":"학원 - 예·체능계학원","category":"study"},{"name":"창작공간별미술교습소","tel":"031-918-2567","addr":"경기도 고양시 일산서구 대화동 863-16번지","indutype":"학원 - 예·체능계학원","category":"study"}]},{"lat":"37.678432451","long":"126.75504692","imageIndex":16,"items":[{"name":"대화유도체육관","tel":"031-917-5259","addr":"경기도 고양시 일산서구 대화동","indutype":"학원 - 예·체능계학원","category":"study"}]},{"lat":"37.673379884","long":"126.73527276","imageIndex":16,"items":[{"name":"대화이엠에스학원","tel":"031-924-1130","addr":"경기도 고양시 일산서구 대화동 739-8번지","indutype":"회원제형태 - 학원","category":"study"}]},{"lat":"37.68245758","long":"126.75401325","imageIndex":16,"items":[{"name":"대화제이앤유어학학원","tel":"031-915-0588","addr":"경기도 고양시 일산서구 대화동 2038-1번지","indutype":"회원제형태 - 학원","category":"study"},{"name":"티앤큐어학원","tel":"070-8849-6575","addr":"경기도 고양시 일산서구 대화동 2038-1번지","indutype":"회원제형태 - 학원","category":"study"}]},{"lat":"37.670271042","long":"126.7350459","imageIndex":16,"items":[{"name":"대화종로엠학원","tel":"031-917-0557","addr":"경기도 고양시 일산서구 대화동 867-2번지","indutype":"학원 - 보습학원","category":"study"},{"name":"링구아잉글리쉬학원","tel":"031-911-7703","addr":"경기도 고양시 일산서구 대화동 867-2번지","indutype":"학원 - 보습학원","category":"study"},{"name":"맞짱수학교습소","tel":"070-7503-1450","addr":"경기도 고양시 일산서구 대화동 867-2번지","indutype":"학원 - 보습학원","category":"study"},{"name":"뿌리논술교습소","tel":"070-4206-3737","addr":"경기도 고양시 일산서구 대화동 867-2번지","indutype":"학원 - 보습학원","category":"study"},{"name":"유니언음악교습소","tel":"031-911-0305","addr":"경기도 고양시 일산서구 대화동 867-2번지","indutype":"학원 - 예·체능계학원","category":"study"},{"name":"일산대화한우리 독서토론논술교습소","tel":"031-000-0000","addr":"경기도 고양시 일산서구 대화동 867-2번지","indutype":"학원 - 보습학원","category":"study"},{"name":"정병권수학학원","tel":"031-924-9959","addr":"경기도 고양시 일산서구 대화동 867-2번지","indutype":"회원제형태 - 학원","category":"study"},{"name":"차수학학원","tel":"031-0000-0000","addr":"경기도 고양시 일산서구 대화동 867-2번지","indutype":"학원 - 보습학원","category":"study"},{"name":"합기도검무관","tel":"031-916-3815","addr":"경기도 고양시 일산서구 대화동 867-2번지","indutype":"회원제형태 - 학원","category":"study"},{"name":"해법영어하버드학원","tel":"","addr":"경기도 고양시 일산서구 대화동 867-2번지","indutype":"학원 - 외국어학원","category":"study"}]},{"lat":"37.673599263","long":"126.74477076","imageIndex":16,"items":[{"name":"대화중학교","tel":"031-914-0524","addr":"경기도 고양시 일산서구 대화동 2230번지","indutype":"학원 - 초중고교육기관","category":"study"}]},{"lat":"37.671184018","long":"126.73241297","imageIndex":16,"items":[{"name":"대화초등학교","tel":"031-911-2073","addr":"경기도 고양시 일산서구 대화동 1643번지","indutype":"학원 - 초중고교육기관","category":"study"},{"name":"대화초등학교병설유치원[아이행복]","tel":"031-918-3192","addr":"경기도 고양시 일산서구 대화동 1643번지","indutype":"학원 - 유치원","category":"study"}]},{"lat":"37.671374576","long":"126.74924434","imageIndex":16,"items":[{"name":"대화피터팬 어린이집[아이행복]","tel":"031-922-5552","addr":"경기도 고양시 일산서구 대화동 2276-8번지","indutype":"학원 - 유아원","category":"study"}]},{"lat":"37.677992531","long":"126.75152297","imageIndex":16,"items":[{"name":"대화호크마 수학학원 지점","tel":"031-911-0999","addr":"경기도 고양시 일산서구 대화동 2161-1번지","indutype":"학원 - 보습학원","category":"study"},{"name":"열강플러스즐공학원","tel":"031-913-7815","addr":"경기도 고양시 일산서구 대화동 2161-1번지","indutype":"학원 - 보습학원","category":"study"}]},{"lat":"37.669571705","long":"126.72868979","imageIndex":16,"items":[{"name":"대화홍익미술교습소","tel":"031-8076-4006","addr":"경기도 고양시 일산서구 대화동 1499번지 대화마을1단지아파트","indutype":"학원 - 예·체능계학원","category":"study"}]},{"lat":"37.682156977","long":"126.75246117","imageIndex":16,"items":[{"name":"더깊은생각수학교습소","tel":"031-914-1941","addr":"경기도 고양시 일산서구 대화동 2090-5번지","indutype":"회원제형태 - 학원","category":"study"}]},{"lat":"37.678127892","long":"126.75162453","imageIndex":16,"items":[{"name":"더바른코딩학원","tel":"031-987-5619","addr":"경기도 고양시 일산서구 대화동 2161번지","indutype":"학원 - 컴퓨터학원","category":"study"}]},{"lat":"37.66961791","long":"126.73309872","imageIndex":16,"items":[{"name":"류설아 피아노","tel":"","addr":"경기도 고양시 일산서구 대화동 2579번지 대화마을7단지아파트","indutype":"학원 - 기타 교육기관","category":"study"}]},{"lat":"37.672683027","long":"126.73390374","imageIndex":16,"items":[{"name":"리딩스톰영어교습소","tel":"031-922-5819","addr":"경기도 고양시 일산서구 대화동 1656번지","indutype":"회원제형태 - 학원","category":"study"},{"name":"우영환음악학원","tel":"031-922-3088","addr":"경기도 고양시 일산서구 대화동","indutype":"회원제형태 - 학원","category":"study"},{"name":"유선생수학교습소","tel":"031-918-8513","addr":"경기도 고양시 일산서구 대화동 1656번지","indutype":"회원제형태 - 학원","category":"study"},{"name":"한국체대 삼성태권도장","tel":"031-922-4914","addr":"경기도 고양시 일산서구 대화동 1656번지","indutype":"학원 - 예·체능계학원","category":"study"}]},{"lat":"37.670720413","long":"126.7345569","imageIndex":16,"items":[{"name":"마더(MaThe)수학과학","tel":"070-4388-1555","addr":"경기도 고양시 일산서구 대화동 2579번지 대화마을7단지아파트","indutype":"학원 - 기타 교육기관","category":"study"}]},{"lat":"37.671185036","long":"126.73682216","imageIndex":16,"items":[{"name":"멘토르학원","tel":"031-918-0095","addr":"경기도 고양시 일산서구 대화동 775번지","indutype":"학원 - 보습학원","category":"study"}]},{"lat":"37.679161256","long":"126.75034009","imageIndex":16,"items":[{"name":"미소어린이집[아이행복]","tel":"031-814-2577","addr":"경기도 고양시 일산서구 대화동 2212번지 성저마을1단지아파트","indutype":"학원 - 유아원","category":"study"}]},{"lat":"37.679018954","long":"126.7554644","imageIndex":16,"items":[{"name":"반달어린이집[아이행복]","tel":"031-911-9886","addr":"경기도 고양시 일산서구 대화동 2124-2번지","indutype":"학원 - 유아원","category":"study"}]},{"lat":"37.677433865","long":"126.75149085","imageIndex":16,"items":[{"name":"밝은 어린이집[아이행복]","tel":"031-913-3582","addr":"경기도 고양시 일산서구 대화동 2193번지","indutype":"학원 - 유아원","category":"study"}]},{"lat":"37.683601412","long":"126.75382804","imageIndex":16,"items":[{"name":"방문미술그림샘 고양일산동구지사","tel":"","addr":"경기도 고양시 일산서구 대화동 2056-1번지","indutype":"학원 - 기타 교육기관","category":"study"}]},{"lat":"37.670406467","long":"126.75154856","imageIndex":16,"items":[{"name":"백간호학원","tel":"031-913-1900","addr":"경기도 고양시 일산서구 대화동 2283-4번지","indutype":"학원 - 기능학원","category":"study"}]},{"lat":"37.674295105","long":"126.74573183","imageIndex":16,"items":[{"name":"보배어린이집[아이행복]","tel":"031-917-7480","addr":"경기도 고양시 일산서구 대화동 2228번지","indutype":"학원 - 유아원","category":"study"}]},{"lat":"37.68426499","long":"126.75662599","imageIndex":16,"items":[{"name":"봄날 음악 교습소","tel":"031-913-4810","addr":"경기도 고양시 일산서구 대화동 2020-2번지","indutype":"학원 - 예·체능계학원","category":"study"}]},{"lat":"37.664376117","long":"126.75443631","imageIndex":16,"items":[{"name":"비엠지(BMG)한류태권도","tel":"031-000-0000","addr":"경기도 고양시 일산서구 대화동 2606번지","indutype":"학원 - 예·체능계학원","category":"study"}]},{"lat":"37.670014763","long":"126.74954367","imageIndex":16,"items":[{"name":"비전키즈 어린이집[아이행복]","tel":"031-915-0075","addr":"경기도 고양시 일산서구 대화동 2293번지","indutype":"학원 - 유아원","category":"study"}]},{"lat":"37.678044324","long":"126.75470814","imageIndex":16,"items":[{"name":"빚다그리다 도예학원","tel":"031-917-0302","addr":"경기도 고양시 일산서구 대화동 2143-1번지","indutype":"학원 - 예·체능계학원","category":"study"},{"name":"조이플영어교습소","tel":"031-919-2815","addr":"경기도 고양시 일산서구 대화동 2143-1번지","indutype":"학원 - 외국어학원","category":"study"}]},{"lat":"37.676568946","long":"126.75149377","imageIndex":16,"items":[{"name":"사단법인 한국정보교육문화협회","tel":"031-911-7115","addr":"경기도 고양시 일산서구 대화동 2190-4번지","indutype":"학원 - 기타 교육기관","category":"study"}]},{"lat":"37.675625399","long":"126.75265316","imageIndex":16,"items":[{"name":"사단법인대한공연예술인총연합회","tel":"031-923-0381","addr":"경기도 고양시 일산서구 대화동 2176번지","indutype":"학원 - 기타 교육기관","category":"study"},{"name":"플레이통기타","tel":"","addr":"경기도 고양시 일산서구 대화동 2176번지","indutype":"학원 - 예·체능계학원","category":"study"}]},{"lat":"37.670124025","long":"126.73378829","imageIndex":16,"items":[{"name":"사랑숲어린이집[아이행복]","tel":"031-919-6905","addr":"경기도 고양시 일산서구 대화동 2579번지 대화마을7단지아파트","indutype":"학원 - 유아원","category":"study"}]},{"lat":"37.683041692","long":"126.7532971","imageIndex":16,"items":[{"name":"사십칠에이아틀리에미술학원","tel":"031-911-1247","addr":"경기도 고양시 일산서구 대화동 2045-20번지","indutype":"학원 - 예·체능계학원","category":"study"}]},{"lat":"37.678101844","long":"126.74788382","imageIndex":16,"items":[{"name":"샤인24시 어린이집[아이행복]","tel":"031-916-0436","addr":"경기도 고양시 일산서구 대화동 2215번지","indutype":"학원 - 유아원","category":"study"},{"name":"푸르미어린이집[아이행복]","tel":"031-916-0436","addr":"경기도 고양시 일산서구 대화동","indutype":"학원 - 유아원","category":"study"}]},{"lat":"37.678904332","long":"126.74817581","imageIndex":16,"items":[{"name":"샤인24시어린이집[아이행복]","tel":"031-916-0436","addr":"경기도 고양시 일산서구 대화동","indutype":"학원 - 유아원","category":"study"}]},{"lat":"37.679889524","long":"126.74963479","imageIndex":16,"items":[{"name":"샤인어린이집[아이행복]","tel":"031-912-2004","addr":"경기도 고양시 일산서구 대화동 2213번지 성저마을4단지아파트","indutype":"학원 - 유아원","category":"study"}]},{"lat":"37.677292122","long":"126.75262489","imageIndex":16,"items":[{"name":"서일영어대화제1캠퍼스학원","tel":"031-912-0313","addr":"경기도 고양시 일산서구 대화동 2164번지","indutype":"학원 - 보습학원","category":"study"}]},{"lat":"37.669548059","long":"126.73407374","imageIndex":16,"items":[{"name":"선화미술학원","tel":"031-911-2355","addr":"경기도 고양시 일산서구 대화동 1450-1번지","indutype":"학원 - 예·체능계학원","category":"study"},{"name":"온브레인대화독서실","tel":"031-911-6211","addr":"경기도 고양시 일산서구 대화동 1450-1번지","indutype":"학원 - 독서실","category":"study"}]},{"lat":"37.67904469","long":"126.75060121","imageIndex":16,"items":[{"name":"성저유치원","tel":"031-916-4588","addr":"경기도 고양시 일산서구 대화동 2212번지","indutype":"학원 - 유치원","category":"study"},{"name":"성저유치원[아이행복]","tel":"031-916-4580","addr":"경기도 고양시 일산서구 대화동 2212번지","indutype":"학원 - 유치원","category":"study"},{"name":"태극체육관","tel":"031-915-0704","addr":"경기도 고양시 일산서구 대화동","indutype":"학원 - 예·체능계학원","category":"study"}]},{"lat":"37.684741336","long":"126.75606891","imageIndex":16,"items":[{"name":"성저점e해법수학교습소","tel":"","addr":"경기도 고양시 일산서구 대화동 2062-3번지","indutype":"학원 - 보습학원","category":"study"},{"name":"해법영어성저영어교습소","tel":"031-924-4640","addr":"경기도 고양시 일산서구 대화동 2062-3번지","indutype":"학원 - 외국어학원","category":"study"}]},{"lat":"37.684878752","long":"126.75715679","imageIndex":16,"items":[{"name":"성저초등학교","tel":"031-915-0214","addr":"경기도 고양시 일산서구 대화동 2006번지","indutype":"학원 - 초중고교육기관","category":"study"}]},{"lat":"37.678820434","long":"126.75531769","imageIndex":16,"items":[{"name":"성저카라 어린이집[아이행복]","tel":"070-8615-7942","addr":"경기도 고양시 일산서구 대화동 2125-4번지","indutype":"학원 - 유아원","category":"study"}]},{"lat":"37.684379059","long":"126.7594938","imageIndex":16,"items":[{"name":"성저태비태권도장","tel":"031-911-0068","addr":"경기도 고양시 일산서구 대화동 2004-1번지","indutype":"학원 - 예·체능계학원","category":"study"}]},{"lat":"37.684265345","long":"126.75679604","imageIndex":16,"items":[{"name":"세레니티미술교습소","tel":"031-922-3370","addr":"경기도 고양시 일산서구 대화동 2018번지","indutype":"학원 - 예·체능계학원","category":"study"},{"name":"앤드베러영어교습소","tel":"031-911-2919","addr":"경기도 고양시 일산서구 대화동 2018번지","indutype":"학원 - 외국어학원","category":"study"},{"name":"일산합기도검도","tel":"031-916-0010","addr":"경기도 고양시 일산서구 대화동 2018번지","indutype":"학원 - 예·체능계학원","category":"study"},{"name":"허윤희수학교습소","tel":"031-917-8772","addr":"경기도 고양시 일산서구 대화동 2018번지","indutype":"학원 - 보습학원","category":"study"}]},{"lat":"37.671707199","long":"126.74890317","imageIndex":16,"items":[{"name":"슈라즈케이크","tel":"","addr":"경기도 고양시 일산서구 대화동 2276-1번지","indutype":"학원 - 기능학원","category":"study"}]},{"lat":"37.671932166","long":"126.73652479","imageIndex":16,"items":[{"name":"스카이잉글리쉬존학원","tel":"031-815-3901","addr":"경기도 고양시 일산서구 대화동 763-1번지","indutype":"학원 - 외국어학원","category":"study"}]},{"lat":"37.67720717","long":"126.74662863","imageIndex":16,"items":[{"name":"스타산업","tel":"031-918-8228","addr":"경기도 고양시 일산서구 대화동 2206번지","indutype":"학원 - 독서실","category":"study"},{"name":"지금여기연기학원","tel":"031-911-1378","addr":"경기도 고양시 일산서구 대화동 2206번지","indutype":"학원 - 예·체능계학원","category":"study"}]},{"lat":"37.675629383","long":"126.75029539","imageIndex":16,"items":[{"name":"아띠성인피아노학원","tel":"031-1111-1111","addr":"경기도 고양시 일산서구 대화동 2198-1번지","indutype":"학원 - 예·체능계학원","category":"study"},{"name":"일산 색소폰아카데미","tel":"070-4203-0773","addr":"경기도 고양시 일산서구 대화동 2198-1번지","indutype":"학원 - 예·체능계학원","category":"study"}]},{"lat":"37.673991761","long":"126.74710443","imageIndex":16,"items":[{"name":"아젤리아킨텍스본원미술교습소","tel":"031-819-0234","addr":"경기도 고양시 일산서구 대화동 2236번지","indutype":"학원 - 예·체능계학원","category":"study"}]},{"lat":"37.667104565","long":"126.75373583","imageIndex":16,"items":[{"name":"애플 블럭&퍼즐","tel":"","addr":"경기도 고양시 일산서구 대화동 1050-171번지","indutype":"학원 - 기타 교육기관","category":"study"}]},{"lat":"37.68357559","long":"126.7587142","imageIndex":16,"items":[{"name":"애플트리영어교습소","tel":"","addr":"경기도 고양시 일산서구 대화동 2015-3번지","indutype":"학원 - 외국어학원","category":"study"}]},{"lat":"37.670211975","long":"126.74907828","imageIndex":16,"items":[{"name":"에이오 실용음악학원","tel":"031-919-1404","addr":"경기도 고양시 일산서구 대화동 2294번지","indutype":"회원제형태 - 학원","category":"study"}]},{"lat":"37.677708172","long":"126.75338298","imageIndex":16,"items":[{"name":"예뜰음악교습소","tel":"031-915-1399","addr":"경기도 고양시 일산서구 대화동 2155-5번지","indutype":"학원 - 예·체능계학원","category":"study"}]},{"lat":"37.674209366","long":"126.74773845","imageIndex":16,"items":[{"name":"예쁨어린이집[아이행복]","tel":"031-919-4716","addr":"경기도 고양시 일산서구 대화동 2236번지 장성마을2단지아파트","indutype":"학원 - 유아원","category":"study"}]},{"lat":"37.676601383","long":"126.75404415","imageIndex":16,"items":[{"name":"예은유치원[아이행복]","tel":"031-917-6743","addr":"경기도 고양시 일산서구 대화동 2167번지","indutype":"학원 - 유치원","category":"study"}]},{"lat":"37.670000163","long":"126.73478618","imageIndex":16,"items":[{"name":"예일영어수학학원","tel":"031-925-1237","addr":"경기도 고양시 일산서구 대화동 867-3번지","indutype":"학원 - 보습학원","category":"study"},{"name":"이태백익스트림태권도장","tel":"031-913-3694","addr":"경기도 고양시 일산서구 대화동 867-3번지","indutype":"학원 - 예·체능계학원","category":"study"}]},{"lat":"37.684601761","long":"126.75396074","imageIndex":16,"items":[{"name":"오늘유치원[아이행복]","tel":"031-915-7942","addr":"경기도 고양시 일산서구 대화동 2068번지","indutype":"학원 - 유치원","category":"study"}]},{"lat":"37.68307232","long":"126.75932802","imageIndex":16,"items":[{"name":"원유리음악학원","tel":"031-918-1490","addr":"경기도 고양시 일산서구 대화동 2013-4번지","indutype":"학원 - 예·체능계학원","category":"study"}]},{"lat":"37.680962636","long":"126.75008459","imageIndex":16,"items":[{"name":"위너스미래설계센터","tel":"02-2088-4705","addr":"경기도 고양시 일산서구 대화동 2095번지 성저마을5단지건영빌라","indutype":"학원 - 기타 교육기관","category":"study"}]},{"lat":"37.671709628","long":"126.72982673","imageIndex":16,"items":[{"name":"은송이어린이집[아이행복]","tel":"070-8823-3636","addr":"경기도 고양시 일산서구 대화동 1580번지","indutype":"학원 - 유아원","category":"study"}]},{"lat":"37.669068586","long":"126.73321405","imageIndex":16,"items":[{"name":"인뮤직음악교습소","tel":"","addr":"경기도 고양시 일산서구 대화동 1446-2번지","indutype":"학원 - 예·체능계학원","category":"study"}]},{"lat":"37.675458977","long":"126.75065869","imageIndex":16,"items":[{"name":"일산서구청직장어린이집[아이행복]","tel":"031-918-3338","addr":"경기도 고양시 일산서구 대화동 2199번지","indutype":"학원 - 유아원","category":"study"}]},{"lat":"37.674796678","long":"126.74851857","imageIndex":16,"items":[{"name":"일산야마하음악교육원","tel":"031-916-9600","addr":"경기도 고양시 일산서구 대화동 2223-2번지","indutype":"회원제형태 - 학원","category":"study"},{"name":"일산야마하음악교육원","tel":"031-916-9600","addr":"경기도 고양시 일산서구 대화동 2223-2번지","indutype":"회원제형태 - 학원","category":"study"}]},{"lat":"37.681680119","long":"126.75276886","imageIndex":16,"items":[{"name":"일산요양보호사교육원","tel":"031-913-6090","addr":"경기도 고양시 일산서구 대화동 2088-2번지","indutype":"회원제형태 - 학원","category":"study"}]},{"lat":"37.675874467","long":"126.74696194","imageIndex":16,"items":[{"name":"일산중앙요리전문교육원","tel":"031-925-3939","addr":"경기도 고양시 일산서구 대화동 2220-1번지","indutype":"학원 - 기능학원","category":"study"}]},{"lat":"37.672624006","long":"126.75209649","imageIndex":16,"items":[{"name":"임윤수 당구아카데미","tel":"031-905-3949","addr":"경기도 고양시 일산서구 대화동 2243-2번지","indutype":"학원 - 기타 교육기관","category":"study"}]},{"lat":"37.670570847","long":"126.7321885","imageIndex":16,"items":[{"name":"잉글리쉬무무대화보습학원","tel":"031-917-0595","addr":"경기도 고양시 일산서구 대화동 1643-1번지","indutype":"학원 - 보습학원","category":"study"}]},{"lat":"37.670682257","long":"126.73362759","imageIndex":16,"items":[{"name":"잉글리쉬에비뉴","tel":"031-916-0505","addr":"경기도 고양시 일산서구 대화동 2579번지","indutype":"회원제형태 - 학원","category":"study"}]},{"lat":"37.6808475","long":"126.75101455","imageIndex":16,"items":[{"name":"장성중학교","tel":"","addr":"경기도 고양시 일산서구 대화동 2096번지","indutype":"학원 - 초중고교육기관","category":"study"}]},{"lat":"37.67770989","long":"126.7499596","imageIndex":16,"items":[{"name":"장성초등학교","tel":"031-915-0271","addr":"경기도 고양시 일산서구 대화동 2210번지","indutype":"학원 - 초중고교육기관","category":"study"}]},{"lat":"37.672823678","long":"126.74857065","imageIndex":16,"items":[{"name":"장촌초등학교","tel":"031-914-0471","addr":"경기도 고양시 일산서구 대화동 2269번지","indutype":"학원 - 초중고교육기관","category":"study"},{"name":"장촌초등학교병설유치원[아이행복]","tel":"031-914-0462","addr":"경기도 고양시 일산서구 대화동 2269번지","indutype":"학원 - 유치원","category":"study"}]},{"lat":"37.672237396","long":"126.74826661","imageIndex":16,"items":[{"name":"장촌해법수학교습소","tel":"031-924-0982","addr":"경기도 고양시 일산서구 대화동 2273번지","indutype":"학원 - 보습학원","category":"study"}]},{"lat":"37.669654648","long":"126.73340462","imageIndex":16,"items":[{"name":"정교학원","tel":"031-917-5505","addr":"경기도 고양시 일산서구 대화동 1463-1번지","indutype":"학원 - 보습학원","category":"study"},{"name":"지앤조학원","tel":"031-915-7676","addr":"경기도 고양시 일산서구 대화동 1463-1번지","indutype":"학원 - 보습학원","category":"study"}]},{"lat":"37.683519031","long":"126.75321614","imageIndex":16,"items":[{"name":"제이비탑 학원","tel":"031-912-5557","addr":"경기도 고양시 일산서구 대화동 2052-3번지","indutype":"학원 - 보습학원","category":"study"}]},{"lat":"37.676290896","long":"126.74787869","imageIndex":16,"items":[{"name":"조은컴회계보습학원","tel":"031-921-5125","addr":"경기도 고양시 일산서구 대화동 2203번지","indutype":"학원 - 보습학원","category":"study"},{"name":"풀잎고시텔","tel":"031-911-0803","addr":"경기도 고양시 일산서구 대화동 2203번지","indutype":"학원 - 독서실","category":"study"}]},{"lat":"37.677625957","long":"126.75285048","imageIndex":16,"items":[{"name":"조이플학원","tel":"031-916-4119","addr":"경기도 고양시 일산서구 대화동 2165번지","indutype":"학원 - 보습학원","category":"study"}]},{"lat":"37.675710606","long":"126.75460256","imageIndex":16,"items":[{"name":"주엽고등학교","tel":"031-910-3800","addr":"경기도 고양시 일산서구 대화동 2168번지","indutype":"학원 - 초중고교육기관","category":"study"}]},{"lat":"37.676595602","long":"126.7471295","imageIndex":16,"items":[{"name":"주은간호학원","tel":"031-911-1156","addr":"경기도 고양시 일산서구 대화동 2205번지","indutype":"학원 - 기능학원","category":"study"},{"name":"주은요양보호사교육원","tel":"031-923-1314","addr":"경기도 고양시 일산서구 대화동 2205번지","indutype":"회원제형태 - 학원","category":"study"}]},{"lat":"37.673744035","long":"126.73693771","imageIndex":16,"items":[{"name":"지니어스어린이집[아이행복]","tel":"031-923-3353","addr":"경기도 고양시 일산서구 대화동 2570번지 대화마을6단지아파트","indutype":"학원 - 유아원","category":"study"}]},{"lat":"37.673351207","long":"126.73454742","imageIndex":16,"items":[{"name":"챔프스포츠","tel":"070-4405-2884","addr":"경기도 고양시 일산서구 대화동 742-23번지 에스클라스","indutype":"학원 - 기타 교육기관","category":"study"}]},{"lat":"37.683373461","long":"126.75254778","imageIndex":16,"items":[{"name":"초록별성저 어린이집[아이행복]","tel":"031-916-4297","addr":"경기도 고양시 일산서구 대화동 2043-6번지","indutype":"학원 - 유아원","category":"study"}]},{"lat":"37.68370791","long":"126.75735337","imageIndex":16,"items":[{"name":"카리스음악교습소","tel":"031-916-3516","addr":"경기도 고양시 일산서구 대화동 2019-10번지","indutype":"학원 - 예·체능계학원","category":"study"}]},{"lat":"37.675736964","long":"126.75004564","imageIndex":16,"items":[{"name":"커피본바리스타학원","tel":"031-913-0129","addr":"경기도 고양시 일산서구 대화동 2198번지","indutype":"학원 - 기능학원","category":"study"}]},{"lat":"37.672130171","long":"126.7364334","imageIndex":16,"items":[{"name":"코로네수학당학원","tel":"031-916-2394","addr":"경기도 고양시 일산서구 대화동 762-1번지","indutype":"학원 - 보습학원","category":"study"}]},{"lat":"37.684766272","long":"126.75507119","imageIndex":16,"items":[{"name":"코코스랩","tel":"031-912-2050","addr":"경기도 고양시 일산서구 대화동 2072-1번지","indutype":"학원 - 보습학원","category":"study"}]},{"lat":"37.673458806","long":"126.73432033","imageIndex":16,"items":[{"name":"키즈아트모션","tel":"070-8880-1128","addr":"경기도 고양시 일산서구 대화동 742-21번지 퍼스트빌","indutype":"학원 - 기타 교육기관","category":"study"}]},{"lat":"37.67618332","long":"126.74812844","imageIndex":16,"items":[{"name":"킨텍스인터린크커피교육학원","tel":"031-918-7900","addr":"경기도 고양시 일산서구 대화동 2203-1번지","indutype":"회원제형태 - 학원","category":"study"},{"name":"한국아파트빌딩경리학원","tel":"031-912-4794","addr":"경기도 고양시 일산서구 대화동 2203-1번지","indutype":"학원 - 기능학원","category":"study"}]},{"lat":"37.67289365","long":"126.73539919","imageIndex":16,"items":[{"name":"파스텔키즈어린이집[아이행복]","tel":"031-917-0978","addr":"경기도 고양시 일산서구 대화동 2571번지 대화마을5단지아파트","indutype":"학원 - 유아원","category":"study"}]},{"lat":"37.672008071","long":"126.73031304","imageIndex":16,"items":[{"name":"프렌즈스포츠","tel":"070-4405-6544","addr":"경기도 고양시 일산서구 대화동 1580번지","indutype":"학원 - 기타 교육기관","category":"study"}]},{"lat":"37.672347562","long":"126.74921836","imageIndex":16,"items":[{"name":"피아노치는고양이학원","tel":"031-911-9390","addr":"경기도 고양시 일산서구 대화동 2268-2번지","indutype":"학원 - 예·체능계학원","category":"study"}]},{"lat":"37.672575064","long":"126.75027173","imageIndex":16,"items":[{"name":"하모니피아노교습소","tel":"031-916-2772","addr":"경기도 고양시 일산서구 대화동 2255-7번지","indutype":"학원 - 예·체능계학원","category":"study"}]},{"lat":"37.681373132","long":"126.75673757","imageIndex":16,"items":[{"name":"한그루역사교습소","tel":"031-911-2546","addr":"경기도 고양시 일산서구 대화동 2108-19번지","indutype":"학원 - 보습학원","category":"study"}]},{"lat":"37.683712439","long":"126.75521074","imageIndex":16,"items":[{"name":"한솔플러스 성저2 수학교습소","tel":"031-911-0947","addr":"경기도 고양시 일산서구 대화동 2050-11번지","indutype":"회원제형태 - 학원","category":"study"}]},{"lat":"37.672817809","long":"126.73374456","imageIndex":16,"items":[{"name":"해법독서논술","tel":"031-819-2216","addr":"경기도 고양시 일산서구 대화동 1657번지","indutype":"학원 - 보습학원","category":"study"}]},{"lat":"37.682317389","long":"126.75163308","imageIndex":16,"items":[{"name":"해솔어린이집[아이행복]","tel":"031-911-5200","addr":"경기도 고양시 일산서구 대화동 2091번지","indutype":"학원 - 유아원","category":"study"}]},{"lat":"37.664213631","long":"126.74587995","imageIndex":16,"items":[{"name":"해피아트","tel":"","addr":"경기도 고양시 일산서구 대화동 2701번지","indutype":"학원 - 기타 교육기관","category":"study"}]}]