[{"lat":"37.558459693","long":"127.35654595","imageIndex":16,"items":[{"name":"(주)양평비상","tel":"031-775-7578","addr":"경기도 양평군 양서면 부용리 96-1번지","indutype":"학원 - 보습학원","category":"study"},{"name":"(주)양평비상에듀","tel":"031-775-7578","addr":"경기도 양평군 양서면 부용리 96-1번지","indutype":"학원 - 보습학원","category":"study"}]},{"lat":"37.550732728","long":"127.33996485","imageIndex":16,"items":[{"name":"아트앤하트","tel":"031-0000-0000","addr":"경기도 양평군 양서면 부용리 642-4번지","indutype":"학원 - 학습지 교육","category":"study"}]},{"lat":"37.554265564","long":"127.34896642","imageIndex":16,"items":[{"name":"영농조합법인 지 랜드(평생교육원)","tel":"031-774-4108","addr":"경기도 양평군 양서면 부용리 313번지","indutype":"학원 - 기타 교육기관","category":"study"}]},{"lat":"37.55915143","long":"127.35116201","imageIndex":17,"items":[{"name":"HJ WELLS(에이치제이웰즈)","tel":"031-771-4185","addr":"경기도 양평군 양서면 부용리 231번지","indutype":"신변잡화 - 기타잡화","category":"other"}]},{"lat":"37.554265564","long":"127.34896642","imageIndex":17,"items":[{"name":"영농조합법인지랜드","tel":"031-774-3314","addr":"경기도 양평군 양서면 부용리 313번지","indutype":"문화.취미 - 화원","category":"other"}]},{"lat":"37.557460528","long":"127.35321391","imageIndex":17,"items":[{"name":"주말농장편의점","tel":"070-8866-6727","addr":"경기도 양평군 양서면 부용리 55-8","indutype":"유통업 영리 - 편 의 점","category":"other"}]},{"lat":"37.555906898","long":"127.36054017","imageIndex":17,"items":[{"name":"홈베이스","tel":"070-8242-4216","addr":"경기도 양평군 양서면 부용리 4","indutype":"회원제형태 - 기타4","category":"other"}]},{"lat":"37.558459693","long":"127.35654595","imageIndex":7,"items":[{"name":"대학카페스토어","tel":"031-585-4530","addr":"경기도 양평군 양서면 부용리 96-1번지","indutype":"음료식품 - 기타음료식품","category":"food"}]},{"lat":"37.554182122","long":"127.34357917","imageIndex":7,"items":[{"name":"삼촌네딸기","tel":"031-772-6764","addr":"경기도 양평군 양서면 부용리 426-2번지","indutype":"음료식품 - 농·축·수산품","category":"food"}]},{"lat":"37.553571363","long":"127.33977393","imageIndex":7,"items":[{"name":"한아름양봉원","tel":"031-775-1065","addr":"경기도 양평군 양서면 부용리 564-1","indutype":"건강식품 - 기타건강식품","category":"food"}]},{"lat":"37.55579205","long":"127.35679364","imageIndex":4,"items":[{"name":"동네마당","tel":"031-772-7029","addr":"경기도 양평군 양서면 부용리 86번지","indutype":"일반휴게음식 - 일반한식","category":"restaurant"}]},{"lat":"37.555373521","long":"127.34284898","imageIndex":4,"items":[{"name":"부용뜰","tel":"031-772-6790","addr":"경기도 양평군 양서면 부용리 443-1번지","indutype":"일반휴게음식 - 일반한식","category":"restaurant"},{"name":"부용뜰","tel":"031-772-6790","addr":"경기도 양평군 양서면 부용리 443-1번지","indutype":"일반휴게음식 - 일반한식","category":"restaurant"}]},{"lat":"37.556260022","long":"127.35996468","imageIndex":4,"items":[{"name":"연못","tel":"031-774-7566","addr":"경기도 양평군 양서면 부용리 2-1번지","indutype":"일반휴게음식 - 일반한식","category":"restaurant"}]}]