[{"lat":"37.272880602","long":"127.05675269","imageIndex":16,"items":[{"name":"가람어린이집[아이행복]","tel":"031-214-3690","addr":"경기도 수원시 영통구 원천동 606번지 관리동광교호반베르디움","indutype":"학원 - 유아원","category":"study"},{"name":"광교인성태권스쿨태권도장","tel":"","addr":"경기도 수원시 영통구 원천동 606번지 단지내 상가 204호 205호 206호","indutype":"학원 - 예·체능계학원","category":"study"},{"name":"뮤엠공부방","tel":"031-211-0509","addr":"경기도 수원시 영통구 원천동 606번지 광교호반베르디움 1006동 103호","indutype":"회원제형태 - 학원","category":"study"},{"name":"셀파우등생교실","tel":"031-1111-1111","addr":"경기도 수원시 영통구 원천동 606번지 광교호반베르디움 1009동 103호","indutype":"학원 - 기타 교육기관","category":"study"},{"name":"호반꼬마어린이집[아이행복]","tel":"031-8025-0889","addr":"경기도 수원시 영통구 원천동 606번지 광교신도시호반베르디움 1008동 101호","indutype":"학원 - 유아원","category":"study"},{"name":"호반숙명피아노학원","tel":"031-216-9510","addr":"경기도 수원시 영통구 원천동 606번지 광교호반베르디움 1015동 201호 201,202호","indutype":"학원 - 예·체능계학원","category":"study"}]},{"lat":"37.273932728","long":"127.06113938","imageIndex":16,"items":[{"name":"개인과외","tel":"","addr":"경기도 수원시 영통구 원천동 593번지 광교아이파크 103동 1004호","indutype":"학원 - 기타 교육기관","category":"study"},{"name":"김홍중음악학원","tel":"031-211-8225","addr":"경기도 수원시 영통구 원천동 593번지 광교아이파크 2층 254,255호","indutype":"학원 - 예·체능계학원","category":"study"},{"name":"메디슨잉글리시프렙","tel":"","addr":"경기도 수원시 영통구 원천동 593번지 광교아이파크 102동 103호","indutype":"학원 - 기타 교육기관","category":"study"},{"name":"시립광교아이파크어린이집[아이행복]","tel":"031-213-2666","addr":"경기도 수원시 영통구 원천동 593번지 광교아이파크 관리동","indutype":"학원 - 유아원","category":"study"},{"name":"책읽는루브르아뜰리에광교앨리웨이미술학원","tel":"031-214-7556","addr":"경기도 수원시 영통구 원천동 593번지 앨리웨이상가 I동 2층 251-253호","indutype":"학원 - 예·체능계학원","category":"study"},{"name":"크리타 스튜디오","tel":"02-6959-0761","addr":"경기도 수원시 영통구 원천동 593번지 광교아이파크 10층","indutype":"학원 - 기타 교육기관","category":"study"},{"name":"플레이송스광교학원","tel":"02-544-6636","addr":"경기도 수원시 영통구 원천동 593번지 광교아이파크판매에이 1층 109~111호","indutype":"학원 - 예·체능계학원","category":"study"},{"name":"현지애개인과외","tel":"","addr":"경기도 수원시 영통구 원천동 593번지 광교아이파크 102동 302호","indutype":"학원 - 기타 교육기관","category":"study"}]},{"lat":"37.282431188","long":"127.05741351","imageIndex":16,"items":[{"name":"개인과외","tel":"02-308-0087","addr":"경기도 수원시 영통구 원천동 589번지 중흥S-클래스 201동 207호","indutype":"학원 - 기타 교육기관","category":"study"},{"name":"라라바이올린교습소","tel":"","addr":"경기도 수원시 영통구 원천동 589번지 2층 2F-017호 광교중흥에스클래스판매시설","indutype":"학원 - 예·체능계학원","category":"study"},{"name":"루체음악학원","tel":"031-215-2167","addr":"경기도 수원시 영통구 원천동 589번지 중흥S-클래스 2층 2F-026호","indutype":"학원 - 예·체능계학원","category":"study"},{"name":"미랑음악학원","tel":"02-1111-1111","addr":"경기도 수원시 영통구 원천동 589번지 중흥S-클래스 2층 2F-025","indutype":"학원 - 예·체능계학원","category":"study"},{"name":"수학공부방","tel":"","addr":"경기도 수원시 영통구 원천동 589번지 중흥S-클래스 104동 2705호","indutype":"학원 - 기타 교육기관","category":"study"},{"name":"시립광교중흥에스(S)어린이집[아이행복]","tel":"031-213-2141","addr":"경기도 수원시 영통구 원천동 589번지 중흥S-클래스","indutype":"학원 - 유아원","category":"study"},{"name":"아이마음아트미술학원","tel":"070-4685-1486","addr":"경기도 수원시 영통구 원천동 589번지 중흥S-클래스 상가동 2층 22호","indutype":"학원 - 예·체능계학원","category":"study"},{"name":"아트실버벨미술교습소","tel":"031-214-1430","addr":"경기도 수원시 영통구 원천동 589번지 중흥S-클래스 광교중흥S클래스 2층 2F-021호","indutype":"학원 - 예·체능계학원","category":"study"},{"name":"연세명문학원","tel":"","addr":"경기도 수원시 영통구 원천동 589번지 중흥S-클래스 2F-034","indutype":"학원 - 보습학원","category":"study"},{"name":"용인대호수태권도장","tel":"031-212-7773","addr":"경기도 수원시 영통구 원천동 589번지 중흥S-클래스 2층 23-24호","indutype":"학원 - 예·체능계학원","category":"study"}]},{"lat":"37.275182237","long":"127.04705776","imageIndex":16,"items":[{"name":"경원어린이집[아이행복]","tel":"031-213-7712","addr":"경기도 수원시 영통구 원천동 72-5번지","indutype":"학원 - 유아원","category":"study"}]},{"lat":"37.267040722","long":"127.05936407","imageIndex":16,"items":[{"name":"경희대서부태권도","tel":"031-212-6598","addr":"경기도 수원시 영통구 원천동 549-2번지 4층","indutype":"학원 - 예·체능계학원","category":"study"},{"name":"뮤엠영어원일학원","tel":"031-214-5567","addr":"경기도 수원시 영통구 원천동 549-2번지 교원유치원 203호","indutype":"학원 - 외국어학원","category":"study"},{"name":"시향음악학원","tel":"031-216-0025","addr":"경기도 수원시 영통구 원천동 549-2번지 교원유치원 302호","indutype":"학원 - 예·체능계학원","category":"study"},{"name":"에이원영어수학전문학원","tel":"031-216-2255","addr":"경기도 수원시 영통구 원천동 549-2번지 2층","indutype":"학원 - 기타 교육기관","category":"study"},{"name":"이해법수학셀파수학원일학원","tel":"031-211-8737","addr":"경기도 수원시 영통구 원천동 549-2번지 교원유치원 302호","indutype":"회원제형태 - 학원","category":"study"}]},{"lat":"37.279655375","long":"127.0588097","imageIndex":16,"items":[{"name":"광교호수초등학교","tel":"031-214-3044","addr":"경기도 수원시 영통구 원천동 589-1번지 광교호수초등학교","indutype":"학원 - 초중고교육기관","category":"study"}]},{"lat":"37.274930884","long":"127.04447562","imageIndex":16,"items":[{"name":"국제외국어학원","tel":"031-214-0515","addr":"경기도 수원시 영통구 원천동 79-10번지 301호,302호,303호 예스크리닉동수원점","indutype":"학원 - 외국어학원","category":"study"},{"name":"작심독서실","tel":"031-212-6262","addr":"경기도 수원시 영통구 원천동 79-10번지 예스크리닉상가 604호-A","indutype":"학원 - 독서실","category":"study"},{"name":"작심알파","tel":"031-212-6262","addr":"경기도 수원시 영통구 원천동 79-10번지 에스클리닉상가 604~8호","indutype":"학원 - 독서실","category":"study"}]},{"lat":"37.27457023","long":"127.0451632","imageIndex":16,"items":[{"name":"동수원음악학원","tel":"031-214-0700","addr":"경기도 수원시 영통구 원천동 79-6번지 지하1층","indutype":"회원제형태 - 학원","category":"study"},{"name":"스터디랩학원","tel":"031-302-1114","addr":"경기도 수원시 영통구 원천동 79-6번지 2층","indutype":"학원 - 보습학원","category":"study"}]},{"lat":"37.268130592","long":"127.06014279","imageIndex":16,"items":[{"name":"루브르미술학원","tel":"031-214-2437","addr":"경기도 수원시 영통구 원천동 548번지 수원원천2단지주공아파트","indutype":"학원 - 예·체능계학원","category":"study"}]},{"lat":"37.27393575","long":"127.05463376","imageIndex":16,"items":[{"name":"린쌤영어교습소","tel":"070-4334-0505","addr":"경기도 수원시 영통구 원천동 607번지 201호","indutype":"학원 - 외국어학원","category":"study"}]},{"lat":"37.273845912","long":"127.05402486","imageIndex":16,"items":[{"name":"린쌤영어학원","tel":"070-4334-0505","addr":"경기도 수원시 영통구 원천동 608-1번지 대산프라자 3층 302호","indutype":"학원 - 보습학원","category":"study"}]},{"lat":"37.274129644","long":"127.06374404","imageIndex":16,"items":[{"name":"매원초등학교","tel":"070-4496-4100","addr":"경기도 수원시 영통구 원천동 595번지","indutype":"학원 - 초중고교육기관","category":"study"}]},{"lat":"37.273710528","long":"127.05455468","imageIndex":16,"items":[{"name":"멘사박신태수학학원","tel":"031-211-1905","addr":"경기도 수원시 영통구 원천동 607-1번지 303호","indutype":"학원 - 보습학원","category":"study"},{"name":"블럭맘","tel":"031-216-3363","addr":"경기도 수원시 영통구 원천동 607-1번지 403호","indutype":"학원 - 기타 교육기관","category":"study"},{"name":"아썸영어학원","tel":"031-216-0053","addr":"경기도 수원시 영통구 원천동 607-1번지 호반프라자 301호","indutype":"학원 - 보습학원","category":"study"},{"name":"앤올리브미술교습소","tel":"031-215-7717","addr":"경기도 수원시 영통구 원천동 607-1번지 403-1호","indutype":"학원 - 예·체능계학원","category":"study"},{"name":"용인대호반태권도","tel":"031-217-7778","addr":"경기도 수원시 영통구 원천동 607-1번지 401호 402호","indutype":"학원 - 예·체능계학원","category":"study"},{"name":"혜윰피아노학원","tel":"031-212-3411","addr":"경기도 수원시 영통구 원천동 607-1번지 호반프라자 404호","indutype":"학원 - 예·체능계학원","category":"study"}]},{"lat":"37.274011048","long":"127.04666245","imageIndex":16,"items":[{"name":"명진학원","tel":"031-892-3080","addr":"경기도 수원시 영통구 원천동 74-1번지 삼우빌딩 201호","indutype":"학원 - 보습학원","category":"study"}]},{"lat":"37.266797615","long":"127.05900312","imageIndex":16,"items":[{"name":"벨라뮤직음악교습소","tel":"031-212-6677","addr":"경기도 수원시 영통구 원천동 550-4번지 원천주공 상가 203호 202","indutype":"학원 - 예·체능계학원","category":"study"},{"name":"용인대원일태권도장","tel":"031-214-4522","addr":"경기도 수원시 영통구 원천동 550-4번지 원천주공 종합상가 301호","indutype":"학원 - 예·체능계학원","category":"study"},{"name":"헤세드영수학원","tel":"031-212-1105","addr":"경기도 수원시 영통구 원천동 550-4번지 원천주공종합상가 3층 303호","indutype":"학원 - 보습학원","category":"study"}]},{"lat":"37.266653584","long":"127.05872117","imageIndex":16,"items":[{"name":"삼성영어원일학원","tel":"031-212-3310","addr":"경기도 수원시 영통구 원천동 550-3번지 선우빌딩 202호 신우빌딩","indutype":"학원 - 외국어학원","category":"study"},{"name":"세원학원","tel":"031-213-0333","addr":"경기도 수원시 영통구 원천동 550-3번지 선우빌딩 5층 501호","indutype":"회원제형태 - 학원","category":"study"}]},{"lat":"37.266210057","long":"127.06285831","imageIndex":16,"items":[{"name":"삼일평생교육원 및 온누리에듀뉴스","tel":"031-211-0085","addr":"경기도 수원시 영통구 원천동 254-1번지 1층 삼일선교원 일부","indutype":"회원제형태 - 학원","category":"study"},{"name":"온리원국제어학원","tel":"031-217-5556","addr":"경기도 수원시 영통구 원천동 254-1번지 , 1,2층","indutype":"학원 - 외국어학원","category":"study"}]},{"lat":"37.26665387","long":"127.05811239","imageIndex":16,"items":[{"name":"세스토킹클래스학원","tel":"031-215-0534","addr":"경기도 수원시 영통구 원천동 550-1번지 원천훼밀리타운 201호","indutype":"학원 - 보습학원","category":"study"},{"name":"에밀리영어학원","tel":"031-215-2028","addr":"경기도 수원시 영통구 원천동 550-1번지 원천훼밀리타운 403호","indutype":"학원 - 외국어학원","category":"study"},{"name":"원천이룸프리미엄 독서실","tel":"031-214-1881","addr":"경기도 수원시 영통구 원천동 550-1번지 원천훼밀리타운 601호","indutype":"학원 - 독서실","category":"study"},{"name":"하이업학원","tel":"031-213-0155","addr":"경기도 수원시 영통구 원천동 550-1번지 원천훼밀리타운 401호","indutype":"학원 - 보습학원","category":"study"},{"name":"해사랑음악학원","tel":"031-214-7779","addr":"경기도 수원시 영통구 원천동 550-1번지 훼미리타운 402호","indutype":"학원 - 예·체능계학원","category":"study"}]},{"lat":"37.275622718","long":"127.04971895","imageIndex":16,"items":[{"name":"수원정보과학고등학교","tel":"031-218-4009","addr":"경기도 수원시 영통구 원천동 78-8번지 수원정보과학고등학교","indutype":"학원 - 초중고교육기관","category":"study"},{"name":"수원정보과학고등학교_수업료","tel":"031-218-4009","addr":"경기도 수원시 영통구 원천동 78-8번지 수원정보과학고등학교","indutype":"학원 - 초중고교육기관","category":"study"}]},{"lat":"37.276074604","long":"127.04611116","imageIndex":16,"items":[{"name":"수지피아노교습소","tel":"032-222-9628","addr":"경기도 수원시 영통구 원천동 35-3번지 204호,207호","indutype":"학원 - 예·체능계학원","category":"study"},{"name":"해맑은피아노교습소","tel":"031-212-5901","addr":"경기도 수원시 영통구 원천동 35-3번지 원천주공 상가 204동 207호","indutype":"학원 - 예·체능계학원","category":"study"}]},{"lat":"37.274516087","long":"127.04538867","imageIndex":16,"items":[{"name":"순수공감회화전문미술학원","tel":"070-7534-0529","addr":"경기도 수원시 영통구 원천동 79-4번지 4동 순수공감미술학원","indutype":"학원 - 예·체능계학원","category":"study"}]},{"lat":"37.271400511","long":"127.06180262","imageIndex":16,"items":[{"name":"시립광교더샵어린이집[아이행복]","tel":"031-214-7978","addr":"경기도 수원시 영통구 원천동 604번지 광교더샵","indutype":"학원 - 유아원","category":"study"}]},{"lat":"37.270546264","long":"127.0582167","imageIndex":16,"items":[{"name":"시립호수어린이집[아이행복]","tel":"031-215-2279","addr":"경기도 수원시 영통구 원천동 199-9번지","indutype":"학원 - 유아원","category":"study"},{"name":"시립호수어린이집[아이행복]","tel":"031-215-2279","addr":"경기도 수원시 영통구 원천동 199-9번지","indutype":"학원 - 유아원","category":"study"}]},{"lat":"37.277318331","long":"127.04525494","imageIndex":16,"items":[{"name":"아기마을어린이집[아이행복]","tel":"031-216-4521","addr":"경기도 수원시 영통구 원천동 30-12번지","indutype":"학원 - 유아원","category":"study"}]},{"lat":"37.274623958","long":"127.04608778","imageIndex":16,"items":[{"name":"아주한솔주니어학원","tel":"031-215-5054","addr":"경기도 수원시 영통구 원천동 72-14번지 2층","indutype":"학원 - 기타 교육기관","category":"study"}]},{"lat":"37.275877022","long":"127.04430702","imageIndex":16,"items":[{"name":"예일고시원","tel":"031-217-2738","addr":"경기도 수원시 영통구 원천동 28-15번지","indutype":"학원 - 기타 교육기관","category":"study"}]},{"lat":"37.267572053","long":"127.05993944","imageIndex":16,"items":[{"name":"원일초등학교","tel":"031-216-8943","addr":"경기도 수원시 영통구 원천동 549-1번지 원일초등학교","indutype":"학원 - 초중고교육기관","category":"study"}]},{"lat":"37.276073589","long":"127.04880594","imageIndex":16,"items":[{"name":"원천중학교","tel":"031-211-4291","addr":"경기도 수원시 영통구 원천동 78-7번지 원천중학교","indutype":"학원 - 초중고교육기관","category":"study"}]},{"lat":"37.275208816","long":"127.04825293","imageIndex":16,"items":[{"name":"쟈스민레지던스 고시원","tel":"031-213-3286","addr":"경기도 수원시 영통구 원천동 77-45번지","indutype":"학원 - 독서실","category":"study"}]},{"lat":"37.274574488","long":"127.05685537","imageIndex":16,"items":[{"name":"중앙기독중학교","tel":"070-7018-1307","addr":"경기도 수원시 영통구 원천동 134-3번지","indutype":"학원 - 초중고교육기관","category":"study"}]},{"lat":"37.277877136","long":"127.04478168","imageIndex":16,"items":[{"name":"진이고시원","tel":"031-548-0506","addr":"경기도 수원시 영통구 원천동 29-52, 29-59","indutype":"학원 - 독서실","category":"study"}]},{"lat":"37.27356846","long":"127.04950346","imageIndex":16,"items":[{"name":"천기킥복싱무에타이체육관","tel":"031-214-3413","addr":"경기도 수원시 영통구 원천동 90-11지하1층","indutype":"학원 - 예·체능계학원","category":"study"}]},{"lat":"37.278489569","long":"127.04552621","imageIndex":16,"items":[{"name":"청운고시텔","tel":"031-211-0856","addr":"경기도 수원시 영통구 원천동 37-7번지 삼아빌딩 3층","indutype":"학원 - 독서실","category":"study"}]},{"lat":"37.267086858","long":"127.05704168","imageIndex":16,"items":[{"name":"코알라어린이집[아이행복]","tel":"031-205-0991","addr":"경기도 수원시 영통구 원천동 548번지 원천주공2단지 204동 104호","indutype":"학원 - 유아원","category":"study"}]},{"lat":"37.261073505","long":"127.06419572","imageIndex":16,"items":[{"name":"튼튼교육","tel":"031-292-3887","addr":"경기도 수원시 영통구 원천동 362-8번지","indutype":"학원 - 기타 교육기관","category":"study"}]},{"lat":"37.268046109","long":"127.06677185","imageIndex":16,"items":[{"name":"퍼시픽스포츠그룹","tel":"031-1811-7773","addr":"경기도 수원시 영통구 원천동 288번지 5층","indutype":"학원 - 예·체능계학원","category":"study"}]},{"lat":"37.274795414","long":"127.04536628","imageIndex":16,"items":[{"name":"한국독서코칭교육센터","tel":"031-213-5421","addr":"경기도 수원시 영통구 원천동 79-3번지 302호","indutype":"학원 - 기타 교육기관","category":"study"}]},{"lat":"37.274714151","long":"127.04583978","imageIndex":16,"items":[{"name":"한국체대블랙벨트","tel":"031-889-6886","addr":"경기도 수원시 영통구 원천동 28-25번지 301호","indutype":"학원 - 예·체능계학원","category":"study"}]}]