[{"lat":"37.287852833","long":"127.4593501","imageIndex":7,"items":[{"name":"국선생이천증포점","tel":"031-633-6455","addr":"경기도 이천시 증포동 486번지 설봉3차푸르지오 116동 1층 103호","indutype":"음료식품 - 기타음료식품","category":"food"}]},{"lat":"37.295327522","long":"127.45798551","imageIndex":7,"items":[{"name":"까페S","tel":"031-631-6780","addr":"경기도 이천시 증포동 49-8번지 신세기타운 A동 206호","indutype":"음료식품 - 기타음료식품","category":"food"}]},{"lat":"37.287968459","long":"127.45739989","imageIndex":7,"items":[{"name":"냠냠반찬","tel":"031-635-8561","addr":"경기도 이천시 증포동 94-3번지 신한아파트 상가동 109호","indutype":"음료식품 - 기타음료식품","category":"food"}]},{"lat":"37.287072494","long":"127.45135016","imageIndex":7,"items":[{"name":"델리퀸이천점","tel":"031-637-6631","addr":"경기도 이천시 증포동 377-6번지","indutype":"음료식품 - 정육점","category":"food"}]},{"lat":"37.295962594","long":"127.45685025","imageIndex":7,"items":[{"name":"뚜레쥬르 이천증포점","tel":"031-633-4458","addr":"경기도 이천시 증포동 215-7번지 우리타워 1층","indutype":"음료식품 - 제과점","category":"food"},{"name":"참다한흑홍삼(이천점)","tel":"031-632-4567","addr":"경기도 이천시 증포동 215-7번지 우리타워 1층 104호","indutype":"건강식품 - 기타건강식품","category":"food"}]},{"lat":"37.294689008","long":"127.45532008","imageIndex":7,"items":[{"name":"마미찬","tel":"031-638-4505","addr":"경기도 이천시 증포동 212번지","indutype":"음료식품 - 기타음료식품","category":"food"}]},{"lat":"37.295741468","long":"127.4604579","imageIndex":7,"items":[{"name":"만수네정육식당","tel":"031-637-4569","addr":"경기도 이천시 증포동 30-1번지","indutype":"음료식품 - 정육점","category":"food"}]},{"lat":"37.300098818","long":"127.45434867","imageIndex":7,"items":[{"name":"먹는샘물경기남부총판","tel":"031-631-1352","addr":"경기도 이천시 증포동 227-85","indutype":"음료식품 - 기타음료식품","category":"food"}]},{"lat":"37.297935093","long":"127.45468537","imageIndex":7,"items":[{"name":"성주농산","tel":"","addr":"경기도 이천시 증포동 233-3번지 301호","indutype":"음료식품 - 농·축·수산품","category":"food"},{"name":"성주수산","tel":"070-8990-5231","addr":"경기도 이천시 증포동 233-3번지 301호","indutype":"음료식품 - 농·축·수산품","category":"food"}]},{"lat":"37.289608303","long":"127.45268463","imageIndex":7,"items":[{"name":"속초수산물센타","tel":"031-638-8811","addr":"경기도 이천시 증포동 150번지 가게앞수족관","indutype":"음료식품 - 농·축·수산품","category":"food"}]},{"lat":"37.28880076","long":"127.44701876","imageIndex":7,"items":[{"name":"수자인 과일","tel":"031-637-0511","addr":"경기도 이천시 증포동 351-9번지 B04호","indutype":"음료식품 - 농·축·수산품","category":"food"}]},{"lat":"37.2918416","long":"127.45537069","imageIndex":7,"items":[{"name":"싱싱야채","tel":"","addr":"경기도 이천시 증포동 204-13번지 혜인빌리지 9동 102호","indutype":"음료식품 - 농·축·수산품","category":"food"}]},{"lat":"37.299850878","long":"127.45320804","imageIndex":7,"items":[{"name":"에스비푸드 (SB FOOD)","tel":"","addr":"경기도 이천시 증포동 290-2번지","indutype":"음료식품 - 기타음료식품","category":"food"}]},{"lat":"37.290103865","long":"127.45740146","imageIndex":7,"items":[{"name":"엘, S다온베이킹","tel":"031-633-1448","addr":"경기도 이천시 증포동 78-15번지 1층","indutype":"음료식품 - 제과점","category":"food"}]},{"lat":"37.293239524","long":"127.45501818","imageIndex":7,"items":[{"name":"우리베이커리","tel":"031-631-3964","addr":"경기도 이천시 증포동 210-5","indutype":"음료식품 - 제과점","category":"food"}]},{"lat":"37.287913927","long":"127.44803975","imageIndex":7,"items":[{"name":"이천고등학교매점","tel":"031-645-0885","addr":"경기도 이천시 증포동 402번지","indutype":"음료식품 - 기타음료식품","category":"food"}]},{"lat":"37.291162007","long":"127.45401334","imageIndex":7,"items":[{"name":"이천마트 생선가게","tel":"031-637-1754","addr":"경기도 이천시 증포동 178-5번지 이천마트내","indutype":"음료식품 - 농·축·수산품","category":"food"},{"name":"축산물백화점","tel":"031-637-0506","addr":"경기도 이천시 증포동 178-5번지","indutype":"음료식품 - 정육점","category":"food"}]},{"lat":"37.28575066","long":"127.45302252","imageIndex":7,"items":[{"name":"이천삼사랑협동조합","tel":"031-635-1345","addr":"경기도 이천시 증포동 480번지 설봉2차푸르지오 204동 301호","indutype":"건강식품 - 인삼제품","category":"food"}]},{"lat":"37.286997077","long":"127.4498499","imageIndex":7,"items":[{"name":"이천한우","tel":"031-635-6998","addr":"경기도 이천시 증포동 375-15번지","indutype":"음료식품 - 정육점","category":"food"}]},{"lat":"37.287884523","long":"127.45342993","imageIndex":7,"items":[{"name":"장어 하우스","tel":"031-631-9397","addr":"경기도 이천시 증포동 134-3번지 1층","indutype":"음료식품 - 농·축·수산품","category":"food"}]},{"lat":"37.290302199","long":"127.45265493","imageIndex":7,"items":[{"name":"증포동이천쌀문화축제추진위원회","tel":"031-644-8742","addr":"경기도 이천시 증포동 182-5번지","indutype":"음료식품 - 미곡상","category":"food"}]},{"lat":"37.285962984","long":"127.45168187","imageIndex":7,"items":[{"name":"캔비어","tel":"031-635-9004","addr":"경기도 이천시 증포동 142번지","indutype":"음료식품 - 기타음료식품","category":"food"}]},{"lat":"37.293822844","long":"127.45563067","imageIndex":7,"items":[{"name":"파리바게뜨이천증포점","tel":"031-634-7442","addr":"경기도 이천시 증포동 210-1번지 흥인프라자 103호","indutype":"음료식품 - 제과점","category":"food"}]}]