[{"lat":"37.657439222","long":"126.83679088","imageIndex":5,"items":[{"name":"#(샵)SHARP모텔","tel":"031-962-7300","addr":"경기도 고양시 덕양구 주교동 615-1번지","indutype":"숙박업 - 여관/기타숙박업","category":"hotel"},{"name":"샵모텔","tel":"031-962-7300","addr":"경기도 고양시 덕양구 주교동 615-1번지","indutype":"숙박업 - 여관/기타숙박업","category":"hotel"}]},{"lat":"37.658074478","long":"126.83367297","imageIndex":5,"items":[{"name":"낙원장여관","tel":"031-964-4341","addr":"경기도 고양시 덕양구 주교동 599-1번지","indutype":"숙박업 - 여관/기타숙박업","category":"hotel"}]},{"lat":"37.655713901","long":"126.83364433","imageIndex":5,"items":[{"name":"노블레스호텔","tel":"031-967-4622","addr":"경기도 고양시 덕양구 주교동 609-10번지","indutype":"숙박업 - 여관/기타숙박업","category":"hotel"}]},{"lat":"37.659437554","long":"126.83550581","imageIndex":5,"items":[{"name":"뉴힐튼파크","tel":"031-963-1050","addr":"경기도 고양시 덕양구 주교동 584-8번지","indutype":"숙박업 - 여관/기타숙박업","category":"hotel"}]},{"lat":"37.658350517","long":"126.83772947","imageIndex":5,"items":[{"name":"럭스","tel":"","addr":"경기도 고양시 덕양구 주교동 621-9번지","indutype":"숙박업 - 여관/기타숙박업","category":"hotel"}]},{"lat":"37.659599969","long":"126.83567544","imageIndex":5,"items":[{"name":"모아모텔","tel":"031-967-7654","addr":"경기도 고양시 덕양구 주교동 578-9번지","indutype":"숙박업 - 여관/기타숙박업","category":"hotel"}]},{"lat":"37.657380344","long":"126.83340256","imageIndex":5,"items":[{"name":"목화장모텔","tel":"031-964-0077","addr":"경기도 고양시 덕양구 주교동 599-22번지","indutype":"숙박업 - 여관/기타숙박업","category":"hotel"}]},{"lat":"37.658408209","long":"126.83393287","imageIndex":5,"items":[{"name":"발리모텔","tel":"031-964-0878","addr":"경기도 고양시 덕양구 주교동 585-9번지","indutype":"숙박업 - 여관/기타숙박업","category":"hotel"}]},{"lat":"37.658742796","long":"126.8347934","imageIndex":5,"items":[{"name":"소풍모텔","tel":"031-964-6375","addr":"경기도 고양시 덕양구 주교동 585-2번지","indutype":"숙박업 - 여관/기타숙박업","category":"hotel"}]},{"lat":"37.657467427","long":"126.83131716","imageIndex":5,"items":[{"name":"쉐르빌모텔","tel":"031-000-0000","addr":"경기도 고양시 덕양구 주교동 603-5번지","indutype":"숙박업 - 여관/기타숙박업","category":"hotel"},{"name":"쉐르빌모텔","tel":"031-962-6035","addr":"경기도 고양시 덕양구 주교동 603-5번지","indutype":"숙박업 - 여관/기타숙박업","category":"hotel"}]},{"lat":"37.656242197","long":"126.83137664","imageIndex":5,"items":[{"name":"스테이월호텔","tel":"031-962-7009","addr":"경기도 고양시 덕양구 주교동 606-11번지","indutype":"숙박업 - 여관/기타숙박업","category":"hotel"}]},{"lat":"37.658043681","long":"126.8373675","imageIndex":5,"items":[{"name":"아리랑여관","tel":"031-965-2718","addr":"경기도 고양시 덕양구 주교동 620-10번지","indutype":"숙박업 - 여관/기타숙박업","category":"hotel"},{"name":"제우스모텔","tel":"031-965-3718","addr":"경기도 고양시 덕양구 주교동 620-10번지","indutype":"숙박업 - 여관/기타숙박업","category":"hotel"}]},{"lat":"37.656961747","long":"126.83053638","imageIndex":5,"items":[{"name":"알로하","tel":"031-966-7761","addr":"경기도 고양시 덕양구 주교동 605-9번지","indutype":"숙박업 - 여관/기타숙박업","category":"hotel"}]},{"lat":"37.65668301","long":"126.83092233","imageIndex":5,"items":[{"name":"엑스와이엠 (XYM)","tel":"031-962-4177","addr":"경기도 고양시 덕양구 주교동 605-8번지","indutype":"숙박업 - 여관/기타숙박업","category":"hotel"}]},{"lat":"37.660437786","long":"126.83561689","imageIndex":5,"items":[{"name":"유명파크","tel":"031-964-6595","addr":"경기도 고양시 덕양구 주교동 579-2번지","indutype":"숙박업 - 여관/기타숙박업","category":"hotel"}]},{"lat":"37.65707864","long":"126.83037745","imageIndex":5,"items":[{"name":"유앤아이모텔","tel":"031-963-2840","addr":"경기도 고양시 덕양구 주교동 605-10번지","indutype":"숙박업 - 여관/기타숙박업","category":"hotel"}]},{"lat":"37.65871103","long":"126.83781934","imageIndex":5,"items":[{"name":"이든호텔","tel":"031-968-5598","addr":"경기도 고양시 덕양구 주교동 621-17번지","indutype":"숙박업 - 여관/기타숙박업","category":"hotel"}]},{"lat":"37.656493609","long":"126.83078677","imageIndex":5,"items":[{"name":"인성모텔","tel":"031-966-7716","addr":"경기도 고양시 덕양구 주교동 605-18번지","indutype":"숙박업 - 여관/기타숙박업","category":"hotel"}]},{"lat":"37.65954807","long":"126.8372055","imageIndex":5,"items":[{"name":"장미장여관","tel":"031-965-3077","addr":"경기도 고양시 덕양구 주교동 623-14번지","indutype":"숙박업 - 여관/기타숙박업","category":"hotel"}]},{"lat":"37.656826403","long":"126.8304007","imageIndex":5,"items":[{"name":"제이제이 (JJ)","tel":"031-965-5522","addr":"경기도 고양시 덕양구 주교동 605-14번지","indutype":"숙박업 - 여관/기타숙박업","category":"hotel"}]},{"lat":"37.656547385","long":"126.830594","imageIndex":5,"items":[{"name":"청산모텔(여관)","tel":"031-962-8279","addr":"경기도 고양시 덕양구 주교동 605-17번지","indutype":"숙박업 - 여관/기타숙박업","category":"hotel"}]},{"lat":"37.657939902","long":"126.83406992","imageIndex":5,"items":[{"name":"청운장","tel":"031-963-3506","addr":"경기도 고양시 덕양구 주교동 599-11번지","indutype":"숙박업 - 여관/기타숙박업","category":"hotel"},{"name":"청운장","tel":"031-963-3506","addr":"경기도 고양시 덕양구 주교동 599-11번지","indutype":"숙박업 - 여관/기타숙박업","category":"hotel"}]},{"lat":"37.656826883","long":"126.83072934","imageIndex":5,"items":[{"name":"콩깍지","tel":"031-966-6869","addr":"경기도 고양시 덕양구 주교동 605-21번지","indutype":"숙박업 - 여관/기타숙박업","category":"hotel"}]},{"lat":"37.656349867","long":"126.83107042","imageIndex":5,"items":[{"name":"트라움호텔","tel":"031-966-5126","addr":"경기도 고양시 덕양구 주교동 606-13번지","indutype":"숙박업 - 여관/기타숙박업","category":"hotel"}]},{"lat":"37.658995066","long":"126.83479283","imageIndex":5,"items":[{"name":"프린스모텔","tel":"031-965-5582","addr":"경기도 고양시 덕양구 주교동 584-6번지","indutype":"숙박업 - 여관/기타숙박업","category":"hotel"}]},{"lat":"37.658769421","long":"126.83451002","imageIndex":5,"items":[{"name":"피닉스모텔","tel":"031-963-1777","addr":"경기도 고양시 덕양구 주교동 585-4번지","indutype":"숙박업 - 여관/기타숙박업","category":"hotel"}]},{"lat":"37.65887765","long":"126.83458911","imageIndex":5,"items":[{"name":"호텔라움","tel":"031-966-1358","addr":"경기도 고양시 덕양구 주교동 585-1번지","indutype":"숙박업 - 여관/기타숙박업","category":"hotel"}]},{"lat":"37.656350543","long":"126.83153505","imageIndex":5,"items":[{"name":"호텔첼시","tel":"031-968-1456","addr":"경기도 고양시 덕양구 주교동 606-10번지","indutype":"숙박업 - 여관/기타숙박업","category":"hotel"}]}]