[{"lat":"37.770373451","long":"127.01785237","imageIndex":17,"items":[{"name":"GW엔터","tel":"","addr":"경기도 양주시 어둔동 97번지","indutype":"용역 서비스 - 기타용역서비스","category":"other"}]},{"lat":"37.772535742","long":"127.01779605","imageIndex":17,"items":[{"name":"참조은 교재사","tel":"031-821-7555","addr":"경기도 양주시 어둔동 116-1번지 B동 1층","indutype":"회원제형태 - 서적","category":"other"},{"name":"참조은 교재사","tel":"031-821-7555","addr":"경기도 양주시 어둔동 116-1번지 B동 1층","indutype":"서적문구 - 일반서적","category":"other"}]},{"lat":"37.772813995","long":"127.02451544","imageIndex":17,"items":[{"name":"천일유리","tel":"031-872-7463","addr":"경기도 양주시 어둔동 25-6번지","indutype":"건축자재 - 유리","category":"other"}]},{"lat":"37.768931189","long":"127.02284591","imageIndex":17,"items":[{"name":"케이.지.에스엔지니어링(K.g.Sen)","tel":"031-493-5107","addr":"경기도 양주시 어둔동 산48번지","indutype":"기타 - 기계공구","category":"other"}]},{"lat":"37.771679673","long":"127.01904439","imageIndex":4,"items":[{"name":"논두렁","tel":"031-840-9399","addr":"경기도 양주시 어둔동 70-2번지","indutype":"일반휴게음식 - 일반한식","category":"restaurant"}]},{"lat":"37.777230166","long":"127.01343825","imageIndex":4,"items":[{"name":"산에산","tel":"031-843-5282","addr":"경기도 양주시 어둔동 368번지","indutype":"일반휴게음식 - 일반한식","category":"restaurant"}]},{"lat":"37.772346587","long":"127.01743281","imageIndex":4,"items":[{"name":"순두부마을","tel":"031-842-0452","addr":"경기도 양주시 어둔동 460번지","indutype":"일반휴게음식 - 일반한식","category":"restaurant"}]},{"lat":"37.772535742","long":"127.01779605","imageIndex":4,"items":[{"name":"약수산장","tel":"031-842-7055","addr":"경기도 양주시 어둔동 116-1번지 외1필지","indutype":"일반휴게음식 - 일반한식","category":"restaurant"},{"name":"진장어","tel":"031-842-4500","addr":"경기도 양주시 어둔동 116-1번지 1층","indutype":"일반휴게음식 - 일반한식","category":"restaurant"}]},{"lat":"37.775589894","long":"127.01835285","imageIndex":4,"items":[{"name":"어둔리민물매운탕","tel":"031-840-7605","addr":"경기도 양주시 어둔동 143-8번지","indutype":"일반휴게음식 - 일반한식","category":"restaurant"},{"name":"오리랑장어랑","tel":"031-847-5292","addr":"경기도 양주시 어둔동 143-8번지","indutype":"일반휴게음식 - 일반한식","category":"restaurant"}]},{"lat":"37.777229989","long":"127.01526575","imageIndex":7,"items":[{"name":"불곡산농원","tel":"031-827-9288","addr":"경기도 양주시 어둔동 334-1번지","indutype":"음료식품 - 농·축·수산품","category":"food"}]},{"lat":"37.771283405","long":"127.0179093","imageIndex":7,"items":[{"name":"사동농원","tel":"031-840-0446","addr":"경기도 양주시 어둔동 100-9번지","indutype":"음료식품 - 농·축·수산품","category":"food"}]},{"lat":"37.77329177","long":"127.02298329","imageIndex":7,"items":[{"name":"오성농수산","tel":"031-873-3668","addr":"경기도 양주시 어둔동 109-1번지","indutype":"음료식품 - 농·축·수산품","category":"food"}]},{"lat":"37.776815318","long":"127.01732018","imageIndex":13,"items":[{"name":"어둔리남방낚시터 휴계소","tel":"031-845-4855","addr":"경기도 양주시 어둔동 344-8번지","indutype":"레저업소 - 기타레져업소","category":"leisure"}]},{"lat":"37.769509484","long":"127.00201934","imageIndex":13,"items":[{"name":"한마음청소년수련원","tel":"031-840-0018","addr":"경기도 양주시 어둔동 산120","indutype":"레저업소 - 기타레져업소","category":"leisure"}]},{"lat":"37.773149141","long":"127.00957858","imageIndex":16,"items":[{"name":"하임농장","tel":"031-111-1111","addr":"경기도 양주시 어둔동 399-1번지","indutype":"학원 - 기타 교육기관","category":"study"}]},{"lat":"37.771679673","long":"127.01904439","imageIndex":7,"items":[{"name":"행운마트","tel":"031-873-6676","addr":"경기도 양주시 어둔동 70-2번지 1층","indutype":"유통업 영리 - 슈퍼마켓","category":"mart"}]}]