[{"lat":"36.943227714","long":"127.25899141","imageIndex":17,"items":[{"name":"GS25안성서운점","tel":"02-2006-2485","addr":"경기도 안성시 서운면 인리 103-6","indutype":"유통업 영리 - 편 의 점","category":"other"}]},{"lat":"36.94289233","long":"127.25991081","imageIndex":17,"items":[{"name":"세븐일레븐안성서운중앙점","tel":"031-1577-0711","addr":"경기도 안성시 서운면 인리 107-6번지","indutype":"유통업 영리 - 편 의 점","category":"other"}]},{"lat":"36.942838703","long":"127.25970856","imageIndex":17,"items":[{"name":"초원포도원","tel":"031-672-9211","addr":"경기도 안성시 서운면 인리 108-1 1/1","indutype":"회원제형태 - 기타1","category":"other"}]},{"lat":"36.941563907","long":"127.26168001","imageIndex":17,"items":[{"name":"퍼피빌리티","tel":"","addr":"경기도 안성시 서운면 인리 485-17","indutype":"문화.취미 - 애완동물","category":"other"}]},{"lat":"36.941809855","long":"127.26045724","imageIndex":17,"items":[{"name":"한아에쎄스안성대리점","tel":"031-674-3822","addr":"경기도 안성시 서운면 인리 121-1","indutype":"농업 - 농기계","category":"other"}]},{"lat":"36.944944292","long":"127.27320953","imageIndex":7,"items":[{"name":"농업회사법인머쉬엠주식회사","tel":"02-6300-2640","addr":"경기도 안성시 서운면 인리 239","indutype":"음료식품 - 농·축·수산품","category":"food"}]},{"lat":"36.945499038","long":"127.25870713","imageIndex":7,"items":[{"name":"양촌흑염소","tel":"031-672-9585","addr":"경기도 안성시 서운면 인리 100번지","indutype":"건강식품 - 기타건강식품","category":"food"}]},{"lat":"36.944561539","long":"127.25888361","imageIndex":7,"items":[{"name":"우리농원","tel":"031-672-9454","addr":"경기도 안성시 서운면 인리 94번지","indutype":"음료식품 - 농·축·수산품","category":"food"}]},{"lat":"36.942144564","long":"127.25985217","imageIndex":7,"items":[{"name":"이빈포도원","tel":"031-676-1103","addr":"경기도 안성시 서운면 인리 119","indutype":"음료식품 - 농·축·수산품","category":"food"}]},{"lat":"36.937558857","long":"127.26770558","imageIndex":7,"items":[{"name":"자연과사람영농조합법인","tel":"031-675-6675","addr":"경기도 안성시 서운면 인리 330-4번지","indutype":"음료식품 - 기타음료식품","category":"food"}]},{"lat":"36.941977858","long":"127.27404098","imageIndex":7,"items":[{"name":"좋은사람들","tel":"031-674-2967","addr":"경기도 안성시 서운면 인리 309번지","indutype":"음료식품 - 농·축·수산품","category":"food"}]},{"lat":"36.943695253","long":"127.25946447","imageIndex":7,"items":[{"name":"청솔 포도","tel":"031-673-9058","addr":"경기도 안성시 서운면 인리 92","indutype":"음료식품 - 농·축·수산품","category":"food"}]},{"lat":"36.941611181","long":"127.26065863","imageIndex":7,"items":[{"name":"황금포도원","tel":"031-677-9057","addr":"경기도 안성시 서운면 인리 126-3","indutype":"음료식품 - 농·축·수산품","category":"food"}]},{"lat":"36.944174079","long":"127.25888231","imageIndex":4,"items":[{"name":"마니커식당","tel":"031-674-3515","addr":"경기도 안성시 서운면 인리 93번지","indutype":"일반휴게음식 - 일반한식","category":"restaurant"}]},{"lat":"36.945499038","long":"127.25870713","imageIndex":4,"items":[{"name":"양촌가든","tel":"031-672-9585","addr":"경기도 안성시 서운면 인리 100번지","indutype":"일반휴게음식 - 일반한식","category":"restaurant"}]},{"lat":"36.942641535","long":"127.25921396","imageIndex":13,"items":[{"name":"사랑방당구장","tel":"","addr":"경기도 안성시 서운면 인리 109-1번지 2층","indutype":"레저업소 - 당 구 장","category":"leisure"}]},{"lat":"36.94420058","long":"127.26327181","imageIndex":16,"items":[{"name":"서운중학교","tel":"031-672-9052","addr":"경기도 안성시 서운면 인리 67번지 서운중학교","indutype":"학원 - 초중고교육기관","category":"study"}]},{"lat":"36.943840562","long":"127.25893733","imageIndex":13,"items":[{"name":"안미라헤어샵","tel":"031-677-3806","addr":"경기도 안성시 서운면 인리 93-2","indutype":"보건위생 - 미용원","category":"beauty"}]}]