[{"lat":"37.131581256","long":"126.90832802","imageIndex":13,"items":[{"name":"가위손미용실","tel":"031-353-9020","addr":"경기도 화성시 향남읍 평리 113-1번지 1층","indutype":"보건위생 - 미용원","category":"beauty"}]},{"lat":"37.134087874","long":"126.9104857","imageIndex":13,"items":[{"name":"강남스타일","tel":"031-352-7173","addr":"경기도 화성시 향남읍 평리 30-25번지","indutype":"보건위생 - 미용원","category":"beauty"}]},{"lat":"37.131638781","long":"126.91277318","imageIndex":13,"items":[{"name":"경수사미용재료","tel":"031-375-9002","addr":"경기도 화성시 향남읍 평리 70-1","indutype":"보건위생 - 미용재료","category":"beauty"}]},{"lat":"37.13192334","long":"126.90793372","imageIndex":13,"items":[{"name":"김창숙헤어클럽","tel":"031-353-5397","addr":"경기도 화성시 향남읍 평리 109-6","indutype":"보건위생 - 미용원","category":"beauty"}]},{"lat":"37.134394476","long":"126.91080044","imageIndex":13,"items":[{"name":"나이스가이남성커트전문점","tel":"031-8059-3189","addr":"경기도 화성시 향남읍 평리 30-40번지 1층","indutype":"보건위생 - 미용원","category":"beauty"}]},{"lat":"37.128895726","long":"126.90782497","imageIndex":13,"items":[{"name":"네일은","tel":"","addr":"경기도 화성시 향남읍 평리 161-1번지 205호","indutype":"보건위생 - 피부미용실","category":"beauty"},{"name":"발안점머리염색체험방","tel":"031-8057-5965","addr":"경기도 화성시 향남읍 평리 161-1번지 에이스존 109호","indutype":"보건위생 - 화장품","category":"beauty"}]},{"lat":"37.132060822","long":"126.91088204","imageIndex":13,"items":[{"name":"럭셔리 뷰티향남점","tel":"031-353-8825","addr":"경기도 화성시 향남읍 평리 81-70번지 발안중앙빌딩 6층 2호","indutype":"보건위생 - 화장품","category":"beauty"},{"name":"럭셔리뷰티 (김정단)","tel":"031-353-8825","addr":"경기도 화성시 향남읍 평리 81-70번지 발안중앙빌딩 602호","indutype":"보건위생 - 화장품","category":"beauty"},{"name":"럭셔리뷰티향남점","tel":"031-000-0000","addr":"경기도 화성시 향남읍 평리 81-70번지 중앙빌딩 602호","indutype":"보건위생 - 화장품","category":"beauty"},{"name":"마일드","tel":"031-354-8798","addr":"경기도 화성시 향남읍 평리 81-70번지 중앙빌딩 204호","indutype":"보건위생 - 피부미용실","category":"beauty"},{"name":"오휘 발안점","tel":"031-353-8825","addr":"경기도 화성시 향남읍 평리 81-70번지 중앙빌딩 602호","indutype":"보건위생 - 화장품","category":"beauty"},{"name":"오휘 발안점","tel":"031-353-8825","addr":"경기도 화성시 향남읍 평리 81-70번지 발안중앙빌딩 602호","indutype":"보건위생 - 화장품","category":"beauty"},{"name":"오휘발안점","tel":"031-353-8825","addr":"경기도 화성시 향남읍 평리 81-70번지 발안중앙빌딩 602호","indutype":"보건위생 - 화장품","category":"beauty"},{"name":"오휘발안점","tel":"031-366-0628","addr":"경기도 화성시 향남읍 평리 81-70번지 발안중앙빌딩 602호","indutype":"보건위생 - 화장품","category":"beauty"},{"name":"오휘발안점","tel":"031-352-8825","addr":"경기도 화성시 향남읍 평리 81-70번지 발안중앙빌딩6층, 평리81-70","indutype":"보건위생 - 화장품","category":"beauty"},{"name":"오휘발안점","tel":"031-353-8825","addr":"경기도 화성시 향남읍 평리 81-70번지 (발안중앙빌딩602호,평리81-70)","indutype":"보건위생 - 화장품","category":"beauty"},{"name":"오휘발안점","tel":"031-353-8825","addr":"경기도 화성시 향남읍 평리 81-70번지 발안중앙빌딩 602호","indutype":"보건위생 - 화장품","category":"beauty"},{"name":"오휘발안점","tel":"031-353-8825","addr":"경기도 화성시 향남읍 평리 81-70번지 발안중앙빌딩 602호","indutype":"보건위생 - 화장품","category":"beauty"},{"name":"오휘발안점 (이선미)","tel":"","addr":"경기도 화성시 향남읍 평리 81-70번지 중앙빌딩 602호","indutype":"보건위생 - 화장품","category":"beauty"},{"name":"오휘발안점(송지선)","tel":"031-353-5077","addr":"경기도 화성시 향남읍 평리 81-70번지 중앙빌딩 602호","indutype":"보건위생 - 화장품","category":"beauty"}]},{"lat":"37.131140074","long":"126.90874496","imageIndex":13,"items":[{"name":"리기자헤어샵","tel":"031-353-0501","addr":"경기도 화성시 향남읍 평리 81-45번지","indutype":"보건위생 - 미용원","category":"beauty"}]},{"lat":"37.12872495","long":"126.90835409","imageIndex":13,"items":[{"name":"리뷰티샵(LEE뷰티샵)","tel":"031-352-3666","addr":"경기도 화성시 향남읍 평리 172번지 105호","indutype":"보건위생 - 피부미용실","category":"beauty"},{"name":"우리미디어스","tel":"031-352-8709","addr":"경기도 화성시 향남읍 평리 172번지 B동 1층 103,104호","indutype":"보건위생 - 기타대인서비스","category":"beauty"}]},{"lat":"37.131366339","long":"126.91001635","imageIndex":13,"items":[{"name":"마녀네일","tel":"070-8947-4490","addr":"경기도 화성시 향남읍 평리 81-30번지 2층","indutype":"보건위생 - 피부미용실","category":"beauty"}]},{"lat":"37.131284634","long":"126.90923994","imageIndex":13,"items":[{"name":"미스터컷트점","tel":"070-7074-4116","addr":"경기도 화성시 향남읍 평리 81-42번지 1층 1호","indutype":"보건위생 - 이용원","category":"beauty"}]},{"lat":"37.133673181","long":"126.9102161","imageIndex":13,"items":[{"name":"발리","tel":"031-354-4423","addr":"경기도 화성시 향남읍 평리 30-21번지 2층","indutype":"보건위생 - 이용원","category":"beauty"}]},{"lat":"37.131644813","long":"126.90893565","imageIndex":13,"items":[{"name":"발안상회","tel":"031-366-6564","addr":"경기도 화성시 향남읍 평리 80-9번지","indutype":"보건위생 - 화장품","category":"beauty"}]},{"lat":"37.132032938","long":"126.90979046","imageIndex":13,"items":[{"name":"백악관","tel":"031-353-5602","addr":"경기도 화성시 향남읍 평리 82-16번지 2층","indutype":"보건위생 - 화장품","category":"beauty"},{"name":"애경","tel":"031-353-5602","addr":"경기도 화성시 향남읍 평리 82-16번지","indutype":"보건위생 - 화장품","category":"beauty"}]},{"lat":"37.131887657","long":"126.90838391","imageIndex":13,"items":[{"name":"보떼 발안만세점","tel":"031-353-9700","addr":"경기도 화성시 향남읍 평리 85-3번지","indutype":"보건위생 - 화장품","category":"beauty"}]},{"lat":"37.130807318","long":"126.90954438","imageIndex":13,"items":[{"name":"비겐의료기 화성홈센터","tel":"031-366-1760","addr":"경기도 화성시 향남읍 평리 76-41번지 2층","indutype":"보건위생 - 의료용품","category":"beauty"}]},{"lat":"37.128978489","long":"126.90992924","imageIndex":13,"items":[{"name":"비너스","tel":"031-354-0157","addr":"경기도 화성시 향남읍 평리 152번지","indutype":"보건위생 - 화장품","category":"beauty"}]},{"lat":"37.131310852","long":"126.90821582","imageIndex":13,"items":[{"name":"샤넬피부샵","tel":"070-4152-3300","addr":"경기도 화성시 향남읍 평리 118-10번지 502호","indutype":"보건위생 - 피부미용실","category":"beauty"},{"name":"유니베라화성중앙대리점","tel":"031-354-4552","addr":"경기도 화성시 향남읍 평리 118-10번지 회춘프라자 702호","indutype":"보건위생 - 화장품","category":"beauty"}]},{"lat":"37.131193931","long":"126.90848606","imageIndex":13,"items":[{"name":"썬","tel":"031-352-2636","addr":"경기도 화성시 향남읍 평리 80-5번지 에쓰뻬랑스 501호","indutype":"보건위생 - 화장품","category":"beauty"},{"name":"썬","tel":"031-352-2636","addr":"경기도 화성시 향남읍 평리 80-5번지 에쓰뻬랑스 607호","indutype":"보건위생 - 화장품","category":"beauty"}]},{"lat":"37.133753879","long":"126.90970957","imageIndex":13,"items":[{"name":"쏭네일","tel":"031-359-9574","addr":"경기도 화성시 향남읍 평리 32-1번지","indutype":"보건위생 - 피부미용실","category":"beauty"}]},{"lat":"37.131141857","long":"126.9110182","imageIndex":13,"items":[{"name":"쑥뜸장이","tel":"031-352-8335","addr":"경기도 화성시 향남읍 평리 73-7번지 3층 쑥뜸장이","indutype":"보건위생 - 피부미용실","category":"beauty"}]},{"lat":"37.131472842","long":"126.90796804","imageIndex":13,"items":[{"name":"안경을찾는사람들","tel":"031-353-4828","addr":"경기도 화성시 향남읍 평리 118-5번지","indutype":"보건위생 - 안경","category":"beauty"}]},{"lat":"37.13208551","long":"126.90791101","imageIndex":13,"items":[{"name":"에뛰드하우스(향남점)","tel":"031-366-1525","addr":"경기도 화성시 향남읍 평리 109-12번지","indutype":"보건위생 - 화장품","category":"beauty"}]},{"lat":"37.131449766","long":"126.9130435","imageIndex":13,"items":[{"name":"오성대리","tel":"","addr":"경기도 화성시 향남읍 평리 69-8번지 외2필지","indutype":"보건위생 - 기타대인서비스","category":"beauty"}]},{"lat":"37.132031753","long":"126.9082937","imageIndex":13,"items":[{"name":"윤헤어모드","tel":"031-352-2267","addr":"경기도 화성시 향남읍 평리 110-9번지","indutype":"보건위생 - 미용원","category":"beauty"}]},{"lat":"37.131616875","long":"126.90779905","imageIndex":13,"items":[{"name":"이은희헤어","tel":"031-353-0157","addr":"경기도 화성시 향남읍 평리 115-19번지","indutype":"보건위생 - 미용원","category":"beauty"}]},{"lat":"37.131339703","long":"126.9105228","imageIndex":13,"items":[{"name":"중앙의료기","tel":"031-352-9133","addr":"경기도 화성시 향남읍 평리 81-22번지","indutype":"보건위생 - 의료용품","category":"beauty"},{"name":"화성독일보청기","tel":"","addr":"경기도 화성시 향남읍 평리 81-22번지","indutype":"보건위생 - 의료용품","category":"beauty"}]},{"lat":"37.133142359","long":"126.91124086","imageIndex":13,"items":[{"name":"착한헤어","tel":"031-352-7338","addr":"경기도 화성시 향남읍 평리 81-15번지 101호","indutype":"보건위생 - 미용원","category":"beauty"}]},{"lat":"37.132581796","long":"126.90879944","imageIndex":13,"items":[{"name":"토니모리","tel":"080-356-2222","addr":"경기도 화성시 향남읍 평리 110-1번지","indutype":"보건위생 - 화장품","category":"beauty"}]},{"lat":"37.132031375","long":"126.90782104","imageIndex":13,"items":[{"name":"토모헤어","tel":"070-8947-4490","addr":"경기도 화성시 향남읍 평리 109-21번지","indutype":"보건위생 - 미용원","category":"beauty"}]},{"lat":"37.130284247","long":"126.90895984","imageIndex":13,"items":[{"name":"평리이용원","tel":"031-352-5762","addr":"경기도 화성시 향남읍 평리 76-25번지","indutype":"보건위생 - 이용원","category":"beauty"}]},{"lat":"37.132004281","long":"126.9077423","imageIndex":13,"items":[{"name":"포맨클럽","tel":"031-352-7908","addr":"경기도 화성시 향남읍 평리 223-12번지 2호","indutype":"보건위생 - 이용원","category":"beauty"}]},{"lat":"37.132807316","long":"126.90912553","imageIndex":13,"items":[{"name":"핸섬보이","tel":"070-4177-2796","addr":"경기도 화성시 향남읍 평리 86-1번지","indutype":"보건위생 - 미용원","category":"beauty"}]},{"lat":"37.133366366","long":"126.90963127","imageIndex":13,"items":[{"name":"향남사우나","tel":"031-353-1802","addr":"경기도 화성시 향남읍 평리 35-14번지 외2필지","indutype":"보건위생 - 사우나","category":"beauty"},{"name":"향남샵(화장품판매)","tel":"031-352-7393","addr":"경기도 화성시 향남읍 평리 35-14번지 104호","indutype":"보건위생 - 화장품","category":"beauty"},{"name":"향남스파랜드(향남사우나찜질방)","tel":"031-353-1802","addr":"경기도 화성시 향남읍 평리 35-14","indutype":"보건위생 - 사우나","category":"beauty"}]},{"lat":"37.130670611","long":"126.90759767","imageIndex":13,"items":[{"name":"황실체형관리","tel":"031-359-8821","addr":"경기도 화성시 향남읍 평리 121-5번지 지하1층(라임테라스)","indutype":"보건위생 - 피부미용실","category":"beauty"}]}]