[{"lat":"38.071924308","long":"127.41702196","imageIndex":4,"items":[{"name":"가보세식당","tel":"031-535-7389","addr":"경기도 포천시 이동면 도평리 산76-9번지","indutype":"일반휴게음식 - 일반한식","category":"restaurant"},{"name":"옛촌산장","tel":"031-535-6918","addr":"경기도 포천시 이동면 도평리 산76-9번지","indutype":"일반휴게음식 - 일반한식","category":"restaurant"}]},{"lat":"38.067150536","long":"127.39303036","imageIndex":4,"items":[{"name":"강나루","tel":"031-535-3914","addr":"경기도 포천시 이동면 도평리 61-3번지","indutype":"일반휴게음식 - 중국식","category":"restaurant"},{"name":"강나루","tel":"535-3914","addr":"경기도 포천시 이동면 도평리 61-3번지","indutype":"음식 - 중식","category":"restaurant"}]},{"lat":"38.069454184","long":"127.39652972","imageIndex":4,"items":[{"name":"강변","tel":"031-535-7787","addr":"경기도 포천시 이동면 도평리 56-5번지","indutype":"일반휴게음식 - 일반한식","category":"restaurant"}]},{"lat":"38.063535232","long":"127.38838483","imageIndex":4,"items":[{"name":"계곡식당","tel":"536-3665","addr":"경기도 포천시 이동면 도평리 720번지","indutype":"음식 - 한식","category":"restaurant"},{"name":"마당골휴게소","tel":"536-2187","addr":"경기도 포천시 이동면 도평리 720번지","indutype":"음식 - 한식","category":"restaurant"},{"name":"명당가","tel":"031-536-3665","addr":"경기도 포천시 이동면 도평리 720번지 1층","indutype":"일반휴게음식 - 일반한식","category":"restaurant"},{"name":"백운산민속갈비","tel":"535-8641","addr":"경기도 포천시 이동면 도평리 720번지","indutype":"음식 - 한식","category":"restaurant"},{"name":"산골유원지식당","tel":"031-535-7944","addr":"경기도 포천시 이동면 도평리 720번지","indutype":"일반휴게음식 - 일반한식","category":"restaurant"},{"name":"선녀탕집","tel":"535-8911","addr":"경기도 포천시 이동면 도평리 720번지","indutype":"음식 - 한식","category":"restaurant"},{"name":"선비촌","tel":"535-4740","addr":"경기도 포천시 이동면 도평리 720번지","indutype":"음식 - 매점","category":"restaurant"},{"name":"선유담식당","tel":"031-535-8856","addr":"경기도 포천시 이동면 도평리 720번지","indutype":"일반휴게음식 - 일반한식","category":"restaurant"},{"name":"선유담식당","tel":"535-8856","addr":"경기도 포천시 이동면 도평리 720번지","indutype":"음식 - 한식","category":"restaurant"},{"name":"소나무숲","tel":"031-535-5993","addr":"경기도 포천시 이동면 도평리 720번지","indutype":"일반휴게음식 - 일반한식","category":"restaurant"},{"name":"전주솔밭갈비","tel":"031-535-8886","addr":"경기도 포천시 이동면 도평리 720번지","indutype":"일반휴게음식 - 일반한식","category":"restaurant"},{"name":"정든식당","tel":"535-6725","addr":"경기도 포천시 이동면 도평리 720번지","indutype":"음식 - 한식","category":"restaurant"},{"name":"청원가든","tel":"031-535-9497","addr":"경기도 포천시 이동면 도평리 720번지","indutype":"일반휴게음식 - 일반한식","category":"restaurant"},{"name":"청원가든","tel":"","addr":"경기도 포천시 이동면 도평리 720번지","indutype":"음식 - 한식","category":"restaurant"}]},{"lat":"38.069873219","long":"127.40316438","imageIndex":4,"items":[{"name":"고향산천","tel":"535-1236","addr":"경기도 포천시 이동면 도평리 47-2번지","indutype":"음식 - 한식","category":"restaurant"}]},{"lat":"38.069983506","long":"127.39178046","imageIndex":4,"items":[{"name":"길손식당","tel":"031-535-4180","addr":"경기도 포천시 이동면 도평리 75번지","indutype":"일반휴게음식 - 일반한식","category":"restaurant"},{"name":"청솔식당","tel":"031-535-7605","addr":"경기도 포천시 이동면 도평리 75번지","indutype":"일반휴게음식 - 일반한식","category":"restaurant"}]},{"lat":"38.081814614","long":"127.41232487","imageIndex":4,"items":[{"name":"길손식당","tel":"535-4180","addr":"경기도 포천시 이동면 도평리 산75번지","indutype":"음식 - 한식","category":"restaurant"},{"name":"도평역","tel":"031-535-9497","addr":"경기도 포천시 이동면 도평리 산75번지 도평역","indutype":"일반휴게음식 - 일반한식","category":"restaurant"},{"name":"동헌이네민박식당","tel":"031-535-8814","addr":"경기도 포천시 이동면 도평리 산75번지","indutype":"일반휴게음식 - 일반한식","category":"restaurant"},{"name":"로뎀하우스","tel":"031-535-9636","addr":"경기도 포천시 이동면 도평리 산75번지","indutype":"일반휴게음식 - 일반한식","category":"restaurant"},{"name":"백운휴게실전통옹기","tel":"536-7122","addr":"경기도 포천시 이동면 도평리 산75번지","indutype":"음식 - 한식","category":"restaurant"},{"name":"산맥쉼터","tel":"031-535-8067","addr":"경기도 포천시 이동면 도평리 산75번지","indutype":"일반휴게음식 - 일반한식","category":"restaurant"},{"name":"솔마루","tel":"031-535-9067","addr":"경기도 포천시 이동면 도평리 산75번지","indutype":"일반휴게음식 - 일반한식","category":"restaurant"},{"name":"전원","tel":"535-7444","addr":"경기도 포천시 이동면 도평리 산75번지","indutype":"음식 - 한식","category":"restaurant"}]},{"lat":"38.075232669","long":"127.41643659","imageIndex":4,"items":[{"name":"나드리쉼터식당","tel":"031-536-4046","addr":"경기도 포천시 이동면 도평리 27번지","indutype":"일반휴게음식 - 일반한식","category":"restaurant"},{"name":"산울림식당","tel":"031-535-7205","addr":"경기도 포천시 이동면 도평리 27번지","indutype":"일반휴게음식 - 일반한식","category":"restaurant"},{"name":"산울림식당","tel":"535-7205","addr":"경기도 포천시 이동면 도평리 27번지","indutype":"음식 - 한식","category":"restaurant"}]},{"lat":"38.077261746","long":"127.4184083","imageIndex":4,"items":[{"name":"노들식당","tel":"535-7854","addr":"경기도 포천시 이동면 도평리 23-2번지","indutype":"음식 - 한식","category":"restaurant"},{"name":"청운쉼터","tel":"031-535-8685","addr":"경기도 포천시 이동면 도평리 23-2번지","indutype":"일반휴게음식 - 일반한식","category":"restaurant"}]},{"lat":"38.057507893","long":"127.3857212","imageIndex":4,"items":[{"name":"대상식당","tel":"031-535-7910","addr":"경기도 포천시 이동면 도평리 156-44번지 1층","indutype":"일반휴게음식 - 일반한식","category":"restaurant"}]},{"lat":"38.060317807","long":"127.38599791","imageIndex":4,"items":[{"name":"도리돌식당","tel":"534-1475","addr":"경기도 포천시 이동면 도평리 151번지","indutype":"음식 - 한식","category":"restaurant"}]},{"lat":"38.05054194","long":"127.38355445","imageIndex":4,"items":[{"name":"도마치계곡유원지","tel":"031-535-0825","addr":"경기도 포천시 이동면 도평리 269-1번지","indutype":"일반휴게음식 - 일반한식","category":"restaurant"}]},{"lat":"38.085974052","long":"127.37236248","imageIndex":4,"items":[{"name":"동산","tel":"031-535-8893","addr":"경기도 포천시 이동면 도평리 720-19번지","indutype":"일반휴게음식 - 일반한식","category":"restaurant"}]},{"lat":"38.075647475","long":"127.41632495","imageIndex":4,"items":[{"name":"동헌이네민박식당","tel":"","addr":"경기도 포천시 이동면 도평리 28번지","indutype":"음식 - 한식","category":"restaurant"}]},{"lat":"38.076787981","long":"127.4173571","imageIndex":4,"items":[{"name":"등나무집","tel":"031-535-5419","addr":"경기도 포천시 이동면 도평리 24번지","indutype":"일반휴게음식 - 일반한식","category":"restaurant"},{"name":"등나무집","tel":"031-535-5419","addr":"경기도 포천시 이동면 도평리 24번지","indutype":"일반휴게음식 - 일반한식","category":"restaurant"}]},{"lat":"38.058318321","long":"127.38583936","imageIndex":4,"items":[{"name":"메추추메탕","tel":"031-535-7617","addr":"경기도 포천시 이동면 도평리 157-3번지","indutype":"일반휴게음식 - 일반한식","category":"restaurant"},{"name":"메추추메탕","tel":"","addr":"경기도 포천시 이동면 도평리 157-3번지","indutype":"음식 - 한식","category":"restaurant"}]},{"lat":"38.072479602","long":"127.4102215","imageIndex":4,"items":[{"name":"민속갈비","tel":"031-535-8641","addr":"경기도 포천시 이동면 도평리 35번지","indutype":"일반휴게음식 - 일반한식","category":"restaurant"}]},{"lat":"38.068482983","long":"127.39600032","imageIndex":4,"items":[{"name":"바위식당","tel":"031-536-0268","addr":"경기도 포천시 이동면 도평리 58-2번지","indutype":"일반휴게음식 - 일반한식","category":"restaurant"},{"name":"청수장","tel":"031-535-0259","addr":"경기도 포천시 이동면 도평리 58-2번지","indutype":"일반휴게음식 - 일반한식","category":"restaurant"},{"name":"청수장","tel":"535-0259","addr":"경기도 포천시 이동면 도평리 58-2번지","indutype":"음식 - 한식","category":"restaurant"}]},{"lat":"38.07864349","long":"127.42000034","imageIndex":4,"items":[{"name":"반석갈비","tel":"031-535-8658","addr":"경기도 포천시 이동면 도평리 19","indutype":"일반휴게음식 - 일반한식","category":"restaurant"}]},{"lat":"38.076784104","long":"127.38941171","imageIndex":4,"items":[{"name":"밤나무집(약사)","tel":"031-535-7082","addr":"경기도 포천시 이동면 도평리 500-1","indutype":"일반휴게음식 - 일반한식","category":"restaurant"}]},{"lat":"38.069675966","long":"127.39755654","imageIndex":4,"items":[{"name":"백봉갈비","tel":"031-535-7753","addr":"경기도 포천시 이동면 도평리 55-2번지","indutype":"일반휴게음식 - 일반한식","category":"restaurant"}]},{"lat":"38.096229249","long":"127.43243505","imageIndex":4,"items":[{"name":"백운계곡정상식당","tel":"031-535-5056","addr":"경기도 포천시 이동면 도평리 산 1-2","indutype":"일반휴게음식 - 일반한식","category":"restaurant"}]},{"lat":"38.073095631","long":"127.41183181","imageIndex":4,"items":[{"name":"백운산식당","tel":"031-535-7347","addr":"경기도 포천시 이동면 도평리 33","indutype":"일반휴게음식 - 일반한식","category":"restaurant"},{"name":"송씨네","tel":"031-535-4872","addr":"경기도 포천시 이동면 도평리 33번지","indutype":"일반휴게음식 - 일반한식","category":"restaurant"},{"name":"송씨네","tel":"031-531-0721","addr":"경기도 포천시 이동면 도평리 33번지","indutype":"일반휴게음식 - 일반한식","category":"restaurant"}]},{"lat":"38.064177847","long":"127.3874766","imageIndex":4,"items":[{"name":"백운산전망대식당","tel":"031-536-1987","addr":"경기도 포천시 이동면 도평리 463-6번지 1층","indutype":"일반휴게음식 - 일반한식","category":"restaurant"}]},{"lat":"38.071454131","long":"127.40716165","imageIndex":4,"items":[{"name":"백운이동갈비","tel":"031-535-9827","addr":"경기도 포천시 이동면 도평리 43번지","indutype":"일반휴게음식 - 일반한식","category":"restaurant"}]},{"lat":"38.079615186","long":"127.42035918","imageIndex":4,"items":[{"name":"백운지당골식당","tel":"535-0605","addr":"경기도 포천시 이동면 도평리 19-2번지","indutype":"음식 - 한식","category":"restaurant"}]},{"lat":"38.052950113","long":"127.38270103","imageIndex":4,"items":[{"name":"밸리필로소피(valleyphilosophy)","tel":"070-8870-1140","addr":"경기도 포천시 이동면 도평리 238-2번지 2층","indutype":"일반휴게음식 - 서양음식","category":"restaurant"},{"name":"한국인갈비","tel":"031-535-9253","addr":"경기도 포천시 이동면 도평리 238-2번지","indutype":"일반휴게음식 - 일반한식","category":"restaurant"}]},{"lat":"38.06001247","long":"127.38570007","imageIndex":4,"items":[{"name":"부춘","tel":"","addr":"경기도 포천시 이동면 도평리 148-3번지","indutype":"일반휴게음식 - 일반한식","category":"restaurant"}]},{"lat":"38.080202336","long":"127.41991801","imageIndex":4,"items":[{"name":"사심지식당","tel":"031-535-6322","addr":"경기도 포천시 이동면 도평리 17","indutype":"일반휴게음식 - 일반한식","category":"restaurant"},{"name":"영민네산장식당","tel":"031-535-8701","addr":"경기도 포천시 이동면 도평리 17번지","indutype":"일반휴게음식 - 일반한식","category":"restaurant"}]},{"lat":"38.080649051","long":"127.42096913","imageIndex":4,"items":[{"name":"산마루","tel":"031-827-9288","addr":"경기도 포천시 이동면 도평리 16-2번지","indutype":"일반휴게음식 - 일반한식","category":"restaurant"}]},{"lat":"38.111921589","long":"127.3994713","imageIndex":4,"items":[{"name":"산마루정육가든","tel":"031-571-5942","addr":"경기도 포천시 이동면 도평리 582-10번지","indutype":"일반휴게음식 - 일반한식","category":"restaurant"}]},{"lat":"38.083311491","long":"127.39066565","imageIndex":4,"items":[{"name":"산수원","tel":"031-536-1209","addr":"경기도 포천시 이동면 도평리 524번지","indutype":"일반휴게음식 - 일반한식","category":"restaurant"}]},{"lat":"38.081510161","long":"127.42202262","imageIndex":4,"items":[{"name":"산천유원지식당","tel":"031-535-8451","addr":"경기도 포천시 이동면 도평리 16번지","indutype":"일반휴게음식 - 일반한식","category":"restaurant"}]},{"lat":"38.077593298","long":"127.41891165","imageIndex":4,"items":[{"name":"상류촌","tel":"031-535-8119","addr":"경기도 포천시 이동면 도평리 22-2번지 1층","indutype":"일반휴게음식 - 일반한식","category":"restaurant"},{"name":"상류촌","tel":"535-8119","addr":"경기도 포천시 이동면 도평리 22-2번지","indutype":"음식 - 한식","category":"restaurant"},{"name":"초원식당","tel":"031-535-7853","addr":"경기도 포천시 이동면 도평리 22-2번지","indutype":"일반휴게음식 - 일반한식","category":"restaurant"}]},{"lat":"38.073538718","long":"127.41394262","imageIndex":4,"items":[{"name":"솔솔바람","tel":"031-535-1131","addr":"경기도 포천시 이동면 도평리 26-6번지","indutype":"일반휴게음식 - 일반한식","category":"restaurant"}]},{"lat":"38.07909295","long":"127.38863744","imageIndex":4,"items":[{"name":"약사골가든","tel":"031-536-0600","addr":"경기도 포천시 이동면 도평리 509번지 차동 1층","indutype":"일반휴게음식 - 일반한식","category":"restaurant"}]},{"lat":"38.075394306","long":"127.41658565","imageIndex":4,"items":[{"name":"우리마당","tel":"031-535-9938","addr":"경기도 포천시 이동면 도평리 27-3번지","indutype":"일반휴게음식 - 일반한식","category":"restaurant"}]},{"lat":"38.058346646","long":"127.38544072","imageIndex":4,"items":[{"name":"이동염소마을","tel":"031-535-5479","addr":"경기도 포천시 이동면 도평리 164-14번지","indutype":"일반휴게음식 - 일반한식","category":"restaurant"}]},{"lat":"38.07159353","long":"127.40592023","imageIndex":4,"items":[{"name":"이동원조 숲속갈비","tel":"535-9880","addr":"경기도 포천시 이동면 도평리 42-1번지","indutype":"음식 - 한식","category":"restaurant"},{"name":"이동원조숲속갈비","tel":"031-535-9880","addr":"경기도 포천시 이동면 도평리 42-1번지","indutype":"일반휴게음식 - 일반한식","category":"restaurant"}]},{"lat":"38.051843271","long":"127.38230794","imageIndex":4,"items":[{"name":"이맛갈비","tel":"534-0700","addr":"경기도 포천시 이동면 도평리 342번지","indutype":"음식 - 한식","category":"restaurant"},{"name":"이맛갈비","tel":"031-534-0700","addr":"경기도 포천시 이동면 도평리 342번지","indutype":"일반휴게음식 - 일반한식","category":"restaurant"}]},{"lat":"38.058315569","long":"127.38391374","imageIndex":4,"items":[{"name":"이홍삼계탕","tel":"031-535-7087","addr":"경기도 포천시 이동면 도평리 199-6번지","indutype":"일반휴게음식 - 일반한식","category":"restaurant"}]},{"lat":"38.073144848","long":"127.40802568","imageIndex":4,"items":[{"name":"자갈치식당","tel":"031-536-0711","addr":"경기도 포천시 이동면 도평리 39-2번지","indutype":"일반휴게음식 - 일반한식","category":"restaurant"}]},{"lat":"38.07411994","long":"127.4151881","imageIndex":4,"items":[{"name":"자연한식","tel":"535-0399","addr":"경기도 포천시 이동면 도평리 31번지","indutype":"음식 - 한식","category":"restaurant"}]},{"lat":"38.065096042","long":"127.38769791","imageIndex":4,"items":[{"name":"커피베이 포천이동점","tel":"031-535-8161","addr":"경기도 포천시 이동면 도평리 83-15번지","indutype":"일반휴게음식 - 서양음식","category":"restaurant"}]},{"lat":"38.066510598","long":"127.38211019","imageIndex":4,"items":[{"name":"큰마당","tel":"031-536-3976","addr":"경기도 포천시 이동면 도평리 434","indutype":"일반휴게음식 - 일반한식","category":"restaurant"}]},{"lat":"38.063342453","long":"127.38947773","imageIndex":4,"items":[{"name":"테이스트캠프","tel":"070-8152-6823","addr":"경기도 포천시 이동면 도평리 102-1번지","indutype":"일반휴게음식 - 일반한식","category":"restaurant"}]},{"lat":"38.056789519","long":"127.38499964","imageIndex":4,"items":[{"name":"포천한우마을","tel":"533-2219","addr":"경기도 포천시 이동면 도평리 166-13번지","indutype":"음식 - 한식","category":"restaurant"},{"name":"포천한우마을","tel":"031-535-2219","addr":"경기도 포천시 이동면 도평리 166-13","indutype":"일반휴게음식 - 일반한식","category":"restaurant"}]},{"lat":"38.069454148","long":"127.4045296","imageIndex":4,"items":[{"name":"폭포수식당","tel":"031-535-6785","addr":"경기도 포천시 이동면 도평리 47번지","indutype":"일반휴게음식 - 일반한식","category":"restaurant"},{"name":"폭포수식당","tel":"535-6785","addr":"경기도 포천시 이동면 도평리 47번지","indutype":"음식 - 한식","category":"restaurant"}]},{"lat":"38.048616996","long":"127.37983049","imageIndex":4,"items":[{"name":"풍차갈비","tel":"031-531-0954","addr":"경기도 포천시 이동면 도평리 323-4번지","indutype":"일반휴게음식 - 일반한식","category":"restaurant"}]},{"lat":"38.072672242","long":"127.40660993","imageIndex":4,"items":[{"name":"풍차식당","tel":"031-535-4037","addr":"경기도 포천시 이동면 도평리 41-1","indutype":"일반휴게음식 - 일반한식","category":"restaurant"},{"name":"풍차휴게소","tel":"535-4037","addr":"경기도 포천시 이동면 도평리 41-1번지","indutype":"음식 - 한식","category":"restaurant"}]},{"lat":"38.0677045","long":"127.39441217","imageIndex":4,"items":[{"name":"화악산 산장","tel":"070-8190-7060","addr":"경기도 포천시 이동면 도평리 60-6번지","indutype":"일반휴게음식 - 일반한식","category":"restaurant"}]},{"lat":"38.067616232","long":"127.39386471","imageIndex":4,"items":[{"name":"화악산농장가든","tel":"031-535-5928","addr":"경기도 포천시 이동면 도평리 60-1번지","indutype":"일반휴게음식 - 일반한식","category":"restaurant"}]}]