[{"lat":"37.632620754","long":"127.50719606","imageIndex":17,"items":[{"name":"(주)엔와이건설","tel":"02-904-1333","addr":"경기도 가평군 설악면 설곡리 443번지 1층","indutype":"용역 서비스 - 부동산 중개·임대","category":"other"}]},{"lat":"37.616090006","long":"127.527415","imageIndex":17,"items":[{"name":"대경설비","tel":"031-111-1111","addr":"경기도 가평군 설악면 설곡리 261번지","indutype":"용역 서비스 - 기타용역서비스","category":"other"}]},{"lat":"37.630929351","long":"127.53535858","imageIndex":17,"items":[{"name":"설곡농산","tel":"031-585-3303","addr":"경기도 가평군 설악면 설곡리 351번지","indutype":"회원제형태 - 기타1","category":"other"}]},{"lat":"37.617954229","long":"127.52555922","imageIndex":17,"items":[{"name":"양지농원","tel":"031-584-8008","addr":"경기도 가평군 설악면 설곡리 568번지","indutype":"신변잡화 - 기타잡화","category":"other"}]},{"lat":"37.613201839","long":"127.54055528","imageIndex":17,"items":[{"name":"조이SPA","tel":"031-584-4605","addr":"경기도 가평군 설악면 설곡리 29-1번지","indutype":"건축자재 - 인테리어전문","category":"other"}]},{"lat":"37.616236042","long":"127.53902543","imageIndex":5,"items":[{"name":"가평설악하늘계곡캠핑장","tel":"031-584-6423","addr":"경기도 가평군 설악면 설곡리 65-1번지","indutype":"숙박업 - 여관/기타숙박업","category":"hotel"}]},{"lat":"37.616062919","long":"127.53347434","imageIndex":5,"items":[{"name":"솔가","tel":"070-8828-9191","addr":"경기도 가평군 설악면 설곡리 206-2번지","indutype":"숙박업 - 여관/기타숙박업","category":"hotel"}]},{"lat":"37.626980042","long":"127.5136375","imageIndex":5,"items":[{"name":"에코 프라미스","tel":"031-584-2151","addr":"경기도 가평군 설악면 설곡리 470-5번지","indutype":"숙박업 - 여관/기타숙박업","category":"hotel"}]},{"lat":"37.619818807","long":"127.51330534","imageIndex":7,"items":[{"name":"설곡옻샘영농조합법인","tel":"031-584-9339","addr":"경기도 가평군 설악면 설곡리 742-3","indutype":"음료식품 - 농·축·수산품","category":"food"}]},{"lat":"37.613201839","long":"127.54055528","imageIndex":7,"items":[{"name":"솔고은","tel":"031-0000-0000","addr":"경기도 가평군 설악면 설곡리 29-1번지","indutype":"음료식품 - 농·축·수산품","category":"food"}]},{"lat":"37.617954229","long":"127.52555922","imageIndex":7,"items":[{"name":"양지농원","tel":"031-584-8008","addr":"경기도 가평군 설악면 설곡리 568번지","indutype":"음료식품 - 미곡상","category":"food"}]},{"lat":"37.62070229","long":"127.51939395","imageIndex":7,"items":[{"name":"설악슈퍼","tel":"","addr":"경기도 가평군 설악면 설곡리 664-9번지","indutype":"유통업 영리 - 슈퍼마켓","category":"mart"}]},{"lat":"37.677193442","long":"127.48733168","imageIndex":7,"items":[{"name":"설악슈퍼","tel":"031-584-8303","addr":"경기도 가평군 설악면 설곡리 664-9번지","indutype":"유통업 영리 - 슈퍼마켓","category":"mart"}]},{"lat":"37.623925862","long":"127.5136166","imageIndex":13,"items":[{"name":"세라핌캠프","tel":"070-7724-3917","addr":"경기도 가평군 설악면 설곡리 730-1번지","indutype":"레저업소 - 기타레져업소","category":"leisure"}]},{"lat":"37.624096712","long":"127.52603266","imageIndex":0,"items":[{"name":"현지유통","tel":"","addr":"경기도 가평군 설악면 설곡리 534-9번지","indutype":"자동차정비 유지 - 자동차부품","category":"car"}]}]