[{"lat":"37.497260773","long":"126.77591146","imageIndex":8,"items":[{"name":"24시 웰니스 동물의료센터","tel":"032-201-7572","addr":"경기도 부천시 중동 1128번지 2층 203호,204호,205호","indutype":"기타의료기관 - 동물병원","category":"medical"},{"name":"네오치과","tel":"032-324-7528","addr":"경기도 부천시 중동 1128번지 그린프라자 4층 403호","indutype":"의원 - 치과의원","category":"medical"},{"name":"참사랑한의원","tel":"032-327-2725","addr":"경기도 부천시 중동 1128번지 그린프라자 303호","indutype":"의원 - 한의원","category":"medical"}]},{"lat":"37.502342463","long":"126.76230251","imageIndex":8,"items":[{"name":"365내이소의원","tel":"032-321-3650","addr":"경기도 부천시 중동 1161-3번지 일신빌딩 5층 501호","indutype":"의원 - 의원","category":"medical"},{"name":"경희다슬한의원","tel":"032-322-7288","addr":"경기도 부천시 중동 1161-3번지 일신빌딩 5층 501호","indutype":"의원 - 한의원","category":"medical"},{"name":"디자인의원","tel":"032-325-7789","addr":"경기도 부천시 중동 1161-3번지 601호 602호 일신빌딩 일부","indutype":"의원 - 의원","category":"medical"},{"name":"세하나의원","tel":"032-329-0091","addr":"경기도 부천시 중동 1161-3번지 5층 501-1호","indutype":"의원 - 의원","category":"medical"},{"name":"쓰담동물병원","tel":"032-329-7599","addr":"경기도 부천시 중동 1161-3번지 일신빌딩 108호","indutype":"기타의료기관 - 동물병원","category":"medical"},{"name":"에스티엠치과의원","tel":"032-324-0082","addr":"경기도 부천시 중동 1161-3번지 일신빌딩 601호","indutype":"의원 - 치과의원","category":"medical"},{"name":"자연약국","tel":"032-348-7500","addr":"경기도 부천시 중동 1161-3번지 일신빌딩 503호","indutype":"약국 - 약국","category":"medical"},{"name":"치과의원","tel":"032-326-2822","addr":"경기도 부천시 중동 1161-3번지 로하프라자 206호","indutype":"의원 - 치과의원","category":"medical"}]},{"lat":"37.496899613","long":"126.76187894","imageIndex":8,"items":[{"name":"88서울의원","tel":"032-668-8875","addr":"경기도 부천시 중동 678번지 남양빌딩","indutype":"의원 - 의원","category":"medical"}]},{"lat":"37.500205409","long":"126.775077","imageIndex":8,"items":[{"name":"CJ동물병원","tel":"032-3323-4999","addr":"경기도 부천시 중동 1134번지 새롬프라자6차 105호","indutype":"기타의료기관 - 동물병원","category":"medical"},{"name":"엘리트치과의원","tel":"032-327-4564","addr":"경기도 부천시 중동 1134번지 새롬프라자6차 301호","indutype":"의원 - 치과의원","category":"medical"},{"name":"정약국","tel":"032-326-6646","addr":"경기도 부천시 중동 1134번지 새롬프라자6차 403호","indutype":"약국 - 약국","category":"medical"},{"name":"제일경희한의원","tel":"032-325-0414","addr":"경기도 부천시 중동 1134번지 새롬프라자6차 401호","indutype":"의원 - 한의원","category":"medical"},{"name":"조원이비인후과","tel":"032-321-8575","addr":"경기도 부천시 중동 1134번지 새롬프라자6차 3동 302호","indutype":"의원 - 의원","category":"medical"},{"name":"중동수약국","tel":"032-326-9933","addr":"경기도 부천시 중동 1134번지","indutype":"약국 - 약국","category":"medical"}]},{"lat":"37.498397837","long":"126.77685794","imageIndex":8,"items":[{"name":"CNP차앤박피부과(부천점)","tel":"032-325-7733","addr":"경기도 부천시 중동 1131-3번지 동성빌딩 402호 401호","indutype":"의원 - 의원","category":"medical"},{"name":"메디팜백송약국","tel":"032-322-6655","addr":"경기도 부천시 중동 1131-3번지 신영빌딩 101호","indutype":"약국 - 약국","category":"medical"},{"name":"연세눈꽃치과","tel":"032-215-2875","addr":"경기도 부천시 중동 1131-3번지 2층 202호 동성빌딩 내","indutype":"의원 - 치과의원","category":"medical"}]},{"lat":"37.501513666","long":"126.77602299","imageIndex":8,"items":[{"name":"LG마취통증의학과","tel":"032-322-1778","addr":"경기도 부천시 중동 1140-3번지","indutype":"의원 - 의원","category":"medical"},{"name":"라온한의원","tel":"032-328-7070","addr":"경기도 부천시 중동 1140-3번지 트리플타워 303호","indutype":"의원 - 한의원","category":"medical"},{"name":"라온한의원","tel":"032-328-7070","addr":"경기도 부천시 중동 1140-3번지 트리플타워 303,304호","indutype":"의원 - 한의원","category":"medical"},{"name":"로뎀약국","tel":"032-327-2414","addr":"경기도 부천시 중동 1140-3번지 트리플타워 B동 108호","indutype":"약국 - 약국","category":"medical"},{"name":"서울삼성안과의원","tel":"032-325-0520","addr":"경기도 부천시 중동 1140-3번지 트리플타워 301,302호","indutype":"의원 - 의원","category":"medical"},{"name":"햇빛약국","tel":"032-223-8424","addr":"경기도 부천시 중동 1140-3번지 트리플타워 B동 105호","indutype":"약국 - 약국","category":"medical"}]},{"lat":"37.495956865","long":"126.76349904","imageIndex":8,"items":[{"name":"e-조은치과의원","tel":"032-657-2828","addr":"경기도 부천시 중동 705번지 2층","indutype":"의원 - 치과의원","category":"medical"}]},{"lat":"37.499014659","long":"126.76972033","imageIndex":8,"items":[{"name":"가림약국","tel":"032-322-8409","addr":"경기도 부천시 중동 1181번지 미리내마을 동성상가 102호","indutype":"약국 - 약국","category":"medical"},{"name":"제민한의원","tel":"032-322-6775","addr":"경기도 부천시 중동 1181 미리내마을동성상가 202","indutype":"의원 - 한의원","category":"medical"}]},{"lat":"37.505035089","long":"126.77999329","imageIndex":8,"items":[{"name":"강남메디칼약국","tel":"032-674-5458","addr":"경기도 부천시 중동 3-336번지 봉우빌딩 1층","indutype":"약국 - 약국","category":"medical"}]},{"lat":"37.503755648","long":"126.76163072","imageIndex":8,"items":[{"name":"강남올포유의원","tel":"032-325-2325","addr":"경기도 부천시 중동 1163-1번지 2층 일부","indutype":"의원 - 의원","category":"medical"},{"name":"강남포유의원","tel":"032-325-2325","addr":"경기도 부천시 중동 1163-1번지 2층 일부","indutype":"의원 - 의원","category":"medical"}]},{"lat":"37.494182036","long":"126.76805048","imageIndex":8,"items":[{"name":"강이비인후과의원","tel":"032-654-4925","addr":"경기도 부천시 중동 1186복사골건영상가3층일부","indutype":"의원 - 의원","category":"medical"},{"name":"메디안약국","tel":"032-668-7711","addr":"경기도 부천시 중동 1186번지 107호","indutype":"약국 - 약국","category":"medical"}]},{"lat":"37.4990146592","long":"126.7697203323","imageIndex":8,"items":[{"name":"강치과의원","tel":"032-323-2004","addr":"경기도 부천시 중동 1181번지 동성상가 201호","indutype":"의원 - 치과의원","category":"medical"}]},{"lat":"37.495423528","long":"126.76710802","imageIndex":8,"items":[{"name":"건강치과","tel":"032-653-2828","addr":"경기도 부천시 중동 713-9번지 조흥은행 4층","indutype":"의원 - 치과의원","category":"medical"},{"name":"경희우리한의원","tel":"032-662-2323","addr":"경기도 부천시 중동 713-9번지 3층","indutype":"의원 - 한의원","category":"medical"},{"name":"조진수내과","tel":"032-611-7575","addr":"경기도 부천시 중동 713-9번지 3층","indutype":"의원 - 의원","category":"medical"}]},{"lat":"37.505066559","long":"126.76383186","imageIndex":8,"items":[{"name":"건강한문내과의원","tel":"032-326-7582","addr":"경기도 부천시 중동 1033-1번지 금영프라자 301호","indutype":"의원 - 의원","category":"medical"},{"name":"경희서동한의원","tel":"032-321-2468","addr":"경기도 부천시 중동 1033-1번지 금영프라자 3층 302호","indutype":"의원 - 한의원","category":"medical"},{"name":"도영한의원","tel":"032-322-9626","addr":"경기도 부천시 중동 1033-1번지 금영프라자 401호","indutype":"의원 - 한의원","category":"medical"},{"name":"부천CDC어린이소아청소년과의원","tel":"032-327-2738","addr":"경기도 부천시 중동 1033-1번지 금영프라자","indutype":"의원 - 의원","category":"medical"},{"name":"부천CDC치과의원","tel":"032-327-2755","addr":"경기도 부천시 중동 1033-1번지 금영프라자 2층 201호","indutype":"의원 - 치과의원","category":"medical"},{"name":"부천우방외과","tel":"032-668-6600","addr":"경기도 부천시 중동 1033-1번지 금영프라자1차 402호","indutype":"의원 - 의원","category":"medical"},{"name":"새한성형외과의원","tel":"032-329-6675","addr":"경기도 부천시 중동 1033-1번지 금영프라자 403호","indutype":"의원 - 의원","category":"medical"},{"name":"서울신경정신과의원","tel":"032-326-6223","addr":"경기도 부천시 중동 1033-1번지 금영프라자 3층 303호","indutype":"의원 - 의원","category":"medical"},{"name":"중동열린치과의원","tel":"032-326-4475","addr":"경기도 부천시 중동 1033-1번지 금형프라자 3층 304호","indutype":"의원 - 치과의원","category":"medical"}]},{"lat":"37.503425101","long":"126.77671838","imageIndex":8,"items":[{"name":"결 한의원(본점)","tel":"032-675-0055","addr":"경기도 부천시 중동 1062-4번지 로얄프라자 701호","indutype":"의원 - 한의원","category":"medical"},{"name":"선의원","tel":"032-328-0502","addr":"경기도 부천시 중동 1062-4번지 로얄프라자 206호","indutype":"의원 - 의원","category":"medical"},{"name":"안홍식치과의원","tel":"032-321-2385","addr":"경기도 부천시 중동 1062-4번지 로얄프라자 404동 405호","indutype":"의원 - 치과의원","category":"medical"},{"name":"중동비뇨기과의원","tel":"032-215-1114","addr":"경기도 부천시 중동 1062-4번지 로얄프라자 308호","indutype":"의원 - 의원","category":"medical"}]},{"lat":"37.504703001","long":"126.76673956","imageIndex":8,"items":[{"name":"경인외과의원","tel":"032-326-1843","addr":"경기도 부천시 중동 1034-4번지 드림빌딩 208호","indutype":"의원 - 의원","category":"medical"},{"name":"사랑이꽃피는한의원","tel":"032-328-1119","addr":"경기도 부천시 중동 1034-4번지 드림빌딩 4층 404호","indutype":"의원 - 한의원","category":"medical"},{"name":"팜펫동물병원","tel":"032-321-7584","addr":"경기도 부천시 중동 1034-4번지 드림빌딩 105호","indutype":"기타의료기관 - 동물병원","category":"medical"},{"name":"프라임강보성이비인후과의원","tel":"032-321-0079","addr":"경기도 부천시 중동 1034-4번지 드림빌딩 5층 506호 일부","indutype":"의원 - 의원","category":"medical"},{"name":"프라임방충일이비인후과의원","tel":"032-328-0075","addr":"경기도 부천시 중동 1034-4번지 드림빌딩 5층 506호 일부","indutype":"의원 - 의원","category":"medical"},{"name":"프라임이흥엽이비인후과의원","tel":"032-327-8275","addr":"경기도 부천시 중동 1034-4번지 드림빌딩 506호 일부","indutype":"의원 - 의원","category":"medical"}]},{"lat":"37.504400875","long":"126.76885538","imageIndex":8,"items":[{"name":"경인진단방사선과의원","tel":"032-321-9988","addr":"경기도 부천시 중동 1035-3번지 부천메디칼센터 4층","indutype":"의원 - 의원","category":"medical"},{"name":"굿모닝이비인후과의원","tel":"032-327-3456","addr":"경기도 부천시 중동 1035-3번지 중동메디칼 2층 206호","indutype":"의원 - 의원","category":"medical"},{"name":"부천세브란스안과의원","tel":"032-322-2556","addr":"경기도 부천시 중동 1035-3번지 3층","indutype":"의원 - 의원","category":"medical"},{"name":"성가내과의원","tel":"032-325-1687","addr":"경기도 부천시 중동 1035-3번지 중동메디칼센터 2층","indutype":"의원 - 의원","category":"medical"},{"name":"이박산부인과","tel":"032-323-3111","addr":"경기도 부천시 중동 1035-3번지 3층","indutype":"의원 - 의원","category":"medical"},{"name":"제이제이피부과","tel":"032-323-5885","addr":"경기도 부천시 중동 1035-3번지 5층","indutype":"의원 - 의원","category":"medical"},{"name":"최상진내과의원","tel":"032-321-6294","addr":"경기도 부천시 중동 1035-3번지 중동메디칼 202호","indutype":"의원 - 의원","category":"medical"},{"name":"하늘체한의원","tel":"032-715-7505","addr":"경기도 부천시 중동 1035-3번지 중동메디칼 404동 405호","indutype":"의원 - 한의원","category":"medical"},{"name":"해맑은신경과의원","tel":"031-721-7550","addr":"경기도 부천시 중동 1035-3번지 3층 303-305호","indutype":"의원 - 의원","category":"medical"},{"name":"현소아과의원","tel":"032-321-0021","addr":"경기도 부천시 중동 1035-3번지","indutype":"의원 - 의원","category":"medical"}]},{"lat":"37.503231003","long":"126.76957151","imageIndex":8,"items":[{"name":"경희보임한의원","tel":"032-323-3651","addr":"경기도 부천시 중동 1149번지 부천중동리슈빌엔클래스 제3층 제301 에이1호","indutype":"의원 - 한의원","category":"medical"},{"name":"제일치과의원","tel":"032-666-2875","addr":"경기도 부천시 중동 1149번지","indutype":"의원 - 치과의원","category":"medical"}]},{"lat":"37.500957766","long":"126.7727677","imageIndex":8,"items":[{"name":"고성희한의원","tel":"032-213-7575","addr":"경기도 부천시 중동 1144-2번지 디아뜨갤러리3 B동 206호","indutype":"의원 - 한의원","category":"medical"}]},{"lat":"37.50512","long":"126.76352633","imageIndex":8,"items":[{"name":"고운결한의원","tel":"032-324-7544","addr":"경기도 부천시 중동 1033번지 우신빌딩 502호","indutype":"의원 - 한의원","category":"medical"},{"name":"딸기약국","tel":"032-323-7911","addr":"경기도 부천시 중동 1033번지 우신빌딩 3층 306호","indutype":"약국 - 약국","category":"medical"},{"name":"명성한의원","tel":"032-322-1075","addr":"경기도 부천시 중동 1033번지 우신빌딩 304호","indutype":"의원 - 한의원","category":"medical"},{"name":"민치과","tel":"032-326-2820","addr":"경기도 부천시 중동 1033번지 우신빌딩 301호","indutype":"의원 - 치과의원","category":"medical"},{"name":"유이비인후과의원","tel":"032-323-6415","addr":"경기도 부천시 중동 1033번지 우신빌딩 3층","indutype":"의원 - 의원","category":"medical"}]},{"lat":"37.502291285","long":"126.78224065","imageIndex":8,"items":[{"name":"광혜원한약방","tel":"032-666-1155","addr":"경기도 부천시 중동 1087-13번지","indutype":"의원 - 한의원","category":"medical"}]},{"lat":"37.4941820359","long":"126.7680504793","imageIndex":8,"items":[{"name":"권순구내과의원","tel":"032-611-5234","addr":"경기도 부천시 중동 1186번지 건영상가 2층","indutype":"의원 - 의원","category":"medical"}]},{"lat":"37.498541025","long":"126.75827755","imageIndex":8,"items":[{"name":"권순근치과","tel":"032-322-7285","addr":"경기도 부천시 중동 1172번지 보람아주상가 205호","indutype":"의원 - 치과의원","category":"medical"}]},{"lat":"37.500762513","long":"126.774295","imageIndex":8,"items":[{"name":"금보약국","tel":"032-322-0988","addr":"경기도 부천시 중동 1135번지 대야하이빌II 1층 105호","indutype":"약국 - 약국","category":"medical"},{"name":"박형선한의원","tel":"032-325-7000","addr":"경기도 부천시 중동 1135번지 대야하이빌 2203호,204호","indutype":"의원 - 한의원","category":"medical"},{"name":"부천내과의원","tel":"032-327-8805","addr":"경기도 부천시 중동 1135번지 대야하이빌 401호","indutype":"의원 - 의원","category":"medical"},{"name":"부천소아과의원","tel":"032-326-3313","addr":"경기도 부천시 중동 1135번지 대아하이빌2차 303동 304호","indutype":"의원 - 의원","category":"medical"},{"name":"수와미 여성의원","tel":"032-329-7070","addr":"경기도 부천시 중동 1135번지 대야하이빌2차 304호","indutype":"의원 - 의원","category":"medical"},{"name":"조유라치과의원","tel":"032-325-7582","addr":"경기도 부천시 중동 1135번지 대야하이빌2차 203호","indutype":"의원 - 치과의원","category":"medical"}]},{"lat":"37.503895001","long":"126.77276999","imageIndex":8,"items":[{"name":"기린동물병원","tel":"032-322-0506","addr":"경기도 부천시 중동 1058-1번지 신명타운 103호","indutype":"기타의료기관 - 동물병원","category":"medical"},{"name":"삼화한의원","tel":"032-324-1193","addr":"경기도 부천시 중동 1058-1번지 신명타운 303호","indutype":"의원 - 한의원","category":"medical"},{"name":"온누리정성약국","tel":"032-328-2538","addr":"경기도 부천시 중동 1058-1번지 신명타운 103호","indutype":"약국 - 약국","category":"medical"}]},{"lat":"37.504977809","long":"126.76449941","imageIndex":8,"items":[{"name":"길주로한의원","tel":"032-329-1079","addr":"경기도 부천시 중동 1033-3번지 굿모닝프라자 401호","indutype":"의원 - 한의원","category":"medical"},{"name":"다올한의원","tel":"032-329-7585","addr":"경기도 부천시 중동 1033-3번지 굿모닝프라자 3층 306호 307호","indutype":"의원 - 한의원","category":"medical"},{"name":"빙빙한의원","tel":"032-321-0709","addr":"경기도 부천시 중동 1033-3번지 굿모닝프라자 3층 308호, 309호","indutype":"의원 - 한의원","category":"medical"},{"name":"서울바른이치과교정과치과의원","tel":"032-710-8275","addr":"경기도 부천시 중동 1033-3번지 굿모닝프라자 302호 303호 외 1필지","indutype":"의원 - 치과의원","category":"medical"},{"name":"에스미산부인과","tel":"032-341-5556","addr":"경기도 부천시 중동 1033-3번지","indutype":"의원 - 의원","category":"medical"},{"name":"우리마취통증의학과","tel":"032-322-7432","addr":"경기도 부천시 중동 1033-3번지 굿모닝프라자 304동 305호","indutype":"의원 - 의원","category":"medical"},{"name":"은하약국","tel":"032-324-1090","addr":"경기도 부천시 중동 1033-3번지 111 굿모닝프라자","indutype":"약국 - 약국","category":"medical"},{"name":"함소아한의원","tel":"032-324-3388","addr":"경기도 부천시 중동 1033-3번지 굿모닝프라자 607호 606","indutype":"의원 - 한의원","category":"medical"}]},{"lat":"37.505199849","long":"126.76291536","imageIndex":8,"items":[{"name":"김수환성형외과의원","tel":"032-324-9888","addr":"경기도 부천시 중동 1031-3 503,504,506호","indutype":"의원 - 의원","category":"medical"},{"name":"미웰유 외과의원","tel":"032-719-8288","addr":"경기도 부천시 중동 1031-3번지 영라이프빌딩 601호내 603호","indutype":"의원 - 의원","category":"medical"},{"name":"벗이비인후과의원","tel":"032-322-7585","addr":"경기도 부천시 중동 1031-3번지 영라이프빌딩 303호,307호","indutype":"의원 - 의원","category":"medical"},{"name":"삼성탑내과의원","tel":"032-326-3375","addr":"경기도 부천시 중동 1031-3번지 영라이프빌딩 701호","indutype":"의원 - 의원","category":"medical"},{"name":"서울비뇨기과의원","tel":"032-721-7997","addr":"경기도 부천시 중동 1031-3번지 영라이프빌딩 205,208,209호","indutype":"의원 - 의원","category":"medical"},{"name":"성모튼튼 정형외과","tel":"031-000-0000","addr":"경기도 부천시 중동 1031-3번지 204호 205호 일부,206호,207호","indutype":"의원 - 의원","category":"medical"},{"name":"세란의원","tel":"032-326-3251","addr":"경기도 부천시 중동 1031-3번지 영라이프빌딩 305호","indutype":"의원 - 의원","category":"medical"},{"name":"중동현대치과의원","tel":"032-328-2754","addr":"경기도 부천시 중동 1031-3번지 영라이프빌딩 306호","indutype":"의원 - 치과의원","category":"medical"},{"name":"현백한의원","tel":"032-326-7510","addr":"경기도 부천시 중동 1031-3번지 304호 308호영라이프빌딩","indutype":"의원 - 한의원","category":"medical"}]},{"lat":"37.5092059520","long":"126.7657413900","imageIndex":8,"items":[{"name":"김치선의원","tel":"032-325-4201","addr":"경기도 부천시 중동 1041번지덕유상가2층","indutype":"의원 - 의원","category":"medical"}]},{"lat":"37.504507512","long":"126.76810862","imageIndex":8,"items":[{"name":"꼬마이치과","tel":"032-255-5004","addr":"경기도 부천시 중동 1035-1번지 크리스탈빌딩 404호","indutype":"의원 - 치과의원","category":"medical"}]},{"lat":"37.498899288","long":"126.77996629","imageIndex":8,"items":[{"name":"꿈마을연세가정의학과","tel":"032-654-5454","addr":"경기도 부천시 중동 1102번지 꿈마을제 상가동 2층","indutype":"의원 - 의원","category":"medical"}]},{"lat":"37.501152844","long":"126.77116123","imageIndex":8,"items":[{"name":"나무아래한약국","tel":"032-329-7051","addr":"경기도 부천시 중동 1145-1번지 메트로팰리스2차비2층202호,203호","indutype":"약국 - 한약방","category":"medical"}]},{"lat":"37.501317616","long":"126.77715448","imageIndex":8,"items":[{"name":"나을약국","tel":"032-655-0517","addr":"경기도 부천시 중동 1106번지 위브더스테이트 상가 1동 231호","indutype":"약국 - 약국","category":"medical"},{"name":"서울팀치과","tel":"032-621-7575","addr":"경기도 부천시 중동 1106더스테이트상가3동203호~204호","indutype":"의원 - 치과의원","category":"medical"}]},{"lat":"37.502786833","long":"126.77279601","imageIndex":8,"items":[{"name":"나음동물병원","tel":"032-323-7581","addr":"경기도 부천시 중동 1141-1번지 무광오피스빌딩 105,106호","indutype":"기타의료기관 - 동물병원","category":"medical"},{"name":"리나성형외과의원","tel":"032-322-2577","addr":"경기도 부천시 중동 1141-1번지 우광오피스빌딩 201호","indutype":"의원 - 의원","category":"medical"},{"name":"수한의원","tel":"032-326-4451","addr":"경기도 부천시 중동 1141-1번지 무광오피스빌딩403.404호","indutype":"의원 - 한의원","category":"medical"},{"name":"재단법인청아장학재단신원의원","tel":"032-224-0010","addr":"경기도 부천시 중동 1141-1,무광오피스텔905,1104,1105,1106","indutype":"의원 - 의원","category":"medical"}]},{"lat":"37.502680385","long":"126.77365584","imageIndex":8,"items":[{"name":"누베베한의원","tel":"02-1877-0036","addr":"경기도 부천시 중동 1141-3번지 신중동역 헤리움 메트로 2층 214, 215, 216, 217, 218호","indutype":"의원 - 한의원","category":"medical"},{"name":"라헬정신건강의학과의원","tel":"032-322-4289","addr":"경기도 부천시 중동 1141-3번지 416,417호","indutype":"의원 - 의원","category":"medical"},{"name":"신중동튼튼척의원","tel":"032-322-7582","addr":"경기도 부천시 중동 1141-3번지 신중동역헤리움메트로타워 2,3층 212, 213,309,310,311호","indutype":"의원 - 의원","category":"medical"},{"name":"장온누리약국","tel":"032-326-8877","addr":"경기도 부천시 중동 1141-3번지 신중동역헤리움메트로 109호","indutype":"약국 - 약국","category":"medical"},{"name":"제이케이팜","tel":"032-321-0322","addr":"경기도 부천시 중동 1141-3번지 신중동역헤리움메트로 724호","indutype":"약국 - 제약회사","category":"medical"},{"name":"포커스성형외과의원","tel":"032-329-7897","addr":"경기도 부천시 중동 1141-3번지 신중동역헤리움메트로타워 4층 405~409호","indutype":"의원 - 의원","category":"medical"}]},{"lat":"37.497652499","long":"126.77816065","imageIndex":8,"items":[{"name":"다온약국","tel":"032-613-4565","addr":"경기도 부천시 중동 1113번지 위브더스테이트 7동 217호","indutype":"약국 - 약국","category":"medical"},{"name":"미르 동물병원","tel":"032-662-2479","addr":"경기도 부천시 중동 1113번지","indutype":"기타의료기관 - 동물병원","category":"medical"}]},{"lat":"37.487402455","long":"126.77052529","imageIndex":8,"items":[{"name":"다운약국","tel":"032-612-6202","addr":"경기도 부천시 중동 796번지 1호","indutype":"약국 - 약국","category":"medical"}]},{"lat":"37.501011384","long":"126.75907242","imageIndex":8,"items":[{"name":"대세당한의원","tel":"032-323-3366","addr":"경기도 부천시 중동 1170번지 삼보상가 308호","indutype":"의원 - 한의원","category":"medical"},{"name":"메디팜포도마을약국","tel":"032-321-6451","addr":"경기도 부천시 중동 1170번지 삼보 종합상가 101호","indutype":"약국 - 약국","category":"medical"}]},{"lat":"37.502618346","long":"126.77418756","imageIndex":8,"items":[{"name":"더그린한의원","tel":"032-321-1030","addr":"경기도 부천시 중동 1141-5번지 다운타운 601호","indutype":"의원 - 한의원","category":"medical"},{"name":"박병규치과의원","tel":"032-324-2285","addr":"경기도 부천시 중동 1141-5번지 다운타운 504호","indutype":"의원 - 치과의원","category":"medical"},{"name":"부천중동약국","tel":"032-324-0399","addr":"경기도 부천시 중동 1141-5번지 다운타운 105호","indutype":"약국 - 약국","category":"medical"},{"name":"아이마미한의원","tel":"032-327-3222","addr":"경기도 부천시 중동 1141-5번지 다운타운 406호","indutype":"의원 - 한의원","category":"medical"}]},{"lat":"37.502593176","long":"126.77052346","imageIndex":8,"items":[{"name":"더본동물병원","tel":"032-326-2992","addr":"경기도 부천시 중동 1150-6번지 우영프라자 103.104호","indutype":"기타의료기관 - 동물병원","category":"medical"}]},{"lat":"37.505235199","long":"126.76257596","imageIndex":8,"items":[{"name":"두드림","tel":"032-325-8262","addr":"경기도 부천시 중동 1031-2번지 골든벨타워 803호","indutype":"의원 - 의원","category":"medical"},{"name":"서울리치과","tel":"032-324-5522","addr":"경기도 부천시 중동 1031-2번지 골든벨타워빌딩 302호","indutype":"의원 - 치과의원","category":"medical"},{"name":"서울쾌마취통증의학과의원","tel":"032-228-8899","addr":"경기도 부천시 중동 1031-2번지 골든벨타워 4층 2호","indutype":"의원 - 의원","category":"medical"}]},{"lat":"37.501207483","long":"126.77610308","imageIndex":8,"items":[{"name":"따스한한의원","tel":"032-324-1075","addr":"경기도 부천시 중동 1140-4번지 트리플타워c 204,209호","indutype":"의원 - 한의원","category":"medical"},{"name":"삼성필의원","tel":"032-653-7447","addr":"경기도 부천시 중동 1140-4번지","indutype":"의원 - 의원","category":"medical"}]},{"lat":"37.494704458","long":"126.77254942","imageIndex":8,"items":[{"name":"로즈팜약국","tel":"032-661-8873","addr":"경기도 부천시 중동 1208-8번지 삼성미래산부인과 1층 약국","indutype":"약국 - 약국","category":"medical"}]},{"lat":"37.50181985","long":"126.7759429","imageIndex":8,"items":[{"name":"마노메디비뇨기과","tel":"032-653-7775","addr":"경기도 부천시 중동 1140-2번지 트리플타워 A동 3층 301호","indutype":"의원 - 의원","category":"medical"},{"name":"연세U치과의원","tel":"032-329-2875","addr":"경기도 부천시 중동 1140-2트리플타워에이동3층303~304호","indutype":"의원 - 치과의원","category":"medical"}]},{"lat":"37.50290235","long":"126.77197009","imageIndex":8,"items":[{"name":"마리엔의원","tel":"032-329-1177","addr":"경기도 부천시 중동 1148-2번지 대우마이빌2 202동 203호","indutype":"의원 - 의원","category":"medical"}]},{"lat":"37.503844567","long":"126.76105366","imageIndex":8,"items":[{"name":"맑은성모이비인후과","tel":"032-324-1615","addr":"경기도 부천시 중동 1166-4번지 영플러스3차 301호","indutype":"의원 - 의원","category":"medical"},{"name":"중동현대약국","tel":"032-328-1636","addr":"경기도 부천시 중동 1166-4번지 영플러스3차 303호","indutype":"약국 - 약국","category":"medical"}]},{"lat":"37.504339059","long":"126.7694889","imageIndex":8,"items":[{"name":"명비뇨기과","tel":"032-327-1351","addr":"경기도 부천시 중동 1056번지 제일프라자 302호","indutype":"의원 - 의원","category":"medical"}]},{"lat":"37.496673974","long":"126.76168743","imageIndex":8,"items":[{"name":"명한의원","tel":"032-651-8900","addr":"경기도 부천시 중동 679-5번지 인성프라자 2층","indutype":"의원 - 한의원","category":"medical"},{"name":"스타치과","tel":"032-662-2875","addr":"경기도 부천시 중동 679-5번지 인성프라자 5층 502호","indutype":"의원 - 치과의원","category":"medical"},{"name":"정내과의원","tel":"032-665-7582","addr":"경기도 부천시 중동 679-5번지 3층","indutype":"의원 - 의원","category":"medical"}]},{"lat":"37.49293081","long":"126.76413062","imageIndex":8,"items":[{"name":"모아가정의학과","tel":"032-655-4796","addr":"경기도 부천시 중동 769-12번지","indutype":"의원 - 의원","category":"medical"},{"name":"시민온누리약국","tel":"032-665-8830","addr":"경기도 부천시 중동 769-12번지 1층","indutype":"약국 - 약국","category":"medical"}]},{"lat":"37.500709","long":"126.77457788","imageIndex":8,"items":[{"name":"미래치과의원","tel":"032-322-3375","addr":"경기도 부천시 중동 1135-1번지 제일프라자 4층","indutype":"의원 - 치과의원","category":"medical"}]},{"lat":"37.508452517","long":"126.7629615","imageIndex":8,"items":[{"name":"민소아과","tel":"032-323-7504","addr":"경기도 부천시 중동 1028-1번지 일부 2층","indutype":"의원 - 의원","category":"medical"},{"name":"중동튼튼약국","tel":"032-3224-4145","addr":"경기도 부천시 중동 1028-1번지 2층","indutype":"약국 - 약국","category":"medical"}]},{"lat":"37.487349217","long":"126.77094381","imageIndex":8,"items":[{"name":"믿음삼대한의원","tel":"032-652-2626","addr":"경기도 부천시 중동 795번지 201호","indutype":"의원 - 한의원","category":"medical"}]},{"lat":"37.501206148","long":"126.77077656","imageIndex":8,"items":[{"name":"바른양치과","tel":"032-235-2875","addr":"경기도 부천시 중동 1145번지 매트로펠리스II 303호","indutype":"의원 - 치과의원","category":"medical"}]},{"lat":"37.505040192","long":"126.76415992","imageIndex":8,"items":[{"name":"박달나무한의원","tel":"032-327-0911","addr":"경기도 부천시 중동 1033-2번지 금영프라자2차 3층 302호","indutype":"의원 - 한의원","category":"medical"},{"name":"부천 그랜드 치과의원","tel":"032-238-2828","addr":"경기도 부천시 중동 1033-2번지 금영프라자2차 301호","indutype":"의원 - 치과의원","category":"medical"},{"name":"젠의원","tel":"032-326-7575","addr":"경기도 부천시 중동 1033-2금영프라자2차602.604","indutype":"의원 - 의원","category":"medical"}]},{"lat":"37.5023747517","long":"126.7740186644","imageIndex":8,"items":[{"name":"박인수내과의원","tel":"032-326-7566","addr":"경기도 부천시 중동 1141-5번지 6층 1동 602호","indutype":"의원 - 의원","category":"medical"}]},{"lat":"37.498320074","long":"126.77390665","imageIndex":8,"items":[{"name":"박진영치과의원","tel":"032-324-4521","addr":"경기도 부천시 중동 1180-1번지 미리내마을 상가 201호","indutype":"의원 - 치과의원","category":"medical"}]},{"lat":"37.502760463","long":"126.77313537","imageIndex":8,"items":[{"name":"발머스한의원","tel":"032-719-7050","addr":"경기도 부천시 중동 1141-2번지 프리머스부천타워 404호","indutype":"의원 - 한의원","category":"medical"},{"name":"부천신중동함소아한의원","tel":"032-329-1070","addr":"경기도 부천시 중동 1141-2번지 프리머스부천타워 401,405호","indutype":"의원 - 한의원","category":"medical"},{"name":"원광미모한약국","tel":"032-325-1079","addr":"경기도 부천시 중동 1141-2번지 프리머스부천타워 1동 117호","indutype":"약국 - 약국","category":"medical"},{"name":"청담나인의원","tel":"032-715-7776","addr":"경기도 부천시 중동 1141-2번지 프리머스부천타워 505호","indutype":"의원 - 의원","category":"medical"},{"name":"휴한의원","tel":"032-325-2599","addr":"경기도 부천시 중동 1141-2번지 프리머스부천타워 5층 501,502,503호","indutype":"의원 - 한의원","category":"medical"}]},{"lat":"37.496176072","long":"126.76496841","imageIndex":8,"items":[{"name":"방상용치과의원","tel":"032-612-2875","addr":"경기도 부천시 중동 628-9번지 2층","indutype":"의원 - 치과의원","category":"medical"}]},{"lat":"37.504622816","long":"126.76719219","imageIndex":8,"items":[{"name":"백치과의원","tel":"032-321-2191","addr":"경기도 부천시 중동 1034-5번지 씨티오피스 305호","indutype":"의원 - 치과의원","category":"medical"},{"name":"부천제일정형외과","tel":"032-224-7582","addr":"경기도 부천시 중동 1034-5번지 시티오피스빌딩 2동 204호","indutype":"의원 - 의원","category":"medical"},{"name":"송백한의원","tel":"032-324-4141","addr":"경기도 부천시 중동 1034-5번지 시티오피스 4층 404호","indutype":"의원 - 한의원","category":"medical"},{"name":"시청정약국","tel":"032-327-8791","addr":"경기도 부천시 중동 1034-5번지 씨티오피스 1층 103호","indutype":"약국 - 약국","category":"medical"},{"name":"채움정신건강의학과","tel":"031-328-9833","addr":"경기도 부천시 중동 1034-5번지 씨티오피스 301호","indutype":"의원 - 의원","category":"medical"}]},{"lat":"37.503757772","long":"126.77635548","imageIndex":8,"items":[{"name":"본본정형외과의원","tel":"02-1661-9753","addr":"경기도 부천시 중동 1062-3번지 빈센트타워 9층 일부,10층","indutype":"의원 - 의원","category":"medical"},{"name":"아주편한마취통증의학과의원","tel":"032-325-2541","addr":"경기도 부천시 중동 1062-3번지 빈센트타워 2층 202호","indutype":"의원 - 의원","category":"medical"},{"name":"우리가족주연치과의원","tel":"032-329-7528","addr":"경기도 부천시 중동 1062-3번지 빈센트타워 7층","indutype":"의원 - 치과의원","category":"medical"},{"name":"황의원내과","tel":"032-321-9735","addr":"경기도 부천시 중동 1062-3번지 빈센트타워 6층","indutype":"의원 - 의원","category":"medical"}]},{"lat":"37.503735415","long":"126.77410499","imageIndex":8,"items":[{"name":"부천TLC동물의료센터","tel":"032-323-2475","addr":"경기도 부천시 중동 1058-5번지 동화빌딩 1층","indutype":"기타의료기관 - 동물병원","category":"medical"}]},{"lat":"37.50286779","long":"126.76365792","imageIndex":8,"items":[{"name":"부천미소요양병원","tel":"032-325-7911","addr":"경기도 부천시 중동 1159-2번지","indutype":"병원 - 병원","category":"medical"}]},{"lat":"37.504929161","long":"126.77640849","imageIndex":8,"items":[{"name":"부천보룡약국","tel":"032-321-4536","addr":"경기도 부천시 중동 1066번지","indutype":"약국 - 약국","category":"medical"}]},{"lat":"37.504262063","long":"126.77621824","imageIndex":8,"items":[{"name":"부천준동물병원","tel":"032-322-7595","addr":"경기도 부천시 중동 1062-1번지 두리프라자 101호","indutype":"기타의료기관 - 동물병원","category":"medical"}]},{"lat":"37.495396685","long":"126.77641466","imageIndex":8,"items":[{"name":"부첸에스엠 의료소비자생활협동조합","tel":"032-324-7573","addr":"경기도 부천시 중동 1123-4번지 5층","indutype":"의원 - 의원","category":"medical"}]},{"lat":"37.50384191","long":"126.77326777","imageIndex":8,"items":[{"name":"비너스여성외과의원","tel":"032-322-6075","addr":"경기도 부천시 중동 1058-2번지 중동프라자 201호","indutype":"의원 - 의원","category":"medical"},{"name":"아이누리한의원","tel":"032-325-1088","addr":"경기도 부천시 중동 1058-2번지 중동프라자 3층 312호","indutype":"의원 - 한의원","category":"medical"},{"name":"주드림치과","tel":"032-329-7582","addr":"경기도 부천시 중동 1058-2번지 중동프라자 203호","indutype":"의원 - 치과의원","category":"medical"},{"name":"지중해동물병원","tel":"032-321-7603","addr":"경기도 부천시 중동 1058-2번지 중동프라자 107호","indutype":"기타의료기관 - 동물병원","category":"medical"}]},{"lat":"37.500872618","long":"126.77532377","imageIndex":8,"items":[{"name":"비너스의원","tel":"032-322-4845","addr":"경기도 부천시 중동 1136번지 전체 3층","indutype":"의원 - 의원","category":"medical"}]},{"lat":"37.508673644","long":"126.76990518","imageIndex":8,"items":[{"name":"사랑약국","tel":"032-322-6036","addr":"경기도 부천시 중동 1051-1번지 광석 상가 103호","indutype":"약국 - 약국","category":"medical"},{"name":"사랑약국","tel":"032-322-6036","addr":"경기도 부천시 중동 1051-1번지 103호","indutype":"약국 - 약국","category":"medical"},{"name":"선부부치과의원","tel":"032-322-7839","addr":"경기도 부천시 중동 1051-1번지","indutype":"의원 - 치과의원","category":"medical"},{"name":"신중동의원","tel":"032-325-8998","addr":"경기도 부천시 중동 1051-1번지 설악마을 상가 201호","indutype":"의원 - 의원","category":"medical"}]},{"lat":"37.490455763","long":"126.76546146","imageIndex":8,"items":[{"name":"서울미라클치과의원","tel":"032-668-2804","addr":"경기도 부천시 중동 1288 팰리스카운티다상가203,204호","indutype":"의원 - 치과의원","category":"medical"}]},{"lat":"37.492619719","long":"126.76624614","imageIndex":8,"items":[{"name":"서울베스트동물병원","tel":"032-652-0075","addr":"경기도 부천시 중동 771-16번지","indutype":"기타의료기관 - 동물병원","category":"medical"}]},{"lat":"37.503290198","long":"126.76313635","imageIndex":8,"items":[{"name":"서울플란트치과의원","tel":"032-326-2830","addr":"경기도 부천시 중동 1158-14번지 강림프라자 3층 301,302호","indutype":"의원 - 치과의원","category":"medical"}]},{"lat":"37.503202401","long":"126.77805354","imageIndex":8,"items":[{"name":"성운약국","tel":"032-323-9194","addr":"경기도 부천시 중동 1079-3번지","indutype":"약국 - 약국","category":"medical"}]},{"lat":"37.504009939","long":"126.77629817","imageIndex":8,"items":[{"name":"소리청한의원","tel":"032-325-5379","addr":"경기도 부천시 중동 1062-2번지 메디타워 901호","indutype":"의원 - 한의원","category":"medical"},{"name":"안소아과의원","tel":"032-322-8763","addr":"경기도 부천시 중동 1062-2번지 대일빌딩 5층","indutype":"의원 - 의원","category":"medical"},{"name":"양연모성형외과의원","tel":"032-325-3536","addr":"경기도 부천시 중동 1062-2번지 중동메디칼빌딩 201호","indutype":"의원 - 의원","category":"medical"},{"name":"임이비인후과","tel":"032-321-5044","addr":"경기도 부천시 중동 1062-2번지 메디타워 4층","indutype":"의원 - 의원","category":"medical"},{"name":"중동서울외과의원","tel":"032-323-7781","addr":"경기도 부천시 중동 1062-2번지 중동메디칼빌딩 602호","indutype":"의원 - 의원","category":"medical"},{"name":"한빛신경정신과의원","tel":"032-325-7333","addr":"경기도 부천시 중동 1062-2번지 대일빌딩 6층","indutype":"의원 - 의원","category":"medical"}]},{"lat":"37.49898527","long":"126.77779478","imageIndex":8,"items":[{"name":"아라연한의원","tel":"032-612-8888","addr":"경기도 부천시 중동 1110번지 위브더스테이트 상가 5동 223호","indutype":"의원 - 한의원","category":"medical"}]},{"lat":"37.496620884","long":"126.76216254","imageIndex":8,"items":[{"name":"아름다운e치과의원","tel":"032-651-2875","addr":"경기도 부천시 중동 679-2번지 유청빌딩 2층","indutype":"의원 - 치과의원","category":"medical"}]},{"lat":"37.495513446","long":"126.76701727","imageIndex":8,"items":[{"name":"아름드리","tel":"032-663-2277","addr":"경기도 부천시 중동 713-8번지 광산빌딩 3층","indutype":"의원 - 치과의원","category":"medical"},{"name":"연세가정의학과","tel":"032-666-0739","addr":"경기도 부천시 중동 713-8번지","indutype":"의원 - 의원","category":"medical"},{"name":"종합메디칼약국","tel":"032-612-0751","addr":"경기도 부천시 중동 713-8번지","indutype":"약국 - 약국","category":"medical"}]},{"lat":"37.503427544","long":"126.7642216","imageIndex":8,"items":[{"name":"아이엔여기한의원","tel":"032-468-7520","addr":"경기도 부천시 중동 1158-5번지 201호","indutype":"의원 - 한의원","category":"medical"}]},{"lat":"37.501456884","long":"126.77460953","imageIndex":8,"items":[{"name":"엘제이이편한치과","tel":"032-322-7522","addr":"경기도 부천시 중동 1138번지 호정프라자 405호","indutype":"의원 - 치과의원","category":"medical"},{"name":"옥토한의원","tel":"031-0000-0000","addr":"경기도 부천시 중동 1138번지 호정프라자 5층 504호","indutype":"의원 - 한의원","category":"medical"},{"name":"정의원","tel":"032-216-3046","addr":"경기도 부천시 중동 1138번지 호정프라자 제4층 제401,402호","indutype":"의원 - 의원","category":"medical"}]},{"lat":"37.503343131","long":"126.76258203","imageIndex":8,"items":[{"name":"연세더바른치과의원","tel":"032-321-3036","addr":"경기도 부천시 중동 1163-8번지 대신프라자 3층 301호","indutype":"의원 - 치과의원","category":"medical"}]},{"lat":"37.487730272","long":"126.76772016","imageIndex":8,"items":[{"name":"연세이편한치과","tel":"032-669-2879","addr":"경기도 부천시 중동 805-2번지 203호","indutype":"의원 - 치과의원","category":"medical"}]},{"lat":"37.496594936","long":"126.76269412","imageIndex":8,"items":[{"name":"연세전문의원","tel":"032-612-3185","addr":"경기도 부천시 중동 676-10번지 세민메가트랜스 107호","indutype":"의원 - 의원","category":"medical"},{"name":"제일종합약국","tel":"032-666-7504","addr":"경기도 부천시 중동 676-10번지","indutype":"약국 - 약국","category":"medical"}]},{"lat":"37.5010113839","long":"126.7590724231","imageIndex":8,"items":[{"name":"연세치과의원","tel":"032-325-2828","addr":"경기도 부천시 중동 1170번지 포도마을삼보상가 210호","indutype":"의원 - 치과의원","category":"medical"}]},{"lat":"37.502840186","long":"126.77243396","imageIndex":8,"items":[{"name":"예강한의원","tel":"032-321-3375","addr":"경기도 부천시 중동 1141번지 코스모폴리탄 309호","indutype":"의원 - 한의원","category":"medical"}]},{"lat":"37.496373719","long":"126.76468507","imageIndex":8,"items":[{"name":"예그린치과","tel":"032-663-5001","addr":"경기도 부천시 중동 628-7번지 401호 드림씨티홀","indutype":"의원 - 치과의원","category":"medical"}]},{"lat":"37.500207909","long":"126.77637751","imageIndex":8,"items":[{"name":"오라클피부과의원","tel":"032-321-4370","addr":"경기도 부천시 중동 1132번지 4층","indutype":"의원 - 의원","category":"medical"},{"name":"웰치과의원","tel":"032-322-2875","addr":"경기도 부천시 중동 1132번지 부천농협종합청사 4층","indutype":"의원 - 치과의원","category":"medical"},{"name":"참이비인후과의원","tel":"032-328-1503","addr":"경기도 부천시 중동 1132번지 4층","indutype":"의원 - 의원","category":"medical"},{"name":"최정국한의원","tel":"032-325-1075","addr":"경기도 부천시 중동 1132번지 부천농업협동조합 4층 일부","indutype":"의원 - 한의원","category":"medical"},{"name":"하나로이화약국","tel":"032-329-0702","addr":"경기도 부천시 중동 1132번지 부천농협종합청사 1층","indutype":"약국 - 약국","category":"medical"}]},{"lat":"37.488041663","long":"126.76574047","imageIndex":8,"items":[{"name":"월드펫동물종합병원중동역점","tel":"032-661-7575","addr":"경기도 부천시 중동 808번지","indutype":"기타의료기관 - 동물병원","category":"medical"}]},{"lat":"37.492868426","long":"126.76447005","imageIndex":8,"items":[{"name":"유진경한의원","tel":"032-666-7079","addr":"경기도 부천시 중동 769-15번지","indutype":"의원 - 한의원","category":"medical"}]},{"lat":"37.492647247","long":"126.76649483","imageIndex":8,"items":[{"name":"이다움치과의원","tel":"032-614-2804","addr":"경기도 부천시 중동 771번지 원담빌딩 3층","indutype":"의원 - 치과의원","category":"medical"}]},{"lat":"37.501593733","long":"126.77549122","imageIndex":8,"items":[{"name":"이라인(E-Line)미소치과의원","tel":"032-326-2882","addr":"경기도 부천시 중동 1137번지 정석프라자 3층","indutype":"의원 - 치과의원","category":"medical"}]},{"lat":"37.501539042","long":"126.77516343","imageIndex":8,"items":[{"name":"이솝한의원","tel":"032-325-9393","addr":"경기도 부천시 중동 1137-6번지 뉴그린프라자 3층 301호","indutype":"의원 - 한의원","category":"medical"}]},{"lat":"37.502590761","long":"126.76035653","imageIndex":8,"items":[{"name":"자연담은한약국","tel":"032-329-8829","addr":"경기도 부천시 중동 1168-1번지 디아뜨갤러리 115호","indutype":"약국 - 약국","category":"medical"}]},{"lat":"37.492841898","long":"126.7647189","imageIndex":8,"items":[{"name":"전한의원","tel":"032-662-0246","addr":"경기도 부천시 중동 769-17 지하,1층,2층","indutype":"의원 - 한의원","category":"medical"}]},{"lat":"37.497151727","long":"126.76179897","imageIndex":8,"items":[{"name":"제세최돈열한의원","tel":"032-655-2233","addr":"경기도 부천시 중동 588번지 2층","indutype":"의원 - 한의원","category":"medical"},{"name":"행복한치과","tel":"032-653-2875","addr":"경기도 부천시 중동 588번지 3층","indutype":"의원 - 치과의원","category":"medical"}]},{"lat":"37.50328503","long":"126.76060309","imageIndex":8,"items":[{"name":"제이스의원","tel":"0331-511-0258","addr":"경기도 부천시 중동 1167-1번지 미라클타워 204호","indutype":"의원 - 의원","category":"medical"}]},{"lat":"37.503675759","long":"126.76221906","imageIndex":8,"items":[{"name":"조건제치과의원","tel":"032-321-2114","addr":"경기도 부천시 중동 1163-4번지","indutype":"의원 - 치과의원","category":"medical"}]},{"lat":"37.495682075","long":"126.76573893","imageIndex":8,"items":[{"name":"조규만동물병원","tel":"032-656-7582","addr":"경기도 부천시 중동 712-10번지 2층","indutype":"기타의료기관 - 동물병원","category":"medical"}]},{"lat":"37.502617047","long":"126.75999455","imageIndex":8,"items":[{"name":"중동갤러리치과의원","tel":"032-328-3328","addr":"경기도 부천시 중동 1168번지 디아뜨갤러리 205호","indutype":"의원 - 치과의원","category":"medical"},{"name":"포근한동물병원","tel":"032-231-0075","addr":"경기도 부천시 중동 1168번지 디아뜨1 1층 111호","indutype":"기타의료기관 - 동물병원","category":"medical"}]},{"lat":"37.493873312","long":"126.76685281","imageIndex":8,"items":[{"name":"중동동물병원","tel":"032-655-6034","addr":"경기도 부천시 중동 749-17번지","indutype":"기타의료기관 - 동물병원","category":"medical"}]},{"lat":"37.498926706","long":"126.77544276","imageIndex":8,"items":[{"name":"중동동서약국","tel":"032-324-0210","addr":"경기도 부천시 중동 1129번지 이스트타워 원 1층 108호","indutype":"약국 - 약국","category":"medical"}]},{"lat":"37.5014549","long":"126.76898897","imageIndex":8,"items":[{"name":"중동서울약국","tel":"032-329-8090","addr":"경기도 부천시 중동 1152번지 상록센트럴타워 제 1층 108호","indutype":"약국 - 약국","category":"medical"}]},{"lat":"37.496203716","long":"126.76527364","imageIndex":8,"items":[{"name":"중동우리들약국","tel":"032-661-8171","addr":"경기도 부천시 중동 596-3번지 1층","indutype":"약국 - 약국","category":"medical"}]},{"lat":"37.496369274","long":"126.77616294","imageIndex":8,"items":[{"name":"중동종로약국","tel":"032-329-8006","addr":"경기도 부천시 중동 1123번지 금호그린타워 117동 118호","indutype":"약국 - 약국","category":"medical"}]},{"lat":"37.503622552","long":"126.76263768","imageIndex":8,"items":[{"name":"중동한의원","tel":"032-327-5800","addr":"경기도 부천시 중동 1163-6번지","indutype":"의원 - 한의원","category":"medical"}]},{"lat":"37.501117624","long":"126.77157977","imageIndex":8,"items":[{"name":"중동홍내과","tel":"032-325-7779","addr":"경기도 부천시 중동 1145-2번지 네이버시티빌딩 4층 406호 407-1호","indutype":"의원 - 의원","category":"medical"},{"name":"평화약국","tel":"032-321-6867","addr":"경기도 부천시 중동 1145-2번지 네이버시티빌딩 104호","indutype":"약국 - 약국","category":"medical"},{"name":"행복나눔치과","tel":"032-323-7528","addr":"경기도 부천시 중동 1145-2번지 네이버시티 304호","indutype":"의원 - 치과의원","category":"medical"}]},{"lat":"37.504569861","long":"126.76774652","imageIndex":8,"items":[{"name":"중앙경희한의원","tel":"032-321-1171","addr":"경기도 부천시 중동 1035성원빌딩3층1호5호","indutype":"의원 - 한의원","category":"medical"}]},{"lat":"37.49323316","long":"126.76662867","imageIndex":8,"items":[{"name":"중현한의원","tel":"032-666-7588","addr":"경기도 부천시 중동 753-1번지 중동빌딩 1,3층","indutype":"의원 - 한의원","category":"medical"}]},{"lat":"37.502235701","long":"126.76297009","imageIndex":8,"items":[{"name":"지인한의원","tel":"032-322-0661","addr":"경기도 부천시 중동 1160번지 지인한의원 3층","indutype":"의원 - 한의원","category":"medical"}]},{"lat":"37.494757288","long":"126.7765749","imageIndex":8,"items":[{"name":"청담의료소비자생활협동조합청담네오플란트","tel":"02-1644-8828","addr":"경기도 부천시 중동 1122-1번지 3,5층","indutype":"의원 - 치과의원","category":"medical"}]},{"lat":"37.489847322","long":"126.76757784","imageIndex":8,"items":[{"name":"청아약국","tel":"032-657-7644","addr":"경기도 부천시 중동 1289번지 2층 209호","indutype":"약국 - 약국","category":"medical"},{"name":"행복플러스부부치과의원","tel":"032-346-7582","addr":"경기도 부천시 중동 1289 팰리스카운티상가 306호","indutype":"의원 - 치과의원","category":"medical"}]},{"lat":"37.503672916","long":"126.7521877","imageIndex":8,"items":[{"name":"큰사랑내과소아과의원","tel":"032-322-2525","addr":"경기도 부천시 중동 11347새롬프라자4층","indutype":"의원 - 의원","category":"medical"}]},{"lat":"37.502757192","long":"126.76243689","imageIndex":8,"items":[{"name":"프리허그한의원","tel":"032-321-8269","addr":"경기도 부천시 중동 1162-5번지 중동프라자 4층 407,408호","indutype":"의원 - 한의원","category":"medical"}]},{"lat":"37.495841361","long":"126.76430229","imageIndex":8,"items":[{"name":"하노바동물병원","tel":"032-614-7582","addr":"경기도 부천시 중동 707-1번지 1층","indutype":"기타의료기관 - 동물병원","category":"medical"}]},{"lat":"37.498653282","long":"126.77851953","imageIndex":8,"items":[{"name":"하모니동물병원","tel":"032-621-7375","addr":"경기도 부천시 중동 1111번지","indutype":"기타의료기관 - 동물병원","category":"medical"}]},{"lat":"37.494819842","long":"126.77165573","imageIndex":8,"items":[{"name":"현약국","tel":"032-611-5797","addr":"경기도 부천시 중동 1208-4번지 1층","indutype":"약국 - 약국","category":"medical"}]},{"lat":"37.50295665","long":"126.76304694","imageIndex":8,"items":[{"name":"혹부리한의원","tel":"032-546-1075","addr":"경기도 부천시 중동 1159번지 이원빌딩 3층 301호","indutype":"의원 - 한의원","category":"medical"}]},{"lat":"37.495037222","long":"126.78166267","imageIndex":8,"items":[{"name":"화인약국","tel":"032-663-3368","addr":"경기도 부천시 중동 1099-2연화마을건영상가101,102호","indutype":"약국 - 약국","category":"medical"}]},{"lat":"37.501339381","long":"126.76980358","imageIndex":8,"items":[{"name":"효인약국","tel":"032-321-0733","addr":"경기도 부천시 중동 1152-2메트로펠리스1-A107호","indutype":"약국 - 약국","category":"medical"}]}]