[{"lat":"37.174776238","long":"126.90687797","imageIndex":17,"items":[{"name":"MCT(엠씨티)","tel":"031-8003-1351","addr":"경기도 화성시 팔탄면 기천리 887","indutype":"신변잡화 - 기타잡화","category":"other"}]},{"lat":"37.174298531","long":"126.90668715","imageIndex":17,"items":[{"name":"거평홀딩","tel":"031-8059-2915","addr":"경기도 화성시 팔탄면 기천리 887-7 1동1호","indutype":"건축자재 - 기타건축자재","category":"other"}]},{"lat":"37.176140305","long":"126.9112903","imageIndex":17,"items":[{"name":"꿈고무래","tel":"","addr":"경기도 화성시 팔탄면 기천리 799번지","indutype":"문화.취미 - 문화취미기타","category":"other"}]},{"lat":"37.173136942","long":"126.90762319","imageIndex":17,"items":[{"name":"명성상사","tel":"031-352-3630","addr":"경기도 화성시 팔탄면 기천리 906번지 1-1","indutype":"신변잡화 - 기타잡화","category":"other"},{"name":"해피종합상사","tel":"031-366-5550","addr":"경기도 화성시 팔탄면 기천리 906번지","indutype":"신변잡화 - 기타잡화","category":"other"}]},{"lat":"37.191492514","long":"126.90932332","imageIndex":17,"items":[{"name":"미니스톱 팔탄기천점","tel":"031-1577-9621","addr":"경기도 화성시 팔탄면 기천리 47-8번지","indutype":"유통업 영리 - 편 의 점","category":"other"}]},{"lat":"37.172107838","long":"126.9052712","imageIndex":17,"items":[{"name":"미래인터내셔널","tel":"031-353-9338","addr":"경기도 화성시 팔탄면 기천리 962-28번지","indutype":"기타 - 기계공구","category":"other"}]},{"lat":"37.172360334","long":"126.90551859","imageIndex":17,"items":[{"name":"베세토(주)","tel":"031-8043-2185","addr":"경기도 화성시 팔탄면 기천리 962-7번지","indutype":"기타 - 기계공구","category":"other"}]},{"lat":"37.171441769","long":"126.90612779","imageIndex":17,"items":[{"name":"세진산업","tel":"031-359-9458","addr":"경기도 화성시 팔탄면 기천리 963번지 1호","indutype":"서적문구 - 출판 및 인쇄물","category":"other"}]},{"lat":"37.190742655","long":"126.89629352","imageIndex":17,"items":[{"name":"수원헬스건강수","tel":"031-354-1261","addr":"경기도 화성시 팔탄면 기천리 174-13번지","indutype":"용역 서비스 - 종합용역","category":"other"}]},{"lat":"37.183967521","long":"126.90768842","imageIndex":17,"items":[{"name":"아이나라","tel":"","addr":"경기도 화성시 팔탄면 기천리 452번지 1층","indutype":"의류 - 아동의류","category":"other"}]},{"lat":"37.172631804","long":"126.90693698","imageIndex":17,"items":[{"name":"우진테크","tel":"031-352-4001","addr":"경기도 화성시 팔탄면 기천리 895번지 2층","indutype":"전기제품 - 기타전기제품","category":"other"}]},{"lat":"37.177472004","long":"126.90893523","imageIndex":17,"items":[{"name":"제일농기계백화점","tel":"031-353-6762","addr":"경기도 화성시 팔탄면 기천리 765-1번지","indutype":"농업 - 농기계","category":"other"}]},{"lat":"37.189411961","long":"126.91040707","imageIndex":17,"items":[{"name":"텔레포트(Teleport)","tel":"031-000-0000","addr":"경기도 화성시 팔탄면 기천리 18번지 1층","indutype":"광학제품 - 사진관","category":"other"}]}]