[{"lat":"37.589450401","long":"127.2340609","imageIndex":4,"items":[{"name":"32초콜릿","tel":"02-6489-3232","addr":"경기도 남양주시 와부읍 도곡리 819-3번지 1층","indutype":"일반휴게음식 - 서양음식","category":"restaurant"}]},{"lat":"37.577096252","long":"127.22558899","imageIndex":4,"items":[{"name":"7080라이브","tel":"031-521-1194","addr":"경기도 남양주시 와부읍 도곡리 1062-18번지 강변스포렉스 206호","indutype":"일반휴게음식 - 주점","category":"restaurant"},{"name":"금상푸드","tel":"031-000-0000","addr":"경기도 남양주시 와부읍 도곡리 1062-18번지 116,117,118호","indutype":"일반휴게음식 - 일반한식","category":"restaurant"},{"name":"마포숯불구이","tel":"031-576-6608","addr":"경기도 남양주시 와부읍 도곡리 1062-18번지 강변스포렉스 102호","indutype":"일반휴게음식 - 일반한식","category":"restaurant"},{"name":"봉구스밥버거","tel":"031-521-4330","addr":"경기도 남양주시 와부읍 도곡리 1062-18번지 강변스포렉스 103호","indutype":"일반휴게음식 - 스넥","category":"restaurant"},{"name":"아지트","tel":"031-577-4283","addr":"경기도 남양주시 와부읍 도곡리 1062-18번지 강변스포렉스 201호","indutype":"일반휴게음식 - 주점","category":"restaurant"},{"name":"탐스비어","tel":"031-577-1671","addr":"경기도 남양주시 와부읍 도곡리 1062-18번지 강변스포렉스 107호","indutype":"일반휴게음식 - 주점","category":"restaurant"},{"name":"탕스냉면&국면","tel":"031-576-3838","addr":"경기도 남양주시 와부읍 도곡리 1062-18번지 강변스포렉스 119호","indutype":"일반휴게음식 - 일반한식","category":"restaurant"},{"name":"풍미양꼬치","tel":"031-577-1555","addr":"경기도 남양주시 와부읍 도곡리 1062-18번지 강변스포렉스 111호 112호","indutype":"일반휴게음식 - 일반한식","category":"restaurant"},{"name":"호식이두마리치킨도심역점","tel":"031-576-9995","addr":"경기도 남양주시 와부읍 도곡리 1062-18번지 강변스포렉스 109호","indutype":"일반휴게음식 - 스넥","category":"restaurant"},{"name":"호프호프","tel":"031-521-9123","addr":"경기도 남양주시 와부읍 도곡리 1062-18번지 1층 강변스포렉스 106호","indutype":"일반휴게음식 - 주점","category":"restaurant"}]},{"lat":"37.568707881","long":"127.23044257","imageIndex":4,"items":[{"name":"NK웰빙가든","tel":"031-521-7334","addr":"경기도 남양주시 와부읍 도곡리 498-1번지","indutype":"일반휴게음식 - 일반한식","category":"restaurant"},{"name":"엔케이(NK)웰빙","tel":"031-521-7334","addr":"경기도 남양주시 와부읍 도곡리 498-1번지","indutype":"일반휴게음식 - 일반한식","category":"restaurant"}]},{"lat":"37.577178278","long":"127.22509113","imageIndex":4,"items":[{"name":"가락정육식당","tel":"031-521-0192","addr":"경기도 남양주시 와부읍 도곡리 1062-20번지 1층","indutype":"일반휴게음식 - 일반한식","category":"restaurant"}]},{"lat":"37.576619269","long":"127.22530456","imageIndex":4,"items":[{"name":"고려정육식당","tel":"031-521-6515","addr":"경기도 남양주시 와부읍 도곡리 1090-1번지 1층","indutype":"일반휴게음식 - 일반한식","category":"restaurant"}]},{"lat":"37.578145177","long":"127.21869788","imageIndex":4,"items":[{"name":"광어두마리15000","tel":"031-511-8333","addr":"경기도 남양주시 와부읍 도곡리 991-5번지 도곡빌딩 1층 일부","indutype":"일반휴게음식 - 일반한식","category":"restaurant"},{"name":"신전떡볶이","tel":"031-577-0301","addr":"경기도 남양주시 와부읍 도곡리 991-5번지 도곡빌딩 102호","indutype":"일반휴게음식 - 스넥","category":"restaurant"},{"name":"페리카나독고점","tel":"031-577-9229","addr":"경기도 남양주시 와부읍 도곡리 991-5번지 도곡빌딩 101호","indutype":"일반휴게음식 - 스넥","category":"restaurant"}]},{"lat":"37.58053429","long":"127.22275767","imageIndex":4,"items":[{"name":"굴다리곱창","tel":"031-521-9880","addr":"경기도 남양주시 와부읍 도곡리 1027-16번지","indutype":"일반휴게음식 - 일반한식","category":"restaurant"},{"name":"맛매불닭발","tel":"031-576-5722","addr":"경기도 남양주시 와부읍 도곡리 1027-16번지","indutype":"일반휴게음식 - 일반한식","category":"restaurant"}]},{"lat":"37.576399681","long":"127.22228138","imageIndex":4,"items":[{"name":"그리너리(greenery)","tel":"031-577-0919","addr":"경기도 남양주시 와부읍 도곡리 1079-4번지 태양빌딩 101호","indutype":"일반휴게음식 - 서양음식","category":"restaurant"}]},{"lat":"37.580096789","long":"127.21566951","imageIndex":4,"items":[{"name":"김밥나라","tel":"031-521-7100","addr":"경기도 남양주시 와부읍 도곡리 985번지 두산 상가 110호","indutype":"일반휴게음식 - 스넥","category":"restaurant"}]},{"lat":"37.580399566","long":"127.22253086","imageIndex":4,"items":[{"name":"꺄롱꺄롱","tel":"070-7231-0207","addr":"경기도 남양주시 와부읍 도곡리 1027-14번지 1층","indutype":"일반휴게음식 - 서양음식","category":"restaurant"}]},{"lat":"37.577283573","long":"127.22658575","imageIndex":4,"items":[{"name":"나능이백숙","tel":"031-576-6613","addr":"경기도 남양주시 와부읍 도곡리 1064-7","indutype":"일반휴게음식 - 일반한식","category":"restaurant"}]},{"lat":"37.579094703","long":"127.21677609","imageIndex":4,"items":[{"name":"남양주(도곡점)피자스쿨","tel":"031-577-1082","addr":"경기도 남양주시 와부읍 도곡리 986번지 외4필지 덕소고등학교 108호","indutype":"일반휴게음식 - 서양음식","category":"restaurant"}]},{"lat":"37.577428843","long":"127.22599752","imageIndex":4,"items":[{"name":"낭만돼지","tel":"031-555-0687","addr":"경기도 남양주시 와부읍 도곡리 1062-15번지","indutype":"일반휴게음식 - 일반한식","category":"restaurant"}]},{"lat":"37.577034697","long":"127.22478506","imageIndex":4,"items":[{"name":"네네치킨덕소도곡점","tel":"031-577-9005","addr":"경기도 남양주시 와부읍 도곡리 1071-4번지 금강빌딩 1층 101호","indutype":"일반휴게음식 - 주점","category":"restaurant"}]},{"lat":"37.577205627","long":"127.22492141","imageIndex":4,"items":[{"name":"놀이터","tel":"031-521-9881","addr":"경기도 남양주시 와부읍 도곡리 1062-4번지","indutype":"일반휴게음식 - 일반한식","category":"restaurant"},{"name":"복네네식당","tel":"031-576-5551","addr":"경기도 남양주시 와부읍 도곡리 1062-4","indutype":"일반휴게음식 - 일반한식","category":"restaurant"},{"name":"하늘실내포차","tel":"031-111-1111","addr":"경기도 남양주시 와부읍 도곡리 1062-4번지 (2호)","indutype":"일반휴게음식 - 일반한식","category":"restaurant"}]},{"lat":"37.576511514","long":"127.22511179","imageIndex":4,"items":[{"name":"늘푸른 청송옥","tel":"031-577-9595","addr":"경기도 남양주시 와부읍 도곡리 1090-4번지 1층 청송빌딩","indutype":"일반휴게음식 - 일반한식","category":"restaurant"}]},{"lat":"37.576755672","long":"127.22463706","imageIndex":4,"items":[{"name":"다마네기","tel":"031-577-3311","addr":"경기도 남양주시 와부읍 도곡리 1072-3번지 1층","indutype":"일반휴게음식 - 일반한식","category":"restaurant"}]},{"lat":"37.577898034","long":"127.22563666","imageIndex":4,"items":[{"name":"대천부양꼬치","tel":"031-521-8875","addr":"경기도 남양주시 와부읍 도곡리 1058-3번지 동성프라자 2층 201호","indutype":"일반휴게음식 - 일반한식","category":"restaurant"},{"name":"콰스타커피(덕소점)","tel":"031-577-7114","addr":"경기도 남양주시 와부읍 도곡리 1058-3번지 1층(외2필지동성프라자)","indutype":"일반휴게음식 - 서양음식","category":"restaurant"}]},{"lat":"37.577705075","long":"127.22761717","imageIndex":4,"items":[{"name":"덕소화로구이","tel":"031-521-6692","addr":"경기도 남양주시 와부읍 도곡리 610-9번지 1층","indutype":"일반휴게음식 - 일반한식","category":"restaurant"}]},{"lat":"37.576953418","long":"127.2248867","imageIndex":4,"items":[{"name":"도곡리양삼커피","tel":"070-4136-0390","addr":"경기도 남양주시 와부읍 도곡리 1071-3번지 102호","indutype":"일반휴게음식 - 서양음식","category":"restaurant"}]},{"lat":"37.576763574","long":"127.22522575","imageIndex":4,"items":[{"name":"도곡영양탕","tel":"031-577-6316","addr":"경기도 남양주시 와부읍 도곡리 1089-11번지","indutype":"일반휴게음식 - 일반한식","category":"restaurant"}]},{"lat":"37.580615863","long":"127.22249753","imageIndex":4,"items":[{"name":"도심각","tel":"031-577-6195","addr":"경기도 남양주시 와부읍 도곡리 1032-1번지","indutype":"일반휴게음식 - 중국식","category":"restaurant"},{"name":"처가집양념통닭","tel":"031-577-2054","addr":"경기도 남양주시 와부읍 도곡리 1032-1","indutype":"일반휴게음식 - 주점","category":"restaurant"}]},{"lat":"37.579621822","long":"127.21922289","imageIndex":4,"items":[{"name":"도심골영양탕","tel":"031-577-2866","addr":"경기도 남양주시 와부읍 도곡리 980","indutype":"일반휴게음식 - 일반한식","category":"restaurant"}]},{"lat":"37.580705539","long":"127.22272421","imageIndex":4,"items":[{"name":"도심소머리국밥","tel":"031-577-2981","addr":"경기도 남양주시 와부읍 도곡리 1032-7번지 외1필지","indutype":"일반휴게음식 - 일반한식","category":"restaurant"}]},{"lat":"37.579311655","long":"127.22130502","imageIndex":4,"items":[{"name":"돈통마늘보쌈덕소점","tel":"031-521-3392","addr":"경기도 남양주시 와부읍 도곡리 1027-10번지 101호","indutype":"일반휴게음식 - 일반한식","category":"restaurant"}]},{"lat":"37.576952566","long":"127.22533951","imageIndex":4,"items":[{"name":"동막골","tel":"031-521-6723","addr":"경기도 남양주시 와부읍 도곡리 1062-23번지","indutype":"일반휴게음식 - 일반한식","category":"restaurant"}]},{"lat":"37.576811361","long":"127.22853144","imageIndex":4,"items":[{"name":"또바기집","tel":"031-577-3528","addr":"경기도 남양주시 와부읍 도곡리 602-12번지","indutype":"일반휴게음식 - 일반한식","category":"restaurant"}]},{"lat":"37.576844193","long":"127.22547503","imageIndex":4,"items":[{"name":"뚜껑모아","tel":"031-521-2340","addr":"경기도 남양주시 와부읍 도곡리 1069-4번지","indutype":"일반휴게음식 - 일반한식","category":"restaurant"}]},{"lat":"37.56220878","long":"127.23200735","imageIndex":4,"items":[{"name":"라미레스토랑","tel":"031-577-3200","addr":"경기도 남양주시 와부읍 도곡리 493-4번지","indutype":"일반휴게음식 - 서양음식","category":"restaurant"}]},{"lat":"37.575539056","long":"127.2199469","imageIndex":4,"items":[{"name":"리버모텔R","tel":"031-521-8020","addr":"경기도 남양주시 와부읍 도곡리 1123-13번지 지하1층","indutype":"일반휴게음식 - 일반한식","category":"restaurant"}]},{"lat":"37.580953222","long":"127.2435556","imageIndex":4,"items":[{"name":"마음의고향","tel":"031-577-6303","addr":"경기도 남양주시 와부읍 도곡리 185번지 외1필지","indutype":"일반휴게음식 - 일반한식","category":"restaurant"}]},{"lat":"37.57939454","long":"127.22033167","imageIndex":4,"items":[{"name":"멕시칸치킨","tel":"031-577-9941","addr":"경기도 남양주시 와부읍 도곡리 997-10번지 지하1층","indutype":"일반휴게음식 - 스넥","category":"restaurant"},{"name":"죽이야기 덕소점","tel":"031-576-6288","addr":"경기도 남양주시 와부읍 도곡리 997-10번지","indutype":"일반휴게음식 - 일반한식","category":"restaurant"},{"name":"청아왕족발","tel":"031-577-2623","addr":"경기도 남양주시 와부읍 도곡리 997-10번지 외 3필지","indutype":"일반휴게음식 - 일반한식","category":"restaurant"}]},{"lat":"37.576566711","long":"127.2292552","imageIndex":4,"items":[{"name":"모락식당","tel":"031-577-9992","addr":"경기도 남양주시 와부읍 도곡리 602-4번지 1층","indutype":"일반휴게음식 - 일반한식","category":"restaurant"},{"name":"티라","tel":"031-521-8604","addr":"경기도 남양주시 와부읍 도곡리 602-4번지 101호","indutype":"일반휴게음식 - 서양음식","category":"restaurant"}]},{"lat":"37.579871066","long":"127.23041993","imageIndex":4,"items":[{"name":"별주부","tel":"031-558-3000","addr":"경기도 남양주시 와부읍 도곡리 619-4번지 1층","indutype":"일반휴게음식 - 일반한식","category":"restaurant"}]},{"lat":"37.578956699","long":"127.2232285","imageIndex":4,"items":[{"name":"봉구비어 남양주도심역점","tel":"031-521-8789","addr":"경기도 남양주시 와부읍 도곡리 1038-3번지 도심빌딩 1층","indutype":"일반휴게음식 - 주점","category":"restaurant"}]},{"lat":"37.576620466","long":"127.22941385","imageIndex":4,"items":[{"name":"봉평산골메밀촌","tel":"031-521-1517","addr":"경기도 남양주시 와부읍 도곡리 600-9번지 1층","indutype":"일반휴게음식 - 일반한식","category":"restaurant"}]},{"lat":"37.58037363","long":"127.22194209","imageIndex":4,"items":[{"name":"불타는등갈비","tel":"031-528-6263","addr":"경기도 남양주시 와부읍 도곡리 969-4번지","indutype":"일반휴게음식 - 일반한식","category":"restaurant"}]},{"lat":"37.579012479","long":"127.23639466","imageIndex":4,"items":[{"name":"비목마을 궁노루 다정","tel":"031-576-6302","addr":"경기도 남양주시 와부읍 도곡리 703-4번지","indutype":"일반휴게음식 - 서양음식","category":"restaurant"}]},{"lat":"37.578259149","long":"127.22525283","imageIndex":4,"items":[{"name":"뽕차이","tel":"031-577-8122","addr":"경기도 남양주시 와부읍 도곡리 1060-2번지 104호(104호~105호)","indutype":"일반휴게음식 - 일식·회집","category":"restaurant"},{"name":"유메노치킨앤커리","tel":"031-576-0121","addr":"경기도 남양주시 와부읍 도곡리 1060-2번지 1층","indutype":"일반휴게음식 - 일식·회집","category":"restaurant"}]},{"lat":"37.577121894","long":"127.23103419","imageIndex":4,"items":[{"name":"서클/주식회사 피스빌딩","tel":"02-577-8690","addr":"경기도 남양주시 와부읍 도곡리 594-9번지 피스빌딩","indutype":"일반휴게음식 - 서양음식","category":"restaurant"}]},{"lat":"37.580923024","long":"127.21714359","imageIndex":4,"items":[{"name":"소풍","tel":"031-577-5222","addr":"경기도 남양주시 와부읍 도곡리 976-1번지 벽산 상가 205호","indutype":"일반휴게음식 - 스넥","category":"restaurant"}]},{"lat":"37.575840273","long":"127.22749837","imageIndex":4,"items":[{"name":"숙아채콩나물국밥","tel":"031-576-3419","addr":"경기도 남양주시 와부읍 도곡리 567-1","indutype":"일반휴게음식 - 일반한식","category":"restaurant"}]},{"lat":"37.578478103","long":"127.22380444","imageIndex":4,"items":[{"name":"술뜰","tel":"","addr":"경기도 남양주시 와부읍 도곡리 1042-6번지 1층 일부","indutype":"일반휴게음식 - 주점","category":"restaurant"},{"name":"오늘","tel":"","addr":"경기도 남양주시 와부읍 도곡리 1042-6번지 1층 일부","indutype":"일반휴게음식 - 서양음식","category":"restaurant"}]},{"lat":"37.579261723","long":"127.21906336","imageIndex":4,"items":[{"name":"숯불꼬치구이전문점","tel":"031-577-1006","addr":"경기도 남양주시 와부읍 도곡리 982-10번지 한강프라자 101호","indutype":"일반휴게음식 - 일반한식","category":"restaurant"}]},{"lat":"37.578812184","long":"127.22342053","imageIndex":4,"items":[{"name":"스시궁","tel":"031-576-1513","addr":"경기도 남양주시 와부읍 도곡리 1042-21번지","indutype":"일반휴게음식 - 일반한식","category":"restaurant"}]},{"lat":"37.577455958","long":"127.22595232","imageIndex":4,"items":[{"name":"스시준","tel":"031-577-0632","addr":"경기도 남양주시 와부읍 도곡리 1062-14번지 1층","indutype":"일반휴게음식 - 일반한식","category":"restaurant"}]},{"lat":"37.582425423","long":"127.2280276","imageIndex":4,"items":[{"name":"심마니산약초백숙","tel":"031-577-6000","addr":"경기도 남양주시 와부읍 도곡리 909번지","indutype":"일반휴게음식 - 일반한식","category":"restaurant"}]},{"lat":"37.579402464","long":"127.22092038","imageIndex":4,"items":[{"name":"싱싱활어회센타","tel":"031-521-6946","addr":"경기도 남양주시 와부읍 도곡리 996-4번지 골드타워 103호","indutype":"일반휴게음식 - 일반한식","category":"restaurant"}]},{"lat":"37.575679469","long":"127.22197362","imageIndex":4,"items":[{"name":"얌얌이","tel":"031-577-7733","addr":"경기도 남양주시 와부읍 도곡리 1117번지 건영덕소리버파크 상가동 105호","indutype":"일반휴게음식 - 일반한식","category":"restaurant"},{"name":"요거티","tel":"031-528-6263","addr":"경기도 남양주시 와부읍 도곡리 1117번지 건영덕소리버파크 상가동 104호","indutype":"일반휴게음식 - 서양음식","category":"restaurant"}]},{"lat":"37.580229201","long":"127.22208884","imageIndex":4,"items":[{"name":"엄마손맛","tel":"031-559-5586","addr":"경기도 남양주시 와부읍 도곡리 1027-12번지","indutype":"일반휴게음식 - 일반한식","category":"restaurant"}]},{"lat":"37.580149603","long":"127.22128482","imageIndex":4,"items":[{"name":"역전앞2층집","tel":"031-576-6626","addr":"경기도 남양주시 와부읍 도곡리 969-9번지","indutype":"일반휴게음식 - 일반한식","category":"restaurant"}]},{"lat":"37.576842567","long":"127.22633538","imageIndex":4,"items":[{"name":"예봉국수","tel":"031-577-5353","addr":"경기도 남양주시 와부읍 도곡리 1067-5번지 1층","indutype":"일반휴게음식 - 일반한식","category":"restaurant"}]},{"lat":"37.579147253","long":"127.22250454","imageIndex":4,"items":[{"name":"옥스 남양주점","tel":"","addr":"경기도 남양주시 와부읍 도곡리 1025-6번지 인덕빌딩 5층","indutype":"일반휴게음식 - 일반한식","category":"restaurant"}]},{"lat":"37.576700719","long":"127.22511236","imageIndex":4,"items":[{"name":"우리식당","tel":"031-521-5019","addr":"경기도 남양주시 와부읍 도곡리 1089-2번지 1층","indutype":"일반휴게음식 - 일반한식","category":"restaurant"}]},{"lat":"37.579143641","long":"127.21958377","imageIndex":4,"items":[{"name":"이디야커피도심역점","tel":"031-576-5300","addr":"경기도 남양주시 와부읍 도곡리 997-13번지 재령빌딩 1층","indutype":"일반휴게음식 - 서양음식","category":"restaurant"},{"name":"이삭토스트남양주덕소도심역점","tel":"031-568-3381","addr":"경기도 남양주시 와부읍 도곡리 997-13번지 재령빌딩 1층 5-1호","indutype":"일반휴게음식 - 서양음식","category":"restaurant"},{"name":"충무김밥","tel":"031-576-3536","addr":"경기도 남양주시 와부읍 도곡리 997-13번지 외3필지","indutype":"일반휴게음식 - 일반한식","category":"restaurant"}]},{"lat":"37.576846338","long":"127.22908624","imageIndex":4,"items":[{"name":"일품정","tel":"031-577-3660","addr":"경기도 남양주시 와부읍 도곡리 600-6번지","indutype":"일반휴게음식 - 일반한식","category":"restaurant"}]},{"lat":"37.57642246","long":"127.22455683","imageIndex":4,"items":[{"name":"자작나무","tel":"031-521-9386","addr":"경기도 남양주시 와부읍 도곡리 1089-8번지 1층 일부","indutype":"일반휴게음식 - 일반한식","category":"restaurant"},{"name":"조막집","tel":"031-293-4062","addr":"경기도 남양주시 와부읍 도곡리 1089-8번지","indutype":"일반휴게음식 - 일반한식","category":"restaurant"}]},{"lat":"37.575732048","long":"127.22755464","imageIndex":4,"items":[{"name":"잣나무집","tel":"031-577-6849","addr":"경기도 남양주시 와부읍 도곡리 566-1","indutype":"일반휴게음식 - 일반한식","category":"restaurant"}]},{"lat":"37.578513152","long":"127.24277794","imageIndex":4,"items":[{"name":"전원일기","tel":"031-579-3212","addr":"경기도 남양주시 와부읍 도곡리 253-4","indutype":"일반휴게음식 - 일반한식","category":"restaurant"}]},{"lat":"37.567730375","long":"127.2280626","imageIndex":4,"items":[{"name":"주식회사 플레이트485","tel":"031-577-4850","addr":"경기도 남양주시 와부읍 도곡리 504-16번지","indutype":"일반휴게음식 - 일반한식","category":"restaurant"}]},{"lat":"37.577089602","long":"127.22908698","imageIndex":4,"items":[{"name":"쥬쁠레","tel":"070-6665-3666","addr":"경기도 남양주시 와부읍 도곡리 600-8번지","indutype":"일반휴게음식 - 서양음식","category":"restaurant"}]},{"lat":"37.576872053","long":"127.22503362","imageIndex":4,"items":[{"name":"직화불닭집","tel":"031-577-9281","addr":"경기도 남양주시 와부읍 도곡리 1071-2번지","indutype":"일반휴게음식 - 일반한식","category":"restaurant"}]},{"lat":"37.576761395","long":"127.23108969","imageIndex":4,"items":[{"name":"철수네뽕잎칼국수","tel":"031-577-5779","addr":"경기도 남양주시 와부읍 도곡리 594-5번지","indutype":"일반휴게음식 - 일반한식","category":"restaurant"}]},{"lat":"37.56192906","long":"127.23222153","imageIndex":4,"items":[{"name":"청용호","tel":"031-576-1116","addr":"경기도 남양주시 와부읍 도곡리 492번지","indutype":"일반휴게음식 - 일반한식","category":"restaurant"}]},{"lat":"37.580589759","long":"127.22199933","imageIndex":4,"items":[{"name":"커피엔커피","tel":"031-577-7735","addr":"경기도 남양주시 와부읍 도곡리 1030번지","indutype":"일반휴게음식 - 서양음식","category":"restaurant"}]},{"lat":"37.581199829","long":"127.22339361","imageIndex":4,"items":[{"name":"피자레어","tel":"031-577-8777","addr":"경기도 남양주시 와부읍 도곡리 922-5번지","indutype":"일반휴게음식 - 일반한식","category":"restaurant"}]},{"lat":"37.563094577","long":"127.23516787","imageIndex":4,"items":[{"name":"하늘정원","tel":"031-521-7777","addr":"경기도 남양주시 와부읍 도곡리 461번지 1층","indutype":"일반휴게음식 - 일반한식","category":"restaurant"}]},{"lat":"37.561791577","long":"127.23342083","imageIndex":4,"items":[{"name":"한강정","tel":"031-576-0700","addr":"경기도 남양주시 와부읍 도곡리 485-3번지","indutype":"일반휴게음식 - 일반한식","category":"restaurant"}]},{"lat":"37.562427186","long":"127.23550534","imageIndex":4,"items":[{"name":"화난덕","tel":"031-577-1294","addr":"경기도 남양주시 와부읍 도곡리 482-1번지","indutype":"일반휴게음식 - 일반한식","category":"restaurant"}]},{"lat":"37.562427743","long":"127.23522239","imageIndex":4,"items":[{"name":"화난푸드","tel":"031-577-1255","addr":"경기도 남양주시 와부읍 도곡리 482-2번지","indutype":"일반휴게음식 - 서양음식","category":"restaurant"}]},{"lat":"37.578594658","long":"127.22411045","imageIndex":4,"items":[{"name":"힐사이드모텔알","tel":"031-521-8020","addr":"경기도 남양주시 와부읍 도곡리 1040-7번지","indutype":"일반휴게음식 - 일반한식","category":"restaurant"}]}]