[{"lat":"37.726380923","long":"127.19283392","imageIndex":13,"items":[{"name":"A cut 헤어살롱","tel":"031-528-8870","addr":"경기도 남양주시 진접읍 장현리 59-3번지 105,106호","indutype":"보건위생 - 미용원","category":"beauty"}]},{"lat":"37.726633007","long":"127.19294799","imageIndex":13,"items":[{"name":"K스파","tel":"031-528-1652","addr":"경기도 남양주시 진접읍 장현리 60-11번지 202호","indutype":"보건위생 - 피부미용실","category":"beauty"},{"name":"안경마니아","tel":"031-574-3006","addr":"경기도 남양주시 진접읍 장현리 60-11","indutype":"보건위생 - 안경","category":"beauty"},{"name":"와이엠헤어","tel":"","addr":"경기도 남양주시 진접읍 장현리 60-11번지 1층 103호","indutype":"보건위생 - 미용원","category":"beauty"}]},{"lat":"37.72032035","long":"127.18530991","imageIndex":13,"items":[{"name":"강릉헤어모드","tel":"031-572-3040","addr":"경기도 남양주시 진접읍 장현리 356-8번지","indutype":"보건위생 - 미용원","category":"beauty"}]},{"lat":"37.717270057","long":"127.17672809","imageIndex":13,"items":[{"name":"강실장콜대리운전","tel":"031-575-7111","addr":"경기도 남양주시 진접읍 장현리 621 길훈상가 204","indutype":"보건위생 - 기타대인서비스","category":"beauty"}]},{"lat":"37.732521208","long":"127.19544739","imageIndex":13,"items":[{"name":"광무무역상사","tel":"041-542-5168","addr":"경기도 남양주시 진접읍 장현리 34-2번지","indutype":"보건위생 - 안경","category":"beauty"}]},{"lat":"37.733516451","long":"127.19286349","imageIndex":13,"items":[{"name":"글라스쉐프(GLASS CHEF)","tel":"031-529-2234","addr":"경기도 남양주시 진접읍 장현리 113-41번지 그린빌 1동 204호","indutype":"보건위생 - 안경","category":"beauty"}]},{"lat":"37.720209432","long":"127.18711305","imageIndex":13,"items":[{"name":"김민영미장원","tel":"","addr":"경기도 남양주시 진접읍 장현리 331-12번지","indutype":"보건위생 - 미용원","category":"beauty"},{"name":"오늘네일","tel":"031-575-0777","addr":"경기도 남양주시 진접읍 장현리 331-12번지 105호","indutype":"보건위생 - 피부미용실","category":"beauty"}]},{"lat":"37.719745192","long":"127.18436711","imageIndex":13,"items":[{"name":"까끄레뽀끄레","tel":"031-573-6059","addr":"경기도 남양주시 진접읍 장현리 351-36번지","indutype":"보건위생 - 미용원","category":"beauty"},{"name":"뷰티헤어프라자","tel":"031-527-4747","addr":"경기도 남양주시 진접읍 장현리 351-36번지 101호","indutype":"보건위생 - 화장품","category":"beauty"},{"name":"새로본안경","tel":"031-571-4665","addr":"경기도 남양주시 진접읍 장현리 351-36번지 (1층4호,5호)","indutype":"보건위생 - 안경","category":"beauty"}]},{"lat":"37.716356505","long":"127.17914171","imageIndex":13,"items":[{"name":"남양주보청기센터굿모닝","tel":"031-575-6689","addr":"경기도 남양주시 진접읍 장현리 648-4번지 2층 201호","indutype":"보건위생 - 의료용품","category":"beauty"}]},{"lat":"37.720824323","long":"127.1856741","imageIndex":13,"items":[{"name":"네일에 물들다","tel":"031-529-5474","addr":"경기도 남양주시 진접읍 장현리 367-14번지","indutype":"보건위생 - 피부미용실","category":"beauty"}]},{"lat":"37.721459195","long":"127.18874944","imageIndex":13,"items":[{"name":"네일죤","tel":"","addr":"경기도 남양주시 진접읍 장현리 216-1번지 홈플러스 3층","indutype":"보건위생 - 피부미용실","category":"beauty"},{"name":"아이피아","tel":"031-574-3888","addr":"경기도 남양주시 진접읍 장현리 216-1번지 1층 2호 11 Y","indutype":"보건위생 - 안경","category":"beauty"}]},{"lat":"37.715742972","long":"127.17973002","imageIndex":13,"items":[{"name":"다비치 안경 장현 현대병원 옆 점","tel":"031-529-3570","addr":"경기도 남양주시 진접읍 장현리 659-2번지","indutype":"보건위생 - 안경","category":"beauty"}]},{"lat":"37.713356017","long":"127.17933874","imageIndex":13,"items":[{"name":"다온","tel":"031-572-5435","addr":"경기도 남양주시 진접읍 장현리 696-2번지 3층 다호","indutype":"보건위생 - 미용재료","category":"beauty"}]},{"lat":"37.719628974","long":"127.18377704","imageIndex":13,"items":[{"name":"더네일","tel":"","addr":"경기도 남양주시 진접읍 장현리 351-24번지 1,2층","indutype":"보건위생 - 피부미용실","category":"beauty"}]},{"lat":"37.71916145","long":"127.18314075","imageIndex":13,"items":[{"name":"더샘 장현점","tel":"031-575-3285","addr":"경기도 남양주시 진접읍 장현리 378-9번지","indutype":"보건위생 - 화장품","category":"beauty"}]},{"lat":"37.715266264","long":"127.17919584","imageIndex":13,"items":[{"name":"동산보청기","tel":"031-543-2662","addr":"경기도 남양주시 진접읍 장현리 659-6번지 한울타리 201호","indutype":"보건위생 - 의료용품","category":"beauty"}]},{"lat":"37.725491744","long":"127.19110751","imageIndex":13,"items":[{"name":"라뷰티","tel":"031-513-1102","addr":"경기도 남양주시 진접읍 장현리 68-21번지 2층","indutype":"보건위생 - 화장품","category":"beauty"},{"name":"라뷰티","tel":"031-513-1102","addr":"경기도 남양주시 진접읍 장현리 68-21번지 201호","indutype":"보건위생 - 피부미용실","category":"beauty"}]},{"lat":"37.723825143","long":"127.19100121","imageIndex":13,"items":[{"name":"레미살롱","tel":"","addr":"경기도 남양주시 진접읍 장현리 232-4번지 201호","indutype":"보건위생 - 미용원","category":"beauty"}]},{"lat":"37.729687257","long":"127.19294446","imageIndex":13,"items":[{"name":"루나","tel":"070-7655-5632","addr":"경기도 남양주시 진접읍 장현리 84-3번지 108호","indutype":"보건위생 - 미용원","category":"beauty"}]},{"lat":"37.71873788","long":"127.18321911","imageIndex":13,"items":[{"name":"매화당","tel":"031-529-5540","addr":"경기도 남양주시 진접읍 장현리 378-17번지 3층","indutype":"보건위생 - 기타대인서비스","category":"beauty"}]},{"lat":"37.71846064","long":"127.18186875","imageIndex":13,"items":[{"name":"머리미용실","tel":"031-510-9058","addr":"경기도 남양주시 진접읍 장현리 390-8번지 남양빌라 1층 2호","indutype":"보건위생 - 미용원","category":"beauty"},{"name":"제이제이학습코칭센터","tel":"031-573-4650","addr":"경기도 남양주시 진접읍 장현리 390-8번지 남양빌라 301호","indutype":"보건위생 - 기타대인서비스","category":"beauty"}]},{"lat":"37.720050502","long":"127.1850257","imageIndex":13,"items":[{"name":"머리이야기","tel":"031-571-7351","addr":"경기도 남양주시 진접읍 장현리 357-1","indutype":"보건위생 - 미용원","category":"beauty"}]},{"lat":"37.716185035","long":"127.17933411","imageIndex":13,"items":[{"name":"머리풍경","tel":"031-571-9666","addr":"경기도 남양주시 진접읍 장현리 648-1","indutype":"보건위생 - 미용원","category":"beauty"}]},{"lat":"37.732216731","long":"127.1943122","imageIndex":13,"items":[{"name":"머리해요","tel":"031-571-3836","addr":"경기도 남양주시 진접읍 장현리 45-12번지","indutype":"보건위생 - 미용원","category":"beauty"}]},{"lat":"37.717270914","long":"127.18217212","imageIndex":13,"items":[{"name":"멋진남자","tel":"031-571-6006","addr":"경기도 남양주시 진접읍 장현리 638-3번지 1층","indutype":"보건위생 - 미용원","category":"beauty"}]},{"lat":"37.718963535","long":"127.17694754","imageIndex":13,"items":[{"name":"명화화장품","tel":"031-525-8556","addr":"경기도 남양주시 진접읍 장현리 395-7번지","indutype":"보건위생 - 화장품","category":"beauty"}]},{"lat":"37.715183084","long":"127.18059063","imageIndex":13,"items":[{"name":"뮤란헤어","tel":"031-572-7728","addr":"경기도 남양주시 진접읍 장현리 697번지","indutype":"보건위생 - 미용원","category":"beauty"}]},{"lat":"37.717744941","long":"127.17849852","imageIndex":13,"items":[{"name":"미녀미남","tel":"031-527-7745","addr":"경기도 남양주시 진접읍 장현리 626번지","indutype":"보건위생 - 피부미용실","category":"beauty"}]},{"lat":"37.720571633","long":"127.18594569","imageIndex":13,"items":[{"name":"미소라인","tel":"031-574-5654","addr":"경기도 남양주시 진접읍 장현리 367-4번지 3층","indutype":"보건위생 - 화장품","category":"beauty"},{"name":"밀레니엄헤어샵","tel":"031-572-3385","addr":"경기도 남양주시 진접읍 장현리 367-4번지 1층 2호","indutype":"보건위생 - 미용원","category":"beauty"}]},{"lat":"37.716210686","long":"127.18025284","imageIndex":13,"items":[{"name":"미용실쑤니","tel":"031-572-1741","addr":"경기도 남양주시 진접읍 장현리 644-3번지","indutype":"보건위생 - 이용원","category":"beauty"}]},{"lat":"37.716877393","long":"127.18025443","imageIndex":13,"items":[{"name":"민,s헤어","tel":"070-8128-6295","addr":"경기도 남양주시 진접읍 장현리 632-8번지","indutype":"보건위생 - 미용원","category":"beauty"}]},{"lat":"37.714739229","long":"127.18216602","imageIndex":13,"items":[{"name":"백정임헤어클리닉","tel":"031-571-9810","addr":"경기도 남양주시 진접읍 장현리 677-3번지 주공상가 A-102호","indutype":"보건위생 - 미용원","category":"beauty"}]},{"lat":"37.71829852","long":"127.18183434","imageIndex":13,"items":[{"name":"뷰티염색","tel":"070-4649-1101","addr":"경기도 남양주시 진접읍 장현리 390-9번지 1층 일부","indutype":"보건위생 - 미용원","category":"beauty"}]},{"lat":"37.717406109","long":"127.18213842","imageIndex":13,"items":[{"name":"뷰티크레딧장현점","tel":"031-528-2323","addr":"경기도 남양주시 진접읍 장현리 637-4번지","indutype":"보건위생 - 화장품","category":"beauty"}]},{"lat":"37.717829299","long":"127.18230957","imageIndex":13,"items":[{"name":"브이아피(VIP)샵 장현점","tel":"031-528-0714","addr":"경기도 남양주시 진접읍 장현리 381-10번지 1층 106호(외1필지 시티프라자)","indutype":"보건위생 - 미용원","category":"beauty"},{"name":"송이머리방","tel":"031-111-1111","addr":"경기도 남양주시 진접읍 장현리 381-10번지 시티프라자 109호","indutype":"보건위생 - 미용원","category":"beauty"},{"name":"유림미용실","tel":"031-572-6660","addr":"경기도 남양주시 진접읍 장현리 381-10번지 씨티프라자 103호","indutype":"보건위생 - 미용원","category":"beauty"}]},{"lat":"37.71393334","long":"127.17886378","imageIndex":13,"items":[{"name":"비치스라 컴퍼니","tel":"070-7789-1816","addr":"경기도 남양주시 진접읍 장현리 656-2번지 2층","indutype":"보건위생 - 화장품","category":"beauty"}]},{"lat":"37.717320985","long":"127.17883777","imageIndex":13,"items":[{"name":"빈스메이드뷰티살롱","tel":"031-575-0729","addr":"경기도 남양주시 진접읍 장현리 633-9번지","indutype":"보건위생 - 미용원","category":"beauty"},{"name":"아람","tel":"070-4114-7626","addr":"경기도 남양주시 진접읍 장현리 633-9번지 102호","indutype":"보건위생 - 화장품","category":"beauty"}]},{"lat":"37.717131581","long":"127.17897342","imageIndex":13,"items":[{"name":"빨강여우머리방","tel":"031-575-5388","addr":"경기도 남양주시 진접읍 장현리 627번지 1층","indutype":"보건위생 - 미용원","category":"beauty"}]},{"lat":"37.722959375","long":"127.19153213","imageIndex":13,"items":[{"name":"살롱드봉봉","tel":"031-528-2890","addr":"경기도 남양주시 진접읍 장현리 239-3번지 B동 1층","indutype":"보건위생 - 미용원","category":"beauty"}]},{"lat":"37.71795934","long":"127.17972394","imageIndex":13,"items":[{"name":"삼신목욕탕","tel":"031-574-5622","addr":"경기도 남양주시 진접읍 장현리 633-1","indutype":"보건위생 - 사우나","category":"beauty"}]},{"lat":"37.716491733","long":"127.17908532","imageIndex":13,"items":[{"name":"손톱하는언닝","tel":"031-1575-8337","addr":"경기도 남양주시 진접읍 장현리 629-1번지 2층","indutype":"보건위생 - 피부미용실","category":"beauty"}]},{"lat":"37.718908071","long":"127.18386602","imageIndex":13,"items":[{"name":"수","tel":"","addr":"경기도 남양주시 진접읍 장현리 350-2번지 2층","indutype":"보건위생 - 화장품","category":"beauty"}]},{"lat":"37.718487135","long":"127.18222042","imageIndex":13,"items":[{"name":"스킨푸드 장현점","tel":"031-527-1905","addr":"경기도 남양주시 진접읍 장현리 381-19번지","indutype":"보건위생 - 화장품","category":"beauty"}]},{"lat":"37.715573216","long":"127.17877693","imageIndex":13,"items":[{"name":"쎄라미용실","tel":"031-574-0714","addr":"경기도 남양주시 진접읍 장현리 607-2번지 장현빌딩 1층","indutype":"보건위생 - 미용원","category":"beauty"}]},{"lat":"37.718239144","long":"127.18530481","imageIndex":13,"items":[{"name":"아뜰헤어","tel":"031-575-4552","addr":"경기도 남양주시 진접읍 장현리 348-29번지 1층","indutype":"보건위생 - 미용원","category":"beauty"}]},{"lat":"37.717633238","long":"127.18089137","imageIndex":13,"items":[{"name":"아모레","tel":"031-573-1519","addr":"경기도 남양주시 진접읍 장현리 634-4번지 장현프라자","indutype":"보건위생 - 화장품","category":"beauty"},{"name":"아모레","tel":"031-573-1519","addr":"경기도 남양주시 진접읍 장현리 634-4번지 장현프라자 413호 412호","indutype":"보건위생 - 화장품","category":"beauty"},{"name":"아모레","tel":"031-573-1519","addr":"경기도 남양주시 진접읍 장현리 634-4번지 장현프라자 412동 413호","indutype":"보건위생 - 화장품","category":"beauty"},{"name":"아모레","tel":"031-573-1519","addr":"경기도 남양주시 진접읍 장현리 634-4번지 장현프라자 413호","indutype":"보건위생 - 화장품","category":"beauty"},{"name":"아모레 카운셀러","tel":"031-573-1519","addr":"경기도 남양주시 진접읍 장현리 634-4번지 장현프라자 413호","indutype":"보건위생 - 화장품","category":"beauty"},{"name":"아모레(카운셀러)","tel":"031-573-1519","addr":"경기도 남양주시 진접읍 장현리 634-4번지 장현프라자 413호","indutype":"보건위생 - 화장품","category":"beauty"},{"name":"아모레카운셀러","tel":"031-573-1519","addr":"경기도 남양주시 진접읍 장현리 634-4번지 장현프라자 4층 413호","indutype":"보건위생 - 화장품","category":"beauty"},{"name":"아모레카운셀러","tel":"031-573-1519","addr":"경기도 남양주시 진접읍 장현리 634-4번지 장현프라자 4층 413호","indutype":"보건위생 - 화장품","category":"beauty"},{"name":"아모레카운셀러","tel":"031-573-1519","addr":"경기도 남양주시 진접읍 장현리 634-4번지 장현프라자 413호","indutype":"보건위생 - 화장품","category":"beauty"},{"name":"아모레카운셀러","tel":"031-573-1519","addr":"경기도 남양주시 진접읍 장현리 634-4번지 장현프라자 413호","indutype":"보건위생 - 화장품","category":"beauty"},{"name":"아모레카운셀러","tel":"031-573-1519","addr":"경기도 남양주시 진접읍 장현리 634-4번지 장현프라자 412,413호","indutype":"보건위생 - 화장품","category":"beauty"},{"name":"아모레카운셀러","tel":"031-573-1519","addr":"경기도 남양주시 진접읍 장현리 634-4번지 장현프라자 413호","indutype":"보건위생 - 화장품","category":"beauty"},{"name":"아모레카운셀러","tel":"031-573-1519","addr":"경기도 남양주시 진접읍 장현리 634-4번지 장현프라자 4층 413호","indutype":"보건위생 - 화장품","category":"beauty"},{"name":"아모레카운셀러","tel":"031-573-1519","addr":"경기도 남양주시 진접읍 장현리 634-4번지 장현프라자 412동 413호","indutype":"보건위생 - 화장품","category":"beauty"},{"name":"아모레카운셀러","tel":"031-573-1519","addr":"경기도 남양주시 진접읍 장현리 634-4번지 장현프라자 412,413호","indutype":"보건위생 - 화장품","category":"beauty"},{"name":"아모레카운셀러","tel":"031-573-1519","addr":"경기도 남양주시 진접읍 장현리 634-4번지 장현프라자 413호","indutype":"보건위생 - 화장품","category":"beauty"},{"name":"아모레카운셀러","tel":"031-573-1519","addr":"경기도 남양주시 진접읍 장현리 634-4번지 장현프라자 4층","indutype":"보건위생 - 화장품","category":"beauty"},{"name":"아모레카운셀러","tel":"031-573-1519","addr":"경기도 남양주시 진접읍 장현리 634-4번지 장현프라자 413호","indutype":"보건위생 - 화장품","category":"beauty"},{"name":"아모레카운셀러","tel":"031-573-1519","addr":"경기도 남양주시 진접읍 장현리 634-4번지 장현프라자","indutype":"보건위생 - 화장품","category":"beauty"},{"name":"아모레카운셀러","tel":"031-573-1519","addr":"경기도 남양주시 진접읍 장현리 634-4번지 장현프라자 4층 413호","indutype":"보건위생 - 화장품","category":"beauty"},{"name":"아모레퍼시픽","tel":"031-573-1519","addr":"경기도 남양주시 진접읍 장현리 634-4번지 장현프라자 413호","indutype":"보건위생 - 화장품","category":"beauty"},{"name":"아모레퍼시픽","tel":"031-573-1519","addr":"경기도 남양주시 진접읍 장현리 634-4번지 장현프라자 413호","indutype":"보건위생 - 화장품","category":"beauty"},{"name":"아모레퍼시픽","tel":"031-573-1519","addr":"경기도 남양주시 진접읍 장현리 634-4번지 장현프라자 413호","indutype":"보건위생 - 화장품","category":"beauty"},{"name":"아모레퍼시픽","tel":"031-573-1519","addr":"경기도 남양주시 진접읍 장현리 634-4번지 장현프라자 413호","indutype":"보건위생 - 화장품","category":"beauty"},{"name":"아모레퍼시픽","tel":"031-573-1519","addr":"경기도 남양주시 진접읍 장현리 634-4번지 장현프라자 413호","indutype":"보건위생 - 화장품","category":"beauty"},{"name":"엘지오휘장현지사","tel":"031-572-7628","addr":"경기도 남양주시 진접읍 장현리 634-4번지 장현프라자 401호","indutype":"보건위생 - 화장품","category":"beauty"},{"name":"위너스","tel":"031-571-7172","addr":"경기도 남양주시 진접읍 장현리 634-4번지 장현프라자 128호","indutype":"보건위생 - 화장품","category":"beauty"},{"name":"장현","tel":"031-572-3800","addr":"경기도 남양주시 진접읍 장현리 634-4번지 장현프라자 지하1층 비 01호","indutype":"보건위생 - 화장품","category":"beauty"},{"name":"장현불한증막사우나","tel":"031-572-3800","addr":"경기도 남양주시 진접읍 장현리 634-4번지 장현프라자 지하1층","indutype":"보건위생 - 사우나","category":"beauty"},{"name":"장현크린","tel":"031-572-3800","addr":"경기도 남양주시 진접읍 장현리 634-4번지 장현프라자 B01호","indutype":"보건위생 - 기타대인서비스","category":"beauty"},{"name":"장현화장품","tel":"031-111-1111","addr":"경기도 남양주시 진접읍 장현리 634-4번지 장현프라자 지층 B01호","indutype":"보건위생 - 화장품","category":"beauty"},{"name":"펠리스헤어","tel":"070-4042-1826","addr":"경기도 남양주시 진접읍 장현리 634-4번지 장현프라자 104호","indutype":"보건위생 - 미용원","category":"beauty"},{"name":"한빛안경원","tel":"031-571-5700","addr":"경기도 남양주시 진접읍 장현리 634-4번지 장현프라자 220호","indutype":"보건위생 - 안경","category":"beauty"},{"name":"황궁","tel":"031-510-1276","addr":"경기도 남양주시 진접읍 장현리 634-4번지 장현프라자 209호","indutype":"보건위생 - 화장품","category":"beauty"}]},{"lat":"37.717820928","long":"127.1818899","imageIndex":13,"items":[{"name":"아이월드안경","tel":"031-572-3288","addr":"경기도 남양주시 진접읍 장현리 636-1번지","indutype":"보건위생 - 안경","category":"beauty"}]},{"lat":"37.717493247","long":"127.1781123","imageIndex":13,"items":[{"name":"약손","tel":"031-574-7739","addr":"경기도 남양주시 진접읍 장현리 625번지 2층 1호","indutype":"보건위생 - 기타대인서비스","category":"beauty"}]},{"lat":"37.720015705","long":"127.18422032","imageIndex":13,"items":[{"name":"엄지공주","tel":"031-529-4224","addr":"경기도 남양주시 진접읍 장현리 351-25번지","indutype":"보건위생 - 피부미용실","category":"beauty"}]},{"lat":"37.717600619","long":"127.17861159","imageIndex":13,"items":[{"name":"엔젤헤어","tel":"031-575-7599","addr":"경기도 남양주시 진접읍 장현리 626-1","indutype":"보건위생 - 미용원","category":"beauty"}]},{"lat":"37.719709886","long":"127.18389065","imageIndex":13,"items":[{"name":"엘샤론 염색방","tel":"031-574-5040","addr":"경기도 남양주시 진접읍 장현리 351-16번지","indutype":"보건위생 - 미용재료","category":"beauty"},{"name":"엘샤론코리아","tel":"031-572-8502","addr":"경기도 남양주시 진접읍 장현리 351-16번지 1층","indutype":"보건위생 - 화장품","category":"beauty"}]},{"lat":"37.729787475","long":"127.19225275","imageIndex":13,"items":[{"name":"영헤어","tel":"031-529-6647","addr":"경기도 남양주시 진접읍 장현리 86-6번지 다동 104호","indutype":"보건위생 - 미용원","category":"beauty"}]},{"lat":"37.732100508","long":"127.19375605","imageIndex":13,"items":[{"name":"오늘헤어","tel":"031-527-0760","addr":"경기도 남양주시 진접읍 장현리 44-5번지 1층 2호","indutype":"보건위생 - 미용원","category":"beauty"}]},{"lat":"37.71910642","long":"127.18377576","imageIndex":13,"items":[{"name":"오라클코스메틱","tel":"031-571-0575","addr":"경기도 남양주시 진접읍 장현리 350-1번지 우경메디프라자 6층 601호","indutype":"보건위생 - 화장품","category":"beauty"},{"name":"제이제이(JJ)심리상담센터","tel":"031-529-7774","addr":"경기도 남양주시 진접읍 장현리 350-1번지 701호","indutype":"보건위생 - 기타대인서비스","category":"beauty"}]},{"lat":"37.716828894","long":"127.18253399","imageIndex":13,"items":[{"name":"오즈헤어","tel":"070-8623-8111","addr":"경기도 남양주시 진접읍 장현리 284-3번지 1층","indutype":"보건위생 - 미용원","category":"beauty"}]},{"lat":"37.722544537","long":"127.19178061","imageIndex":13,"items":[{"name":"오휘장현대리점","tel":"031-572-7952","addr":"경기도 남양주시 진접읍 장현리 240-3번지 오휘장현대리점","indutype":"보건위생 - 화장품","category":"beauty"}]},{"lat":"37.720157458","long":"127.18577454","imageIndex":13,"items":[{"name":"옥주머리방","tel":"031-572-1051","addr":"경기도 남양주시 진접읍 장현리 359번지 1층 1호","indutype":"보건위생 - 미용원","category":"beauty"}]},{"lat":"37.723240498","long":"127.19038723","imageIndex":13,"items":[{"name":"우리동네 보청기","tel":"031-575-2338","addr":"경기도 남양주시 진접읍 장현리 230-5번지 3층","indutype":"보건위생 - 의료용품","category":"beauty"}]},{"lat":"37.7194943","long":"127.18347047","imageIndex":13,"items":[{"name":"유성헤어","tel":"031-572-6311","addr":"경기도 남양주시 진접읍 장현리 378-1번지","indutype":"보건위생 - 미용원","category":"beauty"}]},{"lat":"37.71529954","long":"127.18103323","imageIndex":13,"items":[{"name":"유앤미헤어살롱","tel":"031-571-7880","addr":"경기도 남양주시 진접읍 장현리 672-1번지 외 1필지 형제빌딩","indutype":"보건위생 - 미용원","category":"beauty"}]},{"lat":"37.718045822","long":"127.18211728","imageIndex":13,"items":[{"name":"유정미용실","tel":"031-572-3302","addr":"경기도 남양주시 진접읍 장현리 381-29번지","indutype":"보건위생 - 미용원","category":"beauty"}]},{"lat":"37.716436419","long":"127.17992447","imageIndex":13,"items":[{"name":"은혜미용실","tel":"031-571-2908","addr":"경기도 남양주시 진접읍 장현리 644-4번지","indutype":"보건위생 - 미용원","category":"beauty"}]},{"lat":"37.726515481","long":"127.19319724","imageIndex":13,"items":[{"name":"이소윤머리세상","tel":"031-573-3020","addr":"경기도 남양주시 진접읍 장현리 51-30번지","indutype":"보건위생 - 미용원","category":"beauty"}]},{"lat":"37.715851885","long":"127.17919722","imageIndex":13,"items":[{"name":"이원건강의료기장현점","tel":"031-528-2136","addr":"경기도 남양주시 진접읍 장현리 659번지 외1필지","indutype":"보건위생 - 의료용품","category":"beauty"}]},{"lat":"37.72176552","long":"127.18875021","imageIndex":13,"items":[{"name":"이철헤어커커","tel":"031-574-2326","addr":"경기도 남양주시 진접읍 장현리 215외13필지 3층","indutype":"보건위생 - 미용원","category":"beauty"}]},{"lat":"37.717156023","long":"127.18069742","imageIndex":13,"items":[{"name":"장현(아리따움)","tel":"031-572-9595","addr":"경기도 남양주시 진접읍 장현리 643-20","indutype":"보건위생 - 화장품","category":"beauty"}]},{"lat":"37.717765732","long":"127.18263832","imageIndex":13,"items":[{"name":"장현퀸","tel":"031-111-1111","addr":"경기도 남양주시 진접읍 장현리 380-19","indutype":"보건위생 - 미용원","category":"beauty"}]},{"lat":"37.719349539","long":"127.18386709","imageIndex":13,"items":[{"name":"전옥남강릉헤어","tel":"031-529-4171","addr":"경기도 남양주시 진접읍 장현리 351-20번지 1층","indutype":"보건위생 - 미용원","category":"beauty"}]},{"lat":"37.718599228","long":"127.1854985","imageIndex":13,"items":[{"name":"제이준속눈썹","tel":"031-572-5728","addr":"경기도 남양주시 진접읍 장현리 346-1번지 2층 제이준헤어 내","indutype":"보건위생 - 피부미용실","category":"beauty"},{"name":"제이준헤어","tel":"031-573-8701","addr":"경기도 남양주시 진접읍 장현리 346-1번지 2층","indutype":"보건위생 - 미용원","category":"beauty"},{"name":"제이준헤어","tel":"031-573-8701","addr":"경기도 남양주시 진접읍 장현리 346-1번지 2층","indutype":"보건위생 - 미용원","category":"beauty"}]},{"lat":"37.717320889","long":"127.18483755","imageIndex":13,"items":[{"name":"주식회사 아이데코이앰","tel":"031-574-6002","addr":"경기도 남양주시 진접읍 장현리 291번지","indutype":"보건위생 - 안경","category":"beauty"}]},{"lat":"37.716662287","long":"127.17950537","imageIndex":13,"items":[{"name":"짱미용실","tel":"031-573-1023","addr":"경기도 남양주시 진접읍 장현리 633-13","indutype":"보건위생 - 미용원","category":"beauty"}]},{"lat":"37.716634254","long":"127.18017446","imageIndex":13,"items":[{"name":"찌뿌둥","tel":"031-516-9994","addr":"경기도 남양주시 진접읍 장현리 644-8번지 2층","indutype":"보건위생 - 미용재료","category":"beauty"}]},{"lat":"37.717489923","long":"127.18033528","imageIndex":13,"items":[{"name":"채플린미용실","tel":"031-572-9039","addr":"경기도 남양주시 진접읍 장현리 633번지 1층","indutype":"보건위생 - 미용원","category":"beauty"}]},{"lat":"37.718825186","long":"127.18503404","imageIndex":13,"items":[{"name":"천신암","tel":"031-527-7361","addr":"경기도 남양주시 진접읍 장현리 347-15번지 장현빌라 다동 102호","indutype":"보건위생 - 기타대인서비스","category":"beauty"}]},{"lat":"37.726272278","long":"127.19316259","imageIndex":13,"items":[{"name":"코디미용실","tel":"031-528-6971","addr":"경기도 남양주시 진접읍 장현리 58-13번지 103호","indutype":"보건위생 - 미용원","category":"beauty"}]},{"lat":"37.716576799","long":"127.18241996","imageIndex":13,"items":[{"name":"태후사랑","tel":"031-575-7749","addr":"경기도 남양주시 진접읍 장현리 284-7번지","indutype":"보건위생 - 화장품","category":"beauty"}]},{"lat":"37.716571987","long":"127.17964125","imageIndex":13,"items":[{"name":"태후사랑","tel":"031-571-9476","addr":"경기도 남양주시 진접읍 장현리 632-5","indutype":"보건위생 - 미용원","category":"beauty"}]},{"lat":"37.716633503","long":"127.18067349","imageIndex":13,"items":[{"name":"포커스안경원","tel":"031-527-7800","addr":"경기도 남양주시 진접읍 장현리 643-29번지","indutype":"보건위생 - 안경","category":"beauty"},{"name":"한빛나노메디칼","tel":"031-513-2132","addr":"경기도 남양주시 진접읍 장현리 643-29번지 제일빌딩 4층","indutype":"보건위생 - 의료용품","category":"beauty"}]},{"lat":"37.721464404","long":"127.1854148","imageIndex":13,"items":[{"name":"한결대리점","tel":"031-528-0087","addr":"경기도 남양주시 진접읍 장현리 201번지","indutype":"보건위생 - 의료용품","category":"beauty"}]},{"lat":"37.717854168","long":"127.17775021","imageIndex":13,"items":[{"name":"헤어리모델링","tel":"031-575-1066","addr":"경기도 남양주시 진접읍 장현리 398-6번지 대흥프라자 101호","indutype":"보건위생 - 미용원","category":"beauty"}]},{"lat":"37.71915558","long":"127.18694031","imageIndex":13,"items":[{"name":"헤어캐슬","tel":"031-575-0667","addr":"경기도 남양주시 진접읍 장현리 702 롯데캐슬 상가-102","indutype":"보건위생 - 미용원","category":"beauty"}]},{"lat":"37.715796127","long":"127.18033124","imageIndex":13,"items":[{"name":"현대종합의료기","tel":"031-8034-5050","addr":"경기도 남양주시 진접읍 장현리 661-2번지","indutype":"보건위생 - 의료용품","category":"beauty"}]}]