[{"lat":"37.229725948","long":"127.43090782","imageIndex":4,"items":[{"name":"(주) 아워홈 나이키이천점","tel":"02-6966-9049","addr":"경기도 이천시 호법면 후안리 68번지 1층","indutype":"일반휴게음식 - 위탁급식업","category":"restaurant"}]},{"lat":"37.222946304","long":"127.41679674","imageIndex":4,"items":[{"name":"그레이티커피(GREATY COFFEE)","tel":"031-632-9890","addr":"경기도 이천시 호법면 후안리 485번지 1-2층","indutype":"일반휴게음식 - 서양음식","category":"restaurant"}]},{"lat":"37.222614795","long":"127.42646217","imageIndex":4,"items":[{"name":"나들목","tel":"031-631-2265","addr":"경기도 이천시 호법면 후안리 228-4번지","indutype":"일반휴게음식 - 일반한식","category":"restaurant"}]},{"lat":"37.222135647","long":"127.42691017","imageIndex":4,"items":[{"name":"대청마루","tel":"031-631-9992","addr":"경기도 이천시 호법면 후안리 226-7번지","indutype":"일반휴게음식 - 일반한식","category":"restaurant"}]},{"lat":"37.221778908","long":"127.42588288","imageIndex":4,"items":[{"name":"마루퓨전","tel":"031-633-6672","addr":"경기도 이천시 호법면 후안리 232-1번지 대광빌딩 2층","indutype":"일반휴게음식 - 일반한식","category":"restaurant"},{"name":"마포갈비","tel":"031-634-9014","addr":"경기도 이천시 호법면 후안리 232-1번지 1층","indutype":"일반휴게음식 - 일반한식","category":"restaurant"},{"name":"으뜸원","tel":"031-634-5150","addr":"경기도 이천시 호법면 후안리 232-1번지","indutype":"일반휴게음식 - 중국식","category":"restaurant"}]},{"lat":"37.222972417","long":"127.42724161","imageIndex":4,"items":[{"name":"박가네식당","tel":"031-631-7707","addr":"경기도 이천시 호법면 후안리 254-3번지 2층","indutype":"일반휴게음식 - 일반한식","category":"restaurant"},{"name":"유민이네식당","tel":"031-631-2533","addr":"경기도 이천시 호법면 후안리 254-3번지 1층","indutype":"일반휴게음식 - 일반한식","category":"restaurant"}]},{"lat":"37.224724738","long":"127.42854719","imageIndex":4,"items":[{"name":"산촌오리","tel":"031-637-9252","addr":"경기도 이천시 호법면 후안리 301-3번지","indutype":"일반휴게음식 - 일반한식","category":"restaurant"}]},{"lat":"37.218278587","long":"127.41690644","imageIndex":4,"items":[{"name":"아젤리아까페","tel":"031-638-1202","addr":"경기도 이천시 호법면 후안리 530-5번지","indutype":"일반휴게음식 - 서양음식","category":"restaurant"}]},{"lat":"37.222696369","long":"127.42632742","imageIndex":4,"items":[{"name":"엄지네식당","tel":"031-632-6413","addr":"경기도 이천시 호법면 후안리 228-1번지 2층","indutype":"일반휴게음식 - 일반한식","category":"restaurant"}]},{"lat":"37.228722199","long":"127.431905","imageIndex":4,"items":[{"name":"일순매운탕","tel":"031-636-5533","addr":"경기도 이천시 호법면 후안리 89번지","indutype":"일반휴게음식 - 일반한식","category":"restaurant"},{"name":"주영식당","tel":"031-632-0545","addr":"경기도 이천시 호법면 후안리 89번지 1층","indutype":"일반휴게음식 - 일반한식","category":"restaurant"},{"name":"하우스홀드","tel":"031-631-3696","addr":"경기도 이천시 호법면 후안리 89번지 나동","indutype":"일반휴게음식 - 일반한식","category":"restaurant"}]},{"lat":"37.223503811","long":"127.42730092","imageIndex":4,"items":[{"name":"처갓집양념치킨","tel":"031-632-9949","addr":"경기도 이천시 호법면 후안리 267-4","indutype":"일반휴게음식 - 주점","category":"restaurant"}]},{"lat":"37.222558638","long":"127.42704775","imageIndex":4,"items":[{"name":"카페쉴틈","tel":"02-1577-0000","addr":"경기도 이천시 호법면 후안리 253-10번지 1층","indutype":"일반휴게음식 - 서양음식","category":"restaurant"}]},{"lat":"37.217834199","long":"127.42029522","imageIndex":4,"items":[{"name":"황놀부최고집","tel":"031-637-3725","addr":"경기도 이천시 호법면 후안리 508-10번지","indutype":"일반휴게음식 - 일반한식","category":"restaurant"}]}]