[{"lat":"37.342223976","long":"126.78491039","imageIndex":17,"items":[{"name":"DC땡백화점(거모땡)","tel":"031-491-4856","addr":"경기도 시흥시 거모동 1771-1번지","indutype":"소매업 - 생활용품","category":"other"}]},{"lat":"37.342276913","long":"126.78430085","imageIndex":17,"items":[{"name":"DO&BE(두엔비)","tel":"031-491-2956","addr":"경기도 시흥시 거모동 1753-1번지 102호","indutype":"소매업 - 화장품,잡화,액세서리","category":"other"}]},{"lat":"37.341249406","long":"126.78411198","imageIndex":17,"items":[{"name":"MR100 시흥점","tel":"031-504-9499","addr":"경기도 시흥시 거모동 1656-8번지 1층 103호","indutype":"소매업 - 스포츠용품","category":"other"},{"name":"글라스스토리 시흥거모점","tel":"031-495-8123","addr":"경기도 시흥시 거모동 1656-8번지 유성프라자 105호","indutype":"소매업 - 안경, 렌즈","category":"other"}]},{"lat":"37.34263815","long":"126.78475121","imageIndex":17,"items":[{"name":"WOW","tel":"031-493-0304","addr":"경기도 시흥시 거모동 1754-4번지 109호동 1층","indutype":"소매업 - 의류","category":"other"},{"name":"대박축산","tel":"031-494-1114","addr":"경기도 시흥시 거모동 1754-4번지 1층","indutype":"소매업 - 정육점","category":"other"}]},{"lat":"37.340528221","long":"126.78391095","imageIndex":17,"items":[{"name":"갬해원 아웃도어","tel":"031-493-7531","addr":"경기도 시흥시 거모동 1657-4번지","indutype":"소매업 - 의류","category":"other"},{"name":"봄뜰화원","tel":"031-495-4688","addr":"경기도 시흥시 거모동 1657-4번지","indutype":"소매업 - 꽃, 생화","category":"other"},{"name":"부동산뉴스공인중개사","tel":"031-491-6700","addr":"경기도 시흥시 거모동 1657-4번지","indutype":"개인서비스업 - 부동산중개업","category":"other"}]},{"lat":"37.34203441","long":"126.7847191","imageIndex":17,"items":[{"name":"거모BYC","tel":"031-495-6231","addr":"경기도 시흥시 거모동 1771-8번지","indutype":"소매업 - 내의","category":"other"}]},{"lat":"37.342556685","long":"126.78454831","imageIndex":17,"items":[{"name":"건강을주는약국","tel":"031-494-3554","addr":"경기도 시흥시 거모동 1754-5번지 빅타운 104호","indutype":"보건업 - 의약품","category":"other"},{"name":"대가떡집","tel":"031-495-6879","addr":"경기도 시흥시 거모동 1754-5번지 빅타운","indutype":"소매업 - 떡","category":"other"}]},{"lat":"37.344890365","long":"126.78457541","imageIndex":17,"items":[{"name":"경희대스타 태권도","tel":"031-492-1243","addr":"경기도 시흥시 거모동 1742-1번지 보성빌딩 3층","indutype":"교육서비스업 - 태권도","category":"other"},{"name":"뉴아주사진관","tel":"031-495-9055","addr":"경기도 시흥시 거모동 1742-1번지","indutype":"개인서비스업 - 사진관","category":"other"},{"name":"도일아나파치과","tel":"031-439-2500","addr":"경기도 시흥시 거모동 1742-1번지","indutype":"보건업 - 치과","category":"other"},{"name":"알파 거모점","tel":"031-491-8253","addr":"경기도 시흥시 거모동 1742-1번지","indutype":"소매업 - 문구,사무용품","category":"other"}]},{"lat":"37.340167315","long":"126.78364116","imageIndex":17,"items":[{"name":"광륜방앗간","tel":"031-494-0787","addr":"경기도 시흥시 거모동 1658-7번지","indutype":"제조업 - 방앗간","category":"other"}]},{"lat":"37.350858831","long":"126.77697369","imageIndex":17,"items":[{"name":"광진마님네 다육","tel":"","addr":"경기도 시흥시 거모동 1082-2번지","indutype":"소매업 - 다육","category":"other"},{"name":"군자원예원","tel":"","addr":"경기도 시흥시 거모동 1082-2번지","indutype":"소매업 - 원예, 묘목","category":"other"}]},{"lat":"37.345862601","long":"126.78410988","imageIndex":17,"items":[{"name":"군자공인중개사사무소","tel":"031-492-4400","addr":"경기도 시흥시 거모동 1733-1번지 A동 106호","indutype":"개인서비스업 - 부동산중개","category":"other"}]},{"lat":"37.341861738","long":"126.78391836","imageIndex":17,"items":[{"name":"군자당구장","tel":"","addr":"경기도 시흥시 거모동 1753-5번지 용빌딩 201호","indutype":"개인서비스업 - 스포츠,당구장","category":"other"}]},{"lat":"37.356887538","long":"126.77277933","imageIndex":17,"items":[{"name":"군자떡방앗간","tel":"031-432-6093","addr":"경기도 시흥시 거모동 523-8번지 유림아트빌","indutype":"제조업 - 방앗간","category":"other"}]},{"lat":"37.33964523","long":"126.78391351","imageIndex":17,"items":[{"name":"군자종묘","tel":"031-494-5100","addr":"경기도 시흥시 거모동 1659-10번지 1층","indutype":"소매업 - 종묘,농약,비료","category":"other"}]},{"lat":"37.344169827","long":"126.7847242","imageIndex":17,"items":[{"name":"궁전노래연습장","tel":"031-491-4988","addr":"경기도 시흥시 거모동 1742-5번지 지층","indutype":"개인서비스업 - 노래연습장","category":"other"},{"name":"와와노래연습장","tel":"","addr":"경기도 시흥시 거모동 1742-5번지 거모프라자 2층 203호","indutype":"개인서비스업 - 노래연습장","category":"other"}]},{"lat":"37.341726378","long":"126.7838059","imageIndex":17,"items":[{"name":"금강열쇠","tel":"031-493-0105","addr":"경기도 시흥시 거모동 1753-6번지","indutype":"개인서비스업 - 열쇠수리,전기수리","category":"other"}]},{"lat":"37.345338007","long":"126.78302799","imageIndex":17,"items":[{"name":"금메달태권도","tel":"031-493-3123","addr":"경기도 시흥시 거모동 1735-2번지 2층 201호","indutype":"교육서비스업 - 태권도","category":"other"},{"name":"행복부동산공인중개사","tel":"031-495-8945","addr":"경기도 시흥시 거모동 1735-2번지 아주4차 상가 103호","indutype":"개인서비스업 - 부동산중개","category":"other"}]},{"lat":"37.346754852","long":"126.78424272","imageIndex":17,"items":[{"name":"까치공인중개사사무소","tel":"031-495-0335","addr":"경기도 시흥시 거모동 1726-9번지 101호","indutype":"개인서비스업 - 부동산중개","category":"other"}]},{"lat":"37.339312107","long":"126.78404989","imageIndex":17,"items":[{"name":"깨볶는부부","tel":"","addr":"경기도 시흥시 거모동 1669-24번지","indutype":"제조업 - 참기름,  미숫가루","category":"other"}]},{"lat":"37.348108634","long":"126.78546897","imageIndex":17,"items":[{"name":"뉴스공인중개사사무소","tel":"031-495-0623","addr":"경기도 시흥시 거모동 1717-1번지 태성빌딩 1층 101호","indutype":"개인서비스업 - 부동산중개업","category":"other"}]},{"lat":"37.34361369","long":"126.78608005","imageIndex":17,"items":[{"name":"늑대와여우 컴퓨터","tel":"031-493-4060","addr":"경기도 시흥시 거모동 1760-11번지 101호","indutype":"소매업 - 전산소매","category":"other"}]},{"lat":"37.341978096","long":"126.78350048","imageIndex":17,"items":[{"name":"니트상자","tel":"","addr":"경기도 시흥시 거모동 1751-9번지","indutype":"개인서비스업 - 털실,부자재","category":"other"}]},{"lat":"37.347366118","long":"126.78347351","imageIndex":17,"items":[{"name":"대찬노래방","tel":"031-492-0066","addr":"경기도 시흥시 거모동 1724-9번지","indutype":"스포츠및여가관련서비스업 - 노래방","category":"other"},{"name":"모닝글로리","tel":"031-491-2025","addr":"경기도 시흥시 거모동 1724-9번지","indutype":"소매업 - 문구, 팬시","category":"other"},{"name":"전통떡집","tel":"031-494-7511","addr":"경기도 시흥시 거모동 1724-9번지","indutype":"제조업 - 떡집","category":"other"}]},{"lat":"37.34094254","long":"126.78383075","imageIndex":17,"items":[{"name":"데이지스(DAISY'S)","tel":"","addr":"경기도 시흥시 거모동 1656-6번지 1층","indutype":"소매업 - 의류","category":"other"}]},{"lat":"37.339700521","long":"126.78457915","imageIndex":17,"items":[{"name":"도일상회","tel":"031-494-5110","addr":"경기도 시흥시 거모동 1659-21번지","indutype":"소매업 - 야채","category":"other"}]},{"lat":"37.343309788","long":"126.78252607","imageIndex":17,"items":[{"name":"두손유리개발","tel":"031-433-6204","addr":"경기도 시흥시 거모동 1746-13번지","indutype":"소매업 - 유리","category":"other"}]},{"lat":"37.347086218","long":"126.78315833","imageIndex":17,"items":[{"name":"마미네쿠키집","tel":"","addr":"경기도 시흥시 거모동 1728-6번지","indutype":"제조업 - 수제쿠키","category":"other"},{"name":"세일조명","tel":"031-493-1424","addr":"경기도 시흥시 거모동 1728-6번지 삼성프라자 104호","indutype":"소매업 - 전기용품,조명장치","category":"other"}]},{"lat":"37.342863757","long":"126.7849424","imageIndex":17,"items":[{"name":"매니아 당구장","tel":"","addr":"경기도 시흥시 거모동 1756-8번지 3층","indutype":"스포츠및여가관련서비스업 - 당구장","category":"other"}]},{"lat":"37.341501939","long":"126.78424667","imageIndex":17,"items":[{"name":"멋쟁이","tel":"031-495-0195","addr":"경기도 시흥시 거모동 1771-6번지 유복빌딩 102호","indutype":"소매업 - 의류","category":"other"},{"name":"아리따움시흥거모점","tel":"031-491-7865","addr":"경기도 시흥시 거모동 1771-6번지 유복빌딩 104호","indutype":"소매업 - 화장품","category":"other"}]},{"lat":"37.341780212","long":"126.78860188","imageIndex":17,"items":[{"name":"명진라이프컨설팅","tel":"031-494-5073","addr":"경기도 시흥시 거모동 1765-5번지 녹원아파트","indutype":"개인서비스업 - 사무대행업","category":"other"}]},{"lat":"37.344367674","long":"126.7845205","imageIndex":17,"items":[{"name":"뫔챙김상담&코칭센터","tel":"031-435-2110","addr":"경기도 시흥시 거모동 1742-6번지 장영빌딩 401호","indutype":"교육서비스업 - 교육서비스업","category":"other"}]},{"lat":"37.348587391","long":"126.78613346","imageIndex":17,"items":[{"name":"물대포","tel":"031-492-0116","addr":"경기도 시흥시 거모동 1715-2번지 유호아파트 상가동 303호","indutype":"개인서비스업 - 다이어트방","category":"other"}]},{"lat":"37.352668152","long":"126.77607662","imageIndex":17,"items":[{"name":"미니맥스","tel":"031-365-5446","addr":"경기도 시흥시 거모동 1045-1번지 1층","indutype":"소매업 - 동물사료","category":"other"}]},{"lat":"37.343306435","long":"126.78558438","imageIndex":17,"items":[{"name":"미센스","tel":"031-493-4451","addr":"경기도 시흥시 거모동 1761-13번지 1층","indutype":"소매업 - 의류,숙녀복","category":"other"},{"name":"팬시아이","tel":"031-494-1349","addr":"경기도 시흥시 거모동 1761-13번지","indutype":"소매업 - 문구, 팬시","category":"other"}]},{"lat":"37.340086266","long":"126.78366396","imageIndex":17,"items":[{"name":"밝은안경","tel":"031-414-1006","addr":"경기도 시흥시 거모동 1658-8번지","indutype":"소매업 - 안경, 렌즈","category":"other"}]},{"lat":"37.339447467","long":"126.78416235","imageIndex":17,"items":[{"name":"베지밀 원곡대리점","tel":"031-495-9750","addr":"경기도 시흥시 거모동 1669-18번지","indutype":"소매업 - 두유, 음료","category":"other"}]},{"lat":"37.340032623","long":"126.78388982","imageIndex":17,"items":[{"name":"보떼(거모화장품)","tel":"031-491-8264","addr":"경기도 시흥시 거모동 1658-18번지","indutype":"소매업 - 화장품","category":"other"}]},{"lat":"37.341004942","long":"126.78346945","imageIndex":17,"items":[{"name":"비젼","tel":"","addr":"경기도 시흥시 거모동 1545-1번지","indutype":"소매업 - 의류","category":"other"}]},{"lat":"37.3535245","long":"126.77627721","imageIndex":17,"items":[{"name":"삼성유통 주식회사","tel":"031-494-0534","addr":"경기도 시흥시 거모동 834-1번지","indutype":"소매업 - 철물,건재,잡화","category":"other"}]},{"lat":"37.347391701","long":"126.78269472","imageIndex":17,"items":[{"name":"소느루#","tel":"","addr":"경기도 시흥시 거모동 1728-3번지 삼익빌라 102호","indutype":"소매업 - 액세서리, 원목소품","category":"other"}]},{"lat":"37.340222128","long":"126.78404725","imageIndex":17,"items":[{"name":"신발백화점","tel":"","addr":"경기도 시흥시 거모동 1658-25번지","indutype":"소매업 - 신발","category":"other"},{"name":"중앙종묘농약사","tel":"031-494-2073","addr":"경기도 시흥시 거모동 1658-25번지 흥빌딩 7호","indutype":"소매업 - 농약","category":"other"},{"name":"한뉘치과","tel":"031-492-7209","addr":"경기도 시흥시 거모동 1658-25번지 시흥빌딩 301호","indutype":"보건업 - 치과","category":"other"}]},{"lat":"37.344748981","long":"126.78122404","imageIndex":17,"items":[{"name":"아름다운세상","tel":"031-492-9955","addr":"경기도 시흥시 거모동 1738-9번지 거모종합사회복지관 2층","indutype":"개인서비스업 - 서비스업","category":"other"}]},{"lat":"37.343170453","long":"126.78513336","imageIndex":17,"items":[{"name":"아이월드안경원","tel":"031-493-7429","addr":"경기도 시흥시 거모동 1756-6번지 도일그랜드프라자 1층","indutype":"소매업 - 안경","category":"other"},{"name":"참정육점","tel":"031-415-2668","addr":"경기도 시흥시 거모동 1756-6번지 도일그랜드프라자 104호","indutype":"소매업 - 정육점","category":"other"},{"name":"홈스마일(시흥점)","tel":"031-493-3658","addr":"경기도 시흥시 거모동 1756-6번지 그랜드프라자 102호","indutype":"소매업 - 침구류","category":"other"}]},{"lat":"37.340584095","long":"126.78489256","imageIndex":17,"items":[{"name":"아진세탁","tel":"031-494-6620","addr":"경기도 시흥시 거모동 1772-10번지 건영타운 B동 101호","indutype":"개인서비스업 - 세탁","category":"other"}]},{"lat":"37.341392586","long":"126.78358117","imageIndex":17,"items":[{"name":"앤코코","tel":"","addr":"경기도 시흥시 거모동 1553-1번지","indutype":"소매업 - 여성의류","category":"other"}]},{"lat":"37.345169532","long":"126.7844956","imageIndex":17,"items":[{"name":"에스제이길비뇨기과의원","tel":"031-494-7282","addr":"경기도 시흥시 거모동 1733-8번지 3층","indutype":"보건업 - 비뇨기과","category":"other"}]},{"lat":"37.343387422","long":"126.78552772","imageIndex":17,"items":[{"name":"오렌지","tel":"","addr":"경기도 시흥시 거모동 1761-14번지 거모탑클래스학원 102호","indutype":"소매업 - 의류","category":"other"}]},{"lat":"37.341946157","long":"126.78572372","imageIndex":17,"items":[{"name":"와우점핑다이어트","tel":"","addr":"경기도 시흥시 거모동 1769-1번지 상가동 3층 302호 15069","indutype":"개인서비스업 - 운동","category":"other"}]},{"lat":"37.343890451","long":"126.78469116","imageIndex":17,"items":[{"name":"용인대석사태권도","tel":"031-495-6101","addr":"경기도 시흥시 거모동 1756-1번지 동운디오빌아파트 202호","indutype":"개인서비스업 - 태권도","category":"other"}]},{"lat":"37.361940959","long":"126.77213177","imageIndex":17,"items":[{"name":"주식회사 시엠이엔지 시흥점","tel":"070-7510-4585","addr":"경기도 시흥시 거모동 313-1번지 1층, 4층","indutype":"제조업 - 반도체디스플레이장치","category":"other"}]},{"lat":"37.339420186","long":"126.78402701","imageIndex":17,"items":[{"name":"지엔에스트레이딩","tel":"031-414-0676","addr":"경기도 시흥시 거모동 1669-22번지","indutype":"소매업 - 생활용품,무역","category":"other"}]},{"lat":"37.339672824","long":"126.78421812","imageIndex":17,"items":[{"name":"창대유리","tel":"","addr":"경기도 시흥시 거모동 1659-5번지","indutype":"소매업 - 유리","category":"other"}]},{"lat":"37.345753142","long":"126.78338792","imageIndex":17,"items":[{"name":"태승모바일 거모점","tel":"031-492-1220","addr":"경기도 시흥시 거모동 1734-1번지 1층 3호","indutype":"소매업 - 휴대폰","category":"other"}]},{"lat":"37.357808494","long":"126.77376981","imageIndex":17,"items":[{"name":"태양공인중개사사무소","tel":"031-433-5433","addr":"경기도 시흥시 거모동 612-1번지 동보아파트 상가동 101호","indutype":"개인서비스업 - 공인중개사","category":"other"}]},{"lat":"37.345304579","long":"126.78443878","imageIndex":17,"items":[{"name":"트라이 거모점","tel":"031-492-3100","addr":"경기도 시흥시 거모동 1733-7번지","indutype":"소매업 - 속옷,의류","category":"other"}]},{"lat":"37.344754358","long":"126.7841131","imageIndex":17,"items":[{"name":"한빛공인중개사","tel":"031-494-9006","addr":"경기도 시흥시 거모동 1741-2번지 삼익청자맨션 101호","indutype":"개인서비스업 - 부동산중개업","category":"other"}]},{"lat":"37.339699249","long":"126.78389078","imageIndex":17,"items":[{"name":"황해공인중개사사무소","tel":"031-493-5575","addr":"경기도 시흥시 거모동 1659-9번지","indutype":"개인서비스업 - 부동산중개","category":"other"}]}]