[{"lat":"37.735123499","long":"126.78859644","imageIndex":17,"items":[{"name":"(주)드림스테이션","tel":"070-4466-7700","addr":"경기도 파주시 조리읍 능안리 201-1번지","indutype":"유통업 영리 - 기타유통업","category":"other"}]},{"lat":"37.738700994","long":"126.78898321","imageIndex":17,"items":[{"name":"(주)우수메카트론","tel":"031-7533-0706","addr":"경기도 파주시 조리읍 능안리 227-3번지","indutype":"기타 - 기계공구","category":"other"},{"name":"우수넷","tel":"070-7533-0706","addr":"경기도 파주시 조리읍 능안리 227-3번지","indutype":"전기제품 - 기타전기제품","category":"other"}]},{"lat":"37.739118343","long":"126.790593","imageIndex":17,"items":[{"name":"노송가구/경희공예","tel":"031-945-8854","addr":"경기도 파주시 조리읍 능안리 224-3번지","indutype":"가구 - 일반가구","category":"other"}]},{"lat":"37.735173452","long":"126.7863501","imageIndex":17,"items":[{"name":"대아몰딩","tel":"031-942-7955","addr":"경기도 파주시 조리읍 능안리 202-18번지","indutype":"기타 - 기타 전문점","category":"other"}]},{"lat":"37.736482771","long":"126.78306768","imageIndex":17,"items":[{"name":"대용산업","tel":"031-945-8972","addr":"경기도 파주시 조리읍 능안리 400-13번지","indutype":"신변잡화 - 기타잡화","category":"other"}]},{"lat":"37.738512398","long":"126.78440039","imageIndex":17,"items":[{"name":"두원테크","tel":"070-8848-4425","addr":"경기도 파주시 조리읍 능안리 388-30번지","indutype":"유통업 영리 - 기타유통업","category":"other"}]},{"lat":"37.738424421","long":"126.78554648","imageIndex":17,"items":[{"name":"디엔에스한우팩","tel":"070-1111-1111","addr":"경기도 파주시 조리읍 능안리 249-10번지","indutype":"유통업 영리 - 기타유통업","category":"other"}]},{"lat":"37.737846577","long":"126.78487883","imageIndex":17,"items":[{"name":"라브코지(Lavcozy)","tel":"031-943-4512","addr":"경기도 파주시 조리읍 능안리 388-20번지","indutype":"가구 - 일반가구","category":"other"}]},{"lat":"37.737260476","long":"126.78461961","imageIndex":17,"items":[{"name":"로이루미","tel":"03-111-1111","addr":"경기도 파주시 조리읍 능안리 403번지","indutype":"문화.취미 - 애완동물","category":"other"},{"name":"예담건축","tel":"070-8031-4038","addr":"경기도 파주시 조리읍 능안리 403번지","indutype":"가구 - 일반가구","category":"other"}]},{"lat":"37.735983068","long":"126.79568433","imageIndex":17,"items":[{"name":"사이언스앤알파","tel":"","addr":"경기도 파주시 조리읍 능안리 83-1번지","indutype":"서적문구 - 과학기자재","category":"other"}]},{"lat":"37.736371627","long":"126.79125884","imageIndex":17,"items":[{"name":"산유특수제지","tel":"031-942-7643","addr":"경기도 파주시 조리읍 능안리 1042-11번지","indutype":"신변잡화 - 기타잡화","category":"other"},{"name":"에이넥스특수제지","tel":"031-942-7643","addr":"경기도 파주시 조리읍 능안리 1042-11번지","indutype":"신변잡화 - 기타잡화","category":"other"}]},{"lat":"37.734817877","long":"126.78898303","imageIndex":17,"items":[{"name":"샘터산업","tel":"031-946-4394","addr":"경기도 파주시 조리읍 능안리 207-3 외3필지","indutype":"용역 서비스 - 기타용역서비스","category":"other"}]},{"lat":"37.736541666","long":"126.79062305","imageIndex":17,"items":[{"name":"세광유리","tel":"031-957-7061","addr":"경기도 파주시 조리읍 능안리 1038-9","indutype":"건축자재 - 유리","category":"other"}]},{"lat":"37.741707568","long":"126.79253703","imageIndex":17,"items":[{"name":"승진건설기계자동차공업","tel":"031-948-6105","addr":"경기도 파주시 조리읍 능안리 40-8","indutype":"기타 - 기계공구","category":"other"}]},{"lat":"37.737616273","long":"126.78215674","imageIndex":17,"items":[{"name":"썬프린팅","tel":"031-943-3881","addr":"경기도 파주시 조리읍 능안리 392번지","indutype":"서적문구 - 출판 및 인쇄물","category":"other"}]},{"lat":"37.736146654","long":"126.79140696","imageIndex":17,"items":[{"name":"에코스크린","tel":"031-945-3772","addr":"경기도 파주시 조리읍 능안리 77번지","indutype":"레져용품 - 스포츠·레져용품","category":"other"}]},{"lat":"37.738118737","long":"126.79084545","imageIndex":17,"items":[{"name":"이마트24 파주능안점","tel":"","addr":"경기도 파주시 조리읍 능안리 76-13번지","indutype":"유통업 영리 - 편 의 점","category":"other"}]},{"lat":"37.735593414","long":"126.78937786","imageIndex":17,"items":[{"name":"이지팩","tel":"031-8071-4800","addr":"경기도 파주시 조리읍 능안리 205-1번지","indutype":"기타 - 기계공구","category":"other"}]},{"lat":"37.736177962","long":"126.78878626","imageIndex":17,"items":[{"name":"자연담은","tel":"070-8822-0106","addr":"경기도 파주시 조리읍 능안리 212-24번지","indutype":"문화.취미 - 애완동물","category":"other"}]},{"lat":"37.738811767","long":"126.78551132","imageIndex":17,"items":[{"name":"주식회사 현대더블유앤피(W&P)","tel":"070-4234-3854","addr":"경기도 파주시 조리읍 능안리 249-13번지","indutype":"수리서비스 - 세탁소","category":"other"}]},{"lat":"37.735345743","long":"126.79193108","imageIndex":17,"items":[{"name":"케이시스템(주)","tel":"031-944-8953","addr":"경기도 파주시 조리읍 능안리 77-13번지","indutype":"기타 - 기계공구","category":"other"},{"name":"탑앨범","tel":"031-923-7169","addr":"경기도 파주시 조리읍 능안리 77-13번지","indutype":"유통업 영리 - 기타유통업","category":"other"}]},{"lat":"37.74050762","long":"126.79159877","imageIndex":17,"items":[{"name":"파주이벤트","tel":"031-946-7222","addr":"경기도 파주시 조리읍 능안리 44-8번지","indutype":"용역 서비스 - 사무서비스","category":"other"}]},{"lat":"37.739590031","long":"126.79237284","imageIndex":17,"items":[{"name":"파주특판생수","tel":"031-953-0799","addr":"경기도 파주시 조리읍 능안리 57번지","indutype":"유통업 영리 - 기타유통업","category":"other"}]},{"lat":"37.740985875","long":"126.79201718","imageIndex":17,"items":[{"name":"한성건조기파주대리점","tel":"031-944-7438","addr":"경기도 파주시 조리읍 능안리 42-6번지","indutype":"농업 - 농기계","category":"other"}]},{"lat":"37.737649185","long":"126.78532185","imageIndex":7,"items":[{"name":"개미슈퍼","tel":"031-943-5933","addr":"경기도 파주시 조리읍 능안리 248 방주주택 102 2/3","indutype":"유통업 영리 - 슈퍼마켓","category":"mart"}]},{"lat":"37.739426866","long":"126.79181739","imageIndex":9,"items":[{"name":"국민에너지","tel":"031-942-1001","addr":"경기도 파주시 조리읍 능안리 51-2번지","indutype":"연료판매점 - LPG 취급점","category":"oil"}]},{"lat":"37.740374096","long":"126.78751486","imageIndex":4,"items":[{"name":"능안골한식뷔페","tel":"","addr":"경기도 파주시 조리읍 능안리 252-20번지","indutype":"일반휴게음식 - 일반한식","category":"restaurant"}]},{"lat":"37.736644689","long":"126.78293107","imageIndex":4,"items":[{"name":"시골식당","tel":"031-946-5785","addr":"경기도 파주시 조리읍 능안리 400번지","indutype":"일반휴게음식 - 일반한식","category":"restaurant"}]},{"lat":"37.74050762","long":"126.79159877","imageIndex":4,"items":[{"name":"신토리국밥한그릇","tel":"031-944-4480","addr":"경기도 파주시 조리읍 능안리 44-8번지","indutype":"일반휴게음식 - 일반한식","category":"restaurant"}]},{"lat":"37.740985875","long":"126.79201718","imageIndex":4,"items":[{"name":"우리집","tel":"031-945-7776","addr":"경기도 파주시 조리읍 능안리 42-6번지","indutype":"일반휴게음식 - 일반한식","category":"restaurant"}]},{"lat":"37.737846577","long":"126.78487883","imageIndex":4,"items":[{"name":"제일식당","tel":"031-949-5146","addr":"경기도 파주시 조리읍 능안리 388-20번지","indutype":"일반휴게음식 - 일반한식","category":"restaurant"}]},{"lat":"37.737649185","long":"126.78532185","imageIndex":4,"items":[{"name":"청솔","tel":"031-945-8037","addr":"경기도 파주시 조리읍 능안리 248번지 방주주택","indutype":"일반휴게음식 - 일반한식","category":"restaurant"}]},{"lat":"37.73643099","long":"126.78920529","imageIndex":7,"items":[{"name":"능안상회","tel":"031-945-7382","addr":"경기도 파주시 조리읍 능안리 211-1번지","indutype":"음료식품 - 기타음료식품","category":"food"}]},{"lat":"37.738675661","long":"126.78498984","imageIndex":7,"items":[{"name":"마늘빵집","tel":"031-949-0182","addr":"경기도 파주시 조리읍 능안리 385-6번지","indutype":"음료식품 - 기타음료식품","category":"food"}]},{"lat":"37.737841638","long":"126.78709109","imageIndex":7,"items":[{"name":"미래정육","tel":"031-949-1121","addr":"경기도 파주시 조리읍 능안리 235번지","indutype":"음료식품 - 정육점","category":"food"}]},{"lat":"37.745732366","long":"126.7962358","imageIndex":7,"items":[{"name":"파주금촌급식대리점","tel":"031-969-1661","addr":"경기도 파주시 조리읍 능안리 14-24","indutype":"음료식품 - 기타음료식품","category":"food"}]},{"lat":"37.740149127","long":"126.79265489","imageIndex":16,"items":[{"name":"능안초등학교병설유치원[아이행복]","tel":"02-948-0891","addr":"경기도 파주시 조리읍 능안리 53-6번지","indutype":"학원 - 유치원","category":"study"}]},{"lat":"37.740396403","long":"126.7898746","imageIndex":16,"items":[{"name":"주바라기몬테소리어린이집[아이행복]","tel":"031-942-6428","addr":"경기도 파주시 조리읍 능안리 46-6번지","indutype":"학원 - 유아원","category":"study"}]},{"lat":"37.736650847","long":"126.79629508","imageIndex":0,"items":[{"name":"정산전동지게차","tel":"031-945-0830","addr":"경기도 파주시 조리읍 능안리 96-2번지","indutype":"자동차판매 - 기타운송","category":"car"}]}]