[{"lat":"37.288580521","long":"127.62238536","imageIndex":17,"items":[{"name":"GS25여주장미점","tel":"","addr":"경기도 여주시 월송동 63-4번지","indutype":"유통업 영리 - 편 의 점","category":"other"}]},{"lat":"37.289055695","long":"127.62455443","imageIndex":17,"items":[{"name":"GS25여주행복점","tel":"","addr":"경기도 여주시 월송동 81-1번지 1층","indutype":"유통업 영리 - 편 의 점","category":"other"}]},{"lat":"37.281970755","long":"127.61300599","imageIndex":17,"items":[{"name":"GS25여주희망점","tel":"02-2006-2485","addr":"경기도 여주시 월송동 370-5번지","indutype":"유통업 영리 - 편 의 점","category":"other"}]},{"lat":"37.28452577","long":"127.61025264","imageIndex":17,"items":[{"name":"성수설비","tel":"031-883-7862","addr":"경기도 여주시 월송동 254번지","indutype":"용역 서비스 - 기타용역서비스","category":"other"}]},{"lat":"37.285276408","long":"127.61669751","imageIndex":17,"items":[{"name":"수아다육화원","tel":"031-111-1111","addr":"경기도 여주시 월송동 158번지","indutype":"문화.취미 - 화원","category":"other"}]},{"lat":"37.287609181","long":"127.62205037","imageIndex":17,"items":[{"name":"어썸마켓 여수점","tel":"031-886-8888","addr":"경기도 여주시 월송동 99-5번지","indutype":"신변잡화 - 기타잡화","category":"other"}]},{"lat":"37.293355582","long":"127.62416126","imageIndex":17,"items":[{"name":"여주군시설관리공단/종량제봉투","tel":"031-880-4009","addr":"경기도 여주시 월송동 1번지 교통환경팀","indutype":"신변잡화 - 기타잡화","category":"other"}]},{"lat":"37.285549598","long":"127.61960906","imageIndex":17,"items":[{"name":"월송농기계","tel":"031-886-3335","addr":"경기도 여주시 월송동 134-1번지","indutype":"농업 - 농기계","category":"other"}]},{"lat":"37.276722276","long":"127.6103929","imageIndex":17,"items":[{"name":"이마트24 여주월송점","tel":"","addr":"경기도 여주시 월송동 313-48번지 1층","indutype":"유통업 영리 - 편 의 점","category":"other"}]},{"lat":"37.285298167","long":"127.615976","imageIndex":17,"items":[{"name":"정원종합철강(주)","tel":"031-885-1725","addr":"경기도 여주시 월송동 160번지","indutype":"건축자재 - 기타건축자재","category":"other"}]},{"lat":"37.291825469","long":"127.62385547","imageIndex":17,"items":[{"name":"테크원","tel":"070-8762-8294","addr":"경기도 여주시 월송동 34-4번지","indutype":"기타 - 기계공구","category":"other"}]},{"lat":"37.286298462","long":"127.62286282","imageIndex":17,"items":[{"name":"포르테 벨로(FORTE BELLO)","tel":"","addr":"경기도 여주시 월송동 106-3번지 5호","indutype":"신변잡화 - 가방","category":"other"}]},{"lat":"37.289776651","long":"127.62452653","imageIndex":17,"items":[{"name":"하나냉동","tel":"031-886-8389","addr":"경기도 여주시 월송동 75-2번지","indutype":"전기제품 - 냉열기기","category":"other"}]},{"lat":"37.289937938","long":"127.62469702","imageIndex":17,"items":[{"name":"현대전자,전기","tel":"031-885-3668","addr":"경기도 여주시 월송동 75번지","indutype":"전기제품 - 가전제품","category":"other"}]},{"lat":"37.286999821","long":"127.62141388","imageIndex":17,"items":[{"name":"휘경공방","tel":"","addr":"경기도 여주시 월송동 98-2번지","indutype":"문화.취미 - 민예·공예품","category":"other"}]},{"lat":"37.286053641","long":"127.61797807","imageIndex":4,"items":[{"name":"가배공방","tel":"031-000-0000","addr":"경기도 여주시 월송동 149-1번지 2층","indutype":"일반휴게음식 - 서양음식","category":"restaurant"},{"name":"월송보리밥","tel":"031-885-8400","addr":"경기도 여주시 월송동 149-1번지","indutype":"일반휴게음식 - 일반한식","category":"restaurant"}]},{"lat":"37.289464507","long":"127.623915","imageIndex":4,"items":[{"name":"두메꽃","tel":"031-884-8868","addr":"경기도 여주시 월송동 74-1번지","indutype":"일반휴게음식 - 일반한식","category":"restaurant"}]},{"lat":"37.293355582","long":"127.62416126","imageIndex":4,"items":[{"name":"디에이치 푸드트럭","tel":"","addr":"경기도 여주시 월송동 1번지","indutype":"일반휴게음식 - 일반한식","category":"restaurant"}]},{"lat":"37.287743565","long":"127.62047272","imageIndex":4,"items":[{"name":"로이가든","tel":"031-885-8641","addr":"경기도 여주시 월송동 179-12번지","indutype":"일반휴게음식 - 일반한식","category":"restaurant"}]},{"lat":"37.288661872","long":"127.62405501","imageIndex":4,"items":[{"name":"메콩윤","tel":"031-884-0235","addr":"경기도 여주시 월송동 83-1번지","indutype":"일반휴게음식 - 일반한식","category":"restaurant"}]},{"lat":"37.276689244","long":"127.60980632","imageIndex":4,"items":[{"name":"석란","tel":"031-881-1880","addr":"경기도 여주시 월송동 322-2번지","indutype":"일반휴게음식 - 일반한식","category":"restaurant"}]},{"lat":"37.281305311","long":"127.61275255","imageIndex":4,"items":[{"name":"섬진강 추어탕","tel":"031-885-1545","addr":"경기도 여주시 월송동 345-19번지","indutype":"일반휴게음식 - 일반한식","category":"restaurant"},{"name":"카페달셋","tel":"031-885-1545","addr":"경기도 여주시 월송동 345-19번지 102호","indutype":"일반휴게음식 - 일반한식","category":"restaurant"}]},{"lat":"37.282330739","long":"127.61308783","imageIndex":4,"items":[{"name":"여내울전통순두부","tel":"031-886-1282","addr":"경기도 여주시 월송동 379-3번지","indutype":"일반휴게음식 - 일반한식","category":"restaurant"}]},{"lat":"37.281970755","long":"127.61300599","imageIndex":4,"items":[{"name":"월송토종왕순대","tel":"031-886-3999","addr":"경기도 여주시 월송동 370-5번지","indutype":"일반휴게음식 - 일반한식","category":"restaurant"},{"name":"짬뽕나라","tel":"031-886-9288","addr":"경기도 여주시 월송동 370-5번지","indutype":"일반휴게음식 - 중국식","category":"restaurant"}]},{"lat":"37.275916817","long":"127.61108548","imageIndex":4,"items":[{"name":"웰빙막국수","tel":"031-884-7741","addr":"경기도 여주시 월송동 326-1번지","indutype":"일반휴게음식 - 일반한식","category":"restaurant"}]},{"lat":"37.289355384","long":"127.62410582","imageIndex":4,"items":[{"name":"치킨더홈(중앙점)","tel":"031-882-9968","addr":"경기도 여주시 월송동 80-6번지","indutype":"일반휴게음식 - 스넥","category":"restaurant"}]},{"lat":"37.277021077","long":"127.61186107","imageIndex":4,"items":[{"name":"카페스톤(cAFE STONE)","tel":"","addr":"경기도 여주시 월송동 333번지 2동 1층","indutype":"일반휴게음식 - 서양음식","category":"restaurant"}]},{"lat":"37.282582895","long":"127.61311242","imageIndex":4,"items":[{"name":"티타임(Tea Time)","tel":"031-882-1199","addr":"경기도 여주시 월송동 380-6번지 B동 1층","indutype":"일반휴게음식 - 서양음식","category":"restaurant"}]},{"lat":"37.275494053","long":"127.61094677","imageIndex":4,"items":[{"name":"한국인 밥상","tel":"031-886-9295","addr":"경기도 여주시 월송동 322-8번지","indutype":"일반휴게음식 - 일반한식","category":"restaurant"}]},{"lat":"37.286525131","long":"127.60866743","imageIndex":4,"items":[{"name":"한성정육점식당","tel":"031-886-9277","addr":"경기도 여주시 월송동 265번지","indutype":"일반휴게음식 - 일반한식","category":"restaurant"}]},{"lat":"37.276913819","long":"127.6046441","imageIndex":4,"items":[{"name":"행복가든","tel":"031-885-8555","addr":"경기도 여주시 월송동 315-7번지","indutype":"일반휴게음식 - 일반한식","category":"restaurant"}]},{"lat":"37.281556771","long":"127.61291244","imageIndex":4,"items":[{"name":"현대옥 여주월송점","tel":"031-882-8929","addr":"경기도 여주시 월송동 369-3번지","indutype":"일반휴게음식 - 일반한식","category":"restaurant"}]},{"lat":"37.285687129","long":"127.61219026","imageIndex":16,"items":[{"name":"깊은샘유치원[아이행복]","tel":"031-884-5030","addr":"경기도 여주시 월송동 248-6번지","indutype":"학원 - 유치원","category":"study"},{"name":"솔샘어린이집[아이행복]","tel":"031-884-5030","addr":"경기도 여주시 월송동 248-6번지","indutype":"학원 - 유아원","category":"study"}]},{"lat":"37.277608451","long":"127.61152755","imageIndex":16,"items":[{"name":"연라초등학교","tel":"","addr":"경기도 여주시 월송동 313-42번지 연라초등학교","indutype":"학원 - 초중고교육기관","category":"study"},{"name":"연라초등학교병설유치원[아이행복]","tel":"031-884-3067","addr":"경기도 여주시 월송동 313-42번지","indutype":"학원 - 유치원","category":"study"}]},{"lat":"37.287942051","long":"127.61869261","imageIndex":16,"items":[{"name":"하나태권도장","tel":"031-883-3913","addr":"경기도 여주시 월송동 127-9번지 월송마을한성상가 2층","indutype":"학원 - 예·체능계학원","category":"study"}]},{"lat":"37.2764122385","long":"127.6111120112","imageIndex":16,"items":[{"name":"해님어린이집[아이행복]","tel":"031-886-5484","addr":"경기도 여주시 월송동 326번지","indutype":"학원 - 유아원","category":"study"}]},{"lat":"37.276412239","long":"127.61111201","imageIndex":16,"items":[{"name":"해님유치원[아이행복]","tel":"031-885-5484","addr":"경기도 여주시 월송동 326번지","indutype":"학원 - 유치원","category":"study"}]},{"lat":"37.286053641","long":"127.61797807","imageIndex":7,"items":[{"name":"달쿠니","tel":"031-882-7250","addr":"경기도 여주시 월송동 149-1번지 101호","indutype":"음료식품 - 농·축·수산품","category":"food"}]},{"lat":"37.287776941","long":"127.6192551","imageIndex":7,"items":[{"name":"한성정육점","tel":"031-882-9077","addr":"경기도 여주시 월송동 127-9번지 한성상가 101동 102호","indutype":"음료식품 - 정육점","category":"food"}]},{"lat":"37.2873890066","long":"127.6210787655","imageIndex":7,"items":[{"name":"한우돈직판장","tel":"031-886-9295","addr":"경기도 여주시 월송동 94-2번지","indutype":"음료식품 - 정육점","category":"food"}]},{"lat":"37.282412813","long":"127.60938996","imageIndex":13,"items":[{"name":"머리하는날","tel":"031-884-8958","addr":"경기도 여주시 월송동 388-29번지 보광그랑베르아파트","indutype":"보건위생 - 미용원","category":"beauty"}]},{"lat":"37.284859709","long":"127.61014256","imageIndex":13,"items":[{"name":"전국광역대리","tel":"031-886-1254","addr":"경기도 여주시 월송동 251번지 101동 402호","indutype":"보건위생 - 기타대인서비스","category":"beauty"}]},{"lat":"37.287942249","long":"127.62038413","imageIndex":13,"items":[{"name":"한성헤어","tel":"031-884-8602","addr":"경기도 여주시 월송동 179-8번지","indutype":"보건위생 - 미용원","category":"beauty"}]},{"lat":"37.282582895","long":"127.61311242","imageIndex":8,"items":[{"name":"모범약국","tel":"031-886-3308","addr":"경기도 여주시 월송동 380-6번지","indutype":"약국 - 약국","category":"medical"}]},{"lat":"37.287885556","long":"127.62433055","imageIndex":0,"items":[{"name":"민기상사","tel":"070-4108-2532","addr":"경기도 여주시 월송동 87-6번지","indutype":"자동차정비 유지 - 자동차부품","category":"car"},{"name":"축복상사","tel":"070-4108-2532","addr":"경기도 여주시 월송동 87-6번지","indutype":"자동차정비 유지 - 자동차부품","category":"car"}]},{"lat":"37.293355582","long":"127.62416126","imageIndex":0,"items":[{"name":"여주군시설관리공단/공영주차장","tel":"031-880-4009","addr":"경기도 여주시 월송동 1번지 교통환경팀","indutype":"자동차정비 유지 - 주차장","category":"car"}]},{"lat":"37.289248984","long":"127.62377791","imageIndex":0,"items":[{"name":"월송카센타","tel":"031-881-0763","addr":"경기도 여주시 월송동 80-1번지","indutype":"자동차정비 유지 - 자동차정비","category":"car"}]},{"lat":"37.289055695","long":"127.62455443","imageIndex":7,"items":[{"name":"우암마트","tel":"031-883-3445","addr":"경기도 여주시 월송동 81-1번지","indutype":"유통업 영리 - 슈퍼마켓","category":"mart"}]},{"lat":"37.288580521","long":"127.62238536","imageIndex":7,"items":[{"name":"장미할인마트","tel":"031-883-6351","addr":"경기도 여주시 월송동 63-4번지","indutype":"유통업 영리 - 슈퍼마켓","category":"mart"}]},{"lat":"37.285858815","long":"127.61558587","imageIndex":9,"items":[{"name":"제일상사","tel":"031-886-4114","addr":"경기도 여주시 월송동 164번지","indutype":"연료판매점 - 기타연료","category":"oil"}]},{"lat":"37.287356105","long":"127.6100273","imageIndex":13,"items":[{"name":"펠릭스&가브리엘 골프아카데미","tel":"031-881-6018","addr":"경기도 여주시 월송동 241번지","indutype":"레저업소 - 골프연습장","category":"leisure"}]}]