[{"lat":"36.996741596","long":"127.11374882","imageIndex":7,"items":[{"name":"\"자연드림평택 비전점  (변경전: ㈜쿱스토어경기동남부 비전점)\"","tel":"031-651-3700","addr":"경기도 평택시 비전동 872-3번지","indutype":"소매업 - 친환경식품, 생활용품","category":"food"}]},{"lat":"37.001823735","long":"127.09225319","imageIndex":7,"items":[{"name":"가족건강원","tel":"031-611-7191","addr":"경기도 평택시 비전동 782-1번지","indutype":"건강식품 - 기타건강식품","category":"food"}]},{"lat":"36.991636786","long":"127.10909091","imageIndex":7,"items":[{"name":"감초당 건강마을","tel":"031-653-7328","addr":"경기도 평택시 비전동 854-12번지","indutype":"소매업 - 건강기능식품","category":"food"}]},{"lat":"37.002990744","long":"127.09789441","imageIndex":7,"items":[{"name":"고기에반하다","tel":"031-647-6898","addr":"경기도 평택시 비전동 1008번지 엘에이치이곡마을3단지 상가동 104호","indutype":"음료식품 - 정육점","category":"food"}]},{"lat":"37.008767817","long":"127.10717097","imageIndex":7,"items":[{"name":"고기장인백정(소사벌본점)","tel":"031-651-5636","addr":"경기도 평택시 비전동 59-8번지 센띠에로 1층 113,114,115,116호","indutype":"음료식품 - 정육점","category":"food"}]},{"lat":"36.991663627","long":"127.10930437","imageIndex":7,"items":[{"name":"고등해물","tel":"031-653-0947","addr":"경기도 평택시 비전동 854-2번지","indutype":"음료식품 - 농·축·수산품","category":"food"}]},{"lat":"36.99335831","long":"127.1085541","imageIndex":7,"items":[{"name":"궁중떡방앗간","tel":"031-656-8678","addr":"경기도 평택시 비전동 207-6번지 1층","indutype":"음료식품 - 제과점","category":"food"}]},{"lat":"36.996579065","long":"127.09284244","imageIndex":7,"items":[{"name":"그린청과","tel":"031-654-1614","addr":"경기도 평택시 비전동 608-21번지","indutype":"음료식품 - 농·축·수산품","category":"food"}]},{"lat":"37.001552426","long":"127.09355608","imageIndex":7,"items":[{"name":"금천축산","tel":"031-651-0289","addr":"경기도 평택시 비전동 787-4번지 1층","indutype":"음료식품 - 농·축·수산품","category":"food"}]},{"lat":"36.999831481","long":"127.11458464","imageIndex":7,"items":[{"name":"꽃길만 걷자","tel":"031-657-3315","addr":"경기도 평택시 비전동 1107-1번지 H탑3 빌딩 103호","indutype":"음식점 - 식품","category":"food"}]},{"lat":"36.993355806","long":"127.10097159","imageIndex":7,"items":[{"name":"꽃멸치음식백화점","tel":"031-654-3773","addr":"경기도 평택시 비전동 756-13번지 1층","indutype":"음료식품 - 기타음료식품","category":"food"}]},{"lat":"36.999137028","long":"127.09424973","imageIndex":7,"items":[{"name":"나은떡집","tel":"031-8029-9784","addr":"경기도 평택시 비전동 487-58번지 1층","indutype":"음료식품 - 제과점","category":"food"},{"name":"노마진아이스크림할인점(평택비전점)","tel":"02-1111-1111","addr":"경기도 평택시 비전동 487-58번지","indutype":"음료식품 - 제과점","category":"food"}]},{"lat":"37.002381673","long":"127.10436482","imageIndex":7,"items":[{"name":"녹돈영농조합법인","tel":"031-658-5636","addr":"경기도 평택시 비전동 1027-4번지","indutype":"음료식품 - 정육점","category":"food"}]},{"lat":"37.003437618","long":"127.11259011","imageIndex":7,"items":[{"name":"늘해랑","tel":"031-8094-1998","addr":"경기도 평택시 비전동 1053-8번지","indutype":"음료식품 - 기타음료식품","category":"food"}]},{"lat":"36.993131266","long":"127.11053085","imageIndex":7,"items":[{"name":"늘해랑","tel":"","addr":"경기도 평택시 비전동 836번지","indutype":"소매업 - 식품","category":"food"}]},{"lat":"36.99727396","long":"127.09141656","imageIndex":7,"items":[{"name":"다복플라워케이크","tel":"070-7687-5047","addr":"경기도 평택시 비전동 587-5번지 1층","indutype":"음료식품 - 제과점","category":"food"},{"name":"은성정육점","tel":"031-652-8006","addr":"경기도 평택시 비전동 587-5번지","indutype":"음료식품 - 정육점","category":"food"}]},{"lat":"37.002493562","long":"127.11033059","imageIndex":7,"items":[{"name":"달달하우스","tel":"070-7423-6603","addr":"경기도 평택시 비전동 1042-1번지 1층","indutype":"음료식품 - 기타음료식품","category":"food"}]},{"lat":"37.004469363","long":"127.09680645","imageIndex":7,"items":[{"name":"달콤정류장","tel":"","addr":"경기도 평택시 비전동 1004번지 휴먼시아2단지 가 상가동 1층 103호","indutype":"음료식품 - 기타음료식품","category":"food"}]},{"lat":"36.997634656","long":"127.11267165","imageIndex":7,"items":[{"name":"당근향기","tel":"031-665-3600","addr":"경기도 평택시 비전동 865-4번지 1층","indutype":"음료식품 - 기타음료식품","category":"food"},{"name":"빵스토리","tel":"070-4388-9989","addr":"경기도 평택시 비전동 865-4번지","indutype":"음료식품 - 기타음료식품","category":"food"}]},{"lat":"37.002192722","long":"127.11411624","imageIndex":7,"items":[{"name":"대게수산","tel":"031-658-2115","addr":"경기도 평택시 비전동 1095번지 102호 101호,102호","indutype":"음료식품 - 농·축·수산품","category":"food"}]},{"lat":"36.991852821","long":"127.10933834","imageIndex":7,"items":[{"name":"대풍떡방앗간","tel":"031-656-1683","addr":"경기도 평택시 비전동 854번지","indutype":"음료식품 - 제과점","category":"food"}]},{"lat":"37.000158166","long":"127.11211356","imageIndex":7,"items":[{"name":"더베스트점핑다이어트","tel":"031-000-0000","addr":"경기도 평택시 비전동 1091번지 골든프라자6차 501호","indutype":"건강식품 - 기타건강식품","category":"food"}]},{"lat":"36.996435328","long":"127.10352562","imageIndex":7,"items":[{"name":"덕동떡방앗간","tel":"031-655-1684","addr":"경기도 평택시 비전동 817-7번지","indutype":"음료식품 - 제과점","category":"food"}]},{"lat":"36.999829964","long":"127.09539646","imageIndex":7,"items":[{"name":"델리퀸평택비전점","tel":"031-618-9937","addr":"경기도 평택시 비전동 487번지","indutype":"음료식품 - 정육점","category":"food"}]},{"lat":"36.996803853","long":"127.09347181","imageIndex":7,"items":[{"name":"동아상사","tel":"031-652-4262","addr":"경기도 평택시 비전동 605-22번지","indutype":"음료식품 - 기타음료식품","category":"food"}]},{"lat":"36.992355405","long":"127.10122867","imageIndex":7,"items":[{"name":"동아청과","tel":"031-657-5167","addr":"경기도 평택시 비전동 761번지 1층 동아빌딩 별체","indutype":"음료식품 - 농·축·수산품","category":"food"},{"name":"베스트피트","tel":"031-653-7529","addr":"경기도 평택시 비전동 761번지","indutype":"건강식품 - 기타건강식품","category":"food"},{"name":"유니베라신평택대리점","tel":"","addr":"경기도 평택시 비전동 761번지 2층","indutype":"도소매업 - 화장품, 건강기능식품","category":"food"},{"name":"유니베라신평택대리점","tel":"031-652-8228","addr":"경기도 평택시 비전동 761번지 2층","indutype":"건강식품 - 기타건강식품","category":"food"},{"name":"참살이빵","tel":"031-652-9660","addr":"경기도 평택시 비전동 761번지","indutype":"음료식품 - 제과점","category":"food"}]},{"lat":"36.997301235","long":"127.0910908","imageIndex":7,"items":[{"name":"동우축산","tel":"031-618-6543","addr":"경기도 평택시 비전동 586번지","indutype":"음료식품 - 정육점","category":"food"},{"name":"혜림농장","tel":"031-654-0630","addr":"경기도 평택시 비전동 586번지","indutype":"음료식품 - 농·축·수산품","category":"food"}]},{"lat":"37.000545904","long":"127.11181079","imageIndex":7,"items":[{"name":"두보리팡","tel":"031-651-2686","addr":"경기도 평택시 비전동 1090-3번지 메가타워 102호","indutype":"음료식품 - 제과점","category":"food"}]},{"lat":"36.995330139","long":"127.11024187","imageIndex":7,"items":[{"name":"두코알로에","tel":"031-656-7900","addr":"경기도 평택시 비전동 931번지 비전경남아너스빌 108동 301호","indutype":"건강식품 - 기타건강식품","category":"food"}]},{"lat":"36.991546588","long":"127.10919188","imageIndex":7,"items":[{"name":"드림유통","tel":"031-656-7773","addr":"경기도 평택시 비전동 854-3번지","indutype":"음료식품 - 기타음료식품","category":"food"}]},{"lat":"36.997715614","long":"127.10261735","imageIndex":7,"items":[{"name":"떡엔꽃차","tel":"031-321-8211","addr":"경기도 평택시 비전동 807-3번지 2층","indutype":"음료식품 - 제과점","category":"food"}]},{"lat":"36.994025414","long":"127.09750132","imageIndex":7,"items":[{"name":"뚱스파이어","tel":"031-651-9285","addr":"경기도 평택시 비전동 741-21번지","indutype":"음료식품 - 기타음료식품","category":"food"}]},{"lat":"37.001768915","long":"127.11444142","imageIndex":7,"items":[{"name":"라니베이커리","tel":"031-653-0360","addr":"경기도 평택시 비전동 1097번지 스페이스스퀘어 1층 101호","indutype":"음료식품 - 제과점","category":"food"}]},{"lat":"36.999300473","long":"127.11392104","imageIndex":7,"items":[{"name":"라이크미","tel":"031-655-3742","addr":"경기도 평택시 비전동 1106번지 골든타워 110호","indutype":"음료식품 - 기타음료식품","category":"food"},{"name":"베롱베롱","tel":"031-691-8223","addr":"경기도 평택시 비전동 1106번지 골든타워 1층 109호","indutype":"음료식품 - 기타음료식품","category":"food"}]},{"lat":"36.99538214","long":"127.11249991","imageIndex":7,"items":[{"name":"로반스윗","tel":"031-650-6000","addr":"경기도 평택시 비전동 830-1번지 뉴코아아울렛백화점 지하1층","indutype":"음료식품 - 제과점","category":"food"},{"name":"이지니스","tel":"","addr":"경기도 평택시 비전동 830-1번지 뉴코아아울렛 10층","indutype":"음료식품 - 기타음료식품","category":"food"}]},{"lat":"36.996380325","long":"127.093505","imageIndex":7,"items":[{"name":"루트식품","tel":"031-654-9092","addr":"경기도 평택시 비전동 606-5번지","indutype":"음료식품 - 기타음료식품","category":"food"}]},{"lat":"37.001995544","long":"127.0914445","imageIndex":7,"items":[{"name":"미소","tel":"","addr":"경기도 평택시 비전동 780-1번지","indutype":"음료식품 - 농·축·수산품","category":"food"}]},{"lat":"36.997164414","long":"127.11447963","imageIndex":7,"items":[{"name":"미스터 떡","tel":"031-656-0553","addr":"경기도 평택시 비전동 870-4번지 1층","indutype":"음료식품 - 제과점","category":"food"},{"name":"민씨청과","tel":"031-653-6243","addr":"경기도 평택시 비전동 870-4번지 상가 1층 101호","indutype":"음료식품 - 농·축·수산품","category":"food"}]},{"lat":"36.996606383","long":"127.11380479","imageIndex":7,"items":[{"name":"미주팜","tel":"031-657-5573","addr":"경기도 평택시 비전동 872-4번지","indutype":"음료식품 - 정육점","category":"food"},{"name":"휴앤샵","tel":"031-655-6755","addr":"경기도 평택시 비전동 872-4번지","indutype":"회원제형태 - 건강식품","category":"food"}]},{"lat":"37.005330533","long":"127.10155996","imageIndex":7,"items":[{"name":"바른게장","tel":"031-618-6103","addr":"경기도 평택시 비전동 986-2번지","indutype":"음료식품 - 기타음료식품","category":"food"}]},{"lat":"37.000049602","long":"127.11258525","imageIndex":7,"items":[{"name":"바비궁 이너뷰티","tel":"031-658-1365","addr":"경기도 평택시 비전동 1091-4번지 타임빌딩 801호","indutype":"건강식품 - 기타건강식품","category":"food"}]},{"lat":"37.000323951","long":"127.10813683","imageIndex":7,"items":[{"name":"백년과일","tel":"","addr":"경기도 평택시 비전동 1089번지 평택비전동효성백년가약 1층 104호","indutype":"음료식품 - 농·축·수산품","category":"food"}]},{"lat":"37.004995458","long":"127.10355937","imageIndex":7,"items":[{"name":"밸런스브레인평택센터","tel":"031-618-2708","addr":"경기도 평택시 비전동 996번지 SK타워 4층 402호","indutype":"건강식품 - 기타건강식품","category":"food"}]},{"lat":"37.003994209","long":"127.10480512","imageIndex":7,"items":[{"name":"베스킨라빈스 소사벌점","tel":"","addr":"경기도 평택시 비전동 1013번지 태성빌딩 107호","indutype":"음료식품 - 제과점","category":"food"},{"name":"쉐키쉐키","tel":"031-657-8797","addr":"경기도 평택시 비전동 1013번지 태성빌딩 503호","indutype":"건강식품 - 기타건강식품","category":"food"},{"name":"참다한홍삼 평택소사벌점","tel":"031-8029-7445","addr":"경기도 평택시 비전동 1013번지 태성빌딩 1층 112호","indutype":"소매업 - 건강기능식품","category":"food"},{"name":"참다한흑홍삼 소사벌점","tel":"031-657-6434","addr":"경기도 평택시 비전동 1013번지 태성빌딩 112호","indutype":"건강식품 - 홍삼제품","category":"food"},{"name":"팔도한우직판장","tel":"031-0000-0000","addr":"경기도 평택시 비전동 1013번지 태성빌딩 113호","indutype":"음료식품 - 정육점","category":"food"}]},{"lat":"36.994633868","long":"127.11291448","imageIndex":7,"items":[{"name":"베스킨라빈스평택비전점","tel":"031-657-3132","addr":"경기도 평택시 비전동 830-3번지","indutype":"음료식품 - 제과점","category":"food"}]},{"lat":"36.999747516","long":"127.09711521","imageIndex":7,"items":[{"name":"베이커리윤","tel":"031-657-9912","addr":"경기도 평택시 비전동 799-4번지 1층 일부","indutype":"음료식품 - 제과점","category":"food"}]},{"lat":"36.99246674","long":"127.10800244","imageIndex":7,"items":[{"name":"벨킴축산","tel":"031-668-5221","addr":"경기도 평택시 비전동 217-9번지 1층","indutype":"음료식품 - 정육점","category":"food"}]},{"lat":"37.004743445","long":"127.10322199","imageIndex":7,"items":[{"name":"보네르바게트","tel":"031-684-0302","addr":"경기도 평택시 비전동 996-2번지","indutype":"음료식품 - 제과점","category":"food"}]},{"lat":"37.001823705","long":"127.11366632","imageIndex":7,"items":[{"name":"본 카페테리아","tel":"031-662-9679","addr":"경기도 평택시 비전동 1094-1번지 좋은메디타워 6층","indutype":"음료식품 - 기타음료식품","category":"food"}]},{"lat":"37.003660505","long":"127.10516419","imageIndex":7,"items":[{"name":"뺑드상떼","tel":"031-691-1316","addr":"경기도 평택시 비전동 1013-1번지 우리타워 112호","indutype":"음료식품 - 제과점","category":"food"},{"name":"아침에떡","tel":"031-618-3100","addr":"경기도 평택시 비전동 1013-1번지 우리타워 1층 108호","indutype":"음료식품 - 제과점","category":"food"},{"name":"자연을담은과일(평택점)","tel":"031-655-3004","addr":"경기도 평택시 비전동 1013-1번지 우리타워 113호","indutype":"음료식품 - 농·축·수산품","category":"food"},{"name":"장독","tel":"","addr":"경기도 평택시 비전동 1013-1번지 우리타워 106호","indutype":"음료식품 - 기타음료식품","category":"food"}]},{"lat":"37.00138738","long":"127.10794731","imageIndex":7,"items":[{"name":"뺑드오웰","tel":"031-652-5599","addr":"경기도 평택시 비전동 1083번지 강일타워 107,108호","indutype":"음료식품 - 제과점","category":"food"},{"name":"에스엠(SM)아이스크림할인점","tel":"070-4065-0901","addr":"경기도 평택시 비전동 1083번지 강일타워 109호","indutype":"음료식품 - 기타음료식품","category":"food"},{"name":"전통음식연구원다미방","tel":"031-652-7100","addr":"경기도 평택시 비전동 1083번지 강일타워 121호","indutype":"소매업 - 식품","category":"food"}]},{"lat":"37.00021786","long":"127.09483521","imageIndex":7,"items":[{"name":"새로운방아간","tel":"031-652-3489","addr":"경기도 평택시 비전동 793-4번지","indutype":"음료식품 - 제과점","category":"food"}]},{"lat":"36.991523089","long":"127.10517041","imageIndex":7,"items":[{"name":"새싹푸드 평택점","tel":"","addr":"경기도 평택시 비전동 764번지","indutype":"음료식품 - 농·축·수산품","category":"food"}]},{"lat":"36.991080631","long":"127.10624818","imageIndex":7,"items":[{"name":"석일","tel":"031-653-9102","addr":"경기도 평택시 비전동 764-10번지 1층","indutype":"음료식품 - 기타음료식품","category":"food"}]},{"lat":"36.996687164","long":"127.11414192","imageIndex":7,"items":[{"name":"성신건강원","tel":"031-653-4480","addr":"경기도 평택시 비전동 873-7번지","indutype":"건강식품 - 기타건강식품","category":"food"}]},{"lat":"36.99666357","long":"127.08822544","imageIndex":7,"items":[{"name":"성주꿀참외","tel":"","addr":"경기도 평택시 비전동 629-5번지","indutype":"음료식품 - 농·축·수산품","category":"food"}]},{"lat":"37.001329915","long":"127.11172203","imageIndex":7,"items":[{"name":"속초수산","tel":"031-657-7778","addr":"경기도 평택시 비전동 1066번지 티에스원주차빌딩 118호","indutype":"음료식품 - 농·축·수산품","category":"food"},{"name":"크리스피크림도넛평택비전점","tel":"031-657-7148","addr":"경기도 평택시 비전동 1066번지 티에스원주차빌딩 102호","indutype":"음료식품 - 제과점","category":"food"}]},{"lat":"37.002271867","long":"127.10630827","imageIndex":7,"items":[{"name":"손가락유통","tel":"070-4007-5739","addr":"경기도 평택시 비전동 1074-6번지 서이재 103호","indutype":"음료식품 - 농·축·수산품","category":"food"}]},{"lat":"37.003215488","long":"127.10914071","imageIndex":7,"items":[{"name":"송화잔기지떡","tel":"031-655-1436","addr":"경기도 평택시 비전동 1037-1번지","indutype":"음료식품 - 제과점","category":"food"}]},{"lat":"36.997490433","long":"127.11272761","imageIndex":7,"items":[{"name":"수제팩토리","tel":"031-692-2951","addr":"경기도 평택시 비전동 865-5번지","indutype":"음료식품 - 기타음료식품","category":"food"}]},{"lat":"36.996525518","long":"127.11355753","imageIndex":7,"items":[{"name":"순쌀빵전문점우리밀빵케익","tel":"031-654-0495","addr":"경기도 평택시 비전동 872-5번지","indutype":"음료식품 - 제과점","category":"food"}]},{"lat":"36.992241373","long":"127.10811446","imageIndex":7,"items":[{"name":"쉐프삼촌비전점","tel":"070-4062-8559","addr":"경기도 평택시 비전동 192-7번지 1층","indutype":"음료식품 - 기타음료식품","category":"food"}]},{"lat":"37.002381535","long":"127.11455466","imageIndex":7,"items":[{"name":"스윗시그널","tel":"","addr":"경기도 평택시 비전동 1096번지 1층 119호","indutype":"음료식품 - 기타음료식품","category":"food"}]},{"lat":"36.994798453","long":"127.08808855","imageIndex":7,"items":[{"name":"신안푸드","tel":"031-566-9850","addr":"경기도 평택시 비전동 633-14번지","indutype":"음료식품 - 기타음료식품","category":"food"}]},{"lat":"36.99208259","long":"127.10419387","imageIndex":7,"items":[{"name":"신한매점","tel":"031-611-6061","addr":"경기도 평택시 비전동 224-8번지","indutype":"음료식품 - 기타음료식품","category":"food"}]},{"lat":"36.997912722","long":"127.11403137","imageIndex":7,"items":[{"name":"심마니마을","tel":"070-7612-3949","addr":"경기도 평택시 비전동 869-9번지 1층 101호","indutype":"건강식품 - 기타건강식품","category":"food"}]},{"lat":"37.008905431","long":"127.10433978","imageIndex":7,"items":[{"name":"아용 or 더치 커피","tel":"","addr":"경기도 평택시 비전동 967번지 뜨레휴이곡마을7단지 706동 1802호","indutype":"음료식품 - 기타음료식품","category":"food"}]},{"lat":"37.00310641","long":"127.11019663","imageIndex":7,"items":[{"name":"아이엠케이크","tel":"031-264-5874","addr":"경기도 평택시 비전동 1044-2번지","indutype":"음료식품 - 제과점","category":"food"}]},{"lat":"36.999103584","long":"127.11247155","imageIndex":7,"items":[{"name":"아침에떡3호점","tel":"031-000-0000","addr":"경기도 평택시 비전동 1104번지 1127호","indutype":"음료식품 - 제과점","category":"food"}]},{"lat":"36.998380536","long":"127.09372083","imageIndex":7,"items":[{"name":"안심축산","tel":"031-655-9245","addr":"경기도 평택시 비전동 598-4번지","indutype":"음료식품 - 정육점","category":"food"}]},{"lat":"37.004941936","long":"127.1029189","imageIndex":7,"items":[{"name":"야미맘마","tel":"031-657-6003","addr":"경기도 평택시 비전동 994번지 용진프라자 110호","indutype":"음료식품 - 기타음료식품","category":"food"}]},{"lat":"36.994387067","long":"127.09595154","imageIndex":7,"items":[{"name":"어떤커피","tel":"031-652-9463","addr":"경기도 평택시 비전동 738-45번지 1층","indutype":"음료식품 - 기타음료식품","category":"food"}]},{"lat":"37.004022591","long":"127.10322104","imageIndex":7,"items":[{"name":"엄마가","tel":"031-656-5858","addr":"경기도 평택시 비전동 1015번지 101,102호","indutype":"음료식품 - 기타음료식품","category":"food"}]},{"lat":"36.994995582","long":"127.08961654","imageIndex":7,"items":[{"name":"에나활성미네랄-진주바이오푸드","tel":"031-618-1972","addr":"경기도 평택시 비전동 632-16번지 1층","indutype":"음료식품 - 기타음료식품","category":"food"}]},{"lat":"36.99674152","long":"127.10372823","imageIndex":7,"items":[{"name":"에바니아힐링케어용이점","tel":"031-656-8480","addr":"경기도 평택시 비전동 816-4번지 1층","indutype":"건강식품 - 기타건강식품","category":"food"}]},{"lat":"36.997520948","long":"127.10889688","imageIndex":7,"items":[{"name":"에스핏","tel":"031-692-0376","addr":"경기도 평택시 비전동 828-1번지 태산신그린아파트 지층","indutype":"음료식품 - 기타음료식품","category":"food"}]},{"lat":"37.001632945","long":"127.09430889","imageIndex":7,"items":[{"name":"연세우유","tel":"031-656-6386","addr":"경기도 평택시 비전동 786-8번지 1층","indutype":"음료식품 - 기타음료식품","category":"food"}]},{"lat":"36.994419642","long":"127.11070117","imageIndex":7,"items":[{"name":"예쁜그녀벨라","tel":"031-654-1142","addr":"경기도 평택시 비전동 931번지 비전경남아너스빌 상가 205호","indutype":"회원제형태 - 건강식품","category":"food"}]},{"lat":"37.001715649","long":"127.09219689","imageIndex":7,"items":[{"name":"옛이야기","tel":"","addr":"경기도 평택시 비전동 782-2번지 101호","indutype":"음료식품 - 농·축·수산품","category":"food"}]},{"lat":"36.995743353","long":"127.11164667","imageIndex":7,"items":[{"name":"오레시피평택비전점","tel":"031-618-1135","addr":"경기도 평택시 비전동 829-3번지","indutype":"음료식품 - 기타음료식품","category":"food"},{"name":"풍성한떡집","tel":"031-618-8558","addr":"경기도 평택시 비전동 829-3번지 1층","indutype":"음료식품 - 제과점","category":"food"}]},{"lat":"37.001384046","long":"127.08978108","imageIndex":7,"items":[{"name":"오마이케이크","tel":"","addr":"경기도 평택시 비전동 433-21번지 1층","indutype":"음료식품 - 기타음료식품","category":"food"}]},{"lat":"36.99294364","long":"127.11841635","imageIndex":7,"items":[{"name":"오반찬","tel":"031-653-7572","addr":"경기도 평택시 비전동 882-4번지 1층","indutype":"음료식품 - 기타음료식품","category":"food"}]},{"lat":"36.991051341","long":"127.10880927","imageIndex":7,"items":[{"name":"오병이어","tel":"031-657-9598","addr":"경기도 평택시 비전동 854-8번지","indutype":"음료식품 - 기타음료식품","category":"food"}]},{"lat":"37.002800947","long":"127.10919631","imageIndex":7,"items":[{"name":"오후","tel":"","addr":"경기도 평택시 비전동 1038-3번지 1층","indutype":"음료식품 - 기타음료식품","category":"food"},{"name":"우리and아이반찬(소사벌점)","tel":"031-656-4467","addr":"경기도 평택시 비전동 1038-3번지 1층","indutype":"음료식품 - 기타음료식품","category":"food"}]},{"lat":"36.993832602","long":"127.11217192","imageIndex":7,"items":[{"name":"우리동네 담뱃잎가게","tel":"031-658-0009","addr":"경기도 평택시 비전동 842-1번지","indutype":"음료식품 - 기타음료식품","category":"food"}]},{"lat":"37.00182535","long":"127.10158914","imageIndex":7,"items":[{"name":"이가네 농수산물","tel":"","addr":"경기도 평택시 비전동 1028번지 LH배꽃마을4단지 409동 201호","indutype":"음료식품 - 농·축·수산품","category":"food"}]},{"lat":"37.002245722","long":"127.10528588","imageIndex":7,"items":[{"name":"이든네이처 평택소사드림지사","tel":"031-668-7474","addr":"경기도 평택시 비전동 1070-3번지 404호","indutype":"건강식품 - 기타건강식품","category":"food"}]},{"lat":"36.994354973","long":"127.11244227","imageIndex":7,"items":[{"name":"이든네이처평택비전지국","tel":"031-657-3838","addr":"경기도 평택시 비전동 833번지","indutype":"건강식품 - 기타건강식품","category":"food"},{"name":"정관장홍삼비전점","tel":"031-658-2304","addr":"경기도 평택시 비전동 833번지","indutype":"건강식품 - 홍삼제품","category":"food"},{"name":"정관장홍삼비전점","tel":"031-658-2304","addr":"경기도 평택시 비전동 833번지 1층","indutype":"건강식품 - 홍삼제품","category":"food"},{"name":"정관장홍삼비전점","tel":"031-652-3028","addr":"경기도 평택시 비전동 833번지","indutype":"소매업 - 건강기능식품","category":"food"},{"name":"파리바게트 평택비전점","tel":"031-656-8049","addr":"경기도 평택시 비전동 833번지","indutype":"음료식품 - 제과점","category":"food"}]},{"lat":"36.994102213","long":"127.09139041","imageIndex":7,"items":[{"name":"이든네이츠평택총국","tel":"031-651-2285","addr":"경기도 평택시 비전동 619-38번지 2층","indutype":"건강식품 - 기타건강식품","category":"food"}]},{"lat":"36.993215615","long":"127.09602875","imageIndex":7,"items":[{"name":"이롬비전지사","tel":"031-653-8917","addr":"경기도 평택시 비전동 739-20번지","indutype":"건강식품 - 기타건강식품","category":"food"}]},{"lat":"36.995382699","long":"127.11189329","imageIndex":7,"items":[{"name":"이롬생식평택지점","tel":"031-655-0675","addr":"경기도 평택시 비전동 831번지 5층","indutype":"회원제형태 - 건강식품","category":"food"}]},{"lat":"36.991881629","long":"127.10733888","imageIndex":7,"items":[{"name":"이수수산","tel":"031-618-6655","addr":"경기도 평택시 비전동 191-7번지 1층","indutype":"음료식품 - 농·축·수산품","category":"food"}]},{"lat":"36.995689525","long":"127.11138821","imageIndex":7,"items":[{"name":"이화떡방아간","tel":"031-657-8682","addr":"경기도 평택시 비전동 829-2번지","indutype":"음료식품 - 제과점","category":"food"}]},{"lat":"37.000463969","long":"127.11272066","imageIndex":7,"items":[{"name":"정관장소사벌본점","tel":"031-655-8182","addr":"경기도 평택시 비전동 1091-2번지 강일타운 109호","indutype":"소매업 - 건강기능식품","category":"food"},{"name":"풀무원로하스당진점","tel":"070-8869-2694","addr":"경기도 평택시 비전동 1091-2번지 강일타운 5층 506호","indutype":"건강식품 - 기타건강식품","category":"food"}]},{"lat":"36.997661945","long":"127.10214545","imageIndex":7,"items":[{"name":"정유축산(체리브로)","tel":"031-651-0912","addr":"경기도 평택시 비전동 807-7번지","indutype":"음료식품 - 정육점","category":"food"}]},{"lat":"36.99271894","long":"127.11783188","imageIndex":7,"items":[{"name":"제3건강원","tel":"031-655-3111","addr":"경기도 평택시 비전동 884-5번지","indutype":"건강식품 - 기타건강식품","category":"food"}]},{"lat":"36.99357569","long":"127.09647852","imageIndex":7,"items":[{"name":"조이베이킹(Joy Baking)","tel":"031-655-5753","addr":"경기도 평택시 비전동 738-13번지 1층","indutype":"음료식품 - 제과점","category":"food"}]},{"lat":"36.991963238","long":"127.10675487","imageIndex":7,"items":[{"name":"주공방아","tel":"031-652-3509","addr":"경기도 평택시 비전동 221-7번지","indutype":"음료식품 - 기타음료식품","category":"food"}]},{"lat":"36.992941735","long":"127.11086758","imageIndex":7,"items":[{"name":"주식회사 그린무역","tel":"032-327-1981","addr":"경기도 평택시 비전동 837-4번지","indutype":"음료식품 - 농·축·수산품","category":"food"}]},{"lat":"37.003053246","long":"127.10919666","imageIndex":7,"items":[{"name":"주식회사 로크(ROC)","tel":"031-657-5579","addr":"경기도 평택시 비전동 1037-7번지 1층","indutype":"음료식품 - 기타음료식품","category":"food"}]},{"lat":"36.993213397","long":"127.09881461","imageIndex":7,"items":[{"name":"진성","tel":"031-651-2782","addr":"경기도 평택시 비전동 758번지 1층","indutype":"음료식품 - 기타음료식품","category":"food"}]},{"lat":"37.009380157","long":"127.10761","imageIndex":7,"items":[{"name":"찬스복권","tel":"","addr":"경기도 평택시 비전동 47-12번지","indutype":"음료식품 - 기타음료식품","category":"food"},{"name":"파리바게트평택만세로점","tel":"031-652-6551","addr":"경기도 평택시 비전동 47-12번지","indutype":"음료식품 - 제과점","category":"food"}]},{"lat":"36.998384231","long":"127.08875536","imageIndex":7,"items":[{"name":"청운청과","tel":"031-653-8897","addr":"경기도 평택시 비전동 468-2번지","indutype":"음료식품 - 농·축·수산품","category":"food"}]},{"lat":"36.993356054","long":"127.11105913","imageIndex":7,"items":[{"name":"커피를찾는사람들","tel":"031-655-2545","addr":"경기도 평택시 비전동 835-2번지","indutype":"음료식품 - 기타음료식품","category":"food"}]},{"lat":"37.004327932","long":"127.10442358","imageIndex":7,"items":[{"name":"쿡1015","tel":"031-653-1015","addr":"경기도 평택시 비전동 1012-3번지 폴리프라자 102호","indutype":"음료식품 - 기타음료식품","category":"food"},{"name":"핏프렌즈","tel":"031-684-3949","addr":"경기도 평택시 비전동 1012-3번지 폴리프라자 604호","indutype":"건강식품 - 기타건강식품","category":"food"},{"name":"해피데이","tel":"031-652-1144","addr":"경기도 평택시 비전동 1012-3번지 폴리프라자 4층","indutype":"건강식품 - 기타건강식품","category":"food"}]},{"lat":"37.004553438","long":"127.10414301","imageIndex":7,"items":[{"name":"태성축산","tel":"031-652-7339","addr":"경기도 평택시 비전동 1012-2번지 우성메디피아 108호","indutype":"음료식품 - 정육점","category":"food"}]},{"lat":"36.993550304","long":"127.09436662","imageIndex":7,"items":[{"name":"파리바게뜨 평택성동점","tel":"031-658-8208","addr":"경기도 평택시 비전동 731-1번지","indutype":"음료식품 - 제과점","category":"food"}]},{"lat":"37.002354304","long":"127.104758","imageIndex":7,"items":[{"name":"파리바게뜨 평택소사벌점","tel":"031-651-8235","addr":"경기도 평택시 비전동 1027-3번지 골든프라자 104,105호","indutype":"음료식품 - 제과점","category":"food"}]},{"lat":"36.996994834","long":"127.10252654","imageIndex":7,"items":[{"name":"파리바게뜨평택덕동점","tel":"031-657-6788","addr":"경기도 평택시 비전동 809-3번지","indutype":"음료식품 - 제과점","category":"food"}]},{"lat":"36.999688247","long":"127.11358458","imageIndex":7,"items":[{"name":"파리바게트 소사벌상업지구점","tel":"031-655-0294","addr":"경기도 평택시 비전동 1105-2번지 1층 105호 106호","indutype":"음료식품 - 제과점","category":"food"}]},{"lat":"36.997798455","long":"127.08886705","imageIndex":7,"items":[{"name":"평택기계공업고등학교매점","tel":"031-654-3559","addr":"경기도 평택시 비전동 564-8번지","indutype":"음료식품 - 기타음료식품","category":"food"}]},{"lat":"36.996830892","long":"127.11461395","imageIndex":7,"items":[{"name":"평택통통과일","tel":"031-000-0000","addr":"경기도 평택시 비전동 873-4번지","indutype":"음료식품 - 농·축·수산품","category":"food"}]},{"lat":"36.993025557","long":"127.09708445","imageIndex":7,"items":[{"name":"평택회라이브피쉬","tel":"070-7578-6003","addr":"경기도 평택시 비전동 739-12번지 1층","indutype":"음료식품 - 농·축·수산품","category":"food"}]},{"lat":"37.002687031","long":"127.10553364","imageIndex":7,"items":[{"name":"푸드이야기","tel":"031-111-1111","addr":"경기도 평택시 비전동 1070-1번지 강일프라자-1 104호","indutype":"음료식품 - 기타음료식품","category":"food"}]},{"lat":"36.99335519","long":"127.11200273","imageIndex":7,"items":[{"name":"하누팜 비전점","tel":"031-618-6692","addr":"경기도 평택시 비전동 834-1번지 2층","indutype":"음료식품 - 정육점","category":"food"}]},{"lat":"36.998074841","long":"127.11411024","imageIndex":7,"items":[{"name":"하얀잎쌀","tel":"031-657-1547","addr":"경기도 평택시 비전동 869-1번지 1층","indutype":"음료식품 - 미곡상","category":"food"}]},{"lat":"36.998272339","long":"127.09381057","imageIndex":7,"items":[{"name":"하은이네반찬가게","tel":"031-651-8309","addr":"경기도 평택시 비전동 598-12번지 1층","indutype":"음료식품 - 기타음료식품","category":"food"}]},{"lat":"36.996549307","long":"127.09636983","imageIndex":7,"items":[{"name":"한광매점","tel":"031-652-9092","addr":"경기도 평택시 비전동 504번지","indutype":"음료식품 - 기타음료식품","category":"food"}]},{"lat":"36.994714275","long":"127.09227857","imageIndex":7,"items":[{"name":"한림식품","tel":"031-652-0328","addr":"경기도 평택시 비전동 618-1번지 1층 2호","indutype":"건강식품 - 기타건강식품","category":"food"},{"name":"해플비전점","tel":"","addr":"경기도 평택시 비전동 618-1번지 1동 1층","indutype":"건강식품 - 기타건강식품","category":"food"}]},{"lat":"36.992331927","long":"127.10760909","imageIndex":7,"items":[{"name":"한삼인비전점","tel":"031-651-8877","addr":"경기도 평택시 비전동 191-1번지","indutype":"소매업 - 건강기능식품","category":"food"},{"name":"한삼인평택비전점","tel":"031-652-6535","addr":"경기도 평택시 비전동 191-1번지 1층","indutype":"건강식품 - 기타건강식품","category":"food"}]},{"lat":"36.995518905","long":"127.11074765","imageIndex":7,"items":[{"name":"한우영토","tel":"031-657-0084","addr":"경기도 평택시 비전동 829-10번지","indutype":"음료식품 - 정육점","category":"food"}]},{"lat":"37.002931172","long":"127.09341167","imageIndex":7,"items":[{"name":"혜원상회","tel":"031-8029-7894","addr":"경기도 평택시 비전동 1005번지 휴먼시아1단지 103동 404호","indutype":"음료식품 - 농·축·수산품","category":"food"}]},{"lat":"36.992548352","long":"127.10741842","imageIndex":7,"items":[{"name":"황금어장","tel":"031-656-0012","addr":"경기도 평택시 비전동 217-3번지","indutype":"음료식품 - 농·축·수산품","category":"food"}]}]