[{"lat":"37.829031061","long":"126.84037124","imageIndex":4,"items":[{"name":"고도리포차","tel":"","addr":"경기도 파주시 파주읍 연풍리 285-12번지","indutype":"일반휴게음식 - 일반한식","category":"restaurant"}]},{"lat":"37.829249003","long":"126.83516841","imageIndex":4,"items":[{"name":"다락골","tel":"031-952-1208","addr":"경기도 파주시 파주읍 연풍리 406-25번지","indutype":"일반휴게음식 - 일반한식","category":"restaurant"}]},{"lat":"37.82925164","long":"126.83703125","imageIndex":4,"items":[{"name":"단골집","tel":"031-952-4850","addr":"경기도 파주시 파주읍 연풍리 278-53","indutype":"일반휴게음식 - 일반한식","category":"restaurant"}]},{"lat":"37.826025036","long":"126.8426495","imageIndex":4,"items":[{"name":"닭더피자","tel":"031-953-5535","addr":"경기도 파주시 파주읍 연풍리 112-8번지","indutype":"일반휴게음식 - 일반한식","category":"restaurant"},{"name":"온달족발보쌈 닭더피자","tel":"031-953-9989","addr":"경기도 파주시 파주읍 연풍리 112-8","indutype":"일반휴게음식 - 일반한식","category":"restaurant"}]},{"lat":"37.824551994","long":"126.83937019","imageIndex":4,"items":[{"name":"대가","tel":"031-953-1988","addr":"경기도 파주시 파주읍 연풍리 322-6번지","indutype":"일반휴게음식 - 일반한식","category":"restaurant"}]},{"lat":"37.829058355","long":"126.84056428","imageIndex":4,"items":[{"name":"돼지나라","tel":"031-952-5547","addr":"경기도 파주시 파주읍 연풍리 285-4번지","indutype":"일반휴게음식 - 일반한식","category":"restaurant"}]},{"lat":"37.828724114","long":"126.83991756","imageIndex":4,"items":[{"name":"또또네","tel":"031-953-5730","addr":"경기도 파주시 파주읍 연풍리 285-48번지","indutype":"일반휴게음식 - 일반한식","category":"restaurant"}]},{"lat":"37.829219709","long":"126.83997326","imageIndex":4,"items":[{"name":"뚱이분식","tel":"","addr":"경기도 파주시 파주읍 연풍리 282-15번지","indutype":"일반휴게음식 - 일반한식","category":"restaurant"}]},{"lat":"37.828442739","long":"126.83841883","imageIndex":4,"items":[{"name":"만두랑김밥마을","tel":"031-952-5204","addr":"경기도 파주시 파주읍 연풍리 295-6번지","indutype":"일반휴게음식 - 스넥","category":"restaurant"}]},{"lat":"37.826221256","long":"126.8411952","imageIndex":4,"items":[{"name":"매봉산생삼겹","tel":"031-953-1362","addr":"경기도 파주시 파주읍 연풍리 315-9번지","indutype":"일반휴게음식 - 일반한식","category":"restaurant"}]},{"lat":"37.826165604","long":"126.84003677","imageIndex":4,"items":[{"name":"미영이네","tel":"031-952-2752","addr":"경기도 파주시 파주읍 연풍리 299-101번지","indutype":"일반휴게음식 - 일반한식","category":"restaurant"}]},{"lat":"37.828774063","long":"126.83697553","imageIndex":4,"items":[{"name":"보이는족족","tel":"031-953-9292","addr":"경기도 파주시 파주읍 연풍리 296-29번지","indutype":"일반휴게음식 - 일반한식","category":"restaurant"}]},{"lat":"37.83061084","long":"126.82991744","imageIndex":4,"items":[{"name":"북카페","tel":"031-952-8766","addr":"경기도 파주시 파주읍 연풍리 472-3번지","indutype":"일반휴게음식 - 일반한식","category":"restaurant"}]},{"lat":"37.828940151","long":"126.83978078","imageIndex":4,"items":[{"name":"삼거리","tel":"031-947-6254","addr":"경기도 파주시 파주읍 연풍리 285-27번지","indutype":"일반휴게음식 - 일반한식","category":"restaurant"},{"name":"아날로그","tel":"02-0000-0000","addr":"경기도 파주시 파주읍 연풍리 285-27번지","indutype":"일반휴게음식 - 일반한식","category":"restaurant"}]},{"lat":"37.828720055","long":"126.83700972","imageIndex":4,"items":[{"name":"수피자(연풍점)","tel":"031-954-5558","addr":"경기도 파주시 파주읍 연풍리 296-55번지","indutype":"일반휴게음식 - 서양음식","category":"restaurant"}]},{"lat":"37.828414709","long":"126.83770329","imageIndex":4,"items":[{"name":"신흥숯불갈비","tel":"031-954-2232","addr":"경기도 파주시 파주읍 연풍리 295-13번지","indutype":"일반휴게음식 - 일반한식","category":"restaurant"}]},{"lat":"37.828829762","long":"126.83814536","imageIndex":4,"items":[{"name":"씰리 태국 정통식당","tel":"031-941-2995","addr":"경기도 파주시 파주읍 연풍리 294-39번지","indutype":"일반휴게음식 - 서양음식","category":"restaurant"}]},{"lat":"37.829525921","long":"126.83350938","imageIndex":4,"items":[{"name":"얼얼이닭발구이","tel":"031-953-5258","addr":"경기도 파주시 파주읍 연풍리 403-6","indutype":"일반휴게음식 - 일반한식","category":"restaurant"}]},{"lat":"37.829138089","long":"126.83958724","imageIndex":4,"items":[{"name":"엄마밥상","tel":"031-954-7776","addr":"경기도 파주시 파주읍 연풍리 282-21번지","indutype":"일반휴게음식 - 일반한식","category":"restaurant"}]},{"lat":"37.829634669","long":"126.83395213","imageIndex":4,"items":[{"name":"연풍가","tel":"031-954-3455","addr":"경기도 파주시 파주읍 연풍리 432-3번지","indutype":"일반휴게음식 - 스넥","category":"restaurant"}]},{"lat":"37.828441307","long":"126.83739654","imageIndex":4,"items":[{"name":"영희네식당","tel":"031-954-3804","addr":"경기도 파주시 파주읍 연풍리 296-6번지 299동 161호","indutype":"일반휴게음식 - 일반한식","category":"restaurant"}]},{"lat":"37.828864748","long":"126.8373956","imageIndex":4,"items":[{"name":"오늘그집","tel":"","addr":"경기도 파주시 파주읍 연풍리 294-51번지","indutype":"일반휴게음식 - 일반한식","category":"restaurant"}]},{"lat":"37.828805701","long":"126.84028086","imageIndex":4,"items":[{"name":"왕들의 술자리","tel":"031-952-7388","addr":"경기도 파주시 파주읍 연풍리 285-17번지","indutype":"일반휴게음식 - 주점","category":"restaurant"}]},{"lat":"37.830443469","long":"126.83253041","imageIndex":4,"items":[{"name":"왕서방손짜장","tel":"031-954-5540","addr":"경기도 파주시 파주읍 연풍리 438-11번지","indutype":"일반휴게음식 - 중국식","category":"restaurant"}]},{"lat":"37.82867045","long":"126.84020165","imageIndex":4,"items":[{"name":"용문","tel":"031-952-3848","addr":"경기도 파주시 파주읍 연풍리 285-66번지","indutype":"일반휴게음식 - 중국식","category":"restaurant"}]},{"lat":"37.831641125","long":"126.83211872","imageIndex":4,"items":[{"name":"용용옛날치킨","tel":"031-953-0051","addr":"경기도 파주시 파주읍 연풍리 483번지","indutype":"일반휴게음식 - 스넥","category":"restaurant"}]},{"lat":"37.829165307","long":"126.83972349","imageIndex":4,"items":[{"name":"원조부대찌개","tel":"031-953-5615","addr":"경기도 파주시 파주읍 연풍리 282-52번지","indutype":"일반휴게음식 - 일반한식","category":"restaurant"}]},{"lat":"37.83133299","long":"126.85049857","imageIndex":4,"items":[{"name":"윤가네감자탕","tel":"031-952-4893","addr":"경기도 파주시 파주읍 연풍리 1-5번지","indutype":"일반휴게음식 - 일반한식","category":"restaurant"}]},{"lat":"37.829030935","long":"126.84028037","imageIndex":4,"items":[{"name":"이모네식당","tel":"03-195-1288","addr":"경기도 파주시 파주읍 연풍리 285-67번지","indutype":"일반휴게음식 - 일반한식","category":"restaurant"}]},{"lat":"37.830467389","long":"126.83039485","imageIndex":4,"items":[{"name":"이조맛집","tel":"031-953-7760","addr":"경기도 파주시 파주읍 연풍리 472-8번지","indutype":"일반휴게음식 - 일반한식","category":"restaurant"}]},{"lat":"37.829058277","long":"126.84050748","imageIndex":4,"items":[{"name":"일번가","tel":"031-952-4964","addr":"경기도 파주시 파주읍 연풍리 285-10번지","indutype":"일반휴게음식 - 일반한식","category":"restaurant"}]},{"lat":"37.829164155","long":"126.8388943","imageIndex":4,"items":[{"name":"재현이네","tel":"031-953-9741","addr":"경기도 파주시 파주읍 연풍리 280-12번지","indutype":"일반휴게음식 - 일반한식","category":"restaurant"}]},{"lat":"37.828801011","long":"126.83691867","imageIndex":4,"items":[{"name":"전통의 옛날통닭/전통에 옛날통닭","tel":"031-954-6250","addr":"경기도 파주시 파주읍 연풍리 296-30번지","indutype":"일반휴게음식 - 스넥","category":"restaurant"}]},{"lat":"37.828969986","long":"126.83536214","imageIndex":4,"items":[{"name":"진호갈비","tel":"02-111-1111","addr":"경기도 파주시 파주읍 연풍리 405-48번지","indutype":"일반휴게음식 - 일반한식","category":"restaurant"}]},{"lat":"37.829082263","long":"126.83831518","imageIndex":4,"items":[{"name":"짜장마을","tel":"031-954-7744","addr":"경기도 파주시 파주읍 연풍리 279-9번지","indutype":"일반휴게음식 - 중국식","category":"restaurant"}]},{"lat":"37.829418363","long":"126.83389583","imageIndex":4,"items":[{"name":"착한 회","tel":"031-8070-0033","addr":"경기도 파주시 파주읍 연풍리 398-20번지","indutype":"일반휴게음식 - 일반한식","category":"restaurant"}]},{"lat":"37.828856201","long":"126.83772502","imageIndex":4,"items":[{"name":"청진동해장국","tel":"031-954-1109","addr":"경기도 파주시 파주읍 연풍리 294-47번지","indutype":"일반휴게음식 - 일반한식","category":"restaurant"}]},{"lat":"37.829500114","long":"126.83436136","imageIndex":4,"items":[{"name":"카페 프라임(Cafe Prime)","tel":"031-953-2828","addr":"경기도 파주시 파주읍 연풍리 407-7번지","indutype":"일반휴게음식 - 서양음식","category":"restaurant"}]},{"lat":"37.828805167","long":"126.83989466","imageIndex":4,"items":[{"name":"텍사스바베큐","tel":"031-952-9083","addr":"경기도 파주시 파주읍 연풍리 285-6번지","indutype":"일반휴게음식 - 일반한식","category":"restaurant"}]},{"lat":"37.828998945","long":"126.83672513","imageIndex":4,"items":[{"name":"페리카나치킨","tel":"031-953-9289","addr":"경기도 파주시 파주읍 연풍리 296-39번지","indutype":"일반휴게음식 - 스넥","category":"restaurant"}]},{"lat":"37.828889306","long":"126.83564629","imageIndex":4,"items":[{"name":"피자마루","tel":"031-952-1077","addr":"경기도 파주시 파주읍 연풍리 405-40번지","indutype":"일반휴게음식 - 서양음식","category":"restaurant"},{"name":"호식이두마리 파주연풍점","tel":"031-953-0078","addr":"경기도 파주시 파주읍 연풍리 405-40번지","indutype":"일반휴게음식 - 스넥","category":"restaurant"}]},{"lat":"37.82719758","long":"126.83709264","imageIndex":4,"items":[{"name":"한우리야식","tel":"031-953-0000","addr":"경기도 파주시 파주읍 연풍리 302-10번지","indutype":"일반휴게음식 - 일반한식","category":"restaurant"}]}]