[{"lat":"37.202829358","long":"127.12430001","imageIndex":4,"items":[{"name":"100번지 연탄구이","tel":"031-378-0892","addr":"경기도 화성시 영천동 752-3번지 104호","indutype":"일반휴게음식 - 일반한식","category":"restaurant"}]},{"lat":"37.203081279","long":"127.12466087","imageIndex":4,"items":[{"name":"1824차움앤코","tel":"","addr":"경기도 화성시 영천동 750-1번지 1동 1층일부호","indutype":"일반휴게음식 - 서양음식","category":"restaurant"},{"name":"러브앤피스","tel":"031-000-0000","addr":"경기도 화성시 영천동 750-1번지 1층 101호","indutype":"일반휴게음식 - 서양음식","category":"restaurant"}]},{"lat":"37.205272536","long":"127.11371513","imageIndex":4,"items":[{"name":"1등닭발","tel":"031-374-1182","addr":"경기도 화성시 영천동 704-15번지 1층","indutype":"일반휴게음식 - 일반한식","category":"restaurant"}]},{"lat":"37.203300094","long":"127.122138","imageIndex":4,"items":[{"name":"1번떡볶이동탄1호점","tel":"031-372-5527","addr":"경기도 화성시 영천동 739-9번지 1층 102호","indutype":"일반휴게음식 - 일반한식","category":"restaurant"},{"name":"땡큐두마리치킨 동탄2신도시점","tel":"031-372-9297","addr":"경기도 화성시 영천동 739-9번지 1층","indutype":"일반휴게음식 - 스넥","category":"restaurant"}]},{"lat":"37.206082828","long":"127.09324818","imageIndex":4,"items":[{"name":"37.5 동탄점(BRUNCH&DINING 37.5)","tel":"031-376-3750","addr":"경기도 화성시 영천동 801-6번지 1층","indutype":"일반휴게음식 - 일반한식","category":"restaurant"}]},{"lat":"37.202833965","long":"127.12852413","imageIndex":4,"items":[{"name":"5번지식당","tel":"031-000-0000","addr":"경기도 화성시 영천동 764-5번지","indutype":"일반휴게음식 - 일반한식","category":"restaurant"}]},{"lat":"37.204939825","long":"127.11299371","imageIndex":4,"items":[{"name":"9.9스시&참치","tel":"031-375-0707","addr":"경기도 화성시 영천동 703-5번지 101호","indutype":"일반휴게음식 - 일식·회집","category":"restaurant"},{"name":"맥주JIP","tel":"031-0000-0000","addr":"경기도 화성시 영천동 703-5번지 1층","indutype":"일반휴게음식 - 주점","category":"restaurant"}]},{"lat":"37.207833235","long":"127.11182634","imageIndex":4,"items":[{"name":"B1 (비1)","tel":"031-000-0000","addr":"경기도 화성시 영천동 686-4번지 지하1층","indutype":"일반휴게음식 - 주점","category":"restaurant"},{"name":"채돈이 동탄2신도시점","tel":"031-376-9061","addr":"경기도 화성시 영천동 686-4번지 1층 일부호","indutype":"일반휴게음식 - 일반한식","category":"restaurant"},{"name":"채돈이 동탄2신도시점","tel":"031-376-9061","addr":"경기도 화성시 영천동 686-4번지","indutype":"일반휴게음식 - 일반한식","category":"restaurant"}]},{"lat":"37.208437312","long":"127.1114104","imageIndex":4,"items":[{"name":"M.pongdang(엠퐁당)","tel":"031-378-3863","addr":"경기도 화성시 영천동 682-6번지 1층","indutype":"일반휴게음식 - 서양음식","category":"restaurant"},{"name":"세모네모살롱카페","tel":"031-378-3863","addr":"경기도 화성시 영천동 682-6번지","indutype":"일반휴게음식 - 서양음식","category":"restaurant"}]},{"lat":"37.206278448","long":"127.09660533","imageIndex":4,"items":[{"name":"SEVEN SEED(커피산책)","tel":"031-376-4754","addr":"경기도 화성시 영천동 655-8번지","indutype":"일반휴게음식 - 서양음식","category":"restaurant"}]},{"lat":"37.20824796","long":"127.11155658","imageIndex":4,"items":[{"name":"Studio maas (스튜디오 마스)","tel":"","addr":"경기도 화성시 영천동 685-3번지 1층","indutype":"일반휴게음식 - 서양음식","category":"restaurant"},{"name":"선호식당","tel":"031-373-8920","addr":"경기도 화성시 영천동 685-3번지 102호","indutype":"일반휴게음식 - 일반한식","category":"restaurant"}]},{"lat":"37.208776081","long":"127.09435538","imageIndex":4,"items":[{"name":"TAZZADORO","tel":"031-203-9965","addr":"경기도 화성시 영천동 793-5번지 1층","indutype":"일반휴게음식 - 서양음식","category":"restaurant"}]},{"lat":"37.206444399","long":"127.11316486","imageIndex":4,"items":[{"name":"TOMAR(토마르)","tel":"031-377-0884","addr":"경기도 화성시 영천동 699-3번지 1층 104호","indutype":"일반휴게음식 - 서양음식","category":"restaurant"},{"name":"인생트럭(INSAENG TRUCK)","tel":"","addr":"경기도 화성시 영천동 699-3번지 1층 03호","indutype":"일반휴게음식 - 일반한식","category":"restaurant"}]},{"lat":"37.207827326","long":"127.09774502","imageIndex":4,"items":[{"name":"가득한 플라워 카페","tel":"031-273-3007","addr":"경기도 화성시 영천동 652-5번지 더퍼스트타워 118호","indutype":"일반휴게음식 - 서양음식","category":"restaurant"},{"name":"루나","tel":"031-373-0626","addr":"경기도 화성시 영천동 652-5번지 지하1층 104호","indutype":"일반휴게음식 - 서양음식","category":"restaurant"},{"name":"메가엠지씨커피동탄더퍼스트타워점","tel":"","addr":"경기도 화성시 영천동 652-5번지 135호","indutype":"일반휴게음식 - 서양음식","category":"restaurant"},{"name":"카페데일리","tel":"","addr":"경기도 화성시 영천동 652-5번지 더퍼스트타워 1층 127호","indutype":"일반휴게음식 - 서양음식","category":"restaurant"},{"name":"카페쁘레뚜더퍼스트점","tel":"031-373-1757","addr":"경기도 화성시 영천동 652-5번지 더퍼스트타워 1층 119호","indutype":"일반휴게음식 - 서양음식","category":"restaurant"},{"name":"커피베이 더퍼스트타워점","tel":"031-374-1027","addr":"경기도 화성시 영천동 652-5번지 더퍼스트타워 지하1층 B123호","indutype":"일반휴게음식 - 서양음식","category":"restaurant"},{"name":"회성옥(동탄점)","tel":"031-373-3865","addr":"경기도 화성시 영천동 652-5번지 더퍼스트타워 지1층 B108호","indutype":"일반휴게음식 - 일반한식","category":"restaurant"}]},{"lat":"37.205887852","long":"127.11088857","imageIndex":4,"items":[{"name":"가람 동탄점","tel":"031-372-9239","addr":"경기도 화성시 영천동 678-7번지 303호","indutype":"일반휴게음식 - 일반한식","category":"restaurant"},{"name":"듬박이김치찌개의집(동탄2신도시점)","tel":"","addr":"경기도 화성시 영천동 678-7번지 메디피아프라자 1층 110호","indutype":"일반휴게음식 - 일반한식","category":"restaurant"},{"name":"롯데리아동탄커뮤니티점","tel":"031-372-8694","addr":"경기도 화성시 영천동 678-7번지 메디피아빌딩 104,105,203호","indutype":"일반휴게음식 - 서양음식","category":"restaurant"},{"name":"빈체로","tel":"031-373-9457","addr":"경기도 화성시 영천동 678-7번지 메디피아프라자 204호","indutype":"일반휴게음식 - 서양음식","category":"restaurant"},{"name":"소노야동탄2신도시점","tel":"031-377-2584","addr":"경기도 화성시 영천동 678-7번지 메디피아프라자 103호","indutype":"일반휴게음식 - 일식·회집","category":"restaurant"}]},{"lat":"37.205939766","long":"127.11322045","imageIndex":4,"items":[{"name":"가장맛있는족발","tel":"031-373-4858","addr":"경기도 화성시 영천동 702-8번지 1층","indutype":"일반휴게음식 - 일반한식","category":"restaurant"},{"name":"치킨선수 2동탄점","tel":"","addr":"경기도 화성시 영천동 702-8번지 1층 103호","indutype":"일반휴게음식 - 스넥","category":"restaurant"}]},{"lat":"37.20647213","long":"127.11241016","imageIndex":4,"items":[{"name":"갈비꽃/주식회사 모구푸드","tel":"031-373-9192","addr":"경기도 화성시 영천동 694-3번지","indutype":"일반휴게음식 - 일반한식","category":"restaurant"}]},{"lat":"37.205362534","long":"127.11382791","imageIndex":4,"items":[{"name":"갈풍집","tel":"02-3666-8100","addr":"경기도 화성시 영천동 704-14번지 1층","indutype":"일반휴게음식 - 일반한식","category":"restaurant"}]},{"lat":"37.20541647","long":"127.11396316","imageIndex":4,"items":[{"name":"개성집","tel":"031-375-6002","addr":"경기도 화성시 영천동 704-13번지 1층","indutype":"일반휴게음식 - 일반한식","category":"restaurant"}]},{"lat":"37.205029151","long":"127.11382742","imageIndex":4,"items":[{"name":"경성술집","tel":"050-5306-1472","addr":"경기도 화성시 영천동 710-1번지 102호","indutype":"일반휴게음식 - 일반한식","category":"restaurant"},{"name":"족발야시장 동탄2신도시점","tel":"031-111-1111","addr":"경기도 화성시 영천동 710-1번지 1층 일부호","indutype":"일반휴게음식 - 일반한식","category":"restaurant"}]},{"lat":"37.205831568","long":"127.11329915","imageIndex":4,"items":[{"name":"고반식당 동탄2신도시점","tel":"031-378-1971","addr":"경기도 화성시 영천동 702-7번지 1층","indutype":"일반휴게음식 - 일반한식","category":"restaurant"}]},{"lat":"37.206832367","long":"127.11260218","imageIndex":4,"items":[{"name":"고베화로 (본점)","tel":"031-376-2442","addr":"경기도 화성시 영천동 692-6번지 1층","indutype":"일반휴게음식 - 일반한식","category":"restaurant"}]},{"lat":"37.206167358","long":"127.1106862","imageIndex":4,"items":[{"name":"고봉민김밥인 영천점","tel":"031-372-2372","addr":"경기도 화성시 영천동 678-6번지 1층 106호","indutype":"일반휴게음식 - 일반한식","category":"restaurant"},{"name":"바르다김선생 동탄2신도시점","tel":"031-373-5933","addr":"경기도 화성시 영천동 678-6번지 103호","indutype":"일반휴게음식 - 스넥","category":"restaurant"},{"name":"포차브로스","tel":"070-7779-8899","addr":"경기도 화성시 영천동 678-6번지 삼성메디컬프라자 203,204호","indutype":"일반휴게음식 - 일반한식","category":"restaurant"}]},{"lat":"37.207582812","long":"127.10977575","imageIndex":4,"items":[{"name":"곤이식당","tel":"031-378-3530","addr":"경기도 화성시 영천동 678-1번지 1층 110,111,112호","indutype":"일반휴게음식 - 일반한식","category":"restaurant"},{"name":"피자마루 동탄영천점","tel":"031-375-1082","addr":"경기도 화성시 영천동 678-1번지 대성프라자 106호","indutype":"일반휴게음식 - 서양음식","category":"restaurant"}]},{"lat":"37.211110596","long":"127.09327671","imageIndex":4,"items":[{"name":"골든아이한식뷔페","tel":"031-5183-9754","addr":"경기도 화성시 영천동 358-30번지 B101호","indutype":"일반휴게음식 - 일반한식","category":"restaurant"}]},{"lat":"37.204439215","long":"127.1086336","imageIndex":4,"items":[{"name":"곱창고(동탄2신도시점)","tel":"031-372-9592","addr":"경기도 화성시 영천동 675-4번지 강산프라자 B05호","indutype":"일반휴게음식 - 일반한식","category":"restaurant"},{"name":"놀부옛날통닭","tel":"031-372-6692","addr":"경기도 화성시 영천동 675-4번지 강산프라자 B01호,B02호","indutype":"일반휴게음식 - 스넥","category":"restaurant"},{"name":"더브라운","tel":"031-376-7635","addr":"경기도 화성시 영천동 675-4번지 101호","indutype":"일반휴게음식 - 서양음식","category":"restaurant"},{"name":"리체코파스타","tel":"","addr":"경기도 화성시 영천동 675-4번지 201호,202호","indutype":"일반휴게음식 - 서양음식","category":"restaurant"},{"name":"통큰칼국수(동탄직영점)","tel":"031-372-6661","addr":"경기도 화성시 영천동 675-4번지 102호","indutype":"일반휴게음식 - 일반한식","category":"restaurant"}]},{"lat":"37.207526986","long":"127.11171325","imageIndex":4,"items":[{"name":"국수쟁이","tel":"031-3903-5085","addr":"경기도 화성시 영천동 689-4번지 102호","indutype":"일반휴게음식 - 일반한식","category":"restaurant"},{"name":"기호네곱창","tel":"031-376-9592","addr":"경기도 화성시 영천동 689-4번지 1층","indutype":"일반휴게음식 - 일반한식","category":"restaurant"},{"name":"쇼부라멘 동탄2신도시점","tel":"031-372-0730","addr":"경기도 화성시 영천동 689-4번지 1층 일부호","indutype":"일반휴게음식 - 스넥","category":"restaurant"}]},{"lat":"37.205111095","long":"127.1129151","imageIndex":4,"items":[{"name":"군산오징어 동탄2신도시점","tel":"031-373-3052","addr":"경기도 화성시 영천동 703-6번지","indutype":"일반휴게음식 - 일반한식","category":"restaurant"}]},{"lat":"37.205271859","long":"127.11443607","imageIndex":4,"items":[{"name":"굽네치킨","tel":"031-378-9492","addr":"경기도 화성시 영천동 709-3번지 지층 일부호","indutype":"일반휴게음식 - 스넥","category":"restaurant"},{"name":"숯불대구막창","tel":"","addr":"경기도 화성시 영천동 709-3번지 1층 102호","indutype":"일반휴게음식 - 일반한식","category":"restaurant"}]},{"lat":"37.20411022","long":"127.12293905","imageIndex":4,"items":[{"name":"굿바이마담","tel":"031-372-2227","addr":"경기도 화성시 영천동 738-11번지","indutype":"일반휴게음식 - 일반한식","category":"restaurant"}]},{"lat":"37.20716133","long":"127.0967754","imageIndex":4,"items":[{"name":"궁차이나 짬뽕전문점","tel":"031-372-6220","addr":"경기도 화성시 영천동 654-2번지 1동 1층","indutype":"일반휴게음식 - 중국식","category":"restaurant"}]},{"lat":"37.210301134","long":"127.09132683","imageIndex":4,"items":[{"name":"길식당","tel":"031-1544-6286","addr":"경기도 화성시 영천동 358-66번지 동탄케이티엑스벨리 121,122호","indutype":"일반휴게음식 - 서양음식","category":"restaurant"},{"name":"메가커피 동탄 케이티엑스(KTX)밸리점","tel":"070-1111-1111","addr":"경기도 화성시 영천동 358-66번지 동탄KTX밸리 1층 103호","indutype":"일반휴게음식 - 서양음식","category":"restaurant"},{"name":"주식회사 다이씨","tel":"031-111-1111","addr":"경기도 화성시 영천동 358-66번지 126호,127호","indutype":"일반휴게음식 - 일반한식","category":"restaurant"},{"name":"진수성찬","tel":"","addr":"경기도 화성시 영천동 358-66번지 케이티엑스밸리 1층 117,118,119,120호","indutype":"일반휴게음식 - 일반한식","category":"restaurant"}]},{"lat":"37.205829682","long":"127.11530427","imageIndex":4,"items":[{"name":"김밥천국카페","tel":"","addr":"경기도 화성시 영천동 706-4번지 1층","indutype":"일반휴게음식 - 일반한식","category":"restaurant"}]},{"lat":"37.202582555","long":"127.12769016","imageIndex":4,"items":[{"name":"김영희 동태찜","tel":"031-373-3350","addr":"경기도 화성시 영천동 763-4번지 1층","indutype":"일반휴게음식 - 일반한식","category":"restaurant"}]},{"lat":"37.206472949","long":"127.11152024","imageIndex":4,"items":[{"name":"까르보네","tel":"031-373-8447","addr":"경기도 화성시 영천동 681-7번지 애플스퀘어 109호","indutype":"일반휴게음식 - 서양음식","category":"restaurant"},{"name":"맘스터치 동탄11자상가점","tel":"031-377-8389","addr":"경기도 화성시 영천동 681-7번지 101, 102호","indutype":"일반휴게음식 - 서양음식","category":"restaurant"},{"name":"베트남노상식당","tel":"031-374-4661","addr":"경기도 화성시 영천동 681-7번지 110,111호","indutype":"일반휴게음식 - 일반한식","category":"restaurant"},{"name":"오마뎅 동탄영천점","tel":"031-377-2533","addr":"경기도 화성시 영천동 681-7번지 애플스퀘어 1층 108호","indutype":"일반휴게음식 - 스넥","category":"restaurant"},{"name":"웅이네오돌뼈2동탄점","tel":"031-373-2829","addr":"경기도 화성시 영천동 681-7번지 애플스퀘어 1층 107호","indutype":"일반휴게음식 - 일반한식","category":"restaurant"}]},{"lat":"37.203883086","long":"127.1247748","imageIndex":4,"items":[{"name":"까사밍고","tel":"031-378-9114","addr":"경기도 화성시 영천동 747-6번지 1층","indutype":"일반휴게음식 - 서양음식","category":"restaurant"}]},{"lat":"37.208496777","long":"127.09433252","imageIndex":4,"items":[{"name":"까페뜨락","tel":"070-7420-0776","addr":"경기도 화성시 영천동 796-2번지 1층 102호","indutype":"일반휴게음식 - 서양음식","category":"restaurant"}]},{"lat":"37.206968385","long":"127.11166739","imageIndex":4,"items":[{"name":"꼬치제작소","tel":"070-7780-4885","addr":"경기도 화성시 영천동 690-1번지 1층 일부호","indutype":"일반휴게음식 - 주점","category":"restaurant"},{"name":"홍익소곱창","tel":"031-8003-9230","addr":"경기도 화성시 영천동 690-1번지 일부호","indutype":"일반휴게음식 - 일반한식","category":"restaurant"}]},{"lat":"37.202611506","long":"127.12585413","imageIndex":4,"items":[{"name":"꽃채움(flower-filling)","tel":"070-8210-6462","addr":"경기도 화성시 영천동 751-7번지 1층 102호","indutype":"일반휴게음식 - 서양음식","category":"restaurant"}]},{"lat":"37.206662311","long":"127.1113628","imageIndex":4,"items":[{"name":"나무오향족발","tel":"031-378-2678","addr":"경기도 화성시 영천동 681-6번지 1층 108호","indutype":"일반휴게음식 - 일반한식","category":"restaurant"},{"name":"닭발의역습","tel":"","addr":"경기도 화성시 영천동 681-6번지 에이스프라자 1층 111호","indutype":"일반휴게음식 - 주점","category":"restaurant"},{"name":"싹스리 짬뽕","tel":"031-375-1998","addr":"경기도 화성시 영천동 681-6번지 2층 ACEPLAZA 205호","indutype":"일반휴게음식 - 일반한식","category":"restaurant"},{"name":"커피식스쥬스식스 동탄2영천점","tel":"031-377-3626","addr":"경기도 화성시 영천동 681-6번지 109호","indutype":"일반휴게음식 - 서양음식","category":"restaurant"}]},{"lat":"37.208665353","long":"127.09766721","imageIndex":4,"items":[{"name":"남도명가","tel":"031-5183-5321","addr":"경기도 화성시 영천동 652-4번지 에이팩시티 1층 129,130호","indutype":"일반휴게음식 - 일반한식","category":"restaurant"},{"name":"리틀끌르아","tel":"031-5183-5330","addr":"경기도 화성시 영천동 652-4번지 지1층 B160호","indutype":"일반휴게음식 - 일반한식","category":"restaurant"},{"name":"만리곰탕","tel":"02-111-1111","addr":"경기도 화성시 영천동 652-4번지 1층 133호,134호","indutype":"일반휴게음식 - 일반한식","category":"restaurant"},{"name":"배부장찌개 동탄테크노밸리점","tel":"031-5183-5033","addr":"경기도 화성시 영천동 652-4번지 지1층 B140,B141호","indutype":"일반휴게음식 - 일반한식","category":"restaurant"},{"name":"소담뷔페","tel":"031-5182-9669","addr":"경기도 화성시 영천동 652-4번지 지층 B165~B170호","indutype":"일반휴게음식 - 일반한식","category":"restaurant"},{"name":"장안순대국","tel":"","addr":"경기도 화성시 영천동 652-4번지 지하1층 B164호","indutype":"일반휴게음식 - 일반한식","category":"restaurant"},{"name":"커피에반하다(동탄에에팩시티점)","tel":"031-5183-5355","addr":"경기도 화성시 영천동 652-4번지 에이팩시티 지하1층 B135호","indutype":"일반휴게음식 - 서양음식","category":"restaurant"},{"name":"컴포즈 동탄에이팩시티점","tel":"070-9592-4354","addr":"경기도 화성시 영천동 652-4번지 에이팩시티 1층 135호","indutype":"일반휴게음식 - 서양음식","category":"restaurant"},{"name":"프라빈커피 동탄에이팩시티점","tel":"031-1111-1111","addr":"경기도 화성시 영천동 652-4번지 1층 125,126호","indutype":"일반휴게음식 - 서양음식","category":"restaurant"}]},{"lat":"37.207500841","long":"127.11074443","imageIndex":4,"items":[{"name":"남도식당","tel":"031-376-3391","addr":"경기도 화성시 영천동 681-3번지 성산타워 A동 201, 202호","indutype":"일반휴게음식 - 일반한식","category":"restaurant"},{"name":"동탄영천점 본죽","tel":"031-373-6289","addr":"경기도 화성시 영천동 681-3번지 성산B타워 102호","indutype":"일반휴게음식 - 일반한식","category":"restaurant"},{"name":"맛존부대찌개","tel":"031-375-4945","addr":"경기도 화성시 영천동 681-3번지 204호","indutype":"일반휴게음식 - 일반한식","category":"restaurant"},{"name":"못난이꽈배기 동탄5호점","tel":"031-111-1111","addr":"경기도 화성시 영천동 681-3번지 1층 107호","indutype":"일반휴게음식 - 일반한식","category":"restaurant"},{"name":"배부장찌개가","tel":"031-374-8879","addr":"경기도 화성시 영천동 681-3번지 110호","indutype":"일반휴게음식 - 일반한식","category":"restaurant"}]},{"lat":"37.210967165","long":"127.0923077","imageIndex":4,"items":[{"name":"남문떡볶이","tel":"031-377-5666","addr":"경기도 화성시 영천동 358-37번지 으뜸U테크밸리 110호","indutype":"일반휴게음식 - 일반한식","category":"restaurant"},{"name":"돌리고도야지","tel":"070-8945-3313","addr":"경기도 화성시 영천동 358-37번지 YK퍼스트타워 118,119호","indutype":"일반휴게음식 - 일반한식","category":"restaurant"},{"name":"박남매","tel":"070-4567-4444","addr":"경기도 화성시 영천동 358-37번지 으뜸U-테크밸리 1층 119호","indutype":"일반휴게음식 - 서양음식","category":"restaurant"},{"name":"유가네한우곰탕","tel":"031-375-7856","addr":"경기도 화성시 영천동 358-37번지 YK퍼스트타워 120호","indutype":"일반휴게음식 - 일반한식","category":"restaurant"},{"name":"이디야커피 동탄으뜸U-테크밸리점","tel":"031-375-2269","addr":"경기도 화성시 영천동 358-37번지 으뜸U-테크밸리 1층 112,113,114호","indutype":"일반휴게음식 - 서양음식","category":"restaurant"},{"name":"인정국물떡볶이","tel":"031-377-5666","addr":"경기도 화성시 영천동 358-37번지 1층 110호","indutype":"일반휴게음식 - 스넥","category":"restaurant"},{"name":"전주한식찌개뷔페","tel":"031-375-8946","addr":"경기도 화성시 영천동 358-37번지 YK퍼스트타워 123호 122호,123호","indutype":"일반휴게음식 - 일반한식","category":"restaurant"},{"name":"큰맘할매순대국 동탄테크노밸리점","tel":"031-372-4942","addr":"경기도 화성시 영천동 358-37번지 1층 117호","indutype":"일반휴게음식 - 일반한식","category":"restaurant"}]},{"lat":"37.205218915","long":"127.11324193","imageIndex":4,"items":[{"name":"남해문어집","tel":"031-372-6262","addr":"경기도 화성시 영천동 703-2번지 1층","indutype":"일반휴게음식 - 일반한식","category":"restaurant"}]},{"lat":"37.208605222","long":"127.09391584","imageIndex":4,"items":[{"name":"냉삼시대동탄점","tel":"031-377-3309","addr":"경기도 화성시 영천동 794-4번지 1층 전부호","indutype":"일반휴게음식 - 일반한식","category":"restaurant"},{"name":"미미정","tel":"031-223-5214","addr":"경기도 화성시 영천동 794-2번지 1층","indutype":"일반휴게음식 - 일반한식","category":"restaurant"},{"name":"안성깍뚜기동탄점","tel":"031-373-2233","addr":"경기도 화성시 영천동 794-3번지","indutype":"일반휴게음식 - 일반한식","category":"restaurant"}]},{"lat":"37.206692523","long":"127.09711277","imageIndex":4,"items":[{"name":"네네치킨","tel":"031-375-4492","addr":"경기도 화성시 영천동 656-11번지 1층 103호","indutype":"일반휴게음식 - 스넥","category":"restaurant"}]},{"lat":"37.202939543","long":"127.1222726","imageIndex":4,"items":[{"name":"네네치킨 화성청계점","tel":"031-374-4482","addr":"경기도 화성시 영천동 745-4번지 101호","indutype":"일반휴게음식 - 스넥","category":"restaurant"},{"name":"주식회사 신마루상사","tel":"031-373-9295","addr":"경기도 화성시 영천동 745-4번지 102호","indutype":"일반휴게음식 - 일반한식","category":"restaurant"}]},{"lat":"37.208219367","long":"127.1132463","imageIndex":4,"items":[{"name":"노블","tel":"031-111-1111","addr":"경기도 화성시 영천동 688-5번지 1층 103호","indutype":"일반휴게음식 - 일반한식","category":"restaurant"}]},{"lat":"37.206833157","long":"127.11174605","imageIndex":4,"items":[{"name":"뉴욕야시장 동탄영천점","tel":"031-354-2449","addr":"경기도 화성시 영천동 690-6번지 1층 일부","indutype":"일반휴게음식 - 일반한식","category":"restaurant"},{"name":"일류생갈비김치찌개","tel":"031-294-1129","addr":"경기도 화성시 영천동 690-6번지 1층 102호","indutype":"일반휴게음식 - 일반한식","category":"restaurant"}]},{"lat":"37.207161196","long":"127.09694437","imageIndex":4,"items":[{"name":"다미 한식부페","tel":"031-377-3070","addr":"경기도 화성시 영천동 654-3번지 1층","indutype":"일반휴게음식 - 일반한식","category":"restaurant"}]},{"lat":"37.204466517","long":"127.10832949","imageIndex":4,"items":[{"name":"다온면옥","tel":"031-376-6690","addr":"경기도 화성시 영천동 675-3번지 201호","indutype":"일반휴게음식 - 일반한식","category":"restaurant"},{"name":"달라스 바이트","tel":"","addr":"경기도 화성시 영천동 675-3번지 1층 103호","indutype":"일반휴게음식 - 일반한식","category":"restaurant"},{"name":"스시아이","tel":"031-376-0720","addr":"경기도 화성시 영천동 675-3번지 B02호","indutype":"일반휴게음식 - 일식·회집","category":"restaurant"},{"name":"아우네","tel":"031-376-7792","addr":"경기도 화성시 영천동 675-3번지 코스모스 상가 204호","indutype":"일반휴게음식 - 일반한식","category":"restaurant"},{"name":"엘빈","tel":"031-374-6855","addr":"경기도 화성시 영천동 675-3번지 지층코스모스스퀘어 비03호","indutype":"일반휴게음식 - 서양음식","category":"restaurant"},{"name":"오븐마루치킨 동탄1호점","tel":"031-377-2292","addr":"경기도 화성시 영천동 675-3번지 B01호","indutype":"일반휴게음식 - 스넥","category":"restaurant"},{"name":"춘천식당","tel":"031-375-7982","addr":"경기도 화성시 영천동 675-3번지 1층 104호","indutype":"일반휴게음식 - 일반한식","category":"restaurant"}]},{"lat":"37.20711225","long":"127.11199428","imageIndex":4,"items":[{"name":"다이쿄","tel":"031-372-5476","addr":"경기도 화성시 영천동 690-3번지 101호","indutype":"일반휴게음식 - 일식·회집","category":"restaurant"},{"name":"디디치킨 동탄영천점","tel":"031-376-8227","addr":"경기도 화성시 영천동 690-3번지 102호","indutype":"일반휴게음식 - 스넥","category":"restaurant"}]},{"lat":"37.205722716","long":"127.11407626","imageIndex":4,"items":[{"name":"단지집","tel":"031-375-6126","addr":"경기도 화성시 영천동 704-4번지 1층","indutype":"일반휴게음식 - 일반한식","category":"restaurant"}]},{"lat":"37.210411816","long":"127.09958452","imageIndex":4,"items":[{"name":"대방공인중개사사무소 / 커피작업실","tel":"031-378-8294","addr":"경기도 화성시 영천동 산24-1번지 C동 110호","indutype":"일반휴게음식 - 서양음식","category":"restaurant"},{"name":"소담채","tel":"031-377-5452","addr":"경기도 화성시 영천동 산24-1번지 메가비즈타 A동 123-126호","indutype":"일반휴게음식 - 일반한식","category":"restaurant"},{"name":"육마니 동탄점","tel":"031-000-0000","addr":"경기도 화성시 영천동 산24-1번지 B동 102,103호","indutype":"일반휴게음식 - 일반한식","category":"restaurant"},{"name":"카페유의미","tel":"","addr":"경기도 화성시 영천동 산24-1번지 동탄역메가비즈타워 1층 104호","indutype":"일반휴게음식 - 서양음식","category":"restaurant"},{"name":"큰맘할머니순대국 영천점","tel":"","addr":"경기도 화성시 영천동 산24-1번지 동탄역 메가비즈타워 B동 1층 108호,109호","indutype":"일반휴게음식 - 일반한식","category":"restaurant"},{"name":"해온수산식당","tel":"","addr":"경기도 화성시 영천동 산24-1번지 A동 1층 110~117호","indutype":"일반휴게음식 - 일반한식","category":"restaurant"}]},{"lat":"37.204384901","long":"127.10891514","imageIndex":4,"items":[{"name":"더 레스토랑 다미아노","tel":"031-372-2010","addr":"경기도 화성시 영천동 675-5번지 디스퀘어리버 204호","indutype":"일반휴게음식 - 일반한식","category":"restaurant"},{"name":"왕천파닭동탄점","tel":"031-373-0513","addr":"경기도 화성시 영천동 675-5번지 B104, B105 디스퀘어리버","indutype":"일반휴게음식 - 일반한식","category":"restaurant"},{"name":"커피랑마카롱","tel":"","addr":"경기도 화성시 영천동 675-5번지 1층 101호","indutype":"일반휴게음식 - 서양음식","category":"restaurant"},{"name":"하우올리","tel":"031-373-0513","addr":"경기도 화성시 영천동 675-5번지 B104,B105호","indutype":"일반휴게음식 - 서양음식","category":"restaurant"}]},{"lat":"37.208413188","long":"127.10818854","imageIndex":4,"items":[{"name":"더 오리지날갈비","tel":"031-374-8293","addr":"경기도 화성시 영천동 679-2번지 스마트리움오피스텔 지하 B04,B05,B06,B07,B08호","indutype":"일반휴게음식 - 일반한식","category":"restaurant"}]},{"lat":"37.204883988","long":"127.11488608","imageIndex":4,"items":[{"name":"더(the)돈까스","tel":"031-373-5322","addr":"경기도 화성시 영천동 710-8번지 1층","indutype":"일반휴게음식 - 일반한식","category":"restaurant"}]},{"lat":"37.206056953","long":"127.1131643","imageIndex":4,"items":[{"name":"더뚜껑스솥뚜껑삼겹살","tel":"031-376-9252","addr":"경기도 화성시 영천동 702-9번지 1층","indutype":"일반휴게음식 - 일반한식","category":"restaurant"}]},{"lat":"37.206661504","long":"127.11224146","imageIndex":4,"items":[{"name":"덕꾼오리바베큐 동탄2호점","tel":"031-373-5249","addr":"경기도 화성시 영천동 693-4번지 1층 103호","indutype":"일반휴게음식 - 일반한식","category":"restaurant"},{"name":"모도리육회 동탄직영점","tel":"","addr":"경기도 화성시 영천동 693-4번지 1층 101호","indutype":"일반휴게음식 - 일반한식","category":"restaurant"}]},{"lat":"37.203993165","long":"127.12286002","imageIndex":4,"items":[{"name":"도야족발보쌈 동탄신도시점","tel":"","addr":"경기도 화성시 영천동 738-12번지 101동","indutype":"일반휴게음식 - 일반한식","category":"restaurant"}]},{"lat":"37.207717315","long":"127.1104969","imageIndex":4,"items":[{"name":"도쿄라멘3900 동탄영천점","tel":"031-372-3933","addr":"경기도 화성시 영천동 681-2번지 에듀프라자2 1층 105호","indutype":"일반휴게음식 - 일식·회집","category":"restaurant"},{"name":"동탄초밥집","tel":"031-375-3721","addr":"경기도 화성시 영천동 681-2번지 에듀프라자2 1층 107,108호","indutype":"일반휴게음식 - 일식·회집","category":"restaurant"},{"name":"동탄칼국수","tel":"031-375-5097","addr":"경기도 화성시 영천동 681-2번지 2층 201호","indutype":"일반휴게음식 - 일반한식","category":"restaurant"},{"name":"총각네옛날통닭","tel":"031-333-8884","addr":"경기도 화성시 영천동 681-2번지 1층 109호","indutype":"일반휴게음식 - 스넥","category":"restaurant"},{"name":"푸드맵 외식연구소","tel":"031-372-7538","addr":"경기도 화성시 영천동 681-2번지 2층 201호","indutype":"일반휴게음식 - 일반한식","category":"restaurant"}]},{"lat":"37.207275407","long":"127.11093561","imageIndex":4,"items":[{"name":"동대문엽기떡볶이 동탄2신도시점","tel":"031-378-8592","addr":"경기도 화성시 영천동 681-3번지 성산타워 B동 202호","indutype":"일반휴게음식 - 일반한식","category":"restaurant"},{"name":"아리가또맘마","tel":"","addr":"경기도 화성시 영천동 681-4번지 성산B타워 110호","indutype":"일반휴게음식 - 스넥","category":"restaurant"},{"name":"컴포즈커피","tel":"031-376-1729","addr":"경기도 화성시 영천동 681-4번지 1층 103호","indutype":"일반휴게음식 - 서양음식","category":"restaurant"},{"name":"한솥 동탄2신도시점","tel":"031-373-5949","addr":"경기도 화성시 영천동 681-4번지 102호","indutype":"일반휴게음식 - 스넥","category":"restaurant"}]},{"lat":"37.20285481","long":"127.12583199","imageIndex":4,"items":[{"name":"동탄 미미 칼국수","tel":"031-111-1111","addr":"경기도 화성시 영천동 750-9번지","indutype":"일반휴게음식 - 일반한식","category":"restaurant"}]},{"lat":"37.207106071","long":"127.09827357","imageIndex":4,"items":[{"name":"동탄2신도시점 본도시락","tel":"031-373-4281","addr":"경기도 화성시 영천동 658-1번지 지엘프라자 1층 108호","indutype":"일반휴게음식 - 일반한식","category":"restaurant"},{"name":"패밀리김밥","tel":"031-377-5750","addr":"경기도 화성시 영천동 658-1번지 지엘프라자 107호","indutype":"일반휴게음식 - 일반한식","category":"restaurant"}]},{"lat":"37.2057238","long":"127.11291599","imageIndex":4,"items":[{"name":"동탄2호점 하남돼지집","tel":"031-376-2555","addr":"경기도 화성시 영천동 701-5번지 1층","indutype":"일반휴게음식 - 일반한식","category":"restaurant"}]},{"lat":"37.207945119","long":"127.10765843","imageIndex":4,"items":[{"name":"동탄갈매기","tel":"031-376-3375","addr":"경기도 화성시 영천동 679-7번지 1층 101-104호","indutype":"일반휴게음식 - 일반한식","category":"restaurant"},{"name":"한우의 힘","tel":"031-374-1074","addr":"경기도 화성시 영천동 679-7번지 1층 111호","indutype":"일반휴게음식 - 일반한식","category":"restaurant"}]},{"lat":"37.205721793","long":"127.11505629","imageIndex":4,"items":[{"name":"동탄램양꼬치","tel":"","addr":"경기도 화성시 영천동 705-5번지 1층","indutype":"일반휴게음식 - 일반한식","category":"restaurant"}]},{"lat":"37.204939352","long":"127.11350061","imageIndex":4,"items":[{"name":"동탄별난버섯집&카카오뻬르떼","tel":"031-377-6227","addr":"경기도 화성시 영천동 711-5번지 1층 전부호","indutype":"일반휴게음식 - 서양음식","category":"restaurant"}]},{"lat":"37.206412761","long":"127.09766439","imageIndex":4,"items":[{"name":"동탄소곱창전골","tel":"031-747-8874","addr":"경기도 화성시 영천동 657-6번지 1층","indutype":"일반휴게음식 - 일반한식","category":"restaurant"}]},{"lat":"37.206247556","long":"127.11166636","imageIndex":4,"items":[{"name":"동탄참닭강정","tel":"031-373-5018","addr":"경기도 화성시 영천동 681-8번지 1층 107호","indutype":"일반휴게음식 - 스넥","category":"restaurant"},{"name":"만랩커피 동탄2 영천동점","tel":"031-337-8488","addr":"경기도 화성시 영천동 681-8번지 삼우메디타워 108호","indutype":"일반휴게음식 - 서양음식","category":"restaurant"},{"name":"서리서리멸치국수 동탄직영점","tel":"031-377-2719","addr":"경기도 화성시 영천동 681-8번지 1층 106호","indutype":"일반휴게음식 - 스넥","category":"restaurant"}]},{"lat":"37.207554441","long":"127.11125143","imageIndex":4,"items":[{"name":"동탄황소곱창","tel":"031-373-4045","addr":"경기도 화성시 영천동 685-8번지 102호","indutype":"일반휴게음식 - 일반한식","category":"restaurant"},{"name":"참닭강정.피자굼터","tel":"031-377-2886","addr":"경기도 화성시 영천동 685-8번지 103호","indutype":"일반휴게음식 - 스넥","category":"restaurant"},{"name":"통큰 두마리 찜닭","tel":"031-111-1111","addr":"경기도 화성시 영천동 685-8번지 1층 일부호","indutype":"일반휴게음식 - 일반한식","category":"restaurant"}]},{"lat":"37.205525005","long":"127.113524","imageIndex":4,"items":[{"name":"두리맛감자탕","tel":"031-373-9823","addr":"경기도 화성시 영천동 704-1번지","indutype":"일반휴게음식 - 일반한식","category":"restaurant"}]},{"lat":"37.203192083","long":"127.12202519","imageIndex":4,"items":[{"name":"두리반","tel":"031-378-0244","addr":"경기도 화성시 영천동 739-10번지 1층 일부호","indutype":"일반휴게음식 - 일반한식","category":"restaurant"}]},{"lat":"37.206105784","long":"127.09844128","imageIndex":4,"items":[{"name":"디저트39","tel":"031-373-8439","addr":"경기도 화성시 영천동 658-6번지 110호","indutype":"일반휴게음식 - 서양음식","category":"restaurant"},{"name":"디저트39","tel":"031-373-8439","addr":"경기도 화성시 영천동 658-6번지 110호","indutype":"일반휴게음식 - 서양음식","category":"restaurant"},{"name":"소우락동탄점","tel":"031-377-9230","addr":"경기도 화성시 영천동 658-6번지 2층 204호","indutype":"일반휴게음식 - 일반한식","category":"restaurant"},{"name":"전주한중식부페","tel":"031-376-8878","addr":"경기도 화성시 영천동 658-6번지 2층 202호","indutype":"일반휴게음식 - 일반한식","category":"restaurant"}]},{"lat":"37.205082769","long":"127.11430061","imageIndex":4,"items":[{"name":"딜리푸드","tel":"","addr":"경기도 화성시 영천동 709-11번지 1층 일부호","indutype":"일반휴게음식 - 일반한식","category":"restaurant"}]},{"lat":"37.206687993","long":"127.11282727","imageIndex":4,"items":[{"name":"땡큐꼬마김밥","tel":"031-377-2280","addr":"경기도 화성시 영천동 695-2번지 101호","indutype":"일반휴게음식 - 일반한식","category":"restaurant"}]},{"lat":"37.210719428","long":"127.09803028","imageIndex":4,"items":[{"name":"땡큐꼬마김밥 동탄테크노밸리점","tel":"031-377-3611","addr":"경기도 화성시 영천동 산25-3번지 1층 114호","indutype":"일반휴게음식 - 스넥","category":"restaurant"},{"name":"브라더꽈배기","tel":"031-378-8294","addr":"경기도 화성시 영천동 산25-3번지 삼성어반타워 1층 111호","indutype":"일반휴게음식 - 일반한식","category":"restaurant"},{"name":"상윤","tel":"","addr":"경기도 화성시 영천동 산25-3번지 삼성어반타워 1층 120호","indutype":"일반휴게음식 - 서양음식","category":"restaurant"},{"name":"에밀리","tel":"070-4649-1101","addr":"경기도 화성시 영천동 산25-3번지 1층 112,113호","indutype":"일반휴게음식 - 서양음식","category":"restaurant"},{"name":"에밀리(Emily)","tel":"070-4649-1101","addr":"경기도 화성시 영천동 산25-3번지 1층 112,113호","indutype":"일반휴게음식 - 서양음식","category":"restaurant"},{"name":"홍식당","tel":"031-405-4404","addr":"경기도 화성시 영천동 산25-3번지 삼성어반타워 110호","indutype":"일반휴게음식 - 일반한식","category":"restaurant"}]},{"lat":"37.208049048","long":"127.11229979","imageIndex":4,"items":[{"name":"또봉이통닭","tel":"031-378-9282","addr":"경기도 화성시 영천동 687-11번지 101호","indutype":"일반휴게음식 - 스넥","category":"restaurant"}]},{"lat":"37.206526597","long":"127.11197091","imageIndex":4,"items":[{"name":"뚱보집 영천점","tel":"031-373-8237","addr":"경기도 화성시 영천동 693-6번지 1층 101호,102호","indutype":"일반휴게음식 - 일반한식","category":"restaurant"},{"name":"뚱보집 영천점","tel":"031-373-8238","addr":"경기도 화성시 영천동 693-6번지 1층 101호,102호","indutype":"일반휴게음식 - 일반한식","category":"restaurant"},{"name":"엉클스치킨 동탄영천점","tel":"031-373-1149","addr":"경기도 화성시 영천동 693-6번지 103호","indutype":"일반휴게음식 - 스넥","category":"restaurant"}]},{"lat":"37.208328109","long":"127.11258182","imageIndex":4,"items":[{"name":"뜨란채","tel":"031-375-7749","addr":"경기도 화성시 영천동 687-4번지","indutype":"일반휴게음식 - 일반한식","category":"restaurant"}]},{"lat":"37.206940586","long":"127.11250096","imageIndex":4,"items":[{"name":"라무라쿠","tel":"070-5101-4608","addr":"경기도 화성시 영천동 692-1번지 1층","indutype":"일반휴게음식 - 일반한식","category":"restaurant"},{"name":"열정분식소 2동탄점","tel":"031-111-1111","addr":"경기도 화성시 영천동 692-1번지 1층 일부호","indutype":"일반휴게음식 - 스넥","category":"restaurant"}]},{"lat":"37.204723544","long":"127.11302719","imageIndex":4,"items":[{"name":"라무진","tel":"031-376-5092","addr":"경기도 화성시 영천동 711-2번지 1층","indutype":"일반휴게음식 - 일반한식","category":"restaurant"}]},{"lat":"37.210246421","long":"127.0921942","imageIndex":4,"items":[{"name":"라이크어스","tel":"","addr":"경기도 화성시 영천동 358-61번지 금강펜테리움IT타워 1층 131호","indutype":"일반휴게음식 - 서양음식","category":"restaurant"},{"name":"커피사피엔스동탄금강펜테리움IT타워점","tel":"031-374-4129","addr":"경기도 화성시 영천동 358-61번지 금강펜테리움IT타워 1층 116호","indutype":"일반휴게음식 - 서양음식","category":"restaurant"},{"name":"탭플레이 펜테리움IT타워점","tel":"031-000-0000","addr":"경기도 화성시 영천동 358-61번지 금강펜테리움IT타워 1층 113호","indutype":"일반휴게음식 - 서양음식","category":"restaurant"}]},{"lat":"37.214055534","long":"127.09516164","imageIndex":4,"items":[{"name":"라크리마COFFEE","tel":"02-000-0000","addr":"경기도 화성시 영천동 151-6번지 118,119호","indutype":"일반휴게음식 - 서양음식","category":"restaurant"},{"name":"루체스타 한식뷔페","tel":"031-5183-9754","addr":"경기도 화성시 영천동 151-6번지 루체스타 비즈 제지1층 제비103,비104,비105,비106.비107호","indutype":"일반휴게음식 - 일반한식","category":"restaurant"}]},{"lat":"37.206355276","long":"127.11210584","imageIndex":4,"items":[{"name":"라향각 마라탕","tel":"031-373-6411","addr":"경기도 화성시 영천동 694-1번지 1층 일부호","indutype":"일반휴게음식 - 중국식","category":"restaurant"}]},{"lat":"37.204803754","long":"127.11397353","imageIndex":4,"items":[{"name":"레시피#","tel":"031-374-8321","addr":"경기도 화성시 영천동 710-3번지 101호","indutype":"일반휴게음식 - 중국식","category":"restaurant"}]},{"lat":"37.206887705","long":"127.11121668","imageIndex":4,"items":[{"name":"류길상피자","tel":"031-377-0612","addr":"경기도 화성시 영천동 681-5번지 105호","indutype":"일반휴게음식 - 서양음식","category":"restaurant"},{"name":"왕돈까스왕냉면","tel":"031-374-5708","addr":"경기도 화성시 영천동 681-5번지 102호","indutype":"일반휴게음식 - 일반한식","category":"restaurant"},{"name":"조인쉐프뉴욕 경기동탄점","tel":"031-376-2133","addr":"경기도 화성시 영천동 681-5번지 702호","indutype":"일반휴게음식 - 서양음식","category":"restaurant"}]},{"lat":"37.205217404","long":"127.11485278","imageIndex":4,"items":[{"name":"마곱","tel":"031-373-6104","addr":"경기도 화성시 영천동 709-6번지 1층 일부호","indutype":"일반휴게음식 - 일반한식","category":"restaurant"},{"name":"샵푸드플레이스","tel":"031-375-2723","addr":"경기도 화성시 영천동 709-6번지 1층 일부호","indutype":"일반휴게음식 - 일반한식","category":"restaurant"}]},{"lat":"37.205804306","long":"127.11354693","imageIndex":4,"items":[{"name":"마약먹태","tel":"031-377-9202","addr":"경기도 화성시 영천동 702-5번지 1층 102호","indutype":"일반휴게음식 - 일반한식","category":"restaurant"},{"name":"정원푸드","tel":"031-372-6161","addr":"경기도 화성시 영천동 702-5번지 1층","indutype":"일반휴게음식 - 스넥","category":"restaurant"}]},{"lat":"37.207220706","long":"127.11163396","imageIndex":4,"items":[{"name":"마약양꼬치","tel":"031-378-8828","addr":"경기도 화성시 영천동 689-10번지","indutype":"일반휴게음식 - 일반한식","category":"restaurant"},{"name":"청년다방 동탄2신도시","tel":"031-375-1323","addr":"경기도 화성시 영천동 689-10번지 101호","indutype":"일반휴게음식 - 일반한식","category":"restaurant"}]},{"lat":"37.208361856","long":"127.09402819","imageIndex":4,"items":[{"name":"마포숯불갈비","tel":"","addr":"경기도 화성시 영천동 796-8번지","indutype":"일반휴게음식 - 일반한식","category":"restaurant"},{"name":"와사비 동탄점","tel":"","addr":"경기도 화성시 영천동 796-1번지 1층 전체호","indutype":"일반휴게음식 - 일식·회집","category":"restaurant"}]},{"lat":"37.205525854","long":"127.11261156","imageIndex":4,"items":[{"name":"마포식당","tel":"031-377-5824","addr":"경기도 화성시 영천동 701-8번지 1층","indutype":"일반휴게음식 - 일반한식","category":"restaurant"},{"name":"보쌈만족","tel":"031-376-1051","addr":"경기도 화성시 영천동 701-8번지 1층","indutype":"일반휴게음식 - 일반한식","category":"restaurant"},{"name":"아구와구","tel":"031-377-7707","addr":"경기도 화성시 영천동 701-8번지 1층 일부호","indutype":"일반휴게음식 - 일반한식","category":"restaurant"}]},{"lat":"37.205056781","long":"127.11318537","imageIndex":4,"items":[{"name":"막창도둑","tel":"031-377-1692","addr":"경기도 화성시 영천동 703-4번지","indutype":"일반휴게음식 - 일반한식","category":"restaurant"}]},{"lat":"37.209999534","long":"127.09685777","imageIndex":4,"items":[{"name":"만랩커피 동탄SKV1","tel":"031-630-2345","addr":"경기도 화성시 영천동 397번지 동탄 SK V1 center 1층 144호","indutype":"일반휴게음식 - 서양음식","category":"restaurant"},{"name":"모정반","tel":"031-630-2129","addr":"경기도 화성시 영천동 397번지 V1동 B106호","indutype":"일반휴게음식 - 일반한식","category":"restaurant"},{"name":"밥앤쿡","tel":"031-630-2347","addr":"경기도 화성시 영천동 397번지 지층 B101~B105호","indutype":"일반휴게음식 - 일반한식","category":"restaurant"},{"name":"비어첸 테크노밸리점","tel":"031-630-2054","addr":"경기도 화성시 영천동 397번지 동탄 SK V1 center 1층 165,166호","indutype":"일반휴게음식 - 서양음식","category":"restaurant"},{"name":"육차돌&쉐프의부대찌개","tel":"031-630-2055","addr":"경기도 화성시 영천동 397번지 동탄SKV 1 CENTER 163,164호","indutype":"일반휴게음식 - 일반한식","category":"restaurant"},{"name":"이디야 화성동탄SKV1점","tel":"031-630-2064","addr":"경기도 화성시 영천동 397번지 SK V1지식산업센터 B122호","indutype":"일반휴게음식 - 서양음식","category":"restaurant"}]},{"lat":"37.204357598","long":"127.10921924","imageIndex":4,"items":[{"name":"맛집 강화기통닭","tel":"","addr":"경기도 화성시 영천동 675-6번지 지1층B103,B104호","indutype":"일반휴게음식 - 스넥","category":"restaurant"},{"name":"미진분식","tel":"031-372-8691","addr":"경기도 화성시 영천동 675-6번지 108호","indutype":"일반휴게음식 - 스넥","category":"restaurant"},{"name":"보싸마보싸마(본점)","tel":"031-376-5221","addr":"경기도 화성시 영천동 675-6번지 301,302호","indutype":"일반휴게음식 - 일반한식","category":"restaurant"},{"name":"신화로닭발","tel":"031-377-2153","addr":"경기도 화성시 영천동 675-6번지 103호","indutype":"일반휴게음식 - 일반한식","category":"restaurant"},{"name":"원곱창","tel":"031-373-0821","addr":"경기도 화성시 영천동 675-6번지 B102호","indutype":"일반휴게음식 - 일반한식","category":"restaurant"},{"name":"파이프키친(PIPE Kitchen)","tel":"031-377-6617","addr":"경기도 화성시 영천동 675-6번지 2층 201호","indutype":"일반휴게음식 - 서양음식","category":"restaurant"}]},{"lat":"37.202802719","long":"127.12391698","imageIndex":4,"items":[{"name":"매드스푼","tel":"031-376-8722","addr":"경기도 화성시 영천동 743-4번지 101호","indutype":"일반휴게음식 - 서양음식","category":"restaurant"}]},{"lat":"37.204638234","long":"127.10774397","imageIndex":4,"items":[{"name":"매드후라이치킨","tel":"031-377-8489","addr":"경기도 화성시 영천동 675-1번지 B07호","indutype":"일반휴게음식 - 스넥","category":"restaurant"},{"name":"무봉산 민물장어","tel":"031-377-0592","addr":"경기도 화성시 영천동 675-1번지 B01호 ,108,109호","indutype":"일반휴게음식 - 일반한식","category":"restaurant"},{"name":"미남","tel":"031-372-7597","addr":"경기도 화성시 영천동 675-1번지 104호,105호","indutype":"일반휴게음식 - 일반한식","category":"restaurant"},{"name":"수복담","tel":"031-375-0292","addr":"경기도 화성시 영천동 675-1번지 신세계프라자 201,202호","indutype":"일반휴게음식 - 일반한식","category":"restaurant"},{"name":"제주백돈","tel":"031-373-0524","addr":"경기도 화성시 영천동 675-1번지 B07호","indutype":"일반휴게음식 - 일반한식","category":"restaurant"},{"name":"치동이네 맥주가게","tel":"","addr":"경기도 화성시 영천동 675-1번지 신세계프라자 B층 03호 일부호","indutype":"일반휴게음식 - 주점","category":"restaurant"},{"name":"카페 드롭탑","tel":"031-378-4880","addr":"경기도 화성시 영천동 675-1번지 신세계프라자 101동 103호","indutype":"일반휴게음식 - 서양음식","category":"restaurant"}]},{"lat":"37.206914126","long":"127.11188135","imageIndex":4,"items":[{"name":"맥주 활력수","tel":"070-5121-6771","addr":"경기도 화성시 영천동 690-5번지 1층","indutype":"일반휴게음식 - 주점","category":"restaurant"}]},{"lat":"37.213301061","long":"127.09202881","imageIndex":4,"items":[{"name":"메가엠지씨커피 동탄퍼스트코리아점","tel":"","addr":"경기도 화성시 영천동 204-3번지 1층 121,134호","indutype":"일반휴게음식 - 서양음식","category":"restaurant"}]},{"lat":"37.207166768","long":"127.1114987","imageIndex":4,"items":[{"name":"메가커피 (동탄영천점)","tel":"031-373-7865","addr":"경기도 화성시 영천동 689-11번지 1층 일부호","indutype":"일반휴게음식 - 서양음식","category":"restaurant"}]},{"lat":"37.207915646","long":"127.11038453","imageIndex":4,"items":[{"name":"명랑핫도그","tel":"031-378-6226","addr":"경기도 화성시 영천동 681-1번지 101호","indutype":"일반휴게음식 - 일반한식","category":"restaurant"},{"name":"이모 칼국수","tel":"031-378-3358","addr":"경기도 화성시 영천동 681-1번지 에듀프라자 1층 109호","indutype":"일반휴게음식 - 일반한식","category":"restaurant"},{"name":"이삭토스트","tel":"031-377-5080","addr":"경기도 화성시 영천동 681-1번지 여듀프라자1 104호","indutype":"일반휴게음식 - 서양음식","category":"restaurant"},{"name":"킹콩떡볶이","tel":"","addr":"경기도 화성시 영천동 681-1번지 에듀프라자1 102호","indutype":"일반휴게음식 - 스넥","category":"restaurant"},{"name":"호치킨","tel":"031-377-5727","addr":"경기도 화성시 영천동 681-1번지 110호","indutype":"일반휴게음식 - 스넥","category":"restaurant"}]},{"lat":"37.208525698","long":"127.11326928","imageIndex":4,"items":[{"name":"명륜진사갈비","tel":"","addr":"경기도 화성시 영천동 683-11번지","indutype":"일반휴게음식 - 일반한식","category":"restaurant"}]},{"lat":"37.207021533","long":"127.11265878","imageIndex":4,"items":[{"name":"명품가마","tel":"031-372-6820","addr":"경기도 화성시 영천동 692-2번지 1층","indutype":"일반휴게음식 - 일반한식","category":"restaurant"},{"name":"바른치킨 동탄한백점","tel":"031-375-5583","addr":"경기도 화성시 영천동 692-2번지 1층 101호","indutype":"일반휴게음식 - 스넥","category":"restaurant"}]},{"lat":"37.206466335","long":"127.09827276","imageIndex":4,"items":[{"name":"명품고기사랑","tel":"031-376-9299","addr":"경기도 화성시 영천동 658-4번지 서강프라자 2층 201-204호","indutype":"일반휴게음식 - 일반한식","category":"restaurant"},{"name":"명품한식부페","tel":"031-372-3392","addr":"경기도 화성시 영천동 658-4번지 서강프라자201~204호","indutype":"일반휴게음식 - 일반한식","category":"restaurant"}]},{"lat":"37.207551561","long":"127.09319361","imageIndex":4,"items":[{"name":"명품생고기전문점","tel":"031-376-3569","addr":"경기도 화성시 영천동 797-4번지 1층","indutype":"일반휴게음식 - 일반한식","category":"restaurant"}]},{"lat":"37.211193345","long":"127.09108002","imageIndex":4,"items":[{"name":"명품푸드","tel":"031-376-2291","addr":"경기도 화성시 영천동 358-43번지 삼성테크노타워 120,121,122호","indutype":"일반휴게음식 - 일반한식","category":"restaurant"},{"name":"외할머니밥상","tel":"02-1111-1111","addr":"경기도 화성시 영천동 358-43번지 101,102호","indutype":"일반휴게음식 - 일반한식","category":"restaurant"},{"name":"커피에반하다 동탄산업단지점","tel":"","addr":"경기도 화성시 영천동 358-43번지 삼성테크노타워 103,104호","indutype":"일반휴게음식 - 서양음식","category":"restaurant"},{"name":"한식부페 다정","tel":"031-372-3576","addr":"경기도 화성시 영천동 358-43번지 111,112,113호","indutype":"일반휴게음식 - 일반한식","category":"restaurant"}]},{"lat":"37.203361707","long":"127.12357994","imageIndex":4,"items":[{"name":"모듈팟","tel":"031-377-8190","addr":"경기도 화성시 영천동 744-1번지 1층","indutype":"일반휴게음식 - 서양음식","category":"restaurant"}]},{"lat":"37.205605972","long":"127.11365929","imageIndex":4,"items":[{"name":"무쏘","tel":"031-376-6988","addr":"경기도 화성시 영천동 704-2번지 1층","indutype":"일반휴게음식 - 일반한식","category":"restaurant"}]},{"lat":"37.204830553","long":"127.11422139","imageIndex":4,"items":[{"name":"문어스토리 해천 제2동탄점","tel":"031-000-0000","addr":"경기도 화성시 영천동 710-4번지 1층 전부호","indutype":"일반휴게음식 - 일반한식","category":"restaurant"}]},{"lat":"37.202912342","long":"127.12244153","imageIndex":4,"items":[{"name":"미구스타 (Megusta)","tel":"070-4897-9806","addr":"경기도 화성시 영천동 745-5번지 1층","indutype":"일반휴게음식 - 서양음식","category":"restaurant"}]},{"lat":"37.205164074","long":"127.11407544","imageIndex":4,"items":[{"name":"미방(동탄점)","tel":"","addr":"경기도 화성시 영천동 709-1번지 1층","indutype":"일반휴게음식 - 일반한식","category":"restaurant"}]},{"lat":"37.205219303","long":"127.11282514","imageIndex":4,"items":[{"name":"미스터오징어 동탄2신도시점","tel":"070-4038-5433","addr":"경기도 화성시 영천동 703-7번지 1층","indutype":"일반휴게음식 - 일식·회집","category":"restaurant"}]},{"lat":"37.207050946","long":"127.11005662","imageIndex":4,"items":[{"name":"미스터하노이","tel":"031-372-2626","addr":"경기도 화성시 영천동 678-3번지 106호","indutype":"일반휴게음식 - 서양음식","category":"restaurant"}]},{"lat":"37.206944813","long":"127.09711308","imageIndex":4,"items":[{"name":"박가네","tel":"031-372-7974","addr":"경기도 화성시 영천동 656-1번지 1층 일부호","indutype":"일반휴게음식 - 일반한식","category":"restaurant"}]},{"lat":"37.202861877","long":"127.12769062","imageIndex":4,"items":[{"name":"반반한 명태가 (동탄점)","tel":"031-375-0203","addr":"경기도 화성시 영천동 763-2번지","indutype":"일반휴게음식 - 일반한식","category":"restaurant"}]},{"lat":"37.206861484","long":"127.11032671","imageIndex":4,"items":[{"name":"백남옥달인손만두","tel":"031-378-8990","addr":"경기도 화성시 영천동 678-4번지 비젼프라자 1층 106호","indutype":"일반휴게음식 - 일반한식","category":"restaurant"},{"name":"파파존스피자 동탄2신도시점","tel":"031-372-7157","addr":"경기도 화성시 영천동 678-4번지 비젼프라자 203호","indutype":"일반휴게음식 - 서양음식","category":"restaurant"}]},{"lat":"37.202473908","long":"127.1281856","imageIndex":4,"items":[{"name":"백살공주","tel":"","addr":"경기도 화성시 영천동 765-7번지 1층 일부호","indutype":"일반휴게음식 - 서양음식","category":"restaurant"}]},{"lat":"37.207111448","long":"127.11286168","imageIndex":4,"items":[{"name":"백창우칼국수 동탄2지구점","tel":"031-372-7288","addr":"경기도 화성시 영천동 692-3번지","indutype":"일반휴게음식 - 일반한식","category":"restaurant"}]},{"lat":"37.207274644","long":"127.11176922","imageIndex":4,"items":[{"name":"백현낙지","tel":"","addr":"경기도 화성시 영천동 689-9번지 1층 일부호","indutype":"일반휴게음식 - 일반한식","category":"restaurant"},{"name":"황제 꼼쭈닭","tel":"070-4086-9222","addr":"경기도 화성시 영천동 689-9번지 1층 102호","indutype":"일반휴게음식 - 일반한식","category":"restaurant"}]},{"lat":"37.204109119","long":"127.12402044","imageIndex":4,"items":[{"name":"봉수아피자제2동탄점","tel":"031-376-1508","addr":"경기도 화성시 영천동 742-2번지 1층 101호","indutype":"일반휴게음식 - 서양음식","category":"restaurant"}]},{"lat":"37.206916826","long":"127.09830713","imageIndex":4,"items":[{"name":"봉이치킨","tel":"031-376-6575","addr":"경기도 화성시 영천동 658-2번지 1층 105호","indutype":"일반휴게음식 - 스넥","category":"restaurant"}]},{"lat":"37.203215435","long":"127.12562982","imageIndex":4,"items":[{"name":"봉투오리","tel":"031-372-3352","addr":"경기도 화성시 영천동 749-9번지 1층 전부호","indutype":"일반휴게음식 - 일반한식","category":"restaurant"}]},{"lat":"37.206412608","long":"127.0978559","imageIndex":4,"items":[{"name":"봉평진메밀막국수","tel":"031-373-1566","addr":"경기도 화성시 영천동 657-3번지","indutype":"일반휴게음식 - 일반한식","category":"restaurant"}]},{"lat":"37.206913304","long":"127.11277127","imageIndex":4,"items":[{"name":"블랙롱378","tel":"031-378-8334","addr":"경기도 화성시 영천동 692-5번지 101호","indutype":"일반휴게음식 - 중국식","category":"restaurant"}]},{"lat":"37.205913331","long":"127.11257832","imageIndex":4,"items":[{"name":"블랙울프","tel":"070-4274-4904","addr":"경기도 화성시 영천동 701-2번지 1층 전체호","indutype":"일반휴게음식 - 서양음식","category":"restaurant"}]},{"lat":"37.203244089","long":"127.12405285","imageIndex":4,"items":[{"name":"블레스롤","tel":"031-375-5954","addr":"경기도 화성시 영천동 743-1번지 1층","indutype":"일반휴게음식 - 서양음식","category":"restaurant"}]},{"lat":"37.208111609","long":"127.11285187","imageIndex":4,"items":[{"name":"비스트로 코랄","tel":"02-0000-0000","addr":"경기도 화성시 영천동 688-2번지 1층","indutype":"일반휴게음식 - 서양음식","category":"restaurant"}]},{"lat":"37.204357345","long":"127.10950085","imageIndex":4,"items":[{"name":"비에이치씨 영천점","tel":"031-376-9294","addr":"경기도 화성시 영천동 675-7번지 1층 102호","indutype":"일반휴게음식 - 일반한식","category":"restaurant"},{"name":"수변소담골","tel":"031-375-1200","addr":"경기도 화성시 영천동 675-7번지 2층 203호","indutype":"일반휴게음식 - 일반한식","category":"restaurant"},{"name":"퍼즈(PAUSE)","tel":"031-275-0562","addr":"경기도 화성시 영천동 675-7번지 베네치아 상가 101호","indutype":"일반휴게음식 - 일반한식","category":"restaurant"}]},{"lat":"37.207806586","long":"127.1114095","imageIndex":4,"items":[{"name":"비커밍무드","tel":"031-745-3645","addr":"경기도 화성시 영천동 686-1번지 101호","indutype":"일반휴게음식 - 일반한식","category":"restaurant"}]},{"lat":"37.208248475","long":"127.11099332","imageIndex":4,"items":[{"name":"빨강떡볶이","tel":"031-377-3449","addr":"경기도 화성시 영천동 682-3번지 1층","indutype":"일반휴게음식 - 스넥","category":"restaurant"}]},{"lat":"37.208139763","long":"127.11163528","imageIndex":4,"items":[{"name":"빨우광떡볶이","tel":"031-377-1248","addr":"경기도 화성시 영천동 685-4번지 1층 일부호","indutype":"일반휴게음식 - 스넥","category":"restaurant"}]},{"lat":"37.206192621","long":"127.11261252","imageIndex":4,"items":[{"name":"빽다방 동탄영천한백점","tel":"031-372-3070","addr":"경기도 화성시 영천동 700-1번지","indutype":"일반휴게음식 - 서양음식","category":"restaurant"}]},{"lat":"37.205859039","long":"127.11282607","imageIndex":4,"items":[{"name":"새마을식당","tel":"031-373-9287","addr":"경기도 화성시 영천동 701-4번지 1층","indutype":"일반휴게음식 - 일반한식","category":"restaurant"}]},{"lat":"37.203496322","long":"127.12410958","imageIndex":4,"items":[{"name":"샐러드 하우스","tel":"031-374-1005","addr":"경기도 화성시 영천동 742-6번지 1층","indutype":"일반휴게음식 - 서양음식","category":"restaurant"},{"name":"어라운드30","tel":"031-8043-9366","addr":"경기도 화성시 영천동 742-6번지 1층 103호","indutype":"일반휴게음식 - 서양음식","category":"restaurant"}]},{"lat":"37.202909943","long":"127.12479577","imageIndex":4,"items":[{"name":"섶","tel":"031-372-1533","addr":"경기도 화성시 영천동 750-3번지 1층","indutype":"일반휴게음식 - 서양음식","category":"restaurant"}]},{"lat":"37.205497373","long":"127.11416605","imageIndex":4,"items":[{"name":"셀렉토커피 동탄영천점","tel":"031-375-5758","addr":"경기도 화성시 영천동 704-12번지 1층 일부호","indutype":"일반휴게음식 - 서양음식","category":"restaurant"},{"name":"푸라닭 동탄영천점","tel":"031-376-9207","addr":"경기도 화성시 영천동 704-12번지 1층 일부 호","indutype":"일반휴게음식 - 스넥","category":"restaurant"}]},{"lat":"37.208138995","long":"127.11246889","imageIndex":4,"items":[{"name":"소소떡볶이 동탄2신도시점","tel":"031-372-6889","addr":"경기도 화성시 영천동 687-10번지 1층","indutype":"일반휴게음식 - 스넥","category":"restaurant"}]},{"lat":"37.206381452","long":"127.11302959","imageIndex":4,"items":[{"name":"소풍 스낵까페","tel":"070-4159-1004","addr":"경기도 화성시 영천동 699-2번지 1층","indutype":"일반휴게음식 - 스넥","category":"restaurant"},{"name":"수니열닭발","tel":"031-373-7710","addr":"경기도 화성시 영천동 699-2번지 103호","indutype":"일반휴게음식 - 일반한식","category":"restaurant"}]},{"lat":"37.208885078","long":"127.09321773","imageIndex":4,"items":[{"name":"손조오","tel":"031-376-7474","addr":"경기도 화성시 영천동 792-1번지 지1층,1층","indutype":"일반휴게음식 - 중국식","category":"restaurant"}]},{"lat":"37.20475045","long":"127.1131624","imageIndex":4,"items":[{"name":"송탄부대찌게","tel":"031-378-7998","addr":"경기도 화성시 영천동 711-3번지 1층","indutype":"일반휴게음식 - 일반한식","category":"restaurant"}]},{"lat":"37.21555303","long":"127.09285389","imageIndex":4,"items":[{"name":"수미네김밥&집밥","tel":"031-8014-2454","addr":"경기도 화성시 영천동 265-2번지 1층 117 일부호","indutype":"일반휴게음식 - 스넥","category":"restaurant"},{"name":"행복한푸드","tel":"","addr":"경기도 화성시 영천동 265-2번지 126호,127호,128호,129호","indutype":"일반휴게음식 - 일반한식","category":"restaurant"}]},{"lat":"37.207165928","long":"127.11241116","imageIndex":4,"items":[{"name":"순천회관","tel":"031-377-6911","addr":"경기도 화성시 영천동 691-5번지 1층","indutype":"일반휴게음식 - 일반한식","category":"restaurant"}]},{"lat":"37.208049815","long":"127.11146617","imageIndex":4,"items":[{"name":"쉼표 (it)","tel":"031-1111-1111","addr":"경기도 화성시 영천동 685-5번지 102호","indutype":"일반휴게음식 - 서양음식","category":"restaurant"}]},{"lat":"37.208833001","long":"127.11224459","imageIndex":4,"items":[{"name":"스시남","tel":"031-373-0048","addr":"경기도 화성시 영천동 683-4번지 1층","indutype":"일반휴게음식 - 일식·회집","category":"restaurant"}]},{"lat":"37.203885154","long":"127.1227472","imageIndex":4,"items":[{"name":"스케페(SKEPE)","tel":"02-000-0000","addr":"경기도 화성시 영천동 738-13번지 1층","indutype":"일반휴게음식 - 서양음식","category":"restaurant"}]},{"lat":"37.205579561","long":"127.11299464","imageIndex":4,"items":[{"name":"스쿨푸드 동탄2신도시점","tel":"031-373-0133","addr":"경기도 화성시 영천동 701-6번지 1층","indutype":"일반휴게음식 - 일반한식","category":"restaurant"}]},{"lat":"37.206945055","long":"127.09680893","imageIndex":4,"items":[{"name":"승하푸드무진장","tel":"031-373-7823","addr":"경기도 화성시 영천동 655-2번지 1층","indutype":"일반휴게음식 - 일반한식","category":"restaurant"}]},{"lat":"37.207219865","long":"127.11254642","imageIndex":4,"items":[{"name":"신단설렁탕","tel":"031-376-3703","addr":"경기도 화성시 영천동 691-4번지 1층","indutype":"일반휴게음식 - 일반한식","category":"restaurant"}]},{"lat":"37.207049333","long":"127.11182522","imageIndex":4,"items":[{"name":"신의주순대와쭈꾸미","tel":"031-378-7009","addr":"경기도 화성시 영천동 690-2번지 1층","indutype":"일반휴게음식 - 일반한식","category":"restaurant"}]},{"lat":"37.207770307","long":"127.11166854","imageIndex":4,"items":[{"name":"싸릿골","tel":"031-373-7680","addr":"경기도 화성시 영천동 686-5번지 1층","indutype":"일반휴게음식 - 일반한식","category":"restaurant"}]},{"lat":"37.214218","long":"127.09480133","imageIndex":4,"items":[{"name":"아이엠커피","tel":"02-6339-8773","addr":"경기도 화성시 영천동 151-1번지 더퍼스트타워 1층 123호의 일부호","indutype":"일반휴게음식 - 서양음식","category":"restaurant"},{"name":"에이(A)'CAFE(카페)","tel":"031-376-6938","addr":"경기도 화성시 영천동 151-1번지 127호","indutype":"일반휴게음식 - 서양음식","category":"restaurant"}]},{"lat":"37.208606917","long":"127.11313422","imageIndex":4,"items":[{"name":"아임바리스타","tel":"031-8003-0117","addr":"경기도 화성시 영천동 683-10번지 1층","indutype":"일반휴게음식 - 서양음식","category":"restaurant"}]},{"lat":"37.207941432","long":"127.11174764","imageIndex":4,"items":[{"name":"아임홈","tel":"","addr":"경기도 화성시 영천동 686-3번지 1층 전부호","indutype":"일반휴게음식 - 서양음식","category":"restaurant"}]},{"lat":"37.208830438","long":"127.09397243","imageIndex":4,"items":[{"name":"안성명가","tel":"031-373-0061","addr":"경기도 화성시 영천동 793-4번지 1층","indutype":"일반휴게음식 - 일반한식","category":"restaurant"},{"name":"조리고 동탄직영점","tel":"031-375-2888","addr":"경기도 화성시 영천동 793-3번지 1동 1층","indutype":"일반휴게음식 - 일반한식","category":"restaurant"}]},{"lat":"37.202942673","long":"127.12797236","imageIndex":4,"items":[{"name":"알바트로스(ALBATROSS)","tel":"031-376-4886","addr":"경기도 화성시 영천동 764-1번지 1층","indutype":"일반휴게음식 - 서양음식","category":"restaurant"}]},{"lat":"37.204831175","long":"127.11355678","imageIndex":4,"items":[{"name":"야한곱창동탄지점","tel":"031-372-1782","addr":"경기도 화성시 영천동 711-6번지 102호","indutype":"일반휴게음식 - 일반한식","category":"restaurant"},{"name":"양푼이","tel":"","addr":"경기도 화성시 영천동 711-6번지 101호","indutype":"일반휴게음식 - 일반한식","category":"restaurant"}]},{"lat":"37.202636095","long":"127.12818587","imageIndex":4,"items":[{"name":"양평해장국 중리 IC","tel":"031-373-8870","addr":"경기도 화성시 영천동 765-2번지 1층","indutype":"일반휴게음식 - 일반한식","category":"restaurant"}]},{"lat":"37.203856367","long":"127.12447062","imageIndex":4,"items":[{"name":"어부아들","tel":"031-373-1344","addr":"경기도 화성시 영천동 747-4번지 1층 일부 101호","indutype":"일반휴게음식 - 일반한식","category":"restaurant"}]},{"lat":"37.206804845","long":"127.11313159","imageIndex":4,"items":[{"name":"어사출또","tel":"031-111-1111","addr":"경기도 화성시 영천동 695-4번지 1층","indutype":"일반휴게음식 - 일식·회집","category":"restaurant"}]},{"lat":"37.206052364","long":"127.09764141","imageIndex":4,"items":[{"name":"어서옵쇼","tel":"","addr":"경기도 화성시 영천동 659-7번지 1층 전부호","indutype":"일반휴게음식 - 일식·회집","category":"restaurant"}]},{"lat":"37.203217575","long":"127.12354592","imageIndex":4,"items":[{"name":"얼리버드 북카페(Early Birds Book Cafe)","tel":"031-275-7341","addr":"경기도 화성시 영천동 744-8번지 1층","indutype":"일반휴게음식 - 서양음식","category":"restaurant"}]},{"lat":"37.208355608","long":"127.11207493","imageIndex":4,"items":[{"name":"엄나무병천순대","tel":"031-378-2844","addr":"경기도 화성시 영천동 684-9번지","indutype":"일반휴게음식 - 일반한식","category":"restaurant"}]},{"lat":"37.208886939","long":"127.11237985","imageIndex":4,"items":[{"name":"엉클족","tel":"031-376-8687","addr":"경기도 화성시 영천동 683-5번지 1층","indutype":"일반휴게음식 - 일반한식","category":"restaurant"}]},{"lat":"37.209520959","long":"127.09814142","imageIndex":4,"items":[{"name":"에스에이치타임스퀘어 한식부페","tel":"031-372-9582","addr":"경기도 화성시 영천동 442-2번지 에스에이치타임스퀘어 B1층 136호,137호,138호","indutype":"일반휴게음식 - 일반한식","category":"restaurant"},{"name":"전주옥숯불갈비(동탄본점)","tel":"031-376-4566","addr":"경기도 화성시 영천동 442-2번지 SH타임스퀘어 1층 128~131-1호","indutype":"일반휴게음식 - 일반한식","category":"restaurant"},{"name":"주식회사 인천생갈비 동탄테크노밸리","tel":"031-8077-4751","addr":"경기도 화성시 영천동 442-2번지 1층 128,129,130,131,131-1호","indutype":"일반휴게음식 - 일반한식","category":"restaurant"},{"name":"카페 라미떼 소셜랩(cafe LAMITTE social l","tel":"031-372-1197","addr":"경기도 화성시 영천동 442-2번지 SH TIME SQUARE l 1동 1층 138,139호","indutype":"일반휴게음식 - 서양음식","category":"restaurant"}]},{"lat":"37.205243901","long":"127.11541605","imageIndex":4,"items":[{"name":"에코반점","tel":"031-377-3577","addr":"경기도 화성시 영천동 708-4번지","indutype":"일반휴게음식 - 중국식","category":"restaurant"}]},{"lat":"37.207689369","long":"127.11149945","imageIndex":4,"items":[{"name":"엘리(Alley)","tel":"","addr":"경기도 화성시 영천동 686-6번지 101호","indutype":"일반휴게음식 - 일반한식","category":"restaurant"}]},{"lat":"37.206715794","long":"127.11199371","imageIndex":4,"items":[{"name":"엘리팝 동탄영천점","tel":"031-377-1280","addr":"경기도 화성시 영천동 693-2번지 1층 전부호","indutype":"일반휴게음식 - 주점","category":"restaurant"}]},{"lat":"37.204831365","long":"127.11335402","imageIndex":4,"items":[{"name":"연가수타해물짬뽕","tel":"031-8806-1222","addr":"경기도 화성시 영천동 711-4번지 1층","indutype":"일반휴게음식 - 중국식","category":"restaurant"}]},{"lat":"37.208353122","long":"127.0936677","imageIndex":4,"items":[{"name":"연제네","tel":"031-374-7758","addr":"경기도 화성시 영천동 795-4번지 1층","indutype":"일반휴게음식 - 서양음식","category":"restaurant"}]},{"lat":"37.20397334","long":"127.12462851","imageIndex":4,"items":[{"name":"영천누룽지통닭","tel":"031-324-7207","addr":"경기도 화성시 영천동 747-5번지 1층 일부호","indutype":"일반휴게음식 - 일반한식","category":"restaurant"}]},{"lat":"37.208778397","long":"127.1128303","imageIndex":4,"items":[{"name":"오월푸드","tel":"031-377-0842","addr":"경기도 화성시 영천동 683-8번지 1층 101호","indutype":"일반휴게음식 - 일반한식","category":"restaurant"}]},{"lat":"37.203416056","long":"127.12329841","imageIndex":4,"items":[{"name":"오페라 빈","tel":"031-377-4298","addr":"경기도 화성시 영천동 740-13번지 1층 101호","indutype":"일반휴게음식 - 서양음식","category":"restaurant"}]},{"lat":"37.207887525","long":"127.11157859","imageIndex":4,"items":[{"name":"오후를 여는 오븐","tel":"","addr":"경기도 화성시 영천동 686-2번지 103호","indutype":"일반휴게음식 - 서양음식","category":"restaurant"}]},{"lat":"37.208716074","long":"127.11201912","imageIndex":4,"items":[{"name":"올리앤 동탄2신도시점","tel":"031-373-6016","addr":"경기도 화성시 영천동 683-3번지 1층","indutype":"일반휴게음식 - 일반한식","category":"restaurant"}]},{"lat":"37.207473017","long":"127.11161179","imageIndex":4,"items":[{"name":"우리가 바라는 삼겹살","tel":"031-377-9533","addr":"경기도 화성시 영천동 689-3번지 1층 일부 101호","indutype":"일반휴게음식 - 일반한식","category":"restaurant"},{"name":"인계동껍데기동탄영천점","tel":"031-378-6374","addr":"경기도 화성시 영천동 689-3번지 102호","indutype":"일반휴게음식 - 일반한식","category":"restaurant"}]},{"lat":"37.207409561","long":"127.1120285","imageIndex":4,"items":[{"name":"우인스시","tel":"031-378-0342","addr":"경기도 화성시 영천동 689-7번지 1층 전부호","indutype":"일반휴게음식 - 일식·회집","category":"restaurant"},{"name":"헤이쥬드","tel":"02-1234-1234","addr":"경기도 화성시 영천동 689-7번지 지1층 일부호","indutype":"일반휴게음식 - 일반한식","category":"restaurant"}]},{"lat":"37.2052717","long":"127.11460504","imageIndex":4,"items":[{"name":"워낭소리","tel":"031-375-7895","addr":"경기도 화성시 영천동 709-4번지 1층","indutype":"일반휴게음식 - 일반한식","category":"restaurant"}]},{"lat":"37.206277452","long":"127.09785573","imageIndex":4,"items":[{"name":"워아이니","tel":"070-4694-1103","addr":"경기도 화성시 영천동 657-4번지 1층","indutype":"일반휴게음식 - 중국식","category":"restaurant"}]},{"lat":"37.207662647","long":"127.11116146","imageIndex":4,"items":[{"name":"월천삼계탕 동탄2신도시점","tel":"031-377-0725","addr":"경기도 화성시 영천동 685-7번지","indutype":"일반휴게음식 - 일반한식","category":"restaurant"},{"name":"정이가는 쪽갈비","tel":"031-372-3732","addr":"경기도 화성시 영천동 685-7번지 102호","indutype":"일반휴게음식 - 일반한식","category":"restaurant"}]},{"lat":"37.205634062","long":"127.1125216","imageIndex":4,"items":[{"name":"위디자인하우스카페","tel":"031-373-2070","addr":"경기도 화성시 영천동 701-7번지 101호","indutype":"일반휴게음식 - 서양음식","category":"restaurant"}]},{"lat":"37.206048747","long":"127.1122969","imageIndex":4,"items":[{"name":"유자카야","tel":"031-111-1111","addr":"경기도 화성시 영천동 700-3번지 1층 일부 101호","indutype":"일반휴게음식 - 일식·회집","category":"restaurant"}]},{"lat":"37.20796811","long":"127.11213069","imageIndex":4,"items":[{"name":"육감만족","tel":"031-377-9212","addr":"경기도 화성시 영천동 687-12번지 1층","indutype":"일반휴게음식 - 일반한식","category":"restaurant"}]},{"lat":"37.205110686","long":"127.11335442","imageIndex":4,"items":[{"name":"육풍 동탄2신도시점","tel":"031-377-6692","addr":"경기도 화성시 영천동 703-3번지 1층","indutype":"일반휴게음식 - 일반한식","category":"restaurant"}]},{"lat":"37.208104587","long":"127.11068896","imageIndex":4,"items":[{"name":"이디야 커피","tel":"031-373-5558","addr":"경기도 화성시 영천동 682-1번지 1층","indutype":"일반휴게음식 - 서양음식","category":"restaurant"}]},{"lat":"37.207160892","long":"127.09732738","imageIndex":4,"items":[{"name":"이디야커피","tel":"031-000-0000","addr":"경기도 화성시 영천동 654-5번지 1층","indutype":"일반휴게음식 - 서양음식","category":"restaurant"}]},{"lat":"37.206327526","long":"127.11288307","imageIndex":4,"items":[{"name":"이차돌 화성영천점","tel":"031-111-1111","addr":"경기도 화성시 영천동 699-1번지","indutype":"일반휴게음식 - 일반한식","category":"restaurant"}]},{"lat":"37.207301083","long":"127.11241136","imageIndex":4,"items":[{"name":"이춘봉인생치킨 동탄영천점","tel":"031-372-7872","addr":"경기도 화성시 영천동 691-1번지","indutype":"일반휴게음식 - 일반한식","category":"restaurant"}]},{"lat":"37.205417656","long":"127.11269025","imageIndex":4,"items":[{"name":"이화수전통육개장 동탄영천점","tel":"031-373-2533","addr":"경기도 화성시 영천동 701-9번지 1층","indutype":"일반휴게음식 - 일반한식","category":"restaurant"}]},{"lat":"37.205967778","long":"127.11216161","imageIndex":4,"items":[{"name":"임마누엘","tel":"02-1111-1111","addr":"경기도 화성시 영천동 700-4번지 102호","indutype":"일반휴게음식 - 서양음식","category":"restaurant"}]},{"lat":"37.205967268","long":"127.11271358","imageIndex":4,"items":[{"name":"임실N치즈피자","tel":"031-378-0092","addr":"경기도 화성시 영천동 701-3번지 101호","indutype":"일반휴게음식 - 서양음식","category":"restaurant"}]},{"lat":"37.202803796","long":"127.12285813","imageIndex":4,"items":[{"name":"자연담은밥상","tel":"031-378-3030","addr":"경기도 화성시 영천동 745-7번지 1층 일부호","indutype":"일반휴게음식 - 일반한식","category":"restaurant"}]},{"lat":"37.206137889","long":"127.11333339","imageIndex":4,"items":[{"name":"장미남식당","tel":"031-372-8933","addr":"경기도 화성시 영천동 702-2번지 1층","indutype":"일반휴게음식 - 일반한식","category":"restaurant"}]},{"lat":"37.208193338","long":"127.11216481","imageIndex":4,"items":[{"name":"잭아저씨족발 동탄","tel":"031-375-5779","addr":"경기도 화성시 영천동 687-2번지","indutype":"일반휴게음식 - 일반한식","category":"restaurant"}]},{"lat":"37.206278287","long":"127.0968081","imageIndex":4,"items":[{"name":"정성이 가득찬 집밥","tel":"","addr":"경기도 화성시 영천동 655-7번지 1층 101호","indutype":"일반휴게음식 - 일반한식","category":"restaurant"}]},{"lat":"37.202833318","long":"127.1291324","imageIndex":4,"items":[{"name":"제이 포레스트","tel":"031-372-8682","addr":"경기도 화성시 영천동 769-3번지 1층","indutype":"일반휴게음식 - 서양음식","category":"restaurant"}]},{"lat":"37.204272235","long":"127.12310828","imageIndex":4,"items":[{"name":"제이부띠 동탄점","tel":"","addr":"경기도 화성시 영천동 738-10번지","indutype":"일반휴게음식 - 서양음식","category":"restaurant"}]},{"lat":"37.206052121","long":"127.09794556","imageIndex":4,"items":[{"name":"제주둘레국수 동탄점","tel":"031-373-8745","addr":"경기도 화성시 영천동 659-9번지","indutype":"일반휴게음식 - 일반한식","category":"restaurant"}]},{"lat":"37.207418041","long":"127.11260303","imageIndex":4,"items":[{"name":"조가네갑오징어(동탄점)","tel":"031-376-2520","addr":"경기도 화성시 영천동 691-2번지 1층","indutype":"일반휴게음식 - 일반한식","category":"restaurant"}]},{"lat":"37.208659561","long":"127.09355541","imageIndex":4,"items":[{"name":"조선평양냉면","tel":"031-666-6384","addr":"경기도 화성시 영천동 794-1번지 1동 1층","indutype":"일반휴게음식 - 일반한식","category":"restaurant"}]},{"lat":"37.206607566","long":"127.1121062","imageIndex":4,"items":[{"name":"종로맥가 동탄1호점","tel":"031-223-5203","addr":"경기도 화성시 영천동 693-5번지 101호","indutype":"일반휴게음식 - 일반한식","category":"restaurant"}]},{"lat":"37.208167053","long":"127.11135369","imageIndex":4,"items":[{"name":"좋은날","tel":"031-372-5821","addr":"경기도 화성시 영천동 685-2번지","indutype":"일반휴게음식 - 일반한식","category":"restaurant"}]},{"lat":"37.206437864","long":"127.11047256","imageIndex":4,"items":[{"name":"쥬씨 동탄영천점","tel":"","addr":"경기도 화성시 영천동 678-5번지 대성메디컬프라자 1층 111호","indutype":"일반휴게음식 - 서양음식","category":"restaurant"}]},{"lat":"37.206800144","long":"127.09774373","imageIndex":4,"items":[{"name":"쭌's수제돈까스","tel":"031-376-3150","addr":"경기도 화성시 영천동 657-1번지 1동 1층 109,110호","indutype":"일반휴게음식 - 서양음식","category":"restaurant"},{"name":"화우소","tel":"","addr":"경기도 화성시 영천동 657-1번지 영천주차타워 1층 121호","indutype":"일반휴게음식 - 일반한식","category":"restaurant"}]},{"lat":"37.206246097","long":"127.11324343","imageIndex":4,"items":[{"name":"찐공이간식방","tel":"031-373-3457","addr":"경기도 화성시 영천동 702-1번지 1층 일부호","indutype":"일반휴게음식 - 일반한식","category":"restaurant"}]},{"lat":"37.202806107","long":"127.12930132","imageIndex":4,"items":[{"name":"차마당","tel":"031-1111-1111","addr":"경기도 화성시 영천동 769-4번지 102호,103호","indutype":"일반휴게음식 - 서양음식","category":"restaurant"}]},{"lat":"37.204556871","long":"127.10804801","imageIndex":4,"items":[{"name":"참나무본가","tel":"031-372-7869","addr":"경기도 화성시 영천동 675-2번지 104,105,106호","indutype":"일반휴게음식 - 일반한식","category":"restaurant"},{"name":"치어스동탄수변공원점","tel":"031-373-6309","addr":"경기도 화성시 영천동 675-2번지 B01,02호","indutype":"일반휴게음식 - 서양음식","category":"restaurant"}]},{"lat":"37.208076308","long":"127.11205199","imageIndex":4,"items":[{"name":"참치이찌방","tel":"070-4588-5788","addr":"경기도 화성시 영천동 687-1번지 103호","indutype":"일반휴게음식 - 일식·회집","category":"restaurant"}]},{"lat":"37.205000332","long":"127.11571983","imageIndex":4,"items":[{"name":"채운","tel":"","addr":"경기도 화성시 영천동 707-5번지 2층 201호","indutype":"일반휴게음식 - 일반한식","category":"restaurant"}]},{"lat":"37.20827466","long":"127.1119171","imageIndex":4,"items":[{"name":"처갓집 양념치킨 동탄2점","tel":"031-378-6644","addr":"경기도 화성시 영천동 684-10번지 103호","indutype":"일반휴게음식 - 스넥","category":"restaurant"}]},{"lat":"37.206165161","long":"127.11307434","imageIndex":4,"items":[{"name":"천지감자탕","tel":"031-378-2230","addr":"경기도 화성시 영천동 702-10번지","indutype":"일반휴게음식 - 일반한식","category":"restaurant"}]},{"lat":"37.20735612","long":"127.11135253","imageIndex":4,"items":[{"name":"청춘집","tel":"","addr":"경기도 화성시 영천동 689-1번지 101호","indutype":"일반휴게음식 - 일반한식","category":"restaurant"},{"name":"커피에반하다","tel":"031-372-0555","addr":"경기도 화성시 영천동 689-1번지 1층","indutype":"일반휴게음식 - 서양음식","category":"restaurant"}]},{"lat":"37.206967209","long":"127.11294033","imageIndex":4,"items":[{"name":"최고집손짬뽕","tel":"031-372-8846","addr":"경기도 화성시 영천동 692-4번지 1층","indutype":"일반휴게음식 - 중국식","category":"restaurant"}]},{"lat":"37.205496384","long":"127.11521366","imageIndex":4,"items":[{"name":"최씨고집삼계탕","tel":"","addr":"경기도 화성시 영천동 708-2번지 1층 일부호","indutype":"일반휴게음식 - 일반한식","category":"restaurant"}]},{"lat":"37.206661857","long":"127.11185845","imageIndex":4,"items":[{"name":"치요","tel":"031-372-9958","addr":"경기도 화성시 영천동 693-1번지","indutype":"일반휴게음식 - 일식·회집","category":"restaurant"}]},{"lat":"37.216913412","long":"127.11427294","imageIndex":4,"items":[{"name":"치킨점","tel":"","addr":"경기도 화성시 영천동 651-608번지 동탄2엘에이치1단지,에이6블록 상가동 1층 103호","indutype":"일반휴게음식 - 스넥","category":"restaurant"}]},{"lat":"37.203414581","long":"127.12474026","imageIndex":4,"items":[{"name":"카나에루","tel":"","addr":"경기도 화성시 영천동 749-14번지 1층","indutype":"일반휴게음식 - 서양음식","category":"restaurant"}]},{"lat":"37.209472382","long":"127.09105549","imageIndex":4,"items":[{"name":"카페 달","tel":"031-371-7266","addr":"경기도 화성시 영천동 358-84번지 1층 105호","indutype":"일반휴게음식 - 서양음식","category":"restaurant"}]},{"lat":"37.208247192","long":"127.11239019","imageIndex":4,"items":[{"name":"카페 보름달","tel":"031-8003-7879","addr":"경기도 화성시 영천동 687-3번지","indutype":"일반휴게음식 - 서양음식","category":"restaurant"}]},{"lat":"37.205138356","long":"127.11266732","imageIndex":4,"items":[{"name":"카페골든웨이브","tel":"031-375-1121","addr":"경기도 화성시 영천동 703-8번지 1층","indutype":"일반휴게음식 - 서양음식","category":"restaurant"}]},{"lat":"37.202993968","long":"127.12191223","imageIndex":4,"items":[{"name":"카페앤갤러리그라퍼","tel":"031-374-3966","addr":"경기도 화성시 영천동 745-2번지 1층","indutype":"일반휴게음식 - 서양음식","category":"restaurant"}]},{"lat":"37.205551149","long":"127.11447027","imageIndex":4,"items":[{"name":"카페피노","tel":"070-4112-3322","addr":"경기도 화성시 영천동 704-10번지 1층","indutype":"일반휴게음식 - 서양음식","category":"restaurant"}]},{"lat":"37.212247207","long":"127.11302685","imageIndex":4,"items":[{"name":"커피베이 동탄파크자이점","tel":"","addr":"경기도 화성시 영천동 651-1372번지 동탄파크자이 상가동 지하 2층 12호","indutype":"일반휴게음식 - 서양음식","category":"restaurant"}]},{"lat":"37.203576501","long":"127.1249996","imageIndex":4,"items":[{"name":"커피스미스드래프트동탄중리점","tel":"","addr":"경기도 화성시 영천동 749-2번지 1층","indutype":"일반휴게음식 - 서양음식","category":"restaurant"}]},{"lat":"37.211079914","long":"127.0979406","imageIndex":4,"items":[{"name":"커피에반하다(동탄센테라타워점)","tel":"031-7533-7733","addr":"경기도 화성시 영천동 392번지 동탄역센테라아이티타워 1층 101호","indutype":"일반휴게음식 - 서양음식","category":"restaurant"}]},{"lat":"37.208911851","long":"127.09355572","imageIndex":4,"items":[{"name":"커피하우스401","tel":"031-376-8599","addr":"경기도 화성시 영천동 793-1번지 1동 1층 일부호","indutype":"일반휴게음식 - 서양음식","category":"restaurant"}]},{"lat":"37.202749403","long":"127.12318471","imageIndex":4,"items":[{"name":"크림스","tel":"031-987-8809","addr":"경기도 화성시 영천동 745-9번지 1층 전부호","indutype":"일반휴게음식 - 서양음식","category":"restaurant"}]},{"lat":"37.202938334","long":"127.12346662","imageIndex":4,"items":[{"name":"타샤의 그림정원","tel":"031-372-7133","addr":"경기도 화성시 영천동 744-6번지 1층 전부호","indutype":"일반휴게음식 - 서양음식","category":"restaurant"}]},{"lat":"37.207160775","long":"127.09747383","imageIndex":4,"items":[{"name":"탑골순대국","tel":"031-373-1319","addr":"경기도 화성시 영천동 654-6번지 1층 전부호","indutype":"일반휴게음식 - 일반한식","category":"restaurant"}]},{"lat":"37.20577662","long":"127.11424531","imageIndex":4,"items":[{"name":"택이네 조개전골&칼국수","tel":"031-376-5548","addr":"경기도 화성시 영천동 704-5번지 1층 전체호","indutype":"일반휴게음식 - 일반한식","category":"restaurant"}]},{"lat":"37.203498107","long":"127.12235233","imageIndex":4,"items":[{"name":"테판유","tel":"031-372-2162","addr":"경기도 화성시 영천동 739-7번지 1층","indutype":"일반휴게음식 - 일식·회집","category":"restaurant"}]},{"lat":"37.208857729","long":"127.09363451","imageIndex":4,"items":[{"name":"토리마루","tel":"031-377-6680","addr":"경기도 화성시 영천동 793-2번지","indutype":"일반휴게음식 - 일반한식","category":"restaurant"}]},{"lat":"37.203774648","long":"127.12507877","imageIndex":4,"items":[{"name":"투썸플레이스화성동탄중리점","tel":"031-377-2384","addr":"경기도 화성시 영천동 747-8번지","indutype":"일반휴게음식 - 서양음식","category":"restaurant"}]},{"lat":"37.20605508","long":"127.11515817","imageIndex":4,"items":[{"name":"피자알볼로동탄2호점","tel":"031-375-8495","addr":"경기도 화성시 영천동 706-2번지 1층 일부호","indutype":"일반휴게음식 - 일반한식","category":"restaurant"}]},{"lat":"37.206055582","long":"127.09352977","imageIndex":4,"items":[{"name":"픽(pig)미(  )","tel":"","addr":"경기도 화성시 영천동 804-2번지 1층","indutype":"일반휴게음식 - 일반한식","category":"restaurant"}]},{"lat":"37.207161062","long":"127.09711335","imageIndex":4,"items":[{"name":"하남돼지집 동탄영천점","tel":"031-376-1955","addr":"경기도 화성시 영천동 654-4번지 1층","indutype":"일반휴게음식 - 일반한식","category":"restaurant"}]},{"lat":"37.205524277","long":"127.11430126","imageIndex":4,"items":[{"name":"하찌야 참치","tel":"031-374-3580","addr":"경기도 화성시 영천동 704-11번지 1층 전부호","indutype":"일반휴게음식 - 일식·회집","category":"restaurant"}]},{"lat":"37.211050409","long":"127.08941256","imageIndex":4,"items":[{"name":"한마음식당","tel":"","addr":"경기도 화성시 영천동 290-2번지","indutype":"일반휴게음식 - 일반한식","category":"restaurant"}]},{"lat":"37.207940642","long":"127.11260379","imageIndex":4,"items":[{"name":"한마음정육식당 동탄1호점","tel":"031-373-2252","addr":"경기도 화성시 영천동 688-1번지 1층 전체호","indutype":"일반휴게음식 - 일반한식","category":"restaurant"}]},{"lat":"37.214583595","long":"127.09961238","imageIndex":4,"items":[{"name":"함바라지","tel":"031-376-3288","addr":"경기도 화성시 영천동 99-2번지 동탄IT밸리 지식산업센터 1층 101~06,101-1~106-1호","indutype":"일반휴게음식 - 일반한식","category":"restaurant"}]},{"lat":"37.205750391","long":"127.11338915","imageIndex":4,"items":[{"name":"항방양육관","tel":"031-372-2838","addr":"경기도 화성시 영천동 702-6번지","indutype":"일반휴게음식 - 일반한식","category":"restaurant"}]},{"lat":"37.206409213","long":"127.1122411","imageIndex":4,"items":[{"name":"항아리보쌈","tel":"031-377-1697","addr":"경기도 화성시 영천동 694-2번지","indutype":"일반휴게음식 - 일반한식","category":"restaurant"}]},{"lat":"37.206995064","long":"127.11205044","imageIndex":4,"items":[{"name":"행복한 초밥 행초 동탄직영점","tel":"031-377-3779","addr":"경기도 화성시 영천동 690-4번지 1층 101호코너자리","indutype":"일반휴게음식 - 일식·회집","category":"restaurant"},{"name":"호식이두마리치킨동탄2신도시영천점","tel":"031-372-7274","addr":"경기도 화성시 영천동 690-4번지 102호","indutype":"일반휴게음식 - 스넥","category":"restaurant"}]},{"lat":"37.208526441","long":"127.11246945","imageIndex":4,"items":[{"name":"헬로통큰삼겹(2동탄점)","tel":"031-373-8886","addr":"경기도 화성시 영천동 684-7번지 1층 일부호","indutype":"일반휴게음식 - 일반한식","category":"restaurant"}]},{"lat":"37.205217946","long":"127.11427828","imageIndex":4,"items":[{"name":"화민식당","tel":"031-376-9965","addr":"경기도 화성시 영천동 709-2번지 1층","indutype":"일반휴게음식 - 일반한식","category":"restaurant"}]},{"lat":"37.205387215","long":"127.1064721","imageIndex":4,"items":[{"name":"화성시니어클럽 노노카페 동탄1호 공원점","tel":"031-8059-4349","addr":"경기도 화성시 영천동 670-2번지 1층","indutype":"일반휴게음식 - 서양음식","category":"restaurant"}]},{"lat":"37.211303475","long":"127.11996507","imageIndex":4,"items":[{"name":"화성시니어클럽 노노카페 동탄행복마을푸르","tel":"031-8059-4348","addr":"경기도 화성시 영천동 718번지 동탄행복마을푸르지오 지2층 B201호","indutype":"일반휴게음식 - 서양음식","category":"restaurant"}]},{"lat":"37.207328603","long":"127.11188194","imageIndex":4,"items":[{"name":"황금손유쾌한회세꼬시","tel":"031-376-7702","addr":"경기도 화성시 영천동 689-8번지 1동 1층","indutype":"일반휴게음식 - 일반한식","category":"restaurant"}]},{"lat":"37.202691201","long":"127.12719471","imageIndex":4,"items":[{"name":"황재옥본가곰탕설렁탕","tel":"031-376-1088","addr":"경기도 화성시 영천동 757-3번지 1층 전부호","indutype":"일반휴게음식 - 일반한식","category":"restaurant"}]},{"lat":"37.206304149","long":"127.09827256","imageIndex":4,"items":[{"name":"회먹고싶은날에","tel":"031-376-3321","addr":"경기도 화성시 영천동 658-5번지 104,105-1,105-2호","indutype":"일반휴게음식 - 일식·회집","category":"restaurant"}]}]