[{"lat":"37.636385765","long":"126.87467805","imageIndex":0,"items":[{"name":"(주) 리너지","tel":"","addr":"경기도 고양시 덕양구 원흥동 737-3번지","indutype":"자동차정비 유지 - 자동차부품","category":"car"}]},{"lat":"37.636718791","long":"126.87437158","imageIndex":0,"items":[{"name":"네비스토리","tel":"031-965-8812","addr":"경기도 고양시 덕양구 원흥동","indutype":"자동차정비 유지 - 자동차부품","category":"car"}]},{"lat":"37.653911196","long":"126.87612109","imageIndex":0,"items":[{"name":"덴트하우스 원흥점","tel":"031-968-5152","addr":"경기도 고양시 덕양구 원흥동 651-2번지","indutype":"자동차정비 유지 - 카인테리어","category":"car"}]},{"lat":"37.653550834","long":"126.87614437","imageIndex":0,"items":[{"name":"루마썬팅 (원흥점)","tel":"031-818-6309","addr":"경기도 고양시 덕양구 원흥동 652-1번지","indutype":"자동차정비 유지 - 카인테리어","category":"car"}]},{"lat":"37.649603692","long":"126.87531255","imageIndex":0,"items":[{"name":"반도스퀘어관리단","tel":"02-0000-0000","addr":"경기도 고양시 덕양구 원흥동 629-1번지","indutype":"자동차정비 유지 - 주차장","category":"car"}]},{"lat":"37.635519522","long":"126.87347863","imageIndex":0,"items":[{"name":"성원모터스","tel":"031-966-7793","addr":"경기도 고양시 덕양구 원흥동 744-1번지","indutype":"자동차정비 유지 - 자동차정비","category":"car"}]},{"lat":"37.65299295","long":"126.8768139","imageIndex":0,"items":[{"name":"스플랜도르 디테일링 센터","tel":"031-967-0990","addr":"경기도 고양시 덕양구 원흥동 657-14번지","indutype":"자동차정비 유지 - 카인테리어","category":"car"}]},{"lat":"37.65340674","long":"126.87620127","imageIndex":0,"items":[{"name":"엔진프로 원흥점","tel":"031-971-8861","addr":"경기도 고양시 덕양구 원흥동 652-2번지","indutype":"자동차정비 유지 - 자동차정비","category":"car"}]},{"lat":"37.653404709","long":"126.88287583","imageIndex":0,"items":[{"name":"올인원카","tel":"031-968-5689","addr":"경기도 고양시 덕양구 원흥동 677번지 삼송마을엘에이치16단지","indutype":"자동차정비 유지 - 세차장","category":"car"}]},{"lat":"37.649800612","long":"126.87412241","imageIndex":0,"items":[{"name":"원흥역 봄오피스텔 관리사무소","tel":"031-964-4630","addr":"경기도 고양시 덕양구 원흥동 627번지","indutype":"자동차정비 유지 - 주차장","category":"car"}]},{"lat":"37.65074617","long":"126.87370151","imageIndex":0,"items":[{"name":"원흥역 주차장","tel":"","addr":"경기도 고양시 덕양구 원흥동 569-15번지","indutype":"자동차정비 유지 - 주차장","category":"car"}]},{"lat":"37.636799606","long":"126.87412219","imageIndex":0,"items":[{"name":"자동차마을","tel":"031-965-9669","addr":"경기도 고양시 덕양구 원흥동 733번지","indutype":"자동차정비 유지 - 자동차정비","category":"car"}]},{"lat":"37.635330679","long":"126.8738075","imageIndex":0,"items":[{"name":"제이앤에이","tel":"031-967-0051","addr":"경기도 고양시 덕양구 원흥동 746번지","indutype":"자동차정비 유지 - 자동차부품","category":"car"}]},{"lat":"37.64916164","long":"126.87478073","imageIndex":0,"items":[{"name":"주식회사 유현디엔씨 일산지점","tel":"031-965-0117","addr":"경기도 고양시 덕양구 원흥동 631번지","indutype":"자동차정비 유지 - 주차장","category":"car"},{"name":"퍼펙트카케어 덕양원흥본점","tel":"","addr":"경기도 고양시 덕양구 원흥동 631번지","indutype":"자동차정비 유지 - 세차장","category":"car"},{"name":"퍼펙트카케어덕양원흥본점","tel":"031-963-7679","addr":"경기도 고양시 덕양구 원흥동 631번지","indutype":"자동차정비 유지 - 자동차정비","category":"car"}]},{"lat":"37.652380135","long":"126.87666762","imageIndex":0,"items":[{"name":"카케어매니아(car care mania)","tel":"031-655-2337","addr":"경기도 고양시 덕양구 원흥동 654-8번지","indutype":"자동차정비 유지 - 세차장","category":"car"}]},{"lat":"37.635943165","long":"126.87364783","imageIndex":0,"items":[{"name":"하이원모터스","tel":"","addr":"경기도 고양시 덕양구 원흥동 741번지","indutype":"자동차정비 유지 - 자동차정비","category":"car"}]},{"lat":"37.649684361","long":"126.87492714","imageIndex":0,"items":[{"name":"한일골드타워 관리단","tel":"02-0000-0000","addr":"경기도 고양시 덕양구 원흥동 629번지","indutype":"자동차정비 유지 - 주차장","category":"car"}]}]