[{"lat":"37.682567787","long":"126.77745662","imageIndex":13,"items":[{"name":"(주)마노모스","tel":"070-8837-1002","addr":"경기도 고양시 일산서구 일산동 1673-7번지","indutype":"보건위생 - 안경","category":"beauty"}]},{"lat":"37.676408311","long":"126.76978979","imageIndex":13,"items":[{"name":"21세기헤어","tel":"031-815-3335","addr":"경기도 고양시 일산서구 일산동 1088번지","indutype":"보건위생 - 미용원","category":"beauty"},{"name":"헤어살롱쓰담","tel":"031-111-1111","addr":"경기도 고양시 일산서구 일산동 1088번지","indutype":"보건위생 - 미용원","category":"beauty"}]},{"lat":"37.677263414","long":"126.76937904","imageIndex":13,"items":[{"name":"EJ헤어","tel":"031-921-7792","addr":"경기도 고양시 일산서구 일산동 1081번지","indutype":"보건위생 - 미용원","category":"beauty"},{"name":"J.J헤어","tel":"031-925-0471","addr":"경기도 고양시 일산서구 일산동 1081번지","indutype":"보건위생 - 미용원","category":"beauty"}]},{"lat":"37.687017813","long":"126.76785196","imageIndex":13,"items":[{"name":"S.Q.Hair(에스큐헤어)","tel":"031-911-7298","addr":"경기도 고양시 일산서구 일산동 963-12번지","indutype":"보건위생 - 미용원","category":"beauty"}]},{"lat":"37.68342863","long":"126.77070876","imageIndex":13,"items":[{"name":"가위공작소","tel":"","addr":"경기도 고양시 일산서구 일산동 627-14번지","indutype":"보건위생 - 미용재료","category":"beauty"}]},{"lat":"37.69006779","long":"126.77023456","imageIndex":13,"items":[{"name":"가위이야기","tel":"070-8688-2374","addr":"경기도 고양시 일산서구 일산동 2012번지","indutype":"보건위생 - 미용재료","category":"beauty"},{"name":"네일_맑음","tel":"031-916-7933","addr":"경기도 고양시 일산서구 일산동 2012번지","indutype":"보건위생 - 피부미용실","category":"beauty"},{"name":"러블리헤어","tel":"031-913-5413","addr":"경기도 고양시 일산서구 일산동 2012번지","indutype":"보건위생 - 미용원","category":"beauty"},{"name":"옹이네일","tel":"031-917-1119","addr":"경기도 고양시 일산서구 일산동 2012번지","indutype":"보건위생 - 피부미용실","category":"beauty"},{"name":"헤어샵케이투(K2)","tel":"","addr":"경기도 고양시 일산서구 일산동 2012번지","indutype":"보건위생 - 미용원","category":"beauty"}]},{"lat":"37.686131078","long":"126.77048494","imageIndex":13,"items":[{"name":"거꾸로가는가위1080헤어","tel":"031-915-9882","addr":"경기도 고양시 일산서구 일산동 615-3번지","indutype":"보건위생 - 미용원","category":"beauty"}]},{"lat":"37.681187081","long":"126.76709949","imageIndex":13,"items":[{"name":"고양위드맘케어","tel":"","addr":"경기도 고양시 일산서구 일산동 1069번지","indutype":"보건위생 - 기타대인서비스","category":"beauty"},{"name":"매직헤어","tel":"031-919-9848","addr":"경기도 고양시 일산서구 일산동 1069번지","indutype":"보건위생 - 미용원","category":"beauty"},{"name":"현대미용타운","tel":"031-914-3315","addr":"경기도 고양시 일산서구 일산동","indutype":"보건위생 - 미용원","category":"beauty"}]},{"lat":"37.676268642","long":"126.7675118","imageIndex":13,"items":[{"name":"고추잠자리헤어샵","tel":"031-917-4177","addr":"경기도 고양시 일산서구 일산동","indutype":"보건위생 - 미용원","category":"beauty"},{"name":"로이헤어","tel":"031-968-9991","addr":"경기도 고양시 일산서구 일산동 1086번지","indutype":"보건위생 - 미용원","category":"beauty"},{"name":"선희야머리하자","tel":"031-917-4931","addr":"경기도 고양시 일산서구 일산동","indutype":"보건위생 - 미용원","category":"beauty"}]},{"lat":"37.683713803","long":"126.77371208","imageIndex":13,"items":[{"name":"광흥사","tel":"031-975-2160","addr":"경기도 고양시 일산서구 일산동 641-35번지","indutype":"보건위생 - 미용재료","category":"beauty"}]},{"lat":"37.68820777","long":"126.77276859","imageIndex":13,"items":[{"name":"귀빈화장품","tel":"031-976-4990","addr":"경기도 고양시 일산서구 일산동 584-31번지","indutype":"보건위생 - 화장품","category":"beauty"}]},{"lat":"37.678211056","long":"126.76568061","imageIndex":13,"items":[{"name":"글라스스토리(후곡점)","tel":"031-916-6541","addr":"경기도 고양시 일산서구 일산동 1061-5번지","indutype":"보건위생 - 안경","category":"beauty"},{"name":"커트클럽","tel":"031-911-1138","addr":"경기도 고양시 일산서구 일산동 1061-5번지","indutype":"보건위생 - 미용원","category":"beauty"}]},{"lat":"37.682101946","long":"126.77415915","imageIndex":13,"items":[{"name":"김미화미용실","tel":"031-975-1390","addr":"경기도 고양시 일산서구 일산동 652-1번지","indutype":"보건위생 - 미용원","category":"beauty"}]},{"lat":"37.686595477","long":"126.77298898","imageIndex":13,"items":[{"name":"김영수헤어컬렉션","tel":"031-975-2854","addr":"경기도 고양시 일산서구 일산동 592-50번지","indutype":"보건위생 - 미용원","category":"beauty"}]},{"lat":"37.682682477","long":"126.7761866","imageIndex":13,"items":[{"name":"김태희헤어샵","tel":"031-975-1005","addr":"경기도 고양시 일산서구 일산동 525-16번지","indutype":"보건위생 - 미용원","category":"beauty"},{"name":"스킨케어하우스","tel":"031-976-1137","addr":"경기도 고양시 일산서구 일산동 525-16번지","indutype":"보건위생 - 피부미용실","category":"beauty"}]},{"lat":"37.677658843","long":"126.76437876","imageIndex":13,"items":[{"name":"김현헤어","tel":"031-919-3457","addr":"경기도 고양시 일산서구 일산동 1058번지","indutype":"보건위생 - 미용원","category":"beauty"},{"name":"우주희미용실","tel":"031-917-6757","addr":"경기도 고양시 일산서구 일산동","indutype":"보건위생 - 미용원","category":"beauty"}]},{"lat":"37.683656839","long":"126.77687516","imageIndex":13,"items":[{"name":"까까 보까!","tel":"031-975-4613","addr":"경기도 고양시 일산서구 일산동 1686번지 산들마을6단지","indutype":"보건위생 - 미용원","category":"beauty"}]},{"lat":"37.675183992","long":"126.77029238","imageIndex":13,"items":[{"name":"남미경헤어필","tel":"031-917-2787","addr":"경기도 고양시 일산서구 일산동","indutype":"보건위생 - 미용원","category":"beauty"}]},{"lat":"37.685206986","long":"126.77713121","imageIndex":13,"items":[{"name":"네일을묻는다","tel":"031-975-1111","addr":"경기도 고양시 일산서구 일산동 555-1번지","indutype":"보건위생 - 피부미용실","category":"beauty"},{"name":"수현","tel":"","addr":"경기도 고양시 일산서구 일산동 555-1번지","indutype":"보건위생 - 피부미용실","category":"beauty"},{"name":"신데렐라눈썹","tel":"031-975-9077","addr":"경기도 고양시 일산서구 일산동 555-1번지","indutype":"보건위생 - 피부미용실","category":"beauty"},{"name":"아이마트안경","tel":"031-976-3785","addr":"경기도 고양시 일산서구 일산동 555-1번지","indutype":"보건위생 - 안경","category":"beauty"},{"name":"에스브이라인뷰티","tel":"031-976-0141","addr":"경기도 고양시 일산서구 일산동 555-1번지","indutype":"보건위생 - 피부미용실","category":"beauty"},{"name":"에이스","tel":"031-111-1111","addr":"경기도 고양시 일산서구 일산동 555-1번지","indutype":"보건위생 - 화장품","category":"beauty"},{"name":"에이스 스파랜드","tel":"031-976-0045","addr":"경기도 고양시 일산서구 일산동 555-1번지","indutype":"보건위생 - 사우나","category":"beauty"},{"name":"에이스미용실","tel":"031-975-8242","addr":"경기도 고양시 일산서구 일산동 555-1번지","indutype":"보건위생 - 미용원","category":"beauty"},{"name":"오땡큐","tel":"031-976-3378","addr":"경기도 고양시 일산서구 일산동 555-1번지","indutype":"보건위생 - 미용원","category":"beauty"},{"name":"일산아동발달센터","tel":"031-977-7547","addr":"경기도 고양시 일산서구 일산동 555-1번지","indutype":"보건위생 - 기타대인서비스","category":"beauty"},{"name":"주식회사 에이스스파랜드","tel":"031-976-0045","addr":"경기도 고양시 일산서구 일산동 555-1번지","indutype":"보건위생 - 사우나","category":"beauty"},{"name":"케어에스에스오케이(SSOK)스킨&바디","tel":"031-976-1340","addr":"경기도 고양시 일산서구 일산동 555-1번지","indutype":"보건위생 - 피부미용실","category":"beauty"}]},{"lat":"37.688011071","long":"126.76445899","imageIndex":13,"items":[{"name":"네일해","tel":"02-1111-1111","addr":"경기도 고양시 일산서구 일산동 967-20번지","indutype":"보건위생 - 피부미용실","category":"beauty"}]},{"lat":"37.687545201","long":"126.77490203","imageIndex":13,"items":[{"name":"노랑머리","tel":"031-977-7506","addr":"경기도 고양시 일산서구 일산동 580-7번지","indutype":"보건위생 - 미용원","category":"beauty"}]},{"lat":"37.684878936","long":"126.77520495","imageIndex":13,"items":[{"name":"노미주헤어","tel":"031-977-0357","addr":"경기도 고양시 일산서구 일산동 554-4번지","indutype":"보건위생 - 미용원","category":"beauty"}]},{"lat":"37.689348075","long":"126.77076967","imageIndex":13,"items":[{"name":"노엘살롱","tel":"031-919-3334","addr":"경기도 고양시 일산서구 일산동 2023번지","indutype":"보건위생 - 미용원","category":"beauty"},{"name":"마임일산동부지사","tel":"031-944-0261","addr":"경기도 고양시 일산서구 일산동 2023번지","indutype":"보건위생 - 화장품","category":"beauty"},{"name":"스파렉스 피부관리","tel":"031-922-4687","addr":"경기도 고양시 일산서구 일산동 2023번지","indutype":"보건위생 - 피부미용실","category":"beauty"},{"name":"헤어맨","tel":"031-915-2285","addr":"경기도 고양시 일산서구 일산동 2023번지","indutype":"보건위생 - 미용원","category":"beauty"}]},{"lat":"37.685707024","long":"126.77018016","imageIndex":13,"items":[{"name":"누가의료기기","tel":"031-938-7587","addr":"경기도 고양시 일산서구 일산동 616-2번지","indutype":"보건위생 - 의료용품","category":"beauty"},{"name":"예뻐지는하루","tel":"031-975-5505","addr":"경기도 고양시 일산서구 일산동 616-2번지","indutype":"보건위생 - 미용원","category":"beauty"}]},{"lat":"37.682678933","long":"126.7743501","imageIndex":13,"items":[{"name":"다인헤어살롱","tel":"031-975-7972","addr":"경기도 고양시 일산서구 일산동 546-1번지","indutype":"보건위생 - 미용원","category":"beauty"}]},{"lat":"37.679487581","long":"126.76427088","imageIndex":13,"items":[{"name":"대성여성전용사우나","tel":"070-8150-4317","addr":"경기도 고양시 일산서구 일산동 1065-1번지","indutype":"보건위생 - 사우나","category":"beauty"},{"name":"보니","tel":"031-915-6300","addr":"경기도 고양시 일산서구 일산동 1065-1번지","indutype":"보건위생 - 화장품","category":"beauty"}]},{"lat":"37.685850685","long":"126.7699303","imageIndex":13,"items":[{"name":"더페이스샵일산시장점","tel":"031-975-6560","addr":"경기도 고양시 일산서구 일산동 612-27번지","indutype":"보건위생 - 화장품","category":"beauty"}]},{"lat":"37.67907504","long":"126.76521308","imageIndex":13,"items":[{"name":"더페이스샵일산후곡점","tel":"031-922-7900","addr":"경기도 고양시 일산서구 일산동 1064번지","indutype":"보건위생 - 화장품","category":"beauty"}]},{"lat":"37.684460031","long":"126.77290487","imageIndex":13,"items":[{"name":"도도네일","tel":"070-8288-2455","addr":"경기도 고양시 일산서구 일산동 645번지 일산1차현대홈타운","indutype":"보건위생 - 피부미용실","category":"beauty"}]},{"lat":"37.682262828","long":"126.76440937","imageIndex":13,"items":[{"name":"듀오헤어샵","tel":"031-916-8351","addr":"경기도 고양시 일산서구 일산동 1046번지","indutype":"보건위생 - 미용원","category":"beauty"},{"name":"윤헤어","tel":"031-923-5418","addr":"경기도 고양시 일산서구 일산동 1046번지","indutype":"보건위생 - 미용원","category":"beauty"}]},{"lat":"37.687376872","long":"126.77173948","imageIndex":13,"items":[{"name":"듀올미용실","tel":"031-976-5959","addr":"경기도 고양시 일산서구 일산동 599-1번지","indutype":"보건위생 - 미용원","category":"beauty"}]},{"lat":"37.680012166","long":"126.76978986","imageIndex":13,"items":[{"name":"드림헤어","tel":"031-919-3457","addr":"경기도 고양시 일산서구 일산동 1074번지","indutype":"보건위생 - 미용원","category":"beauty"}]},{"lat":"37.685124945","long":"126.77198454","imageIndex":13,"items":[{"name":"디제이(DJ)헤어머리결사랑","tel":"031-473-9107","addr":"경기도 고양시 일산서구 일산동 637-38번지","indutype":"보건위생 - 미용원","category":"beauty"}]},{"lat":"37.685653466","long":"126.76590632","imageIndex":13,"items":[{"name":"딸기 미용실","tel":"031-976-7840","addr":"경기도 고양시 일산서구 일산동 954-13번지","indutype":"보건위생 - 미용원","category":"beauty"}]},{"lat":"37.679209566","long":"126.76490658","imageIndex":13,"items":[{"name":"라인컷","tel":"031-812-7733","addr":"경기도 고양시 일산서구 일산동 1065-5번지","indutype":"보건위생 - 미용원","category":"beauty"},{"name":"한생화장품일산중앙지사","tel":"031-917-5262","addr":"경기도 고양시 일산서구 일산동 1065-5번지","indutype":"보건위생 - 화장품","category":"beauty"}]},{"lat":"37.684543916","long":"126.76974166","imageIndex":13,"items":[{"name":"란제리백화점","tel":"031-977-3391","addr":"경기도 고양시 일산서구 일산동 624-6번지","indutype":"보건위생 - 화장품","category":"beauty"},{"name":"뷰티존","tel":"031-975-5451","addr":"경기도 고양시 일산서구 일산동 624-6번지","indutype":"보건위생 - 화장품","category":"beauty"},{"name":"뷰티크레딧(구일산점)","tel":"031-975-5451","addr":"경기도 고양시 일산서구 일산동 624-6번지","indutype":"보건위생 - 화장품","category":"beauty"},{"name":"헤어카페","tel":"031-976-5700","addr":"경기도 고양시 일산서구 일산동 624-6번지","indutype":"보건위생 - 미용원","category":"beauty"}]},{"lat":"37.686959739","long":"126.76584548","imageIndex":13,"items":[{"name":"레이디앤젠틀맨","tel":"031-976-8254","addr":"경기도 고양시 일산서구 일산동 960-22번지","indutype":"보건위생 - 미용원","category":"beauty"}]},{"lat":"37.683865073","long":"126.768168","imageIndex":13,"items":[{"name":"루나네일재료","tel":"070-0336-1990","addr":"경기도 고양시 일산서구 일산동 2147번지 유진스웰아파트","indutype":"보건위생 - 화장품","category":"beauty"},{"name":"슈가헤어","tel":"031-977-1333","addr":"경기도 고양시 일산서구 일산동 2147번지 유진스웰아파트","indutype":"보건위생 - 미용원","category":"beauty"}]},{"lat":"37.687431914","long":"126.7676806","imageIndex":13,"items":[{"name":"루아","tel":"","addr":"경기도 고양시 일산서구 일산동 963-40번지","indutype":"보건위생 - 미용원","category":"beauty"}]},{"lat":"37.677684931","long":"126.76840285","imageIndex":13,"items":[{"name":"리안","tel":"031-924-0688","addr":"경기도 고양시 일산서구 일산동 1079-4번지","indutype":"보건위생 - 화장품","category":"beauty"}]},{"lat":"37.684517313","long":"126.76995715","imageIndex":13,"items":[{"name":"리파인드헤어","tel":"031-977-5619","addr":"경기도 고양시 일산서구 일산동 623번지","indutype":"보건위생 - 미용원","category":"beauty"}]},{"lat":"37.685266003","long":"126.77040828","imageIndex":13,"items":[{"name":"머리하는날","tel":"031-976-7445","addr":"경기도 고양시 일산서구 일산동 617-34번지","indutype":"보건위생 - 미용원","category":"beauty"}]},{"lat":"37.686347196","long":"126.77042758","imageIndex":13,"items":[{"name":"메인화장품","tel":"031-976-3352","addr":"경기도 고양시 일산서구 일산동 595-4번지","indutype":"보건위생 - 화장품","category":"beauty"}]},{"lat":"37.679562447","long":"126.76565363","imageIndex":13,"items":[{"name":"모잇","tel":"02-540-7725","addr":"경기도 고양시 일산서구 일산동 1066번지 후곡마을4단지아파트","indutype":"보건위생 - 미용재료","category":"beauty"}]},{"lat":"37.685095736","long":"126.77087362","imageIndex":13,"items":[{"name":"무수미용실","tel":"031-976-9017","addr":"경기도 고양시 일산서구 일산동 617-15번지","indutype":"보건위생 - 미용원","category":"beauty"}]},{"lat":"37.684400684","long":"126.77482096","imageIndex":13,"items":[{"name":"미(  )에스테틱","tel":"031-977-9978","addr":"경기도 고양시 일산서구 일산동 552-16번지","indutype":"보건위생 - 화장품","category":"beauty"}]},{"lat":"37.681101361","long":"126.76929899","imageIndex":13,"items":[{"name":"미네일","tel":"070-4205-2216","addr":"경기도 고양시 일산서구 일산동 1072번지","indutype":"보건위생 - 피부미용실","category":"beauty"},{"name":"태후사랑","tel":"031-922-2595","addr":"경기도 고양시 일산서구 일산동 1072번지","indutype":"보건위생 - 화장품","category":"beauty"}]},{"lat":"37.688239595","long":"126.77524002","imageIndex":13,"items":[{"name":"미다스 커뮤니케이션","tel":"","addr":"경기도 고양시 일산서구 일산동 583-7번지","indutype":"보건위생 - 화장품","category":"beauty"}]},{"lat":"37.689179786","long":"126.76320813","imageIndex":13,"items":[{"name":"미샬주미용실","tel":"031-915-5305","addr":"경기도 고양시 일산서구 일산동 2103번지","indutype":"보건위생 - 미용원","category":"beauty"},{"name":"쥬네일","tel":"070-4685-9233","addr":"경기도 고양시 일산서구 일산동 2103번지","indutype":"보건위생 - 화장품","category":"beauty"}]},{"lat":"37.685347281","long":"126.77512416","imageIndex":13,"items":[{"name":"바비헤어","tel":"031-921-5233","addr":"경기도 고양시 일산서구 일산동 576-20번지","indutype":"보건위생 - 미용원","category":"beauty"},{"name":"올스본코리아","tel":"031-913-9798","addr":"경기도 고양시 일산서구 일산동 576-20번지","indutype":"보건위생 - 의료용품","category":"beauty"}]},{"lat":"37.687125544","long":"126.76765889","imageIndex":13,"items":[{"name":"백조이용원","tel":"031-975-8077","addr":"경기도 고양시 일산서구 일산동 963-23번지","indutype":"보건위생 - 이용원","category":"beauty"}]},{"lat":"37.679568323","long":"126.76410058","imageIndex":13,"items":[{"name":"베라에스테틱","tel":"031-912-2223","addr":"경기도 고양시 일산서구 일산동 1065번지","indutype":"보건위생 - 피부미용실","category":"beauty"},{"name":"안경나라","tel":"031-919-1718","addr":"경기도 고양시 일산서구 일산동 1065번지","indutype":"보건위생 - 안경","category":"beauty"}]},{"lat":"37.684657441","long":"126.76792743","imageIndex":13,"items":[{"name":"벨라헤어","tel":"02-975-2586","addr":"경기도 고양시 일산서구 일산동 955-10번지 월드메르디앙","indutype":"보건위생 - 미용원","category":"beauty"},{"name":"해송메디칼","tel":"031-975-1530","addr":"경기도 고양시 일산서구 일산동 955-10번지 월드메르디앙","indutype":"보건위생 - 의료용품","category":"beauty"}]},{"lat":"37.689155298","long":"126.77354795","imageIndex":13,"items":[{"name":"별헤어","tel":"031-921-1007","addr":"경기도 고양시 일산서구 일산동 1947번지","indutype":"보건위생 - 미용원","category":"beauty"}]},{"lat":"37.678546208","long":"126.76657507","imageIndex":13,"items":[{"name":"보네르헤어","tel":"031-912-1611","addr":"경기도 고양시 일산서구 일산동 1063-1번지","indutype":"보건위생 - 미용원","category":"beauty"},{"name":"신신머리연출","tel":"031-919-2607","addr":"경기도 고양시 일산서구 일산동 1063-1번지","indutype":"보건위생 - 미용원","category":"beauty"}]},{"lat":"37.685103271","long":"126.77012537","imageIndex":13,"items":[{"name":"보안당안경","tel":"031-975-8448","addr":"경기도 고양시 일산서구 일산동 616-12번지","indutype":"보건위생 - 안경","category":"beauty"}]},{"lat":"37.683793695","long":"126.76851966","imageIndex":13,"items":[{"name":"본어게인헬스케어","tel":"031-914-2974","addr":"경기도 고양시 일산서구 일산동 655-15번지 이안아파트","indutype":"보건위생 - 의료용품","category":"beauty"}]},{"lat":"37.681625418","long":"126.76110121","imageIndex":13,"items":[{"name":"본헤어","tel":"031-816-8585","addr":"경기도 고양시 일산서구 일산동 1050번지","indutype":"보건위생 - 미용원","category":"beauty"}]},{"lat":"37.676354589","long":"126.76995999","imageIndex":13,"items":[{"name":"뷰티앤아이 (Beauty n eye)","tel":"031-913-1555","addr":"경기도 고양시 일산서구 일산동 1088-1번지","indutype":"보건위생 - 미용원","category":"beauty"}]},{"lat":"37.67887896","long":"126.76182428","imageIndex":13,"items":[{"name":"뷰티쵸이스","tel":"031-913-6605","addr":"경기도 고양시 일산서구 일산동 1057번지 후곡마을8단지아파트","indutype":"보건위생 - 화장품","category":"beauty"}]},{"lat":"37.684992347","long":"126.77328868","imageIndex":13,"items":[{"name":"뷰티헤어","tel":"031-948-8752","addr":"경기도 고양시 일산서구 일산동 640-133번지","indutype":"보건위생 - 미용원","category":"beauty"},{"name":"차다연 뷰티하우스","tel":"","addr":"경기도 고양시 일산서구 일산동 640-133번지","indutype":"보건위생 - 피부미용실","category":"beauty"}]},{"lat":"37.686190863","long":"126.76432877","imageIndex":13,"items":[{"name":"블루드림코퍼레이션","tel":"","addr":"경기도 고양시 일산서구 일산동 960-6번지 동문굿모닝힐2차아파트","indutype":"보건위생 - 화장품","category":"beauty"}]},{"lat":"37.687237713","long":"126.76518704","imageIndex":13,"items":[{"name":"비타민피부관리","tel":"031-815-8455","addr":"경기도 고양시 일산서구 일산동 969-13번지","indutype":"보건위생 - 화장품","category":"beauty"}]},{"lat":"37.685876856","long":"126.76498732","imageIndex":13,"items":[{"name":"비타민헤어","tel":"031-911-4154","addr":"경기도 고양시 일산서구 일산동 957-3번지","indutype":"보건위생 - 미용원","category":"beauty"},{"name":"윤서스킨케어","tel":"031-921-3656","addr":"경기도 고양시 일산서구 일산동 957-3번지","indutype":"보건위생 - 피부미용실","category":"beauty"},{"name":"케어셀라헤어샵","tel":"031-904-9196","addr":"경기도 고양시 일산서구 일산동 957-3번지","indutype":"보건위생 - 미용원","category":"beauty"}]},{"lat":"37.685318628","long":"126.76968256","imageIndex":13,"items":[{"name":"사신작두장군","tel":"031-947-6254","addr":"경기도 고양시 일산서구 일산동 612-20번지","indutype":"보건위생 - 기타대인서비스","category":"beauty"}]},{"lat":"37.691122535","long":"126.77054873","imageIndex":13,"items":[{"name":"살롱드토미헤어","tel":"031-915-7123","addr":"경기도 고양시 일산서구 일산동 2095번지","indutype":"보건위생 - 미용원","category":"beauty"},{"name":"홍시네일","tel":"","addr":"경기도 고양시 일산서구 일산동 2095번지","indutype":"보건위생 - 피부미용실","category":"beauty"}]},{"lat":"37.684903441","long":"126.77390114","imageIndex":13,"items":[{"name":"선우미용실","tel":"031-976-3683","addr":"경기도 고양시 일산서구 일산동 551-21번지","indutype":"보건위생 - 미용원","category":"beauty"}]},{"lat":"37.685460093","long":"126.77290179","imageIndex":13,"items":[{"name":"세나미용실","tel":"031-976-3004","addr":"경기도 고양시 일산서구 일산동 640-29번지","indutype":"보건위생 - 미용원","category":"beauty"}]},{"lat":"37.68568151","long":"126.77557661","imageIndex":13,"items":[{"name":"세라헤어필","tel":"031-8076-0091","addr":"경기도 고양시 일산서구 일산동 576-12번지","indutype":"보건위생 - 미용원","category":"beauty"}]},{"lat":"37.686734071","long":"126.77015428","imageIndex":13,"items":[{"name":"세리네일","tel":"031-976-2542","addr":"경기도 고양시 일산서구 일산동 606-1번지","indutype":"보건위생 - 화장품","category":"beauty"},{"name":"스킨데이","tel":"070-6752-3869","addr":"경기도 고양시 일산서구 일산동 606-1번지","indutype":"보건위생 - 화장품","category":"beauty"},{"name":"쑥좌훈","tel":"","addr":"경기도 고양시 일산서구 일산동 606-1번지","indutype":"보건위생 - 피부미용실","category":"beauty"},{"name":"천사속눈썹","tel":"","addr":"경기도 고양시 일산서구 일산동 606-1번지","indutype":"보건위생 - 화장품","category":"beauty"},{"name":"태후사랑","tel":"031-977-1323","addr":"경기도 고양시 일산서구 일산동 606-1번지","indutype":"보건위생 - 화장품","category":"beauty"}]},{"lat":"37.677909177","long":"126.76790337","imageIndex":13,"items":[{"name":"소호헤어","tel":"031-913-0733","addr":"경기도 고양시 일산서구 일산동 1079-1번지","indutype":"보건위생 - 미용원","category":"beauty"}]},{"lat":"37.685214452","long":"126.77632627","imageIndex":13,"items":[{"name":"수미용실","tel":"031-975-8940","addr":"경기도 고양시 일산서구 일산동 577-7번지","indutype":"보건위생 - 미용원","category":"beauty"}]},{"lat":"37.68696017","long":"126.77520992","imageIndex":13,"items":[{"name":"수연헤어샵","tel":"031-976-0549","addr":"경기도 고양시 일산서구 일산동 580-17번지","indutype":"보건위생 - 미용원","category":"beauty"}]},{"lat":"37.685988032","long":"126.77567771","imageIndex":13,"items":[{"name":"슈퍼모델체형미","tel":"031-976-9815","addr":"경기도 고양시 일산서구 일산동 576-9번지","indutype":"보건위생 - 피부미용실","category":"beauty"}]},{"lat":"37.688346636","long":"126.77468417","imageIndex":13,"items":[{"name":"시저스&헤어","tel":"031-977-4335","addr":"경기도 고양시 일산서구 일산동","indutype":"보건위생 - 미용원","category":"beauty"}]},{"lat":"37.684680872","long":"126.77065951","imageIndex":13,"items":[{"name":"신디헤어","tel":"031-977-9743","addr":"경기도 고양시 일산서구 일산동 617-104번지","indutype":"보건위생 - 미용원","category":"beauty"}]},{"lat":"37.684321024","long":"126.77093272","imageIndex":13,"items":[{"name":"신라이용원","tel":"031-977-7585","addr":"경기도 고양시 일산서구 일산동 635-37번지","indutype":"보건위생 - 이용원","category":"beauty"}]},{"lat":"37.684877875","long":"126.77004671","imageIndex":13,"items":[{"name":"썬미용실","tel":"031-976-9942","addr":"경기도 고양시 일산서구 일산동 624-1번지","indutype":"보건위생 - 미용원","category":"beauty"}]},{"lat":"37.689016927","long":"126.77654145","imageIndex":13,"items":[{"name":"아이세상 발달센터","tel":"070-4241-2754","addr":"경기도 고양시 일산서구 일산동 583-66번지 에이스9차아파트","indutype":"보건위생 - 기타대인서비스","category":"beauty"}]},{"lat":"37.686401655","long":"126.77063147","imageIndex":13,"items":[{"name":"안경이레","tel":"031-976-0133","addr":"경기도 고양시 일산서구 일산동 596-3번지","indutype":"보건위생 - 안경","category":"beauty"}]},{"lat":"37.680845774","long":"126.76315559","imageIndex":13,"items":[{"name":"안우연 헤어플러스","tel":"031-917-4067","addr":"경기도 고양시 일산서구 일산동","indutype":"보건위생 - 미용원","category":"beauty"}]},{"lat":"37.690062059","long":"126.77654961","imageIndex":13,"items":[{"name":"알카바이오랩","tel":"070-8882-3524","addr":"경기도 고양시 일산서구 일산동 1876번지 삼성아파트","indutype":"보건위생 - 화장품","category":"beauty"}]},{"lat":"37.684765117","long":"126.77226907","imageIndex":13,"items":[{"name":"어울모","tel":"031-975-0204","addr":"경기도 고양시 일산서구 일산동 637-64번지","indutype":"보건위생 - 미용재료","category":"beauty"}]},{"lat":"37.679628051","long":"126.76245667","imageIndex":13,"items":[{"name":"엄마품아동가족상담센터","tel":"031-915-0862","addr":"경기도 고양시 일산서구 일산동 1054번지","indutype":"보건위생 - 기타대인서비스","category":"beauty"}]},{"lat":"37.679820988","long":"126.75988278","imageIndex":13,"items":[{"name":"에니앤스킨케어","tel":"031-111-1111","addr":"경기도 고양시 일산서구 일산동 1055번지","indutype":"보건위생 - 피부미용실","category":"beauty"},{"name":"오땡큐","tel":"031-912-8454","addr":"경기도 고양시 일산서구 일산동 1055번지","indutype":"보건위생 - 미용원","category":"beauty"},{"name":"카라헤어","tel":"031-912-1041","addr":"경기도 고양시 일산서구 일산동 1055번지","indutype":"보건위생 - 미용원","category":"beauty"}]},{"lat":"37.687458206","long":"126.77651218","imageIndex":13,"items":[{"name":"에벤에셀미용실","tel":"031-976-6060","addr":"경기도 고양시 일산서구 일산동 576-123번지","indutype":"보건위생 - 미용원","category":"beauty"}]},{"lat":"37.686239416","long":"126.77059797","imageIndex":13,"items":[{"name":"에스미용마트","tel":"031-977-4324","addr":"경기도 고양시 일산서구 일산동","indutype":"보건위생 - 화장품","category":"beauty"}]},{"lat":"37.687494076","long":"126.76722691","imageIndex":13,"items":[{"name":"에코미스트 일산점","tel":"","addr":"경기도 고양시 일산서구 일산동 1655번지 일신건영아파트","indutype":"보건위생 - 화장품","category":"beauty"}]},{"lat":"37.688635067","long":"126.770137","imageIndex":13,"items":[{"name":"엘라","tel":"031-975-1980","addr":"경기도 고양시 일산서구 일산동 600-32번지 일산5차동문아파트","indutype":"보건위생 - 화장품","category":"beauty"}]},{"lat":"37.68252024","long":"126.77615308","imageIndex":13,"items":[{"name":"여시속눈썹","tel":"070-4001-0976","addr":"경기도 고양시 일산서구 일산동 525-21번지","indutype":"보건위생 - 피부미용실","category":"beauty"}]},{"lat":"37.685680711","long":"126.77054303","imageIndex":13,"items":[{"name":"연헤어펌","tel":"031-976-5893","addr":"경기도 고양시 일산서구 일산동 617-28번지","indutype":"보건위생 - 미용원","category":"beauty"},{"name":"천신용궁선녀","tel":"031-976-4349","addr":"경기도 고양시 일산서구 일산동 617-28번지","indutype":"보건위생 - 기타대인서비스","category":"beauty"}]},{"lat":"37.685575792","long":"126.77682399","imageIndex":13,"items":[{"name":"열손꾸락","tel":"031-975-1711","addr":"경기도 고양시 일산서구 일산동 572-25번지","indutype":"보건위생 - 피부미용실","category":"beauty"}]},{"lat":"37.677932715","long":"126.76615759","imageIndex":13,"items":[{"name":"예술심리치료연구소공감","tel":"031-919-5575","addr":"경기도 고양시 일산서구 일산동 1062-1번지","indutype":"보건위생 - 기타대인서비스","category":"beauty"}]},{"lat":"37.686711108","long":"126.77687723","imageIndex":13,"items":[{"name":"오돌이헤어방스","tel":"031-977-2126","addr":"경기도 고양시 일산서구 일산동 576-4번지 쌍용아파트","indutype":"보건위생 - 미용원","category":"beauty"},{"name":"정선희미용실","tel":"031-975-3685","addr":"경기도 고양시 일산서구 일산동 576-4번지 쌍용아파트","indutype":"보건위생 - 미용원","category":"beauty"}]},{"lat":"37.684824086","long":"126.77018292","imageIndex":13,"items":[{"name":"옥합화장품","tel":"031-976-5115","addr":"경기도 고양시 일산서구 일산동 617-42번지","indutype":"보건위생 - 화장품","category":"beauty"}]},{"lat":"37.687150965","long":"126.77140006","imageIndex":13,"items":[{"name":"유.힐링뷰티","tel":"031-976-1234","addr":"경기도 고양시 일산서구 일산동 589-12번지","indutype":"보건위생 - 피부미용실","category":"beauty"}]},{"lat":"37.685571164","long":"126.76981781","imageIndex":13,"items":[{"name":"윤주화장품","tel":"031-917-3283","addr":"경기도 고양시 일산서구 일산동 612-4번지","indutype":"보건위생 - 화장품","category":"beauty"}]},{"lat":"37.685519709","long":"126.77576983","imageIndex":13,"items":[{"name":"윤헤어샵","tel":"","addr":"경기도 고양시 일산서구 일산동 576-39번지","indutype":"보건위생 - 미용원","category":"beauty"}]},{"lat":"37.678241266","long":"126.76726752","imageIndex":13,"items":[{"name":"이니스프리후곡점","tel":"031-919-0424","addr":"경기도 고양시 일산서구 일산동 1078번지","indutype":"보건위생 - 화장품","category":"beauty"}]},{"lat":"37.687602711","long":"126.77204488","imageIndex":13,"items":[{"name":"이레헤어컷트점","tel":"031-977-3335","addr":"경기도 고양시 일산서구 일산동 589-1번지","indutype":"보건위생 - 미용원","category":"beauty"}]},{"lat":"37.685492353","long":"126.77559986","imageIndex":13,"items":[{"name":"이엘키야쿠","tel":"031-921-5233","addr":"경기도 고양시 일산서구 일산동 576-14번지","indutype":"보건위생 - 미용재료","category":"beauty"}]},{"lat":"37.688016062","long":"126.77148807","imageIndex":13,"items":[{"name":"인헤어","tel":"031-922-5420","addr":"경기도 고양시 일산서구 일산동 600번지 일산3차현대홈타운","indutype":"보건위생 - 미용원","category":"beauty"}]},{"lat":"37.684790021","long":"126.7758174","imageIndex":13,"items":[{"name":"일공공일안경콘택트","tel":"031-976-1016","addr":"경기도 고양시 일산서구 일산동 1680-1번지","indutype":"보건위생 - 안경","category":"beauty"},{"name":"천연염색방","tel":"031-977-8080","addr":"경기도 고양시 일산서구 일산동 1680-1번지","indutype":"보건위생 - 화장품","category":"beauty"}]},{"lat":"37.677604227","long":"126.76859581","imageIndex":13,"items":[{"name":"일립스안경","tel":"031-906-1001","addr":"경기도 고양시 일산서구 일산동 1079-5번지","indutype":"보건위생 - 안경","category":"beauty"}]},{"lat":"37.678877833","long":"126.76571249","imageIndex":13,"items":[{"name":"일산스파랜드","tel":"031-922-9688","addr":"경기도 고양시 일산서구 일산동 1064-3번지","indutype":"보건위생 - 사우나","category":"beauty"}]},{"lat":"37.687016489","long":"126.77174059","imageIndex":13,"items":[{"name":"일산신당","tel":"031-977-1368","addr":"경기도 고양시 일산서구 일산동 589-9번지","indutype":"보건위생 - 기타대인서비스","category":"beauty"}]},{"lat":"37.686345831","long":"126.76973602","imageIndex":13,"items":[{"name":"쟈르헤어","tel":"031-977-7845","addr":"경기도 고양시 일산서구 일산동 610-5번지","indutype":"보건위생 - 미용원","category":"beauty"}]},{"lat":"37.684985934","long":"126.77462644","imageIndex":13,"items":[{"name":"제일상사","tel":"031-0000-0000","addr":"경기도 고양시 일산서구 일산동 551-13번지","indutype":"보건위생 - 화장품","category":"beauty"}]},{"lat":"37.684266176","long":"126.77515014","imageIndex":13,"items":[{"name":"종합화장품","tel":"031-7567-7272","addr":"경기도 고양시 일산서구 일산동 542-21번지","indutype":"보건위생 - 화장품","category":"beauty"}]},{"lat":"37.676946978","long":"126.76882459","imageIndex":13,"items":[{"name":"주식회사 다올","tel":"031-922-8386","addr":"경기도 고양시 일산서구 일산동 1083-1번지","indutype":"보건위생 - 화장품","category":"beauty"},{"name":"쩜이네일","tel":"031-913-2477","addr":"경기도 고양시 일산서구 일산동 1083-1번지","indutype":"보건위생 - 피부미용실","category":"beauty"},{"name":"포맨헤어","tel":"031-917-1891","addr":"경기도 고양시 일산서구 일산동 1083-1번지","indutype":"보건위생 - 미용원","category":"beauty"}]},{"lat":"37.681291062","long":"126.77415031","imageIndex":13,"items":[{"name":"주식회사 미화스토리","tel":"031-976-9175","addr":"경기도 고양시 일산서구 일산동 524-16번지","indutype":"보건위생 - 화장품","category":"beauty"}]},{"lat":"37.67876709","long":"126.76440922","imageIndex":13,"items":[{"name":"주열헤어","tel":"031-918-9036","addr":"경기도 고양시 일산서구 일산동 1060번지","indutype":"보건위생 - 미용원","category":"beauty"}]},{"lat":"37.682737275","long":"126.77657187","imageIndex":13,"items":[{"name":"준헤어","tel":"031-961-2949","addr":"경기도 고양시 일산서구 일산동 1673-1번지","indutype":"보건위생 - 미용원","category":"beauty"}]},{"lat":"37.679770009","long":"126.76582301","imageIndex":13,"items":[{"name":"지&미헤어","tel":"031-915-0856","addr":"경기도 고양시 일산서구 일산동 1066번지","indutype":"보건위생 - 미용원","category":"beauty"}]},{"lat":"37.679269305","long":"126.76326268","imageIndex":13,"items":[{"name":"지&승헤어","tel":"031-919-4653","addr":"경기도 고양시 일산서구 일산동 1054-5번지","indutype":"보건위생 - 미용원","category":"beauty"}]},{"lat":"37.686544809","long":"126.77473504","imageIndex":13,"items":[{"name":"진미용실","tel":"","addr":"경기도 고양시 일산서구 일산동 587-36번지","indutype":"보건위생 - 미용원","category":"beauty"}]},{"lat":"37.690906756","long":"126.77540194","imageIndex":13,"items":[{"name":"쭈니헤어","tel":"031-975-5888","addr":"경기도 고양시 일산서구 일산동 1747번지","indutype":"보건위생 - 미용원","category":"beauty"}]},{"lat":"37.68579274","long":"126.77253798","imageIndex":13,"items":[{"name":"착한헤어","tel":"031-977-3066","addr":"경기도 고양시 일산서구 일산동 592-22번지","indutype":"보건위생 - 미용원","category":"beauty"}]},{"lat":"37.689406042","long":"126.77276489","imageIndex":13,"items":[{"name":"천궁","tel":"070-4755-4786","addr":"경기도 고양시 일산서구 일산동 1934번지","indutype":"보건위생 - 기타대인서비스","category":"beauty"}]},{"lat":"37.685654329","long":"126.77087188","imageIndex":13,"items":[{"name":"천연머리염색방","tel":"031-978-0098","addr":"경기도 고양시 일산서구 일산동 617-20번지","indutype":"보건위생 - 미용원","category":"beauty"},{"name":"최미용실","tel":"031-975-1284","addr":"경기도 고양시 일산서구 일산동 617-20번지","indutype":"보건위생 - 미용원","category":"beauty"}]},{"lat":"37.679547265","long":"126.7626043","imageIndex":13,"items":[{"name":"탑네일","tel":"031-923-0807","addr":"경기도 고양시 일산서구 일산동 1054-1번지","indutype":"보건위생 - 화장품","category":"beauty"},{"name":"후곡여성전용사우나","tel":"031-911-1420","addr":"경기도 고양시 일산서구 일산동 1054-1번지","indutype":"보건위생 - 사우나","category":"beauty"}]},{"lat":"37.683129961","long":"126.77463213","imageIndex":13,"items":[{"name":"태후사랑","tel":"031-976-0967","addr":"경기도 고양시 일산서구 일산동 산37-11번지","indutype":"보건위생 - 미용원","category":"beauty"}]},{"lat":"37.682312052","long":"126.76648377","imageIndex":13,"items":[{"name":"피부사랑","tel":"031-111-1111","addr":"경기도 고양시 일산서구 일산동 1069번지 후곡마을3단지아파트","indutype":"보건위생 - 화장품","category":"beauty"}]},{"lat":"37.687459228","long":"126.77704502","imageIndex":13,"items":[{"name":"핑크헤어","tel":"031-000-0000","addr":"경기도 고양시 일산서구 일산동 573번지","indutype":"보건위생 - 미용원","category":"beauty"}]},{"lat":"37.685567013","long":"126.77228926","imageIndex":13,"items":[{"name":"한솔 의료기","tel":"031-813-8747","addr":"경기도 고양시 일산서구 일산동 637-7번지","indutype":"보건위생 - 의료용품","category":"beauty"}]},{"lat":"37.68509836","long":"126.77221136","imageIndex":13,"items":[{"name":"햇빛미용실","tel":"031-981-6479","addr":"경기도 고양시 일산서구 일산동 637-36번지","indutype":"보건위생 - 미용원","category":"beauty"}]},{"lat":"37.685351337","long":"126.77257335","imageIndex":13,"items":[{"name":"행복헤어(천연머리염색)","tel":"031-975-1966","addr":"경기도 고양시 일산서구 일산동 637-53번지","indutype":"보건위생 - 이용원","category":"beauty"}]},{"lat":"37.689237104","long":"126.76481786","imageIndex":13,"items":[{"name":"헤나킹","tel":"031-927-1003","addr":"경기도 고양시 일산서구 일산동 2106번지","indutype":"보건위생 - 이용원","category":"beauty"}]},{"lat":"37.682630268","long":"126.77715035","imageIndex":13,"items":[{"name":"헤세드센터","tel":"031-977-7722","addr":"경기도 고양시 일산서구 일산동 1673-6번지","indutype":"보건위생 - 기타대인서비스","category":"beauty"}]},{"lat":"37.68704778","long":"126.76482486","imageIndex":13,"items":[{"name":"헤어스케치","tel":"031-977-3117","addr":"경기도 고양시 일산서구 일산동","indutype":"보건위생 - 미용원","category":"beauty"}]},{"lat":"37.683880315","long":"126.77595622","imageIndex":13,"items":[{"name":"헤어스토리","tel":"031-975-6880","addr":"경기도 고양시 일산서구 일산동 1680-9번지","indutype":"보건위생 - 미용원","category":"beauty"}]},{"lat":"37.675991951","long":"126.7734071","imageIndex":13,"items":[{"name":"헤어플러스","tel":"031-814-4466","addr":"경기도 고양시 일산서구 일산동","indutype":"보건위생 - 미용원","category":"beauty"}]},{"lat":"37.683486785","long":"126.77746518","imageIndex":13,"items":[{"name":"현진","tel":"","addr":"경기도 고양시 일산서구 일산동 1686번지 산들마을6단지","indutype":"보건위생 - 기타대인서비스","category":"beauty"}]},{"lat":"37.676740184","long":"126.76904061","imageIndex":13,"items":[{"name":"홈스가마정보연구소","tel":"031-918-8870","addr":"경기도 고양시 일산서구 일산동 1082번지","indutype":"보건위생 - 기타대인서비스","category":"beauty"}]},{"lat":"37.674350349","long":"126.77246","imageIndex":13,"items":[{"name":"홍주헤어#","tel":"031-918-9806","addr":"경기도 고양시 일산서구 일산동","indutype":"보건위생 - 미용원","category":"beauty"}]},{"lat":"37.688018126","long":"126.77254243","imageIndex":13,"items":[{"name":"후동이발관","tel":"031-977-9696","addr":"경기도 고양시 일산서구 일산동 584-39번지","indutype":"보건위생 - 이용원","category":"beauty"}]}]