[{"lat":"38.07966665","long":"127.2615134","imageIndex":17,"items":[{"name":"(주)유리수","tel":"02-1522-9237","addr":"경기도 포천시 영북면 문암리 479번지 1층","indutype":"유통업 영리 - 기타유통업","category":"other"}]},{"lat":"38.070279072","long":"127.2735943","imageIndex":17,"items":[{"name":"GS25포천문암","tel":"-","addr":"경기도 포천시 영북면 문암리 96번지","indutype":"편의점 - 편의점","category":"other"},{"name":"GS25포천문암점","tel":"02-2006-2485","addr":"경기도 포천시 영북면 문암리 96","indutype":"유통업 영리 - 편 의 점","category":"other"}]},{"lat":"38.07189233","long":"127.27331533","imageIndex":17,"items":[{"name":"김남조의산정호수다육이","tel":"031-533-0599","addr":"경기도 포천시 영북면 문암리 151번지","indutype":"문화.취미 - 화원","category":"other"}]},{"lat":"38.072675847","long":"127.27343218","imageIndex":17,"items":[{"name":"보물섬","tel":"031-532-0150","addr":"경기도 포천시 영북면 문암리 161번지","indutype":"의류 - 정장","category":"other"},{"name":"태영공구","tel":"031-534-0922","addr":"경기도 포천시 영북면 문암리 161번지","indutype":"기타 - 기계공구","category":"other"}]},{"lat":"38.077142287","long":"127.27431481","imageIndex":17,"items":[{"name":"시오비스","tel":"031-534-5003","addr":"경기도 포천시 영북면 문암리 240-21번지 A동 103호","indutype":"농업 - 기타농업관련","category":"other"},{"name":"오리온㈜포천대리점","tel":"533-5828","addr":"경기도 포천시 영북면 문암리 240-21번지","indutype":"도소매 - 청과물","category":"other"}]},{"lat":"38.070697151","long":"127.26803456","imageIndex":17,"items":[{"name":"자연비료공사","tel":"031-531-7121","addr":"경기도 포천시 영북면 문암리 395번지","indutype":"농업 - 비료,사료,종자","category":"other"}]},{"lat":"38.078258816","long":"127.27456968","imageIndex":9,"items":[{"name":"대안가스","tel":"031-536-9895","addr":"경기도 포천시 영북면 문암리 243-9번지","indutype":"연료판매점 - 쌍용S-OIL 가스충전","category":"oil"}]},{"lat":"38.078114094","long":"127.2628756","imageIndex":5,"items":[{"name":"미순이네 민박","tel":"031-533-8569","addr":"경기도 포천시 영북면 문암리 465-3번지","indutype":"숙박업 - 여관/기타숙박업","category":"hotel"}]},{"lat":"38.069398605","long":"127.27254263","imageIndex":4,"items":[{"name":"부현겔러리","tel":"031-532-7278","addr":"경기도 포천시 영북면 문암리 101번지 101호","indutype":"일반휴게음식 - 스넥","category":"restaurant"}]},{"lat":"38.067533803","long":"127.272513","imageIndex":4,"items":[{"name":"옛우동","tel":"533-6997","addr":"경기도 포천시 영북면 문암리 85번지","indutype":"음식 - 분식","category":"restaurant"}]},{"lat":"38.073478823","long":"127.2729223","imageIndex":4,"items":[{"name":"원돈가스","tel":"031-111-1111","addr":"경기도 포천시 영북면 문암리 170-2번지","indutype":"일반휴게음식 - 일반한식","category":"restaurant"}]},{"lat":"38.073838211","long":"127.27334529","imageIndex":4,"items":[{"name":"월정막국수","tel":"031-000-0000","addr":"경기도 포천시 영북면 문암리 170번지","indutype":"일반휴게음식 - 일반한식","category":"restaurant"},{"name":"팔호추어탕","tel":"533-6295","addr":"경기도 포천시 영북면 문암리 170번지","indutype":"음식 - 한식","category":"restaurant"},{"name":"팔호추어탕","tel":"031-533-6295","addr":"경기도 포천시 영북면 문암리 170번지 A동","indutype":"일반휴게음식 - 일반한식","category":"restaurant"}]},{"lat":"38.077142287","long":"127.27431481","imageIndex":4,"items":[{"name":"찌개랑탕이랑","tel":"031-531-3665","addr":"경기도 포천시 영북면 문암리 240-21번지","indutype":"일반휴게음식 - 일반한식","category":"restaurant"}]},{"lat":"38.090060098","long":"127.26284951","imageIndex":7,"items":[{"name":"솔잎한우직판장","tel":"031-532-5124","addr":"경기도 포천시 영북면 문암리 273-5","indutype":"음료식품 - 정육점","category":"food"}]},{"lat":"38.077142287","long":"127.27431481","imageIndex":7,"items":[{"name":"오리온제과 포천대리점","tel":"031-533-5828","addr":"경기도 포천시 영북면 문암리 240-21번지 A동 102호","indutype":"음료식품 - 기타음료식품","category":"food"}]},{"lat":"38.080865946","long":"127.27304064","imageIndex":16,"items":[{"name":"신제일자동차운전전문학원","tel":"031-534-7600","addr":"경기도 포천시 영북면 문암리 247번지","indutype":"회원제형태 - 학원","category":"study"}]},{"lat":"38.078645964","long":"127.27467369","imageIndex":0,"items":[{"name":"유겸자동차공업사","tel":"031-531-1224","addr":"경기도 포천시 영북면 문암리 243-12","indutype":"자동차정비 유지 - 자동차정비","category":"car"}]},{"lat":"38.069398605","long":"127.27254263","imageIndex":0,"items":[{"name":"타이어할인마트(영북)","tel":"031-533-9989","addr":"경기도 포천시 영북면 문암리 101번지 101호","indutype":"자동차정비 유지 - 자동차시트·타이어","category":"car"}]}]