[{"lat":"37.725871629","long":"126.79414716","imageIndex":4,"items":[{"name":"가나안돌솥추어탕.곰탕","tel":"031-915-3325","addr":"경기도 고양시 일산동구 설문동 705-14번지","indutype":"일반휴게음식 - 일반한식","category":"restaurant"}]},{"lat":"37.724427343","long":"126.79259725","imageIndex":4,"items":[{"name":"교동짬뽕일산점","tel":"070-8834-0255","addr":"경기도 고양시 일산동구 설문동 719-49번지","indutype":"일반휴게음식 - 중국식","category":"restaurant"},{"name":"연수산","tel":"031-977-0590","addr":"경기도 고양시 일산동구 설문동","indutype":"일반휴게음식 - 일반한식","category":"restaurant"}]},{"lat":"37.715571321","long":"126.8141257","imageIndex":4,"items":[{"name":"다선","tel":"031-977-4161","addr":"경기도 고양시 일산동구 설문동 117-1번지","indutype":"일반휴게음식 - 일반한식","category":"restaurant"}]},{"lat":"37.724923716","long":"126.79307225","imageIndex":4,"items":[{"name":"돈까스클럽","tel":"031-975-9393","addr":"경기도 고양시 일산동구 설문동 705-6번지","indutype":"일반휴게음식 - 일반한식","category":"restaurant"},{"name":"마루철판","tel":"031-977-0720","addr":"경기도 고양시 일산동구 설문동","indutype":"일반휴게음식 - 일반한식","category":"restaurant"},{"name":"설문면옥","tel":"","addr":"경기도 고양시 일산동구 설문동 705-6번지","indutype":"일반휴게음식 - 일반한식","category":"restaurant"},{"name":"토종순대국","tel":"031-977-0106","addr":"경기도 고양시 일산동구 설문동 705-6번지","indutype":"일반휴게음식 - 일반한식","category":"restaurant"}]},{"lat":"37.723234345","long":"126.79051358","imageIndex":4,"items":[{"name":"동산만두","tel":"031-976-5011","addr":"경기도 고양시 일산동구 설문동 722-4번지","indutype":"일반휴게음식 - 일반한식","category":"restaurant"}]},{"lat":"37.711956632","long":"126.81297809","imageIndex":4,"items":[{"name":"두리원","tel":"031-976-6009","addr":"경기도 고양시 일산동구 설문동 197-6번지","indutype":"일반휴게음식 - 일반한식","category":"restaurant"}]},{"lat":"37.714208741","long":"126.80729038","imageIndex":4,"items":[{"name":"똘배네식당","tel":"031-976-6800","addr":"경기도 고양시 일산동구 설문동 494-10번지","indutype":"일반휴게음식 - 일반한식","category":"restaurant"},{"name":"오가네가정식","tel":"031-977-5173","addr":"경기도 고양시 일산동구 설문동 494-10번지","indutype":"일반휴게음식 - 일반한식","category":"restaurant"}]},{"lat":"37.723541974","long":"126.79123863","imageIndex":4,"items":[{"name":"메밀꽃이피었습니다","tel":"031-977-5569","addr":"경기도 고양시 일산동구 설문동 722-60번지","indutype":"일반휴게음식 - 일반한식","category":"restaurant"}]},{"lat":"37.727375588","long":"126.7989298","imageIndex":4,"items":[{"name":"방태막국수","tel":"031-977-1199","addr":"경기도 고양시 일산동구 설문동 600-1번지","indutype":"일반휴게음식 - 일반한식","category":"restaurant"},{"name":"청석골가마솥추어탕설문점","tel":"031-976-8350","addr":"경기도 고양시 일산동구 설문동 600-1번지","indutype":"일반휴게음식 - 일반한식","category":"restaurant"}]},{"lat":"37.723342908","long":"126.7907628","imageIndex":4,"items":[{"name":"본구이","tel":"031-977-9090","addr":"경기도 고양시 일산동구 설문동 722-59번지","indutype":"일반휴게음식 - 일반한식","category":"restaurant"}]},{"lat":"37.725564581","long":"126.79373967","imageIndex":4,"items":[{"name":"설문미다미","tel":"","addr":"경기도 고양시 일산동구 설문동 705-1번지","indutype":"일반휴게음식 - 서양음식","category":"restaurant"}]},{"lat":"37.722426461","long":"126.81909901","imageIndex":4,"items":[{"name":"설문식당","tel":"031-977-2819","addr":"경기도 고양시 일산동구 설문동 317번지","indutype":"일반휴게음식 - 일반한식","category":"restaurant"}]},{"lat":"37.73034199","long":"126.80023753","imageIndex":4,"items":[{"name":"설문진설렁탕","tel":"031-976-5241","addr":"경기도 고양시 일산동구 설문동 867번지","indutype":"일반휴게음식 - 일반한식","category":"restaurant"}]},{"lat":"37.726403461","long":"126.79945425","imageIndex":4,"items":[{"name":"설문커피/주식회사 로우브랜드","tel":"031-975-5078","addr":"경기도 고양시 일산동구 설문동 582-52번지","indutype":"일반휴게음식 - 서양음식","category":"restaurant"}]},{"lat":"37.724927382","long":"126.80032034","imageIndex":4,"items":[{"name":"설문한식당","tel":"","addr":"경기도 고양시 일산동구 설문동 583-19번지","indutype":"일반휴게음식 - 일반한식","category":"restaurant"}]},{"lat":"37.730095698","long":"126.79847993","imageIndex":4,"items":[{"name":"소백산 숯불돼지왕갈비","tel":"031-977-9252","addr":"경기도 고양시 일산동구 설문동 614번지","indutype":"일반휴게음식 - 일반한식","category":"restaurant"}]},{"lat":"37.724539101","long":"126.79464998","imageIndex":4,"items":[{"name":"소소함카페","tel":"031-111-1111","addr":"경기도 고양시 일산동구 설문동 706번지","indutype":"일반휴게음식 - 서양음식","category":"restaurant"}]},{"lat":"37.730204205","long":"126.79870651","imageIndex":4,"items":[{"name":"솔밭갈비","tel":"031-977-1294","addr":"경기도 고양시 일산동구 설문동 617번지","indutype":"일반휴게음식 - 일반한식","category":"restaurant"}]},{"lat":"37.725257955","long":"126.79357039","imageIndex":4,"items":[{"name":"약선나주곰탕","tel":"031-975-7429","addr":"경기도 고양시 일산동구 설문동 705-16번지","indutype":"일반휴게음식 - 일반한식","category":"restaurant"},{"name":"일백집","tel":"070-8883-0600","addr":"경기도 고양시 일산동구 설문동 705-16번지","indutype":"일반휴게음식 - 일반한식","category":"restaurant"}]},{"lat":"37.724926426","long":"126.79976454","imageIndex":4,"items":[{"name":"엄마손한식부페","tel":"031-975-3618","addr":"경기도 고양시 일산동구 설문동 583-22번지","indutype":"일반휴게음식 - 일반한식","category":"restaurant"}]},{"lat":"37.723041249","long":"126.79337246","imageIndex":4,"items":[{"name":"오케이칼국수","tel":"031-977-3608","addr":"경기도 고양시 일산동구 설문동 719-106번지","indutype":"일반휴게음식 - 일반한식","category":"restaurant"}]},{"lat":"37.730259223","long":"126.7992622","imageIndex":4,"items":[{"name":"옥할머니집","tel":"031-977-5191","addr":"경기도 고양시 일산동구 설문동 624-3번지","indutype":"일반휴게음식 - 일반한식","category":"restaurant"}]},{"lat":"37.7227869","long":"126.7922049","imageIndex":4,"items":[{"name":"이차돌 일산라페스타점","tel":"031-923-1133","addr":"경기도 고양시 일산동구 설문동 719-53번지","indutype":"일반휴게음식 - 일반한식","category":"restaurant"}]},{"lat":"37.723654731","long":"126.79898537","imageIndex":4,"items":[{"name":"일미흑염소요리집","tel":"031-975-5244","addr":"경기도 고양시 일산동구 설문동 547-2번지","indutype":"일반휴게음식 - 일반한식","category":"restaurant"}]},{"lat":"37.721677937","long":"126.79176568","imageIndex":4,"items":[{"name":"잇탈리화덕","tel":"031-111-1111","addr":"경기도 고양시 일산동구 설문동 719-38번지","indutype":"일반휴게음식 - 서양음식","category":"restaurant"}]},{"lat":"37.722541753","long":"126.79115073","imageIndex":4,"items":[{"name":"자성화맛집","tel":"031-976-1237","addr":"경기도 고양시 일산동구 설문동 720-3번지","indutype":"일반휴게음식 - 일반한식","category":"restaurant"}]},{"lat":"37.719591212","long":"126.78870924","imageIndex":4,"items":[{"name":"장춘닭개장","tel":"031-977-4686","addr":"경기도 고양시 일산동구 설문동 744-12번지","indutype":"일반휴게음식 - 일반한식","category":"restaurant"}]},{"lat":"37.72590034","long":"126.79509989","imageIndex":4,"items":[{"name":"제이제이","tel":"031-976-8848","addr":"경기도 고양시 일산동구 설문동 703번지","indutype":"일반휴게음식 - 서양음식","category":"restaurant"}]},{"lat":"37.724598827","long":"126.79276691","imageIndex":4,"items":[{"name":"차이나정","tel":"031-975-0776","addr":"경기도 고양시 일산동구 설문동 705-39번지","indutype":"일반휴게음식 - 중국식","category":"restaurant"},{"name":"커피&톡","tel":"031-976-8428","addr":"경기도 고양시 일산동구 설문동 705-39번지","indutype":"일반휴게음식 - 서양음식","category":"restaurant"}]},{"lat":"37.717624823","long":"126.79243501","imageIndex":4,"items":[{"name":"착한한식부페","tel":"031-977-0333","addr":"경기도 고양시 일산동구 설문동 776-3번지","indutype":"일반휴게음식 - 일반한식","category":"restaurant"}]},{"lat":"37.721066046","long":"126.78720781","imageIndex":4,"items":[{"name":"칠갑산두부마을","tel":"031-977-8526","addr":"경기도 고양시 일산동구 설문동 731-2번지","indutype":"일반휴게음식 - 일반한식","category":"restaurant"}]},{"lat":"37.716431037","long":"126.8109025","imageIndex":4,"items":[{"name":"카페GUSA (구사)","tel":"031-977-0442","addr":"경기도 고양시 일산동구 설문동 238-4번지","indutype":"일반휴게음식 - 서양음식","category":"restaurant"}]},{"lat":"37.725451937","long":"126.80148724","imageIndex":4,"items":[{"name":"탕수육","tel":"031-977-7112","addr":"경기도 고양시 일산동구 설문동 583-33번지","indutype":"일반휴게음식 - 중국식","category":"restaurant"}]},{"lat":"37.713404569","long":"126.80589753","imageIndex":4,"items":[{"name":"풍년식당","tel":"031-977-1588","addr":"경기도 고양시 일산동구 설문동 514번지","indutype":"일반휴게음식 - 일반한식","category":"restaurant"}]},{"lat":"37.725592534","long":"126.79426137","imageIndex":4,"items":[{"name":"해나원","tel":"031-977-5354","addr":"경기도 고양시 일산동구 설문동 705-17번지","indutype":"일반휴게음식 - 일반한식","category":"restaurant"}]},{"lat":"37.723202179","long":"126.80303593","imageIndex":4,"items":[{"name":"행복한밥상","tel":"031-968-2211","addr":"경기도 고양시 일산동구 설문동 459-3번지","indutype":"일반휴게음식 - 일반한식","category":"restaurant"}]},{"lat":"37.724259134","long":"126.79942608","imageIndex":4,"items":[{"name":"행복한장어","tel":"031-976-7616","addr":"경기도 고양시 일산동구 설문동 556-1번지","indutype":"일반휴게음식 - 일반한식","category":"restaurant"},{"name":"행복한장어","tel":"031-976-7616","addr":"경기도 고양시 일산동구 설문동 556-1번지","indutype":"일반휴게음식 - 일반한식","category":"restaurant"}]}]