[{"lat":"37.052065128","long":"126.92335613","imageIndex":17,"items":[{"name":"(주)배선닥트","tel":"031-684-8601","addr":"경기도 평택시 청북읍 고렴리 173번지","indutype":"전기제품 - 기타전기제품","category":"other"}]},{"lat":"37.057904301","long":"126.92379975","imageIndex":17,"items":[{"name":"GS25 청북서로점","tel":"","addr":"경기도 평택시 청북읍 고렴리 824-2번지","indutype":"유통업 영리 - 편 의 점","category":"other"}]},{"lat":"37.06470841","long":"126.91271749","imageIndex":17,"items":[{"name":"경기기가컨테이너","tel":"031-278-9662","addr":"경기도 평택시 청북읍 고렴리 731번지","indutype":"건축자재 - 기타건축자재","category":"other"}]},{"lat":"37.05495963","long":"126.92654596","imageIndex":17,"items":[{"name":"나애뜰","tel":"031-681-7044","addr":"경기도 평택시 청북읍 고렴리 100-10번지","indutype":"가구 - 일반가구","category":"other"}]},{"lat":"37.052925452","long":"126.93007802","imageIndex":17,"items":[{"name":"뉴메디클린","tel":"031-686-6879","addr":"경기도 평택시 청북읍 고렴리 291번지","indutype":"수리서비스 - 세탁소","category":"other"}]},{"lat":"37.064423623","long":"126.91751894","imageIndex":17,"items":[{"name":"느런계량증명업소","tel":"031-683-7955","addr":"경기도 평택시 청북읍 고렴리 685-1번지","indutype":"용역 서비스 - 사무서비스","category":"other"}]},{"lat":"37.061757927","long":"126.91954574","imageIndex":17,"items":[{"name":"다원편의점/주식회사 다원에프앤비","tel":"031-111-1111","addr":"경기도 평택시 청북읍 고렴리 483번지","indutype":"유통업 영리 - 편 의 점","category":"other"}]},{"lat":"37.056816211","long":"126.92716245","imageIndex":17,"items":[{"name":"담아라이팅(Dam-a)","tel":"031-683-3013","addr":"경기도 평택시 청북읍 고렴리 958번지","indutype":"건축자재 - 조명기구","category":"other"}]},{"lat":"37.06367654","long":"126.9186329","imageIndex":17,"items":[{"name":"대일프라스틱","tel":"031-686-5057","addr":"경기도 평택시 청북읍 고렴리 644-1번지","indutype":"기타 - 기타 전문점","category":"other"}]},{"lat":"37.0646218","long":"126.91744001","imageIndex":17,"items":[{"name":"대한건설자재유통","tel":"031-681-8388","addr":"경기도 평택시 청북읍 고렴리 688번지","indutype":"건축자재 - 기타건축자재","category":"other"}]},{"lat":"37.064013674","long":"126.91151523","imageIndex":17,"items":[{"name":"덕표내","tel":"","addr":"경기도 평택시 청북읍 고렴리 735-15번지","indutype":"문화.취미 - 애완동물","category":"other"}]},{"lat":"37.049147583","long":"126.92623702","imageIndex":17,"items":[{"name":"덕흥특수산업사","tel":"","addr":"경기도 평택시 청북읍 고렴리 181-5번지","indutype":"용역 서비스 - 부동산 중개·임대","category":"other"}]},{"lat":"37.066456768","long":"126.9259385","imageIndex":17,"items":[{"name":"동탄기업","tel":"031-684-7707","addr":"경기도 평택시 청북읍 고렴리 600-10번지 (601-6,601-8,600-10)","indutype":"건축자재 - 기타건축자재","category":"other"}]},{"lat":"37.056622467","long":"126.92038331","imageIndex":17,"items":[{"name":"새론 내의류","tel":"031-663-0447","addr":"경기도 평택시 청북읍 고렴리 372-3번지","indutype":"의류 - 내의판매","category":"other"}]},{"lat":"37.062010727","long":"126.92026504","imageIndex":17,"items":[{"name":"서울샷시부속","tel":"031-123-4567","addr":"경기도 평택시 청북읍 고렴리 479-4번지 104,105호","indutype":"건축자재 - 목재·석재·철물","category":"other"}]},{"lat":"37.062757179","long":"126.91824039","imageIndex":17,"items":[{"name":"세이프랜드","tel":"031-686-5757","addr":"경기도 평택시 청북읍 고렴리 660-3번지","indutype":"기타 - 기계공구","category":"other"}]},{"lat":"37.067205024","long":"126.92652244","imageIndex":17,"items":[{"name":"신일랩핑","tel":"031-111-1111","addr":"경기도 평택시 청북읍 고렴리 1061번지","indutype":"건축자재 - 인테리어전문","category":"other"}]},{"lat":"37.056124472","long":"126.93049094","imageIndex":17,"items":[{"name":"씨유평택고렴산단점","tel":"02-1577-8007","addr":"경기도 평택시 청북읍 고렴리 962-8번지 1층","indutype":"유통업 영리 - 편 의 점","category":"other"}]},{"lat":"37.065205946","long":"126.91532549","imageIndex":17,"items":[{"name":"씨유평택고령점","tel":"02-1577-8007","addr":"경기도 평택시 청북읍 고렴리 706-4번지","indutype":"유통업 영리 - 편 의 점","category":"other"}]},{"lat":"37.061180376","long":"126.93207145","imageIndex":17,"items":[{"name":"아이지에이마트 청북점","tel":"","addr":"경기도 평택시 청북읍 고렴리 527-15번지 102호,103호","indutype":"유통업 영리 - 편 의 점","category":"other"}]},{"lat":"37.061344349","long":"126.92085042","imageIndex":17,"items":[{"name":"아이켐","tel":"031-683-8003","addr":"경기도 평택시 청북읍 고렴리 477-2번지","indutype":"신변잡화 - 기타잡화","category":"other"}]},{"lat":"37.063871581","long":"126.92726787","imageIndex":17,"items":[{"name":"유진테크","tel":"031-683-9585","addr":"경기도 평택시 청북읍 고렴리 572번지","indutype":"전기제품 - 기타전기제품","category":"other"}]},{"lat":"37.056680409","long":"126.92616198","imageIndex":17,"items":[{"name":"이마트24 청북아이씨점","tel":"","addr":"경기도 평택시 청북읍 고렴리 242-1번지 1층","indutype":"유통업 영리 - 편 의 점","category":"other"}]},{"lat":"37.049731409","long":"126.92340353","imageIndex":17,"items":[{"name":"주식회사 대호씨엠디","tel":"031-683-3866","addr":"경기도 평택시 청북읍 고렴리 216-14번지","indutype":"건축자재 - 기타건축자재","category":"other"}]},{"lat":"37.059458716","long":"126.9310162","imageIndex":17,"items":[{"name":"주식회사부성산업","tel":"031-686-9500","addr":"경기도 평택시 청북읍 고렴리 934-6","indutype":"건축자재 - 보일러·펌프·샷시","category":"other"}]},{"lat":"37.057758014","long":"126.92068564","imageIndex":17,"items":[{"name":"한주정밀","tel":"031-683-0701","addr":"경기도 평택시 청북읍 고렴리 975","indutype":"기타 - 기계공구","category":"other"}]},{"lat":"37.054455726","long":"126.92762573","imageIndex":17,"items":[{"name":"호윤에너지","tel":"031-686-9814","addr":"경기도 평택시 청북읍 고렴리 102-1번지 A동","indutype":"유통업 영리 - 기타유통업","category":"other"}]}]