[{"lat":"37.829557881","long":"127.14086988","imageIndex":16,"items":[{"name":"(주)대한물산","tel":"070-7124-8842","addr":"경기도 포천시 소흘읍 송우리 729-4","indutype":"학원 - 독서실","category":"study"},{"name":"베스트 원룸텔","tel":"031-541-0777","addr":"경기도 포천시 소흘읍 송우리 729-4번지 대한프라자 8층","indutype":"학원 - 독서실","category":"study"},{"name":"차일드유종합학원","tel":"544-0579","addr":"경기도 포천시 소흘읍 송우리 729-4번지 6층","indutype":"교육서비스 - 학원","category":"study"},{"name":"차일드유종합학원","tel":"031-544-0579","addr":"경기도 포천시 소흘읍 송우리 729-4번지 대한프라자 601호 604호","indutype":"학원 - 보습학원","category":"study"}]},{"lat":"37.831503591","long":"127.14114613","imageIndex":16,"items":[{"name":"BASSEO","tel":"031-351-1751","addr":"경기도 포천시 소흘읍 송우리 726-16번지 301호","indutype":"학원 - 보습학원","category":"study"}]},{"lat":"37.829115312","long":"127.14181184","imageIndex":16,"items":[{"name":"GnB송우어학원","tel":"031-541-1245","addr":"경기도 포천시 소흘읍 송우리 729-8번지 GS프라자 601호","indutype":"학원 - 보습학원","category":"study"},{"name":"GnB영어학원","tel":"541-1245","addr":"경기도 포천시 소흘읍 송우리 729-8번지 6층","indutype":"교육서비스 - 학원","category":"study"},{"name":"강남에듀학원","tel":"031-543-4764","addr":"경기도 포천시 소흘읍 송우리 729-8번지 502호GS프라자","indutype":"회원제형태 - 학원","category":"study"},{"name":"빡쎈학원","tel":"031-544-0520","addr":"경기도 포천시 소흘읍 송우리 729-8번지 5층","indutype":"학원 - 보습학원","category":"study"},{"name":"송우이룸프리미엄스터디센터독서실","tel":"031-541-2025","addr":"경기도 포천시 소흘읍 송우리 729-8번지 802, 803호","indutype":"학원 - 독서실","category":"study"},{"name":"한양음악학원","tel":"02-000-0000","addr":"경기도 포천시 소흘읍 송우리 729-8번지 604호","indutype":"학원 - 예·체능계학원","category":"study"}]},{"lat":"37.831224766","long":"127.14074804","imageIndex":16,"items":[{"name":"Samcheung","tel":"031-957-2770","addr":"경기도 포천시 소흘읍 송우리 726-19번지 2층 202호","indutype":"학원 - 기타 교육기관","category":"study"}]},{"lat":"37.829286825","long":"127.14152819","imageIndex":16,"items":[{"name":"강한수학교습소","tel":"031-541-1329","addr":"경기도 포천시 소흘읍 송우리 729-7번지 메듀파크 705호","indutype":"학원 - 보습학원","category":"study"},{"name":"블럭n코딩","tel":"031-543-6662","addr":"경기도 포천시 소흘읍 송우리 729-7번지 메듀파크 2층 201호","indutype":"학원 - 기타 교육기관","category":"study"},{"name":"아름다운우리보습학원","tel":"031-541-0803","addr":"경기도 포천시 소흘읍 송우리 729-7번지 (메듀파크601호,602호,603호)","indutype":"학원 - 보습학원","category":"study"},{"name":"아름다운우리학원","tel":"541-0803","addr":"경기도 포천시 소흘읍 송우리 729-7번지 6층","indutype":"교육서비스 - 학원","category":"study"},{"name":"오렌지음악학원","tel":"543-2242","addr":"경기도 포천시 소흘읍 송우리 729-7번지 메듀파크 702호","indutype":"교육서비스 - 학원","category":"study"},{"name":"오렌지음악학원","tel":"031-543-2242","addr":"경기도 포천시 소흘읍 송우리 729-7번지 메듀파크 702호","indutype":"학원 - 예·체능계학원","category":"study"}]},{"lat":"37.829892409","long":"127.13985956","imageIndex":16,"items":[{"name":"경덕학원","tel":"031-543-1591","addr":"경기도 포천시 소흘읍 송우리 729-1번지 704,705,706호","indutype":"학원 - 보습학원","category":"study"},{"name":"멘사IS보습학원","tel":"031-544-8734","addr":"경기도 포천시 소흘읍 송우리 729-1번지 희성RICH프라자 306호","indutype":"학원 - 보습학원","category":"study"},{"name":"블럭아일랜드","tel":"031-543-7555","addr":"경기도 포천시 소흘읍 송우리 729-1번지 희성리치프라자 5층 505호","indutype":"학원 - 기타 교육기관","category":"study"},{"name":"빼어날수(  )학원","tel":"031-544-2972","addr":"경기도 포천시 소흘읍 송우리 729-1번지 희성프라자 204호","indutype":"학원 - 보습학원","category":"study"},{"name":"소미아트센터미술학원(포천점)","tel":"031-542-9276","addr":"경기도 포천시 소흘읍 송우리 729-1번지 희성리치프라자 402 403호","indutype":"학원 - 예·체능계학원","category":"study"},{"name":"솔로몬독서실","tel":"031-542-2886","addr":"경기도 포천시 소흘읍 송우리 729-1번지 희성리치프라자 701 ,702,703","indutype":"학원 - 독서실","category":"study"},{"name":"송우미래태권도","tel":"541-9569","addr":"경기도 포천시 소흘읍 송우리 729-1번지","indutype":"교육서비스 - 학원","category":"study"},{"name":"송우합기도용무관","tel":"031-542-4366","addr":"경기도 포천시 소흘읍 송우리 729-1 회성리치프라자 605호~606호","indutype":"회원제형태 - 학원","category":"study"},{"name":"아르떼음악학원","tel":"031-542-0418","addr":"경기도 포천시 소흘읍 송우리 729-1번지 희성RICH프라자 301호","indutype":"학원 - 예·체능계학원","category":"study"},{"name":"아르떼음악학원","tel":"542-0418","addr":"경기도 포천시 소흘읍 송우리 729-1번지 3층 희성리치프라자","indutype":"교육서비스 - 학원","category":"study"},{"name":"연오름학원","tel":"031-541-1001","addr":"경기도 포천시 소흘읍 송우리 729-1번지 희성리치프라자 605호","indutype":"학원 - 보습학원","category":"study"},{"name":"윤선생국악(가야금교습소)","tel":"031-544-0915","addr":"경기도 포천시 소흘읍 송우리 729-1번지 희성RICH프라자 304호","indutype":"학원 - 예·체능계학원","category":"study"},{"name":"장원교육학원","tel":"031-543-9979","addr":"경기도 포천시 소흘읍 송우리 729-1번지 희성RICH프라자 603호","indutype":"학원 - 보습학원","category":"study"}]},{"lat":"37.824453777","long":"127.13720307","imageIndex":16,"items":[{"name":"경희대석사효태권도","tel":"031-536-6526","addr":"경기도 포천시 소흘읍 송우리 498-10번지 1층","indutype":"학원 - 예·체능계학원","category":"study"}]},{"lat":"37.827534747","long":"127.13742446","imageIndex":16,"items":[{"name":"김선생기타학원","tel":"542-0021","addr":"경기도 포천시 소흘읍 송우리 392-13번지","indutype":"교육서비스 - 학원","category":"study"},{"name":"삼성영어송우학원","tel":"541-3405","addr":"경기도 포천시 소흘읍 송우리 392-13번지","indutype":"교육서비스 - 학원","category":"study"},{"name":"슈만음악학원","tel":"542-8586","addr":"경기도 포천시 소흘읍 송우리 392-13번지","indutype":"교육서비스 - 학원","category":"study"}]},{"lat":"37.835082345","long":"127.14698035","imageIndex":16,"items":[{"name":"꼬꼬마어린이집[아이행복]","tel":"031-544-0949","addr":"경기도 포천시 소흘읍 송우리 725-6번지 송천마을주공2단지 212동 103호","indutype":"학원 - 유아원","category":"study"}]},{"lat":"37.826450778","long":"127.13988727","imageIndex":16,"items":[{"name":"대경중학교","tel":"031-541-0427","addr":"경기도 포천시 소흘읍 송우리 729-13번지 대경중학교","indutype":"학원 - 초중고교육기관","category":"study"}]},{"lat":"37.828778827","long":"127.14444645","imageIndex":16,"items":[{"name":"대한학원","tel":"031-542-9597","addr":"경기도 포천시 소흘읍 송우리 209-6","indutype":"학원 - 기타 교육기관","category":"study"},{"name":"대한학원","tel":"542-9597","addr":"경기도 포천시 소흘읍 송우리 209-6번지","indutype":"교육서비스 - 학원","category":"study"},{"name":"용인대한국태권도장","tel":"543-9597","addr":"경기도 포천시 소흘읍 송우리 209-6번지","indutype":"교육서비스 - 학원","category":"study"},{"name":"포천 용인대 한국 태권도장","tel":"031-543-9597","addr":"경기도 포천시 소흘읍 송우리 209-6번지","indutype":"학원 - 예·체능계학원","category":"study"}]},{"lat":"37.825923638","long":"127.13603582","imageIndex":16,"items":[{"name":"대호 합기도 해동검도","tel":"031-542-5665","addr":"경기도 포천시 소흘읍 송우리 728-26번지 2층","indutype":"학원 - 예·체능계학원","category":"study"}]},{"lat":"37.827420402","long":"127.1349708","imageIndex":16,"items":[{"name":"동남고등학교","tel":"031-540-5508","addr":"경기도 포천시 소흘읍 송우리 537-1번지 동남고등학교","indutype":"학원 - 초중고교육기관","category":"study"},{"name":"동남중학교","tel":"031-540-5510","addr":"경기도 포천시 소흘읍 송우리 537-1번지 동남고등학교","indutype":"학원 - 초중고교육기관","category":"study"}]},{"lat":"37.831116414","long":"127.1409523","imageIndex":16,"items":[{"name":"두뇌로 수학","tel":"080-250-9981","addr":"경기도 포천시 소흘읍 송우리 726-35번지","indutype":"학원 - 학습지 교육","category":"study"}]},{"lat":"37.825950828","long":"127.14364596","imageIndex":16,"items":[{"name":"라온실용음악학원","tel":"031-543-7799","addr":"경기도 포천시 소흘읍 송우리 149-4번지 시온빌딩 5층","indutype":"회원제형태 - 학원","category":"study"}]},{"lat":"37.830116344","long":"127.14097315","imageIndex":16,"items":[{"name":"뮤엠영어송우제1학원","tel":"031-544-0594","addr":"경기도 포천시 소흘읍 송우리 726-78번지 랜드프라자 404호","indutype":"학원 - 외국어학원","category":"study"},{"name":"송우리 검도교실","tel":"542-7696","addr":"경기도 포천시 소흘읍 송우리 726-78번지 랜드프라자 304호","indutype":"교육서비스 - 학원","category":"study"},{"name":"송우리검도교실","tel":"031-542-7696","addr":"경기도 포천시 소흘읍 송우리 726-78번지 랜드프라자 3층 304호","indutype":"학원 - 예·체능계학원","category":"study"},{"name":"예일 요양보호사교육원","tel":"031-543-9968","addr":"경기도 포천시 소흘읍 송우리 726-78번지 랜드프라자 4층 401호","indutype":"학원 - 기능학원","category":"study"},{"name":"케이댄스","tel":"070-7405-0532","addr":"경기도 포천시 소흘읍 송우리 726-78번지 랜드프라자 204호","indutype":"회원제형태 - 학원","category":"study"},{"name":"토즈스터디센터 송우 독서실","tel":"031-542-2589","addr":"경기도 포천시 소흘읍 송우리 726-78번지 802,804호","indutype":"학원 - 독서실","category":"study"},{"name":"파비스학원","tel":"031-543-2505","addr":"경기도 포천시 소흘읍 송우리 726-78번지 랜드프라자 6층","indutype":"학원 - 보습학원","category":"study"}]},{"lat":"37.83548003","long":"127.15317222","imageIndex":16,"items":[{"name":"민 요리학원","tel":"541-4415","addr":"경기도 포천시 소흘읍 송우리 71-1번지","indutype":"교육서비스 - 학원","category":"study"},{"name":"현대요리학원","tel":"031-541-4415","addr":"경기도 포천시 소흘읍 송우리 71-1번지 3층","indutype":"회원제형태 - 학원","category":"study"}]},{"lat":"37.834586453","long":"127.1472861","imageIndex":16,"items":[{"name":"베베궁어린이집[아이행복]","tel":"031-543-3442","addr":"경기도 포천시 소흘읍 송우리 725-6번지 송천마을주공2단지","indutype":"학원 - 유아원","category":"study"},{"name":"송천어린이집[아이행복]","tel":"031-541-1323","addr":"경기도 포천시 소흘읍 송우리 725-6번지","indutype":"학원 - 유아원","category":"study"},{"name":"이수음악교습소","tel":"031-544-2002","addr":"경기도 포천시 소흘읍 송우리 725-6번지 상가동 202호,203호","indutype":"학원 - 예·체능계학원","category":"study"},{"name":"작은씨앗어린이집[아이행복]","tel":"031-543-8738","addr":"경기도 포천시 소흘읍 송우리 725-6번지","indutype":"학원 - 유아원","category":"study"}]},{"lat":"37.829810967","long":"127.1401661","imageIndex":16,"items":[{"name":"빈센트미술학원","tel":"031-543-5584","addr":"경기도 포천시 소흘읍 송우리 729-2번지 삼화프라자 405호","indutype":"학원 - 예·체능계학원","category":"study"},{"name":"쇼팽음악학원","tel":"031-542-6060","addr":"경기도 포천시 소흘읍 송우리 729-2번지 삼화프라자 603호","indutype":"학원 - 예·체능계학원","category":"study"},{"name":"쇼팽음악학원","tel":"542-6060","addr":"경기도 포천시 소흘읍 송우리 729-2번지 삼각프라자 603호","indutype":"교육서비스 - 학원","category":"study"},{"name":"제스트학원","tel":"031-542-9654","addr":"경기도 포천시 소흘읍 송우리 729-2번지 삼우프라자 302호","indutype":"학원 - 보습학원","category":"study"},{"name":"한솔플러스학원","tel":"031-543-5574","addr":"경기도 포천시 소흘읍 송우리 729-2번지 삼화프라자 404호","indutype":"학원 - 보습학원","category":"study"},{"name":"한양무용학원","tel":"031-543-0325","addr":"경기도 포천시 소흘읍 송우리 729-2번지 삼화프라자 403호","indutype":"학원 - 예·체능계학원","category":"study"},{"name":"한우리독서토론논술교습소","tel":"031-544-1909","addr":"경기도 포천시 소흘읍 송우리 729-2번지 삼화프라자 204호","indutype":"학원 - 보습학원","category":"study"}]},{"lat":"37.829529127","long":"127.14233513","imageIndex":16,"items":[{"name":"산림문화연구원묵당","tel":"031-541-9892","addr":"경기도 포천시 소흘읍 송우리 726-84번지 송우웰빙타운 3층","indutype":"학원 - 기타 교육기관","category":"study"},{"name":"서울영수학원","tel":"541-8552","addr":"경기도 포천시 소흘읍 송우리 726-84번지 송우웰빙타운 7층 702호","indutype":"교육서비스 - 학원","category":"study"},{"name":"서울영수학원","tel":"031-541-8553","addr":"경기도 포천시 소흘읍 송우리 726-84번지 송우웰빙타운 7층 702호","indutype":"학원 - 보습학원","category":"study"},{"name":"연세멘사학원","tel":"542-5425","addr":"경기도 포천시 소흘읍 송우리 726-84번지 송우웰빙타운 701호","indutype":"교육서비스 - 학원","category":"study"},{"name":"윤선생영어숲포천학원","tel":"031-535-0579","addr":"경기도 포천시 소흘읍 송우리 726-84번지 송우웰빙타운 901호","indutype":"학원 - 외국어학원","category":"study"},{"name":"제이프라임학원","tel":"","addr":"경기도 포천시 소흘읍 송우리 726-84번지 송우웰빙타운 7층 701호","indutype":"학원 - 보습학원","category":"study"},{"name":"캠스학원송우","tel":"031-541-6787","addr":"경기도 포천시 소흘읍 송우리 726-84번지 송우웰빙타운 601동 603호","indutype":"학원 - 보습학원","category":"study"},{"name":"캠스학원송우","tel":"541-7373","addr":"경기도 포천시 소흘읍 송우리 726-84번지 송우웰빙타운 601호","indutype":"교육서비스 - 학원","category":"study"}]},{"lat":"37.830945435","long":"127.14078159","imageIndex":16,"items":[{"name":"삼성영어송우2공부방","tel":"031-543-3505","addr":"경기도 포천시 소흘읍 송우리 726-36번지 301호","indutype":"학원 - 기타 교육기관","category":"study"}]},{"lat":"37.828898429","long":"127.14236802","imageIndex":16,"items":[{"name":"삼정서예학원","tel":"031-543-9613","addr":"경기도 포천시 소흘읍 송우리 410-18번지 다산빌딩 301호","indutype":"회원제형태 - 학원","category":"study"},{"name":"이화엠베스트학원","tel":"031-542-5505","addr":"경기도 포천시 소흘읍 송우리 410-18번지","indutype":"교육서비스 - 학원","category":"study"},{"name":"이화엠베스트학원","tel":"031-542-5505","addr":"경기도 포천시 소흘읍 송우리 410-18번지","indutype":"학원 - 보습학원","category":"study"},{"name":"홍익 입시 미술학원","tel":"031-543-4233","addr":"경기도 포천시 소흘읍 송우리 410-18번지 다산빌딩 201호","indutype":"회원제형태 - 학원","category":"study"}]},{"lat":"37.82711232","long":"127.14425017","imageIndex":16,"items":[{"name":"상아어린이집[아이행복]","tel":"031-543-5634","addr":"경기도 포천시 소흘읍 송우리 148-20번지","indutype":"학원 - 유아원","category":"study"}]},{"lat":"37.828283774","long":"127.14405931","imageIndex":16,"items":[{"name":"선한태권도","tel":"","addr":"경기도 포천시 소흘읍 송우리 160-10번지 5층","indutype":"학원 - 예·체능계학원","category":"study"}]},{"lat":"37.833088924","long":"127.14142171","imageIndex":16,"items":[{"name":"소리엘음악교습소","tel":"031-544-2019","addr":"경기도 포천시 소흘읍 송우리 727-2번지 태봉마을주공아파트 주상가동 204호","indutype":"학원 - 예·체능계학원","category":"study"},{"name":"포천송우 합기도검무관","tel":"544-7881","addr":"경기도 포천시 소흘읍 송우리 727-2번지","indutype":"교육서비스 - 학원","category":"study"}]},{"lat":"37.828591355","long":"127.14300353","imageIndex":16,"items":[{"name":"솔모루장애인학교","tel":"031-533-2188","addr":"경기도 포천시 소흘읍 송우리 159-3번지 우덕프라자 302호","indutype":"학원 - 기타 교육기관","category":"study"},{"name":"아이짐 JUN 태권도","tel":"031-544-6112","addr":"경기도 포천시 소흘읍 송우리 159-3번지 우덕프라자 301호","indutype":"학원 - 예·체능계학원","category":"study"},{"name":"아이짐준태권도","tel":"544-6112","addr":"경기도 포천시 소흘읍 송우리 159-3번지","indutype":"교육서비스 - 학원","category":"study"},{"name":"차오름학원","tel":"031-543-6000","addr":"경기도 포천시 소흘읍 송우리 159-3번지","indutype":"학원 - 보습학원","category":"study"},{"name":"한울독서실","tel":"031-000-0000","addr":"경기도 포천시 소흘읍 송우리 159-3번지 우덕프라자 4층 405호","indutype":"학원 - 독서실","category":"study"}]},{"lat":"37.829452578","long":"127.13845024","imageIndex":16,"items":[{"name":"송우고등학교","tel":"031-541-6311","addr":"경기도 포천시 소흘읍 송우리 728-8번지 송우고등학교","indutype":"학원 - 초중고교육기관","category":"study"},{"name":"송우고등학교_수업료","tel":"031-541-6311","addr":"경기도 포천시 소흘읍 송우리 728-8번지 송우고등학교","indutype":"학원 - 초중고교육기관","category":"study"}]},{"lat":"37.825037223","long":"127.13908959","imageIndex":16,"items":[{"name":"송우미래태권도","tel":"031-542-9569","addr":"경기도 포천시 소흘읍 송우리 730-1번지 영화I-NIX아파트(연봉마을) 201,202,203호","indutype":"회원제형태 - 학원","category":"study"}]},{"lat":"37.835310624","long":"127.14447029","imageIndex":16,"items":[{"name":"송우중학교","tel":"031-5211-4536","addr":"경기도 포천시 소흘읍 송우리 725-2번지 송우중학교","indutype":"학원 - 초중고교육기관","category":"study"}]},{"lat":"37.829671928","long":"127.14347129","imageIndex":16,"items":[{"name":"송우초등학교","tel":"031-542-1584","addr":"경기도 포천시 소흘읍 송우리 214번지 송우초등학교","indutype":"학원 - 초중고교육기관","category":"study"}]},{"lat":"37.832728094","long":"127.14180726","imageIndex":16,"items":[{"name":"송우충효태권도","tel":"031-542-7333","addr":"경기도 포천시 소흘읍 송우리 727-3 주공3단지분산상가201호~202호","indutype":"학원 - 예·체능계학원","category":"study"}]},{"lat":"37.826031726","long":"127.13605873","imageIndex":16,"items":[{"name":"숙명음악학원","tel":"031-543-1330","addr":"경기도 포천시 소흘읍 송우리 728-25번지","indutype":"학원 - 예·체능계학원","category":"study"}]},{"lat":"37.831641324","long":"127.13891998","imageIndex":16,"items":[{"name":"신봉초등학교","tel":"031-544-0422","addr":"경기도 포천시 소흘읍 송우리 727-4번지 신봉초등학교","indutype":"학원 - 초중고교육기관","category":"study"},{"name":"신봉초등학교병설유치원[아이행복]","tel":"031-544-0422","addr":"경기도 포천시 소흘읍 송우리 727-4번지 신봉초등학교","indutype":"학원 - 유치원","category":"study"}]},{"lat":"37.830783757","long":"127.14036101","imageIndex":16,"items":[{"name":"씽크톡 창의수학 창의한글","tel":"031-542-3456","addr":"경기도 포천시 소흘읍 송우리 726-57번지 202호","indutype":"학원 - 기타 교육기관","category":"study"},{"name":"초미지 공부방","tel":"031-541-9419","addr":"경기도 포천시 소흘읍 송우리 726-57번지 203호","indutype":"학원 - 기타 교육기관","category":"study"}]},{"lat":"37.834422899","long":"127.14841039","imageIndex":16,"items":[{"name":"아이숲어린이집[아이행복]","tel":"031-544-0364","addr":"경기도 포천시 소흘읍 송우리 725-6번지 송천마을뜨란채 203동 104호","indutype":"학원 - 유아원","category":"study"}]},{"lat":"37.831341715","long":"127.14089592","imageIndex":16,"items":[{"name":"아이젠 수학학원","tel":"542-0622","addr":"경기도 포천시 소흘읍 송우리 726-18번지 2층","indutype":"교육서비스 - 학원","category":"study"}]},{"lat":"37.828835","long":"127.14267458","imageIndex":16,"items":[{"name":"아이젠 수학학원","tel":"031-542-0622","addr":"경기도 포천시 소흘읍 송우리 422-4번지 성조빌딩 3층","indutype":"학원 - 보습학원","category":"study"}]},{"lat":"37.834007186","long":"127.14944329","imageIndex":16,"items":[{"name":"예인음악학원","tel":"544-4066","addr":"경기도 포천시 소흘읍 송우리 725-7번지 석향마을대방노블랜드아파트 307호","indutype":"교육서비스 - 학원","category":"study"},{"name":"쿠킹카페","tel":"031-542-6464","addr":"경기도 포천시 소흘읍 송우리 725-7번지 석향마을대방노블랜드아파트","indutype":"학원 - 기타 교육기관","category":"study"}]},{"lat":"37.8390305","long":"127.1453067","imageIndex":16,"items":[{"name":"원암어린이집[아이행복]","tel":"031-544-2177","addr":"경기도 포천시 소흘읍 송우리 290-4번지","indutype":"학원 - 유아원","category":"study"}]},{"lat":"37.830503708","long":"127.14100795","imageIndex":16,"items":[{"name":"이녘스 공부방","tel":"","addr":"경기도 포천시 소흘읍 송우리 726-62번지 302호","indutype":"학원 - 기타 교육기관","category":"study"}]},{"lat":"37.830007965","long":"127.14120013","imageIndex":16,"items":[{"name":"제니학원","tel":"031-543-1717","addr":"경기도 포천시 소흘읍 송우리 726-79번지 3층 302호","indutype":"학원 - 보습학원","category":"study"}]},{"lat":"37.833311962","long":"127.13550384","imageIndex":16,"items":[{"name":"창의숲어린이집[아이행복]","tel":"031-541-4448","addr":"경기도 포천시 소흘읍 송우리 572-25번지","indutype":"학원 - 유아원","category":"study"}]},{"lat":"37.824779918","long":"127.13561351","imageIndex":16,"items":[{"name":"청암어린이집[아이행복]","tel":"031-543-2815","addr":"경기도 포천시 소흘읍 송우리 519-31번지","indutype":"학원 - 유아원","category":"study"}]},{"lat":"37.82580807","long":"127.14247578","imageIndex":16,"items":[{"name":"최강태권도","tel":"541-4195","addr":"경기도 포천시 소흘읍 송우리 430-15번지","indutype":"교육서비스 - 학원","category":"study"},{"name":"최강태권도장","tel":"031-541-4195","addr":"경기도 포천시 소흘읍 송우리 430-15번지 2층","indutype":"학원 - 예·체능계학원","category":"study"}]},{"lat":"37.82581465","long":"127.13680799","imageIndex":16,"items":[{"name":"추산유치원[아이행복]","tel":"031-543-4875","addr":"경기도 포천시 소흘읍 송우리 728-11번지 추산초등학교","indutype":"학원 - 유치원","category":"study"},{"name":"추산초등학교","tel":"031-543-4876","addr":"경기도 포천시 소흘읍 송우리 728-11번지 추산초등학교","indutype":"학원 - 초중고교육기관","category":"study"},{"name":"추산초병설유치원[아이행복]","tel":"031-543-5291","addr":"경기도 포천시 소흘읍 송우리 728-11번지 추산초등학교","indutype":"학원 - 유치원","category":"study"}]},{"lat":"37.826508813","long":"127.13642306","imageIndex":16,"items":[{"name":"칸타빌레 피아노 교습소","tel":"031-542-0213","addr":"경기도 포천시 소흘읍 송우리 728-16번지","indutype":"학원 - 예·체능계학원","category":"study"}]},{"lat":"37.831781371","long":"127.14983646","imageIndex":16,"items":[{"name":"컬러몽실용음악학원","tel":"031-541-5566","addr":"경기도 포천시 소흘읍 송우리 94번지 대용빌딩 2층","indutype":"회원제형태 - 학원","category":"study"}]},{"lat":"37.834201894","long":"127.14494527","imageIndex":16,"items":[{"name":"태봉초등학교","tel":"031-544-2262","addr":"경기도 포천시 소흘읍 송우리 725-4번지 태봉초등학교","indutype":"학원 - 초중고교육기관","category":"study"},{"name":"태봉초등학교병설유치원[아이행복]","tel":"031-544-2821","addr":"경기도 포천시 소흘읍 송우리 725-4번지 태봉초등학교","indutype":"학원 - 유치원","category":"study"}]},{"lat":"37.824643646","long":"127.13661279","imageIndex":16,"items":[{"name":"필즈수학전문학원","tel":"031-543-3029","addr":"경기도 포천시 소흘읍 송우리 514-1번지 2층,3층","indutype":"학원 - 보습학원","category":"study"},{"name":"필즈학원","tel":"543-3029","addr":"경기도 포천시 소흘읍 송우리 514-1번지 2.3층","indutype":"교육서비스 - 학원","category":"study"}]}]