[{"lat":"37.016776179","long":"127.25331623","imageIndex":16,"items":[{"name":"낙원어린이집[아이행복]","tel":"031-675-9117","addr":"경기도 안성시 신소현동 159번지","indutype":"학원 - 유아원","category":"study"}]},{"lat":"37.016324946","long":"127.25787685","imageIndex":16,"items":[{"name":"더채움학원","tel":"031-1111-2222","addr":"경기도 안성시 신소현동 182번지 103,206","indutype":"학원 - 보습학원","category":"study"},{"name":"용인대비룡태권도장","tel":"031-671-4609","addr":"경기도 안성시 신소현동 182번지 안성신소현코아루 상가동 201동 203호","indutype":"학원 - 예·체능계학원","category":"study"}]},{"lat":"37.01634427","long":"127.25727013","imageIndex":16,"items":[{"name":"별초롱어린이집[아이행복]","tel":"031-671-3683","addr":"경기도 안성시 신소현동 111번지 코아루APT 109동 101호","indutype":"학원 - 유아원","category":"study"},{"name":"비움채움수학과학","tel":"031-1111-1111","addr":"경기도 안성시 신소현동 175번지 안성신소현코아루 109동 704호","indutype":"학원 - 기타 교육기관","category":"study"}]},{"lat":"37.017721055","long":"127.25812872","imageIndex":16,"items":[{"name":"안성여자고등학교","tel":"031-8056-0106","addr":"경기도 안성시 신소현동 110번지 안성여자고등학교","indutype":"학원 - 초중고교육기관","category":"study"},{"name":"안성여자고등학교_수업료","tel":"031-8056-0106","addr":"경기도 안성시 신소현동 110번지 안성여자고등학교","indutype":"학원 - 초중고교육기관","category":"study"}]},{"lat":"37.016210578","long":"127.25658424","imageIndex":16,"items":[{"name":"엄마품어린이집[아이행복]","tel":"031-671-0222","addr":"경기도 안성시 신소현동 175번지 안성신소현코아루 108동 103호","indutype":"학원 - 유아원","category":"study"}]},{"lat":"37.016859556","long":"127.25648527","imageIndex":16,"items":[{"name":"이쌤수학과외","tel":"031-672-7070","addr":"경기도 안성시 신소현동 175번지 안성신소현코아루 107동 401호","indutype":"학원 - 기타 교육기관","category":"study"}]},{"lat":"37.016893891","long":"127.2572832","imageIndex":16,"items":[{"name":"키즈맘 어린이집[아이행복]","tel":"031-674-4422","addr":"경기도 안성시 신소현동 175번지 안성신소현코아루 110동 102호","indutype":"학원 - 유아원","category":"study"}]}]