[{"lat":"37.12287918","long":"127.62811016","imageIndex":17,"items":[{"name":"GS25장호원노탑점","tel":"","addr":"경기도 이천시 장호원읍 노탑리 195-1번지","indutype":"유통업 영리 - 편 의 점","category":"other"}]},{"lat":"37.122210516","long":"127.63017506","imageIndex":17,"items":[{"name":"미소마트","tel":"031-641-4113","addr":"경기도 이천시 장호원읍 노탑리 191-10번지","indutype":"신변잡화 - 기타잡화","category":"other"}]},{"lat":"37.123487286","long":"127.62898159","imageIndex":17,"items":[{"name":"뱀부앤뱀부(BNB)","tel":"031-641-5845","addr":"경기도 이천시 장호원읍 노탑리 191-22번지 2층","indutype":"레져용품 - 스포츠·레져용품","category":"other"}]},{"lat":"37.122909531","long":"127.62748028","imageIndex":17,"items":[{"name":"아트포토","tel":"031-641-2661","addr":"경기도 이천시 장호원읍 노탑리 199-14번지 으뜸마을 1동 502호","indutype":"광학제품 - 사진관","category":"other"}]},{"lat":"37.121104194","long":"127.62980587","imageIndex":17,"items":[{"name":"책방소요(경기도서정보)","tel":"031-643-0201","addr":"경기도 이천시 장호원읍 노탑리 173-15번지","indutype":"서적문구 - 일반서적","category":"other"},{"name":"책방소요(경기도서정보)","tel":"070-4202-4255","addr":"경기도 이천시 장호원읍 노탑리 173-15번지","indutype":"회원제형태 - 서적","category":"other"}]},{"lat":"37.135540017","long":"127.62786544","imageIndex":17,"items":[{"name":"청미아이언","tel":"","addr":"경기도 이천시 장호원읍 노탑리 355-1번지","indutype":"기타 - 기계공구","category":"other"}]},{"lat":"37.122239412","long":"127.62811615","imageIndex":7,"items":[{"name":"건국우유장호원보급소","tel":"031-641-5508","addr":"경기도 이천시 장호원읍 노탑리 196-1","indutype":"음료식품 - 기타음료식품","category":"food"}]},{"lat":"37.126598397","long":"127.61817074","imageIndex":7,"items":[{"name":"경기마을교육공동체 사회적협동조합 장호원","tel":"031-847-7100","addr":"경기도 이천시 장호원읍 노탑리 717번지 장호원중학교","indutype":"음료식품 - 기타음료식품","category":"food"}]},{"lat":"37.134595354","long":"127.62416635","imageIndex":7,"items":[{"name":"놀부농원","tel":"031-641-6798","addr":"경기도 이천시 장호원읍 노탑리 602-5","indutype":"음료식품 - 농·축·수산품","category":"food"}]},{"lat":"37.129487909","long":"127.62044479","imageIndex":7,"items":[{"name":"샘골톱라이스영농조합법인","tel":"031-641-7199","addr":"경기도 이천시 장호원읍 노탑리 678번지","indutype":"음료식품 - 미곡상","category":"food"}]},{"lat":"37.122518045","long":"127.62995255","imageIndex":7,"items":[{"name":"장호원닭직판장","tel":"031-642-9130","addr":"경기도 이천시 장호원읍 노탑리 191-6번지 1층","indutype":"음료식품 - 정육점","category":"food"}]},{"lat":"37.135344928","long":"127.62555674","imageIndex":7,"items":[{"name":"정진농원","tel":"031-641-1762","addr":"경기도 이천시 장호원읍 노탑리 348-4번지","indutype":"음료식품 - 농·축·수산품","category":"food"}]},{"lat":"37.134845657","long":"127.62797227","imageIndex":4,"items":[{"name":"금호다미원","tel":"031-642-7001","addr":"경기도 이천시 장호원읍 노탑리 358-1번지","indutype":"일반휴게음식 - 일반한식","category":"restaurant"}]},{"lat":"37.12287918","long":"127.62811016","imageIndex":4,"items":[{"name":"멕시카나 장호원점","tel":"031-642-9282","addr":"경기도 이천시 장호원읍 노탑리 195-1번지","indutype":"일반휴게음식 - 일반한식","category":"restaurant"}]},{"lat":"37.122239412","long":"127.62811615","imageIndex":4,"items":[{"name":"아담(adam)","tel":"031-642-0508","addr":"경기도 이천시 장호원읍 노탑리 196-1번지","indutype":"일반휴게음식 - 일반한식","category":"restaurant"}]},{"lat":"37.121990145","long":"127.62925057","imageIndex":4,"items":[{"name":"장원포차","tel":"031-642-2177","addr":"경기도 이천시 장호원읍 노탑리 180-3번지","indutype":"일반휴게음식 - 주점","category":"restaurant"}]},{"lat":"37.12184949","long":"127.62858553","imageIndex":4,"items":[{"name":"진장화","tel":"031-641-4048","addr":"경기도 이천시 장호원읍 노탑리 193-33번지","indutype":"일반휴게음식 - 중국식","category":"restaurant"}]},{"lat":"37.147343636","long":"127.62613909","imageIndex":4,"items":[{"name":"청미","tel":"031-641-7014","addr":"경기도 이천시 장호원읍 노탑리 531번지","indutype":"일반휴게음식 - 일반한식","category":"restaurant"}]},{"lat":"37.121707824","long":"127.62811178","imageIndex":7,"items":[{"name":"노탑슈퍼","tel":"031-641-2442","addr":"경기도 이천시 장호원읍 노탑리 193-8번지","indutype":"유통업 영리 - 슈퍼마켓","category":"mart"}]},{"lat":"37.123573461","long":"127.62972496","imageIndex":5,"items":[{"name":"모텔2080","tel":"031-643-1529","addr":"경기도 이천시 장호원읍 노탑리 190-2번지","indutype":"숙박업 - 여관/기타숙박업","category":"hotel"}]},{"lat":"37.121104194","long":"127.62980587","imageIndex":16,"items":[{"name":"올림피아드속셈학원","tel":"031-642-7718","addr":"경기도 이천시 장호원읍 노탑리 173-15번지","indutype":"학원 - 기타 교육기관","category":"study"}]},{"lat":"37.126598397","long":"127.61817074","imageIndex":16,"items":[{"name":"장호원고등학교","tel":"031-641-2028","addr":"경기도 이천시 장호원읍 노탑리 717번지 장호원고등학교","indutype":"학원 - 초중고교육기관","category":"study"},{"name":"장호원고등학교_수업료","tel":"031-641-2028","addr":"경기도 이천시 장호원읍 노탑리 717번지 장호원고등학교","indutype":"학원 - 초중고교육기관","category":"study"},{"name":"장호원중학교","tel":"031-641-2284","addr":"경기도 이천시 장호원읍 노탑리 717번지 장호원중학교","indutype":"학원 - 초중고교육기관","category":"study"}]},{"lat":"37.137233325","long":"127.62455932","imageIndex":16,"items":[{"name":"장호원자동차운전전문학원","tel":"031-642-4242","addr":"경기도 이천시 장호원읍 노탑리 584-5번지","indutype":"학원 - 기능학원","category":"study"}]},{"lat":"37.140263149","long":"127.62238941","imageIndex":13,"items":[{"name":"자연명상심리상담센터","tel":"02-407-4686","addr":"경기도 이천시 장호원읍 노탑리 574-21번지","indutype":"보건위생 - 기타대인서비스","category":"beauty"}]}]