[{"lat":"37.389124198","long":"127.53128372","imageIndex":17,"items":[{"name":"IPO마트","tel":"031-882-9327","addr":"경기도 여주시 금사면 이포리 250-1번지","indutype":"기타 - 기타 전문점","category":"other"},{"name":"모던자동차용품","tel":"031-297-1282","addr":"경기도 여주시 금사면 이포리 250-1번지","indutype":"수리서비스 - 기타수리서비스","category":"other"}]},{"lat":"37.3944308046","long":"127.5353637831","imageIndex":17,"items":[{"name":"경기상회","tel":"031-882-9308","addr":"경기도 여주시 금사면 이포리 185-38번지","indutype":"유통업 영리 - 연 쇄 점","category":"other"}]},{"lat":"37.400012991","long":"127.53425132","imageIndex":17,"items":[{"name":"경원건설주식회사","tel":"031-881-3355","addr":"경기도 여주시 금사면 이포리 40-2번지","indutype":"건축자재 - 부동산 분양","category":"other"}]},{"lat":"37.392394635","long":"127.53333932","imageIndex":17,"items":[{"name":"금사면사무소","tel":"031-887-3892","addr":"경기도 여주시 금사면 이포리 197-3번지 1층 금사면사무소","indutype":"용역 서비스 - 사무서비스","category":"other"}]},{"lat":"37.394234286","long":"127.53297962","imageIndex":17,"items":[{"name":"금사종합건재","tel":"031-884-9348","addr":"경기도 여주시 금사면 이포리 169-6번지","indutype":"건축자재 - 기타건축자재","category":"other"}]},{"lat":"37.39431127","long":"127.53389488","imageIndex":17,"items":[{"name":"금사토건","tel":"031-884-6660","addr":"경기도 여주시 금사면 이포리 186-30번지","indutype":"용역 서비스 - 기타용역서비스","category":"other"}]},{"lat":"37.387479099","long":"127.53044787","imageIndex":17,"items":[{"name":"남양건설(주)","tel":"031-884-9622","addr":"경기도 여주시 금사면 이포리 315-1번지","indutype":"용역 서비스 - 기타용역서비스","category":"other"}]},{"lat":"37.387927872","long":"127.53083494","imageIndex":17,"items":[{"name":"대신휀스","tel":"031-884-6106","addr":"경기도 여주시 금사면 이포리 310-4번지","indutype":"건축자재 - 기타건축자재","category":"other"}]},{"lat":"37.395980853","long":"127.53328554","imageIndex":17,"items":[{"name":"머그세상","tel":"031-884-4560","addr":"경기도 여주시 금사면 이포리 166-5번지 나동 1층","indutype":"주방용구 - 주방용식기","category":"other"}]},{"lat":"37.401591225","long":"127.53592267","imageIndex":17,"items":[{"name":"목수네 자전거","tel":"","addr":"경기도 여주시 금사면 이포리 7-9","indutype":"레져용품 - 스포츠·레져용품","category":"other"}]},{"lat":"37.40103298","long":"127.53583966","imageIndex":17,"items":[{"name":"백두목공예","tel":"031-881-1947","addr":"경기도 여주시 금사면 이포리 7-3번지","indutype":"문화.취미 - 민예·공예품","category":"other"}]},{"lat":"37.390255838","long":"127.5320934","imageIndex":17,"items":[{"name":"보승농자재","tel":"031-883-7429","addr":"경기도 여주시 금사면 이포리 275번지","indutype":"농업 - 농기계","category":"other"}]},{"lat":"37.390069512","long":"127.53144844","imageIndex":17,"items":[{"name":"씨엠건축설비","tel":"031-882-0095","addr":"경기도 여주시 금사면 이포리 250-1번지","indutype":"건축자재 - 인테리어전문","category":"other"}]},{"lat":"37.396700413","long":"127.53356164","imageIndex":17,"items":[{"name":"씨유여주금사점","tel":"031-883-3338","addr":"경기도 여주시 금사면 이포리 166-1번지 외1필지","indutype":"유통업 영리 - 편 의 점","category":"other"}]},{"lat":"37.397843429","long":"127.53384074","imageIndex":17,"items":[{"name":"옷뽑기2호점","tel":"031-633-5498","addr":"경기도 여주시 금사면 이포리 142번지","indutype":"의류 - 정장","category":"other"}]},{"lat":"37.39248027","long":"127.53433366","imageIndex":17,"items":[{"name":"이포우체국","tel":"031-882-9004","addr":"경기도 여주시 금사면 이포리 197-4번지","indutype":"용역 서비스 - 공공요금대행서비스/소","category":"other"}]},{"lat":"37.393091915","long":"127.53456383","imageIndex":17,"items":[{"name":"천양강화도어유리","tel":"031-882-9280","addr":"경기도 여주시 금사면 이포리 197-20번지","indutype":"용역 서비스 - 기타용역서비스","category":"other"}]}]