[{"lat":"37.016246095","long":"127.28854149","imageIndex":9,"items":[{"name":"(주)관문주유소","tel":"031-679-5151","addr":"경기도 안성시 가사동 34-4번지","indutype":"연료판매점 - SK주유소","category":"oil"},{"name":"관문주유소","tel":"031-679-5151","addr":"경기도 안성시 가사동 34-4번지","indutype":"연료판매점 - SK주유소","category":"oil"}]},{"lat":"37.008193483","long":"127.28354527","imageIndex":9,"items":[{"name":"명품주유소","tel":"031-677-9156","addr":"경기도 안성시 가사동 133-1번지","indutype":"연료판매점 - 쌍용S-OIL","category":"oil"}]},{"lat":"37.013078071","long":"127.28699027","imageIndex":9,"items":[{"name":"보개농업협동조합경제부","tel":"031-676-0772","addr":"경기도 안성시 가사동 74-5번지","indutype":"연료판매점 - 쌍용S-OIL","category":"oil"}]},{"lat":"37.012660878","long":"127.29184273","imageIndex":9,"items":[{"name":"안성터미널주유소,충전소","tel":"031-677-8034","addr":"경기도 안성시 가사동 183번지","indutype":"연료판매점 - GS주유소","category":"oil"}]},{"lat":"37.009103365","long":"127.28362726","imageIndex":17,"items":[{"name":"(주)늘푸른코리아","tel":"031-675-7202","addr":"경기도 안성시 가사동 125-7번지","indutype":"용역 서비스 - 종합용역","category":"other"},{"name":"그린CNP(그린씨앤피)","tel":"031-672-2275","addr":"경기도 안성시 가사동 125-7번지","indutype":"회원제형태 - 기타4","category":"other"}]},{"lat":"37.015882935","long":"127.28967503","imageIndex":17,"items":[{"name":"(주)코럽시스템","tel":"031-675-9994","addr":"경기도 안성시 가사동 36-12번지","indutype":"사무통신 - 컴퓨터","category":"other"}]},{"lat":"37.011467922","long":"127.28959102","imageIndex":17,"items":[{"name":"GS25안성푸르지오점","tel":"","addr":"경기도 안성시 가사동 175번지 푸르지오 상가동 101~102호","indutype":"유통업 영리 - 편 의 점","category":"other"},{"name":"보미티나","tel":"","addr":"경기도 안성시 가사동 175번지 안성푸르지오 104동 1001호","indutype":"신변잡화 - 액세서리","category":"other"}]},{"lat":"37.01690928","long":"127.28628538","imageIndex":17,"items":[{"name":"국제불교승유원약명암","tel":"031-000-0000","addr":"경기도 안성시 가사동 산31번지","indutype":"기타 - 비영리/대상","category":"other"}]},{"lat":"37.00866041","long":"127.28423235","imageIndex":17,"items":[{"name":"그린안전물산","tel":"031-676-1264","addr":"경기도 안성시 가사동 79-6번지","indutype":"기타 - 기계공구","category":"other"}]},{"lat":"37.017497913","long":"127.28881586","imageIndex":17,"items":[{"name":"나무꾼보일러","tel":"031-676-9333","addr":"경기도 안성시 가사동 11-6번지","indutype":"건축자재 - 보일러·펌프·샷시","category":"other"},{"name":"디자인 플레이스","tel":"031-676-2806","addr":"경기도 안성시 가사동 11-6번지","indutype":"서적문구 - 출판 및 인쇄물","category":"other"},{"name":"한그래픽","tel":"031-676-2806","addr":"경기도 안성시 가사동 11-6번지","indutype":"용역 서비스 - 종합용역","category":"other"}]},{"lat":"37.022245582","long":"127.28920449","imageIndex":17,"items":[{"name":"대은샤링","tel":"031-673-2939","addr":"경기도 안성시 가사동 5-5번지","indutype":"기타 - 기계공구","category":"other"}]},{"lat":"37.021740367","long":"127.28946105","imageIndex":17,"items":[{"name":"동신아트타일","tel":"031-677-7455","addr":"경기도 안성시 가사동 5-51번지","indutype":"건축자재 - 인테리어전문","category":"other"}]},{"lat":"37.022020508","long":"127.28912498","imageIndex":17,"items":[{"name":"동양농기계상사","tel":"031-675-9351","addr":"경기도 안성시 가사동 5-7","indutype":"농업 - 농기계","category":"other"},{"name":"세븐일레븐안성가사점","tel":"","addr":"경기도 안성시 가사동 5-7번지 1층","indutype":"유통업 영리 - 편 의 점","category":"other"},{"name":"세븐일레븐안성가사점","tel":"031-1577-0711","addr":"경기도 안성시 가사동 5-7번지","indutype":"유통업 영리 - 편 의 점","category":"other"}]},{"lat":"37.013608725","long":"127.28739675","imageIndex":17,"items":[{"name":"동원철재","tel":"031-673-5050","addr":"경기도 안성시 가사동 74-27번지","indutype":"기타 - 기계공구","category":"other"}]},{"lat":"37.012079839","long":"127.29362707","imageIndex":17,"items":[{"name":"라이스클레이 안성교육원","tel":"031-674-1108","addr":"경기도 안성시 가사동 182번지 안성종합버스터미널 115호","indutype":"문화.취미 - 문화취미기타","category":"other"}]},{"lat":"37.016713372","long":"127.28907136","imageIndex":17,"items":[{"name":"문번동우자동문(주)","tel":"031-674-1111","addr":"경기도 안성시 가사동 11-1번지","indutype":"건축자재 - 기타건축자재","category":"other"}]},{"lat":"37.013610447","long":"127.28667764","imageIndex":17,"items":[{"name":"미래열기","tel":"031-671-8587","addr":"경기도 안성시 가사동 25-1번지 1층","indutype":"용역 서비스 - 기타용역서비스","category":"other"}]},{"lat":"37.015690381","long":"127.28731462","imageIndex":17,"items":[{"name":"바오밥나무공방","tel":"031-000-0000","addr":"경기도 안성시 가사동 18-5번지","indutype":"문화.취미 - 문화취미기타","category":"other"},{"name":"안성판넬","tel":"031-671-8979","addr":"경기도 안성시 가사동 18-5번지","indutype":"건축자재 - 기타건축자재","category":"other"},{"name":"주식회사비손종합건설","tel":"031-616-2040","addr":"경기도 안성시 가사동 18-5번지","indutype":"용역 서비스 - 기타용역서비스","category":"other"}]},{"lat":"37.012549694","long":"127.28562873","imageIndex":17,"items":[{"name":"보개농업협동조합","tel":"031-677-0774","addr":"경기도 안성시 가사동 91-9번지","indutype":"유통업 비영리 - 농,축협 직영매장","category":"other"}]},{"lat":"37.013078071","long":"127.28699027","imageIndex":17,"items":[{"name":"보개농업협동조합경제부","tel":"031-672-0770","addr":"경기도 안성시 가사동 74-5번지","indutype":"농업 - 농기계","category":"other"},{"name":"보개농업협동조합경제부","tel":"031-675-7250","addr":"경기도 안성시 가사동 74-5번지","indutype":"유통업 비영리 - 농,축협 직영매장","category":"other"}]},{"lat":"37.008328455","long":"127.28362441","imageIndex":17,"items":[{"name":"보개우체국","tel":"031-672-0005","addr":"경기도 안성시 가사동 131-12번지","indutype":"용역 서비스 - 공공요금대행서비스/소","category":"other"}]},{"lat":"37.008778266","long":"127.28392943","imageIndex":17,"items":[{"name":"보개종합철물건재","tel":"031-674-4793","addr":"경기도 안성시 가사동 131-1번지 외1필지","indutype":"기타 - 기계공구","category":"other"}]},{"lat":"37.00952641","long":"127.28381982","imageIndex":17,"items":[{"name":"쌍용패널테크","tel":"031-671-0891","addr":"경기도 안성시 가사동 126-1번지","indutype":"건축자재 - 기타건축자재","category":"other"}]},{"lat":"37.014463732","long":"127.28781569","imageIndex":17,"items":[{"name":"아람누리","tel":"031-676-9647","addr":"경기도 안성시 가사동 33-25번지 2층","indutype":"용역 서비스 - 종합용역","category":"other"}]},{"lat":"37.021658675","long":"127.28970797","imageIndex":17,"items":[{"name":"안성샤링산업","tel":"031-674-6661","addr":"경기도 안성시 가사동 6-1번지","indutype":"건축자재 - 목재·석재·철물","category":"other"}]},{"lat":"37.020993223","long":"127.28915484","imageIndex":17,"items":[{"name":"안성석재","tel":"031-675-4956","addr":"경기도 안성시 가사동 5-9번지","indutype":"건축자재 - 목재·석재·철물","category":"other"}]},{"lat":"37.021609105","long":"127.28784236","imageIndex":17,"items":[{"name":"안성철강","tel":"031-676-0885","addr":"경기도 안성시 가사동 4-3번지","indutype":"기타 - 기계공구","category":"other"}]},{"lat":"37.010552444","long":"127.28809322","imageIndex":17,"items":[{"name":"엘지하우징","tel":"031-672-7750","addr":"경기도 안성시 가사동 75-44번지","indutype":"건축자재 - 기타건축자재","category":"other"},{"name":"윤성개발(주)","tel":"031-671-6710","addr":"경기도 안성시 가사동 75-44번지","indutype":"건축자재 - 부동산 분양","category":"other"}]},{"lat":"37.009297787","long":"127.28523467","imageIndex":17,"items":[{"name":"왔다천막사","tel":"031-673-1079","addr":"경기도 안성시 가사동 78-10번지","indutype":"기타 - 기타 전문점","category":"other"}]},{"lat":"37.01405097","long":"127.28709502","imageIndex":17,"items":[{"name":"주식회사바이오라인","tel":"031-677-7960","addr":"경기도 안성시 가사동 24-4번지","indutype":"문화.취미 - 애완동물","category":"other"}]},{"lat":"37.013799131","long":"127.28690306","imageIndex":17,"items":[{"name":"케이엠(KM)바이오텍","tel":"031-672-2255","addr":"경기도 안성시 가사동 24-28번지 1층","indutype":"농업 - 비료,사료,종자","category":"other"}]},{"lat":"37.011603397","long":"127.28570388","imageIndex":17,"items":[{"name":"태원상사","tel":"031-675-2551","addr":"경기도 안성시 가사동 77-2","indutype":"건축자재 - 기타건축자재","category":"other"}]},{"lat":"37.016193625","long":"127.28787833","imageIndex":17,"items":[{"name":"한샘플라워","tel":"031-671-8812","addr":"경기도 안성시 가사동 19-10번지","indutype":"문화.취미 - 화원","category":"other"}]},{"lat":"37.018298622","long":"127.28557137","imageIndex":4,"items":[{"name":"(주)썬푸드시스템","tel":"031-671-0063","addr":"경기도 안성시 가사동 15-65번지","indutype":"일반휴게음식 - 위탁급식업","category":"restaurant"},{"name":"(주)제이제이","tel":"031-676-5500","addr":"경기도 안성시 가사동 15-65번지","indutype":"일반휴게음식 - 서양음식","category":"restaurant"}]},{"lat":"37.009137118","long":"127.28459365","imageIndex":4,"items":[{"name":"JS그늘집","tel":"","addr":"경기도 안성시 가사동 79-2번지 1동 2층","indutype":"일반휴게음식 - 일반한식","category":"restaurant"}]},{"lat":"37.012413035","long":"127.28625745","imageIndex":4,"items":[{"name":"김가네칼국수","tel":"031-674-9799","addr":"경기도 안성시 가사동 75-31번지","indutype":"일반휴게음식 - 일반한식","category":"restaurant"}]},{"lat":"37.012079839","long":"127.29362707","imageIndex":4,"items":[{"name":"마음에그리다","tel":"031-111-1111","addr":"경기도 안성시 가사동 182번지 1층 101호.102호","indutype":"일반휴게음식 - 서양음식","category":"restaurant"},{"name":"안성사랑밥집","tel":"031-677-3237","addr":"경기도 안성시 가사동 182번지 108호","indutype":"일반휴게음식 - 일반한식","category":"restaurant"},{"name":"터미널식당","tel":"031-676-0043","addr":"경기도 안성시 가사동 182번지 1층 109호","indutype":"일반휴게음식 - 일반한식","category":"restaurant"}]},{"lat":"37.012547388","long":"127.28659503","imageIndex":4,"items":[{"name":"만년","tel":"031-676-7737","addr":"경기도 안성시 가사동 75-2","indutype":"일반휴게음식 - 일반한식","category":"restaurant"}]},{"lat":"37.018247331","long":"127.28817816","imageIndex":4,"items":[{"name":"먹보네식당","tel":"031-673-4820","addr":"경기도 안성시 가사동 14-6번지","indutype":"일반휴게음식 - 일반한식","category":"restaurant"}]},{"lat":"37.013466869","long":"127.2864299","imageIndex":4,"items":[{"name":"박기완의 함흥냉면과 갈비","tel":"031-677-6999","addr":"경기도 안성시 가사동 26-4번지","indutype":"일반휴게음식 - 일반한식","category":"restaurant"},{"name":"박기완의 함흥냉면과 갈비","tel":"031-677-6999","addr":"경기도 안성시 가사동 26-4번지","indutype":"일반휴게음식 - 일반한식","category":"restaurant"}]},{"lat":"37.013383838","long":"127.28723861","imageIndex":4,"items":[{"name":"보개수산","tel":"031-677-9252","addr":"경기도 안성시 가사동 74-3번지","indutype":"일반휴게음식 - 일반한식","category":"restaurant"}]},{"lat":"37.015356586","long":"127.28748192","imageIndex":4,"items":[{"name":"부잣집","tel":"031-673-8854","addr":"경기도 안성시 가사동 20-1번지","indutype":"일반휴게음식 - 일반한식","category":"restaurant"}]},{"lat":"37.013971863","long":"127.28626323","imageIndex":4,"items":[{"name":"비봉골","tel":"031-677-8041","addr":"경기도 안성시 가사동 27-1번지","indutype":"일반휴게음식 - 일반한식","category":"restaurant"}]},{"lat":"37.013799131","long":"127.28690306","imageIndex":4,"items":[{"name":"서울종로해장국분점","tel":"031-676-0688","addr":"경기도 안성시 가사동 24-28번지","indutype":"일반휴게음식 - 일반한식","category":"restaurant"}]},{"lat":"37.017247348","long":"127.28809576","imageIndex":4,"items":[{"name":"학성한우","tel":"","addr":"경기도 안성시 가사동 15-55번지 1층","indutype":"일반휴게음식 - 일반한식","category":"restaurant"}]},{"lat":"37.017741198","long":"127.28881677","imageIndex":4,"items":[{"name":"한식뷔페장금이","tel":"031-676-2488","addr":"경기도 안성시 가사동 11-3번지","indutype":"일반휴게음식 - 일반한식","category":"restaurant"}]},{"lat":"37.0130272","long":"127.28565297","imageIndex":16,"items":[{"name":"나그네색소폰(교습소)","tel":"031-673-0522","addr":"경기도 안성시 가사동 93-6번지","indutype":"학원 - 예·체능계학원","category":"study"}]},{"lat":"37.017246889","long":"127.28828679","imageIndex":16,"items":[{"name":"명작동화어린이집[아이행복]","tel":"031-675-9393","addr":"경기도 안성시 가사동 15-49번지","indutype":"학원 - 유아원","category":"study"}]},{"lat":"37.017247348","long":"127.28809576","imageIndex":16,"items":[{"name":"명작동화어린이집[아이행복]","tel":"031-677-9394","addr":"경기도 안성시 가사동 15-55번지","indutype":"학원 - 유아원","category":"study"}]},{"lat":"37.011467922","long":"127.28959102","imageIndex":16,"items":[{"name":"용인대홍익태권도장","tel":"","addr":"경기도 안성시 가사동 175번지 안성푸르지오 상가동 201~203호","indutype":"학원 - 예·체능계학원","category":"study"},{"name":"푸르지오숲 어린이집[아이행복]","tel":"031-674-2326","addr":"경기도 안성시 가사동 175번지 안성푸르지오","indutype":"학원 - 유아원","category":"study"},{"name":"해솔어린이집[아이행복]","tel":"031-673-0329","addr":"경기도 안성시 가사동 175번지 안성푸르지오 101동 103호","indutype":"학원 - 유아원","category":"study"}]},{"lat":"37.018380786","long":"127.28512219","imageIndex":7,"items":[{"name":"농업회사법인정헌배인삼주가 주식회사","tel":"031-677-3363","addr":"경기도 안성시 가사동 15-91번지","indutype":"음료식품 - 주류 판매점","category":"food"}]},{"lat":"37.013078071","long":"127.28699027","imageIndex":7,"items":[{"name":"보개농업협동조합경제부","tel":"031-672-0770","addr":"경기도 안성시 가사동 74-5번지","indutype":"음료식품 - 미곡상","category":"food"}]},{"lat":"37.014463732","long":"127.28781569","imageIndex":7,"items":[{"name":"안성시 곤충산업연구회","tel":"031-674-3535","addr":"경기도 안성시 가사동 33-25번지","indutype":"건강식품 - 기타건강식품","category":"food"}]},{"lat":"37.012466561","long":"127.28648237","imageIndex":0,"items":[{"name":"대림윤활유","tel":"031-675-0051","addr":"경기도 안성시 가사동 75-48번지 1층","indutype":"자동차정비 유지 - 윤활유 전문 판매","category":"car"}]},{"lat":"37.011605108","long":"127.28498478","imageIndex":0,"items":[{"name":"삼중카랜드금호타이어대리점","tel":"031-676-2980","addr":"경기도 안성시 가사동 103-6번지","indutype":"자동차정비 유지 - 자동차시트·타이어","category":"car"},{"name":"제로모터스","tel":"031-676-5950","addr":"경기도 안성시 가사동 103-6번지","indutype":"자동차정비 유지 - 자동차정비","category":"car"}]},{"lat":"37.022020508","long":"127.28912498","imageIndex":0,"items":[{"name":"안성상사","tel":"031-675-0120","addr":"경기도 안성시 가사동 5-7 비동","indutype":"자동차정비 유지 - 자동차부품","category":"car"}]},{"lat":"37.009885848","long":"127.28423687","imageIndex":0,"items":[{"name":"우주밧데리","tel":"031-672-0927","addr":"경기도 안성시 가사동 127-1번지","indutype":"자동차정비 유지 - 자동차정비","category":"car"}]},{"lat":"37.022552076","long":"127.28914945","imageIndex":0,"items":[{"name":"티스테이션 안성맞춤점","tel":"031-671-3435","addr":"경기도 안성시 가사동 5-4번지","indutype":"자동차정비 유지 - 자동차정비","category":"car"}]},{"lat":"37.009639145","long":"127.28567413","imageIndex":0,"items":[{"name":"현대상사","tel":"031-673-4522","addr":"경기도 안성시 가사동 78-7번지","indutype":"자동차정비 유지 - 자동차부품","category":"car"}]},{"lat":"37.012079839","long":"127.29362707","imageIndex":13,"items":[{"name":"마리엘붙임머리","tel":"","addr":"경기도 안성시 가사동 182번지 114호","indutype":"보건위생 - 미용재료","category":"beauty"}]},{"lat":"37.012547388","long":"127.28659503","imageIndex":13,"items":[{"name":"팡팡헤어아트","tel":"031-672-5888","addr":"경기도 안성시 가사동 75-2번지","indutype":"보건위생 - 미용원","category":"beauty"}]},{"lat":"37.00866041","long":"127.28423235","imageIndex":13,"items":[{"name":"스타","tel":"031-677-0028","addr":"경기도 안성시 가사동 79-6번지 2층","indutype":"레저업소 - 헬스클럽","category":"leisure"}]},{"lat":"37.009137118","long":"127.28459365","imageIndex":13,"items":[{"name":"제이에스 (JS) 스크린골프","tel":"","addr":"경기도 안성시 가사동 79-2번지 2층 202호","indutype":"레저업소 - 스크린골프","category":"leisure"}]},{"lat":"37.017527539","long":"127.28773723","imageIndex":13,"items":[{"name":"한양휘림골프연습장","tel":"031-677-6612","addr":"경기도 안성시 가사동 15-37번지","indutype":"레저업소 - 골프연습장","category":"leisure"}]}]