[{"lat":"37.965904938","long":"127.19255025","imageIndex":17,"items":[{"name":"GS25포천빛길점","tel":"031-534-9950","addr":"경기도 포천시 신북면 고일리 10-4번지","indutype":"편의점 - 편의점","category":"other"}]},{"lat":"37.966095344","long":"127.16783361","imageIndex":17,"items":[{"name":"세븐일레븐포천아도니스점","tel":"031-1577-0711","addr":"경기도 포천시 신북면 고일리 산59번지","indutype":"유통업 영리 - 편 의 점","category":"other"}]},{"lat":"37.966625727","long":"127.19251796","imageIndex":4,"items":[{"name":"고을소머리국밥","tel":"531-0199","addr":"경기도 포천시 신북면 고일리 10번지","indutype":"음식 - 한식","category":"restaurant"},{"name":"고을소머리국밥","tel":"031-531-0199","addr":"경기도 포천시 신북면 고일리 10번지","indutype":"일반휴게음식 - 일반한식","category":"restaurant"},{"name":"파주골해장국","tel":"031-531-3977","addr":"경기도 포천시 신북면 고일리 10번지 1층","indutype":"일반휴게음식 - 일반한식","category":"restaurant"},{"name":"파주골해장국","tel":"531-3977","addr":"경기도 포천시 신북면 고일리 10번지","indutype":"음식 - 한식","category":"restaurant"}]},{"lat":"37.964986187","long":"127.19243409","imageIndex":4,"items":[{"name":"동막골","tel":"531-8080","addr":"경기도 포천시 신북면 고일리 10-6번지","indutype":"음식 - 한식","category":"restaurant"},{"name":"동막골","tel":"031-531-8083","addr":"경기도 포천시 신북면 고일리 10-6번지","indutype":"일반휴게음식 - 일반한식","category":"restaurant"}]},{"lat":"37.966604332","long":"127.18899011","imageIndex":4,"items":[{"name":"영이네가든","tel":"031-534-8787","addr":"경기도 포천시 신북면 고일리 3번지","indutype":"일반휴게음식 - 일반한식","category":"restaurant"}]},{"lat":"37.965904938","long":"127.19255025","imageIndex":4,"items":[{"name":"장수국수왕돈가스","tel":"535-3778","addr":"경기도 포천시 신북면 고일리 10-4번지","indutype":"음식 - 한식","category":"restaurant"},{"name":"장수국수왕돈까스","tel":"031-535-3778","addr":"경기도 포천시 신북면 고일리 10-4번지","indutype":"일반휴게음식 - 일반한식","category":"restaurant"},{"name":"전원농장","tel":"031-535-0545","addr":"경기도 포천시 신북면 고일리 10-4번지 1층","indutype":"일반휴게음식 - 일반한식","category":"restaurant"},{"name":"전원농장","tel":"533-5139","addr":"경기도 포천시 신북면 고일리 10-4번지 1층","indutype":"음식 - 한식","category":"restaurant"}]},{"lat":"37.972763975","long":"127.16652834","imageIndex":5,"items":[{"name":"신북개울가 펜션","tel":"031-2490-4856","addr":"경기도 포천시 신북면 고일리 334번지","indutype":"숙박업 - 여관/기타숙박업","category":"hotel"}]}]