[{"lat":"38.02809467","long":"127.0684512","imageIndex":16,"items":[{"name":"JB쥬얼박스학원","tel":"031-832-8175","addr":"경기도 연천군 전곡읍 전곡리 459-18번지","indutype":"학원 - 보습학원","category":"study"}]},{"lat":"38.02197675","long":"127.0697554","imageIndex":16,"items":[{"name":"개인과외교습","tel":"031-861-8833","addr":"경기도 연천군 전곡읍 전곡리 318-4번지 동재맨션 201호","indutype":"학원 - 기타 교육기관","category":"study"}]},{"lat":"38.02648056","long":"127.0710579","imageIndex":16,"items":[{"name":"꿈꾸는상자미술학원","tel":"031-832-1113","addr":"경기도 연천군 전곡읍 전곡리 332-120번지","indutype":"학원 - 예·체능계학원","category":"study"}]},{"lat":"38.02848194","long":"127.0686679","imageIndex":16,"items":[{"name":"매쓰스토리수학교습소","tel":"","addr":"경기도 연천군 전곡읍 전곡리 454-22번지 2층","indutype":"학원 - 보습학원","category":"study"}]},{"lat":"38.02842714","long":"127.0700005","imageIndex":16,"items":[{"name":"뮤엠영어학원","tel":"031-835-0550","addr":"경기도 연천군 전곡읍 전곡리 340-21번지","indutype":"학원 - 외국어학원","category":"study"},{"name":"뮤엠영어학원","tel":"031-833-0002","addr":"경기도 연천군 전곡읍 전곡리 340-21번지","indutype":"회원제형태 - 학원","category":"study"},{"name":"합기도 화랑관","tel":"031-835-6187","addr":"경기도 연천군 전곡읍 전곡리 340-21번지","indutype":"학원 - 예·체능계학원","category":"study"}]},{"lat":"38.02822955","long":"127.0689183","imageIndex":16,"items":[{"name":"반석학원","tel":"031-833-3353","addr":"경기도 연천군 전곡읍 전곡리 454-24번지 5층","indutype":"회원제형태 - 학원","category":"study"},{"name":"이화음악 보습학원","tel":"031-832-4748","addr":"경기도 연천군 전곡읍 전곡리 454-24번지 4층","indutype":"학원 - 예·체능계학원","category":"study"},{"name":"탑클래스학원","tel":"031-832-7007","addr":"경기도 연천군 전곡읍 전곡리 454-24번지","indutype":"회원제형태 - 학원","category":"study"}]},{"lat":"38.02836502","long":"127.0683148","imageIndex":16,"items":[{"name":"비전중국어교습소","tel":"031-835-8867","addr":"경기도 연천군 전곡읍 전곡리 459-13번지 2층","indutype":"학원 - 외국어학원","category":"study"}]},{"lat":"38.02822975","long":"127.0685652","imageIndex":16,"items":[{"name":"비젼잉글리쉬","tel":"031-833-0505","addr":"경기도 연천군 전곡읍 전곡리 459-15번지","indutype":"회원제형태 - 학원","category":"study"}]},{"lat":"38.0265336","long":"127.0727891","imageIndex":16,"items":[{"name":"서울EM스쿨","tel":"031-835-7815","addr":"경기도 연천군 전곡읍 전곡리 685번지 석미모닝파크 201동 101호","indutype":"회원제형태 - 학원","category":"study"}]},{"lat":"38.02928414","long":"127.0679739","imageIndex":16,"items":[{"name":"스카이학원","tel":"031-835-0700","addr":"경기도 연천군 전곡읍 전곡리 455-23번지 2층 3층","indutype":"학원 - 보습학원","category":"study"}]},{"lat":"38.02956349","long":"127.0678602","imageIndex":16,"items":[{"name":"여진피아노학원","tel":"031-832-3471","addr":"경기도 연천군 전곡읍 전곡리 456-35번지","indutype":"학원 - 예·체능계학원","category":"study"}]},{"lat":"38.01436853","long":"127.0613105","imageIndex":16,"items":[{"name":"연천군선사문화관리사업소","tel":"031-839-2563","addr":"경기도 연천군 전곡읍 전곡리 515번지 선사문화관리사업소 관리분야","indutype":"학원 - 기타 교육기관","category":"study"},{"name":"연천군선사문화관리사업소","tel":"031-839-2563","addr":"경기도 연천군 전곡읍 전곡리 515번지 선사문화관리사업소 관리분야","indutype":"학원 - 기타 교육기관","category":"study"}]},{"lat":"38.02475925","long":"127.0720357","imageIndex":16,"items":[{"name":"예랑보습학원","tel":"031-832-5344","addr":"경기도 연천군 전곡읍 전곡리 332-156번지","indutype":"학원 - 보습학원","category":"study"}]},{"lat":"38.02470428","long":"127.0735618","imageIndex":16,"items":[{"name":"예손피아노학원","tel":"031-832-4509","addr":"경기도 연천군 전곡읍 전곡리 329-21번지","indutype":"학원 - 예·체능계학원","category":"study"}]},{"lat":"38.02837251","long":"127.0710027","imageIndex":16,"items":[{"name":"예스잉글리쉬","tel":"031-865-0886","addr":"경기도 연천군 전곡읍 전곡리 353-39번지","indutype":"학원 - 외국어학원","category":"study"}]},{"lat":"38.02094993","long":"127.0693673","imageIndex":16,"items":[{"name":"우리체육관","tel":"031-832-6564","addr":"경기도 연천군 전곡읍 전곡리 299-6번지","indutype":"학원 - 기타 교육기관","category":"study"},{"name":"전곡체육관","tel":"031-835-1212","addr":"경기도 연천군 전곡읍 전곡리 299-6번지","indutype":"학원 - 예·체능계학원","category":"study"}]},{"lat":"38.03178672","long":"127.0714159","imageIndex":16,"items":[{"name":"위드수학","tel":"031-833-5525","addr":"경기도 연천군 전곡읍 전곡리 386-1번지 2층","indutype":"학원 - 보습학원","category":"study"}]},{"lat":"38.02420225","long":"127.0693133","imageIndex":16,"items":[{"name":"윤선생영어숲전곡학원","tel":"031-833-0507","addr":"경기도 연천군 전곡읍 전곡리 335-17","indutype":"회원제형태 - 학원","category":"study"}]},{"lat":"38.02948053","long":"127.0711746","imageIndex":16,"items":[{"name":"이숙헌미술전문학원","tel":"070-4187-8113","addr":"경기도 연천군 전곡읍 전곡리 349-6번지","indutype":"학원 - 예·체능계학원","category":"study"}]},{"lat":"38.02825461","long":"127.0723352","imageIndex":16,"items":[{"name":"이젠수학교습소","tel":"031-833-0454","addr":"경기도 연천군 전곡읍 전곡리 328-10번지","indutype":"회원제형태 - 학원","category":"study"}]},{"lat":"38.02937242","long":"127.0711745","imageIndex":16,"items":[{"name":"이지학원","tel":"031-833-7647","addr":"경기도 연천군 전곡읍 전곡리 349-8번지","indutype":"학원 - 보습학원","category":"study"}]},{"lat":"38.02789658","long":"127.0682574","imageIndex":16,"items":[{"name":"잉글리시아이학원","tel":"070-4720-8175","addr":"경기도 연천군 전곡읍 전곡리 459-35번지","indutype":"학원 - 외국어학원","category":"study"},{"name":"잉큐영어","tel":"031-832-8579","addr":"경기도 연천군 전곡읍 전곡리 459-35번지 2층 상가","indutype":"회원제형태 - 학원","category":"study"},{"name":"해법영어전곡쥬얼학원","tel":"070-7523-8284","addr":"경기도 연천군 전곡읍 전곡리 459-35번지 2층","indutype":"회원제형태 - 학원","category":"study"}]},{"lat":"38.02164242","long":"127.0714748","imageIndex":16,"items":[{"name":"제니스리더스영어전문학원","tel":"070-4799-6687","addr":"경기도 연천군 전곡읍 전곡리 315-23번지","indutype":"회원제형태 - 학원","category":"study"}]},{"lat":"38.01828254","long":"127.0705606","imageIndex":16,"items":[{"name":"진학입시학원","tel":"031-832-7632","addr":"경기도 연천군 전곡읍 전곡리 263-11번지 조흥상가 8동 201호","indutype":"회원제형태 - 학원","category":"study"}]},{"lat":"38.02878762","long":"127.0697844","imageIndex":16,"items":[{"name":"토킹클래스","tel":"031-835-8205","addr":"경기도 연천군 전곡읍 전곡리 343-21번지 상가 1층","indutype":"학원 - 보습학원","category":"study"}]},{"lat":"38.02214683","long":"127.0716461","imageIndex":16,"items":[{"name":"통일평생교육원","tel":"031-839-4434","addr":"경기도 연천군 전곡읍 전곡리 333-84번지","indutype":"학원 - 기타 교육기관","category":"study"}]},{"lat":"38.02631027","long":"127.0695088","imageIndex":16,"items":[{"name":"하나태권도장","tel":"031-833-1111","addr":"경기도 연천군 전곡읍 전곡리 333-42번지","indutype":"학원 - 예·체능계학원","category":"study"}]},{"lat":"38.02675991","long":"127.0709442","imageIndex":16,"items":[{"name":"하늘이미술학원","tel":"031-832-8161","addr":"경기도 연천군 전곡읍 전곡리 332-117","indutype":"학원 - 예·체능계학원","category":"study"}]},{"lat":"38.02269776","long":"127.069255","imageIndex":16,"items":[{"name":"하이스트학원","tel":"031-833-5357","addr":"경기도 연천군 전곡읍 전곡리 300-3번지","indutype":"학원 - 보습학원","category":"study"}]},{"lat":"38.02178776","long":"127.0693908","imageIndex":16,"items":[{"name":"한국학원","tel":"031-832-2291","addr":"경기도 연천군 전곡읍 전곡리 318-1번지 동화연립 나동 101호","indutype":"학원 - 보습학원","category":"study"}]},{"lat":"38.02828152","long":"127.0725288","imageIndex":16,"items":[{"name":"할 앤 스티브 (Hal&Steve) 영어학원","tel":"","addr":"경기도 연천군 전곡읍 전곡리 328-8번지 2층","indutype":"학원 - 외국어학원","category":"study"}]},{"lat":"38.02889718","long":"127.067199","imageIndex":16,"items":[{"name":"호경학원","tel":"031-835-8209","addr":"경기도 연천군 전곡읍 전곡리 457-43번지","indutype":"회원제형태 - 학원","category":"study"}]},{"lat":"38.02209364","long":"127.0701427","imageIndex":16,"items":[{"name":"희망샘요양보호사교육원","tel":"031-835-8859","addr":"경기도 연천군 전곡읍 전곡리 266-26번지 재향군인회 3층","indutype":"학원 - 기능학원","category":"study"}]}]