[{"lat":"37.487320425","long":"126.77937882","imageIndex":4,"items":[{"name":"(JB)포차","tel":"","addr":"경기도 부천시 심곡동 403-1번지 일성프라자 2층","indutype":"일반휴게음식 - 주점","category":"restaurant"},{"name":"커피타는라쿤","tel":"070-4400-8880","addr":"경기도 부천시 심곡동 403-1번지 일성프라자 3층","indutype":"일반휴게음식 - 서양음식","category":"restaurant"}]},{"lat":"37.492840518","long":"126.77780191","imageIndex":4,"items":[{"name":"(주)서안메밀집","tel":"032-652-3355","addr":"경기도 부천시 심곡동 296-7번지","indutype":"일반휴게음식 - 일반한식","category":"restaurant"},{"name":"황제오리","tel":"032-329-8338","addr":"경기도 부천시 심곡동 296-7번지 2층","indutype":"일반휴게음식 - 일반한식","category":"restaurant"}]},{"lat":"37.485792662","long":"126.7814638","imageIndex":4,"items":[{"name":"(주)제이에이치에프앤에스/미스터피자부천","tel":"032-655-0777","addr":"경기도 부천시 심곡동 175-14번지 2층","indutype":"일반휴게음식 - 서양음식","category":"restaurant"}]},{"lat":"37.486623706","long":"126.78260333","imageIndex":4,"items":[{"name":"(주)커피빈코리아 부천북부역사거리점","tel":"032-655-8954","addr":"경기도 부천시 심곡동 177-3번지","indutype":"일반휴게음식 - 서양음식","category":"restaurant"},{"name":"황금마라탕","tel":"032-3066-9168","addr":"경기도 부천시 심곡동 177-3번지 노블레스부천 107호","indutype":"일반휴게음식 - 중국식","category":"restaurant"}]},{"lat":"37.485094191","long":"126.78377239","imageIndex":4,"items":[{"name":"1988옛날통닭","tel":"","addr":"경기도 부천시 심곡동 170-15번지","indutype":"일반휴게음식 - 스넥","category":"restaurant"},{"name":"로젠비어","tel":"032-614-7080","addr":"경기도 부천시 심곡동 170-15번지","indutype":"일반휴게음식 - 일반한식","category":"restaurant"}]},{"lat":"37.485898124","long":"126.78005015","imageIndex":4,"items":[{"name":"19티(부천역점)","tel":"032-662-2635","addr":"경기도 부천시 심곡동 383-8번지 프리존빌딩 1층 106호","indutype":"일반휴게음식 - 서양음식","category":"restaurant"},{"name":"SUBWAY 부천역점","tel":"032-611-1301","addr":"경기도 부천시 심곡동 383-8번지","indutype":"일반휴게음식 - 일반한식","category":"restaurant"},{"name":"다원오징어나라","tel":"032-666-3696","addr":"경기도 부천시 심곡동 383-8번지 프리존빌딩 115호","indutype":"일반휴게음식 - 일반한식","category":"restaurant"},{"name":"동경규동","tel":"032-612-1239","addr":"경기도 부천시 심곡동 383-8번지 프리존빌딩 109호","indutype":"일반휴게음식 - 일반한식","category":"restaurant"},{"name":"맥주활력수","tel":"","addr":"경기도 부천시 심곡동 383-8번지 프리존빌딩 116,117호","indutype":"일반휴게음식 - 주점","category":"restaurant"},{"name":"본죽&비빔밥카페(cafe)(부천역점)","tel":"032-663-6288","addr":"경기도 부천시 심곡동 383-8번지 프리존빌딩 1층 103호","indutype":"일반휴게음식 - 일반한식","category":"restaurant"},{"name":"오다초밥","tel":"032-661-1661","addr":"경기도 부천시 심곡동 383-8번지 프리존빌딩 107호","indutype":"일반휴게음식 - 일식·회집","category":"restaurant"},{"name":"청실홍실부천점","tel":"032-1577-2550","addr":"경기도 부천시 심곡동 383-8번지 프리존빌딩 105호","indutype":"일반휴게음식 - 일반한식","category":"restaurant"},{"name":"프리존컨벤션웨딩부페","tel":"032-657-0705","addr":"경기도 부천시 심곡동 383-8번지 프리존빌딩 5층 6전체","indutype":"일반휴게음식 - 일반한식","category":"restaurant"},{"name":"피에스타9(부천점)","tel":"032-651-5100","addr":"경기도 부천시 심곡동 383-8번지 프리존빌딩 5층","indutype":"일반휴게음식 - 일반한식","category":"restaurant"},{"name":"호남장성식당","tel":"032-667-2370","addr":"경기도 부천시 심곡동 383-8번지","indutype":"일반휴게음식 - 일반한식","category":"restaurant"}]},{"lat":"37.491037314","long":"126.7771628","imageIndex":4,"items":[{"name":"1인용부천점","tel":"032-656-7088","addr":"경기도 부천시 심곡동 298-25번지","indutype":"일반휴게음식 - 일반한식","category":"restaurant"}]},{"lat":"37.488403255","long":"126.78024624","imageIndex":4,"items":[{"name":"24시무인셀프카페","tel":"","addr":"경기도 부천시 심곡동 409-9번지 1층","indutype":"일반휴게음식 - 서양음식","category":"restaurant"},{"name":"시골밥상","tel":"032-661-3599","addr":"경기도 부천시 심곡동 409-9번지 1층","indutype":"일반휴게음식 - 일반한식","category":"restaurant"}]},{"lat":"37.48743299","long":"126.78174163","imageIndex":4,"items":[{"name":"25센치꼬치엔오뎅바부천역점","tel":"","addr":"경기도 부천시 심곡동 180-11번지 이도빌딩 1층","indutype":"일반휴게음식 - 주점","category":"restaurant"},{"name":"경성주막1929부천역점","tel":"032-663-1929","addr":"경기도 부천시 심곡동 180-11번지 이도빌딩 1층 일부","indutype":"일반휴게음식 - 주점","category":"restaurant"},{"name":"노랑통닭","tel":"032-655-9233","addr":"경기도 부천시 심곡동 180-11번지 이도빌딩","indutype":"일반휴게음식 - 스넥","category":"restaurant"},{"name":"썸타는주막","tel":"032-218-9903","addr":"경기도 부천시 심곡동 180-11번지 이도빌딩 4층","indutype":"일반휴게음식 - 일반한식","category":"restaurant"},{"name":"지노","tel":"032-668-8288","addr":"경기도 부천시 심곡동 180-11번지 2층","indutype":"일반휴게음식 - 주점","category":"restaurant"},{"name":"호오락실","tel":"032-613-5678","addr":"경기도 부천시 심곡동 180-11번지 이도빌딩 3층","indutype":"일반휴게음식 - 일반한식","category":"restaurant"}]},{"lat":"37.4864595","long":"126.78151836","imageIndex":4,"items":[{"name":"28청춘","tel":"032-504-0277","addr":"경기도 부천시 심곡동 176-12번지 3층","indutype":"일반휴게음식 - 일반한식","category":"restaurant"},{"name":"땡잡았다","tel":"032-651-7778","addr":"경기도 부천시 심곡동 176-12번지 2층","indutype":"일반휴게음식 - 주점","category":"restaurant"}]},{"lat":"37.490370381","long":"126.78182343","imageIndex":4,"items":[{"name":"369호프","tel":"032-645-6508","addr":"경기도 부천시 심곡동 372-11번지 1층","indutype":"일반휴게음식 - 주점","category":"restaurant"},{"name":"발닭","tel":"032-667-8822","addr":"경기도 부천시 심곡동 372-11번지","indutype":"일반휴게음식 - 일반한식","category":"restaurant"}]},{"lat":"37.486567109","long":"126.78124668","imageIndex":4,"items":[{"name":"37.2도","tel":"","addr":"경기도 부천시 심곡동 381-13번지 2층","indutype":"일반휴게음식 - 일반한식","category":"restaurant"}]},{"lat":"37.484735323","long":"126.78459881","imageIndex":4,"items":[{"name":"38 (삼팔)","tel":"032-665-3838","addr":"경기도 부천시 심곡동 171-18번지 1층","indutype":"일반휴게음식 - 일반한식","category":"restaurant"},{"name":"38삼팔","tel":"032-665-3838","addr":"경기도 부천시 심곡동 171-18번지 지하1층","indutype":"일반휴게음식 - 일반한식","category":"restaurant"},{"name":"38소주앤비어(soju&beer)","tel":"032-655-3838","addr":"경기도 부천시 심곡동 171-18번지 2층","indutype":"일반휴게음식 - 주점","category":"restaurant"}]},{"lat":"37.484735532","long":"126.78471188","imageIndex":4,"items":[{"name":"38소갈비살","tel":"031-9438-2938","addr":"경기도 부천시 심곡동 171-19번지 1층","indutype":"일반휴게음식 - 일반한식","category":"restaurant"},{"name":"삼팔(38)전주콩나물국밥","tel":"032-663-6079","addr":"경기도 부천시 심곡동 171-19번지 전체 1층","indutype":"일반휴게음식 - 일반한식","category":"restaurant"}]},{"lat":"37.490540425","long":"126.78121233","imageIndex":4,"items":[{"name":"4월의커피","tel":"032-0000-0000","addr":"경기도 부천시 심곡동 372-4번지 1층","indutype":"일반휴게음식 - 서양음식","category":"restaurant"}]},{"lat":"37.485654003","long":"126.77959861","imageIndex":4,"items":[{"name":"5000냥이모네","tel":"032-663-6710","addr":"경기도 부천시 심곡동 394-21번지","indutype":"일반휴게음식 - 일반한식","category":"restaurant"},{"name":"홍스타","tel":"","addr":"경기도 부천시 심곡동 394-21번지 1층","indutype":"일반휴게음식 - 주점","category":"restaurant"}]},{"lat":"37.488260819","long":"126.78116253","imageIndex":4,"items":[{"name":"519비어","tel":"070-8869-2694","addr":"경기도 부천시 심곡동 377-40번지 지층","indutype":"일반휴게음식 - 주점","category":"restaurant"},{"name":"맘스터치부천대점","tel":"032-611-8636","addr":"경기도 부천시 심곡동 377-40번지 2층","indutype":"일반휴게음식 - 서양음식","category":"restaurant"}]},{"lat":"37.487155542","long":"126.78273745","imageIndex":4,"items":[{"name":"54라운지","tel":"070-4383-5454","addr":"경기도 부천시 심곡동 190-17번지 2층","indutype":"일반휴게음식 - 주점","category":"restaurant"},{"name":"청해해물탕","tel":"032-656-0123","addr":"경기도 부천시 심곡동 190-17번지","indutype":"일반휴게음식 - 일반한식","category":"restaurant"}]},{"lat":"37.488484679","long":"126.77568926","imageIndex":4,"items":[{"name":"59피자 심곡점","tel":"032-665-5982","addr":"경기도 부천시 심곡동 343번지 1층","indutype":"일반휴게음식 - 서양음식","category":"restaurant"}]},{"lat":"37.485455956","long":"126.77968966","imageIndex":4,"items":[{"name":"65도","tel":"032-611-2471","addr":"경기도 부천시 심곡동 392-5번지 1층","indutype":"일반휴게음식 - 일반한식","category":"restaurant"},{"name":"불세","tel":"","addr":"경기도 부천시 심곡동 392-5번지 1층 일부","indutype":"일반휴게음식 - 일반한식","category":"restaurant"},{"name":"짝태&노가리","tel":"032-654-8751","addr":"경기도 부천시 심곡동 392-5번지","indutype":"일반휴게음식 - 주점","category":"restaurant"}]},{"lat":"37.487870471","long":"126.78443139","imageIndex":4,"items":[{"name":"7080음식점","tel":"032-656-9409","addr":"경기도 부천시 심곡동 162-4번지 2층","indutype":"일반휴게음식 - 주점","category":"restaurant"},{"name":"달맞이호프","tel":"032-655-7774","addr":"경기도 부천시 심곡동 162-4지하1층","indutype":"일반휴게음식 - 주점","category":"restaurant"},{"name":"동태아구찜전문점","tel":"032-657-1235","addr":"경기도 부천시 심곡동 162-4번지","indutype":"일반휴게음식 - 일반한식","category":"restaurant"},{"name":"미강우렁쌈밥&버섯전골","tel":"032-664-7986","addr":"경기도 부천시 심곡동 162-4번지 1층","indutype":"일반휴게음식 - 일반한식","category":"restaurant"}]},{"lat":"37.487232938","long":"126.78560916","imageIndex":4,"items":[{"name":":가을하늘민(베이커리)","tel":"032-614-2652","addr":"경기도 부천시 심곡동 150-4번지 청곡빌딩 1층","indutype":"일반휴게음식 - 서양음식","category":"restaurant"},{"name":"골드비어치킨","tel":"032-667-2120","addr":"경기도 부천시 심곡동 150-4번지 청곡빌딩 1층","indutype":"일반휴게음식 - 스넥","category":"restaurant"},{"name":"오복식당","tel":"032-677-0504","addr":"경기도 부천시 심곡동 150-4번지 청곡빌딩 105호","indutype":"일반휴게음식 - 일반한식","category":"restaurant"}]},{"lat":"37.488787369","long":"126.77380006","imageIndex":4,"items":[{"name":"MK치킨","tel":"070-4951-7949","addr":"경기도 부천시 심곡동 345-10번지 유림빌딩 1층 남쪽방향 점포","indutype":"일반휴게음식 - 주점","category":"restaurant"}]},{"lat":"37.492846231","long":"126.78082105","imageIndex":4,"items":[{"name":"The monochrome(모노크롬)","tel":"","addr":"경기도 부천시 심곡동 440-8번지 1층","indutype":"일반휴게음식 - 서양음식","category":"restaurant"}]},{"lat":"37.487456578","long":"126.77990984","imageIndex":4,"items":[{"name":"jolly반점 (졸리반점)","tel":"032-663-8792","addr":"경기도 부천시 심곡동 405-4번지 1층","indutype":"일반휴게음식 - 일반한식","category":"restaurant"}]},{"lat":"37.486487087","long":"126.77705212","imageIndex":4,"items":[{"name":"가람","tel":"070-7364-4879","addr":"경기도 부천시 심곡동 463-5번지 2층 일부","indutype":"일반휴게음식 - 서양음식","category":"restaurant"},{"name":"길호프","tel":"032-654-6017","addr":"경기도 부천시 심곡동 463-5번지 2층","indutype":"일반휴게음식 - 주점","category":"restaurant"}]},{"lat":"37.48504086","long":"126.7793517","imageIndex":4,"items":[{"name":"가람호프","tel":"032-613-7374","addr":"경기도 부천시 심곡동 388-12번지 1층","indutype":"일반휴게음식 - 주점","category":"restaurant"},{"name":"아시나요","tel":"032-662-7530","addr":"경기도 부천시 심곡동 388-12번지 1층","indutype":"일반휴게음식 - 주점","category":"restaurant"}]},{"lat":"37.493618859","long":"126.78445988","imageIndex":4,"items":[{"name":"가마솥감자탕","tel":"032-666-9288","addr":"경기도 부천시 심곡동 93-10번지 1층","indutype":"일반휴게음식 - 일반한식","category":"restaurant"},{"name":"덴","tel":"032-277-3737","addr":"경기도 부천시 심곡동 93-10번지 1층","indutype":"일반휴게음식 - 일반한식","category":"restaurant"},{"name":"오야","tel":"032-665-1258","addr":"경기도 부천시 심곡동 93-10번지 1층","indutype":"일반휴게음식 - 일반한식","category":"restaurant"}]},{"lat":"37.484539832","long":"126.78608052","imageIndex":4,"items":[{"name":"가마치통닭부천역점","tel":"032-612-9233","addr":"경기도 부천시 심곡동 144-10번지 1층 일부","indutype":"일반휴게음식 - 일반한식","category":"restaurant"},{"name":"커피플레이어/건우D&C","tel":"032-656-1347","addr":"경기도 부천시 심곡동 144-10번지 1층","indutype":"일반휴게음식 - 서양음식","category":"restaurant"}]},{"lat":"37.485211571","long":"126.78390773","imageIndex":4,"items":[{"name":"가맥","tel":"032-1111-111","addr":"경기도 부천시 심곡동 170-20번지 19호","indutype":"일반휴게음식 - 주점","category":"restaurant"},{"name":"광해식당","tel":"032-612-1606","addr":"경기도 부천시 심곡동 170-20번지","indutype":"일반휴게음식 - 일반한식","category":"restaurant"},{"name":"소라식당","tel":"032-612-4665","addr":"경기도 부천시 심곡동 170-20번지 1층 16호","indutype":"일반휴게음식 - 일반한식","category":"restaurant"},{"name":"썸남","tel":"032-611-1118","addr":"경기도 부천시 심곡동 170-20번지 1층 27호","indutype":"일반휴게음식 - 주점","category":"restaurant"},{"name":"올레착한호프","tel":"032-654-7070","addr":"경기도 부천시 심곡동 170-20번지 2층 1,2호","indutype":"일반휴게음식 - 주점","category":"restaurant"},{"name":"윙크","tel":"032-612-8790","addr":"경기도 부천시 심곡동 170-20번지 27호","indutype":"일반휴게음식 - 주점","category":"restaurant"},{"name":"커피에반하다부천역점","tel":"070-8970-4016","addr":"경기도 부천시 심곡동 170-20번지 1층 15호","indutype":"일반휴게음식 - 서양음식","category":"restaurant"}]},{"lat":"37.488287488","long":"126.78097023","imageIndex":4,"items":[{"name":"가맥노가리호프","tel":"032-655-5725","addr":"경기도 부천시 심곡동 377-9번지 1층","indutype":"일반휴게음식 - 일반한식","category":"restaurant"},{"name":"홍S포차","tel":"","addr":"경기도 부천시 심곡동 377-9번지 1층","indutype":"일반휴게음식 - 일반한식","category":"restaurant"}]},{"lat":"37.486653844","long":"126.77945996","imageIndex":4,"items":[{"name":"가연라이브카페7080","tel":"","addr":"경기도 부천시 심곡동 400-4번지 G동 1층","indutype":"일반휴게음식 - 주점","category":"restaurant"},{"name":"스시갑","tel":"032-662-7878","addr":"경기도 부천시 심곡동 400-4번지 1층 일부","indutype":"일반휴게음식 - 일식·회집","category":"restaurant"}]},{"lat":"37.490704143","long":"126.77726557","imageIndex":4,"items":[{"name":"가온누리세상","tel":"032-665-2110","addr":"경기도 부천시 심곡동 327-11번지 광명빌딩 6층","indutype":"일반휴게음식 - 일반한식","category":"restaurant"},{"name":"주식회사 가온누리세상","tel":"070-7729-4140","addr":"경기도 부천시 심곡동 327-11번지 광명빌딩 2층","indutype":"일반휴게음식 - 일반한식","category":"restaurant"}]},{"lat":"37.485230645","long":"126.77965641","imageIndex":4,"items":[{"name":"감탄","tel":"032-662-2210","addr":"경기도 부천시 심곡동 392-8번지","indutype":"일반휴게음식 - 일반한식","category":"restaurant"}]},{"lat":"37.484850399","long":"126.78349044","imageIndex":4,"items":[{"name":"갓식빵부천역점","tel":"032-666-6623","addr":"경기도 부천시 심곡동 171-14번지 1층","indutype":"일반휴게음식 - 서양음식","category":"restaurant"}]},{"lat":"37.489847902","long":"126.77710984","imageIndex":4,"items":[{"name":"강정구의피자생각부천대점","tel":"","addr":"경기도 부천시 심곡동 328-15번지 1층 101호","indutype":"일반휴게음식 - 서양음식","category":"restaurant"}]},{"lat":"37.497286566","long":"126.78482238","imageIndex":4,"items":[{"name":"강화주문도벤댕이","tel":"032-663-1333","addr":"경기도 부천시 심곡동 88-1번지 1층","indutype":"일반휴게음식 - 일반한식","category":"restaurant"}]},{"lat":"37.487537482","long":"126.78463589","imageIndex":4,"items":[{"name":"개구리호프","tel":"032-657-8055","addr":"경기도 부천시 심곡동 163-20번지","indutype":"일반휴게음식 - 칵테일바","category":"restaurant"},{"name":"백가원","tel":"032-661-6668","addr":"경기도 부천시 심곡동 163-20번지 1층","indutype":"일반휴게음식 - 일반한식","category":"restaurant"},{"name":"정곤네콩나물국밥","tel":"032-656-0433","addr":"경기도 부천시 심곡동 163-20번지","indutype":"일반휴게음식 - 일반한식","category":"restaurant"}]},{"lat":"37.48781823","long":"126.78057588","imageIndex":4,"items":[{"name":"개동포차","tel":"032-111-1111","addr":"경기도 부천시 심곡동 378-23번지 2층","indutype":"일반휴게음식 - 일반한식","category":"restaurant"}]},{"lat":"37.485427599","long":"126.78379403","imageIndex":4,"items":[{"name":"걍 미친통닭","tel":"032-651-5988","addr":"경기도 부천시 심곡동 170-3번지","indutype":"일반휴게음식 - 스넥","category":"restaurant"}]},{"lat":"37.489987459","long":"126.78424431","imageIndex":4,"items":[{"name":"경성치킨","tel":"032-677-1787","addr":"경기도 부천시 심곡동 157-8번지 1층","indutype":"일반휴게음식 - 스넥","category":"restaurant"}]},{"lat":"37.485402622","long":"126.78007424","imageIndex":4,"items":[{"name":"경성함바그","tel":"070-8870-0207","addr":"경기도 부천시 심곡동 385번지 B120호","indutype":"일반휴게음식 - 일반한식","category":"restaurant"},{"name":"라화쿵부","tel":"032-651-0188","addr":"경기도 부천시 심곡동 385번지 피노키오 206호 205호,206호","indutype":"일반휴게음식 - 중국식","category":"restaurant"},{"name":"록식당","tel":"032-661-5552","addr":"경기도 부천시 심곡동 385번지 202호,203호","indutype":"일반휴게음식 - 일반한식","category":"restaurant"},{"name":"맛조이샤브샤브","tel":"032-611-7422","addr":"경기도 부천시 심곡동 385번지 피노키오상가 지하1층 122,123호","indutype":"일반휴게음식 - 일반한식","category":"restaurant"},{"name":"명랑한찜닭 부천역점","tel":"032-657-1259","addr":"경기도 부천시 심곡동 385번지 지하1층 B118호","indutype":"일반휴게음식 - 일반한식","category":"restaurant"},{"name":"믹스그리들(Mix Griddle)","tel":"032-0000-0000","addr":"경기도 부천시 심곡동 385번지 까뮤스퀘어피노키오 4층 438,439호","indutype":"일반휴게음식 - 일반한식","category":"restaurant"},{"name":"바오","tel":"070-1111-1111","addr":"경기도 부천시 심곡동 385번지 심곡동피노키오상가 239호","indutype":"일반휴게음식 - 중국식","category":"restaurant"},{"name":"베트남노상식당","tel":"","addr":"경기도 부천시 심곡동 385번지 지하1층 B103호 피노키오상가","indutype":"일반휴게음식 - 일반한식","category":"restaurant"},{"name":"별난쭈꾸미","tel":"031-000-0000","addr":"경기도 부천시 심곡동 385번지 심곡동피노키오상가 1층 103호","indutype":"일반휴게음식 - 일반한식","category":"restaurant"},{"name":"브롱스 부천역점","tel":"032-431-2589","addr":"경기도 부천시 심곡동 385번지 피노키오상가 3층 314호,315호","indutype":"일반휴게음식 - 주점","category":"restaurant"},{"name":"소담촌","tel":"032-611-7789","addr":"경기도 부천시 심곡동 385번지 피오키오상가 607호 606호 ,607호","indutype":"일반휴게음식 - 일반한식","category":"restaurant"},{"name":"술독","tel":"032-555-5555","addr":"경기도 부천시 심곡동 385번지 피노키오상가 412,413호","indutype":"일반휴게음식 - 주점","category":"restaurant"},{"name":"스몰트리(small tree)","tel":"032-555-5555","addr":"경기도 부천시 심곡동 385번지 4층 432호 피노키오상가","indutype":"일반휴게음식 - 서양음식","category":"restaurant"},{"name":"신미마라천국","tel":"","addr":"경기도 부천시 심곡동 385번지 피노키오상가 221호","indutype":"일반휴게음식 - 일반한식","category":"restaurant"},{"name":"올래양꼬치","tel":"032-661-6262","addr":"경기도 부천시 심곡동 385번지 심곡동피노키오상가 105호","indutype":"일반휴게음식 - 일반한식","category":"restaurant"},{"name":"잇쵸메","tel":"02-1234-1234","addr":"경기도 부천시 심곡동 385번지 심곡동피노키오상가 123호","indutype":"일반휴게음식 - 일반한식","category":"restaurant"},{"name":"정담다","tel":"","addr":"경기도 부천시 심곡동 385번지 피노키오상가 228호","indutype":"일반휴게음식 - 일반한식","category":"restaurant"},{"name":"짬디","tel":"032-661-5028","addr":"경기도 부천시 심곡동 385번지 심곡동피노키오상가 3층 317호","indutype":"일반휴게음식 - 중국식","category":"restaurant"},{"name":"채윤포차","tel":"070-7404-8255","addr":"경기도 부천시 심곡동 385번지 심곡동피노키오상가 1층 106호","indutype":"일반휴게음식 - 주점","category":"restaurant"},{"name":"치킨이남달라","tel":"032-654-9592","addr":"경기도 부천시 심곡동 385번지 꺄뮤스퀘어피노키오 1층101,102,126호","indutype":"일반휴게음식 - 스넥","category":"restaurant"},{"name":"카툰명가 부천점","tel":"032-655-5551","addr":"경기도 부천시 심곡동 385번지 피노키오상가 501~503호","indutype":"일반휴게음식 - 서양음식","category":"restaurant"},{"name":"커피에반하다(부천피노키오점)","tel":"","addr":"경기도 부천시 심곡동 385번지 심곡동피노키오상가 109호","indutype":"일반휴게음식 - 서양음식","category":"restaurant"},{"name":"탄탄면공방(부천역점)","tel":"032-651-6994","addr":"경기도 부천시 심곡동 385번지 1층136호 심곡동피노키오상가","indutype":"일반휴게음식 - 일반한식","category":"restaurant"},{"name":"토리라멘","tel":"02-1111-1111","addr":"경기도 부천시 심곡동 385번지 심곡동피노키오상가 119호","indutype":"일반휴게음식 - 일식·회집","category":"restaurant"},{"name":"파스쿠찌 부천역점","tel":"032-652-0818","addr":"경기도 부천시 심곡동 385번지 114~115호,212~215호","indutype":"일반휴게음식 - 서양음식","category":"restaurant"},{"name":"플레이트스튜디오 (plate studio)","tel":"070-8838-0263","addr":"경기도 부천시 심곡동 385번지 B113호","indutype":"일반휴게음식 - 서양음식","category":"restaurant"}]},{"lat":"37.485960296","long":"126.77957509","imageIndex":4,"items":[{"name":"경식이네알쌈쭈꾸미","tel":"032-662-0817","addr":"경기도 부천시 심곡동 394-14번지 1층","indutype":"일반휴게음식 - 일반한식","category":"restaurant"}]},{"lat":"37.490007522","long":"126.77577511","imageIndex":4,"items":[{"name":"경아두마리치킨","tel":"032-611-9254","addr":"경기도 부천시 심곡동 325-17번지 1층","indutype":"일반휴게음식 - 스넥","category":"restaurant"},{"name":"여하","tel":"070-8870-3082","addr":"경기도 부천시 심곡동 325-17번지 1층","indutype":"일반휴게음식 - 일반한식","category":"restaurant"}]},{"lat":"37.486982674","long":"126.77707324","imageIndex":4,"items":[{"name":"계경순대국 부천심곡점","tel":"032-666-7545","addr":"경기도 부천시 심곡동 458-8번지 1층","indutype":"일반휴게음식 - 일반한식","category":"restaurant"},{"name":"정다방","tel":"032-663-0061","addr":"경기도 부천시 심곡동 458-8번지","indutype":"일반휴게음식 - 서양음식","category":"restaurant"},{"name":"통닭5900원","tel":"032-661-5901","addr":"경기도 부천시 심곡동 458-8번지 일부 1층 나호","indutype":"일반휴게음식 - 스넥","category":"restaurant"}]},{"lat":"37.495286166","long":"126.78471511","imageIndex":4,"items":[{"name":"고구려본토짜장","tel":"032-651-9909","addr":"경기도 부천시 심곡동 89-11번지","indutype":"일반휴게음식 - 중국식","category":"restaurant"},{"name":"카리브","tel":"032-668-2986","addr":"경기도 부천시 심곡동 89-11번지","indutype":"일반휴게음식 - 주점","category":"restaurant"},{"name":"푸짐한한식부페","tel":"032-611-7783","addr":"경기도 부천시 심곡동 89-11번지 1층 일부","indutype":"일반휴게음식 - 일반한식","category":"restaurant"}]},{"lat":"37.487542567","long":"126.78252148","imageIndex":4,"items":[{"name":"고기굽는사람들","tel":"032-655-8120","addr":"경기도 부천시 심곡동 192-5번지 1층","indutype":"일반휴게음식 - 일반한식","category":"restaurant"}]},{"lat":"37.48698427","long":"126.77790994","imageIndex":4,"items":[{"name":"고기나라","tel":"032-665-2050","addr":"경기도 부천시 심곡동 458-2번지 다온하브 112,113","indutype":"일반휴게음식 - 일반한식","category":"restaurant"},{"name":"구스토커피 부천점","tel":"032-563-0600","addr":"경기도 부천시 심곡동 458-2번지 다온하브 107,108호","indutype":"일반휴게음식 - 서양음식","category":"restaurant"},{"name":"일품대패삼겹살","tel":"","addr":"경기도 부천시 심곡동 458-2번지 다온하브","indutype":"일반휴게음식 - 일반한식","category":"restaurant"},{"name":"카페일리터 부천점","tel":"","addr":"경기도 부천시 심곡동 458-2번지 다온하브 1층 116호","indutype":"일반휴게음식 - 서양음식","category":"restaurant"},{"name":"한동길감자탕","tel":"031-655-6787","addr":"경기도 부천시 심곡동 458-2번지 1층 107,108호","indutype":"일반휴게음식 - 일반한식","category":"restaurant"}]},{"lat":"37.486370712","long":"126.78221964","imageIndex":4,"items":[{"name":"고기한판가보","tel":"032-663-5952","addr":"경기도 부천시 심곡동 176-1번지 1층","indutype":"일반휴게음식 - 일반한식","category":"restaurant"}]},{"lat":"37.484844734","long":"126.78046032","imageIndex":4,"items":[{"name":"고깃집","tel":"032-652-4932","addr":"경기도 부천시 심곡동 386-6번지 제일상가 1층 1호","indutype":"일반휴게음식 - 일반한식","category":"restaurant"},{"name":"벗이랑","tel":"032-653-5408","addr":"경기도 부천시 심곡동 386-6번지 제일상가 1층 5호","indutype":"일반휴게음식 - 일반한식","category":"restaurant"},{"name":"송(  )실장","tel":"032-663-7300","addr":"경기도 부천시 심곡동 386-6번지 제일상가 1층 2호","indutype":"일반휴게음식 - 일반한식","category":"restaurant"},{"name":"오아시스포차","tel":"032-656-1960","addr":"경기도 부천시 심곡동 386-6번지","indutype":"일반휴게음식 - 일반한식","category":"restaurant"},{"name":"횟집새말해","tel":"032-656-4210","addr":"경기도 부천시 심곡동 386-6번지 제일상가 1층 2호","indutype":"일반휴게음식 - 일식·회집","category":"restaurant"}]},{"lat":"37.485903557","long":"126.77816193","imageIndex":4,"items":[{"name":"고돼지 심곡점","tel":"","addr":"경기도 부천시 심곡동 398-20번지 1층 1호","indutype":"일반휴게음식 - 일반한식","category":"restaurant"},{"name":"샛별 호프","tel":"","addr":"경기도 부천시 심곡동 398-20번지 지하1층 일부","indutype":"일반휴게음식 - 주점","category":"restaurant"}]},{"lat":"37.487732386","long":"126.78284882","imageIndex":4,"items":[{"name":"고려호프","tel":"032-651-2977","addr":"경기도 부천시 심곡동 190-4번지","indutype":"일반휴게음식 - 주점","category":"restaurant"},{"name":"부천소곱창","tel":"02-000-0000","addr":"경기도 부천시 심곡동 190-4번지 2층 일부호","indutype":"일반휴게음식 - 일반한식","category":"restaurant"},{"name":"어사출도","tel":"032-656-6922","addr":"경기도 부천시 심곡동 190-4번지 1층","indutype":"일반휴게음식 - 일식·회집","category":"restaurant"},{"name":"오코노미","tel":"032-613-5582","addr":"경기도 부천시 심곡동 190-4번지 1층","indutype":"일반휴게음식 - 일반한식","category":"restaurant"}]},{"lat":"37.486342329","long":"126.78149609","imageIndex":4,"items":[{"name":"고베규카츠","tel":"031-611-6564","addr":"경기도 부천시 심곡동 176-13번지 2층","indutype":"일반휴게음식 - 일식·회집","category":"restaurant"},{"name":"보드람치킨","tel":"032-666-4733","addr":"경기도 부천시 심곡동 176-13번지","indutype":"일반휴게음식 - 칵테일바","category":"restaurant"}]},{"lat":"37.491286229","long":"126.7754094","imageIndex":4,"items":[{"name":"고수닭강정","tel":"","addr":"경기도 부천시 심곡동 304-13번지 1층 일부","indutype":"일반휴게음식 - 일반한식","category":"restaurant"}]},{"lat":"37.48931543","long":"126.7719893","imageIndex":4,"items":[{"name":"고스트피자","tel":"032-668-2223","addr":"경기도 부천시 심곡동 335-20번지","indutype":"일반휴게음식 - 서양음식","category":"restaurant"}]},{"lat":"37.484675076","long":"126.78127488","imageIndex":4,"items":[{"name":"고향나들이","tel":"032-612-2356","addr":"경기도 부천시 심곡동 173-9번지 1층","indutype":"일반휴게음식 - 일반한식","category":"restaurant"}]},{"lat":"37.48884395","long":"126.77982657","imageIndex":4,"items":[{"name":"고호비","tel":"070-4139-9934","addr":"경기도 부천시 심곡동 409-2번지 대원빌딩 1층 일부","indutype":"일반휴게음식 - 일식·회집","category":"restaurant"},{"name":"더국물","tel":"032-665-8289","addr":"경기도 부천시 심곡동 409-2번지","indutype":"일반휴게음식 - 스넥","category":"restaurant"},{"name":"코너스톤(corner stone)","tel":"032-613-0777","addr":"경기도 부천시 심곡동 409-2번지 2층","indutype":"일반휴게음식 - 서양음식","category":"restaurant"}]},{"lat":"37.486179257","long":"126.77627288","imageIndex":4,"items":[{"name":"골목포차","tel":"032-3217-8456","addr":"경기도 부천시 심곡동 360-16번지","indutype":"일반휴게음식 - 일반한식","category":"restaurant"}]},{"lat":"37.487903966","long":"126.778269","imageIndex":4,"items":[{"name":"곰미커피","tel":"","addr":"경기도 부천시 심곡동 456-1번지 1층 일부","indutype":"일반휴게음식 - 서양음식","category":"restaurant"}]},{"lat":"37.487426509","long":"126.78799435","imageIndex":4,"items":[{"name":"곱부자","tel":"032-614-7111","addr":"경기도 부천시 심곡동 133-14번지 부강빌딩","indutype":"일반휴게음식 - 일반한식","category":"restaurant"}]},{"lat":"37.488039248","long":"126.7831306","imageIndex":4,"items":[{"name":"곱분이곱창","tel":"032-656-3419","addr":"경기도 부천시 심곡동 349-10번지 1층 101호","indutype":"일반휴게음식 - 일반한식","category":"restaurant"},{"name":"오백국수","tel":"","addr":"경기도 부천시 심곡동 349-10번지 1층 102호","indutype":"일반휴게음식 - 일반한식","category":"restaurant"},{"name":"피자스쿨 부천역점","tel":"032-612-0088","addr":"경기도 부천시 심곡동 349-10번지 1층 일부","indutype":"일반휴게음식 - 서양음식","category":"restaurant"}]},{"lat":"37.486981819","long":"126.78138114","imageIndex":4,"items":[{"name":"곱창가 부천역점","tel":"032-663-2777","addr":"경기도 부천시 심곡동 380-2번지 1층","indutype":"일반휴게음식 - 일반한식","category":"restaurant"},{"name":"꾼노리","tel":"032-614-6319","addr":"경기도 부천시 심곡동 380-2번지 2층","indutype":"일반휴게음식 - 일반한식","category":"restaurant"},{"name":"달아달아밝은달아","tel":"032-663-2777","addr":"경기도 부천시 심곡동 380-2번지 대원빌딩 1층","indutype":"일반휴게음식 - 일반한식","category":"restaurant"},{"name":"소마","tel":"032-667-4442","addr":"경기도 부천시 심곡동 380-2번지 4층","indutype":"일반휴게음식 - 주점","category":"restaurant"},{"name":"지금 보고싶다 심곡점","tel":"","addr":"경기도 부천시 심곡동 380-2번지 2층","indutype":"일반휴게음식 - 주점","category":"restaurant"},{"name":"팔팔 (88)","tel":"032-667-4442","addr":"경기도 부천시 심곡동 380-2번지 5층","indutype":"일반휴게음식 - 주점","category":"restaurant"}]},{"lat":"37.489403578","long":"126.77562994","imageIndex":4,"items":[{"name":"곱창보스","tel":"032-655-0551","addr":"경기도 부천시 심곡동 330-19번지","indutype":"일반휴게음식 - 일반한식","category":"restaurant"}]},{"lat":"37.485565227","long":"126.78029989","imageIndex":4,"items":[{"name":"곱창이야기","tel":"031-111-1111","addr":"경기도 부천시 심곡동 383-13번지 1층","indutype":"일반휴게음식 - 일반한식","category":"restaurant"}]},{"lat":"37.484960946","long":"126.78480167","imageIndex":4,"items":[{"name":"곱창전문점","tel":"032-654-9136","addr":"경기도 부천시 심곡동 170-9번지 1층","indutype":"일반휴게음식 - 일반한식","category":"restaurant"},{"name":"부천커피호프","tel":"032-655-0045","addr":"경기도 부천시 심곡동 170-9번지 2층 일부","indutype":"일반휴게음식 - 주점","category":"restaurant"},{"name":"솔닭한마리칼국수","tel":"032-664-0772","addr":"경기도 부천시 심곡동 170-9번지 1층","indutype":"일반휴게음식 - 일반한식","category":"restaurant"}]},{"lat":"37.484791461","long":"126.78087881","imageIndex":4,"items":[{"name":"곱창폭식부천점","tel":"0010-0000-0000","addr":"경기도 부천시 심곡동 386-11번지 1층","indutype":"일반휴게음식 - 일반한식","category":"restaurant"}]},{"lat":"37.488848324","long":"126.78215582","imageIndex":4,"items":[{"name":"공개정원","tel":"032-655-2016","addr":"경기도 부천시 심곡동 353-5번지 1층","indutype":"일반휴게음식 - 서양음식","category":"restaurant"}]},{"lat":"37.485959601","long":"126.78401861","imageIndex":4,"items":[{"name":"공릉닭한마리","tel":"032-611-9599","addr":"경기도 부천시 심곡동 169-11번지 1층","indutype":"일반휴게음식 - 일반한식","category":"restaurant"}]},{"lat":"37.488735274","long":"126.78434972","imageIndex":4,"items":[{"name":"공릉동원조멸치국수","tel":"032-666-6598","addr":"경기도 부천시 심곡동 161-3번지 영도빌딩","indutype":"일반휴게음식 - 스넥","category":"restaurant"}]},{"lat":"37.487538668","long":"126.78044102","imageIndex":4,"items":[{"name":"곽두리쪽갈비","tel":"032-212-2318","addr":"경기도 부천시 심곡동 379-13번지 1층","indutype":"일반휴게음식 - 일반한식","category":"restaurant"},{"name":"치킨인더펍 (CHICKEN in the pub)","tel":"032-318-4252","addr":"경기도 부천시 심곡동 379-13번지 1층 일부","indutype":"일반휴게음식 - 주점","category":"restaurant"}]},{"lat":"37.486792081","long":"126.78109903","imageIndex":4,"items":[{"name":"광장빈대떡","tel":"070-7621-4787","addr":"경기도 부천시 심곡동 380-5번지 1층","indutype":"일반휴게음식 - 일반한식","category":"restaurant"}]},{"lat":"37.494871649","long":"126.78468239","imageIndex":4,"items":[{"name":"교촌치킨중동꿈마을점","tel":"032-611-0920","addr":"경기도 부천시 심곡동 93-1번지 1층 114,115호","indutype":"일반휴게음식 - 일반한식","category":"restaurant"},{"name":"병천순대","tel":"032-517-0452","addr":"경기도 부천시 심곡동 93-1번지 112,113호","indutype":"일반휴게음식 - 일반한식","category":"restaurant"},{"name":"어우림","tel":"032-652-8552","addr":"경기도 부천시 심곡동 93-1번지 심곡메가밸리 107호","indutype":"일반휴게음식 - 일반한식","category":"restaurant"},{"name":"왕세숫대야냉면왕돈가스","tel":"032-656-7558","addr":"경기도 부천시 심곡동 93-1번지 심곡메가밸리 111호","indutype":"일반휴게음식 - 일반한식","category":"restaurant"},{"name":"콩심","tel":"032-665-8994","addr":"경기도 부천시 심곡동 93-1번지 심곡메가밸리 108,109호 일부","indutype":"일반휴게음식 - 일반한식","category":"restaurant"}]},{"lat":"37.488064686","long":"126.78715581","imageIndex":4,"items":[{"name":"구)일산장군집","tel":"032-612-5221","addr":"경기도 부천시 심곡동 133-8번지 1층","indutype":"일반휴게음식 - 일반한식","category":"restaurant"},{"name":"심곡천라면김밥","tel":"032-111-1111","addr":"경기도 부천시 심곡동 133-8번지 1층","indutype":"일반휴게음식 - 일반한식","category":"restaurant"}]},{"lat":"37.492036544","long":"126.77204877","imageIndex":4,"items":[{"name":"구공까페부천심곡점","tel":"032-612-9990","addr":"경기도 부천시 심곡동 314-17번지 1층","indutype":"일반휴게음식 - 서양음식","category":"restaurant"},{"name":"빅투치킨","tel":"032-654-9982","addr":"경기도 부천시 심곡동 314-17번지 1층","indutype":"일반휴게음식 - 주점","category":"restaurant"}]},{"lat":"37.48693248","long":"126.78391401","imageIndex":4,"items":[{"name":"구우마라탕","tel":"","addr":"경기도 부천시 심곡동 164-14번지 1층","indutype":"일반휴게음식 - 중국식","category":"restaurant"},{"name":"이반장부대","tel":"032-655-7624","addr":"경기도 부천시 심곡동 164-14번지","indutype":"일반휴게음식 - 일반한식","category":"restaurant"}]},{"lat":"37.488289965","long":"126.78229315","imageIndex":4,"items":[{"name":"구워포차","tel":"070-8777-9292","addr":"경기도 부천시 심곡동 194번지 중앙자유시장 8,9호","indutype":"일반휴게음식 - 일반한식","category":"restaurant"},{"name":"꼬꼬랑","tel":"032-656-9595","addr":"경기도 부천시 심곡동 194번지 중앙자유시장 1층 37,38호","indutype":"일반휴게음식 - 일반한식","category":"restaurant"},{"name":"대흥분식","tel":"032-656-8281","addr":"경기도 부천시 심곡동 194번지 중앙자유시장 40호","indutype":"일반휴게음식 - 스넥","category":"restaurant"},{"name":"병뚜껑","tel":"","addr":"경기도 부천시 심곡동 194번지 1층 1,54호","indutype":"일반휴게음식 - 일반한식","category":"restaurant"},{"name":"부평포차","tel":"032-511-9049","addr":"경기도 부천시 심곡동 194번지","indutype":"일반휴게음식 - 일반한식","category":"restaurant"},{"name":"카페자르트","tel":"032-662-8663","addr":"경기도 부천시 심곡동 194번지 중앙자유시장 78호","indutype":"일반휴게음식 - 서양음식","category":"restaurant"},{"name":"커피집오후2시","tel":"070-8615-7879","addr":"경기도 부천시 심곡동 194번지 중앙자유시장 36호","indutype":"일반휴게음식 - 서양음식","category":"restaurant"},{"name":"콩이분식","tel":"02-000-0000","addr":"경기도 부천시 심곡동 194번지 중앙자유시장 37,38호","indutype":"일반휴게음식 - 스넥","category":"restaurant"},{"name":"파니노","tel":"070-8866-6698","addr":"경기도 부천시 심곡동 194번지 중앙자유시장 2층 10호","indutype":"일반휴게음식 - 서양음식","category":"restaurant"},{"name":"푸드메카 앤 불스떡볶이","tel":"032-652-9292","addr":"경기도 부천시 심곡동 194번지 중앙자유시장 43호~45호","indutype":"일반휴게음식 - 일반한식","category":"restaurant"},{"name":"프레쉬오(Fresh O)","tel":"032-666-4762","addr":"경기도 부천시 심곡동 194번지 중앙자유시장 1층 15호","indutype":"일반휴게음식 - 서양음식","category":"restaurant"}]},{"lat":"37.488541164","long":"126.78171575","imageIndex":4,"items":[{"name":"구해오라기포차","tel":"032-661-2365","addr":"경기도 부천시 심곡동 377-1번지 1층","indutype":"일반휴게음식 - 일반한식","category":"restaurant"},{"name":"행복한밥상","tel":"032-614-2282","addr":"경기도 부천시 심곡동 377-1번지 1층","indutype":"일반휴게음식 - 일반한식","category":"restaurant"}]},{"lat":"37.486180793","long":"126.78670896","imageIndex":4,"items":[{"name":"국돈가","tel":"070-4076-8339","addr":"경기도 부천시 심곡동 137-17번지 1층","indutype":"일반휴게음식 - 일반한식","category":"restaurant"}]},{"lat":"37.491956712","long":"126.78213536","imageIndex":4,"items":[{"name":"국수랑","tel":"","addr":"경기도 부천시 심곡동 368-12번지 1층 일부","indutype":"일반휴게음식 - 스넥","category":"restaurant"},{"name":"닭치고오지","tel":"","addr":"경기도 부천시 심곡동 368-12번지 1층","indutype":"일반휴게음식 - 일반한식","category":"restaurant"}]},{"lat":"37.489538031","long":"126.77999411","imageIndex":4,"items":[{"name":"국일관","tel":"032-656-6868","addr":"경기도 부천시 심곡동 422-9번지 1층","indutype":"일반휴게음식 - 중국식","category":"restaurant"}]},{"lat":"37.485849971","long":"126.77841083","imageIndex":4,"items":[{"name":"굿맘","tel":"032-613-8180","addr":"경기도 부천시 심곡동 396-12번지 1층","indutype":"일반휴게음식 - 일반한식","category":"restaurant"},{"name":"야미가 부천점","tel":"032-611-2086","addr":"경기도 부천시 심곡동 396-12번지 1층 일부","indutype":"일반휴게음식 - 일반한식","category":"restaurant"}]},{"lat":"37.485598788","long":"126.77898822","imageIndex":4,"items":[{"name":"굿성비키친","tel":"032-656-2356","addr":"경기도 부천시 심곡동 391-19번지 1층 일부","indutype":"일반휴게음식 - 일반한식","category":"restaurant"}]},{"lat":"37.485454062","long":"126.78348867","imageIndex":4,"items":[{"name":"궁전다방","tel":"032-661-3366","addr":"경기도 부천시 심곡동 170-5번지 B1층","indutype":"일반휴게음식 - 서양음식","category":"restaurant"},{"name":"낙원식당","tel":"032-663-5217","addr":"경기도 부천시 심곡동 170-5번지","indutype":"일반휴게음식 - 일반한식","category":"restaurant"},{"name":"자매식당","tel":"032-657-2182","addr":"경기도 부천시 심곡동 170-5번지 1층일부","indutype":"일반휴게음식 - 일반한식","category":"restaurant"}]},{"lat":"37.497178406","long":"126.78480007","imageIndex":4,"items":[{"name":"궁전호프","tel":"032-1111-1111","addr":"경기도 부천시 심곡동 88-48번지 1층","indutype":"일반휴게음식 - 주점","category":"restaurant"}]},{"lat":"37.485398213","long":"126.78741222","imageIndex":4,"items":[{"name":"궁중원조양평해장국","tel":"032-664-5588","addr":"경기도 부천시 심곡동 138-2번지 트윈캐슬 105,106,107호","indutype":"일반휴게음식 - 일반한식","category":"restaurant"},{"name":"북경양꼬치","tel":"032-661-8882","addr":"경기도 부천시 심곡동 138-2번지 트윈캐슬 103호","indutype":"일반휴게음식 - 일반한식","category":"restaurant"}]},{"lat":"37.487122295","long":"126.78424135","imageIndex":4,"items":[{"name":"귀빈다방","tel":"","addr":"경기도 부천시 심곡동 165번지 2층","indutype":"일반휴게음식 - 서양음식","category":"restaurant"},{"name":"까치네밥집","tel":"032-612-6399","addr":"경기도 부천시 심곡동 165번지 1층 일부","indutype":"일반휴게음식 - 스넥","category":"restaurant"},{"name":"등비룡탕절대부마라탕","tel":"070-7420-0714","addr":"경기도 부천시 심곡동 165번지 1층 일부","indutype":"일반휴게음식 - 중국식","category":"restaurant"}]},{"lat":"37.486738446","long":"126.78132532","imageIndex":4,"items":[{"name":"그리고","tel":"032-652-5287","addr":"경기도 부천시 심곡동 380-31번지","indutype":"일반휴게음식 - 서양음식","category":"restaurant"},{"name":"그리고경양식","tel":"032-652-5287","addr":"경기도 부천시 심곡동 380-31번지","indutype":"일반휴게음식 - 서양음식","category":"restaurant"},{"name":"삼구포차부천점","tel":"032-652-3939","addr":"경기도 부천시 심곡동 380-31번지 2층","indutype":"일반휴게음식 - 주점","category":"restaurant"},{"name":"충배네생고기","tel":"031-0000-0000","addr":"경기도 부천시 심곡동 380-31번지 1층","indutype":"일반휴게음식 - 일반한식","category":"restaurant"}]},{"lat":"37.487008594","long":"126.78124538","imageIndex":4,"items":[{"name":"그리다","tel":"031-0000-0000","addr":"경기도 부천시 심곡동 380-24번지 청산빌딩 3층","indutype":"일반휴게음식 - 주점","category":"restaurant"},{"name":"알엠비엔터테인먼트","tel":"032-321-4936","addr":"경기도 부천시 심곡동 380-24번지 청산빌딩 5층","indutype":"일반휴게음식 - 일반한식","category":"restaurant"},{"name":"역전할머니맥주","tel":"","addr":"경기도 부천시 심곡동 380-24번지 청산빌딩","indutype":"일반휴게음식 - 일반한식","category":"restaurant"},{"name":"음주가무","tel":"031-269-6851","addr":"경기도 부천시 심곡동 380-24번지 2층","indutype":"일반휴게음식 - 주점","category":"restaurant"}]},{"lat":"37.485124933","long":"126.78093436","imageIndex":4,"items":[{"name":"그린&레드","tel":"","addr":"경기도 부천시 심곡동 384번지 일부 403호","indutype":"일반휴게음식 - 일반한식","category":"restaurant"},{"name":"그린라이트부천점","tel":"","addr":"경기도 부천시 심곡동 384번지 401호","indutype":"일반휴게음식 - 일반한식","category":"restaurant"},{"name":"닭갈비제작소","tel":"032-612-0223","addr":"경기도 부천시 심곡동 384번지 2층","indutype":"일반휴게음식 - 일반한식","category":"restaurant"},{"name":"장충뚱뚱이할머니족발보쌈","tel":"032-612-5999","addr":"경기도 부천시 심곡동 384번지","indutype":"일반휴게음식 - 일반한식","category":"restaurant"},{"name":"조마루뼈다귀북부점","tel":"032-655-0617","addr":"경기도 부천시 심곡동 384번지 1층","indutype":"일반휴게음식 - 일반한식","category":"restaurant"},{"name":"코이라멘 부천역점","tel":"","addr":"경기도 부천시 심곡동 384번지 1층 101호","indutype":"일반휴게음식 - 일식·회집","category":"restaurant"},{"name":"홍콩반점0410","tel":"032-664-0410","addr":"경기도 부천시 심곡동 384번지 101호","indutype":"일반휴게음식 - 중국식","category":"restaurant"}]},{"lat":"37.488123885","long":"126.78021315","imageIndex":4,"items":[{"name":"금돼지","tel":"032-668-3336","addr":"경기도 부천시 심곡동 408-5번지 나동 1층","indutype":"일반휴게음식 - 일반한식","category":"restaurant"},{"name":"로드스토리","tel":"","addr":"경기도 부천시 심곡동 408-5번지 가동 1층","indutype":"일반휴게음식 - 서양음식","category":"restaurant"},{"name":"타이어바웃(Thai about)","tel":"032-666-2126","addr":"경기도 부천시 심곡동 408-5번지 나동 2층","indutype":"일반휴게음식 - 일반한식","category":"restaurant"}]},{"lat":"37.49743135","long":"126.78516121","imageIndex":4,"items":[{"name":"금메달황금족발","tel":"032-661-2325","addr":"경기도 부천시 심곡동 78-6번지 1층","indutype":"일반휴게음식 - 일반한식","category":"restaurant"}]},{"lat":"37.487649334","long":"126.78179752","imageIndex":4,"items":[{"name":"금별맥주","tel":"","addr":"경기도 부천시 심곡동 192-18번지 JL빌딩 1층","indutype":"일반휴게음식 - 주점","category":"restaurant"},{"name":"오사카부르스","tel":"","addr":"경기도 부천시 심곡동 192-18번지 JL빌딩 2층","indutype":"일반휴게음식 - 주점","category":"restaurant"}]},{"lat":"37.487677715","long":"126.78252108","imageIndex":4,"items":[{"name":"기라성","tel":"","addr":"경기도 부천시 심곡동 192-4번지 ,1,2층","indutype":"일반휴게음식 - 중국식","category":"restaurant"}]},{"lat":"37.487344867","long":"126.77332958","imageIndex":4,"items":[{"name":"길동무","tel":"032-662-1741","addr":"경기도 부천시 심곡동 357-21번지 지하","indutype":"일반휴게음식 - 주점","category":"restaurant"}]},{"lat":"37.491567827","long":"126.78135629","imageIndex":4,"items":[{"name":"길상","tel":"070-7351-7646","addr":"경기도 부천시 심곡동 369-17번지 1층","indutype":"일반휴게음식 - 서양음식","category":"restaurant"}]},{"lat":"37.491457786","long":"126.77096503","imageIndex":4,"items":[{"name":"길차이나","tel":"032-662-8333","addr":"경기도 부천시 심곡동 320-2번지 1층","indutype":"일반휴게음식 - 중국식","category":"restaurant"}]},{"lat":"37.493429892","long":"126.7797677","imageIndex":4,"items":[{"name":"김가네오리주물럭","tel":"032-654-5488","addr":"경기도 부천시 심곡동 441번지","indutype":"일반휴게음식 - 일반한식","category":"restaurant"}]},{"lat":"37.487287688","long":"126.78113149","imageIndex":4,"items":[{"name":"김덕후의곱창부천역점","tel":"032-653-9998","addr":"경기도 부천시 심곡동 379-18번지 지하1층","indutype":"일반휴게음식 - 일반한식","category":"restaurant"}]},{"lat":"37.486207117","long":"126.78146257","imageIndex":4,"items":[{"name":"김밥나라","tel":"032-656-3045","addr":"경기도 부천시 심곡동 176-17번지 1층","indutype":"일반휴게음식 - 일반한식","category":"restaurant"},{"name":"에스바 (S Bar)","tel":"032-668-2097","addr":"경기도 부천시 심곡동 176-17번지 지하1층","indutype":"일반휴게음식 - 일반한식","category":"restaurant"},{"name":"착한양꼬치구이","tel":"032-652-3363","addr":"경기도 부천시 심곡동 176-17번지 2층","indutype":"일반휴게음식 - 일반한식","category":"restaurant"},{"name":"홍대조폭떡볶이부천역점","tel":"032-611-0868","addr":"경기도 부천시 심곡동 176-17번지 1층","indutype":"일반휴게음식 - 일반한식","category":"restaurant"}]},{"lat":"37.487599463","long":"126.78404775","imageIndex":4,"items":[{"name":"김밥마루","tel":"032-667-7503","addr":"경기도 부천시 심곡동 164-15번지 대원빌딩 1층","indutype":"일반휴게음식 - 스넥","category":"restaurant"},{"name":"콩깍지","tel":"032-655-1235","addr":"경기도 부천시 심곡동 164-15번지 대원빌딩 1층 일부","indutype":"일반휴게음식 - 일반한식","category":"restaurant"},{"name":"투다리 부천북부점","tel":"032-666-5792","addr":"경기도 부천시 심곡동 164-15번지 대원빌딩 1층","indutype":"일반휴게음식 - 주점","category":"restaurant"}]},{"lat":"37.485041184","long":"126.78926752","imageIndex":4,"items":[{"name":"김밥천국","tel":"032-661-0884","addr":"경기도 부천시 심곡동 124-17번지","indutype":"일반휴게음식 - 일반한식","category":"restaurant"},{"name":"티엔","tel":"032-611-0691","addr":"경기도 부천시 심곡동 124-17번지 1층","indutype":"일반휴게음식 - 중국식","category":"restaurant"}]},{"lat":"37.484905025","long":"126.78379556","imageIndex":4,"items":[{"name":"김밥천국","tel":"032-656-0397","addr":"경기도 부천시 심곡동 171-7번지","indutype":"일반휴게음식 - 스넥","category":"restaurant"}]},{"lat":"37.486846522","long":"126.78130239","imageIndex":4,"items":[{"name":"김부삼","tel":"032-651-3971","addr":"경기도 부천시 심곡동 380-4번지","indutype":"일반휴게음식 - 일반한식","category":"restaurant"},{"name":"일루 (ILLUE)","tel":"032-000-0000","addr":"경기도 부천시 심곡동 380-4번지 3층","indutype":"일반휴게음식 - 주점","category":"restaurant"},{"name":"화룽마라룽샤","tel":"032-612-8777","addr":"경기도 부천시 심곡동 380-4번지 2층","indutype":"일반휴게음식 - 중국식","category":"restaurant"}]},{"lat":"37.48661949","long":"126.78035329","imageIndex":4,"items":[{"name":"김종용누룽지통닭(부천역점)","tel":"032-668-9992","addr":"경기도 부천시 심곡동 381-8번지 1층 일부","indutype":"일반휴게음식 - 스넥","category":"restaurant"},{"name":"몽리구역","tel":"02-111-1111","addr":"경기도 부천시 심곡동 381-8번지 4층","indutype":"일반휴게음식 - 일반한식","category":"restaurant"},{"name":"용범이네인계동껍데기","tel":"","addr":"경기도 부천시 심곡동 381-8번지","indutype":"일반휴게음식 - 일반한식","category":"restaurant"}]},{"lat":"37.486571448","long":"126.77877049","imageIndex":4,"items":[{"name":"김호미불닭발","tel":"032-661-5754","addr":"경기도 부천시 심곡동 400-17번지 1층 일부","indutype":"일반휴게음식 - 일반한식","category":"restaurant"},{"name":"할머니해장국","tel":"032-652-0783","addr":"경기도 부천시 심곡동 400-17번지 1층","indutype":"일반휴게음식 - 일반한식","category":"restaurant"}]},{"lat":"37.488847648","long":"126.78179399","imageIndex":4,"items":[{"name":"까치식당","tel":"032-212-1360","addr":"경기도 부천시 심곡동 376-14번지 삼양빌딩 1층","indutype":"일반휴게음식 - 일반한식","category":"restaurant"},{"name":"달빛창가에서","tel":"032-611-9153","addr":"경기도 부천시 심곡동 376-14번지 삼양빌딩 1층 101호","indutype":"일반휴게음식 - 주점","category":"restaurant"}]},{"lat":"37.491344695","long":"126.7824877","imageIndex":4,"items":[{"name":"깜꼬치킨","tel":"032-652-6982","addr":"경기도 부천시 심곡동 368-32번지 1층","indutype":"일반휴게음식 - 스넥","category":"restaurant"},{"name":"연탄석쇠불고기","tel":"032-611-6409","addr":"경기도 부천시 심곡동 368-32번지 1층","indutype":"일반휴게음식 - 일반한식","category":"restaurant"}]},{"lat":"37.492509262","long":"126.78371681","imageIndex":4,"items":[{"name":"꼬기냉면","tel":"050-4358-7768","addr":"경기도 부천시 심곡동 114-6번지 1층","indutype":"일반휴게음식 - 일반한식","category":"restaurant"},{"name":"다방구","tel":"","addr":"경기도 부천시 심곡동 114-6번지 1층","indutype":"일반휴게음식 - 서양음식","category":"restaurant"}]},{"lat":"37.487234985","long":"126.78185528","imageIndex":4,"items":[{"name":"꼬꼬아찌","tel":"032-614-5551","addr":"경기도 부천시 심곡동 180-15번지 1층","indutype":"일반휴게음식 - 스넥","category":"restaurant"},{"name":"양만땅","tel":"032-208-2211","addr":"경기도 부천시 심곡동 180-15번지 2층","indutype":"일반휴게음식 - 일반한식","category":"restaurant"}]},{"lat":"37.489815458","long":"126.77429444","imageIndex":4,"items":[{"name":"꼬꼬치킨","tel":"032-612-3989","addr":"경기도 부천시 심곡동 330-51번지","indutype":"일반휴게음식 - 스넥","category":"restaurant"}]},{"lat":"37.489037384","long":"126.78207611","imageIndex":4,"items":[{"name":"꼬꼬치킨호프","tel":"032-661-6999","addr":"경기도 부천시 심곡동 353-2번지 1층","indutype":"일반휴게음식 - 주점","category":"restaurant"}]},{"lat":"37.486737724","long":"126.7809409","imageIndex":4,"items":[{"name":"꼴목포차","tel":"032-666-7715","addr":"경기도 부천시 심곡동 380-8번지","indutype":"일반휴게음식 - 일반한식","category":"restaurant"}]},{"lat":"37.485264749","long":"126.7834327","imageIndex":4,"items":[{"name":"꼽","tel":"032-613-4708","addr":"경기도 부천시 심곡동 170-6번지 1층","indutype":"일반휴게음식 - 일반한식","category":"restaurant"},{"name":"이모식당","tel":"032-668-9809","addr":"경기도 부천시 심곡동 170-6번지","indutype":"일반휴게음식 - 일반한식","category":"restaurant"},{"name":"전주식당","tel":"032-613-0280","addr":"경기도 부천시 심곡동 170-6번지","indutype":"일반휴게음식 - 일반한식","category":"restaurant"},{"name":"할머니순대국","tel":"032-663-7227","addr":"경기도 부천시 심곡동 170-6번지 1층 일부","indutype":"일반휴게음식 - 일반한식","category":"restaurant"}]},{"lat":"37.487959754","long":"126.78399016","imageIndex":4,"items":[{"name":"꽃마차식당호프","tel":"032-661-4594","addr":"경기도 부천시 심곡동 161-20번지 부천중앙프라자 지하층 2호","indutype":"일반휴게음식 - 주점","category":"restaurant"},{"name":"쉐프윤찹쌀꽈배기&고로케","tel":"070-1111-1111","addr":"경기도 부천시 심곡동 161-20번지 1층 102호,103호","indutype":"일반휴게음식 - 일반한식","category":"restaurant"},{"name":"신선국수","tel":"032-217-0763","addr":"경기도 부천시 심곡동 161-20번지 부천중앙프라자 17~23,30~34호","indutype":"일반휴게음식 - 스넥","category":"restaurant"}]},{"lat":"37.48848494","long":"126.77582494","imageIndex":4,"items":[{"name":"꾸어닭숯불바베큐","tel":"032-611-3278","addr":"경기도 부천시 심곡동 343-1번지 1층","indutype":"일반휴게음식 - 스넥","category":"restaurant"}]},{"lat":"37.486457737","long":"126.78057991","imageIndex":4,"items":[{"name":"꿀스커피","tel":"","addr":"경기도 부천시 심곡동 382-6번지 가온팰리스 1층 104호","indutype":"일반휴게음식 - 서양음식","category":"restaurant"},{"name":"셀리스","tel":"032-666-6684","addr":"경기도 부천시 심곡동 382-6번지 3층","indutype":"일반휴게음식 - 서양음식","category":"restaurant"},{"name":"아비꼬 부천역점","tel":"032-655-0710","addr":"경기도 부천시 심곡동 382-6번지 가온팰리스 101호","indutype":"일반휴게음식 - 일식·회집","category":"restaurant"},{"name":"왕돈까스왕냉면 부천역점","tel":"032-654-1007","addr":"경기도 부천시 심곡동 382-6번지 가온팰리스 1층 102호","indutype":"일반휴게음식 - 일반한식","category":"restaurant"},{"name":"주식회사 타르퀸","tel":"031-1111-1111","addr":"경기도 부천시 심곡동 382-6번지 가온팰리스 103호","indutype":"일반휴게음식 - 일반한식","category":"restaurant"},{"name":"핍스커피","tel":"","addr":"경기도 부천시 심곡동 382-6번지 가온팰리스 106호","indutype":"일반휴게음식 - 서양음식","category":"restaurant"}]},{"lat":"37.485149513","long":"126.77963404","imageIndex":4,"items":[{"name":"꿈을굽는카페","tel":"032-633-7838","addr":"경기도 부천시 심곡동 393-1번지 2호","indutype":"일반휴게음식 - 서양음식","category":"restaurant"},{"name":"돌판에삼겹","tel":"032-611-5729","addr":"경기도 부천시 심곡동 393-1번지 1층","indutype":"일반휴게음식 - 일반한식","category":"restaurant"},{"name":"윤우포차","tel":"032-667-7987","addr":"경기도 부천시 심곡동 393-1번지 1층 2호","indutype":"일반휴게음식 - 일반한식","category":"restaurant"},{"name":"핵스테이크부천역점","tel":"032-661-8989","addr":"경기도 부천시 심곡동 393-1번지 2호","indutype":"일반휴게음식 - 서양음식","category":"restaurant"},{"name":"향기","tel":"","addr":"경기도 부천시 심곡동 393-1번지 1층 일부","indutype":"일반휴게음식 - 주점","category":"restaurant"}]},{"lat":"37.485454335","long":"126.78363566","imageIndex":4,"items":[{"name":"나고야","tel":"032-663-5656","addr":"경기도 부천시 심곡동 170-13번지 1층 일부","indutype":"일반휴게음식 - 일반한식","category":"restaurant"},{"name":"나고야","tel":"032-663-5656","addr":"경기도 부천시 심곡동 170-13번지 1층 일부","indutype":"일반휴게음식 - 일반한식","category":"restaurant"},{"name":"큰맘할매순대국 부천북부역점","tel":"032-611-8882","addr":"경기도 부천시 심곡동 170-13번지 1층","indutype":"일반휴게음식 - 일반한식","category":"restaurant"}]},{"lat":"37.487789654","long":"126.78457862","imageIndex":4,"items":[{"name":"나그네삼겹살","tel":"032-652-8007","addr":"경기도 부천시 심곡동 162-22번지 1층 일부","indutype":"일반휴게음식 - 일반한식","category":"restaurant"}]},{"lat":"37.490705773","long":"126.78290795","imageIndex":4,"items":[{"name":"나그네호프","tel":"032-651-5165","addr":"경기도 부천시 심곡동 366-1번지","indutype":"일반휴게음식 - 주점","category":"restaurant"}]},{"lat":"37.48873023","long":"126.77221724","imageIndex":4,"items":[{"name":"나비","tel":"032-678-5766","addr":"경기도 부천시 심곡동 345-19번지 1층","indutype":"일반휴게음식 - 주점","category":"restaurant"},{"name":"오늘어때치맥","tel":"032-611-1411","addr":"경기도 부천시 심곡동 345-19번지 1층","indutype":"일반휴게음식 - 주점","category":"restaurant"}]},{"lat":"37.48662467","long":"126.77832937","imageIndex":4,"items":[{"name":"나비커피맥주","tel":"","addr":"경기도 부천시 심곡동 402-9번지 2층 일부","indutype":"일반휴게음식 - 일반한식","category":"restaurant"}]},{"lat":"37.485176557","long":"126.78446185","imageIndex":4,"items":[{"name":"나인","tel":"032-667-6604","addr":"경기도 부천시 심곡동 170-2번지","indutype":"일반휴게음식 - 일반한식","category":"restaurant"},{"name":"나주포장마차식당","tel":"032-656-4503","addr":"경기도 부천시 심곡동 170-2번지 7호","indutype":"일반휴게음식 - 주점","category":"restaurant"},{"name":"노천","tel":"032-656-8683","addr":"경기도 부천시 심곡동 170-2번지 소신여객(주)","indutype":"일반휴게음식 - 주점","category":"restaurant"},{"name":"동해마을","tel":"02-2638-5045","addr":"경기도 부천시 심곡동 170-2번지 1호","indutype":"일반휴게음식 - 일반한식","category":"restaurant"},{"name":"역전마차","tel":"032-666-7672","addr":"경기도 부천시 심곡동 170-2번지 1층","indutype":"일반휴게음식 - 일반한식","category":"restaurant"},{"name":"영심이토스트","tel":"","addr":"경기도 부천시 심곡동 170-2번지","indutype":"일반휴게음식 - 스넥","category":"restaurant"},{"name":"오복집","tel":"032-666-2554","addr":"경기도 부천시 심곡동 170-2번지","indutype":"일반휴게음식 - 일반한식","category":"restaurant"},{"name":"옴시롬감시롬","tel":"032-612-9371","addr":"경기도 부천시 심곡동 170-2번지 6호","indutype":"일반휴게음식 - 일반한식","category":"restaurant"},{"name":"우리집식당","tel":"032-611-1105","addr":"경기도 부천시 심곡동 170-2.4","indutype":"일반휴게음식 - 일반한식","category":"restaurant"}]},{"lat":"37.48670717","long":"126.78388075","imageIndex":4,"items":[{"name":"나인커피호프","tel":"","addr":"경기도 부천시 심곡동 168-6번지 지하1층","indutype":"일반휴게음식 - 서양음식","category":"restaurant"},{"name":"명태랑진땡이","tel":"032-611-2666","addr":"경기도 부천시 심곡동 168-6번지 1층","indutype":"일반휴게음식 - 일반한식","category":"restaurant"},{"name":"혜성커피호프","tel":"","addr":"경기도 부천시 심곡동 168-6번지 2층","indutype":"일반휴게음식 - 서양음식","category":"restaurant"}]},{"lat":"37.484454489","long":"126.78377426","imageIndex":4,"items":[{"name":"낙원커피숍","tel":"032-666-5535","addr":"경기도 부천시 심곡동 172-11번지 1층","indutype":"일반휴게음식 - 서양음식","category":"restaurant"}]},{"lat":"37.491341221","long":"126.78063328","imageIndex":4,"items":[{"name":"난다곱창 부천점","tel":"032-655-8982","addr":"경기도 부천시 심곡동 427-1번지 1층 일부","indutype":"일반휴게음식 - 일반한식","category":"restaurant"}]},{"lat":"37.488404915","long":"126.77637923","imageIndex":4,"items":[{"name":"남도랑푸드","tel":"070-4922-1261","addr":"경기도 부천시 심곡동 343-5번지","indutype":"일반휴게음식 - 일반한식","category":"restaurant"}]},{"lat":"37.487397945","long":"126.78227315","imageIndex":4,"items":[{"name":"남도뽀글이","tel":"032-663-8972","addr":"경기도 부천시 심곡동 180-4번지 101호","indutype":"일반휴게음식 - 일반한식","category":"restaurant"}]},{"lat":"37.488176975","long":"126.78452096","imageIndex":4,"items":[{"name":"남원골추어탕","tel":"032-653-3185","addr":"경기도 부천시 심곡동 162-2번지 1층","indutype":"일반휴게음식 - 일반한식","category":"restaurant"},{"name":"유정커피호프","tel":"032-667-9949","addr":"경기도 부천시 심곡동 162-2번지 지하1층","indutype":"일반휴게음식 - 서양음식","category":"restaurant"}]},{"lat":"37.484706598","long":"126.78368307","imageIndex":4,"items":[{"name":"남해아구","tel":"032-651-2675","addr":"경기도 부천시 심곡동 171-9번지 1층","indutype":"일반휴게음식 - 일반한식","category":"restaurant"},{"name":"로얄다방","tel":"032-666-0524","addr":"경기도 부천시 심곡동 171-9번지 지하1층","indutype":"일반휴게음식 - 서양음식","category":"restaurant"},{"name":"카페캘리","tel":"","addr":"경기도 부천시 심곡동 171-9번지 2층","indutype":"일반휴게음식 - 서양음식","category":"restaurant"}]},{"lat":"37.490734106","long":"126.78360892","imageIndex":4,"items":[{"name":"낭만쭈꼼","tel":"032-611-1114","addr":"경기도 부천시 심곡동 367-10번지 2층","indutype":"일반휴게음식 - 일반한식","category":"restaurant"},{"name":"봉암순대국밥","tel":"","addr":"경기도 부천시 심곡동 367-10번지 1층","indutype":"일반휴게음식 - 일반한식","category":"restaurant"},{"name":"산골추어탕","tel":"032-612-7071","addr":"경기도 부천시 심곡동 367-10번지 1층","indutype":"일반휴게음식 - 일반한식","category":"restaurant"}]},{"lat":"37.487178209","long":"126.78040817","imageIndex":4,"items":[{"name":"낮달","tel":"","addr":"경기도 부천시 심곡동 380-15번지","indutype":"일반휴게음식 - 주점","category":"restaurant"}]},{"lat":"37.487484278","long":"126.78509962","imageIndex":4,"items":[{"name":"내담대구뽈탕해물갈비찜","tel":"032-656-8620","addr":"경기도 부천시 심곡동 163-34번지 1층","indutype":"일반휴게음식 - 일반한식","category":"restaurant"}]},{"lat":"37.486734348","long":"126.78887826","imageIndex":4,"items":[{"name":"네네치킨(심곡북부점)","tel":"032-652-8870","addr":"경기도 부천시 심곡동 132-29번지 1층 2호","indutype":"일반휴게음식 - 주점","category":"restaurant"},{"name":"카페626퍼센트 (Cafe626Percent)","tel":"032-614-0626","addr":"경기도 부천시 심곡동 132-29번지","indutype":"일반휴게음식 - 서양음식","category":"restaurant"}]},{"lat":"37.487736304","long":"126.78496321","imageIndex":4,"items":[{"name":"노가리굽는길자포차","tel":"032-613-0077","addr":"경기도 부천시 심곡동 162-8번지 삼성빌딩 101호","indutype":"일반휴게음식 - 주점","category":"restaurant"}]},{"lat":"37.492594592","long":"126.78116103","imageIndex":4,"items":[{"name":"노가리와치킨호프1000웡","tel":"032-654-7766","addr":"경기도 부천시 심곡동 438-1번지 1층","indutype":"일반휴게음식 - 스넥","category":"restaurant"}]},{"lat":"37.493455718","long":"126.7839402","imageIndex":4,"items":[{"name":"놀러와","tel":"032-611-6461","addr":"경기도 부천시 심곡동 112-12번지 1층 일부","indutype":"일반휴게음식 - 일반한식","category":"restaurant"}]},{"lat":"37.485206553","long":"126.78121678","imageIndex":4,"items":[{"name":"놀러와","tel":"032-665-2988","addr":"경기도 부천시 심곡동 174-6번지 3층","indutype":"일반휴게음식 - 일반한식","category":"restaurant"},{"name":"두끼 (부천역점)","tel":"032-654-8227","addr":"경기도 부천시 심곡동 174-6번지 2층","indutype":"일반휴게음식 - 일반한식","category":"restaurant"}]},{"lat":"37.489848801","long":"126.7823564","imageIndex":4,"items":[{"name":"놀보왕족발","tel":"032-666-4105","addr":"경기도 부천시 심곡동 356-7번지 기성뷰그리안아파트 1층 103,104호","indutype":"일반휴게음식 - 일반한식","category":"restaurant"}]},{"lat":"37.486654634","long":"126.77987831","imageIndex":4,"items":[{"name":"농원집","tel":"032-656-1313","addr":"경기도 부천시 심곡동 399-7번지 1층","indutype":"일반휴게음식 - 일반한식","category":"restaurant"}]},{"lat":"37.486403237","long":"126.78518191","imageIndex":4,"items":[{"name":"누리삼계탕","tel":"032-666-4555","addr":"경기도 부천시 심곡동 167-6번지","indutype":"일반휴게음식 - 일반한식","category":"restaurant"}]},{"lat":"37.4906208","long":"126.77144253","imageIndex":4,"items":[{"name":"느낌호프","tel":"032-656-9057","addr":"경기도 부천시 심곡동 321-4번지 스타파크힐","indutype":"일반휴게음식 - 주점","category":"restaurant"}]},{"lat":"37.48543269","long":"126.78169099","imageIndex":4,"items":[{"name":"니뽕내뽕 부천역점","tel":"032-661-4097","addr":"경기도 부천시 심곡동 175-9번지 로데오빌 103호","indutype":"일반휴게음식 - 중국식","category":"restaurant"},{"name":"도미라","tel":"032-668-1986","addr":"경기도 부천시 심곡동 175-9번지 로데오빌 202,203호","indutype":"일반휴게음식 - 일반한식","category":"restaurant"},{"name":"롤링파스타 (부천역점)","tel":"032-611-0410","addr":"경기도 부천시 심곡동 175-9번지 로데오빌 202호","indutype":"일반휴게음식 - 서양음식","category":"restaurant"},{"name":"역전우동(부천역점)","tel":"032-663-0410","addr":"경기도 부천시 심곡동 175-9번지 로데오빌","indutype":"일반휴게음식 - 스넥","category":"restaurant"},{"name":"잇츠","tel":"032-666-4999","addr":"경기도 부천시 심곡동 175-9번지 로데오빌 301호","indutype":"일반휴게음식 - 서양음식","category":"restaurant"},{"name":"탐스테이블","tel":"032-655-0206","addr":"경기도 부천시 심곡동 175-9번지 로데오빌 303호","indutype":"일반휴게음식 - 서양음식","category":"restaurant"},{"name":"한끼야끼","tel":"032-655-5457","addr":"경기도 부천시 심곡동 175-9번지 로데오빌 203호","indutype":"일반휴게음식 - 일반한식","category":"restaurant"},{"name":"홍대개미","tel":"032-612-8884","addr":"경기도 부천시 심곡동 175-9번지 로데오빌 2층 201호 일부","indutype":"일반휴게음식 - 일반한식","category":"restaurant"},{"name":"흑본당버블티 부천역점","tel":"032-611-0906","addr":"경기도 부천시 심곡동 175-9번지 로데오빌 106, 111호","indutype":"일반휴게음식 - 서양음식","category":"restaurant"}]},{"lat":"37.484931761","long":"126.78363719","imageIndex":4,"items":[{"name":"다래반점","tel":"032-663-8288","addr":"경기도 부천시 심곡동 171-12번지 2층","indutype":"일반휴게음식 - 중국식","category":"restaurant"},{"name":"타이완슈가(부천역점)","tel":"032-653-0039","addr":"경기도 부천시 심곡동 171-12번지 1층","indutype":"일반휴게음식 - 서양음식","category":"restaurant"},{"name":"혜성분식","tel":"032-612-1056","addr":"경기도 부천시 심곡동 171-12번지 1층","indutype":"일반휴게음식 - 스넥","category":"restaurant"}]},{"lat":"37.487759731","long":"126.78301835","imageIndex":4,"items":[{"name":"다미락","tel":"032-651-8869","addr":"경기도 부천시 심곡동 190-3번지","indutype":"일반휴게음식 - 일반한식","category":"restaurant"},{"name":"복만루반점","tel":"070-7337-1518","addr":"경기도 부천시 심곡동 190-3번지 2층","indutype":"일반휴게음식 - 일반한식","category":"restaurant"}]},{"lat":"37.486987105","long":"126.78421913","imageIndex":4,"items":[{"name":"다빈커피맥주","tel":"032-555-5555","addr":"경기도 부천시 심곡동 165-20번지 지하1층","indutype":"일반휴게음식 - 서양음식","category":"restaurant"},{"name":"중경홍중샤브뷔페","tel":"032-653-2749","addr":"경기도 부천시 심곡동 165-20번지 1층 일부","indutype":"일반휴게음식 - 일반한식","category":"restaurant"},{"name":"한가족중국채","tel":"031-555-5558","addr":"경기도 부천시 심곡동 165-20번지 2층","indutype":"일반휴게음식 - 일반한식","category":"restaurant"}]},{"lat":"37.487122678","long":"126.77962816","imageIndex":4,"items":[{"name":"다연마라탕","tel":"","addr":"경기도 부천시 심곡동 404-8번지 1층 일부","indutype":"일반휴게음식 - 중국식","category":"restaurant"},{"name":"대보포차","tel":"032-663-1339","addr":"경기도 부천시 심곡동 404-8번지 1층 일부","indutype":"일반휴게음식 - 주점","category":"restaurant"}]},{"lat":"37.490512639","long":"126.7856562","imageIndex":4,"items":[{"name":"다인호프","tel":"070-8869-2694","addr":"경기도 부천시 심곡동 120-21번지 1층 일부","indutype":"일반휴게음식 - 주점","category":"restaurant"}]},{"lat":"37.493952537","long":"126.78462853","imageIndex":4,"items":[{"name":"다정한마카롱","tel":"032-657-2282","addr":"경기도 부천시 심곡동 93-7번지 1층","indutype":"일반휴게음식 - 서양음식","category":"restaurant"}]},{"lat":"37.484599556","long":"126.78918963","imageIndex":4,"items":[{"name":"다함께포차차","tel":"032-667-1141","addr":"경기도 부천시 심곡동 125-5번지 1층","indutype":"일반휴게음식 - 주점","category":"restaurant"}]},{"lat":"37.487261231","long":"126.78143685","imageIndex":4,"items":[{"name":"단골손님부천점","tel":"031-000-0000","addr":"경기도 부천시 심곡동 379-24번지 2층","indutype":"일반휴게음식 - 일반한식","category":"restaurant"},{"name":"밤새먹소","tel":"032-653-2238","addr":"경기도 부천시 심곡동 379-24번지","indutype":"일반휴게음식 - 일반한식","category":"restaurant"},{"name":"솔로대첩","tel":"","addr":"경기도 부천시 심곡동 379-24번지 4층","indutype":"일반휴게음식 - 일반한식","category":"restaurant"},{"name":"식감이야기부천역점","tel":"","addr":"경기도 부천시 심곡동 379-24번지 2층","indutype":"일반휴게음식 - 일반한식","category":"restaurant"}]},{"lat":"37.486677238","long":"126.7823205","imageIndex":4,"items":[{"name":"단골식당","tel":"032-62-2167","addr":"경기도 부천시 심곡동 179-1번지","indutype":"일반휴게음식 - 일반한식","category":"restaurant"},{"name":"미켈(Mikelle)고깃집","tel":"032-656-5543","addr":"경기도 부천시 심곡동 179-1번지 1층","indutype":"일반휴게음식 - 일반한식","category":"restaurant"},{"name":"육값식당","tel":"032-664-4567","addr":"경기도 부천시 심곡동 179-1번지","indutype":"일반휴게음식 - 스넥","category":"restaurant"}]},{"lat":"37.491348775","long":"126.77513783","imageIndex":4,"items":[{"name":"달의아침","tel":"","addr":"경기도 부천시 심곡동 304-17번지 1층 일부","indutype":"일반휴게음식 - 서양음식","category":"restaurant"}]},{"lat":"37.485398087","long":"126.78245994","imageIndex":4,"items":[{"name":"달콤커피(부천북부역점)","tel":"032-664-7872","addr":"경기도 부천시 심곡동 175-6번지 해태쇼핑제104,105,106,107,108호","indutype":"일반휴게음식 - 서양음식","category":"restaurant"},{"name":"담소소사골순대부천역","tel":"032-655-1821","addr":"경기도 부천시 심곡동 175-6번지 젬존프라자 102,103호","indutype":"일반휴게음식 - 일반한식","category":"restaurant"},{"name":"탑웨딩홀부페","tel":"032-666-4567","addr":"경기도 부천시 심곡동 175-6번지 해태쇼핑 18층","indutype":"일반휴게음식 - 일반한식","category":"restaurant"},{"name":"한국맥도날드(유)부천북부역점","tel":"070-7209-0598","addr":"경기도 부천시 심곡동 175-6번지","indutype":"일반휴게음식 - 서양음식","category":"restaurant"}]},{"lat":"37.487043018","long":"126.78038596","imageIndex":4,"items":[{"name":"달타령","tel":"032-0000-0000","addr":"경기도 부천시 심곡동 380-21번지 1층","indutype":"일반휴게음식 - 주점","category":"restaurant"}]},{"lat":"37.487181644","long":"126.78223987","imageIndex":4,"items":[{"name":"닭갈비동아리 청년식당","tel":"032-656-1228","addr":"경기도 부천시 심곡동 180-3번지 1층","indutype":"일반휴게음식 - 일반한식","category":"restaurant"}]},{"lat":"37.487457519","long":"126.78524669","imageIndex":4,"items":[{"name":"닭발과 족발","tel":"032-652-9080","addr":"경기도 부천시 심곡동 163-31번지 1층","indutype":"일반휴게음식 - 일반한식","category":"restaurant"}]},{"lat":"37.489736206","long":"126.7847991","imageIndex":4,"items":[{"name":"닭한마리","tel":"032-651-9064","addr":"경기도 부천시 심곡동 157-9번지 1층 1호","indutype":"일반휴게음식 - 일반한식","category":"restaurant"}]},{"lat":"37.487065011","long":"126.77304776","imageIndex":4,"items":[{"name":"담소추어탕","tel":"032-653-8874","addr":"경기도 부천시 심곡동 358번지","indutype":"일반휴게음식 - 일반한식","category":"restaurant"}]},{"lat":"37.488343083","long":"126.7866575","imageIndex":4,"items":[{"name":"당아래비빔국수","tel":"032-665-7508","addr":"경기도 부천시 심곡동 800번지 하나리아빌 103호","indutype":"일반휴게음식 - 일반한식","category":"restaurant"}]},{"lat":"37.493896458","long":"126.7787373","imageIndex":4,"items":[{"name":"대가(    )","tel":"032-666-3338","addr":"경기도 부천시 심곡동 442-1번지","indutype":"일반휴게음식 - 일반한식","category":"restaurant"}]},{"lat":"37.485427871","long":"126.78394101","imageIndex":4,"items":[{"name":"대가고기촌","tel":"032-668-9295","addr":"경기도 부천시 심곡동 170-18번지 1층","indutype":"일반휴게음식 - 일반한식","category":"restaurant"},{"name":"부천식당","tel":"032-657-5470","addr":"경기도 부천시 심곡동 170-18번지","indutype":"일반휴게음식 - 일반한식","category":"restaurant"},{"name":"콩심","tel":"070-8621-9058","addr":"경기도 부천시 심곡동 170-18번지","indutype":"일반휴게음식 - 일반한식","category":"restaurant"}]},{"lat":"37.488068751","long":"126.78446474","imageIndex":4,"items":[{"name":"대갈장군포차","tel":"032-654-4244","addr":"경기도 부천시 심곡동 162-27번지 1층","indutype":"일반휴게음식 - 일반한식","category":"restaurant"},{"name":"안나푸르나레스토랑","tel":"032-662-5075","addr":"경기도 부천시 심곡동 162-27번지 2층","indutype":"일반휴게음식 - 서양음식","category":"restaurant"},{"name":"춘천닭갈비","tel":"032-666-0654","addr":"경기도 부천시 심곡동 162-27번지 1층 일부","indutype":"일반휴게음식 - 일반한식","category":"restaurant"}]},{"lat":"37.487507857","long":"126.77374743","imageIndex":4,"items":[{"name":"대구왕뽈찜","tel":"032-613-3731","addr":"경기도 부천시 심곡동 352-2번지 1층","indutype":"일반휴게음식 - 일반한식","category":"restaurant"}]},{"lat":"37.491175599","long":"126.77410938","imageIndex":4,"items":[{"name":"대박연탄구이","tel":"032-655-0892","addr":"경기도 부천시 심곡동 323-17번지 1호","indutype":"일반휴게음식 - 일반한식","category":"restaurant"},{"name":"묵은지","tel":"032-655-5425","addr":"경기도 부천시 심곡동 323-17번지 일부 1층","indutype":"일반휴게음식 - 일반한식","category":"restaurant"},{"name":"통큰식당","tel":"032-655-7631","addr":"경기도 부천시 심곡동 323-17번지 1층 일부","indutype":"일반휴게음식 - 일반한식","category":"restaurant"}]},{"lat":"37.484933532","long":"126.77977036","imageIndex":4,"items":[{"name":"대박포차","tel":"","addr":"경기도 부천시 심곡동 388-9번지 1층","indutype":"일반휴게음식 - 일반한식","category":"restaurant"},{"name":"하이클래스","tel":"032-654-9832","addr":"경기도 부천시 심곡동 388-9번지","indutype":"일반휴게음식 - 서양음식","category":"restaurant"}]},{"lat":"37.492734655","long":"126.7837953","imageIndex":4,"items":[{"name":"대성식당포차","tel":"032-657-1665","addr":"경기도 부천시 심곡동 113-12번지","indutype":"일반휴게음식 - 일반한식","category":"restaurant"},{"name":"명품치킨호프","tel":"032-662-9999","addr":"경기도 부천시 심곡동 113-12번지 1층","indutype":"일반휴게음식 - 스넥","category":"restaurant"}]},{"lat":"37.492427606","long":"126.78341174","imageIndex":4,"items":[{"name":"대성원","tel":"032-656-1768","addr":"경기도 부천시 심곡동 98-1 ,2","indutype":"일반휴게음식 - 중국식","category":"restaurant"},{"name":"서산고향집","tel":"032-614-8825","addr":"경기도 부천시 심곡동 98-1번지 동양빌딩 1층 1호","indutype":"일반휴게음식 - 일반한식","category":"restaurant"},{"name":"행복한식당","tel":"032-661-2558","addr":"경기도 부천시 심곡동 98-1번지 동양빌딩 1호","indutype":"일반휴게음식 - 일반한식","category":"restaurant"}]},{"lat":"37.490877355","long":"126.77832795","imageIndex":4,"items":[{"name":"대패삼겹살","tel":"032-613-1133","addr":"경기도 부천시 심곡동 448-30번지 1층","indutype":"일반휴게음식 - 일반한식","category":"restaurant"}]},{"lat":"37.48489844","long":"126.78510713","imageIndex":4,"items":[{"name":"대포야시장족발","tel":"032-657-7567","addr":"경기도 부천시 심곡동 145-9번지","indutype":"일반휴게음식 - 일반한식","category":"restaurant"},{"name":"명가가든","tel":"032-677-8228","addr":"경기도 부천시 심곡동 145-9번지","indutype":"일반휴게음식 - 일반한식","category":"restaurant"},{"name":"울릉도동태탕동태찜","tel":"032-664-3366","addr":"경기도 부천시 심곡동 145-9번지 1층","indutype":"일반휴게음식 - 일반한식","category":"restaurant"},{"name":"원조숯불통닭전문","tel":"032-651-8047","addr":"경기도 부천시 심곡동 145-9번지","indutype":"일반휴게음식 - 일반한식","category":"restaurant"},{"name":"행복한나그네","tel":"032-653-5309","addr":"경기도 부천시 심곡동 145-9번지","indutype":"일반휴게음식 - 일반한식","category":"restaurant"}]},{"lat":"37.485593221","long":"126.78565914","imageIndex":4,"items":[{"name":"더분식김밥(The 분식김밥)","tel":"070-8267-7418","addr":"경기도 부천시 심곡동 146-12번지","indutype":"일반휴게음식 - 스넥","category":"restaurant"},{"name":"앤다방","tel":"032-661-7066","addr":"경기도 부천시 심곡동 146-12번지 지하","indutype":"일반휴게음식 - 서양음식","category":"restaurant"},{"name":"왕돈까스&김밥","tel":"032-888-1255","addr":"경기도 부천시 심곡동 146-12번지 1층","indutype":"일반휴게음식 - 일반한식","category":"restaurant"},{"name":"청년순대국","tel":"032-246-0711","addr":"경기도 부천시 심곡동 146-12번지 1층 일부","indutype":"일반휴게음식 - 일반한식","category":"restaurant"},{"name":"홍99샤브뷔페&양꼬치","tel":"032-0000-0000","addr":"경기도 부천시 심곡동 146-12번지 2층","indutype":"일반휴게음식 - 중국식","category":"restaurant"}]},{"lat":"37.4862602","long":"126.78094231","imageIndex":4,"items":[{"name":"더진국부천역점","tel":"032-661-9882","addr":"경기도 부천시 심곡동 382-11번지 1층 일부","indutype":"일반휴게음식 - 일반한식","category":"restaurant"},{"name":"모모스테이크","tel":"032-662-3030","addr":"경기도 부천시 심곡동 382-11번지 2층","indutype":"일반휴게음식 - 서양음식","category":"restaurant"},{"name":"이디야부천북부역점","tel":"032-651-8861","addr":"경기도 부천시 심곡동 382-11번지 1층","indutype":"일반휴게음식 - 서양음식","category":"restaurant"}]},{"lat":"37.488458128","long":"126.7759381","imageIndex":4,"items":[{"name":"더착한식당","tel":"032-207-6056","addr":"경기도 부천시 심곡동 343-2번지 1층","indutype":"일반휴게음식 - 일반한식","category":"restaurant"},{"name":"성원호프","tel":"032-665-7181","addr":"경기도 부천시 심곡동 343-2번지 1층","indutype":"일반휴게음식 - 주점","category":"restaurant"}]},{"lat":"37.495286583","long":"126.78494127","imageIndex":4,"items":[{"name":"더착한커피(원미구청점)","tel":"032-652-3168","addr":"경기도 부천시 심곡동 89-13번지 1층","indutype":"일반휴게음식 - 서양음식","category":"restaurant"}]},{"lat":"37.487263724","long":"126.78277105","imageIndex":4,"items":[{"name":"도네누","tel":"032-663-9285","addr":"경기도 부천시 심곡동 190-13번지","indutype":"일반휴게음식 - 일반한식","category":"restaurant"}]},{"lat":"37.493624067","long":"126.78241315","imageIndex":4,"items":[{"name":"도니조아","tel":"032-667-0188","addr":"경기도 부천시 심곡동 116-9번지 심곡빌라 101호","indutype":"일반휴게음식 - 일반한식","category":"restaurant"}]},{"lat":"37.485870304","long":"126.77963189","imageIndex":4,"items":[{"name":"도담치킨","tel":"032-656-9249","addr":"경기도 부천시 심곡동 394-16번지 1층","indutype":"일반휴게음식 - 스넥","category":"restaurant"},{"name":"부산낙곱새(부천점)","tel":"032-612-9778","addr":"경기도 부천시 심곡동 394-16번지","indutype":"일반휴게음식 - 일반한식","category":"restaurant"}]},{"lat":"37.487318167","long":"126.77349926","imageIndex":4,"items":[{"name":"도란도란","tel":"032-657-7100","addr":"경기도 부천시 심곡동 357-30번지 2층","indutype":"일반휴게음식 - 주점","category":"restaurant"}]},{"lat":"37.488510584","long":"126.77982756","imageIndex":4,"items":[{"name":"도마","tel":"032-613-1037","addr":"경기도 부천시 심곡동 409-14번지 경인빌딩 1층","indutype":"일반휴게음식 - 일식·회집","category":"restaurant"}]},{"lat":"37.488565776","long":"126.78526609","imageIndex":4,"items":[{"name":"도현카페","tel":"070-2699-0807","addr":"경기도 부천시 심곡동 160-1번지 1층","indutype":"일반휴게음식 - 서양음식","category":"restaurant"},{"name":"카페리프","tel":"","addr":"경기도 부천시 심곡동 160-1번지","indutype":"일반휴게음식 - 서양음식","category":"restaurant"}]},{"lat":"37.486459817","long":"126.78168796","imageIndex":4,"items":[{"name":"독도참치","tel":"032-665-3737","addr":"경기도 부천시 심곡동 176-14번지 1층","indutype":"일반휴게음식 - 일반한식","category":"restaurant"}]},{"lat":"37.487516043","long":"126.78279292","imageIndex":4,"items":[{"name":"돈과함께","tel":"032-111-1111","addr":"경기도 부천시 심곡동 190-7번지","indutype":"일반휴게음식 - 일반한식","category":"restaurant"},{"name":"아웃닭부천역점","tel":"032-653-7337","addr":"경기도 부천시 심곡동 190-7번지 1층일부","indutype":"일반휴게음식 - 스넥","category":"restaurant"}]},{"lat":"37.485791983","long":"126.78110199","imageIndex":4,"items":[{"name":"돈스파","tel":"032-666-9225","addr":"경기도 부천시 심곡동 383-1번지 씨네마존 508호","indutype":"일반휴게음식 - 서양음식","category":"restaurant"},{"name":"메가커피부천역점","tel":"032-668-9977","addr":"경기도 부천시 심곡동 383-1번지 시네마존 104호","indutype":"일반휴게음식 - 서양음식","category":"restaurant"},{"name":"메드나인랜드","tel":"032-661-4392","addr":"경기도 부천시 심곡동 383-1번지 4층","indutype":"일반휴게음식 - 칵테일바","category":"restaurant"},{"name":"엔제리너스 부천북부점","tel":"032-651-5004","addr":"경기도 부천시 심곡동 383-1번지 시네마존 101호","indutype":"일반휴게음식 - 서양음식","category":"restaurant"}]},{"lat":"37.494484224","long":"126.78468352","imageIndex":4,"items":[{"name":"돈푸대뒷고기","tel":"","addr":"경기도 부천시 심곡동 93-3번지 1층 일부","indutype":"일반휴게음식 - 일반한식","category":"restaurant"}]},{"lat":"37.486377732","long":"126.78115679","imageIndex":4,"items":[{"name":"동경야시장","tel":"032-0000-0000","addr":"경기도 부천시 심곡동 382-1번지 2층","indutype":"일반휴게음식 - 일반한식","category":"restaurant"},{"name":"레이디벅(Lady Bug)","tel":"032-614-9806","addr":"경기도 부천시 심곡동 382-1번지 3층","indutype":"일반휴게음식 - 일반한식","category":"restaurant"}]},{"lat":"37.487765906","long":"126.77674298","imageIndex":4,"items":[{"name":"동구호프","tel":"032-666-2738","addr":"경기도 부천시 심곡동 348-34번지 일부 1층","indutype":"일반휴게음식 - 주점","category":"restaurant"}]},{"lat":"37.493007835","long":"126.78051527","imageIndex":4,"items":[{"name":"동네포차","tel":"032-612-5493","addr":"경기도 부천시 심곡동 440-33번지 B동 1층","indutype":"일반휴게음식 - 일반한식","category":"restaurant"}]},{"lat":"37.487901864","long":"126.78193246","imageIndex":4,"items":[{"name":"동대문엽기떡볶이","tel":"032-662-8592","addr":"경기도 부천시 심곡동 192-14번지 1층 일부","indutype":"일반휴게음식 - 일반한식","category":"restaurant"},{"name":"송주불냉면","tel":"032-653-4111","addr":"경기도 부천시 심곡동 192-14번지 1층","indutype":"일반휴게음식 - 일반한식","category":"restaurant"}]},{"lat":"37.493650103","long":"126.78188161","imageIndex":4,"items":[{"name":"동서기사식당","tel":"032-654-0959","addr":"경기도 부천시 심곡동 73-3번지","indutype":"일반휴게음식 - 일반한식","category":"restaurant"}]},{"lat":"37.493176873","long":"126.78418978","imageIndex":4,"items":[{"name":"동아리","tel":"032-667-4010","addr":"경기도 부천시 심곡동 110-2번지 1층 일부","indutype":"일반휴게음식 - 주점","category":"restaurant"},{"name":"에떼르넬","tel":"031-111-1111","addr":"경기도 부천시 심곡동 110-2번지 1층","indutype":"일반휴게음식 - 서양음식","category":"restaurant"},{"name":"페리카나치킨","tel":"032-652-2452","addr":"경기도 부천시 심곡동 110-2번지","indutype":"일반휴게음식 - 서양음식","category":"restaurant"}]},{"lat":"37.488933031","long":"126.78410039","imageIndex":4,"items":[{"name":"동아리호프","tel":"032-655-9963","addr":"경기도 부천시 심곡동 158-10번지 1층 일부","indutype":"일반휴게음식 - 주점","category":"restaurant"},{"name":"본도시락","tel":"032-663-4282","addr":"경기도 부천시 심곡동 158-10번지 1층","indutype":"일반휴게음식 - 일반한식","category":"restaurant"},{"name":"소문난포차","tel":"032-679-9669","addr":"경기도 부천시 심곡동 158-10번지 1층일부","indutype":"일반휴게음식 - 주점","category":"restaurant"},{"name":"우리두리분식","tel":"032-665-9602","addr":"경기도 부천시 심곡동 158-10번지 1층","indutype":"일반휴게음식 - 스넥","category":"restaurant"},{"name":"풍경커피호프","tel":"032-663-9551","addr":"경기도 부천시 심곡동 158-10번지 2층","indutype":"일반휴게음식 - 서양음식","category":"restaurant"}]},{"lat":"37.487983226","long":"126.7726379","imageIndex":4,"items":[{"name":"돼만족","tel":"032-666-5353","addr":"경기도 부천시 심곡동 346-28번지 지층","indutype":"일반휴게음식 - 일반한식","category":"restaurant"}]},{"lat":"37.489621222","long":"126.78596408","imageIndex":4,"items":[{"name":"돼야지껍데기","tel":"032-668-3307","addr":"경기도 부천시 심곡동 181-12번지 1층","indutype":"일반휴게음식 - 일반한식","category":"restaurant"},{"name":"전주콩나물해장국","tel":"032-666-0023","addr":"경기도 부천시 심곡동 181-12번지","indutype":"일반휴게음식 - 일반한식","category":"restaurant"}]},{"lat":"37.490509066","long":"126.77421317","imageIndex":4,"items":[{"name":"돼지네","tel":"070-8815-3314","addr":"경기도 부천시 심곡동 324-8번지","indutype":"일반휴게음식 - 일반한식","category":"restaurant"},{"name":"카페심곡동324","tel":"","addr":"경기도 부천시 심곡동 324-8번지 1층","indutype":"일반휴게음식 - 서양음식","category":"restaurant"}]},{"lat":"37.487817143","long":"126.77527292","imageIndex":4,"items":[{"name":"돼지방","tel":"032-655-3642","addr":"경기도 부천시 심곡동 347-23번지","indutype":"일반휴게음식 - 일반한식","category":"restaurant"}]},{"lat":"37.48806592","long":"126.7829383","imageIndex":4,"items":[{"name":"돼찌랑머꼬가","tel":"032-221-0882","addr":"경기도 부천시 심곡동 350-9번지 1층 일부","indutype":"일반휴게음식 - 일반한식","category":"restaurant"},{"name":"로바다야쇼","tel":"032-229-9744","addr":"경기도 부천시 심곡동 350-9번지","indutype":"일반휴게음식 - 일식·회집","category":"restaurant"},{"name":"중국채","tel":"032-653-0505","addr":"경기도 부천시 심곡동 350-9번지 2층","indutype":"일반휴게음식 - 중국식","category":"restaurant"},{"name":"포차천국 부천역점","tel":"032-667-1009","addr":"경기도 부천시 심곡동 350-9번지 1층","indutype":"일반휴게음식 - 주점","category":"restaurant"}]},{"lat":"37.493707365","long":"126.78360023","imageIndex":4,"items":[{"name":"두레박","tel":"032-656-0207","addr":"경기도 부천시 심곡동 100-43번지 1층","indutype":"일반휴게음식 - 주점","category":"restaurant"}]},{"lat":"37.488988108","long":"126.77982614","imageIndex":4,"items":[{"name":"두루미상회","tel":"070-7350-0318","addr":"경기도 부천시 심곡동 420-38번지 2층","indutype":"일반휴게음식 - 서양음식","category":"restaurant"},{"name":"마찌카도","tel":"032-651-2940","addr":"경기도 부천시 심곡동 420-38번지 1층","indutype":"일반휴게음식 - 스넥","category":"restaurant"},{"name":"미스터폴","tel":"032-612-9877","addr":"경기도 부천시 심곡동 420-38번지","indutype":"일반휴게음식 - 서양음식","category":"restaurant"},{"name":"지지고","tel":"032-666-9990","addr":"경기도 부천시 심곡동 420-38번지 일부 1층","indutype":"일반휴게음식 - 일반한식","category":"restaurant"},{"name":"파스타킹","tel":"070-7576-0486","addr":"경기도 부천시 심곡동 420-38번지 G동 1층","indutype":"일반휴게음식 - 서양음식","category":"restaurant"}]},{"lat":"37.48692589","long":"126.78038631","imageIndex":4,"items":[{"name":"두리아바베큐","tel":"032-664-1515","addr":"경기도 부천시 심곡동 380-22번지 1층","indutype":"일반휴게음식 - 스넥","category":"restaurant"}]},{"lat":"37.487347082","long":"126.78399195","imageIndex":4,"items":[{"name":"두만강양꼬치","tel":"032-957-9292","addr":"경기도 부천시 심곡동 164-7번지 심곡베스트빌 1층 103호,104호","indutype":"일반휴게음식 - 일반한식","category":"restaurant"},{"name":"목단강식당","tel":"","addr":"경기도 부천시 심곡동 164-7번지 심곡베스트빌 102호","indutype":"일반휴게음식 - 일반한식","category":"restaurant"},{"name":"유혹양꼬치","tel":"","addr":"경기도 부천시 심곡동 164-7번지 심곡베스트빌 1층 101호","indutype":"일반휴게음식 - 중국식","category":"restaurant"}]},{"lat":"37.484537377","long":"126.78474637","imageIndex":4,"items":[{"name":"들내음종로빈대떡콩두부","tel":"032-666-7339","addr":"경기도 부천시 심곡동 171-27번지 1층","indutype":"일반휴게음식 - 일반한식","category":"restaurant"}]},{"lat":"37.485291144","long":"126.78798916","imageIndex":4,"items":[{"name":"등촌칼국수","tel":"032-656-8889","addr":"경기도 부천시 심곡동 130-6번지 화신오피스텔 102호","indutype":"일반휴게음식 - 일반한식","category":"restaurant"},{"name":"화신떡볶이","tel":"032-611-8484","addr":"경기도 부천시 심곡동 130-6번지 화신오피스텔 101호","indutype":"일반휴게음식 - 일반한식","category":"restaurant"}]},{"lat":"37.492369133","long":"126.78104862","imageIndex":4,"items":[{"name":"디랩와이(DLABY)","tel":"032-665-2908","addr":"경기도 부천시 심곡동 438-3번지 1층 일부","indutype":"일반휴게음식 - 일반한식","category":"restaurant"}]},{"lat":"37.485044987","long":"126.78640695","imageIndex":4,"items":[{"name":"디스앤댓","tel":"070-8285-0515","addr":"경기도 부천시 심곡동 139-5번지 정우빌딩 2층","indutype":"일반휴게음식 - 서양음식","category":"restaurant"},{"name":"먹거리포차","tel":"032-655-4145","addr":"경기도 부천시 심곡동 139-5번지 정우빌딩 103호","indutype":"일반휴게음식 - 주점","category":"restaurant"},{"name":"승우랑오리랑돼지랑","tel":"","addr":"경기도 부천시 심곡동 139-5번지 정우빌딩 102호","indutype":"일반휴게음식 - 일반한식","category":"restaurant"}]},{"lat":"37.49128899","long":"126.77218676","imageIndex":4,"items":[{"name":"디에스(DS)푸드","tel":"032-611-5011","addr":"경기도 부천시 심곡동 322-5번지 1층 일부","indutype":"일반휴게음식 - 일반한식","category":"restaurant"}]},{"lat":"37.487899425","long":"126.78063217","imageIndex":4,"items":[{"name":"디엔비","tel":"032-661-0849","addr":"경기도 부천시 심곡동 378-15번지 5층","indutype":"일반휴게음식 - 주점","category":"restaurant"},{"name":"행복한포차","tel":"032-661-4667","addr":"경기도 부천시 심곡동 378-15번지 1층","indutype":"일반휴게음식 - 주점","category":"restaurant"}]},{"lat":"37.495508731","long":"126.78326703","imageIndex":4,"items":[{"name":"떡군이네떡볶이부천점","tel":"032-613-4041","addr":"경기도 부천시 심곡동 92-17번지 1층 일부","indutype":"일반휴게음식 - 스넥","category":"restaurant"},{"name":"티바두마리치킨","tel":"031-666-9777","addr":"경기도 부천시 심곡동 92-17번지 1층","indutype":"일반휴게음식 - 스넥","category":"restaurant"},{"name":"피자브라더스","tel":"032-111-1111","addr":"경기도 부천시 심곡동 92-17번지 1층","indutype":"일반휴게음식 - 서양음식","category":"restaurant"}]},{"lat":"37.488707309","long":"126.77433174","imageIndex":4,"items":[{"name":"떡순튀","tel":"032-654-0486","addr":"경기도 부천시 심곡동 344-7번지 1층","indutype":"일반휴게음식 - 스넥","category":"restaurant"}]},{"lat":"37.487350035","long":"126.78074687","imageIndex":4,"items":[{"name":"떡집","tel":"","addr":"경기도 부천시 심곡동 379-22번지 대진빌딩 1층","indutype":"일반휴게음식 - 서양음식","category":"restaurant"}]},{"lat":"37.490819952","long":"126.77657547","imageIndex":4,"items":[{"name":"떳다위세프","tel":"032-613-9500","addr":"경기도 부천시 심곡동 327-6번지 연빌딩 1층 일부","indutype":"일반휴게음식 - 일반한식","category":"restaurant"},{"name":"쿠웨이트떡볶이심곡점","tel":"032-667-7421","addr":"경기도 부천시 심곡동 327-6번지 연빌딩","indutype":"일반휴게음식 - 일반한식","category":"restaurant"},{"name":"후레쉬팩토리 부천점","tel":"032-662-2786","addr":"경기도 부천시 심곡동 327-6번지 연빌딩 1층","indutype":"일반휴게음식 - 일반한식","category":"restaurant"}]},{"lat":"37.485210333","long":"126.78324064","imageIndex":4,"items":[{"name":"또와커피맥주","tel":"032-661-6606","addr":"경기도 부천시 심곡동 170-14번지 지하1층 일부","indutype":"일반휴게음식 - 일반한식","category":"restaurant"},{"name":"종로김밥","tel":"032-668-2946","addr":"경기도 부천시 심곡동 170-14번지","indutype":"일반휴게음식 - 일반한식","category":"restaurant"},{"name":"청년떡볶이","tel":"032-613-7555","addr":"경기도 부천시 심곡동 170-14번지 1층","indutype":"일반휴게음식 - 스넥","category":"restaurant"}]},{"lat":"37.488654255","long":"126.77485202","imageIndex":4,"items":[{"name":"뜨레아호프","tel":"032-611-4797","addr":"경기도 부천시 심곡동 344-12번지","indutype":"일반휴게음식 - 주점","category":"restaurant"}]},{"lat":"37.488094697","long":"126.77907123","imageIndex":4,"items":[{"name":"띵똥와플","tel":"031-614-0901","addr":"경기도 부천시 심곡동 407-2번지 유정연립 G동 102호","indutype":"일반휴게음식 - 서양음식","category":"restaurant"},{"name":"석정분식","tel":"070-7744-2924","addr":"경기도 부천시 심곡동 407-2번지 유정연립","indutype":"일반휴게음식 - 스넥","category":"restaurant"},{"name":"신전떡볶이부천대점","tel":"032-663-8646","addr":"경기도 부천시 심곡동 407-2번지 유정연립","indutype":"일반휴게음식 - 일반한식","category":"restaurant"}]},{"lat":"37.488234404","long":"126.78149051","imageIndex":4,"items":[{"name":"라그라스","tel":"032-344-5829","addr":"경기도 부천시 심곡동 377-43번지 2층","indutype":"일반휴게음식 - 일반한식","category":"restaurant"},{"name":"영주식당","tel":"032-526-8858","addr":"경기도 부천시 심곡동 377-43번지 1층","indutype":"일반휴게음식 - 일반한식","category":"restaurant"}]},{"lat":"37.490736601","long":"126.78012624","imageIndex":4,"items":[{"name":"라니카롱","tel":"","addr":"경기도 부천시 심곡동 428-16번지","indutype":"일반휴게음식 - 서양음식","category":"restaurant"}]},{"lat":"37.488872769","long":"126.78077628","imageIndex":4,"items":[{"name":"라디오회관","tel":"070-7382-5794","addr":"경기도 부천시 심곡동 376-17번지 1층 일부","indutype":"일반휴게음식 - 주점","category":"restaurant"}]},{"lat":"37.497842624","long":"126.78344113","imageIndex":4,"items":[{"name":"라이크허니","tel":"032-346-8596","addr":"경기도 부천시 심곡동 37-14번지 나래뷰 1층 101호","indutype":"일반휴게음식 - 서양음식","category":"restaurant"}]},{"lat":"37.485789172","long":"126.77960952","imageIndex":4,"items":[{"name":"라화방마라탕","tel":"","addr":"경기도 부천시 심곡동 394-18번지 1층","indutype":"일반휴게음식 - 중국식","category":"restaurant"}]},{"lat":"37.484902669","long":"126.78741364","imageIndex":4,"items":[{"name":"락식","tel":"032-656-3545","addr":"경기도 부천시 심곡동 139-1번지 에비그린 106호","indutype":"일반휴게음식 - 일반한식","category":"restaurant"},{"name":"수제돈까스랑김밥이랑","tel":"032-656-0055","addr":"경기도 부천시 심곡동 139-1번지 에버그린 105호","indutype":"일반휴게음식 - 일반한식","category":"restaurant"}]},{"lat":"37.490819366","long":"126.77627017","imageIndex":4,"items":[{"name":"런던떡볶이","tel":"","addr":"경기도 부천시 심곡동 327번지 1층","indutype":"일반휴게음식 - 스넥","category":"restaurant"},{"name":"일미야식","tel":"032-668-2474","addr":"경기도 부천시 심곡동 327번지","indutype":"일반휴게음식 - 일반한식","category":"restaurant"}]},{"lat":"37.489066942","long":"126.78343288","imageIndex":4,"items":[{"name":"롯데리아원미점","tel":"032-651-4530","addr":"경기도 부천시 심곡동 355-5번지 정일빌딩","indutype":"일반휴게음식 - 서양음식","category":"restaurant"}]},{"lat":"37.485486008","long":"126.7812951","imageIndex":4,"items":[{"name":"룸포유","tel":"032-661-6648","addr":"경기도 부천시 심곡동 175-17번지 5층","indutype":"일반휴게음식 - 스넥","category":"restaurant"},{"name":"미스터피자 부천역점","tel":"032-612-5507","addr":"경기도 부천시 심곡동 175-17번지 2층","indutype":"일반휴게음식 - 일반한식","category":"restaurant"},{"name":"빨콩","tel":"032-665-8080","addr":"경기도 부천시 심곡동 175-17번지 1층 4호","indutype":"일반휴게음식 - 서양음식","category":"restaurant"},{"name":"히어로(부천점)","tel":"031-665-6001","addr":"경기도 부천시 심곡동 175-17번지 3층","indutype":"일반휴게음식 - 서양음식","category":"restaurant"}]},{"lat":"37.491209127","long":"126.7774902","imageIndex":4,"items":[{"name":"마드레푸드&커피/주식회사 엘케이에스에이","tel":"032-661-8992","addr":"경기도 부천시 심곡동 298-20번지 지하층","indutype":"일반휴게음식 - 일반한식","category":"restaurant"}]},{"lat":"37.486037811","long":"126.78246937","imageIndex":4,"items":[{"name":"마라사부","tel":"","addr":"경기도 부천시 심곡동 177-12번지 1층","indutype":"일반휴게음식 - 일반한식","category":"restaurant"}]},{"lat":"37.487731922","long":"126.78260007","imageIndex":4,"items":[{"name":"마라탕에술한잔","tel":"032-612-8787","addr":"경기도 부천시 심곡동 192-3번지 1층","indutype":"일반휴게음식 - 일반한식","category":"restaurant"},{"name":"영아커피호프","tel":"070-7313-5413","addr":"경기도 부천시 심곡동 192-3번지 2층","indutype":"일반휴게음식 - 주점","category":"restaurant"}]},{"lat":"37.491983037","long":"126.77233162","imageIndex":4,"items":[{"name":"마산아구찜","tel":"032-663-2282","addr":"경기도 부천시 심곡동 308-16번지 1층","indutype":"일반휴게음식 - 일반한식","category":"restaurant"}]},{"lat":"37.487374228","long":"126.77924298","imageIndex":4,"items":[{"name":"마술","tel":"","addr":"경기도 부천시 심곡동 403-27번지","indutype":"일반휴게음식 - 일반한식","category":"restaurant"},{"name":"에이;피엠키친(a;pm kitchen)","tel":"032-661-1835","addr":"경기도 부천시 심곡동 403-27번지 1층 일부","indutype":"일반휴게음식 - 주점","category":"restaurant"}]},{"lat":"37.488370254","long":"126.77243318","imageIndex":4,"items":[{"name":"마스터통삼겹","tel":"032-651-3355","addr":"경기도 부천시 심곡동 346번지 1층 일부","indutype":"일반휴게음식 - 일반한식","category":"restaurant"}]},{"lat":"37.490679416","long":"126.78326986","imageIndex":4,"items":[{"name":"마이니치(mainichi)","tel":"02-1111-1111","addr":"경기도 부천시 심곡동 367-6번지 1층","indutype":"일반휴게음식 - 서양음식","category":"restaurant"},{"name":"자매맛집","tel":"032-653-6789","addr":"경기도 부천시 심곡동 367-6번지 1층","indutype":"일반휴게음식 - 일반한식","category":"restaurant"}]},{"lat":"37.48673536","long":"126.77968585","imageIndex":4,"items":[{"name":"마이스콘","tel":"","addr":"경기도 부천시 심곡동 399-5번지 1층","indutype":"일반휴게음식 - 서양음식","category":"restaurant"},{"name":"최고커피호프","tel":"","addr":"경기도 부천시 심곡동 399-5번지 2층","indutype":"일반휴게음식 - 주점","category":"restaurant"}]},{"lat":"37.488149719","long":"126.77957988","imageIndex":4,"items":[{"name":"마카나이","tel":"032-656-8268","addr":"경기도 부천시 심곡동 408-9번지 1층","indutype":"일반휴게음식 - 일반한식","category":"restaurant"},{"name":"싸움의고수혜영이분식","tel":"032-667-7565","addr":"경기도 부천시 심곡동 408-9번지","indutype":"일반휴게음식 - 스넥","category":"restaurant"},{"name":"싸움의고수혜영이분식","tel":"032-667-7565","addr":"경기도 부천시 심곡동 408-9번지","indutype":"일반휴게음식 - 스넥","category":"restaurant"}]},{"lat":"37.491899833","long":"126.78063163","imageIndex":4,"items":[{"name":"마카롱만드는언니케이크만드는동생","tel":"02-1111-1111","addr":"경기도 부천시 심곡동 432-17번지 1층 101호","indutype":"일반휴게음식 - 서양음식","category":"restaurant"}]},{"lat":"37.487622663","long":"126.78198982","imageIndex":4,"items":[{"name":"마포갈매기","tel":"032-655-6092","addr":"경기도 부천시 심곡동 192-8번지 1층","indutype":"일반휴게음식 - 스넥","category":"restaurant"},{"name":"오감만족","tel":"032-655-6811","addr":"경기도 부천시 심곡동 192-8번지 2층","indutype":"일반휴게음식 - 일반한식","category":"restaurant"}]},{"lat":"37.487537001","long":"126.78437583","imageIndex":4,"items":[{"name":"마포숯불갈비","tel":"031-539-2819","addr":"경기도 부천시 심곡동 163-3번지 경원빌딩 1층","indutype":"일반휴게음식 - 일반한식","category":"restaurant"}]},{"lat":"37.48818309","long":"126.78296057","imageIndex":4,"items":[{"name":"마포연탄갈비","tel":"032-664-0479","addr":"경기도 부천시 심곡동 350-7번지","indutype":"일반휴게음식 - 일반한식","category":"restaurant"}]},{"lat":"37.488043945","long":"126.78082396","imageIndex":4,"items":[{"name":"막스 레스토랑","tel":"032-661-1993","addr":"경기도 부천시 심곡동 378-21번지","indutype":"일반휴게음식 - 서양음식","category":"restaurant"}]},{"lat":"37.487620508","long":"126.78568719","imageIndex":4,"items":[{"name":"만남의광장/드림팀(주)","tel":"","addr":"경기도 부천시 심곡동 152-28번지 1층","indutype":"일반휴게음식 - 일반한식","category":"restaurant"}]},{"lat":"37.493842677","long":"126.77888446","imageIndex":4,"items":[{"name":"만민한정식","tel":"032-654-0002","addr":"경기도 부천시 심곡동 442-7번지","indutype":"일반휴게음식 - 일반한식","category":"restaurant"},{"name":"삼부자신토불이","tel":"032-657-2799","addr":"경기도 부천시 심곡동 442-7번지","indutype":"일반휴게음식 - 일반한식","category":"restaurant"}]},{"lat":"37.484626284","long":"126.78410164","imageIndex":4,"items":[{"name":"만보성","tel":"032-667-6600","addr":"경기도 부천시 심곡동 171-4번지","indutype":"일반휴게음식 - 중국식","category":"restaurant"}]},{"lat":"37.488369913","long":"126.78168233","imageIndex":4,"items":[{"name":"만선호프포차","tel":"032-661-1155","addr":"경기도 부천시 심곡동 377-23번지 1층","indutype":"일반휴게음식 - 일반한식","category":"restaurant"}]},{"lat":"37.486926498","long":"126.78555351","imageIndex":4,"items":[{"name":"말리부","tel":"070-4763-5091","addr":"경기도 부천시 심곡동 149-6번지 1층 103호","indutype":"일반휴게음식 - 주점","category":"restaurant"}]},{"lat":"37.484681994","long":"126.78499469","imageIndex":4,"items":[{"name":"맛나린양꼬치","tel":"032-655-1688","addr":"경기도 부천시 심곡동 144-7번지 1층","indutype":"일반휴게음식 - 중국식","category":"restaurant"},{"name":"명가숯불꼼장어","tel":"","addr":"경기도 부천시 심곡동 144-7번지 1층","indutype":"일반휴게음식 - 일반한식","category":"restaurant"}]},{"lat":"37.48979415","long":"126.78691338","imageIndex":4,"items":[{"name":"맛들의축제","tel":"02-2175-3010","addr":"경기도 부천시 심곡동 123-8번지 1층 일부","indutype":"일반휴게음식 - 일반한식","category":"restaurant"}]},{"lat":"37.486238405","long":"126.78374644","imageIndex":4,"items":[{"name":"맛있는 화덕구이","tel":"","addr":"경기도 부천시 심곡동 168-4번지 1층","indutype":"일반휴게음식 - 서양음식","category":"restaurant"},{"name":"순천집","tel":"032-664-1891","addr":"경기도 부천시 심곡동 168-4번지","indutype":"일반휴게음식 - 일반한식","category":"restaurant"}]},{"lat":"37.487958544","long":"126.78824158","imageIndex":4,"items":[{"name":"맛있는떡볶이(HiYA)히야","tel":"032-652-5011","addr":"경기도 부천시 심곡동 476-5번지 1층","indutype":"일반휴게음식 - 일반한식","category":"restaurant"}]},{"lat":"37.497259328","long":"126.78470937","imageIndex":4,"items":[{"name":"맛있는파닭","tel":"032-651-2256","addr":"경기도 부천시 심곡동 88-2번지 1층","indutype":"일반휴게음식 - 일반한식","category":"restaurant"}]},{"lat":"37.490845818","long":"126.78555347","imageIndex":4,"items":[{"name":"맛탕가","tel":"032-661-8242","addr":"경기도 부천시 심곡동 119-9번지","indutype":"일반휴게음식 - 일반한식","category":"restaurant"}]},{"lat":"37.486482763","long":"126.779517","imageIndex":4,"items":[{"name":"매일술요일","tel":"031-222-2222","addr":"경기도 부천시 심곡동 400-5번지","indutype":"일반휴게음식 - 일반한식","category":"restaurant"},{"name":"윤스마카롱","tel":"031-111-1111","addr":"경기도 부천시 심곡동 400-5번지 1층 일부","indutype":"일반휴게음식 - 서양음식","category":"restaurant"},{"name":"커피에반하다 부천대점","tel":"070-7609-9332","addr":"경기도 부천시 심곡동 400-5번지 1층","indutype":"일반휴게음식 - 서양음식","category":"restaurant"}]},{"lat":"37.48614914","long":"126.77938231","imageIndex":4,"items":[{"name":"맥주창고","tel":"032-657-1296","addr":"경기도 부천시 심곡동 396-1번지 2층","indutype":"일반휴게음식 - 주점","category":"restaurant"},{"name":"할매해장국","tel":"032-668-0904","addr":"경기도 부천시 심곡동 396-1번지","indutype":"일반휴게음식 - 일반한식","category":"restaurant"}]},{"lat":"37.486509653","long":"126.78918419","imageIndex":4,"items":[{"name":"머그 (MUG)","tel":"070-7369-6520","addr":"경기도 부천시 심곡동 132-13번지 1층 일부","indutype":"일반휴게음식 - 서양음식","category":"restaurant"},{"name":"사거리보양탕","tel":"032-661-8863","addr":"경기도 부천시 심곡동 132-13번지 1층","indutype":"일반휴게음식 - 일반한식","category":"restaurant"}]},{"lat":"37.486571127","long":"126.77860089","imageIndex":4,"items":[{"name":"먹고싸갈래떡볶이","tel":"032-671-7594","addr":"경기도 부천시 심곡동 400-18번지 1층","indutype":"일반휴게음식 - 일반한식","category":"restaurant"}]},{"lat":"37.497332158","long":"126.78511626","imageIndex":4,"items":[{"name":"메르시","tel":"070-8260-3322","addr":"경기도 부천시 심곡동 87-1번지 현대에스빌 B동 101호","indutype":"일반휴게음식 - 서양음식","category":"restaurant"}]},{"lat":"37.489431573","long":"126.78087639","imageIndex":4,"items":[{"name":"멕시카나치킨","tel":"070-4922-1261","addr":"경기도 부천시 심곡동 375-24번지 1층","indutype":"일반휴게음식 - 스넥","category":"restaurant"}]},{"lat":"37.484373388","long":"126.78868148","imageIndex":4,"items":[{"name":"멕시칸치킨","tel":"032-656-5438","addr":"경기도 부천시 심곡동 129-20번지","indutype":"일반휴게음식 - 서양음식","category":"restaurant"}]},{"lat":"37.488177475","long":"126.77996423","imageIndex":4,"items":[{"name":"명동찌개마을","tel":"","addr":"경기도 부천시 심곡동 408-7번지 1층 일부","indutype":"일반휴게음식 - 일반한식","category":"restaurant"},{"name":"알쭈(부천대점)","tel":"00-1670-4524","addr":"경기도 부천시 심곡동 408-7번지","indutype":"일반휴게음식 - 일반한식","category":"restaurant"}]},{"lat":"37.484980669","long":"126.78087825","imageIndex":4,"items":[{"name":"명동찌개마을","tel":"032-654-8787","addr":"경기도 부천시 심곡동 384-4번지","indutype":"일반휴게음식 - 일반한식","category":"restaurant"}]},{"lat":"37.4856205","long":"126.78579474","imageIndex":4,"items":[{"name":"명태어장","tel":"032-611-9682","addr":"경기도 부천시 심곡동 146-6번지 1층","indutype":"일반휴게음식 - 일반한식","category":"restaurant"}]},{"lat":"37.485179016","long":"126.78579601","imageIndex":4,"items":[{"name":"명품","tel":"032-668-8253","addr":"경기도 부천시 심곡동 145-4번지 1층 일부","indutype":"일반휴게음식 - 중국식","category":"restaurant"},{"name":"명품","tel":"032-668-8253","addr":"경기도 부천시 심곡동 145-4번지 1층","indutype":"일반휴게음식 - 일식·회집","category":"restaurant"}]},{"lat":"37.488091234","long":"126.77258103","imageIndex":4,"items":[{"name":"목포회수산","tel":"032-613-9292","addr":"경기도 부천시 심곡동 346-29번지","indutype":"일반휴게음식 - 일반한식","category":"restaurant"}]},{"lat":"37.486564852","long":"126.78487616","imageIndex":4,"items":[{"name":"무지개호프","tel":"032-665-3503","addr":"경기도 부천시 심곡동 167-27번지","indutype":"일반휴게음식 - 주점","category":"restaurant"},{"name":"원다방","tel":"","addr":"경기도 부천시 심곡동 167-27번지 2층","indutype":"일반휴게음식 - 서양음식","category":"restaurant"}]},{"lat":"37.484814688","long":"126.78857846","imageIndex":4,"items":[{"name":"무한대장군","tel":"032-654-5892","addr":"경기도 부천시 심곡동 129-21번지 1층","indutype":"일반휴게음식 - 일반한식","category":"restaurant"}]},{"lat":"37.488400261","long":"126.77866326","imageIndex":4,"items":[{"name":"물곰","tel":"","addr":"경기도 부천시 심곡동 407-8번지 2층","indutype":"일반휴게음식 - 서양음식","category":"restaurant"}]},{"lat":"37.488266377","long":"126.77933078","imageIndex":4,"items":[{"name":"뭉치네밥버거","tel":"070-7369-2775","addr":"경기도 부천시 심곡동 407-1번지","indutype":"일반휴게음식 - 스넥","category":"restaurant"},{"name":"빨콩부천대점","tel":"032-213-8082","addr":"경기도 부천시 심곡동 407-1번지 1층","indutype":"일반휴게음식 - 일반한식","category":"restaurant"},{"name":"엉터리분식","tel":"032-613-7744","addr":"경기도 부천시 심곡동 407-1번지 1층","indutype":"일반휴게음식 - 스넥","category":"restaurant"},{"name":"엘빈스키친","tel":"032-227-0110","addr":"경기도 부천시 심곡동 407-1번지","indutype":"일반휴게음식 - 서양음식","category":"restaurant"},{"name":"장인카레우동","tel":"","addr":"경기도 부천시 심곡동 407-1번지 1층","indutype":"일반휴게음식 - 일식·회집","category":"restaurant"}]},{"lat":"37.484510744","long":"126.78496127","imageIndex":4,"items":[{"name":"미니포차","tel":"","addr":"경기도 부천시 심곡동 144-8번지 1층","indutype":"일반휴게음식 - 일반한식","category":"restaurant"},{"name":"연자네","tel":"032-661-6336","addr":"경기도 부천시 심곡동 144-8번지 1층","indutype":"일반휴게음식 - 일반한식","category":"restaurant"},{"name":"열차집","tel":"032-668-2539","addr":"경기도 부천시 심곡동 144-8번지","indutype":"일반휴게음식 - 일반한식","category":"restaurant"}]},{"lat":"37.486738234","long":"126.78121226","imageIndex":4,"items":[{"name":"미로곱창","tel":"070-4177-3166","addr":"경기도 부천시 심곡동 380-30번지 1층,2층","indutype":"일반휴게음식 - 일반한식","category":"restaurant"},{"name":"미로곱창","tel":"070-4177-3166","addr":"경기도 부천시 심곡동 380-30번지 1층, 2층","indutype":"일반휴게음식 - 일반한식","category":"restaurant"}]},{"lat":"37.486512146","long":"126.77602313","imageIndex":4,"items":[{"name":"미소김밥","tel":"032-656-8777","addr":"경기도 부천시 심곡동 360-8번지 한일코지세상 104호","indutype":"일반휴게음식 - 스넥","category":"restaurant"},{"name":"커피마마 부천심곡사거리점","tel":"031-000-0000","addr":"경기도 부천시 심곡동 360-8번지 한일코지세상 103호","indutype":"일반휴게음식 - 서양음식","category":"restaurant"}]},{"lat":"37.488234086","long":"126.78132091","imageIndex":4,"items":[{"name":"미소쿱(MISOCOOP)/미용소상공인협동조합","tel":"070-4252-5010","addr":"경기도 부천시 심곡동 377-41번지 3층","indutype":"일반휴게음식 - 서양음식","category":"restaurant"},{"name":"우성양꼬치","tel":"032-667-6777","addr":"경기도 부천시 심곡동 377-41번지 2층","indutype":"일반휴게음식 - 일반한식","category":"restaurant"},{"name":"짜짱뽕","tel":"032-000-0000","addr":"경기도 부천시 심곡동 377-41번지 1층 일부","indutype":"일반휴게음식 - 중국식","category":"restaurant"}]},{"lat":"37.484788818","long":"126.78429338","imageIndex":4,"items":[{"name":"미스터(Mr)장어왕","tel":"032-655-5700","addr":"경기도 부천시 심곡동 171-25번지 1층","indutype":"일반휴게음식 - 일반한식","category":"restaurant"}]},{"lat":"37.487403882","long":"126.78063364","imageIndex":4,"items":[{"name":"미스터보쌈&닭찜 부천대점","tel":"031-612-5379","addr":"경기도 부천시 심곡동 379-19번지 2층","indutype":"일반휴게음식 - 일반한식","category":"restaurant"},{"name":"주경야돈","tel":"032-656-7770","addr":"경기도 부천시 심곡동 379-19 1,2층","indutype":"일반휴게음식 - 일반한식","category":"restaurant"}]},{"lat":"37.484486374","long":"126.78640857","imageIndex":4,"items":[{"name":"미스터쿡","tel":"032-611-1153","addr":"경기도 부천시 심곡동 140-4번지 보보스오피스텔 104호","indutype":"일반휴게음식 - 서양음식","category":"restaurant"}]},{"lat":"37.484595278","long":"126.78196481","imageIndex":4,"items":[{"name":"미스터포포","tel":"032-548-6954","addr":"경기도 부천시 심곡동 173-1번지 지하1층 102호","indutype":"일반휴게음식 - 일반한식","category":"restaurant"},{"name":"여우짜장채림찌개","tel":"032-667-2011","addr":"경기도 부천시 심곡동 173-1번지 지하1층","indutype":"일반휴게음식 - 중국식","category":"restaurant"},{"name":"후쿠야","tel":"032-653-2748","addr":"경기도 부천시 심곡동 173-1번지 외4필지 지하층","indutype":"일반휴게음식 - 일반한식","category":"restaurant"}]},{"lat":"37.487875722","long":"126.78240743","imageIndex":4,"items":[{"name":"미운오리","tel":"031-222-2222","addr":"경기도 부천시 심곡동 192-10번지 1층","indutype":"일반휴게음식 - 일반한식","category":"restaurant"}]},{"lat":"37.486849059","long":"126.7826592","imageIndex":4,"items":[{"name":"밀러타임","tel":"032-663-9505","addr":"경기도 부천시 심곡동 177-2번지 1층","indutype":"일반휴게음식 - 주점","category":"restaurant"}]},{"lat":"37.486038169","long":"126.78266158","imageIndex":4,"items":[{"name":"밀피유","tel":"032-655-0325","addr":"경기도 부천시 심곡동 177-9번지 경수빌딩 2층","indutype":"일반휴게음식 - 일반한식","category":"restaurant"}]},{"lat":"37.486536443","long":"126.78412999","imageIndex":4,"items":[{"name":"바다나라","tel":"032-653-7979","addr":"경기도 부천시 심곡동 167-17번지","indutype":"일반휴게음식 - 일식·회집","category":"restaurant"},{"name":"옥커피호프","tel":"032-656-5558","addr":"경기도 부천시 심곡동 167-17번지 2층","indutype":"일반휴게음식 - 주점","category":"restaurant"}]},{"lat":"37.491875876","long":"126.78227129","imageIndex":4,"items":[{"name":"바다커피맥주","tel":"032-651-5775","addr":"경기도 부천시 심곡동 368-17번지 금조빌딩 지층","indutype":"일반휴게음식 - 서양음식","category":"restaurant"}]},{"lat":"37.491290281","long":"126.77752388","imageIndex":4,"items":[{"name":"바다향","tel":"032-655-6999","addr":"경기도 부천시 심곡동 298-17번지 1층","indutype":"일반휴게음식 - 일반한식","category":"restaurant"}]},{"lat":"37.490789861","long":"126.78452466","imageIndex":4,"items":[{"name":"바다회종합활어시장","tel":"031-611-0288","addr":"경기도 부천시 심곡동 122번지 1층","indutype":"일반휴게음식 - 일식·회집","category":"restaurant"}]},{"lat":"37.491483831","long":"126.78463571","imageIndex":4,"items":[{"name":"바로숯닭","tel":"032-654-8592","addr":"경기도 부천시 심곡동 119번지 1층 일부","indutype":"일반휴게음식 - 일반한식","category":"restaurant"},{"name":"삿갓삿갓김삿갓","tel":"032-612-9007","addr":"경기도 부천시 심곡동 119번지","indutype":"일반휴게음식 - 일반한식","category":"restaurant"}]},{"lat":"37.488733945","long":"126.77412813","imageIndex":4,"items":[{"name":"바른","tel":"032-651-6887","addr":"경기도 부천시 심곡동 344번지 1층","indutype":"일반휴게음식 - 일반한식","category":"restaurant"},{"name":"아빠돼지삼형제부천점","tel":"032-655-5282","addr":"경기도 부천시 심곡동 344번지 1층 3호","indutype":"일반휴게음식 - 일반한식","category":"restaurant"},{"name":"제이에스(js)푸드","tel":"032-653-0715","addr":"경기도 부천시 심곡동 344번지 1층","indutype":"일반휴게음식 - 일반한식","category":"restaurant"}]},{"lat":"37.494037316","long":"126.78176739","imageIndex":4,"items":[{"name":"바비큐보스치킨","tel":"032-664-8949","addr":"경기도 부천시 심곡동 116-3번지 1층","indutype":"일반휴게음식 - 스넥","category":"restaurant"}]},{"lat":"37.487708278","long":"126.77960381","imageIndex":4,"items":[{"name":"바사삭부천대학점","tel":"032-667-1020","addr":"경기도 부천시 심곡동 405-7번지 1층","indutype":"일반휴게음식 - 일반한식","category":"restaurant"},{"name":"이포","tel":"","addr":"경기도 부천시 심곡동 405-7번지","indutype":"일반휴게음식 - 서양음식","category":"restaurant"},{"name":"티모","tel":"070-4024-1097","addr":"경기도 부천시 심곡동 405-7번지 1층","indutype":"일반휴게음식 - 서양음식","category":"restaurant"}]},{"lat":"37.491704216","long":"126.77258125","imageIndex":4,"items":[{"name":"바사칸동네치킨","tel":"032-665-9282","addr":"경기도 부천시 심곡동 308-19번지 가동 1층","indutype":"일반휴게음식 - 스넥","category":"restaurant"}]},{"lat":"37.484738399","long":"126.78141038","imageIndex":4,"items":[{"name":"박승광손칼국수","tel":"032-668-9982","addr":"경기도 부천시 심곡동 173-7번지 1층","indutype":"일반휴게음식 - 일반한식","category":"restaurant"},{"name":"평양순대국","tel":"032-661-3139","addr":"경기도 부천시 심곡동 173-7번지 지하1층","indutype":"일반휴게음식 - 일반한식","category":"restaurant"}]},{"lat":"37.490620997","long":"126.77619162","imageIndex":4,"items":[{"name":"반석푸드","tel":"070-8833-3759","addr":"경기도 부천시 심곡동 327-48번지 1층 일부","indutype":"일반휴게음식 - 일반한식","category":"restaurant"}]},{"lat":"37.490737692","long":"126.77596512","imageIndex":4,"items":[{"name":"발라당","tel":"032-651-0815","addr":"경기도 부천시 심곡동 326-16번지 1층","indutype":"일반휴게음식 - 일반한식","category":"restaurant"}]},{"lat":"37.487876038","long":"126.78257704","imageIndex":4,"items":[{"name":"발발이 족발보쌈","tel":"032-663-5040","addr":"경기도 부천시 심곡동 192-1번지 심곡빌딩","indutype":"일반휴게음식 - 일반한식","category":"restaurant"},{"name":"백궁원","tel":"","addr":"경기도 부천시 심곡동 192-1번지 심곡빌딩 2층","indutype":"일반휴게음식 - 중국식","category":"restaurant"}]},{"lat":"37.486708907","long":"126.77999121","imageIndex":4,"items":[{"name":"밤새우리","tel":"032-611-8266","addr":"경기도 부천시 심곡동 399-1번지 1층","indutype":"일반휴게음식 - 일반한식","category":"restaurant"}]},{"lat":"37.487540789","long":"126.78643367","imageIndex":4,"items":[{"name":"밤심이","tel":"070-7375-6859","addr":"경기도 부천시 심곡동 151-4번지 낙원주택 1층 101호","indutype":"일반휴게음식 - 일반한식","category":"restaurant"}]},{"lat":"37.488041536","long":"126.77954628","imageIndex":4,"items":[{"name":"밥맛나는세상(부천대점)","tel":"032-611-0999","addr":"경기도 부천시 심곡동 408-15번지 1층","indutype":"일반휴게음식 - 스넥","category":"restaurant"}]},{"lat":"37.487847551","long":"126.78179694","imageIndex":4,"items":[{"name":"밥장인부천대점","tel":"031-111-1111","addr":"경기도 부천시 심곡동 192-16번지","indutype":"일반휴게음식 - 일반한식","category":"restaurant"},{"name":"지쓰리","tel":"032-654-0567","addr":"경기도 부천시 심곡동 192-16번지 2층","indutype":"일반휴게음식 - 일반한식","category":"restaurant"}]},{"lat":"37.494508067","long":"126.78296464","imageIndex":4,"items":[{"name":"밥통령","tel":"070-7377-1405","addr":"경기도 부천시 심곡동 96-16번지 1층 일부호","indutype":"일반휴게음식 - 일반한식","category":"restaurant"}]},{"lat":"37.488070719","long":"126.7806882","imageIndex":4,"items":[{"name":"배나치킨강정","tel":"032-667-4692","addr":"경기도 부천시 심곡동 378-13번지 1층","indutype":"일반휴게음식 - 주점","category":"restaurant"},{"name":"신궁","tel":"032-657-0328","addr":"경기도 부천시 심곡동 378-13번지 2층","indutype":"일반휴게음식 - 주점","category":"restaurant"},{"name":"오늘도포차","tel":"032-666-5095","addr":"경기도 부천시 심곡동 378-13번지","indutype":"일반휴게음식 - 일반한식","category":"restaurant"}]},{"lat":"37.493483374","long":"126.77946223","imageIndex":4,"items":[{"name":"백년회관 서서갈비","tel":"032-665-8393","addr":"경기도 부천시 심곡동 442-4번지 1층","indutype":"일반휴게음식 - 일반한식","category":"restaurant"}]},{"lat":"37.485014579","long":"126.7797475","imageIndex":4,"items":[{"name":"백반전문점","tel":"032-613-0255","addr":"경기도 부천시 심곡동 388-14번지","indutype":"일반휴게음식 - 스넥","category":"restaurant"}]},{"lat":"37.485565695","long":"126.78054863","imageIndex":4,"items":[{"name":"백채부천역점","tel":"032-228-1205","addr":"경기도 부천시 심곡동 383-10번지 1층 일부","indutype":"일반휴게음식 - 일반한식","category":"restaurant"},{"name":"통삼겹무한리필저팔계","tel":"032-503-5333","addr":"경기도 부천시 심곡동 383-10번지 1층 일부","indutype":"일반휴게음식 - 일반한식","category":"restaurant"}]},{"lat":"37.484238964","long":"126.78415931","imageIndex":4,"items":[{"name":"버거킹부천북부역","tel":"070-7462-6777","addr":"경기도 부천시 심곡동 172-20번지 노블레스부천 103동 105호","indutype":"일반휴게음식 - 서양음식","category":"restaurant"}]},{"lat":"37.486286847","long":"126.78073871","imageIndex":4,"items":[{"name":"베네부천역점","tel":"032-663-6232","addr":"경기도 부천시 심곡동 382-12번지","indutype":"일반휴게음식 - 일반한식","category":"restaurant"},{"name":"베네부천역점 테이크아웃","tel":"032-663-6232","addr":"경기도 부천시 심곡동 382-12번지 1층 일부","indutype":"일반휴게음식 - 일반한식","category":"restaurant"}]},{"lat":"37.495454314","long":"126.78307495","imageIndex":4,"items":[{"name":"베러댄와플 부천심곡점","tel":"032-655-2378","addr":"경기도 부천시 심곡동 92-42번지 1층 일부","indutype":"일반휴게음식 - 서양음식","category":"restaurant"}]},{"lat":"37.487788789","long":"126.77929828","imageIndex":4,"items":[{"name":"베로","tel":"032-656-5628","addr":"경기도 부천시 심곡동 406-31번지 1층 일부","indutype":"일반휴게음식 - 서양음식","category":"restaurant"},{"name":"베로(VERO)","tel":"032-656-5628","addr":"경기도 부천시 심곡동 406-31번지 1층 일부","indutype":"일반휴게음식 - 서양음식","category":"restaurant"}]},{"lat":"37.491397285","long":"126.77227689","imageIndex":4,"items":[{"name":"베태랑쌀국수","tel":"032-614-2120","addr":"경기도 부천시 심곡동 322번지 이조빌딩 1층 베테랑쌀국수","indutype":"일반휴게음식 - 서양음식","category":"restaurant"},{"name":"치요남치킨부천1호점","tel":"032-668-8398","addr":"경기도 부천시 심곡동 322번지 이조빌딩 1층 103호","indutype":"일반휴게음식 - 스넥","category":"restaurant"},{"name":"치킨과요리의만남","tel":"032-663-8398","addr":"경기도 부천시 심곡동 322번지 이조빌딩 1층 일부","indutype":"일반휴게음식 - 스넥","category":"restaurant"}]},{"lat":"37.484844735","long":"126.7852995","imageIndex":4,"items":[{"name":"별미","tel":"032-656-0224","addr":"경기도 부천시 심곡동 145-15번지","indutype":"일반휴게음식 - 일반한식","category":"restaurant"}]},{"lat":"37.488707681","long":"126.77452396","imageIndex":4,"items":[{"name":"별이네","tel":"070-7310-9824","addr":"경기도 부천시 심곡동 344-10번지 1층","indutype":"일반휴게음식 - 일반한식","category":"restaurant"}]},{"lat":"37.487955204","long":"126.78154787","imageIndex":4,"items":[{"name":"별이네양꼬치","tel":"032-696-9996","addr":"경기도 부천시 심곡동 378-1번지 2층 1호","indutype":"일반휴게음식 - 일반한식","category":"restaurant"},{"name":"장뚜막숯불꼬치(부천대학점)","tel":"032-657-8555","addr":"경기도 부천시 심곡동 378-1번지 1층 1호","indutype":"일반휴게음식 - 일반한식","category":"restaurant"},{"name":"천사곱창","tel":"032-611-7725","addr":"경기도 부천시 심곡동 378-1번지 1층","indutype":"일반휴게음식 - 일반한식","category":"restaurant"},{"name":"쿠바노스","tel":"032-656-5989","addr":"경기도 부천시 심곡동 378-1번지 1층 2호","indutype":"일반휴게음식 - 일반한식","category":"restaurant"}]},{"lat":"37.48701394","long":"126.77930059","imageIndex":4,"items":[{"name":"별이빛나는밤에","tel":"032-772-5361","addr":"경기도 부천시 심곡동 403-4번지 명문연립 102호","indutype":"일반휴게음식 - 주점","category":"restaurant"},{"name":"어반브런치","tel":"032-227-5237","addr":"경기도 부천시 심곡동 403-4번지 명문연립 1층 101호","indutype":"일반휴게음식 - 일반한식","category":"restaurant"}]},{"lat":"37.487397585","long":"126.78208094","imageIndex":4,"items":[{"name":"보꾸마찌","tel":"032-613-5550","addr":"경기도 부천시 심곡동 180-5번지 1층","indutype":"일반휴게음식 - 일반한식","category":"restaurant"}]},{"lat":"37.491013903","long":"126.77435863","imageIndex":4,"items":[{"name":"보리수호프","tel":"032-666-9594","addr":"경기도 부천시 심곡동 323-20번지","indutype":"일반휴게음식 - 주점","category":"restaurant"}]},{"lat":"37.486869914","long":"126.78418556","imageIndex":4,"items":[{"name":"보배커피호프","tel":"070-4325-8005","addr":"경기도 부천시 심곡동 165-21번지 2층","indutype":"일반휴게음식 - 주점","category":"restaurant"},{"name":"파스타와김밥이네","tel":"032-662-7153","addr":"경기도 부천시 심곡동 165-21번지 1층 코너","indutype":"일반휴게음식 - 스넥","category":"restaurant"}]},{"lat":"37.485735199","long":"126.77965491","imageIndex":4,"items":[{"name":"복많이우사미","tel":"032-657-5353","addr":"경기도 부천시 심곡동 394-20번지 1층","indutype":"일반휴게음식 - 일반한식","category":"restaurant"}]},{"lat":"37.486317646","long":"126.77796847","imageIndex":4,"items":[{"name":"복사골약선추어탕","tel":"032-425-4159","addr":"경기도 부천시 심곡동 459-1번지 용기빌딩 2층","indutype":"일반휴게음식 - 일반한식","category":"restaurant"},{"name":"북경양꼬치","tel":"","addr":"경기도 부천시 심곡동 459-1번지 용기빌딩 1층","indutype":"일반휴게음식 - 일반한식","category":"restaurant"},{"name":"서원부페식당","tel":"032-666-3437","addr":"경기도 부천시 심곡동 459-1번지 용기빌딩 1층","indutype":"일반휴게음식 - 일반한식","category":"restaurant"},{"name":"하누마당","tel":"070-8935-8879","addr":"경기도 부천시 심곡동 459-1번지 용기빌딩","indutype":"일반휴게음식 - 일반한식","category":"restaurant"}]},{"lat":"37.48678964","long":"126.78462675","imageIndex":4,"items":[{"name":"본가소탕집","tel":"032-348-1755","addr":"경기도 부천시 심곡동 165-5번지 1층","indutype":"일반휴게음식 - 일반한식","category":"restaurant"},{"name":"우정커피호프","tel":"","addr":"경기도 부천시 심곡동 165-5번지 2층","indutype":"일반휴게음식 - 주점","category":"restaurant"}]},{"lat":"37.489373274","long":"126.77393396","imageIndex":4,"items":[{"name":"본초불닭발부천점","tel":"070-7366-3399","addr":"경기도 부천시 심곡동 336-33번지 1층 일부","indutype":"일반휴게음식 - 일반한식","category":"restaurant"}]},{"lat":"37.493621824","long":"126.78121453","imageIndex":4,"items":[{"name":"본칠백식당","tel":"032-611-7002","addr":"경기도 부천시 심곡동 71-3번지 1층 일부","indutype":"일반휴게음식 - 일반한식","category":"restaurant"}]},{"lat":"37.487765572","long":"126.78132229","imageIndex":4,"items":[{"name":"봉구비어 부천대점","tel":"","addr":"경기도 부천시 심곡동 378-29번지","indutype":"일반휴게음식 - 주점","category":"restaurant"}]},{"lat":"37.486345013","long":"126.78782785","imageIndex":4,"items":[{"name":"봉희옛날통닭","tel":"032-655-4777","addr":"경기도 부천시 심곡동 136-21번지 시안아파트 1층 101호","indutype":"일반휴게음식 - 스넥","category":"restaurant"}]},{"lat":"37.484679945","long":"126.78388666","imageIndex":4,"items":[{"name":"부부식당","tel":"032-655-8587","addr":"경기도 부천시 심곡동 171-5번지 1층","indutype":"일반휴게음식 - 일반한식","category":"restaurant"},{"name":"부천주먹고기","tel":"032-612-9289","addr":"경기도 부천시 심곡동 171-5번지 1층","indutype":"일반휴게음식 - 일반한식","category":"restaurant"}]},{"lat":"37.489292294","long":"126.78348876","imageIndex":4,"items":[{"name":"부산어묵","tel":"02-1577-8950","addr":"경기도 부천시 심곡동 355-4번지 1층","indutype":"일반휴게음식 - 스넥","category":"restaurant"}]},{"lat":"37.484955799","long":"126.7869047","imageIndex":4,"items":[{"name":"부일식당","tel":"032-611-1008","addr":"경기도 부천시 심곡동 139-11번지","indutype":"일반휴게음식 - 일반한식","category":"restaurant"}]},{"lat":"37.489654909","long":"126.78468626","imageIndex":4,"items":[{"name":"부일영양탕","tel":"032-611-8700","addr":"경기도 부천시 심곡동 157-13번지 1층 일부","indutype":"일반휴게음식 - 일반한식","category":"restaurant"},{"name":"카페(cafe)토닥토닥로스터리(roastery)","tel":"032-000-0000","addr":"경기도 부천시 심곡동 157-13번지 1층","indutype":"일반휴게음식 - 서양음식","category":"restaurant"}]},{"lat":"37.487619289","long":"126.78019203","imageIndex":4,"items":[{"name":"부즈인부스","tel":"032-664-8570","addr":"경기도 부천시 심곡동 405-19번지 1층 일부","indutype":"일반휴게음식 - 서양음식","category":"restaurant"},{"name":"서비포차","tel":"","addr":"경기도 부천시 심곡동 405-19번지","indutype":"일반휴게음식 - 주점","category":"restaurant"}]},{"lat":"37.487983865","long":"126.78730303","imageIndex":4,"items":[{"name":"부천기사식당","tel":"032-653-1775","addr":"경기도 부천시 심곡동 133-17번지","indutype":"일반휴게음식 - 일반한식","category":"restaurant"}]},{"lat":"37.485956863","long":"126.77776603","imageIndex":4,"items":[{"name":"부천남자치킨","tel":"032-622-9282","addr":"경기도 부천시 심곡동 459-4번지 1층","indutype":"일반휴게음식 - 스넥","category":"restaurant"}]},{"lat":"37.486983988","long":"126.77308193","imageIndex":4,"items":[{"name":"부천닭강정","tel":"032-611-6400","addr":"경기도 부천시 심곡동 358-39번지 1층 일부","indutype":"일반휴게음식 - 스넥","category":"restaurant"}]},{"lat":"37.485014194","long":"126.77954399","imageIndex":4,"items":[{"name":"부천민물매운탕","tel":"032-502-2121","addr":"경기도 부천시 심곡동 388-8번지 1층","indutype":"일반휴게음식 - 일반한식","category":"restaurant"}]},{"lat":"37.487403626","long":"126.78049796","imageIndex":4,"items":[{"name":"부천수산","tel":"032-654-1015","addr":"경기도 부천시 심곡동 379-28번지 101,102,201호","indutype":"일반휴게음식 - 일반한식","category":"restaurant"}]},{"lat":"37.486483136","long":"126.7749943","imageIndex":4,"items":[{"name":"부천시니어클럽 카페어울케이티(KT)점","tel":"032-665-3999","addr":"경기도 부천시 심곡동 360번지 1층","indutype":"일반휴게음식 - 서양음식","category":"restaurant"},{"name":"푸다스KT지사점","tel":"070-4114-4092","addr":"경기도 부천시 심곡동 360번지 부천전화국 A동 지하1층","indutype":"일반휴게음식 - 위탁급식업","category":"restaurant"}]},{"lat":"37.487371843","long":"126.78277073","imageIndex":4,"items":[{"name":"부천조개창고 주식회사","tel":"031-000-0000","addr":"경기도 부천시 심곡동 190-11번지 2층","indutype":"일반휴게음식 - 일반한식","category":"restaurant"},{"name":"슈퍼닭갈비","tel":"032-654-5311","addr":"경기도 부천시 심곡동 190-11번지 1층 2층","indutype":"일반휴게음식 - 일반한식","category":"restaurant"},{"name":"초원샤브샤브","tel":"02-000-0000","addr":"경기도 부천시 심곡동 190-11번지 1층","indutype":"일반휴게음식 - 일반한식","category":"restaurant"}]},{"lat":"37.487733164","long":"126.78326718","imageIndex":4,"items":[{"name":"부천타코방","tel":"032-462-9975","addr":"경기도 부천시 심곡동 190-1번지 102호","indutype":"일반휴게음식 - 일반한식","category":"restaurant"}]},{"lat":"37.485147579","long":"126.78341043","imageIndex":4,"items":[{"name":"부흥다방","tel":"032-662-9575","addr":"경기도 부천시 심곡동 170-8번지 지하층","indutype":"일반휴게음식 - 서양음식","category":"restaurant"}]},{"lat":"37.490877276","long":"126.78307706","imageIndex":4,"items":[{"name":"부흥식당","tel":"032-654-8190","addr":"경기도 부천시 심곡동 367-24번지 정화빌라 101호","indutype":"일반휴게음식 - 일반한식","category":"restaurant"}]},{"lat":"37.485260867","long":"126.7813523","imageIndex":4,"items":[{"name":"불철주야","tel":"032-663-0088","addr":"경기도 부천시 심곡동 174-5번지 1층","indutype":"일반휴게음식 - 칵테일바","category":"restaurant"}]},{"lat":"37.48645616","long":"126.77974321","imageIndex":4,"items":[{"name":"불타는꼬꼬발부천점","tel":"070-4064-9884","addr":"경기도 부천시 심곡동 399-14번지 1층 일부","indutype":"일반휴게음식 - 일반한식","category":"restaurant"}]},{"lat":"37.488674408","long":"126.77596006","imageIndex":4,"items":[{"name":"불타는명태조림&생고기찌개","tel":"070-7315-0523","addr":"경기도 부천시 심곡동 340-24번지 1층","indutype":"일반휴게음식 - 일반한식","category":"restaurant"}]},{"lat":"37.486182433","long":"126.77793496","imageIndex":4,"items":[{"name":"붐비어","tel":"032-611-1896","addr":"경기도 부천시 심곡동 459-9번지 은사빌딩 1층","indutype":"일반휴게음식 - 주점","category":"restaurant"}]},{"lat":"37.487960405","long":"126.77952391","imageIndex":4,"items":[{"name":"브라베","tel":"","addr":"경기도 부천시 심곡동 408-16번지 1층","indutype":"일반휴게음식 - 서양음식","category":"restaurant"}]},{"lat":"37.48898093","long":"126.78079857","imageIndex":4,"items":[{"name":"브라운버터(brown butter)","tel":"031-111-1111","addr":"경기도 부천시 심곡동 376-16번지","indutype":"일반휴게음식 - 일반한식","category":"restaurant"},{"name":"신의식탁","tel":"032-611-6286","addr":"경기도 부천시 심곡동 376-16번지 1층","indutype":"일반휴게음식 - 서양음식","category":"restaurant"}]},{"lat":"37.48945262","long":"126.78249326","imageIndex":4,"items":[{"name":"블랙소울 클래식","tel":"","addr":"경기도 부천시 심곡동 354-2번지 퍼스트팰리스","indutype":"일반휴게음식 - 서양음식","category":"restaurant"},{"name":"블랙소울 클래식","tel":"","addr":"경기도 부천시 심곡동 354-2번지 퍼스트팰리스 1층","indutype":"일반휴게음식 - 서양음식","category":"restaurant"}]},{"lat":"37.486404295","long":"126.78090796","imageIndex":4,"items":[{"name":"비꼴로","tel":"032-244-3306","addr":"경기도 부천시 심곡동 382-4번지 B동지층","indutype":"일반휴게음식 - 서양음식","category":"restaurant"}]},{"lat":"37.485846467","long":"126.78132796","imageIndex":4,"items":[{"name":"비비큐 올리브팩토리","tel":"032-651-3046","addr":"경기도 부천시 심곡동 175-15번지","indutype":"일반휴게음식 - 서양음식","category":"restaurant"}]},{"lat":"37.491953174","long":"126.77088435","imageIndex":4,"items":[{"name":"비에이치씨(BHC)심곡행복점","tel":"032-655-9282","addr":"경기도 부천시 심곡동 314-3번지 1층 일부","indutype":"일반휴게음식 - 스넥","category":"restaurant"},{"name":"주영식당","tel":"070-4952-3642","addr":"경기도 부천시 심곡동 314-3번지","indutype":"일반휴게음식 - 일반한식","category":"restaurant"}]},{"lat":"37.493482538","long":"126.78382704","imageIndex":4,"items":[{"name":"비엘타임","tel":"070-8869-2694","addr":"경기도 부천시 심곡동 112-11번지 1층","indutype":"일반휴게음식 - 주점","category":"restaurant"}]},{"lat":"37.490396839","long":"126.78151805","imageIndex":4,"items":[{"name":"빅스타피자","tel":"032-656-7440","addr":"경기도 부천시 심곡동 372-8번지 1층 일부","indutype":"일반휴게음식 - 서양음식","category":"restaurant"}]},{"lat":"37.489292623","long":"126.77416035","imageIndex":4,"items":[{"name":"빨간통피자","tel":"032-613-7335","addr":"경기도 부천시 심곡동 339번지 1층 일부","indutype":"일반휴게음식 - 일반한식","category":"restaurant"}]},{"lat":"37.491347595","long":"126.78404812","imageIndex":4,"items":[{"name":"빽다방 부천심곡대성점","tel":"032-611-0610","addr":"경기도 부천시 심곡동 106-5번지 세상빌딩 1층","indutype":"일반휴게음식 - 서양음식","category":"restaurant"}]},{"lat":"37.485675279","long":"126.78132846","imageIndex":4,"items":[{"name":"빽다방 부천역CGV점","tel":"032-667-9548","addr":"경기도 부천시 심곡동 175-16번지 1층","indutype":"일반휴게음식 - 일반한식","category":"restaurant"},{"name":"엠","tel":"032-663-0990","addr":"경기도 부천시 심곡동 175-16번지 지하1층","indutype":"일반휴게음식 - 주점","category":"restaurant"},{"name":"엠(M)","tel":"032-663-0990","addr":"경기도 부천시 심곡동 175-16번지 지하1층","indutype":"일반휴게음식 - 주점","category":"restaurant"}]},{"lat":"37.487071981","long":"126.78141479","imageIndex":4,"items":[{"name":"삐에로","tel":"032-111-1111","addr":"경기도 부천시 심곡동 380-1번지 지층","indutype":"일반휴게음식 - 일반한식","category":"restaurant"},{"name":"홉(HOP)","tel":"032-611-1702","addr":"경기도 부천시 심곡동 380-1번지","indutype":"일반휴게음식 - 주점","category":"restaurant"}]},{"lat":"37.484898069","long":"126.78007574","imageIndex":4,"items":[{"name":"사누끼","tel":"032-653-5259","addr":"경기도 부천시 심곡동 387-1번지 2층","indutype":"일반휴게음식 - 일반한식","category":"restaurant"},{"name":"샤넬커피맥주","tel":"032-661-2638","addr":"경기도 부천시 심곡동 387-1번지 부천프라자 1층 105호","indutype":"일반휴게음식 - 주점","category":"restaurant"},{"name":"진짜노가리","tel":"032-000-0000","addr":"경기도 부천시 심곡동 387-1번지 107호","indutype":"일반휴게음식 - 일반한식","category":"restaurant"}]},{"lat":"37.486239316","long":"126.78916234","imageIndex":4,"items":[{"name":"사랑방주막집","tel":"032-611-7066","addr":"경기도 부천시 심곡동 132-7번지 1층 일부","indutype":"일반휴게음식 - 일반한식","category":"restaurant"}]},{"lat":"37.4894038","long":"126.78532019","imageIndex":4,"items":[{"name":"사월애한정식","tel":"032-668-6400","addr":"경기도 부천시 심곡동 155-2번지 3층 2호","indutype":"일반휴게음식 - 일반한식","category":"restaurant"},{"name":"아르카나","tel":"032-652-9792","addr":"경기도 부천시 심곡동 155-2번지 1층","indutype":"일반휴게음식 - 일반한식","category":"restaurant"}]},{"lat":"37.488008733","long":"126.78126504","imageIndex":4,"items":[{"name":"사주카페리","tel":"032-611-9020","addr":"경기도 부천시 심곡동 378-35번지 2층","indutype":"일반휴게음식 - 서양음식","category":"restaurant"}]},{"lat":"37.487516779","long":"126.78318866","imageIndex":4,"items":[{"name":"사주카페연","tel":"032-661-4931","addr":"경기도 부천시 심곡동 190-8번지 2층 일부","indutype":"일반휴게음식 - 일반한식","category":"restaurant"}]},{"lat":"37.486211096","long":"126.77879418","imageIndex":4,"items":[{"name":"산 참치전문점","tel":"032-653-8788","addr":"경기도 부천시 심곡동 398-4번지","indutype":"일반휴게음식 - 일식·회집","category":"restaurant"},{"name":"장미호프","tel":"032-000-0000","addr":"경기도 부천시 심곡동 398-4번지 2층","indutype":"일반휴게음식 - 주점","category":"restaurant"}]},{"lat":"37.484623259","long":"126.78735791","imageIndex":4,"items":[{"name":"산수갑산","tel":"032-662-2782","addr":"경기도 부천시 심곡동 139-7번지","indutype":"일반휴게음식 - 갈비전문점","category":"restaurant"}]},{"lat":"37.488539413","long":"126.78562799","imageIndex":4,"items":[{"name":"산오징어회무침","tel":"070-7352-9100","addr":"경기도 부천시 심곡동 160-23번지 1층","indutype":"일반휴게음식 - 일반한식","category":"restaurant"}]},{"lat":"37.486402101","long":"126.77974338","imageIndex":4,"items":[{"name":"산쪼메","tel":"032-666-7954","addr":"경기도 부천시 심곡동 399-13번지 1층 6","indutype":"일반휴게음식 - 일반한식","category":"restaurant"}]},{"lat":"37.488043009","long":"126.78032646","imageIndex":4,"items":[{"name":"삼석대파불고기","tel":"032-661-7788","addr":"경기도 부천시 심곡동 408-25번지 1층전체","indutype":"일반휴게음식 - 일반한식","category":"restaurant"},{"name":"피자헤븐 (부천대점)","tel":"032-614-1588","addr":"경기도 부천시 심곡동 408-25번지 2층","indutype":"일반휴게음식 - 서양음식","category":"restaurant"}]},{"lat":"37.48485042","long":"126.78840877","imageIndex":4,"items":[{"name":"삼오가정식백반전문","tel":"032-611-8242","addr":"경기도 부천시 심곡동 129-16번지 1층","indutype":"일반휴게음식 - 일반한식","category":"restaurant"},{"name":"양꼬치포차","tel":"070-7372-3337","addr":"경기도 부천시 심곡동 129-16번지 1층","indutype":"일반휴게음식 - 일반한식","category":"restaurant"}]},{"lat":"37.488289165","long":"126.77243343","imageIndex":4,"items":[{"name":"상록수","tel":"032-665-1778","addr":"경기도 부천시 심곡동 346-34번지 1층","indutype":"일반휴게음식 - 주점","category":"restaurant"}]},{"lat":"37.484958518","long":"126.78349012","imageIndex":4,"items":[{"name":"상록수다방","tel":"032-656-3646","addr":"경기도 부천시 심곡동 171-13번지 지하1층","indutype":"일반휴게음식 - 서양음식","category":"restaurant"}]},{"lat":"37.48606772","long":"126.78401829","imageIndex":4,"items":[{"name":"상일루","tel":"032-612-2727","addr":"경기도 부천시 심곡동 169-7번지 1층","indutype":"일반휴게음식 - 중국식","category":"restaurant"}]},{"lat":"37.491424623","long":"126.77243511","imageIndex":4,"items":[{"name":"생고기김치두루치기","tel":"032-656-9922","addr":"경기도 부천시 심곡동 322-1번지","indutype":"일반휴게음식 - 일반한식","category":"restaurant"}]},{"lat":"37.487344181","long":"126.78243161","imageIndex":4,"items":[{"name":"생고기제작소부천역점","tel":"032-665-2046","addr":"경기도 부천시 심곡동 180-1번지","indutype":"일반휴게음식 - 일반한식","category":"restaurant"}]},{"lat":"37.487123578","long":"126.77537679","imageIndex":4,"items":[{"name":"샬롬김밥","tel":"032-655-8559","addr":"경기도 부천시 심곡동 351-2번지 1층","indutype":"일반휴게음식 - 스넥","category":"restaurant"},{"name":"커피하우스","tel":"","addr":"경기도 부천시 심곡동 351-2번지 1층 일부","indutype":"일반휴게음식 - 서양음식","category":"restaurant"},{"name":"피자마루 심곡3동점","tel":"032-651-1082","addr":"경기도 부천시 심곡동 351-2번지 1층","indutype":"일반휴게음식 - 서양음식","category":"restaurant"}]},{"lat":"37.486293992","long":"126.78457166","imageIndex":4,"items":[{"name":"서산갯마을낙지","tel":"032-667-7573","addr":"경기도 부천시 심곡동 167-1번지 파라다이스","indutype":"일반휴게음식 - 일반한식","category":"restaurant"}]},{"lat":"37.486535773","long":"126.77896281","imageIndex":4,"items":[{"name":"서원해장국","tel":"032-668-7739","addr":"경기도 부천시 심곡동 400-15번지 1층","indutype":"일반휴게음식 - 일반한식","category":"restaurant"},{"name":"육가공 부천점","tel":"","addr":"경기도 부천시 심곡동 400-15번지 1층","indutype":"일반휴게음식 - 일반한식","category":"restaurant"}]},{"lat":"37.491210642","long":"126.78307608","imageIndex":4,"items":[{"name":"선대감메밀막국수","tel":"032-653-9906","addr":"경기도 부천시 심곡동 367-15번지 1층","indutype":"일반휴게음식 - 일반한식","category":"restaurant"}]},{"lat":"37.49317526","long":"126.77852461","imageIndex":4,"items":[{"name":"선미복식당","tel":"032-613-9807","addr":"경기도 부천시 심곡동 443-4번지 1층","indutype":"일반휴게음식 - 일반한식","category":"restaurant"}]},{"lat":"37.487261697","long":"126.7816856","imageIndex":4,"items":[{"name":"선수촌","tel":"032-612-4500","addr":"경기도 부천시 심곡동 180-14번지","indutype":"일반휴게음식 - 일반한식","category":"restaurant"},{"name":"아우라삼육구(부천본점)","tel":"070-4312-9174","addr":"경기도 부천시 심곡동 180-14번지 지하1층","indutype":"일반휴게음식 - 주점","category":"restaurant"},{"name":"일구사삼 (1943)","tel":"032-221-6285","addr":"경기도 부천시 심곡동 180-14번지 2층","indutype":"일반휴게음식 - 일반한식","category":"restaurant"},{"name":"쭉심","tel":"032-652-6794","addr":"경기도 부천시 심곡동 180-14번지 1층","indutype":"일반휴게음식 - 일반한식","category":"restaurant"}]},{"lat":"37.486234464","long":"126.78163209","imageIndex":4,"items":[{"name":"설빙","tel":"032-656-3988","addr":"경기도 부천시 심곡동 176-10번지 2층","indutype":"일반휴게음식 - 서양음식","category":"restaurant"},{"name":"유스펍(U's pub)","tel":"032-330-7383","addr":"경기도 부천시 심곡동 176-10번지 지하1층","indutype":"일반휴게음식 - 주점","category":"restaurant"}]},{"lat":"37.484454635","long":"126.7838534","imageIndex":4,"items":[{"name":"설악숯불갈비","tel":"032-663-8317","addr":"경기도 부천시 심곡동 172-10번지","indutype":"일반휴게음식 - 일반한식","category":"restaurant"}]},{"lat":"37.49129152","long":"126.78296277","imageIndex":4,"items":[{"name":"성가네큰집추어탕","tel":"032-655-1119","addr":"경기도 부천시 심곡동 367-13번지 문화빌딩 1층","indutype":"일반휴게음식 - 일반한식","category":"restaurant"}]},{"lat":"37.485539346","long":"126.78091052","imageIndex":4,"items":[{"name":"세븐 (7)","tel":"02-1111-1111","addr":"경기도 부천시 심곡동 383-5번지 휘니스빌딩 7층 701호","indutype":"일반휴게음식 - 주점","category":"restaurant"},{"name":"즐거운다락방","tel":"070-7315-4380","addr":"경기도 부천시 심곡동 383-5번지 휘니스빌딩 501호 일부","indutype":"일반휴게음식 - 서양음식","category":"restaurant"},{"name":"커스(부천역점)","tel":"032-655-2211","addr":"경기도 부천시 심곡동 383-5번지 휘니스빌딩 301호","indutype":"일반휴게음식 - 서양음식","category":"restaurant"},{"name":"콩불","tel":"032-655-0953","addr":"경기도 부천시 심곡동 383-5번지 휘니스빌딩 103,104호","indutype":"일반휴게음식 - 일반한식","category":"restaurant"},{"name":"쿠","tel":"032-662-2204","addr":"경기도 부천시 심곡동 383-5번지","indutype":"일반휴게음식 - 주점","category":"restaurant"},{"name":"해물퓨전조치조치(부천북부역점)","tel":"032-613-3376","addr":"경기도 부천시 심곡동 383-5번지 휘나스빌딩 101호","indutype":"일반휴게음식 - 일반한식","category":"restaurant"}]},{"lat":"37.485986962","long":"126.7793828","imageIndex":4,"items":[{"name":"소공동직화구이","tel":"032-613-2560","addr":"경기도 부천시 심곡동 394-4번지 1층","indutype":"일반휴게음식 - 일반한식","category":"restaurant"}]},{"lat":"37.493456558","long":"126.77957539","imageIndex":4,"items":[{"name":"소래버섯나라","tel":"032-666-5955","addr":"경기도 부천시 심곡동 442-12번지","indutype":"일반휴게음식 - 일반한식","category":"restaurant"}]},{"lat":"37.49007155","long":"126.78102149","imageIndex":4,"items":[{"name":"소문난집","tel":"032-656-5858","addr":"경기도 부천시 심곡동 373-19번지 1층 좌측 1층","indutype":"일반휴게음식 - 일반한식","category":"restaurant"},{"name":"쉼표","tel":"","addr":"경기도 부천시 심곡동 373-19번지 1층","indutype":"일반휴게음식 - 일반한식","category":"restaurant"}]},{"lat":"37.486148872","long":"126.78405198","imageIndex":4,"items":[{"name":"소보록하게","tel":"031-111-1111","addr":"경기도 부천시 심곡동 169-6번지 1층","indutype":"일반휴게음식 - 일반한식","category":"restaurant"}]},{"lat":"37.489511064","long":"126.78485629","imageIndex":4,"items":[{"name":"소새울사골순대국","tel":"032-612-7332","addr":"경기도 부천시 심곡동 156-1번지 1층","indutype":"일반휴게음식 - 일반한식","category":"restaurant"}]},{"lat":"37.486066652","long":"126.78834876","imageIndex":4,"items":[{"name":"소소감성","tel":"","addr":"경기도 부천시 심곡동 131-4번지 1층 일부","indutype":"일반휴게음식 - 서양음식","category":"restaurant"}]},{"lat":"37.490987245","long":"126.77455094","imageIndex":4,"items":[{"name":"소연김밥","tel":"032-613-2221","addr":"경기도 부천시 심곡동 326-41번지 1층","indutype":"일반휴게음식 - 일반한식","category":"restaurant"}]},{"lat":"37.485345481","long":"126.78324025","imageIndex":4,"items":[{"name":"송사부수제쌀고로케부천역점","tel":"","addr":"경기도 부천시 심곡동 170-16번지 1층 102호","indutype":"일반휴게음식 - 서양음식","category":"restaurant"}]},{"lat":"37.484619487","long":"126.78530015","imageIndex":4,"items":[{"name":"송원식당","tel":"032-655-4852","addr":"경기도 부천시 심곡동 144-5번지","indutype":"일반휴게음식 - 일반한식","category":"restaurant"},{"name":"실비집","tel":"032-663-0417","addr":"경기도 부천시 심곡동 144-5번지","indutype":"일반휴게음식 - 일반한식","category":"restaurant"}]},{"lat":"37.486233531","long":"126.7811346","imageIndex":4,"items":[{"name":"쇼킹쇼킹 부천역점","tel":"032-661-9881","addr":"경기도 부천시 심곡동 382-3번지 유원빌딩 201호,202호","indutype":"일반휴게음식 - 일반한식","category":"restaurant"}]},{"lat":"37.491039875","long":"126.78330273","imageIndex":4,"items":[{"name":"수변참치","tel":"032-664-5353","addr":"경기도 부천시 심곡동 367-26번지 부강빌딩 1층","indutype":"일반휴게음식 - 일식·회집","category":"restaurant"}]},{"lat":"37.485347944","long":"126.77974651","imageIndex":4,"items":[{"name":"수산시장","tel":"032-663-8889","addr":"경기도 부천시 심곡동 392-6번지","indutype":"일반휴게음식 - 일반한식","category":"restaurant"}]},{"lat":"37.485815401","long":"126.78399642","imageIndex":4,"items":[{"name":"수아호프","tel":"032-666-2800","addr":"경기도 부천시 심곡동 169-5번지 지하1층","indutype":"일반휴게음식 - 주점","category":"restaurant"},{"name":"한솥도시락(부천북부역사거리점)","tel":"032-661-2022","addr":"경기도 부천시 심곡동 169-5번지 1층우측","indutype":"일반휴게음식 - 일반한식","category":"restaurant"},{"name":"해전일식","tel":"032-652-6625","addr":"경기도 부천시 심곡동 169-5번지","indutype":"일반휴게음식 - 일식·회집","category":"restaurant"}]},{"lat":"37.484762387","long":"126.77979348","imageIndex":4,"items":[{"name":"수타왕","tel":"032-611-5577","addr":"경기도 부천시 심곡동 388-13번지 1층 일부","indutype":"일반휴게음식 - 중국식","category":"restaurant"},{"name":"파도횟집","tel":"","addr":"경기도 부천시 심곡동 388-13번지 1층 2호","indutype":"일반휴게음식 - 일반한식","category":"restaurant"}]},{"lat":"37.488265943","long":"126.78391012","imageIndex":4,"items":[{"name":"숙이네진 전주콩나물국밥","tel":"","addr":"경기도 부천시 심곡동 161-19번지","indutype":"일반휴게음식 - 일반한식","category":"restaurant"}]},{"lat":"37.487598939","long":"126.78376508","imageIndex":4,"items":[{"name":"숲풀카페","tel":"032-655-7754","addr":"경기도 부천시 심곡동 164-1번지","indutype":"일반휴게음식 - 서양음식","category":"restaurant"},{"name":"쎌빠(본점)","tel":"032-656-3392","addr":"경기도 부천시 심곡동 164-1번지 2층","indutype":"일반휴게음식 - 일반한식","category":"restaurant"}]},{"lat":"37.488008585","long":"126.78118589","imageIndex":4,"items":[{"name":"쉬즈빠","tel":"032-663-9898","addr":"경기도 부천시 심곡동 378-34번지 2층","indutype":"일반휴게음식 - 주점","category":"restaurant"},{"name":"화교닭날개구이","tel":"031-222-2222","addr":"경기도 부천시 심곡동 378-34번지 1층","indutype":"일반휴게음식 - 중국식","category":"restaurant"}]},{"lat":"37.487430017","long":"126.78015867","imageIndex":4,"items":[{"name":"쉼표김치찌개","tel":"032-278-0016","addr":"경기도 부천시 심곡동 405-9번지","indutype":"일반휴게음식 - 일반한식","category":"restaurant"},{"name":"종로빈대떡부천대점","tel":"032-612-4542","addr":"경기도 부천시 심곡동 405-9번지 1층","indutype":"일반휴게음식 - 일반한식","category":"restaurant"},{"name":"하네돈가스","tel":"032-614-7789","addr":"경기도 부천시 심곡동 405-9번지 2층","indutype":"일반휴게음식 - 일반한식","category":"restaurant"},{"name":"황학동곱창","tel":"032-655-2340","addr":"경기도 부천시 심곡동 405-9번지 1층","indutype":"일반휴게음식 - 일반한식","category":"restaurant"}]},{"lat":"37.493205392","long":"126.78016414","imageIndex":4,"items":[{"name":"스시엔","tel":"032-1899-3272","addr":"경기도 부천시 심곡동 440-13번지 2층","indutype":"일반휴게음식 - 일식·회집","category":"restaurant"}]},{"lat":"37.487122315","long":"126.77943595","imageIndex":4,"items":[{"name":"스시현","tel":"032-612-5982","addr":"경기도 부천시 심곡동 403-3번지 1층","indutype":"일반휴게음식 - 일식·회집","category":"restaurant"},{"name":"시월(October)","tel":"","addr":"경기도 부천시 심곡동 403-3번지 1층","indutype":"일반휴게음식 - 서양음식","category":"restaurant"},{"name":"식장","tel":"070-4001-1259","addr":"경기도 부천시 심곡동 403-3번지 1층","indutype":"일반휴게음식 - 주점","category":"restaurant"},{"name":"콩이타로카페","tel":"032-555-5555","addr":"경기도 부천시 심곡동 403-3번지 2층","indutype":"일반휴게음식 - 서양음식","category":"restaurant"}]},{"lat":"37.484681136","long":"126.78946075","imageIndex":4,"items":[{"name":"스카이","tel":"032-666-3371","addr":"경기도 부천시 심곡동 489-38번지 1층","indutype":"일반휴게음식 - 주점","category":"restaurant"}]},{"lat":"37.488349983","long":"126.78066476","imageIndex":4,"items":[{"name":"스카이라운지","tel":"032-000-0000","addr":"경기도 부천시 심곡동 377-46번지 6층","indutype":"일반휴게음식 - 일반한식","category":"restaurant"},{"name":"신인생술집","tel":"","addr":"경기도 부천시 심곡동 377-46번지 3층","indutype":"일반휴게음식 - 주점","category":"restaurant"}]},{"lat":"37.487675792","long":"126.78149216","imageIndex":4,"items":[{"name":"스쿨비어(school beer)","tel":"032-519-5758","addr":"경기도 부천시 심곡동 378-28번지 3층","indutype":"일반휴게음식 - 주점","category":"restaurant"},{"name":"오늘와인한잔 부천역점","tel":"032-611-6599","addr":"경기도 부천시 심곡동 378-28번지 1층","indutype":"일반휴게음식 - 일반한식","category":"restaurant"},{"name":"천희양꼬치","tel":"032-541-7110","addr":"경기도 부천시 심곡동 378-28번지 2층","indutype":"일반휴게음식 - 일반한식","category":"restaurant"},{"name":"천희양꼬치","tel":"032-541-7170","addr":"경기도 부천시 심곡동 378-28번지 2층","indutype":"일반휴게음식 - 중국식","category":"restaurant"}]},{"lat":"37.486564322","long":"126.77976551","imageIndex":4,"items":[{"name":"슬로웨그","tel":"02-000-0000","addr":"경기도 부천시 심곡동 399-9번지 지하1층","indutype":"일반휴게음식 - 서양음식","category":"restaurant"}]},{"lat":"37.488147448","long":"126.77838135","imageIndex":4,"items":[{"name":"시골뚝배기","tel":"032-651-2311","addr":"경기도 부천시 심곡동 455-5번지","indutype":"일반휴게음식 - 일반한식","category":"restaurant"}]},{"lat":"37.485655006","long":"126.78013002","imageIndex":4,"items":[{"name":"시골막걸리","tel":"032-668-1531","addr":"경기도 부천시 심곡동 383-9번지 1층","indutype":"일반휴게음식 - 주점","category":"restaurant"}]},{"lat":"37.489369609","long":"126.78632663","imageIndex":4,"items":[{"name":"시골순두부","tel":"032-662-7442","addr":"경기도 부천시 심곡동 181-4번지","indutype":"일반휴게음식 - 일반한식","category":"restaurant"}]},{"lat":"37.485597337","long":"126.78790914","imageIndex":4,"items":[{"name":"시골통돼지볶음찌개전문점","tel":"032-668-8892","addr":"경기도 부천시 심곡동 130-5번지","indutype":"일반휴게음식 - 일반한식","category":"restaurant"}]},{"lat":"37.487097049","long":"126.77563693","imageIndex":4,"items":[{"name":"시몽다방","tel":"032-653-2569","addr":"경기도 부천시 심곡동 351-10번지 지하1층","indutype":"일반휴게음식 - 서양음식","category":"restaurant"}]},{"lat":"37.487486372","long":"126.78137965","imageIndex":4,"items":[{"name":"시장을여는사람들","tel":"","addr":"경기도 부천시 심곡동 379-1번지 2층","indutype":"일반휴게음식 - 일반한식","category":"restaurant"},{"name":"에프엠(FM)","tel":"032-666-4967","addr":"경기도 부천시 심곡동 379-1번지","indutype":"일반휴게음식 - 주점","category":"restaurant"},{"name":"헤이독","tel":"032-611-7380","addr":"경기도 부천시 심곡동 379-1번지 4층","indutype":"일반휴게음식 - 일반한식","category":"restaurant"}]},{"lat":"37.487287943","long":"126.78126717","imageIndex":4,"items":[{"name":"식신매운양푼갈비","tel":"032-656-6689","addr":"경기도 부천시 심곡동 379-2번지","indutype":"일반휴게음식 - 일반한식","category":"restaurant"},{"name":"하남돼지집부천역점","tel":"","addr":"경기도 부천시 심곡동 379-2번지 기담빌딩 2층","indutype":"일반휴게음식 - 일반한식","category":"restaurant"}]},{"lat":"37.493625141","long":"126.78298985","imageIndex":4,"items":[{"name":"신사동떡볶이 심곡점","tel":"032-321-9132","addr":"경기도 부천시 심곡동 112-5번지 1층","indutype":"일반휴게음식 - 스넥","category":"restaurant"}]},{"lat":"37.484764963","long":"126.78116155","imageIndex":4,"items":[{"name":"신씨화로","tel":"032-661-8592","addr":"경기도 부천시 심곡동 173-10번지 1층","indutype":"일반휴게음식 - 일반한식","category":"restaurant"}]},{"lat":"37.488403511","long":"126.78038192","imageIndex":4,"items":[{"name":"신토닭발","tel":"02-1111-1111","addr":"경기도 부천시 심곡동 409-10번지 두리타워","indutype":"일반휴게음식 - 일반한식","category":"restaurant"},{"name":"천리향양꼬치구이","tel":"032-205-2636","addr":"경기도 부천시 심곡동 409-10번지 두리타워 2층","indutype":"일반휴게음식 - 일반한식","category":"restaurant"}]},{"lat":"37.490563606","long":"126.77446177","imageIndex":4,"items":[{"name":"신토불이 순대국","tel":"032-567-7173","addr":"경기도 부천시 심곡동 325번지","indutype":"일반휴게음식 - 일반한식","category":"restaurant"}]},{"lat":"37.49059923","long":"126.77424682","imageIndex":4,"items":[{"name":"심곡동324","tel":"032-327-1787","addr":"경기도 부천시 심곡동 324-7번지 1층","indutype":"일반휴게음식 - 서양음식","category":"restaurant"}]},{"lat":"37.486871191","long":"126.78004726","imageIndex":4,"items":[{"name":"심사부반점","tel":"032-667-6672","addr":"경기도 부천시 심곡동 404-12번지 2층","indutype":"일반휴게음식 - 중국식","category":"restaurant"},{"name":"족발신선생","tel":"032-655-9225","addr":"경기도 부천시 심곡동 404-12번지 1층","indutype":"일반휴게음식 - 일반한식","category":"restaurant"}]},{"lat":"37.487341535","long":"126.78101826","imageIndex":4,"items":[{"name":"심야오뎅","tel":"","addr":"경기도 부천시 심곡동 379-4번지","indutype":"일반휴게음식 - 일반한식","category":"restaurant"}]},{"lat":"37.486843135","long":"126.78432132","imageIndex":4,"items":[{"name":"싱싱장어","tel":"032-345-6336","addr":"경기도 부천시 심곡동 165-22번지 1층","indutype":"일반휴게음식 - 일반한식","category":"restaurant"},{"name":"호야만두간.칼국수","tel":"032-653-2255","addr":"경기도 부천시 심곡동 165-22번지 1층","indutype":"일반휴게음식 - 일반한식","category":"restaurant"}]},{"lat":"37.486211267","long":"126.77888463","imageIndex":4,"items":[{"name":"싸다구포차","tel":"032-668-1222","addr":"경기도 부천시 심곡동 398-1번지 1층","indutype":"일반휴게음식 - 일반한식","category":"restaurant"}]},{"lat":"37.486538031","long":"126.7849893","imageIndex":4,"items":[{"name":"쌀과보리","tel":"070-8624-8030","addr":"경기도 부천시 심곡동 167-5번지","indutype":"일반휴게음식 - 일반한식","category":"restaurant"}]},{"lat":"37.487624225","long":"126.78282653","imageIndex":4,"items":[{"name":"썬더치킨","tel":"032-662-9901","addr":"경기도 부천시 심곡동 190-6번지 1층","indutype":"일반휴게음식 - 스넥","category":"restaurant"}]},{"lat":"37.484654226","long":"126.77977119","imageIndex":4,"items":[{"name":"쎄시봉","tel":"02-1577-0000","addr":"경기도 부천시 심곡동 388-11번지 지하1층","indutype":"일반휴게음식 - 주점","category":"restaurant"}]},{"lat":"37.486264855","long":"126.77863573","imageIndex":4,"items":[{"name":"씨에스씨(C.S.C)숯불바베큐","tel":"032-663-9282","addr":"경기도 부천시 심곡동 398-6번지 1층","indutype":"일반휴게음식 - 스넥","category":"restaurant"}]},{"lat":"37.496872926","long":"126.7852646","imageIndex":4,"items":[{"name":"씨엠피숯불바베큐","tel":"032-657-4674","addr":"경기도 부천시 심곡동 87-3번지","indutype":"일반휴게음식 - 주점","category":"restaurant"},{"name":"착한어시장","tel":"032-614-0112","addr":"경기도 부천시 심곡동 87-3번지 원미빌딩","indutype":"일반휴게음식 - 일식·회집","category":"restaurant"}]},{"lat":"37.487766568","long":"126.78185371","imageIndex":4,"items":[{"name":"씬","tel":"031-1234-5678","addr":"경기도 부천시 심곡동 192-17번지 지하1층","indutype":"일반휴게음식 - 칵테일바","category":"restaurant"}]},{"lat":"37.485482559","long":"126.77946345","imageIndex":4,"items":[{"name":"아라리오","tel":"032-0000-0000","addr":"경기도 부천시 심곡동 392-1번지 부영빌딩 1층 일부","indutype":"일반휴게음식 - 일반한식","category":"restaurant"},{"name":"은비","tel":"032-663-8315","addr":"경기도 부천시 심곡동 392-1번지 부영빌딩 지하1층 일부","indutype":"일반휴게음식 - 주점","category":"restaurant"},{"name":"통큰갈비","tel":"032-216-6004","addr":"경기도 부천시 심곡동 392-1번지 1층","indutype":"일반휴게음식 - 일반한식","category":"restaurant"},{"name":"할매닭한마리","tel":"032-613-3355","addr":"경기도 부천시 심곡동 392-1번지 부영빌딩 1층","indutype":"일반휴게음식 - 일반한식","category":"restaurant"},{"name":"홍천집","tel":"032-662-4398","addr":"경기도 부천시 심곡동 392-1번지 부영빌딩 104호","indutype":"일반휴게음식 - 일반한식","category":"restaurant"}]},{"lat":"37.488592452","long":"126.78507379","imageIndex":4,"items":[{"name":"아리랑손만두전골","tel":"032-667-0789","addr":"경기도 부천시 심곡동 160-2번지 하주빌딩 1층","indutype":"일반휴게음식 - 일반한식","category":"restaurant"}]},{"lat":"37.489009932","long":"126.78185005","imageIndex":4,"items":[{"name":"아리베데르치","tel":"","addr":"경기도 부천시 심곡동 376-13번지 1층","indutype":"일반휴게음식 - 서양음식","category":"restaurant"}]},{"lat":"37.485234155","long":"126.78152198","imageIndex":4,"items":[{"name":"아마스빈부천역점","tel":"032-655-0926","addr":"경기도 부천시 심곡동 174-4번지 1층 일부","indutype":"일반휴게음식 - 서양음식","category":"restaurant"},{"name":"육삼냉면","tel":"032-663-6392","addr":"경기도 부천시 심곡동 174-4번지 2층","indutype":"일반휴게음식 - 일반한식","category":"restaurant"}]},{"lat":"37.492987498","long":"126.78409987","imageIndex":4,"items":[{"name":"아지트","tel":"032-668-1218","addr":"경기도 부천시 심곡동 110-3번지 미도빌딩 1층 일부","indutype":"일반휴게음식 - 주점","category":"restaurant"},{"name":"청정생고기","tel":"032-461-0107","addr":"경기도 부천시 심곡동 110-3번지 미도빌딩 1층","indutype":"일반휴게음식 - 일반한식","category":"restaurant"}]},{"lat":"37.48656456","long":"126.78471786","imageIndex":4,"items":[{"name":"안도초두부","tel":"032-656-3070","addr":"경기도 부천시 심곡동 167-24번지 1층","indutype":"일반휴게음식 - 일반한식","category":"restaurant"}]},{"lat":"37.4914865","long":"126.77182431","imageIndex":4,"items":[{"name":"안성갈비","tel":"032-635-9942","addr":"경기도 부천시 심곡동 320-20번지","indutype":"일반휴게음식 - 일반한식","category":"restaurant"}]},{"lat":"37.488071229","long":"126.78095956","imageIndex":4,"items":[{"name":"안암아줌마치킨","tel":"032-666-0420","addr":"경기도 부천시 심곡동 378-8번지 2층","indutype":"일반휴게음식 - 스넥","category":"restaurant"},{"name":"왕빈자삼파전부천대점","tel":"032-288-2738","addr":"경기도 부천시 심곡동 378-8번지 1층","indutype":"일반휴게음식 - 일반한식","category":"restaurant"}]},{"lat":"37.485151425","long":"126.78549082","imageIndex":4,"items":[{"name":"알콜보건소","tel":"02-1833-5788","addr":"경기도 부천시 심곡동 145-6번지 부천역푸르지오시티 2층 204호","indutype":"일반휴게음식 - 주점","category":"restaurant"},{"name":"코히","tel":"032-654-0531","addr":"경기도 부천시 심곡동 145-6번지 부천역푸르지오시티 104호","indutype":"일반휴게음식 - 서양음식","category":"restaurant"}]},{"lat":"37.485731788","long":"126.77785716","imageIndex":4,"items":[{"name":"알콩달콩음악사랑","tel":"070-7786-1569","addr":"경기도 부천시 심곡동 464-19번지 지하1층 일부","indutype":"일반휴게음식 - 일반한식","category":"restaurant"},{"name":"청양골","tel":"032-668-8802","addr":"경기도 부천시 심곡동 464-19번지","indutype":"일반휴게음식 - 일반한식","category":"restaurant"}]},{"lat":"37.486537676","long":"126.77996911","imageIndex":4,"items":[{"name":"야무진포차","tel":"032-656-8840","addr":"경기도 부천시 심곡동 399-8번지 1층","indutype":"일반휴게음식 - 주점","category":"restaurant"},{"name":"토리도노야","tel":"031-655-1797","addr":"경기도 부천시 심곡동 399-8번지","indutype":"일반휴게음식 - 일반한식","category":"restaurant"}]},{"lat":"37.485623925","long":"126.78277586","imageIndex":4,"items":[{"name":"양지커피호프","tel":"","addr":"경기도 부천시 심곡동 175-1번지 지하1층","indutype":"일반휴게음식 - 주점","category":"restaurant"}]},{"lat":"37.493509253","long":"126.78365735","imageIndex":4,"items":[{"name":"어쭈그리호프","tel":"032-651-3337","addr":"경기도 부천시 심곡동 112-7번지 1층","indutype":"일반휴게음식 - 주점","category":"restaurant"},{"name":"이모식당","tel":"032-652-8637","addr":"경기도 부천시 심곡동 112-7번지 1층 29호 30호","indutype":"일반휴게음식 - 일반한식","category":"restaurant"}]},{"lat":"37.486291025","long":"126.77818338","imageIndex":4,"items":[{"name":"엄마뼈해장국","tel":"031-111-1111","addr":"경기도 부천시 심곡동 398-17번지","indutype":"일반휴게음식 - 일반한식","category":"restaurant"}]},{"lat":"37.491543291","long":"126.78269065","imageIndex":4,"items":[{"name":"엄마손생선구이","tel":"032-663-5400","addr":"경기도 부천시 심곡동 368-26번지 1층 일부","indutype":"일반휴게음식 - 일반한식","category":"restaurant"}]},{"lat":"37.487068759","long":"126.78452418","imageIndex":4,"items":[{"name":"엄마손한정식","tel":"","addr":"경기도 부천시 심곡동 165-25번지 1층","indutype":"일반휴게음식 - 일반한식","category":"restaurant"}]},{"lat":"37.485207485","long":"126.78171427","imageIndex":4,"items":[{"name":"에그드랍","tel":"","addr":"경기도 부천시 심곡동 174-3번지 1층","indutype":"일반휴게음식 - 서양음식","category":"restaurant"}]},{"lat":"37.487236125","long":"126.78246585","imageIndex":4,"items":[{"name":"에스엠","tel":"031-371-1164","addr":"경기도 부천시 심곡동 180-2번지 지하1층","indutype":"일반휴게음식 - 주점","category":"restaurant"},{"name":"육꼬집플러스","tel":"032-653-6992","addr":"경기도 부천시 심곡동 180-2번지 1층","indutype":"일반휴게음식 - 일반한식","category":"restaurant"}]},{"lat":"37.498014315","long":"126.78371203","imageIndex":4,"items":[{"name":"에스티엔커피숍","tel":"032-655-5252","addr":"경기도 부천시 심곡동 36-11번지 KS건영아느칸빌 101호","indutype":"일반휴게음식 - 서양음식","category":"restaurant"}]},{"lat":"37.485008229","long":"126.78116084","imageIndex":4,"items":[{"name":"엘쿡(LCOOK)","tel":"032-516-3217","addr":"경기도 부천시 심곡동 174-11번지 2층 전부","indutype":"일반휴게음식 - 서양음식","category":"restaurant"},{"name":"옛날빈대떡","tel":"032-656-8282","addr":"경기도 부천시 심곡동 174-11번지","indutype":"일반휴게음식 - 일반한식","category":"restaurant"},{"name":"유가네닭갈비","tel":"032-665-9233","addr":"경기도 부천시 심곡동 174-11번지","indutype":"일반휴게음식 - 일반한식","category":"restaurant"}]},{"lat":"37.48754339","long":"126.78785834","imageIndex":4,"items":[{"name":"여기우리","tel":"","addr":"경기도 부천시 심곡동 133-5번지","indutype":"일반휴게음식 - 서양음식","category":"restaurant"}]},{"lat":"37.487095516","long":"126.78437711","imageIndex":4,"items":[{"name":"역전다방","tel":"032-235-3232","addr":"경기도 부천시 심곡동 165-24번지 지하1층","indutype":"일반휴게음식 - 서양음식","category":"restaurant"}]},{"lat":"37.49167787","long":"126.78238495","imageIndex":4,"items":[{"name":"연탄불고기","tel":"032-329-3838","addr":"경기도 부천시 심곡동 368-19번지 1층","indutype":"일반휴게음식 - 일반한식","category":"restaurant"}]},{"lat":"37.486762752","long":"126.77987798","imageIndex":4,"items":[{"name":"연탄제주도니","tel":"070-4319-5950","addr":"경기도 부천시 심곡동 399-2번지 1층","indutype":"일반휴게음식 - 일반한식","category":"restaurant"}]},{"lat":"37.497538905","long":"126.78485557","imageIndex":4,"items":[{"name":"영식당","tel":"032-667-9681","addr":"경기도 부천시 심곡동 82-5번지","indutype":"일반휴게음식 - 일반한식","category":"restaurant"}]},{"lat":"37.489349282","long":"126.78507159","imageIndex":4,"items":[{"name":"영월보쌈","tel":"032-663-5555","addr":"경기도 부천시 심곡동 156-6번지 지하1층,1층","indutype":"일반휴게음식 - 일반한식","category":"restaurant"}]},{"lat":"37.485598381","long":"126.7787734","imageIndex":4,"items":[{"name":"영재네오리촌","tel":"070-7368-9058","addr":"경기도 부천시 심곡동 391-3번지","indutype":"일반휴게음식 - 일반한식","category":"restaurant"}]},{"lat":"37.493761846","long":"126.7790204","imageIndex":4,"items":[{"name":"예빈","tel":"032-663-6551","addr":"경기도 부천시 심곡동 442-17번지","indutype":"일반휴게음식 - 일반한식","category":"restaurant"}]},{"lat":"37.486816377","long":"126.78446838","imageIndex":4,"items":[{"name":"옛날국밥&갈비한판","tel":"032-668-9898","addr":"경기도 부천시 심곡동 165-27번지","indutype":"일반휴게음식 - 일반한식","category":"restaurant"}]},{"lat":"37.498951299","long":"126.78368667","imageIndex":4,"items":[{"name":"옛날찌개돈가네","tel":"032-657-4747","addr":"경기도 부천시 심곡동 35번지 1층","indutype":"일반휴게음식 - 일반한식","category":"restaurant"}]},{"lat":"37.485016347","long":"126.78068594","imageIndex":4,"items":[{"name":"오늘그대와","tel":"","addr":"경기도 부천시 심곡동 384-2번지 1층","indutype":"일반휴게음식 - 서양음식","category":"restaurant"}]},{"lat":"37.486432999","long":"126.78180111","imageIndex":4,"items":[{"name":"오늘은너로정했닭 (오너닭)","tel":"032-000-0000","addr":"경기도 부천시 심곡동 176-15번지 1층","indutype":"일반휴게음식 - 스넥","category":"restaurant"}]},{"lat":"37.491264294","long":"126.77338543","imageIndex":4,"items":[{"name":"오늘통닭","tel":"032-653-8030","addr":"경기도 부천시 심곡동 323-9번지","indutype":"일반휴게음식 - 주점","category":"restaurant"}]},{"lat":"37.487456321","long":"126.77977416","imageIndex":4,"items":[{"name":"오떡","tel":"032-663-5858","addr":"경기도 부천시 심곡동 405-10번지 1층","indutype":"일반휴게음식 - 일반한식","category":"restaurant"}]},{"lat":"37.487709525","long":"126.78509897","imageIndex":4,"items":[{"name":"오복수산","tel":"031-000-0000","addr":"경기도 부천시 심곡동 162-9번지 1층","indutype":"일반휴게음식 - 일식·회집","category":"restaurant"}]},{"lat":"37.487125468","long":"126.78110935","imageIndex":4,"items":[{"name":"오술차 부천역점","tel":"032-655-0957","addr":"경기도 부천시 심곡동 380-3번지 1층","indutype":"일반휴게음식 - 일반한식","category":"restaurant"},{"name":"오술차부천점","tel":"032-655-0957","addr":"경기도 부천시 심곡동 380-3번지","indutype":"일반휴게음식 - 일반한식","category":"restaurant"}]},{"lat":"37.488847248","long":"126.77216035","imageIndex":4,"items":[{"name":"오아시스","tel":"032-657-2427","addr":"경기도 부천시 심곡동 345-20번지 1층 102호","indutype":"일반휴게음식 - 일반한식","category":"restaurant"}]},{"lat":"37.485259967","long":"126.77612867","imageIndex":4,"items":[{"name":"오티오르","tel":"","addr":"경기도 부천시 심곡동 363-6번지 1층 일부","indutype":"일반휴게음식 - 서양음식","category":"restaurant"}]},{"lat":"37.490953666","long":"126.78540616","imageIndex":4,"items":[{"name":"옥동이","tel":"032-611-1716","addr":"경기도 부천시 심곡동 119-4번지 1층","indutype":"일반휴게음식 - 중국식","category":"restaurant"}]},{"lat":"37.486539978","long":"126.77644139","imageIndex":4,"items":[{"name":"옥수","tel":"032-214-7771","addr":"경기도 부천시 심곡동 360-12번지","indutype":"일반휴게음식 - 서양음식","category":"restaurant"}]},{"lat":"37.486903053","long":"126.77316133","imageIndex":4,"items":[{"name":"옥천식당","tel":"032-666-3223","addr":"경기도 부천시 심곡동 358-38번지 1층 일부","indutype":"일반휴게음식 - 일반한식","category":"restaurant"}]},{"lat":"37.48795567","long":"126.78179662","imageIndex":4,"items":[{"name":"옥탑파레트","tel":"","addr":"경기도 부천시 심곡동 192-15번지 2층","indutype":"일반휴게음식 - 서양음식","category":"restaurant"}]},{"lat":"37.486509108","long":"126.77915511","imageIndex":4,"items":[{"name":"왕십리곱창","tel":"032-613-5253","addr":"경기도 부천시 심곡동 400-9번지 1층","indutype":"일반휴게음식 - 일반한식","category":"restaurant"},{"name":"커피사랑 커피호프","tel":"032-614-2525","addr":"경기도 부천시 심곡동 400-9번지 2층","indutype":"일반휴게음식 - 일반한식","category":"restaurant"}]},{"lat":"37.487038477","long":"126.78277171","imageIndex":4,"items":[{"name":"왕십리곱창","tel":"070-8902-9378","addr":"경기도 부천시 심곡동 190-14번지 1층","indutype":"일반휴게음식 - 일반한식","category":"restaurant"},{"name":"정정아식당","tel":"032-614-1108","addr":"경기도 부천시 심곡동 190-14번지 1층 일부","indutype":"일반휴게음식 - 일반한식","category":"restaurant"}]},{"lat":"37.48834661","long":"126.77887826","imageIndex":4,"items":[{"name":"요거프레소","tel":"032-656-9258","addr":"경기도 부천시 심곡동 407-5번지 1층","indutype":"일반휴게음식 - 서양음식","category":"restaurant"}]},{"lat":"37.486458991","long":"126.781247","imageIndex":4,"items":[{"name":"요즘술집","tel":"070-7708-7792","addr":"경기도 부천시 심곡동 381-14번지 지하1층","indutype":"일반휴게음식 - 주점","category":"restaurant"}]},{"lat":"37.486093436","long":"126.788213","imageIndex":4,"items":[{"name":"요치킨","tel":"031-357-2205","addr":"경기도 부천시 심곡동 131-42번지 1층 일부","indutype":"일반휴게음식 - 스넥","category":"restaurant"}]},{"lat":"37.487151647","long":"126.780657","imageIndex":4,"items":[{"name":"용구비어","tel":"032-613-8281","addr":"경기도 부천시 심곡동 380-23번지 1층","indutype":"일반휴게음식 - 일반한식","category":"restaurant"}]},{"lat":"37.493537134","long":"126.77930376","imageIndex":4,"items":[{"name":"용두리추어탕","tel":"032-651-2220","addr":"경기도 부천시 심곡동 442-3번지","indutype":"일반휴게음식 - 일반한식","category":"restaurant"}]},{"lat":"37.487343792","long":"126.78710135","imageIndex":4,"items":[{"name":"우리동네북카페","tel":"032-625-5638","addr":"경기도 부천시 심곡동 135-3번지 1층 일부","indutype":"일반휴게음식 - 서양음식","category":"restaurant"}]},{"lat":"37.489120888","long":"126.77387819","imageIndex":4,"items":[{"name":"우리동네옛날통닭","tel":"032-0000-0000","addr":"경기도 부천시 심곡동 336-31번지 1층","indutype":"일반휴게음식 - 주점","category":"restaurant"}]},{"lat":"37.488648922","long":"126.78638525","imageIndex":4,"items":[{"name":"우리지금여기","tel":"032-719-4401","addr":"경기도 부천시 심곡동 154-2번지 1층 일부","indutype":"일반휴게음식 - 서양음식","category":"restaurant"}]},{"lat":"37.486400687","long":"126.7838025","imageIndex":4,"items":[{"name":"우리집","tel":"032-611-0506","addr":"경기도 부천시 심곡동 168-9번지 1층","indutype":"일반휴게음식 - 일반한식","category":"restaurant"},{"name":"카페드봉봉","tel":"032-663-1433","addr":"경기도 부천시 심곡동 168-9번지 2층","indutype":"일반휴게음식 - 서양음식","category":"restaurant"},{"name":"화룡","tel":"032-665-4429","addr":"경기도 부천시 심곡동 168-9번지 1층","indutype":"일반휴게음식 - 중국식","category":"restaurant"}]},{"lat":"37.484481246","long":"126.7836272","imageIndex":4,"items":[{"name":"우리집밥상","tel":"032-656-7025","addr":"경기도 부천시 심곡동 172-13번지 1층","indutype":"일반휴게음식 - 일반한식","category":"restaurant"}]},{"lat":"37.486786745","long":"126.78796227","imageIndex":4,"items":[{"name":"우아","tel":"032-651-7500","addr":"경기도 부천시 심곡동 135-12번지 1층","indutype":"일반휴게음식 - 일반한식","category":"restaurant"}]},{"lat":"37.490341763","long":"126.7858263","imageIndex":4,"items":[{"name":"우연밥상","tel":"032-613-2323","addr":"경기도 부천시 심곡동 126번지 1층","indutype":"일반휴게음식 - 일반한식","category":"restaurant"},{"name":"푸드딜라이트 부천역점","tel":"070-8616-2223","addr":"경기도 부천시 심곡동 126번지 1층","indutype":"일반휴게음식 - 일반한식","category":"restaurant"}]},{"lat":"37.49370768","long":"126.78376985","imageIndex":4,"items":[{"name":"웅이네오돌뼈","tel":"032-611-9399","addr":"경기도 부천시 심곡동 100-42번지 1층","indutype":"일반휴게음식 - 일반한식","category":"restaurant"}]},{"lat":"37.487841559","long":"126.78832107","imageIndex":4,"items":[{"name":"원주추어탕","tel":"031-261-5675","addr":"경기도 부천시 심곡동 476-9번지 진성빌딩 1층","indutype":"일반휴게음식 - 일반한식","category":"restaurant"}]},{"lat":"37.491344416","long":"126.77288765","imageIndex":4,"items":[{"name":"월드치킨","tel":"032-656-7207","addr":"경기도 부천시 심곡동 322-22번지","indutype":"일반휴게음식 - 주점","category":"restaurant"}]},{"lat":"37.487402471","long":"126.77516111","imageIndex":4,"items":[{"name":"웰빙포차","tel":"070-7377-2809","addr":"경기도 부천시 심곡동 352-24번지 팰리스타운 101동 101호","indutype":"일반휴게음식 - 일반한식","category":"restaurant"}]},{"lat":"37.494096654","long":"126.78460549","imageIndex":4,"items":[{"name":"유니콩(UNI-CONG)","tel":"032-666-2963","addr":"경기도 부천시 심곡동 93-6번지 대림하이츠 1층 101,102호","indutype":"일반휴게음식 - 서양음식","category":"restaurant"}]},{"lat":"37.4848771","long":"126.78821648","imageIndex":4,"items":[{"name":"유대감","tel":"032-661-0508","addr":"경기도 부천시 심곡동 129-2번지 1층","indutype":"일반휴게음식 - 일반한식","category":"restaurant"}]},{"lat":"37.487653641","long":"126.77929868","imageIndex":4,"items":[{"name":"유리즉석떡볶이","tel":"032-654-5393","addr":"경기도 부천시 심곡동 406-33번지 1층","indutype":"일반휴게음식 - 일반한식","category":"restaurant"}]},{"lat":"37.487646893","long":"126.78049724","imageIndex":4,"items":[{"name":"육회이야기","tel":"","addr":"경기도 부천시 심곡동 379-12번지","indutype":"일반휴게음식 - 일반한식","category":"restaurant"}]},{"lat":"37.49028632","long":"126.78024065","imageIndex":4,"items":[{"name":"윤가네","tel":"032-323-2777","addr":"경기도 부천시 심곡동 426-4번지","indutype":"일반휴게음식 - 일반한식","category":"restaurant"}]},{"lat":"37.490594082","long":"126.78584819","imageIndex":4,"items":[{"name":"은성호프","tel":"070-7333-6165","addr":"경기도 부천시 심곡동 119-7번지","indutype":"일반휴게음식 - 주점","category":"restaurant"}]},{"lat":"37.492118295","long":"126.77238775","imageIndex":4,"items":[{"name":"은행나무사철탕","tel":"032-668-6781","addr":"경기도 부천시 심곡동 308-1번지 1층","indutype":"일반휴게음식 - 일반한식","category":"restaurant"}]},{"lat":"37.484788671","long":"126.78421424","imageIndex":4,"items":[{"name":"은혜다방","tel":"032-328-6428","addr":"경기도 부천시 심곡동 171-1번지 2층","indutype":"일반휴게음식 - 서양음식","category":"restaurant"},{"name":"은혜맥주","tel":"032-111-1111","addr":"경기도 부천시 심곡동 171-1번지 2층","indutype":"일반휴게음식 - 주점","category":"restaurant"}]},{"lat":"37.488622222","long":"126.77227411","imageIndex":4,"items":[{"name":"이가네전","tel":"032-655-7916","addr":"경기도 부천시 심곡동 345-15번지 1층","indutype":"일반휴게음식 - 일반한식","category":"restaurant"}]},{"lat":"37.486539655","long":"126.78102063","imageIndex":4,"items":[{"name":"이거매운족발","tel":"032-656-5892","addr":"경기도 부천시 심곡동 381-1번지 1층","indutype":"일반휴게음식 - 일반한식","category":"restaurant"},{"name":"크라운호프 부천역점","tel":"","addr":"경기도 부천시 심곡동 381-1번지 1층","indutype":"일반휴게음식 - 주점","category":"restaurant"}]},{"lat":"37.486428325","long":"126.78413031","imageIndex":4,"items":[{"name":"이대째 삼백청국장","tel":"032-656-9992","addr":"경기도 부천시 심곡동 167-3번지 1층","indutype":"일반휴게음식 - 일반한식","category":"restaurant"}]},{"lat":"37.491204608","long":"126.78468175","imageIndex":4,"items":[{"name":"이디야(부천심곡점)","tel":"032-656-5602","addr":"경기도 부천시 심곡동 120-22번지 풍산메디칼프라자 103호","indutype":"일반휴게음식 - 서양음식","category":"restaurant"}]},{"lat":"37.485952801","long":"126.78037788","imageIndex":4,"items":[{"name":"이맛이야김밥전문점","tel":"032-611-5611","addr":"경기도 부천시 심곡동 383-7,8,12,17 프리존빌딩 102","indutype":"일반휴게음식 - 일반한식","category":"restaurant"}]},{"lat":"37.491148832","long":"126.77424515","imageIndex":4,"items":[{"name":"이맛치킨","tel":"032-654-9279","addr":"경기도 부천시 심곡동 323-18번지 1층","indutype":"일반휴게음식 - 일반한식","category":"restaurant"}]},{"lat":"37.492232036","long":"126.77065733","imageIndex":4,"items":[{"name":"이모네밥상","tel":"032-652-5565","addr":"경기도 부천시 심곡동 314-1번지 1층","indutype":"일반휴게음식 - 일반한식","category":"restaurant"}]},{"lat":"37.489817441","long":"126.78487801","imageIndex":4,"items":[{"name":"이슬","tel":"032-328-6428","addr":"경기도 부천시 심곡동 157-10번지 2층","indutype":"일반휴게음식 - 주점","category":"restaurant"}]},{"lat":"37.493654501","long":"126.78424493","imageIndex":4,"items":[{"name":"이슬이호프","tel":"032-656-2508","addr":"경기도 부천시 심곡동 94-5번지 가나빌딩 1층","indutype":"일반휴게음식 - 일반한식","category":"restaurant"},{"name":"주철판","tel":"","addr":"경기도 부천시 심곡동 94-5번지 가나빌딩 1층","indutype":"일반휴게음식 - 일반한식","category":"restaurant"},{"name":"호프광장","tel":"032-655-7667","addr":"경기도 부천시 심곡동 94-5번지 가나빌딩 2층","indutype":"일반휴게음식 - 주점","category":"restaurant"}]},{"lat":"37.493736259","long":"126.78460654","imageIndex":4,"items":[{"name":"이조반점","tel":"032-321-9566","addr":"경기도 부천시 심곡동 93-13번지 1층","indutype":"일반휴게음식 - 중국식","category":"restaurant"}]},{"lat":"37.486068372","long":"126.77955215","imageIndex":4,"items":[{"name":"이층술집","tel":"","addr":"경기도 부천시 심곡동 394-3번지 18층 2층","indutype":"일반휴게음식 - 일반한식","category":"restaurant"},{"name":"청자다방","tel":"032-663-2703","addr":"경기도 부천시 심곡동 394-3번지","indutype":"일반휴게음식 - 서양음식","category":"restaurant"}]},{"lat":"37.489704237","long":"126.78701541","imageIndex":4,"items":[{"name":"일층카페","tel":"032-661-5475","addr":"경기도 부천시 심곡동 123-9번지 1층","indutype":"일반휴게음식 - 서양음식","category":"restaurant"}]},{"lat":"37.490403251","long":"126.78496677","imageIndex":4,"items":[{"name":"임실왕순대족발","tel":"032-343-6127","addr":"경기도 부천시 심곡동 122-4번지","indutype":"일반휴게음식 - 일반한식","category":"restaurant"}]},{"lat":"37.487875046","long":"126.78204561","imageIndex":4,"items":[{"name":"자갈치식당","tel":"032-613-8780","addr":"경기도 부천시 심곡동 192-13번지","indutype":"일반휴게음식 - 일반한식","category":"restaurant"}]},{"lat":"37.489708048","long":"126.78418859","imageIndex":4,"items":[{"name":"자유커피호프","tel":"032-612-6848","addr":"경기도 부천시 심곡동 158-2번지 지하1층","indutype":"일반휴게음식 - 주점","category":"restaurant"}]},{"lat":"37.487738246","long":"126.78116407","imageIndex":4,"items":[{"name":"자카","tel":"032-204-2777","addr":"경기도 부천시 심곡동 378-5번지","indutype":"일반휴게음식 - 주점","category":"restaurant"}]},{"lat":"37.487958131","long":"126.77363299","imageIndex":4,"items":[{"name":"작업실 쉼","tel":"031-000-0000","addr":"경기도 부천시 심곡동 346-9번지 1층","indutype":"일반휴게음식 - 서양음식","category":"restaurant"}]},{"lat":"37.489592611","long":"126.78510481","imageIndex":4,"items":[{"name":"장군이네포차","tel":"032-613-6400","addr":"경기도 부천시 심곡동 155-1번지 1층","indutype":"일반휴게음식 - 주점","category":"restaurant"},{"name":"포시즌차이나","tel":"032-611-1159","addr":"경기도 부천시 심곡동 155-1번지 1층","indutype":"일반휴게음식 - 일반한식","category":"restaurant"}]},{"lat":"37.490788547","long":"126.77430278","imageIndex":4,"items":[{"name":"장금이맛분식살아있네","tel":"032-564-3865","addr":"경기도 부천시 심곡동 323-22번지","indutype":"일반휴게음식 - 스넥","category":"restaurant"}]},{"lat":"37.493654048","long":"126.77919034","imageIndex":4,"items":[{"name":"장어명가","tel":"032-664-6190","addr":"경기도 부천시 심곡동 442-18번지","indutype":"일반휴게음식 - 일반한식","category":"restaurant"}]},{"lat":"37.488877167","long":"126.78312814","imageIndex":4,"items":[{"name":"장원물갈비","tel":"","addr":"경기도 부천시 심곡동 350-1번지 1층","indutype":"일반휴게음식 - 일반한식","category":"restaurant"}]},{"lat":"37.492567881","long":"126.78133072","imageIndex":4,"items":[{"name":"장터골","tel":"032-655-8836","addr":"경기도 부천시 심곡동 438-5번지 1층","indutype":"일반휴게음식 - 일반한식","category":"restaurant"}]},{"lat":"37.485513812","long":"126.7865752","imageIndex":4,"items":[{"name":"전장군숯불갈비심곡점","tel":"032-666-6992","addr":"경기도 부천시 심곡동 138-5번지 101,102,104호","indutype":"일반휴게음식 - 일반한식","category":"restaurant"}]},{"lat":"37.492233411","long":"126.78074371","imageIndex":4,"items":[{"name":"전주직화제육볶음&콩나물국밥","tel":"032-612-1005","addr":"경기도 부천시 심곡동 437-20번지 1층 일부","indutype":"일반휴게음식 - 일반한식","category":"restaurant"}]},{"lat":"37.487762979","long":"126.78477091","imageIndex":4,"items":[{"name":"정곤네","tel":"032-655-5121","addr":"경기도 부천시 심곡동 162-26번지 1층","indutype":"일반휴게음식 - 일반한식","category":"restaurant"},{"name":"제갈카오위","tel":"032-666-9200","addr":"경기도 부천시 심곡동 162-26번지 1층","indutype":"일반휴게음식 - 중국식","category":"restaurant"}]},{"lat":"37.485455803","long":"126.78935679","imageIndex":4,"items":[{"name":"정미","tel":"032-668-6670","addr":"경기도 부천시 심곡동 124-14번지 1층","indutype":"일반휴게음식 - 주점","category":"restaurant"},{"name":"토종돼지볶음찌개","tel":"032-655-9922","addr":"경기도 부천시 심곡동 124-14번지 성창빌딩 1층","indutype":"일반휴게음식 - 일반한식","category":"restaurant"}]},{"lat":"37.487650059","long":"126.77274068","imageIndex":4,"items":[{"name":"정호프","tel":"032-613-4646","addr":"경기도 부천시 심곡동 357-4번지 1층","indutype":"일반휴게음식 - 주점","category":"restaurant"}]},{"lat":"37.48659901","long":"126.78385845","imageIndex":4,"items":[{"name":"제이시선명양꼬치","tel":"","addr":"경기도 부천시 심곡동 168-10번지 1층 일부","indutype":"일반휴게음식 - 중국식","category":"restaurant"},{"name":"파랑새","tel":"032-667-7554","addr":"경기도 부천시 심곡동 168-10번지","indutype":"일반휴게음식 - 주점","category":"restaurant"}]},{"lat":"37.492070147","long":"126.77080483","imageIndex":4,"items":[{"name":"조가네사골순대국","tel":"032-654-5797","addr":"경기도 부천시 심곡동 314-28번지","indutype":"일반휴게음식 - 일반한식","category":"restaurant"}]},{"lat":"37.494348114","long":"126.78416375","imageIndex":4,"items":[{"name":"조선닭볶음탕","tel":"032-666-1230","addr":"경기도 부천시 심곡동 96-28번지 1층 일부","indutype":"일반휴게음식 - 일반한식","category":"restaurant"}]},{"lat":"37.487405389","long":"126.78143642","imageIndex":4,"items":[{"name":"죠스떡볶이 부천역점","tel":"032-656-2868","addr":"경기도 부천시 심곡동 379-32번지 1층","indutype":"일반휴게음식 - 스넥","category":"restaurant"}]},{"lat":"37.487820013","long":"126.78152565","imageIndex":4,"items":[{"name":"주당센타 닭치고","tel":"032-652-1980","addr":"경기도 부천시 심곡동 378-27번지 지층","indutype":"일반휴게음식 - 일반한식","category":"restaurant"}]},{"lat":"37.484318816","long":"126.78349199","imageIndex":4,"items":[{"name":"주식회사나현/홀스테드커피","tel":"032-258-0110","addr":"경기도 부천시 심곡동 172-15번지","indutype":"일반휴게음식 - 서양음식","category":"restaurant"}]},{"lat":"37.487563499","long":"126.77927634","imageIndex":4,"items":[{"name":"주희롱","tel":"031-000-0000","addr":"경기도 부천시 심곡동 406-28번지 장인빌딩 101호","indutype":"일반휴게음식 - 서양음식","category":"restaurant"}]},{"lat":"37.48870997","long":"126.77571119","imageIndex":4,"items":[{"name":"준앤권푸드","tel":"032-651-5392","addr":"경기도 부천시 심곡동 340-26번지 1층","indutype":"일반휴게음식 - 일반한식","category":"restaurant"}]},{"lat":"37.489182366","long":"126.78251666","imageIndex":4,"items":[{"name":"중동그집쭈꾸미","tel":"070-7311-9877","addr":"경기도 부천시 심곡동 354-11번지 1층","indutype":"일반휴게음식 - 일반한식","category":"restaurant"}]},{"lat":"37.489316189","long":"126.7770436","imageIndex":4,"items":[{"name":"즐겨찾기","tel":"032-613-6293","addr":"경기도 부천시 심곡동 329-28번지 1층","indutype":"일반휴게음식 - 주점","category":"restaurant"}]},{"lat":"37.487844608","long":"126.77549898","imageIndex":4,"items":[{"name":"지짐이","tel":"032-611-7463","addr":"경기도 부천시 심곡동 348번지","indutype":"일반휴게음식 - 일반한식","category":"restaurant"}]},{"lat":"37.484731988","long":"126.78280109","imageIndex":4,"items":[{"name":"직화한상 부천역점","tel":"032-614-6282","addr":"경기도 부천시 심곡동 498번지 지하1층 B-16호","indutype":"일반휴게음식 - 일반한식","category":"restaurant"}]},{"lat":"37.4875382","long":"126.78019227","imageIndex":4,"items":[{"name":"진미마라탕","tel":"032-655-9313","addr":"경기도 부천시 심곡동 405-20번지","indutype":"일반휴게음식 - 일반한식","category":"restaurant"}]},{"lat":"37.48768287","long":"126.78530257","imageIndex":4,"items":[{"name":"진부령황태덕장","tel":"032-613-6744","addr":"경기도 부천시 심곡동 162-17번지","indutype":"일반휴게음식 - 일반한식","category":"restaurant"},{"name":"행복한지짐이","tel":"032-665-4625","addr":"경기도 부천시 심곡동 162-17번지 1층","indutype":"일반휴게음식 - 일반한식","category":"restaurant"}]},{"lat":"37.489953678","long":"126.78062609","imageIndex":4,"items":[{"name":"진지하게 달콤","tel":"031-000-0000","addr":"경기도 부천시 심곡동 425-1번지 리안파크빌 1층 101호","indutype":"일반휴게음식 - 서양음식","category":"restaurant"}]},{"lat":"37.492792448","long":"126.78096821","imageIndex":4,"items":[{"name":"진짜사나이포차","tel":"032-666-5292","addr":"경기도 부천시 심곡동 440-9번지 방주빌딩","indutype":"일반휴게음식 - 주점","category":"restaurant"}]},{"lat":"37.489625726","long":"126.77402364","imageIndex":4,"items":[{"name":"집밥부반장","tel":"032-613-5733","addr":"경기도 부천시 심곡동 334-9번지 1층","indutype":"일반휴게음식 - 일반한식","category":"restaurant"}]},{"lat":"37.488043477","long":"126.78057521","imageIndex":4,"items":[{"name":"짚신매운갈비찜","tel":"032-662-2830","addr":"경기도 부천시 심곡동 378-14번지 1층","indutype":"일반휴게음식 - 일반한식","category":"restaurant"}]},{"lat":"37.485792622","long":"126.78630304","imageIndex":4,"items":[{"name":"짬뽕나라","tel":"032-655-6565","addr":"경기도 부천시 심곡동 146-1번지 태정빌딩 1층","indutype":"일반휴게음식 - 중국식","category":"restaurant"}]},{"lat":"37.485538878","long":"126.78066178","imageIndex":4,"items":[{"name":"짱이네매콤돈가스&냉면","tel":"032-611-9977","addr":"경기도 부천시 심곡동 383-6번지 1층","indutype":"일반휴게음식 - 스넥","category":"restaurant"}]},{"lat":"37.486953007","long":"126.78527077","imageIndex":4,"items":[{"name":"짱커피호프","tel":"032-651-3529","addr":"경기도 부천시 심곡동 165-18번지 정영빌딩","indutype":"일반휴게음식 - 주점","category":"restaurant"}]},{"lat":"37.490844932","long":"126.78023899","imageIndex":4,"items":[{"name":"짱한분식","tel":"032-612-1550","addr":"경기도 부천시 심곡동 428-18번지 1층","indutype":"일반휴게음식 - 스넥","category":"restaurant"}]},{"lat":"37.486484743","long":"126.78540781","imageIndex":4,"items":[{"name":"차향마을","tel":"032-654-6200","addr":"경기도 부천시 심곡동 147-7번지 1층","indutype":"일반휴게음식 - 일반한식","category":"restaurant"}]},{"lat":"37.493761116","long":"126.77863593","imageIndex":4,"items":[{"name":"참나무숯불통닭","tel":"032-665-2002","addr":"경기도 부천시 심곡동 442-9번지","indutype":"일반휴게음식 - 스넥","category":"restaurant"}]},{"lat":"37.484539563","long":"126.78593354","imageIndex":4,"items":[{"name":"참다랑e","tel":"032-000-0000","addr":"경기도 부천시 심곡동 144-9번지 1층","indutype":"일반휴게음식 - 일식·회집","category":"restaurant"}]},{"lat":"37.485487134","long":"126.78676749","imageIndex":4,"items":[{"name":"참숯한우천국","tel":"032-661-3035","addr":"경기도 부천시 심곡동 138-3번지 1층","indutype":"일반휴게음식 - 일반한식","category":"restaurant"}]},{"lat":"37.487510849","long":"126.78485079","imageIndex":4,"items":[{"name":"창량리할머니냉면","tel":"032-667-5570","addr":"경기도 부천시 심곡동 163-22번지","indutype":"일반휴게음식 - 일반한식","category":"restaurant"}]},{"lat":"37.485231952","long":"126.78518531","imageIndex":4,"items":[{"name":"채상궁","tel":"032-613-4942","addr":"경기도 부천시 심곡동 145-11번지 2층","indutype":"일반휴게음식 - 일반한식","category":"restaurant"}]},{"lat":"37.491566725","long":"126.77138307","imageIndex":4,"items":[{"name":"처음","tel":"032-612-1103","addr":"경기도 부천시 심곡동 320-24번지","indutype":"일반휴게음식 - 주점","category":"restaurant"}]},{"lat":"37.496376569","long":"126.78482502","imageIndex":4,"items":[{"name":"천리장성","tel":"032-664-4471","addr":"경기도 부천시 심곡동 87-8번지 1층","indutype":"일반휴게음식 - 중국식","category":"restaurant"}]},{"lat":"37.485321488","long":"126.78487977","imageIndex":4,"items":[{"name":"천지감뼈감자탕","tel":"032-612-5007","addr":"경기도 부천시 심곡동 170-1번지","indutype":"일반휴게음식 - 일반한식","category":"restaurant"},{"name":"커피랑","tel":"02-1600-6589","addr":"경기도 부천시 심곡동 170-1번지 1층","indutype":"일반휴게음식 - 서양음식","category":"restaurant"}]},{"lat":"37.487127901","long":"126.78240963","imageIndex":4,"items":[{"name":"청기와뼈다귀해장국","tel":"032-611-6868","addr":"경기도 부천시 심곡동 180-16번지","indutype":"일반휴게음식 - 일반한식","category":"restaurant"}]},{"lat":"37.486822556","long":"126.78294195","imageIndex":4,"items":[{"name":"청년다방 부천역점","tel":"032-656-1700","addr":"경기도 부천시 심곡동 177-1번지 103호","indutype":"일반휴게음식 - 일반한식","category":"restaurant"}]},{"lat":"37.48726425","long":"126.78305372","imageIndex":4,"items":[{"name":"청담수제돈가스초밥","tel":"032-613-2500","addr":"경기도 부천시 심곡동 190-10번지 계동빌딩 1층 2호","indutype":"일반휴게음식 - 일반한식","category":"restaurant"}]},{"lat":"37.486539587","long":"126.77623787","imageIndex":4,"items":[{"name":"청진동해장국","tel":"032-652-2149","addr":"경기도 부천시 심곡동 360-10번지 1층 일부","indutype":"일반휴게음식 - 일반한식","category":"restaurant"}]},{"lat":"37.496070192","long":"126.7848033","imageIndex":4,"items":[{"name":"청초수물회전문점","tel":"032-656-2772","addr":"경기도 부천시 심곡동 89-2번지 1층","indutype":"일반휴게음식 - 일반한식","category":"restaurant"}]},{"lat":"37.487872594","long":"126.7759964","imageIndex":4,"items":[{"name":"청춘을요리하다","tel":"","addr":"경기도 부천시 심곡동 348-18번지 1층 일부","indutype":"일반휴게음식 - 일반한식","category":"restaurant"}]},{"lat":"37.487569238","long":"126.78232918","imageIndex":4,"items":[{"name":"청춘포차 부천역직영점","tel":"032-552-5588","addr":"경기도 부천시 심곡동 192-6번지","indutype":"일반휴게음식 - 일반한식","category":"restaurant"}]},{"lat":"37.485516774","long":"126.78329628","imageIndex":4,"items":[{"name":"초록커피맥주","tel":"070-6215-8857","addr":"경기도 부천시 심곡동 170-7번지 지하1층","indutype":"일반휴게음식 - 서양음식","category":"restaurant"}]},{"lat":"37.487067733","long":"126.78397015","imageIndex":4,"items":[{"name":"초원샤브샤브뷔페","tel":"032-663-5678","addr":"경기도 부천시 심곡동 164-9번지 1층","indutype":"일반휴게음식 - 중국식","category":"restaurant"}]},{"lat":"37.486627107","long":"126.78443501","imageIndex":4,"items":[{"name":"초이호프","tel":"032-611-6933","addr":"경기도 부천시 심곡동 167-20번지 지하1층","indutype":"일반휴게음식 - 주점","category":"restaurant"}]},{"lat":"37.491146899","long":"126.78271443","imageIndex":4,"items":[{"name":"최가네 식당","tel":"031-657-7270","addr":"경기도 부천시 심곡동 367-2번지","indutype":"일반휴게음식 - 일반한식","category":"restaurant"}]},{"lat":"37.487314293","long":"126.78090527","imageIndex":4,"items":[{"name":"치치 부천대점","tel":"032-244-0077","addr":"경기도 부천시 심곡동 379-23번지 지층","indutype":"일반휴게음식 - 주점","category":"restaurant"}]},{"lat":"37.487511057","long":"126.78496386","imageIndex":4,"items":[{"name":"칠공통닭","tel":"032-663-1515","addr":"경기도 부천시 심곡동 163-1번지","indutype":"일반휴게음식 - 스넥","category":"restaurant"}]},{"lat":"37.497458171","long":"126.78504805","imageIndex":4,"items":[{"name":"칠연식당","tel":"032-654-9091","addr":"경기도 부천시 심곡동 78-2번지","indutype":"일반휴게음식 - 일반한식","category":"restaurant"}]},{"lat":"37.48557119","long":"126.78348833","imageIndex":4,"items":[{"name":"카페(cafe)기다려.봄","tel":"032-655-5825","addr":"경기도 부천시 심곡동 170-4번지 조은빌딩 2층","indutype":"일반휴게음식 - 서양음식","category":"restaurant"}]},{"lat":"37.486653635","long":"126.78416357","imageIndex":4,"items":[{"name":"카페12월32일","tel":"032-322-8808","addr":"경기도 부천시 심곡동 167-2번지 1층","indutype":"일반휴게음식 - 서양음식","category":"restaurant"}]},{"lat":"37.486571414","long":"126.78355325","imageIndex":4,"items":[{"name":"카페글라스하우스","tel":"032-656-5656","addr":"경기도 부천시 심곡동 168-7번지 2층 일부","indutype":"일반휴게음식 - 서양음식","category":"restaurant"}]},{"lat":"37.485789501","long":"126.78460705","imageIndex":4,"items":[{"name":"카페글랜(부천역점)","tel":"032-667-1077","addr":"경기도 부천시 심곡동 169-8번지 1층","indutype":"일반휴게음식 - 서양음식","category":"restaurant"}]},{"lat":"37.488952602","long":"126.78010892","imageIndex":4,"items":[{"name":"카페나빌레라","tel":"070-7355-0844","addr":"경기도 부천시 심곡동 420-24번지","indutype":"일반휴게음식 - 서양음식","category":"restaurant"}]},{"lat":"37.490344387","long":"126.78237756","imageIndex":4,"items":[{"name":"카페더 (Cafe The)","tel":"032-004-5942","addr":"경기도 부천시 심곡동 365-15번지 금강빌딩 1층 일부","indutype":"일반휴게음식 - 서양음식","category":"restaurant"}]},{"lat":"37.487955906","long":"126.7867943","imageIndex":4,"items":[{"name":"카페동네","tel":"032-661-2274","addr":"경기도 부천시 심곡동 153-16번지","indutype":"일반휴게음식 - 서양음식","category":"restaurant"}]},{"lat":"37.489598683","long":"126.77871622","imageIndex":4,"items":[{"name":"카페드림(부천대꿈집점)","tel":"02-866-6451","addr":"경기도 부천시 심곡동 424번지 부천대학 꿈집동 2층","indutype":"일반휴게음식 - 서양음식","category":"restaurant"},{"name":"카페드림(부천대한길관점)","tel":"02-866-6451","addr":"경기도 부천시 심곡동 424번지 부천대학 1층 한길관동","indutype":"일반휴게음식 - 서양음식","category":"restaurant"}]},{"lat":"37.490238079","long":"126.7833503","imageIndex":4,"items":[{"name":"카페쁘레뚜(Cafepreto)부천효메디병원점","tel":"","addr":"경기도 부천시 심곡동 365-1번지 한국몬테소리빌딩 102호","indutype":"일반휴게음식 - 서양음식","category":"restaurant"}]},{"lat":"37.489536798","long":"126.78415517","imageIndex":4,"items":[{"name":"카페숲","tel":"","addr":"경기도 부천시 심곡동 158-13번지 1층 일부","indutype":"일반휴게음식 - 서양음식","category":"restaurant"}]},{"lat":"37.490484173","long":"126.78487607","imageIndex":4,"items":[{"name":"커피랑토스트랑","tel":"","addr":"경기도 부천시 심곡동 122-3번지 1층 일부","indutype":"일반휴게음식 - 서양음식","category":"restaurant"}]},{"lat":"37.488537358","long":"126.7796918","imageIndex":4,"items":[{"name":"커피만부천대점","tel":"031-000-0000","addr":"경기도 부천시 심곡동 409-13번지 해성빌딩 1층","indutype":"일반휴게음식 - 서양음식","category":"restaurant"},{"name":"푸드팬","tel":"032-425-8377","addr":"경기도 부천시 심곡동 409-13번지 해성빌딩 1층","indutype":"일반휴게음식 - 일반한식","category":"restaurant"},{"name":"프린세스","tel":"032-655-5533","addr":"경기도 부천시 심곡동 409-13번지","indutype":"일반휴게음식 - 서양음식","category":"restaurant"}]},{"lat":"37.488044412","long":"126.78107271","imageIndex":4,"items":[{"name":"커피베이 부천대점","tel":"032-668-3449","addr":"경기도 부천시 심곡동 378-7번지 1층2층","indutype":"일반휴게음식 - 서양음식","category":"restaurant"}]},{"lat":"37.4886251","long":"126.78324195","imageIndex":4,"items":[{"name":"커피콩이","tel":"032-663-3455","addr":"경기도 부천시 심곡동 349-3번지 노마즈하우스 105호","indutype":"일반휴게음식 - 서양음식","category":"restaurant"}]},{"lat":"37.48598575","long":"126.78354365","imageIndex":4,"items":[{"name":"컴포즈","tel":"032-612-0083","addr":"경기도 부천시 심곡동 168-8번지 1층","indutype":"일반휴게음식 - 서양음식","category":"restaurant"}]},{"lat":"37.49617783","long":"126.7845429","imageIndex":4,"items":[{"name":"컵 오브 커피심곡1동점","tel":"032-654-5800","addr":"경기도 부천시 심곡동 91-1번지 성도리치빌 1층 101호","indutype":"일반휴게음식 - 서양음식","category":"restaurant"}]},{"lat":"37.4844011","long":"126.78413622","imageIndex":4,"items":[{"name":"케이(K)마라양꼬치부천22호점","tel":"070-7399-6878","addr":"경기도 부천시 심곡동 172-5번지 1층","indutype":"일반휴게음식 - 일반한식","category":"restaurant"}]},{"lat":"37.487958516","long":"126.78332305","imageIndex":4,"items":[{"name":"코지엠커피","tel":"","addr":"경기도 부천시 심곡동 349-9번지 1, 2 ,3층","indutype":"일반휴게음식 - 서양음식","category":"restaurant"}]},{"lat":"37.486375221","long":"126.7798226","imageIndex":4,"items":[{"name":"코코케이크 부천역점","tel":"032-719-4535","addr":"경기도 부천시 심곡동 399-12번지 1층 일부","indutype":"일반휴게음식 - 서양음식","category":"restaurant"}]},{"lat":"37.489322119","long":"126.77543797","imageIndex":4,"items":[{"name":"코하루","tel":"070-8260-3322","addr":"경기도 부천시 심곡동 330-33번지 1층","indutype":"일반휴게음식 - 일반한식","category":"restaurant"}]},{"lat":"37.492599402","long":"126.78373916","imageIndex":4,"items":[{"name":"콩순이네분식포차","tel":"032-651-1150","addr":"경기도 부천시 심곡동 114-5번지 1층","indutype":"일반휴게음식 - 일반한식","category":"restaurant"}]},{"lat":"37.48790235","long":"126.78219252","imageIndex":4,"items":[{"name":"콩이야기","tel":"032-611-8222","addr":"경기도 부천시 심곡동 192-12번지","indutype":"일반휴게음식 - 일반한식","category":"restaurant"}]},{"lat":"37.488761592","long":"126.78396521","imageIndex":4,"items":[{"name":"큰손왕만두","tel":"032-652-0026","addr":"경기도 부천시 심곡동 161-1번지 1층 일부","indutype":"일반휴게음식 - 스넥","category":"restaurant"}]},{"lat":"37.484706409","long":"126.78358131","imageIndex":4,"items":[{"name":"큰손할매순대국부천역점","tel":"032-507-8949","addr":"경기도 부천시 심곡동 171-10번지 1층","indutype":"일반휴게음식 - 일반한식","category":"restaurant"},{"name":"하니호프","tel":"032-653-9074","addr":"경기도 부천시 심곡동 171-10번지 지하","indutype":"일반휴게음식 - 일반한식","category":"restaurant"}]},{"lat":"37.491513237","long":"126.78107376","imageIndex":4,"items":[{"name":"키친윌리암","tel":"","addr":"경기도 부천시 심곡동 431-20번지 1층 2호","indutype":"일반휴게음식 - 서양음식","category":"restaurant"}]},{"lat":"37.486844737","long":"126.78035263","imageIndex":4,"items":[{"name":"킷사텐","tel":"","addr":"경기도 부천시 심곡동 380-19번지 오케이빌딩 1층 일부","indutype":"일반휴게음식 - 서양음식","category":"restaurant"}]},{"lat":"37.48928645","long":"126.7756303","imageIndex":4,"items":[{"name":"타로사주식당","tel":"02-111-1111","addr":"경기도 부천시 심곡동 330-20번지 1층","indutype":"일반휴게음식 - 스넥","category":"restaurant"}]},{"lat":"37.492904814","long":"126.78324073","imageIndex":4,"items":[{"name":"타로한잔","tel":"","addr":"경기도 부천시 심곡동 114-11번지 1층","indutype":"일반휴게음식 - 주점","category":"restaurant"},{"name":"호식이두마리치킨 (심곡점)","tel":"032-611-9980","addr":"경기도 부천시 심곡동 114-11번지 1층 일부","indutype":"일반휴게음식 - 스넥","category":"restaurant"}]},{"lat":"37.484818023","long":"126.78062999","imageIndex":4,"items":[{"name":"태백산주먹고기","tel":"032-665-2223","addr":"경기도 부천시 심곡동 386-3번지","indutype":"일반휴게음식 - 일반한식","category":"restaurant"}]},{"lat":"37.492987037","long":"126.78385111","imageIndex":4,"items":[{"name":"태화족발보쌈","tel":"032-676-0906","addr":"경기도 부천시 심곡동 112-24번지 1층","indutype":"일반휴게음식 - 일반한식","category":"restaurant"}]},{"lat":"37.493177145","long":"126.77951968","imageIndex":4,"items":[{"name":"토담생고기","tel":"","addr":"경기도 부천시 심곡동 443-14번지 1층","indutype":"일반휴게음식 - 일반한식","category":"restaurant"}]},{"lat":"37.487760046","long":"126.78318795","imageIndex":4,"items":[{"name":"토토김밥","tel":"032-668-3800","addr":"경기도 부천시 심곡동 190-2번지","indutype":"일반휴게음식 - 일반한식","category":"restaurant"}]},{"lat":"37.486457099","long":"126.78024071","imageIndex":4,"items":[{"name":"통일숯불갈비","tel":"032-654-6115","addr":"경기도 부천시 심곡동 382-8번지","indutype":"일반휴게음식 - 일반한식","category":"restaurant"},{"name":"통일식당","tel":"032-654-6115","addr":"경기도 부천시 심곡동 382-8번지","indutype":"일반휴게음식 - 일반한식","category":"restaurant"}]},{"lat":"37.485647609","long":"126.77624057","imageIndex":4,"items":[{"name":"통큰가리비칼국수","tel":"032-666-8289","addr":"경기도 부천시 심곡동 363-21번지","indutype":"일반휴게음식 - 일반한식","category":"restaurant"}]},{"lat":"37.49034726","long":"126.77440589","imageIndex":4,"items":[{"name":"투다리(장말점)","tel":"032-654-8447","addr":"경기도 부천시 심곡동 325-34번지 1층","indutype":"일반휴게음식 - 일반한식","category":"restaurant"}]},{"lat":"37.485845108","long":"126.78060434","imageIndex":4,"items":[{"name":"투썸플레이스 부천역로데오점","tel":"032-657-7955","addr":"경기도 부천시 심곡동 383-15번지 한림빌딩 1층","indutype":"일반휴게음식 - 서양음식","category":"restaurant"}]},{"lat":"37.488033184","long":"126.77517051","imageIndex":4,"items":[{"name":"투존치킨","tel":"032-612-9963","addr":"경기도 부천시 심곡동 347-40번지 강남센스빌 B동 101호","indutype":"일반휴게음식 - 스넥","category":"restaurant"}]},{"lat":"37.485009197","long":"126.78654274","imageIndex":4,"items":[{"name":"파비아관광호텔/식당","tel":"032-614-7500","addr":"경기도 부천시 심곡동 139-4번지","indutype":"일반휴게음식 - 서양음식","category":"restaurant"}]},{"lat":"37.4889326","long":"126.77435366","imageIndex":4,"items":[{"name":"파스토보이부천점","tel":"032-611-0842","addr":"경기도 부천시 심곡동 339-34번지 1층","indutype":"일반휴게음식 - 서양음식","category":"restaurant"}]},{"lat":"37.488674445","long":"126.78072033","imageIndex":4,"items":[{"name":"폭식당","tel":"031-1111-1111","addr":"경기도 부천시 심곡동 377-12번지","indutype":"일반휴게음식 - 일반한식","category":"restaurant"}]},{"lat":"37.487703588","long":"126.78677241","imageIndex":4,"items":[{"name":"폴스키친","tel":"032-612-1020","addr":"경기도 부천시 심곡동 151-20번지 1층","indutype":"일반휴게음식 - 서양음식","category":"restaurant"}]},{"lat":"37.487708959","long":"126.77523933","imageIndex":4,"items":[{"name":"푸른바다","tel":"032-612-8500","addr":"경기도 부천시 심곡동 347-34번지 1층","indutype":"일반휴게음식 - 일반한식","category":"restaurant"}]},{"lat":"37.493263503","long":"126.78232375","imageIndex":4,"items":[{"name":"푸짐한맛집모녀식당","tel":"032-661-4904","addr":"경기도 부천시 심곡동 97번지 1층","indutype":"일반휴게음식 - 일반한식","category":"restaurant"}]},{"lat":"37.49131304","long":"126.77529624","imageIndex":4,"items":[{"name":"풍년식당","tel":"032-657-5148","addr":"경기도 부천시 심곡동 304-14번지 1층","indutype":"일반휴게음식 - 일반한식","category":"restaurant"}]},{"lat":"37.484653104","long":"126.7839885","imageIndex":4,"items":[{"name":"풍미식당","tel":"032-611-8822","addr":"경기도 부천시 심곡동 171-31번지","indutype":"일반휴게음식 - 일반한식","category":"restaurant"}]},{"lat":"37.488265799","long":"126.77902549","imageIndex":4,"items":[{"name":"플리즈커피부천대점","tel":"","addr":"경기도 부천시 심곡동 407-4번지","indutype":"일반휴게음식 - 서양음식","category":"restaurant"}]},{"lat":"37.491593423","long":"126.77121338","imageIndex":4,"items":[{"name":"피자나라치킨공주(부천중동점)","tel":"032-568-7693","addr":"경기도 부천시 심곡동 320-13번지 1층","indutype":"일반휴게음식 - 서양음식","category":"restaurant"}]},{"lat":"37.490869086","long":"126.78351807","imageIndex":4,"items":[{"name":"피자알볼로부천역점","tel":"032-664-8495","addr":"경기도 부천시 심곡동 367-7번지 1층 일부","indutype":"일반휴게음식 - 서양음식","category":"restaurant"}]},{"lat":"37.491599261","long":"126.77891378","imageIndex":4,"items":[{"name":"피자와치킨의러브레터","tel":"032-323-7712","addr":"경기도 부천시 심곡동 447-12번지 삼화센스빌 1층","indutype":"일반휴게음식 - 서양음식","category":"restaurant"}]},{"lat":"37.489626142","long":"126.77423848","imageIndex":4,"items":[{"name":"피자탑 (원미점)","tel":"032-611-9909","addr":"경기도 부천시 심곡동 330-50번지 1층","indutype":"일반휴게음식 - 서양음식","category":"restaurant"}]},{"lat":"37.487960768","long":"126.77971613","imageIndex":4,"items":[{"name":"피코차이나","tel":"032-654-0501","addr":"경기도 부천시 심곡동 408-19번지 영일탑스빌 1층","indutype":"일반휴게음식 - 중국식","category":"restaurant"}]},{"lat":"37.48692962","long":"126.78237629","imageIndex":4,"items":[{"name":"하회안동찜닭","tel":"032-664-6404","addr":"경기도 부천시 심곡동 179-10번지","indutype":"일반휴게음식 - 일반한식","category":"restaurant"}]},{"lat":"37.484682202","long":"126.78510776","imageIndex":4,"items":[{"name":"한돈두루치기생삽겹살","tel":"032-326-8516","addr":"경기도 부천시 심곡동 144-6번지","indutype":"일반휴게음식 - 일반한식","category":"restaurant"}]},{"lat":"37.486264868","long":"126.78344108","imageIndex":4,"items":[{"name":"한솔커피호프","tel":"","addr":"경기도 부천시 심곡동 168-5번지 3층","indutype":"일반휴게음식 - 서양음식","category":"restaurant"}]},{"lat":"37.486959042","long":"126.78857234","imageIndex":4,"items":[{"name":"한약먹은추어탕","tel":"032-662-3678","addr":"경기도 부천시 심곡동 132-20번지 1층","indutype":"일반휴게음식 - 일반한식","category":"restaurant"}]},{"lat":"37.487428799","long":"126.78433092","imageIndex":4,"items":[{"name":"한우리치킨호프","tel":"032-613-3686","addr":"경기도 부천시 심곡동 163-2번지","indutype":"일반휴게음식 - 일반한식","category":"restaurant"}]},{"lat":"37.486126494","long":"126.78171156","imageIndex":4,"items":[{"name":"할리스커피","tel":"031-111-1111","addr":"경기도 부천시 심곡동 176-9번지 1~3층","indutype":"일반휴게음식 - 서양음식","category":"restaurant"}]},{"lat":"37.490983624","long":"126.78212692","imageIndex":4,"items":[{"name":"핫썬치킨","tel":"032-655-9292","addr":"경기도 부천시 심곡동 370-1번지 태우연립 가동 105호","indutype":"일반휴게음식 - 스넥","category":"restaurant"}]},{"lat":"37.497979114","long":"126.78416447","imageIndex":4,"items":[{"name":"항아리김치찌개","tel":"070-2699-0807","addr":"경기도 부천시 심곡동 36-5번지 1층 일부","indutype":"일반휴게음식 - 일반한식","category":"restaurant"},{"name":"항아리김치찌개","tel":"032-611-8884","addr":"경기도 부천시 심곡동 36-5번지 1층","indutype":"일반휴게음식 - 일반한식","category":"restaurant"}]},{"lat":"37.490230197","long":"126.77444017","imageIndex":4,"items":[{"name":"해뜨는집","tel":"032-667-6363","addr":"경기도 부천시 심곡동 325-33번지 1층","indutype":"일반휴게음식 - 일반한식","category":"restaurant"},{"name":"황금피자","tel":"032-657-4455","addr":"경기도 부천시 심곡동 325-33번지 1층","indutype":"일반휴게음식 - 서양음식","category":"restaurant"}]},{"lat":"37.491653276","long":"126.77418707","imageIndex":4,"items":[{"name":"해밀날오후","tel":"032-064-0003","addr":"경기도 부천시 심곡동 305-3번지 지하1층","indutype":"일반휴게음식 - 서양음식","category":"restaurant"}]},{"lat":"37.49159733","long":"126.7732148","imageIndex":4,"items":[{"name":"행복한밥상","tel":"032-653-7272","addr":"경기도 부천시 심곡동 305-7번지","indutype":"일반휴게음식 - 일반한식","category":"restaurant"}]},{"lat":"37.488897619","long":"126.78443971","imageIndex":4,"items":[{"name":"향기","tel":"032-328-6428","addr":"경기도 부천시 심곡동 158-11번지 지하1층","indutype":"일반휴게음식 - 주점","category":"restaurant"}]},{"lat":"37.487572188","long":"126.77910671","imageIndex":4,"items":[{"name":"향만성","tel":"032-661-1998","addr":"경기도 부천시 심곡동 406-18번지 1층","indutype":"일반휴게음식 - 일반한식","category":"restaurant"}]},{"lat":"37.48645631","long":"126.77982236","imageIndex":4,"items":[{"name":"향원","tel":"032-325-5445","addr":"경기도 부천시 심곡동 399-10번지 1층","indutype":"일반휴게음식 - 중국식","category":"restaurant"}]},{"lat":"37.486788161","long":"126.78874243","imageIndex":4,"items":[{"name":"형제닭발","tel":"032-668-8578","addr":"경기도 부천시 심곡동 132-1번지 1층 일부","indutype":"일반휴게음식 - 일반한식","category":"restaurant"}]},{"lat":"37.486653886","long":"126.78429925","imageIndex":4,"items":[{"name":"형제식당","tel":"032-612-3187","addr":"경기도 부천시 심곡동 167-19번지","indutype":"일반휴게음식 - 일반한식","category":"restaurant"}]},{"lat":"37.484765639","long":"126.78638515","imageIndex":4,"items":[{"name":"혜준개발(주)","tel":"032-654-3323","addr":"경기도 부천시 심곡동 139-6번지","indutype":"일반휴게음식 - 서양음식","category":"restaurant"}]},{"lat":"37.48476206","long":"126.78444044","imageIndex":4,"items":[{"name":"호수통닭","tel":"032-664-8517","addr":"경기도 부천시 심곡동 171-17번지","indutype":"일반휴게음식 - 칵테일바","category":"restaurant"}]},{"lat":"37.486654378","long":"126.77974263","imageIndex":4,"items":[{"name":"호치킨","tel":"032-656-5727","addr":"경기도 부천시 심곡동 399-6번지 1층","indutype":"일반휴게음식 - 주점","category":"restaurant"}]},{"lat":"37.497206353","long":"126.78529756","imageIndex":4,"items":[{"name":"홍가 순대국","tel":"032-672-8488","addr":"경기도 부천시 심곡동 87-12번지 현대에스빌A동주건축물 1동 101호","indutype":"일반휴게음식 - 일반한식","category":"restaurant"}]},{"lat":"37.492349386","long":"126.77077005","imageIndex":4,"items":[{"name":"홍초불닭발막창","tel":"","addr":"경기도 부천시 심곡동 314번지 1층","indutype":"일반휴게음식 - 일반한식","category":"restaurant"}]},{"lat":"37.486957969","long":"126.77360212","imageIndex":4,"items":[{"name":"황소곱창","tel":"032-1544-0135","addr":"경기도 부천시 심곡동 358-6번지 1층","indutype":"일반휴게음식 - 일반한식","category":"restaurant"}]},{"lat":"37.486348938","long":"126.78021842","imageIndex":4,"items":[{"name":"황소돌곱창","tel":"032-664-5500","addr":"경기도 부천시 심곡동 382-9번지 1층","indutype":"일반휴게음식 - 일반한식","category":"restaurant"}]},{"lat":"37.491099142","long":"126.77185943","imageIndex":4,"items":[{"name":"황소호프","tel":"032-657-9837","addr":"경기도 부천시 심곡동 320-36번지 1층","indutype":"일반휴게음식 - 주점","category":"restaurant"}]},{"lat":"37.48770943","long":"126.78021438","imageIndex":4,"items":[{"name":"회꽃이피는밤바다","tel":"032-656-5188","addr":"경기도 부천시 심곡동 405-18번지 심곡동그린생활시설 101호","indutype":"일반휴게음식 - 일식·회집","category":"restaurant"}]},{"lat":"37.4884571010","long":"126.7801330093","imageIndex":4,"items":[{"name":"회빈장","tel":"032-655-8526","addr":"경기도 부천시 심곡동 409-8번지","indutype":"일반휴게음식 - 중국식","category":"restaurant"}]},{"lat":"37.490292719","long":"126.7741573","imageIndex":4,"items":[{"name":"효성식당","tel":"032-655-2732","addr":"경기도 부천시 심곡동 324-16번지","indutype":"일반휴게음식 - 일반한식","category":"restaurant"}]},{"lat":"37.484733166","long":"126.78343425","imageIndex":4,"items":[{"name":"흑화당부천역점","tel":"032-651-0750","addr":"경기도 부천시 심곡동 171-16번지 1층","indutype":"일반휴게음식 - 서양음식","category":"restaurant"},{"name":"히코야부천역점","tel":"032-661-7878","addr":"경기도 부천시 심곡동 171-16번지 2층","indutype":"일반휴게음식 - 스넥","category":"restaurant"}]},{"lat":"37.487205492","long":"126.7853831","imageIndex":4,"items":[{"name":"흥부네보리밥분식","tel":"032-665-5292","addr":"경기도 부천시 심곡동 163-39번지 1층","indutype":"일반휴게음식 - 일반한식","category":"restaurant"}]},{"lat":"37.489540412","long":"126.77185292","imageIndex":4,"items":[{"name":"흥부네왕갈비","tel":"032-612-0670","addr":"경기도 부천시 심곡동 335-11번지 1층","indutype":"일반휴게음식 - 일반한식","category":"restaurant"}]},{"lat":"37.491539587","long":"126.78071185","imageIndex":4,"items":[{"name":"흥부네장충동왕족발보쌈","tel":"032-666-0033","addr":"경기도 부천시 심곡동 431-3번지 1층","indutype":"일반휴게음식 - 일반한식","category":"restaurant"}]},{"lat":"37.4878475510","long":"126.7817969403","imageIndex":4,"items":[{"name":"히로","tel":"032-663-1163","addr":"경기도 부천시 심곡동 192-16번지 1층","indutype":"일반휴게음식 - 스넥","category":"restaurant"}]},{"lat":"37.491567058","long":"126.77155269","imageIndex":4,"items":[{"name":"힐링","tel":"032-655-2759","addr":"경기도 부천시 심곡동 320-25번지","indutype":"일반휴게음식 - 주점","category":"restaurant"}]},{"lat":"37.487424988","long":"126.77283183","imageIndex":4,"items":[{"name":"힐링호프","tel":"032-655-7191","addr":"경기도 부천시 심곡동 357-8번지 1층","indutype":"일반휴게음식 - 주점","category":"restaurant"}]}]