[{"lat":"37.669657274","long":"126.76388298","imageIndex":0,"items":[{"name":"공영주차장","tel":"070-8197-7008","addr":"경기도 고양시 일산서구 주엽동 72번지","indutype":"자동차정비 유지 - 주차장","category":"car"}]},{"lat":"37.666625316","long":"126.76601216","imageIndex":0,"items":[{"name":"뉴서울쇼핑","tel":"070-4233-8773","addr":"경기도 고양시 일산서구 주엽동 81번지 강선마을13단지아파트","indutype":"자동차정비 유지 - 주차장","category":"car"}]},{"lat":"37.669882882","long":"126.75965449","imageIndex":0,"items":[{"name":"뉴월드세차타운","tel":"031-917-0561","addr":"경기도 고양시 일산서구 주엽동 111번지","indutype":"자동차정비 유지 - 세차장","category":"car"}]},{"lat":"37.671408421","long":"126.75671382","imageIndex":0,"items":[{"name":"대우레시티상가관리단","tel":"031-916-5375","addr":"경기도 고양시 일산서구 주엽동 136번지 문촌마을13단지아파트","indutype":"자동차정비 유지 - 주차장","category":"car"}]},{"lat":"37.671684121","long":"126.7593199","imageIndex":0,"items":[{"name":"동문시티프라자관리단","tel":"031-916-0603","addr":"경기도 고양시 일산서구 주엽동 18-1번지","indutype":"자동차정비 유지 - 주차장","category":"car"}]},{"lat":"37.667739561","long":"126.76454652","imageIndex":0,"items":[{"name":"레이크타운관리단","tel":"031-912-6011","addr":"경기도 고양시 일산서구 주엽동 83번지 강선마을12단지아파트","indutype":"자동차정비 유지 - 주차장","category":"car"}]},{"lat":"37.666167844","long":"126.76255677","imageIndex":0,"items":[{"name":"리모터스","tel":"031-907-9317","addr":"경기도 고양시 일산서구 주엽동 84번지 강선마을15단지아파트","indutype":"자동차정비 유지 - 자동차정비","category":"car"}]},{"lat":"37.671458085","long":"126.75893526","imageIndex":0,"items":[{"name":"서현프라자운영회","tel":"031-919-5131","addr":"경기도 고양시 일산서구 주엽동 18-2번지","indutype":"자동차정비 유지 - 주차장","category":"car"},{"name":"카빅스주식회사","tel":"070-7123-1317","addr":"경기도 고양시 일산서구 주엽동 18-2번지","indutype":"자동차정비 유지 - 자동차부품","category":"car"}]},{"lat":"37.673243482","long":"126.75532488","imageIndex":0,"items":[{"name":"세차하는사람들","tel":"031-911-5505","addr":"경기도 고양시 일산서구 주엽동 15번지 문촌마을11단지아파트","indutype":"자동차정비 유지 - 세차장","category":"car"},{"name":"오토오아시스롯데마트주엽점","tel":"02-000-0000","addr":"경기도 고양시 일산서구 주엽동 15번지 문촌마을11단지아파트","indutype":"자동차정비 유지 - 자동차부품","category":"car"}]},{"lat":"37.673848337","long":"126.76024231","imageIndex":0,"items":[{"name":"신일카센타","tel":"031-901-4923","addr":"경기도 고양시 일산서구 주엽동 26번지","indutype":"자동차정비 유지 - 자동차정비","category":"car"}]},{"lat":"37.669104856","long":"126.76249063","imageIndex":0,"items":[{"name":"에너지플러스","tel":"070-7807-8100","addr":"경기도 고양시 일산서구 주엽동 106-2번지","indutype":"자동차정비 유지 - 자동차부품","category":"car"}]},{"lat":"37.671209134","long":"126.7605456","imageIndex":0,"items":[{"name":"에이스스팀세차","tel":"031-910-2211","addr":"경기도 고양시 일산서구 주엽동 20번지","indutype":"자동차정비 유지 - 세차장","category":"car"}]},{"lat":"37.676382443","long":"126.75704878","imageIndex":0,"items":[{"name":"에이원 (A1)","tel":"031-922-5554","addr":"경기도 고양시 일산서구 주엽동 8번지 문촌마을6단지아파트","indutype":"자동차정비 유지 - 자동차부품","category":"car"}]},{"lat":"37.673361177","long":"126.75559653","imageIndex":0,"items":[{"name":"엠케이(MK)상사","tel":"","addr":"경기도 고양시 일산서구 주엽동 15번지 문촌마을11단지아파트","indutype":"자동차정비 유지 - 자동차부품","category":"car"}]},{"lat":"37.671854553","long":"126.75895663","imageIndex":0,"items":[{"name":"자유프라자관리단","tel":"031-918-7918","addr":"경기도 고양시 일산서구 주엽동 18번지","indutype":"자동차정비 유지 - 주차장","category":"car"}]},{"lat":"37.670225959","long":"126.7689137","imageIndex":0,"items":[{"name":"젠틀맨카","tel":"02-1644-5929","addr":"경기도 고양시 일산서구 주엽동 46번지 강선마을4단지아파트","indutype":"자동차정비 유지 - 카인테리어","category":"car"}]},{"lat":"37.670755113","long":"126.76769923","imageIndex":0,"items":[{"name":"준덴트","tel":"","addr":"경기도 고양시 일산서구 주엽동 49번지 강선마을5단지아파트","indutype":"자동차정비 유지 - 카인테리어","category":"car"}]},{"lat":"37.670627465","long":"126.75809922","imageIndex":0,"items":[{"name":"지에스파크24(주)시대프라자주차장","tel":"02-3272-0722","addr":"경기도 고양시 일산서구 주엽동 115-1번지","indutype":"자동차정비 유지 - 주차장","category":"car"}]},{"lat":"37.669269747","long":"126.76382755","imageIndex":0,"items":[{"name":"케이피상사 한솔코아주차장사업소","tel":"031-918-5166","addr":"경기도 고양시 일산서구 주엽동 72-2번지","indutype":"자동차정비 유지 - 주차장","category":"car"}]},{"lat":"37.668543152","long":"126.76540535","imageIndex":0,"items":[{"name":"태영프라자세차장","tel":"031-911-4860","addr":"경기도 고양시 일산서구 주엽동 73번지 강선마을11단지아파트","indutype":"자동차정비 유지 - 세차장","category":"car"}]}]