[{"lat":"37.205797158","long":"126.72748152","imageIndex":17,"items":[{"name":"GS25송산육일리점","tel":"","addr":"경기도 화성시 송산면 육일리 370-1번지 1층","indutype":"유통업 영리 - 편 의 점","category":"other"}]},{"lat":"37.203655538","long":"126.72484216","imageIndex":17,"items":[{"name":"가야묘목","tel":"031-388-1552","addr":"경기도 화성시 송산면 육일리 256-2","indutype":"농업 - 기타농업관련","category":"other"}]},{"lat":"37.203411546","long":"126.72453892","imageIndex":17,"items":[{"name":"가온소파","tel":"031-356-7260","addr":"경기도 화성시 송산면 육일리 415-9번지 1동, 2동","indutype":"가구 - 일반가구","category":"other"}]},{"lat":"37.20027188","long":"126.72281581","imageIndex":17,"items":[{"name":"나성상사","tel":"031-355-6651","addr":"경기도 화성시 송산면 육일리 603-1번지","indutype":"건축자재 - 기타건축자재","category":"other"}]},{"lat":"37.201823749","long":"126.72369994","imageIndex":17,"items":[{"name":"남서울낚시","tel":"031-855-8216","addr":"경기도 화성시 송산면 육일리 427-6번지 1층","indutype":"레져용품 - 스포츠·레져용품","category":"other"},{"name":"씨유화성부점","tel":"031-355-0552","addr":"경기도 화성시 송산면 육일리 427-6번지","indutype":"유통업 영리 - 편 의 점","category":"other"}]},{"lat":"37.204208882","long":"126.72642843","imageIndex":17,"items":[{"name":"만통상사","tel":"031-357-8276","addr":"경기도 화성시 송산면 육일리 399번지","indutype":"기타 - 기계공구","category":"other"}]},{"lat":"37.207654879","long":"126.72050173","imageIndex":17,"items":[{"name":"비엠알브이(BM.RV)","tel":"031-356-0654","addr":"경기도 화성시 송산면 육일리 74-25번지","indutype":"레져용품 - 스포츠·레져용품","category":"other"}]},{"lat":"37.208409644","long":"126.71962024","imageIndex":17,"items":[{"name":"사단법인 나눔놀이터이음","tel":"031-355-1769","addr":"경기도 화성시 송산면 육일리 87번지 1층","indutype":"문화.취미 - 문화취미기타","category":"other"},{"name":"이음","tel":"031-356-7821","addr":"경기도 화성시 송산면 육일리 87번지","indutype":"주방용구 - 주방용식기","category":"other"}]},{"lat":"37.203323979","long":"126.72562062","imageIndex":17,"items":[{"name":"세븐일레븐송산화성로점","tel":"","addr":"경기도 화성시 송산면 육일리 413-3번지","indutype":"유통업 영리 - 편 의 점","category":"other"},{"name":"세븐일레븐송산화성로점","tel":"031-1577-0711","addr":"경기도 화성시 송산면 육일리 413-3번지 1층","indutype":"유통업 영리 - 편 의 점","category":"other"}]},{"lat":"37.202737651","long":"126.72534116","imageIndex":17,"items":[{"name":"송산플라워","tel":"031-355-9299","addr":"경기도 화성시 송산면 육일리 412-2번지","indutype":"문화.취미 - 화원","category":"other"}]},{"lat":"37.206376507","long":"126.72863969","imageIndex":17,"items":[{"name":"스타마린","tel":"070-4217-7731","addr":"경기도 화성시 송산면 육일리 312-1번지","indutype":"기타 - 기계공구","category":"other"}]},{"lat":"37.205264765","long":"126.72714551","imageIndex":17,"items":[{"name":"스타티앤비","tel":"031-356-4367","addr":"경기도 화성시 송산면 육일리 372-2번지","indutype":"레져용품 - 스포츠·레져용품","category":"other"}]},{"lat":"37.205069182","long":"126.72828395","imageIndex":17,"items":[{"name":"에프엠 ENG","tel":"031-356-1142","addr":"경기도 화성시 송산면 육일리 371-1번지 1동","indutype":"기타 - 기계공구","category":"other"}]},{"lat":"37.206099585","long":"126.71819825","imageIndex":17,"items":[{"name":"윤선생애견훈련소","tel":"02-1111-1111","addr":"경기도 화성시 송산면 육일리 75-1번지","indutype":"문화.취미 - 애완동물","category":"other"}]},{"lat":"37.207130509","long":"126.7197602","imageIndex":17,"items":[{"name":"장일테크","tel":"031-356-7072","addr":"경기도 화성시 송산면 육일리 76-23","indutype":"신변잡화 - 기타잡화","category":"other"}]},{"lat":"37.202049271","long":"126.72381175","imageIndex":17,"items":[{"name":"주식회사 금원웰딩","tel":"031-356-5719","addr":"경기도 화성시 송산면 육일리 427-5번지 일선빌딩 101호","indutype":"기타 - 기계공구","category":"other"}]},{"lat":"37.205548172","long":"126.72503799","imageIndex":17,"items":[{"name":"주식회사 에이치하우징세라믹","tel":"031-357-5824","addr":"경기도 화성시 송산면 육일리 266-1번지","indutype":"건축자재 - 건축용 요업제품","category":"other"}]},{"lat":"37.20321382","long":"126.72861734","imageIndex":17,"items":[{"name":"주식회사 피엘코리아","tel":"031-494-0982","addr":"경기도 화성시 송산면 육일리 409-9번지","indutype":"기타 - 기계공구","category":"other"}]},{"lat":"37.207934414","long":"126.72439839","imageIndex":17,"items":[{"name":"클레이스타(clay star)","tel":"","addr":"경기도 화성시 송산면 육일리 145-5","indutype":"문화.취미 - 민예·공예품","category":"other"}]},{"lat":"37.197131245","long":"126.72450566","imageIndex":17,"items":[{"name":"화성산업용포장","tel":"","addr":"경기도 화성시 송산면 육일리 655번지 104호","indutype":"유통업 영리 - 기타유통업","category":"other"}]},{"lat":"37.204208882","long":"126.72642843","imageIndex":0,"items":[{"name":"강남이동타이어","tel":"031-355-5668","addr":"경기도 화성시 송산면 육일리 399번지","indutype":"자동차정비 유지 - 자동차시트·타이어","category":"car"}]},{"lat":"37.205213033","long":"126.72814825","imageIndex":0,"items":[{"name":"주식회사 그린하이","tel":"031-356-8833","addr":"경기도 화성시 송산면 육일리 371-4번지 외 1필지 2동","indutype":"자동차정비 유지 - 자동차부품","category":"car"},{"name":"주식회사 크린하이","tel":"031-356-8833","addr":"경기도 화성시 송산면 육일리 371-4번지 2동","indutype":"자동차정비 유지 - 자동차부품","category":"car"}]},{"lat":"37.204211715","long":"126.72764498","imageIndex":0,"items":[{"name":"주식회사 벅스","tel":"032-872-8509","addr":"경기도 화성시 송산면 육일리 377-5번지","indutype":"자동차정비 유지 - 자동차부품","category":"car"}]},{"lat":"37.202184744","long":"126.72394642","imageIndex":0,"items":[{"name":"킹스타이어","tel":"031-355-4949","addr":"경기도 화성시 송산면 육일리 427-4번지","indutype":"자동차정비 유지 - 자동차시트·타이어","category":"car"}]},{"lat":"37.204710903","long":"126.72533393","imageIndex":7,"items":[{"name":"경진수산","tel":"031-357-9956","addr":"경기도 화성시 송산면 육일리 263번지","indutype":"음료식품 - 농·축·수산품","category":"food"}]},{"lat":"37.204488385","long":"126.72650626","imageIndex":7,"items":[{"name":"곰다래농장","tel":"","addr":"경기도 화성시 송산면 육일리 398번지","indutype":"음료식품 - 농·축·수산품","category":"food"}]},{"lat":"37.208215029","long":"126.72494935","imageIndex":7,"items":[{"name":"금산건강원","tel":"031-355-0556","addr":"경기도 화성시 송산면 육일리 145-2","indutype":"건강식품 - 기타건강식품","category":"food"}]},{"lat":"37.202988301","long":"126.72464185","imageIndex":7,"items":[{"name":"금호수산유통","tel":"","addr":"경기도 화성시 송산면 육일리 415-2번지","indutype":"음료식품 - 농·축·수산품","category":"food"},{"name":"금호왕새우","tel":"031-357-4411","addr":"경기도 화성시 송산면 육일리 415-2번지","indutype":"음료식품 - 농·축·수산품","category":"food"}]},{"lat":"37.197046942","long":"126.7231431","imageIndex":7,"items":[{"name":"달래농원","tel":"031-356-7577","addr":"경기도 화성시 송산면 육일리 665-1번지","indutype":"음료식품 - 농·축·수산품","category":"food"}]},{"lat":"37.204792523","long":"126.72555893","imageIndex":7,"items":[{"name":"막내수산","tel":"031-357-5246","addr":"경기도 화성시 송산면 육일리 264-2번지","indutype":"음료식품 - 농·축·수산품","category":"food"}]},{"lat":"37.20049179","long":"126.72056221","imageIndex":7,"items":[{"name":"보라농원","tel":"031-357-0614","addr":"경기도 화성시 송산면 육일리 506-1번지","indutype":"음료식품 - 농·축·수산품","category":"food"}]},{"lat":"37.199208906","long":"126.72292111","imageIndex":7,"items":[{"name":"산골농원","tel":"031-111-1111","addr":"경기도 화성시 송산면 육일리 632-3번지","indutype":"음료식품 - 농·축·수산품","category":"food"}]},{"lat":"37.198659677","long":"126.72309209","imageIndex":7,"items":[{"name":"위드빈메이크커피","tel":"031-401-1857","addr":"경기도 화성시 송산면 육일리 640-2번지","indutype":"음료식품 - 기타음료식품","category":"food"}]},{"lat":"37.19960558","long":"126.71922512","imageIndex":7,"items":[{"name":"정석농원","tel":"","addr":"경기도 화성시 송산면 육일리 547-1번지","indutype":"음료식품 - 농·축·수산품","category":"food"}]},{"lat":"37.206320774","long":"126.72791894","imageIndex":7,"items":[{"name":"제부옥수수찐빵","tel":"031-357-7712","addr":"경기도 화성시 송산면 육일리 366번지","indutype":"음료식품 - 기타음료식품","category":"food"}]},{"lat":"37.207934414","long":"126.72439839","imageIndex":7,"items":[{"name":"희망정육식당","tel":"031-355-3232","addr":"경기도 화성시 송산면 육일리 145-5번지","indutype":"음료식품 - 정육점","category":"food"}]},{"lat":"37.204488385","long":"126.72650626","imageIndex":4,"items":[{"name":"곰다래식당","tel":"031-357-0222","addr":"경기도 화성시 송산면 육일리 398번지","indutype":"일반휴게음식 - 일반한식","category":"restaurant"}]},{"lat":"37.207021901","long":"126.71955784","imageIndex":4,"items":[{"name":"대일식당","tel":"031-357-2267","addr":"경기도 화성시 송산면 육일리 76-26번지","indutype":"일반휴게음식 - 위탁급식업","category":"restaurant"}]},{"lat":"37.208518783","long":"126.72384426","imageIndex":4,"items":[{"name":"동해막국수","tel":"02-1111-1111","addr":"경기도 화성시 송산면 육일리 142번지 좌측점포","indutype":"일반휴게음식 - 일반한식","category":"restaurant"}]},{"lat":"37.198659677","long":"126.72309209","imageIndex":4,"items":[{"name":"디마인","tel":"031-356-5910","addr":"경기도 화성시 송산면 육일리 640-2번지","indutype":"일반휴게음식 - 서양음식","category":"restaurant"}]},{"lat":"37.198358046","long":"126.72509813","imageIndex":4,"items":[{"name":"러브레터","tel":"031-366-9289","addr":"경기도 화성시 송산면 육일리 726번지 코스코 상가 1층 104호","indutype":"일반휴게음식 - 서양음식","category":"restaurant"}]},{"lat":"37.207351851","long":"126.72189972","imageIndex":4,"items":[{"name":"산노을","tel":"","addr":"경기도 화성시 송산면 육일리 158-2번지","indutype":"일반휴게음식 - 일반한식","category":"restaurant"}]},{"lat":"37.206492754","long":"126.72825626","imageIndex":4,"items":[{"name":"송산나루","tel":"031-356-4651","addr":"경기도 화성시 송산면 육일리 312-2번지","indutype":"일반휴게음식 - 일반한식","category":"restaurant"}]},{"lat":"37.197461645","long":"126.71944715","imageIndex":4,"items":[{"name":"시골집","tel":"031-355-0812","addr":"경기도 화성시 송산면 육일리 577-4번지 1층","indutype":"일반휴게음식 - 일반한식","category":"restaurant"}]},{"lat":"37.205797158","long":"126.72748152","imageIndex":4,"items":[{"name":"이디야 화성송산육일리점","tel":"031-357-2243","addr":"경기도 화성시 송산면 육일리 370-1번지 1층","indutype":"일반휴게음식 - 서양음식","category":"restaurant"},{"name":"하늘채","tel":"031-357-0055","addr":"경기도 화성시 송산면 육일리 370-1번지","indutype":"일반휴게음식 - 일반한식","category":"restaurant"}]},{"lat":"37.207934414","long":"126.72439839","imageIndex":4,"items":[{"name":"축복식당","tel":"031-355-3232","addr":"경기도 화성시 송산면 육일리 145-5번지","indutype":"일반휴게음식 - 일반한식","category":"restaurant"}]},{"lat":"37.203155362","long":"126.72672514","imageIndex":4,"items":[{"name":"푸짐한식당","tel":"031-355-2240","addr":"경기도 화성시 송산면 육일리 388-1번지","indutype":"일반휴게음식 - 일반한식","category":"restaurant"}]},{"lat":"37.205436406","long":"126.72733639","imageIndex":4,"items":[{"name":"항동한식부페","tel":"031-357-9975","addr":"경기도 화성시 송산면 육일리 372-3번지 1층","indutype":"일반휴게음식 - 일반한식","category":"restaurant"}]}]