[{"lat":"37.724489277","long":"127.04762944","imageIndex":7,"items":[{"name":"K-마트","tel":"031-871-9922","addr":"경기도 의정부시 호원동 427-1번지","indutype":"유통업 영리 - 슈퍼마켓","category":"mart"}]},{"lat":"37.714208959","long":"127.04859861","imageIndex":7,"items":[{"name":"가을햇쌀유통","tel":"031-874-8436","addr":"경기도 의정부시 호원동 451번지 우성5차 상가 104호","indutype":"유통업 영리 - 슈퍼마켓","category":"mart"}]},{"lat":"37.71292981","long":"127.04804211","imageIndex":7,"items":[{"name":"럭키마트","tel":"031-826-7772","addr":"경기도 의정부시 호원동 453-1번지","indutype":"유통업 영리 - 슈퍼마켓","category":"mart"}]},{"lat":"37.695272229","long":"127.04459587","imageIndex":7,"items":[{"name":"망월슈퍼","tel":"031-872-6077","addr":"경기도 의정부시 호원동 202-5번지","indutype":"유통업 영리 - 슈퍼마켓","category":"mart"}]},{"lat":"37.708236183","long":"127.04704131","imageIndex":7,"items":[{"name":"베스트마트","tel":"031-875-2962","addr":"경기도 의정부시 호원동 119-266번지","indutype":"유통업 영리 - 슈퍼마켓","category":"mart"}]},{"lat":"37.708875591","long":"127.04776748","imageIndex":7,"items":[{"name":"베스트샵","tel":"031-111-1111","addr":"경기도 의정부시 호원동 454-32번지","indutype":"유통업 영리 - 슈퍼마켓","category":"mart"}]},{"lat":"37.728681696","long":"127.03898823","imageIndex":7,"items":[{"name":"복권세상","tel":"","addr":"경기도 의정부시 호원동 366-25번지","indutype":"유통업 영리 - 슈퍼마켓","category":"mart"}]},{"lat":"37.72482413","long":"127.04348948","imageIndex":7,"items":[{"name":"빅애플슈퍼","tel":"031-871-9371","addr":"경기도 의정부시 호원동 318-9번지","indutype":"유통업 영리 - 슈퍼마켓","category":"mart"}]},{"lat":"37.694659562","long":"127.04462954","imageIndex":7,"items":[{"name":"삼창슈퍼","tel":"031-872-4378","addr":"경기도 의정부시 호원동 200-45","indutype":"유통업 영리 - 슈퍼마켓","category":"mart"}]},{"lat":"37.727095707","long":"127.03996298","imageIndex":7,"items":[{"name":"신우유통","tel":"031-872-0503","addr":"경기도 의정부시 호원동 339-11번지 1층","indutype":"유통업 영리 - 슈퍼마켓","category":"mart"},{"name":"신일유통","tel":"031-872-0503","addr":"경기도 의정부시 호원동 339-11번지","indutype":"유통업 영리 - 슈퍼마켓","category":"mart"}]},{"lat":"37.728490227","long":"127.04576018","imageIndex":7,"items":[{"name":"영신마트","tel":"031-873-0777","addr":"경기도 의정부시 호원동 343번지 101-4호 호원프라자내","indutype":"유통업 영리 - 슈퍼마켓","category":"mart"}]},{"lat":"37.715965852","long":"127.04854298","imageIndex":7,"items":[{"name":"영신슈퍼","tel":"031-874-6593","addr":"경기도 의정부시 호원동 445.102호","indutype":"유통업 영리 - 슈퍼마켓","category":"mart"}]},{"lat":"37.723373684","long":"127.04320513","imageIndex":7,"items":[{"name":"우리유기농","tel":"031-874-6233","addr":"경기도 의정부시 호원동 313-37번지 지하2층 1-03,04호","indutype":"유통업 영리 - 슈퍼마켓","category":"mart"}]},{"lat":"37.709352879","long":"127.04834613","imageIndex":7,"items":[{"name":"정가 화꿔무한리필","tel":"02-877-4610","addr":"경기도 의정부시 호원동 459번지 신일엘리시움 상가 102호","indutype":"유통업 영리 - 슈퍼마켓","category":"mart"}]},{"lat":"37.71940784","long":"127.04770578","imageIndex":7,"items":[{"name":"정문슈퍼","tel":"031-871-3841","addr":"경기도 의정부시 호원동 436-1번지 한주 종합상가 102호","indutype":"유통업 영리 - 슈퍼마켓","category":"mart"}]},{"lat":"37.726436272","long":"127.04512378","imageIndex":7,"items":[{"name":"조은할인마트","tel":"031-829-2255","addr":"경기도 의정부시 호원동 332번지 서왕프라자","indutype":"유통업 영리 - 슈퍼마켓","category":"mart"}]},{"lat":"37.7050195","long":"127.04770845","imageIndex":7,"items":[{"name":"호원홈마트","tel":"031-875-5430","addr":"경기도 의정부시 호원동 465-13번지 1층","indutype":"유통업 영리 - 슈퍼마켓","category":"mart"}]}]