[{"lat":"37.851061882","long":"127.16333892","imageIndex":17,"items":[{"name":"(주)뱅뱅어패럴 포천프라자점","tel":"031-542-2551","addr":"경기도 포천시 선단동 498-1번지","indutype":"레져용품 - 스포츠·레져용품","category":"other"},{"name":"레몬스크린골프죤","tel":"031-543-0775","addr":"경기도 포천시 선단동 498-1번지 에이동나호 2층","indutype":"회원제형태 - 레져업소","category":"other"},{"name":"천사꽃화원","tel":"031-544-0769","addr":"경기도 포천시 선단동 498-1번지 일부 1층 다호","indutype":"문화.취미 - 화원","category":"other"},{"name":"청담","tel":"070-4280-0835","addr":"경기도 포천시 선단동 498-1번지 엘카운티A동1층가호","indutype":"의류 - 정장","category":"other"},{"name":"햇빛요양원","tel":"070-8161-8899","addr":"경기도 포천시 선단동 498-1번지","indutype":"기타의료기관 - 기타의료기관 및 기타","category":"other"}]},{"lat":"37.856528103","long":"127.17155488","imageIndex":17,"items":[{"name":"(주)이언테크/원격지","tel":"02-2277-0800","addr":"경기도 포천시 선단동 11-1,대진대학교창업보육센터307호","indutype":"기타 - 기타 전문점","category":"other"}]},{"lat":"37.850915726","long":"127.16480432","imageIndex":17,"items":[{"name":"(주)정현출장경리","tel":"031-544-2546","addr":"경기도 포천시 선단동 502-6번지 칠성원룸 203호","indutype":"회원제형태 - 기타4","category":"other"},{"name":"시우","tel":"070-4178-4187","addr":"경기도 포천시 선단동 502-6번지","indutype":"가구 - 기타가구","category":"other"},{"name":"컴바이컴포천점","tel":"031-541-4931","addr":"경기도 포천시 선단동 502-6","indutype":"사무통신 - 컴퓨터","category":"other"},{"name":"한일공사","tel":"031-531-0114","addr":"경기도 포천시 선단동 502-6번지 칠성빌딩 101호","indutype":"전기제품 - 냉열기기","category":"other"}]},{"lat":"37.853562105","long":"127.16652586","imageIndex":17,"items":[{"name":"CH 정보통신","tel":"031-543-9011","addr":"경기도 포천시 선단동 49-4번지","indutype":"사무통신 - 통신기기","category":"other"},{"name":"주식회사 셈틀정보통신","tel":"031-541-9782","addr":"경기도 포천시 선단동 49-4번지","indutype":"사무통신 - 통신기기","category":"other"},{"name":"창고","tel":"070-4131-9011","addr":"경기도 포천시 선단동 49-4번지 1층","indutype":"의류 - 정장","category":"other"}]},{"lat":"37.856977577","long":"127.16586299","imageIndex":17,"items":[{"name":"CU포천대진대원룸제일점","tel":"","addr":"경기도 포천시 선단동 115-2번지","indutype":"소매업 - 편의점","category":"other"},{"name":"씨유대진대원룸제일점","tel":"031-531-2221","addr":"경기도 포천시 선단동 115-2번지 1층","indutype":"유통업 영리 - 편 의 점","category":"other"},{"name":"주식회사 토이앤바이크","tel":"031-534-3515","addr":"경기도 포천시 선단동 115-2번지","indutype":"서적문구 - 완구점","category":"other"}]},{"lat":"37.850726786","long":"127.15791845","imageIndex":17,"items":[{"name":"FL furniture","tel":"031-542-4071","addr":"경기도 포천시 선단동 573-5번지","indutype":"가구 - 일반가구","category":"other"}]},{"lat":"37.855948316","long":"127.16744017","imageIndex":17,"items":[{"name":"GS25대진대사랑점","tel":"","addr":"경기도 포천시 선단동 96번지 외1필지 다동","indutype":"유통업 영리 - 편 의 점","category":"other"},{"name":"GS25대진대사랑점","tel":"031-542-2562","addr":"경기도 포천시 선단동 96번지 외 1필지 다동","indutype":"편의점 - 편의점","category":"other"}]},{"lat":"37.854724593","long":"127.15969941","imageIndex":17,"items":[{"name":"GS25선단로드점","tel":"","addr":"경기도 포천시 선단동 634번지","indutype":"유통업 영리 - 편 의 점","category":"other"}]},{"lat":"37.852252567","long":"127.16227344","imageIndex":17,"items":[{"name":"GS25선단유락점","tel":"","addr":"경기도 포천시 선단동 460-27번지 1층 101호","indutype":"유통업 영리 - 편 의 점","category":"other"},{"name":"GS25선단유락점","tel":"031-544-7485","addr":"경기도 포천시 선단동 460-27번지 1층 101호","indutype":"편의점 - 편의점","category":"other"},{"name":"GS선단유락점","tel":"544-7485","addr":"경기도 포천시 선단동 460-27번지 1층","indutype":"소매업 - 편의점","category":"other"}]},{"lat":"37.854256282","long":"127.16619788","imageIndex":17,"items":[{"name":"GS25포천대진대","tel":"-","addr":"경기도 포천시 선단동 55-1번지","indutype":"편의점 - 편의점","category":"other"},{"name":"gs대진대점","tel":"544-1896","addr":"경기도 포천시 선단동 55-1번지","indutype":"편의점 - 잡화","category":"other"},{"name":"대진사진관","tel":"031-542-6368","addr":"경기도 포천시 선단동 55-1번지","indutype":"광학제품 - 사진관","category":"other"},{"name":"수스킨케어","tel":"031-544-6277","addr":"경기도 포천시 선단동 55-1번지 현진빌딩 4층","indutype":"회원제형태 - 기타4","category":"other"}]},{"lat":"37.852752946","long":"127.16530829","imageIndex":17,"items":[{"name":"GS25포천선단점","tel":"031-543-0728","addr":"경기도 포천시 선단동 491-1번지","indutype":"편의점 - 편의점","category":"other"},{"name":"GS25포천선단점","tel":"","addr":"경기도 포천시 선단동 491-1번지","indutype":"유통업 영리 - 편 의 점","category":"other"}]},{"lat":"37.851696663","long":"127.16688533","imageIndex":17,"items":[{"name":"GS25포천세창점","tel":"","addr":"경기도 포천시 선단동 38-6번지","indutype":"유통업 영리 - 편 의 점","category":"other"},{"name":"GS25포천세창점","tel":"031-542-6295","addr":"경기도 포천시 선단동 38-6번지","indutype":"편의점 - 편의점","category":"other"}]},{"lat":"37.856669634","long":"127.1670327","imageIndex":17,"items":[{"name":"K크린 경기북부","tel":"031-1670-8839","addr":"경기도 포천시 선단동 110-2번지 1동 302호","indutype":"용역 서비스 - 종합용역","category":"other"},{"name":"스타 인테리어","tel":"031-535-3991","addr":"경기도 포천시 선단동 110-2번지 103동 502호","indutype":"건축자재 - 인테리어전문","category":"other"},{"name":"이쁜남자","tel":"031-1111-1111","addr":"경기도 포천시 선단동 110-2번지 1동 301호","indutype":"의류 - 정장","category":"other"}]},{"lat":"37.847838335","long":"127.16200262","imageIndex":17,"items":[{"name":"cu포천로드점","tel":"070-7722-3032","addr":"경기도 포천시 선단동 529-4번지","indutype":"소매업 - 편의점","category":"other"},{"name":"강남태양열 포천점","tel":"031-544-0527","addr":"경기도 포천시 선단동 529-4번지 1층 8호","indutype":"건축자재 - 보일러·펌프·샷시","category":"other"},{"name":"배건축사사무소","tel":"031-542-1055","addr":"경기도 포천시 선단동 529-4번지","indutype":"용역 서비스 - 사무서비스","category":"other"},{"name":"씨유포천로드점","tel":"070-7722-3032","addr":"경기도 포천시 선단동 529-4번지 1층 4,5호","indutype":"유통업 영리 - 편 의 점","category":"other"},{"name":"청룡Sports","tel":"031-544-0991","addr":"경기도 포천시 선단동 529-4번지 1층 1호","indutype":"레져용품 - 스포츠·레져용품","category":"other"}]},{"lat":"37.852140889","long":"127.16488654","imageIndex":17,"items":[{"name":"가구마트","tel":"031-542-7366","addr":"경기도 포천시 선단동 493-11","indutype":"가구 - 일반가구","category":"other"}]},{"lat":"37.858332614","long":"127.16321832","imageIndex":17,"items":[{"name":"가전박사","tel":"031-541-4971","addr":"경기도 포천시 선단동 379번지 한양빌라5차 B층 303호","indutype":"수리서비스 - 가정용품수리","category":"other"}]},{"lat":"37.85753062","long":"127.15658048","imageIndex":17,"items":[{"name":"개그스토리마트 포천선단점","tel":"031-531-0656","addr":"경기도 포천시 선단동 669-6번지","indutype":"유통업 영리 - 편 의 점","category":"other"}]},{"lat":"37.85642083","long":"127.16453229","imageIndex":17,"items":[{"name":"거기!","tel":"","addr":"경기도 포천시 선단동 406-2번지 1층 103호","indutype":"의류 - 정장","category":"other"}]},{"lat":"37.857502089","long":"127.1577281","imageIndex":17,"items":[{"name":"건승금속","tel":"031-543-0211","addr":"경기도 포천시 선단동 681번지","indutype":"기타 - 기타 전문점","category":"other"},{"name":"대영도금","tel":"031-541-4253","addr":"경기도 포천시 선단동 681번지","indutype":"기타 - 기계공구","category":"other"}]},{"lat":"37.856478034","long":"127.16874809","imageIndex":17,"items":[{"name":"경원비니루","tel":"031-543-5280","addr":"경기도 포천시 선단동 82-10번지","indutype":"기타 - 기타 전문점","category":"other"},{"name":"동화포장","tel":"031-543-8148","addr":"경기도 포천시 선단동 82-10번지","indutype":"기타 - 기타 전문점","category":"other"},{"name":"동화포장","tel":"543-8148","addr":"경기도 포천시 선단동 82-10번지","indutype":"도소매 - 포장재료","category":"other"}]},{"lat":"37.853862191","long":"127.15781139","imageIndex":17,"items":[{"name":"고고","tel":"031-827-9288","addr":"경기도 포천시 선단동 605-3번지 쌍용전원빌라 101호","indutype":"의류 - 정장","category":"other"}]},{"lat":"37.859886547","long":"127.15310812","imageIndex":17,"items":[{"name":"골든슈퍼","tel":"542-1654","addr":"경기도 포천시 선단동 787","indutype":"소매업 - 잡","category":"other"}]},{"lat":"37.856145199","long":"127.16838373","imageIndex":17,"items":[{"name":"광림레저낚시","tel":"031-535-1466","addr":"경기도 포천시 선단동 82-6번지","indutype":"레져용품 - 스포츠·레져용품","category":"other"},{"name":"쌍용공인중개사무소","tel":"543-8944","addr":"경기도 포천시 선단동 82-6번지","indutype":"부동산 - 부동산중개업","category":"other"},{"name":"일등종합설비","tel":"031-541-3505","addr":"경기도 포천시 선단동 82-6번지","indutype":"용역 서비스 - 기타용역서비스","category":"other"},{"name":"일출광고","tel":"031-542-1088","addr":"경기도 포천시 선단동 82-6번지","indutype":"용역 서비스 - 종합용역","category":"other"},{"name":"해린광고기획","tel":"031-544-9239","addr":"경기도 포천시 선단동 82-6번지","indutype":"용역 서비스 - 종합용역","category":"other"}]},{"lat":"37.850840301","long":"127.16063424","imageIndex":17,"items":[{"name":"귀뚜라미보일러","tel":"","addr":"경기도 포천시 선단동 543-2번지 청솔빌라 104동 202호","indutype":"용역 서비스 - 기타용역서비스","category":"other"},{"name":"도시 하우징","tel":"02-1688-0914","addr":"경기도 포천시 선단동 543-2번지 삼보한솔빌라 103동 103호","indutype":"수리서비스 - 기타수리서비스","category":"other"},{"name":"삼성올인원","tel":"070-8775-9645","addr":"경기도 포천시 선단동 543-2번지 삼보한솔빌라 102동 301호","indutype":"수리서비스 - 사무·통신기기수리","category":"other"}]},{"lat":"37.848198295","long":"127.16231016","imageIndex":17,"items":[{"name":"귀뚜라미용ENG","tel":"031-544-0707","addr":"경기도 포천시 선단동 529-1번지","indutype":"건축자재 - 보일러·펌프·샷시","category":"other"},{"name":"대복만물사","tel":"031-542-0962","addr":"경기도 포천시 선단동 529-1번지","indutype":"신변잡화 - 기념품점","category":"other"},{"name":"신세계광고기획","tel":"031-542-4276","addr":"경기도 포천시 선단동 529-1번지","indutype":"용역 서비스 - 종합용역","category":"other"},{"name":"주연테크컴퓨터 대진대점","tel":"031-542-1767","addr":"경기도 포천시 선단동 529-1번지","indutype":"사무통신 - 컴퓨터","category":"other"}]},{"lat":"37.859197797","long":"127.16950417","imageIndex":17,"items":[{"name":"금정PVC종합상사","tel":"031-535-6848","addr":"경기도 포천시 선단동 135-5번지","indutype":"건축자재 - 기타건축자재","category":"other"}]},{"lat":"37.855059465","long":"127.16522245","imageIndex":17,"items":[{"name":"꽃사랑","tel":"031-541-1933","addr":"경기도 포천시 선단동 426-2번지","indutype":"문화.취미 - 화원","category":"other"}]},{"lat":"37.855032202","long":"127.16539283","imageIndex":17,"items":[{"name":"꽃사랑","tel":"541-1933","addr":"경기도 포천시 선단동 426-11","indutype":"소매업 - 생화","category":"other"}]},{"lat":"37.849423244","long":"127.16255139","imageIndex":17,"items":[{"name":"노블하우스(NBH)","tel":"070-7886-9181","addr":"경기도 포천시 선단동 534번지 (1호)","indutype":"직물 - 침구·수예점","category":"other"},{"name":"제이앤제이(J&J)","tel":"031-535-9431","addr":"경기도 포천시 선단동 534번지 1호","indutype":"전기제품 - 기타전기제품","category":"other"}]},{"lat":"37.855166655","long":"127.15924584","imageIndex":17,"items":[{"name":"노아설비","tel":"031-543-9090","addr":"경기도 포천시 선단동 635-2번지","indutype":"용역 서비스 - 기타용역서비스","category":"other"}]},{"lat":"37.856059935","long":"127.15822506","imageIndex":17,"items":[{"name":"누네띠네","tel":"031-543-2871","addr":"경기도 포천시 선단동 643번지","indutype":"의류 - 정장","category":"other"}]},{"lat":"37.849754921","long":"127.1637792","imageIndex":17,"items":[{"name":"뉴선단공인중개사무소","tel":"544-8924","addr":"경기도 포천시 선단동 511-3번지","indutype":"부동산 - 부동산중개업","category":"other"}]},{"lat":"37.856571968","long":"127.16599845","imageIndex":17,"items":[{"name":"뉴일출광고기획","tel":"031-542-1088","addr":"경기도 포천시 선단동 112-1번지 신진빌라2차 가동 203호","indutype":"용역 서비스 - 사무서비스","category":"other"}]},{"lat":"37.85624782","long":"127.16586138","imageIndex":17,"items":[{"name":"다원올","tel":"070-4120-0082","addr":"경기도 포천시 선단동 112-2번지 한양아트빌 103동 401호","indutype":"회원제형태 - 기타4","category":"other"}]},{"lat":"37.851780937","long":"127.16457897","imageIndex":17,"items":[{"name":"다육꽃화원","tel":"031-0000-0000","addr":"경기도 포천시 선단동 497-1","indutype":"문화.취미 - 화원","category":"other"}]},{"lat":"37.850528886","long":"127.16439444","imageIndex":17,"items":[{"name":"대리가설재","tel":"031-535-1254","addr":"경기도 포천시 선단동 508-1번지","indutype":"건축자재 - 기타건축자재","category":"other"},{"name":"대리가설재","tel":"535-1254","addr":"경기도 포천시 선단동 508-1번지","indutype":"도소매 - 건축자재","category":"other"},{"name":"영진볼트공구","tel":"543-9585","addr":"경기도 포천시 선단동 508-1번지","indutype":"도소매 - 공구 등","category":"other"},{"name":"영진볼트공구","tel":"031-543-9585","addr":"경기도 포천시 선단동 508-1번지","indutype":"기타 - 기계공구","category":"other"},{"name":"영진종합수출포장","tel":"031-542-1663","addr":"경기도 포천시 선단동 508-1번지","indutype":"기타 - 기타 전문점","category":"other"},{"name":"유성레이저","tel":"031-541-3204","addr":"경기도 포천시 선단동 508-1번지","indutype":"용역 서비스 - 기타용역서비스","category":"other"}]},{"lat":"37.857782838","long":"127.15661509","imageIndex":17,"items":[{"name":"대명컨테이너","tel":"031-531-0656","addr":"경기도 포천시 선단동 670-1","indutype":"건축자재 - 기타건축자재","category":"other"}]},{"lat":"37.858306976","long":"127.15538894","imageIndex":17,"items":[{"name":"대상웰라이프녹즙","tel":"542-1560","addr":"경기도 포천시 선단동 668-2번지","indutype":"소매업 - 녹즙","category":"other"}]},{"lat":"37.866031349","long":"127.15970064","imageIndex":17,"items":[{"name":"대성건축","tel":"031-544-3790","addr":"경기도 포천시 선단동 251-3번지 빌라","indutype":"용역 서비스 - 기타용역서비스","category":"other"}]},{"lat":"37.857504201","long":"127.16938673","imageIndex":17,"items":[{"name":"대성종합수도","tel":"031-536-2250","addr":"경기도 포천시 선단동 82-16번지","indutype":"건축자재 - 기타건축자재","category":"other"},{"name":"대성종합수도","tel":"536-2250","addr":"경기도 포천시 선단동 82-16번지","indutype":"도소매 - 배관자재 등","category":"other"},{"name":"코오롱천막","tel":"031-535-6630","addr":"경기도 포천시 선단동 82-16번지","indutype":"기타 - 기타 전문점","category":"other"}]},{"lat":"37.858971063","long":"127.17056046","imageIndex":17,"items":[{"name":"대영트레이드","tel":"031-532-7222","addr":"경기도 포천시 선단동 144-5번지 1층 A동","indutype":"가구 - 일반가구","category":"other"},{"name":"성림ENG","tel":"031-532-7444","addr":"경기도 포천시 선단동 144-5번지","indutype":"기타 - 기계공구","category":"other"}]},{"lat":"37.859749076","long":"127.14777835","imageIndex":17,"items":[{"name":"대유어패럴","tel":"031-541-6190","addr":"경기도 포천시 선단동 825-14번지","indutype":"의류 - 정장","category":"other"}]},{"lat":"37.853950011","long":"127.16616311","imageIndex":17,"items":[{"name":"대진당구장","tel":"-","addr":"경기도 포천시 선단동 52-1번지","indutype":"서비스 - 당구장","category":"other"},{"name":"팀스트라익","tel":"542-2043","addr":"경기도 포천시 선단동 52-1번지","indutype":"교육서비스 - 주짓수,복싱,합기도","category":"other"}]},{"lat":"37.87069405","long":"127.15600546","imageIndex":17,"items":[{"name":"대진당구장","tel":"","addr":"경기도 포천시 선단동 산11-1","indutype":"서비스 - 당구장","category":"other"},{"name":"대진대구내안경점","tel":"536-5302","addr":"경기도 포천시 선단동 산 11-1","indutype":"소매업 - 안경점","category":"other"},{"name":"대진문화사","tel":"031-535-7011","addr":"경기도 포천시 선단동 산 11-1","indutype":"서적문구 - 출판 및 인쇄물","category":"other"},{"name":"주식회사 에너지아이","tel":"","addr":"경기도 포천시 선단동 산11-1번지 대진대학교 3층 산학협력단 302호","indutype":"전기제품 - 가전제품","category":"other"},{"name":"주식회사 에코썸","tel":"02-381-0513","addr":"경기도 포천시 선단동 산 11-1 대진대학교산학협력단 405","indutype":"전기제품 - 기타전기제품","category":"other"},{"name":"주식회사 포스웨이브","tel":"031-8089-7000","addr":"경기도 포천시 선단동 산11-1번지 대진대학교 3층 314호","indutype":"광학제품 - 기타광학제품","category":"other"},{"name":"주식회사 포천한진관광","tel":"031-543-6005","addr":"경기도 포천시 선단동 산11-1번지 대진대학교 학생회관 2층 214호","indutype":"여행 - 관광여행","category":"other"},{"name":"주식회사로보피아","tel":"031-536-4086","addr":"경기도 포천시 선단동 산11-1번지 대진대창업보육센터 305","indutype":"기타 - 기타 전문점","category":"other"},{"name":"주식회사에스에이치컨텐츠","tel":"02-6507-6087","addr":"경기도 포천시 선단동 산11-1번지 대진대학교 산학협력단 314호","indutype":"용역 서비스 - 종합용역","category":"other"},{"name":"포천시건강가정지원센터/아이돌봄","tel":"031-532-2067","addr":"경기도 포천시 선단동 산11-1번지 대진대학교 대진교육관 지하1층","indutype":"기타 - 비영리/대상","category":"other"}]},{"lat":"37.856645306","long":"127.17149833","imageIndex":17,"items":[{"name":"대진대학교구내문구사","tel":"031-539-1417","addr":"경기도 포천시 선단동 11번지","indutype":"서적문구 - 문구용품","category":"other"},{"name":"대진대학구내서점","tel":"031-539-1414","addr":"경기도 포천시 선단동 11번지","indutype":"서적문구 - 일반서적","category":"other"}]},{"lat":"37.854030164","long":"127.16683368","imageIndex":17,"items":[{"name":"대진정육점","tel":"543-5138","addr":"경기도 포천시 선단동 56-2번지","indutype":"소매업 - 축산물","category":"other"},{"name":"세진공인중개사무소","tel":"543-3072","addr":"경기도 포천시 선단동 56-2번지","indutype":"부동산 - 부동산중개업","category":"other"},{"name":"세진공인중개사사무소","tel":"031-543-3072","addr":"경기도 포천시 선단동 56-2번지","indutype":"용역 서비스 - 부동산 중개·임대","category":"other"},{"name":"패션세탁소","tel":"031-543-5585","addr":"경기도 포천시 선단동 56-2번지","indutype":"수리서비스 - 세탁소","category":"other"}]},{"lat":"37.852756997","long":"127.16886474","imageIndex":17,"items":[{"name":"대한인버터","tel":"031-544-1775","addr":"경기도 포천시 선단동 32-19번지","indutype":"전기제품 - 기타전기제품","category":"other"},{"name":"윈아트","tel":"031-542-0028","addr":"경기도 포천시 선단동 32-19번지","indutype":"용역 서비스 - 종합용역","category":"other"}]},{"lat":"37.851249104","long":"127.16478233","imageIndex":17,"items":[{"name":"덕진가설재","tel":"031-543-6988","addr":"경기도 포천시 선단동 502-8번지","indutype":"건축자재 - 기타건축자재","category":"other"}]},{"lat":"37.855699125","long":"127.15855382","imageIndex":17,"items":[{"name":"동민오에이","tel":"031-542-4497","addr":"경기도 포천시 선단동 642-1번지","indutype":"사무통신 - 사무용 OA기기","category":"other"}]},{"lat":"37.857693204","long":"127.16952351","imageIndex":17,"items":[{"name":"동양열기","tel":"031-542-0233","addr":"경기도 포천시 선단동 81-6번지 1층 2호","indutype":"전기제품 - 냉열기기","category":"other"},{"name":"동양열기","tel":"542-0233","addr":"경기도 포천시 선단동 81-6번지","indutype":"도소매 - 가스기구","category":"other"},{"name":"수공인중개사무소","tel":"541-3815","addr":"경기도 포천시 선단동 81-6번지","indutype":"부동산 - 부동산중개업","category":"other"},{"name":"포천 아크릴 렉산","tel":"","addr":"경기도 포천시 선단동 81-6번지 4호","indutype":"건축자재 - 기타건축자재","category":"other"}]},{"lat":"37.849090575","long":"127.16205075","imageIndex":17,"items":[{"name":"동양종합정화조","tel":"031-543-3020","addr":"경기도 포천시 선단동 554번지","indutype":"건축자재 - 기타건축자재","category":"other"}]},{"lat":"37.858612382","long":"127.1693665","imageIndex":17,"items":[{"name":"동일에너지","tel":"031-534-2574","addr":"경기도 포천시 선단동 134-7번지","indutype":"건축자재 - 보일러·펌프·샷시","category":"other"}]},{"lat":"37.852643845","long":"127.16602388","imageIndex":17,"items":[{"name":"디자인대진","tel":"031-541-1070","addr":"경기도 포천시 선단동 42번지","indutype":"서적문구 - 출판 및 인쇄물","category":"other"}]},{"lat":"37.850253976","long":"127.16116701","imageIndex":17,"items":[{"name":"디지털존","tel":"031-543-5630","addr":"경기도 포천시 선단동 549-6번지","indutype":"사무통신 - 컴퓨터","category":"other"}]},{"lat":"37.853805199","long":"127.16664002","imageIndex":17,"items":[{"name":"로얄당구회관","tel":"544-2115","addr":"경기도 포천시 선단동 49-2","indutype":"서비스 - 당구장","category":"other"},{"name":"문주슈퍼","tel":"542-1656","addr":"경기도 포천시 선단동 49-2번지","indutype":"소매업 - 잡화","category":"other"}]},{"lat":"37.861420631","long":"127.17124784","imageIndex":17,"items":[{"name":"만남편의점","tel":"031-535-6323","addr":"경기도 포천시 선단동 2-3번지","indutype":"소매업 - 편의점","category":"other"}]},{"lat":"37.856918626","long":"127.16936269","imageIndex":17,"items":[{"name":"명성공구안전건철","tel":"031-534-1544","addr":"경기도 포천시 선단동 82-21번지","indutype":"건축자재 - 목재·석재·철물","category":"other"}]},{"lat":"37.861916582","long":"127.17094214","imageIndex":17,"items":[{"name":"명성우드","tel":"031-535-9210","addr":"경기도 포천시 선단동 153-7번지","indutype":"건축자재 - 기타건축자재","category":"other"}]},{"lat":"37.852783207","long":"127.16944429","imageIndex":17,"items":[{"name":"모연자원","tel":"031-111-1111","addr":"경기도 포천시 선단동 32-4번지 1층","indutype":"건축자재 - 목재·석재·철물","category":"other"}]},{"lat":"37.854083253","long":"127.16752692","imageIndex":17,"items":[{"name":"미니스톱 포천캐슬점","tel":"031-1577-9621","addr":"경기도 포천시 선단동 59번지 허브캐슬3차 103동 101호","indutype":"유통업 영리 - 편 의 점","category":"other"}]},{"lat":"37.852220971","long":"127.16561391","imageIndex":17,"items":[{"name":"미니스톱포천세창점","tel":"031-1577-9621","addr":"경기도 포천시 선단동 41번지","indutype":"유통업 영리 - 편 의 점","category":"other"}]},{"lat":"37.8599985","long":"127.17030143","imageIndex":17,"items":[{"name":"미래통신","tel":"031-573-0861","addr":"경기도 포천시 선단동 139-1번지","indutype":"전기제품 - 기타전기제품","category":"other"},{"name":"우리전기난방공장직영할인매장","tel":"031-531-9203","addr":"경기도 포천시 선단동 139-1번지 1층","indutype":"건축자재 - 기타건축자재","category":"other"}]},{"lat":"37.848837019","long":"127.1630046","imageIndex":17,"items":[{"name":"벼룩가전중고할인마트","tel":"031-544-0789","addr":"경기도 포천시 선단동 526-4","indutype":"전기제품 - 기타전기제품","category":"other"},{"name":"주식회사오엠지(OMG.Kr)","tel":"031-544-1212","addr":"경기도 포천시 선단동 526-4번지 외1필지","indutype":"신변잡화 - 기타잡화","category":"other"}]},{"lat":"37.848557991","long":"127.16281085","imageIndex":17,"items":[{"name":"보메문구센터","tel":"031-544-3484","addr":"경기도 포천시 선단동 526-5번지","indutype":"서적문구 - 문구용품","category":"other"}]},{"lat":"37.858360362","long":"127.16919548","imageIndex":17,"items":[{"name":"사랑만들기","tel":"070-8973-5349","addr":"경기도 포천시 선단동 134-2번지","indutype":"신변잡화 - 기타잡화","category":"other"},{"name":"서울도배방","tel":"031-535-5451","addr":"경기도 포천시 선단동 134-2번지","indutype":"직물 - 카페트,커튼,천막,지물","category":"other"},{"name":"포천정밀래핑","tel":"031-536-1468","addr":"경기도 포천시 선단동 134-2번지 1층","indutype":"기타 - 기계공구","category":"other"}]},{"lat":"37.859310325","long":"127.1528115","imageIndex":17,"items":[{"name":"상록전기","tel":"070-8616-3131","addr":"경기도 포천시 선단동 790-1번지 다가구주택상가가동2호","indutype":"기타 - 기계공구","category":"other"}]},{"lat":"37.854971461","long":"127.16369964","imageIndex":17,"items":[{"name":"샤론화원","tel":"031-543-1063","addr":"경기도 포천시 선단동 428번지","indutype":"문화.취미 - 화원","category":"other"}]},{"lat":"37.861530378","long":"127.14983869","imageIndex":17,"items":[{"name":"선단동산돌노인요양공동생활가정","tel":"031-543-7332","addr":"경기도 포천시 선단동 817번지","indutype":"기타의료기관 - 기타의료기관 및 기타","category":"other"}]},{"lat":"37.853671099","long":"127.16588979","imageIndex":17,"items":[{"name":"선단떡방앗간","tel":"542-3525","addr":"경기도 포천시 선단동 52-3번지","indutype":"제조업 - 떡집","category":"other"}]},{"lat":"37.85316604","long":"127.16627501","imageIndex":17,"items":[{"name":"선단중앙통신","tel":"031-544-8949","addr":"경기도 포천시 선단동 45-2","indutype":"사무통신 - 통신기기","category":"other"},{"name":"신성안경","tel":"542-6789","addr":"경기도 포천시 선단동 45-2번지","indutype":"도소매 - 안경점","category":"other"},{"name":"신성안경","tel":"542-6789","addr":"경기도 포천시 선단동 45-2번지","indutype":"도소매 - 안경점","category":"other"}]},{"lat":"37.857972878","long":"127.15596778","imageIndex":17,"items":[{"name":"선단철물","tel":"031-543-5688","addr":"경기도 포천시 선단동 668-3번지","indutype":"건축자재 - 목재·석재·철물","category":"other"}]},{"lat":"37.850692993","long":"127.16297453","imageIndex":17,"items":[{"name":"선단축산물도매센타","tel":"","addr":"경기도 포천시 선단동 460-20번지 102호","indutype":"도매 - 축산물","category":"other"}]},{"lat":"37.851306046","long":"127.16266908","imageIndex":17,"items":[{"name":"선단통신","tel":"031-8080-0716","addr":"경기도 포천시 선단동 460-22번지","indutype":"사무통신 - 통신기기","category":"other"}]},{"lat":"37.85658805","long":"127.1539423","imageIndex":17,"items":[{"name":"선진물산","tel":"031-000-0000","addr":"경기도 포천시 선단동 856-5번지","indutype":"기타 - 기계공구","category":"other"}]},{"lat":"37.853696787","long":"127.16685567","imageIndex":17,"items":[{"name":"성신철물","tel":"031-542-1647","addr":"경기도 포천시 선단동 49-5번지","indutype":"기타 - 기타 전문점","category":"other"},{"name":"성신철물,건재","tel":"","addr":"경기도 포천시 선단동 49-5번지","indutype":"소매업 - 건축자재","category":"other"}]},{"lat":"37.862531429","long":"127.15611358","imageIndex":17,"items":[{"name":"세간가구장식","tel":"031-541-6265","addr":"경기도 포천시 선단동 289-1번지","indutype":"가구 - 기타가구","category":"other"},{"name":"태창조명","tel":"542-8777","addr":"경기도 포천시 선단동 289-1","indutype":"도소매 - 조명기구","category":"other"}]},{"lat":"37.852831651","long":"127.16702419","imageIndex":17,"items":[{"name":"세븐일레븐포천선단마을점","tel":"031-1577-0711","addr":"경기도 포천시 선단동 34번지 허브캐슬 103동 101호 102호","indutype":"유통업 영리 - 편 의 점","category":"other"},{"name":"세븐일레븐포천선단마을점","tel":"534-3784","addr":"경기도 포천시 선단동 34번지 103동 101호","indutype":"소매업 - 편의점","category":"other"},{"name":"지니앤퍼니","tel":"031-543-5123","addr":"경기도 포천시 선단동 34번지 102동 1층 102호","indutype":"여행 - 관광여행","category":"other"}]},{"lat":"37.860720159","long":"127.14933707","imageIndex":17,"items":[{"name":"세븐일레븐포천선단점","tel":"031-1577-0711","addr":"경기도 포천시 선단동 815-8번지","indutype":"유통업 영리 - 편 의 점","category":"other"}]},{"lat":"37.858113994","long":"127.16496779","imageIndex":17,"items":[{"name":"솔모루설비","tel":"","addr":"경기도 포천시 선단동 390번지 럭키빌라 401호","indutype":"용역 서비스 - 기타용역서비스","category":"other"}]},{"lat":"37.857748399","long":"127.16871685","imageIndex":17,"items":[{"name":"송우벽지장판인테리어","tel":"031-533-4333","addr":"경기도 포천시 선단동 104-5번지","indutype":"건축자재 - 인테리어전문","category":"other"}]},{"lat":"37.856835875","long":"127.15736309","imageIndex":17,"items":[{"name":"송한숙홈패션","tel":"031-542-6804","addr":"경기도 포천시 선단동 678-4번지","indutype":"직물 - 침구·수예점","category":"other"}]},{"lat":"37.853588596","long":"127.16031059","imageIndex":17,"items":[{"name":"순자아줌마반찬","tel":"","addr":"경기도 포천시 선단동 438번지","indutype":"소매업 - 반찬","category":"other"}]},{"lat":"37.857054167","long":"127.16907892","imageIndex":17,"items":[{"name":"승진수중모터펌프","tel":"031-535-6688","addr":"경기도 포천시 선단동 82-18번지 1층","indutype":"기타 - 기계공구","category":"other"}]},{"lat":"37.857780851","long":"127.15113801","imageIndex":17,"items":[{"name":"신발창고","tel":"","addr":"경기도 포천시 선단동 838-49번지 101호","indutype":"신변잡화 - 신발","category":"other"}]},{"lat":"37.856810947","long":"127.16905564","imageIndex":17,"items":[{"name":"신북낚시","tel":"535-9189","addr":"경기도 포천시 선단동 82-14번지","indutype":"소매업 - 스포츠","category":"other"}]},{"lat":"37.851450319","long":"127.16257849","imageIndex":17,"items":[{"name":"신우전기재료","tel":"031-542-5270","addr":"경기도 포천시 선단동 460-14번지","indutype":"전기제품 - 기타전기제품","category":"other"}]},{"lat":"37.857366692","long":"127.15092128","imageIndex":17,"items":[{"name":"씨유포천선단점","tel":"031-543-6766","addr":"경기도 포천시 선단동 834-11번지","indutype":"유통업 영리 - 편 의 점","category":"other"}]},{"lat":"37.848640368","long":"127.16185664","imageIndex":17,"items":[{"name":"씨유포천이마트점","tel":"031-544-8145","addr":"경기도 포천시 선단동 555-2번지","indutype":"유통업 영리 - 편 의 점","category":"other"},{"name":"여시라인","tel":"","addr":"경기도 포천시 선단동 555-2번지 101호","indutype":"의류 - 정장","category":"other"}]},{"lat":"37.851612549","long":"127.16253339","imageIndex":17,"items":[{"name":"씨유포천진주점","tel":"031-541-7992","addr":"경기도 포천시 선단동 460-13번지","indutype":"유통업 영리 - 편 의 점","category":"other"}]},{"lat":"37.858085113","long":"127.16630859","imageIndex":17,"items":[{"name":"아리","tel":"","addr":"경기도 포천시 선단동 119-4번지","indutype":"가구 - 기타가구","category":"other"}]},{"lat":"37.849999612","long":"127.16272307","imageIndex":17,"items":[{"name":"에이마트불날리할인마트","tel":"541-7570","addr":"경기도 포천시 선단동 536번지","indutype":"도소매 - 잡화","category":"other"}]},{"lat":"37.849332008","long":"127.16339198","imageIndex":17,"items":[{"name":"영준상사","tel":"031-541-8278","addr":"경기도 포천시 선단동 526-8번지","indutype":"건축자재 - 페인트","category":"other"}]},{"lat":"37.858800162","long":"127.15014008","imageIndex":17,"items":[{"name":"올래체육사","tel":"031-7117-4040","addr":"경기도 포천시 선단동 809-1번지 행복마을 104동 104호","indutype":"회원제형태 - 기타4","category":"other"}]},{"lat":"37.85247077","long":"127.16738699","imageIndex":17,"items":[{"name":"웃음 천국","tel":"070-8877-0469","addr":"경기도 포천시 선단동 36번지 그린캐슬 2동 401호","indutype":"의류 - 내의판매","category":"other"}]},{"lat":"37.863143235","long":"127.15675123","imageIndex":17,"items":[{"name":"웰스첸경기북부영업소","tel":"031-541-7439","addr":"경기도 포천시 선단동 286번지","indutype":"신변잡화 - 기타잡화","category":"other"}]},{"lat":"37.861612579","long":"127.14894111","imageIndex":17,"items":[{"name":"유진","tel":"031-543-7210","addr":"경기도 포천시 선단동 818-3번지","indutype":"직물 - 침구·수예점","category":"other"}]},{"lat":"37.856366402","long":"127.15811207","imageIndex":17,"items":[{"name":"이레설비","tel":"034-543-4344","addr":"경기도 포천시 선단동 685-4번지","indutype":"수리서비스 - 기타수리서비스","category":"other"}]},{"lat":"37.862170552","long":"127.1564992","imageIndex":17,"items":[{"name":"이룸데코","tel":"031-541-3534","addr":"경기도 포천시 선단동 289-5번지","indutype":"직물 - 침구·수예점","category":"other"}]},{"lat":"37.858195209","long":"127.15119566","imageIndex":17,"items":[{"name":"이마트24포천백두점","tel":"543-2035","addr":"경기도 포천시 선단동 838-24번지","indutype":"편의점 - 잡화","category":"other"}]},{"lat":"37.857027176","long":"127.15574993","imageIndex":17,"items":[{"name":"인(JJ)산업","tel":"031-000-0000","addr":"경기도 포천시 선단동 663-4번지","indutype":"주방용구 - 주방용구","category":"other"},{"name":"트윈트리(twin tree)","tel":"","addr":"경기도 포천시 선단동 663-4번지","indutype":"서적문구 - 문구용품","category":"other"}]},{"lat":"37.854338563","long":"127.15866459","imageIndex":17,"items":[{"name":"인연종합상사","tel":"031-542-5889","addr":"경기도 포천시 선단동 611-2번지 은성빌라 1층 103호","indutype":"건축자재 - 조명기구","category":"other"}]},{"lat":"37.854285521","long":"127.1645958","imageIndex":17,"items":[{"name":"인파워 병원전문교육 컨설팅","tel":"031-000-0000","addr":"경기도 포천시 선단동 485-1번지 한국하이츠빌라 나동 304호","indutype":"용역 서비스 - 사무서비스","category":"other"}]},{"lat":"37.854474393","long":"127.15814219","imageIndex":17,"items":[{"name":"임병장군장점","tel":"031-696-5047","addr":"경기도 포천시 선단동 609-1번지 우리마을빌라 101동 105호","indutype":"신변잡화 - 기념품점","category":"other"}]},{"lat":"37.856949327","long":"127.16013592","imageIndex":17,"items":[{"name":"자룡B&C","tel":"031-541-4779","addr":"경기도 포천시 선단동 364-5번지","indutype":"기타 - 기타 전문점","category":"other"}]},{"lat":"37.856032396","long":"127.15861134","imageIndex":17,"items":[{"name":"장수떡방앗간","tel":"543-7738","addr":"경기도 포천시 선단동 685-5번지 101호","indutype":"제조업 - 방앗간","category":"other"}]},{"lat":"37.856310193","long":"127.16636149","imageIndex":17,"items":[{"name":"정민상사","tel":"031-536-7136","addr":"경기도 포천시 선단동 112-1번지 신진빌라2차 다동 401호","indutype":"회원제형태 - 기타3","category":"other"}]},{"lat":"37.859332712","long":"127.16966357","imageIndex":17,"items":[{"name":"정원가구","tel":"01-534-6399","addr":"경기도 포천시 선단동 135-1번지","indutype":"가구 - 일반가구","category":"other"}]},{"lat":"37.851225347","long":"127.16238485","imageIndex":17,"items":[{"name":"종로떡집","tel":"543-3808","addr":"경기도 포천시 선단동 537-5번지","indutype":"제조업 - 떡집","category":"other"}]},{"lat":"37.862583891","long":"127.1640571","imageIndex":17,"items":[{"name":"주식회사 나린에코","tel":"031-544-0730","addr":"경기도 포천시 선단동 334-1번지","indutype":"건축자재 - 목재·석재·철물","category":"other"}]},{"lat":"37.862029532","long":"127.16094219","imageIndex":17,"items":[{"name":"주식회사성림에너지","tel":"031-541-8839","addr":"경기도 포천시 선단동 308-27번지","indutype":"기타 - 기계공구","category":"other"}]},{"lat":"37.855364484","long":"127.15953032","imageIndex":17,"items":[{"name":"중부종합상사","tel":"031-542-8908","addr":"경기도 포천시 선단동 689-4번지","indutype":"건축자재 - 목재·석재·철물","category":"other"}]},{"lat":"37.859364988","long":"127.15233435","imageIndex":17,"items":[{"name":"진아슈퍼","tel":"543-6386","addr":"경기도 포천시 선단동 792-8","indutype":"소매업 - 잡화","category":"other"}]},{"lat":"37.857671108","long":"127.16600087","imageIndex":17,"items":[{"name":"챔프솔루션","tel":"531-7713","addr":"경기도 포천시 선단동 119-3번지 청옥빌라","indutype":"소매업 - CCTV판매","category":"other"}]},{"lat":"37.863917319","long":"127.16402591","imageIndex":17,"items":[{"name":"청강","tel":"070-4616-0880","addr":"경기도 포천시 선단동 327-16","indutype":"주방용구 - 주방용식기","category":"other"}]},{"lat":"37.853061168","long":"127.16392274","imageIndex":17,"items":[{"name":"체인지","tel":"","addr":"경기도 포천시 선단동 468-2번지 삼익빌라트 7동 201호","indutype":"의류 - 내의판매","category":"other"}]},{"lat":"37.853194295","long":"127.16538879","imageIndex":17,"items":[{"name":"크린토피아 코인워시 대진대점","tel":"031-543-5417","addr":"경기도 포천시 선단동 487-10번지 상가동 1층","indutype":"수리서비스 - 세탁소","category":"other"}]},{"lat":"37.851198257","long":"127.15563563","imageIndex":17,"items":[{"name":"타운일일사싸우라비공방","tel":"031-543-2744","addr":"경기도 포천시 선단동 580-4번지","indutype":"레져용품 - 스포츠·레져용품","category":"other"}]},{"lat":"37.850256496","long":"127.15928091","imageIndex":17,"items":[{"name":"팜파스","tel":"031-853-2858","addr":"경기도 포천시 선단동 568-4번지","indutype":"가구 - 일반가구","category":"other"}]},{"lat":"37.851951082","long":"127.16532925","imageIndex":17,"items":[{"name":"포천제일공인중개사무소","tel":"544-9004","addr":"경기도 포천시 선단동 495-1번지","indutype":"부동산 - 부동산중개업","category":"other"}]},{"lat":"37.85664001","long":"127.16888481","imageIndex":17,"items":[{"name":"포천중고재활용","tel":"031-542-7282","addr":"경기도 포천시 선단동 82-8번지","indutype":"전기제품 - 가전제품","category":"other"},{"name":"포천중고재활용","tel":"542-7282","addr":"경기도 포천시 선단동 82-8번지","indutype":"소매업 - 가전제품","category":"other"}]},{"lat":"37.859942004","long":"127.15200597","imageIndex":17,"items":[{"name":"플러스 광고","tel":"031-544-7572","addr":"경기도 포천시 선단동 796-6번지 101호","indutype":"건축자재 - 인테리어전문","category":"other"}]},{"lat":"37.865914046","long":"127.15983676","imageIndex":17,"items":[{"name":"학사편의점","tel":"070-4068-6618","addr":"경기도 포천시 선단동 251-19번지","indutype":"유통업 영리 - 편 의 점","category":"other"}]},{"lat":"37.858116209","long":"127.16983128","imageIndex":17,"items":[{"name":"한국 모타","tel":"031-541-2880","addr":"경기도 포천시 선단동 81-8번지","indutype":"수리서비스 - 기타수리서비스","category":"other"}]},{"lat":"37.848359986","long":"127.16266272","imageIndex":17,"items":[{"name":"한국종합주방","tel":"031-541-2225","addr":"경기도 포천시 선단동 526-6번지","indutype":"전기제품 - 가전제품","category":"other"}]},{"lat":"37.852610171","long":"127.16430808","imageIndex":17,"items":[{"name":"한마음유통","tel":"031-541-5773","addr":"경기도 포천시 선단동 468-2번지 삼익빌라트 1동 103호","indutype":"회원제형태 - 기타4","category":"other"}]},{"lat":"37.850115869","long":"127.16335959","imageIndex":17,"items":[{"name":"현대이불","tel":"541-3913","addr":"경기도 포천시 선단동 499-8번지","indutype":"소매업 - 침구류","category":"other"},{"name":"현대이불","tel":"031-541-3913","addr":"경기도 포천시 선단동 499-8번지","indutype":"직물 - 침구·수예점","category":"other"},{"name":"현대커텐","tel":"031-541-3913","addr":"경기도 포천시 선단동 499-8번지","indutype":"직물 - 카페트,커튼,천막,지물","category":"other"}]},{"lat":"37.850999726","long":"127.15588519","imageIndex":17,"items":[{"name":"현재섬유","tel":"070-7792-1990","addr":"경기도 포천시 선단동 580-13번지","indutype":"의류 - 기타의류","category":"other"}]},{"lat":"37.857918229","long":"127.16967174","imageIndex":17,"items":[{"name":"황금낚시","tel":"536-5788","addr":"경기도 포천시 선단동 81-5번지","indutype":"소매업 - 낚시용품","category":"other"}]},{"lat":"37.855755303","long":"127.15694041","imageIndex":17,"items":[{"name":"효정원","tel":"031-532-2228","addr":"경기도 포천시 선단동 856-11번지","indutype":"기타의료기관 - 기타의료기관 및 기타","category":"other"}]}]