[{"lat":"37.3862290932","long":"126.9763126104","imageIndex":16,"items":[{"name":"100수학","tel":"","addr":"경기도 의왕시 내손동 846번지 의왕내손이편한세상","indutype":"학원 - 기타 교육기관","category":"study"}]},{"lat":"37.3791105240","long":"126.9738424758","imageIndex":16,"items":[{"name":"EXAM4YOU어학원(이그잼포유어학원)","tel":"031-425-8887","addr":"경기도 의왕시 내손동 755-1번지 오남프라자 501호~502호","indutype":"학원 - 기타 교육기관","category":"study"},{"name":"용인대 대현 유도관","tel":"070-8943-3965","addr":"경기도 의왕시 내손동 755-1번지 오남프라자 701호","indutype":"학원 - 예·체능계학원","category":"study"}]},{"lat":"37.3856980199","long":"126.9787517860","imageIndex":16,"items":[{"name":"G21영수학원","tel":"031-687-8717","addr":"경기도 의왕시 내손동 846번지 의왕내손이편한세상 204호","indutype":"학원 - 보습학원","category":"study"},{"name":"그리미미술학원","tel":"031-425-1251","addr":"경기도 의왕시 내손동 846번지 302호 의왕내손E편한세상4단지상가","indutype":"학원 - 예·체능계학원","category":"study"},{"name":"매쓰앤플레이학원","tel":"031-426-4080","addr":"경기도 의왕시 내손동 846번지 4단지 상가 3층 301호","indutype":"회원제형태 - 학원","category":"study"},{"name":"석사경희태권도","tel":"031-425-4242","addr":"경기도 의왕시 내손동 846번지 303,304호","indutype":"학원 - 예·체능계학원","category":"study"},{"name":"아이편한어린이집[아이행복]","tel":"031-424-1377","addr":"경기도 의왕시 내손동 846번지 의왕내손이편한세상 관리동","indutype":"학원 - 유아원","category":"study"},{"name":"이화라라발레학원","tel":"031-422-7382","addr":"경기도 의왕시 내손동 846번지 의왕내손이편한세상 201호","indutype":"학원 - 예·체능계학원","category":"study"},{"name":"하늘사랑어린이집[아이행복]","tel":"031-421-9887","addr":"경기도 의왕시 내손동 846번지 의왕내손이편한세상4단지 관리동","indutype":"학원 - 유아원","category":"study"}]},{"lat":"37.3880311646","long":"126.9765378135","imageIndex":16,"items":[{"name":"GN영수학원","tel":"031-342-2965","addr":"경기도 의왕시 내손동 842번지 래미안에버하임아파트 상가, 농협은행 3층 307호","indutype":"학원 - 보습학원","category":"study"},{"name":"뮤엠영어","tel":"031-426-7771","addr":"경기도 의왕시 내손동 842번지 상가에이동 2층 207호","indutype":"학원 - 외국어학원","category":"study"},{"name":"하이수학학원","tel":"031-422-5535","addr":"경기도 의왕시 내손동 842 래미안에버하임상가A동305호","indutype":"학원 - 보습학원","category":"study"}]},{"lat":"37.3886347271","long":"126.9760294599","imageIndex":16,"items":[{"name":"SKY(스카이)수학학원","tel":"031-424-0802","addr":"경기도 의왕시 내손동 631-2번지 건형상가 306호","indutype":"회원제형태 - 학원","category":"study"},{"name":"라라피아노교습소","tel":"031-425-7705","addr":"경기도 의왕시 내손동 631-2번지 건형상가","indutype":"학원 - 예·체능계학원","category":"study"},{"name":"별하스터디센터의왕포일독서실","tel":"031-385-7773","addr":"경기도 의왕시 내손동 631-2번지 건형상가 301,302,303호 일부","indutype":"학원 - 독서실","category":"study"},{"name":"전예석학원","tel":"031-425-3131","addr":"경기도 의왕시 내손동 631-2번지 건형상가 302호","indutype":"학원 - 기타 교육기관","category":"study"}]},{"lat":"37.3900315952","long":"126.9773953253","imageIndex":16,"items":[{"name":"TM수학학원","tel":"031-423-4609","addr":"경기도 의왕시 내손동 414-3번지 대림프라자 501호","indutype":"학원 - 보습학원","category":"study"},{"name":"고운정실용음악학원","tel":"031-425-7708","addr":"경기도 의왕시 내손동 414-3번지 대림프라자 405호","indutype":"학원 - 예·체능계학원","category":"study"},{"name":"대한민국 1등 석사경희대 태권도장","tel":"031-426-8181","addr":"경기도 의왕시 내손동 414-3번지 대림프라자 504호","indutype":"학원 - 예·체능계학원","category":"study"},{"name":"로잔무용학원","tel":"031-422-4001","addr":"경기도 의왕시 내손동 414-3번지 대림프라자 308호","indutype":"학원 - 예·체능계학원","category":"study"},{"name":"쎈ssen수학러닝센터내손학원","tel":"031-424-5525","addr":"경기도 의왕시 내손동 414-3번지 대림프라자 503호 일부","indutype":"학원 - 보습학원","category":"study"},{"name":"아미논술교습소","tel":"031-424-5247","addr":"경기도 의왕시 내손동 414-3번지 대림프라자 3층 301호","indutype":"학원 - 보습학원","category":"study"},{"name":"아트&하트 내손센터학원","tel":"031-421-8228","addr":"경기도 의왕시 내손동 414-3번지 대림프라자","indutype":"회원제형태 - 학원","category":"study"},{"name":"오르다 샘앤클래스 학원","tel":"070-7766-3080","addr":"경기도 의왕시 내손동 414-3번지 대림프라자 301호","indutype":"학원 - 보습학원","category":"study"},{"name":"용인대삼우체육관","tel":"031-445-6175","addr":"경기도 의왕시 내손동 414-3번지 대림프라자 407호","indutype":"학원 - 예·체능계학원","category":"study"},{"name":"제이앤제이영어(J&J English)학원","tel":"031-425-9224","addr":"경기도 의왕시 내손동 414-3번지 대림프라자 407호","indutype":"학원 - 보습학원","category":"study"},{"name":"프라임수학YBM잉글루내손학원","tel":"031-421-1248","addr":"경기도 의왕시 내손동 414-3번지 대림프라자 상가동 504-1호","indutype":"학원 - 보습학원","category":"study"},{"name":"프라임수학YBM잉글루내손학원","tel":"031-421-1248","addr":"경기도 의왕시 내손동 414-3번지 대림프라자 상가동 504-1호","indutype":"학원 - 보습학원","category":"study"},{"name":"피앤에스음악학원","tel":"031-426-7555","addr":"경기도 의왕시 내손동 414-3번지 대림프라자 504호","indutype":"학원 - 예·체능계학원","category":"study"}]},{"lat":"37.3908342116","long":"126.9809747386","imageIndex":16,"items":[{"name":"YS과학교습소","tel":"02-502-9783","addr":"경기도 의왕시 내손동 653번지 2층","indutype":"학원 - 보습학원","category":"study"}]},{"lat":"37.3861928489","long":"126.9754205800","imageIndex":16,"items":[{"name":"e-해법수학","tel":"031-8033-7205","addr":"경기도 의왕시 내손동 622-11번지","indutype":"학원 - 보습학원","category":"study"},{"name":"스텔라영어","tel":"031-422-7894","addr":"경기도 의왕시 내손동 622-11번지 2층 일부","indutype":"학원 - 외국어학원","category":"study"},{"name":"이루미독서논술학원","tel":"031-422-0987","addr":"경기도 의왕시 내손동 622-11번지","indutype":"회원제형태 - 학원","category":"study"}]},{"lat":"37.3756683787","long":"126.9727260824","imageIndex":16,"items":[{"name":"갈뫼경희태권도장","tel":"031-421-0980","addr":"경기도 의왕시 내손동 774번지 반도보리빌리지2단지 상가동 201호","indutype":"학원 - 예·체능계학원","category":"study"}]},{"lat":"37.3754781670","long":"126.9690343025","imageIndex":16,"items":[{"name":"갈뫼유치원[아이행복]","tel":"031-429-6723","addr":"경기도 의왕시 내손동 805번지","indutype":"학원 - 유치원","category":"study"}]},{"lat":"37.3774438518","long":"126.9746673158","imageIndex":16,"items":[{"name":"갈뫼중학교","tel":"031-425-3215","addr":"경기도 의왕시 내손동 785번지 갈뫼중학교","indutype":"학원 - 초중고교육기관","category":"study"}]},{"lat":"37.3765332285","long":"126.9722515461","imageIndex":16,"items":[{"name":"갈뫼초등학교","tel":"031-426-6704","addr":"경기도 의왕시 내손동 780번지 갈뫼초등학교","indutype":"학원 - 초중고교육기관","category":"study"},{"name":"갈뫼초등학교병설유치원[아이행복]","tel":"031-426-6706","addr":"경기도 의왕시 내손동 780번지 갈뫼초등학교","indutype":"학원 - 유치원","category":"study"}]},{"lat":"37.3903572556","long":"126.9843625707","imageIndex":16,"items":[{"name":"개똥이네어린이집[아이행복]","tel":"031-422-3281","addr":"경기도 의왕시 내손동 656-11번지","indutype":"학원 - 유아원","category":"study"},{"name":"개똥이네어린이집[아이행복]","tel":"031-422-3281","addr":"경기도 의왕시 내손동 656-11번지","indutype":"학원 - 유아원","category":"study"}]},{"lat":"37.3858876694","long":"126.9809987616","imageIndex":16,"items":[{"name":"개인과외","tel":"031-424-1255","addr":"경기도 의왕시 내손동 683-11번지 202호","indutype":"회원제형태 - 학원","category":"study"}]},{"lat":"37.3791375042","long":"126.9736392340","imageIndex":16,"items":[{"name":"경희원도태권도장","tel":"061-424-1910","addr":"경기도 의왕시 내손동 755번지 우성메디컬센타 502호","indutype":"학원 - 예·체능계학원","category":"study"},{"name":"매쓰멘토수학학원","tel":"031-423-8060","addr":"경기도 의왕시 내손동 755번지 우성메디칼센터 401호","indutype":"학원 - 보습학원","category":"study"},{"name":"플레이팩토영수학원","tel":"031-426-0722","addr":"경기도 의왕시 내손동 755번지 우성메디칼센터 601호","indutype":"학원 - 외국어학원","category":"study"}]},{"lat":"37.3791556298","long":"126.9740682710","imageIndex":16,"items":[{"name":"계원고시텔","tel":"031-347-5100","addr":"경기도 의왕시 내손동 755-2번지 미원파크빌 201동 201호 ,202,203호","indutype":"학원 - 독서실","category":"study"}]},{"lat":"37.3786692089","long":"126.9745878228","imageIndex":16,"items":[{"name":"공감수학교습소","tel":"031-423-6331","addr":"경기도 의왕시 내손동 762번지 302호 해피플러스상가투","indutype":"회원제형태 - 학원","category":"study"},{"name":"소울음악학원","tel":"031-426-9990","addr":"경기도 의왕시 내손동 762번지 해피플러스 303호","indutype":"학원 - 예·체능계학원","category":"study"}]},{"lat":"37.3850585252","long":"126.9798698511","imageIndex":16,"items":[{"name":"관인포일은현음악학원","tel":"031-425-0059","addr":"경기도 의왕시 내손동 684-10번지 2층","indutype":"학원 - 예·체능계학원","category":"study"}]},{"lat":"37.3861485459","long":"126.9788532667","imageIndex":16,"items":[{"name":"그라시아어린이집[아이행복]","tel":"031-426-1126","addr":"경기도 의왕시 내손동 633","indutype":"학원 - 유아원","category":"study"}]},{"lat":"37.3787231689","long":"126.9741700516","imageIndex":16,"items":[{"name":"글샘한자","tel":"031-423-3211","addr":"경기도 의왕시 내손동 762-2번지 그린프라자 202호","indutype":"학원 - 기타 교육기관","category":"study"},{"name":"내손잉글리쉬무무보습학원","tel":"031-425-9905","addr":"경기도 의왕시 내손동 762-2번지 그린프라자 201호","indutype":"학원 - 보습학원","category":"study"},{"name":"뉴비엔나음악학원","tel":"031-426-6006","addr":"경기도 의왕시 내손동 762-2번지 그린프라자 501호","indutype":"학원 - 예·체능계학원","category":"study"},{"name":"다원독서토론논술교습소","tel":"","addr":"경기도 의왕시 내손동 762-2번지 그린프라자 3층 303호","indutype":"학원 - 보습학원","category":"study"},{"name":"리차드영어교습소","tel":"031-2678-7789","addr":"경기도 의왕시 내손동 762-2번지 그린프라자 203호","indutype":"학원 - 외국어학원","category":"study"},{"name":"석사 경희대 훌륭한 태권도","tel":"031-426-7942","addr":"경기도 의왕시 내손동 762-2번지 그린프라자 상가 402호","indutype":"학원 - 예·체능계학원","category":"study"}]},{"lat":"37.3844717404","long":"126.9746646821","imageIndex":16,"items":[{"name":"기쁨어린이집[아이행복]","tel":"031-426-0071","addr":"경기도 의왕시 내손동 844번지 포일자이아파트","indutype":"학원 - 유아원","category":"study"}]},{"lat":"37.3871398597","long":"126.9798692148","imageIndex":16,"items":[{"name":"김미현수학학원","tel":"031-425-7535","addr":"경기도 의왕시 내손동 643-6번지 내손신성프라자 503호","indutype":"학원 - 보습학원","category":"study"},{"name":"오픈 스테이지 더 앙상블","tel":"031-458-0202","addr":"경기도 의왕시 내손동 643-6번지 내손신성프라자 504호","indutype":"학원 - 예·체능계학원","category":"study"},{"name":"참사람검도관","tel":"031-478-2500","addr":"경기도 의왕시 내손동 643-6번지 내손신성프라자 4층 404호","indutype":"학원 - 예·체능계학원","category":"study"},{"name":"키즈태권도&파워줄넘기클럽","tel":"031-454-2531","addr":"경기도 의왕시 내손동 643-6번지 내손신성프라자 602호","indutype":"학원 - 예·체능계학원","category":"study"}]},{"lat":"37.3794703105","long":"126.9714261319","imageIndex":16,"items":[{"name":"김선희어학원","tel":"031-424-8895","addr":"경기도 의왕시 내손동 752번지 캠퍼스프라자 3층 302호","indutype":"회원제형태 - 학원","category":"study"},{"name":"비지니스IT학원","tel":"031-421-1012","addr":"경기도 의왕시 내손동 752번지 캠퍼스프라자 2층 206호","indutype":"학원 - 컴퓨터학원","category":"study"},{"name":"토즈스터디센터 내손독서실","tel":"031-421-5109","addr":"경기도 의왕시 내손동 752번지 캠퍼스프라자 402,403 (일부)호","indutype":"학원 - 독서실","category":"study"},{"name":"플레아띠창의융합미술학원","tel":"070-8830-6687","addr":"경기도 의왕시 내손동 752번지 캠퍼스프라자 3층 301호","indutype":"학원 - 예·체능계학원","category":"study"}]},{"lat":"37.3772446997","long":"126.9710093188","imageIndex":16,"items":[{"name":"꼬꼬마어린이집[아이행복]","tel":"031-423-5979","addr":"경기도 의왕시 내손동 795번지 대원칸타빌1단지","indutype":"학원 - 유아원","category":"study"}]},{"lat":"37.3900763765","long":"126.9761757451","imageIndex":16,"items":[{"name":"꼬마둥지어린이집[아이행복]","tel":"031-426-2027","addr":"경기도 의왕시 내손동 414번지 삼성래미안아파트","indutype":"학원 - 유아원","category":"study"}]},{"lat":"37.3860847355","long":"126.9754544944","imageIndex":16,"items":[{"name":"꿈나무유치원[아이행복]","tel":"031-423-2330","addr":"경기도 의왕시 내손동 622-12번지 1층","indutype":"학원 - 유치원","category":"study"}]},{"lat":"37.3792815137","long":"126.9730294830","imageIndex":16,"items":[{"name":"꿈노트 멘토링 학원","tel":"031-422-5552","addr":"경기도 의왕시 내손동 748-3번지 제일프라자 805호","indutype":"학원 - 보습학원","category":"study"},{"name":"보드앤블럭시티","tel":"070-4124-6254","addr":"경기도 의왕시 내손동 748-3번지 제일프라자 703호","indutype":"학원 - 기타 교육기관","category":"study"},{"name":"아고라학원","tel":"031-425-2220","addr":"경기도 의왕시 내손동 748-3번지 제일프라자 5층 502호","indutype":"학원 - 보습학원","category":"study"},{"name":"아트앤하트계원대점학원","tel":"070-4124-1338","addr":"경기도 의왕시 내손동 748-3번지 제일프라자 303호","indutype":"학원 - 예·체능계학원","category":"study"},{"name":"에크미수학학원","tel":"031-425-0880","addr":"경기도 의왕시 내손동 748-3번지 제일프라자 505호","indutype":"학원 - 보습학원","category":"study"},{"name":"제이제이실용음악학원","tel":"031-427-3353","addr":"경기도 의왕시 내손동 748-3번지 제일프라자 302호","indutype":"회원제형태 - 학원","category":"study"},{"name":"주식회사두얼교육연구소","tel":"031-423-5002","addr":"경기도 의왕시 내손동 748-3번지 제일프라자 6층","indutype":"회원제형태 - 학원","category":"study"},{"name":"주식회사문화나무","tel":"031-422-5552","addr":"경기도 의왕시 내손동 748-3번지 제일프라자 805호","indutype":"회원제형태 - 학원","category":"study"}]},{"lat":"37.3879498376","long":"126.9754989826","imageIndex":16,"items":[{"name":"나무뜰어린이집[아이행복]","tel":"031-424-5071","addr":"경기도 의왕시 내손동 842번지 래미안에버하임아파트","indutype":"학원 - 유아원","category":"study"}]},{"lat":"37.3891671482","long":"126.9799476399","imageIndex":16,"items":[{"name":"내동초등학교","tel":"031-422-9703","addr":"경기도 의왕시 내손동 848-1번지 내동초등학교","indutype":"학원 - 초중고교육기관","category":"study"}]},{"lat":"37.3897531314","long":"126.9816977554","imageIndex":16,"items":[{"name":"내손사과나무학원 주식회사 정예","tel":"02-0000-0000","addr":"경기도 의왕시 내손동 652-20번지 2층","indutype":"학원 - 보습학원","category":"study"}]},{"lat":"37.3885261954","long":"126.9742792331","imageIndex":16,"items":[{"name":"내손시그니처독서실","tel":"031-8623-1479","addr":"경기도 의왕시 내손동 405-1번지 2층","indutype":"학원 - 독서실","category":"study"}]},{"lat":"37.3867523364","long":"126.9794176624","imageIndex":16,"items":[{"name":"내손음악학원","tel":"031-423-3933","addr":"경기도 의왕시 내손동 637번지 보우상가 3층 4호","indutype":"학원 - 예·체능계학원","category":"study"},{"name":"내손한솔플러스영어수학학원","tel":"031-423-9822","addr":"경기도 의왕시 내손동 637번지 보우상가 306호","indutype":"학원 - 보습학원","category":"study"},{"name":"성민수학학원","tel":"031-422-3151","addr":"경기도 의왕시 내손동 637번지 205,206호","indutype":"학원 - 보습학원","category":"study"}]},{"lat":"37.3885277878","long":"126.9818674809","imageIndex":16,"items":[{"name":"내손초등학교","tel":"031-425-5684","addr":"경기도 의왕시 내손동 849-1번지 내손초등학교","indutype":"학원 - 초중고교육기관","category":"study"},{"name":"내손초등학교병설유치원[아이행복]","tel":"031-425-5688","addr":"경기도 의왕시 내손동 849-1번지 내손초등학교","indutype":"학원 - 유치원","category":"study"}]},{"lat":"37.3863283917","long":"126.9771594533","imageIndex":16,"items":[{"name":"대림어린이집[아이행복]","tel":"031-398-7739","addr":"경기도 의왕시 내손동 846번지 의왕내손이편한세상","indutype":"학원 - 유아원","category":"study"}]},{"lat":"37.3847240045","long":"126.9745855473","imageIndex":16,"items":[{"name":"데카수학교습소","tel":"","addr":"경기도 의왕시 내손동 844번지","indutype":"학원 - 보습학원","category":"study"},{"name":"어텐션타임","tel":"031-425-8818","addr":"경기도 의왕시 내손동 844번지 포일자이 상가 가 -205호","indutype":"회원제형태 - 학원","category":"study"},{"name":"엄선생Sofia음악원","tel":"031-425-6655","addr":"경기도 의왕시 내손동 844 외6필지포일자이상가 가-206","indutype":"학원 - 예·체능계학원","category":"study"},{"name":"자이키즈랜드어린이집[아이행복]","tel":"031-422-0434","addr":"경기도 의왕시 내손동 844번지","indutype":"학원 - 유아원","category":"study"}]},{"lat":"37.3841564829","long":"126.9750712900","imageIndex":16,"items":[{"name":"도도잉글리쉬타운영어학원","tel":"031-421-6677","addr":"경기도 의왕시 내손동 845번지 포일자이 상가 나동 203,204호","indutype":"학원 - 외국어학원","category":"study"}]},{"lat":"37.3893373828","long":"126.9754533092","imageIndex":16,"items":[{"name":"래미안새싹어린이집[아이행복]","tel":"031-424-4823","addr":"경기도 의왕시 내손동 414번지 삼성래미안아파트","indutype":"학원 - 유아원","category":"study"}]},{"lat":"37.3790831589","long":"126.9725101931","imageIndex":16,"items":[{"name":"레고닥터의왕센터","tel":"031-426-5055","addr":"경기도 의왕시 내손동 751번지 캠퍼스프라자 306호","indutype":"학원 - 기타 교육기관","category":"study"}]},{"lat":"37.3899864142","long":"126.9767968511","imageIndex":16,"items":[{"name":"레인보우어린이집[아이행복]","tel":"070-7578-5899","addr":"경기도 의왕시 내손동 414번지 삼성래미안아파트","indutype":"학원 - 유아원","category":"study"}]},{"lat":"37.3790026692","long":"126.9749489969","imageIndex":16,"items":[{"name":"렉스영어현대수학학원","tel":"031-457-2365","addr":"경기도 의왕시 내손동 757번지 신우프라자 401호","indutype":"회원제형태 - 학원","category":"study"}]},{"lat":"37.3790021716","long":"126.9729166877","imageIndex":16,"items":[{"name":"리딩램프 영어학원","tel":"031-421-9855","addr":"경기도 의왕시 내손동 750번지 미광프라자 304호","indutype":"학원 - 보습학원","category":"study"},{"name":"메카수학학원","tel":"031-423-5954","addr":"경기도 의왕시 내손동 750번지 미광프라자 403호","indutype":"학원 - 보습학원","category":"study"},{"name":"비전수학학원","tel":"031-421-1070","addr":"경기도 의왕시 내손동 750번지 미광프라자 704호","indutype":"학원 - 보습학원","category":"study"},{"name":"수클리닉학원","tel":"","addr":"경기도 의왕시 내손동 750번지 미광프라자 502호","indutype":"학원 - 보습학원","category":"study"},{"name":"아이플러스원어학원","tel":"031-424-4226","addr":"경기도 의왕시 내손동 750 미광프라자 203.204호","indutype":"회원제형태 - 학원","category":"study"},{"name":"에이티피학원","tel":"031-421-7772","addr":"경기도 의왕시 내손동 750번지 미광프라자 302호","indutype":"학원 - 보습학원","category":"study"},{"name":"플래너영수학원","tel":"031-422-0670","addr":"경기도 의왕시 내손동 750번지 미광프라자 402호","indutype":"학원 - 보습학원","category":"study"},{"name":"하늘빛미술학원","tel":"031-421-2898","addr":"경기도 의왕시 내손동 750번지 미광프라자 3층 301호","indutype":"학원 - 예·체능계학원","category":"study"},{"name":"하이엔드3.0학원","tel":"031-425-0580","addr":"경기도 의왕시 내손동 750번지 미광프라자","indutype":"학원 - 보습학원","category":"study"},{"name":"한우리독토논아카데미보습학원","tel":"031-424-1729","addr":"경기도 의왕시 내손동 750번지 미광프라자 404호","indutype":"학원 - 기타 교육기관","category":"study"}]},{"lat":"37.3791641683","long":"126.9721940228","imageIndex":16,"items":[{"name":"리스타트","tel":"031-426-7417","addr":"경기도 의왕시 내손동 751-1번지 주노프라자 504호","indutype":"학원 - 기타 교육기관","category":"study"},{"name":"정상독서실","tel":"031-426-0579","addr":"경기도 의왕시 내손동 751-1번지 주노프라자 602호 601일부","indutype":"회원제형태 - 학원","category":"study"},{"name":"청담클루빌영어 DERC학원","tel":"031-426-0579","addr":"경기도 의왕시 내손동 751-1번지 주노프라자 602호","indutype":"학원 - 외국어학원","category":"study"},{"name":"킹스키즈학원","tel":"031-423-2063","addr":"경기도 의왕시 내손동 751-1번지 주노프라자 502호","indutype":"학원 - 보습학원","category":"study"}]},{"lat":"37.3868065815","long":"126.9803661549","imageIndex":16,"items":[{"name":"메가매쓰학원","tel":"031-422-7002","addr":"경기도 의왕시 내손동 643-4번지 서광 상가 302호","indutype":"학원 - 보습학원","category":"study"},{"name":"메가매쓰학원","tel":"031-422-7002","addr":"경기도 의왕시 내손동 643-4 서광상가 302호~303호","indutype":"학원 - 보습학원","category":"study"},{"name":"위드음악교습소","tel":"031-425-0408","addr":"경기도 의왕시 내손동 643-4번지 서광 상가 305호","indutype":"학원 - 예·체능계학원","category":"study"}]},{"lat":"37.3788942171","long":"126.9735828756","imageIndex":16,"items":[{"name":"멘토1:1영어교습소","tel":"031-423-2205","addr":"경기도 의왕시 내손동 763번지 대명스위트빌 2층 202호","indutype":"학원 - 보습학원","category":"study"},{"name":"플레잉음악학원","tel":"031-426-1288","addr":"경기도 의왕시 내손동 763번지 대명스위트빌 2층 203호","indutype":"학원 - 예·체능계학원","category":"study"}]},{"lat":"37.3780857158","long":"126.9858898032","imageIndex":16,"items":[{"name":"모락산 숲 자람터","tel":"031-388-6881","addr":"경기도 의왕시 내손동 221-1번지","indutype":"학원 - 기타 교육기관","category":"study"},{"name":"자연한나키즈","tel":"031-388-6881","addr":"경기도 의왕시 내손동 221-1번지 2층","indutype":"학원 - 예·체능계학원","category":"study"}]},{"lat":"37.3794165593","long":"126.9726116747","imageIndex":16,"items":[{"name":"박진호스피치학원","tel":"031-426-0060","addr":"경기도 의왕시 내손동 748-1번지 롯데프라자 601호","indutype":"회원제형태 - 학원","category":"study"}]},{"lat":"37.3774713019","long":"126.9764850565","imageIndex":16,"items":[{"name":"반도엔젤키즈어린이집[아이행복]","tel":"031-421-7778","addr":"경기도 의왕시 내손동 771번지 반도보라빌리지1단지","indutype":"학원 - 유아원","category":"study"}]},{"lat":"37.3865261384","long":"126.9750591228","imageIndex":16,"items":[{"name":"밝은누리어린이집[아이행복]","tel":"031-421-0788","addr":"경기도 의왕시 내손동 622-2번지","indutype":"학원 - 유아원","category":"study"}]},{"lat":"37.3867534726","long":"126.9860910983","imageIndex":16,"items":[{"name":"백운고등학교","tel":"031-423-2335","addr":"경기도 의왕시 내손동 665-5번지 백운고등학교","indutype":"학원 - 초중고교육기관","category":"study"},{"name":"백운고등학교_수업료","tel":"031-423-2335","addr":"경기도 의왕시 내손동 665-5번지 백운고등학교","indutype":"학원 - 초중고교육기관","category":"study"}]},{"lat":"37.3858322746","long":"126.9746980471","imageIndex":16,"items":[{"name":"백운초등학교","tel":"031-421-3719","addr":"경기도 의왕시 내손동 622번지 백운초등학교","indutype":"학원 - 초중고교육기관","category":"study"}]},{"lat":"37.3793082091","long":"126.9717310473","imageIndex":16,"items":[{"name":"별하스터디센터독서실","tel":"","addr":"경기도 의왕시 내손동 751-3번지 두성프라자 502호","indutype":"학원 - 독서실","category":"study"},{"name":"추학언어논술학원","tel":"02-6925-5021","addr":"경기도 의왕시 내손동 751-3번지 내손빌딩 501호","indutype":"학원 - 보습학원","category":"study"}]},{"lat":"37.3842484171","long":"126.9844431135","imageIndex":16,"items":[{"name":"빨간장화","tel":"070-7518-8515","addr":"경기도 의왕시 내손동 702-7번지","indutype":"학원 - 기타 교육기관","category":"study"}]},{"lat":"37.3896438892","long":"126.9761646064","imageIndex":16,"items":[{"name":"사랑나무어린이집[아이행복]","tel":"031-425-2292","addr":"경기도 의왕시 내손동 414번지 삼성래미안아파트","indutype":"학원 - 유아원","category":"study"}]},{"lat":"37.3839128779","long":"126.9736938360","imageIndex":16,"items":[{"name":"삼성영어백운초영어교습소","tel":"031-422-0503","addr":"경기도 의왕시 내손동 623-2번지 포일상가 201호","indutype":"회원제형태 - 학원","category":"study"}]},{"lat":"37.3801646518","long":"126.9736162536","imageIndex":16,"items":[{"name":"상상블럭롯데마트의왕점","tel":"031-426-0970","addr":"경기도 의왕시 내손동 743번지","indutype":"학원 - 기타 교육기관","category":"study"}]},{"lat":"37.3878789255","long":"126.9811223940","imageIndex":16,"items":[{"name":"새롬어린이집[아이행복]","tel":"031-348-6972","addr":"경기도 의왕시 내손동 628","indutype":"학원 - 유아원","category":"study"}]},{"lat":"37.3892216234","long":"126.9821947592","imageIndex":16,"items":[{"name":"샛별보습학원","tel":"031-426-2100","addr":"경기도 의왕시 내손동 652-14번지 2층","indutype":"학원 - 보습학원","category":"study"}]},{"lat":"37.3775148466","long":"126.9704333949","imageIndex":16,"items":[{"name":"샛별어린이집[아이행복]","tel":"031-342-7392","addr":"경기도 의왕시 내손동 795번지 대원칸타빌1단지","indutype":"학원 - 유아원","category":"study"}]},{"lat":"37.3857069557","long":"126.9783904515","imageIndex":16,"items":[{"name":"선정어린이집[아이행복]","tel":"031-425-3468","addr":"경기도 의왕시 내손동 846번지 의왕내손이편한세상 1503동 101호","indutype":"학원 - 유아원","category":"study"}]},{"lat":"37.3846985130","long":"126.9819814645","imageIndex":16,"items":[{"name":"신세계유치원[아이행복]","tel":"031-425-5980","addr":"경기도 의왕시 내손동 679-2번지 1층","indutype":"학원 - 유치원","category":"study"}]},{"lat":"37.3831122863","long":"126.9795881654","imageIndex":16,"items":[{"name":"쑥쑥이어린이집[아이행복]","tel":"031-425-5255","addr":"경기도 의왕시 내손동 694-4번지","indutype":"학원 - 유아원","category":"study"}]},{"lat":"37.3798314542","long":"126.9743389899","imageIndex":16,"items":[{"name":"안양스페셜티커피학원","tel":"031-424-2442","addr":"경기도 의왕시 내손동 741-1번지 팬텀프라자 202호","indutype":"회원제형태 - 학원","category":"study"},{"name":"현명사주방송","tel":"031-422-7377","addr":"경기도 의왕시 내손동 741-1번지 팬텀프라자 2층 207호","indutype":"학원 - 기타 교육기관","category":"study"}]},{"lat":"37.3842280995","long":"126.9731630184","imageIndex":16,"items":[{"name":"엄마더하기어린이집[아이행복]","tel":"031-421-1117","addr":"경기도 의왕시 내손동 844번지 포일자이아파트","indutype":"학원 - 유아원","category":"study"}]},{"lat":"37.3904376311","long":"126.9802521454","imageIndex":16,"items":[{"name":"엄마뽀뽀어린이집[아이행복]","tel":"031-421-1110","addr":"경기도 의왕시 내손동 846번지 의왕내손이편한세상","indutype":"학원 - 유아원","category":"study"}]},{"lat":"37.3887515698","long":"126.9747872906","imageIndex":16,"items":[{"name":"엄선생소피아음악학원","tel":"031-421-1929","addr":"경기도 의왕시 내손동 401-1번지 세양청마루빌딩 상가 5층","indutype":"학원 - 예·체능계학원","category":"study"}]},{"lat":"37.3894197919","long":"126.9818898161","imageIndex":16,"items":[{"name":"엘앤디글로벌보습학원","tel":"031-423-2002","addr":"경기도 의왕시 내손동 652-17번지 2층","indutype":"학원 - 보습학원","category":"study"}]},{"lat":"37.3901942953","long":"126.9799247423","imageIndex":16,"items":[{"name":"엘프어린이집[아이행복]","tel":"070-7757-7940","addr":"경기도 의왕시 내손동 648","indutype":"학원 - 유아원","category":"study"}]},{"lat":"37.3782636776","long":"126.9742718412","imageIndex":16,"items":[{"name":"와이이엠영어","tel":"031-385-0579","addr":"경기도 의왕시 내손동 790번지 의왕상록아파트","indutype":"학원 - 외국어학원","category":"study"}]},{"lat":"37.3909423848","long":"126.9812570171","imageIndex":16,"items":[{"name":"우승태권도","tel":"031-422-1922","addr":"경기도 의왕시 내손동 653-2번지 2층","indutype":"학원 - 예·체능계학원","category":"study"}]},{"lat":"37.3911679293","long":"126.9829169399","imageIndex":16,"items":[{"name":"유어 라이프 페이지","tel":"","addr":"경기도 의왕시 내손동 659-1번지 한주빌라 102호","indutype":"학원 - 기타 교육기관","category":"study"}]},{"lat":"37.3892756642","long":"126.9820818229","imageIndex":16,"items":[{"name":"은초롱피아노학원","tel":"031-425-3022","addr":"경기도 의왕시 내손동 652-15번지","indutype":"학원 - 예·체능계학원","category":"study"}]},{"lat":"37.3786961850","long":"126.9743620014","imageIndex":16,"items":[{"name":"이룸프리미엄스터디센터의왕점독서실","tel":"031-421-4381","addr":"경기도 의왕시 내손동 762-1번지 401호.402호","indutype":"학원 - 독서실","category":"study"},{"name":"켄어학원","tel":"031-426-7767","addr":"경기도 의왕시 내손동 762-1번지 리치아카데미빌딩 301호","indutype":"회원제형태 - 학원","category":"study"}]},{"lat":"37.3873191928","long":"126.9757702166","imageIndex":16,"items":[{"name":"이상수학교육","tel":"031-4633-8616","addr":"경기도 의왕시 내손동 842번지 래미안에버하임아파트","indutype":"학원 - 기타 교육기관","category":"study"}]},{"lat":"37.3857243757","long":"126.9756465832","imageIndex":16,"items":[{"name":"이화어드벤쳐음악학원","tel":"031-422-7289","addr":"경기도 의왕시 내손동 622-15번지 2층","indutype":"학원 - 예·체능계학원","category":"study"}]},{"lat":"37.3896360102","long":"126.9817542494","imageIndex":16,"items":[{"name":"일곱번째미술교습소","tel":"031-348-6843","addr":"경기도 의왕시 내손동 652-19 201호 /1","indutype":"학원 - 예·체능계학원","category":"study"}]},{"lat":"37.3859766247","long":"126.9754997004","imageIndex":16,"items":[{"name":"잉글리시아이백운학원","tel":"031-344-0051","addr":"경기도 의왕시 내손동 622-13번지 1층 일부","indutype":"학원 - 외국어학원","category":"study"}]},{"lat":"37.3846337311","long":"126.9738742198","imageIndex":16,"items":[{"name":"자이사랑 어린이집[아이행복]","tel":"031-421-5288","addr":"경기도 의왕시 내손동 844번지 포일자이아파트","indutype":"학원 - 유아원","category":"study"}]},{"lat":"37.3828767292","long":"126.9737506936","imageIndex":16,"items":[{"name":"자이키즈어린이집[아이행복]","tel":"031-421-5758","addr":"경기도 의왕시 내손동 845번지 포일자이아파트","indutype":"학원 - 유아원","category":"study"}]},{"lat":"37.3878613420","long":"126.9836405009","imageIndex":16,"items":[{"name":"주도적수학","tel":"","addr":"경기도 의왕시 내손동 666-1번지 101호","indutype":"학원 - 기타 교육기관","category":"study"}]},{"lat":"37.3885087949","long":"126.9769667436","imageIndex":16,"items":[{"name":"주주어린이집[아이행복]","tel":"070-7609-2000","addr":"경기도 의왕시 내손동 842번지 래미안에버하임아파트","indutype":"학원 - 유아원","category":"study"}]},{"lat":"37.3888146459","long":"126.9748098512","imageIndex":16,"items":[{"name":"책읽어주는어린이집[아이행복]","tel":"070-4224-2389","addr":"경기도 의왕시 내손동 401-1번지 세양청마루아파트","indutype":"학원 - 유아원","category":"study"}]},{"lat":"37.3863099672","long":"126.9753640787","imageIndex":16,"items":[{"name":"탐큐배울터학원","tel":"","addr":"경기도 의왕시 내손동 622-3번지 3층 일부 302호","indutype":"학원 - 보습학원","category":"study"}]},{"lat":"37.3788581374","long":"126.9734248214","imageIndex":16,"items":[{"name":"파라오미술교습소","tel":"031-424-2004","addr":"경기도 의왕시 내손동 763번지 대명스위트빌 204호","indutype":"학원 - 예·체능계학원","category":"study"},{"name":"플레잉음악학원","tel":"031-426-1288","addr":"경기도 의왕시 내손동 763번지 대명스위트빌 203호","indutype":"학원 - 예·체능계학원","category":"study"}]},{"lat":"37.3903569451","long":"126.9824767549","imageIndex":16,"items":[{"name":"피노키오","tel":"031-424-4769","addr":"경기도 의왕시 내손동 658-15번지","indutype":"학원 - 기타 교육기관","category":"study"}]},{"lat":"37.3858595012","long":"126.9755336179","imageIndex":16,"items":[{"name":"피아노로생각하는음악학원","tel":"031-348-5333","addr":"경기도 의왕시 내손동 622-14번지 2층","indutype":"학원 - 예·체능계학원","category":"study"}]},{"lat":"37.3831125308","long":"126.9808640737","imageIndex":16,"items":[{"name":"하늘땅어린이집 (하늘땅공동육아사회적협동","tel":"031-422-4633","addr":"경기도 의왕시 내손동 696-18번지","indutype":"학원 - 유아원","category":"study"},{"name":"하늘땅어린이집[아이행복]","tel":"031-422-4633","addr":"경기도 의왕시 내손동 696-18번지","indutype":"학원 - 유아원","category":"study"}]},{"lat":"37.3826246463","long":"126.9745750452","imageIndex":16,"items":[{"name":"하늘아이어린이집[아이행복]","tel":"031-422-9359","addr":"경기도 의왕시 내손동 845번지 포일자이아파트","indutype":"학원 - 유아원","category":"study"}]},{"lat":"37.3796685899","long":"126.9716405725","imageIndex":16,"items":[{"name":"하브루타교육학원","tel":"031-424-5575","addr":"경기도 의왕시 내손동 746번지 롯데프라자 401,503호","indutype":"학원 - 보습학원","category":"study"}]},{"lat":"37.3870765499","long":"126.9786723013","imageIndex":16,"items":[{"name":"해찬솔어린이집[아이행복]","tel":"031-1661-0591","addr":"경기도 의왕시 내손동 633","indutype":"학원 - 유아원","category":"study"}]}]