[{"lat":"36.990661393","long":"127.10122649","imageIndex":17,"items":[{"name":"(주) 평택자치일보사","tel":"031-663-5959","addr":"경기도 평택시 합정동 910-2번지","indutype":"서적문구 - 정기간행물","category":"other"}]},{"lat":"36.990774404","long":"127.10609051","imageIndex":17,"items":[{"name":"(주)국제관광여행사","tel":"031-618-9411","addr":"경기도 평택시 합정동 773-2번지","indutype":"여행 - 관광여행","category":"other"},{"name":"드론스토어","tel":"031-655-6421","addr":"경기도 평택시 합정동 773-2번지","indutype":"소매업 - 문구","category":"other"},{"name":"드론스토어평택점","tel":"031-8029-5130","addr":"경기도 평택시 합정동 773-2번지 1층","indutype":"서적문구 - 완구점","category":"other"},{"name":"우리인테리어","tel":"031-618-9989","addr":"경기도 평택시 합정동 773-2번지","indutype":"직물 - 카페트,커튼,천막,지물","category":"other"},{"name":"티스포츠(T SPORT)","tel":"031-657-9188","addr":"경기도 평택시 합정동 773-2번지","indutype":"레져용품 - 스포츠·레져용품","category":"other"}]},{"lat":"36.988381451","long":"127.11181591","imageIndex":17,"items":[{"name":"(주)메신저투어","tel":"031-618-1555","addr":"경기도 평택시 합정동 968-1번지","indutype":"여행 - 관광여행","category":"other"},{"name":"삼익영창뮤직","tel":"031-656-9977","addr":"경기도 평택시 합정동 968-1번지 롯데마트평택점 2층","indutype":"레져용품 - 악기점","category":"other"},{"name":"전국열쇠 롯데마트 평택점","tel":"031-651-1382","addr":"경기도 평택시 합정동 968-1번지 4층 열쇠도장코너 롯데마트평택점","indutype":"건축자재 - 목재·석재·철물","category":"other"},{"name":"크린토피아 내 (수선실)","tel":"031-652-5007","addr":"경기도 평택시 합정동 968-1번지 4층 롯데마트 평택점","indutype":"수리서비스 - 세탁소","category":"other"},{"name":"크린토피아 롯데마트(평택점)","tel":"031-618-4477","addr":"경기도 평택시 합정동 968-1번지 롯데마트평택점 4층","indutype":"수리서비스 - 세탁소","category":"other"}]},{"lat":"36.991137609","long":"127.09149931","imageIndex":17,"items":[{"name":"(주)서해방재","tel":"031-651-7119","addr":"경기도 평택시 합정동 734-7번지","indutype":"건축자재 - 기타건축자재","category":"other"},{"name":"한나플라워","tel":"031-657-1857","addr":"경기도 평택시 합정동 734-7번지","indutype":"문화.취미 - 화원","category":"other"},{"name":"현대장식","tel":"031-658-0811","addr":"경기도 평택시 합정동 734-7번지","indutype":"직물 - 카페트,커튼,천막,지물","category":"other"}]},{"lat":"36.99132724","long":"127.10236188","imageIndex":17,"items":[{"name":"(주)성은텔레/특별할부","tel":"031-652-7488","addr":"경기도 평택시 합정동 766-2번지 평택합정 SK VIEW 주상복합","indutype":"사무통신 - 통신기기(무이자할부)","category":"other"},{"name":"(주)성은텔레콤_PS","tel":"031-1-1","addr":"경기도 평택시 합정동 766-2번지 평택합정 SK VIEW 주상복합","indutype":"사무통신 - 통신기기","category":"other"},{"name":"길수학","tel":"031-657-8008","addr":"경기도 평택시 합정동 766-2번지 평택합정 SK VIEW 주상복합","indutype":"서비스업 - 교육","category":"other"},{"name":"성은텔레콤/LG할부","tel":"031-1-1","addr":"경기도 평택시 합정동 766-2번지 평택합정 SK VIEW 주상복합","indutype":"사무통신 - 통신기기(무이자할부)","category":"other"},{"name":"원앙보석","tel":"031-618-3319","addr":"경기도 평택시 합정동 766-2번지 SK주상복합상가 101호","indutype":"신변잡화 - 귀금속","category":"other"},{"name":"착한정육점","tel":"031-618-0070","addr":"경기도 평택시 합정동 766-2번지 평택합정 SK VIEW 주상복합 상가동 128호","indutype":"소매업 - 정육","category":"other"},{"name":"휴대폰 종착점(합정)","tel":"031-657-7090","addr":"경기도 평택시 합정동 766-2번지 SKVIEW주상복합 123호","indutype":"사무통신 - 통신기기","category":"other"}]},{"lat":"36.990301383","long":"127.10072054","imageIndex":17,"items":[{"name":"(주)성은텔레콤","tel":"031-692-6010","addr":"경기도 평택시 합정동 911-10번지","indutype":"사무통신 - 통신기기","category":"other"},{"name":"(주)성은텔레콤.터미널점","tel":"031-657-6000","addr":"경기도 평택시 합정동 911-10번지","indutype":"사무통신 - 통신기기","category":"other"},{"name":"(주)성은텔레콤/역전점","tel":"031-652-3010","addr":"경기도 평택시 합정동 911-10번지","indutype":"사무통신 - 통신기기","category":"other"}]},{"lat":"36.988797836","long":"127.09920221","imageIndex":17,"items":[{"name":"(주)신창이엔지","tel":"031-651-7204","addr":"경기도 평택시 합정동 920-12번지 창진빌딩","indutype":"용역 서비스 - 기타용역서비스","category":"other"}]},{"lat":"36.99096785","long":"127.10111455","imageIndex":17,"items":[{"name":"(주)아이지엠","tel":"031-651-7591","addr":"경기도 평택시 합정동 894-1번지 1층","indutype":"사무통신 - 컴퓨터","category":"other"}]},{"lat":"36.988050142","long":"127.1191166","imageIndex":17,"items":[{"name":"(주)에이치에이치패션","tel":"000-0000-0000","addr":"경기도 평택시 합정동 22-5번지 C동103~104호","indutype":"레져용품 - 스포츠·레져용품","category":"other"},{"name":"(주)제이제이스포츠","tel":"031-612-9145","addr":"경기도 평택시 합정동 22-5번지 B동 101호","indutype":"레져용품 - 스포츠·레져용품","category":"other"}]},{"lat":"36.978049072","long":"127.10858909","imageIndex":17,"items":[{"name":"(주)유진테크","tel":"031-653-8693","addr":"경기도 평택시 합정동 175-11번지","indutype":"기타 - 기계공구","category":"other"},{"name":"(주)유진테크/원격지","tel":"031-653-8693","addr":"경기도 평택시 합정동 175-11번지","indutype":"기타 - 기타 전문점","category":"other"},{"name":"영트레이딩캐리어커머셜","tel":"031-653-8695","addr":"경기도 평택시 합정동 175-11번지","indutype":"전기제품 - 냉열기기","category":"other"}]},{"lat":"36.987523147","long":"127.10422152","imageIndex":17,"items":[{"name":"(주)이앤","tel":"031-651-4902","addr":"경기도 평택시 합정동 931-3번지 1층","indutype":"용역 서비스 - 종합용역","category":"other"}]},{"lat":"36.990109664","long":"127.11380659","imageIndex":17,"items":[{"name":"(주)평택시사신문","tel":"031-654-0104","addr":"경기도 평택시 합정동 966-4번지 문예빌딩 501호","indutype":"서적문구 - 정기간행물","category":"other"},{"name":"(주)한국헬리콥터","tel":"031-683-8001","addr":"경기도 평택시 합정동 966-4번지","indutype":"기타 - 기타 전문점","category":"other"},{"name":"드림 (DREAM)","tel":"070-3006-4866","addr":"경기도 평택시 합정동 966-4번지 문예빌딩 1동 601호","indutype":"용역 서비스 - 사무서비스","category":"other"}]},{"lat":"36.990324537","long":"127.11527841","imageIndex":17,"items":[{"name":"(주)한솔교육평택지사","tel":"031-655-1861","addr":"경기도 평택시 합정동 866-1번지 백선빌딩 7층","indutype":"서적문구 - 일반서적","category":"other"},{"name":"(주)한솔교육평택지사","tel":"031-655-1860","addr":"경기도 평택시 합정동 866-1번지","indutype":"서적문구 - 일반서적","category":"other"},{"name":"(주)한솔교육평택지사","tel":"031-655-1860","addr":"경기도 평택시 합정동 866-1번지 백선빌딩","indutype":"서적문구 - 일반서적","category":"other"},{"name":"평택K비젼안경","tel":"031-658-9951","addr":"경기도 평택시 합정동 866-1번지 1층","indutype":"소매업 - 안경, 렌즈","category":"other"}]},{"lat":"36.991713603","long":"127.09242109","imageIndex":17,"items":[{"name":"(합자)푸른환경","tel":"031-681-0065","addr":"경기도 평택시 합정동 737-13번지","indutype":"기타 - 기타 전문점","category":"other"}]},{"lat":"36.990993816","long":"127.10239515","imageIndex":17,"items":[{"name":"119세탁소","tel":"031-652-1196","addr":"경기도 평택시 합정동 766-8번지 1층","indutype":"수리서비스 - 세탁소","category":"other"}]},{"lat":"36.992856868","long":"127.09386029","imageIndex":17,"items":[{"name":"21C만물유통","tel":"031-658-7517","addr":"경기도 평택시 합정동 742번지","indutype":"신변잡화 - 기타잡화","category":"other"},{"name":"21세기만물유통","tel":"031-653-1086","addr":"경기도 평택시 합정동 742번지","indutype":"서비스업 - 유통","category":"other"}]},{"lat":"36.986886641","long":"127.10033427","imageIndex":17,"items":[{"name":"3C조명","tel":"031-653-1885","addr":"경기도 평택시 합정동 589-157번지","indutype":"건축자재 - 조명기구","category":"other"},{"name":"지영종합인쇄사","tel":"031-654-4993","addr":"경기도 평택시 합정동 589-157번지","indutype":"용역 서비스 - 종합용역","category":"other"}]},{"lat":"36.989469378","long":"127.1143673","imageIndex":17,"items":[{"name":"C Space","tel":"031-656-6112","addr":"경기도 평택시 합정동 967-2번지","indutype":"소매업 - 편의점","category":"other"},{"name":"씨스페이시스 평택합정로점","tel":"","addr":"경기도 평택시 합정동 967-2번지 유정빌딩 101호","indutype":"유통업 영리 - 편 의 점","category":"other"}]},{"lat":"36.988777498","long":"127.11227701","imageIndex":17,"items":[{"name":"CNC필라테스","tel":"031-654-8830","addr":"경기도 평택시 합정동 968-4 베네스트빌딩 401호","indutype":"회원제형태 - 레져업소","category":"other"}]},{"lat":"36.990388387","long":"127.10441628","imageIndex":17,"items":[{"name":"G&PKorea","tel":"031-651-6201","addr":"경기도 평택시 합정동 775번지","indutype":"유통업 영리 - 기타유통업","category":"other"}]},{"lat":"36.988244966","long":"127.10308799","imageIndex":17,"items":[{"name":"G2모터스","tel":"031-658-6785","addr":"경기도 평택시 합정동 917-11번지 1층","indutype":"회원제형태 - 기타3","category":"other"}]},{"lat":"36.990553789","long":"127.12046836","imageIndex":17,"items":[{"name":"GS25굿모닝병원점","tel":"02-658-3504","addr":"경기도 평택시 합정동 883번지","indutype":"유통업 영리 - 편 의 점","category":"other"}]},{"lat":"36.989440248","long":"127.11658011","imageIndex":17,"items":[{"name":"GS25평택늘푸른점","tel":"","addr":"경기도 평택시 합정동 876-14번지 1층","indutype":"유통업 영리 - 편 의 점","category":"other"}]},{"lat":"36.989469747","long":"127.11397415","imageIndex":17,"items":[{"name":"GS25평택배미점","tel":"","addr":"경기도 평택시 합정동 966-1번지 서린빌딩 1층 101호","indutype":"유통업 영리 - 편 의 점","category":"other"},{"name":"Y&J104(더와이앤제이104)","tel":"031-635-1313","addr":"경기도 평택시 합정동 966-1번지 서린빌딩 1층 104호","indutype":"소매업 - 의류","category":"other"},{"name":"와이앤제이","tel":"00-0000-0000","addr":"경기도 평택시 합정동 966-1번지 서린빌딩 1층 104호","indutype":"의류 - 정장","category":"other"},{"name":"크리앤제곱미터","tel":"","addr":"경기도 평택시 합정동 966-1번지 서린빌딩 1층","indutype":"건축자재 - 인테리어전문","category":"other"},{"name":"태진공인중개사","tel":"031-618-6834","addr":"경기도 평택시 합정동 966-1번지 102호","indutype":"서비스업 - 부동산","category":"other"}]},{"lat":"36.987722394","long":"127.11319657","imageIndex":17,"items":[{"name":"GS25평택원룸점","tel":"031-656-8268","addr":"경기도 평택시 합정동 973-1번지","indutype":"소매업 - 편의점","category":"other"},{"name":"서진엘리베이터(주)","tel":"031-651-1498","addr":"경기도 평택시 합정동 973-1번지 601호","indutype":"용역 서비스 - 기타용역서비스","category":"other"}]},{"lat":"36.991053802","long":"127.09506007","imageIndex":17,"items":[{"name":"GS25평택통미로점","tel":"","addr":"경기도 평택시 합정동 524-3번지 1층","indutype":"유통업 영리 - 편 의 점","category":"other"}]},{"lat":"36.989577635","long":"127.10416808","imageIndex":17,"items":[{"name":"GS25평택합정점","tel":"","addr":"경기도 평택시 합정동 904-1번지","indutype":"유통업 영리 - 편 의 점","category":"other"}]},{"lat":"36.988055324","long":"127.10358197","imageIndex":17,"items":[{"name":"GS25평택행복점","tel":"031-656-2005","addr":"경기도 평택시 합정동 916-10번지","indutype":"소매업 - 편의점","category":"other"},{"name":"GS25평택행복점","tel":"02-2006-2485","addr":"경기도 평택시 합정동 916-10번지","indutype":"유통업 영리 - 편 의 점","category":"other"}]},{"lat":"36.991471005","long":"127.09149969","imageIndex":17,"items":[{"name":"GS25평택현대점","tel":"","addr":"경기도 평택시 합정동 733-12번지 1층","indutype":"유통업 영리 - 편 의 점","category":"other"},{"name":"한나꽃방","tel":"031-656-9293","addr":"경기도 평택시 합정동 733-12번지","indutype":"도소매업 - 꽃집","category":"other"},{"name":"한별시스템","tel":"031-656-6119","addr":"경기도 평택시 합정동 733-12번지","indutype":"사무통신 - 컴퓨터","category":"other"}]},{"lat":"36.98949804","long":"127.1023932","imageIndex":17,"items":[{"name":"GS25합정공원점","tel":"","addr":"경기도 평택시 합정동 907-9번지","indutype":"유통업 영리 - 편 의 점","category":"other"}]},{"lat":"36.992077063","long":"127.10002636","imageIndex":17,"items":[{"name":"JD 합정점","tel":"031-655-0094","addr":"경기도 평택시 합정동 762번지","indutype":"의류 - 내의판매","category":"other"},{"name":"JD합정점","tel":"031-658-3949","addr":"경기도 평택시 합정동 762번지","indutype":"소매업 - 의류","category":"other"}]},{"lat":"36.989245338","long":"127.11305274","imageIndex":17,"items":[{"name":"Judy's Pole Studio","tel":"070-7728-2291","addr":"경기도 평택시 합정동 965-13번지 명성빌딩 3층 전부","indutype":"회원제형태 - 레져업소","category":"other"},{"name":"씨유평택배미에이스점","tel":"02-1577-8007","addr":"경기도 평택시 합정동 965-13번지 1층","indutype":"유통업 영리 - 편 의 점","category":"other"},{"name":"주식회사 정현건설","tel":"031-656-5084","addr":"경기도 평택시 합정동 965-13번지 명성빌딩 6층","indutype":"용역 서비스 - 기타용역서비스","category":"other"}]},{"lat":"36.99188543","long":"127.09159004","imageIndex":17,"items":[{"name":"KP&P","tel":"070-7612-9102","addr":"경기도 평택시 합정동 731-16번지","indutype":"신변잡화 - 기타잡화","category":"other"},{"name":"우리마을협동조합","tel":"031-656-0371","addr":"경기도 평택시 합정동 731-16번지 2층","indutype":"서비스업 - 택배","category":"other"},{"name":"평택돌봄사회서비스센터 주식회사","tel":"031-611-8030","addr":"경기도 평택시 합정동 731-16번지 2층","indutype":"서비스업 - 산모도우미","category":"other"}]},{"lat":"36.986965209","long":"127.10336712","imageIndex":17,"items":[{"name":"KSONE","tel":"031-611-7704","addr":"경기도 평택시 합정동 932-3번지 라벤다빌 1층","indutype":"용역 서비스 - 종합용역","category":"other"}]},{"lat":"36.987940273","long":"127.1010882","imageIndex":17,"items":[{"name":"Ka브Ra","tel":"031-691-8233","addr":"경기도 평택시 합정동 925-7번지 1층","indutype":"의류 - 정장","category":"other"}]},{"lat":"36.987551472","long":"127.11289304","imageIndex":17,"items":[{"name":"MD골프존","tel":"031-658-6244","addr":"경기도 평택시 합정동 971-5번지 MD캐슬 3층 301동 302호","indutype":"회원제형태 - 레져업소","category":"other"},{"name":"버블맨24 셀프빨래방","tel":"","addr":"경기도 평택시 합정동 971-5번지 101,102호","indutype":"수리서비스 - 세탁소","category":"other"}]},{"lat":"36.989497345","long":"127.11336762","imageIndex":17,"items":[{"name":"MINIME","tel":"070-4412-8884","addr":"경기도 평택시 합정동 964-16번지 101호","indutype":"의류 - 정장","category":"other"},{"name":"주식화사 쿼크미디어","tel":"031-647-0775","addr":"경기도 평택시 합정동 964-16번지 802호","indutype":"서적문구 - 출판 및 인쇄물","category":"other"}]},{"lat":"36.992496733","long":"127.09347793","imageIndex":17,"items":[{"name":"MR.플래카드","tel":"031-653-0061","addr":"경기도 평택시 합정동 739-7번지","indutype":"용역 서비스 - 종합용역","category":"other"}]},{"lat":"36.991164783","long":"127.09130838","imageIndex":17,"items":[{"name":"PC119평택점","tel":"031-652-4941","addr":"경기도 평택시 합정동 734-6번지","indutype":"사무통신 - 컴퓨터","category":"other"},{"name":"유니원정수기","tel":"031-656-2051","addr":"경기도 평택시 합정동 734-6번지","indutype":"주방용구 - 정수기","category":"other"}]},{"lat":"36.99338081","long":"127.09211974","imageIndex":17,"items":[{"name":"rich코스메틱","tel":"031-691-9044","addr":"경기도 평택시 합정동 727-9번지 글로리아원룸 204호","indutype":"회원제형태 - 기타1","category":"other"}]},{"lat":"36.988379966","long":"127.10327912","imageIndex":17,"items":[{"name":"㈜대지건축사사무소","tel":"031-658-7517","addr":"경기도 평택시 합정동 917-7번지","indutype":"서비스업 - 건축설계","category":"other"}]},{"lat":"36.992158854","long":"127.09917275","imageIndex":17,"items":[{"name":"㈜벨라","tel":"031-654-9289","addr":"경기도 평택시 합정동 757-3번지","indutype":"서비스업 - 산후조리원","category":"other"},{"name":"예일퀸스하우스산후조리원","tel":"031-8054-7337","addr":"경기도 평택시 합정동 757-3번지","indutype":"기타의료기관 - 산후조리원","category":"other"}]},{"lat":"36.987443251","long":"127.10280613","imageIndex":17,"items":[{"name":"㈜이다","tel":"031-653-5979","addr":"경기도 평택시 합정동 929-12번지","indutype":"서비스업 - 건설","category":"other"}]},{"lat":"36.987468843","long":"127.10450226","imageIndex":17,"items":[{"name":"가나지게차","tel":"031-681-1313","addr":"경기도 평택시 합정동 915-3번지","indutype":"용역 서비스 - 기타용역서비스","category":"other"},{"name":"대덕건기","tel":"031-673-0703","addr":"경기도 평택시 합정동 915-3번지","indutype":"기타 - 기계공구","category":"other"},{"name":"대덕건기","tel":"031-618-0039","addr":"경기도 평택시 합정동 915-3번지","indutype":"임대업 - 중장비","category":"other"},{"name":"대성미니중기","tel":"032-816-9930","addr":"경기도 평택시 합정동 915-3번지","indutype":"기타 - 기계공구","category":"other"},{"name":"수성크레인","tel":"031-654-7748","addr":"경기도 평택시 합정동 915-3번지","indutype":"기타 - 기계공구","category":"other"},{"name":"중앙크레인","tel":"","addr":"경기도 평택시 합정동 915-3번지","indutype":"기타 - 기계공구","category":"other"},{"name":"평택보성오가크레인","tel":"031-655-0166","addr":"경기도 평택시 합정동 915-3번지","indutype":"기타 - 기계공구","category":"other"}]},{"lat":"36.989714735","long":"127.11214356","imageIndex":17,"items":[{"name":"가어자유한회사(Gaja Co..Ltd)(영업소)","tel":"031-652-2125","addr":"경기도 평택시 합정동 964-7번지","indutype":"서적문구 - 완구점","category":"other"}]},{"lat":"36.99130261","long":"127.09945249","imageIndex":17,"items":[{"name":"강남인테리어","tel":"031-658-0258","addr":"경기도 평택시 합정동 760-2번지 1층","indutype":"건축자재 - 인테리어전문","category":"other"}]},{"lat":"36.987859651","long":"127.11091656","imageIndex":17,"items":[{"name":"강남태양열","tel":"031-655-8534","addr":"경기도 평택시 합정동 319-1번지","indutype":"건축자재 - 보일러·펌프·샷시","category":"other"}]},{"lat":"36.986552258","long":"127.11183576","imageIndex":17,"items":[{"name":"개그스토리","tel":"02-518-1117","addr":"경기도 평택시 합정동 90-2번지","indutype":"유통업 영리 - 편 의 점","category":"other"},{"name":"씨유평택합정스마일점","tel":"031-618-8826","addr":"경기도 평택시 합정동 90-2번지","indutype":"유통업 영리 - 편 의 점","category":"other"}]},{"lat":"36.992991337","long":"127.09475911","imageIndex":17,"items":[{"name":"거성명찰광고","tel":"031-651-3368","addr":"경기도 평택시 합정동 741-4번지 1층 거성명찰광고","indutype":"용역 서비스 - 종합용역","category":"other"},{"name":"한성마크명찰","tel":"031-663-5096","addr":"경기도 평택시 합정동 741-4번지","indutype":"신변잡화 - 기념품점","category":"other"}]},{"lat":"36.988685837","long":"127.0926422","imageIndex":17,"items":[{"name":"거성전기조명","tel":"031-658-3395","addr":"경기도 평택시 합정동 591-1번지 101,102,103호","indutype":"건축자재 - 조명기구","category":"other"},{"name":"서울전자","tel":"031-652-3790","addr":"경기도 평택시 합정동 591-1번지","indutype":"수리서비스 - 가정용품수리","category":"other"},{"name":"에이스광고사","tel":"031-692-0142","addr":"경기도 평택시 합정동 591-1번지 104호","indutype":"용역 서비스 - 종합용역","category":"other"}]},{"lat":"36.992882457","long":"127.09572504","imageIndex":17,"items":[{"name":"건담매니아","tel":"031-692-1314","addr":"경기도 평택시 합정동 752번지 외2필지","indutype":"서적문구 - 완구점","category":"other"},{"name":"문플라워","tel":"031-691-3939","addr":"경기도 평택시 합정동 752번지","indutype":"소매업 - 꽃집","category":"other"},{"name":"문화원","tel":"031-651-8286","addr":"경기도 평택시 합정동 752번지","indutype":"문화.취미 - 화원","category":"other"},{"name":"문화원","tel":"031-656-8268","addr":"경기도 평택시 합정동 752번지","indutype":"문화.취미 - 화원","category":"other"},{"name":"미연네","tel":"031-652-0365","addr":"경기도 평택시 합정동 752번지","indutype":"의류 - 정장","category":"other"},{"name":"에이치스트링 (H STRING)","tel":"031-692-2571","addr":"경기도 평택시 합정동 752번지","indutype":"레져용품 - 악기점","category":"other"},{"name":"한일의지보조기센터","tel":"031-651-2480","addr":"경기도 평택시 합정동 752번지","indutype":"기타의료기관 - 기타의료기관 및 기타","category":"other"}]},{"lat":"36.990774988","long":"127.10541653","imageIndex":17,"items":[{"name":"건축사사무소두리","tel":"031-658-8563","addr":"경기도 평택시 합정동 773-11번지","indutype":"용역 서비스 - 사무서비스","category":"other"},{"name":"세븐일레븐평택신한점","tel":"","addr":"경기도 평택시 합정동 773-11번지 1층","indutype":"유통업 영리 - 편 의 점","category":"other"}]},{"lat":"36.992773516","long":"127.09675837","imageIndex":17,"items":[{"name":"경기지업사","tel":"031-654-5735","addr":"경기도 평택시 합정동 752-6번지","indutype":"직물 - 카페트,커튼,천막,지물","category":"other"}]},{"lat":"36.988645027","long":"127.09874148","imageIndex":17,"items":[{"name":"고려종합장식","tel":"031-618-9493","addr":"경기도 평택시 합정동 941-2번지","indutype":"서비스업 - 도배, 장판","category":"other"},{"name":"우아미타일","tel":"031-618-0960","addr":"경기도 평택시 합정동 941-2번지","indutype":"건축자재 - 건축용 요업제품","category":"other"},{"name":"쿠치나","tel":"031-692-7373","addr":"경기도 평택시 합정동 941-2번지","indutype":"소매업 - 주방가구","category":"other"},{"name":"쿠치나 주방가구","tel":"031-618-9493","addr":"경기도 평택시 합정동 941-2번지 1층","indutype":"주방용구 - 주방용구","category":"other"}]},{"lat":"36.992550522","long":"127.09383746","imageIndex":17,"items":[{"name":"고려철물건재","tel":"031-651-2789","addr":"경기도 평택시 합정동 742-17번지","indutype":"건축자재 - 목재·석재·철물","category":"other"},{"name":"맥인쇄디자인","tel":"031-653-8868","addr":"경기도 평택시 합정동 742-17번지 1층","indutype":"서적문구 - 출판 및 인쇄물","category":"other"}]},{"lat":"36.987022359","long":"127.11014034","imageIndex":17,"items":[{"name":"공간플러스 건축사사무소","tel":"","addr":"경기도 평택시 합정동 103-8번지","indutype":"서비스업 - 건축","category":"other"}]},{"lat":"36.991080449","long":"127.09555436","imageIndex":17,"items":[{"name":"광고천재","tel":"","addr":"경기도 평택시 합정동 522-7번지","indutype":"제조업 - 인쇄","category":"other"},{"name":"라이프하우스","tel":"031-655-2830","addr":"경기도 평택시 합정동 522-7번지","indutype":"건축자재 - 인테리어전문","category":"other"},{"name":"호연지기","tel":"031-657-5384","addr":"경기도 평택시 합정동 522-7번지","indutype":"제조업 - 인쇄","category":"other"}]},{"lat":"36.987938764","long":"127.10289663","imageIndex":17,"items":[{"name":"광성환경건설","tel":"031-692-1119","addr":"경기도 평택시 합정동 929-2","indutype":"용역 서비스 - 기타용역서비스","category":"other"}]},{"lat":"36.986216634","long":"127.10417486","imageIndex":17,"items":[{"name":"광신유리","tel":"031-651-2556","addr":"경기도 평택시 합정동 934-4번지","indutype":"건축자재 - 유리","category":"other"}]},{"lat":"36.992601742","long":"127.09747709","imageIndex":17,"items":[{"name":"구멍가개","tel":"","addr":"경기도 평택시 합정동 753-1번지 1층","indutype":"문화.취미 - 애완동물","category":"other"}]},{"lat":"36.990882922","long":"127.10564133","imageIndex":17,"items":[{"name":"굿모닝편의점","tel":"031-652-9250","addr":"경기도 평택시 합정동 773-10번지","indutype":"유통업 영리 - 편 의 점","category":"other"},{"name":"빅터 평택점","tel":"031-651-3088","addr":"경기도 평택시 합정동 773-10번지 1층","indutype":"레져용품 - 스포츠·레져용품","category":"other"},{"name":"빅터 평택점","tel":"031-654-6255","addr":"경기도 평택시 합정동 773-10번지 1층","indutype":"도소매업 - 스포츠용품","category":"other"}]},{"lat":"36.991770717","long":"127.10000351","imageIndex":17,"items":[{"name":"굿잡","tel":"031-655-9378","addr":"경기도 평택시 합정동 762-8번지 1층","indutype":"제조업 - 인쇄, 광고","category":"other"},{"name":"굿잡","tel":"031-658-4242","addr":"경기도 평택시 합정동 762-8번지","indutype":"용역 서비스 - 종합용역","category":"other"},{"name":"한지골","tel":"031-652-7133","addr":"경기도 평택시 합정동 762-8번지","indutype":"문화.취미 - 문화취미기타","category":"other"}]},{"lat":"36.992158315","long":"127.0998355","imageIndex":17,"items":[{"name":"그랜드창평택2호점","tel":"031-618-3375","addr":"경기도 평택시 합정동 757-9번지","indutype":"직물 - 카페트,커튼,천막,지물","category":"other"},{"name":"나르지오(하나)","tel":"031-656-6738","addr":"경기도 평택시 합정동 757-9번지","indutype":"소매업 - 신발","category":"other"},{"name":"칼리네공방","tel":"031-651-7585","addr":"경기도 평택시 합정동 757-9번지","indutype":"서비스업 - 공예품","category":"other"},{"name":"칼리네공방","tel":"031-657-5534","addr":"경기도 평택시 합정동 757-9번지 1층","indutype":"문화.취미 - 문화취미기타","category":"other"},{"name":"평택총포사","tel":"031-654-7771","addr":"경기도 평택시 합정동 757-9번지 2층","indutype":"레져용품 - 총포류판매점","category":"other"},{"name":"하나","tel":"031-618-3522","addr":"경기도 평택시 합정동 757-9번지 (1층왼쪽에서3칸점포)","indutype":"레져용품 - 스포츠·레져용품","category":"other"}]},{"lat":"36.991110258","long":"127.09192613","imageIndex":17,"items":[{"name":"금강세차장","tel":"","addr":"경기도 평택시 합정동 735-1번지","indutype":"서비스업 - 세차","category":"other"}]},{"lat":"36.991720077","long":"127.09572363","imageIndex":17,"items":[{"name":"금성","tel":"031-658-5070","addr":"경기도 평택시 합정동 748-5번지 301호","indutype":"사무통신 - 통신기기","category":"other"}]},{"lat":"36.991498113","long":"127.10275526","imageIndex":17,"items":[{"name":"금융카드체크기","tel":"031-655-7660","addr":"경기도 평택시 합정동 766-3번지 2층","indutype":"사무통신 - 통신기기","category":"other"},{"name":"오토헬스프라자","tel":"031-657-2555","addr":"경기도 평택시 합정동 766-3번지","indutype":"소매업 - 운동용품","category":"other"},{"name":"오토헬스프라자","tel":"031-658-3949","addr":"경기도 평택시 합정동 766-3번지","indutype":"레져용품 - 스포츠·레져용품","category":"other"}]},{"lat":"36.992746333","long":"127.0969493","imageIndex":17,"items":[{"name":"기독교백화점 동방박사","tel":"031-691-0937","addr":"경기도 평택시 합정동 752-7번지 3층","indutype":"소매업 - 잡화","category":"other"},{"name":"기독교백화점동방박사","tel":"031-654-5619","addr":"경기도 평택시 합정동 752-7번지 3층","indutype":"서적문구 - 전문서적","category":"other"}]},{"lat":"36.988496609","long":"127.10386337","imageIndex":17,"items":[{"name":"기분좋은컴퓨터","tel":"031-618-7481","addr":"경기도 평택시 합정동 914-13번지","indutype":"사무통신 - 컴퓨터","category":"other"}]},{"lat":"36.988883925","long":"127.11410809","imageIndex":17,"items":[{"name":"김현숙공인중개사무소","tel":"031-654-8866","addr":"경기도 평택시 합정동 972-12번지 CM타워 101호","indutype":"서비스업 - 부동산","category":"other"}]},{"lat":"36.99277372","long":"127.09650001","imageIndex":17,"items":[{"name":"까꿍이하우스","tel":"031-652-2523","addr":"경기도 평택시 합정동 752-24번지","indutype":"문화.취미 - 애완동물","category":"other"},{"name":"라인패션","tel":"070-4809-9872","addr":"경기도 평택시 합정동 752-24번지","indutype":"의류 - 정장","category":"other"}]},{"lat":"36.987055525","long":"127.10312013","imageIndex":17,"items":[{"name":"깔끄미빨래방","tel":"031-654-7333","addr":"경기도 평택시 합정동 930-4번지","indutype":"서비스업 - 세탁","category":"other"},{"name":"실버크리닝세탁소","tel":"031-618-0845","addr":"경기도 평택시 합정동 930-4번지","indutype":"수리서비스 - 세탁소","category":"other"}]},{"lat":"36.989912046","long":"127.11314356","imageIndex":17,"items":[{"name":"나무기획","tel":"031-657-9657","addr":"경기도 평택시 합정동 964-13번지 합정동타임스퀘어 1동 103호","indutype":"서적문구 - 출판 및 인쇄물","category":"other"},{"name":"나무기획","tel":"031-691-5595","addr":"경기도 평택시 합정동 964-13번지 타임스퀘어 1동 103호","indutype":"제조업 - 인쇄","category":"other"},{"name":"더드림 오토리스","tel":"02-1644-8464","addr":"경기도 평택시 합정동 964-13번지 합정동타임스퀘어 1동 302호","indutype":"용역 서비스 - 종합용역","category":"other"},{"name":"세종측량설계지원센터","tel":"031-653-5425","addr":"경기도 평택시 합정동 964-13번지 합정동 타임스퀘어 701호","indutype":"용역 서비스 - 사무서비스","category":"other"}]},{"lat":"36.991273752","long":"127.09017397","imageIndex":17,"items":[{"name":"나우웨드","tel":"031-658-1380","addr":"경기도 평택시 합정동 734번지 3층","indutype":"회원제형태 - 기타4","category":"other"},{"name":"평택 전자담배 멀티샵","tel":"031-655-0515","addr":"경기도 평택시 합정동 734번지 1층","indutype":"기타 - 기타 전문점","category":"other"},{"name":"평택전자담배멀티샵","tel":"031-653-7177","addr":"경기도 평택시 합정동 734번지","indutype":"소매업 - 전자담배","category":"other"}]},{"lat":"36.988908423","long":"127.11678151","imageIndex":17,"items":[{"name":"남촌도예","tel":"","addr":"경기도 평택시 합정동 876-10번지","indutype":"문화.취미 - 문화취미기타","category":"other"},{"name":"세븐스타빨래방 평택참이슬점","tel":"031-653-7951","addr":"경기도 평택시 합정동 876-10번지 1층","indutype":"수리서비스 - 세탁소","category":"other"}]},{"lat":"36.991102992","long":"127.10113719","imageIndex":17,"items":[{"name":"네트컴","tel":"031-376-7616","addr":"경기도 평택시 합정동 765번지","indutype":"사무통신 - 컴퓨터","category":"other"}]},{"lat":"36.988831876","long":"127.10163974","imageIndex":17,"items":[{"name":"노블레스","tel":"031-655-2604","addr":"경기도 평택시 합정동 918-8번지","indutype":"광학제품 - 기타광학제품","category":"other"}]},{"lat":"36.991019524","long":"127.09275727","imageIndex":17,"items":[{"name":"농촌돼지","tel":"","addr":"경기도 평택시 합정동 735-12번지","indutype":"소매업 - 정육","category":"other"}]},{"lat":"36.988936893","long":"127.10531297","imageIndex":17,"items":[{"name":"누리이앤씨","tel":"031-656-8002","addr":"경기도 평택시 합정동 902-3번지 1층","indutype":"용역 서비스 - 사무서비스","category":"other"}]},{"lat":"36.9909101","long":"127.10547288","imageIndex":17,"items":[{"name":"뉴게임","tel":"031-653-7706","addr":"경기도 평택시 합정동 773번지 유창빌딩","indutype":"서적문구 - 완구점","category":"other"},{"name":"뉴게임","tel":"031-655-9046","addr":"경기도 평택시 합정동 773번지","indutype":"도소매업 - 컴퓨터기기","category":"other"},{"name":"아이러브맘","tel":"031-691-7215","addr":"경기도 평택시 합정동 773번지 유창빌딩 1층","indutype":"의류 - 정장","category":"other"},{"name":"아이러브맘","tel":"031-651-1995","addr":"경기도 평택시 합정동 773번지 유창빌딩","indutype":"소매업 - 의류","category":"other"},{"name":"오브플라워","tel":"031-656-7731","addr":"경기도 평택시 합정동 773번지 1층","indutype":"문화.취미 - 화원","category":"other"}]},{"lat":"36.992963982","long":"127.09517471","imageIndex":17,"items":[{"name":"니은상사","tel":"031-653-6180","addr":"경기도 평택시 합정동 741-8번지 302호","indutype":"기타 - 기계공구","category":"other"},{"name":"지음협동조합","tel":"031-655-4788","addr":"경기도 평택시 합정동 741-8번지 2층","indutype":"서비스업 - 교육","category":"other"},{"name":"평택아사달헌책방","tel":"031-656-6318","addr":"경기도 평택시 합정동 741-8번지","indutype":"서적문구 - 일반서적","category":"other"}]},{"lat":"36.988499187","long":"127.10078563","imageIndex":17,"items":[{"name":"다솜광고인테리어","tel":"031-651-1049","addr":"경기도 평택시 합정동 924-4번지","indutype":"건축자재 - 인테리어전문","category":"other"}]},{"lat":"36.991048574","long":"127.10156398","imageIndex":17,"items":[{"name":"다온부동산","tel":"","addr":"경기도 평택시 합정동 765-4번지","indutype":"서비스업 - 부동산","category":"other"}]},{"lat":"36.991499463","long":"127.1011377","imageIndex":17,"items":[{"name":"다은캔들","tel":"","addr":"경기도 평택시 합정동 763-8번지","indutype":"신변잡화 - 기타잡화","category":"other"}]},{"lat":"36.992052731","long":"127.09666762","imageIndex":17,"items":[{"name":"다인광고","tel":"031-657-3381","addr":"경기도 평택시 합정동 751-17번지","indutype":"용역 서비스 - 종합용역","category":"other"},{"name":"컴퓨터시대","tel":"031-654-8112","addr":"경기도 평택시 합정동 751-17번지 1층","indutype":"사무통신 - 컴퓨터","category":"other"}]},{"lat":"36.991713203","long":"127.09294905","imageIndex":17,"items":[{"name":"대명(인쇄)기획","tel":"031-656-4983","addr":"경기도 평택시 합정동 736-21번지","indutype":"제조업 - 인쇄","category":"other"}]},{"lat":"36.991162848","long":"127.0938695","imageIndex":17,"items":[{"name":"대명(인쇄)기획","tel":"031-655-6066","addr":"경기도 평택시 합정동 654-4번지","indutype":"서적문구 - 출판 및 인쇄물","category":"other"}]},{"lat":"36.992712697","long":"127.09386012","imageIndex":17,"items":[{"name":"대박타운","tel":"031-668-6626","addr":"경기도 평택시 합정동 742-18번지","indutype":"의류 - 정장","category":"other"}]},{"lat":"36.99221633","long":"127.09487051","imageIndex":17,"items":[{"name":"대성이불","tel":"070-7567-2959","addr":"경기도 평택시 합정동 744-11번지 가원주택 나동 303호","indutype":"직물 - 침구·수예점","category":"other"}]},{"lat":"36.992249161","long":"127.09892573","imageIndex":17,"items":[{"name":"대성종합건재","tel":"031-655-0942","addr":"경기도 평택시 합정동 757-2번지","indutype":"건축자재 - 기타건축자재","category":"other"},{"name":"리틀쇼퍼","tel":"031-651-8058","addr":"경기도 평택시 합정동 757-2번지 102호","indutype":"의류 - 아동의류","category":"other"},{"name":"봄날스튜디오","tel":"031-656-6014","addr":"경기도 평택시 합정동 757-2번지","indutype":"광학제품 - 사진관","category":"other"},{"name":"예일퀸스하우스 산후조리원","tel":"031-618-4788","addr":"경기도 평택시 합정동 757-2번지","indutype":"서비스업 - 산후조리원","category":"other"},{"name":"크레빅","tel":"031-657-1584","addr":"경기도 평택시 합정동 757-2","indutype":"의류 - 정장","category":"other"}]},{"lat":"36.989577854","long":"127.09269941","imageIndex":17,"items":[{"name":"대작 우리옷","tel":"031-655-0431","addr":"경기도 평택시 합정동 831번지 1층","indutype":"의류 - 맞춤복점","category":"other"}]},{"lat":"36.987525175","long":"127.09033817","imageIndex":17,"items":[{"name":"대한칼라강판","tel":"031-658-3806","addr":"경기도 평택시 합정동 857-1번지","indutype":"건축자재 - 기타건축자재","category":"other"}]},{"lat":"36.991407656","long":"127.10317077","imageIndex":17,"items":[{"name":"대한페인트공사","tel":"031-658-2522","addr":"경기도 평택시 합정동 767-2번지","indutype":"건축자재 - 페인트","category":"other"}]},{"lat":"36.989020407","long":"127.10247121","imageIndex":17,"items":[{"name":"대현공인중개사 사무소","tel":"031-8054-7337","addr":"경기도 평택시 합정동 913-15번지","indutype":"서비스업 - 부동산","category":"other"},{"name":"아름다운화원","tel":"031-658-6002","addr":"경기도 평택시 합정동 913-15번지 1층","indutype":"문화.취미 - 화원","category":"other"}]},{"lat":"36.989242751","long":"127.10589748","imageIndex":17,"items":[{"name":"더믹스","tel":"031-653-8289","addr":"경기도 평택시 합정동 901-8번지","indutype":"서적문구 - 문구용품","category":"other"},{"name":"장순용유도체육아카데미","tel":"031-653-1630","addr":"경기도 평택시 합정동 901-8번지","indutype":"회원제형태 - 레져업소","category":"other"}]},{"lat":"36.990997641","long":"127.09772223","imageIndex":17,"items":[{"name":"덕은암","tel":"031-656-7602","addr":"경기도 평택시 합정동 515-4번지","indutype":"회원제형태 - 기타4","category":"other"}]},{"lat":"36.992212736","long":"127.09939748","imageIndex":17,"items":[{"name":"덕진상사","tel":"031-657-1031","addr":"경기도 평택시 합정동 757-5번지","indutype":"건축자재 - 페인트","category":"other"},{"name":"베이비파크 2호점","tel":"031-655-8020","addr":"경기도 평택시 합정동 757-5번지 1층","indutype":"의류 - 아동의류","category":"other"},{"name":"베이비파크2호점","tel":"031-656-3710","addr":"경기도 평택시 합정동 757-5번지","indutype":"소매업 - 유아용품","category":"other"}]},{"lat":"36.978580684","long":"127.10861228","imageIndex":17,"items":[{"name":"덕천산업","tel":"","addr":"경기도 평택시 합정동 172번지","indutype":"용역 서비스 - 기타용역서비스","category":"other"}]},{"lat":"36.989243646","long":"127.11486121","imageIndex":17,"items":[{"name":"도시와풍경","tel":"031-651-1001","addr":"경기도 평택시 합정동 974-4번지 팰리스빌딩 1동 101호","indutype":"용역 서비스 - 종합용역","category":"other"},{"name":"에듀포스카이","tel":"070-4226-0591","addr":"경기도 평택시 합정동 974-4번지 팰리스빌딩 6층 2호","indutype":"서적문구 - 일반서적","category":"other"}]},{"lat":"36.991192066","long":"127.09097142","imageIndex":17,"items":[{"name":"동궁유통전기","tel":"031-656-5007","addr":"경기도 평택시 합정동 734-5번지","indutype":"소매업 - 전기재료","category":"other"}]},{"lat":"36.988353461","long":"127.09128266","imageIndex":17,"items":[{"name":"동명공업사","tel":"031-655-7646","addr":"경기도 평택시 합정동 820번지","indutype":"수리서비스 - 기타수리서비스","category":"other"},{"name":"중부샤링","tel":"031-654-7604","addr":"경기도 평택시 합정동 820번지","indutype":"기타 - 기계공구","category":"other"},{"name":"중부테크","tel":"031-653-0310","addr":"경기도 평택시 합정동 820번지","indutype":"용역 서비스 - 기타용역서비스","category":"other"},{"name":"평진건설","tel":"02-1111-1111","addr":"경기도 평택시 합정동 820번지 1층","indutype":"용역 서비스 - 기타용역서비스","category":"other"}]},{"lat":"36.993524584","long":"127.09264788","imageIndex":17,"items":[{"name":"동명사","tel":"031-652-9490","addr":"경기도 평택시 합정동 672-20번지","indutype":"서적문구 - 출판 및 인쇄물","category":"other"},{"name":"우인숙플라워샵","tel":"031-657-8661","addr":"경기도 평택시 합정동 672-20번지","indutype":"문화.취미 - 화원","category":"other"},{"name":"평택마크사","tel":"031-655-0329","addr":"경기도 평택시 합정동 672-20동현빌딩1층3","indutype":"기타 - 기타 전문점","category":"other"}]},{"lat":"36.986301452","long":"127.11019549","imageIndex":17,"items":[{"name":"동산환경","tel":"031-654-7324","addr":"경기도 평택시 합정동 105-10번지","indutype":"기타 - 기타 전문점","category":"other"}]},{"lat":"36.991881634","long":"127.09653261","imageIndex":17,"items":[{"name":"동성설비","tel":"031-652-0325","addr":"경기도 평택시 합정동 750번지","indutype":"수리서비스 - 기타수리서비스","category":"other"}]},{"lat":"36.988356726","long":"127.11889241","imageIndex":17,"items":[{"name":"동성쇼파","tel":"031-658-4675","addr":"경기도 평택시 합정동 21-22,22-3","indutype":"수리서비스 - 가정용품수리","category":"other"},{"name":"오렌지데코","tel":"031-653-1882","addr":"경기도 평택시 합정동 22-3번지 101동 102호","indutype":"가구 - 기타가구","category":"other"},{"name":"현진스포츠패션","tel":"031-612-9148","addr":"경기도 평택시 합정동 22-3번지 B동 204호","indutype":"레져용품 - 스포츠·레져용품","category":"other"}]},{"lat":"36.980777894","long":"127.09969752","imageIndex":17,"items":[{"name":"동일다육농원","tel":"031-655-2048","addr":"경기도 평택시 합정동 855-8번지","indutype":"문화.취미 - 화원","category":"other"},{"name":"유진분재원","tel":"031-658-5561","addr":"경기도 평택시 합정동 855-8,-11","indutype":"문화.취미 - 화원","category":"other"}]},{"lat":"36.991246554","long":"127.0903986","imageIndex":17,"items":[{"name":"두근두근알콜카페","tel":"031-657-1004","addr":"경기도 평택시 합정동 734-2번지","indutype":"서비스업 - 카페","category":"other"}]},{"lat":"36.992101586","long":"127.09172509","imageIndex":17,"items":[{"name":"디노스","tel":"","addr":"경기도 평택시 합정동 730-13번지 1층","indutype":"문화.취미 - 민예·공예품","category":"other"}]},{"lat":"36.987968655","long":"127.10995072","imageIndex":17,"items":[{"name":"디에이치 크린샷","tel":"031-657-1625","addr":"경기도 평택시 합정동 318-15번지 송현타운 B동 205호","indutype":"주방용구 - 주방용구","category":"other"}]},{"lat":"36.987217198","long":"127.11383609","imageIndex":17,"items":[{"name":"디자인 큐브","tel":"031-691-7249","addr":"경기도 평택시 합정동 975-2번지 라인갤러리 402호","indutype":"서적문구 - 출판 및 인쇄물","category":"other"},{"name":"센스콤","tel":"031-674-4662","addr":"경기도 평택시 합정동 975-2번지 라인갤러리","indutype":"용역 서비스 - 종합용역","category":"other"}]},{"lat":"36.992637892","long":"127.09734233","imageIndex":17,"items":[{"name":"디자인광목아나이스","tel":"","addr":"경기도 평택시 합정동 753번지 1층","indutype":"직물 - 침구·수예점","category":"other"}]},{"lat":"36.987542638","long":"127.11270208","imageIndex":17,"items":[{"name":"디자인제이","tel":"","addr":"경기도 평택시 합정동 971-4번지 MD클래식 A동 701호","indutype":"건축자재 - 인테리어전문","category":"other"}]},{"lat":"36.989716663","long":"127.09952912","imageIndex":17,"items":[{"name":"디자인플러스","tel":"031-618-4741","addr":"경기도 평택시 합정동 920-2번지","indutype":"서비스업 - 판촉물,디자인","category":"other"},{"name":"디자인플러스","tel":"031-651-9721","addr":"경기도 평택시 합정동 920-2번지","indutype":"용역 서비스 - 사무서비스","category":"other"}]},{"lat":"36.991688408","long":"127.10147494","imageIndex":17,"items":[{"name":"뚱이 자수이야기","tel":"031-618-5525","addr":"경기도 평택시 합정동 763-3번지","indutype":"소매업 - 자수재료","category":"other"},{"name":"뚱이자수이야기","tel":"031-658-0429","addr":"경기도 평택시 합정동 763-3번지","indutype":"직물 - 침구·수예점","category":"other"},{"name":"세탁풍경","tel":"070-8887-4500","addr":"경기도 평택시 합정동 763-3번지 롯데슈퍼내 세탁코너","indutype":"수리서비스 - 세탁소","category":"other"}]},{"lat":"36.989219821","long":"127.10105614","imageIndex":17,"items":[{"name":"뜯어먹는영어서술하는수학","tel":"031-410-1422","addr":"경기도 평택시 합정동 918-2번지","indutype":"회원제형태 - 서적","category":"other"}]},{"lat":"36.993162697","long":"127.09455712","imageIndex":17,"items":[{"name":"라마즈 산후조리원","tel":"031-654-6245","addr":"경기도 평택시 합정동 741-2번지 3층","indutype":"서비스업 - 산후조리원","category":"other"},{"name":"라마즈 산후조리원","tel":"031-618-9792","addr":"경기도 평택시 합정동 741-2번지 3층","indutype":"기타의료기관 - 산후조리원","category":"other"}]},{"lat":"36.988991102","long":"127.10514455","imageIndex":17,"items":[{"name":"락구열쇠","tel":"031-655-5619","addr":"경기도 평택시 합정동 902-2번지 동원하이빌1차 202호","indutype":"수리서비스 - 기타수리서비스","category":"other"}]},{"lat":"36.991247682","long":"127.10050833","imageIndex":17,"items":[{"name":"레드페이스","tel":"031-655-6421","addr":"경기도 평택시 합정동 764번지 외1필지","indutype":"레져용품 - 스포츠·레져용품","category":"other"},{"name":"레드페이스평택합정점","tel":"031-653-5234","addr":"경기도 평택시 합정동 764번지","indutype":"소매업 - 등산장비, 의류","category":"other"},{"name":"복음서림","tel":"031-651-1083","addr":"경기도 평택시 합정동 764번지 운덕빌딩 1층","indutype":"서적문구 - 일반서적","category":"other"}]},{"lat":"36.989886909","long":"127.10069755","imageIndex":17,"items":[{"name":"레오나 Reona","tel":"070-8781-0088","addr":"경기도 평택시 합정동 911-7번지 1층","indutype":"의류 - 정장","category":"other"}]},{"lat":"36.990992347","long":"127.0929482","imageIndex":17,"items":[{"name":"로타리피부관리","tel":"031-654-3559","addr":"경기도 평택시 합정동 735-14번지 2층","indutype":"회원제형태 - 기타4","category":"other"}]},{"lat":"36.990468122","long":"127.11589643","imageIndex":17,"items":[{"name":"리본무용학원","tel":"031-658-3015","addr":"경기도 평택시 합정동 866-4번지 5층","indutype":"서비스업 - 교육","category":"other"},{"name":"씨유평택합정중앙로점","tel":"031-269-6690","addr":"경기도 평택시 합정동 866-4번지 101호","indutype":"유통업 영리 - 편 의 점","category":"other"}]},{"lat":"36.989245202","long":"127.10303314","imageIndex":17,"items":[{"name":"마르니","tel":"","addr":"경기도 평택시 합정동 906-4번지 은혜벤츠빌 201호","indutype":"의류 - 정장","category":"other"}]},{"lat":"36.986382019","long":"127.11077968","imageIndex":17,"items":[{"name":"마이니아","tel":"","addr":"경기도 평택시 합정동 87-4번지","indutype":"가구 - 일반가구","category":"other"}]},{"lat":"36.992547499","long":"127.09770168","imageIndex":17,"items":[{"name":"마터피아","tel":"031-656-3326","addr":"경기도 평택시 합정동 753-3번지 2층","indutype":"서비스업 - 산모도우미","category":"other"}]},{"lat":"36.99135292","long":"127.09275766","imageIndex":17,"items":[{"name":"명가타일","tel":"031-655-6540","addr":"경기도 평택시 합정동 736-8번지 1층","indutype":"건축자재 - 건축용 요업제품","category":"other"}]},{"lat":"36.991742928","long":"127.10092459","imageIndex":17,"items":[{"name":"명문리더스아카데미학원","tel":"031-655-8080","addr":"경기도 평택시 합정동 763-17번지","indutype":"서비스업 - 교육","category":"other"}]},{"lat":"36.989299057","long":"127.1134235","imageIndex":17,"items":[{"name":"모유사랑 평택점","tel":"031-653-9388","addr":"경기도 평택시 합정동 964-17번지 프레이즈 2층 206호","indutype":"서비스업 - 모유수유지도","category":"other"}]},{"lat":"36.992602055","long":"127.09708392","imageIndex":17,"items":[{"name":"미노천연공방","tel":"","addr":"경기도 평택시 합정동 752-8번지 동호빌딩 9 ,101호","indutype":"문화.취미 - 문화취미기타","category":"other"},{"name":"이형윤 동물병원","tel":"031-651-2737","addr":"경기도 평택시 합정동 752-8번지","indutype":"서비스업 - 수의","category":"other"}]},{"lat":"36.989999337","long":"127.10625795","imageIndex":17,"items":[{"name":"미니베베","tel":"031-651-6477","addr":"경기도 평택시 합정동 776-1번지 기호빌딩 1층","indutype":"의류 - 아동의류","category":"other"},{"name":"베이비파크","tel":"031-691-7215","addr":"경기도 평택시 합정동 776-1번지","indutype":"소매업 - 출산용품 및 잡화","category":"other"},{"name":"베이비파크","tel":"031-618-8020","addr":"경기도 평택시 합정동 776-1번지","indutype":"의류 - 아동의류","category":"other"},{"name":"평일알뜰매장","tel":"031-657-6020","addr":"경기도 평택시 합정동 776-1번지","indutype":"유통업 영리 - 기타유통업","category":"other"},{"name":"현수막월드","tel":"031-656-4564","addr":"경기도 평택시 합정동 776-1번지","indutype":"직물 - 카페트,커튼,천막,지물","category":"other"},{"name":"현수막월드","tel":"031-656-5077","addr":"경기도 평택시 합정동 776-1번지","indutype":"제조업 - 인쇄","category":"other"}]},{"lat":"36.989769539","long":"127.10097822","imageIndex":17,"items":[{"name":"미니스톱평택합정점","tel":"031-340-4260","addr":"경기도 평택시 합정동 912-1번지","indutype":"유통업 영리 - 편 의 점","category":"other"},{"name":"연제부동산중개사무소","tel":"031-657-6568","addr":"경기도 평택시 합정동 912-1번지","indutype":"서비스업 - 부동산","category":"other"}]},{"lat":"36.99207852","long":"127.09822906","imageIndex":17,"items":[{"name":"미래교육","tel":"070-8780-7979","addr":"경기도 평택시 합정동 756-12번지","indutype":"회원제형태 - 서적","category":"other"},{"name":"한국부가통신","tel":"031-657-6777","addr":"경기도 평택시 합정동 756-12번지","indutype":"사무통신 - 통신기기","category":"other"}]},{"lat":"36.99116347","long":"127.10422635","imageIndex":17,"items":[{"name":"미래스포츠용품","tel":"031-655-9046","addr":"경기도 평택시 합정동 772번지","indutype":"레져용품 - 스포츠·레져용품","category":"other"},{"name":"미래스포츠용품점","tel":"031-655-3231","addr":"경기도 평택시 합정동 772번지","indutype":"도소매업 - 스포츠용품","category":"other"},{"name":"씨유평택신한점","tel":"031-655-1566","addr":"경기도 평택시 합정동 772","indutype":"유통업 영리 - 편 의 점","category":"other"},{"name":"오피스웨이평택점","tel":"031-656-2511","addr":"경기도 평택시 합정동 772번지","indutype":"도소매업 - 문구","category":"other"},{"name":"오피스웨이평택점","tel":"031-657-6655","addr":"경기도 평택시 합정동 772","indutype":"서적문구 - 문구용품","category":"other"}]},{"lat":"36.99105415","long":"127.09461075","imageIndex":17,"items":[{"name":"미르내텔레콤(주)","tel":"031-2611-7040","addr":"경기도 평택시 합정동 601-5번지 2층","indutype":"사무통신 - 통신기기","category":"other"}]},{"lat":"36.990548804","long":"127.10647212","imageIndex":17,"items":[{"name":"미미문구","tel":"031-656-5501","addr":"경기도 평택시 합정동 773-14번지","indutype":"소매업 - 문구","category":"other"},{"name":"미미학생문구백화점","tel":"031-656-1744","addr":"경기도 평택시 합정동 773-14번지","indutype":"서적문구 - 문구용품","category":"other"}]},{"lat":"36.988521178","long":"127.11655628","imageIndex":17,"items":[{"name":"미성이엔씨","tel":"031-653-7804","addr":"경기도 평택시 합정동 875-8번지 101호","indutype":"용역 서비스 - 기타용역서비스","category":"other"}]},{"lat":"36.992909296","long":"127.09597221","imageIndex":17,"items":[{"name":"미소창","tel":"070-4025-2645","addr":"경기도 평택시 합정동 752-2번지 상가 1층","indutype":"직물 - 침구·수예점","category":"other"}]},{"lat":"36.991162745","long":"127.0940043","imageIndex":17,"items":[{"name":"미스터오피스","tel":"050-4359-8805","addr":"경기도 평택시 합정동 654-6번지","indutype":"소매업 - 문구","category":"other"},{"name":"미스터오피스","tel":"031-653-1982","addr":"경기도 평택시 합정동 654-6번지 1층","indutype":"사무통신 - 기타 사무용품","category":"other"}]},{"lat":"36.99135531","long":"127.10111505","imageIndex":17,"items":[{"name":"민정인테리어","tel":"031-651-4768","addr":"경기도 평택시 합정동 763-10번지","indutype":"직물 - 카페트,커튼,천막,지물","category":"other"}]},{"lat":"36.991580033","long":"127.09028665","imageIndex":17,"items":[{"name":"바니-B","tel":"","addr":"경기도 평택시 합정동 733-21번지","indutype":"의류 - 정장","category":"other"}]},{"lat":"36.988464303","long":"127.09937028","imageIndex":17,"items":[{"name":"바른OA컴퓨터","tel":"031-651-1321","addr":"경기도 평택시 합정동 940-2번지","indutype":"사무통신 - 사무용 OA기기","category":"other"},{"name":"평택OA서비스","tel":"031-658-8859","addr":"경기도 평택시 합정동 940-2번지","indutype":"사무통신 - 사무용 OA기기","category":"other"}]},{"lat":"36.987714428","long":"127.10178432","imageIndex":17,"items":[{"name":"바른교육","tel":"031-618-9700","addr":"경기도 평택시 합정동 927-6번지 1층","indutype":"서적문구 - 전문서적","category":"other"}]},{"lat":"36.986857523","long":"127.11302683","imageIndex":17,"items":[{"name":"바이도로시(By,Dorothy)","tel":"070-8614-0144","addr":"경기도 평택시 합정동 970-14번지 청담스카이 203호","indutype":"신변잡화 - 기타잡화","category":"other"}]},{"lat":"36.988527651","long":"127.09903338","imageIndex":17,"items":[{"name":"바이림","tel":"070-4123-2021","addr":"경기도 평택시 합정동 941-4번지","indutype":"서비스업 - 광고","category":"other"},{"name":"바이림(By Rim)","tel":"031-8029-7077","addr":"경기도 평택시 합정동 941-4번지","indutype":"용역 서비스 - 종합용역","category":"other"}]},{"lat":"36.991937941","long":"127.09364577","imageIndex":17,"items":[{"name":"박상열의 드럼밸리스튜디오","tel":"050-7369-8133","addr":"경기도 평택시 합정동 746번지 지하","indutype":"용역 서비스 - 종합용역","category":"other"}]},{"lat":"36.993189945","long":"127.09427632","imageIndex":17,"items":[{"name":"백년해로","tel":"031-651-1995","addr":"경기도 평택시 합정동 741번지","indutype":"의류 - 맞춤복점","category":"other"},{"name":"백년해로","tel":"031-651-5796","addr":"경기도 평택시 합정동 741번지","indutype":"소매업 - 한복","category":"other"}]},{"lat":"36.989415491","long":"127.10411171","imageIndex":17,"items":[{"name":"백조세탁소","tel":"031-655-3244","addr":"경기도 평택시 합정동 904-2번지","indutype":"수리서비스 - 세탁소","category":"other"}]},{"lat":"36.993470187","long":"127.09308592","imageIndex":17,"items":[{"name":"베이프킹","tel":"070-5015-3867","addr":"경기도 평택시 합정동 672-5번지 1층","indutype":"기타 - 기타 전문점","category":"other"},{"name":"올림픽스포츠,올림픽체육사","tel":"031-655-1303","addr":"경기도 평택시 합정동 672-5번지","indutype":"레져용품 - 스포츠·레져용품","category":"other"}]},{"lat":"36.991380481","long":"127.10333923","imageIndex":17,"items":[{"name":"벨르","tel":"031-666-7374","addr":"경기도 평택시 합정동 767-3번지 1층","indutype":"소매업 - 커튼","category":"other"},{"name":"벨르","tel":"031-656-8799","addr":"경기도 평택시 합정동 767-3번지 1층","indutype":"직물 - 카페트,커튼,천막,지물","category":"other"}]},{"lat":"36.990662309","long":"127.10011443","imageIndex":17,"items":[{"name":"복음서림","tel":"","addr":"경기도 평택시 합정동 963-1번지","indutype":"소매업 - 서적","category":"other"}]},{"lat":"36.992221665","long":"127.09949859","imageIndex":17,"items":[{"name":"부룡미공사","tel":"031-655-2512","addr":"경기도 평택시 합정동 757-6","indutype":"회원제형태 - 기타4","category":"other"}]},{"lat":"36.992276448","long":"127.09861124","imageIndex":17,"items":[{"name":"부성금속","tel":"031-653-0301","addr":"경기도 평택시 합정동 757-15번지","indutype":"회원제형태 - 기타4","category":"other"}]},{"lat":"36.988776579","long":"127.10311115","imageIndex":17,"items":[{"name":"브러쉬","tel":"031-654-6000","addr":"경기도 평택시 합정동 913-12번지","indutype":"소매업 - 의류","category":"other"},{"name":"종이없는벽지 채연산업","tel":"031-656-8991","addr":"경기도 평택시 합정동 913-12번지 202호","indutype":"건축자재 - 페인트","category":"other"}]},{"lat":"36.990885941","long":"127.10209172","imageIndex":17,"items":[{"name":"블럭놀이터","tel":"031-654-7156","addr":"경기도 평택시 합정동 765-9번지","indutype":"서적문구 - 완구점","category":"other"}]},{"lat":"36.989413345","long":"127.11644528","imageIndex":17,"items":[{"name":"블레싱","tel":"031-657-5822","addr":"경기도 평택시 합정동 876-1번지","indutype":"소매업 - 의류","category":"other"},{"name":"블레싱","tel":"031-618-7753","addr":"경기도 평택시 합정동 876-1번지","indutype":"의류 - 정장","category":"other"},{"name":"코리아북마트","tel":"031-655-1411","addr":"경기도 평택시 합정동 876-1번지","indutype":"서적문구 - 일반서적","category":"other"}]},{"lat":"36.990162231","long":"127.10544941","imageIndex":17,"items":[{"name":"비단에스테틱","tel":"031-616-8890","addr":"경기도 평택시 합정동 775-8번지 1층","indutype":"회원제형태 - 기타4","category":"other"}]},{"lat":"36.988796772","long":"127.1005052","imageIndex":17,"items":[{"name":"비비","tel":"031-656-0361","addr":"경기도 평택시 합정동 923-3번지","indutype":"회원제형태 - 기타1","category":"other"}]},{"lat":"36.992936416","long":"127.09585991","imageIndex":17,"items":[{"name":"비전인쇄기획","tel":"031-653-4665","addr":"경기도 평택시 합정동 752-1번지","indutype":"서적문구 - 출판 및 인쇄물","category":"other"},{"name":"오즈기타유일악기","tel":"031-654-8545","addr":"경기도 평택시 합정동 752-1번지","indutype":"레져용품 - 악기점","category":"other"},{"name":"오즈기타유일악기","tel":"031-654-2624","addr":"경기도 평택시 합정동 752-1번지","indutype":"소매업 - 악기 및 주변기기","category":"other"}]},{"lat":"36.988991652","long":"127.10450429","imageIndex":17,"items":[{"name":"비젼툴링","tel":"031-618-0935","addr":"경기도 평택시 합정동 903-5번지 블루빌 303호","indutype":"기타 - 기계공구","category":"other"}]},{"lat":"36.990941935","long":"127.09975533","imageIndex":17,"items":[{"name":"비트로평택합정점","tel":"031-656-8388","addr":"경기도 평택시 합정동 485-16번지","indutype":"소매업 - 운동용품","category":"other"},{"name":"사단법인 사회사업실천협의회","tel":"","addr":"경기도 평택시 합정동 485-16번지 3층","indutype":"기타 - 비영리/비대상","category":"other"},{"name":"하카전자담배평택점","tel":"031-691-9079","addr":"경기도 평택시 합정동 485-16번지 하카전자담배평택점","indutype":"기타 - 기타 전문점","category":"other"}]},{"lat":"36.978382498","long":"127.10855585","imageIndex":17,"items":[{"name":"빈체레","tel":"031-658-0809","addr":"경기도 평택시 합정동 172-4번지 A동","indutype":"용역 서비스 - 기타용역서비스","category":"other"}]},{"lat":"36.990414218","long":"127.11572786","imageIndex":17,"items":[{"name":"빠이오코스메틱","tel":"031-658-5628","addr":"경기도 평택시 합정동 866-3번지 3층","indutype":"회원제형태 - 기타4","category":"other"}]},{"lat":"36.99049865","long":"127.10188902","imageIndex":17,"items":[{"name":"빡규 펫살롱","tel":"","addr":"경기도 평택시 합정동 909-5번지 아트빌","indutype":"문화.취미 - 애완동물","category":"other"}]},{"lat":"36.987804135","long":"127.11250027","imageIndex":17,"items":[{"name":"쁘띠츄(구,레쁘띠)본점","tel":"031-652-7133","addr":"경기도 평택시 합정동 970-4번지 1층 101호 102호","indutype":"의류 - 정장","category":"other"}]},{"lat":"36.991803438","long":"127.09278066","imageIndex":17,"items":[{"name":"사)국제피플투피플평택챕터","tel":"031-651-3877","addr":"경기도 평택시 합정동 737-5번지 해든빌 2층","indutype":"기타 - 비영리/대상","category":"other"}]},{"lat":"36.987354326","long":"127.10139072","imageIndex":17,"items":[{"name":"사단법인평택시새마을회","tel":"031-652-4554","addr":"경기도 평택시 합정동 938-10번지","indutype":"신변잡화 - 기타잡화","category":"other"}]},{"lat":"36.991549084","long":"127.09545383","imageIndex":17,"items":[{"name":"사단법인한국불교선조계종","tel":"031-651-8367","addr":"경기도 평택시 합정동 748-16번지","indutype":"회원제형태 - 기타4","category":"other"}]},{"lat":"36.991109801","long":"127.09253271","imageIndex":17,"items":[{"name":"사랑열쇠도장","tel":"031-657-0117","addr":"경기도 평택시 합정동 735-11번지","indutype":"건축자재 - 목재·석재·철물","category":"other"}]},{"lat":"36.993443241","long":"127.09297355","imageIndex":17,"items":[{"name":"사진예술관","tel":"031-651-8131","addr":"경기도 평택시 합정동 672-15번지","indutype":"광학제품 - 사진관","category":"other"}]},{"lat":"36.99152552","long":"127.09089317","imageIndex":17,"items":[{"name":"삼보당","tel":"031-655-5550","addr":"경기도 평택시 합정동 733-18번지","indutype":"신변잡화 - 시계","category":"other"},{"name":"삼보당","tel":"031-657-4718","addr":"경기도 평택시 합정동 733-18번지","indutype":"소매업 - 귀금속","category":"other"}]},{"lat":"36.989080453","long":"127.11591684","imageIndex":17,"items":[{"name":"삼성출판사평택유치특약점","tel":"031-655-1564","addr":"경기도 평택시 합정동 874-2번지","indutype":"회원제형태 - 서적","category":"other"}]},{"lat":"36.993551853","long":"127.09233338","imageIndex":17,"items":[{"name":"삼정디자인","tel":"031-000-0000","addr":"경기도 평택시 합정동 672-33번지","indutype":"건축자재 - 인테리어전문","category":"other"},{"name":"월드교복","tel":"031-657-2023","addr":"경기도 평택시 합정동 672-33번지","indutype":"의류 - 단체복","category":"other"}]},{"lat":"36.990828693","long":"127.10583222","imageIndex":17,"items":[{"name":"삼천리자전거","tel":"031-654-6255","addr":"경기도 평택시 합정동 773-1번지","indutype":"레져용품 - 스포츠·레져용품","category":"other"},{"name":"세라플라워","tel":"031-618-0082","addr":"경기도 평택시 합정동 773-1번지","indutype":"문화.취미 - 화원","category":"other"},{"name":"세라플라워","tel":"031-651-0336","addr":"경기도 평택시 합정동 773-1번지","indutype":"소매업 - 화훼","category":"other"}]},{"lat":"36.989415299","long":"127.10433636","imageIndex":17,"items":[{"name":"삼화기획","tel":"031-656-4109","addr":"경기도 평택시 합정동 904-12번지","indutype":"서비스업 - 광고","category":"other"}]},{"lat":"36.992435743","long":"127.09070326","imageIndex":17,"items":[{"name":"새시장방앗간","tel":"031-691-5587","addr":"경기도 평택시 합정동 731-33번지","indutype":"제조업 - 떡","category":"other"}]},{"lat":"36.99335262","long":"127.09364745","imageIndex":17,"items":[{"name":"샵 모바일","tel":"031-653-0114","addr":"경기도 평택시 합정동 672-2번지 SKY빌딩 1층 103호","indutype":"사무통신 - 통신기기","category":"other"},{"name":"샵모바일","tel":"070-7576-0775","addr":"경기도 평택시 합정동 672-2번지 103호","indutype":"소매업 - 전자기기","category":"other"}]},{"lat":"36.990796256","long":"127.10158612","imageIndex":17,"items":[{"name":"서종원캘리스학원","tel":"031-657-3176","addr":"경기도 평택시 합정동 894-5번지","indutype":"서비스업 - 교육","category":"other"},{"name":"주식회사 지음기획","tel":"031-1800-6423","addr":"경기도 평택시 합정동 894-5번지","indutype":"서적문구 - 출판 및 인쇄물","category":"other"}]},{"lat":"36.99324413","long":"127.09411912","imageIndex":17,"items":[{"name":"성동전기전자","tel":"031-618-8574","addr":"경기도 평택시 합정동 741-24번지","indutype":"전기제품 - 가전제품","category":"other"}]},{"lat":"36.988246526","long":"127.10122338","imageIndex":17,"items":[{"name":"성보금속","tel":"031-655-0186","addr":"경기도 평택시 합정동 925-9번지","indutype":"건축자재 - 목재·석재·철물","category":"other"}]},{"lat":"36.989720542","long":"127.10563977","imageIndex":17,"items":[{"name":"성심라이프주식회사","tel":"031-657-5444","addr":"경기도 평택시 합정동 899-22번지","indutype":"용역 서비스 - 가례서비스업","category":"other"}]},{"lat":"36.990993674","long":"127.10256364","imageIndex":17,"items":[{"name":"세븐일레븐 평택합정SK지점","tel":"031-691-4208","addr":"경기도 평택시 합정동 766-7번지 1층","indutype":"소매업 - 편의점","category":"other"}]},{"lat":"36.987415821","long":"127.11342077","imageIndex":17,"items":[{"name":"세븐일레븐평택배미지구점","tel":"031-1577-0711","addr":"경기도 평택시 합정동 973-5번지 삼성아트빌 1층","indutype":"유통업 영리 - 편 의 점","category":"other"},{"name":"크린위드","tel":"031-657-8821","addr":"경기도 평택시 합정동 973-5번지 삼성아트빌 1층","indutype":"수리서비스 - 세탁소","category":"other"}]},{"lat":"36.992109084","long":"127.0937246","imageIndex":17,"items":[{"name":"세븐일레븐평택성동대로점","tel":"","addr":"경기도 평택시 합정동 742-13번지 1층일부","indutype":"유통업 영리 - 편 의 점","category":"other"},{"name":"프라임학원","tel":"031-654-7764","addr":"경기도 평택시 합정동 742-13번지 2층","indutype":"서비스업 - 교육","category":"other"}]},{"lat":"36.989076196","long":"127.10039323","imageIndex":17,"items":[{"name":"세븐일레븐평택조개터점","tel":"","addr":"경기도 평택시 합정동 922-15번지","indutype":"유통업 영리 - 편 의 점","category":"other"}]},{"lat":"36.993714417","long":"127.0918393","imageIndex":17,"items":[{"name":"세븐일레븐평택합정성동점","tel":"","addr":"경기도 평택시 합정동 672-13번지","indutype":"유통업 영리 - 편 의 점","category":"other"},{"name":"포유25평택성동점","tel":"031-652-7195","addr":"경기도 평택시 합정동 672-13번지","indutype":"유통업 영리 - 편 의 점","category":"other"}]},{"lat":"36.989468911","long":"127.10486437","imageIndex":17,"items":[{"name":"세븐일레븐평택합정원룸점","tel":"","addr":"경기도 평택시 합정동 903-14번지 1층 101호","indutype":"유통업 영리 - 편 의 점","category":"other"}]},{"lat":"36.988083265","long":"127.10250368","imageIndex":17,"items":[{"name":"소인에스테틱","tel":"031-654-2226","addr":"경기도 평택시 합정동 928-2번지","indutype":"서비스업 - 피부","category":"other"}]},{"lat":"36.990053577","long":"127.10605584","imageIndex":17,"items":[{"name":"소풍","tel":"0000-0000-0000","addr":"경기도 평택시 합정동 776번지","indutype":"서적문구 - 완구점","category":"other"}]},{"lat":"36.991716451","long":"127.10025057","imageIndex":17,"items":[{"name":"송월타월","tel":"031-651-1255","addr":"경기도 평택시 합정동 762-6번지","indutype":"소매업 - 타월","category":"other"}]},{"lat":"36.987471763","long":"127.10103143","imageIndex":17,"items":[{"name":"수성정보통신","tel":"031-654-6444","addr":"경기도 평택시 합정동 938-14번지","indutype":"도소매업 - 신용카드단말기","category":"other"},{"name":"스토라넷","tel":"031-618-1700","addr":"경기도 평택시 합정동 938-14번지 1층","indutype":"용역 서비스 - 소프트웨어","category":"other"},{"name":"아이엘홈","tel":"031-798-9778","addr":"경기도 평택시 합정동 938-14번지","indutype":"건축자재 - 기타건축자재","category":"other"}]},{"lat":"36.988743909","long":"127.10958112","imageIndex":17,"items":[{"name":"수아트","tel":"031-653-4224","addr":"경기도 평택시 합정동 361-8번지","indutype":"용역 서비스 - 종합용역","category":"other"},{"name":"수아트","tel":"031-692-3072","addr":"경기도 평택시 합정동 361-8번지","indutype":"서비스업 - 공연기획","category":"other"}]},{"lat":"36.991915136","long":"127.0997004","imageIndex":17,"items":[{"name":"수입육 직매장 평택대리점","tel":"031-655-6066","addr":"경기도 평택시 합정동 757-11번지","indutype":"도소매업 - 식육","category":"other"}]},{"lat":"36.991246479","long":"127.09049969","imageIndex":17,"items":[{"name":"스마일피부관리샵","tel":"031-692-6111","addr":"경기도 평택시 합정동 734-3번지","indutype":"회원제형태 - 기타4","category":"other"}]},{"lat":"36.990243618","long":"127.10511253","imageIndex":17,"items":[{"name":"스튜디오 유니크","tel":"031-654-9778","addr":"경기도 평택시 합정동 775-5번지","indutype":"광학제품 - 사진관","category":"other"},{"name":"스튜디오유니크","tel":"","addr":"경기도 평택시 합정동 775-5번지","indutype":"서비스업 - 사진관","category":"other"}]},{"lat":"36.99157915","long":"127.09147735","imageIndex":17,"items":[{"name":"시론웨딩","tel":"031-657-3969","addr":"경기도 평택시 합정동 733-10번지 3층","indutype":"용역 서비스 - 혼례서비스","category":"other"}]},{"lat":"36.991859844","long":"127.10119433","imageIndex":17,"items":[{"name":"시루떡","tel":"031-652-4996","addr":"경기도 평택시 합정동 763-1번지","indutype":"제조업 - 떡","category":"other"},{"name":"티아라뷰티샵","tel":"031-652-2247","addr":"경기도 평택시 합정동 763-1번지 2층","indutype":"회원제형태 - 기타4","category":"other"}]},{"lat":"36.989162941","long":"127.11444548","imageIndex":17,"items":[{"name":"신도사무기","tel":"031-657-5400","addr":"경기도 평택시 합정동 974-1번지 주연빌 1층","indutype":"사무통신 - 사무용 OA기기","category":"other"}]},{"lat":"36.992106573","long":"127.09694851","imageIndex":17,"items":[{"name":"신성공조","tel":"031-611-7751","addr":"경기도 평택시 합정동 751-14번지","indutype":"전기제품 - 냉열기기","category":"other"}]},{"lat":"36.989490937","long":"127.10009047","imageIndex":17,"items":[{"name":"신화산업","tel":"031-654-0397","addr":"경기도 평택시 합정동 919-1번지","indutype":"신변잡화 - 기타잡화","category":"other"}]},{"lat":"36.991887516","long":"127.10041928","imageIndex":17,"items":[{"name":"신화정보통신","tel":"031-654-7017","addr":"경기도 평택시 합정동 762-4번지","indutype":"사무통신 - 통신기기","category":"other"}]},{"lat":"36.990414303","long":"127.11563799","imageIndex":17,"items":[{"name":"쑥좌훈방","tel":"031-691-3364","addr":"경기도 평택시 합정동 866-6번지 2층","indutype":"회원제형태 - 기타4","category":"other"}]},{"lat":"36.991463828","long":"127.1006434","imageIndex":17,"items":[{"name":"씨유평택합정대로점","tel":"031-691-8838","addr":"경기도 평택시 합정동 763-15번지","indutype":"유통업 영리 - 편 의 점","category":"other"}]},{"lat":"36.992134937","long":"127.09525234","imageIndex":17,"items":[{"name":"씨유평택합정스카이점","tel":"031-616-7323","addr":"경기도 평택시 합정동 744-3번지 1층 101호","indutype":"유통업 영리 - 편 의 점","category":"other"}]},{"lat":"36.992298856","long":"127.0930059","imageIndex":17,"items":[{"name":"씨유평택합정자유로점","tel":"080-080-3663","addr":"경기도 평택시 합정동 739-25번지 프리스틴빌 105동 101호","indutype":"유통업 영리 - 편 의 점","category":"other"}]},{"lat":"36.988967037","long":"127.10163992","imageIndex":17,"items":[{"name":"씨유평택합정점","tel":"031-654-5861","addr":"경기도 평택시 합정동 918-6번지 1층","indutype":"유통업 영리 - 편 의 점","category":"other"},{"name":"씨유합정점","tel":"","addr":"경기도 평택시 합정동 918-6번지","indutype":"소매업 - 편의점","category":"other"}]},{"lat":"36.987245128","long":"127.10267108","imageIndex":17,"items":[{"name":"씨유평택합정중앙점","tel":"031-65-2596","addr":"경기도 평택시 합정동 929-9번지 1층","indutype":"유통업 영리 - 편 의 점","category":"other"},{"name":"씨유평택합정중앙점","tel":"031-898-6566","addr":"경기도 평택시 합정동 929-9번지 1층","indutype":"유통업 영리 - 편 의 점","category":"other"}]},{"lat":"36.987464479","long":"127.09891972","imageIndex":17,"items":[{"name":"아로마농원","tel":"","addr":"경기도 평택시 합정동 589-159번지","indutype":"문화.취미 - 화원","category":"other"},{"name":"아로마플라워","tel":"031-656-2022","addr":"경기도 평택시 합정동 589-159번지","indutype":"문화.취미 - 화원","category":"other"}]},{"lat":"36.989328588","long":"127.10028122","imageIndex":17,"items":[{"name":"아쿠아뱅크정수기","tel":"031-657-6565","addr":"경기도 평택시 합정동 919-4번지","indutype":"주방용구 - 정수기","category":"other"}]},{"lat":"36.993244217","long":"127.09400678","imageIndex":17,"items":[{"name":"안경박사(그리스)","tel":"","addr":"경기도 평택시 합정동 672-1번지","indutype":"소매업 - 안경","category":"other"}]},{"lat":"36.99063162","long":"127.09334092","imageIndex":17,"items":[{"name":"알뜰반찬즉석두부","tel":"031-651-1177","addr":"경기도 평택시 합정동 834번지 주공아파트 109호","indutype":"소매업 - 반찬","category":"other"}]},{"lat":"36.991775817","long":"127.09355571","imageIndex":17,"items":[{"name":"알라딘","tel":"031-651-5355","addr":"경기도 평택시 합정동 746-10번지 1층 2호","indutype":"소매업 - 의류, 잡화","category":"other"},{"name":"알라딘","tel":"","addr":"경기도 평택시 합정동 746-10번지 1층 2호","indutype":"의류 - 정장","category":"other"}]},{"lat":"36.991137619","long":"127.10283342","imageIndex":17,"items":[{"name":"알톤자전거","tel":"031-656-8959","addr":"경기도 평택시 합정동 768번지","indutype":"레져용품 - 스포츠·레져용품","category":"other"}]},{"lat":"36.992975016","long":"127.0925349","imageIndex":17,"items":[{"name":"알파카 파라다이스(Alpaca paradise)","tel":"","addr":"경기도 평택시 합정동 728-9번지 신평빌라 나동 1층 101호","indutype":"신변잡화 - 기타잡화","category":"other"}]},{"lat":"36.989441666","long":"127.10511146","imageIndex":17,"items":[{"name":"앙리양생원","tel":"031-618-5626","addr":"경기도 평택시 합정동 901-1번지","indutype":"회원제형태 - 기타4","category":"other"}]},{"lat":"36.988297924","long":"127.10439104","imageIndex":17,"items":[{"name":"에버그린","tel":"031-653-9704","addr":"경기도 평택시 합정동 914-16번지","indutype":"건축자재 - 페인트","category":"other"}]},{"lat":"36.991079965","long":"127.09617217","imageIndex":17,"items":[{"name":"에스엠인테리어","tel":"031-654-5672","addr":"경기도 평택시 합정동 507-8번지","indutype":"건축자재 - 인테리어전문","category":"other"}]},{"lat":"36.990137922","long":"127.10224801","imageIndex":17,"items":[{"name":"에이스마트정육","tel":"031-618-9288","addr":"경기도 평택시 합정동 908-5번지","indutype":"소매업 - 정육","category":"other"}]},{"lat":"36.989580221","long":"127.1010903","imageIndex":17,"items":[{"name":"에이치디에너지","tel":"","addr":"경기도 평택시 합정동 912-14번지 범창빌딩 301-1호","indutype":"용역 서비스 - 기타용역서비스","category":"other"}]},{"lat":"36.987380223","long":"127.10274988","imageIndex":17,"items":[{"name":"에이치컴퍼니(H Company)","tel":"031-655-4885","addr":"경기도 평택시 합정동 929-11번지 1동 101호","indutype":"사무통신 - 통신기기","category":"other"}]},{"lat":"36.991934968","long":"127.09745379","imageIndex":17,"items":[{"name":"에코크린","tel":"070-4243-5192","addr":"경기도 평택시 합정동 753-12번지","indutype":"용역 서비스 - 종합용역","category":"other"}]},{"lat":"36.993470375","long":"127.09283878","imageIndex":17,"items":[{"name":"엘리스컨츄리","tel":"070-4101-9299","addr":"경기도 평택시 합정동 672-8 외4필지","indutype":"문화.취미 - 민예·공예품","category":"other"},{"name":"제일전산IT보습학원","tel":"031-655-3532","addr":"경기도 평택시 합정동 672-8번지 2층","indutype":"서비스업 - 교육","category":"other"}]},{"lat":"36.988049114","long":"127.10022343","imageIndex":17,"items":[{"name":"엘엠에듀","tel":"070-7554-1488","addr":"경기도 평택시 합정동 939-2번지 1층","indutype":"서적문구 - 일반서적","category":"other"},{"name":"월드익스프레스","tel":"031-668-2724","addr":"경기도 평택시 합정동 939-2번지 대성주택 201호","indutype":"회원제형태 - 기타4","category":"other"}]},{"lat":"36.988746317","long":"127.1166914","imageIndex":17,"items":[{"name":"엠앤엠코리아(M&M KOREA)","tel":"031-655-4860","addr":"경기도 평택시 합정동 876-6번지 1층","indutype":"사무통신 - 기타 사무용품","category":"other"}]},{"lat":"36.985773729","long":"127.11569854","imageIndex":17,"items":[{"name":"엠에스 테크","tel":"031-655-7535","addr":"경기도 평택시 합정동 49-1번지","indutype":"건축자재 - 조명기구","category":"other"}]},{"lat":"36.98916083","long":"127.11666956","imageIndex":17,"items":[{"name":"연공예방","tel":"070-818-6061","addr":"경기도 평택시 합정동 876-12번지","indutype":"문화.취미 - 문화취미기타","category":"other"}]},{"lat":"36.979662901","long":"127.09678719","imageIndex":17,"items":[{"name":"연예원","tel":"","addr":"경기도 평택시 합정동 859-22번지","indutype":"건축자재 - 인테리어전문","category":"other"}]},{"lat":"36.989437486","long":"127.09933781","imageIndex":17,"items":[{"name":"영광자동차유리","tel":"031-654-6222","addr":"경기도 평택시 합정동 920-4번지","indutype":"건축자재 - 유리","category":"other"}]},{"lat":"36.989193388","long":"127.11074996","imageIndex":17,"items":[{"name":"예다락","tel":"031-654-1014","addr":"경기도 평택시 합정동 355-9번지 3층","indutype":"소매업 - 전통차","category":"other"},{"name":"예다락","tel":"031-652-6407","addr":"경기도 평택시 합정동 355-9번지","indutype":"가구 - 기타가구","category":"other"}]},{"lat":"36.99119335","long":"127.10083402","imageIndex":17,"items":[{"name":"예원기획","tel":"031-652-5296","addr":"경기도 평택시 합정동 764-4번지","indutype":"제조업 - 광고","category":"other"},{"name":"예원기획","tel":"031-654-6419","addr":"경기도 평택시 합정동 764-4번지","indutype":"건축자재 - 인테리어전문","category":"other"}]},{"lat":"36.990631078","long":"127.10511305","imageIndex":17,"items":[{"name":"오렌지나무","tel":"031-657-6591","addr":"경기도 평택시 합정동 771-9번지","indutype":"의류 - 정장","category":"other"}]},{"lat":"36.988414446","long":"127.10511008","imageIndex":17,"items":[{"name":"오리엔탈낚시할인매장","tel":"031-652-4989","addr":"경기도 평택시 합정동 914-4번지","indutype":"레져용품 - 스포츠·레져용품","category":"other"},{"name":"오리엔탈피싱","tel":"031-652-8165","addr":"경기도 평택시 합정동 914-4번지 일진빌 1층","indutype":"레져용품 - 스포츠·레져용품","category":"other"}]},{"lat":"36.988328381","long":"127.11072627","imageIndex":17,"items":[{"name":"오성전기.조명","tel":"031-654-5236","addr":"경기도 평택시 합정동 353-2번지","indutype":"건축자재 - 조명기구","category":"other"}]},{"lat":"36.988193008","long":"127.10056059","imageIndex":17,"items":[{"name":"오케이기프트판촉물","tel":"031-654-3559","addr":"경기도 평택시 합정동 924-7번지","indutype":"유통업 영리 - 기타유통업","category":"other"},{"name":"티엘에스기획","tel":"031-658-0048","addr":"경기도 평택시 합정동 924-7번지 1층","indutype":"유통업 영리 - 기타유통업","category":"other"}]},{"lat":"36.987271963","long":"127.11308359","imageIndex":17,"items":[{"name":"오케이설비","tel":"","addr":"경기도 평택시 합정동 971-8번지 301호","indutype":"용역 서비스 - 기타용역서비스","category":"other"}]},{"lat":"36.988911645","long":"127.10322366","imageIndex":17,"items":[{"name":"온라인닷컴","tel":"031-618-1288","addr":"경기도 평택시 합정동 913-8번지 201호","indutype":"용역 서비스 - 종합용역","category":"other"}]},{"lat":"36.98768827","long":"127.10072843","imageIndex":17,"items":[{"name":"욕실박사","tel":"031-691-3307","addr":"경기도 평택시 합정동 939-11번지 1층","indutype":"건축자재 - 인테리어전문","category":"other"}]},{"lat":"36.989387408","long":"127.10533604","imageIndex":17,"items":[{"name":"용호조경","tel":"031-656-1128","addr":"경기도 평택시 합정동 901-3번지","indutype":"건축자재 - 인테리어전문","category":"other"}]},{"lat":"36.992191212","long":"127.09236548","imageIndex":17,"items":[{"name":"우리셀프빨래방","tel":"","addr":"경기도 평택시 합정동 737번지 1층","indutype":"수리서비스 - 세탁소","category":"other"}]},{"lat":"36.989661965","long":"127.11072815","imageIndex":17,"items":[{"name":"우먼로드","tel":"031-653-4834","addr":"경기도 평택시 합정동 356-1번지 358-5 1층","indutype":"직물 - 침구·수예점","category":"other"},{"name":"코리아텍(koces)","tel":"031-654-5671","addr":"경기도 평택시 합정동 356-1번지 401호","indutype":"사무통신 - 통신기기","category":"other"}]},{"lat":"36.990551392","long":"127.09219507","imageIndex":17,"items":[{"name":"원디자인간판","tel":"","addr":"경기도 평택시 합정동 613-1번지","indutype":"서비스업 - 인쇄","category":"other"},{"name":"윈디자인간판","tel":"031-658-7733","addr":"경기도 평택시 합정동 613-1번지","indutype":"건축자재 - 인테리어전문","category":"other"}]},{"lat":"36.992828023","long":"127.09619677","imageIndex":17,"items":[{"name":"유명광고","tel":"031-654-0906","addr":"경기도 평택시 합정동 752-4번지 2층","indutype":"용역 서비스 - 종합용역","category":"other"}]},{"lat":"36.992660392","long":"127.09153477","imageIndex":17,"items":[{"name":"유얼센트","tel":"031-000-0000","addr":"경기도 평택시 합정동 730-4번지 제니스오피스텔 709호","indutype":"신변잡화 - 기타잡화","category":"other"}]},{"lat":"36.992438884","long":"127.09830814","imageIndex":17,"items":[{"name":"윤보석","tel":"031-651-3316","addr":"경기도 평택시 합정동 756-5번지","indutype":"신변잡화 - 시계","category":"other"},{"name":"태평양수족관","tel":"031-654-7405","addr":"경기도 평택시 합정동 756-5번지","indutype":"문화.취미 - 수족관","category":"other"}]},{"lat":"36.988660328","long":"127.11231054","imageIndex":17,"items":[{"name":"은성철물","tel":"031-657-6655","addr":"경기도 평택시 합정동 968-5번지","indutype":"소매업 - 철물","category":"other"},{"name":"은성철물","tel":"031-651-4339","addr":"경기도 평택시 합정동 968-5번지 1층","indutype":"기타 - 기계공구","category":"other"}]},{"lat":"36.99019105","long":"127.10336013","imageIndex":17,"items":[{"name":"이마트24 평택 합정점","tel":"031-000-0000","addr":"경기도 평택시 합정동 896-5번지 1층","indutype":"유통업 영리 - 편 의 점","category":"other"},{"name":"이마트24 평택합정점","tel":"031-655-8020","addr":"경기도 평택시 합정동 896-5번지 1층","indutype":"소매업 - 편의점","category":"other"}]},{"lat":"36.988297576","long":"127.11480366","imageIndex":17,"items":[{"name":"이마트24 평택베가팰리스점","tel":"","addr":"경기도 평택시 합정동 974-12번지 1층","indutype":"유통업 영리 - 편 의 점","category":"other"},{"name":"이마트24 평택베가팰리스점","tel":"","addr":"경기도 평택시 합정동 974-12번지 1층","indutype":"유통업 영리 - 편 의 점","category":"other"}]},{"lat":"36.987742177","long":"127.10091945","imageIndex":17,"items":[{"name":"이마트24 평택합정제일점","tel":"","addr":"경기도 평택시 합정동 939-8번지 나동 1층상가","indutype":"유통업 영리 - 편 의 점","category":"other"},{"name":"이마트24 평택합정제일점","tel":"031-657-4893","addr":"경기도 평택시 합정동 939-8번지 상가 나동 1층","indutype":"유통업 영리 - 편 의 점","category":"other"}]},{"lat":"36.987886051","long":"127.10127908","imageIndex":17,"items":[{"name":"인테리어디자인목수","tel":"031-618-3511","addr":"경기도 평택시 합정동 926-4번지","indutype":"건축자재 - 인테리어전문","category":"other"}]},{"lat":"36.989713216","long":"127.10367402","imageIndex":17,"items":[{"name":"자뎅","tel":"","addr":"경기도 평택시 합정동 905-1번지","indutype":"소매업 - 화분, 꽃","category":"other"},{"name":"자뎅 드로즈","tel":"031-656-8096","addr":"경기도 평택시 합정동 905-1번지","indutype":"소매업 - 꽃","category":"other"},{"name":"자뎅드로즈","tel":"031-656-0798","addr":"경기도 평택시 합정동 905-1번지 1층","indutype":"문화.취미 - 화원","category":"other"}]},{"lat":"36.988136248","long":"127.10378427","imageIndex":17,"items":[{"name":"전통","tel":"031-8029-9279","addr":"경기도 평택시 합정동 916-11번지 3층","indutype":"신변잡화 - 기타잡화","category":"other"}]},{"lat":"36.992185439","long":"127.09972321","imageIndex":17,"items":[{"name":"정다운옷가게","tel":"","addr":"경기도 평택시 합정동 757-8번지","indutype":"의류 - 정장","category":"other"},{"name":"폰사랑 김도령","tel":"070-4383-3708","addr":"경기도 평택시 합정동 757-8번지 1층","indutype":"사무통신 - 통신기기","category":"other"},{"name":"피플","tel":"031-655-9375","addr":"경기도 평택시 합정동 757-8번지","indutype":"의류 - 정장","category":"other"},{"name":"피플","tel":"031-655-0094","addr":"경기도 평택시 합정동 757-8번지","indutype":"소매업 - 의류","category":"other"}]},{"lat":"36.989497731","long":"127.11295201","imageIndex":17,"items":[{"name":"정스ESL어학원,jungsBooks정스북스","tel":"070-8747-1165","addr":"경기도 평택시 합정동 965-9번지 2층","indutype":"서적문구 - 출판 및 인쇄물","category":"other"}]},{"lat":"36.988769601","long":"127.10067365","imageIndex":17,"items":[{"name":"제이디에프","tel":"","addr":"경기도 평택시 합정동 923-14번지","indutype":"서적문구 - 출판 및 인쇄물","category":"other"}]},{"lat":"36.990716805","long":"127.09958655","imageIndex":17,"items":[{"name":"제일전자","tel":"031-655-3302","addr":"경기도 평택시 합정동 551-6번지","indutype":"도소매업 - 전자제품","category":"other"},{"name":"제일전자","tel":"031-656-8682","addr":"경기도 평택시 합정동 551-6번지 1층","indutype":"전기제품 - 기타전기제품","category":"other"}]},{"lat":"36.987967768","long":"127.1005266","imageIndex":17,"items":[{"name":"종합신문지국","tel":"031-656-2763","addr":"경기도 평택시 합정동 939-4번지","indutype":"서적문구 - 정기간행물","category":"other"}]},{"lat":"36.991215994","long":"127.09506027","imageIndex":17,"items":[{"name":"주)한양설비","tel":"031-654-0244","addr":"경기도 평택시 합정동 747-5번지","indutype":"서비스업 - 상하수도 설비","category":"other"}]},{"lat":"36.986444356","long":"127.1115885","imageIndex":17,"items":[{"name":"주식회사 삼성디에스솔루션","tel":"031-658-1113","addr":"경기도 평택시 합정동 89-3번지 101호","indutype":"전기제품 - 가전제품","category":"other"}]},{"lat":"36.990354103","long":"127.10233815","imageIndex":17,"items":[{"name":"주식회사 카르타교육","tel":"031-647-6006","addr":"경기도 평택시 합정동 908-6번지 장운빌리지 1층","indutype":"서적문구 - 일반서적","category":"other"}]},{"lat":"36.989694294","long":"127.10472988","imageIndex":17,"items":[{"name":"주식회사이경산업","tel":"031-668-8854","addr":"경기도 평택시 합정동 899-10번지 101호","indutype":"건축자재 - 기타건축자재","category":"other"}]},{"lat":"36.986776553","long":"127.10269293","imageIndex":17,"items":[{"name":"주식회사이다","tel":"031-656-0512","addr":"경기도 평택시 합정동 936-2번지 유경아트빌3차 1층","indutype":"서적문구 - 출판 및 인쇄물","category":"other"}]},{"lat":"36.988325778","long":"127.10342507","imageIndex":17,"items":[{"name":"주식회사커피투데이","tel":"031-618-2105","addr":"경기도 평택시 합정동 917-8번지","indutype":"광학제품 - 기타광학제품","category":"other"}]},{"lat":"36.993046007","long":"127.09397285","imageIndex":17,"items":[{"name":"주연테크","tel":"031-658-4242","addr":"경기도 평택시 합정동 741-22번지","indutype":"소매업 - 컴퓨터부품","category":"other"},{"name":"패밀리휘트니스헬스","tel":"031-654-4671","addr":"경기도 평택시 합정동 741-22번지","indutype":"회원제형태 - 레져업소","category":"other"}]},{"lat":"36.988553679","long":"127.11069289","imageIndex":17,"items":[{"name":"지성컴퓨터","tel":"031-655-7833","addr":"경기도 평택시 합정동 353-1번지","indutype":"사무통신 - 컴퓨터","category":"other"}]},{"lat":"36.989469075","long":"127.10467341","imageIndex":17,"items":[{"name":"진우세탁소","tel":"031-618-8139","addr":"경기도 평택시 합정동 903-1번지","indutype":"수리서비스 - 세탁소","category":"other"}]},{"lat":"36.98896827","long":"127.10014597","imageIndex":17,"items":[{"name":"차오름협동조합","tel":"","addr":"경기도 평택시 합정동 922-3번지","indutype":"서비스업 - 차량세차","category":"other"}]},{"lat":"36.989916179","long":"127.11827698","imageIndex":17,"items":[{"name":"참이슬문구","tel":"070-7573-4000","addr":"경기도 평택시 합정동 870번지 참이슬아파트 상가 101호","indutype":"소매업 - 문구","category":"other"},{"name":"포이베스킨케어","tel":"031-654-0210","addr":"경기도 평택시 합정동 870번지 참이슬 상가 203호","indutype":"회원제형태 - 기타4","category":"other"}]},{"lat":"36.989979689","long":"127.11782776","imageIndex":17,"items":[{"name":"참이슬어린이집","tel":"031-651-3737","addr":"경기도 평택시 합정동 870번지 참이슬아파트 110동 104호","indutype":"서비스업 - 교육","category":"other"}]},{"lat":"36.989858024","long":"127.10292161","imageIndex":17,"items":[{"name":"천상운집당구장","tel":"031-658-3328","addr":"경기도 평택시 합정동 907-3번지","indutype":"서비스업 - 당구","category":"other"}]},{"lat":"36.993101958","long":"127.09147912","imageIndex":17,"items":[{"name":"체리쉬","tel":"031-000-0000","addr":"경기도 평택시 합정동 728-25번지 1층","indutype":"의류 - 정장","category":"other"}]},{"lat":"36.991018606","long":"127.10503494","imageIndex":17,"items":[{"name":"첼시플라워","tel":"031-656-2511","addr":"경기도 평택시 합정동 772-5번지","indutype":"문화.취미 - 화원","category":"other"},{"name":"첼시플라워","tel":"031-654-2788","addr":"경기도 평택시 합정동 772-5번지","indutype":"소매업 - 꽃집","category":"other"}]},{"lat":"36.98841617","long":"127.10308821","imageIndex":17,"items":[{"name":"친구당구클럽","tel":"031-655-6689","addr":"경기도 평택시 합정동 917-6번지 2층","indutype":"서비스업 - 당구","category":"other"}]},{"lat":"36.989797713","long":"127.09958539","imageIndex":17,"items":[{"name":"친구타이어","tel":"031-616-3358","addr":"경기도 평택시 합정동 920-1번지","indutype":"소매업 - 타이어, 휠","category":"other"}]},{"lat":"36.991769392","long":"127.10160984","imageIndex":17,"items":[{"name":"카페토리","tel":"031-658-6692","addr":"경기도 평택시 합정동 763-4번지","indutype":"소매업 - 카페","category":"other"},{"name":"팔도한우","tel":"031-652-7764","addr":"경기도 평택시 합정동 763-4번지","indutype":"소매업 - 정육","category":"other"}]},{"lat":"36.980785745","long":"127.1114569","imageIndex":17,"items":[{"name":"카프로","tel":"031-658-7588","addr":"경기도 평택시 합정동 121-8번지 합정동자동차매매단지 E동 129호","indutype":"회원제형태 - 기타3","category":"other"}]},{"lat":"36.992991727","long":"127.09425362","imageIndex":17,"items":[{"name":"캐리어에어컨평택센터","tel":"031-651-8780","addr":"경기도 평택시 합정동 741-20번지","indutype":"전기제품 - 냉열기기","category":"other"}]},{"lat":"36.988078291","long":"127.11797092","imageIndex":17,"items":[{"name":"캘러웨이","tel":"","addr":"경기도 평택시 합정동 21-19번지","indutype":"소매업 - 의류","category":"other"},{"name":"캘러웨이(callaway)","tel":"031-651-7730","addr":"경기도 평택시 합정동 21-19번지 104,105호","indutype":"의류 - 스포츠의류","category":"other"}]},{"lat":"36.990138447","long":"127.10161897","imageIndex":17,"items":[{"name":"케이원","tel":"031-658-6677","addr":"경기도 평택시 합정동 429-1번지","indutype":"서비스업 - 인쇄","category":"other"}]},{"lat":"36.989299945","long":"127.10222445","imageIndex":17,"items":[{"name":"케이티냉열","tel":"","addr":"경기도 평택시 합정동 913-1번지 201호","indutype":"용역 서비스 - 기타용역서비스","category":"other"}]},{"lat":"36.993406984","long":"127.09325434","imageIndex":17,"items":[{"name":"케쥬얼 시티","tel":"031-655-3025","addr":"경기도 평택시 합정동 672-4번지","indutype":"의류 - 정장","category":"other"}]},{"lat":"36.985164424","long":"127.11203596","imageIndex":17,"items":[{"name":"코리아협동조합","tel":"031-656-0070","addr":"경기도 평택시 합정동 80번지 2층","indutype":"여행 - 관광여행","category":"other"}]},{"lat":"36.989022205","long":"127.11072725","imageIndex":17,"items":[{"name":"콜핑 평택점","tel":"031-691-9713","addr":"경기도 평택시 합정동 354-5번지 유경빌딩 1층 101호","indutype":"의류 - 스포츠의류","category":"other"}]},{"lat":"36.990137516","long":"127.10273102","imageIndex":17,"items":[{"name":"크린토피아평택합정조개터점","tel":"031-651-8778","addr":"경기도 평택시 합정동 896-12번지","indutype":"수리서비스 - 세탁소","category":"other"}]},{"lat":"36.990692975","long":"127.10647232","imageIndex":17,"items":[{"name":"클래식 오딧세이","tel":"031-657-8679","addr":"경기도 평택시 합정동 773-4번지","indutype":"소매업 - 악기","category":"other"},{"name":"클래식오딧세이","tel":"031-656-5501","addr":"경기도 평택시 합정동 773-4번지","indutype":"레져용품 - 악기점","category":"other"}]},{"lat":"36.990491124","long":"127.10009174","imageIndex":17,"items":[{"name":"키다리영어샵(평택점)","tel":"031-657-0509","addr":"경기도 평택시 합정동 963-3번지","indutype":"서적문구 - 전문서적","category":"other"}]},{"lat":"36.989885245","long":"127.10269699","imageIndex":17,"items":[{"name":"토마토기획","tel":"031-672-8306","addr":"경기도 평택시 합정동 907-2번지 유정빌딩 2층","indutype":"용역 서비스 - 종합용역","category":"other"}]},{"lat":"36.988685711","long":"127.11408534","imageIndex":17,"items":[{"name":"토즈멤버십라운지평택합정센터","tel":"031-657-7282","addr":"경기도 평택시 합정동 972-11번지 4층 402호","indutype":"용역 서비스 - 사무서비스","category":"other"}]},{"lat":"36.988415653","long":"127.11380413","imageIndex":17,"items":[{"name":"파티하우스 엔","tel":"031-652-0017","addr":"경기도 평택시 합정동 972-7번지 3층 301호","indutype":"용역 서비스 - 종합용역","category":"other"}]},{"lat":"36.990494972","long":"127.11608743","imageIndex":17,"items":[{"name":"패밀리당구클럽","tel":"031-657-8255","addr":"경기도 평택시 합정동 866-5번지","indutype":"서비스업 - 당구","category":"other"}]},{"lat":"36.989860034","long":"127.10050656","imageIndex":17,"items":[{"name":"펫마트 평택점","tel":"031-655-1550","addr":"경기도 평택시 합정동 911-5번지 1층","indutype":"문화.취미 - 애완동물","category":"other"},{"name":"펫마트평택점","tel":"031-655-5502","addr":"경기도 평택시 합정동 911-5번지","indutype":"소매업 - 애견용품","category":"other"}]},{"lat":"36.986741658","long":"127.11164508","imageIndex":17,"items":[{"name":"평안꽃차교육원","tel":"031-654-2021","addr":"경기도 평택시 합정동 89-7번지","indutype":"문화.취미 - 화원","category":"other"}]},{"lat":"36.991052739","long":"127.09641927","imageIndex":17,"items":[{"name":"평일세차장","tel":"031-653-9288","addr":"경기도 평택시 합정동 510번지","indutype":"서비스업 - 세차","category":"other"}]},{"lat":"36.985137855","long":"127.11153048","imageIndex":17,"items":[{"name":"평택LPG충전소","tel":"031-656-6644","addr":"경기도 평택시 합정동 83-1번지","indutype":"소매업 - LPG충전소","category":"other"}]},{"lat":"36.988632075","long":"127.1035041","imageIndex":17,"items":[{"name":"평택건재","tel":"031-651-4444","addr":"경기도 평택시 합정동 913-11번지 1층","indutype":"건축자재 - 기타건축자재","category":"other"},{"name":"평택건재","tel":"031-655-7238","addr":"경기도 평택시 합정동 913-11번지","indutype":"도소매업 - 건재","category":"other"}]},{"lat":"36.99218553","long":"127.09961087","imageIndex":17,"items":[{"name":"평택국악사","tel":"031-657-9375","addr":"경기도 평택시 합정동 757-7번지","indutype":"레져용품 - 악기점","category":"other"}]},{"lat":"36.989496826","long":"127.10383099","imageIndex":17,"items":[{"name":"평택로타리클럽","tel":"031-655-4369","addr":"경기도 평택시 합정동 905-9번지","indutype":"기타 - 비영리/비대상","category":"other"}]},{"lat":"36.989910723","long":"127.1145589","imageIndex":17,"items":[{"name":"평택반품마트","tel":"031-652-2134","addr":"경기도 평택시 합정동 967-5번지 1층","indutype":"신변잡화 - 기타잡화","category":"other"}]},{"lat":"36.988436776","long":"127.0999768","imageIndex":17,"items":[{"name":"평택상사","tel":"031-651-1837","addr":"경기도 평택시 합정동 922-8번지 102호","indutype":"건축자재 - 기타건축자재","category":"other"}]},{"lat":"36.989634103","long":"127.11163797","imageIndex":17,"items":[{"name":"평택시 산림조합","tel":"031-656-8284","addr":"경기도 평택시 합정동 964-5번지","indutype":"농업 - 비료,사료,종자","category":"other"}]},{"lat":"36.989858263","long":"127.1128402","imageIndex":17,"items":[{"name":"평택시청 작심스페이스","tel":"","addr":"경기도 평택시 합정동 964-12번지 201호","indutype":"용역 서비스 - 사무서비스","category":"other"}]},{"lat":"36.989716212","long":"127.11052604","imageIndex":17,"items":[{"name":"평택역공인중개사사무소","tel":"031-651-0010","addr":"경기도 평택시 합정동 357-1번지","indutype":"서비스업 - 부동산","category":"other"}]},{"lat":"36.987608206","long":"127.10997267","imageIndex":17,"items":[{"name":"평택연합전단","tel":"031-664-2116","addr":"경기도 평택시 합정동 317-4번지 평안원룸 204호","indutype":"용역 서비스 - 종합용역","category":"other"}]},{"lat":"36.989218661","long":"127.102449","imageIndex":17,"items":[{"name":"평택위생물수건","tel":"031-651-0636","addr":"경기도 평택시 합정동 913-3번지","indutype":"도소매업 - 위생물수건","category":"other"}]},{"lat":"36.98605447","long":"127.10414095","imageIndex":17,"items":[{"name":"평택중앙로타리클럽","tel":"031-652-0369","addr":"경기도 평택시 합정동 934-5번지","indutype":"기타 - 비영리/비대상","category":"other"}]},{"lat":"36.988994627","long":"127.12078048","imageIndex":17,"items":[{"name":"평택퍼니빌","tel":"031-618-5392","addr":"경기도 평택시 합정동 3-24번지","indutype":"소매업 - 가구","category":"other"}]},{"lat":"36.990686442","long":"127.09234126","imageIndex":17,"items":[{"name":"평택한마음탁구장","tel":"031-656-0588","addr":"경기도 평택시 합정동 642-21번지","indutype":"서비스업 - 탁구장","category":"other"}]},{"lat":"36.989325512","long":"127.09275527","imageIndex":17,"items":[{"name":"평택합정우체국","tel":"031-655-0026","addr":"경기도 평택시 합정동 829-2번지","indutype":"용역 서비스 - 공공요금대행서비스/소","category":"other"}]},{"lat":"36.989524704","long":"127.10283131","imageIndex":17,"items":[{"name":"포인트조명","tel":"031-692-2113","addr":"경기도 평택시 합정동 907-5번지 101호","indutype":"건축자재 - 조명기구","category":"other"}]},{"lat":"36.989964957","long":"127.09317164","imageIndex":17,"items":[{"name":"풍경","tel":"031-658-9408","addr":"경기도 평택시 합정동 833번지 1층","indutype":"수리서비스 - 세탁소","category":"other"}]},{"lat":"36.993606061","long":"127.09214247","imageIndex":17,"items":[{"name":"플레이스테이션평택점","tel":"031-652-8210","addr":"경기도 평택시 합정동 672-10번지","indutype":"도소매업 - 게임기","category":"other"}]},{"lat":"36.993081235","long":"127.09502882","imageIndex":17,"items":[{"name":"피프틴모자","tel":"070-8239-9861","addr":"경기도 평택시 합정동 741-7번지","indutype":"의류 - 기타의류","category":"other"}]},{"lat":"36.992217169","long":"127.0937809","imageIndex":17,"items":[{"name":"하이런 당구 클럽","tel":"","addr":"경기도 평택시 합정동 742-14번지","indutype":"서비스업 - 당구장","category":"other"}]},{"lat":"36.991248097","long":"127.10000284","imageIndex":17,"items":[{"name":"하이축산","tel":"031-653-9235","addr":"경기도 평택시 합정동 761-1번지","indutype":"소매업 - 정육","category":"other"}]},{"lat":"36.991797455","long":"127.100363","imageIndex":17,"items":[{"name":"하이클리어","tel":"070-7573-4000","addr":"경기도 평택시 합정동 762-5번지 1층","indutype":"레져용품 - 스포츠·레져용품","category":"other"}]},{"lat":"36.990826321","long":"127.09786804","imageIndex":17,"items":[{"name":"한국전자통신","tel":"031-655-3350","addr":"경기도 평택시 합정동 515-6번지","indutype":"용역 서비스 - 소프트웨어","category":"other"}]},{"lat":"36.989023222","long":"127.09905647","imageIndex":17,"items":[{"name":"한남우드","tel":"031-651-3900","addr":"경기도 평택시 합정동 920-8번지","indutype":"건축자재 - 목재·석재·철물","category":"other"}]},{"lat":"36.988524931","long":"127.10233577","imageIndex":17,"items":[{"name":"한성익스프레스","tel":"031-655-2482","addr":"경기도 평택시 합정동 917-17번지 1층","indutype":"용역 서비스 - 기타용역서비스","category":"other"}]},{"lat":"36.988796968","long":"127.11069323","imageIndex":17,"items":[{"name":"한솔건축인테리어","tel":"031-651-4203","addr":"경기도 평택시 합정동 354-2번지","indutype":"건축자재 - 인테리어전문","category":"other"}]},{"lat":"36.990580455","long":"127.10103542","imageIndex":17,"items":[{"name":"한솔피부관리","tel":"031-653-4401","addr":"경기도 평택시 합정동 910-5번지","indutype":"회원제형태 - 기타4","category":"other"}]},{"lat":"36.991631894","long":"127.09322978","imageIndex":17,"items":[{"name":"한신제화","tel":"031-692-0889","addr":"경기도 평택시 합정동 736-3번지","indutype":"수리서비스 - 신변잡화수리","category":"other"},{"name":"희망열쇠","tel":"031-657-0520","addr":"경기도 평택시 합정동 736-3번지","indutype":"기타 - 기계공구","category":"other"}]},{"lat":"36.988579717","long":"127.10147093","imageIndex":17,"items":[{"name":"한양강화도어","tel":"031-618-6042","addr":"경기도 평택시 합정동 925-12번지 동부센스빌 2층 201호","indutype":"용역 서비스 - 기타용역서비스","category":"other"}]},{"lat":"36.991137188","long":"127.09206096","imageIndex":17,"items":[{"name":"한일펌프","tel":"031-655-3676","addr":"경기도 평택시 합정동 735-2","indutype":"건축자재 - 보일러·펌프·샷시","category":"other"}]},{"lat":"36.991353132","long":"127.09247683","imageIndex":17,"items":[{"name":"합정떡방앗간","tel":"031-654-5976","addr":"경기도 평택시 합정동 736-11번지","indutype":"제조업 - 떡","category":"other"}]},{"lat":"36.99180308","long":"127.09325245","imageIndex":17,"items":[{"name":"합정종합장식","tel":"031-654-3160","addr":"경기도 평택시 합정동 736-2번지","indutype":"직물 - 카페트,커튼,천막,지물","category":"other"}]},{"lat":"36.989804643","long":"127.09066653","imageIndex":17,"items":[{"name":"합정주공공인중개사무소","tel":"031-652-6407","addr":"경기도 평택시 합정동 829번지 주공아파트 상가동 101호","indutype":"서비스업 - 부동산","category":"other"}]},{"lat":"36.991190053","long":"127.09364488","imageIndex":17,"items":[{"name":"합정축산물유통","tel":"031-657-3639","addr":"경기도 평택시 합정동 654-5번지","indutype":"소매업 - 정육","category":"other"}]},{"lat":"36.993415867","long":"127.09342285","imageIndex":17,"items":[{"name":"현수서적","tel":"031-611-5214","addr":"경기도 평택시 합정동 672-3번지","indutype":"회원제형태 - 서적","category":"other"}]},{"lat":"36.991080554","long":"127.09541956","imageIndex":17,"items":[{"name":"호연지기","tel":"031-618-4741","addr":"경기도 평택시 합정동 522-6번지","indutype":"서적문구 - 출판 및 인쇄물","category":"other"}]},{"lat":"36.993136364","long":"127.09364719","imageIndex":17,"items":[{"name":"홍익화방(화방샵)","tel":"031-654-3804","addr":"경기도 평택시 합정동 740-10번지","indutype":"문화.취미 - 화방·표구점","category":"other"}]},{"lat":"36.991524191","long":"127.092668","imageIndex":17,"items":[{"name":"화신유리샷시","tel":"031-652-3383","addr":"경기도 평택시 합정동 736-27번지","indutype":"건축자재 - 유리","category":"other"}]},{"lat":"36.991995644","long":"127.10041942","imageIndex":17,"items":[{"name":"화이트안경원","tel":"","addr":"경기도 평택시 합정동 762-2번지","indutype":"소매업 - 안경, 렌즈","category":"other"}]},{"lat":"36.988689552","long":"127.09939303","imageIndex":17,"items":[{"name":"황실MRO","tel":"031-654-7855","addr":"경기도 평택시 합정동 921-3번지 황실빌딩","indutype":"기타 - 기계공구","category":"other"}]},{"lat":"36.989777582","long":"127.11239077","imageIndex":17,"items":[{"name":"휴대폰면세점","tel":"031-655-8070","addr":"경기도 평택시 합정동 964-9번지 1층 2호","indutype":"사무통신 - 통신기기","category":"other"}]},{"lat":"36.992049957","long":"127.10011619","imageIndex":17,"items":[{"name":"휴대폰싸나이","tel":"031-691-8020","addr":"경기도 평택시 합정동 762-13번지","indutype":"사무통신 - 통신기기","category":"other"}]},{"lat":"36.992939916","long":"127.09127673","imageIndex":17,"items":[{"name":"희진상가","tel":"031-653-0091","addr":"경기도 평택시 합정동 730-2번지","indutype":"용역 서비스 - 사무서비스","category":"other"}]},{"lat":"36.992385136","long":"127.09791491","imageIndex":17,"items":[{"name":"ＬＡ패션","tel":"031-657-7925","addr":"경기도 평택시 합정동 756-22번지","indutype":"의류 - 정장","category":"other"}]}]