[{"lat":"37.278371069","long":"127.00008563","imageIndex":4,"items":[{"name":"1023수제햄부대찌개","tel":"031-258-1055","addr":"경기도 수원시 팔달구 화서동 114-6번지 1층","indutype":"일반휴게음식 - 일반한식","category":"restaurant"}]},{"lat":"37.281596633","long":"126.99700715","imageIndex":4,"items":[{"name":"가비아리","tel":"031-246-2588","addr":"경기도 수원시 팔달구 화서동 211-3번지 101호","indutype":"일반휴게음식 - 서양음식","category":"restaurant"}]},{"lat":"37.287182375","long":"126.98941738","imageIndex":4,"items":[{"name":"가야","tel":"031-269-7474","addr":"경기도 수원시 팔달구 화서동 679-1번지","indutype":"일반휴게음식 - 일반한식","category":"restaurant"}]},{"lat":"37.286315988","long":"126.98022699","imageIndex":4,"items":[{"name":"감동튀김","tel":"031-227-0997","addr":"경기도 수원시 팔달구 화서동 723-5번지 성보빌딩 108호","indutype":"일반휴게음식 - 일반한식","category":"restaurant"},{"name":"모래알은반짝","tel":"070-8713-9818","addr":"경기도 수원시 팔달구 화서동 723-5번지 성보빌딩110호~111호110","indutype":"일반휴게음식 - 일반한식","category":"restaurant"},{"name":"바울아저씨","tel":"031-234-5452","addr":"경기도 수원시 팔달구 화서동 723-5번지 성보빌딩 109-1호","indutype":"일반휴게음식 - 스넥","category":"restaurant"},{"name":"비긴195 (begin195)","tel":"031-297-8233","addr":"경기도 수원시 팔달구 화서동 723-5번지 110호111호","indutype":"일반휴게음식 - 서양음식","category":"restaurant"},{"name":"서동진의커피랩일월점","tel":"031-296-3964","addr":"경기도 수원시 팔달구 화서동 723-5번지 성보빌딩 102호","indutype":"일반휴게음식 - 서양음식","category":"restaurant"},{"name":"수김밥(  김밥)","tel":"031-292-7116","addr":"경기도 수원시 팔달구 화서동 723-5번지 성보빌딩 108-1호","indutype":"일반휴게음식 - 스넥","category":"restaurant"}]},{"lat":"37.278875678","long":"127.00281432","imageIndex":4,"items":[{"name":"감탄","tel":"031-256-9188","addr":"경기도 수원시 팔달구 화서동 71-101번지 1층","indutype":"일반휴게음식 - 스넥","category":"restaurant"},{"name":"이모포차","tel":"070-8888-3322","addr":"경기도 수원시 팔달구 화서동 71-101번지 1층","indutype":"일반휴게음식 - 주점","category":"restaurant"}]},{"lat":"37.280875915","long":"126.99970216","imageIndex":4,"items":[{"name":"강남떡볶이","tel":"","addr":"경기도 수원시 팔달구 화서동 119-13번지 1층","indutype":"일반휴게음식 - 일반한식","category":"restaurant"}]},{"lat":"37.27929015","long":"127.00255498","imageIndex":4,"items":[{"name":"개성진찹쌀순대","tel":"031-251-6670","addr":"경기도 수원시 팔달구 화서동 71-79번지 1층","indutype":"일반휴게음식 - 일반한식","category":"restaurant"}]},{"lat":"37.28831841","long":"127.00050252","imageIndex":4,"items":[{"name":"거제활어","tel":"031-258-4379","addr":"경기도 수원시 팔달구 화서동 743번지 화서위브하늘채 202동 106호","indutype":"일반휴게음식 - 일식·회집","category":"restaurant"},{"name":"김밥천국","tel":"031-243-0707","addr":"경기도 수원시 팔달구 화서동 743번지 화서위브하늘채 202동 지2층 108호","indutype":"일반휴게음식 - 일반한식","category":"restaurant"},{"name":"까페모로","tel":"","addr":"경기도 수원시 팔달구 화서동 743번지 화서위브하늘채 203동 제지2층 106호","indutype":"일반휴게음식 - 서양음식","category":"restaurant"},{"name":"나무그늘park아침부엌","tel":"031-256-7770","addr":"경기도 수원시 팔달구 화서동 743번지 화서위브하늘채 202동 203호 화서위브하늘채","indutype":"일반휴게음식 - 스넥","category":"restaurant"},{"name":"돈 레스토랑","tel":"031-207-6766","addr":"경기도 수원시 팔달구 화서동 743번지 화서위브하늘채 201동 104호 상가","indutype":"일반휴게음식 - 서양음식","category":"restaurant"},{"name":"신전떡볶이(화서점)","tel":"031-257-7479","addr":"경기도 수원시 팔달구 화서동 743번지 화서위브하늘채 상가 203동 105호","indutype":"일반휴게음식 - 스넥","category":"restaurant"},{"name":"아벡데프리츠화서2호점","tel":"031-207-1933","addr":"경기도 수원시 팔달구 화서동 743번지 화서위브하늘채 202동 1층 103호","indutype":"일반휴게음식 - 주점","category":"restaurant"},{"name":"요런떡볶이","tel":"031-292-3302","addr":"경기도 수원시 팔달구 화서동 743번지 화서위브하늘채 203동 109호","indutype":"일반휴게음식 - 일반한식","category":"restaurant"},{"name":"유로코피자","tel":"031-255-1828","addr":"경기도 수원시 팔달구 화서동 743번지 화서위브하늘채 203동 지2층 110호","indutype":"일반휴게음식 - 서양음식","category":"restaurant"},{"name":"포나라","tel":"031-111-1111","addr":"경기도 수원시 팔달구 화서동 743번지 화서위브하늘채 201동 105호","indutype":"일반휴게음식 - 서양음식","category":"restaurant"}]},{"lat":"37.279821666","long":"126.99828146","imageIndex":4,"items":[{"name":"경기수산","tel":"031-245-7786","addr":"경기도 수원시 팔달구 화서동 126-9번지","indutype":"일반휴게음식 - 일반한식","category":"restaurant"}]},{"lat":"37.282182159","long":"126.99463912","imageIndex":4,"items":[{"name":"고기한끼수원성균관대점","tel":"031-255-9593","addr":"경기도 수원시 팔달구 화서동 244-16번지 현대프라자 1층","indutype":"일반휴게음식 - 일반한식","category":"restaurant"}]},{"lat":"37.284902952","long":"126.99103033","imageIndex":4,"items":[{"name":"고봉민김밥 화서역삼거리점","tel":"031-252-1458","addr":"경기도 수원시 팔달구 화서동 644-5번지 그린프라자 1층 111호","indutype":"일반휴게음식 - 일반한식","category":"restaurant"},{"name":"과함께","tel":"031-241-4537","addr":"경기도 수원시 팔달구 화서동 644-5번지 그린프라자 1층 115호","indutype":"일반휴게음식 - 일반한식","category":"restaurant"},{"name":"김밥나라","tel":"031-241-5257","addr":"경기도 수원시 팔달구 화서동 644-5번지 그린프라자 101호","indutype":"일반휴게음식 - 일반한식","category":"restaurant"},{"name":"김밥천국","tel":"031-252-7336","addr":"경기도 수원시 팔달구 화서동 644-5번지 그린프라자 105호","indutype":"일반휴게음식 - 일반한식","category":"restaurant"},{"name":"남도나드리","tel":"031-253-3287","addr":"경기도 수원시 팔달구 화서동 644-5번지 그린프라자204-1,204-2호","indutype":"일반휴게음식 - 일반한식","category":"restaurant"},{"name":"맘스터치(화서역점)","tel":"031-255-9888","addr":"경기도 수원시 팔달구 화서동 644-5번지 그린프라자 1층 102,103호","indutype":"일반휴게음식 - 일반한식","category":"restaurant"},{"name":"이동숯불갈비","tel":"031-258-0507","addr":"경기도 수원시 팔달구 화서동 644-5번지 그린프라자 105호","indutype":"일반휴게음식 - 갈비전문점","category":"restaurant"},{"name":"피자마루화서역점","tel":"031-257-1082","addr":"경기도 수원시 팔달구 화서동 644-5번지 그린프라자 106호","indutype":"일반휴게음식 - 서양음식","category":"restaurant"},{"name":"훌랄라숯불바베큐","tel":"031-256-4646","addr":"경기도 수원시 팔달구 화서동 644-5번지 그린프라자 109호","indutype":"일반휴게음식 - 스넥","category":"restaurant"}]},{"lat":"37.280010966","long":"127.00408848","imageIndex":4,"items":[{"name":"고향영양탕","tel":"031-890-9600","addr":"경기도 수원시 팔달구 화서동 71-14번지 104호","indutype":"일반휴게음식 - 일반한식","category":"restaurant"},{"name":"두래두래","tel":"031-255-3210","addr":"경기도 수원시 팔달구 화서동 71-14번지","indutype":"일반휴게음식 - 일반한식","category":"restaurant"},{"name":"작은별호프","tel":"","addr":"경기도 수원시 팔달구 화서동 71-14번지 105호","indutype":"일반휴게음식 - 주점","category":"restaurant"}]},{"lat":"37.28254257","long":"126.99463908","imageIndex":4,"items":[{"name":"고향의맛칼국수","tel":"031-242-2441","addr":"경기도 수원시 팔달구 화서동 245-1번지","indutype":"일반휴게음식 - 일반한식","category":"restaurant"}]},{"lat":"37.279650479","long":"126.99847315","imageIndex":4,"items":[{"name":"곱창주점","tel":"031-111-1111","addr":"경기도 수원시 팔달구 화서동 126-12번지","indutype":"일반휴게음식 - 일반한식","category":"restaurant"}]},{"lat":"37.280344215","long":"126.99719894","imageIndex":4,"items":[{"name":"교촌치킨화서2호점","tel":"031-257-9959","addr":"경기도 수원시 팔달구 화서동 185-3번지 1층","indutype":"일반휴게음식 - 일반한식","category":"restaurant"}]},{"lat":"37.282929971","long":"126.9940865","imageIndex":4,"items":[{"name":"구구짱치킨","tel":"031-246-9282","addr":"경기도 수원시 팔달구 화서동 275-15번지 101호","indutype":"일반휴게음식 - 스넥","category":"restaurant"},{"name":"명랑핫도그 (화서숙지고점)","tel":"031-242-2529","addr":"경기도 수원시 팔달구 화서동 275-15번지 1층","indutype":"일반휴게음식 - 서양음식","category":"restaurant"}]},{"lat":"37.278569307","long":"127.00061558","imageIndex":4,"items":[{"name":"구도씨주도","tel":"","addr":"경기도 수원시 팔달구 화서동 108-2번지 2층","indutype":"일반휴게음식 - 주점","category":"restaurant"},{"name":"깜팽이","tel":"031-247-3925","addr":"경기도 수원시 팔달구 화서동 108-2번지","indutype":"일반휴게음식 - 일반한식","category":"restaurant"},{"name":"너무너무맛있는집","tel":"031-243-7768","addr":"경기도 수원시 팔달구 화서동 108-2번지","indutype":"일반휴게음식 - 일반한식","category":"restaurant"},{"name":"땡촌닭발","tel":"031-258-5118","addr":"경기도 수원시 팔달구 화서동 108-2번지 1층","indutype":"일반휴게음식 - 일반한식","category":"restaurant"},{"name":"아리빠빠양꼬치","tel":"031-548-2284","addr":"경기도 수원시 팔달구 화서동 108-2번지 1층","indutype":"일반휴게음식 - 중국식","category":"restaurant"}]},{"lat":"37.279100924","long":"127.00131465","imageIndex":4,"items":[{"name":"국삼가","tel":"031-255-9393","addr":"경기도 수원시 팔달구 화서동 107-1번지","indutype":"일반휴게음식 - 일반한식","category":"restaurant"}]},{"lat":"37.278875664","long":"127.00105532","imageIndex":4,"items":[{"name":"굴 순두부 전문점","tel":"031-246-7778","addr":"경기도 수원시 팔달구 화서동 107-13번지 1층 1호","indutype":"일반휴게음식 - 일반한식","category":"restaurant"}]},{"lat":"37.281064924","long":"126.99520304","imageIndex":4,"items":[{"name":"굽네치킨","tel":"031-248-6999","addr":"경기도 수원시 팔달구 화서동 219-1번지 101호","indutype":"일반휴게음식 - 스넥","category":"restaurant"}]},{"lat":"37.282065225","long":"127.0074488","imageIndex":4,"items":[{"name":"굿모닝카페","tel":"031-248-2904","addr":"경기도 수원시 팔달구 화서동 43-7번지 1층","indutype":"일반휴게음식 - 일반한식","category":"restaurant"},{"name":"에프터(AFTER)","tel":"","addr":"경기도 수원시 팔달구 화서동 43-7번지","indutype":"일반휴게음식 - 일반한식","category":"restaurant"}]},{"lat":"37.288038296","long":"126.98895487","imageIndex":4,"items":[{"name":"그리움","tel":"031-271-3860","addr":"경기도 수원시 팔달구 화서동 677-3번지 1층 101호","indutype":"일반휴게음식 - 일반한식","category":"restaurant"},{"name":"아델라","tel":"031-111-1111","addr":"경기도 수원시 팔달구 화서동 677-3번지 1층 103호","indutype":"일반휴게음식 - 서양음식","category":"restaurant"}]},{"lat":"37.286262073","long":"126.9810051","imageIndex":4,"items":[{"name":"그린북카페","tel":"031-255-2071","addr":"경기도 수원시 팔달구 화서동 717번지 2층","indutype":"일반휴게음식 - 서양음식","category":"restaurant"}]},{"lat":"37.282849022","long":"126.99628538","imageIndex":4,"items":[{"name":"그집쭈꾸미","tel":"031-251-8989","addr":"경기도 수원시 팔달구 화서동 273-5번지 2층","indutype":"일반휴게음식 - 일반한식","category":"restaurant"},{"name":"더눈꽃빙수앤커피","tel":"031-291-5959","addr":"경기도 수원시 팔달구 화서동 273-5번지 1층","indutype":"일반휴게음식 - 일반한식","category":"restaurant"}]},{"lat":"37.28354265","long":"126.99383835","imageIndex":4,"items":[{"name":"김가네","tel":"031-244-0546","addr":"경기도 수원시 팔달구 화서동 650-1번지 화사4단지 나동 104호","indutype":"일반휴게음식 - 일반한식","category":"restaurant"}]},{"lat":"37.28523481","long":"126.98050923","imageIndex":4,"items":[{"name":"김밥나라","tel":"031-291-0804","addr":"경기도 수원시 팔달구 화서동 725-2번지 우성빌딩 1층","indutype":"일반휴게음식 - 일반한식","category":"restaurant"},{"name":"명랑쌀핫도그(화서율현점)","tel":"031-111-1111","addr":"경기도 수원시 팔달구 화서동 725-2번지 우성빌딩 1층 101호","indutype":"일반휴게음식 - 일반한식","category":"restaurant"},{"name":"죠스떡볶이(화서점)","tel":"031-297-2221","addr":"경기도 수원시 팔달구 화서동 725-2번지 우성빌딩 104호","indutype":"일반휴게음식 - 스넥","category":"restaurant"}]},{"lat":"37.281101071","long":"126.99706357","imageIndex":4,"items":[{"name":"김밥천국화서점","tel":"031-268-0072","addr":"경기도 수원시 팔달구 화서동 206-8번지 신우 상가 102호","indutype":"일반휴게음식 - 일반한식","category":"restaurant"},{"name":"본죽화서블루밍점","tel":"031-241-4428","addr":"경기도 수원시 팔달구 화서동 206-8번지 신우상가아파트 1층 110호","indutype":"일반휴게음식 - 일반한식","category":"restaurant"},{"name":"코다리&해물사랑","tel":"031-255-1388","addr":"경기도 수원시 팔달구 화서동 206-8번지 신우 상가 201,202,203호","indutype":"일반휴게음식 - 일반한식","category":"restaurant"}]},{"lat":"37.278010592","long":"126.9980335","imageIndex":4,"items":[{"name":"김영희강남동태탕","tel":"031-256-8253","addr":"경기도 수원시 팔달구 화서동 184-19번지","indutype":"일반휴게음식 - 일반한식","category":"restaurant"}]},{"lat":"37.286398533","long":"126.98986859","imageIndex":4,"items":[{"name":"김재권철판볶음순대국","tel":"031-269-1995","addr":"경기도 수원시 팔달구 화서동 679-8번지","indutype":"일반휴게음식 - 일반한식","category":"restaurant"}]},{"lat":"37.283903215","long":"126.99613869","imageIndex":4,"items":[{"name":"까페티T","tel":"031-257-6303","addr":"경기도 수원시 팔달구 화서동 270-9 공동주택 101호","indutype":"일반휴게음식 - 서양음식","category":"restaurant"}]},{"lat":"37.285902469","long":"126.98592184","imageIndex":4,"items":[{"name":"꼬노꼬노김밥","tel":"070-1111-1111","addr":"경기도 수원시 팔달구 화서동 685-3번지 102호","indutype":"일반휴게음식 - 스넥","category":"restaurant"},{"name":"비비큐(BBQ)","tel":"031-298-8292","addr":"경기도 수원시 팔달구 화서동 685-3번지","indutype":"일반휴게음식 - 서양음식","category":"restaurant"}]},{"lat":"37.279010831","long":"127.00255498","imageIndex":4,"items":[{"name":"꼬챙이","tel":"","addr":"경기도 수원시 팔달구 화서동 92-3번지 1층","indutype":"일반휴게음식 - 일반한식","category":"restaurant"},{"name":"맛집","tel":"031-244-3317","addr":"경기도 수원시 팔달구 화서동 92-3번지 1층 남쪽첫번째점포","indutype":"일반휴게음식 - 일반한식","category":"restaurant"}]},{"lat":"37.278371103","long":"127.0028707","imageIndex":4,"items":[{"name":"꼬치미","tel":"031-255-6875","addr":"경기도 수원시 팔달구 화서동 71-159번지 1층","indutype":"일반휴게음식 - 스넥","category":"restaurant"},{"name":"화서돼지국밥","tel":"031-255-8832","addr":"경기도 수원시 팔달구 화서동 71-159번지 1층","indutype":"일반휴게음식 - 일반한식","category":"restaurant"}]},{"lat":"37.280596429","long":"126.99583454","imageIndex":4,"items":[{"name":"꽈배기 마법사","tel":"031-252-5117","addr":"경기도 수원시 팔달구 화서동 202-23번지 1층","indutype":"일반휴게음식 - 일반한식","category":"restaurant"},{"name":"화서숯불갈비","tel":"031-258-4098","addr":"경기도 수원시 팔달구 화서동 202-23번지","indutype":"일반휴게음식 - 일반한식","category":"restaurant"}]},{"lat":"37.280983835","long":"126.99525943","imageIndex":4,"items":[{"name":"나모카페","tel":"070-960-6393","addr":"경기도 수원시 팔달구 화서동 219-9번지 1층","indutype":"일반휴게음식 - 서양음식","category":"restaurant"}]},{"lat":"37.287515658","long":"126.98859411","imageIndex":4,"items":[{"name":"낙지대감","tel":"031-269-0227","addr":"경기도 수원시 팔달구 화서동 682-1번지","indutype":"일반휴게음식 - 일반한식","category":"restaurant"}]},{"lat":"37.281461364","long":"126.99503386","imageIndex":4,"items":[{"name":"남경","tel":"031-252-6966","addr":"경기도 수원시 팔달구 화서동 213-15번지 1층","indutype":"일반휴게음식 - 중국식","category":"restaurant"}]},{"lat":"37.27784841","long":"126.99811244","imageIndex":4,"items":[{"name":"남도옛집","tel":"031-241-8432","addr":"경기도 수원시 팔달구 화서동 184-22번지","indutype":"일반휴게음식 - 일반한식","category":"restaurant"}]},{"lat":"37.277848507","long":"127.00270157","imageIndex":4,"items":[{"name":"남이식당","tel":"031-254-2851","addr":"경기도 수원시 팔달구 화서동 93-15번지 1층","indutype":"일반휴게음식 - 일반한식","category":"restaurant"}]},{"lat":"37.286236364","long":"126.99000394","imageIndex":4,"items":[{"name":"남촌칼국수","tel":"031-269-9153","addr":"경기도 수원시 팔달구 화서동 680-1번지","indutype":"일반휴게음식 - 일반한식","category":"restaurant"}]},{"lat":"37.285009632","long":"126.98092653","imageIndex":4,"items":[{"name":"네네치킨","tel":"031-278-4492","addr":"경기도 수원시 팔달구 화서동 726-9번지 1층","indutype":"일반휴게음식 - 스넥","category":"restaurant"}]},{"lat":"37.279263114","long":"127.00173185","imageIndex":4,"items":[{"name":"네네치킨","tel":"031-242-5582","addr":"경기도 수원시 팔달구 화서동 99-9번지","indutype":"일반휴게음식 - 스넥","category":"restaurant"}]},{"lat":"37.280155031","long":"126.99789806","imageIndex":4,"items":[{"name":"노리터","tel":"031-243-5340","addr":"경기도 수원시 팔달구 화서동 126-25번지","indutype":"일반휴게음식 - 일반한식","category":"restaurant"}]},{"lat":"37.283425701","long":"126.99670255","imageIndex":4,"items":[{"name":"녹동낙지마당","tel":"031-252-5502","addr":"경기도 수원시 팔달구 화서동 271-4번지 2층 201호","indutype":"일반휴게음식 - 일반한식","category":"restaurant"},{"name":"본스치킨","tel":"031-252-9295","addr":"경기도 수원시 팔달구 화서동 271-4번지 2층 202호","indutype":"일반휴게음식 - 스넥","category":"restaurant"},{"name":"큰손갈비","tel":"031-246-5292","addr":"경기도 수원시 팔달구 화서동 271-4번지","indutype":"일반휴게음식 - 일반한식","category":"restaurant"}]},{"lat":"37.277704199","long":"126.99706383","imageIndex":4,"items":[{"name":"늘먹골","tel":"031-241-2989","addr":"경기도 수원시 팔달구 화서동 184-50번지 1층","indutype":"일반휴게음식 - 일반한식","category":"restaurant"}]},{"lat":"37.286649287","long":"126.97980965","imageIndex":4,"items":[{"name":"능이버섯마을","tel":"031-296-3720","addr":"경기도 수원시 팔달구 화서동 723-6번지","indutype":"일반휴게음식 - 일반한식","category":"restaurant"}]},{"lat":"37.286344451","long":"126.9896769","imageIndex":4,"items":[{"name":"니지퓨전초밥","tel":"031-268-6966","addr":"경기도 수원시 팔달구 화서동 679-9번지 1층","indutype":"일반휴게음식 - 일식·회집","category":"restaurant"},{"name":"화산옥","tel":"031-243-2359","addr":"경기도 수원시 팔달구 화서동 679-9번지","indutype":"일반휴게음식 - 일반한식","category":"restaurant"}]},{"lat":"37.285487","long":"126.9800017","imageIndex":4,"items":[{"name":"다락마을","tel":"031-292-2311","addr":"경기도 수원시 팔달구 화서동 724-1번지 현승빌딩 201호","indutype":"일반휴게음식 - 일반한식","category":"restaurant"},{"name":"화서본죽","tel":"031-227-1739","addr":"경기도 수원시 팔달구 화서동 724-1번지 현승빌딩 102호","indutype":"일반휴게음식 - 일반한식","category":"restaurant"}]},{"lat":"37.277767339","long":"126.99867622","imageIndex":4,"items":[{"name":"다우리설렁탕","tel":"","addr":"경기도 수원시 팔달구 화서동 180-13번지 1층","indutype":"일반휴게음식 - 일반한식","category":"restaurant"}]},{"lat":"37.286180786","long":"126.97997894","imageIndex":4,"items":[{"name":"다이꼬지","tel":"031-8868-2879","addr":"경기도 수원시 팔달구 화서동 722-7번지 1층","indutype":"일반휴게음식 - 일반한식","category":"restaurant"}]},{"lat":"37.285651374","long":"127.0052839","imageIndex":4,"items":[{"name":"달빛39번길","tel":"070-0000-0000","addr":"경기도 수원시 팔달구 화서동 16-44번지 1층","indutype":"일반휴게음식 - 서양음식","category":"restaurant"}]},{"lat":"37.285153686","long":"126.9803401","imageIndex":4,"items":[{"name":"달콤한닭강정","tel":"031-296-7668","addr":"경기도 수원시 팔달구 화서동 725-1번지 1층","indutype":"일반휴게음식 - 일반한식","category":"restaurant"},{"name":"롯데리아율현점","tel":"031-292-1740","addr":"경기도 수원시 팔달구 화서동 725-1번지 1층","indutype":"일반휴게음식 - 서양음식","category":"restaurant"}]},{"lat":"37.287290421","long":"126.98875203","imageIndex":4,"items":[{"name":"담소정생고기","tel":"031-269-9982","addr":"경기도 수원시 팔달구 화서동 682-3번지","indutype":"일반휴게음식 - 일반한식","category":"restaurant"}]},{"lat":"37.278875642","long":"127.00577981","imageIndex":4,"items":[{"name":"대구왕뽈찜","tel":"031-248-0027","addr":"경기도 수원시 팔달구 화서동 62-9번지 1층","indutype":"일반휴게음식 - 일반한식","category":"restaurant"},{"name":"일가식당","tel":"031-248-0027","addr":"경기도 수원시 팔달구 화서동 62-9번지","indutype":"일반휴게음식 - 일반한식","category":"restaurant"}]},{"lat":"37.277650279","long":"127.00228437","imageIndex":4,"items":[{"name":"대동강","tel":"031-247-0337","addr":"경기도 수원시 팔달구 화서동 96-2번지 지하층","indutype":"일반휴게음식 - 주점","category":"restaurant"}]},{"lat":"37.278010689","long":"127.00203631","imageIndex":4,"items":[{"name":"대박치킨","tel":"070-7557-3343","addr":"경기도 수원시 팔달구 화서동 97-2번지 수정아파트 가동 1층","indutype":"일반휴게음식 - 스넥","category":"restaurant"},{"name":"먹거리타운","tel":"031-246-1350","addr":"경기도 수원시 팔달구 화서동 97-2번지 수정아파트","indutype":"일반휴게음식 - 일반한식","category":"restaurant"},{"name":"서동족발2호점","tel":"031-242-1237","addr":"경기도 수원시 팔달구 화서동 97-2번지 수정아파트 가동 1층","indutype":"일반휴게음식 - 일반한식","category":"restaurant"},{"name":"아빠돈까스","tel":"","addr":"경기도 수원시 팔달구 화서동 97-2번지 수정아파트 가동 1층","indutype":"일반휴게음식 - 일반한식","category":"restaurant"},{"name":"진미삼계탕","tel":"031-246-6333","addr":"경기도 수원시 팔달구 화서동 97-2번지 수정아파트 가동","indutype":"일반휴게음식 - 일반한식","category":"restaurant"},{"name":"호남순대","tel":"031-242-2042","addr":"경기도 수원시 팔달구 화서동 97-2번지 화서시장 가-84","indutype":"일반휴게음식 - 일반한식","category":"restaurant"}]},{"lat":"37.284731706","long":"126.99053419","imageIndex":4,"items":[{"name":"더벤티 화서역점","tel":"070-4415-9515","addr":"경기도 수원시 팔달구 화서동 644-7번지 아트프라자 101호","indutype":"일반휴게음식 - 서양음식","category":"restaurant"},{"name":"백악관부페웨딩홀","tel":"031-248-7177","addr":"경기도 수원시 팔달구 화서동 644-7번지","indutype":"일반휴게음식 - 일반한식","category":"restaurant"},{"name":"아딸(수원화서역점)","tel":"031-558-2511","addr":"경기도 수원시 팔달구 화서동 644-7번지 아트프라자 1층 3호","indutype":"일반휴게음식 - 일반한식","category":"restaurant"},{"name":"커피베이","tel":"031-244-9639","addr":"경기도 수원시 팔달구 화서동 644-7번지 아트프라자 1층 4호","indutype":"일반휴게음식 - 서양음식","category":"restaurant"}]},{"lat":"37.278596321","long":"126.99987139","imageIndex":4,"items":[{"name":"더비어","tel":"031-253-8188","addr":"경기도 수원시 팔달구 화서동 114-14번지 2층","indutype":"일반휴게음식 - 일반한식","category":"restaurant"}]},{"lat":"37.286703183","long":"126.97897515","imageIndex":4,"items":[{"name":"도원차이니스","tel":"031-278-7113","addr":"경기도 수원시 팔달구 화서동 721-1번지","indutype":"일반휴게음식 - 중국식","category":"restaurant"}]},{"lat":"37.279542362","long":"126.9986423","imageIndex":4,"items":[{"name":"돈방석","tel":"031-295-9387","addr":"경기도 수원시 팔달구 화서동 134-1번지","indutype":"일반휴게음식 - 일반한식","category":"restaurant"},{"name":"비어통","tel":"031-111-1111","addr":"경기도 수원시 팔달구 화서동 134-1번지 1층","indutype":"일반휴게음식 - 주점","category":"restaurant"}]},{"lat":"37.278875667","long":"127.00128083","imageIndex":4,"items":[{"name":"돈스조아","tel":"031-246-4533","addr":"경기도 수원시 팔달구 화서동 107-9번지 1층","indutype":"일반휴게음식 - 서양음식","category":"restaurant"},{"name":"진미마라빠","tel":"031-258-5093","addr":"경기도 수원시 팔달구 화서동 107-9번지 1층","indutype":"일반휴게음식 - 중국식","category":"restaurant"},{"name":"쫄비네","tel":"031-253-2935","addr":"경기도 수원시 팔달구 화서동 107-9번지","indutype":"일반휴게음식 - 일반한식","category":"restaurant"}]},{"lat":"37.277821432","long":"126.99964591","imageIndex":4,"items":[{"name":"동북요리닭도리탕오리탕","tel":"","addr":"경기도 수원시 팔달구 화서동 113-24번지 1층","indutype":"일반휴게음식 - 일반한식","category":"restaurant"},{"name":"협동조합 살림","tel":"031-258-4321","addr":"경기도 수원시 팔달구 화서동 113-24번지 1층","indutype":"일반휴게음식 - 일반한식","category":"restaurant"}]},{"lat":"37.285542933","long":"126.9938945","imageIndex":4,"items":[{"name":"동해활어","tel":"031-243-2167","addr":"경기도 수원시 팔달구 화서동 323-3번지","indutype":"일반휴게음식 - 일식·회집","category":"restaurant"}]},{"lat":"37.280209069","long":"126.99736809","imageIndex":4,"items":[{"name":"돼지꿈꾸던날","tel":"031-246-4531","addr":"경기도 수원시 팔달구 화서동 125-4번지","indutype":"일반휴게음식 - 일반한식","category":"restaurant"},{"name":"피플인더(people in the)","tel":"031-253-3337","addr":"경기도 수원시 팔달구 화서동 125-4번지","indutype":"일반휴게음식 - 주점","category":"restaurant"}]},{"lat":"37.279317098","long":"126.99845062","imageIndex":4,"items":[{"name":"돼지네포차","tel":"031-254-0645","addr":"경기도 수원시 팔달구 화서동 136-7번지 1층","indutype":"일반휴게음식 - 일반한식","category":"restaurant"}]},{"lat":"37.278596326","long":"127.00008563","imageIndex":4,"items":[{"name":"두메산골","tel":"","addr":"경기도 수원시 팔달구 화서동 114-8번지","indutype":"일반휴게음식 - 일반한식","category":"restaurant"},{"name":"은성양꼬치","tel":"031-243-1881","addr":"경기도 수원시 팔달구 화서동 114-8번지 2층","indutype":"일반휴게음식 - 중국식","category":"restaurant"},{"name":"이삭토스트","tel":"031-244-3487","addr":"경기도 수원시 팔달구 화서동 114-8번지","indutype":"일반휴게음식 - 스넥","category":"restaurant"}]},{"lat":"37.279317174","long":"127.00420123","imageIndex":4,"items":[{"name":"두부고을","tel":"031-254-5933","addr":"경기도 수원시 팔달구 화서동 71-140번지","indutype":"일반휴게음식 - 일반한식","category":"restaurant"},{"name":"소풍라이브","tel":"031-248-3359","addr":"경기도 수원시 팔달구 화서동 71-140번지","indutype":"일반휴게음식 - 일반한식","category":"restaurant"}]},{"lat":"37.286154788","long":"126.98614732","imageIndex":4,"items":[{"name":"들마루","tel":"031-296-7007","addr":"경기도 수원시 팔달구 화서동 685-15번지","indutype":"일반휴게음식 - 일반한식","category":"restaurant"}]},{"lat":"37.286515661","long":"126.98981219","imageIndex":4,"items":[{"name":"등촌동샤브칼국수","tel":"031-269-0197","addr":"경기도 수원시 팔달구 화서동 679-7번지","indutype":"일반휴게음식 - 일반한식","category":"restaurant"}]},{"lat":"37.278902672","long":"126.99995031","imageIndex":4,"items":[{"name":"땅땅치킨","tel":"031-254-8292","addr":"경기도 수원시 팔달구 화서동 115-4번지","indutype":"일반휴게음식 - 스넥","category":"restaurant"},{"name":"칸티나델솔","tel":"031-241-7701","addr":"경기도 수원시 팔달구 화서동 115-4번지 1층","indutype":"일반휴게음식 - 서양음식","category":"restaurant"},{"name":"팝콘호프","tel":"031-253-3995","addr":"경기도 수원시 팔달구 화서동 115-4번지 2층","indutype":"일반휴게음식 - 주점","category":"restaurant"}]},{"lat":"37.278127816","long":"127.00137105","imageIndex":4,"items":[{"name":"또그랑","tel":"031-248-0350","addr":"경기도 수원시 팔달구 화서동 109-1번지","indutype":"일반휴게음식 - 일반한식","category":"restaurant"},{"name":"시장칼국수","tel":"031-251-9091","addr":"경기도 수원시 팔달구 화서동 109-1번지","indutype":"일반휴게음식 - 스넥","category":"restaurant"}]},{"lat":"37.285126744","long":"126.98081373","imageIndex":4,"items":[{"name":"또봉이통닭","tel":"031-292-4279","addr":"경기도 수원시 팔달구 화서동 726-2번지 1층","indutype":"일반휴게음식 - 일반한식","category":"restaurant"}]},{"lat":"37.278371081","long":"127.00061559","imageIndex":4,"items":[{"name":"뚱보네생국수","tel":"031-242-1988","addr":"경기도 수원시 팔달구 화서동 108-3번지 1층","indutype":"일반휴게음식 - 일반한식","category":"restaurant"},{"name":"명성족발","tel":"031-254-5543","addr":"경기도 수원시 팔달구 화서동 108-3번지","indutype":"일반휴게음식 - 일반한식","category":"restaurant"}]},{"lat":"37.277488096","long":"127.00294963","imageIndex":4,"items":[{"name":"뚱보식당","tel":"031-248-7795","addr":"경기도 수원시 팔달구 화서동 93-29번지 1층","indutype":"일반휴게음식 - 일반한식","category":"restaurant"}]},{"lat":"37.277704338","long":"127.00188973","imageIndex":4,"items":[{"name":"뜨락","tel":"031-241-1129","addr":"경기도 수원시 팔달구 화서동 96-16번지","indutype":"일반휴게음식 - 일반한식","category":"restaurant"}]},{"lat":"37.278515211","long":"126.99925124","imageIndex":4,"items":[{"name":"뜰","tel":"031-242-4521","addr":"경기도 수원시 팔달구 화서동 175-1번지 1층 서측1칸","indutype":"일반휴게음식 - 일반한식","category":"restaurant"},{"name":"팔공티","tel":"031-000-0000","addr":"경기도 수원시 팔달구 화서동 175-1번지 대화빌딩","indutype":"일반휴게음식 - 서양음식","category":"restaurant"}]},{"lat":"37.278569316","long":"127.00120191","imageIndex":4,"items":[{"name":"라이브콘써트","tel":"031-241-4670","addr":"경기도 수원시 팔달구 화서동 108-5번지","indutype":"일반휴게음식 - 주점","category":"restaurant"},{"name":"웰빙월남쌈","tel":"031-252-1911","addr":"경기도 수원시 팔달구 화서동 108-5번지 A동 1층","indutype":"일반휴게음식 - 일반한식","category":"restaurant"}]},{"lat":"37.286261764","long":"126.97939253","imageIndex":4,"items":[{"name":"락정","tel":"031-253-3863","addr":"경기도 수원시 팔달구 화서동 721-5번지","indutype":"일반휴게음식 - 일반한식","category":"restaurant"}]},{"lat":"37.278875633","long":"126.99964587","imageIndex":4,"items":[{"name":"레드","tel":"031-258-9611","addr":"경기도 수원시 팔달구 화서동 115-3번지 지하1층","indutype":"일반휴게음식 - 주점","category":"restaurant"}]},{"lat":"37.280236229","long":"127.00308494","imageIndex":4,"items":[{"name":"로드리커피","tel":"031-244-4548","addr":"경기도 수원시 팔달구 화서동 71-188번지","indutype":"일반휴게음식 - 서양음식","category":"restaurant"}]},{"lat":"37.278073764","long":"127.00292708","imageIndex":4,"items":[{"name":"롯데리아","tel":"031-255-4333","addr":"경기도 수원시 팔달구 화서동 93-1번지 성오스포츠센터 1층","indutype":"일반휴게음식 - 서양음식","category":"restaurant"},{"name":"롯데리아(화서점)","tel":"031-255-4333","addr":"경기도 수원시 팔달구 화서동 93-1번지 1층","indutype":"일반휴게음식 - 서양음식","category":"restaurant"},{"name":"성오스넥","tel":"031-253-5773","addr":"경기도 수원시 팔달구 화서동 93-1번지","indutype":"일반휴게음식 - 일반한식","category":"restaurant"}]},{"lat":"37.280010971","long":"127.00317514","imageIndex":4,"items":[{"name":"마루","tel":"031-241-1554","addr":"경기도 수원시 팔달구 화서동 71-37번지 1층","indutype":"일반휴게음식 - 주점","category":"restaurant"}]},{"lat":"37.284623557","long":"126.99028613","imageIndex":4,"items":[{"name":"마루방","tel":"031-242-5095","addr":"경기도 수원시 팔달구 화서동 644-8 화서프라자 115~117호","indutype":"일반휴게음식 - 일반한식","category":"restaurant"},{"name":"본죽 화서역점","tel":"031-248-5775","addr":"경기도 수원시 팔달구 화서동 644-8번지 화서프라자","indutype":"일반휴게음식 - 일반한식","category":"restaurant"},{"name":"피자스쿨화서점","tel":"031-255-9282","addr":"경기도 수원시 팔달구 화서동 644-8화서프라자106호.109호","indutype":"일반휴게음식 - 서양음식","category":"restaurant"},{"name":"화서아인스부페","tel":"031-241-6777","addr":"경기도 수원시 팔달구 화서동 644-8번지","indutype":"일반휴게음식 - 일반한식","category":"restaurant"}]},{"lat":"37.279794621","long":"126.99792063","imageIndex":4,"items":[{"name":"마시따물갈비","tel":"","addr":"경기도 수원시 팔달구 화서동 135-14번지 1층","indutype":"일반휴게음식 - 일반한식","category":"restaurant"},{"name":"민속마을","tel":"031-252-0452","addr":"경기도 수원시 팔달구 화서동 135-14번지","indutype":"일반휴게음식 - 일반한식","category":"restaurant"}]},{"lat":"37.280956888","long":"126.99670275","imageIndex":4,"items":[{"name":"마실","tel":"070-8777-2576","addr":"경기도 수원시 팔달구 화서동 206-6번지 2층","indutype":"일반휴게음식 - 일반한식","category":"restaurant"}]},{"lat":"37.280010962","long":"127.00139357","imageIndex":4,"items":[{"name":"마이럽피치","tel":"031-248-6872","addr":"경기도 수원시 팔달구 화서동 105-18번지","indutype":"일반휴게음식 - 서양음식","category":"restaurant"},{"name":"참고마운아시안마켓","tel":"031-242-3750","addr":"경기도 수원시 팔달구 화서동 105-18번지","indutype":"일반휴게음식 - 스넥","category":"restaurant"}]},{"lat":"37.286461539","long":"126.98928219","imageIndex":4,"items":[{"name":"마장동정육","tel":"031-271-9293","addr":"경기도 수원시 팔달구 화서동 681-6번지 1층","indutype":"일반휴게음식 - 일반한식","category":"restaurant"}]},{"lat":"37.279794674","long":"127.00638874","imageIndex":4,"items":[{"name":"막퍼줘","tel":"031-253-6354","addr":"경기도 수원시 팔달구 화서동 60-7번지 1층","indutype":"일반휴게음식 - 일반한식","category":"restaurant"}]},{"lat":"37.279794725","long":"127.00253242","imageIndex":4,"items":[{"name":"맛돼지양돼지","tel":"031-243-1260","addr":"경기도 수원시 팔달구 화서동 71-106번지 1층","indutype":"일반휴게음식 - 일반한식","category":"restaurant"},{"name":"한우물","tel":"031-255-2289","addr":"경기도 수원시 팔달구 화서동 71-106번지 1층","indutype":"일반휴게음식 - 일반한식","category":"restaurant"}]},{"lat":"37.285930389","long":"126.99408615","imageIndex":4,"items":[{"name":"맥시카나","tel":"031-244-1792","addr":"경기도 수원시 팔달구 화서동 324-1번지","indutype":"일반휴게음식 - 스넥","category":"restaurant"}]},{"lat":"37.284848798","long":"126.9901395","imageIndex":4,"items":[{"name":"맥주콜","tel":"031-256-2606","addr":"경기도 수원시 팔달구 화서동 644-1번지 풍성프라자 202호","indutype":"일반휴게음식 - 일반한식","category":"restaurant"},{"name":"베스트빈","tel":"031-256-1872","addr":"경기도 수원시 팔달구 화서동 644-1번지 풍성프라자 201호","indutype":"일반휴게음식 - 스넥","category":"restaurant"},{"name":"솔뫼","tel":"031-294-4616","addr":"경기도 수원시 팔달구 화서동 644-1번지 풍성프라자 105,106,107,B101호","indutype":"일반휴게음식 - 일반한식","category":"restaurant"},{"name":"프렌즈슬라임폰데코","tel":"031-252-7942","addr":"경기도 수원시 팔달구 화서동 644-1번지 풍성프라자 204호","indutype":"일반휴게음식 - 서양음식","category":"restaurant"}]},{"lat":"37.278289936","long":"126.99869874","imageIndex":4,"items":[{"name":"먹골퓨전주점","tel":"031-258-0570","addr":"경기도 수원시 팔달구 화서동 175-11번지","indutype":"일반휴게음식 - 주점","category":"restaurant"},{"name":"묵은지삼겹살꿀꿀이네","tel":"031-242-9232","addr":"경기도 수원시 팔달구 화서동 175-11번지 1층","indutype":"일반휴게음식 - 일반한식","category":"restaurant"}]},{"lat":"37.285730533","long":"126.98136611","imageIndex":4,"items":[{"name":"메차쿠차","tel":"031-298-1110","addr":"경기도 수원시 팔달구 화서동 727번지 서수원프라자 107호","indutype":"일반휴게음식 - 칵테일바","category":"restaurant"},{"name":"미스터브리즈","tel":"070-8830-4330","addr":"경기도 수원시 팔달구 화서동 727번지 서수원프라자 109호","indutype":"일반휴게음식 - 서양음식","category":"restaurant"},{"name":"이삭토스트(율현점)","tel":"031-292-5431","addr":"경기도 수원시 팔달구 화서동 727번지 서수원프라자 1층 106호","indutype":"일반휴게음식 - 일반한식","category":"restaurant"},{"name":"피자스쿨율현점","tel":"031-298-9559","addr":"경기도 수원시 팔달구 화서동 727번지 서수원프라자 105호","indutype":"일반휴게음식 - 서양음식","category":"restaurant"}]},{"lat":"37.280236117","long":"126.99775147","imageIndex":4,"items":[{"name":"명가네숯불닭바베큐","tel":"031-241-3999","addr":"경기도 수원시 팔달구 화서동 126-7번지","indutype":"일반휴게음식 - 일반한식","category":"restaurant"},{"name":"산골향기해피데이","tel":"031-256-1571","addr":"경기도 수원시 팔달구 화서동 126-7번지 2층","indutype":"일반휴게음식 - 주점","category":"restaurant"}]},{"lat":"37.278317041","long":"127.00311876","imageIndex":4,"items":[{"name":"못난이꽈배기화서점","tel":"","addr":"경기도 수원시 팔달구 화서동 86-2번지 1층","indutype":"일반휴게음식 - 일반한식","category":"restaurant"},{"name":"피자스쿨(고등점)","tel":"031-247-8070","addr":"경기도 수원시 팔달구 화서동 86-2번지","indutype":"일반휴게음식 - 서양음식","category":"restaurant"}]},{"lat":"37.288092294","long":"126.98842484","imageIndex":4,"items":[{"name":"무대리식당","tel":"031-271-7707","addr":"경기도 수원시 팔달구 화서동 676-8번지 1층","indutype":"일반휴게음식 - 일반한식","category":"restaurant"}]},{"lat":"37.279569459","long":"127.00442675","imageIndex":4,"items":[{"name":"무영각","tel":"031-255-5517","addr":"경기도 수원시 팔달구 화서동 71-99번지","indutype":"일반휴게음식 - 중국식","category":"restaurant"},{"name":"우동집","tel":"031-252-2173","addr":"경기도 수원시 팔달구 화서동 71-99번지","indutype":"일반휴게음식 - 일반한식","category":"restaurant"}]},{"lat":"37.285543214","long":"127.00667092","imageIndex":4,"items":[{"name":"무지개덮밥도시락","tel":"031-253-2992","addr":"경기도 수원시 팔달구 화서동 20-7번지 2층","indutype":"일반휴게음식 - 일반한식","category":"restaurant"},{"name":"하루푸드","tel":"070-8279-8200","addr":"경기도 수원시 팔달구 화서동 20-7번지","indutype":"일반휴게음식 - 일반한식","category":"restaurant"}]},{"lat":"37.283011345","long":"127.00617464","imageIndex":4,"items":[{"name":"뮤직앤더치","tel":"070-4131-0754","addr":"경기도 수원시 팔달구 화서동 69-1번지 1층","indutype":"일반휴게음식 - 서양음식","category":"restaurant"}]},{"lat":"37.278596349","long":"127.00133722","imageIndex":4,"items":[{"name":"미농왕만두","tel":"031-287-1969","addr":"경기도 수원시 팔달구 화서동 108-1번지 1층","indutype":"일반휴게음식 - 일반한식","category":"restaurant"},{"name":"쑈7080라이브","tel":"031-111-1111","addr":"경기도 수원시 팔달구 화서동 108-1번지 지하1층","indutype":"일반휴게음식 - 주점","category":"restaurant"}]},{"lat":"37.28364992","long":"126.98603511","imageIndex":4,"items":[{"name":"미니스토리","tel":"031-000-0000","addr":"경기도 수원시 팔달구 화서동 410-6번지 서호체육센터 푸드트럭존","indutype":"일반휴게음식 - 일반한식","category":"restaurant"},{"name":"봄을꿈꾸는카페","tel":"031-223-2323","addr":"경기도 수원시 팔달구 화서동 410-6번지 화서동서호체육센터","indutype":"일반휴게음식 - 서양음식","category":"restaurant"}]},{"lat":"37.278371072","long":"127.00019839","imageIndex":4,"items":[{"name":"미리랑","tel":"031-244-2380","addr":"경기도 수원시 팔달구 화서동 114-5번지","indutype":"일반휴게음식 - 스넥","category":"restaurant"}]},{"lat":"37.279037863","long":"127.00278049","imageIndex":4,"items":[{"name":"미소야","tel":"031-247-5432","addr":"경기도 수원시 팔달구 화서동 71-50번지","indutype":"일반휴게음식 - 일반한식","category":"restaurant"},{"name":"부자국밥","tel":"031-296-3421","addr":"경기도 수원시 팔달구 화서동 71-50번지","indutype":"일반휴게음식 - 일반한식","category":"restaurant"},{"name":"옛날통닭","tel":"","addr":"경기도 수원시 팔달구 화서동 71-50번지","indutype":"일반휴게음식 - 스넥","category":"restaurant"}]},{"lat":"37.279623509","long":"127.00511457","imageIndex":4,"items":[{"name":"미스김대구왕뽈찜아구찜","tel":"031-258-1007","addr":"경기도 수원시 팔달구 화서동 64-2번지","indutype":"일반휴게음식 - 일반한식","category":"restaurant"}]},{"lat":"37.280650499","long":"126.99598112","imageIndex":4,"items":[{"name":"미정","tel":"031-248-6188","addr":"경기도 수원시 팔달구 화서동 202-30번지 1층","indutype":"일반휴게음식 - 일반한식","category":"restaurant"}]},{"lat":"37.286595078","long":"126.9790654","imageIndex":4,"items":[{"name":"바이크빈(BIKE BEAN)","tel":"031-111-1111","addr":"경기도 수원시 팔달구 화서동 721-2번지 1층","indutype":"일반휴게음식 - 서양음식","category":"restaurant"}]},{"lat":"37.286982644","long":"126.97969678","imageIndex":4,"items":[{"name":"박혜자낙지마당","tel":"031-291-9987","addr":"경기도 수원시 팔달구 화서동 723-2번지","indutype":"일반휴게음식 - 일반한식","category":"restaurant"}]},{"lat":"37.285542122","long":"126.98637298","imageIndex":4,"items":[{"name":"밥통령(수원성대점)","tel":"031-294-0206","addr":"경기도 수원시 팔달구 화서동 686-6번지","indutype":"일반휴게음식 - 일반한식","category":"restaurant"}]},{"lat":"37.286758852","long":"126.9890566","imageIndex":4,"items":[{"name":"배가족발","tel":"031-268-2660","addr":"경기도 수원시 팔달구 화서동 681-3번지 1층","indutype":"일반휴게음식 - 일반한식","category":"restaurant"}]},{"lat":"37.28793018","long":"126.98901128","imageIndex":4,"items":[{"name":"백청우칼국수","tel":"031-269-8685","addr":"경기도 수원시 팔달구 화서동 677-6번지","indutype":"일반휴게음식 - 일반한식","category":"restaurant"}]},{"lat":"37.286461578","long":"126.98962049","imageIndex":4,"items":[{"name":"벌집삼겹살","tel":"031-268-9540","addr":"경기도 수원시 팔달구 화서동 679-10번지 1층","indutype":"일반휴게음식 - 일반한식","category":"restaurant"}]},{"lat":"37.288705012","long":"126.98859388","imageIndex":4,"items":[{"name":"보성녹차떡갈비","tel":"031-252-9966","addr":"경기도 수원시 팔달구 화서동 675-4번지 전체 1층","indutype":"일반휴게음식 - 일반한식","category":"restaurant"}]},{"lat":"37.27992974","long":"126.99714259","imageIndex":4,"items":[{"name":"복돼지순대국","tel":"031-111-1111","addr":"경기도 수원시 팔달구 화서동 185-35번지 1층","indutype":"일반휴게음식 - 일반한식","category":"restaurant"}]},{"lat":"37.278235863","long":"126.99839431","imageIndex":4,"items":[{"name":"복만이네족발보쌈","tel":"","addr":"경기도 수원시 팔달구 화서동 175-14번지","indutype":"일반휴게음식 - 일반한식","category":"restaurant"}]},{"lat":"37.279037853","long":"127.00439291","imageIndex":4,"items":[{"name":"본가갈비","tel":"031-247-5225","addr":"경기도 수원시 팔달구 화서동 71-7,63-1","indutype":"일반휴게음식 - 일반한식","category":"restaurant"}]},{"lat":"37.288569868","long":"126.98867285","imageIndex":4,"items":[{"name":"본삼계탕","tel":"031-271-2917","addr":"경기도 수원시 팔달구 화서동 675-5번지 1층","indutype":"일반휴게음식 - 일반한식","category":"restaurant"}]},{"lat":"37.278542298","long":"127.00270156","imageIndex":4,"items":[{"name":"본죽(화서4거리점)","tel":"031-258-6996","addr":"경기도 수원시 팔달구 화서동 86-1번지 외1필지","indutype":"일반휴게음식 - 일반한식","category":"restaurant"},{"name":"청화루","tel":"031-252-2323","addr":"경기도 수원시 팔달구 화서동 86-1번지","indutype":"일반휴게음식 - 중국식","category":"restaurant"}]},{"lat":"37.285234959","long":"126.98130986","imageIndex":4,"items":[{"name":"봉구스 밥버거","tel":"031-295-1605","addr":"경기도 수원시 팔달구 화서동 726-6번지","indutype":"일반휴게음식 - 스넥","category":"restaurant"}]},{"lat":"37.28265067","long":"126.99431206","imageIndex":4,"items":[{"name":"봉구스 밥버거","tel":"031-245-5559","addr":"경기도 수원시 팔달구 화서동 275-20번지 1층","indutype":"일반휴게음식 - 스넥","category":"restaurant"}]},{"lat":"37.278569282","long":"126.99955567","imageIndex":4,"items":[{"name":"봉이치킨","tel":"031-241-9289","addr":"경기도 수원시 팔달구 화서동 114-2번지 104층","indutype":"일반휴게음식 - 스넥","category":"restaurant"}]},{"lat":"37.279010825","long":"127.0016191","imageIndex":4,"items":[{"name":"부영식당","tel":"031-241-1454","addr":"경기도 수원시 팔달구 화서동 98-10번지","indutype":"일반휴게음식 - 일반한식","category":"restaurant"}]},{"lat":"37.285344982","long":"127.00686261","imageIndex":4,"items":[{"name":"부자손만두","tel":"031-242-1433","addr":"경기도 수원시 팔달구 화서동 20-2번지 1층","indutype":"일반휴게음식 - 일반한식","category":"restaurant"},{"name":"한잔할까","tel":"031-245-3008","addr":"경기도 수원시 팔달구 화서동 20-2번지 1층","indutype":"일반휴게음식 - 주점","category":"restaurant"}]},{"lat":"37.278344002","long":"126.99883405","imageIndex":4,"items":[{"name":"북촌손만두 수원화서점","tel":"031-247-8997","addr":"경기도 수원시 팔달구 화서동 175-2번지 1층","indutype":"일반휴게음식 - 일반한식","category":"restaurant"},{"name":"오븐마루 수원화서점","tel":"031-247-2773","addr":"경기도 수원시 팔달구 화서동 175-2번지 1층","indutype":"일반휴게음식 - 일반한식","category":"restaurant"}]},{"lat":"37.278983745","long":"126.99925121","imageIndex":4,"items":[{"name":"분식천국","tel":"031-258-7688","addr":"경기도 수원시 팔달구 화서동 134-9번지 1층","indutype":"일반휴게음식 - 스넥","category":"restaurant"}]},{"lat":"37.278740459","long":"126.99898061","imageIndex":4,"items":[{"name":"불불이족발","tel":"031-244-0520","addr":"경기도 수원시 팔달구 화서동 174-9번지","indutype":"일반휴게음식 - 일반한식","category":"restaurant"},{"name":"신마포갈매기","tel":"031-258-6092","addr":"경기도 수원시 팔달구 화서동 174-9번지","indutype":"일반휴게음식 - 일반한식","category":"restaurant"}]},{"lat":"37.281596511","long":"126.99492109","imageIndex":4,"items":[{"name":"비비큐화서2점","tel":"031-251-8995","addr":"경기도 수원시 팔달구 화서동 244-22번지","indutype":"일반휴게음식 - 스넥","category":"restaurant"},{"name":"컵핑(Cuping)","tel":"031-269-7248","addr":"경기도 수원시 팔달구 화서동 244-22번지 1층","indutype":"일반휴게음식 - 서양음식","category":"restaurant"}]},{"lat":"37.281902288","long":"126.98878686","imageIndex":4,"items":[{"name":"비아이빈 (본점)","tel":"031-278-0333","addr":"경기도 수원시 팔달구 화서동 436-3번지","indutype":"일반휴게음식 - 서양음식","category":"restaurant"}]},{"lat":"37.284371879","long":"127.00672724","imageIndex":4,"items":[{"name":"비아이빈(미스사이공)서문점","tel":"031-244-0966","addr":"경기도 수원시 팔달구 화서동 32-9번지 1층","indutype":"일반휴게음식 - 일반한식","category":"restaurant"}]},{"lat":"37.286153663","long":"126.97950533","imageIndex":4,"items":[{"name":"비어 플로우","tel":"031-111-1111","addr":"경기도 수원시 팔달구 화서동 721-6번지 1층","indutype":"일반휴게음식 - 주점","category":"restaurant"}]},{"lat":"37.285370899","long":"126.98617004","imageIndex":4,"items":[{"name":"빈포레스트","tel":"","addr":"경기도 수원시 팔달구 화서동 685-9번지 101호","indutype":"일반휴게음식 - 서양음식","category":"restaurant"},{"name":"산촌","tel":"031-247-1467","addr":"경기도 수원시 팔달구 화서동 685-9번지 1층","indutype":"일반휴게음식 - 일반한식","category":"restaurant"}]},{"lat":"37.279875709","long":"126.99780787","imageIndex":4,"items":[{"name":"빨간석쇠구이 (화서점)","tel":"","addr":"경기도 수원시 팔달구 화서동 135-2번지","indutype":"일반휴게음식 - 주점","category":"restaurant"},{"name":"종로회관","tel":"031-245-0252","addr":"경기도 수원시 팔달구 화서동 135-2번지 1층","indutype":"일반휴게음식 - 일반한식","category":"restaurant"}]},{"lat":"37.28354281","long":"126.99625149","imageIndex":4,"items":[{"name":"삼돈가","tel":"031-252-8554","addr":"경기도 수원시 팔달구 화서동 271번지 1층","indutype":"일반휴게음식 - 일반한식","category":"restaurant"},{"name":"청와대갈비","tel":"031-252-8554","addr":"경기도 수원시 팔달구 화서동 271번지","indutype":"일반휴게음식 - 일반한식","category":"restaurant"}]},{"lat":"37.278848601","long":"127.00619701","imageIndex":4,"items":[{"name":"삼부자봉평메밀","tel":"031-258-5754","addr":"경기도 수원시 팔달구 화서동 61-7번지","indutype":"일반휴게음식 - 일반한식","category":"restaurant"}]},{"lat":"37.279181949","long":"126.99858594","imageIndex":4,"items":[{"name":"삼정","tel":"031-246-0666","addr":"경기도 수원시 팔달구 화서동 136-21번지 1층","indutype":"일반휴게음식 - 일반한식","category":"restaurant"},{"name":"소문집식당","tel":"031-243-5820","addr":"경기도 수원시 팔달구 화서동 136-21번지","indutype":"일반휴게음식 - 일반한식","category":"restaurant"}]},{"lat":"37.278010585","long":"126.99786437","imageIndex":4,"items":[{"name":"삼해회수산","tel":"031-244-5771","addr":"경기도 수원시 팔달구 화서동 184-107번지","indutype":"일반휴게음식 - 일식·회집","category":"restaurant"}]},{"lat":"37.279407197","long":"126.99837169","imageIndex":4,"items":[{"name":"상구비어","tel":"031-254-8208","addr":"경기도 수원시 팔달구 화서동 136-1번지 1층","indutype":"일반휴게음식 - 일반한식","category":"restaurant"}]},{"lat":"37.27795657","long":"126.99911596","imageIndex":4,"items":[{"name":"생선구이정식","tel":"031-251-5516","addr":"경기도 수원시 팔달구 화서동 180-4번지","indutype":"일반휴게음식 - 일반한식","category":"restaurant"}]},{"lat":"37.278434174","long":"127.00272411","imageIndex":4,"items":[{"name":"서동족발","tel":"031-251-5879","addr":"경기도 수원시 팔달구 화서동 86-4번지 지하층","indutype":"일반휴게음식 - 일반한식","category":"restaurant"}]},{"lat":"37.286849019","long":"126.98962042","imageIndex":4,"items":[{"name":"서울24시감자탕","tel":"031-269-0177","addr":"경기도 수원시 팔달구 화서동 679-4번지","indutype":"일반휴게음식 - 일반한식","category":"restaurant"}]},{"lat":"37.279821752","long":"127.00384041","imageIndex":4,"items":[{"name":"선창민물장어전문점","tel":"031-242-5088","addr":"경기도 수원시 팔달구 화서동 71-84.1층2층","indutype":"일반휴게음식 - 일반한식","category":"restaurant"}]},{"lat":"37.280037774","long":"126.99553014","imageIndex":4,"items":[{"name":"선한족발부어치킨화서점","tel":"031-242-2019","addr":"경기도 수원시 팔달구 화서동 201-2번지 1층","indutype":"일반휴게음식 - 일반한식","category":"restaurant"}]},{"lat":"37.278956699","long":"126.99877764","imageIndex":4,"items":[{"name":"셀프편의점포차","tel":"070-4179-9788","addr":"경기도 수원시 팔달구 화서동 174-14번지 정재빌딩 201호","indutype":"일반휴게음식 - 주점","category":"restaurant"},{"name":"이디야(화서오거리점)","tel":"031-246-2634","addr":"경기도 수원시 팔달구 화서동 174-14번지 정재빌딩 1층 102호","indutype":"일반휴게음식 - 서양음식","category":"restaurant"},{"name":"포트리스쌀국수","tel":"031-242-9996","addr":"경기도 수원시 팔달구 화서동 174-14번지 정재빌딩 1층 102호","indutype":"일반휴게음식 - 서양음식","category":"restaurant"}]},{"lat":"37.281011027","long":"126.99841669","imageIndex":4,"items":[{"name":"소꿉터","tel":"031-1599-9538","addr":"경기도 수원시 팔달구 화서동 123-3번지 1층","indutype":"일반휴게음식 - 일반한식","category":"restaurant"}]},{"lat":"37.278875661","long":"127.00092001","imageIndex":4,"items":[{"name":"소네트","tel":"031-257-2661","addr":"경기도 수원시 팔달구 화서동 107-7번지","indutype":"일반휴게음식 - 일반한식","category":"restaurant"},{"name":"허흑오리 수원3호점","tel":"031-256-5585","addr":"경기도 수원시 팔달구 화서동 107-7번지","indutype":"일반휴게음식 - 중국식","category":"restaurant"}]},{"lat":"37.278875654","long":"127.00053664","imageIndex":4,"items":[{"name":"소리창고","tel":"031-242-5689","addr":"경기도 수원시 팔달구 화서동 107-5번지 지하","indutype":"일반휴게음식 - 일반한식","category":"restaurant"}]},{"lat":"37.280263242","long":"127.00488907","imageIndex":4,"items":[{"name":"소백양 샤브샤브 전문점","tel":"031-000-0000","addr":"경기도 수원시 팔달구 화서동 71-104번지","indutype":"일반휴게음식 - 중국식","category":"restaurant"}]},{"lat":"37.286703284","long":"126.9794826","imageIndex":4,"items":[{"name":"소소공간","tel":"","addr":"경기도 수원시 팔달구 화서동 722-3번지","indutype":"일반휴게음식 - 스넥","category":"restaurant"}]},{"lat":"37.285928444","long":"126.9796971","imageIndex":4,"items":[{"name":"소요","tel":"031-278-5936","addr":"경기도 수원시 팔달구 화서동 721-8번지 1층","indutype":"일반휴게음식 - 일반한식","category":"restaurant"}]},{"lat":"37.278461202","long":"127.0020363","imageIndex":4,"items":[{"name":"송광호양꼬치","tel":"031-254-6812","addr":"경기도 수원시 팔달구 화서동 97-1번지 2층","indutype":"일반휴게음식 - 중국식","category":"restaurant"},{"name":"수원식당","tel":"031-245-3031","addr":"경기도 수원시 팔달구 화서동 97-1번지 화서상가 나동 2층","indutype":"일반휴게음식 - 일반한식","category":"restaurant"},{"name":"흐엉웨","tel":"031-242-9822","addr":"경기도 수원시 팔달구 화서동 97-1번지 2층","indutype":"일반휴게음식 - 서양음식","category":"restaurant"}]},{"lat":"37.279704522","long":"126.99801084","imageIndex":4,"items":[{"name":"송림양꼬치","tel":"02-1111-1111","addr":"경기도 수원시 팔달구 화서동 135-20번지 1층","indutype":"일반휴게음식 - 일반한식","category":"restaurant"}]},{"lat":"37.278875663","long":"127.00475373","imageIndex":4,"items":[{"name":"송림추어탕","tel":"031-248-2331","addr":"경기도 수원시 팔달구 화서동 62-7번지","indutype":"일반휴게음식 - 일반한식","category":"restaurant"}]},{"lat":"37.288425601","long":"126.98783837","imageIndex":4,"items":[{"name":"수모임","tel":"031-271-2010","addr":"경기도 수원시 팔달구 화서동 683-1번지","indutype":"일반휴게음식 - 일반한식","category":"restaurant"}]},{"lat":"37.278127807","long":"127.00078473","imageIndex":4,"items":[{"name":"수원도너츠","tel":"031-251-8787","addr":"경기도 수원시 팔달구 화서동 109-15번지 1층 101호","indutype":"일반휴게음식 - 일반한식","category":"restaurant"}]},{"lat":"37.280010971","long":"127.003333","imageIndex":4,"items":[{"name":"수원왕족발순대국","tel":"031-258-8284","addr":"경기도 수원시 팔달구 화서동 71-38번지","indutype":"일반휴게음식 - 일반한식","category":"restaurant"},{"name":"투다리 (화서2점)","tel":"031-248-6188","addr":"경기도 수원시 팔달구 화서동 71-38번지","indutype":"일반휴게음식 - 일반한식","category":"restaurant"}]},{"lat":"37.286369864","long":"126.97927973","imageIndex":4,"items":[{"name":"수줍은카페","tel":"02-000-0000","addr":"경기도 수원시 팔달구 화서동 721-4번지","indutype":"일반휴게음식 - 서양음식","category":"restaurant"}]},{"lat":"37.277848439","long":"126.99889045","imageIndex":4,"items":[{"name":"순풍","tel":"031-252-5326","addr":"경기도 수원시 팔달구 화서동 180-11번지","indutype":"일반휴게음식 - 중국식","category":"restaurant"},{"name":"왕가마솥뚜껑","tel":"031-245-2062","addr":"경기도 수원시 팔달구 화서동 180-11번지 1층","indutype":"일반휴게음식 - 일반한식","category":"restaurant"}]},{"lat":"37.278037669","long":"126.99934146","imageIndex":4,"items":[{"name":"시장에싼횟집","tel":"031-242-5252","addr":"경기도 수원시 팔달구 화서동 180-2번지","indutype":"일반휴게음식 - 일반한식","category":"restaurant"}]},{"lat":"37.286758893","long":"126.98941746","imageIndex":4,"items":[{"name":"신별미칡냉면","tel":"031-268-1144","addr":"경기도 수원시 팔달구 화서동 679-13번지 1층","indutype":"일반휴게음식 - 일반한식","category":"restaurant"}]},{"lat":"37.288425646","long":"126.98819924","imageIndex":4,"items":[{"name":"신사강정육식당&김치찌개전문점","tel":"031-269-0041","addr":"경기도 수원시 팔달구 화서동 675-8번지","indutype":"일반휴게음식 - 일반한식","category":"restaurant"}]},{"lat":"37.278407077","long":"126.99892425","imageIndex":4,"items":[{"name":"신알쌈쭈구미가","tel":"031-246-6626","addr":"경기도 수원시 팔달구 화서동 175-5번지 (화서,1층동측1칸)","indutype":"일반휴게음식 - 일반한식","category":"restaurant"}]},{"lat":"37.285875462","long":"126.98609099","imageIndex":4,"items":[{"name":"심청로58","tel":"070-4922-1261","addr":"경기도 수원시 팔달구 화서동 685-13번지 101호","indutype":"일반휴게음식 - 서양음식","category":"restaurant"}]},{"lat":"37.282767797","long":"126.99423311","imageIndex":4,"items":[{"name":"쌍용각","tel":"031-258-4457","addr":"경기도 수원시 팔달구 화서동 275-7번지 1층","indutype":"일반휴게음식 - 중국식","category":"restaurant"}]},{"lat":"37.278929687","long":"126.99936397","imageIndex":4,"items":[{"name":"쏘마","tel":"031-256-9153","addr":"경기도 수원시 팔달구 화서동 134-10번지 2층","indutype":"일반휴게음식 - 일반한식","category":"restaurant"},{"name":"호호왕만두","tel":"031-252-8887","addr":"경기도 수원시 팔달구 화서동 134-10번지 1층","indutype":"일반휴게음식 - 스넥","category":"restaurant"}]},{"lat":"37.279515314","long":"126.99820254","imageIndex":4,"items":[{"name":"쏘주야 맥주야 놀자","tel":"031-248-2660","addr":"경기도 수원시 팔달구 화서동 135-5번지 2층","indutype":"일반휴게음식 - 일반한식","category":"restaurant"}]},{"lat":"37.277902505","long":"126.9990032","imageIndex":4,"items":[{"name":"쏭다방","tel":"031-221-6404","addr":"경기도 수원시 팔달구 화서동 180-5번지 1층","indutype":"일반휴게음식 - 서양음식","category":"restaurant"}]},{"lat":"37.286036547","long":"126.97959558","imageIndex":4,"items":[{"name":"쑤샤브수원본점","tel":"031-295-4992","addr":"경기도 수원시 팔달구 화서동 721-7번지","indutype":"일반휴게음식 - 일반한식","category":"restaurant"}]},{"lat":"37.284488489","long":"126.99112061","imageIndex":4,"items":[{"name":"안다미로","tel":"","addr":"경기도 수원시 팔달구 화서동 649번지 화서4단지주공아파트내 상가동 1층 101호","indutype":"일반휴게음식 - 서양음식","category":"restaurant"},{"name":"요스시","tel":"031-245-1026","addr":"경기도 수원시 팔달구 화서동 649번지 화서4단지주공아파트내 106호","indutype":"일반휴게음식 - 일반한식","category":"restaurant"},{"name":"워너비어","tel":"031-111-1111","addr":"경기도 수원시 팔달구 화서동 649번지 상가동2층 201호,202호,203호","indutype":"일반휴게음식 - 주점","category":"restaurant"}]},{"lat":"37.279821734","long":"127.00517096","imageIndex":4,"items":[{"name":"안중식당","tel":"031-252-3883","addr":"경기도 수원시 팔달구 화서동 65-5번지 1층","indutype":"일반휴게음식 - 일반한식","category":"restaurant"}]},{"lat":"37.277488096","long":"127.00308493","imageIndex":4,"items":[{"name":"애린카페(AELIN Cafe)","tel":"","addr":"경기도 수원시 팔달구 화서동 93-11번지","indutype":"일반휴게음식 - 서양음식","category":"restaurant"}]},{"lat":"37.286766306","long":"126.97923449","imageIndex":4,"items":[{"name":"애플","tel":"031-296-2936","addr":"경기도 수원시 팔달구 화서동 722-1번지","indutype":"일반휴게음식 - 주점","category":"restaurant"},{"name":"일보","tel":"031-292-0723","addr":"경기도 수원시 팔달구 화서동 722-1번지 조형빌딩 1층","indutype":"일반휴게음식 - 일식·회집","category":"restaurant"}]},{"lat":"37.276902167","long":"126.99503433","imageIndex":4,"items":[{"name":"양박사","tel":"031-254-8823","addr":"경기도 수원시 팔달구 화서동 184-104번지 1층","indutype":"일반휴게음식 - 일반한식","category":"restaurant"}]},{"lat":"37.278461143","long":"126.99905955","imageIndex":4,"items":[{"name":"양큰입꼬치","tel":"031-255-6866","addr":"경기도 수원시 팔달구 화서동 175-23번지 1층","indutype":"일반휴게음식 - 중국식","category":"restaurant"},{"name":"왕소녀매운갈비찜","tel":"031-251-7607","addr":"경기도 수원시 팔달구 화서동 175-23번지","indutype":"일반휴게음식 - 일반한식","category":"restaurant"}]},{"lat":"37.279100928","long":"127.0016191","imageIndex":4,"items":[{"name":"어거스트(August)","tel":"","addr":"경기도 수원시 팔달구 화서동 98-9번지","indutype":"일반휴게음식 - 서양음식","category":"restaurant"}]},{"lat":"37.286623777","long":"126.98975579","imageIndex":4,"items":[{"name":"어니스트까페","tel":"031-269-8077","addr":"경기도 수원시 팔달구 화서동 679-6번지","indutype":"일반휴게음식 - 서양음식","category":"restaurant"}]},{"lat":"37.289453704","long":"127.0005927","imageIndex":4,"items":[{"name":"엄마네","tel":"031-258-8886","addr":"경기도 수원시 팔달구 화서동 638번지","indutype":"일반휴게음식 - 일반한식","category":"restaurant"},{"name":"하이꼬꼬 정자시장점","tel":"031-254-2255","addr":"경기도 수원시 팔달구 화서동 638번지","indutype":"일반휴게음식 - 스넥","category":"restaurant"},{"name":"한촌설렁탕","tel":"070-7567-6410","addr":"경기도 수원시 팔달구 화서동 638번지","indutype":"일반휴게음식 - 일반한식","category":"restaurant"}]},{"lat":"37.285705113","long":"126.99383809","imageIndex":4,"items":[{"name":"엄마손 맛집","tel":"031-255-2069","addr":"경기도 수원시 팔달구 화서동 648번지 주공프라자 509호","indutype":"일반휴게음식 - 일반한식","category":"restaurant"}]},{"lat":"37.279821739","long":"127.00492289","imageIndex":4,"items":[{"name":"엄마손부대찌개","tel":"031-111-1111","addr":"경기도 수원시 팔달구 화서동 71-142번지 1층","indutype":"일반휴게음식 - 일반한식","category":"restaurant"},{"name":"타임호프","tel":"031-206-5949","addr":"경기도 수원시 팔달구 화서동 71-142번지 1층","indutype":"일반휴게음식 - 주점","category":"restaurant"}]},{"lat":"37.279290148","long":"127.00359234","imageIndex":4,"items":[{"name":"에이 (a)","tel":"031-000-0000","addr":"경기도 수원시 팔달구 화서동 71-22번지 1층 일부 101호 서쪽첫번째점포","indutype":"일반휴게음식 - 서양음식","category":"restaurant"}]},{"lat":"37.285036621","long":"126.98070099","imageIndex":4,"items":[{"name":"엘리팝","tel":"031-291-7353","addr":"경기도 수원시 팔달구 화서동 726-1번지 1층","indutype":"일반휴게음식 - 주점","category":"restaurant"}]},{"lat":"37.278650344","long":"126.9986198","imageIndex":4,"items":[{"name":"연탄고추장삼겹살","tel":"031-255-4837","addr":"경기도 수원시 팔달구 화서동 174-4번지","indutype":"일반휴게음식 - 일반한식","category":"restaurant"}]},{"lat":"37.278235891","long":"126.99919487","imageIndex":4,"items":[{"name":"옛넝쿨두부전문점","tel":"","addr":"경기도 수원시 팔달구 화서동 175-7번지 1층 3호","indutype":"일반휴게음식 - 일반한식","category":"restaurant"}]},{"lat":"37.28598256","long":"126.979979","imageIndex":4,"items":[{"name":"오늘국수","tel":"031-298-3690","addr":"경기도 수원시 팔달구 화서동 722-11번지 102호","indutype":"일반휴게음식 - 일반한식","category":"restaurant"}]},{"lat":"37.278542217","long":"126.9985296","imageIndex":4,"items":[{"name":"오징어마당","tel":"031-255-5505","addr":"경기도 수원시 팔달구 화서동 174-22번지 1층","indutype":"일반휴게음식 - 일식·회집","category":"restaurant"},{"name":"육회한접시","tel":"031-663-0449","addr":"경기도 수원시 팔달구 화서동 174-22번지","indutype":"일반휴게음식 - 일반한식","category":"restaurant"}]},{"lat":"37.278371089","long":"127.00108916","imageIndex":4,"items":[{"name":"오케이 족발","tel":"031-241-5575","addr":"경기도 수원시 팔달구 화서동 108-7번지 101호","indutype":"일반휴게음식 - 일반한식","category":"restaurant"},{"name":"치킨달인","tel":"070-4754-2897","addr":"경기도 수원시 팔달구 화서동 108-7번지 1층 103호","indutype":"일반휴게음식 - 스넥","category":"restaurant"}]},{"lat":"37.28793013","long":"126.98859403","imageIndex":4,"items":[{"name":"옥돌  세꼬시","tel":"031-269-5333","addr":"경기도 수원시 팔달구 화서동 677-1번지","indutype":"일반휴게음식 - 일식·회집","category":"restaurant"}]},{"lat":"37.286543397","long":"127.00488924","imageIndex":4,"items":[{"name":"요리왕","tel":"031-244-3131","addr":"경기도 수원시 팔달구 화서동 7-11번지","indutype":"일반휴게음식 - 중국식","category":"restaurant"},{"name":"컵이얌","tel":"031-241-3633","addr":"경기도 수원시 팔달구 화서동 7-11번지 104호","indutype":"일반휴게음식 - 일반한식","category":"restaurant"}]},{"lat":"37.286821609","long":"126.98658696","imageIndex":4,"items":[{"name":"우락이네","tel":"031-292-4697","addr":"경기도 수원시 팔달구 화서동 684-2번지 꽃뫼버들마을신동아아파트 1층","indutype":"일반휴게음식 - 일반한식","category":"restaurant"}]},{"lat":"37.281515653","long":"127.00572353","imageIndex":4,"items":[{"name":"우리동네식당","tel":"031-8019-8844","addr":"경기도 수원시 팔달구 화서동 67-7번지 유진플러스","indutype":"일반휴게음식 - 일반한식","category":"restaurant"}]},{"lat":"37.287371575","long":"126.98928203","imageIndex":4,"items":[{"name":"우리동네커피볶는집","tel":"031-269-7455","addr":"경기도 수원시 팔달구 화서동 678-2번지 화서우영프라자 101호","indutype":"일반휴게음식 - 일반한식","category":"restaurant"},{"name":"조춘식토종순대촌","tel":"031-254-5438","addr":"경기도 수원시 팔달구 화서동 678-2번지 우영프라자 1층 103호","indutype":"일반휴게음식 - 일반한식","category":"restaurant"},{"name":"화서염소탕","tel":"031-269-5798","addr":"경기도 수원시 팔달구 화서동 678-2번지 우영프라자 103호","indutype":"일반휴게음식 - 일반한식","category":"restaurant"}]},{"lat":"37.280488396","long":"126.99755976","imageIndex":4,"items":[{"name":"우리돼지삼겹살","tel":"031-257-0047","addr":"경기도 수원시 팔달구 화서동 125-7번지 1층","indutype":"일반휴게음식 - 일반한식","category":"restaurant"}]},{"lat":"37.280010972","long":"127.00281432","imageIndex":4,"items":[{"name":"울동네","tel":"031-245-2039","addr":"경기도 수원시 팔달구 화서동 71-36번지","indutype":"일반휴게음식 - 일반한식","category":"restaurant"}]},{"lat":"37.27828993","long":"126.99852961","imageIndex":4,"items":[{"name":"원조뚱이네부대찌개","tel":"031-253-9296","addr":"경기도 수원시 팔달구 화서동 175-13번지 1층","indutype":"일반휴게음식 - 일반한식","category":"restaurant"},{"name":"토박이","tel":"031-242-8586","addr":"경기도 수원시 팔달구 화서동 175-13번지 1층","indutype":"일반휴게음식 - 일반한식","category":"restaurant"}]},{"lat":"37.282542677","long":"126.99636434","imageIndex":4,"items":[{"name":"웰빙꼬마김밥","tel":"031-256-6844","addr":"경기도 수원시 팔달구 화서동 249-32번지 1층","indutype":"일반휴게음식 - 일반한식","category":"restaurant"}]},{"lat":"37.278515267","long":"127.00317514","imageIndex":4,"items":[{"name":"유성반점","tel":"031-245-3792","addr":"경기도 수원시 팔달구 화서동 71-53번지 화서프라자 203호","indutype":"일반휴게음식 - 중국식","category":"restaurant"}]},{"lat":"37.284092414","long":"126.99586804","imageIndex":4,"items":[{"name":"육소단 화서직영점","tel":"031-246-7988","addr":"경기도 수원시 팔달구 화서동 269-2번지","indutype":"일반휴게음식 - 일반한식","category":"restaurant"},{"name":"화서 진미통닭","tel":"031-258-0900","addr":"경기도 수원시 팔달구 화서동 269-2번지","indutype":"일반휴게음식 - 일반한식","category":"restaurant"}]},{"lat":"37.289425379","long":"126.98523314","imageIndex":4,"items":[{"name":"이디야 커피","tel":"031-291-3696","addr":"경기도 수원시 팔달구 화서동 738번지 1층","indutype":"일반휴게음식 - 서양음식","category":"restaurant"}]},{"lat":"37.279983826","long":"126.99767255","imageIndex":4,"items":[{"name":"이박사묵은지감자탕","tel":"031-251-2345","addr":"경기도 수원시 팔달구 화서동 135-17번지","indutype":"일반휴게음식 - 일반한식","category":"restaurant"}]},{"lat":"37.280263259","long":"127.00297218","imageIndex":4,"items":[{"name":"이색마리","tel":"031-245-0113","addr":"경기도 수원시 팔달구 화서동 71-194번지 1층","indutype":"일반휴게음식 - 일반한식","category":"restaurant"},{"name":"포인트호프","tel":"031-254-5657","addr":"경기도 수원시 팔달구 화서동 71-194번지","indutype":"일반휴게음식 - 주점","category":"restaurant"}]},{"lat":"37.280623436","long":"126.99545116","imageIndex":4,"items":[{"name":"이석민피자","tel":"031-253-6888","addr":"경기도 수원시 팔달구 화서동 202-9번지 1층","indutype":"일반휴게음식 - 서양음식","category":"restaurant"}]},{"lat":"37.279236024","long":"126.99898058","imageIndex":4,"items":[{"name":"인사동솥밥","tel":"031-244-2933","addr":"경기도 수원시 팔달구 화서동 134-18번지","indutype":"일반휴게음식 - 일반한식","category":"restaurant"},{"name":"잇츠닭강정","tel":"031-243-9212","addr":"경기도 수원시 팔달구 화서동 134-18번지 1층","indutype":"일반휴게음식 - 일반한식","category":"restaurant"}]},{"lat":"37.288155383","long":"126.98856016","imageIndex":4,"items":[{"name":"인성한식부페","tel":"031-268-3351","addr":"경기도 수원시 팔달구 화서동 676-7번지","indutype":"일반휴게음식 - 일반한식","category":"restaurant"}]},{"lat":"37.285569089","long":"126.98592191","imageIndex":4,"items":[{"name":"일월수산 회직판장","tel":"031-246-5320","addr":"경기도 수원시 팔달구 화서동 685-6번지 1층","indutype":"일반휴게음식 - 일식·회집","category":"restaurant"}]},{"lat":"37.280236226","long":"127.00367128","imageIndex":4,"items":[{"name":"일인용(1인용)","tel":"031-241-5949","addr":"경기도 수원시 팔달구 화서동 71-26번지 1층 101호","indutype":"일반휴게음식 - 일반한식","category":"restaurant"},{"name":"프렌드","tel":"070-7529-0334","addr":"경기도 수원시 팔달구 화서동 71-26번지 1층 101호","indutype":"일반휴게음식 - 일반한식","category":"restaurant"}]},{"lat":"37.280677601","long":"126.99733423","imageIndex":4,"items":[{"name":"일인자감자탕","tel":"031-242-8221","addr":"경기도 수원시 팔달구 화서동 205-5번지","indutype":"일반휴게음식 - 일반한식","category":"restaurant"}]},{"lat":"37.285928542","long":"126.98020455","imageIndex":4,"items":[{"name":"일차돌","tel":"031-292-1092","addr":"경기도 수원시 팔달구 화서동 722-9번지 1층","indutype":"일반휴게음식 - 일반한식","category":"restaurant"}]},{"lat":"37.279983844","long":"126.99808976","imageIndex":4,"items":[{"name":"자주포차","tel":"070-8878-2200","addr":"경기도 수원시 팔달구 화서동 126-30번지","indutype":"일반휴게음식 - 일반한식","category":"restaurant"}]},{"lat":"37.279902844","long":"127.00389679","imageIndex":4,"items":[{"name":"장군실내포차","tel":"031-257-3410","addr":"경기도 수원시 팔달구 화서동 71-81번지 1층","indutype":"일반휴게음식 - 일반한식","category":"restaurant"}]},{"lat":"37.288371656","long":"126.98878566","imageIndex":4,"items":[{"name":"장수풍천민물장어","tel":"031-269-8892","addr":"경기도 수원시 팔달구 화서동 676-4번지 상가 1층","indutype":"일반휴게음식 - 일반한식","category":"restaurant"}]},{"lat":"37.279010822","long":"127.00133721","imageIndex":4,"items":[{"name":"전광식당","tel":"031-235-1113","addr":"경기도 수원시 팔달구 화서동 107-10번지","indutype":"일반휴게음식 - 일반한식","category":"restaurant"}]},{"lat":"37.280344244","long":"126.99784167","imageIndex":4,"items":[{"name":"전이야기","tel":"031-252-1839","addr":"경기도 수원시 팔달구 화서동 126-16번지","indutype":"일반휴게음식 - 일반한식","category":"restaurant"}]},{"lat":"37.279488306","long":"126.99881143","imageIndex":4,"items":[{"name":"정대감생삼겹살","tel":"031-255-4187","addr":"경기도 수원시 팔달구 화서동 134-25번지","indutype":"일반휴게음식 - 일반한식","category":"restaurant"}]},{"lat":"37.286236298","long":"126.98941755","imageIndex":4,"items":[{"name":"정통춘천닭갈비","tel":"031-269-5949","addr":"경기도 수원시 팔달구 화서동 681-8번지 1층","indutype":"일반휴게음식 - 일반한식","category":"restaurant"}]},{"lat":"37.286182283","long":"126.9898348","imageIndex":4,"items":[{"name":"정통춘천닭갈비2","tel":"031-269-3375","addr":"경기도 수원시 팔달구 화서동 680-2번지","indutype":"일반휴게음식 - 일반한식","category":"restaurant"},{"name":"조개랑해물","tel":"031`-242-9252","addr":"경기도 수원시 팔달구 화서동 680-2번지","indutype":"일반휴게음식 - 일반한식","category":"restaurant"}]},{"lat":"37.287677825","long":"126.98844748","imageIndex":4,"items":[{"name":"제주본가화로구이","tel":"","addr":"경기도 수원시 팔달구 화서동 683-8번지 1층","indutype":"일반휴게음식 - 일반한식","category":"restaurant"}]},{"lat":"37.288263542","long":"126.98886461","imageIndex":4,"items":[{"name":"조씨네화서추어탕","tel":"031-239-3338","addr":"경기도 수원시 팔달구 화서동 676-5번지","indutype":"일반휴게음식 - 일반한식","category":"restaurant"}]},{"lat":"37.285342959","long":"126.98064451","imageIndex":4,"items":[{"name":"좋은맛푸드","tel":"031-298-3774","addr":"경기도 수원시 팔달구 화서동 725-3번지 리더스빌딩 101호","indutype":"일반휴게음식 - 일반한식","category":"restaurant"}]},{"lat":"37.286650776","long":"126.98947386","imageIndex":4,"items":[{"name":"주향","tel":"","addr":"경기도 수원시 팔달구 화서동 679-12번지","indutype":"일반휴게음식 - 일반한식","category":"restaurant"}]},{"lat":"37.280821688","long":"126.99586835","imageIndex":4,"items":[{"name":"죽마고우","tel":"031-244-5568","addr":"경기도 수원시 팔달구 화서동 202-5번지 1층","indutype":"일반휴게음식 - 주점","category":"restaurant"}]},{"lat":"37.27712746","long":"126.9955868","imageIndex":4,"items":[{"name":"중국관","tel":"031-241-1442","addr":"경기도 수원시 팔달구 화서동 184-63번지","indutype":"일반휴게음식 - 중국식","category":"restaurant"}]},{"lat":"37.278983748","long":"127.00642253","imageIndex":4,"items":[{"name":"진미식당","tel":"031-243-9521","addr":"경기도 수원시 팔달구 화서동 61-5번지","indutype":"일반휴게음식 - 일반한식","category":"restaurant"}]},{"lat":"37.286344412","long":"126.98933859","imageIndex":4,"items":[{"name":"진시황","tel":"031-241-8889","addr":"경기도 수원시 팔달구 화서동 681-7번지","indutype":"일반휴게음식 - 중국식","category":"restaurant"}]},{"lat":"37.280101071","long":"127.00386297","imageIndex":4,"items":[{"name":"진아양꼬치","tel":"070-4789-3798","addr":"경기도 수원시 팔달구 화서동 71-19번지","indutype":"일반휴게음식 - 일반한식","category":"restaurant"}]},{"lat":"37.277956518","long":"126.99772907","imageIndex":4,"items":[{"name":"짝","tel":"070-3684-4106","addr":"경기도 수원시 팔달구 화서동 184-117번지 1층","indutype":"일반휴게음식 - 주점","category":"restaurant"}]},{"lat":"37.283065121","long":"126.99403011","imageIndex":4,"items":[{"name":"짱구짱구","tel":"070-7529-0334","addr":"경기도 수원시 팔달구 화서동 275-1번지 1층","indutype":"일반휴게음식 - 일반한식","category":"restaurant"}]},{"lat":"37.286731892","long":"126.98967683","imageIndex":4,"items":[{"name":"쪼끼쪼끼","tel":"031-271-1227","addr":"경기도 수원시 팔달구 화서동 679-5번지","indutype":"일반휴게음식 - 주점","category":"restaurant"}]},{"lat":"37.28820946","long":"126.98869547","imageIndex":4,"items":[{"name":"착한소도둑","tel":"031-268-8002","addr":"경기도 수원시 팔달구 화서동 676-6번지 1층","indutype":"일반휴게음식 - 일반한식","category":"restaurant"}]},{"lat":"37.286092157","long":"126.98962056","imageIndex":4,"items":[{"name":"채상궁","tel":"031-269-8600","addr":"경기도 수원시 팔달구 화서동 680-3번지","indutype":"일반휴게음식 - 일반한식","category":"restaurant"}]},{"lat":"37.290010957","long":"126.98464658","imageIndex":4,"items":[{"name":"채선당 화서점","tel":"031-278-2540","addr":"경기도 수원시 팔달구 화서동 736번지 201-1,202-1","indutype":"일반휴게음식 - 일반한식","category":"restaurant"}]},{"lat":"37.278037586","long":"126.99719912","imageIndex":4,"items":[{"name":"처갓집양념치킨","tel":"031-245-6826","addr":"경기도 수원시 팔달구 화서동 184-348번지 1층","indutype":"일반휴게음식 - 스넥","category":"restaurant"}]},{"lat":"37.279875818","long":"127.00281432","imageIndex":4,"items":[{"name":"청년피자서수원점","tel":"070-4922-1261","addr":"경기도 수원시 팔달구 화서동 71-161번지 1층 1호","indutype":"일반휴게음식 - 서양음식","category":"restaurant"},{"name":"푸라닭수원화서점","tel":"031-258-9206","addr":"경기도 수원시 팔달구 화서동 71-161번지","indutype":"일반휴게음식 - 일반한식","category":"restaurant"}]},{"lat":"37.280181854","long":"126.99427851","imageIndex":4,"items":[{"name":"청정수산","tel":"031-247-3939","addr":"경기도 수원시 팔달구 화서동 220-63번지 1층","indutype":"일반휴게음식 - 일반한식","category":"restaurant"}]},{"lat":"37.279073904","long":"127.00294963","imageIndex":4,"items":[{"name":"초원정","tel":"031-245-7890","addr":"경기도 수원시 팔달구 화서동 71-110번지","indutype":"일반휴게음식 - 일반한식","category":"restaurant"}]},{"lat":"37.286820388","long":"126.97933597","imageIndex":4,"items":[{"name":"최부자갈비","tel":"02-296-6226","addr":"경기도 수원시 팔달구 화서동 722-2번지","indutype":"일반휴게음식 - 일반한식","category":"restaurant"}]},{"lat":"37.278821596","long":"127.005092","imageIndex":4,"items":[{"name":"춘향골추어탕","tel":"031-295-7092","addr":"경기도 수원시 팔달구 화서동 62-17번지 1층","indutype":"일반휴게음식 - 일반한식","category":"restaurant"}]},{"lat":"37.280596514","long":"126.99744699","imageIndex":4,"items":[{"name":"치어스화서숙지점","tel":"031-243-4242","addr":"경기도 수원시 팔달구 화서동 209-28번지 1층","indutype":"일반휴게음식 - 주점","category":"restaurant"}]},{"lat":"37.285739272","long":"126.97992269","imageIndex":4,"items":[{"name":"치어스화서점","tel":"031-291-1105","addr":"경기도 수원시 팔달구 화서동 721-10번지","indutype":"일반휴게음식 - 주점","category":"restaurant"}]},{"lat":"37.277821405","long":"126.9987777","imageIndex":4,"items":[{"name":"치킨달인(화서점)","tel":"031-245-1754","addr":"경기도 수원시 팔달구 화서동 180-12번지 1층 101호","indutype":"일반휴게음식 - 스넥","category":"restaurant"}]},{"lat":"37.284876012","long":"126.99197757","imageIndex":4,"items":[{"name":"치킨마루(화서역점)","tel":"031-258-9777","addr":"경기도 수원시 팔달구 화서동 649-2번지","indutype":"일반휴게음식 - 일반한식","category":"restaurant"}]},{"lat":"37.285288975","long":"126.98106176","imageIndex":4,"items":[{"name":"칠이사이공 (72420)","tel":"031-111-1111","addr":"경기도 수원시 팔달구 화서동 726-4번지","indutype":"일반휴게음식 - 서양음식","category":"restaurant"}]},{"lat":"37.286957136","long":"126.98956402","imageIndex":4,"items":[{"name":"카페 나봄","tel":"","addr":"경기도 수원시 팔달구 화서동 679-3번지 1층","indutype":"일반휴게음식 - 서양음식","category":"restaurant"}]},{"lat":"37.285290854","long":"126.99727751","imageIndex":4,"items":[{"name":"카페다정","tel":"031-245-5006","addr":"경기도 수원시 팔달구 화서동 262번지 1층","indutype":"일반휴게음식 - 서양음식","category":"restaurant"}]},{"lat":"37.281128229","long":"127.00483272","imageIndex":4,"items":[{"name":"카페라온","tel":"031-247-1324","addr":"경기도 수원시 팔달구 화서동 70-10번지 1층","indutype":"일반휴게음식 - 서양음식","category":"restaurant"},{"name":"카페라온","tel":"031-247-1324","addr":"경기도 수원시 팔달구 화서동 70-10번지 1층","indutype":"일반휴게음식 - 서양음식","category":"restaurant"}]},{"lat":"37.279263116","long":"127.00200247","imageIndex":4,"items":[{"name":"카페마실","tel":"031-241-0930","addr":"경기도 수원시 팔달구 화서동 99-19번지","indutype":"일반휴게음식 - 서양음식","category":"restaurant"}]},{"lat":"37.287065252","long":"126.98950762","imageIndex":4,"items":[{"name":"카페바투","tel":"031-269-7452","addr":"경기도 수원시 팔달구 화서동 679-2번지","indutype":"일반휴게음식 - 서양음식","category":"restaurant"}]},{"lat":"37.286730401","long":"126.97992239","imageIndex":4,"items":[{"name":"카페앙뚜","tel":"031-000-0000","addr":"경기도 수원시 팔달구 화서동 723-4번지 102호","indutype":"일반휴게음식 - 서양음식","category":"restaurant"}]},{"lat":"37.286568152","long":"126.97959541","imageIndex":4,"items":[{"name":"카페이소","tel":"031-1800-6139","addr":"경기도 수원시 팔달구 화서동 722-4번지 1층","indutype":"일반휴게음식 - 서양음식","category":"restaurant"}]},{"lat":"37.285434006","long":"126.98641811","imageIndex":4,"items":[{"name":"카페지","tel":"031-2931-8444","addr":"경기도 수원시 팔달구 화서동 686-7번지 1층 102호","indutype":"일반휴게음식 - 서양음식","category":"restaurant"}]},{"lat":"37.286486977","long":"126.9791782","imageIndex":4,"items":[{"name":"커피가좋아서,","tel":"02-111-1111","addr":"경기도 수원시 팔달구 화서동 721-3번지 1층","indutype":"일반휴게음식 - 일반한식","category":"restaurant"}]},{"lat":"37.285128195","long":"126.99089498","imageIndex":4,"items":[{"name":"커피나무","tel":"","addr":"경기도 수원시 팔달구 화서동 644-4번지 정자프라자 106호","indutype":"일반휴게음식 - 서양음식","category":"restaurant"}]},{"lat":"37.281100942","long":"126.99486476","imageIndex":4,"items":[{"name":"커피베이 수원화서점","tel":"031-242-2600","addr":"경기도 수원시 팔달구 화서동 218-6번지 1층 101호","indutype":"일반휴게음식 - 서양음식","category":"restaurant"}]},{"lat":"37.279073902","long":"127.00353596","imageIndex":4,"items":[{"name":"커피베이화서사거리점","tel":"031-247-1480","addr":"경기도 수원시 팔달구 화서동 71-52번지","indutype":"일반휴게음식 - 서양음식","category":"restaurant"}]},{"lat":"37.285847374","long":"126.97980989","imageIndex":4,"items":[{"name":"커피아노","tel":"070-4300-1218","addr":"경기도 수원시 팔달구 화서동 721-9번지 1층","indutype":"일반휴게음식 - 일반한식","category":"restaurant"}]},{"lat":"37.286650739","long":"126.98914683","imageIndex":4,"items":[{"name":"커피아노","tel":"000-0000-0000","addr":"경기도 수원시 팔달구 화서동 681-4번지 1층","indutype":"일반휴게음식 - 서양음식","category":"restaurant"}]},{"lat":"37.286369931","long":"126.97961803","imageIndex":4,"items":[{"name":"커피주택","tel":"031-291-0524","addr":"경기도 수원시 팔달구 화서동 722-14번지","indutype":"일반휴게음식 - 서양음식","category":"restaurant"}]},{"lat":"37.278100727","long":"126.99889044","imageIndex":4,"items":[{"name":"콩나물분식","tel":"031-253-4236","addr":"경기도 수원시 팔달구 화서동 175-10번지","indutype":"일반휴게음식 - 일반한식","category":"restaurant"}]},{"lat":"37.278488226","long":"127.00133722","imageIndex":4,"items":[{"name":"탕화쿵푸(마라탕)","tel":"031-747-8874","addr":"경기도 수원시 팔달구 화서동 108-4번지","indutype":"일반휴게음식 - 중국식","category":"restaurant"}]},{"lat":"37.277704342","long":"127.00270157","imageIndex":4,"items":[{"name":"태광보신탕","tel":"031-244-1800","addr":"경기도 수원시 팔달구 화서동 93-18번지 1층","indutype":"일반휴게음식 - 일반한식","category":"restaurant"}]},{"lat":"37.287092251","long":"126.98922569","imageIndex":4,"items":[{"name":"태능숯불갈비","tel":"031-269-3999","addr":"경기도 수원시 팔달구 화서동 679-16번지","indutype":"일반휴게음식 - 일반한식","category":"restaurant"}]},{"lat":"37.286569691","long":"126.98953026","imageIndex":4,"items":[{"name":"태백 막국수","tel":"031-271-4842","addr":"경기도 수원시 팔달구 화서동 679-11번지","indutype":"일반휴게음식 - 일반한식","category":"restaurant"}]},{"lat":"37.288370092","long":"126.979031","imageIndex":4,"items":[{"name":"토담골","tel":"031-269-3397","addr":"경기도 수원시 팔달구 화서동 718-2번지 1층","indutype":"일반휴게음식 - 일반한식","category":"restaurant"}]},{"lat":"37.279821351","long":"126.9930946","imageIndex":4,"items":[{"name":"토담숲속","tel":"031-251-9284","addr":"경기도 수원시 팔달구 화서동 220-5번지","indutype":"일반휴게음식 - 일반한식","category":"restaurant"}]},{"lat":"37.281155101","long":"126.99645467","imageIndex":4,"items":[{"name":"토미컵밥","tel":"031-207-0101","addr":"경기도 수원시 팔달구 화서동 212-2번지 도경빌딩 1층","indutype":"일반휴게음식 - 일반한식","category":"restaurant"}]},{"lat":"37.28492992","long":"126.9904214","imageIndex":4,"items":[{"name":"투다리","tel":"031-241-5732","addr":"경기도 수원시 팔달구 화서동 644-2,2층106,107호","indutype":"일반휴게음식 - 주점","category":"restaurant"}]},{"lat":"37.279902756","long":"126.99820252","imageIndex":4,"items":[{"name":"투다리","tel":"031-254-1966","addr":"경기도 수원시 팔달구 화서동 126-32번지","indutype":"일반휴게음식 - 주점","category":"restaurant"},{"name":"파닥파닥","tel":"031-252-4024","addr":"경기도 수원시 팔달구 화서동 126-32번지 1층","indutype":"일반휴게음식 - 주점","category":"restaurant"}]},{"lat":"37.278371003","long":"126.99803348","imageIndex":4,"items":[{"name":"파이브웨이","tel":"031-242-9875","addr":"경기도 수원시 팔달구 화서동 184-185번지 1층","indutype":"일반휴게음식 - 일반한식","category":"restaurant"}]},{"lat":"37.288902568","long":"126.9838349","imageIndex":4,"items":[{"name":"페리카나","tel":"031-298-3141","addr":"경기도 수원시 팔달구 화서동 706번지 꽃뫼버들마을진흥아파트","indutype":"일반휴게음식 - 스넥","category":"restaurant"}]},{"lat":"37.280236227","long":"127.00350214","imageIndex":4,"items":[{"name":"페리카나 체인점","tel":"031-253-5522","addr":"경기도 수원시 팔달구 화서동 71-27번지","indutype":"일반휴게음식 - 서양음식","category":"restaurant"}]},{"lat":"37.278677379","long":"126.99873255","imageIndex":4,"items":[{"name":"포차천국","tel":"031-252-4792","addr":"경기도 수원시 팔달구 화서동 174-16번지 1층","indutype":"일반휴게음식 - 일반한식","category":"restaurant"}]},{"lat":"37.279767683","long":"127.00456206","imageIndex":4,"items":[{"name":"프롬제이","tel":"070-3308-5004","addr":"경기도 수원시 팔달구 화서동 71-4번지 1층","indutype":"일반휴게음식 - 서양음식","category":"restaurant"}]},{"lat":"37.277983583","long":"126.99858601","imageIndex":4,"items":[{"name":"해송","tel":"031-245-1518","addr":"경기도 수원시 팔달구 화서동 175-17번지 1층","indutype":"일반휴게음식 - 일반한식","category":"restaurant"}]},{"lat":"37.2784071","long":"126.99966844","imageIndex":4,"items":[{"name":"해풍국수","tel":"031-258-7770","addr":"경기도 수원시 팔달구 화서동 114-15번지","indutype":"일반휴게음식 - 일반한식","category":"restaurant"},{"name":"화서왕족발순대국","tel":"031-244-5771","addr":"경기도 수원시 팔달구 화서동 114-15번지","indutype":"일반휴게음식 - 일반한식","category":"restaurant"}]},{"lat":"37.278289905","long":"126.99789818","imageIndex":4,"items":[{"name":"행복한밥상","tel":"031-252-1545","addr":"경기도 수원시 팔달구 화서동 184-345번지","indutype":"일반휴게음식 - 일반한식","category":"restaurant"}]},{"lat":"37.278461115","long":"126.99825899","imageIndex":4,"items":[{"name":"혁군맥주","tel":"031-247-6792","addr":"경기도 수원시 팔달구 화서동 174-6번지","indutype":"일반휴게음식 - 일반한식","category":"restaurant"}]},{"lat":"37.280398297","long":"126.9976387","imageIndex":4,"items":[{"name":"호식이두마리치킨(화서점)","tel":"031-257-1110","addr":"경기도 수원시 팔달구 화서동 125-8번지 1층 101호","indutype":"일반휴게음식 - 스넥","category":"restaurant"}]},{"lat":"37.279731648","long":"127.00397572","imageIndex":4,"items":[{"name":"호치킨하우스","tel":"031-252-5727","addr":"경기도 수원시 팔달구 화서동 71-83번지 1층","indutype":"일반휴게음식 - 스넥","category":"restaurant"}]},{"lat":"37.280983888","long":"126.99613895","imageIndex":4,"items":[{"name":"홍가네","tel":"031-257-0134","addr":"경기도 수원시 팔달구 화서동 203-1번지 1층","indutype":"일반휴게음식 - 일반한식","category":"restaurant"}]},{"lat":"37.280263259","long":"127.00281432","imageIndex":4,"items":[{"name":"홍가네집만두","tel":"02-0000-0000","addr":"경기도 수원시 팔달구 화서동 71-31번지 1층","indutype":"일반휴게음식 - 일반한식","category":"restaurant"},{"name":"화서닭발집","tel":"031-255-2992","addr":"경기도 수원시 팔달구 화서동 71-31번지","indutype":"일반휴게음식 - 일반한식","category":"restaurant"}]},{"lat":"37.278371067","long":"126.99997288","imageIndex":4,"items":[{"name":"화서떡볶이","tel":"","addr":"경기도 수원시 팔달구 화서동 114-11번지","indutype":"일반휴게음식 - 일반한식","category":"restaurant"}]},{"lat":"37.279488376","long":"127.00281432","imageIndex":4,"items":[{"name":"화서바다포차","tel":"070-3891-6666","addr":"경기도 수원시 팔달구 화서동 71-75번지 1층","indutype":"일반휴게음식 - 일반한식","category":"restaurant"}]},{"lat":"37.278929661","long":"126.99858595","imageIndex":4,"items":[{"name":"화서칡냉면","tel":"031-258-7443","addr":"경기도 수원시 팔달구 화서동 174-13번지 1층","indutype":"일반휴게음식 - 일반한식","category":"restaurant"}]},{"lat":"37.288119283","long":"126.98808653","imageIndex":4,"items":[{"name":"화서현장식당","tel":"","addr":"경기도 수원시 팔달구 화서동 683-4번지 1층","indutype":"일반휴게음식 - 일반한식","category":"restaurant"}]},{"lat":"37.280875945","long":"127.00464102","imageIndex":4,"items":[{"name":"화성냉면","tel":"031-248-9317","addr":"경기도 수원시 팔달구 화서동 75-1번지 호산나빌딩 101호","indutype":"일반휴게음식 - 일반한식","category":"restaurant"}]},{"lat":"37.277821476","long":"127.00314131","imageIndex":4,"items":[{"name":"황금문어와소라","tel":"031-257-7289","addr":"경기도 수원시 팔달구 화서동 93-19번지 1층","indutype":"일반휴게음식 - 일반한식","category":"restaurant"}]},{"lat":"37.279731653","long":"127.00275794","imageIndex":4,"items":[{"name":"황금성","tel":"031-253-2771","addr":"경기도 수원시 팔달구 화서동 71-74번지","indutype":"일반휴게음식 - 일반한식","category":"restaurant"}]},{"lat":"37.27723568","long":"126.99739086","imageIndex":4,"items":[{"name":"황제족발","tel":"031-242-6634","addr":"경기도 수원시 팔달구 화서동 184-49번지","indutype":"일반휴게음식 - 일반한식","category":"restaurant"}]},{"lat":"37.27937119","long":"127.00642255","imageIndex":4,"items":[{"name":"힐카페(Hillcafe)","tel":"031-248-1668","addr":"경기도 수원시 팔달구 화서동 61-2번지 1층","indutype":"일반휴게음식 - 서양음식","category":"restaurant"}]}]