[{"lat":"37.334422046","long":"127.09738489","imageIndex":16,"items":[{"name":"(주)한국프로젝트평생교육원","tel":"031-889-2477","addr":"경기도 용인시 수지구 동천동 886번지 동천메디파크빌딩","indutype":"회원제형태 - 학원","category":"study"},{"name":"동천리딩비영어독서학원","tel":"031-266-0087","addr":"경기도 용인시 수지구 동천동 886번지 2층","indutype":"학원 - 외국어학원","category":"study"}]},{"lat":"37.335650605","long":"127.09332415","imageIndex":16,"items":[{"name":"ELIS영어학원","tel":"031-265-4505","addr":"경기도 용인시 수지구 동천동 873-4번지 외1필지 에덴파크 401호","indutype":"학원 - 외국어학원","category":"study"},{"name":"동천홍익미술교습소","tel":"031-264-8208","addr":"경기도 용인시 수지구 동천동 873-4번지 에덴파크 402호","indutype":"학원 - 예·체능계학원","category":"study"},{"name":"모짤테움음악학원","tel":"031-264-5558","addr":"경기도 용인시 수지구 동천동 873-4번지 에덴파크 504호","indutype":"학원 - 예·체능계학원","category":"study"},{"name":"바나나앤디미술교습소","tel":"031-272-0950","addr":"경기도 용인시 수지구 동천동 873-4번지 에덴파크 상가동 203호","indutype":"학원 - 예·체능계학원","category":"study"},{"name":"예일영어학원","tel":"031-265-0535","addr":"경기도 용인시 수지구 동천동 873-4번지","indutype":"학원 - 외국어학원","category":"study"},{"name":"지킴이태권도","tel":"031-264-3611","addr":"경기도 용인시 수지구 동천동 873-4번지 에덴파크 상가 3층 302호","indutype":"학원 - 예·체능계학원","category":"study"}]},{"lat":"37.337176777","long":"127.08868812","imageIndex":16,"items":[{"name":"GL영어학원","tel":"031-265-1010","addr":"경기도 용인시 수지구 동천동 937번지 동천프라자 402호","indutype":"회원제형태 - 학원","category":"study"},{"name":"나현정발레학원","tel":"031-266-8830","addr":"경기도 용인시 수지구 동천동 937번지 동천프라자 4층 일부","indutype":"학원 - 예·체능계학원","category":"study"},{"name":"용인대마스터태권도장","tel":"","addr":"경기도 용인시 수지구 동천동 937번지 동천프라자 2층","indutype":"학원 - 예·체능계학원","category":"study"},{"name":"이화생각하는미술학원","tel":"070-8690-5051","addr":"경기도 용인시 수지구 동천동 937번지 동천프라자 205호","indutype":"학원 - 예·체능계학원","category":"study"},{"name":"전공음악학원","tel":"031-262-1788","addr":"경기도 용인시 수지구 동천동 937번지 동천프라자 401호","indutype":"학원 - 예·체능계학원","category":"study"},{"name":"진수학교습소","tel":"","addr":"경기도 용인시 수지구 동천동 937번지 동천프라자 110호","indutype":"학원 - 보습학원","category":"study"}]},{"lat":"37.337816403","long":"127.07536192","imageIndex":16,"items":[{"name":"SCG축구교실","tel":"031-265-0770","addr":"경기도 용인시 수지구 동천동 536-5번지","indutype":"학원 - 예·체능계학원","category":"study"}]},{"lat":"37.332479229","long":"127.09304954","imageIndex":16,"items":[{"name":"감성더하기 음악학원","tel":"","addr":"경기도 용인시 수지구 동천동 282-5번지 서원 C동 3층","indutype":"학원 - 예·체능계학원","category":"study"},{"name":"상상미술교습소","tel":"031-898-1189","addr":"경기도 용인시 수지구 동천동 282-5번지 서원 C동 3층","indutype":"학원 - 예·체능계학원","category":"study"}]},{"lat":"37.340817755","long":"127.0992662","imageIndex":16,"items":[{"name":"경희대무경태권도장","tel":"031-262-8008","addr":"경기도 용인시 수지구 동천동 200번지 2층","indutype":"학원 - 예·체능계학원","category":"study"}]},{"lat":"37.340646874","long":"127.09888229","imageIndex":16,"items":[{"name":"공간미술교습소","tel":"031-265-9691","addr":"경기도 용인시 수지구 동천동 174-26번지 영재빌딩 3층 303호","indutype":"학원 - 예·체능계학원","category":"study"},{"name":"예인음악학원","tel":"031-269-1229","addr":"경기도 용인시 수지구 동천동 174-26번지 영재빌딩 502호","indutype":"학원 - 예·체능계학원","category":"study"},{"name":"인뎁스학원","tel":"031-272-9209","addr":"경기도 용인시 수지구 동천동 174-26번지 영재빌딩 5층","indutype":"학원 - 보습학원","category":"study"},{"name":"플랜에이용인동천독서실","tel":"031-272-0979","addr":"경기도 용인시 수지구 동천동 174-26번지 영재빌딩 2층","indutype":"학원 - 독서실","category":"study"}]},{"lat":"37.340423251","long":"127.09685074","imageIndex":16,"items":[{"name":"공터영어바른수학수지동천센터학원","tel":"031-263-8883","addr":"경기도 용인시 수지구 동천동 382번지 ,2,3층","indutype":"학원 - 보습학원","category":"study"}]},{"lat":"37.340367495","long":"127.09896093","imageIndex":16,"items":[{"name":"관인아인음악학원","tel":"031-264-1941","addr":"경기도 용인시 수지구 동천동 768-2번지 명문빌딩 3층","indutype":"회원제형태 - 학원","category":"study"},{"name":"윤선생IGSE용인동문학원","tel":"031-263-0567","addr":"경기도 용인시 수지구 동천동 768-2번지 5층","indutype":"학원 - 보습학원","category":"study"},{"name":"폴쌤의까르릉영어학원","tel":"031-265-3257","addr":"경기도 용인시 수지구 동천동 768-2번지 4층","indutype":"회원제형태 - 학원","category":"study"}]},{"lat":"37.33581481","long":"127.09063873","imageIndex":16,"items":[{"name":"국가대표 태권도","tel":"031-264-4526","addr":"경기도 용인시 수지구 동천동 946-4번지 대영프라자 401호","indutype":"학원 - 예·체능계학원","category":"study"},{"name":"리스영어학원","tel":"031-261-0360","addr":"경기도 용인시 수지구 동천동 946-4번지 대영프라자 503호","indutype":"학원 - 보습학원","category":"study"},{"name":"발도르프음악학원","tel":"070-8879-2202","addr":"경기도 용인시 수지구 동천동 946-4번지 대영프라자 403호","indutype":"학원 - 예·체능계학원","category":"study"},{"name":"별수학학원","tel":"031-302-3101","addr":"경기도 용인시 수지구 동천동 946-4번지 대영프라자","indutype":"학원 - 보습학원","category":"study"},{"name":"아이미술창작소미술학원","tel":"031-262-1325","addr":"경기도 용인시 수지구 동천동 946-4번지 대영프라자 402호","indutype":"학원 - 예·체능계학원","category":"study"},{"name":"프리덤아트스페이스(Freedom Art Space)","tel":"","addr":"경기도 용인시 수지구 동천동 946-4번지 대영프라자 202호","indutype":"학원 - 예·체능계학원","category":"study"}]},{"lat":"37.344839799","long":"127.09485871","imageIndex":16,"items":[{"name":"국가대표히어로즈태권도","tel":"031-262-8253","addr":"경기도 용인시 수지구 동천동 148번지 201호","indutype":"학원 - 예·체능계학원","category":"study"}]},{"lat":"37.333512064","long":"127.09732734","imageIndex":16,"items":[{"name":"국선도","tel":"031-897-0201","addr":"경기도 용인시 수지구 동천동 887번지 수지하우비 상가 214호","indutype":"회원제형태 - 학원","category":"study"},{"name":"동천디지탈한빛독서실","tel":"031-898-4046","addr":"경기도 용인시 수지구 동천동 887번지 수지하우비 513호,514호","indutype":"학원 - 독서실","category":"study"},{"name":"재능학원","tel":"031-261-0385","addr":"경기도 용인시 수지구 동천동 887번지 203호","indutype":"학원 - 보습학원","category":"study"}]},{"lat":"37.333953517","long":"127.09738431","imageIndex":16,"items":[{"name":"기찬수학전문학원","tel":"031-893-5332","addr":"경기도 용인시 수지구 동천동 886-2번지 IVY타워402,403호","indutype":"회원제형태 - 학원","category":"study"},{"name":"서일어학원","tel":"031-309-0594","addr":"경기도 용인시 수지구 동천동 886-2번지 IVY타워 아이비타워 3층 302호 303호","indutype":"회원제형태 - 학원","category":"study"}]},{"lat":"37.342311262","long":"127.10190882","imageIndex":16,"items":[{"name":"내가하는미술교습소","tel":"031-274-8994","addr":"경기도 용인시 수지구 동천동 177-28번지 남서울비젼교육관 208호","indutype":"학원 - 예·체능계학원","category":"study"}]},{"lat":"37.335895675","long":"127.09094349","imageIndex":16,"items":[{"name":"댄스발레캣(CAT)스튜디오학원","tel":"031-272-1237","addr":"경기도 용인시 수지구 동천동 946-2번지 4층 전체","indutype":"학원 - 예·체능계학원","category":"study"},{"name":"연세J피아노음악학원","tel":"031-372-9757","addr":"경기도 용인시 수지구 동천동 946-2번지 401호","indutype":"학원 - 예·체능계학원","category":"study"}]},{"lat":"37.34070007","long":"127.09994314","imageIndex":16,"items":[{"name":"도담검도관","tel":"031-896-7044","addr":"경기도 용인시 수지구 동천동 196번지 지하1층","indutype":"회원제형태 - 학원","category":"study"}]},{"lat":"37.33784048","long":"127.09279641","imageIndex":16,"items":[{"name":"독한영어학원","tel":"031-306-3340","addr":"경기도 용인시 수지구 동천동 344-2번지 동천동제일프라자 301호","indutype":"학원 - 보습학원","category":"study"},{"name":"동천펜탑독서실","tel":"031-8019-8209","addr":"경기도 용인시 수지구 동천동 344-2번지 상록제일프라자 203호","indutype":"학원 - 독서실","category":"study"},{"name":"동천피아노슐레학원","tel":"031-262-4080","addr":"경기도 용인시 수지구 동천동 344-2번지 상록제일프라자 401호","indutype":"학원 - 예·체능계학원","category":"study"},{"name":"동천한솔플러스수학학원","tel":"031-262-1897","addr":"경기도 용인시 수지구 동천동 344-2번지 동천제일프라자 601호 에이플렛학원","indutype":"회원제형태 - 학원","category":"study"},{"name":"동천한우리독서논술학원","tel":"031-276-5599","addr":"경기도 용인시 수지구 동천동 344-2번지 외3필지동천동제일프라자 302호","indutype":"학원 - 기타 교육기관","category":"study"},{"name":"수지탑에듀학원","tel":"031-272-3115","addr":"경기도 용인시 수지구 동천동 344-2번지 동천동제일프라자 502호","indutype":"학원 - 보습학원","category":"study"},{"name":"아뜰리에해솔미술교습소","tel":"031-262-0791","addr":"경기도 용인시 수지구 동천동 344-2번지 동천동제일프라자 111호","indutype":"학원 - 예·체능계학원","category":"study"},{"name":"엠베스트SE동천학원","tel":"031-548-2323","addr":"경기도 용인시 수지구 동천동 344-2번지 상록제일프라자 202호","indutype":"학원 - 보습학원","category":"study"},{"name":"올리브미술학원","tel":"031-263-9777","addr":"경기도 용인시 수지구 동천동 344-2번지 제일프라자 501호","indutype":"회원제형태 - 학원","category":"study"},{"name":"와이비엠(YBM)잉글루학원","tel":"031-263-9333","addr":"경기도 용인시 수지구 동천동 344-2번지 상록제일프라자 2층 201호","indutype":"학원 - 외국어학원","category":"study"},{"name":"용인동천작심독서실","tel":"031-262-0910","addr":"경기도 용인시 수지구 동천동 344-2번지 동천동제일프라자 6층 603호","indutype":"학원 - 독서실","category":"study"},{"name":"윌리스어학원","tel":"031-266-5084","addr":"경기도 용인시 수지구 동천동 344-2번지 동천제일프라자 403호","indutype":"회원제형태 - 학원","category":"study"},{"name":"윤선생영어교실동천센터","tel":"031-264-0542","addr":"경기도 용인시 수지구 동천동 344-2번지 동천동제일프라자 602호","indutype":"학원 - 학습지 교육","category":"study"},{"name":"윤선생영어숲동천학원","tel":"031-264-0542","addr":"경기도 용인시 수지구 동천동 344-2번지 제일프라자 6층 602호","indutype":"학원 - 보습학원","category":"study"},{"name":"제니스이지영어학원","tel":"070-8810-8164","addr":"경기도 용인시 수지구 동천동 344-2번지 상록제일프라자 303호","indutype":"학원 - 보습학원","category":"study"},{"name":"카이텍수학학원","tel":"031-263-0705","addr":"경기도 용인시 수지구 동천동 344-2번지 동천동제일프라자 402호","indutype":"학원 - 보습학원","category":"study"},{"name":"크리아트동천미술교습소","tel":"031-262-0307","addr":"경기도 용인시 수지구 동천동 344-2번지 동천동제일프라자 303-1호","indutype":"학원 - 예·체능계학원","category":"study"}]},{"lat":"37.338867956","long":"127.0923801","imageIndex":16,"items":[{"name":"동원외국어학원","tel":"031-262-8273","addr":"경기도 용인시 수지구 동천동 402-11번지 2층 동원교회","indutype":"학원 - 외국어학원","category":"study"}]},{"lat":"37.335895076","long":"127.09174467","imageIndex":16,"items":[{"name":"동천 힘 수학학원","tel":"070-4763-5713","addr":"경기도 용인시 수지구 동천동 948번지 406호","indutype":"학원 - 보습학원","category":"study"},{"name":"스터디더집중영어교습소","tel":"032-265-0900","addr":"경기도 용인시 수지구 동천동 948번지 송란빌딩 305호","indutype":"학원 - 외국어학원","category":"study"}]},{"lat":"37.340259684","long":"127.09857711","imageIndex":16,"items":[{"name":"동천비바체음악학원","tel":"031-272-5123","addr":"경기도 용인시 수지구 동천동 371-5번지 동천코아프라자 302호","indutype":"학원 - 예·체능계학원","category":"study"},{"name":"엠앤씨영어수학전문학원","tel":"031-264-9007","addr":"경기도 용인시 수지구 동천동 371-5번지 동천코아프라자 2층 204호","indutype":"학원 - 보습학원","category":"study"}]},{"lat":"37.335866892","long":"127.09326799","imageIndex":16,"items":[{"name":"디딤돌청명학원","tel":"031-264-3070","addr":"경기도 용인시 수지구 동천동 873-3번지 동천타워 402호","indutype":"학원 - 기타 교육기관","category":"study"},{"name":"리안영어학원","tel":"031-306-4001","addr":"경기도 용인시 수지구 동천동 873-3번지 동천타워 401호","indutype":"학원 - 보습학원","category":"study"},{"name":"삼성영어에이블학원","tel":"031-261-3105","addr":"경기도 용인시 수지구 동천동 873-3번지 동천타워 501호","indutype":"학원 - 보습학원","category":"study"},{"name":"이챕터스동천학원","tel":"031-263-0593","addr":"경기도 용인시 수지구 동천동 873-3번지 동천타워1동천타워 403호","indutype":"회원제형태 - 학원","category":"study"},{"name":"큐이디(QED)수학교습소","tel":"031-266-4669","addr":"경기도 용인시 수지구 동천동 873-3번지 외1필지 동천타워 2층 203호","indutype":"학원 - 보습학원","category":"study"},{"name":"토즈스터디센터동천독서실","tel":"031-265-0979","addr":"경기도 용인시 수지구 동천동 873-3번지 동천타워 502,503호,504호일부","indutype":"학원 - 독서실","category":"study"}]},{"lat":"37.337731781","long":"127.09355234","imageIndex":16,"items":[{"name":"라라무용학원","tel":"031-264-5512","addr":"경기도 용인시 수지구 동천동 336-3번지 신세계프라자 201호","indutype":"학원 - 예·체능계학원","category":"study"},{"name":"슈만음악학원","tel":"031-265-1394","addr":"경기도 용인시 수지구 동천동 336-3번지 신세계프라자 2층 202호","indutype":"학원 - 예·체능계학원","category":"study"},{"name":"용인대꿈나무태권도","tel":"031-272-1771","addr":"경기도 용인시 수지구 동천동 336-3번지 신세계프라자 301호","indutype":"학원 - 예·체능계학원","category":"study"}]},{"lat":"37.334178772","long":"127.09738459","imageIndex":16,"items":[{"name":"라리 리듬스쿨","tel":"031-262-8882","addr":"경기도 용인시 수지구 동천동 886-1번지 태평빌딩 2층","indutype":"학원 - 예·체능계학원","category":"study"},{"name":"스와트체대입시","tel":"031-889-4747","addr":"경기도 용인시 수지구 동천동 886-1번지 태평빌딩 지하1층 비101호","indutype":"학원 - 예·체능계학원","category":"study"}]},{"lat":"37.335539954","long":"127.09657384","imageIndex":16,"items":[{"name":"라엘음악학원","tel":"031-302-1155","addr":"경기도 용인시 수지구 동천동 870번지 506동 301호 302호 신명스카이뷰상가동","indutype":"학원 - 예·체능계학원","category":"study"}]},{"lat":"37.336447483","long":"127.08795381","imageIndex":16,"items":[{"name":"로미아트랩미술교습소(Romys art lab)","tel":"070-1111-1111","addr":"경기도 용인시 수지구 동천동 935번지 한빛마을래미안이스트팰리스1단지 상가동 B122호","indutype":"학원 - 예·체능계학원","category":"study"},{"name":"미코수학교습소","tel":"","addr":"경기도 용인시 수지구 동천동 935번지 한빛마을래미안이스트팰리스1단지 25호 상가동","indutype":"학원 - 보습학원","category":"study"}]},{"lat":"37.341088381","long":"127.09887157","imageIndex":16,"items":[{"name":"리스트 피아노 교실","tel":"031-892-7011","addr":"경기도 용인시 수지구 동천동 914번지 동천마을동문굿모닝힐5차아파트","indutype":"학원 - 예·체능계학원","category":"study"}]},{"lat":"37.340288669","long":"127.09612835","imageIndex":16,"items":[{"name":"리스트음악학원","tel":"031-892-7011","addr":"경기도 용인시 수지구 동천동 174-9번지 센트럴 205호","indutype":"학원 - 예·체능계학원","category":"study"},{"name":"이화해법수학학원","tel":"031-265-9872","addr":"경기도 용인시 수지구 동천동 174-9번지 상가동 3층 303호 센트럴 상가","indutype":"학원 - 보습학원","category":"study"}]},{"lat":"37.338450764","long":"127.09591167","imageIndex":16,"items":[{"name":"리틀피아니스트교습소","tel":"031-266-7773","addr":"경기도 용인시 수지구 동천동 862번지 동천마을현대2차홈타운 상가 206호","indutype":"학원 - 예·체능계학원","category":"study"},{"name":"모네뜰미술교습소","tel":"031-307-1379","addr":"경기도 용인시 수지구 동천동 862 동천마을현대홈타운상가205호","indutype":"학원 - 예·체능계학원","category":"study"},{"name":"현대태권도체육관","tel":"031-263-7707","addr":"경기도 용인시 수지구 동천동 862번지 동천마을현대2차홈타운 상가동 201호","indutype":"학원 - 예·체능계학원","category":"study"}]},{"lat":"37.339226529","long":"127.09477288","imageIndex":16,"items":[{"name":"맥미술학원","tel":"031-274-7782","addr":"경기도 용인시 수지구 동천동 350번지 2층","indutype":"학원 - 예·체능계학원","category":"study"}]},{"lat":"37.335926699","long":"127.08540301","imageIndex":16,"items":[{"name":"문화미술교습소","tel":"031-235-8695","addr":"경기도 용인시 수지구 동천동 923번지 한빛마을래미안이스트팰리스4단지 상가동 4블럭-2호","indutype":"학원 - 예·체능계학원","category":"study"}]},{"lat":"37.335532421","long":"127.09468939","imageIndex":16,"items":[{"name":"뮤엠손곡영어교습소","tel":"031-265-2007","addr":"경기도 용인시 수지구 동천동 869번지 수진마을우미이노스빌 상가동 105호","indutype":"학원 - 외국어학원","category":"study"},{"name":"한양피아노교습소","tel":"031-264-4145","addr":"경기도 용인시 수지구 동천동 869번지 수진마을우미이노스빌 상가 104호","indutype":"학원 - 예·체능계학원","category":"study"}]},{"lat":"37.345537528","long":"127.08963433","imageIndex":16,"items":[{"name":"뮤엠영어 동천자이","tel":"070-8628-8024","addr":"경기도 용인시 수지구 동천동 105-3번지 동천자이아파트","indutype":"학원 - 기타 교육기관","category":"study"}]},{"lat":"37.343282823","long":"127.06430763","imageIndex":16,"items":[{"name":"바른야구","tel":"031-272-5989","addr":"경기도 용인시 수지구 동천동 610-2번지 2층","indutype":"학원 - 예·체능계학원","category":"study"}]},{"lat":"37.333927764","long":"127.09577068","imageIndex":16,"items":[{"name":"분더바움학원","tel":"031-265-8449","addr":"경기도 용인시 수지구 동천동 882-2번지 뉴월드빌딩","indutype":"학원 - 보습학원","category":"study"}]},{"lat":"37.341060347","long":"127.10010159","imageIndex":16,"items":[{"name":"사회적협동조합 사다리","tel":"","addr":"경기도 용인시 수지구 동천동 180-18번지 302호","indutype":"학원 - 기타 교육기관","category":"study"}]},{"lat":"37.33231702","long":"127.0930832","imageIndex":16,"items":[{"name":"선후합기도체육관","tel":"031-896-2525","addr":"경기도 용인시 수지구 동천동 282-6번지 4층","indutype":"학원 - 예·체능계학원","category":"study"},{"name":"수지유도관","tel":"031-266-1685","addr":"경기도 용인시 수지구 동천동 282-6번지 2층","indutype":"학원 - 예·체능계학원","category":"study"}]},{"lat":"37.339700697","long":"127.09901651","imageIndex":16,"items":[{"name":"성원칸타빌레음악학원","tel":"031-261-7555","addr":"경기도 용인시 수지구 동천동 859번지 현대1차홈타운 상가 202호","indutype":"회원제형태 - 학원","category":"study"}]},{"lat":"37.336595323","long":"127.09507435","imageIndex":16,"items":[{"name":"손곡태권도","tel":"031-265-8607","addr":"경기도 용인시 수지구 동천동 867번지 2층","indutype":"학원 - 예·체능계학원","category":"study"}]},{"lat":"37.337562998","long":"127.07716719","imageIndex":16,"items":[{"name":"수지채플힐킨더어학원","tel":"031-261-4762","addr":"경기도 용인시 수지구 동천동 513번지 ,1,2층","indutype":"학원 - 외국어학원","category":"study"}]},{"lat":"37.33586727","long":"127.09277149","imageIndex":16,"items":[{"name":"스프링아이동천어학원","tel":"031-272-7733","addr":"경기도 용인시 수지구 동천동 873-1번지 동천타워 501호,502호","indutype":"학원 - 외국어학원","category":"study"},{"name":"행복한어학원","tel":"031-263-0562","addr":"경기도 용인시 수지구 동천동 873-1동천타DNJ501~502호","indutype":"회원제형태 - 학원","category":"study"}]},{"lat":"37.339091377","long":"127.09477271","imageIndex":16,"items":[{"name":"시작용인동천독서실","tel":"031-263-0028","addr":"경기도 용인시 수지구 동천동 351-3번지 주건축물제1동 2층, 3층","indutype":"학원 - 독서실","category":"study"}]},{"lat":"37.335562734","long":"127.09035633","imageIndex":16,"items":[{"name":"아티즈뮤직슐레학원","tel":"031-262-2211","addr":"경기도 용인시 수지구 동천동 946-6번지 유진빌딩 402호","indutype":"회원제형태 - 학원","category":"study"}]},{"lat":"37.335103448","long":"127.09003984","imageIndex":16,"items":[{"name":"애플트리스쿨","tel":"031-266-1231","addr":"경기도 용인시 수지구 동천동 932","indutype":"회원제형태 - 학원","category":"study"}]},{"lat":"37.337950346","long":"127.09047194","imageIndex":16,"items":[{"name":"앤설리번잉글리쉬학원","tel":"031-263-6363","addr":"경기도 용인시 수지구 동천동 411번지 준프라자 201호","indutype":"학원 - 외국어학원","category":"study"}]},{"lat":"37.340260754","long":"127.07099705","imageIndex":16,"items":[{"name":"엔에스펜싱클럽(NS fencing club)","tel":"031-276-4674","addr":"경기도 용인시 수지구 동천동 561-1번지 상가 101,102호","indutype":"학원 - 예·체능계학원","category":"study"}]},{"lat":"37.336318656","long":"127.09160975","imageIndex":16,"items":[{"name":"용인동천와이즈리더영어독서전문학원","tel":"031-276-0512","addr":"경기도 용인시 수지구 동천동 944번지","indutype":"회원제형태 - 학원","category":"study"},{"name":"최상위권수학영어학원","tel":"031-896-8094","addr":"경기도 용인시 수지구 동천동 944번지 동천동,훼미리프라자 302호","indutype":"학원 - 보습학원","category":"study"}]},{"lat":"37.339065485","long":"127.09329439","imageIndex":16,"items":[{"name":"이제마독서실","tel":"031-272-5300","addr":"경기도 용인시 수지구 동천동 348-2번지","indutype":"학원 - 독서실","category":"study"}]},{"lat":"37.332064675","long":"127.09316188","imageIndex":16,"items":[{"name":"제우스학원","tel":"031-272-1220","addr":"경기도 용인시 수지구 동천동 282-8번지","indutype":"학원 - 보습학원","category":"study"}]},{"lat":"37.340952585","long":"127.09966134","imageIndex":16,"items":[{"name":"조이기타드럼음악교습소","tel":"031-262-6646","addr":"경기도 용인시 수지구 동천동 199-2번지 3층","indutype":"학원 - 예·체능계학원","category":"study"}]},{"lat":"37.338148792","long":"127.10163253","imageIndex":16,"items":[{"name":"주식회사교컴","tel":"02-854-0251","addr":"경기도 용인시 수지구 동천동 899번지 분당수지U-TOWER A동 2103호","indutype":"회원제형태 - 학원","category":"study"},{"name":"한올인재개발원","tel":"","addr":"경기도 용인시 수지구 동천동 899번지 지식산업센터 1813호","indutype":"학원 - 기타 교육기관","category":"study"}]},{"lat":"37.339503756","long":"127.07124463","imageIndex":16,"items":[{"name":"주식회사아뜰리에영어키즈어학원","tel":"031-897-0057","addr":"경기도 용인시 수지구 동천동 556-18번지 101호","indutype":"학원 - 외국어학원","category":"study"}]},{"lat":"37.332812692","long":"127.09293711","imageIndex":16,"items":[{"name":"지식과수원","tel":"031-262-0910","addr":"경기도 용인시 수지구 동천동 282-4번지 3층","indutype":"학원 - 기타 교육기관","category":"study"},{"name":"퍼스트학원","tel":"031-263-1975","addr":"경기도 용인시 수지구 동천동 282-4번지","indutype":"학원 - 보습학원","category":"study"}]},{"lat":"37.339314533","long":"127.09743616","imageIndex":16,"items":[{"name":"코넷수학학원","tel":"031-276-4881","addr":"경기도 용인시 수지구 동천동 361-1번지 3층","indutype":"학원 - 보습학원","category":"study"}]},{"lat":"37.342816037","long":"127.06085398","imageIndex":16,"items":[{"name":"클럽에스제이(Club SJ)","tel":"031-896-0222","addr":"경기도 용인시 수지구 동천동 621번지","indutype":"학원 - 기타 교육기관","category":"study"}]},{"lat":"37.335889289","long":"127.08734384","imageIndex":16,"items":[{"name":"팩토수학공부방","tel":"031-667-8428","addr":"경기도 용인시 수지구 동천동 935번지 한빛마을래미안이스트팰리스1단지","indutype":"학원 - 기타 교육기관","category":"study"}]},{"lat":"37.341095651","long":"127.10099315","imageIndex":16,"items":[{"name":"플라톤체대입시 용인캠퍼스","tel":"031-261-7045","addr":"경기도 용인시 수지구 동천동 181-2번지 신영프라자 제지 1층 제비 01호","indutype":"학원 - 예·체능계학원","category":"study"}]},{"lat":"37.335373462","long":"127.0904351","imageIndex":16,"items":[{"name":"플래뮤수지점미술학원","tel":"031-262-8520","addr":"경기도 용인시 수지구 동천동 946-8번지 5층","indutype":"학원 - 예·체능계학원","category":"study"}]},{"lat":"37.335650983","long":"127.09282765","imageIndex":16,"items":[{"name":"피오미술교습소","tel":"","addr":"경기도 용인시 수지구 동천동 874-2번지 두부하우스 101호","indutype":"학원 - 예·체능계학원","category":"study"}]},{"lat":"37.340927099","long":"127.09775416","imageIndex":16,"items":[{"name":"홍익모라니미술","tel":"031-272-0032","addr":"경기도 용인시 수지구 동천동 914번지 동천마을동문굿모닝힐5차 512동 101호","indutype":"학원 - 보습학원","category":"study"}]}]