[{"lat":"37.299302025","long":"127.58522033","imageIndex":17,"items":[{"name":"경기농기계","tel":"031-884-8949","addr":"경기도 여주시 능서면 번도리 516-5번지","indutype":"수리서비스 - 기타수리서비스","category":"other"}]},{"lat":"37.299634064","long":"127.57253449","imageIndex":17,"items":[{"name":"광고뱅크","tel":"031-883-8355","addr":"경기도 여주시 능서면 번도리 512-3번지","indutype":"용역 서비스 - 종합용역","category":"other"}]},{"lat":"37.299324119","long":"127.57514877","imageIndex":17,"items":[{"name":"능서꽃화원","tel":"031-884-4388","addr":"경기도 여주시 능서면 번도리 485번지","indutype":"문화.취미 - 화원","category":"other"}]},{"lat":"37.299134422","long":"127.57524884","imageIndex":17,"items":[{"name":"능서농협 영농자재센타","tel":"031-882-4376","addr":"경기도 여주시 능서면 번도리 485번지 능서농협미곡종합처리장","indutype":"농업 - 비료,사료,종자","category":"other"}]},{"lat":"37.299435717","long":"127.56691627","imageIndex":17,"items":[{"name":"능서농협농기계 종합지원센타","tel":"031-882-3320","addr":"경기도 여주시 능서면 번도리 861-14번지 1층","indutype":"수리서비스 - 기타수리서비스","category":"other"}]},{"lat":"37.300161785","long":"127.57333925","imageIndex":17,"items":[{"name":"능서면사무소","tel":"031-887-3862","addr":"경기도 여주시 능서면 번도리 502-3번지 1층 능서면사무소","indutype":"용역 서비스 - 사무서비스","category":"other"}]},{"lat":"37.301470626","long":"127.58944406","imageIndex":17,"items":[{"name":"대성씽크","tel":"031-884-3344","addr":"경기도 여주시 능서면 번도리 103-2번지","indutype":"주방용구 - 주방용구","category":"other"}]},{"lat":"37.300608817","long":"127.58880576","imageIndex":17,"items":[{"name":"땀의보석(Sweat jewel)","tel":"031-882-5041","addr":"경기도 여주시 능서면 번도리 98번지","indutype":"회원제형태 - 기타1","category":"other"}]},{"lat":"37.300136596","long":"127.57108333","imageIndex":17,"items":[{"name":"문도방","tel":"031-882-4955","addr":"경기도 여주시 능서면 번도리 409-11번지","indutype":"문화.취미 - 민예·공예품","category":"other"}]},{"lat":"37.298270362","long":"127.6005848","imageIndex":17,"items":[{"name":"삼익피아노여주점","tel":"031-881-3700","addr":"경기도 여주시 능서면 번도리 887-35번지","indutype":"레져용품 - 악기점","category":"other"}]},{"lat":"37.29885827","long":"127.58750644","imageIndex":17,"items":[{"name":"세븐일레븐여주중부대로점","tel":"","addr":"경기도 여주시 능서면 번도리 171-4번지","indutype":"유통업 영리 - 편 의 점","category":"other"},{"name":"세븐일레븐중부대로점","tel":"031-1577-0711","addr":"경기도 여주시 능서면 번도리 171-4번지","indutype":"유통업 영리 - 편 의 점","category":"other"}]},{"lat":"37.2987454242","long":"127.5974982638","imageIndex":17,"items":[{"name":"신용종합설비","tel":"031-884-4920","addr":"경기도 여주시 능서면 번도리 918-100번지","indutype":"건축자재 - 보일러·펌프·샷시","category":"other"}]},{"lat":"37.298049803","long":"127.59786497","imageIndex":17,"items":[{"name":"씨유여주번도리점","tel":"031-882-0043","addr":"경기도 여주시 능서면 번도리 918-164번지 1층","indutype":"유통업 영리 - 편 의 점","category":"other"}]},{"lat":"37.297381663","long":"127.59814167","imageIndex":17,"items":[{"name":"참솔인테리어","tel":"031-881-2704","addr":"경기도 여주시 능서면 번도리 918-32번지","indutype":"건축자재 - 인테리어전문","category":"other"}]},{"lat":"37.300078401","long":"127.59580568","imageIndex":17,"items":[{"name":"코리아텐트","tel":"031-881-6704","addr":"경기도 여주시 능서면 번도리 918-221번지","indutype":"건축자재 - 기타건축자재","category":"other"}]},{"lat":"37.300799808","long":"127.58844632","imageIndex":17,"items":[{"name":"헬리오넷","tel":"031-881-4291","addr":"경기도 여주시 능서면 번도리 94-1번지","indutype":"전기제품 - 기타전기제품","category":"other"}]}]