[{"lat":"37.115618073","long":"126.91273592","imageIndex":7,"items":[{"name":"김충열 과자점","tel":"031-8445-0059","addr":"경기도 화성시 향남읍 하길리 1467-3번지","indutype":"음료식품 - 제과점","category":"food"},{"name":"빵사부식빵공방","tel":"02-1577-0475","addr":"경기도 화성시 향남읍 하길리 1467-3번지 106호","indutype":"음료식품 - 제과점","category":"food"}]},{"lat":"37.118088875","long":"126.91529839","imageIndex":7,"items":[{"name":"더스윗타임","tel":"","addr":"경기도 화성시 향남읍 하길리 1459-8번지 1층 102호","indutype":"음료식품 - 기타음료식품","category":"food"}]},{"lat":"37.105114515","long":"126.91638206","imageIndex":7,"items":[{"name":"둘다섯농장","tel":"031-366-5164","addr":"경기도 화성시 향남읍 하길리 389-13번지","indutype":"음료식품 - 농·축·수산품","category":"food"}]},{"lat":"37.116393632","long":"126.91360136","imageIndex":7,"items":[{"name":"떡마을","tel":"031-353-1653","addr":"경기도 화성시 향남읍 하길리 1467번지 112호","indutype":"음료식품 - 제과점","category":"food"}]},{"lat":"37.115616367","long":"126.9105194","imageIndex":7,"items":[{"name":"뚜레쥬르 향남로데오점","tel":"031-359-8490","addr":"경기도 화성시 향남읍 하길리 1472-2번지 연세메디칼프라자 1동106호,107호","indutype":"음료식품 - 제과점","category":"food"}]},{"lat":"37.115032012","long":"126.91224155","imageIndex":7,"items":[{"name":"리앤김","tel":"031-366-1003","addr":"경기도 화성시 향남읍 하길리 1470-2번지 511호","indutype":"건강식품 - 기타건강식품","category":"food"},{"name":"마카블리","tel":"","addr":"경기도 화성시 향남읍 하길리 1470-2번지 1동 2층 203호(케이티시네마원)","indutype":"음료식품 - 기타음료식품","category":"food"},{"name":"종로떡집","tel":"031-353-7991","addr":"경기도 화성시 향남읍 하길리 1470-2번지 112호","indutype":"음료식품 - 제과점","category":"food"}]},{"lat":"37.118062374","long":"126.91601853","imageIndex":7,"items":[{"name":"막내딸집건어물 (화성향남점)","tel":"","addr":"경기도 화성시 향남읍 하길리 1456-2번지 103호","indutype":"음료식품 - 농·축·수산품","category":"food"}]},{"lat":"37.114807041","long":"126.91262437","imageIndex":7,"items":[{"name":"베스킨라빈스(향남2호점)","tel":"031-366-1339","addr":"경기도 화성시 향남읍 하길리 1470-4번지 108호","indutype":"음료식품 - 제과점","category":"food"}]},{"lat":"37.116728653","long":"126.91579502","imageIndex":7,"items":[{"name":"소중한반찬","tel":"031-354-2911","addr":"경기도 화성시 향남읍 하길리 1452-5번지 1층","indutype":"음료식품 - 기타음료식품","category":"food"}]},{"lat":"37.116643871","long":"126.91091195","imageIndex":7,"items":[{"name":"슈케익하우스","tel":"031-366-4817","addr":"경기도 화성시 향남읍 하길리 1465-1번지 107호","indutype":"음료식품 - 제과점","category":"food"},{"name":"싱싱회종합어시장","tel":"031-353-8862","addr":"경기도 화성시 향남읍 하길리 1465-1번지 110,111호","indutype":"음료식품 - 기타음료식품","category":"food"}]},{"lat":"37.115779945","long":"126.91231942","imageIndex":7,"items":[{"name":"아이스크림 할인점 (향남점)","tel":"070-997-9970","addr":"경기도 화성시 향남읍 하길리 1467-4번지 테라스뷰 101호","indutype":"음료식품 - 기타음료식품","category":"food"}]},{"lat":"37.117448938","long":"126.91504033","imageIndex":7,"items":[{"name":"오네시모베이커리카페","tel":"031-352-0808","addr":"경기도 화성시 향남읍 하길리 1458-11번지 1층 103,104호","indutype":"음료식품 - 제과점","category":"food"},{"name":"쪼미카롱","tel":"","addr":"경기도 화성시 향남읍 하길리 1458-11번지 102호","indutype":"음료식품 - 기타음료식품","category":"food"}]},{"lat":"37.087477443","long":"126.91180199","imageIndex":7,"items":[{"name":"와이엠지 인터내셔널","tel":"","addr":"경기도 화성시 향남읍 하길리 1410-2번지 화성라일플로리스3차 18층 1806호","indutype":"음료식품 - 기타음료식품","category":"food"}]},{"lat":"37.114697662","long":"126.91099307","imageIndex":7,"items":[{"name":"우리축산","tel":"031-366-6665","addr":"경기도 화성시 향남읍 하길리 1471-4번지 103-2호","indutype":"음료식품 - 정육점","category":"food"},{"name":"파리바게뜨 향남2지구점","tel":"031-353-7032","addr":"경기도 화성시 향남읍 하길리 1471-4번지","indutype":"음료식품 - 제과점","category":"food"}]},{"lat":"37.115283667","long":"126.91140866","imageIndex":7,"items":[{"name":"위드조이","tel":"031-352-5537","addr":"경기도 화성시 향남읍 하길리 1472-5번지 골든프라자 207호","indutype":"음료식품 - 기타음료식품","category":"food"}]},{"lat":"37.116500536","long":"126.91199227","imageIndex":7,"items":[{"name":"장바구니","tel":"031-366-0300","addr":"경기도 화성시 향남읍 하길리 1466번지 110호","indutype":"음료식품 - 농·축·수산품","category":"food"}]},{"lat":"37.108063576","long":"126.92004629","imageIndex":7,"items":[{"name":"정성유통","tel":"031-294-7050","addr":"경기도 화성시 향남읍 하길리 1297번지","indutype":"음료식품 - 기타음료식품","category":"food"}]},{"lat":"37.116890867","long":"126.91582859","imageIndex":7,"items":[{"name":"제이제이 (JJ)달콩","tel":"031-111-1111","addr":"경기도 화성시 향남읍 하길리 1452-6번지 1층 104호","indutype":"음료식품 - 기타음료식품","category":"food"}]},{"lat":"37.118171164","long":"126.9169298","imageIndex":7,"items":[{"name":"축산할인마트 정원축산","tel":"031-8059-3258","addr":"경기도 화성시 향남읍 하길리 1448-3번지 101호","indutype":"음료식품 - 정육점","category":"food"}]},{"lat":"37.117639707","long":"126.91715543","imageIndex":7,"items":[{"name":"카페리무커피랩","tel":"031-111-1111","addr":"경기도 화성시 향남읍 하길리 1449-3번지 101호","indutype":"음료식품 - 기타음료식품","category":"food"}]},{"lat":"37.118395902","long":"126.91620943","imageIndex":7,"items":[{"name":"파리바게트 향남부영 사랑점","tel":"070-4134-2357","addr":"경기도 화성시 향남읍 하길리 1460-6번지 1층","indutype":"음료식품 - 제과점","category":"food"}]},{"lat":"37.116977599","long":"126.91135036","imageIndex":7,"items":[{"name":"행운플러스","tel":"031-354-3321","addr":"경기도 화성시 향남읍 하길리 1465번지 115호","indutype":"음료식품 - 기타음료식품","category":"food"}]}]