[{"lat":"37.349703191","long":"126.95230842","imageIndex":17,"items":[{"name":"(사)한국척수장애인협회디지털인쇄사업소","tel":"031-429-8418","addr":"경기도 군포시 당정동 522번지 SK벤티움 104동 105호","indutype":"서적문구 - 출판 및 인쇄물","category":"other"},{"name":"(주)베스콘","tel":"031-455-7600","addr":"경기도 군포시 당정동 522번지 SK벤티움 104동 1001호","indutype":"전기제품 - 기타전기제품","category":"other"},{"name":"(주)스매싱스포츠","tel":"031-427-1787","addr":"경기도 군포시 당정동 522번지 SK벤티움 104동 506호","indutype":"레져용품 - 스포츠·레져용품","category":"other"},{"name":"(주)코마틱코리아/원격지","tel":"02-574-9345","addr":"경기도 군포시 당정동 522번지 SK벤티움 104동 1112호","indutype":"기타 - 기타 전문점","category":"other"},{"name":"(주)하일(Hail Co. Ltd.)","tel":"031-477-4142","addr":"경기도 군포시 당정동 522번지 SK벤티움 104동 403호","indutype":"전기제품 - 가전제품","category":"other"},{"name":"대승WIRE TECH","tel":"031-454-2949","addr":"경기도 군포시 당정동 522번지 SK벤티움 104동 B101호","indutype":"기타 - 기계공구","category":"other"},{"name":"비오비네이처주식회사","tel":"031-456-0365","addr":"경기도 군포시 당정동 522번지 SK벤티움 104동 1109호","indutype":"회원제형태 - 기타1","category":"other"},{"name":"주식회사일루코","tel":"031-429-8825","addr":"경기도 군포시 당정동 522번지 SK벤티움 104동 505호","indutype":"광학제품 - 기타광학제품","category":"other"},{"name":"주식회사제네시스","tel":"031-476-4033","addr":"경기도 군포시 당정동 522번지 SK벤티움 104동 1101호","indutype":"서적문구 - 과학기자재","category":"other"},{"name":"주식회사코스파인/원격지","tel":"031-436-0940","addr":"경기도 군포시 당정동 522번지 군포에스케이벤티움 104동 705호","indutype":"기타 - 기타 전문점","category":"other"},{"name":"프로스테크","tel":"031-508-6667","addr":"경기도 군포시 당정동 522번지 외2필지SK벤티움 104동 1101호","indutype":"서적문구 - 과학기자재","category":"other"},{"name":"효성인쇄문화사","tel":"031-395-8600","addr":"경기도 군포시 당정동 522번지 SK벤티움 104동 1106호","indutype":"서적문구 - 출판 및 인쇄물","category":"other"}]},{"lat":"37.34967675","long":"126.95370793","imageIndex":17,"items":[{"name":"(주) 네오하이테크","tel":"031-689-3389","addr":"경기도 군포시 당정동 1045번지 군포IT밸리 A동 24층 2403호","indutype":"기타 - 기계공구","category":"other"},{"name":"(주)글로벌이테크","tel":"031-8086-8251","addr":"경기도 군포시 당정동 1045번지 군포IT밸리 A동 1601호","indutype":"사무통신 - 통신기기","category":"other"},{"name":"(주)디웰전자","tel":"031-8235-0820","addr":"경기도 군포시 당정동 1045번지 군포아이티밸리 A동 1003호","indutype":"전기제품 - 기타전기제품","category":"other"},{"name":"(주)세이프스퀘어","tel":"02-6951-3999","addr":"경기도 군포시 당정동 1045번지 군포IT밸리 2601-2호","indutype":"용역 서비스 - 소프트웨어","category":"other"},{"name":"(주)어퓨커뮤니케이션즈","tel":"031-689-5081","addr":"경기도 군포시 당정동 1045번지 군포아이티밸리 A동 1605호","indutype":"유통업 영리 - 기타유통업","category":"other"},{"name":"(주)에스엔엘코리아","tel":"031-468-4668","addr":"경기도 군포시 당정동 1045번지 군포IT밸리 A동 805호","indutype":"서적문구 - 과학기자재","category":"other"},{"name":"(주)에이치엔비(H&B lnc)","tel":"031-689-4741","addr":"경기도 군포시 당정동 1045번지 군포아이티밸리 A동 2601-2호","indutype":"전기제품 - 기타전기제품","category":"other"},{"name":"(주)예가커뮤니케이션","tel":"02-1577-6605","addr":"경기도 군포시 당정동 1045번지 군포아이티밸리 B동 1604호","indutype":"서적문구 - 출판 및 인쇄물","category":"other"},{"name":"(주)유니온소프트","tel":"031-1566-4261","addr":"경기도 군포시 당정동 1045번지 군포아이티밸리 3층 310호","indutype":"용역 서비스 - 소프트웨어","category":"other"},{"name":"(주)유니콘기연","tel":"031-479-2171","addr":"경기도 군포시 당정동 1045번지 군포아이티밸리 204호","indutype":"용역 서비스 - 기타용역서비스","category":"other"},{"name":"(주)이브이레이저","tel":"031-452-9860","addr":"경기도 군포시 당정동 1045번지 (313,313-1,317호)","indutype":"기타 - 기계공구","category":"other"},{"name":"(주)인텍이앤씨","tel":"031-454-9315","addr":"경기도 군포시 당정동 1045번지 군포IT밸리A동 1401-1408호 A동 1401호","indutype":"사무통신 - 통신기기","category":"other"},{"name":"(주)정연시스템","tel":"031-454-7250","addr":"경기도 군포시 당정동 1045번지 군포아이티밸리 A동 1602호","indutype":"기타 - 기계공구","category":"other"},{"name":"(주)케이엠비앤센서","tel":"02-875-1206","addr":"경기도 군포시 당정동 1045번지 군포아이티밸리 10층 제비1008호","indutype":"기타 - 기타 전문점","category":"other"},{"name":"(주)티피이솔루션","tel":"031-8059-0917","addr":"경기도 군포시 당정동 1045번지 20층 비-2008호","indutype":"직물 - 기타직물","category":"other"},{"name":"(주)희연프라자","tel":"031-8068-2090","addr":"경기도 군포시 당정동 1045번지 군포아이티밸리 상가 114호","indutype":"사무통신 - 통신기기","category":"other"},{"name":"SKL SYSTEM","tel":"070-5056-4093","addr":"경기도 군포시 당정동 1045번지 군포아이티밸리 A동 1906호","indutype":"기타 - 기계공구","category":"other"},{"name":"기가넷","tel":"031-391-1198","addr":"경기도 군포시 당정동 1045번지 군포아이티밸리 1층 114호","indutype":"사무통신 - 컴퓨터","category":"other"},{"name":"노바테크인터스트리(주)","tel":"031-387-5727","addr":"경기도 군포시 당정동 1045번지 군포아이티밸리 511호 군포아이티밸리","indutype":"전기제품 - 기타전기제품","category":"other"},{"name":"대성사무용가구","tel":"031-458-4210","addr":"경기도 군포시 당정동 1045번지 군포IT밸리 1층 124호","indutype":"가구 - 일반가구","category":"other"},{"name":"대호실업","tel":"031-429-8627","addr":"경기도 군포시 당정동 1045번지 군포IT밸리 210호","indutype":"기타 - 기계공구","category":"other"},{"name":"드림디포 군포아이티밸리점","tel":"031-8068-1238","addr":"경기도 군포시 당정동 1045번지 110, 107-110호 군포IT밸리상가","indutype":"서적문구 - 문구용품","category":"other"},{"name":"라온과학주식회사","tel":"031-477-7263","addr":"경기도 군포시 당정동 1045번지 군포아이티밸리 A동 1707호","indutype":"서적문구 - 과학기자재","category":"other"},{"name":"미래인터내셔널","tel":"031-395-4020","addr":"경기도 군포시 당정동 1045번지 외1필지 군포IT밸리 B동 907호","indutype":"기타 - 기계공구","category":"other"},{"name":"미래인터내셔널 주식회사","tel":"031-395-0420","addr":"경기도 군포시 당정동 1045번지 군포아이티밸리 B동 907호","indutype":"기타 - 기계공구","category":"other"},{"name":"바스테크(VASTECH)","tel":"070-8260-8258","addr":"경기도 군포시 당정동 1045번지 군포아이티밸리 711호 군포아이티밸리","indutype":"사무통신 - 컴퓨터","category":"other"},{"name":"블랙캣","tel":"070-7826-1770","addr":"경기도 군포시 당정동 1045번지 군포아이티밸리 A동 3102호","indutype":"유통업 영리 - 기타유통업","category":"other"},{"name":"상신기기상사","tel":"031-8086-7188","addr":"경기도 군포시 당정동 1045번지 군포아이티밸리 A동 2107호","indutype":"전기제품 - 기타전기제품","category":"other"},{"name":"서울기어","tel":"031-442-2836","addr":"경기도 군포시 당정동 1045번지 군포IT밸리 A동 403호","indutype":"전기제품 - 기타전기제품","category":"other"},{"name":"세아테크","tel":"070-8747-8995","addr":"경기도 군포시 당정동 1045번지 군포아이티밸리 B동 17층 1706호","indutype":"기타 - 기계공구","category":"other"},{"name":"씨유군포아이티벨리점","tel":"031-349-5057","addr":"경기도 군포시 당정동 1045번지 군포IT밸리 1층 101호","indutype":"유통업 영리 - 편 의 점","category":"other"},{"name":"아로조각","tel":"031-8068-2011","addr":"경기도 군포시 당정동 1045번지 군포아이티밸리 상가 106호","indutype":"문화.취미 - 화랑","category":"other"},{"name":"아이콘 옵틱스","tel":"031-459-5760","addr":"경기도 군포시 당정동 1045번지 군포아이티밸리 B동 1108호","indutype":"광학제품 - 기타광학제품","category":"other"},{"name":"아톰이엔지(ENG)","tel":"031-8086-8160","addr":"경기도 군포시 당정동 1045번지 군포아이티밸리 B동 902호","indutype":"기타 - 기계공구","category":"other"},{"name":"워터스생활환경연구소","tel":"031-689-3231","addr":"경기도 군포시 당정동 1045번지 군포IT밸리 A동 1204호","indutype":"용역 서비스 - 사무서비스","category":"other"},{"name":"이레정광","tel":"031-8086-7100","addr":"경기도 군포시 당정동 1045번지 군포아이티밸리 A동 107호","indutype":"용역 서비스 - 종합용역","category":"other"},{"name":"이모션메이커(Emotion Maker)","tel":"031-689-5503","addr":"경기도 군포시 당정동 1045번지 군포아이티밸리 A동 지하 311호","indutype":"의류 - 아동의류","category":"other"},{"name":"제이애드컴","tel":"031-441-1908","addr":"경기도 군포시 당정동 1045번지 군포IT밸리 708호","indutype":"서적문구 - 출판 및 인쇄물","category":"other"},{"name":"주식회사 나무","tel":"02-806-1300","addr":"경기도 군포시 당정동 1045번지 군포아이티밸리 B동 1605호","indutype":"서적문구 - 과학기자재","category":"other"},{"name":"주식회사 노아텍","tel":"031-8068-1002","addr":"경기도 군포시 당정동 1045번지 군포IT밸리 723호","indutype":"건축자재 - 조명기구","category":"other"},{"name":"주식회사 누리테크","tel":"031-8068-1003","addr":"경기도 군포시 당정동 1045번지 군포IT밸리 B동 804호","indutype":"전기제품 - 기타전기제품","category":"other"},{"name":"주식회사 델타에프엔지","tel":"031-689-3577","addr":"경기도 군포시 당정동 1045번지 군포아이티밸리 에이동 2701-2호","indutype":"레져용품 - 스포츠·레져용품","category":"other"},{"name":"주식회사 씨큐비젼텍","tel":"031-8084-3540","addr":"경기도 군포시 당정동 1045번지 군포IT밸리 B동 1204호","indutype":"전기제품 - 기타전기제품","category":"other"},{"name":"주식회사 아톰이엔지","tel":"031-8086-8160","addr":"경기도 군포시 당정동 1045번지 군포IT밸리 B동 902호","indutype":"기타 - 기계공구","category":"other"},{"name":"주식회사 엔솔파트너스","tel":"031-8086-7230","addr":"경기도 군포시 당정동 1045번지 군포아이티밸리 705호","indutype":"용역 서비스 - 기타용역서비스","category":"other"},{"name":"주식회사 엘로코","tel":"031-427-9203","addr":"경기도 군포시 당정동 1045번지 군포아이티밸리 A동 1808호","indutype":"주방용구 - 주방용구","category":"other"},{"name":"주식회사 엠엘랩프랜즈","tel":"031-477-5713","addr":"경기도 군포시 당정동 1045번지 군포IT밸리 지하1층 119호","indutype":"서적문구 - 과학기자재","category":"other"},{"name":"주식회사 포스버","tel":"031-295-9057","addr":"경기도 군포시 당정동 1045번지 군포IT밸리 B동 1505호","indutype":"용역 서비스 - 기타용역서비스","category":"other"},{"name":"주식회사 하이엘텍","tel":"031-451-2314","addr":"경기도 군포시 당정동 1045번지 군포아이티밸리 A동 1208호","indutype":"전기제품 - 기타전기제품","category":"other"},{"name":"주식회사 화인엠티","tel":"031-267-2607","addr":"경기도 군포시 당정동 1045번지 군포아이티밸리 A동 2501~2508호","indutype":"전기제품 - 기타전기제품","category":"other"},{"name":"주식회사사마스이앤지","tel":"070-4106-3002","addr":"경기도 군포시 당정동 1045번지 군포IT밸리 109호","indutype":"전기제품 - 냉열기기","category":"other"},{"name":"주식회사스타아이앤씨","tel":"070-4694-1112","addr":"경기도 군포시 당정동 1045번지 군포IT밸리제3층제311호","indutype":"사무통신 - 통신기기","category":"other"},{"name":"주식회사인터","tel":"031-689-3542","addr":"경기도 군포시 당정동 1045번지 군포아이티밸리 A동 3204호","indutype":"가구 - 일반가구","category":"other"},{"name":"주식회사제우테크(JEUTECH Co. Ltd.)","tel":"070-7434-0474","addr":"경기도 군포시 당정동 1045번지 군포아이티밸리 B동 1105호","indutype":"전기제품 - 기타전기제품","category":"other"},{"name":"주식회사케이에이치티엔지니어링","tel":"02-2683-0987","addr":"경기도 군포시 당정동 1045번지 군포아이티밸리 110호","indutype":"서적문구 - 과학기자재","category":"other"},{"name":"주식회사한울엔지니어링","tel":"031-479-5272","addr":"경기도 군포시 당정동 1045번지 군포아이티밸리 713호","indutype":"서적문구 - 과학기자재","category":"other"},{"name":"주식회사한울엔지니어링/원격지","tel":"031-479-5272","addr":"경기도 군포시 당정동 1045번지 군포아이티밸리 713호","indutype":"기타 - 기타 전문점","category":"other"},{"name":"켈론 주식회사","tel":"031-8086-8281","addr":"경기도 군포시 당정동 1045번지 아이티밸리 A동 1108호","indutype":"서적문구 - 과학기자재","category":"other"}]},{"lat":"37.365589761","long":"126.95639552","imageIndex":17,"items":[{"name":"(주) 더윈테크","tel":"031-689-3447","addr":"경기도 군포시 당정동 2-3번지 군포신일IT유토 501호","indutype":"신변잡화 - 기타잡화","category":"other"},{"name":"(주)국제통신","tel":"","addr":"경기도 군포시 당정동 2-3번지 신일IT유토지식산업센터 602호","indutype":"전기제품 - 기타전기제품","category":"other"},{"name":"(주)덕산교역","tel":"031-444-0933","addr":"경기도 군포시 당정동 2-3번지 신일IT유토지식산업센터 B동 106호","indutype":"기타 - 기계공구","category":"other"},{"name":"(주)동영에프에이","tel":"031-429-2816","addr":"경기도 군포시 당정동 2-3번지 신일IT유토지식산업센터 S동 201호","indutype":"기타 - 기계공구","category":"other"},{"name":"(주)베스트마킹","tel":"062-383-4819","addr":"경기도 군포시 당정동 2-3번지 신일IT유토지식산업센터 304호","indutype":"기타 - 기계공구","category":"other"},{"name":"(주)코엘","tel":"031-429-4301","addr":"경기도 군포시 당정동 2-3번지 신일IT유토지식산업센터 12층 1205호","indutype":"전기제품 - 기타전기제품","category":"other"},{"name":"(주)하이디스플레이","tel":"031-427-9089","addr":"경기도 군포시 당정동 2-3번지 신일아이티유토지식산업센터 5층","indutype":"사무통신 - 컴퓨터","category":"other"},{"name":"ES","tel":"031-396-3308","addr":"경기도 군포시 당정동 2-3번지 S-101호 신일IT유토","indutype":"신변잡화 - 기타잡화","category":"other"},{"name":"IGA 신일IT점","tel":"031-768-0708","addr":"경기도 군포시 당정동 2-3번지 신일아이티유토지식산업센터 1층 S102호","indutype":"유통업 영리 - 편 의 점","category":"other"},{"name":"다큐페이스 신일IT점","tel":"031-456-7452","addr":"경기도 군포시 당정동 2-3번지 2층 S-201호","indutype":"서적문구 - 출판 및 인쇄물","category":"other"},{"name":"리베독일","tel":"031-851-0853","addr":"경기도 군포시 당정동 2-3번지 신일IT유토지식산업센터 712호","indutype":"주방용구 - 주방용구","category":"other"},{"name":"세븐일레븐군포신일타워점","tel":"","addr":"경기도 군포시 당정동 2-3번지 신일아이티유토지식산업센터 S동 102호","indutype":"유통업 영리 - 편 의 점","category":"other"},{"name":"신원카툴스","tel":"031-479-0049","addr":"경기도 군포시 당정동 2-3번지 409호 (신일IT유토지식산업센터, 당정동)","indutype":"기타 - 기계공구","category":"other"},{"name":"에이엔티주식회사","tel":"031-456-6886","addr":"경기도 군포시 당정동 2-3번지 에스동신일IT유토지식산업센터 202호","indutype":"기타 - 기계공구","category":"other"},{"name":"에이피 코퍼레이션","tel":"031-380-4260","addr":"경기도 군포시 당정동 2-3번지 신일아이티유토지식산업센터 505호","indutype":"전기제품 - 기타전기제품","category":"other"},{"name":"엠아이시스템","tel":"031-000-0000","addr":"경기도 군포시 당정동 2-3번지 S202호","indutype":"기타 - 기계공구","category":"other"},{"name":"오피스넥스 군포의왕점","tel":"031-427-2668","addr":"경기도 군포시 당정동 2-3번지 신일IT유토지식산업센터 S동 203호","indutype":"서적문구 - 문구용품","category":"other"},{"name":"이디텍","tel":"070-4365-7625","addr":"경기도 군포시 당정동 2-3번지 신일아이티유토지식산업센터 6동 609호","indutype":"전기제품 - 기타전기제품","category":"other"},{"name":"일신전자","tel":"031-609-9980","addr":"경기도 군포시 당정동 2-3번지 신일아이티유토지식산업센터 9층 905호","indutype":"사무통신 - 통신기기","category":"other"},{"name":"제이 일렉트릭","tel":"031-397-1545","addr":"경기도 군포시 당정동 2-3번지 신일IT유토지식산업센터 1403호","indutype":"전기제품 - 가전제품","category":"other"},{"name":"주식회사 다윈","tel":"031-459-5517","addr":"경기도 군포시 당정동 2-3번지 신일IT유토 703호","indutype":"전기제품 - 기타전기제품","category":"other"},{"name":"주식회사 마토코리아","tel":"031-427-8743","addr":"경기도 군포시 당정동 2-3번지 신일IT유토지식산업센터 305호","indutype":"기타 - 기계공구","category":"other"},{"name":"주식회사 윈스테크","tel":"031-427-1095","addr":"경기도 군포시 당정동 2-3번지 신일아이티유토지식산업센터 403호","indutype":"기타 - 기계공구","category":"other"},{"name":"주식회사 제이컴퍼니","tel":"031-000-0000","addr":"경기도 군포시 당정동 2-3번지 신일IT유토지식산업센터 509호","indutype":"전기제품 - 기타전기제품","category":"other"},{"name":"주식회사 코비엣인터내셔널","tel":"070-4488-6194","addr":"경기도 군포시 당정동 2-3번지 신일아이티유토 1303호","indutype":"용역 서비스 - 사무서비스","category":"other"},{"name":"주식회사 텔레스타","tel":"031-435-0226","addr":"경기도 군포시 당정동 2-3번지 신일IT유토지식산업센터 1010호","indutype":"사무통신 - 통신기기","category":"other"},{"name":"주식회사엘지에스","tel":"031-689-4684","addr":"경기도 군포시 당정동 2-3번지 신일IT유토지식산업센터 607호","indutype":"전기제품 - 기타전기제품","category":"other"},{"name":"주식회사재원","tel":"031-477-7333","addr":"경기도 군포시 당정동 2-3번지 신일아이티유토 509호","indutype":"기타 - 기계공구","category":"other"},{"name":"주식회사제이더스화학","tel":"031-382-5553","addr":"경기도 군포시 당정동 2-3번지 신일IT유토지식산업센터 2층 S-202호","indutype":"서적문구 - 과학기자재","category":"other"},{"name":"주식회사피디에이치","tel":"070-4659-0788","addr":"경기도 군포시 당정동 2-3번지 신일군포아이티유토지식산업센터 502호","indutype":"전기제품 - 기타전기제품","category":"other"},{"name":"하비인사이드","tel":"031-689-4660","addr":"경기도 군포시 당정동 2-3번지 군포산원IT유토410호~411호 410호","indutype":"서적문구 - 완구점","category":"other"},{"name":"한국공조기술개발(주)","tel":"031-689-4333","addr":"경기도 군포시 당정동 2-3번지 신일IT유토지식산업센터101,102,103,104호","indutype":"전기제품 - 기타전기제품","category":"other"}]},{"lat":"37.36277902","long":"126.95748092","imageIndex":17,"items":[{"name":"(주) 삼광특수강","tel":"031-454-3468","addr":"경기도 군포시 당정동 18-18","indutype":"기타 - 기계공구","category":"other"}]},{"lat":"37.34728068","long":"126.95525565","imageIndex":17,"items":[{"name":"(주) 에프티씨","tel":"031-451-0761","addr":"경기도 군포시 당정동 35블럭7.8롯트비젼프라자4층","indutype":"사무통신 - 통신기기","category":"other"},{"name":"대한법무사사무소","tel":"031-429-0692","addr":"경기도 군포시 당정동 970-7번지 비젼프라자 201-2호","indutype":"용역 서비스 - 법률회계서비스(개인)","category":"other"}]},{"lat":"37.34939049","long":"126.95895618","imageIndex":17,"items":[{"name":"(주)가남개발","tel":"031-427-3855","addr":"경기도 군포시 당정동 405-2번지","indutype":"기타 - 기타 전문점","category":"other"},{"name":"(주)한성기공","tel":"031-459-4500","addr":"경기도 군포시 당정동 405-2번지","indutype":"기타 - 기계공구","category":"other"}]},{"lat":"37.355001215","long":"126.95242902","imageIndex":17,"items":[{"name":"(주)고도기연","tel":"031-457-6100","addr":"경기도 군포시 당정동 321-1번지","indutype":"서적문구 - 과학기자재","category":"other"},{"name":"(주)라셀코리아","tel":"","addr":"경기도 군포시 당정동 321-1번지 2층","indutype":"기타 - 기타 전문점","category":"other"},{"name":"대일전자","tel":"031-451-2738","addr":"경기도 군포시 당정동 321-1번지","indutype":"전기제품 - 기타전기제품","category":"other"}]},{"lat":"37.350506926","long":"126.95678855","imageIndex":17,"items":[{"name":"(주)공진","tel":"031-453-8335","addr":"경기도 군포시 당정동 429-2번지","indutype":"기타 - 기계공구","category":"other"}]},{"lat":"37.3642287","long":"126.95506433","imageIndex":17,"items":[{"name":"(주)그린라이프","tel":"031-453-8229","addr":"경기도 군포시 당정동 230-7번지 이앰솔루션스 2층","indutype":"전기제품 - 냉열기기","category":"other"}]},{"lat":"37.35292197","long":"126.95762229","imageIndex":17,"items":[{"name":"(주)나노포인트/원격지","tel":"031-454-5468","addr":"경기도 군포시 당정동 358번지 군포창업보육센터 201호","indutype":"기타 - 기타 전문점","category":"other"}]},{"lat":"37.347253884","long":"126.95584253","imageIndex":17,"items":[{"name":"(주)나래바이오테크","tel":"031-451-1094","addr":"경기도 군포시 당정동 980-1번지 유영빌딩 4층 401호","indutype":"서적문구 - 과학기자재","category":"other"}]},{"lat":"37.354227177","long":"126.95442732","imageIndex":17,"items":[{"name":"(주)누리바이오텍","tel":"031-459-9521","addr":"경기도 군포시 당정동 325-32번지 3층","indutype":"서적문구 - 과학기자재","category":"other"},{"name":"일진ENG","tel":"031-477-6025","addr":"경기도 군포시 당정동 325-32번지","indutype":"전기제품 - 기타전기제품","category":"other"}]},{"lat":"37.35686723","long":"126.9546175","imageIndex":17,"items":[{"name":"(주)다올씨앤씨","tel":"031-399-2040","addr":"경기도 군포시 당정동 181-42번지 엠테크노센터 917호","indutype":"건축자재 - 페인트","category":"other"},{"name":"(주)디지로그테크","tel":"070-4165-9051","addr":"경기도 군포시 당정동 181-42번지 207,208","indutype":"전기제품 - 기타전기제품","category":"other"},{"name":"(주)티씨엔","tel":"","addr":"경기도 군포시 당정동 181-42번지 엠테크노당정지식센터 1011호","indutype":"사무통신 - 통신기기","category":"other"},{"name":"성진하이텍","tel":"031-398-8123","addr":"경기도 군포시 당정동 181-42번지 1209호","indutype":"사무통신 - 컴퓨터","category":"other"},{"name":"씨유군포엠테크점","tel":"080-080-3663","addr":"경기도 군포시 당정동 181-42번지 C101호,C102호","indutype":"유통업 영리 - 편 의 점","category":"other"},{"name":"유원테크","tel":"","addr":"경기도 군포시 당정동 181-42번지 엠테크노지식산업센터 13층 1313호","indutype":"사무통신 - 통신기기","category":"other"},{"name":"주식회사 비엑스엘이디","tel":"031-470-2757","addr":"경기도 군포시 당정동 181-42번지 903호","indutype":"건축자재 - 조명기구","category":"other"},{"name":"주식회사 엔디트레이딩","tel":"031-451-4491","addr":"경기도 군포시 당정동 181-42번지 엠테크노센터 1012호","indutype":"전기제품 - 기타전기제품","category":"other"},{"name":"지엠","tel":"","addr":"경기도 군포시 당정동 181-42번지 M-테크노센터 802호","indutype":"용역 서비스 - 소프트웨어","category":"other"},{"name":"코아텍계측기","tel":"031-428-8959","addr":"경기도 군포시 당정동 181-42번지 엠테크노당정지식산업센터 10층 1005호","indutype":"사무통신 - 통신기기","category":"other"},{"name":"필터스/원격지","tel":"031-252-4966","addr":"경기도 군포시 당정동 181-42번지 6층 614호","indutype":"기타 - 기타 전문점","category":"other"},{"name":"한성","tel":"031-453-8345","addr":"경기도 군포시 당정동 181-42번지 M테크노센터 102호","indutype":"기타 - 기계공구","category":"other"},{"name":"한성건드릴","tel":"031-453-8345","addr":"경기도 군포시 당정동 181-42번지 M테크노센터 104호","indutype":"기타 - 기계공구","category":"other"}]},{"lat":"37.362832889","long":"126.9569842","imageIndex":17,"items":[{"name":"(주)다인텍","tel":"031-451-5886","addr":"경기도 군포시 당정동 18-20번지 1층","indutype":"기타 - 기계공구","category":"other"}]},{"lat":"37.354640035","long":"126.95064592","imageIndex":17,"items":[{"name":"(주)대흥정밀산업/원격지","tel":"031-477-2406","addr":"경기도 군포시 당정동 316번지 (주)대흥정밀산업","indutype":"기타 - 기타 전문점","category":"other"}]},{"lat":"37.351173327","long":"126.95589652","imageIndex":17,"items":[{"name":"(주)동영미디어","tel":"031-458-1121","addr":"경기도 군포시 당정동 426-1번지","indutype":"전기제품 - 가전제품","category":"other"}]},{"lat":"37.353029975","long":"126.95731749","imageIndex":17,"items":[{"name":"(주)듀라소닉","tel":"031-458-2171","addr":"경기도 군포시 당정동 357번지","indutype":"기타 - 기타 전문점","category":"other"},{"name":"(주)듀라소닉/원격지","tel":"031-458-2171","addr":"경기도 군포시 당정동 357번지","indutype":"기타 - 기타 전문점","category":"other"},{"name":"에이스진공/원격지","tel":"031-427-3309","addr":"경기도 군포시 당정동 357번지","indutype":"기타 - 기타 전문점","category":"other"}]},{"lat":"37.348748718","long":"126.95374239","imageIndex":17,"items":[{"name":"(주)드림투","tel":"02-451-2220","addr":"경기도 군포시 당정동 522번지 SK벤티움 101동 517호","indutype":"유통업 영리 - 기타유통업","category":"other"},{"name":"(주)로텍인스트루먼트/원격지","tel":"031-436-0033","addr":"경기도 군포시 당정동 522번지 SK벤티움 101동 905호","indutype":"기타 - 기타 전문점","category":"other"},{"name":"(주)모던인더스트리/원격지","tel":"031-366-2000","addr":"경기도 군포시 당정동 522번지 SK벤티음 101동 804호","indutype":"기타 - 기타 전문점","category":"other"},{"name":"(주)씨이에스/원격지","tel":"031-436-1030","addr":"경기도 군포시 당정동 522번지 SK벤티움 101동 902호","indutype":"기타 - 기타 전문점","category":"other"},{"name":"(주)알에프스타텍","tel":"031-477-2201","addr":"경기도 군포시 당정동 522번지 SK벤티움 101동 904호","indutype":"사무통신 - 통신기기","category":"other"},{"name":"(주)에이에스텍/원격지","tel":"031-436-1455","addr":"경기도 군포시 당정동 522번지 SK벤티움 101동 406호","indutype":"기타 - 기타 전문점","category":"other"},{"name":"(주)우리환경기술","tel":"031-205-0808","addr":"경기도 군포시 당정동 522번지 SK벤티움 101동 802호","indutype":"서적문구 - 과학기자재","category":"other"},{"name":"(주)우리환경기술/원격지","tel":"031-436-1701","addr":"경기도 군포시 당정동 522번지 SK벤티움 101동 802호","indutype":"기타 - 기타 전문점","category":"other"},{"name":"(주)이즈소프트/원격지","tel":"031-436-1422","addr":"경기도 군포시 당정동 522번지 SK벤티움 101동 907호","indutype":"기타 - 기타 전문점","category":"other"},{"name":"NCB","tel":"031-454-9952","addr":"경기도 군포시 당정동 522외2필지에스케이벤티움101-903","indutype":"용역 서비스 - 소프트웨어","category":"other"},{"name":"건민회계법인","tel":"031-436-1114","addr":"경기도 군포시 당정동 522번지 SK벤티움 101동 321호","indutype":"용역 서비스 - 법률회계서비스(법인)","category":"other"},{"name":"경인엔지니어링(주)","tel":"031-436-1880","addr":"경기도 군포시 당정동 522번지 SK벤티움 101동 901호","indutype":"기타 - 기타 전문점","category":"other"},{"name":"경인엔지니어링(주)/원격지","tel":"031-436-1880","addr":"경기도 군포시 당정동 522번지 SK벤티움 101동 901호","indutype":"기타 - 기타 전문점","category":"other"},{"name":"나미 앤 리빙","tel":"070-8899-1235","addr":"경기도 군포시 당정동 522번지 SK벤티움 101동 414호","indutype":"직물 - 침구·수예점","category":"other"},{"name":"드림디포 군포점","tel":"031-436-1083","addr":"경기도 군포시 당정동 522번지 SK벤티움 101동 212호","indutype":"서적문구 - 문구용품","category":"other"},{"name":"바울C&P","tel":"031-436-0486","addr":"경기도 군포시 당정동 522번지 SK벤티움 101동 213호","indutype":"사무통신 - 사무용 OA기기","category":"other"},{"name":"바이더웨이군포벤티움점","tel":"031-456-0105","addr":"경기도 군포시 당정동 522.101-215","indutype":"유통업 영리 - 편 의 점","category":"other"},{"name":"세븐일레븐군포벤티움점","tel":"031-1577-0711","addr":"경기도 군포시 당정동 522번지 SK벤티움 101동 215호","indutype":"유통업 영리 - 편 의 점","category":"other"},{"name":"아이피월드","tel":"031-436-0339","addr":"경기도 군포시 당정동 522번지 SK벤티움 101동 319호","indutype":"사무통신 - 컴퓨터","category":"other"},{"name":"엑스트로닉스주식회사","tel":"031-436-1740","addr":"경기도 군포시 당정동 522번지 SK벤티움 101동 806호","indutype":"사무통신 - 통신기기","category":"other"},{"name":"주식회사 예스골프","tel":"02-808-0707","addr":"경기도 군포시 당정동 522번지 SK벤티움 101동 505호","indutype":"레져용품 - 스포츠·레져용품","category":"other"},{"name":"주식회사 유니콘","tel":"031-457-7200","addr":"경기도 군포시 당정동 522번지 SK벤티움 101동 901호","indutype":"전기제품 - 기타전기제품","category":"other"},{"name":"주식회사제이플러스","tel":"031-477-0240","addr":"경기도 군포시 당정동 522번지 SK벤티움 101동 606호","indutype":"사무통신 - 컴퓨터","category":"other"},{"name":"태양꽃식물원","tel":"031-436-0633","addr":"경기도 군포시 당정동 522번지 SK벤티움 101동 218호","indutype":"문화.취미 - 화원","category":"other"},{"name":"필텍엔지니어링","tel":"031-357-0369","addr":"경기도 군포시 당정동 522번지 SK벤티움 101동 706호","indutype":"용역 서비스 - 기타용역서비스","category":"other"},{"name":"하이테크에어컨","tel":"031-459-4300","addr":"경기도 군포시 당정동 522번지 SK벤티움 101동 214호","indutype":"전기제품 - 가전제품","category":"other"}]},{"lat":"37.353228547","long":"126.95823159","imageIndex":17,"items":[{"name":"(주)디알테크","tel":"031-459-7527","addr":"경기도 군포시 당정동 365번지","indutype":"사무통신 - 컴퓨터","category":"other"},{"name":"(주)비젼501","tel":"031-429-6654","addr":"경기도 군포시 당정동 365번지","indutype":"용역 서비스 - 종합용역","category":"other"}]},{"lat":"37.351838603","long":"126.95231827","imageIndex":17,"items":[{"name":"(주)루쏘코리아","tel":"031-454-7898","addr":"경기도 군포시 당정동 500-2동국화공(주)군포공장내별관","indutype":"전기제품 - 기타전기제품","category":"other"},{"name":"미래중량","tel":"031-451-2100","addr":"경기도 군포시 당정동 500-2번지 1층 동국화공내","indutype":"용역 서비스 - 기타용역서비스","category":"other"},{"name":"브레인 고(GO)","tel":"031-455-2556","addr":"경기도 군포시 당정동 500-2번지 1층","indutype":"서적문구 - 일반서적","category":"other"}]},{"lat":"37.343449004","long":"126.94972828","imageIndex":17,"items":[{"name":"(주)리아모","tel":"031-427-2150","addr":"경기도 군포시 당정동 1013-7번지 동호프라자 3층 302호","indutype":"가구 - 일반가구","category":"other"},{"name":"블루","tel":"031-000-0000","addr":"경기도 군포시 당정동 1013-7번지 동호프라자 120호","indutype":"의류 - 정장","category":"other"},{"name":"제이티테크","tel":"070-7696-3699","addr":"경기도 군포시 당정동 1013-7번지 동호프라자 3층 304호","indutype":"전기제품 - 기타전기제품","category":"other"},{"name":"크린토피아군포당정역점","tel":"031-453-3231","addr":"경기도 군포시 당정동 1013-7번지 동호프라자 112호","indutype":"수리서비스 - 세탁소","category":"other"},{"name":"홈케어SEL","tel":"070-8600-3277","addr":"경기도 군포시 당정동 1013-7번지 동호프라자 1층 115호","indutype":"전기제품 - 가전제품","category":"other"}]},{"lat":"37.365228452","long":"126.95414932","imageIndex":17,"items":[{"name":"(주)리트젠","tel":"031-419-6700","addr":"경기도 군포시 당정동 231-8번지","indutype":"기타 - 기계공구","category":"other"},{"name":"(주)리트젠/원격지","tel":"031-419-6700","addr":"경기도 군포시 당정동 231-8번지","indutype":"기타 - 기타 전문점","category":"other"},{"name":"지엔디","tel":"031-427-8711","addr":"경기도 군포시 당정동 231-8번지","indutype":"전기제품 - 기타전기제품","category":"other"},{"name":"지엔디/원격지","tel":"031-427-8770","addr":"경기도 군포시 당정동 231-8번지","indutype":"기타 - 기타 전문점","category":"other"}]},{"lat":"37.363500343","long":"126.95883507","imageIndex":17,"items":[{"name":"(주)림아트/원격지","tel":"031-452-5616","addr":"경기도 군포시 당정동 16-1번지 한솔테크노타운 601호","indutype":"기타 - 기타 전문점","category":"other"},{"name":"(주)소노텍/원격지","tel":"031-476-2082","addr":"경기도 군포시 당정동 16-1번지 한솔테크노타운 403호","indutype":"기타 - 기타 전문점","category":"other"},{"name":"(주)신안정보시스템","tel":"031-689-6451","addr":"경기도 군포시 당정동 16-1번지 한솔테크노타운 810호","indutype":"용역 서비스 - 소프트웨어","category":"other"},{"name":"(주)이엠이임플란트","tel":"031-453-2528","addr":"경기도 군포시 당정동 16-1번지 한솔테크노타운 404호","indutype":"기타의료기관 - 기타의료기관 및 기타","category":"other"},{"name":"BIG SOUND","tel":"031-246-6368","addr":"경기도 군포시 당정동 16-1번지 한솔테크노타운 101호","indutype":"레져용품 - 음반/영상물","category":"other"},{"name":"DEBORA전자/원격지","tel":"031-458-7966","addr":"경기도 군포시 당정동 16-1번지 한솔테크노타운 506호","indutype":"기타 - 기타 전문점","category":"other"},{"name":"더블유에스코퍼레이션주식회사(WS Corp.)","tel":"02-1588-1640","addr":"경기도 군포시 당정동 16-1번지 한솔테크노타운 801호","indutype":"전기제품 - 기타전기제품","category":"other"},{"name":"미창통신","tel":"031-429-9911","addr":"경기도 군포시 당정동 16-1번지 한솔테크노 907호","indutype":"사무통신 - 통신기기","category":"other"},{"name":"보산","tel":"031-455-7474","addr":"경기도 군포시 당정동 16-1번지 한솔테크노타운 414호","indutype":"의류 - 내의판매","category":"other"},{"name":"삼보리본(주)","tel":"031-449-0068","addr":"경기도 군포시 당정동 16-1번지 한솔테크노타운 906호","indutype":"사무통신 - 전자(상우회)","category":"other"},{"name":"삼화기업","tel":"031-479-1723","addr":"경기도 군포시 당정동 16-1번지 한솔테크노타운 101호","indutype":"기타 - 기계공구","category":"other"},{"name":"에스.엠.지 (S.M.G) 새몸사랑","tel":"070-4469-6956","addr":"경기도 군포시 당정동 16-1번지 한솔테크노타운 801호","indutype":"신변잡화 - 기타잡화","category":"other"},{"name":"에이엠테크","tel":"031-457-6090","addr":"경기도 군포시 당정동 16-1번지 한솔테크노타운 208호","indutype":"전기제품 - 기타전기제품","category":"other"},{"name":"연세디지털미디어(주)","tel":"031-457-6040","addr":"경기도 군포시 당정동 16-1번지 한솔테크노타운101호,B-112호","indutype":"용역 서비스 - 소프트웨어","category":"other"},{"name":"유니콘테크","tel":"031-441-7972","addr":"경기도 군포시 당정동 16-1번지 한솔테크노타운 지하B113-1","indutype":"전기제품 - 기타전기제품","category":"other"},{"name":"유니콘테크/원격지","tel":"031-441-7972","addr":"경기도 군포시 당정동 16-1번지 한솔테크노타운 지하B113-1","indutype":"기타 - 기타 전문점","category":"other"},{"name":"이플러스켐주식회사","tel":"031-455-8089","addr":"경기도 군포시 당정동 16-1번지 한솔테크노타운 401호","indutype":"사무통신 - 기타 사무용품","category":"other"},{"name":"인경맥콤","tel":"031-452-1022","addr":"경기도 군포시 당정동 16-1번지 한솔테크노타운 709호","indutype":"기타 - 기타 전문점","category":"other"},{"name":"주식회사 하이세스파워","tel":"031-427-3310","addr":"경기도 군포시 당정동 16-1번지 한솔테크노타운 2층 212호","indutype":"전기제품 - 기타전기제품","category":"other"},{"name":"주식회사 화인스코리아","tel":"031-477-7757","addr":"경기도 군포시 당정동 16-1번지 한솔테크노타운 124호","indutype":"기타 - 기계공구","category":"other"},{"name":"주식회사태승코리아","tel":"031-455-7474","addr":"경기도 군포시 당정동 16-1번지 한솔테크노타운 412호","indutype":"의류 - 내의판매","category":"other"},{"name":"주식회사한보시스텍","tel":"031-457-1137","addr":"경기도 군포시 당정동 16-1번지 한솔테크노 901호","indutype":"전기제품 - 기타전기제품","category":"other"},{"name":"지엠텍/원격지","tel":"031-452-0813","addr":"경기도 군포시 당정동 16-1번지 한솔테크노타운 607호","indutype":"기타 - 기타 전문점","category":"other"},{"name":"필전자/원격지","tel":"031-477-1706","addr":"경기도 군포시 당정동 16-1번지 한솔테크노타운 2층 213호","indutype":"기타 - 기타 전문점","category":"other"},{"name":"황수혁세무회계사무소","tel":"031-454-5440","addr":"경기도 군포시 당정동 16-1번지 한솔테크노타운 311호","indutype":"용역 서비스 - 법률회계서비스(개인)","category":"other"}]},{"lat":"37.358167029","long":"126.96073449","imageIndex":17,"items":[{"name":"(주)마이크로진(MICROGIENE Co.Ltd)","tel":"031-456-6535","addr":"경기도 군포시 당정동 91번지 4층","indutype":"서적문구 - 과학기자재","category":"other"}]},{"lat":"37.355252479","long":"126.95009243","imageIndex":17,"items":[{"name":"(주)메인일렉콤","tel":"031-459-6651","addr":"경기도 군포시 당정동 1129번지","indutype":"전기제품 - 기타전기제품","category":"other"},{"name":"주식회사 유행백","tel":"031-427-2568","addr":"경기도 군포시 당정동 1129번지 2층","indutype":"신변잡화 - 가방","category":"other"},{"name":"주식회사유행백","tel":"031-427-2568","addr":"경기도 군포시 당정동 1129번지 2층","indutype":"신변잡화 - 가방","category":"other"}]},{"lat":"37.343863978","long":"126.95086781","imageIndex":17,"items":[{"name":"(주)뷰아이텍","tel":"031-431-2841","addr":"경기도 군포시 당정동 16블럭 2롯트 성원프라자402,404호","indutype":"기타 - 기타 전문점","category":"other"},{"name":"가구만들기","tel":"070-7661-3450","addr":"경기도 군포시 당정동 1004-2번지 성원프라자 104호","indutype":"가구 - 일반가구","category":"other"},{"name":"더폰","tel":"070-4218-8664","addr":"경기도 군포시 당정동 1004-2번지 성원프라자 109호","indutype":"사무통신 - 통신기기","category":"other"},{"name":"보람요양원","tel":"031-477-7588","addr":"경기도 군포시 당정동 1004-2번지 성원프라자 4층","indutype":"기타의료기관 - 기타의료기관 및 기타","category":"other"},{"name":"성원스크린골프","tel":"031-477-1122","addr":"경기도 군포시 당정동 1004-2번지 성원프라자 501호","indutype":"레져용품 - 골프용품 전문점","category":"other"},{"name":"홀인원스크린골프","tel":"031-455-7737","addr":"경기도 군포시 당정동 1004-2 성원프라자2층201호,202호","indutype":"회원제형태 - 레져업소","category":"other"}]},{"lat":"37.343836202","long":"126.9491976","imageIndex":17,"items":[{"name":"(주)블루정보","tel":"","addr":"경기도 군포시 당정동 1013-5번지 3층","indutype":"사무통신 - 컴퓨터","category":"other"},{"name":"(주)유씨티","tel":"031-451-1493","addr":"경기도 군포시 당정동 1013-5번지 덕수프라자 2층","indutype":"전기제품 - 기타전기제품","category":"other"}]},{"lat":"37.35125497","long":"126.95730727","imageIndex":17,"items":[{"name":"(주)삼호산업","tel":"031-458-1541","addr":"경기도 군포시 당정동 414-3번지","indutype":"전기제품 - 기타전기제품","category":"other"}]},{"lat":"37.354308685","long":"126.95545437","imageIndex":17,"items":[{"name":"(주)새한오존","tel":"031-356-7799","addr":"경기도 군포시 당정동 343-17번지","indutype":"기타 - 기타 전문점","category":"other"}]},{"lat":"37.356055926","long":"126.9536699","imageIndex":17,"items":[{"name":"(주)서도금속","tel":"02-2682-4985","addr":"경기도 군포시 당정동 181-41번지 A동,B동","indutype":"기타 - 기타 전문점","category":"other"}]},{"lat":"37.354091529","long":"126.953231","imageIndex":17,"items":[{"name":"(주)서진엔지니어링","tel":"031-459-2280","addr":"경기도 군포시 당정동 325-22번지","indutype":"사무통신 - 통신기기","category":"other"}]},{"lat":"37.349064422","long":"126.95458864","imageIndex":17,"items":[{"name":"(주)선택글로벌","tel":"031-477-5656","addr":"경기도 군포시 당정동 545-6번지 맥시움빌딩 505호","indutype":"기타 - 기계공구","category":"other"},{"name":"(주)연산","tel":"031-454-0490","addr":"경기도 군포시 당정동 545-6번지 맥시움빌딩 502호","indutype":"기타 - 기타 전문점","category":"other"},{"name":"(주)연산/원격지","tel":"031-454-0490","addr":"경기도 군포시 당정동 545-6번지 맥시움빌딩 502호","indutype":"기타 - 기타 전문점","category":"other"},{"name":"(주)웰스첸","tel":"031-455-9100","addr":"경기도 군포시 당정동 545-6번지 맥시움빌딩 5층 506호","indutype":"주방용구 - 주방용구","category":"other"},{"name":"MD이레텍","tel":"031-427-2570","addr":"경기도 군포시 당정동 545-6번지 맥시움빌딩 401호","indutype":"용역 서비스 - 사무서비스","category":"other"},{"name":"MD이레텍/원격지","tel":"031-427-2570","addr":"경기도 군포시 당정동 545-6번지 맥시움빌딩 401호","indutype":"기타 - 기타 전문점","category":"other"},{"name":"도성","tel":"031-453-5242","addr":"경기도 군포시 당정동 545-6번지 맥시움빌딩 501호","indutype":"신변잡화 - 기타잡화","category":"other"},{"name":"세무사서태식법률사무소","tel":"031-477-7733","addr":"경기도 군포시 당정동 545-6번지 맥시움빌딩 504동 505호","indutype":"용역 서비스 - 법률회계서비스(개인)","category":"other"},{"name":"안양원예농업협동조합한세지점","tel":"031-451-8950","addr":"경기도 군포시 당정동 545-6외1","indutype":"유통업 비영리 - 농,축협 직영매장","category":"other"},{"name":"주식회사타스","tel":"031-207-7100","addr":"경기도 군포시 당정동 545-6번지 맥시움빌딩 3층 302-2호","indutype":"기타 - 기타 전문점","category":"other"}]},{"lat":"37.354730379","long":"126.95119892","imageIndex":17,"items":[{"name":"(주)세원엠텍","tel":"031-897-0929","addr":"경기도 군포시 당정동 315-3번지","indutype":"기타 - 기계공구","category":"other"}]},{"lat":"37.354505031","long":"126.95098462","imageIndex":17,"items":[{"name":"(주)수성레이져","tel":"031-451-8080","addr":"경기도 군포시 당정동 317-1번지","indutype":"기타 - 기계공구","category":"other"}]},{"lat":"37.347397735","long":"126.95506372","imageIndex":17,"items":[{"name":"(주)스테코/원격지","tel":"031-454-3477","addr":"경기도 군포시 당정동 970-6번지 보흥빌딩 302호","indutype":"기타 - 기타 전문점","category":"other"},{"name":"주식회사 리텐드","tel":"031-477-2917","addr":"경기도 군포시 당정동 970-6번지 보흥빌딩 202호","indutype":"의류 - 정장","category":"other"},{"name":"탑앤에스솔루션","tel":"031-348-1011","addr":"경기도 군포시 당정동 970-6번지 보흥빌딩 302호","indutype":"사무통신 - 컴퓨터","category":"other"}]},{"lat":"37.362561756","long":"126.95489606","imageIndex":17,"items":[{"name":"(주)스포텍","tel":"031-479-5282","addr":"경기도 군포시 당정동 222-6번지 201호","indutype":"레져용품 - 스포츠·레져용품","category":"other"}]},{"lat":"37.351534049","long":"126.95669763","imageIndex":17,"items":[{"name":"(주)신용산업","tel":"031-458-7361","addr":"경기도 군포시 당정동 419-5번지 2층","indutype":"기타 - 기계공구","category":"other"}]},{"lat":"37.364976019","long":"126.95378825","imageIndex":17,"items":[{"name":"(주)씨브이","tel":"031-451-4053","addr":"경기도 군포시 당정동 231-23번지","indutype":"기타 - 기타 전문점","category":"other"},{"name":"(주)씨브이/원격지","tel":"031-451-4053","addr":"경기도 군포시 당정동 231-23번지","indutype":"기타 - 기타 전문점","category":"other"}]},{"lat":"37.350028847","long":"126.95542321","imageIndex":17,"items":[{"name":"(주)씨앤씨홀스넷","tel":"031-458-0582","addr":"경기도 군포시 당정동 448-1번지 2층","indutype":"레져용품 - 스포츠·레져용품","category":"other"},{"name":"씨앤씨","tel":"031-458-0582","addr":"경기도 군포시 당정동 448-1번지","indutype":"서적문구 - 출판 및 인쇄물","category":"other"}]},{"lat":"37.343422381","long":"126.95064241","imageIndex":17,"items":[{"name":"(주)씨에스네트워크","tel":"031-386-7714","addr":"경기도 군포시 당정동 1011-3번지 대우프라자 110호","indutype":"사무통신 - 기타 사무용품","category":"other"},{"name":"GQ 컬렉션","tel":"031-397-6878","addr":"경기도 군포시 당정동 1011-3번지 202호 대우프라자1","indutype":"수리서비스 - 세탁소","category":"other"},{"name":"GS25당정센터점","tel":"","addr":"경기도 군포시 당정동 1011-3번지 대우프라자1 103~104호","indutype":"유통업 영리 - 편 의 점","category":"other"},{"name":"J*피부사랑","tel":"031-458-2345","addr":"경기도 군포시 당정동 1011-3번지 대우프라자1 107호","indutype":"회원제형태 - 기타4","category":"other"},{"name":"글로리휘트니스","tel":"031-459-1236","addr":"경기도 군포시 당정동 1011-3 대우프라자3층301호.302호","indutype":"회원제형태 - 레져업소","category":"other"},{"name":"대림타일철물","tel":"031-459-5464","addr":"경기도 군포시 당정동 1011-3번지 대우프라자1 1층 111호","indutype":"건축자재 - 건축용 요업제품","category":"other"},{"name":"하우징","tel":"031-427-3740","addr":"경기도 군포시 당정동 1011-3번지","indutype":"직물 - 카페트,커튼,천막,지물","category":"other"}]},{"lat":"37.356896457","long":"126.96034014","imageIndex":17,"items":[{"name":"(주)씨케이엠에스","tel":"031-278-4723","addr":"경기도 군포시 당정동 93-5번지 금봉테크노밸리 301호","indutype":"용역 서비스 - 기타용역서비스","category":"other"},{"name":"동일레이저테크놀로지","tel":"031-429-9953","addr":"경기도 군포시 당정동 93-5번지 금봉테크노벨리 6층 603호","indutype":"기타 - 기계공구","category":"other"}]},{"lat":"37.353812285","long":"126.95340048","imageIndex":17,"items":[{"name":"(주)씨피티","tel":"031-457-1735","addr":"경기도 군포시 당정동 324-4번지","indutype":"서적문구 - 과학기자재","category":"other"}]},{"lat":"37.358698588","long":"126.96062132","imageIndex":17,"items":[{"name":"(주)아이에스몰드앤드프라스틱","tel":"031-429-7592","addr":"경기도 군포시 당정동 78-19번지","indutype":"기타 - 기계공구","category":"other"}]},{"lat":"37.34364709","long":"126.94942344","imageIndex":17,"items":[{"name":"(주)아이엔티코리아","tel":"031-465-5374","addr":"경기도 군포시 당정동 1013-6번지 유영타운 4층 405호","indutype":"기타 - 기계공구","category":"other"},{"name":"군포에덴요양원","tel":"031-477-3332","addr":"경기도 군포시 당정동 1013-6번지 유영타운 2층","indutype":"기타의료기관 - 기타의료기관 및 기타","category":"other"},{"name":"바이픽스","tel":"070-4125-8083","addr":"경기도 군포시 당정동 1013-6번지 유영타운 117호","indutype":"레져용품 - 스포츠·레져용품","category":"other"},{"name":"효성심요양원","tel":"031-477-3333","addr":"경기도 군포시 당정동 1013-6번지 유영타운 3층","indutype":"기타의료기관 - 기타의료기관 및 기타","category":"other"}]},{"lat":"37.357139572","long":"126.9598998","imageIndex":17,"items":[{"name":"(주)아이전자","tel":"031-342-3690","addr":"경기도 군포시 당정동 908-71번지 5층","indutype":"광학제품 - 카메라","category":"other"}]},{"lat":"37.34947697","long":"126.95009648","imageIndex":17,"items":[{"name":"(주)아진화학","tel":"031-458-2228","addr":"경기도 군포시 당정동 516-3번지","indutype":"기타 - 기타 전문점","category":"other"},{"name":"화천종합써비스","tel":"031-457-9007","addr":"경기도 군포시 당정동 516-3번지","indutype":"기타 - 기계공구","category":"other"}]},{"lat":"37.355252824","long":"126.95087124","imageIndex":17,"items":[{"name":"(주)안양가로수","tel":"031-455-6148","addr":"경기도 군포시 당정동 1128번지 신라테크노빌 603호","indutype":"서적문구 - 출판 및 인쇄물","category":"other"},{"name":"(주)안양가로수","tel":"031-453-0080","addr":"경기도 군포시 당정동 1128번지 신라테크노빌 603호","indutype":"서적문구 - 출판 및 인쇄물","category":"other"},{"name":"(주)컴트로닉스","tel":"031-459-3300","addr":"경기도 군포시 당정동 1128번지 신라테크토빌 901호","indutype":"기타 - 기계공구","category":"other"},{"name":"군포시장애인보호작업시설","tel":"031-429-1043","addr":"경기도 군포시 당정동 1128번지 신라테크노빌3층304호~305호 3층 304호","indutype":"사무통신 - 컴퓨터","category":"other"},{"name":"디와이","tel":"031-429-1112","addr":"경기도 군포시 당정동 1128번지 신라테크노빌 가동 402호","indutype":"전기제품 - 기타전기제품","category":"other"},{"name":"세븐일레븐군포테크노빌점","tel":"031-1577-0711","addr":"경기도 군포시 당정동 1128번지 신라테크노빌 1층 103-1호","indutype":"유통업 영리 - 편 의 점","category":"other"},{"name":"신우전원기술(주)","tel":"031-454-0021","addr":"경기도 군포시 당정동 1128번지 신라테크노빌 604호","indutype":"사무통신 - 통신기기","category":"other"},{"name":"주식회사 옥샘코리아","tel":"031-427-1259","addr":"경기도 군포시 당정동 1128번지 신라테크노빌 703-2호","indutype":"주방용구 - 주방용구","category":"other"},{"name":"주식회사 차오름메탈","tel":"031-427-1257","addr":"경기도 군포시 당정동 1128번지 신라테크노빌 나동 606호","indutype":"전기제품 - 기타전기제품","category":"other"},{"name":"주식회사세광미디어","tel":"031-458-8088","addr":"경기도 군포시 당정동 1128번지 신라테크노빌 가동 902호","indutype":"전기제품 - 기타전기제품","category":"other"},{"name":"청풍테크","tel":"031-458-0794","addr":"경기도 군포시 당정동 1128번지 신라테크노빌 나동 307호","indutype":"사무통신 - 통신기기","category":"other"},{"name":"화일P&C","tel":"031-455-6262","addr":"경기도 군포시 당정동 1128번지 신라테크노빌 나동 105호","indutype":"서적문구 - 출판 및 인쇄물","category":"other"}]},{"lat":"37.350362488","long":"126.95608889","imageIndex":17,"items":[{"name":"(주)안양비철","tel":"031-451-0234","addr":"경기도 군포시 당정동 437번지 1층","indutype":"건축자재 - 기타건축자재","category":"other"},{"name":"SM.KOREA","tel":"031-456-3041","addr":"경기도 군포시 당정동 437번지","indutype":"건축자재 - 기타건축자재","category":"other"},{"name":"태성 레이져.알곤","tel":"031-341-7221","addr":"경기도 군포시 당정동 437번지","indutype":"수리서비스 - 기타수리서비스","category":"other"}]},{"lat":"37.352697156","long":"126.95878496","imageIndex":17,"items":[{"name":"(주)에스엔케이인터내쇼날","tel":"02-3443-1212","addr":"경기도 군포시 당정동 366-5번지","indutype":"가구 - 일반가구","category":"other"}]},{"lat":"37.351587118","long":"126.95422586","imageIndex":17,"items":[{"name":"(주)에이스인스트루먼트","tel":"031-459-8754","addr":"경기도 군포시 당정동 474번지 삼풍프라자 102호","indutype":"기타 - 기타 전문점","category":"other"},{"name":"경면나노테크","tel":"031-429-6779","addr":"경기도 군포시 당정동 474번지 삼풍프라자 2층 201호","indutype":"전기제품 - 기타전기제품","category":"other"},{"name":"주식회사 그린트러스트","tel":"031-451-0772","addr":"경기도 군포시 당정동 474번지 삼풍프라자 B101호","indutype":"건축자재 - 기타건축자재","category":"other"}]},{"lat":"37.348423839","long":"126.95252371","imageIndex":17,"items":[{"name":"(주)에이치엔씨","tel":"031-428-8920","addr":"경기도 군포시 당정동 522번지 SK벤티움 102동 1204호","indutype":"전기제품 - 기타전기제품","category":"other"},{"name":"(주)엔젤키즈","tel":"070-8785-1905","addr":"경기도 군포시 당정동 522번지 SK벤티움 102동 303호","indutype":"서적문구 - 출판 및 인쇄물","category":"other"},{"name":"(주)테릭/원격지","tel":"031-436-0025","addr":"경기도 군포시 당정동 522번지 SK벤티움 102동 405호","indutype":"기타 - 기타 전문점","category":"other"},{"name":"VGK","tel":"070-8785-1905","addr":"경기도 군포시 당정동 522번지 SK벤티움 102동 303호","indutype":"서적문구 - 출판 및 인쇄물","category":"other"},{"name":"다온페이퍼","tel":"031-436-0072","addr":"경기도 군포시 당정동 522번지 SK벤티움 102동 1003호","indutype":"서적문구 - 출판 및 인쇄물","category":"other"},{"name":"단디메카","tel":"031-436-0151","addr":"경기도 군포시 당정동 522번지","indutype":"기타 - 기계공구","category":"other"},{"name":"아우시스템(주)","tel":"031-436-1191","addr":"경기도 군포시 당정동 522번지 SK벤티움 102동 1304호","indutype":"사무통신 - 컴퓨터","category":"other"},{"name":"아이생각","tel":"031-433-9166","addr":"경기도 군포시 당정동 522번지 SK벤티움 102동 303호","indutype":"회원제형태 - 서적","category":"other"},{"name":"엠디텍","tel":"031-436-0077","addr":"경기도 군포시 당정동 522번지 SK벤티움 102동 1004호","indutype":"사무통신 - 컴퓨터","category":"other"},{"name":"이엔테크놀로지(주)","tel":"02-420-3810","addr":"경기도 군포시 당정동 522번지 SK벤티움 102동 1101호","indutype":"기타 - 기타 전문점","category":"other"},{"name":"이엔테크놀로지(주)/원격지","tel":"02-420-3810","addr":"경기도 군포시 당정동 522번지 SK벤티움 102동 1101호","indutype":"기타 - 기타 전문점","category":"other"},{"name":"주식회사 유오엠","tel":"02-808-0707","addr":"경기도 군포시 당정동 522번지 SK벤티움 102동 1001호","indutype":"레져용품 - 골프용품 전문점","category":"other"},{"name":"주식회사다인산전/원격지","tel":"031-456-7960","addr":"경기도 군포시 당정동 522번지 SK벤티움 102동 1305호","indutype":"기타 - 기타 전문점","category":"other"},{"name":"진한ENG","tel":"031-455-4655","addr":"경기도 군포시 당정동 522번지 SK벤티움 102동 504호","indutype":"기타 - 기계공구","category":"other"}]},{"lat":"37.349063493","long":"126.95236528","imageIndex":17,"items":[{"name":"(주)에프에스티","tel":"031-457-9198","addr":"경기도 군포시 당정동 522번지","indutype":"전기제품 - 가전제품","category":"other"},{"name":"(주)에프에스티/원격지","tel":"031-457-9198","addr":"경기도 군포시 당정동 522번지","indutype":"기타 - 기타 전문점","category":"other"},{"name":"(주)조이랜드","tel":"031-436-0424","addr":"경기도 군포시 당정동 522번지 SK벤티움 103동 307호","indutype":"직물 - 침구·수예점","category":"other"},{"name":"대한엔지니어링","tel":"031-457-0863","addr":"경기도 군포시 당정동 522번지 SK벤티움 103동 101호","indutype":"기타 - 기계공구","category":"other"},{"name":"동화특수산업 주식회사","tel":"031-451-6232","addr":"경기도 군포시 당정동 522번지 SK벤티움 103동 804호","indutype":"서적문구 - 과학기자재","category":"other"},{"name":"리빙케어소재기술(주)","tel":"031-436-0190","addr":"경기도 군포시 당정동 522번지 SK벤티움 103동 1001호","indutype":"전기제품 - 기타전기제품","category":"other"},{"name":"삼육프린텍","tel":"031-455-9757","addr":"경기도 군포시 당정동 522번지 SK벤티움 103동 607호","indutype":"서적문구 - 출판 및 인쇄물","category":"other"},{"name":"씨엠테크","tel":"031-457-1297","addr":"경기도 군포시 당정동 522번지 SK벤티움 103동 607호","indutype":"기타 - 기계공구","category":"other"},{"name":"아임시스템","tel":"070-4801-5959","addr":"경기도 군포시 당정동 522번지 SK벤티움 103동 1007호","indutype":"전기제품 - 기타전기제품","category":"other"},{"name":"위이전자/원격지","tel":"031-454-8356","addr":"경기도 군포시 당정동 522번지 SK벤티움 103동 1002호","indutype":"기타 - 기타 전문점","category":"other"},{"name":"윈아트","tel":"031-393-3100","addr":"경기도 군포시 당정동 522번지 SK벤티움 103동 905호","indutype":"용역 서비스 - 종합용역","category":"other"},{"name":"주식회사 애니원정보시스템","tel":"031-453-9990","addr":"경기도 군포시 당정동 522번지 SK벤티움 103동 1001호","indutype":"기타 - 기계공구","category":"other"},{"name":"한국U.C.D","tel":"031-436-0641","addr":"경기도 군포시 당정동 522번지 SK벤티움 103동 202호","indutype":"전기제품 - 냉열기기","category":"other"}]},{"lat":"37.343007404","long":"126.94950289","imageIndex":17,"items":[{"name":"(주)엔씨에프","tel":"02-1566-7316","addr":"경기도 군포시 당정동 1015-4번지 아르떼하우스 2층 202호","indutype":"용역 서비스 - 소프트웨어","category":"other"}]},{"lat":"37.357112802","long":"126.96062221","imageIndex":17,"items":[{"name":"(주)엘지에스","tel":"031-429-4086","addr":"경기도 군포시 당정동 92-3번지","indutype":"사무통신 - 통신기기","category":"other"}]},{"lat":"37.353866251","long":"126.95317471","imageIndex":17,"items":[{"name":"(주)엠비엘","tel":"031-397-4541","addr":"경기도 군포시 당정동 324-18번지","indutype":"기타의료기관 - 기타의료기관 및 기타","category":"other"},{"name":"주식회사 이파워","tel":"070-4779-8551","addr":"경기도 군포시 당정동 324-18번지 삼풍데파트 501호","indutype":"건축자재 - 조명기구","category":"other"}]},{"lat":"37.353361668","long":"126.95314118","imageIndex":17,"items":[{"name":"(주)예은테크","tel":"031-459-0960","addr":"경기도 군포시 당정동 323-1 군포제일공단604","indutype":"전기제품 - 기타전기제품","category":"other"},{"name":"(주)케이티에스솔루션","tel":"031-457-3059","addr":"경기도 군포시 당정동 323-1번지 군포제일공단 603호","indutype":"기타 - 기계공구","category":"other"},{"name":"나이스몰드주식회사","tel":"031-455-0470","addr":"경기도 군포시 당정동 323-1번지 제일공단 B동 105호","indutype":"기타 - 기계공구","category":"other"},{"name":"삼보계전(주)","tel":"031-453-3772","addr":"경기도 군포시 당정동 323-1,군포제일공단203","indutype":"기타 - 기타 전문점","category":"other"},{"name":"중앙정밀","tel":"031-457-3693","addr":"경기도 군포시 당정동 323-1 군포제일공단 104","indutype":"신변잡화 - 기타잡화","category":"other"},{"name":"한국본코트(주)/통판","tel":"031-451-3041","addr":"경기도 군포시 당정동 323-1군포제일공단407","indutype":"별도관리 - 일반(통신판매)","category":"other"},{"name":"한빈테크(HHTek)","tel":"031-427-0239","addr":"경기도 군포시 당정동 323-1번지 군포제일공단 101,102호","indutype":"기타 - 기계공구","category":"other"},{"name":"한성미크론","tel":"031-458-6443","addr":"경기도 군포시 당정동 323-1군포제일공단103","indutype":"기타 - 기타 전문점","category":"other"},{"name":"혜강전자","tel":"070-4250-2240","addr":"경기도 군포시 당정동 323-1번지 군포제일공단 503호","indutype":"전기제품 - 기타전기제품","category":"other"},{"name":"화신냉기씨스템","tel":"031-452-1666","addr":"경기도 군포시 당정동 323-1번지 군포제일공단 1층 106호","indutype":"전기제품 - 기타전기제품","category":"other"}]},{"lat":"37.357471967","long":"126.95728094","imageIndex":17,"items":[{"name":"(주)오비스코리아","tel":"031-429-1492","addr":"경기도 군포시 당정동 150-31번지","indutype":"전기제품 - 기타전기제품","category":"other"}]},{"lat":"37.365003333","long":"126.95447683","imageIndex":17,"items":[{"name":"(주)오성유니콘","tel":"031-457-0331","addr":"경기도 군포시 당정동 230-4번지","indutype":"기타 - 기계공구","category":"other"}]},{"lat":"37.34897344","long":"126.9524782","imageIndex":17,"items":[{"name":"(주)오에스테크윈/원격지","tel":"031-453-5242","addr":"경기도 군포시 당정동 522번지 외에스케이벤티움","indutype":"기타 - 기타 전문점","category":"other"},{"name":"(주)킴스아이엔씨","tel":"031-457-3107","addr":"경기도 군포시 당정동 522번지 SK벤티움 6층 606호","indutype":"사무통신 - 통신기기","category":"other"},{"name":"주식회사 아이언","tel":"031-262-1050","addr":"경기도 군포시 당정동 522번지 SK벤티움 104동 지하 102호","indutype":"신변잡화 - 기념품점","category":"other"},{"name":"주식회사 위코테크","tel":"031-340-6981","addr":"경기도 군포시 당정동 522번지 에스케이벤티움 103동 302,706호","indutype":"기타 - 기계공구","category":"other"},{"name":"주식회사드림테크윈","tel":"070-4821-2351","addr":"경기도 군포시 당정동 522번지 SK벤티움 103동 603-2호","indutype":"전기제품 - 기타전기제품","category":"other"}]},{"lat":"37.352119384","long":"126.95587336","imageIndex":17,"items":[{"name":"(주)온주실업","tel":"031-443-2781","addr":"경기도 군포시 당정동 467-3번지","indutype":"기타 - 기계공구","category":"other"}]},{"lat":"37.358360945","long":"126.95001124","imageIndex":17,"items":[{"name":"(주)웨이브텍","tel":"031-451-8762","addr":"경기도 군포시 당정동 1066-2번지","indutype":"사무통신 - 통신기기","category":"other"}]},{"lat":"37.365588717","long":"126.95381043","imageIndex":17,"items":[{"name":"(주)웨이퍼펩","tel":"031-454-7751","addr":"경기도 군포시 당정동 231-1번지","indutype":"전기제품 - 기타전기제품","category":"other"},{"name":"SM Tech/원격지","tel":"031-454-7752","addr":"경기도 군포시 당정동 231-1번지","indutype":"기타 - 기타 전문점","category":"other"}]},{"lat":"37.353695758","long":"126.95486785","imageIndex":17,"items":[{"name":"(주)유비엠솔루션","tel":"031-1833-6799","addr":"경기도 군포시 당정동 345-1번지 다산빌딩","indutype":"신변잡화 - 기타잡화","category":"other"}]},{"lat":"37.354785667","long":"126.95408835","imageIndex":17,"items":[{"name":"(주)이륜","tel":"031-429-9412","addr":"경기도 군포시 당정동 327-16번지 1층","indutype":"사무통신 - 사무용 OA기기","category":"other"}]},{"lat":"37.359559244","long":"126.94989752","imageIndex":17,"items":[{"name":"(주)인터텍킴스코","tel":"02-774-8205","addr":"경기도 군포시 당정동 1056번지","indutype":"용역 서비스 - 사무서비스","category":"other"},{"name":"인터텍빌딩","tel":"031-8069-3700","addr":"경기도 군포시 당정동 1056번지","indutype":"용역 서비스 - 부동산 중개·임대","category":"other"},{"name":"인터텍이티엘셈코(주)","tel":"031-8069-3830","addr":"경기도 군포시 당정동 1056번지","indutype":"용역 서비스 - 사무서비스","category":"other"}]},{"lat":"37.353418668","long":"126.96070328","imageIndex":17,"items":[{"name":"(주)인테크","tel":"031-456-8317","addr":"경기도 군포시 당정동 105번지","indutype":"유통업 영리 - 기타유통업","category":"other"},{"name":"경기버티칼","tel":"031-456-0888","addr":"경기도 군포시 당정동 105번지 3층","indutype":"직물 - 카페트,커튼,천막,지물","category":"other"},{"name":"델코전자(주)","tel":"031-451-6864","addr":"경기도 군포시 당정동 105번지 통일공단 3층","indutype":"전기제품 - 기타전기제품","category":"other"},{"name":"동신테크","tel":"031-477-1450","addr":"경기도 군포시 당정동 105번지 1층","indutype":"기타 - 기계공구","category":"other"},{"name":"이엠에스시스템","tel":"031-427-6073","addr":"경기도 군포시 당정동 105번지","indutype":"전기제품 - 기타전기제품","category":"other"}]},{"lat":"37.354396338","long":"126.94969799","imageIndex":17,"items":[{"name":"(주)정우상사","tel":"031-455-6400","addr":"경기도 군포시 당정동 1143번지","indutype":"기타 - 기타 전문점","category":"other"}]},{"lat":"37.358361056","long":"126.95025957","imageIndex":17,"items":[{"name":"(주)제이디아웃도어","tel":"070-8796-0869","addr":"경기도 군포시 당정동 1072번지 5층","indutype":"레져용품 - 스포츠·레져용품","category":"other"},{"name":"테크웨어주식회사","tel":"","addr":"경기도 군포시 당정동 1072번지 외2필지 테크웨어","indutype":"건축자재 - 조명기구","category":"other"}]},{"lat":"37.361785155","long":"126.95081029","imageIndex":17,"items":[{"name":"(주)제이티비전자","tel":"031-477-3939","addr":"경기도 군포시 당정동 258-6번지","indutype":"전기제품 - 기타전기제품","category":"other"},{"name":"주식회사스마트스퀘어","tel":"031-429-6032","addr":"경기도 군포시 당정동 258-6번지","indutype":"사무통신 - 컴퓨터","category":"other"},{"name":"주식회사에이치케이테크널러지","tel":"031-427-0235","addr":"경기도 군포시 당정동 258-6번지 2층","indutype":"기타 - 기계공구","category":"other"}]},{"lat":"37.353868045","long":"126.9576443","imageIndex":17,"items":[{"name":"(주)중앙문고","tel":"031-387-5777","addr":"경기도 군포시 당정동 364-12번지 (주)중앙문고","indutype":"서적문구 - 일반서적","category":"other"},{"name":"좋은도서","tel":"031-477-9390","addr":"경기도 군포시 당정동 364-12번지 2층","indutype":"회원제형태 - 서적","category":"other"}]},{"lat":"37.346758258","long":"126.95567355","imageIndex":17,"items":[{"name":"(주)지니코퍼레이션","tel":"031-454-7400","addr":"경기도 군포시 당정동 971-8번지 아련빌딩 2층","indutype":"건축자재 - 인테리어전문","category":"other"}]},{"lat":"37.355506867","long":"126.955036","imageIndex":17,"items":[{"name":"(주)진우기연","tel":"031-452-9723","addr":"경기도 군포시 당정동 331-2번지","indutype":"건축자재 - 보일러·펌프·샷시","category":"other"}]},{"lat":"37.348361959","long":"126.95540169","imageIndex":17,"items":[{"name":"(주)케이아이엠에스","tel":"070-7761-4531","addr":"경기도 군포시 당정동 974-7번지 프라임타운2 1동 502호","indutype":"농업 - 비료,사료,종자","category":"other"},{"name":"새건디자인","tel":"031-456-0642","addr":"경기도 군포시 당정동 974-7번지 프라임타운2 405호","indutype":"건축자재 - 인테리어전문","category":"other"},{"name":"홈브루","tel":"031-436-0641","addr":"경기도 군포시 당정동 974-7번지 프라임타운 4층","indutype":"유통업 영리 - 기타유통업","category":"other"}]},{"lat":"37.345476307","long":"126.94976071","imageIndex":17,"items":[{"name":"(주)케이트로닉스","tel":"031-452-0132","addr":"경기도 군포시 당정동 1006-5번지 당정빌딩 303호","indutype":"기타 - 기계공구","category":"other"}]},{"lat":"37.357671039","long":"126.9595383","imageIndex":17,"items":[{"name":"(주)태영북","tel":"031-360-0884","addr":"경기도 군포시 당정동 91-13번지","indutype":"서적문구 - 일반서적","category":"other"},{"name":"한국브레인","tel":"031-455-2556","addr":"경기도 군포시 당정동 91-13번지 2층","indutype":"서적문구 - 일반서적","category":"other"}]},{"lat":"37.350227685","long":"126.95698059","imageIndex":17,"items":[{"name":"(주)텍콤","tel":"031-456-4031","addr":"경기도 군포시 당정동 435-2번지","indutype":"전기제품 - 기타전기제품","category":"other"}]},{"lat":"37.354533144","long":"126.95351288","imageIndex":17,"items":[{"name":"(주)팔복시스템","tel":"031-456-4190","addr":"경기도 군포시 당정동 325-5번지","indutype":"기타 - 기타 전문점","category":"other"}]},{"lat":"37.350153314","long":"126.9514165","imageIndex":17,"items":[{"name":"(주)프라임파워솔루션스","tel":"031-464-1041","addr":"경기도 군포시 당정동 508-4번지 B동 3층","indutype":"전기제품 - 기타전기제품","category":"other"}]},{"lat":"37.352424069","long":"126.95186641","imageIndex":17,"items":[{"name":"(주)필리아텔레콤","tel":"031-459-2706","addr":"경기도 군포시 당정동 500-1번지","indutype":"사무통신 - 통신기기","category":"other"},{"name":"대진특수알곤용접","tel":"031-453-9115","addr":"경기도 군포시 당정동 500-1번지","indutype":"기타 - 기계공구","category":"other"},{"name":"조양정밀","tel":"031-458-2422","addr":"경기도 군포시 당정동 500-1 A","indutype":"기타 - 기계공구","category":"other"},{"name":"진일프라스틱주식회사","tel":"031-452-2240","addr":"경기도 군포시 당정동 500-1번지","indutype":"기타 - 기계공구","category":"other"}]},{"lat":"37.358696142","long":"126.95425513","imageIndex":17,"items":[{"name":"(주)하나정공","tel":"031-455-3215","addr":"경기도 군포시 당정동 181-24번지 1층","indutype":"전기제품 - 기타전기제품","category":"other"}]},{"lat":"37.364030215","long":"126.95442101","imageIndex":17,"items":[{"name":"(주)협진상공/조흥물대","tel":"031-427-4063","addr":"경기도 군포시 당정동 231-19번지","indutype":"별도관리 - 자체물품대금","category":"other"},{"name":"앙블랑","tel":"031-429-9939","addr":"경기도 군포시 당정동 231-19번지 3층","indutype":"직물 - 침구·수예점","category":"other"}]},{"lat":"37.353867661","long":"126.95665106","imageIndex":17,"items":[{"name":"(주)휴니드테크놀러지스","tel":"031-450-2500","addr":"경기도 군포시 당정동 352번지","indutype":"사무통신 - 통신기기","category":"other"}]},{"lat":"37.355311083","long":"126.96150361","imageIndex":17,"items":[{"name":"C.T.S(Creative Total Solution)","tel":"031-454-5608","addr":"경기도 군포시 당정동 115-5","indutype":"서적문구 - 과학기자재","category":"other"}]},{"lat":"37.344286545","long":"126.94883614","imageIndex":17,"items":[{"name":"ELLE ME DIT(그녀가내게말했어)","tel":"070-8248-5884","addr":"경기도 군포시 당정동 1010-1번지 슬기빌딩 105호","indutype":"의류 - 정장","category":"other"},{"name":"로직웍스","tel":"031-387-0787","addr":"경기도 군포시 당정동 1010-1번지 슬기빌딩 302호","indutype":"전기제품 - 기타전기제품","category":"other"},{"name":"로직웍스/원격지","tel":"031-387-0787","addr":"경기도 군포시 당정동 1010-1번지 슬기빌딩 302호","indutype":"기타 - 기타 전문점","category":"other"},{"name":"미주유통","tel":"031-427-1712","addr":"경기도 군포시 당정동 1010-1번지 슬기빌딩 201호","indutype":"신변잡화 - 기타잡화","category":"other"},{"name":"위드미당정역점","tel":"031-477-3505","addr":"경기도 군포시 당정동 1010-1번지 슬기프라자 101호","indutype":"유통업 영리 - 편 의 점","category":"other"},{"name":"호야통신","tel":"031-000-0000","addr":"경기도 군포시 당정동 1010-1번지 슬기빌딩 102,103호","indutype":"사무통신 - 통신기기","category":"other"}]},{"lat":"37.348361868","long":"126.95517597","imageIndex":17,"items":[{"name":"GS25군포고산로점","tel":"","addr":"경기도 군포시 당정동 974-1번지 SK프라자 104호","indutype":"유통업 영리 - 편 의 점","category":"other"},{"name":"대신철물","tel":"031-429-0487","addr":"경기도 군포시 당정동 974-1번지 SK프라자 101-1","indutype":"건축자재 - 목재·석재·철물","category":"other"},{"name":"미래디앤피","tel":"031-427-8555","addr":"경기도 군포시 당정동 974-1번지 SK프라자 101호","indutype":"용역 서비스 - 사무서비스","category":"other"},{"name":"황실타이유통","tel":"031-456-7077","addr":"경기도 군포시 당정동 974-1번지 SK프라자 401호","indutype":"가구 - 기타가구","category":"other"}]},{"lat":"37.357839869","long":"126.95351071","imageIndex":17,"items":[{"name":"GS25군포공단점","tel":"","addr":"경기도 군포시 당정동 181-37번지 한웅빌딩 101호","indutype":"유통업 영리 - 편 의 점","category":"other"}]},{"lat":"37.352308802","long":"126.95639242","imageIndex":17,"items":[{"name":"GS25군포당정본점","tel":"","addr":"경기도 군포시 당정동 417-3번지","indutype":"유통업 영리 - 편 의 점","category":"other"},{"name":"협창상사","tel":"031-456-7311","addr":"경기도 군포시 당정동 417-3번지","indutype":"기타 - 기계공구","category":"other"}]},{"lat":"37.349813262","long":"126.95709371","imageIndex":17,"items":[{"name":"IN VETRO","tel":"031-451-0231","addr":"경기도 군포시 당정동 439-2번지","indutype":"건축자재 - 유리","category":"other"}]},{"lat":"37.354201515","long":"126.95789241","imageIndex":17,"items":[{"name":"JK하이텍","tel":"031-451-0960","addr":"경기도 군포시 당정동 123번지","indutype":"전기제품 - 기타전기제품","category":"other"},{"name":"풍성화학","tel":"031-477-3020","addr":"경기도 군포시 당정동 123번지","indutype":"유통업 영리 - 기타유통업","category":"other"}]},{"lat":"37.346172785","long":"126.95614792","imageIndex":17,"items":[{"name":"N.I.N.E-KOREA","tel":"031-317-5270","addr":"경기도 군포시 당정동 959-4 LG프라자","indutype":"의류 - 기타의류","category":"other"},{"name":"STYLE 01 GYM","tel":"070-8182-0428","addr":"경기도 군포시 당정동 988-1번지 LG프라자 3층 301호","indutype":"회원제형태 - 레져업소","category":"other"},{"name":"블럭팡","tel":"031-427-9002","addr":"경기도 군포시 당정동 988-1번지 LG프라자 3층 303호","indutype":"서적문구 - 완구점","category":"other"},{"name":"화물차정보(주)","tel":"031-1544-0785","addr":"경기도 군포시 당정동 988-1번지 엘지프라자 403호","indutype":"회원제형태 - 기타4","category":"other"}]},{"lat":"37.363086255","long":"126.95986255","imageIndex":17,"items":[{"name":"TRENDY square","tel":"031-455-8581","addr":"경기도 군포시 당정동 13-4번지 1층","indutype":"건축자재 - 인테리어전문","category":"other"},{"name":"트렌디 리노베이션 코리아","tel":"031-455-8581","addr":"경기도 군포시 당정동 13-4번지 1층,2층","indutype":"건축자재 - 인테리어전문","category":"other"}]},{"lat":"37.353138661","long":"126.95880727","imageIndex":17,"items":[{"name":"가나비니루포장상사","tel":"031-455-2534","addr":"경기도 군포시 당정동 369-5번지 108호","indutype":"신변잡화 - 기타잡화","category":"other"},{"name":"진영종합상사","tel":"031-477-8527","addr":"경기도 군포시 당정동 369-5번지 1층","indutype":"의류 - 기타의류","category":"other"}]},{"lat":"37.35225437","long":"126.95545567","imageIndex":17,"items":[{"name":"강남공구전기","tel":"031-455-6092","addr":"경기도 군포시 당정동 469-4번지","indutype":"기타 - 기타 전문점","category":"other"}]},{"lat":"37.356146823","long":"126.95562253","imageIndex":17,"items":[{"name":"경기문고(과세)","tel":"031-429-3314","addr":"경기도 군포시 당정동 339-8번지 2층","indutype":"서적문구 - 일반서적","category":"other"}]},{"lat":"37.34367446","long":"126.95017954","imageIndex":17,"items":[{"name":"경민통신","tel":"031-455-9111","addr":"경기도 군포시 당정동 1011-1번지 대우프라자2 1층 101호","indutype":"사무통신 - 통신기기","category":"other"},{"name":"라온애드","tel":"","addr":"경기도 군포시 당정동 1011-1번지 대우프라자2 2층 202호","indutype":"용역 서비스 - 사무서비스","category":"other"},{"name":"오피스비젼","tel":"031-397-3988","addr":"경기도 군포시 당정동 1011-1 15블럭 1롯트 대우프라자 11 1층 107","indutype":"사무통신 - 기타 사무용품","category":"other"}]},{"lat":"37.359086192","long":"126.96109518","imageIndex":17,"items":[{"name":"광진비철","tel":"031-459-6061","addr":"경기도 군포시 당정동 81-1번지","indutype":"건축자재 - 목재·석재·철물","category":"other"},{"name":"시스템솔루션","tel":"070-4221-1738","addr":"경기도 군포시 당정동 81-1번지","indutype":"전기제품 - 가전제품","category":"other"}]},{"lat":"37.350639586","long":"126.95078413","imageIndex":17,"items":[{"name":"구성공구","tel":"031-456-6617","addr":"경기도 군포시 당정동 513-4번지","indutype":"기타 - 기계공구","category":"other"}]},{"lat":"37.352001357","long":"126.95367255","imageIndex":17,"items":[{"name":"군포당정우편취급소","tel":"031-429-8811","addr":"경기도 군포시 당정동 477-1번지 101호","indutype":"용역 서비스 - 공공요금대행서비스/소","category":"other"},{"name":"한컴","tel":"031-349-8940","addr":"경기도 군포시 당정동 477-1번지 104호","indutype":"사무통신 - 컴퓨터","category":"other"}]},{"lat":"37.347145336","long":"126.95478173","imageIndex":17,"items":[{"name":"군포문화원","tel":"031-397-0195","addr":"경기도 군포시 당정동 969-2번지 군포문화원","indutype":"문화.취미 - 문화취미기타","category":"other"},{"name":"군포문화원","tel":"031-429-5577","addr":"경기도 군포시 당정동 969-2번지","indutype":"용역 서비스 - 사무서비스","category":"other"}]},{"lat":"37.348117106","long":"126.95162104","imageIndex":17,"items":[{"name":"군포사무가구","tel":"031-455-7282","addr":"경기도 군포시 당정동 532번지","indutype":"가구 - 기타가구","category":"other"}]},{"lat":"37.343953639","long":"126.94987464","imageIndex":17,"items":[{"name":"군포시니어클럽","tel":"031-454-2077","addr":"경기도 군포시 당정동 1010-10번지 선경프라자 3층","indutype":"신변잡화 - 기타잡화","category":"other"}]},{"lat":"37.354201098","long":"126.95680887","imageIndex":17,"items":[{"name":"그남자디자인","tel":"031-451-2232","addr":"경기도 군포시 당정동 342-1번지 2층","indutype":"건축자재 - 인테리어전문","category":"other"}]},{"lat":"37.345866819","long":"126.95711867","imageIndex":17,"items":[{"name":"금강실업","tel":"031-454-8845","addr":"경기도 군포시 당정동 988-5번지 송암빌 101호","indutype":"직물 - 카페트,커튼,천막,지물","category":"other"}]},{"lat":"37.365723846","long":"126.9537539","imageIndex":17,"items":[{"name":"금호인테리어","tel":"031-429-3024","addr":"경기도 군포시 당정동 233-5번지 101호","indutype":"건축자재 - 인테리어전문","category":"other"}]},{"lat":"37.365444616","long":"126.95395727","imageIndex":17,"items":[{"name":"까칠한싱크대","tel":"031-472-6561","addr":"경기도 군포시 당정동 231-6번지","indutype":"건축자재 - 인테리어전문","category":"other"},{"name":"봉담산업(주)","tel":"031-459-4829","addr":"경기도 군포시 당정동 231-6번지 지층","indutype":"직물 - 옷감·직물","category":"other"},{"name":"태영인더스트리","tel":"031-477-8825","addr":"경기도 군포시 당정동 231-6번지","indutype":"건축자재 - 목재·석재·철물","category":"other"},{"name":"파워일레콤","tel":"031-392-9869","addr":"경기도 군포시 당정동 231-6번지","indutype":"전기제품 - 기타전기제품","category":"other"}]},{"lat":"37.35175166","long":"126.96034305","imageIndex":17,"items":[{"name":"꼼플레토 (completo)","tel":"031-455-0795","addr":"경기도 군포시 당정동 381-5번지","indutype":"의류 - 맞춤복점","category":"other"},{"name":"영진상사","tel":"031-455-0795","addr":"경기도 군포시 당정동 381-5번지","indutype":"의류 - 기타의류","category":"other"}]},{"lat":"37.352506686","long":"126.95553451","imageIndex":17,"items":[{"name":"나산디자인","tel":"031-455-3551","addr":"경기도 군포시 당정동 470-6번지 3층","indutype":"용역 서비스 - 종합용역","category":"other"},{"name":"태양산업유통","tel":"031-399-0092","addr":"경기도 군포시 당정동 470-6번지 202호","indutype":"전기제품 - 냉열기기","category":"other"}]},{"lat":"37.357725756","long":"126.96136683","imageIndex":17,"items":[{"name":"네오통상","tel":"031-342-7188","addr":"경기도 군포시 당정동 82-2번지","indutype":"신변잡화 - 신발","category":"other"}]},{"lat":"37.346064783","long":"126.9564527","imageIndex":17,"items":[{"name":"노블레스골프존","tel":"031-454-7077","addr":"경기도 군포시 당정동 988-2번지 광개토프라자 401호,402호,403호","indutype":"회원제형태 - 레져업소","category":"other"},{"name":"올바른","tel":"031-429-8204","addr":"경기도 군포시 당정동 988-2번지 광개토프라자 1층 106호","indutype":"건축자재 - 인테리어전문","category":"other"},{"name":"주식회사 신영에스앤씨","tel":"031-477-8515","addr":"경기도 군포시 당정동 988-2번지 광개토프라자 403호","indutype":"전기제품 - 가전제품","category":"other"}]},{"lat":"37.3554461","long":"126.96111977","imageIndex":17,"items":[{"name":"뉴디스","tel":"070-8975-3206","addr":"경기도 군포시 당정동 113-2번지 1층","indutype":"기타 - 기계공구","category":"other"}]},{"lat":"37.351036107","long":"126.95095315","imageIndex":17,"items":[{"name":"다니엘","tel":"031-344-4411","addr":"경기도 군포시 당정동 512-1번지","indutype":"기타 - 기타 전문점","category":"other"},{"name":"주식회사 한국청소회사케이앤씨씨","tel":"031-382-1122","addr":"경기도 군포시 당정동 512-1번지 3층 전체","indutype":"용역 서비스 - 종합용역","category":"other"}]},{"lat":"37.344287061","long":"126.94997597","imageIndex":17,"items":[{"name":"다미스킨테라피","tel":"02-420-7525","addr":"경기도 군포시 당정동 1008-4번지 1층 101호","indutype":"회원제형태 - 기타4","category":"other"}]},{"lat":"37.362389568","long":"126.95250309","imageIndex":17,"items":[{"name":"다인/삼원(담배)","tel":"031-450-5552","addr":"경기도 군포시 당정동 247번지 농심(주)","indutype":"기타 - 기타 전문점","category":"other"},{"name":"청아","tel":"031-450-5555","addr":"경기도 군포시 당정동 247번지","indutype":"신변잡화 - 기타잡화","category":"other"}]},{"lat":"37.344197025","long":"126.95012274","imageIndex":17,"items":[{"name":"당정역중앙공인중개사사무소","tel":"031-457-7400","addr":"경기도 군포시 당정동 1008-5번지 보라빌딩 101호","indutype":"용역 서비스 - 부동산 중개·임대","category":"other"}]},{"lat":"37.344169439","long":"126.94889266","imageIndex":17,"items":[{"name":"당정카피랜드","tel":"031-453-0192","addr":"경기도 군포시 당정동 1010-3번지 1층","indutype":"용역 서비스 - 사무서비스","category":"other"}]},{"lat":"37.356310113","long":"126.95847809","imageIndex":17,"items":[{"name":"대동기업","tel":"031-457-0889","addr":"경기도 군포시 당정동 150","indutype":"기타 - 기계공구","category":"other"}]},{"lat":"37.351144279","long":"126.95106594","imageIndex":17,"items":[{"name":"대동특수용접","tel":"031-456-9507","addr":"경기도 군포시 당정동 512-6번지","indutype":"기타 - 기타 전문점","category":"other"}]},{"lat":"37.345279031","long":"126.95191639","imageIndex":17,"items":[{"name":"대림","tel":"","addr":"경기도 군포시 당정동 1001-1번지 한솔솔파크아파트","indutype":"건축자재 - 인테리어전문","category":"other"}]},{"lat":"37.355199754","long":"126.95317383","imageIndex":17,"items":[{"name":"대명종합산업","tel":"031-456-4354","addr":"경기도 군포시 당정동 326번지","indutype":"전기제품 - 냉열기기","category":"other"},{"name":"레투스 코퍼레이션","tel":"031-629-5199","addr":"경기도 군포시 당정동 326번지","indutype":"가구 - 일반가구","category":"other"}]},{"lat":"37.352200241","long":"126.9552864","imageIndex":17,"items":[{"name":"대성","tel":"031-459-4440","addr":"경기도 군포시 당정동 469-3번지 1층","indutype":"용역 서비스 - 사무서비스","category":"other"}]},{"lat":"37.354172865","long":"126.95381786","imageIndex":17,"items":[{"name":"대영마킹M/C","tel":"031-456-6435","addr":"경기도 군포시 당정동 325-27번지","indutype":"기타 - 기타 전문점","category":"other"},{"name":"열린세상","tel":"031-452-7662","addr":"경기도 군포시 당정동 325-27번지 4층","indutype":"서적문구 - 문구용품","category":"other"}]},{"lat":"37.357832912","long":"126.95870294","imageIndex":17,"items":[{"name":"대영제경","tel":"031-447-9306","addr":"경기도 군포시 당정동 59-4번지","indutype":"건축자재 - 유리","category":"other"}]},{"lat":"37.355416092","long":"126.95339943","imageIndex":17,"items":[{"name":"대한FA종합상사","tel":"031-454-5167","addr":"경기도 군포시 당정동 327-23번지","indutype":"신변잡화 - 기타잡화","category":"other"}]},{"lat":"37.352445278","long":"126.95989119","imageIndex":17,"items":[{"name":"대호종합배관","tel":"031-429-8917","addr":"경기도 군포시 당정동 376-1번지","indutype":"건축자재 - 기타건축자재","category":"other"},{"name":"포토젠","tel":"031-459-0150","addr":"경기도 군포시 당정동 376-1번지 2층","indutype":"기타 - 기타 전문점","category":"other"}]},{"lat":"37.35183938","long":"126.95416926","imageIndex":17,"items":[{"name":"덕수공구","tel":"031-457-0532","addr":"경기도 군포시 당정동 476-5번지","indutype":"기타 - 기계공구","category":"other"}]},{"lat":"37.348675613","long":"126.9513385","imageIndex":17,"items":[{"name":"덕이에어컨","tel":"","addr":"경기도 군포시 당정동 525번지","indutype":"수리서비스 - 가정용품수리","category":"other"}]},{"lat":"37.342367447","long":"126.94898423","imageIndex":17,"items":[{"name":"도우디앤에프 주식회사","tel":"031-689-3655","addr":"경기도 군포시 당정동 1017-6번지 느티나무빌딩 3층","indutype":"가구 - 일반가구","category":"other"}]},{"lat":"37.364588606","long":"126.95384494","imageIndex":17,"items":[{"name":"동광/원격지","tel":"02-805-4016","addr":"경기도 군포시 당정동 231-34","indutype":"기타 - 기타 전문점","category":"other"}]},{"lat":"37.353083358","long":"126.95559059","imageIndex":17,"items":[{"name":"동남정밀","tel":"031-456-0806","addr":"경기도 군포시 당정동 352-10번지","indutype":"기타 - 기계공구","category":"other"}]},{"lat":"37.352308705","long":"126.95614412","imageIndex":17,"items":[{"name":"동남화공상사","tel":"031-456-3626","addr":"경기도 군포시 당정동 467-5번지","indutype":"기타 - 기타 전문점","category":"other"}]},{"lat":"37.351559779","long":"126.95348097","imageIndex":17,"items":[{"name":"동명문화사","tel":"031-451-2428","addr":"경기도 군포시 당정동 506-3번지","indutype":"서적문구 - 출판 및 인쇄물","category":"other"}]},{"lat":"37.35353306","long":"126.95361512","imageIndex":17,"items":[{"name":"동신엔지니어링","tel":"031-452-9344","addr":"경기도 군포시 당정동 324-8번지","indutype":"전기제품 - 기타전기제품","category":"other"},{"name":"예림기획","tel":"031-452-2253","addr":"경기도 군포시 당정동 324-8번지","indutype":"용역 서비스 - 종합용역","category":"other"}]},{"lat":"37.354362008","long":"126.95364843","imageIndex":17,"items":[{"name":"동양시스템전자(주)","tel":"031-456-9135","addr":"경기도 군포시 당정동 325-11번지","indutype":"전기제품 - 기타전기제품","category":"other"},{"name":"동양시스템전자(주)/원격지","tel":"031-456-9135","addr":"경기도 군포시 당정동 325-11번지","indutype":"기타 - 기타 전문점","category":"other"}]},{"lat":"37.347588374","long":"126.95873151","imageIndex":17,"items":[{"name":"두성종합지류판매(주)","tel":"031-427-4054","addr":"경기도 군포시 당정동 570번지","indutype":"직물 - 카페트,커튼,천막,지물","category":"other"}]},{"lat":"37.355723512","long":"126.95604041","imageIndex":17,"items":[{"name":"두화전자통신(주)","tel":"031-429-3375","addr":"경기도 군포시 당정동 339-10번지","indutype":"사무통신 - 통신기기","category":"other"}]},{"lat":"37.347758418","long":"126.95575193","imageIndex":17,"items":[{"name":"드림기획","tel":"","addr":"경기도 군포시 당정동 974-11번지 대명빌 4동 405호","indutype":"용역 서비스 - 종합용역","category":"other"}]},{"lat":"37.346947615","long":"126.95603458","imageIndex":17,"items":[{"name":"로뎀","tel":"02-1234-1234","addr":"경기도 군포시 당정동 980-3번지 신세기프라자 3층 302호","indutype":"문화.취미 - 문화취미기타","category":"other"},{"name":"에이치디(HD)통신","tel":"031-429-2235","addr":"경기도 군포시 당정동 980-3번지 신세기프라자 1층 102호","indutype":"사무통신 - 통신기기","category":"other"}]},{"lat":"37.356696769","long":"126.95644615","imageIndex":17,"items":[{"name":"마이텍","tel":"031-454-0794","addr":"경기도 군포시 당정동 150-18번지 1층","indutype":"기타 - 기계공구","category":"other"}]},{"lat":"37.35513989","long":"126.9615037","imageIndex":17,"items":[{"name":"마제스타","tel":"","addr":"경기도 군포시 당정동 108-1번지 2층","indutype":"용역 서비스 - 보관및 창고업","category":"other"}]},{"lat":"37.34658711","long":"126.95578652","imageIndex":17,"items":[{"name":"모닝글로리당정점","tel":"031-451-0360","addr":"경기도 군포시 당정동 47블럭5,6롯트태영프라자111","indutype":"서적문구 - 문구용품","category":"other"},{"name":"이오인테리어","tel":"031-388-8808","addr":"경기도 군포시 당정동 971-9번지 외1필지태영프라자 110호","indutype":"주방용구 - 주방용구","category":"other"},{"name":"최봉재세무회계사무소","tel":"031-477-1501","addr":"경기도 군포시 당정동 971-9번지 태영프라자 201호","indutype":"용역 서비스 - 법률회계서비스(개인)","category":"other"}]},{"lat":"37.353697751","long":"126.96005978","imageIndex":17,"items":[{"name":"모던테크","tel":"","addr":"경기도 군포시 당정동 107-1","indutype":"기타 - 기계공구","category":"other"},{"name":"세정정밀","tel":"031-458-4554","addr":"경기도 군포시 당정동 107-1","indutype":"기타 - 기계공구","category":"other"}]},{"lat":"37.36413997","long":"126.95858636","imageIndex":17,"items":[{"name":"모두디자인","tel":"031-1833-7911","addr":"경기도 군포시 당정동 12-1번지 외2필지","indutype":"서적문구 - 출판 및 인쇄물","category":"other"},{"name":"월드스포츠클럽","tel":"031-427-4868","addr":"경기도 군포시 당정동 12-1번지","indutype":"용역 서비스 - 사무서비스","category":"other"},{"name":"이씨엠전자담배군포의왕점","tel":"031-206-9580","addr":"경기도 군포시 당정동 12-1번지 1층","indutype":"기타 - 기타 전문점","category":"other"}]},{"lat":"37.349507412","long":"126.9583918","imageIndex":17,"items":[{"name":"미림꽃농원(화원)","tel":"031-393-7774","addr":"경기도 군포시 당정동 406번지","indutype":"문화.취미 - 화원","category":"other"}]},{"lat":"37.34758829","long":"126.9585058","imageIndex":17,"items":[{"name":"미스터카약(MR KAYAK)","tel":"031-388-5840","addr":"경기도 군포시 당정동 571번지 1층 101호","indutype":"레져용품 - 스포츠·레져용품","category":"other"}]},{"lat":"37.364031891","long":"126.9586993","imageIndex":17,"items":[{"name":"백년해로 안양중앙점","tel":"031-427-7090","addr":"경기도 군포시 당정동 12-3.1층","indutype":"의류 - 맞춤복점","category":"other"},{"name":"성원상사","tel":"031-455-3009","addr":"경기도 군포시 당정동 12-3 1층","indutype":"유통업 영리 - 기타유통업","category":"other"},{"name":"퍼니퍼니","tel":"031-456-1616","addr":"경기도 군포시 당정동 12-3,1층","indutype":"가구 - 일반가구","category":"other"}]},{"lat":"37.360030161","long":"126.95552979","imageIndex":17,"items":[{"name":"부여철강","tel":"031-452-5728","addr":"경기도 군포시 당정동 174-7번지","indutype":"건축자재 - 기타건축자재","category":"other"}]},{"lat":"37.365200817","long":"126.9527044","imageIndex":17,"items":[{"name":"부여템프콘(주)","tel":"031-452-1122","addr":"경기도 군포시 당정동 236-12번지","indutype":"기타 - 기타 전문점","category":"other"}]},{"lat":"37.349533198","long":"126.9551978","imageIndex":17,"items":[{"name":"빛나리","tel":"031-427-9828","addr":"경기도 군포시 당정동 448-3번지 1층","indutype":"건축자재 - 조명기구","category":"other"},{"name":"싸인테크","tel":"031-477-4800","addr":"경기도 군포시 당정동 448-3번지","indutype":"용역 서비스 - 종합용역","category":"other"}]},{"lat":"37.358112121","long":"126.95842059","imageIndex":17,"items":[{"name":"빛춤라이팅","tel":"031-445-8481","addr":"경기도 군포시 당정동 59-3 금봉테크노밸리 901호","indutype":"건축자재 - 조명기구","category":"other"},{"name":"씨엘전자 주식회사","tel":"031-424-0365","addr":"경기도 군포시 당정동 59-3번지","indutype":"전기제품 - 가전제품","category":"other"},{"name":"한국콤마주식회사","tel":"070-8867-1375","addr":"경기도 군포시 당정동 59-3번지 금봉테크노벨리 803호","indutype":"주방용구 - 주방용구","category":"other"}]},{"lat":"37.362643685","long":"126.95700689","imageIndex":17,"items":[{"name":"산수전기","tel":"031-427-6480","addr":"경기도 군포시 당정동 18-17 1층","indutype":"수리서비스 - 기타수리서비스","category":"other"}]},{"lat":"37.35397624","long":"126.95783611","imageIndex":17,"items":[{"name":"삼동주방가구","tel":"031-429-6621","addr":"경기도 군포시 당정동 364-1번지","indutype":"주방용구 - 주방용구","category":"other"}]},{"lat":"37.35289467","long":"126.95692253","imageIndex":17,"items":[{"name":"삼일우드","tel":"031-431-7461","addr":"경기도 군포시 당정동 352-17번지","indutype":"건축자재 - 목재·석재·철물","category":"other"}]},{"lat":"37.365363986","long":"126.95508618","imageIndex":17,"items":[{"name":"삼주식품","tel":"031-455-6488","addr":"경기도 군포시 당정동 6-20번지","indutype":"회원제형태 - 기타4","category":"other"}]},{"lat":"37.351670665","long":"126.96061397","imageIndex":17,"items":[{"name":"삼천엔지니어링","tel":"031-455-3361","addr":"경기도 군포시 당정동 381-6번지","indutype":"기타 - 기계공구","category":"other"},{"name":"세경상사","tel":"031-455-0914","addr":"경기도 군포시 당정동 381-6번지 1층","indutype":"건축자재 - 목재·석재·철물","category":"other"},{"name":"오케이냉동","tel":"031-427-4036","addr":"경기도 군포시 당정동 381-6번지 1층","indutype":"전기제품 - 냉열기기","category":"other"},{"name":"우성진공상사","tel":"031-427-0936","addr":"경기도 군포시 당정동 381-6번지","indutype":"기타 - 기계공구","category":"other"},{"name":"하임툴링","tel":"031-427-8205","addr":"경기도 군포시 당정동 381-6번지","indutype":"기타 - 기계공구","category":"other"}]},{"lat":"37.354805707","long":"126.95925777","imageIndex":17,"items":[{"name":"삼화열처리","tel":"031-453-1378","addr":"경기도 군포시 당정동 111-1번지","indutype":"기타 - 기계공구","category":"other"},{"name":"특판상사","tel":"031-455-0300","addr":"경기도 군포시 당정동 111-1번지","indutype":"유통업 영리 - 기타유통업","category":"other"},{"name":"한샘정밀특수강","tel":"031-429-3977","addr":"경기도 군포시 당정동 111-1번지","indutype":"기타 - 기계공구","category":"other"}]},{"lat":"37.34806461","long":"126.95536801","imageIndex":17,"items":[{"name":"삼흥환경건설(주)","tel":"031-458-6162","addr":"경기도 군포시 당정동 974-3번지 신산본프라자 501호~502호","indutype":"용역 서비스 - 종합용역","category":"other"},{"name":"퍼펙트헬스크럽","tel":"031-477-1116","addr":"경기도 군포시 당정동 974-3번지 신산본프라자 303동 304호","indutype":"회원제형태 - 레져업소","category":"other"},{"name":"한세골프존","tel":"070-8969-6993","addr":"경기도 군포시 당정동 974-3번지 신산본프라자 401호","indutype":"레져용품 - 골프용품 전문점","category":"other"}]},{"lat":"37.351173655","long":"126.95673171","imageIndex":17,"items":[{"name":"삿갓봉열처리","tel":"031-454-8889","addr":"경기도 군포시 당정동 422-1번지","indutype":"기타 - 기타 전문점","category":"other"},{"name":"씨엔아이테크닉스사","tel":"031-453-9270","addr":"경기도 군포시 당정동 422-1번지","indutype":"기타 - 기계공구","category":"other"}]},{"lat":"37.352505972","long":"126.95378509","imageIndex":17,"items":[{"name":"새로포장","tel":"","addr":"경기도 군포시 당정동 482-1번지 3층,4층","indutype":"유통업 영리 - 기타유통업","category":"other"}]},{"lat":"37.365308972","long":"126.95278335","imageIndex":17,"items":[{"name":"서정테크","tel":"03-111-1111","addr":"경기도 군포시 당정동 236-10번지 1층","indutype":"기타 - 기계공구","category":"other"},{"name":"에스와이피킹테크","tel":"","addr":"경기도 군포시 당정동 236-10번지","indutype":"레져용품 - 스포츠·레져용품","category":"other"}]},{"lat":"37.345034682","long":"126.94947888","imageIndex":17,"items":[{"name":"선진철물","tel":"031-427-6831","addr":"경기도 군포시 당정동 1007-5번지 상훈아파트","indutype":"건축자재 - 목재·석재·철물","category":"other"}]},{"lat":"37.344223716","long":"126.9493666","imageIndex":17,"items":[{"name":"선창목재합판상사","tel":"031-443-6277","addr":"경기도 군포시 당정동 1010-7번지","indutype":"건축자재 - 목재·석재·철물","category":"other"}]},{"lat":"37.362390407","long":"126.95451237","imageIndex":17,"items":[{"name":"성엔지니어링","tel":"031-455-0422","addr":"경기도 군포시 당정동 222-2번지","indutype":"기타 - 기계공구","category":"other"}]},{"lat":"37.347822077","long":"126.95725292","imageIndex":17,"items":[{"name":"세븐일레븐군포거성점","tel":"","addr":"경기도 군포시 당정동 984-1번지 거성에이플 104동 지하층 비02호","indutype":"유통업 영리 - 편 의 점","category":"other"}]},{"lat":"37.35891971","long":"126.95031562","imageIndex":17,"items":[{"name":"세븐일레븐군포공단로점","tel":"","addr":"경기도 군포시 당정동 1068번지","indutype":"유통업 영리 - 편 의 점","category":"other"}]},{"lat":"37.357174267","long":"126.95634427","imageIndex":17,"items":[{"name":"세븐일레븐군포공단중앙점","tel":"031-1577-0711","addr":"경기도 군포시 당정동 174-19번지 1층","indutype":"유통업 영리 - 편 의 점","category":"other"}]},{"lat":"37.359029725","long":"126.95476286","imageIndex":17,"items":[{"name":"세븐일레븐군포마리오점","tel":"031-1577-0711","addr":"경기도 군포시 당정동 181-21번지 1층","indutype":"유통업 영리 - 편 의 점","category":"other"}]},{"lat":"37.346810593","long":"126.95153164","imageIndex":17,"items":[{"name":"세븐일레븐군포한세대점","tel":"","addr":"경기도 군포시 당정동 1002-1번지 황토빌딩 1층","indutype":"유통업 영리 - 편 의 점","category":"other"},{"name":"세븐일레븐군포한세대점","tel":"031-1577-0711","addr":"경기도 군포시 당정동 1002-1번지 황토빌딩 1층","indutype":"유통업 영리 - 편 의 점","category":"other"}]},{"lat":"37.355167019","long":"126.96178586","imageIndex":17,"items":[{"name":"세선EDM","tel":"","addr":"경기도 군포시 당정동 103-1번지","indutype":"기타 - 기계공구","category":"other"},{"name":"한신콤프렛서","tel":"031-458-6403","addr":"경기도 군포시 당정동 103-1번지","indutype":"기타 - 기계공구","category":"other"}]},{"lat":"37.350696042","long":"126.95654014","imageIndex":17,"items":[{"name":"세원에프앤씨주식회사","tel":"031-451-6300","addr":"경기도 군포시 당정동 427-2번지","indutype":"문화.취미 - 화원","category":"other"}]},{"lat":"37.353334883","long":"126.95372811","imageIndex":17,"items":[{"name":"소노다인","tel":"031-457-2003","addr":"경기도 군포시 당정동 324-10번지 3층","indutype":"기타 - 기타 전문점","category":"other"}]},{"lat":"37.346143787","long":"126.95140795","imageIndex":17,"items":[{"name":"소망닛시","tel":"031-382-5743","addr":"경기도 군포시 당정동 1001-1번지 한솔솔파크아파트","indutype":"의류 - 내의판매","category":"other"}]},{"lat":"37.355000948","long":"126.95180823","imageIndex":17,"items":[{"name":"신승프라스틱","tel":"031-451-5551","addr":"경기도 군포시 당정동 294-11번지","indutype":"기타 - 기타 전문점","category":"other"}]},{"lat":"37.354696031","long":"126.95522839","imageIndex":17,"items":[{"name":"신안화학","tel":"031-455-0579","addr":"경기도 군포시 당정동 343-10번지","indutype":"기타 - 기타 전문점","category":"other"},{"name":"진흥정공","tel":"031-451-2319","addr":"경기도 군포시 당정동 343-10","indutype":"기타 - 기계공구","category":"other"}]},{"lat":"37.353418193","long":"126.95939402","imageIndex":17,"items":[{"name":"신후주식회사","tel":"031-427-6088","addr":"경기도 군포시 당정동 371-5번지 4층","indutype":"전기제품 - 가전제품","category":"other"}]},{"lat":"37.348008827","long":"126.95125996","imageIndex":17,"items":[{"name":"실리팡베베 주식회사","tel":"070-7797-8108","addr":"경기도 군포시 당정동 629-1번지 4층","indutype":"주방용구 - 주방용식기","category":"other"}]},{"lat":"37.363283544","long":"126.95736773","imageIndex":17,"items":[{"name":"싸인몰","tel":"031-461-4435","addr":"경기도 군포시 당정동 18-2","indutype":"건축자재 - 인테리어전문","category":"other"},{"name":"창앤미","tel":"070-8283-5902","addr":"경기도 군포시 당정동 18-2번지 외 1필지","indutype":"용역 서비스 - 기타용역서비스","category":"other"},{"name":"창앤미","tel":"070-8283-2222","addr":"경기도 군포시 당정동 18-2번지 외 1필지","indutype":"용역 서비스 - 기타용역서비스","category":"other"}]},{"lat":"37.349921545","long":"126.95751123","imageIndex":17,"items":[{"name":"씨유군포고산점","tel":"080-080-3663","addr":"경기도 군포시 당정동 434-1번지 1층","indutype":"유통업 영리 - 편 의 점","category":"other"}]},{"lat":"37.353561009","long":"126.95587246","imageIndex":17,"items":[{"name":"씨유군포공단점","tel":"031-898-6568","addr":"경기도 군포시 당정동 352-6번지 1층","indutype":"유통업 영리 - 편 의 점","category":"other"}]},{"lat":"37.344340771","long":"126.94919724","imageIndex":17,"items":[{"name":"씨유당정역점","tel":"031-427-1240","addr":"경기도 군포시 당정동 1010-5번지 103호","indutype":"유통업 영리 - 편 의 점","category":"other"},{"name":"주식회사 에버빈스","tel":"031-398-8718","addr":"경기도 군포시 당정동 1010-5번지 202호","indutype":"용역 서비스 - 사무서비스","category":"other"}]},{"lat":"37.346783923","long":"126.9523668","imageIndex":17,"items":[{"name":"씨유한세대학교점","tel":"031-898-6568","addr":"경기도 군포시 당정동 964-1번지 한세대학교트윈빌딩 101호","indutype":"유통업 영리 - 편 의 점","category":"other"},{"name":"한세대학교산학협력단","tel":"031-477-7505","addr":"경기도 군포시 당정동 964-1번지 한세대학교","indutype":"용역 서비스 - 사무서비스","category":"other"}]},{"lat":"37.352668202","long":"126.95389785","imageIndex":17,"items":[{"name":"아산테크","tel":"","addr":"경기도 군포시 당정동 481-3번지","indutype":"기타 - 기계공구","category":"other"}]},{"lat":"37.347597108","long":"126.95799792","imageIndex":17,"items":[{"name":"아스텍","tel":"031-473-9107","addr":"경기도 군포시 당정동 985-1번지 거성에이플아파트","indutype":"신변잡화 - 기타잡화","category":"other"}]},{"lat":"37.354424847","long":"126.95309533","imageIndex":17,"items":[{"name":"아이런(솜사랑)","tel":"031-798-6158","addr":"경기도 군포시 당정동 324-1번지 1층","indutype":"직물 - 침구·수예점","category":"other"}]},{"lat":"37.35458774","long":"126.95481084","imageIndex":17,"items":[{"name":"아이엠에스(IMS)/원격지","tel":"031-455-2475","addr":"경기도 군포시 당정동 327-13번지","indutype":"기타 - 기타 전문점","category":"other"}]},{"lat":"37.350920975","long":"126.95572738","imageIndex":17,"items":[{"name":"아이제이화성","tel":"031-429-5411","addr":"경기도 군포시 당정동 426번지","indutype":"기타 - 기타 전문점","category":"other"},{"name":"영경공업사","tel":"031-455-6682","addr":"경기도 군포시 당정동 426번지","indutype":"용역 서비스 - 기타용역서비스","category":"other"}]},{"lat":"37.349667679","long":"126.95356121","imageIndex":17,"items":[{"name":"아이티기획","tel":"031-8068-1500","addr":"경기도 군포시 당정동 543 A동806호","indutype":"서적문구 - 출판 및 인쇄물","category":"other"},{"name":"주식회사군포아이티밸리부동산중개법인","tel":"031-8086-7000","addr":"경기도 군포시 당정동 543, 122","indutype":"건축자재 - 부동산 분양","category":"other"}]},{"lat":"37.3522809","long":"126.95422541","imageIndex":17,"items":[{"name":"아트솔루션","tel":"031-613-3812","addr":"경기도 군포시 당정동 479-1번지 402호","indutype":"전기제품 - 가전제품","category":"other"}]},{"lat":"37.345010073","long":"126.95514423","imageIndex":17,"items":[{"name":"에듀바비 서울 용산지사","tel":"02-1522-0701","addr":"경기도 군포시 당정동 973-1번지 당정마을엘지아파트","indutype":"용역 서비스 - 사무서비스","category":"other"}]},{"lat":"37.349342073","long":"126.95067217","imageIndex":17,"items":[{"name":"에스엠코리아(SM Korea)","tel":"031-459-0380","addr":"경기도 군포시 당정동 526-1번지","indutype":"기타 - 기계공구","category":"other"}]},{"lat":"37.352560501","long":"126.954925","imageIndex":17,"items":[{"name":"에스엠티스카우트(SMTSCOUT)","tel":"031-455-2460","addr":"경기도 군포시 당정동 470-1","indutype":"전기제품 - 기타전기제품","category":"other"}]},{"lat":"37.354002002","long":"126.95461934","imageIndex":17,"items":[{"name":"에스케이옵틱스/원격지","tel":"031-429-2883","addr":"경기도 군포시 당정동 325-30지하1층","indutype":"기타 - 기타 전문점","category":"other"}]},{"lat":"37.345224751","long":"126.95140858","imageIndex":17,"items":[{"name":"에스해원","tel":"031-403-2244","addr":"경기도 군포시 당정동 1001-1번지 한솔솔파크아파트","indutype":"회원제형태 - 기타1","category":"other"}]},{"lat":"37.352200866","long":"126.95686652","imageIndex":17,"items":[{"name":"에코기전/원격지","tel":"","addr":"경기도 군포시 당정동 415-3번지","indutype":"기타 - 기타 전문점","category":"other"},{"name":"주식회사원방테크","tel":"031-423-1760","addr":"경기도 군포시 당정동 415-3번지 1층","indutype":"기타 - 기계공구","category":"other"}]},{"lat":"37.346369358","long":"126.95214137","imageIndex":17,"items":[{"name":"엠아이티건설 주식회사","tel":"031-456-8871","addr":"경기도 군포시 당정동 995-4번지 2층","indutype":"용역 서비스 - 종합용역","category":"other"}]},{"lat":"37.35264187","long":"126.95561344","imageIndex":17,"items":[{"name":"연지기공사","tel":"031-458-8145","addr":"경기도 군포시 당정동 350-2번지","indutype":"기타 - 기계공구","category":"other"}]},{"lat":"37.352533603","long":"126.95525233","imageIndex":17,"items":[{"name":"영강교통(주)","tel":"031-451-3097","addr":"경기도 군포시 당정동 470-5번지","indutype":"여행 - 택시회사","category":"other"}]},{"lat":"37.353977257","long":"126.9605901","imageIndex":17,"items":[{"name":"오롬솔루션","tel":"070-7527-6018","addr":"경기도 군포시 당정동 108-14번지","indutype":"기타 - 기계공구","category":"other"}]},{"lat":"37.353777913","long":"126.95756535","imageIndex":17,"items":[{"name":"오성정밀","tel":"031-458-3936","addr":"경기도 군포시 당정동 364-11번지 1층 2호","indutype":"기타 - 기타 전문점","category":"other"},{"name":"우성전자(주)","tel":"031-479-5396","addr":"경기도 군포시 당정동 364-11번지","indutype":"전기제품 - 기타전기제품","category":"other"}]},{"lat":"37.347353544","long":"126.95724192","imageIndex":17,"items":[{"name":"오피스마루(주)","tel":"02-6403-1497","addr":"경기도 군포시 당정동 983-9번지 뷰티하우스 3동 201호","indutype":"서적문구 - 문구용품","category":"other"}]},{"lat":"37.351974703","long":"126.95458678","imageIndex":17,"items":[{"name":"오피스큐군포점","tel":"031-457-2326","addr":"경기도 군포시 당정동 473-5번지","indutype":"서적문구 - 문구용품","category":"other"},{"name":"주식회사 지엠무역","tel":"070-8863-1100","addr":"경기도 군포시 당정동 473-5번지 2층","indutype":"유통업 영리 - 기타유통업","category":"other"}]},{"lat":"37.340664535","long":"126.94900801","imageIndex":17,"items":[{"name":"와이유기프트","tel":"031-394-9641","addr":"경기도 군포시 당정동 1019-1번지 대원칸타빌 107동 503호","indutype":"유통업 영리 - 기타유통업","category":"other"}]},{"lat":"37.352560882","long":"126.95587308","imageIndex":17,"items":[{"name":"우리도료","tel":"031-427-9113","addr":"경기도 군포시 당정동 351-2번지","indutype":"건축자재 - 페인트","category":"other"}]},{"lat":"37.35164172","long":"126.95555763","imageIndex":17,"items":[{"name":"우주산업","tel":"031-396-3382","addr":"경기도 군포시 당정동 464-4번지","indutype":"주방용구 - 주방용구","category":"other"}]},{"lat":"37.344115532","long":"126.94923126","imageIndex":17,"items":[{"name":"원모어플라워","tel":"","addr":"경기도 군포시 당정동 1010-6번지 에디스 1층 101호","indutype":"문화.취미 - 화원","category":"other"}]},{"lat":"37.351949732","long":"126.95992533","imageIndex":17,"items":[{"name":"위드미현대케피코점","tel":"02-6916-1500","addr":"경기도 군포시 당정동 376-4번지","indutype":"유통업 영리 - 편 의 점","category":"other"}]},{"lat":"37.351614815","long":"126.95587367","imageIndex":17,"items":[{"name":"윤테크","tel":"031-254-6648","addr":"경기도 군포시 당정동 465번지","indutype":"기타 - 기계공구","category":"other"}]},{"lat":"37.351923022","long":"126.96081699","imageIndex":17,"items":[{"name":"의왕상사","tel":"031-457-9930","addr":"경기도 군포시 당정동 380-1번지","indutype":"기타 - 기계공구","category":"other"}]},{"lat":"37.358695936","long":"126.95375848","imageIndex":17,"items":[{"name":"이글루아이스 주식회사","tel":"031-454-3800","addr":"경기도 군포시 당정동 181-26번지 대보산업공장 2층 201호","indutype":"주방용구 - 주방용구","category":"other"}]},{"lat":"37.349695954","long":"126.95664233","imageIndex":17,"items":[{"name":"이래산업","tel":"031-455-1890","addr":"경기도 군포시 당정동 437-11번지 1층","indutype":"기타 - 기계공구","category":"other"}]},{"lat":"37.345747502","long":"126.95178065","imageIndex":17,"items":[{"name":"이원상사","tel":"02-572-9698","addr":"경기도 군포시 당정동 1001-1번지 한솔솔파크아파트","indutype":"직물 - 옷감·직물","category":"other"}]},{"lat":"37.355725267","long":"126.96070199","imageIndex":17,"items":[{"name":"장애인기업이음","tel":"031-453-1112","addr":"경기도 군포시 당정동 908-77번지","indutype":"신변잡화 - 기타잡화","category":"other"}]},{"lat":"37.362868068","long":"126.95481685","imageIndex":17,"items":[{"name":"정풍상사","tel":"031-388-2734","addr":"경기도 군포시 당정동 225-7번지","indutype":"기타 - 기타 전문점","category":"other"}]},{"lat":"37.357030556","long":"126.95750695","imageIndex":17,"items":[{"name":"제로엔지니어링","tel":"031-453-0400","addr":"경기도 군포시 당정동 150-16번지 1층","indutype":"기타 - 기타 전문점","category":"other"}]},{"lat":"37.347451873","long":"126.95525554","imageIndex":17,"items":[{"name":"제우스노래뮤비방","tel":"031-456-8260","addr":"경기도 군포시 당정동 970-11번지 3층","indutype":"용역 서비스 - 종합용역","category":"other"}]},{"lat":"37.345602235","long":"126.94928663","imageIndex":17,"items":[{"name":"제이제이골프(JJ GOLF)","tel":"031-429-8332","addr":"경기도 군포시 당정동 1007-3번지 오성푸르메아파트","indutype":"레져용품 - 스포츠·레져용품","category":"other"}]},{"lat":"37.35230901","long":"126.95692289","imageIndex":17,"items":[{"name":"제일특수기술","tel":"031-456-6474","addr":"경기도 군포시 당정동 415-2","indutype":"기타 - 기계공구","category":"other"}]},{"lat":"37.365723907","long":"126.95390065","imageIndex":17,"items":[{"name":"조은에어컨","tel":"","addr":"경기도 군포시 당정동 233-6번지 4층","indutype":"용역 서비스 - 기타용역서비스","category":"other"}]},{"lat":"37.354947517","long":"126.95328687","imageIndex":17,"items":[{"name":"주식회사 그린플로우","tel":"231-459-0674","addr":"경기도 군포시 당정동 325번지","indutype":"기타 - 기계공구","category":"other"}]},{"lat":"37.351695115","long":"126.95392105","imageIndex":17,"items":[{"name":"주식회사 네오팩토리","tel":"070-4649-1101","addr":"경기도 군포시 당정동 476-3번지 대준빌딩 202호","indutype":"신변잡화 - 기타잡화","category":"other"}]},{"lat":"37.356416369","long":"126.95375996","imageIndex":17,"items":[{"name":"주식회사 다첸","tel":"031-392-8834","addr":"경기도 군포시 당정동 181-40번지 신광프라자 3층","indutype":"전기제품 - 가전제품","category":"other"}]},{"lat":"37.358227442","long":"126.9538378","imageIndex":17,"items":[{"name":"주식회사 대영씨앤티","tel":"031-458-1425","addr":"경기도 군포시 당정동 181-29번지","indutype":"서적문구 - 과학기자재","category":"other"}]},{"lat":"37.343926139","long":"126.9488364","imageIndex":17,"items":[{"name":"주식회사 더울프","tel":"070-4218-3337","addr":"경기도 군포시 당정동 1013-1번지 동원빌딩 104호","indutype":"사무통신 - 통신기기","category":"other"},{"name":"포스걸","tel":"070-7680-8057","addr":"경기도 군포시 당정동 1013-1번지 동원빌딩 101호","indutype":"의류 - 정장","category":"other"},{"name":"해림세무회계","tel":"031-457-0015","addr":"경기도 군포시 당정동 1013-1번지 동원빌딩 5층 502호","indutype":"용역 서비스 - 법률회계서비스(개인)","category":"other"}]},{"lat":"37.364363488","long":"126.95417246","imageIndex":17,"items":[{"name":"주식회사 볼테크","tel":"031-451-2833","addr":"경기도 군포시 당정동 231-36번지","indutype":"기타 - 기계공구","category":"other"}]},{"lat":"37.352445775","long":"126.96127945","imageIndex":17,"items":[{"name":"주식회사 삼화열처리","tel":"031-453-1378","addr":"경기도 군포시 당정동 379번지","indutype":"기타 - 기계공구","category":"other"}]},{"lat":"37.354640972","long":"126.95281302","imageIndex":17,"items":[{"name":"주식회사 소프트다이아","tel":"031-429-2890","addr":"경기도 군포시 당정동 322-1번지 1층","indutype":"기타 - 기계공구","category":"other"}]},{"lat":"37.346702667","long":"126.95198314","imageIndex":17,"items":[{"name":"주식회사 소프트로","tel":"031-000-0000","addr":"경기도 군포시 당정동 995-2번지 나동 501호","indutype":"용역 서비스 - 소프트웨어","category":"other"}]},{"lat":"37.351173425","long":"126.95614482","imageIndex":17,"items":[{"name":"주식회사 엔텍스","tel":"031-429-9991","addr":"경기도 군포시 당정동 424번지 1층","indutype":"건축자재 - 목재·석재·철물","category":"other"}]},{"lat":"37.364831715","long":"126.95344969","imageIndex":17,"items":[{"name":"주식회사 엘케이글로벌","tel":"070-8839-3133","addr":"경기도 군포시 당정동 231-25번지 나동","indutype":"의류 - 정장","category":"other"}]},{"lat":"37.359614938","long":"126.95367887","imageIndex":17,"items":[{"name":"주식회사 우림코리아","tel":"031-455-0018","addr":"경기도 군포시 당정동 281-3번지","indutype":"회원제형태 - 기타4","category":"other"},{"name":"하비존(HOBBYZONE)","tel":"070-8727-6651","addr":"경기도 군포시 당정동 281-3번지 2층","indutype":"서적문구 - 완구점","category":"other"}]},{"lat":"37.359669737","long":"126.95548486","imageIndex":17,"items":[{"name":"주식회사 우성글라스텍","tel":"031-455-6300","addr":"경기도 군포시 당정동 174-8번지 나동","indutype":"건축자재 - 유리","category":"other"}]},{"lat":"37.351389304","long":"126.95523048","imageIndex":17,"items":[{"name":"주식회사 유엠","tel":"031-451-1104","addr":"경기도 군포시 당정동 462번지","indutype":"기타 - 기계공구","category":"other"}]},{"lat":"37.341889908","long":"126.94898457","imageIndex":17,"items":[{"name":"주식회사대림이앤씨","tel":"031-1877-5804","addr":"경기도 군포시 당정동 1017-11번지","indutype":"용역 서비스 - 기타용역서비스","category":"other"}]},{"lat":"37.351669117","long":"126.95648311","imageIndex":17,"items":[{"name":"주식회사대영씨앤티/원격지","tel":"031-458-1425","addr":"경기도 군포시 당정동 419-1번지","indutype":"기타 - 기타 전문점","category":"other"}]},{"lat":"37.355281006","long":"126.95355754","imageIndex":17,"items":[{"name":"주식회사더블유에스에이","tel":"031-426-8536","addr":"경기도 군포시 당정동 327-20번지 (주)WSA","indutype":"건축자재 - 보일러·펌프·샷시","category":"other"}]},{"lat":"37.354364556","long":"126.96020613","imageIndex":17,"items":[{"name":"주식회사디앤디테크놀로지/원격지","tel":"031-445-2340","addr":"경기도 군포시 당정동 110-3번지 3층","indutype":"기타 - 기타 전문점","category":"other"}]},{"lat":"37.349452395","long":"126.95592016","imageIndex":17,"items":[{"name":"주식회사리드앤","tel":"031-386-7780","addr":"경기도 군포시 당정동 447-1번지 7층","indutype":"사무통신 - 컴퓨터","category":"other"}]},{"lat":"37.352562166","long":"126.95922521","imageIndex":17,"items":[{"name":"주식회사리모템/원격지","tel":"031-381-2435","addr":"경기도 군포시 당정동 366-9번지 202호","indutype":"기타 - 기타 전문점","category":"other"}]},{"lat":"37.354587355","long":"126.95387403","imageIndex":17,"items":[{"name":"주식회사반도상사","tel":"031-478-2500","addr":"경기도 군포시 당정동 327-17번지","indutype":"전기제품 - 기타전기제품","category":"other"}]},{"lat":"37.365110797","long":"126.95289637","imageIndex":17,"items":[{"name":"주식회사부여레이져","tel":"031-458-5755","addr":"경기도 군포시 당정동 236-9번지","indutype":"건축자재 - 기타건축자재","category":"other"}]},{"lat":"37.356200992","long":"126.95589338","imageIndex":17,"items":[{"name":"주식회사샤인엔프라","tel":"031-457-0527","addr":"경기도 군포시 당정동 339-9번지 지층","indutype":"기타 - 기계공구","category":"other"}]},{"lat":"37.359002164","long":"126.95347609","imageIndex":17,"items":[{"name":"주식회사신성산업","tel":"031-456-0426","addr":"경기도 군포시 당정동 181-16번지","indutype":"건축자재 - 기타건축자재","category":"other"}]},{"lat":"37.350477418","long":"126.9508181","imageIndex":17,"items":[{"name":"주식회사신영금속","tel":"031-451-4611","addr":"경기도 군포시 당정동 514","indutype":"기타 - 기타 전문점","category":"other"}]},{"lat":"37.364642327","long":"126.95303214","imageIndex":17,"items":[{"name":"주식회사아주비철","tel":"031-427-1034","addr":"경기도 군포시 당정동 236-4번지","indutype":"건축자재 - 기타건축자재","category":"other"}]},{"lat":"37.356282566","long":"126.95712364","imageIndex":17,"items":[{"name":"주식회사애니일렉트로닉스","tel":"031-457-1329","addr":"경기도 군포시 당정동 150-20번지 피케이벤처타워 402호","indutype":"전기제품 - 기타전기제품","category":"other"},{"name":"지안이엔지","tel":"031-429-2071","addr":"경기도 군포시 당정동 150-20 PK벤처타워 502-1호","indutype":"기타 - 기계공구","category":"other"}]},{"lat":"37.347757628","long":"126.95381075","imageIndex":17,"items":[{"name":"주식회사영진코퍼레이션","tel":"031-308-4226","addr":"경기도 군포시 당정동 965-2번지 남원빌딩 2층","indutype":"서적문구 - 과학기자재","category":"other"},{"name":"주식회사영진코퍼레이션/원격지","tel":"031-457-9187","addr":"경기도 군포시 당정동 965-2번지 남원빌딩 2층","indutype":"기타 - 기타 전문점","category":"other"}]},{"lat":"37.3486956","long":"126.95606735","imageIndex":17,"items":[{"name":"주식회사오성유통","tel":"031-426-1811","addr":"경기도 군포시 당정동 975-3번지 골든빌","indutype":"유통업 영리 - 편 의 점","category":"other"}]},{"lat":"37.341925856","long":"126.94878141","imageIndex":17,"items":[{"name":"주식회사카모아","tel":"031-273-3233","addr":"경기도 군포시 당정동 1017-4번지 아유림 2층","indutype":"용역 서비스 - 종합용역","category":"other"}]},{"lat":"37.354253688","long":"126.95317446","imageIndex":17,"items":[{"name":"주식회사코아전기","tel":"031-453-3088","addr":"경기도 군포시 당정동 324-14번지","indutype":"전기제품 - 기타전기제품","category":"other"},{"name":"주식회사코아전기/원격지","tel":"031-453-3088","addr":"경기도 군포시 당정동 324-14번지","indutype":"기타 - 기타 전문점","category":"other"}]},{"lat":"37.347532855","long":"126.95498463","imageIndex":17,"items":[{"name":"주식회사티투엘","tel":"031-429-0767","addr":"경기도 군포시 당정동 35블럭9롯트보흥빌딩402","indutype":"전기제품 - 기타전기제품","category":"other"},{"name":"주식회사티투엘/원격지","tel":"031-429-0767","addr":"경기도 군포시 당정동 35블럭9롯트보흥빌딩402","indutype":"기타 - 기타 전문점","category":"other"}]},{"lat":"37.353614118","long":"126.95353605","imageIndex":17,"items":[{"name":"주식회사파우미","tel":"031-479-0303","addr":"경기도 군포시 당정동 324-7번지 1층","indutype":"건축자재 - 페인트","category":"other"}]},{"lat":"37.357527345","long":"126.96083643","imageIndex":17,"items":[{"name":"주식회사한성GT","tel":"031-428-8200","addr":"경기도 군포시 당정동 91-10번지 한성상사(주)","indutype":"기타 - 기계공구","category":"other"},{"name":"한성","tel":"031-428-8241","addr":"경기도 군포시 당정동 91-10번지","indutype":"기타 - 기타 전문점","category":"other"},{"name":"한성/원격지","tel":"031-428-8210","addr":"경기도 군포시 당정동 91-10번지","indutype":"기타 - 기타 전문점","category":"other"}]},{"lat":"37.346035053","long":"126.95001989","imageIndex":17,"items":[{"name":"쥬엑스(ZOOX)엔터프라이즈","tel":"070-8621-2004","addr":"경기도 군포시 당정동 1001-1번지 한솔솔파크아파트","indutype":"문화.취미 - 애완동물","category":"other"}]},{"lat":"37.342233526","long":"126.95176046","imageIndex":17,"items":[{"name":"지엠케이","tel":"031-477-8710","addr":"경기도 군포시 당정동 1025-1번지 청천마을대우아파트","indutype":"주방용구 - 주방용구","category":"other"},{"name":"헤어조이","tel":"031-399-2271","addr":"경기도 군포시 당정동 1025-1번지 청천마을대우아파트","indutype":"회원제형태 - 기타1","category":"other"}]},{"lat":"37.348864138","long":"126.9497809","imageIndex":17,"items":[{"name":"진성","tel":"031-427-5001","addr":"경기도 군포시 당정동 631번지","indutype":"건축자재 - 기타건축자재","category":"other"}]},{"lat":"37.350838017","long":"126.95125802","imageIndex":17,"items":[{"name":"창신종합상사","tel":"031-459-2551","addr":"경기도 군포시 당정동 512-7번지","indutype":"기타 - 기계공구","category":"other"}]},{"lat":"37.354563201","long":"126.96139115","imageIndex":17,"items":[{"name":"청계상공사","tel":"031-429-5978","addr":"경기도 군포시 당정동 103-2번지","indutype":"기타 - 기타 전문점","category":"other"}]},{"lat":"37.341980009","long":"126.9489845","imageIndex":17,"items":[{"name":"초록환경개발","tel":"031-427-0181","addr":"경기도 군포시 당정동 1017-10번지","indutype":"용역 서비스 - 종합용역","category":"other"}]},{"lat":"37.343421549","long":"126.94879162","imageIndex":17,"items":[{"name":"초코라멜","tel":"031-427-8286","addr":"경기도 군포시 당정동 1014-1번지 2층","indutype":"광학제품 - 사진관","category":"other"}]},{"lat":"37.347812193","long":"126.95504088","imageIndex":17,"items":[{"name":"카스산업계기","tel":"031-451-1790","addr":"경기도 군포시 당정동 970-9번지 당정메디칼빌딩 201호","indutype":"기타 - 기계공구","category":"other"},{"name":"한혜림스타일","tel":"031-477-1575","addr":"경기도 군포시 당정동 970-9번지 당정매디칼빌딩 101호","indutype":"의류 - 정장","category":"other"}]},{"lat":"37.343088909","long":"126.95042822","imageIndex":17,"items":[{"name":"코텍이엔지","tel":"031-455-7114","addr":"경기도 군포시 당정동 1012-4번지 대우프라자 303호","indutype":"건축자재 - 기타건축자재","category":"other"}]},{"lat":"37.348587344","long":"126.95572884","imageIndex":17,"items":[{"name":"크린토피아군포당정엘지점","tel":"031-456-5680","addr":"경기도 군포시 당정동 975-5번지 태영프라자 109호 외1필지","indutype":"수리서비스 - 세탁소","category":"other"}]},{"lat":"37.356201277","long":"126.95661576","imageIndex":17,"items":[{"name":"태산상사","tel":"031-455-5545","addr":"경기도 군포시 당정동 169번지","indutype":"유통업 영리 - 기타유통업","category":"other"}]},{"lat":"37.350306852","long":"126.95226287","imageIndex":17,"items":[{"name":"태영도서","tel":"031-458-8303","addr":"경기도 군포시 당정동 508-10번지 지층","indutype":"회원제형태 - 서적","category":"other"}]},{"lat":"37.356507635","long":"126.95664944","imageIndex":17,"items":[{"name":"태영와이어","tel":"031-459-0901","addr":"경기도 군포시 당정동 150-19번지 1층","indutype":"기타 - 기타 전문점","category":"other"}]},{"lat":"37.350146245","long":"126.95608903","imageIndex":17,"items":[{"name":"태현우드","tel":"031-451-7968","addr":"경기도 군포시 당정동 437-8번지 1층","indutype":"건축자재 - 목재·석재·철물","category":"other"}]},{"lat":"37.358589878","long":"126.95900726","imageIndex":17,"items":[{"name":"테림정공","tel":"","addr":"경기도 군포시 당정동 59-26번지","indutype":"기타 - 기타 전문점","category":"other"}]},{"lat":"37.360721613","long":"126.95003216","imageIndex":17,"items":[{"name":"토이온","tel":"031-457-5770","addr":"경기도 군포시 당정동 265번지 2층","indutype":"서적문구 - 완구점","category":"other"}]},{"lat":"37.363698671","long":"126.95911717","imageIndex":17,"items":[{"name":"토탈전자","tel":"031-453-8383","addr":"경기도 군포시 당정동 13번지","indutype":"전기제품 - 가전제품","category":"other"}]},{"lat":"37.34164654","long":"126.94878161","imageIndex":17,"items":[{"name":"티센크루프엘리베이터코리아(주)경기","tel":"031-459-8415","addr":"경기도 군포시 당정동 1018-1번지 네이처빌 2층","indutype":"용역 서비스 - 기타용역서비스","category":"other"}]},{"lat":"37.354586758","long":"126.95245187","imageIndex":17,"items":[{"name":"파크애드","tel":"031-427-6606","addr":"경기도 군포시 당정동 321-7번지 1층","indutype":"건축자재 - 인테리어전문","category":"other"}]},{"lat":"37.349921296","long":"126.95686792","imageIndex":17,"items":[{"name":"하영종합상사","tel":"031-477-3507","addr":"경기도 군포시 당정동 437-7","indutype":"유통업 영리 - 기타유통업","category":"other"}]},{"lat":"37.347756493","long":"126.95114727","imageIndex":17,"items":[{"name":"한국강화프라스틱","tel":"031-452-5575","addr":"경기도 군포시 당정동 627-1번지","indutype":"기타 - 기타 전문점","category":"other"}]},{"lat":"37.34947956","long":"126.95625873","imageIndex":17,"items":[{"name":"한라나이스테크","tel":"031-455-3184","addr":"경기도 군포시 당정동 438외2필지","indutype":"기타 - 기계공구","category":"other"}]},{"lat":"37.357418964","long":"126.9601141","imageIndex":17,"items":[{"name":"한라정밀주식회사","tel":"031-452-9104","addr":"경기도 군포시 당정동 91-8번지","indutype":"전기제품 - 기타전기제품","category":"other"}]},{"lat":"37.342396565","long":"126.95378038","imageIndex":17,"items":[{"name":"한세이레서점","tel":"031-450-5348","addr":"경기도 군포시 당정동 604-5 한세대학교 본관3층","indutype":"서적문구 - 일반서적","category":"other"}]},{"lat":"37.348116716","long":"126.95072944","imageIndex":17,"items":[{"name":"한솔데이타(주)","tel":"031-427-0377","addr":"경기도 군포시 당정동 630-9번지","indutype":"사무통신 - 컴퓨터","category":"other"}]},{"lat":"37.352083659","long":"126.95667472","imageIndex":17,"items":[{"name":"한신기계","tel":"031-452-9504","addr":"경기도 군포시 당정동 415-6번지","indutype":"기타 - 기타 전문점","category":"other"}]},{"lat":"37.353533349","long":"126.9543149","imageIndex":17,"items":[{"name":"한진시험사출","tel":"031-857-6284","addr":"경기도 군포시 당정동 325-39번지","indutype":"기타 - 기타 전문점","category":"other"}]},{"lat":"37.365255007","long":"126.95300916","imageIndex":17,"items":[{"name":"핸디페어 안양호계1동점","tel":"031-429-8289","addr":"경기도 군포시 당정동 236-2번지 지층","indutype":"건축자재 - 인테리어전문","category":"other"}]},{"lat":"37.354535995","long":"126.96089454","imageIndex":17,"items":[{"name":"현대페인트","tel":"031-455-4343","addr":"경기도 군포시 당정동 108-9번지 1층","indutype":"건축자재 - 페인트","category":"other"}]},{"lat":"37.354200031","long":"126.95414516","imageIndex":17,"items":[{"name":"현진엔지니어링","tel":"031-451-1054","addr":"경기도 군포시 당정동 325-28번지 1층","indutype":"건축자재 - 보일러·펌프·샷시","category":"other"}]},{"lat":"37.365228288","long":"126.95375422","imageIndex":17,"items":[{"name":"화성공업","tel":"031-458-1727","addr":"경기도 군포시 당정동 231-40번지","indutype":"기타 - 기타 전문점","category":"other"}]},{"lat":"37.354091223","long":"126.95250864","imageIndex":17,"items":[{"name":"희성전자","tel":"031-455-4701","addr":"경기도 군포시 당정동 321-2","indutype":"전기제품 - 기타전기제품","category":"other"}]}]