[{"lat":"37.662045488","long":"126.78801335","imageIndex":7,"items":[{"name":"갤러리마트","tel":"031-919-1180","addr":"경기도 고양시 일산동구 마두동 880-9번지","indutype":"유통업 영리 - 슈퍼마켓","category":"mart"}]},{"lat":"37.660297973","long":"126.78821104","imageIndex":7,"items":[{"name":"두배로마트","tel":"031-904-0095","addr":"경기도 고양시 일산동구 마두동 915-2번지","indutype":"유통업 영리 - 슈퍼마켓","category":"mart"}]},{"lat":"37.665492271","long":"126.78587265","imageIndex":7,"items":[{"name":"두배로마트","tel":"031-901-1494","addr":"경기도 고양시 일산동구 마두동 831-8번지","indutype":"유통업 영리 - 슈퍼마켓","category":"mart"}]},{"lat":"37.66052073","long":"126.78685043","imageIndex":7,"items":[{"name":"마두24마트","tel":"031-905-5030","addr":"경기도 고양시 일산동구 마두동 913번지","indutype":"유통업 영리 - 슈퍼마켓","category":"mart"}]},{"lat":"37.658879859","long":"126.791207","imageIndex":7,"items":[{"name":"백마슈퍼","tel":"031-902-8407","addr":"경기도 고양시 일산동구 마두동 717번지 백마마을5단지아파트","indutype":"유통업 영리 - 슈퍼마켓","category":"mart"}]},{"lat":"37.664459921","long":"126.78792705","imageIndex":7,"items":[{"name":"파머후레쉬","tel":"031-901-1970","addr":"경기도 고양시 일산동구 마두동 890-1번지","indutype":"유통업 영리 - 슈퍼마켓","category":"mart"}]},{"lat":"37.666043439","long":"126.78673242","imageIndex":7,"items":[{"name":"팬시마트","tel":"031-902-8788","addr":"경기도 고양시 일산동구 마두동 829번지","indutype":"유통업 영리 - 슈퍼마켓","category":"mart"}]},{"lat":"37.661268218","long":"126.78667827","imageIndex":7,"items":[{"name":"힐링마트","tel":"031-903-0776","addr":"경기도 고양시 일산동구 마두동 907-7번지","indutype":"유통업 영리 - 슈퍼마켓","category":"mart"}]}]