[{"lat":"37.642219206","long":"126.78529454","imageIndex":7,"items":[{"name":"K할인마트(흰돌점)","tel":"031-911-6744","addr":"경기도 고양시 일산동구 백석동","indutype":"유통업 영리 - 슈퍼마켓","category":"mart"}]},{"lat":"37.649218442","long":"126.78459424","imageIndex":7,"items":[{"name":"금계슈퍼","tel":"031-000-0000","addr":"경기도 고양시 일산동구 백석동 1220-3번지","indutype":"유통업 영리 - 슈퍼마켓","category":"mart"}]},{"lat":"37.629937666","long":"126.78951054","imageIndex":7,"items":[{"name":"덕이상회","tel":"031-906-2922","addr":"경기도 고양시 일산동구 백석동 1120-52번지","indutype":"유통업 영리 - 슈퍼마켓","category":"mart"}]},{"lat":"37.645186473","long":"126.78210194","imageIndex":7,"items":[{"name":"신라할인마트","tel":"031-932-8289","addr":"경기도 고양시 일산동구 백석동 1425-11번지","indutype":"유통업 영리 - 슈퍼마켓","category":"mart"}]},{"lat":"37.649019874","long":"126.78440219","imageIndex":7,"items":[{"name":"아이스비어","tel":"","addr":"경기도 고양시 일산동구 백석동 1205번지","indutype":"유통업 영리 - 슈퍼마켓","category":"mart"}]},{"lat":"37.639321054","long":"126.78691183","imageIndex":7,"items":[{"name":"예스(YES)마트","tel":"031-901-2627","addr":"경기도 고양시 일산동구 백석동 1321번지","indutype":"유통업 영리 - 슈퍼마켓","category":"mart"}]},{"lat":"37.638826931","long":"126.78768369","imageIndex":7,"items":[{"name":"우리홈마트","tel":"031-932-5500","addr":"경기도 고양시 일산동구 백석동 1320번지","indutype":"유통업 영리 - 슈퍼마켓","category":"mart"}]},{"lat":"37.649802515","long":"126.79368036","imageIndex":7,"items":[{"name":"웰빙할인마트","tel":"031-909-7137","addr":"경기도 고양시 일산동구 백석동 1141-2번지","indutype":"유통업 영리 - 슈퍼마켓","category":"mart"}]},{"lat":"37.645687414","long":"126.78018555","imageIndex":7,"items":[{"name":"이전유통(일산)","tel":"031-905-8288","addr":"경기도 고양시 일산동구 백석동 1418-9번지","indutype":"유통업 영리 - 슈퍼마켓","category":"mart"}]},{"lat":"37.647184844","long":"126.79095691","imageIndex":7,"items":[{"name":"중앙할인마트","tel":"031-903-7611","addr":"경기도 고양시 일산동구 백석동 1180번지","indutype":"유통업 영리 - 슈퍼마켓","category":"mart"}]},{"lat":"37.646744007","long":"126.78634645","imageIndex":7,"items":[{"name":"진영마트","tel":"031-902-7265","addr":"경기도 고양시 일산동구 백석동 1277-2번지","indutype":"유통업 영리 - 슈퍼마켓","category":"mart"}]},{"lat":"37.648713295","long":"126.78918489","imageIndex":7,"items":[{"name":"코사마트백석2호점","tel":"031-902-2234","addr":"경기도 고양시 일산동구 백석동 1158번지","indutype":"유통업 영리 - 슈퍼마켓","category":"mart"}]},{"lat":"37.650156054","long":"126.79490317","imageIndex":7,"items":[{"name":"테크노 마트","tel":"031-901-4949","addr":"경기도 고양시 일산동구 백석동 1141-1번지","indutype":"유통업 영리 - 슈퍼마켓","category":"mart"}]},{"lat":"37.647940455","long":"126.78534584","imageIndex":7,"items":[{"name":"하나로마트","tel":"031-904-8004","addr":"경기도 고양시 일산동구 백석동 1208번지","indutype":"유통업 영리 - 슈퍼마켓","category":"mart"}]},{"lat":"37.639886499","long":"126.79068307","imageIndex":7,"items":[{"name":"현대마트","tel":"031-903-6688","addr":"경기도 고양시 일산동구 백석동 1301-2번지","indutype":"유통업 영리 - 슈퍼마켓","category":"mart"}]},{"lat":"37.631078168","long":"126.7874568","imageIndex":7,"items":[{"name":"현마트","tel":"031-906-6777","addr":"경기도 고양시 일산동구 백석동 1117-20번지","indutype":"유통업 영리 - 슈퍼마켓","category":"mart"}]},{"lat":"37.6434143","long":"126.78356882","imageIndex":7,"items":[{"name":"흰돌구판장","tel":"031-902-6755","addr":"경기도 고양시 일산동구 백석동","indutype":"유통업 영리 - 슈퍼마켓","category":"mart"},{"name":"흰돌마트","tel":"031-903-6579","addr":"경기도 고양시 일산동구 백석동","indutype":"유통업 영리 - 슈퍼마켓","category":"mart"}]},{"lat":"37.644269681","long":"126.77849019","imageIndex":7,"items":[{"name":"흰돌마트","tel":"031-904-2943","addr":"경기도 고양시 일산동구 백석동 1443-9번지","indutype":"유통업 영리 - 슈퍼마켓","category":"mart"}]}]