[{"lat":"37.166670354","long":"127.0944735","imageIndex":4,"items":[{"name":"가리찜","tel":"01-4433-9564","addr":"경기도 화성시 송동 704-14번지 1층","indutype":"일반휴게음식 - 일반한식","category":"restaurant"}]},{"lat":"37.16614389","long":"127.0993367","imageIndex":4,"items":[{"name":"고씨네GO김밥","tel":"031-7524-4343","addr":"경기도 화성시 송동 720-5번지 101호","indutype":"일반휴게음식 - 스넥","category":"restaurant"},{"name":"스시연","tel":"031-375-1173","addr":"경기도 화성시 송동 719-6번지 1층 전체","indutype":"일반휴게음식 - 일반한식","category":"restaurant"},{"name":"카페드단아한(동탄호수공원점)","tel":"031-377-6607","addr":"경기도 화성시 송동 720-2번지 1층 전체호","indutype":"일반휴게음식 - 서양음식","category":"restaurant"},{"name":"투썸플레이스 동탄호수공원점","tel":"031-375-7229","addr":"경기도 화성시 송동 720-1번지 1층","indutype":"일반휴게음식 - 서양음식","category":"restaurant"},{"name":"하슬라","tel":"031-377-1270","addr":"경기도 화성시 송동 719-6번지 1층 일부호","indutype":"일반휴게음식 - 서양음식","category":"restaurant"},{"name":"할리스커피 동탄호수공원점","tel":"031-373-5223","addr":"경기도 화성시 송동 720-4번지","indutype":"일반휴게음식 - 서양음식","category":"restaurant"}]},{"lat":"37.175746819","long":"127.10199507","imageIndex":4,"items":[{"name":"꼬마마녀매직슬라임카페","tel":"","addr":"경기도 화성시 송동 687-1번지 3층 311호","indutype":"일반휴게음식 - 서양음식","category":"restaurant"},{"name":"다온김치순대국","tel":"","addr":"경기도 화성시 송동 687-1번지 2층 213 ,214호","indutype":"일반휴게음식 - 일반한식","category":"restaurant"},{"name":"멕시카나","tel":"031-372-9994","addr":"경기도 화성시 송동 687-1번지 JJ프라자 1층 118호","indutype":"일반휴게음식 - 스넥","category":"restaurant"},{"name":"미향식당","tel":"031-377-7188","addr":"경기도 화성시 송동 687-1번지 JJ프라자 2층 210호","indutype":"일반휴게음식 - 일반한식","category":"restaurant"},{"name":"오남매분식","tel":"","addr":"경기도 화성시 송동 687-1번지 JJ프라자 1층 120호","indutype":"일반휴게음식 - 스넥","category":"restaurant"},{"name":"제이제이로열티하우스1","tel":"02-1577-0000","addr":"경기도 화성시 송동 687-1번지 1층 102호","indutype":"일반휴게음식 - 서양음식","category":"restaurant"}]},{"lat":"37.166858388","long":"127.09599369","imageIndex":4,"items":[{"name":"달보드레 호수공원점","tel":"031-374-6321","addr":"경기도 화성시 송동 703-15번지 1층","indutype":"일반휴게음식 - 서양음식","category":"restaurant"}]},{"lat":"37.165525443","long":"127.09522646","imageIndex":4,"items":[{"name":"동탄상회","tel":"031-374-4157","addr":"경기도 화성시 송동 712-5번지 1층 101호","indutype":"일반휴게음식 - 스넥","category":"restaurant"},{"name":"전주한식찌개뷔페","tel":"031-8050-8940","addr":"경기도 화성시 송동 714-7번지 1층 전체호","indutype":"일반휴게음식 - 일반한식","category":"restaurant"}]},{"lat":"37.166804449","long":"127.095836","imageIndex":4,"items":[{"name":"린13","tel":"031-373-5775","addr":"경기도 화성시 송동 704-16번지 1층","indutype":"일반휴게음식 - 중국식","category":"restaurant"}]},{"lat":"37.165449683","long":"127.0998312","imageIndex":4,"items":[{"name":"바이브","tel":"","addr":"경기도 화성시 송동 720-8번지 1층 일부호","indutype":"일반휴게음식 - 서양음식","category":"restaurant"},{"name":"쁘띠에든","tel":"","addr":"경기도 화성시 송동 720-7번지","indutype":"일반휴게음식 - 서양음식","category":"restaurant"},{"name":"셀렉토커피 동탄호수공원점","tel":"031-373-4931","addr":"경기도 화성시 송동 720-8번지 1층 일부호","indutype":"일반휴게음식 - 서양음식","category":"restaurant"},{"name":"작은프랑스","tel":"","addr":"경기도 화성시 송동 720-7번지 제이아크 1동 지하1층","indutype":"일반휴게음식 - 서양음식","category":"restaurant"}]},{"lat":"37.166526638","long":"127.09388787","imageIndex":4,"items":[{"name":"봉할매김치찌개","tel":"031-373-4836","addr":"경기도 화성시 송동 706-1번지","indutype":"일반휴게음식 - 일반한식","category":"restaurant"}]},{"lat":"37.165386996","long":"127.09935825","imageIndex":4,"items":[{"name":"브런치카페37.5","tel":"","addr":"경기도 화성시 송동 719-10번지 1층","indutype":"일반휴게음식 - 일반한식","category":"restaurant"},{"name":"하리온 KUSTOM COFFEE","tel":"031-372-1770","addr":"경기도 화성시 송동 720-11번지","indutype":"일반휴게음식 - 서양음식","category":"restaurant"}]},{"lat":"37.167029887","long":"127.0956111","imageIndex":4,"items":[{"name":"안성깍뚜기 동탄호수공원점","tel":"031-374-4455","addr":"경기도 화성시 송동 703-11번지","indutype":"일반휴게음식 - 일반한식","category":"restaurant"}]},{"lat":"37.165886897","long":"127.0938871","imageIndex":4,"items":[{"name":"오뚜기 식당","tel":"031-376-0208","addr":"경기도 화성시 송동 709-1번지 1층","indutype":"일반휴게음식 - 일반한식","category":"restaurant"}]},{"lat":"37.166553971","long":"127.09349384","imageIndex":4,"items":[{"name":"오페라빈","tel":"031-373-9813","addr":"경기도 화성시 송동 705-1번지 1층","indutype":"일반휴게음식 - 서양음식","category":"restaurant"}]},{"lat":"37.166948599","long":"127.0958587","imageIndex":4,"items":[{"name":"제이루스","tel":"","addr":"경기도 화성시 송동 703-12번지 1층 전체호","indutype":"일반휴게음식 - 일반한식","category":"restaurant"}]},{"lat":"37.16647109","long":"127.09580182","imageIndex":4,"items":[{"name":"카페르쌩크","tel":"031-376-5517","addr":"경기도 화성시 송동 712-1번지 1층 101호","indutype":"일반휴게음식 - 서양음식","category":"restaurant"}]},{"lat":"37.166057583","long":"127.09455158","imageIndex":4,"items":[{"name":"커피에반하다 동탄2호수마을점","tel":"","addr":"경기도 화성시 송동 708-4번지","indutype":"일반휴게음식 - 서양음식","category":"restaurant"}]},{"lat":"37.167084511","long":"127.09489059","imageIndex":4,"items":[{"name":"포레스트 PHOREST","tel":"031-374-6636","addr":"경기도 화성시 송동 703-10번지 1층 101호","indutype":"일반휴게음식 - 서양음식","category":"restaurant"}]},{"lat":"37.166471548","long":"127.09521635","imageIndex":4,"items":[{"name":"홍루이젠 동탄호수공원점","tel":"","addr":"경기도 화성시 송동 711-1번지 1층 103호","indutype":"일반휴게음식 - 서양음식","category":"restaurant"}]}]