[{"lat":"37.320267857","long":"127.64291844","imageIndex":16,"items":[{"name":"가정어린이집[아이행복]","tel":"031-885-1587","addr":"경기도 여주시 현암동 94-1번지 가정교회유아원","indutype":"학원 - 유아원","category":"study"}]},{"lat":"37.317576886","long":"127.63057652","imageIndex":16,"items":[{"name":"런키즈 엑티비티 스쿨","tel":"031-884-1191","addr":"경기도 여주시 현암동 586-8번지 1층","indutype":"학원 - 기타 교육기관","category":"study"}]},{"lat":"37.308771662","long":"127.64279842","imageIndex":16,"items":[{"name":"소현음악학원","tel":"031-882-0629","addr":"경기도 여주시 현암동 191-2번지 2층","indutype":"학원 - 예·체능계학원","category":"study"}]},{"lat":"37.313051966","long":"127.63936029","imageIndex":16,"items":[{"name":"아이편한어린이집[아이행복]","tel":"031-882-0220","addr":"경기도 여주시 현암동 684번지 이편한세상 105동 102호","indutype":"학원 - 유아원","category":"study"}]},{"lat":"37.305751846","long":"127.64139674","imageIndex":16,"items":[{"name":"이안미술교습소","tel":"031-883-5743","addr":"경기도 여주시 현암동 193-2번지 여성근로자연립","indutype":"회원제형태 - 학원","category":"study"}]},{"lat":"37.306049104","long":"127.64141053","imageIndex":16,"items":[{"name":"이안사랑어린이집[아이행복]","tel":"031-883-1347","addr":"경기도 여주시 현암동 193-2번지 여성근로자연립","indutype":"학원 - 유아원","category":"study"},{"name":"피아노스토리","tel":"031-881-5552","addr":"경기도 여주시 현암동 195번지 이안상가 201층","indutype":"학원 - 예·체능계학원","category":"study"}]},{"lat":"37.32065698","long":"127.64260585","imageIndex":16,"items":[{"name":"이조도예체험학습장","tel":"031-885-2108","addr":"경기도 여주시 현암동 94-4번지","indutype":"학원 - 기타 교육기관","category":"study"}]},{"lat":"37.31141283","long":"127.6375529","imageIndex":16,"items":[{"name":"작은천사어린이집[아이행복]","tel":"031-884-1279","addr":"경기도 여주시 현암동 303-10번지","indutype":"학원 - 유아원","category":"study"}]},{"lat":"37.308800155","long":"127.64085852","imageIndex":16,"items":[{"name":"잘풀리는아이","tel":"","addr":"경기도 여주시 현암동 191-38번지 여강맨숀 102호","indutype":"학원 - 기타 교육기관","category":"study"}]},{"lat":"37.312101434","long":"127.63683674","imageIndex":16,"items":[{"name":"하오하오 중국어교습소","tel":"","addr":"경기도 여주시 현암동 304번지","indutype":"학원 - 기타 교육기관","category":"study"}]},{"lat":"37.312604172","long":"127.63380651","imageIndex":16,"items":[{"name":"합기도대한연무관","tel":"031-886-6076","addr":"경기도 여주시 현암동 670-3번지 2층","indutype":"학원 - 예·체능계학원","category":"study"}]},{"lat":"37.30829604","long":"127.64244471","imageIndex":16,"items":[{"name":"현대미술학원","tel":"031-884-6766","addr":"경기도 여주시 현암동 191-6번지","indutype":"학원 - 예·체능계학원","category":"study"}]}]