[{"lat":"37.517707206","long":"127.14787235","imageIndex":0,"items":[{"name":"(주) 한일테크닉스_마들프라자","tel":"02-2202-7581","addr":"경기도 하남시 감북동 413-110번지 한일빌딩 3층","indutype":"자동차정비 유지 - 주차장","category":"car"},{"name":"(주)한일테크닉스_경서프라자","tel":"02-2202-7581","addr":"경기도 하남시 감북동 413-110번지 한일빌딩 3층","indutype":"자동차정비 유지 - 주차장","category":"car"},{"name":"(주)한일테크닉스_단디프라자","tel":"02-2202-7581","addr":"경기도 하남시 감북동 413-110번지 한일빌딩","indutype":"자동차정비 유지 - 주차장","category":"car"},{"name":"(주)한일테크닉스_리더스프라자","tel":"02-2202-7581","addr":"경기도 하남시 감북동 413-110번지 한일빌딩 3층","indutype":"자동차정비 유지 - 주차장","category":"car"},{"name":"(주)한일테크닉스_마곡GMG엘스타","tel":"02-2202-7581","addr":"경기도 하남시 감북동 413-110번지 한일빌딩","indutype":"자동차정비 유지 - 주차장","category":"car"},{"name":"(주)한일테크닉스_미림프라자","tel":"02-2202-7581","addr":"경기도 하남시 감북동 413-110번지 한일빌딩","indutype":"자동차정비 유지 - 주차장","category":"car"},{"name":"(주)한일테크닉스_반안프라자3","tel":"02-2202-7581","addr":"경기도 하남시 감북동 413-110번지 한일빌딩 3층","indutype":"자동차정비 유지 - 주차장","category":"car"},{"name":"(주)한일테크닉스_소하람1차 오피스텔","tel":"02-2202-7581","addr":"경기도 하남시 감북동 413-110번지 한일빌딩","indutype":"자동차정비 유지 - 주차장","category":"car"},{"name":"(주)한일테크닉스_스카이스퀘어3","tel":"02-2202-7581","addr":"경기도 하남시 감북동 413-110번지 한일빌딩 3층","indutype":"자동차정비 유지 - 주차장","category":"car"},{"name":"(주)한일테크닉스_신창프라자","tel":"02-2202-7581","addr":"경기도 하남시 감북동 413-110번지 한일빌딩","indutype":"자동차정비 유지 - 주차장","category":"car"},{"name":"(주)한일테크닉스_신해센트럴타워1","tel":"02-2202-7581","addr":"경기도 하남시 감북동 413-110번지 한일빌딩 3층","indutype":"자동차정비 유지 - 주차장","category":"car"},{"name":"(주)한일테크닉스_신해센트럴타워2","tel":"02-2202-7581","addr":"경기도 하남시 감북동 413-110번지 한일빌딩","indutype":"자동차정비 유지 - 주차장","category":"car"},{"name":"(주)한일테크닉스_에이스프라자","tel":"02-2202-7581","addr":"경기도 하남시 감북동 413-110번지 감북동,한일빌딩, 3층","indutype":"자동차정비 유지 - 주차장","category":"car"},{"name":"(주)한일테크닉스_유미어스2차 오피스텔","tel":"02-2202-7581","addr":"경기도 하남시 감북동 413-110번지 한일빌딩 3층","indutype":"자동차정비 유지 - 주차장","category":"car"},{"name":"(주)한일테크닉스_중일라크리움","tel":"02-2202-7581","addr":"경기도 하남시 감북동 413-110번지 한일빌딩","indutype":"자동차정비 유지 - 주차장","category":"car"},{"name":"(주)한일테크닉스_캠퍼스타운","tel":"02-2202-7581","addr":"경기도 하남시 감북동 413-110번지 한일빌딩 3층","indutype":"자동차정비 유지 - 주차장","category":"car"},{"name":"(주)한일테크닉스_클래시아 오르세움오피스","tel":"02-2202-7581","addr":"경기도 하남시 감북동 413-110번지 한일빌딩 3층","indutype":"자동차정비 유지 - 주차장","category":"car"},{"name":"(주)한일테크닉스_탄현신한헤센스마트","tel":"02-2202-7581","addr":"경기도 하남시 감북동 413-110번지 한일빌딩 3층","indutype":"자동차정비 유지 - 주차장","category":"car"},{"name":"(주)한일테크닉스_파워프라자","tel":"02-2202-7581","addr":"경기도 하남시 감북동 413-110번지 한일빌딩 3층","indutype":"자동차정비 유지 - 주차장","category":"car"}]},{"lat":"37.51990733","long":"127.15370218","imageIndex":0,"items":[{"name":"DreamTime(드림타임)","tel":"070-7594-0900","addr":"경기도 하남시 감북동 255-1번지 1층","indutype":"자동차정비 유지 - 자동차정비","category":"car"},{"name":"디카이거코리아(Dkiger Korea)","tel":"031-111-1111","addr":"경기도 하남시 감북동 255-1번지 2층","indutype":"자동차정비 유지 - 자동차부품","category":"car"}]},{"lat":"37.520736689","long":"127.16026477","imageIndex":0,"items":[{"name":"강동드라이브","tel":"02-470-1203","addr":"경기도 하남시 감북동 289-1번지 1층","indutype":"자동차정비 유지 - 자동차부품","category":"car"}]},{"lat":"37.517489771","long":"127.14884472","imageIndex":0,"items":[{"name":"광일주차시스템","tel":"02-470-2601","addr":"경기도 하남시 감북동 412-2번지 2층","indutype":"자동차정비 유지 - 주차장","category":"car"}]},{"lat":"37.515457368","long":"127.14570758","imageIndex":0,"items":[{"name":"국제자동차","tel":"","addr":"경기도 하남시 감북동 433-2번지","indutype":"자동차정비 유지 - 자동차정비","category":"car"},{"name":"오토크루","tel":"","addr":"경기도 하남시 감북동 433-2번지","indutype":"자동차정비 유지 - 자동차정비","category":"car"}]},{"lat":"37.521686148","long":"127.1576763","imageIndex":0,"items":[{"name":"대영공업사","tel":"02-488-5109","addr":"경기도 하남시 감북동 282-2번지","indutype":"자동차정비 유지 - 자동차정비","category":"car"},{"name":"대영타이어","tel":"02-488-5109","addr":"경기도 하남시 감북동 282-2번지","indutype":"자동차정비 유지 - 자동차시트·타이어","category":"car"}]},{"lat":"37.519206323","long":"127.1450134","imageIndex":0,"items":[{"name":"디와이(DY)모터스","tel":"02-6405-7205","addr":"경기도 하남시 감북동 449-9번지","indutype":"자동차정비 유지 - 자동차정비","category":"car"}]},{"lat":"37.516434578","long":"127.14967969","imageIndex":0,"items":[{"name":"리오닉스 송파","tel":"02-477-3277","addr":"경기도 하남시 감북동 404번지 1층","indutype":"자동차정비 유지 - 카인테리어","category":"car"}]},{"lat":"37.518935903","long":"127.15936736","imageIndex":0,"items":[{"name":"마일레 강동올림픽센터/(주)윤건스마트테크","tel":"02-485-8251","addr":"경기도 하남시 감북동 354-15번지 기백빌딩 1,2층","indutype":"자동차정비 유지 - 자동차정비","category":"car"}]},{"lat":"37.515128144","long":"127.15675787","imageIndex":0,"items":[{"name":"만수카서비스","tel":"02-475-9426","addr":"경기도 하남시 감북동 372-5번지","indutype":"자동차정비 유지 - 자동차정비","category":"car"}]},{"lat":"37.519485602","long":"127.14503655","imageIndex":0,"items":[{"name":"맵 포커스","tel":"070-8160-8979","addr":"경기도 하남시 감북동 449-4번지 1층","indutype":"자동차정비 유지 - 자동차부품","category":"car"}]},{"lat":"37.516488328","long":"127.14992865","imageIndex":0,"items":[{"name":"세종카센타","tel":"02-477-3305","addr":"경기도 하남시 감북동 403-5번지","indutype":"자동차정비 유지 - 자동차부품","category":"car"}]},{"lat":"37.516542935","long":"127.14948762","imageIndex":0,"items":[{"name":"신라Jeep","tel":"031-471-1823","addr":"경기도 하남시 감북동 405-11번지","indutype":"자동차정비 유지 - 자동차정비","category":"car"}]},{"lat":"37.520511714","long":"127.16006068","imageIndex":0,"items":[{"name":"신양카센타","tel":"02-487-7008","addr":"경기도 하남시 감북동 286-22번지","indutype":"자동차정비 유지 - 자동차정비","category":"car"}]},{"lat":"37.516823654","long":"127.14834572","imageIndex":0,"items":[{"name":"엘컴퍼니 (L-company)","tel":"070-4568-1687","addr":"경기도 하남시 감북동 417-12번지","indutype":"자동차정비 유지 - 자동차부품","category":"car"}]},{"lat":"37.518345849","long":"127.14873327","imageIndex":0,"items":[{"name":"오토라이브주식회사","tel":"02-469-6200","addr":"경기도 하남시 감북동 413-50번지 1층","indutype":"자동차정비 유지 - 자동차부품","category":"car"}]},{"lat":"37.515817255","long":"127.16028837","imageIndex":0,"items":[{"name":"천부장정밀","tel":"02-488-0886","addr":"경기도 하남시 감북동 343-4번지","indutype":"자동차정비 유지 - 자동차부품","category":"car"}]},{"lat":"37.525068038","long":"127.16206125","imageIndex":0,"items":[{"name":"최신특장","tel":"02-465-3245","addr":"경기도 하남시 감북동 39-1번지","indutype":"자동차판매 - 기타운송","category":"car"}]},{"lat":"37.51509487","long":"127.15462001","imageIndex":0,"items":[{"name":"타이어마트","tel":"02-475-2257","addr":"경기도 하남시 감북동 376-14번지","indutype":"자동차정비 유지 - 자동차시트·타이어","category":"car"}]},{"lat":"37.519963133","long":"127.15929033","imageIndex":0,"items":[{"name":"프로광택","tel":"070-4922-1261","addr":"경기도 하남시 감북동 346-12번지","indutype":"자동차정비 유지 - 카인테리어","category":"car"}]},{"lat":"37.51993466","long":"127.1603762","imageIndex":0,"items":[{"name":"픽스미스","tel":"02-474-0111","addr":"경기도 하남시 감북동 347번지","indutype":"자동차정비 유지 - 자동차부품","category":"car"}]},{"lat":"37.518846746","long":"127.15865454","imageIndex":0,"items":[{"name":"하남나비","tel":"02-476-5949","addr":"경기도 하남시 감북동 353-2번지 1층","indutype":"자동차정비 유지 - 자동차부품","category":"car"}]},{"lat":"37.51909932","long":"127.15842884","imageIndex":0,"items":[{"name":"한국오토미션","tel":"02-474-0505","addr":"경기도 하남시 감북동 351번지","indutype":"자동차정비 유지 - 자동차정비","category":"car"}]},{"lat":"37.516067852","long":"127.14750722","imageIndex":0,"items":[{"name":"한국타이어 서하남점","tel":"","addr":"경기도 하남시 감북동 437-2번지","indutype":"자동차정비 유지 - 자동차시트·타이어","category":"car"}]},{"lat":"37.520880742","long":"127.16034425","imageIndex":0,"items":[{"name":"현대카클리닉","tel":"02-474-4631","addr":"경기도 하남시 감북동 292-1번지","indutype":"자동차정비 유지 - 자동차정비","category":"car"}]}]