[{"lat":"37.511457904","long":"127.22644571","imageIndex":4,"items":[{"name":"The 쉼","tel":"02-1111-1111","addr":"경기도 하남시 하산곡동 312-4번지 1층","indutype":"일반휴게음식 - 서양음식","category":"restaurant"}]},{"lat":"37.520047055","long":"127.2250008","imageIndex":4,"items":[{"name":"검단동태찜","tel":"031-791-5044","addr":"경기도 하남시 하산곡동 166-24번지 1층","indutype":"일반휴게음식 - 일반한식","category":"restaurant"}]},{"lat":"37.519597286","long":"127.22461487","imageIndex":4,"items":[{"name":"검단반점","tel":"031-795-1475","addr":"경기도 하남시 하산곡동 176-4번지 1층","indutype":"일반휴게음식 - 중국식","category":"restaurant"}]},{"lat":"37.518957057","long":"127.22489576","imageIndex":4,"items":[{"name":"고향골 밥상","tel":"031-794-0290","addr":"경기도 하남시 하산곡동 173-5번지","indutype":"일반휴게음식 - 일반한식","category":"restaurant"}]},{"lat":"37.5108241","long":"127.22808383","imageIndex":4,"items":[{"name":"광희식당","tel":"031-795-7788","addr":"경기도 하남시 하산곡동 298번지","indutype":"일반휴게음식 - 일반한식","category":"restaurant"}]},{"lat":"37.524575303","long":"127.22697128","imageIndex":4,"items":[{"name":"길가온","tel":"031-793-1220","addr":"경기도 하남시 하산곡동 87-1번지","indutype":"일반휴게음식 - 서양음식","category":"restaurant"}]},{"lat":"37.521768022","long":"127.22970041","imageIndex":4,"items":[{"name":"꽃누리","tel":"031-796-4173","addr":"경기도 하남시 하산곡동 100-12번지","indutype":"일반휴게음식 - 중국식","category":"restaurant"},{"name":"꽃누리","tel":"031-796-4173","addr":"경기도 하남시 하산곡동 100-12번지","indutype":"일반휴게음식 - 중국식","category":"restaurant"}]},{"lat":"37.522184677","long":"127.22378543","imageIndex":4,"items":[{"name":"느티나무언덕","tel":"031-792-9266","addr":"경기도 하남시 하산곡동 72-6번지 2층","indutype":"일반휴게음식 - 스넥","category":"restaurant"}]},{"lat":"37.506242698","long":"127.23036594","imageIndex":4,"items":[{"name":"마이개러지카페","tel":"02-929-9005","addr":"경기도 하남시 하산곡동 339-12번지 2층","indutype":"일반휴게음식 - 서양음식","category":"restaurant"}]},{"lat":"37.511575824","long":"127.22602757","imageIndex":4,"items":[{"name":"산곡한우마을","tel":"031-791-5861","addr":"경기도 하남시 하산곡동 241-7번지","indutype":"일반휴게음식 - 일반한식","category":"restaurant"}]},{"lat":"37.522102338","long":"127.2244526","imageIndex":4,"items":[{"name":"샹하이","tel":"031-795-5257","addr":"경기도 하남시 하산곡동 74-24번지 선정빌딩 202호","indutype":"일반휴게음식 - 중국식","category":"restaurant"}]},{"lat":"37.504494722","long":"127.23039457","imageIndex":4,"items":[{"name":"서오릉다슬기해장국","tel":"031-793-5230","addr":"경기도 하남시 하산곡동 387-1번지","indutype":"일반휴게음식 - 일반한식","category":"restaurant"}]},{"lat":"37.504575658","long":"127.23047398","imageIndex":4,"items":[{"name":"오복식당","tel":"031-793-6572","addr":"경기도 하남시 하산곡동 387-5번지 외 1필지 1층","indutype":"일반휴게음식 - 일반한식","category":"restaurant"},{"name":"평창송어","tel":"031-794-7829","addr":"경기도 하남시 하산곡동 387-5번지 외1필지","indutype":"일반휴게음식 - 일식·회집","category":"restaurant"}]},{"lat":"37.502879906","long":"127.23145273","imageIndex":4,"items":[{"name":"오스테리아308(OSTERIA 308)","tel":"070-8834-6673","addr":"경기도 하남시 하산곡동 426-4번지","indutype":"일반휴게음식 - 서양음식","category":"restaurant"}]},{"lat":"37.511294763","long":"127.2269542","imageIndex":4,"items":[{"name":"자매식당","tel":"031-795-1885","addr":"경기도 하남시 하산곡동 313-18번지 1층","indutype":"일반휴게음식 - 일반한식","category":"restaurant"}]},{"lat":"37.506882354","long":"127.2303905","imageIndex":4,"items":[{"name":"자올","tel":"031-794-9595","addr":"경기도 하남시 하산곡동 346-1번지","indutype":"일반휴게음식 - 일반한식","category":"restaurant"}]},{"lat":"37.522101573","long":"127.22485983","imageIndex":4,"items":[{"name":"홍익돈까스 하남점","tel":"031-792-3581","addr":"경기도 하남시 하산곡동 75-5번지 1층","indutype":"일반휴게음식 - 서양음식","category":"restaurant"}]}]