[{"lat":"37.686017565","long":"126.86448008","imageIndex":16,"items":[{"name":"걸음동무","tel":"031-962-0966","addr":"경기도 고양시 덕양구 관산동 210-13번지 대도빌라","indutype":"학원 - 기타 교육기관","category":"study"}]},{"lat":"37.691930053","long":"126.86633984","imageIndex":16,"items":[{"name":"고양관산초등학교","tel":"031-969-8438","addr":"경기도 고양시 덕양구 관산동 995번지","indutype":"학원 - 초중고교육기관","category":"study"},{"name":"고양관산초등학교병설유치원[아이행복]","tel":"031-969-8438","addr":"경기도 고양시 덕양구 관산동 995번지","indutype":"학원 - 유치원","category":"study"}]},{"lat":"37.697130752","long":"126.85325683","imageIndex":16,"items":[{"name":"고양낙농치즈체험장","tel":"031-964-3057","addr":"경기도 고양시 덕양구 관산동 847-93번지","indutype":"학원 - 기타 교육기관","category":"study"}]},{"lat":"37.690292545","long":"126.86061735","imageIndex":16,"items":[{"name":"고양외국어고등학교","tel":"031-964-7475","addr":"경기도 고양시 덕양구 관산동 332번지","indutype":"학원 - 초중고교육기관","category":"study"},{"name":"고양외국어고등학교","tel":"031-964-7475","addr":"경기도 고양시 덕양구 관산동 332번지","indutype":"학원 - 초중고교육기관","category":"study"},{"name":"고양제일중학교","tel":"031-962-8392","addr":"경기도 고양시 덕양구 관산동 332번지","indutype":"학원 - 초중고교육기관","category":"study"}]},{"lat":"37.688433546","long":"126.86567735","imageIndex":16,"items":[{"name":"골드타임독서실","tel":"031-819-9090","addr":"경기도 고양시 덕양구 관산동 180-1번지","indutype":"학원 - 독서실","category":"study"}]},{"lat":"37.687767243","long":"126.86603003","imageIndex":16,"items":[{"name":"관산원어민해법중국어교습소","tel":"031-963-1698","addr":"경기도 고양시 덕양구 관산동 1015번지 더퍼스트프라임","indutype":"학원 - 외국어학원","category":"study"},{"name":"아라음악교습소","tel":"070-6550-7970","addr":"경기도 고양시 덕양구 관산동 1015번지 더퍼스트프라임","indutype":"학원 - 예·체능계학원","category":"study"},{"name":"프라임블럭파크","tel":"031-912-1253","addr":"경기도 고양시 덕양구 관산동 1015번지 더퍼스트프라임","indutype":"학원 - 기타 교육기관","category":"study"}]},{"lat":"37.6889644","long":"126.86506415","imageIndex":16,"items":[{"name":"관산한양발레학원","tel":"031-969-9935","addr":"경기도 고양시 덕양구 관산동 112-41번지","indutype":"학원 - 예·체능계학원","category":"study"}]},{"lat":"37.690269984","long":"126.86437014","imageIndex":16,"items":[{"name":"김쌤이랑학원","tel":"031-964-6008","addr":"경기도 고양시 덕양구 관산동 1005번지","indutype":"학원 - 기타 교육기관","category":"study"}]},{"lat":"37.691657916","long":"126.86475305","imageIndex":16,"items":[{"name":"다윗키즈어린이집[아이행복]","tel":"031-813-0467","addr":"경기도 고양시 덕양구 관산동 996번지 주공그린빌아파트","indutype":"학원 - 유아원","category":"study"}]},{"lat":"37.688933862","long":"126.86209381","imageIndex":16,"items":[{"name":"로니잉글리쉬학원","tel":"070-7794-7546","addr":"경기도 고양시 덕양구 관산동 231-55번지","indutype":"회원제형태 - 학원","category":"study"}]},{"lat":"37.690901983","long":"126.86550274","imageIndex":16,"items":[{"name":"로덴음악학원","tel":"031-964-2165","addr":"경기도 고양시 덕양구 관산동 1009번지","indutype":"학원 - 예·체능계학원","category":"study"},{"name":"새빛어린이집[아이행복]","tel":"031-964-7933","addr":"경기도 고양시 덕양구 관산동 1009번지","indutype":"학원 - 유아원","category":"study"},{"name":"한솔플러스관산수학교습소","tel":"031-965-0945","addr":"경기도 고양시 덕양구 관산동 1009번지","indutype":"회원제형태 - 학원","category":"study"}]},{"lat":"37.687046408","long":"126.86597467","imageIndex":16,"items":[{"name":"리더스학원","tel":"031-963-7888","addr":"경기도 고양시 덕양구 관산동 188-9번지","indutype":"학원 - 기타 교육기관","category":"study"}]},{"lat":"37.69027082","long":"126.86508441","imageIndex":16,"items":[{"name":"리틀캐나다관산점영어학원","tel":"031-969-1935","addr":"경기도 고양시 덕양구 관산동 113-2번지","indutype":"학원 - 보습학원","category":"study"}]},{"lat":"37.705352735","long":"126.85742473","imageIndex":16,"items":[{"name":"마로예쁜손피아노교습소","tel":"031-963-7495","addr":"경기도 고양시 덕양구 관산동 687-47번지","indutype":"학원 - 예·체능계학원","category":"study"},{"name":"마로학원","tel":"031-963-7495","addr":"경기도 고양시 덕양구 관산동 687-47번지","indutype":"학원 - 보습학원","category":"study"}]},{"lat":"37.69040558","long":"126.86475537","imageIndex":16,"items":[{"name":"명문학원","tel":"031-964-9100","addr":"경기도 고양시 덕양구 관산동 338-1번지","indutype":"회원제형태 - 학원","category":"study"},{"name":"아트앤하트 젬젬미술교습소","tel":"","addr":"경기도 고양시 덕양구 관산동 338-1번지","indutype":"학원 - 예·체능계학원","category":"study"},{"name":"용인대세심태권도장","tel":"031-963-0220","addr":"경기도 고양시 덕양구 관산동 338-1번지","indutype":"학원 - 예·체능계학원","category":"study"},{"name":"캐나다원어민YBM리딩클럽걸음동무영어수학","tel":"031-917-8316","addr":"경기도 고양시 덕양구 관산동 338-1번지","indutype":"학원 - 보습학원","category":"study"},{"name":"하모닉스음악학원","tel":"031-964-7776","addr":"경기도 고양시 덕양구 관산동 338-1번지","indutype":"회원제형태 - 학원","category":"study"}]},{"lat":"37.710706251","long":"126.8588999","imageIndex":16,"items":[{"name":"베리굿타일기술학원","tel":"031-968-2483","addr":"경기도 고양시 덕양구 관산동 668번지","indutype":"학원 - 기능학원","category":"study"}]},{"lat":"37.688790922","long":"126.86311444","imageIndex":16,"items":[{"name":"벽제중앙보습학원","tel":"031-964-1785","addr":"경기도 고양시 덕양구 관산동 231-11번지","indutype":"학원 - 보습학원","category":"study"},{"name":"벽제중앙음악학원","tel":"031-962-4404","addr":"경기도 고양시 덕양구 관산동 231-11번지","indutype":"학원 - 예·체능계학원","category":"study"},{"name":"선일컴퓨터교습소","tel":"031-963-2636","addr":"경기도 고양시 덕양구 관산동 231-11번지","indutype":"회원제형태 - 학원","category":"study"}]},{"lat":"37.707740149","long":"126.857318","imageIndex":16,"items":[{"name":"별초롱어린이집[아이행복]","tel":"031-964-9702","addr":"경기도 고양시 덕양구 관산동 684-3번지 동화빌라","indutype":"학원 - 유아원","category":"study"}]},{"lat":"37.692523766","long":"126.8655451","imageIndex":16,"items":[{"name":"빛누리어린이집[아이행복]","tel":"031-962-0155","addr":"경기도 고양시 덕양구 관산동 996번지 주공그린빌아파트","indutype":"학원 - 유아원","category":"study"}]},{"lat":"37.686880682","long":"126.86294797","imageIndex":16,"items":[{"name":"사랑어린이집[아이행복]","tel":"031-964-0905","addr":"경기도 고양시 덕양구 관산동 248-6번지","indutype":"학원 - 유아원","category":"study"}]},{"lat":"37.692830593","long":"126.86597538","imageIndex":16,"items":[{"name":"새롬독서논술","tel":"070-8183-2486","addr":"경기도 고양시 덕양구 관산동 996번지","indutype":"학원 - 기타 교육기관","category":"study"}]},{"lat":"37.688908316","long":"126.86334097","imageIndex":16,"items":[{"name":"생각하는수학페르마학원","tel":"031-971-9353","addr":"경기도 고양시 덕양구 관산동 231-12번지","indutype":"학원 - 보습학원","category":"study"},{"name":"페르마학원","tel":"031-971-9353","addr":"경기도 고양시 덕양구 관산동 231-12번지","indutype":"학원 - 보습학원","category":"study"}]},{"lat":"37.705517698","long":"126.85970373","imageIndex":16,"items":[{"name":"시립가장어린이집[아이행복]","tel":"031-963-8575","addr":"경기도 고양시 덕양구 관산동 541-24번지","indutype":"학원 - 유아원","category":"study"}]},{"lat":"37.688571851","long":"126.86842074","imageIndex":16,"items":[{"name":"시립관산어린이집[아이행복]","tel":"031-962-2155","addr":"경기도 고양시 덕양구 관산동 115-4번지","indutype":"학원 - 유아원","category":"study"}]},{"lat":"37.687461952","long":"126.86692623","imageIndex":16,"items":[{"name":"아이네오실용음악학원","tel":"031-962-8689","addr":"경기도 고양시 덕양구 관산동 178-29번지","indutype":"학원 - 예·체능계학원","category":"study"}]},{"lat":"37.688326679","long":"126.86675459","imageIndex":16,"items":[{"name":"에이펙스영어교습소","tel":"031-965-6922","addr":"경기도 고양시 덕양구 관산동 180-32번지","indutype":"회원제형태 - 학원","category":"study"},{"name":"은지피아노","tel":"031-964-0550","addr":"경기도 고양시 덕양구 관산동 180-32번지","indutype":"학원 - 예·체능계학원","category":"study"}]},{"lat":"37.705208262","long":"126.86464852","imageIndex":16,"items":[{"name":"연안중장비운전학원","tel":"031-969-6933","addr":"경기도 고양시 덕양구 관산동 47-1번지","indutype":"학원 - 기능학원","category":"study"}]},{"lat":"37.686767688","long":"126.86647402","imageIndex":16,"items":[{"name":"예그리나어린이집[아이행복]","tel":"031-969-4161","addr":"경기도 고양시 덕양구 관산동","indutype":"학원 - 유아원","category":"study"}]},{"lat":"37.690071732","long":"126.8643365","imageIndex":16,"items":[{"name":"예일어린이집[아이행복]","tel":"031-964-5631","addr":"경기도 고양시 덕양구 관산동 1006번지","indutype":"학원 - 유아원","category":"study"}]},{"lat":"37.688630061","long":"126.86422581","imageIndex":16,"items":[{"name":"오르비스관산학원","tel":"031-969-4276","addr":"경기도 고양시 덕양구 관산동 231-4번지","indutype":"학원 - 보습학원","category":"study"},{"name":"해동검도영웅관","tel":"031-962-4574","addr":"경기도 고양시 덕양구 관산동 231-4번지","indutype":"학원 - 예·체능계학원","category":"study"}]},{"lat":"37.68849212","long":"126.86186789","imageIndex":16,"items":[{"name":"윤선생영어교실","tel":"031-963-0550","addr":"경기도 고양시 덕양구 관산동 238-10번지","indutype":"학원 - 보습학원","category":"study"}]},{"lat":"37.706455533","long":"126.86039368","imageIndex":16,"items":[{"name":"이플어린이집[아이행복]","tel":"031-962-0054","addr":"경기도 고양시 덕양구 관산동 543-2번지","indutype":"학원 - 유아원","category":"study"}]},{"lat":"37.688431956","long":"126.86431687","imageIndex":16,"items":[{"name":"잉글리쉬무무관산제1학습관학원","tel":"031-969-9755","addr":"경기도 고양시 덕양구 관산동 229-3번지","indutype":"학원 - 보습학원","category":"study"}]},{"lat":"37.692234637","long":"126.86484268","imageIndex":16,"items":[{"name":"좋은열매어린이집[아이행복]","tel":"031-969-1547","addr":"경기도 고양시 덕양구 관산동 996번지 주공그린빌아파트","indutype":"학원 - 유아원","category":"study"}]},{"lat":"37.688320911","long":"126.86184554","imageIndex":16,"items":[{"name":"준성자연어린이집","tel":"031-963-1776","addr":"경기도 고양시 덕양구 관산동 238-15번지","indutype":"학원 - 유아원","category":"study"},{"name":"준성자연어린이집[아이행복]","tel":"031-963-1776","addr":"경기도 고양시 덕양구 관산동 238-15번지","indutype":"학원 - 유아원","category":"study"}]},{"lat":"37.687987351","long":"126.86167612","imageIndex":16,"items":[{"name":"준성자연유치원","tel":"031-962-8222","addr":"경기도 고양시 덕양구 관산동 246-3번지 준성아파트","indutype":"학원 - 유치원","category":"study"},{"name":"준성자연유치원[아이행복]","tel":"031-962-8222","addr":"경기도 고양시 덕양구 관산동","indutype":"학원 - 유치원","category":"study"}]},{"lat":"37.704957165","long":"126.85811723","imageIndex":16,"items":[{"name":"청운태권도체육관","tel":"031-969-1217","addr":"경기도 고양시 덕양구 관산동 540-87번지","indutype":"학원 - 예·체능계학원","category":"study"}]},{"lat":"37.69087531","long":"126.86580891","imageIndex":16,"items":[{"name":"충무태권도장","tel":"031-969-8145","addr":"경기도 고양시 덕양구 관산동 1011번지","indutype":"학원 - 예·체능계학원","category":"study"}]},{"lat":"37.689432608","long":"126.86481386","imageIndex":16,"items":[{"name":"타이거태권도장","tel":"031-969-1020","addr":"경기도 고양시 덕양구 관산동 114번지","indutype":"학원 - 예·체능계학원","category":"study"}]},{"lat":"37.688271241","long":"126.86556428","imageIndex":16,"items":[{"name":"프린스턴영재교육학원","tel":"031-963-9800","addr":"경기도 고양시 덕양구 관산동 179-7번지","indutype":"학원 - 기타 교육기관","category":"study"}]},{"lat":"37.710289033","long":"126.85664392","imageIndex":16,"items":[{"name":"하람어린이집[아이행복]","tel":"031-963-7477","addr":"경기도 고양시 덕양구 관산동","indutype":"학원 - 유아원","category":"study"}]},{"lat":"37.690271125","long":"126.86534518","imageIndex":16,"items":[{"name":"한울유치원[아이행복]","tel":"031-964-6705","addr":"경기도 고양시 덕양구 관산동 113-3번지","indutype":"학원 - 유치원","category":"study"}]},{"lat":"37.690352238","long":"126.8653677","imageIndex":16,"items":[{"name":"한울음악학원","tel":"031-969-2088","addr":"경기도 고양시 덕양구 관산동 113-1번지","indutype":"학원 - 예·체능계학원","category":"study"}]}]