[{"lat":"37.332644122","long":"127.10097087","imageIndex":0,"items":[{"name":"(주)비아이밸류","tel":"031-1661-0343","addr":"경기도 용인시 수지구 풍덕천동 672-2번지 금정빌딩 201호","indutype":"자동차정비 유지 - 자동차부품","category":"car"}]},{"lat":"37.330401045","long":"127.10041507","imageIndex":0,"items":[{"name":"(주)수지삼일자동차공업사","tel":"031-272-3131","addr":"경기도 용인시 수지구 풍덕천동 9-1번지","indutype":"자동차정비 유지 - 자동차정비","category":"car"},{"name":"삼일커먼레일","tel":"031-265-8810","addr":"경기도 용인시 수지구 풍덕천동 9-1번지","indutype":"자동차정비 유지 - 자동차부품","category":"car"}]},{"lat":"37.330535722","long":"127.1009907","imageIndex":0,"items":[{"name":"(주)현대삼일자동차공업사","tel":"031-272-3700","addr":"경기도 용인시 수지구 풍덕천동 55번지","indutype":"자동차정비 유지 - 자동차정비","category":"car"},{"name":"삼일차사랑","tel":"031-262-5974","addr":"경기도 용인시 수지구 풍덕천동 55번지","indutype":"자동차정비 유지 - 카인테리어","category":"car"}]},{"lat":"37.322428166","long":"127.09901707","imageIndex":0,"items":[{"name":"AKUNA","tel":"031-272-6765","addr":"경기도 용인시 수지구 풍덕천동 104-4번지 1층","indutype":"자동차정비 유지 - 자동차부품","category":"car"},{"name":"쉐보레수지대리점","tel":"031-262-0798","addr":"경기도 용인시 수지구 풍덕천동 104-4번지","indutype":"자동차판매 - 국산신차판매","category":"car"}]},{"lat":"37.330536883","long":"127.09958028","imageIndex":0,"items":[{"name":"GM대우수지바로정비공업사","tel":"031-351-8255","addr":"경기도 용인시 수지구 풍덕천동 9-14번지","indutype":"자동차정비 유지 - 자동차정비","category":"car"}]},{"lat":"37.325788175","long":"127.09999166","imageIndex":0,"items":[{"name":"SK모터스","tel":"031-896-1636","addr":"경기도 용인시 수지구 풍덕천동 732-5번지","indutype":"자동차판매 - 이륜차판매","category":"car"}]},{"lat":"37.333261918","long":"127.09460764","imageIndex":0,"items":[{"name":"SOS성원카서비스","tel":"031-262-1451","addr":"경기도 용인시 수지구 풍덕천동 661-12번지","indutype":"자동차정비 유지 - 자동차정비","category":"car"}]},{"lat":"37.324868354","long":"127.1009382","imageIndex":0,"items":[{"name":"YG모터스","tel":"031-266-4440","addr":"경기도 용인시 수지구 풍덕천동 69-53번지 1층","indutype":"자동차정비 유지 - 세차장","category":"car"}]},{"lat":"37.315401807","long":"127.08491804","imageIndex":0,"items":[{"name":"e편한세상시티수지관리위원회","tel":"031-898-3700","addr":"경기도 용인시 수지구 풍덕천동 1209번지 오피스텔 1014호","indutype":"자동차정비 유지 - 주차장","category":"car"}]},{"lat":"37.33131197","long":"127.09932176","imageIndex":0,"items":[{"name":"강남카센타","tel":"031-261-3891","addr":"경기도 용인시 수지구 풍덕천동 681번지","indutype":"자동차정비 유지 - 자동차정비","category":"car"}]},{"lat":"37.332039886","long":"127.10163582","imageIndex":0,"items":[{"name":"광.코팅세차","tel":"031-477-7507","addr":"경기도 용인시 수지구 풍덕천동 676-10번지 202호","indutype":"자동차정비 유지 - 세차장","category":"car"}]},{"lat":"37.323175423","long":"127.09974008","imageIndex":0,"items":[{"name":"광성자동차","tel":"031-263-0533","addr":"경기도 용인시 수지구 풍덕천동 96-3번지 1층","indutype":"자동차정비 유지 - 자동차정비","category":"car"},{"name":"수지샤인셀프세차장","tel":"031-1111-1111","addr":"경기도 용인시 수지구 풍덕천동 96-3번지 1층","indutype":"자동차정비 유지 - 세차장","category":"car"}]},{"lat":"37.315568302","long":"127.09143871","imageIndex":0,"items":[{"name":"금호세차장","tel":"031-276-1997","addr":"경기도 용인시 수지구 풍덕천동 1150-2번지","indutype":"자동차정비 유지 - 세차장","category":"car"}]},{"lat":"37.330985422","long":"127.10196166","imageIndex":0,"items":[{"name":"길덴트","tel":"031-264-0933","addr":"경기도 용인시 수지구 풍덕천동 684-4번지 1층","indutype":"자동차정비 유지 - 가타자동차서비스","category":"car"}]},{"lat":"37.331345659","long":"127.10216523","imageIndex":0,"items":[{"name":"대성오토랜드","tel":"031-261-1051","addr":"경기도 용인시 수지구 풍덕천동 683-5번지","indutype":"자동차정비 유지 - 자동차부품","category":"car"}]},{"lat":"37.33220207","long":"127.10163603","imageIndex":0,"items":[{"name":"대영상사","tel":"031-714-1522","addr":"경기도 용인시 수지구 풍덕천동 676-8번지","indutype":"자동차정비 유지 - 자동차정비","category":"car"}]},{"lat":"37.330985281","long":"127.10213091","imageIndex":0,"items":[{"name":"더 채움(THE CHAEUM)","tel":"031-896-0100","addr":"경기도 용인시 수지구 풍덕천동 684-5번지 1층","indutype":"자동차정비 유지 - 카인테리어","category":"car"}]},{"lat":"37.314094006","long":"127.08680053","imageIndex":0,"items":[{"name":"동글이셀프세차장","tel":"031-276-4434","addr":"경기도 용인시 수지구 풍덕천동 561-2번지","indutype":"자동차정비 유지 - 세차장","category":"car"},{"name":"수지 자동차공업사","tel":"031-266-5003","addr":"경기도 용인시 수지구 풍덕천동 561-2번지","indutype":"자동차정비 유지 - 자동차정비","category":"car"},{"name":"에스피(sp)덴트샵(#)","tel":"031-897-7282","addr":"경기도 용인시 수지구 풍덕천동 561-2번지","indutype":"자동차정비 유지 - 카인테리어","category":"car"}]},{"lat":"37.330950805","long":"127.10024653","imageIndex":0,"items":[{"name":"동일자동차유리","tel":"031-263-7144","addr":"경기도 용인시 수지구 풍덕천동 685번지","indutype":"자동차정비 유지 - 자동차부품","category":"car"}]},{"lat":"37.323014749","long":"127.09787831","imageIndex":0,"items":[{"name":"디알오토(DR AUTO)","tel":"031-272-7531","addr":"경기도 용인시 수지구 풍덕천동 723-2번지 1층","indutype":"자동차정비 유지 - 자동차정비","category":"car"},{"name":"미래카센타","tel":"031-263-7282","addr":"경기도 용인시 수지구 풍덕천동 723-2","indutype":"자동차정비 유지 - 자동차정비","category":"car"}]},{"lat":"37.330950302","long":"127.10085584","imageIndex":0,"items":[{"name":"매일카센타","tel":"031-261-1403","addr":"경기도 용인시 수지구 풍덕천동 685-4번지","indutype":"자동차정비 유지 - 자동차정비","category":"car"}]},{"lat":"37.326372294","long":"127.10185406","imageIndex":0,"items":[{"name":"매직터치수지점","tel":"031-276-0276","addr":"경기도 용인시 수지구 풍덕천동 743-1번지","indutype":"자동차정비 유지 - 가타자동차서비스","category":"car"}]},{"lat":"37.322787178","long":"127.10072114","imageIndex":0,"items":[{"name":"모빌원 죽전점","tel":"031-889-3114","addr":"경기도 용인시 수지구 풍덕천동 85-19번지 , 1,2층","indutype":"자동차정비 유지 - 자동차부품","category":"car"}]},{"lat":"37.314761152","long":"127.08624851","imageIndex":0,"items":[{"name":"뮤즈카오디오","tel":"031-265-0282","addr":"경기도 용인시 수지구 풍덕천동 556-11번지","indutype":"자동차정비 유지 - 자동차부품","category":"car"}]},{"lat":"37.330535441","long":"127.1013292","imageIndex":0,"items":[{"name":"반도","tel":"031-263-4370","addr":"경기도 용인시 수지구 풍덕천동 53번지","indutype":"자동차정비 유지 - 자동차시트·타이어","category":"car"}]},{"lat":"37.330951129","long":"127.09985161","imageIndex":0,"items":[{"name":"부광차유리","tel":"031-226-5204","addr":"경기도 용인시 수지구 풍덕천동 686-4번지 1층","indutype":"자동차정비 유지 - 자동차부품","category":"car"}]},{"lat":"37.317760967","long":"127.08707536","imageIndex":0,"items":[{"name":"붕붕카","tel":"031-263-1119","addr":"경기도 용인시 수지구 풍덕천동 1116-1번지","indutype":"자동차정비 유지 - 자동차정비","category":"car"}]},{"lat":"37.325597908","long":"127.10126635","imageIndex":0,"items":[{"name":"상운상사","tel":"031-262-3990","addr":"경기도 용인시 수지구 풍덕천동 71-123번지 102호","indutype":"자동차정비 유지 - 자동차부품","category":"car"}]},{"lat":"37.32503411","long":"127.09652695","imageIndex":0,"items":[{"name":"송운기업","tel":"031-262-8662","addr":"경기도 용인시 수지구 풍덕천동 709-6번지","indutype":"자동차정비 유지 - 주차장","category":"car"}]},{"lat":"37.322645104","long":"127.0981599","imageIndex":0,"items":[{"name":"수지24시셀프세차장","tel":"031-266-0311","addr":"경기도 용인시 수지구 풍덕천동 723-4번지","indutype":"자동차정비 유지 - 세차장","category":"car"},{"name":"현대공업사","tel":"031-266-0151","addr":"경기도 용인시 수지구 풍덕천동 723-4번지","indutype":"자동차정비 유지 - 자동차정비","category":"car"}]},{"lat":"37.326259701","long":"127.09626897","imageIndex":0,"items":[{"name":"수지로노상주차장","tel":"","addr":"경기도 용인시 수지구 풍덕천동 782번지","indutype":"자동차정비 유지 - 주차장","category":"car"}]},{"lat":"37.32489573","long":"127.10052078","imageIndex":0,"items":[{"name":"수지오토바이센타","tel":"031-262-0508","addr":"경기도 용인시 수지구 풍덕천동 69-91번지","indutype":"자동차판매 - 이륜차판매","category":"car"}]},{"lat":"37.330985536","long":"127.10182626","imageIndex":0,"items":[{"name":"수지자동차","tel":"031-272-0224","addr":"경기도 용인시 수지구 풍덕천동 684-3번지 상가 1층","indutype":"자동차정비 유지 - 카인테리어","category":"car"}]},{"lat":"37.315737098","long":"127.08210941","imageIndex":0,"items":[{"name":"수지제2에너지","tel":"031-266-0039","addr":"경기도 용인시 수지구 풍덕천동 1035번지","indutype":"자동차정비 유지 - 자동차부품","category":"car"},{"name":"오토오아시스 수지점","tel":"031-261-2901","addr":"경기도 용인시 수지구 풍덕천동 1035번지","indutype":"자동차정비 유지 - 자동차부품","category":"car"}]},{"lat":"37.324733388","long":"127.10071238","imageIndex":0,"items":[{"name":"수지카오토샵","tel":"031-261-5150","addr":"경기도 용인시 수지구 풍덕천동 69-54번지","indutype":"자동차정비 유지 - 자동차부품","category":"car"}]},{"lat":"37.324625172","long":"127.10082506","imageIndex":0,"items":[{"name":"수지현대모터스","tel":"031-266-0951","addr":"경기도 용인시 수지구 풍덕천동 69-51번지","indutype":"자동차정비 유지 - 자동차정비","category":"car"}]},{"lat":"37.330950666","long":"127.10041578","imageIndex":0,"items":[{"name":"순정품배터리할인매장","tel":"031-272-5882","addr":"경기도 용인시 수지구 풍덕천동 685-1번지 101호","indutype":"자동차정비 유지 - 자동차부품","category":"car"}]},{"lat":"37.323008171","long":"127.09479826","imageIndex":0,"items":[{"name":"스팀박스","tel":"","addr":"경기도 용인시 수지구 풍덕천동 1078번지 4층","indutype":"자동차정비 유지 - 세차장","category":"car"}]},{"lat":"37.314231133","long":"127.08396918","imageIndex":0,"items":[{"name":"신정빌딩","tel":"","addr":"경기도 용인시 수지구 풍덕천동 579-3번지","indutype":"자동차정비 유지 - 주차장","category":"car"}]},{"lat":"37.324867215","long":"127.10230338","imageIndex":0,"items":[{"name":"아이카(i car)","tel":"02-1599-9272","addr":"경기도 용인시 수지구 풍덕천동 939번지 1층","indutype":"자동차정비 유지 - 자동차부품","category":"car"}]},{"lat":"37.325922527","long":"127.10096214","imageIndex":0,"items":[{"name":"애니수지","tel":"031-262-9400","addr":"경기도 용인시 수지구 풍덕천동 731번지 401호","indutype":"자동차정비 유지 - 자동차정비","category":"car"},{"name":"오토오아시스 수지중앙점","tel":"031-262-9400","addr":"경기도 용인시 수지구 풍덕천동 731번지","indutype":"자동차정비 유지 - 자동차정비","category":"car"}]},{"lat":"37.323375129","long":"127.09791261","imageIndex":0,"items":[{"name":"열린자동차공업사","tel":"031-261-6451","addr":"경기도 용인시 수지구 풍덕천동 722-11번지","indutype":"자동차정비 유지 - 자동차정비","category":"car"}]},{"lat":"37.332815315","long":"127.1009711","imageIndex":0,"items":[{"name":"오섬코퍼레이션","tel":"031-1577-4966","addr":"경기도 용인시 수지구 풍덕천동 672-1번지 광교대중목욕탕 303호","indutype":"자동차정비 유지 - 자동차부품","category":"car"}]},{"lat":"37.331760731","long":"127.10144363","imageIndex":0,"items":[{"name":"오이엠파츠","tel":"031-274-5588","addr":"경기도 용인시 수지구 풍덕천동 676-5번지 상가 1층","indutype":"자동차정비 유지 - 자동차부품","category":"car"}]},{"lat":"37.328287649","long":"127.09543653","imageIndex":0,"items":[{"name":"오토오아시스 수지풍덕천점","tel":"031-262-9933","addr":"경기도 용인시 수지구 풍덕천동 33-2번지","indutype":"자동차정비 유지 - 자동차정비","category":"car"}]},{"lat":"37.331652034","long":"127.10213179","imageIndex":0,"items":[{"name":"오퍼튜니티카스킨스튜디오(Opportunity Car","tel":"070-7776-4001","addr":"경기도 용인시 수지구 풍덕천동 675-14번지 1층상가","indutype":"자동차정비 유지 - 자동차부품","category":"car"}]},{"lat":"37.324013546","long":"127.09952679","imageIndex":0,"items":[{"name":"유성자동차공업사","tel":"031-262-6700","addr":"경기도 용인시 수지구 풍덕천동 69-78번지 스톤빌","indutype":"자동차정비 유지 - 자동차정비","category":"car"}]},{"lat":"37.33095124","long":"127.09971621","imageIndex":0,"items":[{"name":"인덕상사","tel":"031-263-2581","addr":"경기도 용인시 수지구 풍덕천동 686-3번지 인덕상사","indutype":"자동차정비 유지 - 자동차부품","category":"car"}]},{"lat":"37.32337586","long":"127.09699875","imageIndex":0,"items":[{"name":"자동차병원","tel":"031-262-7742","addr":"경기도 용인시 수지구 풍덕천동 718-11번지","indutype":"자동차정비 유지 - 자동차정비","category":"car"}]},{"lat":"37.332454908","long":"127.10097063","imageIndex":0,"items":[{"name":"자동차사랑방","tel":"031-266-0523","addr":"경기도 용인시 수지구 풍덕천동 672-3번지","indutype":"자동차정비 유지 - 자동차부품","category":"car"}]},{"lat":"37.316507831","long":"127.088078","imageIndex":0,"items":[{"name":"정평자동차공업사","tel":"031-265-2579","addr":"경기도 용인시 수지구 풍덕천동 1120-4번지","indutype":"자동차정비 유지 - 자동차정비","category":"car"}]},{"lat":"37.324593789","long":"127.09502584","imageIndex":0,"items":[{"name":"주식회사 현성","tel":"02-0000-0000","addr":"경기도 용인시 수지구 풍덕천동 706-4번지","indutype":"자동차정비 유지 - 주차장","category":"car"}]},{"lat":"37.330924505","long":"127.09935511","imageIndex":0,"items":[{"name":"준 덴트","tel":"031-262-3816","addr":"경기도 용인시 수지구 풍덕천동 686번지 1층","indutype":"자동차정비 유지 - 카인테리어","category":"car"}]},{"lat":"37.331562347","long":"127.10163519","imageIndex":0,"items":[{"name":"지오오토바이","tel":"031-263-6714","addr":"경기도 용인시 수지구 풍덕천동 676.15/","indutype":"자동차판매 - 이륜차판매","category":"car"}]},{"lat":"37.32731808","long":"127.10219378","imageIndex":0,"items":[{"name":"차고치기좋은날","tel":"031-266-1505","addr":"경기도 용인시 수지구 풍덕천동 740-7번지","indutype":"자동차정비 유지 - 자동차정비","category":"car"}]},{"lat":"37.322868185","long":"127.10082278","imageIndex":0,"items":[{"name":"탑클래스","tel":"031-262-5647","addr":"경기도 용인시 수지구 풍덕천동 85-13번지 1층","indutype":"자동차정비 유지 - 자동차부품","category":"car"}]},{"lat":"37.332842877","long":"127.10032796","imageIndex":0,"items":[{"name":"탑포지션(TopPosition)","tel":"031-262-8022","addr":"경기도 용인시 수지구 풍덕천동 669-9번지","indutype":"자동차정비 유지 - 자동차부품","category":"car"}]},{"lat":"37.326625228","long":"127.10107588","imageIndex":0,"items":[{"name":"파워모터스","tel":"031-715-5010","addr":"경기도 용인시 수지구 풍덕천동 735-3번지","indutype":"자동차정비 유지 - 자동차정비","category":"car"}]},{"lat":"37.322922768","long":"127.10019105","imageIndex":0,"items":[{"name":"파워밧데리","tel":"031-263-5414","addr":"경기도 용인시 수지구 풍덕천동 102-7번지","indutype":"자동차정비 유지 - 자동차부품","category":"car"}]},{"lat":"37.325386887","long":"127.09476731","imageIndex":0,"items":[{"name":"팬더스팀세차","tel":"","addr":"경기도 용인시 수지구 풍덕천동 700-1번지 현대아파트","indutype":"자동차정비 유지 - 자동차정비","category":"car"}]},{"lat":"37.32287045","long":"127.09804736","imageIndex":0,"items":[{"name":"퍼포먼스팩토리","tel":"070-4212-6363","addr":"경기도 용인시 수지구 풍덕천동 723-3번지","indutype":"자동차정비 유지 - 자동차부품","category":"car"}]},{"lat":"37.331841247","long":"127.10213203","imageIndex":0,"items":[{"name":"풍덕천루마선팅","tel":"031-261-2266","addr":"경기도 용인시 수지구 풍덕천동 675-12번지","indutype":"자동차정비 유지 - 카인테리어","category":"car"}]},{"lat":"37.322430956","long":"127.09551961","imageIndex":0,"items":[{"name":"하나로주차관리","tel":"031-266-6556","addr":"경기도 용인시 수지구 풍덕천동 1080-9번지 하나로프라자","indutype":"자동차정비 유지 - 주차장","category":"car"}]},{"lat":"37.331979683","long":"127.09813783","imageIndex":0,"items":[{"name":"한국모터샵","tel":"031-263-5788","addr":"경기도 용인시 수지구 풍덕천동 665-9번지 1층","indutype":"자동차판매 - 이륜차판매","category":"car"}]},{"lat":"37.324617569","long":"127.09911012","imageIndex":0,"items":[{"name":"한성자동차공업사","tel":"031-264-9546","addr":"경기도 용인시 수지구 풍덕천동 729-11번지","indutype":"자동차정비 유지 - 자동차정비","category":"car"}]},{"lat":"37.323535628","long":"127.09998876","imageIndex":0,"items":[{"name":"형제세차","tel":"031-261-2971","addr":"경기도 용인시 수지구 풍덕천동 89-19번지 월드빌1","indutype":"자동차정비 유지 - 세차장","category":"car"}]}]