[{"lat":"37.267657332","long":"126.99150654","imageIndex":7,"items":[{"name":"굿모닝마트","tel":"031-292-2005","addr":"경기도 수원시 권선구 서둔동 45-13번지 1층","indutype":"유통업 영리 - 슈퍼마켓","category":"mart"}]},{"lat":"37.266630375","long":"126.99403203","imageIndex":7,"items":[{"name":"금강마트","tel":"031-293-2636","addr":"경기도 수원시 권선구 서둔동 17-65번지","indutype":"유통업 영리 - 슈퍼마켓","category":"mart"}]},{"lat":"37.269205898","long":"126.98253205","imageIndex":7,"items":[{"name":"금강상회","tel":"031-297-2438","addr":"경기도 수원시 권선구 서둔동 97-57번지","indutype":"유통업 영리 - 슈퍼마켓","category":"mart"}]},{"lat":"37.268045063","long":"126.9950578","imageIndex":7,"items":[{"name":"금강홈마트","tel":"031-298-8599","addr":"경기도 수원시 권선구 서둔동 371번지 센트라우스 상가동 1층 101호","indutype":"유통업 영리 - 슈퍼마켓","category":"mart"}]},{"lat":"37.270990327","long":"126.98495558","imageIndex":7,"items":[{"name":"금곡쇼핑","tel":"031-291-8638","addr":"경기도 수원시 권선구 서둔동 201-2번지","indutype":"유통업 영리 - 슈퍼마켓","category":"mart"}]},{"lat":"37.266044503","long":"126.99164207","imageIndex":7,"items":[{"name":"대흥슈퍼","tel":"031-291-2080","addr":"경기도 수원시 권선구 서둔동 17-383번지","indutype":"유통업 영리 - 슈퍼마켓","category":"mart"}]},{"lat":"37.266594113","long":"126.99145034","imageIndex":7,"items":[{"name":"새진흥슈퍼","tel":"031-296-3307","addr":"경기도 수원시 권선구 서둔동 42-15번지","indutype":"유통업 영리 - 슈퍼마켓","category":"mart"}]},{"lat":"37.26262978","long":"126.99370558","imageIndex":7,"items":[{"name":"서둔상회","tel":"031-292-5582","addr":"경기도 수원시 권선구 서둔동 17-126번지","indutype":"유통업 영리 - 슈퍼마켓","category":"mart"}]},{"lat":"37.28104476","long":"126.9790897","imageIndex":7,"items":[{"name":"성일마트","tel":"031-292-4329","addr":"경기도 수원시 권선구 서둔동 361-1번지 성일아파트 상가동 1층 3호","indutype":"유통업 영리 - 슈퍼마켓","category":"mart"}]},{"lat":"37.265071413","long":"126.99186769","imageIndex":7,"items":[{"name":"송이할인마트","tel":"031-293-2898","addr":"경기도 수원시 권선구 서둔동 17-242번지 1층","indutype":"유통업 영리 - 슈퍼마켓","category":"mart"}]},{"lat":"37.260349585","long":"126.98792287","imageIndex":7,"items":[{"name":"싼마트","tel":"031-278-7337","addr":"경기도 수원시 권선구 서둔동 79-9번지 오토콜렉션 1층 103호","indutype":"유통업 영리 - 슈퍼마켓","category":"mart"}]},{"lat":"37.264963047","long":"126.98951153","imageIndex":7,"items":[{"name":"애플마트(APPLE마트)","tel":"031-293-0960","addr":"경기도 수원시 권선구 서둔동 27-49번지 서호파크","indutype":"유통업 영리 - 슈퍼마켓","category":"mart"}]},{"lat":"37.264098356","long":"126.9924766","imageIndex":7,"items":[{"name":"착한정육마트","tel":"031-292-0040","addr":"경기도 수원시 권선구 서둔동 33-4번지","indutype":"유통업 영리 - 슈퍼마켓","category":"mart"}]},{"lat":"37.268901004","long":"126.9945391","imageIndex":7,"items":[{"name":"햇살할인마트","tel":"070-8260-3322","addr":"경기도 수원시 권선구 서둔동 17-160번지","indutype":"유통업 영리 - 슈퍼마켓","category":"mart"}]}]