[{"lat":"37.708466294","long":"127.11929112","imageIndex":8,"items":[{"name":"365치과의원","tel":"031-849-2755","addr":"경기도 남양주시 별내면 청학리 413-3번지 삼화빌딩 202호","indutype":"의원 - 치과의원","category":"medical"},{"name":"사랑동물병원","tel":"032-848-8575","addr":"경기도 남양주시 별내면 청학리 413-3번지 삼화빌딩","indutype":"기타의료기관 - 동물병원","category":"medical"}]},{"lat":"37.708884143","long":"127.11578757","imageIndex":8,"items":[{"name":"그래미의원","tel":"031-848-4593","addr":"경기도 남양주시 별내면 청학리 448-2번지 2층","indutype":"의원 - 의원","category":"medical"},{"name":"나무한의원","tel":"031-843-1075","addr":"경기도 남양주시 별내면 청학리 448-2번지 1층","indutype":"의원 - 한의원","category":"medical"}]},{"lat":"37.707574512","long":"127.11911962","imageIndex":8,"items":[{"name":"마상인내과의원","tel":"031-841-0338","addr":"경기도 남양주시 별내면 청학리 418-3번지 금강프라자 303호","indutype":"의원 - 의원","category":"medical"},{"name":"청학현대치과의원","tel":"031-821-2879","addr":"경기도 남양주시 별내면 청학리 418-3번지 금강종합쇼핑센터 305호","indutype":"의원 - 치과의원","category":"medical"}]},{"lat":"37.708575856","long":"127.11781704","imageIndex":8,"items":[{"name":"별내우리이비인후과","tel":"031-838-3131","addr":"경기도 남양주시 별내면 청학리 414번지 주공프라자 202호","indutype":"의원 - 의원","category":"medical"},{"name":"청학한마음약국","tel":"031-823-7575","addr":"경기도 남양주시 별내면 청학리 414번지 주공프라자 101호","indutype":"약국 - 약국","category":"medical"}]},{"lat":"37.708602375","long":"127.11833874","imageIndex":8,"items":[{"name":"별내편한내과의원","tel":"031-845-7181","addr":"경기도 남양주시 별내면 청학리 413번지 청화빌딩 4층","indutype":"의원 - 의원","category":"medical"},{"name":"해밀소아청소년과의원","tel":"031-856-7582","addr":"경기도 남양주시 별내면 청학리 413번지 청화빌딩 201호","indutype":"의원 - 의원","category":"medical"}]},{"lat":"37.708883664","long":"127.11628655","imageIndex":8,"items":[{"name":"청학신플란트치과의원","tel":"031-847-1575","addr":"경기도 남양주시 별내면 청학리 450번지 태곡빌딩 4층","indutype":"의원 - 치과의원","category":"medical"}]},{"lat":"37.709101486","long":"127.11461983","imageIndex":8,"items":[{"name":"청학제일의원","tel":"031-841-7585","addr":"경기도 남양주시 별내면 청학리 461-8번지","indutype":"의원 - 의원","category":"medical"}]},{"lat":"37.70827347","long":"127.11370002","imageIndex":8,"items":[{"name":"청학치과","tel":"031-821-5800","addr":"경기도 남양주시 별내면 청학리 473-6번지 주공프라자 203호","indutype":"의원 - 치과의원","category":"medical"}]},{"lat":"37.708520687","long":"127.11895099","imageIndex":8,"items":[{"name":"해모아한의원","tel":"031-848-9128","addr":"경기도 남양주시 별내면 청학리 413-2번지 성현빌딩 A호 201","indutype":"의원 - 한의원","category":"medical"}]}]